passes_logs/2026/01/19/T1/T1__20260119_234128_SUOMI_NPP_rec.log

#Pass ID: 20260119_234128_SUOMI NPP
#Satellite: SUOMI NPP
#Configuration: NPP
#almurnet v.1.7.20251203
#Start time: 2026-01-19 23:41:29

#Version: 2.0.20230620
#Station: T1
#Location: 37.570604 lon 55.790049 lat
#TLE: 1 37849U 11061A   26019.26265094  .00000081  00000+0  59609-4 0  9993
#TLE: 2 37849  98.7817 321.2746 0002356  56.2510 303.8890 14.19526363737315

#Time	Az	El	Level	Level2	SNR	BER	BlckErr	Temp	State	Recorded	gain1	gain2
2026-01-19 23:41:29.11	16.91	5.05	-49.5	-65.2	3.8	1.49e+00	0	37	0	0	69	23452
2026-01-19 23:41:33.16	16.94	5.34	-49.5	-65.1	3.8	1.49e+00	0	37	104	0	70	21986
2026-01-19 23:41:37.16	16.97	5.63	-49.5	-65.0	3.8	1.49e+00	0	37	104	0	70	21717
2026-01-19 23:41:41.23	17.01	5.93	-49.5	-65.0	3.8	1.49e+00	0	37	104	0	70	21706
2026-01-19 23:41:45.47	17.04	6.25	-49.5	-65.1	3.8	1.49e+00	0	37	104	0	70	21942
2026-01-19 23:41:49.51	17.08	6.55	-49.5	-65.0	3.8	1.49e+00	0	37	104	0	70	21644
2026-01-19 23:41:53.48	17.11	6.85	-49.4	-64.6	3.8	1.49e+00	0	38	104	0	70	20768
2026-01-19 23:41:57.45	17.15	7.15	-49.4	-63.8	3.8	1.49e+00	0	38	104	0	70	18945
2026-01-19 23:42:01.43	17.18	7.46	-49.4	-62.9	3.8	1.49e+00	0	38	104	0	70	16924
2026-01-19 23:42:05.50	17.22	7.78	-49.3	-62.1	3.9	1.43e+00	0	38	104	0	70	15485
2026-01-19 23:42:09.54	17.25	8.10	-49.1	-60.4	4.6	1.03e+00	0	38	0	2097152	70	12687
2026-01-19 23:42:13.52	17.29	8.42	-48.8	-58.1	5.9	4.13e-01	0	38	0	10485760	69	10382
2026-01-19 23:42:17.50	17.32	8.75	-48.3	-55.6	8.2	6.56e-02	0	38	0	17825792	68	8218
2026-01-19 23:42:21.49	17.36	9.08	-48.1	-54.9	8.9	1.68e-02	0	38	0	25165824	68	7572
2026-01-19 23:42:25.50	17.40	9.42	-45.6	-49.3	14.5	4.83e-04	0	38	0	31457280	63	5302
2026-01-19 23:42:29.55	17.44	9.76	-46.5	-50.9	12.9	1.19e-04	0	39	0	38797312	65	5670
2026-01-19 23:42:33.53	17.47	10.10	-45.6	-49.1	14.8	7.00e-07	0	39	0	47185920	63	5197
2026-01-19 23:42:37.58	17.51	10.46	-45.5	-48.9	15.0	0.00e+00	0	38	0	54525952	62	5379
2026-01-19 23:42:41.57	17.55	10.81	-44.9	-48.0	15.9	0.00e+00	0	39	0	61865984	61	5125
2026-01-19 23:42:45.55	17.59	11.17	-44.4	-47.4	16.5	0.00e+00	0	39	0	69206016	60	5042
2026-01-19 23:42:49.54	17.63	11.53	-44.1	-46.9	16.9	0.00e+00	0	39	0	76546048	60	4797
2026-01-19 23:42:53.55	17.68	11.91	-44.0	-46.7	17.2	0.00e+00	0	39	0	83886080	59	4942
2026-01-19 23:42:57.56	17.72	12.28	-43.7	-46.3	17.6	0.00e+00	0	39	0	92274688	59	4716
2026-01-19 23:43:01.57	17.76	12.67	-43.5	-46.0	17.8	0.00e+00	0	39	0	99614720	59	4581
2026-01-19 23:43:05.58	17.80	13.06	-43.5	-46.1	17.8	0.00e+00	0	39	0	106954752	58	4879
2026-01-19 23:43:09.69	17.85	13.46	-43.5	-46.1	17.8	0.00e+00	0	39	0	114294784	58	4875
2026-01-19 23:43:13.80	17.89	13.87	-43.4	-45.9	18.0	0.00e+00	0	39	0	122683392	58	4783
2026-01-19 23:43:17.89	17.94	14.29	-43.3	-45.8	18.1	0.00e+00	0	39	0	130023424	58	4713
2026-01-19 23:43:21.87	17.99	14.71	-43.4	-45.9	17.9	0.00e+00	0	39	0	137363456	58	4809
2026-01-19 23:43:25.85	18.03	15.13	-43.3	-45.7	18.2	0.00e+00	0	39	0	144703488	58	4695
2026-01-19 23:43:29.83	18.08	15.56	-43.1	-45.6	18.3	0.00e+00	0	39	0	152043520	58	4632
2026-01-19 23:43:33.81	18.13	15.99	-43.2	-45.7	18.2	0.00e+00	0	39	0	159383552	58	4677
2026-01-19 23:43:37.78	18.18	16.43	-42.9	-45.4	18.5	0.00e+00	0	39	0	167772160	57	4785
2026-01-19 23:43:41.92	18.23	16.91	-43.0	-45.6	18.3	0.00e+00	0	39	0	175112192	57	4873
2026-01-19 23:43:45.95	18.28	17.37	-43.2	-45.7	18.2	0.00e+00	0	39	0	182452224	57	4971
2026-01-19 23:43:50.00	18.34	17.85	-43.5	-46.1	17.9	0.00e+00	0	39	0	189792256	57	5172
2026-01-19 23:43:53.98	18.39	18.33	-43.8	-46.4	17.5	0.00e+00	0	39	0	198180864	58	5095
2026-01-19 23:43:57.96	18.45	18.82	-43.8	-46.5	17.5	0.00e+00	0	39	0	205520896	58	5153
2026-01-19 23:44:01.94	18.50	19.32	-44.1	-46.8	17.2	0.00e+00	0	39	0	212860928	58	5339
2026-01-19 23:44:05.92	18.56	19.83	-44.2	-47.0	17.1	0.00e+00	0	39	0	220200960	59	5143
2026-01-19 23:44:09.90	18.62	20.35	-44.5	-47.5	16.6	0.00e+00	0	39	0	227540992	59	5415
2026-01-19 23:44:13.92	18.68	20.88	-44.6	-47.8	16.4	0.00e+00	0	39	0	234881024	60	5281
2026-01-19 23:44:17.90	18.74	21.43	-44.8	-48.0	16.2	0.00e+00	0	39	0	242221056	60	5403
2026-01-19 23:44:21.88	18.81	21.98	-44.6	-47.7	16.5	0.00e+00	0	39	0	249561088	60	5228
2026-01-19 23:44:25.86	18.87	22.55	-44.8	-47.9	16.3	0.00e+00	0	39	0	256901120	60	5385
2026-01-19 23:44:29.95	18.94	23.14	-45.0	-48.1	16.1	0.00e+00	0	39	0	265289728	60	5501
2026-01-19 23:44:33.87	19.01	23.73	-45.1	-48.2	16.1	0.00e+00	0	39	0	272629760	61	5240
2026-01-19 23:44:37.85	19.08	24.33	-44.7	-47.7	16.5	0.00e+00	0	39	0	279969792	61	4942
2026-01-19 23:44:41.83	19.16	24.96	-44.6	-47.5	16.7	0.00e+00	0	39	0	287309824	61	4822
2026-01-19 23:44:45.83	19.24	25.60	-44.5	-47.3	16.9	0.00e+00	0	39	0	294649856	60	4995
2026-01-19 23:44:49.81	19.31	26.25	-44.0	-46.6	17.6	0.00e+00	0	39	0	301989888	59	4904
2026-01-19 23:44:53.78	19.40	26.92	-43.7	-46.4	17.8	0.00e+00	0	39	0	309329920	59	4762
2026-01-19 23:44:57.76	19.48	27.60	-44.0	-46.7	17.4	0.00e+00	0	39	0	317718528	59	4974
2026-01-19 23:45:01.79	19.57	28.31	-43.9	-46.6	17.6	0.00e+00	0	39	0	325058560	59	4871
2026-01-19 23:45:05.90	19.66	29.06	-43.9	-46.5	17.7	0.00e+00	0	39	0	332398592	58	5111
2026-01-19 23:45:09.88	19.76	29.80	-44.2	-46.9	17.3	0.00e+00	0	39	0	339738624	59	5078
2026-01-19 23:45:13.87	19.86	30.56	-44.3	-47.0	17.2	0.00e+00	0	39	0	347078656	59	5132
2026-01-19 23:45:17.85	19.96	31.34	-44.7	-47.5	16.8	0.00e+00	0	39	0	354418688	60	5101
2026-01-19 23:45:21.83	20.06	32.15	-45.5	-48.7	15.6	0.00e+00	0	39	0	362807296	61	5560
2026-01-19 23:45:25.81	20.18	32.97	-46.2	-49.8	14.5	1.50e-06	0	39	0	370147328	63	5624
2026-01-19 23:45:29.79	20.29	33.82	-46.2	-49.8	14.5	7.00e-07	0	39	0	377487360	63	5648
2026-01-19 23:45:33.77	20.41	34.69	-46.0	-49.5	14.9	0.00e+00	0	39	0	384827392	63	5454
2026-01-19 23:45:37.78	20.54	35.60	-44.7	-47.7	16.6	0.00e+00	0	39	0	392167424	61	4973
2026-01-19 23:45:41.79	20.68	36.53	-44.0	-46.6	17.7	0.00e+00	0	39	0	399507456	59	4926
2026-01-19 23:45:45.79	20.82	37.49	-43.1	-45.5	18.6	0.00e+00	0	39	0	406847488	58	4559
2026-01-19 23:45:50.04	20.98	38.53	-42.7	-45.0	19.0	0.00e+00	0	39	0	415236096	56	4840
2026-01-19 23:45:54.02	21.14	39.54	-42.7	-44.9	19.1	0.00e+00	0	39	0	422576128	56	4807
2026-01-19 23:45:58.00	21.31	40.58	-43.5	-46.0	18.2	0.00e+00	0	39	0	429916160	58	4822
2026-01-19 23:46:01.98	21.48	41.66	-44.2	-46.8	17.5	0.00e+00	0	39	0	437256192	59	4990
2026-01-19 23:46:05.96	21.67	42.76	-43.7	-46.1	18.1	0.00e+00	0	39	0	444596224	59	4632
2026-01-19 23:46:09.93	21.88	43.89	-43.7	-46.1	18.1	0.00e+00	0	39	0	452984832	58	4906
2026-01-19 23:46:13.99	22.10	45.09	-44.3	-46.9	17.4	0.00e+00	0	39	0	460324864	59	5089
2026-01-19 23:46:17.97	22.33	46.30	-45.6	-48.9	15.6	0.00e+00	0	39	0	467664896	61	5666
2026-01-19 23:46:21.96	22.58	47.54	-45.9	-49.2	15.3	0.00e+00	0	40	0	475004928	63	5239
2026-01-19 23:46:25.97	22.85	48.83	-45.2	-48.2	16.2	0.00e+00	0	39	0	482344960	61	5271
2026-01-19 23:46:29.95	23.14	50.15	-43.4	-45.7	18.5	0.00e+00	0	39	0	489684992	58	4696
2026-01-19 23:46:33.93	23.46	51.51	-42.0	-44.1	19.8	0.00e+00	0	39	0	497025024	55	4614
2026-01-19 23:46:37.90	23.80	52.90	-43.0	-45.4	18.8	0.00e+00	0	39	0	505413632	57	4766
2026-01-19 23:46:42.00	24.20	54.38	-42.5	-44.7	19.4	0.00e+00	0	39	0	512753664	56	4685
2026-01-19 23:46:45.98	24.62	55.85	-41.6	-43.7	20.1	0.00e+00	0	39	0	520093696	54	4662
2026-01-19 23:46:49.96	25.08	57.37	-41.6	-43.7	20.2	0.00e+00	0	39	0	527433728	54	4692
2026-01-19 23:46:53.94	25.60	58.92	-41.9	-44.1	19.8	0.00e+00	0	39	0	534773760	54	4880
2026-01-19 23:46:58.02	26.21	60.56	-42.0	-44.1	19.8	0.00e+00	0	39	0	543162368	54	4900
2026-01-19 23:47:02.00	26.87	62.19	-41.5	-43.6	20.2	0.00e+00	0	39	0	550502400	55	4346
2026-01-19 23:47:05.98	27.63	63.86	-41.1	-43.1	20.6	0.00e+00	0	39	0	557842432	53	4624
2026-01-19 23:47:09.96	28.51	65.57	-43.3	-45.7	18.5	0.00e+00	0	39	0	565182464	57	4928
2026-01-19 23:47:14.00	29.54	67.33	-44.0	-46.6	17.7	0.00e+00	0	39	0	572522496	58	5177
2026-01-19 23:47:18.03	30.77	69.12	-46.2	-49.6	14.8	0.00e+00	0	39	0	579862528	63	5517
2026-01-19 23:47:22.12	32.27	70.96	-45.5	-48.4	15.9	0.00e+00	0	39	0	588251136	63	4797
2026-01-19 23:47:26.26	34.14	72.84	-43.3	-45.6	18.6	0.00e+00	0	39	0	595591168	58	4632
2026-01-19 23:47:30.47	36.53	74.76	-43.7	-46.2	18.1	0.00e+00	0	40	0	603979776	58	4947
2026-01-19 23:47:34.82	39.76	76.75	-44.4	-47.1	17.2	0.00e+00	0	39	0	611319808	59	5168
2026-01-19 23:47:38.82	43.75	78.55	-45.8	-49.0	15.6	0.00e+00	0	39	0	618659840	62	5414
2026-01-19 23:47:42.81	49.22	80.29	-46.4	-49.9	14.7	0.00e+00	0	39	0	627048448	63	5696
2026-01-19 23:47:46.79	56.99	81.91	-44.3	-47.0	17.4	0.00e+00	0	39	0	634388480	60	4819
2026-01-19 23:47:51.11	69.59	83.44	-41.4	-43.5	20.2	0.00e+00	0	39	0	641728512	55	4301
2026-01-19 23:47:55.08	86.55	84.43	-42.2	-44.4	19.4	0.00e+00	0	39	0	650117120	55	4807
2026-01-19 23:47:59.08	108.24	84.78	-40.0	-41.9	21.6	0.00e+00	0	39	0	657457152	51	4494
2026-01-19 23:48:03.06	129.48	84.35	-41.2	-43.2	20.5	0.00e+00	0	39	0	664797184	54	4411
2026-01-19 23:48:07.04	145.88	83.30	-42.6	-44.8	19.2	0.00e+00	0	40	0	672137216	55	5012
2026-01-19 23:48:11.02	157.17	81.87	-46.2	-49.8	14.5	0.00e+00	0	39	0	679477248	64	5299
2026-01-19 23:48:14.99	164.85	80.24	-45.4	-48.4	16.0	0.00e+00	0	39	0	686817280	61	5387
2026-01-19 23:48:18.97	170.26	78.51	-47.1	-51.3	12.9	1.17e-04	0	39	0	694157312	65	5967
2026-01-19 23:48:22.95	174.20	76.71	-46.0	-49.3	15.1	1.50e-06	0	39	0	701497344	63	5300
2026-01-19 23:48:26.92	177.18	74.90	-44.4	-47.0	17.5	0.00e+00	0	39	0	709885952	59	5102
2026-01-19 23:48:30.90	179.50	73.08	-48.6	-54.6	9.9	1.98e-03	0	39	0	717225984	67	7725
2026-01-19 23:48:34.88	181.36	71.26	-47.6	-52.2	12.1	1.40e-04	0	39	0	724566016	66	6213
2026-01-19 23:48:39.08	182.94	69.36	-44.2	-46.8	17.4	0.00e+00	0	39	0	731906048	60	4736
2026-01-19 23:48:43.12	184.20	67.56	-44.9	-47.8	16.6	0.00e+00	0	39	0	740294656	60	5295
2026-01-19 23:48:47.12	185.26	65.81	-43.7	-46.2	18.0	0.00e+00	0	39	0	747634688	58	4949
2026-01-19 23:48:51.24	186.18	64.04	-43.5	-46.0	18.3	0.00e+00	0	39	0	754974720	57	5129
2026-01-19 23:48:55.22	186.95	62.36	-41.7	-43.8	20.1	0.00e+00	0	39	0	762314752	55	4448
2026-01-19 23:48:59.24	187.64	60.70	-47.1	-51.3	13.1	0.00e+00	0	39	0	769654784	64	6302
2026-01-19 23:49:03.22	188.23	59.10	-44.0	-46.5	17.8	0.00e+00	0	39	0	776994816	59	4838
2026-01-19 23:49:07.21	188.76	57.53	-45.4	-48.5	15.9	0.00e+00	0	39	0	785383424	61	5404
2026-01-19 23:49:11.27	189.24	55.97	-43.8	-46.3	18.0	0.00e+00	0	39	0	792723456	58	5004
2026-01-19 23:49:15.25	189.67	54.49	-43.6	-46.0	18.2	0.00e+00	0	39	0	800063488	57	5158
2026-01-19 23:49:19.24	190.05	53.04	-42.9	-45.2	19.0	0.00e+00	0	39	0	807403520	57	4660
2026-01-19 23:49:23.23	190.40	51.63	-45.3	-48.5	15.9	0.00e+00	0	39	0	814743552	61	5412
2026-01-19 23:49:27.35	190.73	50.21	-44.3	-47.0	17.3	0.00e+00	0	39	0	823132160	60	4859
2026-01-19 23:49:31.47	191.04	48.84	-46.2	-49.6	14.6	0.00e+00	0	39	0	830472192	63	5521
2026-01-19 23:49:35.45	191.31	47.56	-43.0	-45.3	18.8	0.00e+00	0	39	0	837812224	57	4711
2026-01-19 23:49:39.47	191.56	46.29	-43.3	-45.7	18.5	0.00e+00	0	39	0	845152256	57	4940
2026-01-19 23:49:43.57	191.80	45.04	-44.6	-47.5	16.8	0.00e+00	0	39	0	853540864	60	5119
2026-01-19 23:49:47.81	192.03	43.79	-41.1	-43.1	20.6	0.00e+00	0	39	0	860880896	54	4359
2026-01-19 23:49:51.78	192.22	42.65	-43.5	-45.9	18.3	0.00e+00	0	39	0	868220928	57	5051
2026-01-19 23:49:55.76	192.41	41.55	-46.0	-49.5	14.8	7.00e-07	0	39	0	875560960	63	5410
2026-01-19 23:49:59.74	192.59	40.47	-42.3	-44.5	19.4	0.00e+00	0	39	0	883949568	55	4841
2026-01-19 23:50:03.72	192.76	39.43	-45.9	-49.1	15.3	0.00e+00	0	39	0	891289600	62	5507
2026-01-19 23:50:07.70	192.91	38.42	-49.3	-57.1	7.4	1.00e-01	0	39	0	898629632	69	9253
2026-01-19 23:50:11.69	193.06	37.43	-46.3	-49.8	14.4	4.95e-05	0	39	0	905969664	64	5311
2026-01-19 23:50:15.67	193.20	36.47	-43.7	-46.1	18.0	0.00e+00	0	40	0	913309696	58	4913
2026-01-19 23:50:19.84	193.34	35.50	-47.4	-51.6	12.7	2.97e-05	0	39	0	920649728	65	6181
2026-01-19 23:50:24.06	193.47	34.55	-49.0	-55.8	8.4	5.70e-02	0	39	0	929038336	69	7953
2026-01-19 23:50:28.07	193.59	33.67	-47.6	-52.5	11.6	1.48e-03	0	40	0	936378368	67	6107
2026-01-19 23:50:32.02	193.71	32.82	-46.9	-51.0	13.2	7.60e-06	0	39	0	943718400	65	5751
2026-01-19 23:50:36.00	193.82	31.99	-45.5	-48.7	15.7	0.00e+00	0	39	0	951058432	63	4969
2026-01-19 23:50:39.98	193.92	31.19	-44.9	-47.8	16.5	0.00e+00	0	39	0	958398464	61	5023
2026-01-19 23:50:43.96	194.02	30.41	-45.0	-47.9	16.3	0.00e+00	0	39	0	966787072	61	5089
2026-01-19 23:50:47.94	194.12	29.64	-46.6	-50.5	13.8	1.50e-06	0	39	0	974127104	63	6107
2026-01-19 23:50:52.02	194.21	28.88	-47.3	-51.9	12.3	3.45e-04	0	39	0	981467136	65	6393
2026-01-19 23:50:56.00	194.30	28.16	-45.0	-48.0	16.2	0.00e+00	0	39	0	988807168	62	4836
2026-01-19 23:50:59.98	194.39	27.45	-43.4	-45.8	18.2	0.00e+00	0	39	0	996147200	58	4747
2026-01-19 23:51:03.96	194.47	26.77	-43.4	-45.7	18.3	0.00e+00	0	40	0	1003487232	58	4699
2026-01-19 23:51:07.97	194.55	26.09	-43.5	-45.9	18.1	0.00e+00	0	39	0	1011875840	58	4808
2026-01-19 23:51:11.94	194.63	25.44	-43.2	-45.5	18.5	0.00e+00	0	39	0	1019215872	58	4594
2026-01-19 23:51:15.92	194.70	24.80	-43.1	-45.5	18.5	0.00e+00	0	39	0	1026555904	57	4821
2026-01-19 23:51:19.90	194.77	24.18	-43.0	-45.3	18.6	0.00e+00	0	39	0	1033895936	57	4733
2026-01-19 23:51:23.90	194.84	23.57	-42.8	-45.1	18.8	0.00e+00	0	39	0	1041235968	57	4630
2026-01-19 23:51:27.88	194.91	22.97	-42.8	-45.2	18.7	0.00e+00	0	40	0	1048576000	57	4655
2026-01-19 23:51:32.08	194.98	22.36	-42.4	-44.7	19.1	0.00e+00	0	40	0	1056964608	56	4673
2026-01-19 23:51:36.04	195.04	21.79	-41.8	-44.0	19.6	0.00e+00	0	39	0	1064304640	55	4558
2026-01-19 23:51:40.02	195.10	21.24	-42.1	-44.3	19.3	0.00e+00	0	39	0	1071644672	55	4749
2026-01-19 23:51:44.07	195.16	20.69	-43.3	-45.9	18.1	0.00e+00	0	39	0	1078984704	57	5045
2026-01-19 23:51:48.05	195.22	20.15	-44.1	-46.8	17.2	0.00e+00	0	39	0	1086324736	58	5324
2026-01-19 23:51:52.03	195.28	19.63	-44.3	-47.2	16.9	0.00e+00	0	39	0	1093664768	59	5230
2026-01-19 23:51:56.01	195.33	19.12	-44.3	-47.3	16.8	0.00e+00	0	39	0	1101004800	59	5283
2026-01-19 23:51:59.99	195.38	18.62	-44.3	-47.2	16.8	0.00e+00	0	39	0	1109393408	59	5267
2026-01-19 23:52:04.09	195.44	18.12	-44.3	-47.2	16.8	0.00e+00	0	40	0	1116733440	59	5277
2026-01-19 23:52:08.06	195.49	17.64	-44.2	-47.1	16.9	0.00e+00	0	39	0	1124073472	59	5189
2026-01-19 23:52:12.04	195.54	17.17	-43.9	-46.7	17.3	0.00e+00	0	39	0	1131413504	59	4928
2026-01-19 23:52:16.02	195.59	16.71	-44.0	-46.8	17.1	0.00e+00	0	39	0	1138753536	59	5028
2026-01-19 23:52:20.05	195.63	16.25	-44.2	-47.1	16.8	0.00e+00	0	39	0	1146093568	59	5194
2026-01-19 23:52:24.03	195.68	15.80	-44.3	-47.3	16.7	0.00e+00	0	39	0	1154482176	59	5290
2026-01-19 23:52:28.01	195.73	15.37	-44.6	-47.8	16.2	0.00e+00	0	39	0	1161822208	60	5300
2026-01-19 23:52:31.98	195.77	14.94	-44.8	-48.1	16.0	0.00e+00	0	39	0	1169162240	60	5474
2026-01-19 23:52:36.12	195.81	14.50	-45.0	-48.3	15.7	0.00e+00	0	39	0	1176502272	60	5634
2026-01-19 23:52:40.15	195.86	14.08	-44.7	-47.9	16.1	0.00e+00	0	39	0	1183842304	60	5344
2026-01-19 23:52:44.12	195.90	13.68	-44.5	-47.5	16.4	0.00e+00	0	39	0	1191182336	60	5151
2026-01-19 23:52:48.37	195.94	13.25	-44.2	-47.2	16.8	0.00e+00	0	39	0	1199570944	60	4947
2026-01-19 23:52:52.99	195.99	12.79	-44.2	-47.2	16.7	0.00e+00	0	39	0	1207959552	60	4978
2026-01-19 23:52:57.54	196.03	12.35	-44.0	-46.8	17.0	0.00e+00	0	39	0	1216348160	59	5013
2026-01-19 23:53:02.13	196.08	11.91	-43.9	-46.7	17.1	0.00e+00	0	39	0	1225785344	59	4975
2026-01-19 23:53:06.68	196.12	11.49	-43.9	-46.8	17.0	0.00e+00	0	39	0	1234173952	59	4988
2026-01-19 23:53:10.70	196.16	11.12	-43.9	-46.7	17.1	0.00e+00	0	39	0	1241513984	59	4977
2026-01-19 23:53:14.68	196.19	10.76	-43.8	-46.6	17.1	0.00e+00	0	39	0	1248854016	59	4921
2026-01-19 23:53:18.61	196.23	10.41	-43.7	-46.5	17.2	0.00e+00	0	39	0	1256194048	59	4869
2026-01-19 23:53:22.64	196.26	10.05	-43.9	-46.8	16.9	0.00e+00	0	39	0	1263534080	59	5022
2026-01-19 23:53:27.25	196.30	9.65	-43.9	-46.8	16.9	0.00e+00	0	39	0	1272971264	59	5038
2026-01-19 23:53:31.19	196.34	9.31	-43.9	-46.8	16.9	0.00e+00	0	39	0	1280311296	59	5025
2026-01-19 23:53:35.17	196.37	8.98	-49.1	-63.0	3.9	7.24e-01	0	39	104	1286602752	69	18185
2026-01-19 23:53:39.14	196.40	8.65	-50.4	-65.7	3.8	1.49e+00	0	39	104	1286602752	71	22132
2026-01-19 23:53:43.19	196.43	8.32	-50.6	-65.8	3.8	1.49e+00	0	39	104	1286602752	71	22454
2026-01-19 23:53:47.31	196.47	7.98	-50.6	-65.8	3.8	1.49e+00	0	39	104	1286602752	72	21256
2026-01-19 23:53:51.41	196.50	7.65	-50.5	-65.8	3.8	1.49e+00	0	39	104	1286602752	72	21196
2026-01-19 23:53:55.51	196.53	7.33	-50.5	-65.8	3.8	1.49e+00	0	39	104	1286602752	72	21206
2026-01-19 23:53:59.55	196.56	7.02	-50.2	-65.7	3.8	1.49e+00	0	40	104	1286602752	72	20928
2026-01-19 23:54:03.52	196.59	6.71	-50.2	-65.7	3.8	1.49e+00	0	39	104	1286602752	72	21005
2026-01-19 23:54:07.50	196.62	6.41	-50.2	-65.7	3.8	1.49e+00	0	39	104	1286602752	72	20810
2026-01-19 23:54:11.47	196.65	6.11	-50.2	-65.7	3.8	1.49e+00	0	40	104	1286602752	72	20945
2026-01-19 23:54:15.45	196.68	5.81	-50.2	-65.7	3.8	1.49e+00	0	39	104	1286602752	72	20902
2026-01-19 23:54:19.42	196.71	5.52	-50.2	-65.7	3.8	1.49e+00	0	39	104	1286602752	72	20944
2026-01-19 23:54:23.39	196.74	5.23	-50.2	-65.7	3.8	1.49e+00	0	39	104	1286602752	72	20937
2026-01-19 23:54:27.37	196.76	4.95	-50.2	-65.7	3.8	1.49e+00	0	39	104	1286602752	72	20962

#Closed at: 2026-01-19 23:54:28
#Recorded file [1286 MB]: D:/Data/31040_260120_024129.dat