passes_logs/2026/01/19/T1/T1__20260119_231148_NOAA_21_JPSS-2_rec.log

#Pass ID: 20260119_231148_NOAA 21 (JPSS-2)
#Satellite: NOAA 21 (JPSS-2)
#Configuration: NOAA 21
#almurnet v.1.7.20251203
#Start time: 2026-01-19 23:11:48

#Version: 2.0.20230620
#Station: T1
#Location: 37.570604 lon 55.790049 lat
#TLE: 1 54234U 22150A   26019.31231101  .00000073  00000+0  55355-4 0  9994
#TLE: 2 54234  98.7504 320.1599 0000604 258.3686 101.7423 14.19535697165426

#Time	Az	El	Level	Level2	SNR	BER	BlckErr	Temp	State	Recorded	gain1	gain2
2026-01-19 23:11:48.29	19.81	5.02	-48.9	-63.2	3.8	1.49e+00	0	38	0	0	69	18610
2026-01-19 23:11:51.26	19.90	5.22	-48.9	-63.1	3.8	1.49e+00	0	38	104	0	68	19560
2026-01-19 23:11:54.24	20.00	5.43	-48.9	-63.1	3.8	1.49e+00	0	38	104	0	68	19483
2026-01-19 23:11:57.27	20.09	5.65	-48.9	-63.1	3.8	1.49e+00	0	38	104	0	68	19454
2026-01-19 23:12:00.36	20.19	5.87	-48.9	-63.1	3.8	1.49e+00	0	38	104	0	68	19558
2026-01-19 23:12:03.29	20.29	6.08	-48.9	-63.2	3.8	1.49e+00	0	39	104	0	68	19741
2026-01-19 23:12:06.79	20.40	6.33	-48.9	-63.2	3.8	1.49e+00	0	39	104	0	68	19771
2026-01-19 23:12:09.55	20.49	6.54	-48.9	-63.2	3.8	1.49e+00	0	39	104	0	68	19664
2026-01-19 23:12:12.81	20.60	6.78	-48.9	-62.8	3.8	1.49e+00	0	39	104	0	68	18929
2026-01-19 23:12:15.52	20.70	6.98	-48.8	-62.3	3.8	1.49e+00	0	39	104	0	68	17759
2026-01-19 23:12:18.79	20.81	7.23	-48.8	-61.5	3.8	1.49e+00	0	39	104	0	68	16128
2026-01-19 23:12:21.49	20.90	7.43	-48.7	-60.5	4.0	1.48e+00	0	39	104	0	68	14454
2026-01-19 23:12:24.78	21.02	7.68	-48.7	-60.7	3.9	1.47e+00	0	39	104	0	68	14758
2026-01-19 23:12:27.54	21.12	7.90	-48.7	-60.8	3.9	1.48e+00	0	39	104	0	68	14959
2026-01-19 23:12:30.81	21.24	8.15	-48.7	-60.6	3.9	1.47e+00	0	39	104	0	68	14582
2026-01-19 23:12:33.53	21.34	8.37	-48.6	-60.0	3.9	1.47e+00	0	39	104	0	68	13666
2026-01-19 23:12:36.81	21.47	8.63	-48.2	-56.5	5.7	4.60e-01	0	40	0	0	68	9122
2026-01-19 23:12:39.52	21.57	8.84	-47.3	-53.5	8.2	7.20e-02	0	40	0	0	66	7236
2026-01-19 23:12:42.79	21.70	9.11	-46.2	-50.5	11.3	3.01e-03	0	39	0	0	64	5761
2026-01-19 23:12:45.50	21.80	9.33	-47.7	-55.2	6.9	1.77e-02	0	39	0	0	66	8787
2026-01-19 23:12:48.77	21.93	9.60	-42.2	-44.5	17.2	0.00e+00	0	40	0	0	56	4575
2026-01-19 23:12:51.49	22.05	9.82	-41.5	-43.7	17.8	0.00e+00	0	40	0	0	55	4421
2026-01-19 23:12:54.76	22.18	10.10	-41.6	-43.7	17.8	0.00e+00	0	40	0	0	55	4435
2026-01-19 23:12:57.50	22.29	10.33	-41.5	-43.5	18.0	0.00e+00	0	40	0	0	54	4585
2026-01-19 23:13:01.03	22.45	10.63	-41.4	-43.3	18.2	0.00e+00	0	40	0	0	54	4486
2026-01-19 23:13:03.94	22.57	10.89	-41.3	-43.3	18.3	0.00e+00	0	40	0	0	54	4451
2026-01-19 23:13:07.16	22.71	11.17	-41.4	-43.3	18.2	0.00e+00	0	40	0	0	54	4479
2026-01-19 23:13:10.29	22.85	11.44	-41.4	-43.3	18.3	0.00e+00	0	40	0	0	54	4460
2026-01-19 23:13:13.13	22.98	11.70	-41.3	-43.2	18.4	0.00e+00	0	40	0	0	54	4403
2026-01-19 23:13:16.42	23.13	12.00	-41.3	-43.2	18.4	0.00e+00	0	40	0	0	54	4397
2026-01-19 23:13:19.12	23.26	12.24	-41.1	-43.0	18.6	0.00e+00	0	40	0	0	54	4322
2026-01-19 23:13:23.20	23.46	12.62	-41.1	-42.9	18.7	0.00e+00	0	40	0	0	54	4280
2026-01-19 23:13:26.10	23.60	12.89	-41.1	-43.0	18.7	0.00e+00	0	40	0	0	54	4301
2026-01-19 23:13:29.09	23.75	13.17	-41.1	-42.9	18.8	0.00e+00	0	40	0	0	54	4279
2026-01-19 23:13:32.15	23.90	13.47	-40.9	-42.8	18.9	0.00e+00	0	40	0	0	53	4449
2026-01-19 23:13:35.00	24.05	13.74	-40.9	-42.8	18.9	0.00e+00	0	40	0	0	53	4450
2026-01-19 23:13:38.12	24.22	14.05	-40.8	-42.7	19.0	0.00e+00	0	40	0	0	53	4415
2026-01-19 23:13:41.24	24.38	14.36	-40.8	-42.7	19.0	0.00e+00	0	40	0	0	53	4428
2026-01-19 23:13:44.08	24.54	14.64	-41.0	-42.9	18.8	0.00e+00	0	40	0	0	53	4524
2026-01-19 23:13:47.20	24.71	14.96	-41.0	-42.9	18.8	0.00e+00	0	40	0	0	53	4505
2026-01-19 23:13:50.05	24.87	15.25	-40.9	-42.7	18.9	0.00e+00	0	40	0	0	53	4438
2026-01-19 23:13:53.17	25.05	15.58	-40.9	-42.8	18.9	0.00e+00	0	40	0	0	53	4442
2026-01-19 23:13:56.22	25.23	15.90	-40.8	-42.6	19.1	0.00e+00	0	40	0	0	53	4377
2026-01-19 23:13:59.20	25.41	16.22	-40.8	-42.7	19.1	0.00e+00	0	40	0	0	53	4394
2026-01-19 23:14:02.18	25.59	16.54	-41.0	-42.9	18.9	0.00e+00	0	40	0	0	53	4506
2026-01-19 23:14:05.17	25.78	16.87	-41.0	-42.9	18.8	0.00e+00	0	40	0	0	53	4540
2026-01-19 23:14:08.15	25.97	17.20	-40.9	-42.9	18.9	0.00e+00	0	40	0	0	53	4496
2026-01-19 23:14:11.16	26.17	17.53	-41.1	-43.0	18.7	0.00e+00	0	40	0	0	53	4584
2026-01-19 23:14:14.28	26.37	17.89	-41.0	-42.9	18.8	0.00e+00	0	40	0	0	53	4514
2026-01-19 23:14:17.23	26.57	18.23	-40.9	-42.8	18.9	0.00e+00	0	40	0	0	53	4485
2026-01-19 23:14:20.57	26.81	18.62	-41.1	-43.1	18.7	0.00e+00	0	40	0	0	53	4617
2026-01-19 23:14:23.29	27.00	18.94	-41.0	-42.9	18.9	0.00e+00	0	40	0	0	53	4537
2026-01-19 23:14:26.57	27.24	19.33	-41.0	-42.9	18.9	0.00e+00	0	40	0	0	53	4504
2026-01-19 23:14:29.27	27.44	19.66	-41.0	-42.8	18.9	0.00e+00	0	40	0	0	53	4477
2026-01-19 23:14:32.62	27.69	20.07	-40.9	-42.7	19.0	0.00e+00	0	40	0	0	53	4419
2026-01-19 23:14:35.39	27.91	20.42	-40.9	-42.6	19.1	0.00e+00	0	40	0	0	53	4389
2026-01-19 23:14:38.72	28.18	20.84	-40.5	-42.3	19.4	0.00e+00	0	40	0	0	53	4198
2026-01-19 23:14:41.43	28.40	21.19	-40.5	-42.2	19.4	0.00e+00	0	40	0	0	52	4417
2026-01-19 23:14:44.72	28.67	21.62	-40.2	-41.9	19.7	0.00e+00	0	40	0	0	52	4273
2026-01-19 23:14:47.50	28.91	21.99	-40.0	-41.7	20.0	0.00e+00	0	40	0	0	51	4392
2026-01-19 23:14:50.86	29.20	22.44	-40.0	-41.7	20.0	0.00e+00	0	40	0	0	51	4401
2026-01-19 23:14:53.80	29.47	22.84	-39.8	-41.5	20.2	0.00e+00	0	40	0	0	51	4300
2026-01-19 23:14:57.10	29.77	23.30	-39.8	-41.5	20.3	0.00e+00	0	40	0	0	51	4296
2026-01-19 23:14:59.82	30.03	23.68	-39.8	-41.4	20.3	0.00e+00	0	40	0	0	51	4289
2026-01-19 23:15:03.10	30.35	24.15	-39.8	-41.5	20.3	0.00e+00	0	40	0	0	51	4305
2026-01-19 23:15:06.34	30.68	24.62	-39.9	-41.6	20.2	0.00e+00	0	40	0	0	51	4390
2026-01-19 23:15:09.24	30.98	25.04	-40.0	-41.7	20.2	0.00e+00	0	40	0	0	51	4400
2026-01-19 23:15:12.78	31.35	25.57	-40.2	-41.9	20.0	0.00e+00	0	40	0	0	51	4498
2026-01-19 23:15:15.57	31.66	26.00	-40.4	-42.1	19.8	0.00e+00	0	40	0	0	51	4630
2026-01-19 23:15:18.85	32.02	26.50	-40.6	-42.3	19.5	0.00e+00	0	40	0	0	52	4488
2026-01-19 23:15:21.56	32.34	26.93	-40.7	-42.5	19.3	0.00e+00	0	40	0	0	52	4580
2026-01-19 23:15:24.84	32.73	27.45	-40.8	-42.5	19.3	0.00e+00	0	40	0	0	52	4595
2026-01-19 23:15:27.81	33.09	27.93	-40.8	-42.5	19.4	0.00e+00	0	40	0	0	52	4576
2026-01-19 23:15:31.28	33.53	28.50	-40.7	-42.5	19.4	0.00e+00	0	40	0	0	52	4559
2026-01-19 23:15:34.01	33.89	28.96	-40.8	-42.6	19.4	0.00e+00	0	40	0	0	52	4601
2026-01-19 23:15:37.28	34.33	29.51	-40.8	-42.6	19.3	0.00e+00	0	40	0	0	52	4608
2026-01-19 23:15:40.10	34.72	30.00	-40.8	-42.6	19.3	0.00e+00	0	40	0	0	52	4616
2026-01-19 23:15:43.23	35.17	30.54	-40.7	-42.4	19.4	0.00e+00	0	40	0	0	52	4535
2026-01-19 23:15:46.41	35.64	31.11	-40.4	-42.2	19.7	0.00e+00	0	40	0	0	52	4396
2026-01-19 23:15:49.39	36.09	31.65	-40.7	-42.4	19.5	0.00e+00	0	40	0	0	52	4524
2026-01-19 23:15:52.38	36.57	32.19	-40.6	-42.3	19.6	0.00e+00	0	40	0	0	52	4481
2026-01-19 23:15:55.36	37.05	32.75	-40.6	-42.3	19.6	0.00e+00	0	40	0	0	52	4461
2026-01-19 23:15:58.35	37.56	33.31	-40.9	-42.6	19.4	0.00e+00	0	40	0	0	52	4645
2026-01-19 23:16:01.32	38.08	33.88	-41.5	-43.3	18.7	0.00e+00	0	40	0	0	53	4754
2026-01-19 23:16:04.39	38.63	34.47	-42.3	-44.2	17.9	0.00e+00	0	40	0	0	55	4699
2026-01-19 23:16:07.38	39.19	35.06	-42.4	-44.4	17.7	0.00e+00	0	40	0	0	55	4781
2026-01-19 23:16:10.36	39.77	35.65	-42.5	-44.5	17.7	0.00e+00	0	40	0	0	55	4823
2026-01-19 23:16:13.34	40.37	36.26	-42.4	-44.3	17.8	0.00e+00	0	40	0	0	55	4745
2026-01-19 23:16:16.44	41.02	36.89	-42.6	-44.6	17.6	0.00e+00	0	40	0	0	55	4888
2026-01-19 23:16:19.34	41.65	37.49	-42.3	-44.3	17.9	0.00e+00	0	40	0	0	55	4730
2026-01-19 23:16:22.85	42.44	38.23	-42.0	-43.9	18.2	0.00e+00	0	40	0	0	55	4498
2026-01-19 23:16:25.55	43.08	38.80	-42.5	-44.5	17.6	0.00e+00	0	40	0	0	55	4817
2026-01-19 23:16:28.83	43.88	39.51	-42.8	-44.8	17.4	0.00e+00	0	40	0	0	56	4726
2026-01-19 23:16:31.54	44.57	40.10	-43.0	-45.1	17.3	0.00e+00	0	40	0	0	56	4883
2026-01-19 23:16:34.85	45.44	40.83	-43.1	-45.1	17.2	0.00e+00	0	40	0	0	57	4630
2026-01-19 23:16:37.69	46.22	41.45	-43.3	-45.4	17.0	0.00e+00	0	40	0	0	57	4781
2026-01-19 23:16:40.81	47.12	42.15	-43.2	-45.3	17.1	0.00e+00	0	40	0	0	57	4707
2026-01-19 23:16:43.66	47.97	42.79	-43.4	-45.5	16.9	0.00e+00	0	40	0	0	57	4870
2026-01-19 23:16:46.78	48.94	43.50	-43.5	-45.6	16.8	0.00e+00	0	40	0	0	58	4646
2026-01-19 23:16:49.62	49.86	44.15	-43.4	-45.5	16.8	0.00e+00	0	40	0	0	58	4588
2026-01-19 23:16:52.75	50.92	44.86	-43.3	-45.4	17.0	0.00e+00	0	40	0	0	58	4499
2026-01-19 23:16:55.59	51.93	45.51	-43.1	-45.1	17.2	0.00e+00	0	41	0	0	58	4385
2026-01-19 23:16:58.83	53.13	46.26	-42.8	-44.8	17.4	0.00e+00	0	40	0	0	57	4492
2026-01-19 23:17:01.67	54.22	46.91	-43.1	-45.2	17.2	0.00e+00	0	40	0	0	57	4700
2026-01-19 23:17:04.98	55.56	47.67	-42.9	-44.9	17.5	0.00e+00	0	40	0	0	57	4522
2026-01-19 23:17:07.93	56.80	48.34	-42.4	-44.3	18.0	0.00e+00	0	40	0	0	56	4460
2026-01-19 23:17:11.18	58.24	49.07	-41.8	-43.7	18.4	0.00e+00	0	40	0	0	55	4397
2026-01-19 23:17:14.17	59.62	49.74	-41.9	-43.8	18.3	0.00e+00	0	40	0	0	55	4454
2026-01-19 23:17:17.16	61.07	50.41	-42.3	-44.2	18.0	0.00e+00	0	40	0	0	55	4688
2026-01-19 23:17:20.14	62.57	51.05	-42.6	-44.6	17.5	0.00e+00	0	40	0	0	55	4889
2026-01-19 23:17:23.37	64.27	51.74	-42.0	-43.8	18.4	0.00e+00	0	41	0	0	55	4476
2026-01-19 23:17:26.21	65.83	52.34	-41.4	-43.2	18.8	0.00e+00	0	40	0	0	54	4416
2026-01-19 23:17:29.45	67.69	52.99	-41.4	-43.1	18.9	0.00e+00	0	40	0	0	54	4386
2026-01-19 23:17:32.39	69.45	53.57	-41.9	-43.8	18.2	0.00e+00	0	40	0	0	54	4706
2026-01-19 23:17:35.37	71.30	54.13	-41.7	-43.5	18.4	0.00e+00	0	40	0	0	54	4582
2026-01-19 23:17:38.36	73.24	54.67	-41.4	-43.2	18.8	0.00e+00	0	40	0	0	54	4433
2026-01-19 23:17:41.29	75.20	55.17	-40.7	-42.4	19.5	0.00e+00	0	40	0	0	53	4272
2026-01-19 23:17:44.60	77.50	55.70	-40.8	-42.5	19.4	0.00e+00	0	40	0	0	52	4561
2026-01-19 23:17:47.31	79.45	56.10	-40.8	-42.5	19.5	0.00e+00	0	40	0	0	53	4327
2026-01-19 23:17:50.58	81.87	56.55	-40.5	-42.2	19.7	0.00e+00	0	40	0	0	52	4427
2026-01-19 23:17:53.31	83.95	56.89	-39.7	-41.3	20.6	0.00e+00	0	40	0	0	51	4217
2026-01-19 23:17:56.60	86.52	57.25	-40.2	-41.8	20.2	0.00e+00	0	40	0	0	51	4493
2026-01-19 23:17:59.68	88.98	57.54	-40.7	-42.5	19.5	0.00e+00	0	40	0	0	52	4561
2026-01-19 23:18:02.95	91.65	57.79	-40.2	-41.9	19.9	0.00e+00	0	40	0	0	52	4287
2026-01-19 23:18:05.66	93.90	57.95	-40.1	-41.8	20.0	0.00e+00	0	40	0	0	51	4468
2026-01-19 23:18:08.95	96.66	58.10	-40.1	-41.8	20.1	0.00e+00	0	40	0	0	51	4480
2026-01-19 23:18:11.73	99.01	58.17	-40.6	-42.3	19.3	0.00e+00	0	40	0	0	51	4732
2026-01-19 23:18:15.13	101.90	58.21	-40.1	-41.8	19.9	0.00e+00	0	40	0	0	51	4468
2026-01-19 23:18:18.44	104.71	58.17	-40.0	-41.7	20.2	0.00e+00	0	40	0	0	51	4395
2026-01-19 23:18:21.17	107.02	58.10	-40.6	-42.3	19.5	0.00e+00	0	40	0	0	52	4477
2026-01-19 23:18:24.46	109.78	57.95	-40.7	-42.4	19.4	0.00e+00	0	40	0	0	52	4544
2026-01-19 23:18:27.17	112.02	57.78	-40.0	-41.7	20.4	0.00e+00	0	40	0	0	51	4411
2026-01-19 23:18:30.53	114.77	57.52	-40.6	-42.3	19.7	0.00e+00	0	40	0	0	52	4454
2026-01-19 23:18:33.25	116.95	57.26	-40.4	-42.1	19.9	0.00e+00	0	40	0	0	52	4344
2026-01-19 23:18:36.63	119.59	56.89	-40.5	-42.2	19.7	0.00e+00	0	40	0	0	52	4434
2026-01-19 23:18:39.47	121.76	56.54	-40.9	-42.6	19.5	0.00e+00	0	40	0	0	52	4623
2026-01-19 23:18:42.75	124.19	56.09	-41.4	-43.2	18.8	0.00e+00	0	40	0	0	54	4430
2026-01-19 23:18:45.47	126.15	55.68	-41.0	-42.8	19.4	0.00e+00	0	40	0	0	54	4211
2026-01-19 23:18:48.76	128.43	55.16	-41.2	-43.0	19.2	0.00e+00	0	40	0	0	54	4338
2026-01-19 23:18:51.58	130.33	54.67	-41.3	-43.1	18.9	0.00e+00	0	40	0	0	53	4638
2026-01-19 23:18:55.07	132.58	54.04	-42.1	-44.0	18.1	0.00e+00	0	40	0	0	54	4825
2026-01-19 23:18:57.79	134.27	53.52	-41.5	-43.3	18.8	0.00e+00	0	40	0	0	55	4233
2026-01-19 23:19:01.07	136.23	52.87	-41.3	-43.1	19.1	0.00e+00	0	40	0	0	54	4343
2026-01-19 23:19:03.91	137.85	52.30	-42.2	-44.1	18.0	0.00e+00	0	40	0	0	55	4630
2026-01-19 23:19:07.04	139.57	51.64	-42.0	-43.9	18.0	0.00e+00	0	40	0	0	55	4499
2026-01-19 23:19:09.88	141.07	51.03	-41.8	-43.6	18.5	0.00e+00	0	40	0	0	55	4361
2026-01-19 23:19:13.00	142.64	50.35	-42.5	-44.5	17.7	0.00e+00	0	40	0	0	55	4847
2026-01-19 23:19:16.33	144.24	49.61	-42.4	-44.3	17.8	0.00e+00	0	40	0	0	55	4751
2026-01-19 23:19:19.18	145.56	48.96	-42.6	-44.6	17.7	0.00e+00	0	40	0	0	55	4904
2026-01-19 23:19:22.31	146.93	48.25	-43.8	-46.0	16.5	0.00e+00	0	40	0	0	58	4852
2026-01-19 23:19:25.15	148.13	47.60	-43.7	-45.9	16.5	0.00e+00	0	40	0	0	59	4531
2026-01-19 23:19:28.30	149.41	46.88	-42.5	-44.4	18.0	0.00e+00	0	40	0	0	56	4540
2026-01-19 23:19:31.30	150.56	46.18	-43.5	-45.6	17.0	0.00e+00	0	40	0	0	57	4879
2026-01-19 23:19:34.46	151.73	45.46	-43.2	-45.3	17.2	0.00e+00	0	40	0	0	58	4443
2026-01-19 23:19:37.30	152.74	44.80	-42.5	-44.4	17.9	0.00e+00	0	40	0	0	56	4536
2026-01-19 23:19:40.43	153.80	44.08	-43.2	-45.2	17.3	0.00e+00	0	40	0	0	57	4662
2026-01-19 23:19:43.27	154.72	43.43	-44.0	-46.3	16.2	0.00e+00	0	40	0	0	58	5007
2026-01-19 23:19:46.41	155.70	42.72	-43.4	-45.4	16.9	0.00e+00	0	40	0	0	58	4543
2026-01-19 23:19:49.26	156.55	42.07	-42.7	-44.6	17.9	0.00e+00	0	40	0	0	57	4346
2026-01-19 23:19:52.58	157.50	41.33	-44.0	-46.2	16.3	0.00e+00	0	40	0	0	58	4945
2026-01-19 23:19:55.31	158.25	40.72	-43.7	-45.8	16.6	0.00e+00	0	40	0	0	59	4478
2026-01-19 23:19:58.58	159.12	40.00	-42.9	-44.8	17.5	0.00e+00	0	40	0	0	57	4469
2026-01-19 23:20:01.43	159.84	39.37	-42.8	-44.8	17.5	0.00e+00	0	40	0	0	57	4492
2026-01-19 23:20:04.55	160.60	38.70	-43.0	-45.0	17.2	0.00e+00	0	40	0	0	57	4579
2026-01-19 23:20:07.39	161.27	38.09	-42.9	-44.9	17.6	0.00e+00	0	40	0	0	57	4516
2026-01-19 23:20:10.60	161.99	37.42	-42.4	-44.3	18.0	0.00e+00	0	40	0	0	56	4490
2026-01-19 23:20:13.44	162.61	36.82	-41.6	-43.5	18.6	0.00e+00	0	40	0	0	55	4311
2026-01-19 23:20:16.57	163.26	36.18	-41.9	-43.9	18.2	0.00e+00	0	40	0	0	54	4765
2026-01-19 23:20:19.41	163.84	35.60	-42.4	-44.4	17.8	0.00e+00	0	40	0	0	55	4788
2026-01-19 23:20:22.53	164.45	34.98	-41.7	-43.5	18.6	0.00e+00	0	40	0	0	55	4338
2026-01-19 23:20:25.37	164.98	34.41	-41.3	-43.1	19.1	0.00e+00	0	40	0	0	54	4358
2026-01-19 23:20:28.59	165.56	33.79	-42.1	-44.1	18.2	0.00e+00	0	40	0	0	55	4611
2026-01-19 23:20:31.44	166.06	33.24	-42.1	-44.1	18.1	0.00e+00	0	40	0	0	55	4599
2026-01-19 23:20:34.56	166.59	32.65	-41.5	-43.4	18.6	0.00e+00	0	40	0	0	55	4254
2026-01-19 23:20:37.40	167.05	32.12	-41.1	-42.9	19.1	0.00e+00	0	40	0	0	54	4257
2026-01-19 23:20:40.53	167.55	31.54	-41.0	-42.7	19.2	0.00e+00	0	40	0	0	53	4426
2026-01-19 23:20:43.37	167.98	31.02	-40.7	-42.5	19.4	0.00e+00	0	40	0	0	53	4295
2026-01-19 23:20:46.50	168.45	30.46	-40.6	-42.3	19.6	0.00e+00	0	40	0	0	53	4229
2026-01-19 23:20:49.34	168.85	29.96	-40.8	-42.6	19.3	0.00e+00	0	40	0	0	53	4343
2026-01-19 23:20:52.47	169.29	29.42	-40.9	-42.7	19.2	0.00e+00	0	40	0	0	53	4420
2026-01-19 23:20:55.31	169.67	28.94	-41.0	-42.8	19.0	0.00e+00	0	40	0	0	53	4486
2026-01-19 23:20:58.52	170.09	28.40	-40.9	-42.7	19.2	0.00e+00	0	40	0	0	53	4420
2026-01-19 23:21:01.36	170.45	27.93	-40.5	-42.2	19.6	0.00e+00	0	40	0	0	53	4178
2026-01-19 23:21:04.49	170.84	27.42	-40.4	-42.1	19.7	0.00e+00	0	40	0	0	52	4342
2026-01-19 23:21:07.40	171.18	26.95	-40.4	-42.1	19.7	0.00e+00	0	40	0	0	52	4360
2026-01-19 23:21:10.68	171.57	26.43	-40.3	-42.0	19.9	0.00e+00	0	40	0	0	52	4294
2026-01-19 23:21:13.56	171.89	25.98	-40.0	-41.7	20.2	0.00e+00	0	40	0	0	52	4154
2026-01-19 23:21:16.68	172.23	25.50	-40.1	-41.8	20.1	0.00e+00	0	40	0	0	51	4480
2026-01-19 23:21:19.53	172.53	25.07	-40.4	-42.1	19.8	0.00e+00	0	40	0	0	51	4613
2026-01-19 23:21:22.65	172.86	24.61	-40.6	-42.3	19.6	0.00e+00	0	40	0	0	51	4727
2026-01-19 23:21:25.49	173.14	24.19	-40.6	-42.4	19.5	0.00e+00	0	40	0	0	52	4506
2026-01-19 23:21:28.62	173.45	23.74	-40.8	-42.6	19.2	0.00e+00	0	40	0	0	52	4632
2026-01-19 23:21:31.70	173.75	23.30	-40.9	-42.6	19.1	0.00e+00	0	40	0	0	52	4651
2026-01-19 23:21:34.72	174.03	22.88	-40.8	-42.6	19.1	0.00e+00	0	40	0	0	52	4635
2026-01-19 23:21:37.97	174.32	22.43	-40.8	-42.7	19.0	0.00e+00	0	40	0	0	52	4652
2026-01-19 23:21:40.82	174.57	22.05	-40.8	-42.6	19.2	0.00e+00	0	40	0	0	52	4613
2026-01-19 23:21:43.94	174.84	21.63	-40.3	-42.0	19.7	0.00e+00	0	40	0	0	52	4328
2026-01-19 23:21:46.79	175.08	21.25	-40.0	-41.8	19.9	0.00e+00	0	40	0	0	52	4198
2026-01-19 23:21:49.98	175.34	20.84	-40.1	-41.8	19.9	0.00e+00	0	40	0	0	51	4478
2026-01-19 23:21:52.82	175.57	20.47	-40.4	-42.1	19.6	0.00e+00	0	40	0	0	51	4629
2026-01-19 23:21:56.10	175.83	20.06	-40.7	-42.5	19.2	0.00e+00	0	40	0	0	52	4556
2026-01-19 23:21:58.82	176.04	19.72	-40.8	-42.6	19.2	0.00e+00	0	40	0	0	52	4623
2026-01-19 23:22:02.07	176.28	19.32	-40.7	-42.5	19.3	0.00e+00	0	40	0	0	52	4574
2026-01-19 23:22:04.91	176.48	18.97	-40.6	-42.4	19.3	0.00e+00	0	40	0	0	52	4530
2026-01-19 23:22:08.04	176.71	18.60	-40.6	-42.4	19.3	0.00e+00	0	40	0	0	52	4532
2026-01-19 23:22:10.88	176.91	18.26	-40.8	-42.6	19.1	0.00e+00	0	40	0	0	52	4630
2026-01-19 23:22:14.09	177.12	17.89	-40.9	-42.8	19.0	0.00e+00	0	40	0	0	52	4719
2026-01-19 23:22:17.01	177.32	17.55	-41.0	-42.9	18.9	0.00e+00	0	40	0	0	52	4784
2026-01-19 23:22:20.00	177.51	17.21	-41.3	-43.1	18.6	0.00e+00	0	40	0	0	53	4649
2026-01-19 23:22:22.98	177.71	16.88	-41.2	-43.1	18.7	0.00e+00	0	40	0	0	53	4638
2026-01-19 23:22:25.97	177.89	16.55	-41.3	-43.2	18.7	0.00e+00	0	40	0	0	53	4676
2026-01-19 23:22:28.95	178.08	16.22	-41.3	-43.2	18.6	0.00e+00	0	40	0	0	53	4692
2026-01-19 23:22:31.93	178.25	15.90	-41.3	-43.2	18.6	0.00e+00	0	40	0	0	53	4691
2026-01-19 23:22:34.92	178.43	15.58	-41.3	-43.2	18.6	0.00e+00	0	40	0	0	53	4686
2026-01-19 23:22:37.90	178.60	15.27	-41.4	-43.4	18.5	0.00e+00	0	40	0	0	53	4760
2026-01-19 23:22:40.89	178.77	14.96	-41.4	-43.3	18.5	0.00e+00	0	40	0	0	53	4712
2026-01-19 23:22:43.95	178.94	14.64	-41.4	-43.3	18.5	0.00e+00	0	40	0	0	53	4725
2026-01-19 23:22:46.83	179.10	14.35	-41.4	-43.3	18.5	0.00e+00	0	40	0	0	53	4719
2026-01-19 23:22:49.96	179.26	14.04	-41.5	-43.4	18.3	0.00e+00	0	40	0	0	53	4802
2026-01-19 23:22:52.80	179.41	13.76	-41.4	-43.4	18.3	0.00e+00	0	40	0	0	53	4782
2026-01-19 23:22:56.00	179.58	13.44	-41.5	-43.5	18.3	0.00e+00	0	40	0	0	53	4819
2026-01-19 23:22:58.84	179.72	13.17	-41.5	-43.5	18.2	0.00e+00	0	40	0	0	53	4834
2026-01-19 23:23:01.96	179.88	12.87	-41.5	-43.4	18.3	0.00e+00	0	40	0	0	53	4813
2026-01-19 23:23:04.80	180.01	12.60	-41.4	-43.4	18.3	0.00e+00	0	40	0	0	53	4772
2026-01-19 23:23:07.93	180.16	12.31	-41.5	-43.4	18.3	0.00e+00	0	40	0	0	53	4806
2026-01-19 23:23:10.84	180.30	12.04	-41.4	-43.4	18.3	0.00e+00	0	40	0	0	53	4789
2026-01-19 23:23:14.02	180.45	11.74	-41.4	-43.3	18.3	0.00e+00	0	40	0	0	53	4758
2026-01-19 23:23:16.92	180.58	11.48	-41.4	-43.4	18.3	0.00e+00	0	40	0	0	53	4791
2026-01-19 23:23:20.11	180.72	11.19	-41.4	-43.3	18.3	0.00e+00	0	40	0	0	53	4750
2026-01-19 23:23:22.96	180.85	10.94	-41.4	-43.4	18.2	0.00e+00	0	40	0	0	53	4769
2026-01-19 23:23:26.08	180.98	10.67	-41.4	-43.3	18.3	0.00e+00	0	40	0	0	53	4744
2026-01-19 23:23:29.17	181.11	10.40	-41.5	-43.4	18.2	0.00e+00	0	40	0	0	53	4796
2026-01-19 23:23:32.01	181.23	10.15	-41.6	-43.5	18.0	0.00e+00	0	40	0	0	53	4859
2026-01-19 23:23:35.18	181.36	9.88	-41.8	-43.8	17.8	0.00e+00	0	40	0	0	54	4730
2026-01-19 23:23:38.31	181.48	9.62	-42.0	-44.1	17.5	0.00e+00	0	40	0	0	54	4876
2026-01-19 23:23:41.15	181.60	9.38	-42.0	-44.1	17.5	0.00e+00	0	40	0	0	54	4898
2026-01-19 23:23:44.29	181.72	9.12	-42.2	-44.4	17.2	0.00e+00	0	40	0	0	55	4793
2026-01-19 23:23:47.14	181.83	8.89	-49.9	-63.3	3.8	1.49e+00	0	40	104	0	70	17858
2026-01-19 23:23:50.27	181.95	8.64	-50.5	-63.7	3.8	1.49e+00	0	40	104	0	71	17643
2026-01-19 23:23:53.17	182.06	8.40	-50.6	-63.8	3.8	1.49e+00	0	40	104	0	72	16725
2026-01-19 23:23:56.43	182.18	8.14	-50.7	-63.8	3.8	1.49e+00	0	40	104	0	72	16775
2026-01-19 23:23:59.34	182.28	7.91	-50.8	-63.8	3.8	1.49e+00	0	40	104	0	72	16838
2026-01-19 23:24:02.58	182.40	7.66	-50.9	-63.9	3.8	1.49e+00	0	40	104	0	72	16905
2026-01-19 23:24:05.48	182.50	7.44	-50.7	-63.8	3.8	1.49e+00	0	40	104	0	72	16824
2026-01-19 23:24:08.67	182.61	7.19	-50.5	-63.8	3.8	1.49e+00	0	40	104	0	72	16842
2026-01-19 23:24:11.51	182.70	6.97	-50.7	-63.8	3.8	1.49e+00	0	40	104	0	72	16868
2026-01-19 23:24:14.63	182.81	6.74	-50.4	-63.8	3.8	1.49e+00	0	40	104	0	72	16780
2026-01-19 23:24:17.47	182.90	6.53	-50.4	-63.8	3.8	1.49e+00	0	40	104	0	72	16726
2026-01-19 23:24:20.59	183.00	6.29	-50.4	-63.8	3.8	1.49e+00	0	40	104	0	72	16740
2026-01-19 23:24:23.43	183.10	6.09	-50.4	-63.8	3.8	1.49e+00	0	40	104	0	72	16787
2026-01-19 23:24:26.55	183.19	5.86	-50.4	-63.8	3.8	1.49e+00	0	40	104	0	72	16729
2026-01-19 23:24:29.39	183.28	5.65	-50.4	-63.7	3.8	1.49e+00	0	40	104	0	72	16692
2026-01-19 23:24:32.51	183.38	5.43	-50.4	-63.7	3.8	1.49e+00	0	40	104	0	72	16685
2026-01-19 23:24:35.35	183.47	5.23	-50.4	-63.7	3.8	1.49e+00	0	40	104	0	72	16673
2026-01-19 23:24:38.47	183.56	5.00	-50.4	-63.8	3.8	1.49e+00	0	40	104	0	72	16732

#Closed at: 2026-01-19 23:24:40
#Recorded file [0 MB]: D:/Data/31040_260120_021148.dat