passes_logs/2026/01/19/T1/T1__20260119_091336_FENGYUN_3D_rec.log

#Pass ID: 20260119_091336_FENGYUN 3D
#Satellite: FENGYUN 3D
#Configuration: FENGYUN 3D
#almurnet v.1.7.20251203
#Start time: 2026-01-19 09:13:36

#Version: 2.0.20230620
#Station: T1
#Location: 37.570604 lon 55.790049 lat
#TLE: 1 43010U 17072A   26018.95027258  .00000058  00000+0  49274-4 0  9992
#TLE: 2 43010  98.9939 350.8271 0002416 102.0826 258.0620 14.19696908423819

#Time	Az	El	Level	Level2	SNR	BER	BlckErr	Temp	State	Recorded	gain1	gain2
2026-01-19 09:13:36.16	69.47	5.00	-49.8	-62.0	3.8	8.46e-01	0	37	0	0	71	14382
2026-01-19 09:13:38.15	69.22	5.08	-49.8	-61.9	3.8	8.47e-01	0	37	104	0	71	14350
2026-01-19 09:13:40.14	68.97	5.16	-49.8	-62.0	3.8	8.47e-01	0	37	104	0	71	14405
2026-01-19 09:13:42.13	68.72	5.24	-49.8	-61.9	3.8	8.48e-01	0	37	104	0	71	14359
2026-01-19 09:13:44.13	68.46	5.32	-49.8	-61.9	3.8	8.46e-01	0	37	104	0	71	14367
2026-01-19 09:13:46.11	68.21	5.39	-49.8	-62.0	3.8	8.46e-01	0	37	104	0	71	14400
2026-01-19 09:13:48.11	67.95	5.47	-49.8	-61.9	3.8	8.47e-01	0	37	104	0	71	14367
2026-01-19 09:13:50.10	67.69	5.55	-49.8	-61.9	3.8	8.46e-01	0	37	104	0	71	14301
2026-01-19 09:13:52.10	67.43	5.63	-49.8	-61.9	3.8	8.48e-01	0	37	104	0	71	14313
2026-01-19 09:13:54.09	67.17	5.71	-49.8	-61.9	3.8	8.47e-01	0	38	104	0	71	14231
2026-01-19 09:13:56.08	66.91	5.78	-49.8	-61.9	3.8	8.47e-01	0	38	104	0	71	14312
2026-01-19 09:13:58.08	66.64	5.86	-49.8	-61.9	3.8	8.47e-01	0	38	104	0	71	14366
2026-01-19 09:14:00.07	66.37	5.94	-49.8	-61.9	3.8	8.47e-01	0	38	104	0	71	14337
2026-01-19 09:14:02.06	66.11	6.01	-49.7	-61.9	3.8	8.47e-01	0	38	104	0	71	14321
2026-01-19 09:14:04.06	65.84	6.09	-49.8	-61.9	3.8	8.47e-01	0	38	104	0	71	14229
2026-01-19 09:14:06.05	65.57	6.16	-49.7	-61.8	3.8	8.47e-01	0	38	104	0	71	14114
2026-01-19 09:14:08.05	65.29	6.24	-49.7	-61.8	3.8	8.47e-01	0	38	104	0	71	14176
2026-01-19 09:14:10.04	65.02	6.31	-49.8	-61.8	3.8	8.47e-01	0	38	104	0	71	14179
2026-01-19 09:14:12.03	64.75	6.39	-49.7	-61.9	3.8	8.47e-01	0	38	104	0	71	14366
2026-01-19 09:14:14.03	64.47	6.46	-49.7	-61.9	3.8	8.46e-01	0	38	104	0	71	14233
2026-01-19 09:14:16.03	64.19	6.54	-49.7	-61.9	3.8	8.47e-01	0	38	104	0	71	14214
2026-01-19 09:14:18.02	63.91	6.61	-49.7	-61.9	3.8	8.47e-01	0	38	104	0	71	14283
2026-01-19 09:14:20.00	63.63	6.68	-49.7	-61.9	3.8	8.47e-01	0	38	104	0	71	14242
2026-01-19 09:14:21.99	63.35	6.75	-49.7	-61.9	3.8	8.48e-01	0	38	104	0	71	14244
2026-01-19 09:14:23.97	63.07	6.82	-49.8	-61.9	3.8	8.48e-01	0	38	104	0	71	14276
2026-01-19 09:14:25.97	62.79	6.90	-49.7	-61.9	3.8	8.46e-01	0	38	104	0	71	14302
2026-01-19 09:14:27.95	62.50	6.97	-49.8	-61.9	3.8	8.47e-01	0	39	104	0	71	14279
2026-01-19 09:14:29.94	62.22	7.04	-49.7	-61.8	3.8	8.47e-01	0	38	104	0	71	14168
2026-01-19 09:14:31.93	61.93	7.11	-49.8	-61.9	3.8	8.49e-01	0	38	104	0	71	14233
2026-01-19 09:14:33.93	61.64	7.18	-49.7	-61.9	3.8	8.47e-01	0	39	104	0	71	14286
2026-01-19 09:14:35.92	61.34	7.24	-49.7	-61.8	3.8	8.46e-01	0	39	104	0	71	14179
2026-01-19 09:14:37.91	61.05	7.31	-49.7	-61.8	3.8	8.48e-01	0	39	104	0	71	14169
2026-01-19 09:14:39.90	60.76	7.38	-49.7	-61.9	3.8	8.47e-01	0	39	104	0	71	14224
2026-01-19 09:14:41.88	60.46	7.45	-49.7	-61.9	3.8	8.47e-01	0	38	104	0	71	14215
2026-01-19 09:14:43.88	60.17	7.51	-49.7	-61.9	3.8	8.47e-01	0	39	104	0	71	14227
2026-01-19 09:14:45.87	59.87	7.58	-49.7	-61.8	3.8	8.48e-01	0	39	104	0	71	14097
2026-01-19 09:14:47.86	59.57	7.65	-49.7	-61.7	3.8	8.47e-01	0	39	104	0	71	13988
2026-01-19 09:14:49.85	59.27	7.71	-49.7	-61.6	3.8	8.46e-01	0	39	104	0	71	13745
2026-01-19 09:14:51.83	58.97	7.77	-49.7	-61.4	3.8	8.47e-01	0	39	104	0	71	13540
2026-01-19 09:14:53.82	58.66	7.84	-49.7	-61.5	3.8	8.47e-01	0	39	104	0	71	13655
2026-01-19 09:14:55.81	58.36	7.90	-49.7	-61.7	3.8	8.47e-01	0	39	104	0	71	13969
2026-01-19 09:14:57.81	58.05	7.96	-49.7	-61.7	3.8	8.47e-01	0	39	104	0	71	13985
2026-01-19 09:14:59.80	57.74	8.03	-49.7	-61.6	3.8	8.47e-01	0	39	104	0	71	13827
2026-01-19 09:15:01.78	57.44	8.09	-49.7	-61.5	3.8	8.47e-01	0	39	104	0	71	13621
2026-01-19 09:15:03.77	57.13	8.15	-49.7	-61.5	3.8	8.47e-01	0	39	104	0	71	13712
2026-01-19 09:15:05.76	56.81	8.21	-49.7	-61.7	3.8	8.47e-01	0	39	104	0	71	13963
2026-01-19 09:15:07.76	56.50	8.27	-49.7	-61.7	3.8	8.47e-01	0	39	104	0	71	13962
2026-01-19 09:15:09.75	56.19	8.33	-49.7	-61.3	3.8	8.46e-01	0	39	104	0	71	13337
2026-01-19 09:15:11.74	55.87	8.38	-49.6	-60.7	3.8	8.46e-01	0	39	104	0	71	12500
2026-01-19 09:15:13.73	55.55	8.44	-49.6	-61.1	3.8	8.46e-01	0	39	104	0	71	12971
2026-01-19 09:15:15.72	55.24	8.50	-49.7	-61.8	3.8	8.46e-01	0	39	104	0	71	14057
2026-01-19 09:15:17.71	54.92	8.55	-49.7	-61.7	3.8	8.46e-01	0	39	104	0	71	14032
2026-01-19 09:15:19.70	54.60	8.61	-49.5	-59.9	3.8	8.47e-01	0	39	104	0	71	11406
2026-01-19 09:15:21.70	54.27	8.66	-49.4	-58.7	4.1	8.41e-01	0	39	0	0	70	10522
2026-01-19 09:15:23.68	53.95	8.72	-49.6	-60.8	3.8	8.48e-01	0	39	104	0	70	13376
2026-01-19 09:15:25.67	53.63	8.77	-46.0	-49.8	10.6	1.46e-02	0	39	0	5242880	64	5292
2026-01-19 09:15:27.67	53.30	8.82	-42.1	-44.4	16.1	0.00e+00	0	39	0	16777216	56	4529
2026-01-19 09:15:29.66	52.97	8.87	-40.8	-42.9	17.3	0.00e+00	0	39	0	27262976	53	4539
2026-01-19 09:15:31.64	52.65	8.92	-41.8	-44.1	16.2	0.00e+00	0	39	0	38797312	54	4898
2026-01-19 09:15:33.64	52.32	8.97	-45.5	-48.9	11.7	1.90e-04	0	39	0	50331648	61	5690
2026-01-19 09:15:35.62	51.99	9.02	-45.4	-48.7	11.8	1.41e-01	0	39	0	60817408	62	5241
2026-01-19 09:15:37.61	51.66	9.07	-48.3	-54.8	6.0	1.74e-04	0	39	0	72351744	67	7986
2026-01-19 09:15:39.60	51.33	9.12	-45.1	-48.4	12.3	8.00e-06	0	39	0	77594624	60	5697
2026-01-19 09:15:41.59	50.99	9.17	-43.1	-45.6	14.9	1.10e-06	0	39	0	89128960	57	4926
2026-01-19 09:15:43.58	50.66	9.21	-41.6	-43.9	16.5	0.00e+00	0	39	0	100663296	55	4517
2026-01-19 09:15:45.57	50.33	9.26	-40.5	-42.6	17.8	0.00e+00	0	39	0	111149056	52	4608
2026-01-19 09:15:47.56	49.99	9.30	-40.0	-42.1	18.2	0.00e+00	0	39	0	122683392	52	4352
2026-01-19 09:15:49.54	49.65	9.34	-40.1	-42.2	18.2	0.00e+00	0	39	0	134217728	51	4662
2026-01-19 09:15:51.53	49.32	9.39	-39.9	-41.8	18.8	0.00e+00	0	39	0	144703488	51	4463
2026-01-19 09:15:53.51	48.98	9.43	-39.7	-41.6	18.9	0.00e+00	0	39	0	156237824	51	4374
2026-01-19 09:15:55.51	48.64	9.47	-39.8	-41.8	18.8	0.00e+00	0	39	0	166723584	51	4447
2026-01-19 09:15:57.51	48.29	9.51	-39.8	-41.8	18.8	0.00e+00	0	39	0	178257920	51	4455
2026-01-19 09:15:59.49	47.95	9.55	-39.7	-41.7	18.9	0.00e+00	0	39	0	189792256	51	4406
2026-01-19 09:16:01.48	47.61	9.58	-39.7	-41.6	19.0	0.00e+00	0	39	0	201326592	51	4360
2026-01-19 09:16:03.47	47.27	9.62	-39.6	-41.5	19.1	0.00e+00	0	39	0	211812352	51	4309
2026-01-19 09:16:05.46	46.92	9.66	-39.6	-41.5	19.0	0.00e+00	0	39	0	223346688	51	4339
2026-01-19 09:16:07.45	46.58	9.69	-39.7	-41.6	18.9	0.00e+00	0	39	0	234881024	51	4380
2026-01-19 09:16:09.44	46.23	9.73	-39.7	-41.6	19.0	0.00e+00	0	39	0	245366784	51	4358
2026-01-19 09:16:11.43	45.88	9.76	-39.6	-41.5	19.0	0.00e+00	0	39	0	256901120	51	4332
2026-01-19 09:16:13.42	45.54	9.79	-39.6	-41.5	19.0	0.00e+00	0	39	0	268435456	51	4322
2026-01-19 09:16:15.41	45.19	9.82	-39.6	-41.5	19.1	0.00e+00	0	39	0	278921216	51	4307
2026-01-19 09:16:17.40	44.84	9.85	-39.6	-41.5	19.1	0.00e+00	0	39	0	290455552	51	4319
2026-01-19 09:16:19.38	44.49	9.88	-39.8	-41.8	18.8	0.00e+00	0	39	0	301989888	51	4449
2026-01-19 09:16:21.37	44.14	9.91	-39.7	-41.6	18.9	0.00e+00	0	40	0	312475648	51	4385
2026-01-19 09:16:23.36	43.79	9.94	-39.7	-41.6	18.9	0.00e+00	0	39	0	324009984	51	4371
2026-01-19 09:16:25.35	43.44	9.96	-39.4	-41.2	19.3	0.00e+00	0	39	0	335544320	50	4438
2026-01-19 09:16:27.35	43.08	9.99	-39.4	-41.2	19.3	0.00e+00	0	39	0	346030080	50	4435
2026-01-19 09:16:29.34	42.73	10.01	-39.3	-41.2	19.3	0.00e+00	0	39	0	357564416	50	4428
2026-01-19 09:16:31.33	42.37	10.04	-39.3	-41.1	19.4	0.00e+00	0	39	0	369098752	50	4383
2026-01-19 09:16:33.32	42.02	10.06	-39.4	-41.3	19.2	0.00e+00	0	39	0	379584512	50	4486
2026-01-19 09:16:35.30	41.67	10.08	-39.6	-41.5	19.1	0.00e+00	0	39	0	391118848	50	4558
2026-01-19 09:16:37.30	41.31	10.10	-39.6	-41.4	19.1	0.00e+00	0	39	0	402653184	50	4544
2026-01-19 09:16:39.29	40.95	10.12	-39.4	-41.2	19.3	0.00e+00	0	39	0	413138944	50	4433
2026-01-19 09:16:41.28	40.60	10.14	-39.3	-41.2	19.4	0.00e+00	0	39	0	424673280	50	4424
2026-01-19 09:16:43.27	40.24	10.15	-39.5	-41.4	19.2	0.00e+00	0	39	0	436207616	50	4495
2026-01-19 09:16:45.26	39.88	10.17	-39.6	-41.5	19.1	0.00e+00	0	39	0	446693376	50	4550
2026-01-19 09:16:47.25	39.53	10.18	-39.7	-41.6	19.0	0.00e+00	0	39	0	458227712	50	4626
2026-01-19 09:16:49.23	39.17	10.20	-39.8	-41.7	18.8	0.00e+00	0	39	0	469762048	50	4691
2026-01-19 09:16:51.22	38.81	10.21	-39.7	-41.7	18.9	0.00e+00	0	39	0	480247808	50	4669
2026-01-19 09:16:53.21	38.45	10.22	-39.6	-41.5	19.0	0.00e+00	0	39	0	491782144	50	4585
2026-01-19 09:16:55.20	38.09	10.23	-39.4	-41.3	19.2	0.00e+00	0	39	0	503316480	50	4486
2026-01-19 09:16:57.19	37.73	10.24	-39.4	-41.3	19.3	0.00e+00	0	39	0	513802240	50	4464
2026-01-19 09:16:59.17	37.38	10.25	-39.2	-41.0	19.5	0.00e+00	0	39	0	525336576	50	4332
2026-01-19 09:17:01.17	37.02	10.26	-39.0	-40.9	19.7	0.00e+00	0	39	0	536870912	50	4250
2026-01-19 09:17:03.17	36.65	10.26	-38.9	-40.8	19.7	0.00e+00	0	39	0	548405248	49	4459
2026-01-19 09:17:05.15	36.30	10.27	-38.9	-40.8	19.8	0.00e+00	0	39	0	558891008	49	4449
2026-01-19 09:17:07.14	35.94	10.27	-39.1	-41.0	19.6	0.00e+00	0	39	0	570425344	49	4553
2026-01-19 09:17:09.13	35.58	10.28	-39.2	-41.0	19.5	0.00e+00	0	40	0	581959680	49	4586
2026-01-19 09:17:11.12	35.22	10.28	-39.2	-41.1	19.4	0.00e+00	0	40	0	592445440	49	4616
2026-01-19 09:17:13.11	34.86	10.28	-39.3	-41.1	19.4	0.00e+00	0	39	0	603979776	49	4647
2026-01-19 09:17:15.11	34.50	10.28	-39.4	-41.3	19.3	0.00e+00	0	40	0	614465536	49	4735
2026-01-19 09:17:17.10	34.14	10.28	-39.4	-41.2	19.3	0.00e+00	0	40	0	625999872	49	4703
2026-01-19 09:17:19.10	33.77	10.28	-39.6	-41.6	19.0	0.00e+00	0	39	0	637534208	49	4871
2026-01-19 09:17:21.09	33.41	10.27	-39.8	-41.7	18.9	0.00e+00	0	39	0	649068544	50	4679
2026-01-19 09:17:23.07	33.06	10.27	-39.5	-41.4	19.2	0.00e+00	0	39	0	659554304	50	4540
2026-01-19 09:17:25.06	32.70	10.26	-39.4	-41.4	19.2	0.00e+00	0	39	0	671088640	50	4511
2026-01-19 09:17:27.04	32.34	10.26	-39.1	-41.1	19.5	0.00e+00	0	40	0	682622976	50	4342
2026-01-19 09:17:29.03	31.98	10.25	-39.0	-40.9	19.6	0.00e+00	0	40	0	693108736	50	4265
2026-01-19 09:17:31.02	31.62	10.24	-39.0	-40.8	19.7	0.00e+00	0	39	0	704643072	49	4484
2026-01-19 09:17:33.01	31.26	10.23	-39.1	-41.0	19.6	0.00e+00	0	39	0	715128832	49	4572
2026-01-19 09:17:35.01	30.90	10.22	-39.3	-41.2	19.3	0.00e+00	0	39	0	726663168	49	4692
2026-01-19 09:17:37.00	30.54	10.21	-39.1	-41.0	19.6	0.00e+00	0	39	0	738197504	49	4553
2026-01-19 09:17:39.00	30.18	10.19	-38.9	-40.8	19.8	0.00e+00	0	39	0	749731840	49	4452
2026-01-19 09:17:40.99	29.83	10.18	-39.0	-40.8	19.7	0.00e+00	0	39	0	760217600	49	4493
2026-01-19 09:17:42.99	29.47	10.16	-39.2	-41.0	19.5	0.00e+00	0	39	0	771751936	49	4591
2026-01-19 09:17:44.99	29.11	10.15	-39.4	-41.3	19.3	0.00e+00	0	39	0	783286272	49	4722
2026-01-19 09:17:46.98	28.75	10.13	-39.5	-41.5	19.1	0.00e+00	0	39	0	794820608	49	4819
2026-01-19 09:17:48.94	28.40	10.11	-39.4	-41.3	19.2	0.00e+00	0	39	0	805306368	49	4739
2026-01-19 09:17:50.93	28.05	10.09	-39.4	-41.4	19.2	0.00e+00	0	39	0	816840704	49	4769
2026-01-19 09:17:52.92	27.69	10.07	-39.4	-41.3	19.3	0.00e+00	0	39	0	827326464	49	4726
2026-01-19 09:17:54.91	27.34	10.05	-39.3	-41.2	19.4	0.00e+00	0	40	0	838860800	49	4655
2026-01-19 09:17:56.90	26.98	10.03	-39.0	-40.9	19.6	0.00e+00	0	39	0	850395136	49	4525
2026-01-19 09:17:58.89	26.63	10.00	-39.2	-41.0	19.5	0.00e+00	0	39	0	861929472	49	4595
2026-01-19 09:18:00.89	26.27	9.98	-39.1	-41.0	19.6	0.00e+00	0	39	0	872415232	49	4549
2026-01-19 09:18:02.88	25.92	9.95	-39.1	-41.0	19.5	0.00e+00	0	39	0	883949568	49	4566
2026-01-19 09:18:04.88	25.57	9.93	-39.3	-41.2	19.3	0.00e+00	0	39	0	895483904	49	4689
2026-01-19 09:18:06.87	25.22	9.90	-39.3	-41.2	19.3	0.00e+00	0	39	0	905969664	49	4702
2026-01-19 09:18:08.87	24.87	9.87	-39.4	-41.3	19.2	0.00e+00	0	40	0	917504000	49	4754
2026-01-19 09:18:10.87	24.52	9.84	-39.4	-41.3	19.3	0.00e+00	0	39	0	929038336	49	4726
2026-01-19 09:18:12.86	24.17	9.81	-39.3	-41.2	19.3	0.00e+00	0	39	0	939524096	49	4683
2026-01-19 09:18:14.86	23.82	9.78	-39.7	-41.6	18.9	0.00e+00	0	39	0	951058432	49	4921
2026-01-19 09:18:16.85	23.47	9.75	-39.5	-41.5	19.1	0.00e+00	0	39	0	962592768	50	4546
2026-01-19 09:18:18.85	23.12	9.71	-39.6	-41.6	19.0	0.00e+00	0	39	0	974127104	50	4601
2026-01-19 09:18:20.84	22.78	9.68	-39.2	-41.1	19.5	0.00e+00	0	39	0	984612864	50	4364
2026-01-19 09:18:22.84	22.43	9.64	-39.3	-41.3	19.2	0.00e+00	0	39	0	996147200	50	4474
2026-01-19 09:18:24.83	22.09	9.61	-39.1	-41.1	19.4	0.00e+00	0	40	0	1007681536	50	4381
2026-01-19 09:18:26.83	21.74	9.57	-39.2	-41.3	19.3	0.00e+00	0	39	0	1019215872	50	4456
2026-01-19 09:18:28.82	21.40	9.53	-39.2	-41.3	19.2	0.00e+00	0	39	0	1029701632	50	4477
2026-01-19 09:18:30.81	21.06	9.49	-39.2	-41.3	19.2	0.00e+00	0	39	0	1041235968	50	4473
2026-01-19 09:18:32.80	20.72	9.45	-39.1	-41.2	19.3	0.00e+00	0	39	0	1052770304	50	4421
2026-01-19 09:18:34.80	20.38	9.41	-39.2	-41.3	19.2	0.00e+00	0	40	0	1063256064	50	4480
2026-01-19 09:18:36.80	20.04	9.37	-39.3	-41.3	19.2	0.00e+00	0	39	0	1074790400	50	4483
2026-01-19 09:18:38.80	19.70	9.33	-39.2	-41.2	19.3	0.00e+00	0	39	0	1086324736	50	4440
2026-01-19 09:18:40.79	19.36	9.28	-39.5	-41.5	19.1	0.00e+00	0	39	0	1096810496	50	4559
2026-01-19 09:18:42.79	19.03	9.24	-39.6	-41.6	19.0	0.00e+00	0	39	0	1108344832	50	4611
2026-01-19 09:18:44.78	18.69	9.19	-39.6	-41.6	19.0	0.00e+00	0	39	0	1119879168	50	4621
2026-01-19 09:18:46.78	18.36	9.15	-39.6	-41.6	19.0	0.00e+00	0	39	0	1131413504	50	4610
2026-01-19 09:18:48.77	18.03	9.10	-39.3	-41.2	19.3	0.00e+00	0	40	0	1141899264	50	4426
2026-01-19 09:18:50.77	17.70	9.05	-39.6	-41.5	19.0	0.00e+00	0	39	0	1153433600	50	4595
2026-01-19 09:18:52.77	17.36	9.00	-43.8	-46.6	14.5	0.00e+00	0	40	0	1164967936	58	5208
2026-01-19 09:18:54.77	17.03	8.95	-49.9	-62.3	3.8	8.46e-01	0	39	104	1166016512	70	15796
2026-01-19 09:18:56.76	16.71	8.90	-49.7	-62.5	3.8	8.47e-01	0	39	104	1166016512	70	16218
2026-01-19 09:18:58.76	16.38	8.85	-50.4	-62.6	3.8	8.48e-01	0	40	104	1166016512	71	15439
2026-01-19 09:19:00.76	16.05	8.80	-50.3	-62.7	3.8	8.46e-01	0	39	104	1166016512	71	15597
2026-01-19 09:19:02.75	15.73	8.75	-50.4	-62.7	3.8	8.48e-01	0	39	104	1166016512	71	15632
2026-01-19 09:19:04.75	15.40	8.69	-50.3	-62.7	3.8	8.46e-01	0	40	104	1166016512	71	15675
2026-01-19 09:19:06.75	15.08	8.64	-50.5	-62.7	3.8	8.46e-01	0	39	104	1166016512	71	15729
2026-01-19 09:19:08.74	14.76	8.58	-50.6	-62.8	3.8	8.47e-01	0	39	104	1166016512	71	15774
2026-01-19 09:19:10.74	14.44	8.53	-50.5	-62.7	3.8	8.47e-01	0	40	104	1166016512	72	14787
2026-01-19 09:19:12.74	14.12	8.47	-50.5	-62.7	3.8	8.47e-01	0	40	104	1166016512	72	14800
2026-01-19 09:19:14.73	13.81	8.41	-50.4	-62.7	3.8	8.47e-01	0	40	104	1166016512	72	14806
2026-01-19 09:19:16.73	13.49	8.36	-50.3	-62.6	3.8	8.46e-01	0	40	104	1166016512	72	14707
2026-01-19 09:19:18.72	13.18	8.30	-50.1	-62.6	3.8	8.47e-01	0	39	104	1166016512	72	14653
2026-01-19 09:19:20.71	12.86	8.24	-50.1	-62.6	3.8	8.47e-01	0	39	104	1166016512	72	14636
2026-01-19 09:19:22.70	12.55	8.18	-50.1	-62.6	3.8	8.46e-01	0	40	104	1166016512	72	14701
2026-01-19 09:19:24.69	12.24	8.12	-50.1	-62.6	3.8	8.47e-01	0	40	104	1166016512	72	14684
2026-01-19 09:19:26.69	11.93	8.06	-50.1	-62.6	3.8	8.46e-01	0	40	104	1166016512	72	14700
2026-01-19 09:19:28.68	11.62	8.00	-50.1	-62.6	3.8	8.46e-01	0	40	104	1166016512	72	14650
2026-01-19 09:19:30.68	11.32	7.93	-50.1	-62.6	3.8	8.48e-01	0	40	104	1166016512	72	14617
2026-01-19 09:19:32.67	11.01	7.87	-50.1	-62.6	3.8	8.47e-01	0	39	104	1166016512	72	14615
2026-01-19 09:19:34.67	10.71	7.81	-50.1	-62.6	3.8	8.47e-01	0	40	104	1166016512	72	14575
2026-01-19 09:19:36.67	10.40	7.74	-50.1	-62.6	3.8	8.47e-01	0	40	104	1166016512	72	14635
2026-01-19 09:19:38.67	10.10	7.68	-50.1	-62.6	3.8	8.47e-01	0	40	104	1166016512	72	14557
2026-01-19 09:19:40.67	9.80	7.61	-50.1	-62.6	3.8	8.47e-01	0	40	104	1166016512	72	14629
2026-01-19 09:19:42.67	9.50	7.55	-50.1	-62.6	3.8	8.46e-01	0	39	104	1166016512	72	14619
2026-01-19 09:19:44.67	9.20	7.48	-50.1	-62.5	3.8	8.47e-01	0	40	104	1166016512	72	14538
2026-01-19 09:19:46.67	8.91	7.41	-50.1	-62.6	3.8	8.48e-01	0	40	104	1166016512	72	14583
2026-01-19 09:19:48.67	8.61	7.35	-50.1	-62.6	3.8	8.45e-01	0	40	104	1166016512	72	14577
2026-01-19 09:19:50.66	8.32	7.28	-50.1	-62.6	3.8	8.47e-01	0	40	104	1166016512	72	14572
2026-01-19 09:19:52.66	8.03	7.21	-50.0	-62.6	3.8	8.46e-01	0	40	104	1166016512	72	14546
2026-01-19 09:19:54.66	7.74	7.14	-50.1	-62.5	3.8	8.47e-01	0	39	104	1166016512	72	14485
2026-01-19 09:19:56.65	7.45	7.07	-50.1	-62.6	3.8	8.47e-01	0	40	104	1166016512	72	14565
2026-01-19 09:19:58.65	7.16	7.00	-50.1	-62.6	3.8	8.48e-01	0	40	104	1166016512	71	15433
2026-01-19 09:20:00.65	6.88	6.93	-50.0	-62.6	3.8	8.47e-01	0	40	104	1166016512	71	15492
2026-01-19 09:20:02.64	6.59	6.86	-49.9	-62.6	3.8	8.48e-01	0	40	104	1166016512	71	15451
2026-01-19 09:20:04.63	6.31	6.79	-50.0	-62.6	3.8	8.47e-01	0	40	104	1166016512	71	15414
2026-01-19 09:20:06.63	6.03	6.72	-50.1	-62.6	3.8	8.47e-01	0	40	104	1166016512	71	15413
2026-01-19 09:20:08.63	5.75	6.64	-50.1	-62.5	3.8	8.47e-01	0	40	104	1166016512	71	15388
2026-01-19 09:20:10.63	5.47	6.57	-50.1	-62.6	3.8	8.46e-01	0	40	104	1166016512	71	15435
2026-01-19 09:20:12.63	5.19	6.50	-50.1	-62.6	3.8	8.47e-01	0	40	104	1166016512	71	15428
2026-01-19 09:20:14.62	4.91	6.42	-50.1	-62.5	3.8	8.47e-01	0	40	104	1166016512	71	15370
2026-01-19 09:20:16.62	4.64	6.35	-50.1	-62.5	3.8	8.45e-01	0	40	104	1166016512	71	15385
2026-01-19 09:20:18.62	4.37	6.27	-50.1	-62.6	3.8	8.46e-01	0	40	104	1166016512	71	15447
2026-01-19 09:20:20.62	4.09	6.20	-50.1	-62.6	3.8	8.46e-01	0	40	104	1166016512	71	15402
2026-01-19 09:20:22.61	3.82	6.12	-50.1	-62.5	3.8	8.47e-01	0	40	104	1166016512	71	15400
2026-01-19 09:20:24.61	3.55	6.05	-50.1	-62.5	3.8	8.47e-01	0	40	104	1166016512	71	15332
2026-01-19 09:20:26.60	3.29	5.97	-50.1	-62.6	3.8	8.47e-01	0	40	104	1166016512	71	15421
2026-01-19 09:20:28.60	3.02	5.90	-50.1	-62.6	3.8	8.48e-01	0	39	104	1166016512	71	15487
2026-01-19 09:20:30.59	2.76	5.82	-50.1	-62.5	3.8	8.48e-01	0	40	104	1166016512	71	15385
2026-01-19 09:20:32.59	2.49	5.74	-50.1	-62.6	3.8	8.47e-01	0	40	104	1166016512	71	15474
2026-01-19 09:20:34.59	2.23	5.67	-50.1	-62.6	3.8	8.47e-01	0	39	104	1166016512	71	15451
2026-01-19 09:20:36.59	1.97	5.59	-50.1	-62.6	3.8	8.47e-01	0	40	104	1166016512	71	15415
2026-01-19 09:20:38.59	1.71	5.51	-50.1	-62.5	3.8	8.49e-01	0	40	104	1166016512	71	15395
2026-01-19 09:20:40.59	1.45	5.43	-50.0	-62.6	3.8	8.47e-01	0	40	104	1166016512	71	15434
2026-01-19 09:20:42.58	1.20	5.35	-50.1	-62.6	3.8	8.47e-01	0	40	104	1166016512	71	15420
2026-01-19 09:20:44.58	0.94	5.27	-50.1	-62.6	3.8	8.47e-01	0	40	104	1166016512	71	15440
2026-01-19 09:20:46.58	0.69	5.19	-50.1	-62.6	3.8	8.48e-01	0	40	104	1166016512	71	15428
2026-01-19 09:20:48.57	0.44	5.11	-50.1	-62.6	3.8	8.48e-01	0	39	104	1166016512	71	15421
2026-01-19 09:20:50.57	0.19	5.03	-50.1	-62.5	3.8	8.47e-01	0	40	104	1166016512	71	15388

#Closed at: 2026-01-19 09:20:52
#Recorded file [1166 MB]: D:/Data/31040_260119_121336.dat