passes_logs/2026/01/19/T1/T1__20260119_220146_SUOMI_NPP_rec.log

#Pass ID: 20260119_220146_SUOMI NPP
#Satellite: SUOMI NPP
#Configuration: NPP
#almurnet v.1.7.20251203
#Start time: 2026-01-19 22:01:46

#Version: 2.0.20230620
#Station: T1
#Location: 37.570604 lon 55.790049 lat
#TLE: 1 37849U 11061A   26019.26265094  .00000081  00000+0  59609-4 0  9993
#TLE: 2 37849  98.7817 321.2746 0002356  56.2510 303.8890 14.19526363737315

#Time	Az	El	Level	Level2	SNR	BER	BlckErr	Temp	State	Recorded	gain1	gain2
2026-01-19 22:01:46.02	32.70	5.00	-50.0	-65.4	3.8	1.49e+00	0	41	0	0	72	20074
2026-01-19 22:01:48.99	32.99	5.16	-50.0	-65.4	3.8	1.49e+00	0	41	104	0	71	21345
2026-01-19 22:01:51.97	33.29	5.32	-50.0	-65.3	3.8	1.49e+00	0	41	104	0	71	21210
2026-01-19 22:01:54.95	33.60	5.48	-50.0	-65.4	3.8	1.49e+00	0	41	104	0	71	21302
2026-01-19 22:01:57.93	33.90	5.64	-50.0	-65.4	3.8	1.49e+00	0	41	104	0	71	21282
2026-01-19 22:02:00.91	34.21	5.80	-50.0	-65.4	3.8	1.49e+00	0	41	104	0	71	21276
2026-01-19 22:02:03.89	34.53	5.96	-50.0	-65.3	3.8	1.49e+00	0	42	104	0	71	21256
2026-01-19 22:02:06.87	34.84	6.12	-50.0	-65.3	3.8	1.49e+00	0	42	104	0	71	21211
2026-01-19 22:02:09.85	35.17	6.29	-50.0	-65.3	3.8	1.49e+00	0	42	104	0	71	21188
2026-01-19 22:02:12.83	35.49	6.45	-50.0	-65.4	3.8	1.49e+00	0	42	104	0	71	21288
2026-01-19 22:02:15.81	35.82	6.61	-50.0	-65.3	3.8	1.49e+00	0	42	104	0	71	21205
2026-01-19 22:02:18.79	36.15	6.77	-50.0	-65.3	3.8	1.49e+00	0	42	104	0	71	21072
2026-01-19 22:02:21.77	36.48	6.94	-50.0	-65.3	3.8	1.49e+00	0	42	104	0	71	21082
2026-01-19 22:02:24.75	36.82	7.10	-50.0	-65.3	3.8	1.49e+00	0	42	104	0	71	21020
2026-01-19 22:02:27.74	37.16	7.26	-50.0	-65.3	3.8	1.49e+00	0	42	104	0	71	21161
2026-01-19 22:02:30.72	37.51	7.43	-50.0	-65.3	3.8	1.49e+00	0	42	104	0	71	21192
2026-01-19 22:02:33.70	37.85	7.59	-50.0	-65.3	3.8	1.49e+00	0	42	104	0	71	21195
2026-01-19 22:02:36.68	38.21	7.75	-50.0	-65.3	3.8	1.49e+00	0	43	104	0	71	21081
2026-01-19 22:02:39.66	38.56	7.92	-50.0	-65.0	3.8	1.49e+00	0	43	104	0	71	20522
2026-01-19 22:02:42.64	38.92	8.08	-50.0	-65.0	3.8	1.49e+00	0	42	104	0	71	20477
2026-01-19 22:02:45.62	39.29	8.25	-50.0	-65.3	3.8	1.49e+00	0	43	104	0	71	21138
2026-01-19 22:02:48.60	39.66	8.41	-50.0	-65.3	3.8	1.49e+00	0	43	104	0	71	21025
2026-01-19 22:02:51.58	40.03	8.58	-50.0	-65.0	3.8	1.49e+00	0	43	104	0	71	20405
2026-01-19 22:02:54.56	40.40	8.74	-49.9	-64.4	3.8	1.49e+00	0	43	104	0	71	18959
2026-01-19 22:02:57.54	40.79	8.91	-49.8	-62.2	4.1	1.48e+00	0	43	0	0	71	14810
2026-01-19 22:03:00.52	41.17	9.07	-49.4	-59.0	5.6	1.36e-01	0	43	0	4194304	69	11420
2026-01-19 22:03:03.50	41.56	9.23	-48.9	-56.5	7.8	6.30e-03	0	43	0	8388608	68	9157
2026-01-19 22:03:06.49	41.95	9.40	-45.7	-49.1	14.9	7.00e-07	0	43	0	12582912	63	5198
2026-01-19 22:03:09.48	42.35	9.56	-45.4	-48.7	15.4	0.00e+00	0	43	0	17825792	62	5225
2026-01-19 22:03:12.46	42.75	9.73	-45.4	-48.7	15.3	0.00e+00	0	43	0	24117248	62	5226
2026-01-19 22:03:15.45	43.16	9.89	-45.0	-48.0	15.9	0.00e+00	0	43	0	29360128	61	5129
2026-01-19 22:03:18.43	43.57	10.06	-44.6	-47.5	16.5	0.00e+00	0	43	0	34603008	61	4834
2026-01-19 22:03:21.42	43.99	10.22	-44.4	-47.2	16.8	0.00e+00	0	43	0	40894464	60	4960
2026-01-19 22:03:24.45	44.41	10.39	-44.3	-47.1	16.9	0.00e+00	0	43	0	46137344	60	4897
2026-01-19 22:03:27.54	44.85	10.56	-44.2	-46.9	17.1	0.00e+00	0	43	0	52428800	60	4782
2026-01-19 22:03:30.39	45.26	10.71	-43.8	-46.4	17.6	0.00e+00	0	43	0	57671680	59	4760
2026-01-19 22:03:33.52	45.72	10.89	-43.3	-45.8	18.1	0.00e+00	0	43	0	62914560	58	4728
2026-01-19 22:03:36.37	46.14	11.04	-43.4	-45.9	18.0	0.00e+00	0	43	0	68157440	58	4764
2026-01-19 22:03:39.50	46.61	11.21	-43.8	-46.4	17.5	0.00e+00	0	43	0	74448896	58	5072
2026-01-19 22:03:42.34	47.03	11.37	-43.9	-46.5	17.4	0.00e+00	0	43	0	79691776	58	5123
2026-01-19 22:03:45.47	47.51	11.53	-43.8	-46.4	17.6	0.00e+00	0	43	0	85983232	58	5056
2026-01-19 22:03:48.31	47.94	11.69	-43.7	-46.3	17.6	0.00e+00	0	43	0	91226112	58	5005
2026-01-19 22:03:51.44	48.43	11.86	-43.7	-46.3	17.7	0.00e+00	0	43	0	96468992	58	4991
2026-01-19 22:03:54.28	48.87	12.01	-43.6	-46.2	17.8	0.00e+00	0	43	0	101711872	58	4936
2026-01-19 22:03:57.49	49.38	12.18	-43.7	-46.3	17.7	0.00e+00	0	43	0	108003328	58	4998
2026-01-19 22:04:00.33	49.84	12.33	-43.8	-46.4	17.6	0.00e+00	0	43	0	113246208	58	5053
2026-01-19 22:04:03.81	50.40	12.51	-43.9	-46.4	17.5	0.00e+00	0	43	0	119537664	58	5098
2026-01-19 22:04:06.51	50.84	12.65	-43.8	-46.4	17.6	0.00e+00	0	43	0	124780544	58	5056
2026-01-19 22:04:09.79	51.39	12.83	-43.8	-46.3	17.7	0.00e+00	0	43	0	131072000	58	5016
2026-01-19 22:04:12.56	51.85	12.97	-43.9	-46.5	17.5	0.00e+00	0	43	0	136314880	58	5138
2026-01-19 22:04:15.89	52.41	13.14	-44.3	-47.0	17.1	0.00e+00	0	43	0	142606336	59	5112
2026-01-19 22:04:18.87	52.92	13.29	-44.2	-46.9	17.2	0.00e+00	0	43	0	147849216	59	5042
2026-01-19 22:04:22.39	53.53	13.47	-44.2	-46.9	17.2	0.00e+00	0	43	0	155189248	59	5059
2026-01-19 22:04:25.23	54.02	13.61	-44.5	-47.3	16.8	0.00e+00	0	43	0	160432128	59	5317
2026-01-19 22:04:28.36	54.58	13.77	-44.6	-47.5	16.7	0.00e+00	0	43	0	165675008	60	5118
2026-01-19 22:04:31.20	55.08	13.91	-44.6	-47.4	16.8	0.00e+00	0	43	0	170917888	60	5060
2026-01-19 22:04:34.47	55.67	14.07	-44.4	-47.2	16.9	0.00e+00	0	43	0	177209344	60	4954
2026-01-19 22:04:37.19	56.16	14.20	-44.4	-47.2	17.0	0.00e+00	0	43	0	182452224	60	4936
2026-01-19 22:04:40.46	56.76	14.36	-44.5	-47.3	16.8	0.00e+00	0	43	0	188743680	60	5027
2026-01-19 22:04:43.19	57.27	14.49	-44.8	-47.7	16.5	0.00e+00	0	43	0	193986560	60	5263
2026-01-19 22:04:46.46	57.88	14.64	-44.6	-47.4	16.7	0.00e+00	0	43	0	200278016	60	5092
2026-01-19 22:04:49.24	58.40	14.77	-44.4	-47.1	17.1	0.00e+00	0	43	0	205520896	60	4922
2026-01-19 22:04:52.71	59.06	14.93	-44.8	-47.6	16.5	0.00e+00	0	43	0	211812352	60	5210
2026-01-19 22:04:55.47	59.59	15.05	-45.1	-48.0	16.3	0.00e+00	0	43	0	217055232	60	5460
2026-01-19 22:04:58.74	60.22	15.20	-45.0	-48.1	16.1	0.00e+00	0	44	0	223346688	60	5510
2026-01-19 22:05:01.47	60.76	15.32	-45.4	-48.7	15.6	0.00e+00	0	43	0	228589568	61	5529
2026-01-19 22:05:04.74	61.40	15.46	-44.7	-47.6	16.6	0.00e+00	0	43	0	233832448	61	4878
2026-01-19 22:05:07.45	61.94	15.57	-44.5	-47.3	16.9	0.00e+00	0	43	0	239075328	60	5006
2026-01-19 22:05:10.74	62.60	15.71	-44.7	-47.6	16.6	0.00e+00	0	43	0	245366784	60	5181
2026-01-19 22:05:13.68	63.19	15.83	-44.7	-47.6	16.6	0.00e+00	0	43	0	250609664	60	5172
2026-01-19 22:05:16.66	63.80	15.95	-44.3	-47.0	17.1	0.00e+00	0	44	0	256901120	60	4840
2026-01-19 22:05:19.65	64.41	16.07	-44.1	-46.8	17.4	0.00e+00	0	43	0	262144000	60	4717
2026-01-19 22:05:22.63	65.03	16.18	-44.1	-46.6	17.5	0.00e+00	0	44	0	267386880	59	4919
2026-01-19 22:05:26.03	65.73	16.31	-43.7	-46.2	17.8	0.00e+00	0	43	0	274726912	59	4671
2026-01-19 22:05:28.93	66.34	16.41	-43.9	-46.5	17.6	0.00e+00	0	44	0	279969792	59	4835
2026-01-19 22:05:32.26	67.05	16.53	-43.6	-46.1	18.0	0.00e+00	0	43	0	286261248	59	4612
2026-01-19 22:05:34.96	67.62	16.62	-43.8	-46.3	17.8	0.00e+00	0	43	0	290455552	59	4748
2026-01-19 22:05:38.24	68.33	16.73	-44.4	-47.1	17.0	0.00e+00	0	44	0	296747008	59	5160
2026-01-19 22:05:41.08	68.94	16.82	-44.6	-47.3	16.9	0.00e+00	0	44	0	301989888	59	5322
2026-01-19 22:05:44.51	69.68	16.93	-44.4	-47.1	17.1	0.00e+00	0	43	0	308281344	59	5186
2026-01-19 22:05:47.46	70.33	17.02	-43.9	-46.5	17.7	0.00e+00	0	44	0	314572800	59	4816
2026-01-19 22:05:50.75	71.05	17.12	-43.2	-45.6	18.4	0.00e+00	0	44	0	320864256	58	4621
2026-01-19 22:05:53.46	71.65	17.19	-43.9	-46.4	17.7	0.00e+00	0	44	0	325058560	58	5092
2026-01-19 22:05:56.73	72.38	17.28	-44.0	-46.5	17.6	0.00e+00	0	44	0	331350016	59	4852
2026-01-19 22:05:59.44	72.98	17.35	-43.9	-46.5	17.6	0.00e+00	0	43	0	336592896	59	4843
2026-01-19 22:06:02.71	73.72	17.43	-44.4	-47.1	17.0	0.00e+00	0	43	0	342884352	59	5165
2026-01-19 22:06:05.46	74.34	17.49	-43.7	-46.2	17.8	0.00e+00	0	43	0	348127232	59	4701
2026-01-19 22:06:08.74	75.08	17.56	-43.9	-46.5	17.6	0.00e+00	0	44	0	354418688	59	4817
2026-01-19 22:06:11.46	75.70	17.62	-44.1	-46.7	17.4	0.00e+00	0	44	0	359661568	59	4965
2026-01-19 22:06:14.76	76.46	17.68	-43.8	-46.3	17.7	0.00e+00	0	44	0	365953024	59	4755
2026-01-19 22:06:17.53	77.09	17.74	-44.6	-47.3	16.8	0.00e+00	0	43	0	371195904	59	5334
2026-01-19 22:06:20.87	77.86	17.79	-45.0	-47.9	16.2	0.00e+00	0	43	0	377487360	60	5402
2026-01-19 22:06:23.87	78.55	17.84	-45.2	-48.2	16.1	0.00e+00	0	43	0	382730240	61	5272
2026-01-19 22:06:27.14	79.31	17.88	-45.2	-48.3	16.0	0.00e+00	0	43	0	389021696	61	5305
2026-01-19 22:06:29.90	79.95	17.92	-44.5	-47.2	17.0	0.00e+00	0	43	0	394264576	60	4980
2026-01-19 22:06:33.15	80.71	17.96	-44.4	-47.2	17.1	0.00e+00	0	43	0	399507456	60	4938
2026-01-19 22:06:36.00	81.37	17.99	-44.0	-46.7	17.4	0.00e+00	0	44	0	405798912	60	4693
2026-01-19 22:06:39.12	82.10	18.01	-44.2	-47.0	17.2	0.00e+00	0	43	0	411041792	60	4836
2026-01-19 22:06:41.97	82.77	18.03	-44.5	-47.4	16.9	0.00e+00	0	44	0	416284672	60	5044
2026-01-19 22:06:45.10	83.51	18.05	-44.4	-47.2	17.1	0.00e+00	0	44	0	422576128	60	4929
2026-01-19 22:06:48.40	84.28	18.07	-44.6	-47.6	16.7	0.00e+00	0	43	0	428867584	60	5178
2026-01-19 22:06:51.17	84.93	18.07	-44.3	-47.2	17.0	0.00e+00	0	43	0	434110464	60	4934
2026-01-19 22:06:54.45	85.70	18.08	-43.9	-46.5	17.7	0.00e+00	0	43	0	440401920	59	4845
2026-01-19 22:06:57.32	86.38	18.08	-44.0	-46.7	17.5	0.00e+00	0	43	0	445644800	59	4965
2026-01-19 22:07:00.81	87.20	18.08	-44.3	-47.0	17.2	0.00e+00	0	44	0	451936256	59	5130
2026-01-19 22:07:03.83	87.91	18.07	-44.8	-47.8	16.4	0.00e+00	0	44	0	457179136	60	5310
2026-01-19 22:07:06.81	88.61	18.05	-45.1	-48.1	16.1	0.00e+00	0	44	0	463470592	60	5516
2026-01-19 22:07:09.80	89.31	18.04	-44.9	-48.0	16.3	0.00e+00	0	44	0	468713472	60	5404
2026-01-19 22:07:12.87	90.03	18.02	-44.9	-47.9	16.4	0.00e+00	0	44	0	475004928	60	5366
2026-01-19 22:07:15.84	90.72	17.99	-44.5	-47.3	16.9	0.00e+00	0	44	0	480247808	60	5008
2026-01-19 22:07:19.13	91.49	17.96	-43.6	-46.1	17.9	0.00e+00	0	44	0	486539264	59	4631
2026-01-19 22:07:22.27	92.23	17.92	-43.4	-45.9	18.2	0.00e+00	0	44	0	491782144	58	4760
2026-01-19 22:07:25.19	92.90	17.89	-43.9	-46.5	17.6	0.00e+00	0	44	0	498073600	58	5144
2026-01-19 22:07:28.37	93.64	17.84	-44.5	-47.3	16.8	0.00e+00	0	44	0	503316480	59	5293
2026-01-19 22:07:31.23	94.30	17.80	-44.7	-47.6	16.7	0.00e+00	0	44	0	508559360	60	5163
2026-01-19 22:07:34.50	95.06	17.74	-44.5	-47.2	16.9	0.00e+00	0	44	0	514850816	60	4980
2026-01-19 22:07:37.20	95.68	17.69	-44.0	-46.6	17.6	0.00e+00	0	43	0	520093696	60	4623
2026-01-19 22:07:40.47	96.43	17.63	-44.0	-46.6	17.5	0.00e+00	0	44	0	526385152	59	4888
2026-01-19 22:07:43.19	97.05	17.58	-44.4	-47.1	17.1	0.00e+00	0	44	0	531628032	59	5164
2026-01-19 22:07:46.63	97.83	17.50	-44.2	-46.8	17.3	0.00e+00	0	44	0	537919488	59	5008
2026-01-19 22:07:49.66	98.52	17.43	-44.0	-46.5	17.6	0.00e+00	0	44	0	543162368	59	4862
2026-01-19 22:07:52.98	99.26	17.35	-44.0	-46.6	17.5	0.00e+00	0	44	0	549453824	59	4885
2026-01-19 22:07:55.70	99.87	17.28	-43.7	-46.2	17.9	0.00e+00	0	44	0	554696704	59	4668
2026-01-19 22:07:58.97	100.60	17.19	-43.3	-45.7	18.4	0.00e+00	0	44	0	560988160	58	4668
2026-01-19 22:08:01.78	101.23	17.11	-43.5	-45.9	18.2	0.00e+00	0	44	0	566231040	58	4782
2026-01-19 22:08:05.11	101.96	17.02	-43.6	-46.0	18.0	0.00e+00	0	44	0	572522496	58	4864
2026-01-19 22:08:07.97	102.59	16.93	-43.6	-46.0	18.0	0.00e+00	0	43	0	577765376	58	4852
2026-01-19 22:08:11.24	103.30	16.83	-43.6	-46.0	18.1	0.00e+00	0	44	0	584056832	58	4846
2026-01-19 22:08:13.97	103.89	16.74	-43.5	-45.9	18.1	0.00e+00	0	44	0	589299712	58	4798
2026-01-19 22:08:17.24	104.60	16.63	-43.8	-46.4	17.7	0.00e+00	0	43	0	595591168	58	5047
2026-01-19 22:08:19.94	105.17	16.54	-43.6	-46.1	17.9	0.00e+00	0	44	0	599785472	58	4897
2026-01-19 22:08:23.24	105.87	16.42	-43.3	-45.7	18.3	0.00e+00	0	44	0	606076928	58	4671
2026-01-19 22:08:25.94	106.44	16.32	-43.7	-46.1	17.9	0.00e+00	0	44	0	611319808	58	4910
2026-01-19 22:08:29.22	107.13	16.20	-43.7	-46.3	17.8	0.00e+00	0	44	0	617611264	58	4988
2026-01-19 22:08:31.96	107.70	16.09	-43.6	-46.1	18.0	0.00e+00	0	43	0	622854144	58	4881
2026-01-19 22:08:35.22	108.37	15.97	-44.6	-47.4	16.7	0.00e+00	0	44	0	629145600	59	5396
2026-01-19 22:08:38.08	108.96	15.85	-44.9	-47.8	16.4	0.00e+00	0	44	0	634388480	60	5322
2026-01-19 22:08:41.21	109.59	15.72	-44.3	-46.9	17.2	0.00e+00	0	44	0	639631360	60	4808
2026-01-19 22:08:44.07	110.17	15.60	-43.6	-46.1	17.9	0.00e+00	0	44	0	645922816	59	4627
2026-01-19 22:08:47.33	110.82	15.47	-43.7	-46.2	17.9	0.00e+00	0	43	0	651165696	59	4656
2026-01-19 22:08:50.12	111.37	15.35	-43.8	-46.4	17.6	0.00e+00	0	44	0	656408576	59	4780
2026-01-19 22:08:53.48	112.03	15.20	-44.7	-47.6	16.5	0.00e+00	0	43	0	662700032	59	5468
2026-01-19 22:08:56.40	112.60	15.07	-45.5	-48.8	15.4	0.00e+00	0	43	0	668991488	61	5634
2026-01-19 22:08:59.78	113.25	14.92	-45.1	-48.2	16.0	0.00e+00	0	44	0	675282944	61	5243
2026-01-19 22:09:02.50	113.77	14.79	-44.9	-47.8	16.3	0.00e+00	0	44	0	680525824	61	5040
2026-01-19 22:09:05.77	114.39	14.64	-44.3	-46.9	17.2	0.00e+00	0	44	0	685768704	60	4803
2026-01-19 22:09:08.49	114.90	14.51	-44.0	-46.7	17.4	0.00e+00	0	44	0	691011584	60	4653
2026-01-19 22:09:11.73	115.51	14.35	-44.9	-47.8	16.4	0.00e+00	0	44	0	697303040	60	5302
2026-01-19 22:09:14.58	116.03	14.22	-45.0	-48.0	16.2	0.00e+00	0	44	0	702545920	60	5420
2026-01-19 22:09:17.70	116.60	14.06	-44.6	-47.5	16.6	0.00e+00	0	44	0	708837376	60	5113
2026-01-19 22:09:20.54	117.11	13.92	-44.7	-47.5	16.6	0.00e+00	0	44	0	714080256	60	5141
2026-01-19 22:09:23.76	117.69	13.76	-44.5	-47.3	16.8	0.00e+00	0	44	0	720371712	60	5027
2026-01-19 22:09:26.69	118.21	13.62	-44.2	-46.8	17.3	0.00e+00	0	44	0	725614592	60	4751
2026-01-19 22:09:30.00	118.79	13.45	-44.6	-47.5	16.6	0.00e+00	0	44	0	731906048	60	5105
2026-01-19 22:09:32.72	119.26	13.31	-45.0	-48.0	16.1	0.00e+00	0	44	0	737148928	60	5451
2026-01-19 22:09:35.99	119.82	13.14	-44.3	-47.0	17.0	0.00e+00	0	44	0	742391808	60	4861
2026-01-19 22:09:38.70	120.28	13.00	-44.0	-46.6	17.4	0.00e+00	0	44	0	747634688	59	4884
2026-01-19 22:09:41.98	120.84	12.83	-44.2	-46.9	17.1	0.00e+00	0	44	0	753926144	59	5067
2026-01-19 22:09:44.72	121.29	12.69	-44.3	-47.0	17.0	0.00e+00	0	44	0	759169024	59	5114
2026-01-19 22:09:48.01	121.83	12.51	-44.2	-46.8	17.1	0.00e+00	0	44	0	765460480	59	5039
2026-01-19 22:09:50.73	122.28	12.37	-44.2	-47.0	17.0	0.00e+00	0	44	0	770703360	59	5144
2026-01-19 22:09:54.00	122.81	12.19	-44.2	-46.9	17.1	0.00e+00	0	44	0	776994816	59	5072
2026-01-19 22:09:56.71	123.24	12.05	-44.0	-46.6	17.3	0.00e+00	0	44	0	781189120	59	4912
2026-01-19 22:10:00.01	123.76	11.87	-43.4	-45.9	18.0	0.00e+00	0	44	0	787480576	58	4763
2026-01-19 22:10:02.74	124.19	11.72	-43.7	-46.3	17.6	0.00e+00	0	44	0	792723456	58	5024
2026-01-19 22:10:06.13	124.71	11.54	-44.1	-46.9	17.1	0.00e+00	0	44	0	799014912	59	5042
2026-01-19 22:10:09.21	125.18	11.37	-44.0	-46.7	17.2	0.00e+00	0	44	0	805306368	59	4930
2026-01-19 22:10:12.36	125.66	11.20	-43.8	-46.4	17.4	0.00e+00	0	44	0	810549248	59	4798
2026-01-19 22:10:15.35	126.11	11.03	-44.2	-47.0	16.9	0.00e+00	0	43	0	816840704	59	5154
2026-01-19 22:10:18.33	126.55	10.87	-44.5	-47.3	16.6	0.00e+00	0	44	0	822083584	59	5326
2026-01-19 22:10:21.32	126.98	10.70	-44.2	-46.8	17.0	0.00e+00	0	44	0	828375040	59	5039
2026-01-19 22:10:24.35	127.42	10.54	-44.3	-47.1	16.8	0.00e+00	0	44	0	833617920	59	5188
2026-01-19 22:10:27.33	127.85	10.37	-44.8	-47.8	16.2	0.00e+00	0	44	0	838860800	60	5310
2026-01-19 22:10:30.46	128.29	10.20	-45.0	-48.4	15.5	0.00e+00	0	44	0	845152256	60	5722
2026-01-19 22:10:33.30	128.69	10.04	-44.7	-48.1	15.9	0.00e+00	0	44	0	850395136	60	5488
2026-01-19 22:10:36.43	129.12	9.86	-44.6	-47.6	16.3	0.00e+00	0	44	0	856686592	60	5193
2026-01-19 22:10:39.27	129.51	9.71	-44.9	-47.9	16.0	0.00e+00	0	44	0	861929472	60	5368
2026-01-19 22:10:42.40	129.94	9.53	-45.0	-48.3	15.6	0.00e+00	0	44	0	867172352	60	5622
2026-01-19 22:10:45.24	130.32	9.37	-44.9	-48.1	15.8	0.00e+00	0	44	0	872415232	61	5189
2026-01-19 22:10:48.37	130.73	9.20	-44.9	-48.0	15.9	0.00e+00	0	44	0	878706688	61	5127
2026-01-19 22:10:51.37	131.12	9.03	-45.2	-48.5	15.4	0.00e+00	0	44	0	883949568	61	5426
2026-01-19 22:10:54.35	131.51	8.87	-50.6	-65.8	3.8	1.49e+00	0	44	104	884998144	71	22293
2026-01-19 22:10:57.33	131.89	8.70	-50.5	-65.9	3.8	1.49e+00	0	44	104	884998144	72	21338
2026-01-19 22:11:00.31	132.27	8.53	-50.8	-66.0	3.8	1.49e+00	0	43	104	884998144	72	21625
2026-01-19 22:11:03.35	132.65	8.36	-50.7	-66.0	3.8	1.49e+00	0	44	104	884998144	72	21716
2026-01-19 22:11:06.43	133.03	8.19	-50.5	-66.1	3.8	1.49e+00	0	44	104	884998144	72	21816
2026-01-19 22:11:09.50	133.41	8.02	-50.4	-66.1	3.8	1.49e+00	0	44	104	884998144	72	21856
2026-01-19 22:11:12.55	133.78	7.85	-50.5	-66.1	3.8	1.49e+00	0	44	104	884998144	72	21807
2026-01-19 22:11:15.53	134.13	7.68	-50.5	-66.0	3.8	1.49e+00	0	44	104	884998144	72	21717
2026-01-19 22:11:18.51	134.49	7.52	-50.5	-66.0	3.8	1.49e+00	0	44	104	884998144	72	21692
2026-01-19 22:11:21.49	134.84	7.35	-50.5	-66.0	3.8	1.49e+00	0	44	104	884998144	72	21619
2026-01-19 22:11:24.47	135.18	7.19	-50.5	-66.0	3.8	1.49e+00	0	44	104	884998144	72	21659
2026-01-19 22:11:27.45	135.52	7.02	-50.5	-66.0	3.8	1.49e+00	0	44	104	884998144	72	21693
2026-01-19 22:11:30.43	135.86	6.86	-50.5	-66.0	3.8	1.49e+00	0	44	104	884998144	72	21617
2026-01-19 22:11:33.41	136.20	6.69	-50.4	-66.0	3.8	1.49e+00	0	44	104	884998144	72	21633
2026-01-19 22:11:36.39	136.53	6.53	-50.4	-66.0	3.8	1.49e+00	0	44	104	884998144	72	21632
2026-01-19 22:11:39.37	136.85	6.36	-50.4	-66.0	3.8	1.49e+00	0	44	104	884998144	72	21586
2026-01-19 22:11:42.35	137.18	6.20	-50.4	-66.0	3.8	1.49e+00	0	44	104	884998144	72	21632
2026-01-19 22:11:45.33	137.50	6.04	-50.4	-66.0	3.8	1.49e+00	0	44	104	884998144	72	21559
2026-01-19 22:11:48.31	137.81	5.87	-50.4	-66.0	3.8	1.49e+00	0	44	104	884998144	72	21569
2026-01-19 22:11:51.29	138.13	5.71	-50.4	-66.0	3.8	1.49e+00	0	44	104	884998144	72	21623
2026-01-19 22:11:54.27	138.44	5.55	-50.4	-66.0	3.8	1.49e+00	0	44	104	884998144	72	21592
2026-01-19 22:11:57.25	138.74	5.38	-50.4	-66.0	3.8	1.49e+00	0	44	104	884998144	72	21551
2026-01-19 22:12:00.23	139.05	5.22	-50.4	-66.0	3.8	1.49e+00	0	44	104	884998144	72	21579
2026-01-19 22:12:03.21	139.35	5.06	-50.4	-66.0	3.8	1.49e+00	0	44	104	884998144	72	21577

#Closed at: 2026-01-19 22:12:06
#Recorded file [884 MB]: D:/Data/31040_260120_010146.dat