passes_logs/2026/01/19/T1/T1__20260119_084015_KHAYYAM_rec.log

#Pass ID: 20260119_084015_KHAYYAM
#Satellite: KHAYYAM
#Configuration: KHAYYAM_480M
#almurnet v.1.7.20251203
#Start time: 2026-01-19 08:40:16

#Version: 2.0.20230620
#Station: T1
#Location: 37.570604 lon 55.790049 lat
#TLE: 1 53370U 22096A   26018.96039649  .00006023  00000+0  24699-3 0  9993
#TLE: 2 53370  97.3564 285.8991 0001704 106.9069 253.2356 15.24618437191849

#Time	Az	El	Level	Level2	SNR	BER	BlckErr	Temp	State	Recorded	gain1	gain2
2026-01-19 08:40:16.66	195.93	5.07	-51.0	-55.9	3.4	0.00e+00	0	42	0	0	73	25564
2026-01-19 08:40:19.65	196.19	5.30	-51.0	-55.9	3.7	0.00e+00	0	43	104	0	72	27163
2026-01-19 08:40:22.64	196.46	5.52	-51.0	-55.9	3.7	0.00e+00	0	43	104	0	72	27053
2026-01-19 08:40:25.64	196.73	5.76	-51.0	-55.9	3.7	0.00e+00	0	43	104	0	72	27077
2026-01-19 08:40:28.63	197.01	5.99	-51.0	-55.9	3.7	0.00e+00	0	44	104	0	72	27114
2026-01-19 08:40:31.63	197.29	6.22	-51.0	-55.9	3.7	0.00e+00	0	44	104	0	72	27144
2026-01-19 08:40:34.62	197.58	6.46	-51.0	-55.9	3.7	0.00e+00	0	44	104	0	72	27089
2026-01-19 08:40:37.62	197.87	6.70	-51.0	-55.9	3.7	0.00e+00	0	44	104	0	72	26995
2026-01-19 08:40:40.62	198.17	6.94	-51.0	-55.9	3.7	0.00e+00	0	44	104	0	72	26991
2026-01-19 08:40:43.60	198.48	7.19	-51.0	-55.9	3.7	0.00e+00	0	45	104	0	72	27089
2026-01-19 08:40:46.59	198.79	7.44	-51.0	-55.9	3.6	0.00e+00	0	45	104	0	72	27024
2026-01-19 08:40:49.58	199.11	7.69	-51.0	-55.9	3.7	0.00e+00	0	45	104	0	72	26949
2026-01-19 08:40:52.58	199.43	7.94	-51.0	-55.9	3.7	0.00e+00	0	45	104	0	72	27059
2026-01-19 08:40:55.57	199.77	8.20	-51.0	-55.9	3.7	0.00e+00	0	45	104	0	72	27041
2026-01-19 08:40:58.57	200.11	8.46	-51.0	-55.9	3.7	0.00e+00	0	45	104	0	72	26927
2026-01-19 08:41:01.56	200.45	8.72	-50.9	-55.9	3.7	0.00e+00	0	45	104	0	72	26913
2026-01-19 08:41:04.55	200.81	8.98	-51.0	-55.9	3.7	0.00e+00	0	45	104	0	72	27087
2026-01-19 08:41:07.55	201.17	9.25	-51.3	-56.1	3.7	0.00e+00	0	46	104	0	73	26224
2026-01-19 08:41:10.53	201.54	9.52	-51.4	-56.2	3.7	0.00e+00	0	46	104	0	74	25035
2026-01-19 08:41:13.53	201.92	9.79	-52.0	-56.7	3.7	0.00e+00	0	46	104	0	74	26575
2026-01-19 08:41:16.52	202.31	10.07	-52.1	-56.8	3.7	0.00e+00	0	46	104	0	75	25321
2026-01-19 08:41:19.52	202.71	10.35	-40.1	-41.1	13.6	3.39e-05	0	46	0	142606336	51	16492
2026-01-19 08:41:22.52	203.11	10.64	-36.5	-37.4	15.4	0.00e+00	0	47	0	318767104	45	15290
2026-01-19 08:41:25.51	203.53	10.92	-34.1	-35.0	17.0	0.00e+00	0	47	0	494927872	40	15319
2026-01-19 08:41:28.50	203.95	11.21	-33.4	-34.3	17.4	0.00e+00	0	47	0	679477248	38	15938
2026-01-19 08:41:31.50	204.39	11.51	-32.9	-33.8	17.9	0.00e+00	0	47	0	855638016	37	15955
2026-01-19 08:41:34.50	204.84	11.80	-32.8	-33.6	18.2	0.00e+00	0	47	0	1040187392	37	15623
2026-01-19 08:41:37.49	205.30	12.10	-32.8	-33.7	18.3	0.00e+00	0	47	0	1216348160	37	15656
2026-01-19 08:41:40.48	205.76	12.41	-32.7	-33.5	18.5	0.00e+00	0	47	0	1392508928	37	15463
2026-01-19 08:41:43.48	206.25	12.72	-32.7	-33.6	18.5	0.00e+00	0	48	0	1577058304	37	15506
2026-01-19 08:41:46.47	206.74	13.03	-32.3	-33.2	18.8	0.00e+00	0	47	0	1753219072	36	15728
2026-01-19 08:41:49.46	207.24	13.34	-32.3	-33.2	18.5	0.00e+00	0	48	0	1937768448	36	15778
2026-01-19 08:41:52.46	207.76	13.66	-32.2	-33.1	18.7	0.00e+00	0	48	0	2113929216	36	15495
2026-01-19 08:41:55.46	208.29	13.99	-32.2	-33.1	18.8	0.00e+00	0	48	0	2290089984	36	15583
2026-01-19 08:41:58.44	208.84	14.31	-30.6	-31.5	18.7	0.00e+00	0	48	0	2474639360	33	15378
2026-01-19 08:42:01.44	209.40	14.64	-30.8	-31.7	18.6	0.00e+00	0	48	0	2650800128	33	15684
2026-01-19 08:42:04.43	209.97	14.98	-30.2	-31.1	18.8	0.00e+00	0	48	0	2835349504	32	15541
2026-01-19 08:42:07.44	210.56	15.31	-30.3	-31.2	18.9	0.00e+00	0	48	0	3011510272	32	15757
2026-01-19 08:42:10.44	211.17	15.66	-29.9	-30.7	19.0	0.00e+00	0	48	0	3196059648	31	15780
2026-01-19 08:42:13.43	211.79	16.00	-30.0	-30.9	18.8	0.00e+00	0	48	0	3372220416	31	16052
2026-01-19 08:42:16.42	212.43	16.35	-29.6	-30.4	19.0	0.00e+00	0	48	0	3556769792	30	16164
2026-01-19 08:42:19.41	213.08	16.70	-29.4	-30.3	19.2	0.00e+00	0	48	0	3732930560	30	15848
2026-01-19 08:42:22.40	213.76	17.05	-29.4	-30.2	19.1	0.00e+00	0	48	0	3909091328	30	15791
2026-01-19 08:42:25.40	214.45	17.41	-29.1	-30.0	19.2	0.00e+00	0	48	0	4093640704	30	15341
2026-01-19 08:42:28.39	215.16	17.77	-28.9	-29.8	19.3	0.00e+00	0	48	0	4269801472	29	15900
2026-01-19 08:42:31.38	215.89	18.14	-28.9	-29.7	19.3	0.00e+00	0	48	0	4445962240	29	15802
2026-01-19 08:42:34.38	216.65	18.51	-28.8	-29.7	19.4	0.00e+00	0	49	0	4630511616	29	15708
2026-01-19 08:42:37.36	217.42	18.87	-28.6	-29.4	19.4	0.00e+00	0	48	0	4806672384	28	16151
2026-01-19 08:42:40.35	218.21	19.25	-28.4	-29.2	19.6	0.00e+00	0	48	0	4982833152	28	15752
2026-01-19 08:42:43.34	219.02	19.62	-28.4	-29.2	19.5	0.00e+00	0	49	0	5167382528	28	15808
2026-01-19 08:42:46.33	219.86	20.00	-28.3	-29.1	19.6	0.00e+00	0	48	0	5343543296	28	15610
2026-01-19 08:42:49.32	220.73	20.37	-28.0	-28.9	19.8	0.00e+00	0	49	0	5528092672	27	16062
2026-01-19 08:42:52.31	221.61	20.75	-27.8	-28.7	19.9	0.00e+00	0	49	0	5704253440	27	15735
2026-01-19 08:42:55.30	222.52	21.13	-27.7	-28.6	20.0	0.00e+00	0	49	0	5880414208	27	15497
2026-01-19 08:42:58.28	223.46	21.51	-27.6	-28.5	20.1	0.00e+00	0	48	0	6064963584	27	15339
2026-01-19 08:43:01.28	224.42	21.89	-27.5	-28.3	20.1	0.00e+00	0	49	0	6241124352	27	15099
2026-01-19 08:43:04.28	225.42	22.27	-27.1	-28.0	20.3	0.00e+00	0	49	0	6425673728	26	15367
2026-01-19 08:43:07.27	226.43	22.65	-27.1	-28.0	20.4	0.00e+00	0	49	0	6601834496	26	15328
2026-01-19 08:43:10.27	227.48	23.03	-27.0	-27.9	20.3	0.00e+00	0	49	0	6786383872	25	16081
2026-01-19 08:43:13.26	228.55	23.41	-27.0	-27.9	20.2	0.00e+00	0	49	0	6962544640	25	16035
2026-01-19 08:43:16.26	229.66	23.78	-26.8	-27.7	20.3	0.00e+00	0	49	0	7138705408	25	15698
2026-01-19 08:43:19.25	230.79	24.15	-26.7	-27.5	20.3	0.00e+00	0	49	0	7323254784	25	15466
2026-01-19 08:43:22.24	231.95	24.51	-26.6	-27.4	20.5	0.00e+00	0	49	0	7499415552	25	15274
2026-01-19 08:43:25.23	233.14	24.87	-26.4	-27.3	20.4	0.00e+00	0	49	0	7683964928	24	15918
2026-01-19 08:43:28.23	234.36	25.22	-26.3	-27.2	20.5	0.00e+00	0	49	0	7860125696	24	15684
2026-01-19 08:43:31.23	235.62	25.57	-26.3	-27.1	20.5	0.00e+00	0	49	0	8044675072	24	15649
2026-01-19 08:43:34.22	236.90	25.90	-26.2	-27.0	20.6	0.00e+00	0	49	0	8220835840	24	15390
2026-01-19 08:43:37.21	238.21	26.23	-26.0	-26.9	20.7	0.00e+00	0	49	0	8396996608	23	16033
2026-01-19 08:43:40.20	239.54	26.55	-25.9	-26.8	20.9	0.00e+00	0	49	0	8581545984	23	15865
2026-01-19 08:43:43.19	240.91	26.85	-25.8	-26.6	20.9	0.00e+00	0	49	0	8757706752	23	15580
2026-01-19 08:43:46.19	242.31	27.15	-25.9	-26.7	21.0	0.00e+00	0	49	0	8942256128	23	15821
2026-01-19 08:43:49.17	243.73	27.43	-25.7	-26.5	21.1	0.00e+00	0	49	0	9118416896	23	15449
2026-01-19 08:43:52.17	245.18	27.69	-25.7	-26.5	21.2	0.00e+00	0	49	0	9294577664	23	15398
2026-01-19 08:43:55.16	246.66	27.94	-25.4	-26.2	21.1	0.00e+00	0	49	0	9479127040	22	15779
2026-01-19 08:43:58.15	248.15	28.18	-25.4	-26.3	21.1	0.00e+00	0	49	0	9655287808	22	15883
2026-01-19 08:44:01.11	249.66	28.39	-25.3	-26.1	21.3	0.00e+00	0	49	0	9831448576	22	15636
2026-01-19 08:44:04.11	251.21	28.59	-25.3	-26.2	21.3	0.00e+00	0	49	0	10015997952	22	15709
2026-01-19 08:44:07.09	252.76	28.76	-25.3	-26.1	21.3	0.00e+00	0	49	0	10192158720	22	15652
2026-01-19 08:44:10.09	254.35	28.92	-25.3	-26.2	21.1	0.00e+00	0	49	0	10368319488	22	15686
2026-01-19 08:44:13.08	255.94	29.06	-25.4	-26.2	21.1	0.00e+00	0	49	0	10552868864	22	15826
2026-01-19 08:44:16.07	257.55	29.17	-25.3	-26.1	21.2	0.00e+00	0	49	0	10729029632	22	15600
2026-01-19 08:44:19.07	259.18	29.27	-25.1	-25.9	21.4	0.00e+00	0	49	0	10913579008	22	15294
2026-01-19 08:44:22.05	260.80	29.33	-25.1	-25.9	21.5	0.00e+00	0	49	0	11089739776	22	15224
2026-01-19 08:44:25.04	262.43	29.38	-25.1	-26.0	21.6	0.00e+00	0	49	0	11265900544	21	16262
2026-01-19 08:44:28.02	264.06	29.40	-25.1	-25.9	21.7	0.00e+00	0	49	0	11450449920	21	16128
2026-01-19 08:44:31.01	265.70	29.40	-53.5	-57.9	3.7	0.00e+00	0	48	104	11534336000	77	25455
2026-01-19 08:44:34.00	267.34	29.38	-53.2	-57.7	3.7	0.00e+00	0	48	104	11534336000	77	25048
2026-01-19 08:44:36.99	268.97	29.33	-53.4	-58.0	3.7	0.00e+00	0	48	104	11534336000	77	25713
2026-01-19 08:44:39.99	270.60	29.26	-53.2	-57.9	3.7	0.00e+00	0	49	104	11534336000	77	25425
2026-01-19 08:44:42.99	272.22	29.16	-53.3	-58.0	3.7	0.00e+00	0	48	104	11534336000	77	25904
2026-01-19 08:44:45.97	273.82	29.05	-53.4	-57.9	3.7	0.00e+00	0	48	104	11534336000	77	25484
2026-01-19 08:44:48.96	275.41	28.91	-53.4	-57.9	3.7	0.00e+00	0	48	104	11534336000	77	25670
2026-01-19 08:44:51.96	276.99	28.75	-53.5	-58.0	3.7	0.00e+00	0	48	104	11534336000	77	25799
2026-01-19 08:44:54.95	278.55	28.57	-53.6	-58.0	3.7	0.00e+00	0	48	104	11534336000	77	25742
2026-01-19 08:44:57.94	280.09	28.37	-53.3	-57.9	3.7	0.00e+00	0	48	104	11534336000	77	25548
2026-01-19 08:45:00.94	281.61	28.15	-53.8	-58.2	3.7	0.00e+00	0	48	104	11534336000	78	24839
2026-01-19 08:45:03.94	283.10	27.92	-53.4	-57.8	3.7	0.00e+00	0	48	104	11534336000	78	23759
2026-01-19 08:45:06.93	284.57	27.67	-53.6	-58.1	3.7	0.00e+00	0	48	104	11534336000	78	24595
2026-01-19 08:45:09.93	286.02	27.40	-53.6	-58.0	3.7	0.00e+00	0	48	104	11534336000	78	24280
2026-01-19 08:45:12.93	287.44	27.12	-53.6	-58.0	3.7	0.00e+00	0	48	104	11534336000	78	24378
2026-01-19 08:45:15.91	288.82	26.83	-53.6	-58.1	3.7	0.00e+00	0	48	104	11534336000	78	24638
2026-01-19 08:45:18.91	290.18	26.52	-53.5	-58.0	3.7	0.00e+00	0	48	104	11534336000	78	24417
2026-01-19 08:45:21.90	291.51	26.21	-52.9	-57.7	3.7	0.00e+00	0	48	104	11534336000	77	24848
2026-01-19 08:45:24.90	292.81	25.88	-52.8	-57.4	3.7	0.00e+00	0	48	104	11534336000	77	24172
2026-01-19 08:45:27.89	294.09	25.54	-53.2	-57.3	3.7	0.00e+00	0	48	104	11534336000	77	23816
2026-01-19 08:45:30.88	295.33	25.20	-53.0	-57.3	3.7	0.00e+00	0	48	104	11534336000	77	23714
2026-01-19 08:45:33.88	296.54	24.85	-53.2	-57.7	3.7	0.00e+00	0	48	104	11534336000	77	24960
2026-01-19 08:45:36.86	297.72	24.50	-53.2	-57.7	3.7	0.00e+00	0	48	104	11534336000	77	25015
2026-01-19 08:45:39.86	298.87	24.13	-52.5	-57.1	3.7	0.00e+00	0	48	104	11534336000	77	23326
2026-01-19 08:45:42.84	299.99	23.77	-52.8	-57.5	3.7	0.00e+00	0	48	104	11534336000	76	25933
2026-01-19 08:45:45.84	301.09	23.40	-53.1	-57.6	3.7	0.00e+00	0	48	104	11534336000	77	24717
2026-01-19 08:45:48.84	302.16	23.02	-53.5	-57.8	3.7	0.00e+00	0	48	104	11534336000	77	25369
2026-01-19 08:45:51.84	303.20	22.65	-53.0	-57.6	3.7	0.00e+00	0	48	104	11534336000	77	24524
2026-01-19 08:45:54.83	304.21	22.27	-53.1	-57.6	3.7	0.00e+00	0	48	104	11534336000	77	24766
2026-01-19 08:45:57.83	305.19	21.90	-53.0	-57.3	3.7	0.00e+00	0	48	104	11534336000	77	23829
2026-01-19 08:46:00.83	306.15	21.52	-53.0	-57.2	3.7	0.00e+00	0	48	104	11534336000	77	23512
2026-01-19 08:46:03.83	307.09	21.14	-53.1	-57.5	3.7	0.00e+00	0	48	104	11534336000	77	24380
2026-01-19 08:46:06.83	307.99	20.76	-53.0	-57.3	3.7	0.00e+00	0	48	104	11534336000	77	23752
2026-01-19 08:46:09.84	308.88	20.38	-53.2	-57.6	3.7	0.00e+00	0	48	104	11534336000	77	24558
2026-01-19 08:46:12.83	309.73	20.01	-53.2	-57.6	3.7	0.00e+00	0	48	104	11534336000	77	24659
2026-01-19 08:46:15.82	310.57	19.64	-52.9	-57.6	3.7	0.00e+00	0	48	104	11534336000	77	24669
2026-01-19 08:46:18.81	311.38	19.26	-52.4	-57.3	3.7	0.00e+00	0	48	104	11534336000	76	25290
2026-01-19 08:46:21.81	312.17	18.89	-52.3	-57.1	3.7	0.00e+00	0	48	104	11534336000	76	24583
2026-01-19 08:46:24.82	312.94	18.53	-52.6	-57.2	3.7	0.00e+00	0	48	104	11534336000	76	24969
2026-01-19 08:46:27.81	313.68	18.16	-52.8	-57.4	3.7	0.00e+00	0	48	104	11534336000	76	25449
2026-01-19 08:46:30.80	314.41	17.80	-52.6	-57.3	3.7	0.00e+00	0	48	104	11534336000	76	25299
2026-01-19 08:46:33.80	315.12	17.44	-52.6	-57.4	3.7	0.00e+00	0	48	104	11534336000	76	25645
2026-01-19 08:46:36.79	315.80	17.09	-52.7	-57.4	3.7	0.00e+00	0	48	104	11534336000	76	25575
2026-01-19 08:46:39.78	316.47	16.74	-52.6	-57.5	3.7	0.00e+00	0	48	104	11534336000	76	25709
2026-01-19 08:46:42.78	317.12	16.39	-52.9	-57.6	3.7	0.00e+00	0	48	104	11534336000	76	26206
2026-01-19 08:46:45.77	317.76	16.04	-51.3	-56.7	3.7	0.00e+00	0	48	104	11534336000	74	26491
2026-01-19 08:46:48.77	318.37	15.70	-51.8	-57.0	3.7	0.00e+00	0	48	104	11534336000	74	27498
2026-01-19 08:46:51.76	318.98	15.36	-52.3	-57.2	3.7	0.00e+00	0	48	104	11534336000	75	26443
2026-01-19 08:46:54.75	319.56	15.03	-52.5	-57.3	3.7	0.00e+00	0	48	104	11534336000	75	26660
2026-01-19 08:46:57.75	320.13	14.70	-52.4	-57.1	3.7	0.00e+00	0	48	104	11534336000	75	26250
2026-01-19 08:47:00.74	320.69	14.37	-52.4	-57.2	3.7	0.00e+00	0	48	104	11534336000	75	26561
2026-01-19 08:47:03.73	321.23	14.05	-52.3	-57.3	3.7	0.00e+00	0	48	104	11534336000	75	26620
2026-01-19 08:47:06.72	321.76	13.73	-51.7	-56.9	3.7	0.00e+00	0	48	104	11534336000	75	25552
2026-01-19 08:47:09.72	322.27	13.41	-51.6	-56.9	3.7	0.00e+00	0	48	104	11534336000	75	25472
2026-01-19 08:47:12.72	322.78	13.10	-51.7	-57.0	3.7	0.00e+00	0	48	104	11534336000	75	25697
2026-01-19 08:47:15.72	323.27	12.79	-52.5	-57.3	3.7	0.00e+00	0	48	104	11534336000	76	25287
2026-01-19 08:47:18.72	323.75	12.48	-52.3	-57.1	3.7	0.00e+00	0	48	104	11534336000	76	24689
2026-01-19 08:47:21.71	324.21	12.18	-50.7	-56.3	3.7	0.00e+00	0	48	104	11534336000	73	26669
2026-01-19 08:47:24.70	324.67	11.89	-50.4	-56.1	3.7	0.00e+00	0	48	104	11534336000	72	27717
2026-01-19 08:47:27.69	325.11	11.59	-50.9	-56.4	3.7	0.00e+00	0	48	104	11534336000	72	28777
2026-01-19 08:47:30.69	325.55	11.30	-50.7	-56.3	3.7	0.00e+00	0	48	104	11534336000	72	28217
2026-01-19 08:47:33.68	325.97	11.01	-51.0	-56.6	3.7	0.00e+00	0	48	104	11534336000	72	29169
2026-01-19 08:47:36.67	326.39	10.73	-50.1	-55.9	3.7	0.00e+00	0	48	104	11534336000	72	26984
2026-01-19 08:47:39.66	326.79	10.45	-50.5	-56.2	3.7	0.00e+00	0	48	104	11534336000	71	29512
2026-01-19 08:47:42.65	327.19	10.17	-52.1	-57.3	3.7	0.00e+00	0	48	104	11534336000	74	28310
2026-01-19 08:47:45.65	327.58	9.89	-51.2	-56.7	3.7	0.00e+00	0	48	104	11534336000	73	27957
2026-01-19 08:47:48.63	327.95	9.62	-51.4	-56.9	3.7	0.00e+00	0	48	104	11534336000	73	28512
2026-01-19 08:47:51.60	328.32	9.36	-51.7	-56.8	3.7	0.00e+00	0	48	104	11534336000	75	25241
2026-01-19 08:47:54.60	328.68	9.09	-51.8	-56.9	3.7	0.00e+00	0	48	104	11534336000	75	25492
2026-01-19 08:47:57.59	329.04	8.83	-53.1	-57.7	3.7	0.00e+00	0	48	104	11534336000	76	26492
2026-01-19 08:48:00.58	329.38	8.57	-52.1	-57.0	3.7	0.00e+00	0	48	104	11534336000	74	27421
2026-01-19 08:48:03.58	329.72	8.31	-53.5	-57.9	3.7	0.00e+00	0	48	104	11534336000	77	25409
2026-01-19 08:48:06.57	330.06	8.06	-53.1	-57.7	3.7	0.00e+00	0	48	104	11534336000	77	24989
2026-01-19 08:48:09.56	330.38	7.81	-53.8	-58.0	3.7	0.00e+00	0	48	104	11534336000	78	24454
2026-01-19 08:48:12.56	330.70	7.56	-53.9	-58.3	3.7	0.00e+00	0	48	104	11534336000	78	25295
2026-01-19 08:48:15.55	331.01	7.31	-53.7	-58.1	3.7	0.00e+00	0	48	104	11534336000	78	24600
2026-01-19 08:48:18.54	331.32	7.07	-52.8	-57.6	3.7	0.00e+00	0	48	104	11534336000	77	24527
2026-01-19 08:48:21.54	331.62	6.83	-52.8	-57.5	3.7	0.00e+00	0	48	104	11534336000	77	24476
2026-01-19 08:48:24.53	331.91	6.59	-52.8	-57.5	3.7	0.00e+00	0	48	104	11534336000	77	24446
2026-01-19 08:48:27.52	332.20	6.35	-52.8	-57.5	3.7	0.00e+00	0	48	104	11534336000	77	24347
2026-01-19 08:48:30.51	332.48	6.12	-52.8	-57.5	3.7	0.00e+00	0	48	104	11534336000	77	24448
2026-01-19 08:48:33.51	332.76	5.89	-52.8	-57.5	3.7	0.00e+00	0	48	104	11534336000	77	24319
2026-01-19 08:48:36.50	333.03	5.66	-52.8	-57.5	3.7	0.00e+00	0	48	104	11534336000	77	24390
2026-01-19 08:48:39.49	333.30	5.44	-52.8	-57.5	3.7	0.00e+00	0	48	104	11534336000	77	24369
2026-01-19 08:48:42.48	333.56	5.21	-52.8	-57.5	3.7	0.00e+00	0	48	104	11534336000	77	24327
2026-01-19 08:48:45.48	333.82	4.99	-52.8	-57.5	3.7	0.00e+00	0	48	104	11534336000	77	24402

#Closed at: 2026-01-19 08:48:46
#Recorded file [11534 MB]: D:/Data/31040_260119_114016.dat