passes_logs/2026/01/19/T1/T1__20260119_095052_SUOMI_NPP_rec.log

#Pass ID: 20260119_095052_SUOMI NPP
#Satellite: SUOMI NPP
#Configuration: NPP
#almurnet v.1.7.20251203
#Start time: 2026-01-19 09:50:52

#Version: 2.0.20230620
#Station: T1
#Location: 37.570604 lon 55.790049 lat
#TLE: 1 37849U 11061A   26018.91022273  .00000066  00000+0  52264-4 0  9997
#TLE: 2 37849  98.7816 320.9252 0002364  56.8129 303.3273 14.19526186737260

#Time	Az	El	Level	Level2	SNR	BER	BlckErr	Temp	State	Recorded	gain1	gain2
2026-01-19 09:50:52.20	155.38	5.02	-49.6	-64.9	3.8	1.49e+00	0	38	0	0	70	21479
2026-01-19 09:50:56.17	155.36	5.30	-49.6	-64.9	3.8	1.49e+00	0	38	104	0	71	20234
2026-01-19 09:51:00.14	155.33	5.59	-49.6	-64.9	3.8	1.49e+00	0	39	104	0	71	20105
2026-01-19 09:51:04.12	155.30	5.89	-49.6	-64.0	3.8	1.49e+00	0	39	104	0	71	18247
2026-01-19 09:51:08.09	155.27	6.18	-49.6	-63.4	3.8	1.49e+00	0	39	104	0	71	16979
2026-01-19 09:51:12.07	155.24	6.48	-49.6	-64.1	3.8	1.49e+00	0	39	104	0	71	18460
2026-01-19 09:51:16.04	155.21	6.79	-49.7	-64.9	3.8	1.49e+00	0	39	104	0	71	20243
2026-01-19 09:51:20.01	155.17	7.09	-49.7	-64.8	3.8	1.49e+00	0	39	104	0	71	20030
2026-01-19 09:51:23.99	155.14	7.41	-49.5	-62.1	3.9	1.48e+00	0	39	104	0	70	15551
2026-01-19 09:51:27.96	155.11	7.72	-48.8	-57.3	6.5	3.21e-01	0	39	0	5242880	69	9437
2026-01-19 09:51:31.93	155.07	8.04	-48.0	-54.2	9.5	2.10e-02	0	39	0	12582912	68	6979
2026-01-19 09:51:35.91	155.04	8.36	-47.7	-53.5	10.0	7.71e-03	0	39	0	19922944	67	6879
2026-01-19 09:51:39.88	155.00	8.69	-48.4	-55.8	7.7	7.07e-02	0	40	0	27262976	67	8923
2026-01-19 09:51:43.85	154.96	9.02	-49.3	-60.8	4.4	9.74e-01	0	40	0	34603008	69	14167
2026-01-19 09:51:47.83	154.92	9.36	-46.3	-50.5	13.1	1.90e-02	0	40	0	39845888	64	5731
2026-01-19 09:51:51.80	154.88	9.70	-45.7	-49.3	14.5	6.10e-06	0	40	0	44040192	63	5281
2026-01-19 09:51:55.77	154.84	10.04	-44.5	-47.5	16.3	0.00e+00	0	40	0	51380224	61	4825
2026-01-19 09:51:59.74	154.80	10.39	-44.5	-47.4	16.4	0.00e+00	0	40	0	58720256	60	5070
2026-01-19 09:52:03.71	154.75	10.74	-44.2	-47.1	16.7	0.00e+00	0	40	0	67108864	60	4897
2026-01-19 09:52:07.68	154.71	11.10	-44.0	-46.8	16.9	0.00e+00	0	40	0	74448896	59	5004
2026-01-19 09:52:11.65	154.66	11.47	-44.0	-46.8	17.0	0.00e+00	0	40	0	81788928	59	5014
2026-01-19 09:52:15.63	154.61	11.84	-43.8	-46.6	17.2	0.00e+00	0	40	0	89128960	59	4877
2026-01-19 09:52:19.60	154.56	12.22	-43.8	-46.7	17.1	0.00e+00	0	40	0	96468992	59	4951
2026-01-19 09:52:23.57	154.51	12.60	-43.8	-46.6	17.2	0.00e+00	0	40	0	103809024	59	4884
2026-01-19 09:52:27.54	154.45	12.99	-43.9	-46.8	17.0	0.00e+00	0	40	0	111149056	59	4984
2026-01-19 09:52:31.51	154.40	13.38	-43.8	-46.5	17.3	0.00e+00	0	40	0	118489088	59	4863
2026-01-19 09:52:35.48	154.34	13.78	-43.8	-46.6	17.2	0.00e+00	0	40	0	125829120	59	4890
2026-01-19 09:52:39.45	154.28	14.19	-43.6	-46.2	17.5	0.00e+00	0	40	0	134217728	58	4977
2026-01-19 09:52:43.42	154.22	14.61	-43.4	-46.0	17.8	0.00e+00	0	40	0	141557760	58	4835
2026-01-19 09:52:47.39	154.16	15.03	-43.3	-45.8	18.0	0.00e+00	0	40	0	148897792	58	4742
2026-01-19 09:52:51.37	154.10	15.46	-43.3	-45.9	17.9	0.00e+00	0	41	0	156237824	58	4761
2026-01-19 09:52:55.34	154.03	15.90	-43.3	-45.9	17.9	0.00e+00	0	40	0	163577856	58	4809
2026-01-19 09:52:59.31	153.96	16.34	-43.2	-45.7	18.1	0.00e+00	0	40	0	170917888	58	4688
2026-01-19 09:53:03.28	153.89	16.80	-42.5	-44.8	18.8	0.00e+00	0	40	0	178257920	56	4721
2026-01-19 09:53:07.25	153.81	17.26	-42.3	-44.6	19.1	0.00e+00	0	40	0	185597952	56	4617
2026-01-19 09:53:11.22	153.74	17.73	-42.9	-45.3	18.4	0.00e+00	0	41	0	192937984	56	5022
2026-01-19 09:53:15.20	153.66	18.21	-43.2	-45.7	18.2	0.00e+00	0	40	0	200278016	57	4949
2026-01-19 09:53:19.17	153.57	18.70	-42.7	-45.0	18.8	0.00e+00	0	40	0	208666624	57	4580
2026-01-19 09:53:23.14	153.49	19.20	-42.4	-44.7	19.1	0.00e+00	0	40	0	216006656	56	4668
2026-01-19 09:53:27.11	153.40	19.71	-42.8	-45.2	18.6	0.00e+00	0	41	0	223346688	56	4958
2026-01-19 09:53:31.08	153.31	20.23	-43.3	-45.8	18.1	0.00e+00	0	41	0	230686720	57	5039
2026-01-19 09:53:35.05	153.21	20.76	-42.8	-45.1	18.7	0.00e+00	0	41	0	238026752	57	4631
2026-01-19 09:53:39.02	153.11	21.30	-42.4	-44.6	19.2	0.00e+00	0	40	0	245366784	56	4638
2026-01-19 09:53:42.99	153.01	21.85	-42.7	-45.0	18.9	0.00e+00	0	41	0	252706816	56	4820
2026-01-19 09:53:46.96	152.90	22.42	-43.1	-45.5	18.4	0.00e+00	0	41	0	260046848	56	5102
2026-01-19 09:53:50.94	152.79	23.00	-42.8	-45.1	18.8	0.00e+00	0	41	0	267386880	56	4892
2026-01-19 09:53:54.91	152.67	23.59	-42.5	-44.8	19.1	0.00e+00	0	41	0	274726912	56	4708
2026-01-19 09:53:58.88	152.55	24.20	-42.7	-45.0	18.9	0.00e+00	0	41	0	283115520	56	4864
2026-01-19 09:54:02.85	152.42	24.82	-43.2	-45.7	18.3	0.00e+00	0	41	0	290455552	57	4937
2026-01-19 09:54:06.82	152.29	25.45	-43.3	-45.8	18.1	0.00e+00	0	41	0	297795584	57	5039
2026-01-19 09:54:10.79	152.15	26.11	-43.2	-45.7	18.2	0.00e+00	0	41	0	305135616	57	4969
2026-01-19 09:54:14.76	152.00	26.77	-42.6	-45.0	18.9	0.00e+00	0	41	0	312475648	57	4556
2026-01-19 09:54:18.74	151.85	27.46	-43.2	-45.6	18.3	0.00e+00	0	41	0	319815680	57	4911
2026-01-19 09:54:22.71	151.69	28.16	-43.5	-46.1	17.9	0.00e+00	0	41	0	327155712	57	5200
2026-01-19 09:54:26.68	151.52	28.87	-43.2	-45.7	18.3	0.00e+00	0	41	0	334495744	57	4960
2026-01-19 09:54:30.65	151.35	29.61	-43.8	-46.3	17.8	0.00e+00	0	41	0	341835776	58	5016
2026-01-19 09:54:34.62	151.16	30.37	-44.5	-47.2	16.9	0.00e+00	0	41	0	349175808	60	4982
2026-01-19 09:54:38.60	150.97	31.14	-44.5	-47.3	16.9	0.00e+00	0	41	0	356515840	60	4994
2026-01-19 09:54:42.57	150.76	31.94	-44.6	-47.4	16.8	0.00e+00	0	41	0	364904448	60	5064
2026-01-19 09:54:46.54	150.55	32.76	-45.4	-48.4	15.5	0.00e+00	0	41	0	372244480	61	5383
2026-01-19 09:54:50.51	150.32	33.60	-45.7	-48.9	15.3	0.00e+00	0	41	0	379584512	62	5391
2026-01-19 09:54:54.48	150.08	34.46	-46.5	-50.4	13.9	0.00e+00	0	41	0	386924544	63	6048
2026-01-19 09:54:58.45	149.83	35.35	-44.9	-47.8	16.4	0.00e+00	0	41	0	394264576	61	5009
2026-01-19 09:55:02.42	149.56	36.26	-45.4	-48.6	15.7	0.00e+00	0	41	0	401604608	61	5467
2026-01-19 09:55:06.39	149.27	37.20	-45.6	-48.8	15.5	0.00e+00	0	41	0	408944640	62	5329
2026-01-19 09:55:10.36	148.97	38.17	-44.1	-46.8	17.4	0.00e+00	0	41	0	416284672	60	4710
2026-01-19 09:55:14.33	148.65	39.16	-44.8	-47.6	16.6	0.00e+00	0	41	0	423624704	60	5199
2026-01-19 09:55:18.30	148.31	40.18	-45.9	-49.3	15.0	0.00e+00	0	41	0	432013312	63	5297
2026-01-19 09:55:22.27	147.94	41.23	-45.0	-47.9	16.3	0.00e+00	0	41	0	439353344	61	5094
2026-01-19 09:55:26.25	147.55	42.31	-45.4	-48.4	15.8	0.00e+00	0	41	0	446693376	61	5381
2026-01-19 09:55:30.22	147.13	43.42	-45.6	-48.8	15.5	0.00e+00	0	41	0	454033408	62	5286
2026-01-19 09:55:34.19	146.67	44.56	-45.6	-48.8	15.4	0.00e+00	0	41	0	461373440	62	5333
2026-01-19 09:55:38.16	146.19	45.73	-43.9	-46.4	17.8	0.00e+00	0	41	0	468713472	59	4791
2026-01-19 09:55:42.13	145.66	46.93	-45.7	-48.9	15.3	0.00e+00	0	41	0	476053504	62	5384
2026-01-19 09:55:46.10	145.09	48.17	-44.9	-47.7	16.5	0.00e+00	0	41	0	483393536	61	4971
2026-01-19 09:55:50.07	144.47	49.44	-43.7	-46.1	18.0	0.00e+00	0	41	0	490733568	59	4604
2026-01-19 09:55:54.05	143.80	50.74	-42.6	-44.8	19.2	0.00e+00	0	41	0	498073600	56	4723
2026-01-19 09:55:58.02	143.06	52.08	-42.7	-45.0	19.0	0.00e+00	0	41	0	506462208	56	4816
2026-01-19 09:56:01.99	142.25	53.44	-44.6	-47.5	16.8	0.00e+00	0	41	0	513802240	60	5120
2026-01-19 09:56:05.96	141.36	54.84	-42.9	-45.2	18.8	0.00e+00	0	41	0	521142272	57	4678
2026-01-19 09:56:09.93	140.38	56.27	-41.6	-43.7	20.0	0.00e+00	0	41	0	528482304	55	4414
2026-01-19 09:56:13.90	139.29	57.73	-43.1	-45.4	18.7	0.00e+00	0	41	0	535822336	57	4788
2026-01-19 09:56:17.88	138.06	59.21	-44.2	-47.0	17.0	0.00e+00	0	41	0	543162368	60	4853
2026-01-19 09:56:21.85	136.69	60.72	-43.4	-45.9	18.4	0.00e+00	0	41	0	550502400	58	4761
2026-01-19 09:56:25.82	135.15	62.24	-42.7	-45.1	19.1	0.00e+00	0	41	0	557842432	56	4871
2026-01-19 09:56:29.79	133.39	63.78	-42.6	-44.8	19.1	0.00e+00	0	41	0	565182464	56	4738
2026-01-19 09:56:33.76	131.39	65.32	-42.7	-45.0	19.1	0.00e+00	0	41	0	572522496	56	4824
2026-01-19 09:56:37.73	129.09	66.87	-44.2	-46.8	17.4	0.00e+00	0	41	0	580911104	59	5027
2026-01-19 09:56:41.70	126.42	68.40	-43.6	-46.1	18.1	0.00e+00	0	41	0	588251136	58	4879
2026-01-19 09:56:45.67	123.31	69.91	-45.6	-48.7	15.7	0.00e+00	0	41	0	595591168	62	5253
2026-01-19 09:56:49.64	119.67	71.37	-43.9	-46.4	17.7	0.00e+00	0	41	0	602931200	59	4811
2026-01-19 09:56:53.62	115.36	72.78	-46.2	-49.8	14.6	0.00e+00	0	41	0	610271232	63	5641
2026-01-19 09:56:57.59	110.29	74.08	-42.8	-45.1	19.0	0.00e+00	0	41	0	617611264	56	4923
2026-01-19 09:57:01.56	104.32	75.26	-44.2	-46.9	17.4	0.00e+00	0	41	0	624951296	59	5047
2026-01-19 09:57:05.53	97.35	76.27	-42.9	-45.3	18.8	0.00e+00	0	41	0	632291328	57	4720
2026-01-19 09:57:09.50	89.39	77.05	-44.5	-47.3	16.9	0.00e+00	0	41	0	639631360	60	5040
2026-01-19 09:57:13.47	80.55	77.56	-44.4	-47.0	17.2	0.00e+00	0	41	0	646971392	60	4860
2026-01-19 09:57:17.44	71.19	77.77	-44.1	-46.7	17.5	0.00e+00	0	41	0	655360000	60	4656
2026-01-19 09:57:21.41	61.75	77.65	-43.7	-46.2	18.0	0.00e+00	0	41	0	662700032	58	4939
2026-01-19 09:57:25.39	52.72	77.21	-45.3	-48.4	16.0	0.00e+00	0	41	0	670040064	61	5393
2026-01-19 09:57:29.36	44.51	76.49	-44.2	-46.8	17.4	0.00e+00	0	41	0	677380096	59	5013
2026-01-19 09:57:33.33	37.29	75.54	-46.3	-49.9	14.6	0.00e+00	0	41	0	684720128	63	5717
2026-01-19 09:57:37.30	31.07	74.41	-47.3	-51.7	12.5	9.10e-06	0	41	0	692060160	65	6272
2026-01-19 09:57:41.27	25.78	73.13	-44.5	-47.1	17.2	0.00e+00	0	41	0	699400192	59	5215
2026-01-19 09:57:45.24	21.30	71.76	-45.9	-49.1	15.3	0.00e+00	0	41	0	706740224	62	5507
2026-01-19 09:57:49.21	17.50	70.31	-45.7	-48.9	15.5	0.00e+00	0	41	0	714080256	63	5051
2026-01-19 09:57:53.19	14.25	68.81	-44.4	-47.1	17.2	0.00e+00	0	41	0	721420288	60	4924
2026-01-19 09:57:57.16	11.48	67.29	-44.5	-47.4	17.0	0.00e+00	0	41	0	729808896	60	5043
2026-01-19 09:58:01.13	9.09	65.75	-41.4	-43.5	20.3	0.00e+00	0	41	0	737148928	54	4590
2026-01-19 09:58:05.10	7.02	64.21	-44.4	-47.2	17.1	0.00e+00	0	41	0	744488960	59	5234
2026-01-19 09:58:09.08	5.20	62.67	-46.0	-49.6	14.8	7.00e-07	0	41	0	751828992	63	5520
2026-01-19 09:58:13.05	3.61	61.14	-45.1	-48.0	16.4	1.50e-06	0	41	0	759169024	62	4826
2026-01-19 09:58:17.02	2.20	59.64	-42.4	-44.6	19.5	0.00e+00	0	41	0	766509056	56	4619
2026-01-19 09:58:20.99	0.94	58.15	-42.9	-45.3	18.9	0.00e+00	0	41	0	773849088	56	4988
2026-01-19 09:58:24.96	359.82	56.69	-43.4	-45.8	18.4	0.00e+00	0	41	0	781189120	57	5041
2026-01-19 09:58:28.94	358.81	55.26	-45.0	-47.9	16.5	0.00e+00	0	41	0	788529152	61	5093
2026-01-19 09:58:32.91	357.90	53.86	-44.0	-46.6	17.6	0.00e+00	0	41	0	796917760	59	4913
2026-01-19 09:58:36.88	357.07	52.49	-42.9	-45.2	19.1	0.00e+00	0	41	0	804257792	57	4697
2026-01-19 09:58:40.85	356.32	51.15	-44.4	-47.1	17.2	0.00e+00	0	41	0	811597824	59	5183
2026-01-19 09:58:44.82	355.63	49.84	-45.3	-48.3	15.8	0.00e+00	0	41	0	818937856	62	5022
2026-01-19 09:58:48.79	355.00	48.57	-45.8	-49.1	15.4	0.00e+00	0	42	0	826277888	62	5487
2026-01-19 09:58:52.77	354.42	47.33	-45.3	-48.3	16.2	0.00e+00	0	41	0	833617920	62	5038
2026-01-19 09:58:56.74	353.88	46.12	-45.0	-47.9	16.4	0.00e+00	0	41	0	840957952	61	5084
2026-01-19 09:59:00.71	353.39	44.94	-44.7	-47.6	16.7	0.00e+00	0	41	0	848297984	60	5175
2026-01-19 09:59:04.68	352.93	43.80	-46.6	-50.4	13.9	1.50e-06	0	41	0	855638016	64	5679
2026-01-19 09:59:08.65	352.50	42.69	-48.3	-54.2	9.9	1.88e-02	0	41	0	862978048	67	7444
2026-01-19 09:59:12.62	352.10	41.60	-44.3	-47.1	17.2	0.00e+00	0	41	0	871366656	59	5164
2026-01-19 09:59:16.60	351.73	40.55	-45.3	-48.4	15.9	0.00e+00	0	41	0	878706688	61	5383
2026-01-19 09:59:20.57	351.38	39.53	-46.0	-49.4	14.9	0.00e+00	0	41	0	886046720	64	5051
2026-01-19 09:59:24.54	351.06	38.53	-43.7	-46.2	18.0	0.00e+00	0	41	0	893386752	59	4685
2026-01-19 09:59:28.51	350.75	37.56	-46.5	-50.7	13.7	5.30e-06	0	41	0	900726784	63	6235
2026-01-19 09:59:32.48	350.46	36.62	-45.8	-49.2	15.1	0.00e+00	0	41	0	908066816	63	5275
2026-01-19 09:59:36.45	350.19	35.71	-46.0	-49.5	14.9	0.00e+00	0	41	0	915406848	63	5435
2026-01-19 09:59:40.42	349.94	34.82	-44.4	-47.2	17.1	0.00e+00	0	42	0	922746880	60	4937
2026-01-19 09:59:44.40	349.69	33.95	-44.6	-47.6	16.7	0.00e+00	0	41	0	930086912	60	5216
2026-01-19 09:59:48.37	349.47	33.10	-46.6	-50.9	13.5	0.00e+00	0	42	0	937426944	63	6352
2026-01-19 09:59:52.34	349.25	32.28	-47.0	-51.4	12.9	5.56e-05	0	41	0	945815552	65	6036
2026-01-19 09:59:56.31	349.05	31.48	-46.1	-50.0	14.4	1.50e-06	0	41	0	953155584	63	5786
2026-01-19 10:00:00.28	348.85	30.70	-45.5	-48.8	15.6	0.00e+00	0	41	0	960495616	62	5286
2026-01-19 10:00:04.25	348.67	29.95	-44.7	-47.6	16.7	0.00e+00	0	42	0	967835648	61	4919
2026-01-19 10:00:08.22	348.49	29.21	-44.3	-47.1	17.2	0.00e+00	0	41	0	975175680	60	4908
2026-01-19 10:00:12.20	348.32	28.48	-45.5	-48.7	15.7	0.00e+00	0	41	0	982515712	61	5580
2026-01-19 10:00:16.17	348.16	27.78	-45.8	-49.4	14.9	0.00e+00	0	41	0	989855744	62	5720
2026-01-19 10:00:20.14	348.01	27.10	-44.6	-47.6	16.7	0.00e+00	0	42	0	997195776	61	4911
2026-01-19 10:00:24.11	347.87	26.43	-43.2	-45.7	18.4	0.00e+00	0	42	0	1004535808	58	4668
2026-01-19 10:00:28.08	347.73	25.78	-43.5	-46.1	18.0	0.00e+00	0	42	0	1011875840	58	4907
2026-01-19 10:00:32.05	347.60	25.14	-45.4	-48.9	15.5	0.00e+00	0	41	0	1020264448	61	5659
2026-01-19 10:00:36.02	347.47	24.52	-45.9	-49.6	14.8	2.20e-06	0	42	0	1027604480	63	5473
2026-01-19 10:00:39.99	347.35	23.91	-44.3	-47.2	17.0	0.00e+00	0	41	0	1034944512	60	4949
2026-01-19 10:00:43.97	347.23	23.31	-43.4	-46.2	17.9	0.00e+00	0	41	0	1042284544	58	4969
2026-01-19 10:00:47.94	347.12	22.73	-43.2	-45.9	18.2	0.00e+00	0	41	0	1049624576	58	4785
2026-01-19 10:00:51.91	347.01	22.17	-43.5	-46.0	18.0	0.00e+00	0	41	0	1056964608	58	4857
2026-01-19 10:00:55.88	346.91	21.61	-43.6	-46.1	18.0	0.00e+00	0	41	0	1064304640	58	4899
2026-01-19 10:00:59.85	346.81	21.07	-43.9	-46.6	17.5	0.00e+00	0	42	0	1071644672	58	5184
2026-01-19 10:01:03.82	346.72	20.53	-44.0	-46.8	17.3	0.00e+00	0	42	0	1078984704	59	5004
2026-01-19 10:01:07.79	346.63	20.01	-44.5	-47.3	16.8	0.00e+00	0	42	0	1086324736	59	5326
2026-01-19 10:01:11.77	346.54	19.50	-44.4	-47.4	16.7	0.00e+00	0	41	0	1094713344	59	5362
2026-01-19 10:01:15.74	346.46	19.00	-44.6	-47.9	16.3	0.00e+00	0	41	0	1102053376	60	5368
2026-01-19 10:01:19.71	346.38	18.51	-45.5	-48.9	15.3	0.00e+00	0	42	0	1109393408	61	5712
2026-01-19 10:01:23.68	346.30	18.03	-45.9	-49.7	14.5	0.00e+00	0	42	0	1116733440	62	5897
2026-01-19 10:01:27.65	346.23	17.56	-45.9	-50.5	13.9	7.00e-07	0	42	0	1124073472	63	6067
2026-01-19 10:01:31.62	346.15	17.09	-45.3	-49.7	14.5	0.00e+00	0	42	0	1131413504	62	5905
2026-01-19 10:01:35.60	346.08	16.64	-45.0	-48.8	15.4	0.00e+00	0	41	0	1138753536	61	5620
2026-01-19 10:01:39.57	346.02	16.19	-44.9	-48.3	15.9	0.00e+00	0	41	0	1146093568	61	5291
2026-01-19 10:01:43.54	345.95	15.75	-44.7	-48.0	16.2	0.00e+00	0	42	0	1153433600	61	5115
2026-01-19 10:01:47.51	345.89	15.32	-44.6	-48.1	16.0	0.00e+00	0	42	0	1161822208	61	5214
2026-01-19 10:01:51.48	345.83	14.90	-44.5	-48.1	16.0	0.00e+00	0	42	0	1169162240	60	5515
2026-01-19 10:01:55.45	345.77	14.49	-44.7	-48.3	15.8	0.00e+00	0	42	0	1176502272	60	5617
2026-01-19 10:01:59.42	345.72	14.08	-44.7	-48.1	15.9	0.00e+00	0	42	0	1183842304	60	5521
2026-01-19 10:02:03.40	345.66	13.67	-44.9	-48.3	15.8	0.00e+00	0	42	0	1191182336	60	5616
2026-01-19 10:02:07.37	345.61	13.28	-44.6	-48.3	15.8	0.00e+00	0	42	0	1198522368	60	5645
2026-01-19 10:02:11.34	345.56	12.89	-44.6	-48.4	15.6	0.00e+00	0	42	0	1205862400	60	5691
2026-01-19 10:02:15.31	345.51	12.51	-44.5	-48.0	16.0	0.00e+00	0	42	0	1213202432	60	5460
2026-01-19 10:02:19.28	345.47	12.13	-44.6	-48.0	16.0	0.00e+00	0	42	0	1220542464	60	5456
2026-01-19 10:02:23.25	345.42	11.76	-44.4	-47.9	16.1	0.00e+00	0	41	0	1227882496	60	5357
2026-01-19 10:02:27.22	345.38	11.39	-44.1	-48.0	16.0	0.00e+00	0	42	0	1235222528	60	5414
2026-01-19 10:02:31.19	345.33	11.03	-43.6	-47.8	16.1	0.00e+00	0	42	0	1243611136	59	5607
2026-01-19 10:02:35.16	345.29	10.68	-43.5	-47.7	16.2	0.00e+00	0	42	0	1250951168	58	5892
2026-01-19 10:02:39.14	345.25	10.33	-43.6	-47.7	16.2	0.00e+00	0	42	0	1258291200	58	5911
2026-01-19 10:02:43.11	345.22	9.98	-43.5	-47.5	16.3	0.00e+00	0	42	0	1265631232	58	5763
2026-01-19 10:02:47.08	345.18	9.64	-43.3	-47.8	16.0	0.00e+00	0	42	0	1272971264	58	5983
2026-01-19 10:02:51.05	345.14	9.30	-43.0	-47.5	16.3	0.00e+00	0	42	0	1280311296	58	5765
2026-01-19 10:02:55.02	345.11	8.97	-46.4	-63.0	3.9	6.80e-06	0	42	0	1287651328	63	25713
2026-01-19 10:02:58.99	345.08	8.65	-50.1	-65.7	3.8	1.49e+00	0	42	104	1287651328	71	22162
2026-01-19 10:03:02.96	345.04	8.32	-50.4	-65.9	3.8	1.49e+00	0	42	104	1287651328	71	22624
2026-01-19 10:03:06.93	345.01	8.00	-50.5	-65.9	3.8	1.49e+00	0	42	104	1287651328	72	21338
2026-01-19 10:03:10.91	344.98	7.69	-50.5	-65.9	3.8	1.49e+00	0	42	104	1287651328	72	21449
2026-01-19 10:03:14.88	344.95	7.38	-50.7	-65.9	3.8	1.49e+00	0	42	104	1287651328	72	21388
2026-01-19 10:03:18.85	344.93	7.07	-50.6	-65.9	3.8	1.49e+00	0	42	104	1287651328	72	21303
2026-01-19 10:03:22.82	344.90	6.77	-50.3	-65.8	3.8	1.49e+00	0	42	104	1287651328	72	21206
2026-01-19 10:03:26.79	344.87	6.47	-50.2	-65.8	3.8	1.49e+00	0	42	104	1287651328	72	21212
2026-01-19 10:03:30.77	344.85	6.17	-50.2	-65.8	3.8	1.49e+00	0	42	104	1287651328	72	21210
2026-01-19 10:03:34.74	344.82	5.88	-50.2	-65.8	3.8	1.49e+00	0	42	104	1287651328	72	21196
2026-01-19 10:03:38.71	344.80	5.59	-50.2	-65.8	3.8	1.49e+00	0	42	104	1287651328	72	21155
2026-01-19 10:03:42.68	344.78	5.30	-50.2	-65.8	3.8	1.49e+00	0	42	104	1287651328	72	21125
2026-01-19 10:03:46.65	344.75	5.02	-50.2	-65.8	3.8	1.49e+00	0	42	104	1287651328	72	21094

#Closed at: 2026-01-19 10:03:48
#Recorded file [1287 MB]: D:/Data/31040_260119_125052.dat