passes_logs/2026/01/28/R3.2S_Murmansk_2ch/R3.2S_Murmansk_2ch__20260128_215343_JL1KF02B02_rec.log

#Pass ID: 20260128_215343_JL1KF02B02
#Satellite: JL1KF02B02
#Configuration: 01B_900M
#almurnet v.1.7.20251203
#Start time: 2026-01-28 21:53:44

#Version: 2.2.20231116
#Station: R3.2S_Murmansk_2ch
#Location: 33.079688 lon 68.888172 lat
#TLE: 1 61193U 24169E   26027.77639749  .00007697  00000+0  47839-3 0  9993
#TLE: 2 61193  97.5622 119.4851 0013901  93.9222 266.3597 15.09851074 74653

#Time	Az	El	Level	Level2	SNR	BER	BlckErr	Temp	State	Recorded	gain1	gain2
2026-01-28 21:53:44.35	214.39	2.06	-47.6	-50.2	6.3	0.00e+00	0	44	0	0	66	19731
2026-01-28 21:53:47.26	214.68	2.23	-47.6	-50.2	6.2	0.00e+00	0	44	104	0	66	19727
2026-01-28 21:53:50.18	214.97	2.40	-47.6	-50.1	6.2	0.00e+00	0	44	104	0	66	19671
2026-01-28 21:53:53.08	215.26	2.58	-47.6	-50.1	6.2	0.00e+00	0	44	104	0	66	19603
2026-01-28 21:53:55.98	215.55	2.75	-47.5	-50.1	6.2	0.00e+00	0	44	104	0	66	19570
2026-01-28 21:53:58.90	215.85	2.92	-47.5	-50.1	6.2	0.00e+00	0	44	104	0	66	19555
2026-01-28 21:54:01.81	216.16	3.10	-47.9	-50.5	6.2	0.00e+00	0	45	104	0	66	20501
2026-01-28 21:54:04.72	216.46	3.28	-48.0	-50.6	6.2	0.00e+00	0	44	104	0	66	20676
2026-01-28 21:54:07.62	216.78	3.45	-48.0	-50.5	6.2	0.00e+00	0	45	104	0	66	20590
2026-01-28 21:54:10.53	217.09	3.63	-47.9	-50.4	6.2	0.00e+00	0	45	104	0	66	20353
2026-01-28 21:54:13.44	217.42	3.81	-47.7	-50.3	6.2	0.00e+00	0	45	104	0	66	19976
2026-01-28 21:54:16.36	217.74	3.99	-47.5	-50.1	6.2	0.00e+00	0	45	104	0	66	19533
2026-01-28 21:54:19.26	218.08	4.17	-47.2	-49.7	6.2	0.00e+00	0	45	104	0	66	18789
2026-01-28 21:54:22.17	218.41	4.35	-46.4	-48.9	6.2	0.00e+00	0	45	104	0	64	19225
2026-01-28 21:54:25.08	218.75	4.53	-46.1	-48.7	6.2	0.00e+00	0	45	104	0	64	18616
2026-01-28 21:54:27.99	219.10	4.72	-46.1	-48.6	6.2	0.00e+00	0	45	104	0	64	18602
2026-01-28 21:54:30.90	219.45	4.90	-46.0	-48.6	6.2	0.00e+00	0	45	104	0	64	18503
2026-01-28 21:54:33.81	219.81	5.09	-46.1	-48.7	6.2	0.00e+00	0	45	104	0	64	18662
2026-01-28 21:54:36.72	220.17	5.27	-46.1	-48.7	6.2	0.00e+00	0	45	104	0	63	19762
2026-01-28 21:54:39.63	220.54	5.46	-46.2	-48.8	6.2	0.00e+00	0	45	104	0	63	20010
2026-01-28 21:54:42.54	220.92	5.65	-46.0	-48.6	6.2	0.00e+00	0	46	104	0	63	19520
2026-01-28 21:54:45.44	221.30	5.84	-46.1	-48.6	6.2	0.00e+00	0	45	104	0	63	19685
2026-01-28 21:54:48.35	221.68	6.03	-46.2	-48.7	6.2	0.00e+00	0	45	104	0	63	19907
2026-01-28 21:54:51.26	222.07	6.22	-46.2	-48.8	6.2	0.00e+00	0	45	104	0	63	20040
2026-01-28 21:54:54.17	222.47	6.41	-46.1	-48.7	6.2	0.00e+00	0	46	104	0	63	19743
2026-01-28 21:54:57.08	222.88	6.60	-46.2	-48.7	6.2	0.00e+00	0	46	104	0	63	19810
2026-01-28 21:54:59.98	223.29	6.79	-46.3	-48.8	6.2	0.00e+00	0	46	104	0	63	20063
2026-01-28 21:55:02.89	223.70	6.99	-46.2	-48.7	6.2	0.00e+00	0	46	104	0	63	19906
2026-01-28 21:55:05.80	224.13	7.18	-46.2	-48.7	6.2	0.00e+00	0	46	104	0	63	19903
2026-01-28 21:55:08.69	224.55	7.37	-46.2	-48.8	6.2	0.00e+00	0	46	104	0	63	20127
2026-01-28 21:55:11.60	224.99	7.57	-46.3	-48.9	6.2	0.00e+00	0	46	104	0	63	20196
2026-01-28 21:55:14.50	225.43	7.77	-46.2	-48.7	6.2	0.00e+00	0	46	104	0	63	19905
2026-01-28 21:55:17.40	225.89	7.96	-46.3	-48.8	6.2	0.00e+00	0	46	104	0	63	20034
2026-01-28 21:55:20.31	226.34	8.16	-46.3	-48.9	6.2	0.00e+00	0	46	104	0	63	20209
2026-01-28 21:55:23.22	226.81	8.36	-46.4	-48.9	6.2	0.00e+00	0	46	104	0	63	20318
2026-01-28 21:55:26.12	227.28	8.56	-46.3	-48.9	6.2	0.00e+00	0	46	104	0	63	20199
2026-01-28 21:55:29.02	227.76	8.76	-46.3	-48.9	6.2	0.00e+00	0	46	104	0	63	20165
2026-01-28 21:55:31.92	228.25	8.96	-46.4	-48.9	6.2	0.00e+00	0	46	104	0	63	20388
2026-01-28 21:55:34.83	228.75	9.16	-46.3	-48.9	6.2	0.00e+00	0	46	104	0	63	20275
2026-01-28 21:55:37.73	229.25	9.36	-46.3	-48.9	6.2	0.00e+00	0	46	104	0	63	20343
2026-01-28 21:55:40.64	229.77	9.56	-46.4	-48.9	6.2	0.00e+00	0	46	104	0	63	20389
2026-01-28 21:55:43.55	230.29	9.76	-46.5	-49.0	6.2	0.00e+00	0	46	104	0	63	20520
2026-01-28 21:55:46.46	230.82	9.96	-46.4	-48.9	6.2	0.00e+00	0	46	104	0	63	20366
2026-01-28 21:55:49.37	231.36	10.17	-46.4	-48.9	6.2	0.00e+00	0	46	104	0	63	20350
2026-01-28 21:55:52.28	231.91	10.37	-46.5	-49.0	6.2	0.00e+00	0	46	104	0	63	20551
2026-01-28 21:55:55.18	232.46	10.57	-46.5	-49.0	6.2	0.00e+00	0	46	104	0	63	20571
2026-01-28 21:55:58.09	233.03	10.77	-46.4	-49.0	6.2	0.00e+00	0	46	104	0	63	20465
2026-01-28 21:56:01.01	233.60	10.98	-46.5	-49.0	6.2	0.00e+00	0	46	104	0	63	20525
2026-01-28 21:56:03.91	234.19	11.18	-46.4	-49.0	6.2	0.00e+00	0	46	104	0	63	20438
2026-01-28 21:56:06.82	234.78	11.38	-45.9	-48.1	6.2	0.00e+00	0	46	104	0	63	18432
2026-01-28 21:56:09.74	235.39	11.59	-46.0	-48.3	6.2	0.00e+00	0	46	104	0	63	18897
2026-01-28 21:56:12.64	236.00	11.79	-45.9	-48.0	6.2	0.00e+00	0	46	104	0	63	18346
2026-01-28 21:56:15.55	236.62	11.99	-45.8	-48.0	6.2	0.00e+00	0	46	104	0	63	18192
2026-01-28 21:56:18.45	237.25	12.19	-46.0	-48.2	6.2	0.00e+00	0	46	104	0	63	18800
2026-01-28 21:56:21.36	237.90	12.39	-46.5	-48.9	6.2	0.00e+00	0	46	104	0	63	20296
2026-01-28 21:56:24.27	238.55	12.59	-45.8	-48.0	6.2	0.00e+00	0	46	104	0	63	18256
2026-01-28 21:56:27.17	239.21	12.78	-46.5	-49.0	6.2	0.00e+00	0	46	104	0	63	20509
2026-01-28 21:56:30.08	239.88	12.98	-46.0	-48.2	6.2	0.00e+00	0	46	104	0	63	18688
2026-01-28 21:56:32.98	240.57	13.18	-46.1	-48.3	6.2	0.00e+00	0	46	104	0	63	18928
2026-01-28 21:56:35.89	241.26	13.37	-46.5	-49.1	6.2	0.00e+00	0	46	104	0	63	20730
2026-01-28 21:56:38.80	241.97	13.56	-45.8	-47.8	6.3	0.00e+00	0	46	104	0	63	17918
2026-01-28 21:56:41.70	242.68	13.75	-45.6	-47.6	6.3	0.00e+00	0	46	104	0	63	17489
2026-01-28 21:56:44.60	243.40	13.94	-46.0	-48.2	6.2	0.00e+00	0	46	104	0	63	18776
2026-01-28 21:56:47.51	244.14	14.13	-45.6	-47.7	6.3	0.00e+00	0	46	104	0	63	17571
2026-01-28 21:56:50.41	244.88	14.32	-45.7	-47.6	6.3	0.00e+00	0	46	104	0	63	17556
2026-01-28 21:56:53.31	245.64	14.50	-45.7	-47.8	6.3	0.00e+00	0	46	104	0	63	17785
2026-01-28 21:56:56.21	246.41	14.68	-45.8	-47.8	6.3	0.00e+00	0	46	104	0	63	17924
2026-01-28 21:56:59.12	247.19	14.86	-46.6	-49.2	6.2	0.00e+00	0	47	104	0	63	20901
2026-01-28 21:57:02.03	247.98	15.03	-46.6	-49.1	6.2	0.00e+00	0	46	104	0	64	19703
2026-01-28 21:57:04.93	248.77	15.20	-46.5	-48.9	6.2	0.00e+00	0	46	104	0	64	19144
2026-01-28 21:57:07.83	249.58	15.37	-46.6	-49.1	6.2	0.00e+00	0	46	104	0	64	19589
2026-01-28 21:57:10.74	250.40	15.54	-45.9	-47.9	6.3	0.00e+00	0	46	104	0	63	18079
2026-01-28 21:57:13.64	251.23	15.70	-45.9	-48.0	6.2	0.00e+00	0	46	104	0	63	18244
2026-01-28 21:57:16.55	252.07	15.85	-46.5	-49.0	6.2	0.00e+00	0	46	104	0	64	19317
2026-01-28 21:57:19.45	252.92	16.01	-46.7	-49.2	6.2	0.00e+00	0	47	104	0	64	19759
2026-01-28 21:57:22.36	253.78	16.16	-46.6	-49.1	6.2	0.00e+00	0	47	104	0	64	19544
2026-01-28 21:57:25.31	254.67	16.30	-46.7	-49.2	6.2	0.00e+00	0	46	104	0	64	19730
2026-01-28 21:57:28.26	255.56	16.45	-46.6	-49.1	6.2	0.00e+00	0	47	104	0	64	19625
2026-01-28 21:57:31.21	256.46	16.58	-46.5	-49.0	6.2	0.00e+00	0	46	104	0	64	19393
2026-01-28 21:57:34.16	257.37	16.72	-46.6	-49.1	6.2	0.00e+00	0	46	104	0	64	19580
2026-01-28 21:57:37.10	258.29	16.84	-46.7	-49.1	6.2	0.00e+00	0	46	104	0	64	19653
2026-01-28 21:57:40.05	259.22	16.96	-46.6	-49.0	6.2	0.00e+00	0	46	104	0	64	19449
2026-01-28 21:57:43.00	260.16	17.08	-46.6	-49.1	6.2	0.00e+00	0	47	104	0	64	19575
2026-01-28 21:57:45.95	261.10	17.19	-46.7	-49.2	6.2	0.00e+00	0	47	104	0	64	19727
2026-01-28 21:57:48.89	262.05	17.29	-46.6	-49.1	6.2	0.00e+00	0	46	104	0	64	19636
2026-01-28 21:57:51.85	263.01	17.39	-46.6	-49.0	6.2	0.00e+00	0	47	104	0	64	19420
2026-01-28 21:57:54.80	263.98	17.48	-46.7	-49.1	6.2	0.00e+00	0	47	104	0	64	19651
2026-01-28 21:57:57.76	264.95	17.56	-46.8	-49.3	6.2	0.00e+00	0	47	104	0	64	20028
2026-01-28 21:58:00.70	265.93	17.64	-46.6	-49.1	6.2	0.00e+00	0	47	104	0	64	19577
2026-01-28 21:58:03.65	266.91	17.70	-46.6	-49.1	6.2	0.00e+00	0	46	104	0	64	19567
2026-01-28 21:58:06.60	267.90	17.77	-46.8	-49.3	6.2	0.00e+00	0	46	104	0	64	20028
2026-01-28 21:58:09.55	268.89	17.82	-46.8	-49.4	6.2	0.00e+00	0	46	104	0	64	20170
2026-01-28 21:58:12.49	269.88	17.87	-46.7	-49.2	6.2	0.00e+00	0	47	104	0	64	19728
2026-01-28 21:58:15.43	270.88	17.91	-46.7	-49.2	6.2	0.00e+00	0	47	104	0	64	19736
2026-01-28 21:58:18.37	271.88	17.94	-46.8	-49.3	6.2	0.00e+00	0	46	104	0	64	20150
2026-01-28 21:58:21.31	272.88	17.96	-46.8	-49.4	6.2	0.00e+00	0	47	104	0	64	20217
2026-01-28 21:58:24.24	273.87	17.98	-46.8	-49.3	6.2	0.00e+00	0	46	104	0	64	20097
2026-01-28 21:58:27.17	274.87	17.99	-46.8	-49.2	6.2	0.00e+00	0	46	104	0	64	19923
2026-01-28 21:58:30.12	275.88	17.99	-46.9	-49.4	6.2	0.00e+00	0	47	104	0	64	20369
2026-01-28 21:58:33.07	276.89	17.99	-47.0	-49.5	6.2	0.00e+00	0	47	104	0	64	20502
2026-01-28 21:58:36.02	277.89	17.97	-46.8	-49.4	6.2	0.00e+00	0	47	104	0	64	20171
2026-01-28 21:58:38.97	278.89	17.95	-47.0	-49.5	6.2	0.00e+00	0	47	104	0	64	20460
2026-01-28 21:58:41.92	279.90	17.92	-47.0	-49.4	6.2	0.00e+00	0	47	104	0	64	20336
2026-01-28 21:58:44.86	280.89	17.88	-47.0	-49.5	6.2	0.00e+00	0	47	104	0	64	20542
2026-01-28 21:58:47.81	281.89	17.84	-46.9	-49.4	6.2	0.00e+00	0	47	104	0	64	20193
2026-01-28 21:58:50.76	282.88	17.79	-47.0	-49.4	6.2	0.00e+00	0	46	104	0	64	20346
2026-01-28 21:58:53.71	283.87	17.73	-47.0	-49.5	6.2	0.00e+00	0	46	104	0	64	20482
2026-01-28 21:58:56.67	284.86	17.66	-47.0	-49.5	6.2	0.00e+00	0	47	104	0	64	20583
2026-01-28 21:58:59.62	285.84	17.59	-47.0	-49.5	6.2	0.00e+00	0	47	104	0	64	20586
2026-01-28 21:59:02.54	286.80	17.51	-46.9	-49.3	6.2	0.00e+00	0	47	104	0	64	20097
2026-01-28 21:59:05.46	287.76	17.42	-47.1	-49.7	6.2	0.00e+00	0	47	104	0	64	20909
2026-01-28 21:59:08.36	288.70	17.33	-47.0	-49.5	6.2	0.00e+00	0	47	104	0	64	20545
2026-01-28 21:59:11.27	289.64	17.23	-47.1	-49.6	6.2	0.00e+00	0	47	104	0	64	20727
2026-01-28 21:59:14.18	290.57	17.13	-47.1	-49.6	6.2	0.00e+00	0	47	104	0	65	19615
2026-01-28 21:59:17.08	291.50	17.02	-47.1	-49.5	6.2	0.00e+00	0	46	104	0	65	19294
2026-01-28 21:59:19.98	292.41	16.90	-46.5	-48.6	6.2	0.00e+00	0	46	104	0	65	17403
2026-01-28 21:59:22.89	293.32	16.78	-46.7	-48.9	6.2	0.00e+00	0	46	104	0	64	19149
2026-01-28 21:59:25.79	294.22	16.65	-46.7	-48.9	6.2	0.00e+00	0	47	104	0	64	19119
2026-01-28 21:59:28.70	295.11	16.52	-46.7	-48.9	6.2	0.00e+00	0	47	104	0	64	19215
2026-01-28 21:59:31.61	296.00	16.38	-46.5	-48.6	6.2	0.00e+00	0	46	104	0	64	18451
2026-01-28 21:59:34.52	296.87	16.24	-46.6	-48.9	6.2	0.00e+00	0	47	104	0	64	19109
2026-01-28 21:59:37.43	297.73	16.09	-46.4	-48.5	6.2	0.00e+00	0	47	104	0	64	18373
2026-01-28 21:59:40.33	298.59	15.94	-46.3	-48.3	6.2	0.00e+00	0	47	104	0	64	17940
2026-01-28 21:59:43.25	299.43	15.79	-46.5	-48.8	6.2	0.00e+00	0	46	104	0	64	18961
2026-01-28 21:59:46.16	300.27	15.63	-46.4	-48.6	6.2	0.00e+00	0	47	104	0	64	18447
2026-01-28 21:59:49.07	301.09	15.46	-46.5	-48.8	6.2	0.00e+00	0	47	104	0	64	18907
2026-01-28 21:59:51.99	301.91	15.30	-46.3	-48.4	6.2	0.00e+00	0	47	104	0	64	18113
2026-01-28 21:59:54.90	302.72	15.13	-46.8	-49.3	6.2	0.00e+00	0	47	104	0	64	20055
2026-01-28 21:59:57.80	303.51	14.96	-46.5	-48.8	6.2	0.00e+00	0	47	104	0	64	18893
2026-01-28 22:00:00.71	304.29	14.78	-45.9	-47.9	6.3	0.00e+00	0	47	104	0	63	17974
2026-01-28 22:00:03.61	305.06	14.60	-46.7	-49.1	6.2	0.00e+00	0	47	104	0	64	19685
2026-01-28 22:00:06.52	305.82	14.42	-46.8	-49.3	6.2	0.00e+00	0	47	104	0	64	20054
2026-01-28 22:00:09.42	306.57	14.24	-46.7	-49.1	6.2	0.00e+00	0	47	104	0	64	19704
2026-01-28 22:00:12.33	307.31	14.05	-46.6	-48.9	6.2	0.00e+00	0	47	104	0	64	19255
2026-01-28 22:00:15.24	308.04	13.87	-46.7	-49.1	6.2	0.00e+00	0	47	104	0	64	19524
2026-01-28 22:00:18.15	308.76	13.68	-46.5	-48.9	6.2	0.00e+00	0	47	104	0	64	19092
2026-01-28 22:00:21.05	309.46	13.49	-46.6	-48.9	6.2	0.00e+00	0	47	104	0	64	19208
2026-01-28 22:00:23.96	310.16	13.29	-46.4	-48.7	6.2	0.00e+00	0	47	104	0	64	18633
2026-01-28 22:00:26.87	310.85	13.10	-46.3	-48.6	6.2	0.00e+00	0	47	104	0	64	18463
2026-01-28 22:00:29.77	311.53	12.90	-46.1	-48.3	6.2	0.00e+00	0	47	104	0	64	17807
2026-01-28 22:00:32.68	312.19	12.71	-46.0	-48.0	6.3	0.00e+00	0	47	104	0	63	18306
2026-01-28 22:00:35.58	312.85	12.51	-46.1	-48.3	6.2	0.00e+00	0	46	104	0	63	18892
2026-01-28 22:00:38.49	313.49	12.31	-46.1	-48.3	6.2	0.00e+00	0	47	104	0	63	19004
2026-01-28 22:00:41.39	314.13	12.11	-46.1	-48.3	6.2	0.00e+00	0	47	104	0	63	18968
2026-01-28 22:00:44.30	314.75	11.91	-46.1	-48.3	6.2	0.00e+00	0	46	104	0	63	18899
2026-01-28 22:00:47.20	315.37	11.71	-45.8	-47.8	6.3	0.00e+00	0	46	104	0	63	17922
2026-01-28 22:00:50.10	315.97	11.51	-46.0	-48.1	6.2	0.00e+00	0	47	104	0	63	18504
2026-01-28 22:00:53.00	316.57	11.31	-46.0	-48.1	6.3	0.00e+00	0	47	104	0	62	19653
2026-01-28 22:00:55.92	317.16	11.11	-45.5	-47.4	6.3	0.00e+00	0	47	104	0	62	18174
2026-01-28 22:00:58.83	317.74	10.91	-46.1	-48.4	6.2	0.00e+00	0	47	104	0	62	20300
2026-01-28 22:01:01.73	318.31	10.71	-46.0	-48.1	6.2	0.00e+00	0	47	104	0	62	19610
2026-01-28 22:01:04.64	318.87	10.51	-45.2	-47.0	6.3	0.00e+00	0	47	104	0	62	17315
2026-01-28 22:01:07.54	319.42	10.31	-46.4	-48.8	6.2	0.00e+00	0	47	104	0	63	20151
2026-01-28 22:01:10.44	319.96	10.10	-45.4	-47.3	6.3	0.00e+00	0	47	104	0	62	17870
2026-01-28 22:01:13.35	320.49	9.90	-45.2	-47.1	6.3	0.00e+00	0	47	104	0	62	17486
2026-01-28 22:01:16.27	321.02	9.70	-45.3	-47.2	6.3	0.00e+00	0	47	104	0	62	17710
2026-01-28 22:01:19.18	321.54	9.50	-45.2	-47.1	6.3	0.00e+00	0	47	104	0	62	17416
2026-01-28 22:01:22.09	322.04	9.30	-45.5	-47.6	6.3	0.00e+00	0	47	104	0	62	18498
2026-01-28 22:01:24.99	322.54	9.10	-45.9	-48.2	6.2	0.00e+00	0	47	104	0	62	19880
2026-01-28 22:01:27.91	323.04	8.90	-45.0	-46.9	6.3	0.00e+00	0	47	104	0	62	17039
2026-01-28 22:01:30.82	323.52	8.70	-46.3	-48.9	6.2	0.00e+00	0	46	104	0	63	20259
2026-01-28 22:01:33.73	324.00	8.50	-46.2	-48.8	6.2	0.00e+00	0	47	104	0	63	20025
2026-01-28 22:01:36.63	324.47	8.31	-46.2	-48.8	6.2	0.00e+00	0	47	104	0	63	20014
2026-01-28 22:01:39.55	324.93	8.11	-46.3	-48.9	6.2	0.00e+00	0	46	104	0	63	20188
2026-01-28 22:01:42.45	325.38	7.91	-46.2	-48.7	6.2	0.00e+00	0	47	104	0	63	19788
2026-01-28 22:01:45.35	325.83	7.72	-46.2	-48.7	6.2	0.00e+00	0	47	104	0	63	19819
2026-01-28 22:01:48.26	326.27	7.52	-46.1	-48.7	6.2	0.00e+00	0	47	104	0	63	19797
2026-01-28 22:01:51.16	326.70	7.33	-46.2	-48.7	6.2	0.00e+00	0	47	104	0	63	19882
2026-01-28 22:01:54.07	327.13	7.13	-46.1	-48.6	6.2	0.00e+00	0	47	104	0	63	19626
2026-01-28 22:01:56.97	327.55	6.94	-46.1	-48.6	6.2	0.00e+00	0	47	104	0	63	19582
2026-01-28 22:01:59.88	327.96	6.75	-46.1	-48.6	6.2	0.00e+00	0	47	104	0	63	19611
2026-01-28 22:02:02.79	328.37	6.56	-46.0	-48.6	6.2	0.00e+00	0	47	104	0	63	19480
2026-01-28 22:02:05.69	328.77	6.37	-45.9	-48.5	6.2	0.00e+00	0	47	104	0	63	19333
2026-01-28 22:02:08.60	329.17	6.18	-45.9	-48.5	6.2	0.00e+00	0	47	104	0	63	19277
2026-01-28 22:02:11.51	329.55	5.99	-46.0	-48.5	6.2	0.00e+00	0	47	104	0	63	19474
2026-01-28 22:02:14.42	329.94	5.80	-45.8	-48.3	6.2	0.00e+00	0	47	104	0	63	18993
2026-01-28 22:02:17.33	330.31	5.61	-45.8	-48.4	6.2	0.00e+00	0	47	104	0	63	19074
2026-01-28 22:02:20.24	330.69	5.43	-45.8	-48.3	6.2	0.00e+00	0	47	104	0	63	18962
2026-01-28 22:02:23.15	331.05	5.24	-45.9	-48.4	6.2	0.00e+00	0	47	104	0	63	19161
2026-01-28 22:02:26.06	331.41	5.06	-45.8	-48.4	6.2	0.00e+00	0	47	104	0	63	19058
2026-01-28 22:02:28.97	331.77	4.87	-46.7	-49.2	6.2	0.00e+00	0	47	104	0	64	19907
2026-01-28 22:02:31.87	332.12	4.69	-47.0	-49.6	6.2	0.00e+00	0	47	104	0	64	20675
2026-01-28 22:02:34.79	332.46	4.51	-47.1	-49.6	6.2	0.00e+00	0	47	104	0	64	20783
2026-01-28 22:02:37.71	332.80	4.33	-46.8	-49.3	6.2	0.00e+00	0	47	104	0	64	20150
2026-01-28 22:02:40.62	333.14	4.15	-47.0	-49.5	6.2	0.00e+00	0	47	104	0	64	20528
2026-01-28 22:02:43.53	333.47	3.97	-47.1	-49.6	6.2	0.00e+00	0	47	104	0	64	20721
2026-01-28 22:02:46.43	333.79	3.79	-47.1	-49.7	6.2	0.00e+00	0	47	104	0	64	20910
2026-01-28 22:02:49.34	334.11	3.61	-47.0	-49.5	6.2	0.00e+00	0	47	104	0	64	20526
2026-01-28 22:02:52.25	334.43	3.43	-46.9	-49.5	6.2	0.00e+00	0	47	104	0	64	20433
2026-01-28 22:02:55.17	334.74	3.26	-46.9	-49.4	6.2	0.00e+00	0	47	104	0	64	20328
2026-01-28 22:02:58.08	335.05	3.08	-46.9	-49.4	6.2	0.00e+00	0	47	104	0	64	20260
2026-01-28 22:03:00.99	335.35	2.91	-46.8	-49.4	6.2	0.00e+00	0	47	104	0	64	20255
2026-01-28 22:03:03.90	335.65	2.73	-46.8	-49.4	6.2	0.00e+00	0	47	104	0	64	20197
2026-01-28 22:03:06.81	335.94	2.56	-46.8	-49.3	6.2	0.00e+00	0	47	104	0	64	20122
2026-01-28 22:03:09.73	336.23	2.39	-46.8	-49.3	6.2	0.00e+00	0	47	104	0	64	20034
2026-01-28 22:03:12.65	336.52	2.22	-46.7	-49.3	6.2	0.00e+00	0	47	104	0	64	20004
2026-01-28 22:03:15.56	336.80	2.05	-46.7	-49.3	6.2	0.00e+00	0	47	104	0	64	19960
2026-01-28 22:03:18.49	337.08	1.88	-46.7	-49.2	6.2	0.00e+00	0	47	104	0	64	19822

#Closed at: 2026-01-28 22:03:19
#Recorded file [0 MB]: D:/lorett/data/31045_260129_005344.dat