passes_logs/2026/01/28/R3.2S_Murmansk_2ch/R3.2S_Murmansk_2ch__20260128_211751_JL1KF02B03_rec.log

#Pass ID: 20260128_211751_JL1KF02B03
#Satellite: JL1KF02B03
#Configuration: 01B_900M
#almurnet v.1.7.20251203
#Start time: 2026-01-28 21:17:50

#Version: 2.2.20231116
#Station: R3.2S_Murmansk_2ch
#Location: 33.079688 lon 68.888172 lat
#TLE: 1 61190U 24169B   26027.81783714  .00006906  00000+0  43277-3 0  9991
#TLE: 2 61190  97.5613 118.7682 0015007 139.5313 220.7035 15.09576175 74658

#Time	Az	El	Level	Level2	SNR	BER	BlckErr	Temp	State	Recorded	gain1	gain2
2026-01-28 21:17:50.78	197.69	1.98	-47.6	-50.1	6.2	0.00e+00	0	43	0	0	66	19681
2026-01-28 21:17:53.80	197.91	2.17	-47.5	-50.1	6.2	0.00e+00	0	43	104	0	66	19509
2026-01-28 21:17:56.83	198.13	2.37	-47.5	-50.1	6.2	0.00e+00	0	43	104	0	66	19495
2026-01-28 21:17:59.85	198.35	2.56	-47.7	-50.2	6.2	0.00e+00	0	44	104	0	66	19750
2026-01-28 21:18:02.88	198.57	2.76	-47.9	-50.5	6.2	0.00e+00	0	44	104	0	66	20448
2026-01-28 21:18:05.91	198.80	2.96	-47.9	-50.5	6.2	0.00e+00	0	44	104	0	66	20421
2026-01-28 21:18:08.93	199.03	3.16	-47.9	-50.4	6.2	0.00e+00	0	44	104	0	66	20305
2026-01-28 21:18:11.96	199.27	3.36	-47.8	-50.3	6.2	0.00e+00	0	44	104	0	66	20061
2026-01-28 21:18:14.99	199.51	3.56	-47.6	-50.1	6.2	0.00e+00	0	44	104	0	66	19642
2026-01-28 21:18:18.01	199.75	3.77	-47.3	-49.8	6.2	0.00e+00	0	44	104	0	66	19011
2026-01-28 21:18:21.04	200.00	3.97	-46.7	-49.3	6.2	0.00e+00	0	44	104	0	65	18887
2026-01-28 21:18:24.07	200.25	4.18	-46.0	-48.6	6.2	0.00e+00	0	44	104	0	64	18479
2026-01-28 21:18:27.10	200.51	4.39	-46.0	-48.6	6.2	0.00e+00	0	44	104	0	64	18453
2026-01-28 21:18:30.12	200.76	4.60	-46.0	-48.6	6.2	0.00e+00	0	44	104	0	64	18397
2026-01-28 21:18:33.14	201.03	4.82	-46.0	-48.6	6.2	0.00e+00	0	45	104	0	63	19559
2026-01-28 21:18:36.17	201.30	5.03	-46.1	-48.6	6.2	0.00e+00	0	45	104	0	63	19656
2026-01-28 21:18:39.20	201.57	5.25	-46.0	-48.5	6.2	0.00e+00	0	45	104	0	63	19419
2026-01-28 21:18:42.23	201.85	5.47	-46.0	-48.6	6.2	0.00e+00	0	45	104	0	63	19587
2026-01-28 21:18:45.26	202.14	5.69	-46.2	-48.7	6.2	0.00e+00	0	45	104	0	63	19838
2026-01-28 21:18:48.28	202.42	5.91	-46.2	-48.7	6.2	0.00e+00	0	45	104	0	63	19885
2026-01-28 21:18:51.31	202.72	6.14	-46.0	-48.6	6.2	0.00e+00	0	45	104	0	63	19543
2026-01-28 21:18:54.33	203.02	6.36	-46.1	-48.6	6.2	0.00e+00	0	45	104	0	63	19655
2026-01-28 21:18:57.36	203.32	6.59	-46.2	-48.7	6.2	0.00e+00	0	45	104	0	63	19909
2026-01-28 21:19:00.38	203.63	6.82	-46.2	-48.8	6.2	0.00e+00	0	45	104	0	63	20019
2026-01-28 21:19:03.41	203.95	7.05	-46.1	-48.7	6.2	0.00e+00	0	45	104	0	63	19787
2026-01-28 21:19:06.44	204.27	7.29	-46.1	-48.7	6.2	0.00e+00	0	45	104	0	63	19811
2026-01-28 21:19:09.47	204.60	7.52	-46.3	-48.8	6.2	0.00e+00	0	45	104	0	63	20033
2026-01-28 21:19:12.50	204.94	7.76	-46.3	-48.9	6.2	0.00e+00	0	45	104	0	63	20193
2026-01-28 21:19:15.53	205.28	8.01	-46.2	-48.8	6.2	0.00e+00	0	45	104	0	63	19939
2026-01-28 21:19:18.55	205.63	8.25	-46.2	-48.8	6.2	0.00e+00	0	45	104	0	63	20058
2026-01-28 21:19:21.57	205.98	8.49	-46.3	-48.9	6.2	0.00e+00	0	45	104	0	63	20199
2026-01-28 21:19:24.60	206.34	8.74	-46.4	-48.9	6.2	0.00e+00	0	45	104	0	63	20352
2026-01-28 21:19:27.62	206.71	8.99	-46.3	-48.9	6.2	0.00e+00	0	46	104	0	63	20233
2026-01-28 21:19:30.65	207.09	9.24	-45.8	-48.5	6.2	0.00e+00	0	45	104	0	63	19418
2026-01-28 21:19:33.68	207.48	9.50	-26.8	-26.9	15.4	8.39e-05	0	46	0	159383552	25	14288
2026-01-28 21:19:36.71	207.87	9.76	-25.2	-25.2	16.1	2.47e-05	0	46	0	494927872	22	14079
2026-01-28 21:19:39.73	208.27	10.02	-25.0	-25.1	16.2	2.28e-05	0	46	0	838860800	21	14611
2026-01-28 21:19:42.76	208.68	10.28	-24.9	-24.9	16.3	1.71e-05	0	46	0	1174405120	21	14408
2026-01-28 21:19:45.79	209.10	10.54	-24.8	-24.8	16.3	7.60e-06	0	46	0	1518338048	21	14210
2026-01-28 21:19:48.82	209.52	10.81	-24.8	-24.9	16.3	1.52e-05	0	46	0	1862270976	21	14300
2026-01-28 21:19:51.84	209.96	11.08	-24.7	-24.7	16.3	1.14e-05	0	46	0	2197815296	21	14093
2026-01-28 21:19:54.87	210.40	11.35	-24.7	-24.7	16.3	1.71e-05	0	46	0	2541748224	21	14092
2026-01-28 21:19:57.90	210.86	11.63	-24.5	-24.5	16.4	1.33e-05	0	46	0	2877292544	21	13748
2026-01-28 21:20:00.93	211.32	11.91	-24.3	-24.4	16.4	1.14e-05	0	46	0	3221225472	20	14320
2026-01-28 21:20:03.95	211.80	12.19	-24.3	-24.4	16.4	1.14e-05	0	46	0	3565158400	20	14334
2026-01-28 21:20:06.98	212.28	12.47	-24.2	-24.2	16.4	5.70e-06	0	46	0	3900702720	20	14044
2026-01-28 21:20:10.01	212.78	12.75	-24.1	-24.2	16.5	1.14e-05	0	46	0	4244635648	20	13994
2026-01-28 21:20:13.03	213.29	13.04	-24.0	-24.1	16.5	5.70e-06	0	46	0	4588568576	20	13822
2026-01-28 21:20:16.06	213.81	13.33	-24.0	-24.1	16.5	9.50e-06	0	46	0	4924112896	19	14693
2026-01-28 21:20:19.09	214.34	13.62	-24.1	-24.2	16.4	9.50e-06	0	46	0	5268045824	19	14782
2026-01-28 21:20:22.12	214.88	13.92	-23.9	-23.9	16.5	3.80e-06	0	46	0	5603590144	19	14435
2026-01-28 21:20:25.14	215.44	14.22	-23.8	-23.9	16.5	3.80e-06	0	46	0	5947523072	19	14324
2026-01-28 21:20:28.18	216.01	14.52	-23.7	-23.8	16.6	3.80e-06	0	46	0	6291456000	19	14132
2026-01-28 21:20:31.21	216.59	14.82	-23.7	-23.8	16.5	3.80e-06	0	46	0	6627000320	19	14131
2026-01-28 21:20:34.23	217.18	15.12	-23.7	-23.7	16.6	1.90e-06	0	46	0	6970933248	19	14098
2026-01-28 21:20:37.26	217.79	15.43	-23.6	-23.7	16.5	5.70e-06	0	46	0	7306477568	19	13979
2026-01-28 21:20:40.29	218.42	15.74	-23.5	-23.6	16.5	3.80e-06	0	47	0	7650410496	19	13818
2026-01-28 21:20:43.32	219.06	16.05	-23.5	-23.6	16.4	5.70e-06	0	46	0	7985954816	18	14653
2026-01-28 21:20:46.35	219.71	16.36	-23.3	-23.4	16.5	1.90e-06	0	46	0	8329887744	18	14322
2026-01-28 21:20:49.38	220.38	16.68	-23.1	-23.2	16.6	3.80e-06	0	47	0	8673820672	18	13966
2026-01-28 21:20:52.41	221.06	16.99	-23.0	-23.1	16.6	1.90e-06	0	46	0	9009364992	18	13861
2026-01-28 21:20:55.44	221.77	17.31	-22.9	-22.9	16.6	3.80e-06	0	47	0	9353297920	17	14432
2026-01-28 21:20:58.46	222.48	17.63	-23.0	-23.1	16.5	1.90e-06	0	46	0	9688842240	17	14655
2026-01-28 21:21:01.49	223.22	17.95	-22.7	-22.7	16.5	0.00e+00	0	47	0	10032775168	17	14077
2026-01-28 21:21:04.52	223.97	18.27	-22.7	-22.8	16.6	1.90e-06	0	47	0	10376708096	17	14161
2026-01-28 21:21:07.55	224.74	18.59	-22.5	-22.6	16.7	0.00e+00	0	47	0	10712252416	17	13855
2026-01-28 21:21:10.57	225.53	18.92	-22.4	-22.5	16.7	0.00e+00	0	46	0	11056185344	16	14476
2026-01-28 21:21:13.60	226.34	19.24	-22.3	-22.3	16.7	3.80e-06	0	47	0	11400118272	16	14254
2026-01-28 21:21:16.62	227.17	19.56	-22.3	-22.4	16.7	3.80e-06	0	47	0	11744051200	16	14350
2026-01-28 21:21:19.65	228.01	19.88	-22.3	-22.3	16.6	3.80e-06	0	47	0	12079595520	16	14239
2026-01-28 21:21:22.68	228.88	20.21	-22.1	-22.2	16.6	3.80e-06	0	47	0	12423528448	16	14010
2026-01-28 21:21:25.71	229.77	20.53	-22.0	-22.1	16.7	0.00e+00	0	47	0	12759072768	16	13832
2026-01-28 21:21:28.74	230.68	20.85	-22.0	-22.1	16.6	1.90e-06	0	47	0	13103005696	16	13839
2026-01-28 21:21:31.77	231.61	21.16	-21.8	-21.9	16.6	3.80e-06	0	47	0	13438550016	15	14280
2026-01-28 21:21:34.80	232.56	21.48	-21.7	-21.7	16.6	5.70e-06	0	47	0	13782482944	15	14052
2026-01-28 21:21:37.83	233.53	21.79	-21.7	-21.7	16.6	0.00e+00	0	47	0	14126415872	15	14060
2026-01-28 21:21:40.85	234.52	22.10	-21.6	-21.7	16.6	0.00e+00	0	47	0	14461960192	15	14011
2026-01-28 21:21:43.87	235.53	22.41	-21.5	-21.5	16.6	1.90e-06	0	47	0	14805893120	15	13785
2026-01-28 21:21:46.90	236.57	22.71	-21.7	-21.7	16.5	0.00e+00	0	47	0	15141437440	15	14095
2026-01-28 21:21:49.93	237.63	23.01	-21.4	-21.4	16.5	1.90e-06	0	47	0	15485370368	14	14363
2026-01-28 21:21:52.96	238.71	23.30	-21.2	-21.2	16.7	0.00e+00	0	47	0	15820914688	14	14105
2026-01-28 21:21:55.98	239.81	23.58	-21.2	-21.2	16.6	0.00e+00	0	47	0	16164847616	14	14076
2026-01-28 21:21:59.01	240.93	23.86	-21.1	-21.1	16.5	0.00e+00	0	47	0	16500391936	14	13884
2026-01-28 21:22:02.04	242.08	24.13	-21.1	-21.1	16.5	1.90e-06	0	47	0	16844324864	14	13881
2026-01-28 21:22:05.07	243.25	24.40	-21.1	-21.1	16.4	1.90e-06	0	47	0	17188257792	13	14701
2026-01-28 21:22:08.10	244.44	24.65	-20.9	-21.0	16.7	1.90e-06	0	47	0	17532190720	13	14499
2026-01-28 21:22:11.13	245.65	24.90	-20.8	-20.9	16.5	1.90e-06	0	47	0	17867735040	13	14282
2026-01-28 21:22:14.16	246.88	25.13	-20.8	-20.8	16.6	1.90e-06	0	47	0	18211667968	13	14212
2026-01-28 21:22:17.19	248.13	25.36	-20.7	-20.8	16.6	0.00e+00	0	47	0	18555600896	13	14173
2026-01-28 21:22:20.22	249.40	25.57	-20.7	-20.8	16.4	3.80e-06	0	47	0	18891145216	13	14159
2026-01-28 21:22:23.25	250.68	25.78	-20.7	-20.7	16.5	0.00e+00	0	47	0	19235078144	13	14020
2026-01-28 21:22:26.28	251.99	25.97	-20.6	-20.7	16.4	1.90e-06	0	47	0	19579011072	13	13990
2026-01-28 21:22:29.30	253.30	26.14	-20.6	-20.6	16.5	1.90e-06	0	47	0	19914555392	13	13938
2026-01-28 21:22:32.34	254.64	26.31	-20.5	-20.5	16.5	1.90e-06	0	47	0	20258488320	13	13735
2026-01-28 21:22:35.36	255.99	26.45	-20.5	-20.6	16.6	0.00e+00	0	47	0	20594032640	13	13826
2026-01-28 21:22:38.39	257.35	26.59	-20.6	-20.6	16.6	0.00e+00	0	47	0	20937965568	12	14766
2026-01-28 21:22:41.42	258.73	26.70	-20.4	-20.4	16.4	0.00e+00	0	47	0	21273509888	12	14405
2026-01-28 21:22:44.44	260.11	26.81	-20.4	-20.4	16.5	0.00e+00	0	47	0	21617442816	12	14379
2026-01-28 21:22:47.48	261.50	26.89	-20.4	-20.4	16.5	1.90e-06	0	47	0	21961375744	12	14365
2026-01-28 21:22:50.50	262.90	26.96	-20.5	-20.5	16.3	0.00e+00	0	47	0	22296920064	12	14544
2026-01-28 21:22:53.53	264.31	27.01	-20.5	-20.5	16.5	0.00e+00	0	47	0	22640852992	12	14529
2026-01-28 21:22:56.56	265.72	27.05	-20.4	-20.4	16.5	0.00e+00	0	47	0	22976397312	12	14399
2026-01-28 21:22:59.59	267.13	27.07	-20.4	-20.4	16.5	1.90e-06	0	47	0	23320330240	12	14383
2026-01-28 21:23:02.62	268.54	27.07	-20.5	-20.5	16.5	0.00e+00	0	47	0	23655874560	12	14582
2026-01-28 21:23:05.65	269.96	27.05	-20.5	-20.6	16.6	1.90e-06	0	47	0	23999807488	12	14632
2026-01-28 21:23:08.67	271.36	27.02	-20.5	-20.5	16.6	0.00e+00	0	47	0	24343740416	12	14549
2026-01-28 21:23:11.70	272.77	26.97	-20.6	-20.6	16.6	0.00e+00	0	47	0	24679284736	12	14769
2026-01-28 21:23:14.73	274.17	26.90	-20.5	-20.5	16.7	0.00e+00	0	47	0	25023217664	12	14593
2026-01-28 21:23:17.76	275.57	26.81	-20.5	-20.6	16.7	0.00e+00	0	47	0	25367150592	12	14624
2026-01-28 21:23:20.79	276.95	26.71	-20.6	-20.6	16.7	0.00e+00	0	47	0	25702694912	12	14724
2026-01-28 21:23:23.82	278.33	26.60	-20.6	-20.6	16.8	0.00e+00	0	47	0	26046627840	12	14684
2026-01-28 21:23:26.85	279.69	26.46	-20.6	-20.6	16.9	0.00e+00	0	47	0	26390560768	12	14746
2026-01-28 21:23:29.88	281.04	26.32	-20.6	-20.7	16.9	0.00e+00	0	47	0	26734493696	12	14814
2026-01-28 21:23:32.91	282.38	26.16	-20.7	-20.8	17.0	0.00e+00	0	47	0	27070038016	12	15021
2026-01-28 21:23:35.94	283.70	25.98	-20.8	-20.8	17.1	0.00e+00	0	47	0	27413970944	12	15071
2026-01-28 21:23:38.96	285.00	25.79	-20.8	-20.9	17.1	0.00e+00	0	47	0	27749515264	12	15135
2026-01-28 21:23:41.99	286.29	25.59	-20.8	-20.9	17.4	0.00e+00	0	47	0	28093448192	12	15142
2026-01-28 21:23:45.02	287.56	25.38	-20.9	-21.0	17.5	0.00e+00	0	47	0	28428992512	12	15353
2026-01-28 21:23:48.04	288.81	25.15	-21.0	-21.1	17.5	0.00e+00	0	47	0	28772925440	12	15485
2026-01-28 21:23:51.07	290.04	24.92	-21.1	-21.1	17.8	0.00e+00	0	47	0	29116858368	12	15557
2026-01-28 21:23:54.10	291.25	24.67	-21.1	-21.2	17.9	0.00e+00	0	47	0	29452402688	13	14837
2026-01-28 21:23:57.13	292.44	24.42	-21.3	-21.3	18.0	0.00e+00	0	47	0	29796335616	13	15113
2026-01-28 21:24:00.16	293.61	24.16	-21.3	-21.3	18.1	0.00e+00	0	47	0	30131879936	13	15112
2026-01-28 21:24:03.19	294.76	23.88	-21.4	-21.4	18.4	0.00e+00	0	47	0	30475812864	13	15288
2026-01-28 21:24:06.22	295.89	23.61	-21.4	-21.5	18.3	0.00e+00	0	47	0	30811357184	13	15315
2026-01-28 21:24:09.25	296.99	23.32	-21.5	-21.5	18.3	1.90e-06	0	47	0	31155290112	13	15436
2026-01-28 21:24:12.28	298.07	23.03	-21.5	-21.6	18.5	1.90e-06	0	47	0	31499223040	13	15523
2026-01-28 21:24:15.30	299.13	22.73	-21.6	-21.7	18.6	0.00e+00	0	47	0	31834767360	13	15733
2026-01-28 21:24:18.33	300.17	22.43	-21.8	-21.8	18.5	0.00e+00	0	47	0	32178700288	14	15120
2026-01-28 21:24:21.36	301.19	22.13	-21.8	-21.9	18.7	0.00e+00	0	47	0	32522633216	14	15179
2026-01-28 21:24:24.39	302.18	21.82	-21.8	-21.8	18.7	0.00e+00	0	47	0	32858177536	14	15115
2026-01-28 21:24:27.42	303.16	21.51	-21.8	-21.9	18.9	0.00e+00	0	47	0	33202110464	14	15164
2026-01-28 21:24:30.44	304.11	21.19	-21.9	-21.9	18.9	0.00e+00	0	47	0	33546043392	14	15293
2026-01-28 21:24:33.47	305.04	20.87	-22.0	-22.0	19.0	0.00e+00	0	47	0	33881587712	14	15375
2026-01-28 21:24:36.50	305.95	20.55	-22.3	-22.3	19.0	0.00e+00	0	47	0	34225520640	15	15084
2026-01-28 21:24:39.52	306.83	20.23	-22.2	-22.3	19.1	0.00e+00	0	47	0	34569453568	15	15024
2026-01-28 21:24:42.55	307.70	19.91	-22.2	-22.3	19.2	0.00e+00	0	47	0	34904997888	15	14964
2026-01-28 21:24:45.58	308.55	19.59	-22.4	-22.4	19.1	0.00e+00	0	47	0	35248930816	15	15284
2026-01-28 21:24:48.60	309.38	19.27	-22.5	-22.5	19.2	0.00e+00	0	47	0	35584475136	15	15390
2026-01-28 21:24:51.63	310.19	18.95	-22.6	-22.7	19.2	0.00e+00	0	47	0	35928408064	15	15670
2026-01-28 21:24:54.65	310.98	18.62	-22.8	-22.9	19.2	0.00e+00	0	47	0	36263952384	16	15187
2026-01-28 21:24:57.69	311.76	18.30	-22.8	-22.8	19.3	0.00e+00	0	47	0	36607885312	16	15102
2026-01-28 21:25:00.71	312.51	17.98	-22.9	-23.0	19.2	0.00e+00	0	47	0	36943429632	16	15385
2026-01-28 21:25:03.74	313.25	17.66	-23.1	-23.1	19.2	0.00e+00	0	47	0	37287362560	16	15566
2026-01-28 21:25:06.77	313.97	17.34	-23.0	-23.1	19.2	0.00e+00	0	47	0	37631295488	16	15553
2026-01-28 21:25:09.80	314.67	17.02	-23.1	-23.2	19.2	0.00e+00	0	47	0	37966839808	16	15744
2026-01-28 21:25:12.83	315.36	16.71	-23.2	-23.3	19.2	0.00e+00	0	47	0	38310772736	17	14949
2026-01-28 21:25:15.86	316.03	16.39	-23.3	-23.4	19.1	0.00e+00	0	47	0	38646317056	17	15139
2026-01-28 21:25:18.89	316.69	16.08	-23.6	-23.7	19.0	0.00e+00	0	47	0	38990249984	17	15673
2026-01-28 21:25:21.92	317.33	15.77	-23.5	-23.5	19.0	0.00e+00	0	47	0	39325794304	17	15470
2026-01-28 21:25:24.94	317.95	15.46	-23.5	-23.6	19.0	0.00e+00	0	47	0	39669727232	17	15492
2026-01-28 21:25:27.97	318.56	15.15	-23.8	-23.8	18.9	0.00e+00	0	47	0	40013660160	18	15038
2026-01-28 21:25:31.00	319.16	14.85	-23.8	-23.9	18.8	0.00e+00	0	47	0	40357593088	18	15138
2026-01-28 21:25:34.03	319.74	14.55	-23.9	-24.0	18.7	0.00e+00	0	47	0	40693137408	18	15327
2026-01-28 21:25:37.05	320.31	14.25	-24.0	-24.0	18.7	0.00e+00	0	47	0	41037070336	18	15458
2026-01-28 21:25:40.09	320.87	13.95	-24.0	-24.1	18.7	0.00e+00	0	47	0	41381003264	18	15557
2026-01-28 21:25:43.11	321.42	13.65	-24.1	-24.2	18.6	0.00e+00	0	47	0	41716547584	18	15653
2026-01-28 21:25:46.13	321.95	13.36	-24.4	-24.4	18.5	1.90e-06	0	47	0	42060480512	19	15272
2026-01-28 21:25:49.16	322.47	13.07	-24.3	-24.3	18.5	0.00e+00	0	47	0	42396024832	19	15064
2026-01-28 21:25:52.19	322.98	12.78	-24.4	-24.4	18.4	0.00e+00	0	47	0	42739957760	19	15284
2026-01-28 21:25:55.22	323.48	12.50	-24.4	-24.5	18.4	0.00e+00	0	47	0	43083890688	19	15382
2026-01-28 21:25:58.25	323.97	12.22	-46.6	-49.2	6.2	0.00e+00	0	47	104	43293605888	63	20946
2026-01-28 21:26:01.28	324.44	11.94	-46.6	-49.2	6.2	0.00e+00	0	47	104	43293605888	63	20900
2026-01-28 21:26:04.31	324.91	11.66	-46.6	-49.1	6.2	0.00e+00	0	47	104	43293605888	63	20816
2026-01-28 21:26:07.34	325.37	11.38	-46.6	-49.1	6.2	0.00e+00	0	47	104	43293605888	63	20799
2026-01-28 21:26:10.36	325.81	11.11	-46.5	-49.1	6.2	0.00e+00	0	47	104	43293605888	63	20725
2026-01-28 21:26:13.39	326.25	10.84	-46.5	-49.1	6.2	0.00e+00	0	47	104	43293605888	63	20738
2026-01-28 21:26:16.42	326.68	10.57	-46.5	-49.0	6.2	0.00e+00	0	47	104	43293605888	63	20555
2026-01-28 21:26:19.45	327.10	10.31	-46.4	-49.0	6.2	0.00e+00	0	47	104	43293605888	63	20458
2026-01-28 21:26:22.48	327.51	10.05	-46.4	-48.9	6.2	0.00e+00	0	47	104	43293605888	63	20364
2026-01-28 21:26:25.50	327.91	9.79	-46.4	-48.9	6.2	0.00e+00	0	47	104	43293605888	63	20380
2026-01-28 21:26:28.53	328.31	9.53	-46.3	-48.9	6.2	0.00e+00	0	47	104	43293605888	63	20287
2026-01-28 21:26:31.56	328.69	9.27	-46.3	-48.8	6.2	0.00e+00	0	47	104	43293605888	63	20111
2026-01-28 21:26:34.58	329.07	9.02	-46.3	-48.8	6.2	0.00e+00	0	47	104	43293605888	63	20115
2026-01-28 21:26:37.61	329.44	8.77	-46.2	-48.8	6.2	0.00e+00	0	47	104	43293605888	63	20039
2026-01-28 21:26:40.64	329.81	8.52	-46.3	-48.8	6.2	0.00e+00	0	47	104	43293605888	63	20096
2026-01-28 21:26:43.67	330.17	8.28	-46.2	-48.7	6.2	0.00e+00	0	47	104	43293605888	63	19872
2026-01-28 21:26:46.70	330.52	8.03	-46.2	-48.7	6.2	0.00e+00	0	47	104	43293605888	63	19912
2026-01-28 21:26:49.73	330.86	7.79	-46.1	-48.7	6.2	0.00e+00	0	47	104	43293605888	63	19776
2026-01-28 21:26:52.75	331.20	7.56	-46.1	-48.7	6.2	0.00e+00	0	47	104	43293605888	63	19797
2026-01-28 21:26:55.78	331.53	7.32	-46.1	-48.6	6.2	0.00e+00	0	46	104	43293605888	63	19573
2026-01-28 21:26:58.81	331.85	7.08	-46.1	-48.6	6.2	0.00e+00	0	47	104	43293605888	63	19640
2026-01-28 21:27:01.83	332.17	6.85	-46.0	-48.5	6.2	0.00e+00	0	47	104	43293605888	63	19468
2026-01-28 21:27:04.86	332.48	6.62	-46.0	-48.6	6.2	0.00e+00	0	46	104	43293605888	63	19551
2026-01-28 21:27:07.88	332.79	6.39	-45.9	-48.4	6.2	0.00e+00	0	47	104	43293605888	63	19202
2026-01-28 21:27:10.91	333.09	6.17	-45.9	-48.5	6.2	0.00e+00	0	47	104	43293605888	63	19285
2026-01-28 21:27:13.94	333.39	5.94	-45.8	-48.3	6.2	0.00e+00	0	47	104	43293605888	63	18967
2026-01-28 21:27:16.97	333.68	5.72	-45.9	-48.4	6.2	0.00e+00	0	47	104	43293605888	63	19201
2026-01-28 21:27:19.99	333.97	5.50	-45.5	-48.1	6.2	0.00e+00	0	47	104	43293605888	63	18481
2026-01-28 21:27:23.02	334.25	5.28	-45.7	-48.2	6.2	0.00e+00	0	47	104	43293605888	62	19774
2026-01-28 21:27:26.04	334.52	5.06	-46.0	-48.5	6.2	0.00e+00	0	46	104	43293605888	62	20534
2026-01-28 21:27:29.07	334.79	4.85	-46.8	-49.4	6.2	0.00e+00	0	46	104	43293605888	64	20235
2026-01-28 21:27:32.10	335.06	4.64	-47.2	-49.7	6.2	0.00e+00	0	46	104	43293605888	64	21056
2026-01-28 21:27:35.12	335.32	4.42	-47.2	-49.8	6.2	0.00e+00	0	47	104	43293605888	65	20026
2026-01-28 21:27:38.15	335.58	4.21	-46.9	-49.5	6.2	0.00e+00	0	46	104	43293605888	65	19338
2026-01-28 21:27:41.18	335.83	4.01	-47.1	-49.6	6.2	0.00e+00	0	47	104	43293605888	65	19632
2026-01-28 21:27:44.21	336.08	3.80	-47.1	-49.7	6.2	0.00e+00	0	47	104	43293605888	65	19798
2026-01-28 21:27:47.23	336.33	3.60	-47.1	-49.7	6.2	0.00e+00	0	47	104	43293605888	65	19779
2026-01-28 21:27:50.26	336.57	3.39	-47.0	-49.5	6.2	0.00e+00	0	47	104	43293605888	65	19471
2026-01-28 21:27:53.29	336.81	3.19	-47.0	-49.5	6.2	0.00e+00	0	47	104	43293605888	65	19344
2026-01-28 21:27:56.31	337.04	2.99	-46.9	-49.4	6.2	0.00e+00	0	47	104	43293605888	65	19246
2026-01-28 21:27:59.34	337.27	2.79	-46.9	-49.4	6.2	0.00e+00	0	47	104	43293605888	65	19232
2026-01-28 21:28:02.37	337.50	2.60	-46.9	-49.4	6.2	0.00e+00	0	47	104	43293605888	65	19112
2026-01-28 21:28:05.39	337.72	2.40	-46.8	-49.4	6.2	0.00e+00	0	47	104	43293605888	65	19069
2026-01-28 21:28:08.42	337.94	2.21	-46.8	-49.3	6.2	0.00e+00	0	47	104	43293605888	65	19033
2026-01-28 21:28:11.45	338.16	2.01	-46.8	-49.3	6.2	0.00e+00	0	47	104	43293605888	65	18923

#Closed at: 2026-01-28 21:28:14
#Recorded file [43293 MB]: D:/lorett/data/31045_260129_001750.dat