passes_logs/2025/01/22/LEX_Murmansk/LEX_Murmansk__20250122_111900_NOAA_18_rec.log

#Pass ID: 20250122_111900_NOAA 18
#Satellite: NOAA 18
#Configuration: NOAA 18
#Start time: 2025-01-22 11:18:55.149986

#LorettStation: 1.0.0 05.05.2024
#Station: LEX_Murmansk
#Location: 33.156738 lon 68.926811 lat
#TLE: 1 28654U 05018A   25021.17963601  .00000484  00000+0  28040-3 0  9994
#TLE: 2 28654  98.8557 102.1724 0014626 162.0619 198.1073 14.13492794 14053

#Time	Az	El	Level	SNR
2025-01-22 11:19:09.321640	22.8	16.4	-90.2	4.9
2025-01-22 11:19:10.472347	22.7	16.6	-89.7	4.0
2025-01-22 11:19:11.618905	22.6	16.7	-90.7	5.8
2025-01-22 11:19:12.768667	22.6	16.8	-90.9	3.0
2025-01-22 11:19:13.914065	22.5	16.9	-90.3	3.9
2025-01-22 11:19:15.073030	22.4	17.1	-90.4	3.2
2025-01-22 11:19:16.220696	22.3	17.2	-90.4	4.7
2025-01-22 11:19:17.363180	22.2	17.3	-90.8	6.0
2025-01-22 11:19:18.511154	22.1	17.4	-90.5	4.6
2025-01-22 11:19:19.666614	22.0	17.5	-90.9	6.2
2025-01-22 11:19:20.822099	21.9	17.7	-90.9	4.3
2025-01-22 11:19:21.969273	21.8	17.8	-90.9	4.3
2025-01-22 11:19:23.122328	21.7	17.9	-90.0	3.5
2025-01-22 11:19:24.273142	21.6	18.1	-90.5	7.0
2025-01-22 11:19:25.411218	21.5	18.2	-90.8	4.7
2025-01-22 11:19:26.562381	21.4	18.3	-90.8	7.2
2025-01-22 11:19:27.709579	21.3	18.4	-90.8	10.8
2025-01-22 11:19:28.862775	21.2	18.6	-90.8	8.9
2025-01-22 11:19:30.008666	21.1	18.7	-90.7	8.6
2025-01-22 11:19:31.157652	21.0	18.8	-91.0	13.0
2025-01-22 11:19:32.301226	20.9	19.0	-90.5	10.4
2025-01-22 11:19:33.445308	20.8	19.1	-91.2	9.9
2025-01-22 11:19:34.596452	20.7	19.2	-91.0	10.9
2025-01-22 11:19:35.750983	20.6	19.4	-90.8	11.7
2025-01-22 11:19:36.899655	20.5	19.5	-90.8	8.9
2025-01-22 11:19:38.044628	20.4	19.6	-90.8	6.4
2025-01-22 11:19:39.189089	20.3	19.8	-90.0	10.6
2025-01-22 11:19:40.343351	20.2	19.9	-90.5	10.7
2025-01-22 11:19:41.489604	20.1	20.0	-91.1	5.1
2025-01-22 11:19:42.636141	20.0	20.2	-90.6	9.1
2025-01-22 11:19:43.784837	19.9	20.3	-91.0	12.2
2025-01-22 11:19:44.934331	19.8	20.4	-91.0	12.7
2025-01-22 11:19:46.090863	19.7	20.6	-90.8	11.1
2025-01-22 11:19:47.236218	19.5	20.7	-90.7	9.4
2025-01-22 11:19:48.388500	19.4	20.9	-90.3	5.3
2025-01-22 11:19:49.531855	19.3	21.0	-91.0	7.5
2025-01-22 11:19:50.686318	19.2	21.1	-90.8	10.2
2025-01-22 11:19:51.831455	19.1	21.3	-90.7	8.1
2025-01-22 11:19:52.986423	19.0	21.4	-90.8	12.2
2025-01-22 11:19:54.136261	18.8	21.6	-90.7	8.9
2025-01-22 11:19:55.284270	18.7	21.7	-90.6	8.3
2025-01-22 11:19:56.432556	18.6	21.9	-90.9	4.3
2025-01-22 11:19:57.581958	18.5	22.0	-90.9	5.1
2025-01-22 11:19:58.733018	18.3	22.1	-91.1	10.8
2025-01-22 11:19:59.886168	18.2	22.3	-91.1	7.0
2025-01-22 11:20:01.032616	18.1	22.4	-91.4	8.9
2025-01-22 11:20:02.181288	18.0	22.6	-90.3	9.8
2025-01-22 11:20:03.327762	17.8	22.7	-90.7	13.3
2025-01-22 11:20:04.487119	17.7	22.9	-91.1	11.2
2025-01-22 11:20:05.633367	17.6	23.0	-91.2	11.9
2025-01-22 11:20:06.787627	17.4	23.2	-91.0	14.3
2025-01-22 11:20:07.932059	17.3	23.3	-90.9	11.4
2025-01-22 11:20:09.083045	17.2	23.5	-90.5	11.9
2025-01-22 11:20:10.233135	17.0	23.6	-90.5	12.4
2025-01-22 11:20:11.383661	16.9	23.8	-90.8	10.2
2025-01-22 11:20:12.537595	16.7	23.9	-91.1	7.1
2025-01-22 11:20:13.686925	16.6	24.1	-91.3	6.9
2025-01-22 11:20:14.832715	16.4	24.3	-91.2	8.5
2025-01-22 11:20:15.982873	16.3	24.4	-91.4	6.8
2025-01-22 11:20:17.132880	16.2	24.6	-90.8	7.0
2025-01-22 11:20:18.283289	16.0	24.7	-90.2	6.6
2025-01-22 11:20:19.431660	15.9	24.9	-91.4	11.0
2025-01-22 11:20:20.579605	15.7	25.0	-90.8	9.6
2025-01-22 11:20:21.727150	15.6	25.2	-91.3	11.4
2025-01-22 11:20:22.884071	15.4	25.4	-91.0	8.7
2025-01-22 11:20:24.038445	15.2	25.5	-91.4	8.2
2025-01-22 11:20:25.184490	15.1	25.7	-91.2	10.0
2025-01-22 11:20:26.330179	14.9	25.8	-90.6	6.3
2025-01-22 11:20:27.480412	14.8	26.0	-91.4	13.3
2025-01-22 11:20:28.629704	14.6	26.2	-91.3	8.5
2025-01-22 11:20:29.777932	14.4	26.3	-91.1	9.0
2025-01-22 11:20:30.926665	14.3	26.5	-91.3	5.4
2025-01-22 11:20:32.070306	14.1	26.7	-91.0	5.0
2025-01-22 11:20:33.216939	13.9	26.8	-90.8	6.6
2025-01-22 11:20:34.367534	13.8	27.0	-90.9	4.6
2025-01-22 11:20:35.517369	13.6	27.2	-91.3	4.6
2025-01-22 11:20:36.665270	13.4	27.3	-91.4	5.9
2025-01-22 11:20:37.814021	13.2	27.5	-91.2	7.4
2025-01-22 11:20:38.964846	13.0	27.7	-91.3	6.8
2025-01-22 11:20:40.116679	12.9	27.9	-90.8	5.5
2025-01-22 11:20:41.266712	12.7	28.0	-90.9	6.3
2025-01-22 11:20:42.418741	12.5	28.2	-91.5	5.5
2025-01-22 11:20:43.568593	12.3	28.4	-91.1	6.7
2025-01-22 11:20:44.723186	12.1	28.5	-90.3	5.7
2025-01-22 11:20:45.873595	11.9	28.7	-91.3	6.5
2025-01-22 11:20:47.025873	11.7	28.9	-91.2	6.1
2025-01-22 11:20:48.177310	11.5	29.1	-90.8	5.1
2025-01-22 11:20:49.322160	11.3	29.3	-90.8	7.7
2025-01-22 11:20:50.468513	11.1	29.4	-91.3	4.5
2025-01-22 11:20:51.618680	10.9	29.6	-91.1	6.2
2025-01-22 11:20:52.769588	10.7	29.8	-91.2	8.7
2025-01-22 11:20:53.913246	10.5	30.0	-91.5	7.0
2025-01-22 11:20:55.061033	10.3	30.2	-91.0	9.7
2025-01-22 11:20:56.213214	10.1	30.3	-91.1	10.3
2025-01-22 11:20:57.369521	9.9	30.5	-91.2	11.3
2025-01-22 11:20:58.518133	9.7	30.7	-91.0	6.7
2025-01-22 11:20:59.665855	9.4	30.9	-91.0	13.2
2025-01-22 11:21:00.820957	9.2	31.1	-91.3	14.6
2025-01-22 11:21:01.971090	9.0	31.3	-90.7	12.9
2025-01-22 11:21:03.122265	8.8	31.4	-90.7	14.4
2025-01-22 11:21:04.270498	8.5	31.6	-90.4	10.7
2025-01-22 11:21:05.418303	8.3	31.8	-90.2	6.6
2025-01-22 11:21:06.562396	8.1	32.0	-91.4	12.3
2025-01-22 11:21:07.710931	7.8	32.2	-91.1	7.8
2025-01-22 11:21:08.860075	7.6	32.4	-91.1	9.4
2025-01-22 11:21:10.007041	7.3	32.6	-91.1	6.1
2025-01-22 11:21:11.156247	7.1	32.8	-90.7	12.9
2025-01-22 11:21:12.307069	6.8	32.9	-90.8	9.9
2025-01-22 11:21:13.453966	6.6	33.1	-91.1	11.8
2025-01-22 11:21:14.616209	6.3	33.3	-91.1	7.5
2025-01-22 11:21:15.760515	6.1	33.5	-91.0	14.8
2025-01-22 11:21:16.909998	5.8	33.7	-90.9	17.0
2025-01-22 11:21:18.046528	5.6	33.9	-90.8	14.9
2025-01-22 11:21:19.193859	5.3	34.1	-90.6	14.0
2025-01-22 11:21:20.345056	5.0	34.3	-90.9	15.8
2025-01-22 11:21:21.493738	4.7	34.5	-91.2	11.1
2025-01-22 11:21:22.639886	4.5	34.7	-90.4	15.9
2025-01-22 11:21:23.782035	4.2	34.9	-90.3	9.5
2025-01-22 11:21:24.927741	3.9	35.1	-90.3	10.3
2025-01-22 11:21:26.085473	3.6	35.3	-90.3	6.7
2025-01-22 11:21:27.236859	3.3	35.5	-89.2	14.4
2025-01-22 11:21:28.388392	3.0	35.7	-89.0	7.1
2025-01-22 11:21:29.546868	2.7	35.9	-91.1	7.5
2025-01-22 11:21:30.696481	2.4	36.1	-91.2	10.5
2025-01-22 11:21:31.847470	2.1	36.3	-91.3	8.4
2025-01-22 11:21:32.996325	1.8	36.5	-91.4	6.2
2025-01-22 11:21:34.144212	1.5	36.7	-91.0	12.2
2025-01-22 11:21:35.289272	1.2	36.8	-91.2	10.5
2025-01-22 11:21:36.439909	0.8	37.0	-91.1	13.7
2025-01-22 11:21:37.590618	0.5	37.2	-91.1	18.7
2025-01-22 11:21:38.738679	0.2	37.4	-90.9	14.6
2025-01-22 11:21:39.887289	359.8	37.6	-91.3	16.0
2025-01-22 11:21:41.037338	359.5	37.8	-90.8	15.2
2025-01-22 11:21:42.186010	359.2	38.0	-90.6	17.1
2025-01-22 11:21:43.332523	358.8	38.2	-90.7	15.2
2025-01-22 11:21:44.480064	358.5	38.4	-91.2	11.6
2025-01-22 11:21:45.628006	358.1	38.6	-90.9	17.8
2025-01-22 11:21:46.776498	357.7	38.8	-91.1	16.2
2025-01-22 11:21:47.929556	357.4	39.0	-91.2	17.8
2025-01-22 11:21:49.077956	357.0	39.2	-90.7	16.1
2025-01-22 11:21:50.227338	356.6	39.4	-90.8	16.6
2025-01-22 11:21:51.377694	356.3	39.6	-91.1	12.5
2025-01-22 11:21:52.530624	355.9	39.8	-91.4	9.0
2025-01-22 11:21:53.682897	355.5	40.0	-90.8	14.8
2025-01-22 11:21:54.827923	355.1	40.2	-91.4	17.6
2025-01-22 11:21:55.980219	354.7	40.4	-91.0	9.3
2025-01-22 11:21:57.130411	354.3	40.6	-90.4	15.9
2025-01-22 11:21:58.282191	353.9	40.8	-90.9	18.3
2025-01-22 11:21:59.429655	353.5	41.0	-91.2	13.0
2025-01-22 11:22:00.579621	353.0	41.2	-91.2	16.5
2025-01-22 11:22:01.727960	352.6	41.4	-90.9	21.3
2025-01-22 11:22:02.875171	352.2	41.6	-90.6	19.2
2025-01-22 11:22:04.022741	351.8	41.8	-91.1	20.8
2025-01-22 11:22:05.173138	351.3	42.0	-90.7	16.2
2025-01-22 11:22:06.333799	350.9	42.2	-90.6	19.5
2025-01-22 11:22:07.477389	350.4	42.3	-91.2	14.1
2025-01-22 11:22:08.621566	350.0	42.5	-90.8	11.5
2025-01-22 11:22:09.766970	349.5	42.7	-91.0	20.7
2025-01-22 11:22:10.914383	349.1	42.9	-91.6	14.2
2025-01-22 11:22:12.064948	348.6	43.1	-91.2	14.2
2025-01-22 11:22:13.210400	348.1	43.3	-90.7	17.5
2025-01-22 11:22:14.363687	347.6	43.4	-91.0	20.0
2025-01-22 11:22:15.510388	347.1	43.6	-91.3	19.1
2025-01-22 11:22:16.662262	346.6	43.8	-91.3	18.1
2025-01-22 11:22:17.816420	346.1	44.0	-91.3	20.3
2025-01-22 11:22:18.969451	345.6	44.2	-90.6	11.7
2025-01-22 11:22:20.114514	345.1	44.3	-91.0	15.2
2025-01-22 11:22:21.264001	344.6	44.5	-90.8	14.9
2025-01-22 11:22:22.416396	344.1	44.7	-91.2	7.2
2025-01-22 11:22:23.561773	343.6	44.8	-91.3	9.7
2025-01-22 11:22:24.707580	343.0	45.0	-91.6	21.1
2025-01-22 11:22:25.860068	342.5	45.2	-91.5	17.8
2025-01-22 11:22:27.007331	342.0	45.3	-91.0	11.8
2025-01-22 11:22:28.157428	341.4	45.5	-90.9	18.8
2025-01-22 11:22:29.300333	340.9	45.6	-90.9	16.5
2025-01-22 11:22:30.450028	340.3	45.8	-91.3	15.5
2025-01-22 11:22:31.596343	339.7	46.0	-91.0	17.0
2025-01-22 11:22:32.740100	339.2	46.1	-91.2	15.5
2025-01-22 11:22:33.891267	338.6	46.2	-91.2	14.5
2025-01-22 11:22:35.037467	338.0	46.4	-91.0	18.5
2025-01-22 11:22:36.187902	337.4	46.5	-90.8	17.6
2025-01-22 11:22:37.334419	336.8	46.7	-91.3	14.7
2025-01-22 11:22:38.481115	336.2	46.8	-91.2	10.8
2025-01-22 11:22:39.636708	335.6	46.9	-91.4	15.8
2025-01-22 11:22:40.788627	335.0	47.1	-91.6	16.6
2025-01-22 11:22:41.938666	334.4	47.2	-91.3	10.7
2025-01-22 11:22:43.085243	333.8	47.3	-90.8	13.0
2025-01-22 11:22:44.233054	333.2	47.4	-91.2	18.2
2025-01-22 11:22:45.373017	332.6	47.6	-91.4	13.3
2025-01-22 11:22:46.517665	331.9	47.7	-91.5	19.5
2025-01-22 11:22:47.669491	331.3	47.8	-91.3	15.3
2025-01-22 11:22:48.813781	330.7	47.9	-91.0	17.1
2025-01-22 11:22:49.968040	330.0	48.0	-91.3	15.9
2025-01-22 11:22:51.121216	329.4	48.1	-91.0	10.9
2025-01-22 11:22:52.267145	328.7	48.2	-91.1	14.0
2025-01-22 11:22:53.410329	328.1	48.3	-90.9	13.9
2025-01-22 11:22:54.558916	327.4	48.3	-91.1	10.4
2025-01-22 11:22:55.708370	326.7	48.4	-91.3	11.5
2025-01-22 11:22:56.860946	326.1	48.5	-90.9	8.8
2025-01-22 11:22:58.015872	325.4	48.6	-91.1	8.7
2025-01-22 11:22:59.167469	324.7	48.7	-90.7	14.2
2025-01-22 11:23:00.313337	324.0	48.7	-91.1	11.6
2025-01-22 11:23:01.462545	323.4	48.8	-91.0	6.7
2025-01-22 11:23:02.611929	322.7	48.8	-91.2	9.9
2025-01-22 11:23:03.762573	322.0	48.9	-91.4	7.7
2025-01-22 11:23:04.912081	321.3	48.9	-91.6	7.0
2025-01-22 11:23:06.058431	320.6	49.0	-91.0	5.1
2025-01-22 11:23:07.209109	319.9	49.0	-90.9	8.3
2025-01-22 11:23:08.351811	319.2	49.1	-91.0	6.0
2025-01-22 11:23:09.511710	318.5	49.1	-91.4	8.8
2025-01-22 11:23:10.681385	317.8	49.1	-91.2	8.0
2025-01-22 11:23:11.830222	317.1	49.1	-91.2	14.9
2025-01-22 11:23:12.974123	316.4	49.2	-91.3	14.4
2025-01-22 11:23:14.120401	315.7	49.2	-90.8	13.9
2025-01-22 11:23:15.274153	315.0	49.2	-91.2	12.7
2025-01-22 11:23:16.421278	314.3	49.2	-91.1	14.1
2025-01-22 11:23:17.566508	313.6	49.2	-91.0	17.2
2025-01-22 11:23:18.709547	312.9	49.2	-90.2	15.0
2025-01-22 11:23:19.861634	312.2	49.2	-90.5	18.4
2025-01-22 11:23:21.012386	311.5	49.1	-91.1	8.7
2025-01-22 11:23:22.161257	310.8	49.1	-91.0	17.6
2025-01-22 11:23:23.311377	310.1	49.1	-90.7	14.7
2025-01-22 11:23:24.454797	309.4	49.1	-91.1	12.8
2025-01-22 11:23:25.614084	308.7	49.0	-90.7	9.5
2025-01-22 11:23:26.766850	308.1	49.0	-91.3	13.1
2025-01-22 11:23:27.914315	307.4	49.0	-91.1	6.1
2025-01-22 11:23:29.063278	306.7	48.9	-90.9	6.1
2025-01-22 11:23:30.212082	306.0	48.9	-91.0	12.0
2025-01-22 11:23:31.361837	305.3	48.8	-91.4	15.7
2025-01-22 11:23:32.506931	304.6	48.7	-91.2	8.5
2025-01-22 11:23:33.651323	303.9	48.7	-91.5	12.1
2025-01-22 11:23:34.798636	303.3	48.6	-91.3	18.4
2025-01-22 11:23:35.949365	302.6	48.5	-91.2	8.8
2025-01-22 11:23:37.095401	301.9	48.5	-91.0	11.1
2025-01-22 11:23:38.243111	301.3	48.4	-90.9	11.1
2025-01-22 11:23:39.392691	300.6	48.3	-91.2	6.5
2025-01-22 11:23:40.538047	299.9	48.2	-91.2	8.9
2025-01-22 11:23:41.692875	299.3	48.1	-90.9	15.1
2025-01-22 11:23:42.839080	298.6	48.0	-91.6	7.2
2025-01-22 11:23:43.988396	298.0	47.9	-91.2	8.8
2025-01-22 11:23:45.138900	297.3	47.8	-90.9	7.1
2025-01-22 11:23:46.286370	296.7	47.7	-90.3	8.4
2025-01-22 11:23:47.431302	296.1	47.6	-91.0	7.8
2025-01-22 11:23:48.572573	295.4	47.5	-90.1	6.4
2025-01-22 11:23:49.724295	294.8	47.4	-90.9	13.9
2025-01-22 11:23:50.872020	294.2	47.2	-91.2	7.7
2025-01-22 11:23:52.021768	293.6	47.1	-90.9	6.4
2025-01-22 11:23:53.169023	293.0	47.0	-90.5	7.8
2025-01-22 11:23:54.318706	292.4	46.9	-91.0	7.7
2025-01-22 11:23:55.469048	291.8	46.7	-91.5	7.7
2025-01-22 11:23:56.616610	291.2	46.6	-91.4	11.1
2025-01-22 11:23:57.764529	290.6	46.5	-91.5	7.9
2025-01-22 11:23:58.917111	290.0	46.3	-91.6	7.2
2025-01-22 11:24:00.073401	289.4	46.2	-91.3	6.7
2025-01-22 11:24:01.221699	288.8	46.0	-90.5	12.9
2025-01-22 11:24:02.370332	288.3	45.9	-91.3	12.9
2025-01-22 11:24:03.517129	287.7	45.7	-91.5	8.6
2025-01-22 11:24:04.660109	287.1	45.6	-91.5	13.0
2025-01-22 11:24:05.811824	286.6	45.4	-91.3	16.3
2025-01-22 11:24:06.964776	286.0	45.2	-91.2	10.0
2025-01-22 11:24:08.115177	285.5	45.1	-90.8	16.4
2025-01-22 11:24:09.262865	285.0	44.9	-90.9	13.1
2025-01-22 11:24:10.417267	284.4	44.7	-91.3	8.3
2025-01-22 11:24:11.565438	283.9	44.6	-90.5	11.2
2025-01-22 11:24:12.713078	283.4	44.4	-91.4	11.8
2025-01-22 11:24:13.860855	282.9	44.2	-91.5	10.8
2025-01-22 11:24:15.007668	282.4	44.0	-91.1	13.5
2025-01-22 11:24:16.154773	281.9	43.9	-91.1	16.3
2025-01-22 11:24:17.304335	281.4	43.7	-90.7	13.1
2025-01-22 11:24:18.455138	280.9	43.5	-90.9	15.9
2025-01-22 11:24:19.603106	280.4	43.3	-90.9	17.3
2025-01-22 11:24:20.753881	279.9	43.1	-91.4	16.6
2025-01-22 11:24:21.899884	279.5	43.0	-89.9	11.4
2025-01-22 11:24:23.048131	279.0	42.8	-90.1	10.4
2025-01-22 11:24:24.194156	278.5	42.6	-89.5	14.2
2025-01-22 11:24:25.343277	278.1	42.4	-90.0	14.1
2025-01-22 11:24:26.492875	277.6	42.2	-90.1	13.3
2025-01-22 11:24:27.640592	277.2	42.0	-90.3	16.0
2025-01-22 11:24:28.788699	276.7	41.8	-90.2	10.9
2025-01-22 11:24:29.940528	276.3	41.6	-91.0	16.6
2025-01-22 11:24:31.089832	275.9	41.4	-91.1	18.7
2025-01-22 11:24:32.236693	275.4	41.3	-90.7	24.8
2025-01-22 11:24:33.384356	275.0	41.1	-91.2	16.0
2025-01-22 11:24:34.536429	274.6	40.9	-90.8	16.2
2025-01-22 11:24:35.683049	274.2	40.7	-91.1	17.3
2025-01-22 11:24:36.829446	273.8	40.5	-91.6	11.5
2025-01-22 11:24:37.979646	273.4	40.3	-91.0	18.0
2025-01-22 11:24:39.129568	273.0	40.1	-90.5	10.9
2025-01-22 11:24:40.278314	272.6	39.9	-90.7	15.8
2025-01-22 11:24:41.426371	272.2	39.7	-91.2	14.5
2025-01-22 11:24:42.576799	271.8	39.5	-91.8	7.5
2025-01-22 11:24:43.723230	271.4	39.3	-91.0	16.4
2025-01-22 11:24:44.872901	271.1	39.1	-90.9	14.9
2025-01-22 11:24:46.023024	270.7	38.9	-91.2	14.5
2025-01-22 11:24:47.175646	270.3	38.7	-90.8	15.3
2025-01-22 11:24:48.323225	270.0	38.5	-90.6	13.2
2025-01-22 11:24:49.476857	269.6	38.3	-91.4	9.2
2025-01-22 11:24:50.631904	269.3	38.1	-91.3	9.5
2025-01-22 11:24:51.783020	268.9	37.9	-91.6	22.1
2025-01-22 11:24:52.933762	268.6	37.7	-91.6	8.9
2025-01-22 11:24:54.080317	268.2	37.5	-91.3	6.9
2025-01-22 11:24:55.233243	267.9	37.3	-91.0	17.2
2025-01-22 11:24:56.386437	267.6	37.1	-90.9	10.0
2025-01-22 11:24:57.536844	267.2	36.9	-91.5	10.2
2025-01-22 11:24:58.684624	266.9	36.7	-90.9	10.6
2025-01-22 11:24:59.831451	266.6	36.5	-91.5	9.5
2025-01-22 11:25:00.975137	266.3	36.3	-91.5	6.8
2025-01-22 11:25:02.126090	266.0	36.1	-91.0	8.2
2025-01-22 11:25:03.276008	265.7	35.9	-90.8	7.7
2025-01-22 11:25:04.424313	265.4	35.7	-91.3	6.0
2025-01-22 11:25:05.570153	265.1	35.5	-91.1	8.4
2025-01-22 11:25:06.721339	264.8	35.3	-91.3	12.2
2025-01-22 11:25:07.869148	264.5	35.1	-91.0	9.9
2025-01-22 11:25:09.036195	264.2	34.9	-90.9	7.1
2025-01-22 11:25:10.177713	263.9	34.7	-90.6	17.2
2025-01-22 11:25:11.330181	263.6	34.5	-91.1	18.2
2025-01-22 11:25:12.482927	263.3	34.3	-91.1	9.0
2025-01-22 11:25:13.631493	263.1	34.1	-91.3	11.2
2025-01-22 11:25:14.774913	262.8	33.9	-91.2	17.9
2025-01-22 11:25:15.922620	262.5	33.7	-90.9	6.9
2025-01-22 11:25:17.070510	262.3	33.5	-91.0	7.1
2025-01-22 11:25:18.220874	262.0	33.3	-90.9	9.7
2025-01-22 11:25:19.370580	261.7	33.1	-91.2	11.9
2025-01-22 11:25:20.518696	261.5	32.9	-91.6	10.8
2025-01-22 11:25:21.667224	261.2	32.8	-91.3	13.1
2025-01-22 11:25:22.816938	261.0	32.6	-91.5	16.3
2025-01-22 11:25:23.964377	260.7	32.4	-91.7	13.8
2025-01-22 11:25:25.115810	260.5	32.2	-90.7	11.9
2025-01-22 11:25:26.258568	260.3	32.0	-91.0	17.9
2025-01-22 11:25:27.419997	260.0	31.8	-91.3	16.2
2025-01-22 11:25:28.566583	259.8	31.6	-91.5	18.8
2025-01-22 11:25:29.714629	259.6	31.4	-91.3	13.6
2025-01-22 11:25:30.863125	259.3	31.2	-91.2	15.7
2025-01-22 11:25:32.009602	259.1	31.1	-90.9	11.7
2025-01-22 11:25:33.163082	258.9	30.9	-90.8	15.4
2025-01-22 11:25:34.314434	258.6	30.7	-91.0	16.0
2025-01-22 11:25:35.469623	258.4	30.5	-91.3	8.9
2025-01-22 11:25:36.615849	258.2	30.3	-91.5	14.4
2025-01-22 11:25:37.761861	258.0	30.1	-91.5	15.1
2025-01-22 11:25:38.910191	257.8	30.0	-91.3	15.1
2025-01-22 11:25:40.056540	257.6	29.8	-91.2	8.2
2025-01-22 11:25:41.208542	257.4	29.6	-91.0	16.7
2025-01-22 11:25:42.368109	257.2	29.4	-91.0	17.5
2025-01-22 11:25:43.527416	257.0	29.2	-91.4	17.1
2025-01-22 11:25:44.669600	256.8	29.0	-91.3	15.9
2025-01-22 11:25:45.816933	256.6	28.9	-91.2	18.1
2025-01-22 11:25:46.971008	256.4	28.7	-91.6	15.7
2025-01-22 11:25:48.125863	256.2	28.5	-90.8	14.2
2025-01-22 11:25:49.283654	256.0	28.3	-91.0	14.8
2025-01-22 11:25:50.431132	255.8	28.2	-90.9	11.9
2025-01-22 11:25:51.582215	255.6	28.0	-91.3	10.4
2025-01-22 11:25:52.730631	255.4	27.8	-91.5	16.2
2025-01-22 11:25:53.877067	255.2	27.6	-91.4	10.1
2025-01-22 11:25:55.035416	255.0	27.5	-91.3	5.9
2025-01-22 11:25:56.183064	254.9	27.3	-91.4	13.0
2025-01-22 11:25:57.328460	254.7	27.1	-91.2	12.1
2025-01-22 11:25:58.478413	254.5	27.0	-91.2	6.2
2025-01-22 11:25:59.624789	254.3	26.8	-91.4	11.8
2025-01-22 11:26:00.768088	254.2	26.6	-91.3	11.9
2025-01-22 11:26:01.919595	254.0	26.5	-91.6	9.7
2025-01-22 11:26:03.072619	253.8	26.3	-91.3	11.8
2025-01-22 11:26:04.214816	253.7	26.1	-90.6	10.0
2025-01-22 11:26:05.366039	253.5	26.0	-91.0	10.4
2025-01-22 11:26:06.515426	253.3	25.8	-91.3	12.1
2025-01-22 11:26:07.662073	253.2	25.6	-91.0	15.1
2025-01-22 11:26:08.809545	253.0	25.5	-90.7	10.7
2025-01-22 11:26:09.956695	252.9	25.3	-91.4	10.6
2025-01-22 11:26:11.109925	252.7	25.1	-90.9	8.7
2025-01-22 11:26:12.256180	252.6	25.0	-91.1	6.4
2025-01-22 11:26:13.408276	252.4	24.8	-90.9	7.7
2025-01-22 11:26:14.555115	252.2	24.7	-91.4	9.2
2025-01-22 11:26:15.704548	252.1	24.5	-91.6	10.3
2025-01-22 11:26:16.855774	251.9	24.3	-91.0	8.9
2025-01-22 11:26:18.008234	251.8	24.2	-91.2	7.7
2025-01-22 11:26:19.157375	251.7	24.0	-91.0	7.1
2025-01-22 11:26:20.305413	251.5	23.9	-91.2	5.9
2025-01-22 11:26:21.457928	251.4	23.7	-91.1	11.0
2025-01-22 11:26:22.603992	251.2	23.6	-91.4	7.0
2025-01-22 11:26:23.759318	251.1	23.4	-91.2	5.7
2025-01-22 11:26:24.910307	250.9	23.3	-91.3	5.7
2025-01-22 11:26:26.057729	250.8	23.1	-91.0	4.2
2025-01-22 11:26:27.199914	250.7	23.0	-90.9	4.6
2025-01-22 11:26:28.349438	250.5	22.8	-91.0	6.8
2025-01-22 11:26:29.488645	250.4	22.7	-91.4	5.4
2025-01-22 11:26:30.637722	250.3	22.5	-91.5	5.0
2025-01-22 11:26:31.786673	250.1	22.4	-91.1	4.3
2025-01-22 11:26:32.946091	250.0	22.2	-91.7	4.1
2025-01-22 11:26:34.092795	249.9	22.1	-90.8	4.1
2025-01-22 11:26:35.246815	249.8	21.9	-90.9	5.9
2025-01-22 11:26:36.392614	249.6	21.8	-91.4	5.8
2025-01-22 11:26:37.537730	249.5	21.6	-91.5	4.8
2025-01-22 11:26:38.683841	249.4	21.5	-91.4	6.0
2025-01-22 11:26:39.829559	249.3	21.3	-91.5	5.7
2025-01-22 11:26:40.977994	249.1	21.2	-91.7	3.5
2025-01-22 11:26:42.123765	249.0	21.0	-91.3	4.8
2025-01-22 11:26:43.266957	248.9	20.9	-91.4	7.1
2025-01-22 11:26:44.410389	248.8	20.8	-91.3	4.3
2025-01-22 11:26:45.558911	248.7	20.6	-91.4	3.7
2025-01-22 11:26:46.704047	248.6	20.5	-91.8	4.1
2025-01-22 11:26:47.852845	248.5	20.3	-91.5	5.4
2025-01-22 11:26:48.999641	248.3	20.2	-91.4	5.5
2025-01-22 11:26:50.148142	248.2	20.1	-91.2	4.1
2025-01-22 11:26:51.302319	248.1	19.9	-91.1	4.6
2025-01-22 11:26:52.451921	248.0	19.8	-91.7	6.8
2025-01-22 11:26:53.597905	247.9	19.7	-91.4	7.1
2025-01-22 11:26:54.741119	247.8	19.5	-90.8	5.8
2025-01-22 11:26:55.892130	247.7	19.4	-91.7	5.5
2025-01-22 11:26:57.036127	247.6	19.3	-91.0	4.5
2025-01-22 11:26:58.194213	247.5	19.1	-91.0	6.3
2025-01-22 11:26:59.341839	247.4	19.0	-91.3	9.8
2025-01-22 11:27:00.493988	247.3	18.9	-91.5	4.5
2025-01-22 11:27:01.648647	247.2	18.7	-91.2	8.9
2025-01-22 11:27:02.795336	247.1	18.6	-91.5	11.1
2025-01-22 11:27:03.942322	247.0	18.5	-91.4	9.6
2025-01-22 11:27:05.089082	246.9	18.3	-91.2	10.4
2025-01-22 11:27:06.240011	246.8	18.2	-90.7	9.0
2025-01-22 11:27:07.386681	246.7	18.1	-91.2	12.3
2025-01-22 11:27:08.537551	246.6	17.9	-91.5	13.6
2025-01-22 11:27:09.687157	246.5	17.8	-91.6	12.5
2025-01-22 11:27:10.831539	246.4	17.7	-91.1	11.8
2025-01-22 11:27:11.981968	246.3	17.6	-91.4	8.6
2025-01-22 11:27:13.130144	246.2	17.4	-90.9	9.8
2025-01-22 11:27:14.279834	246.1	17.3	-90.5	8.7
2025-01-22 11:27:15.424538	246.0	17.2	-90.3	7.5
2025-01-22 11:27:16.569421	245.9	17.1	-90.0	6.1
2025-01-22 11:27:17.717652	245.8	16.9	-91.3	7.8
2025-01-22 11:27:18.859519	245.7	16.8	-91.3	7.9
2025-01-22 11:27:20.012343	245.6	16.7	-91.3	6.7
2025-01-22 11:27:21.157697	245.5	16.6	-91.0	9.0
2025-01-22 11:27:22.303390	245.5	16.4	-90.9	5.6
2025-01-22 11:27:23.449901	245.4	16.3	-91.3	7.8
2025-01-22 11:27:24.593973	245.3	16.2	-91.0	8.0
2025-01-22 11:27:25.740554	245.2	16.1	-91.0	8.9
2025-01-22 11:27:26.887634	245.1	16.0	-90.8	6.2
2025-01-22 11:27:28.034325	245.0	15.8	-91.2	6.1
2025-01-22 11:27:29.184561	245.0	15.7	-90.7	9.8
2025-01-22 11:27:30.329784	244.9	15.6	-91.2	9.3
2025-01-22 11:27:31.475361	244.8	15.5	-91.6	8.9
2025-01-22 11:27:32.624440	244.7	15.4	-90.5	6.3
2025-01-22 11:27:33.766466	244.6	15.3	-90.6	8.7
2025-01-22 11:27:34.903769	244.5	15.1	-91.1	10.6
2025-01-22 11:27:36.050844	244.5	15.0	-90.7	11.1
2025-01-22 11:27:37.198748	244.4	14.9	-91.0	12.1
2025-01-22 11:27:38.345768	244.3	14.8	-90.8	10.7
2025-01-22 11:27:39.491022	244.2	14.7	-91.2	10.3
2025-01-22 11:27:40.645882	244.2	14.6	-91.5	12.3
2025-01-22 11:27:41.797154	244.1	14.5	-91.7	11.5
#Closed at: 2025-01-22 11:19:00.091888