passes_logs/2025/01/22/LEX_Murmansk/LEX_Murmansk__20250122_191531_NOAA_19_rec.log

#Pass ID: 20250122_191531_NOAA 19
#Satellite: NOAA 19
#Configuration: NOAA 19
#Start time: 2025-01-22 19:15:26.706350

#LorettStation: 1.0.0 05.05.2024
#Station: LEX_Murmansk
#Location: 33.156738 lon 68.926811 lat
#TLE: 1 33591U 09005A   25022.22545190  .00000382  00000+0  22773-3 0  9990
#TLE: 2 33591  99.0184  86.0433 0014227  38.0135 322.2038 14.13265658822568

#Time	Az	El	Level	SNR
2025-01-22 19:15:38.945533	202.7	16.1	-91.8	3.2
2025-01-22 19:15:40.096987	202.9	16.3	-92.0	2.7
2025-01-22 19:15:41.242544	203.0	16.4	-91.5	4.5
2025-01-22 19:15:42.388177	203.1	16.5	-91.4	4.3
2025-01-22 19:15:43.537219	203.3	16.6	-91.7	2.2
2025-01-22 19:15:44.696113	203.4	16.7	-91.9	3.1
2025-01-22 19:15:45.844656	203.5	16.8	-91.8	3.9
2025-01-22 19:15:46.997865	203.7	16.9	-91.9	3.2
2025-01-22 19:15:48.148541	203.8	17.0	-91.8	2.1
2025-01-22 19:15:49.302773	204.0	17.2	-91.6	1.1
2025-01-22 19:15:50.453167	204.1	17.3	-91.9	3.4
2025-01-22 19:15:51.606668	204.2	17.4	-91.6	0.2
2025-01-22 19:15:52.762849	204.4	17.5	-91.7	2.9
2025-01-22 19:15:53.907202	204.5	17.6	-91.9	1.8
2025-01-22 19:15:55.057724	204.7	17.7	-92.2	1.8
2025-01-22 19:15:56.212470	204.8	17.8	-92.0	3.5
2025-01-22 19:15:57.362508	205.0	18.0	-91.8	2.9
2025-01-22 19:15:58.521290	205.1	18.1	-91.9	2.3
2025-01-22 19:15:59.777645	205.3	18.2	-91.9	1.3
2025-01-22 19:16:01.033096	205.4	18.3	-92.3	1.2
2025-01-22 19:16:02.184536	205.6	18.4	-91.8	2.8
2025-01-22 19:16:03.333731	205.7	18.6	-91.7	3.3
2025-01-22 19:16:04.596308	205.9	18.7	-91.7	0.9
2025-01-22 19:16:05.755349	206.0	18.8	-92.1	2.3
2025-01-22 19:16:06.913627	206.2	18.9	-92.0	2.3
2025-01-22 19:16:08.069088	206.4	19.0	-91.9	1.3
2025-01-22 19:16:09.218654	206.5	19.2	-92.3	3.4
2025-01-22 19:16:10.367304	206.7	19.3	-91.7	4.0
2025-01-22 19:16:11.523314	206.8	19.4	-92.0	4.8
2025-01-22 19:16:12.678885	207.0	19.5	-91.0	4.7
2025-01-22 19:16:13.825796	207.2	19.6	-91.2	7.1
2025-01-22 19:16:14.973905	207.3	19.8	-90.9	3.0
2025-01-22 19:16:16.128552	207.5	19.9	-91.3	3.3
2025-01-22 19:16:17.277709	207.7	20.0	-91.1	4.6
2025-01-22 19:16:18.435879	207.8	20.1	-91.0	4.1
2025-01-22 19:16:19.582715	208.0	20.2	-91.4	3.8
2025-01-22 19:16:20.727776	208.2	20.4	-91.1	3.7
2025-01-22 19:16:21.878112	208.3	20.5	-90.3	8.3
2025-01-22 19:16:23.028207	208.5	20.6	-91.5	2.6
2025-01-22 19:16:24.181979	208.7	20.7	-91.4	2.4
2025-01-22 19:16:25.340840	208.8	20.9	-91.5	2.7
2025-01-22 19:16:26.494103	209.0	21.0	-91.8	3.7
2025-01-22 19:16:27.648957	209.2	21.1	-92.1	1.9
2025-01-22 19:16:28.800907	209.4	21.2	-92.1	3.8
2025-01-22 19:16:29.952346	209.6	21.4	-92.3	3.7
2025-01-22 19:16:31.104465	209.7	21.5	-92.3	11.6
2025-01-22 19:16:32.260427	209.9	21.6	-92.3	10.4
2025-01-22 19:16:33.411531	210.1	21.7	-91.5	9.9
2025-01-22 19:16:34.564103	210.3	21.9	-91.5	4.8
2025-01-22 19:16:35.713410	210.5	22.0	-92.1	6.9
2025-01-22 19:16:36.863559	210.7	22.1	-92.1	7.0
2025-01-22 19:16:38.014412	210.9	22.3	-92.1	7.9
2025-01-22 19:16:39.167306	211.1	22.4	-92.1	12.5
2025-01-22 19:16:40.318901	211.3	22.5	-91.6	12.9
2025-01-22 19:16:41.475310	211.4	22.6	-91.7	9.1
2025-01-22 19:16:42.631040	211.6	22.8	-91.8	6.8
2025-01-22 19:16:43.782687	211.8	22.9	-92.0	3.2
2025-01-22 19:16:44.934887	212.0	23.0	-92.3	3.7
2025-01-22 19:16:46.089741	212.2	23.2	-92.4	2.3
2025-01-22 19:16:47.241376	212.4	23.3	-92.0	3.9
2025-01-22 19:16:48.402910	212.7	23.4	-91.7	7.6
2025-01-22 19:16:49.552320	212.9	23.6	-92.0	9.2
2025-01-22 19:16:50.699863	213.1	23.7	-92.1	12.3
2025-01-22 19:16:51.848912	213.3	23.8	-91.8	12.1
2025-01-22 19:16:52.993987	213.5	23.9	-92.2	9.2
2025-01-22 19:16:54.144195	213.7	24.1	-92.0	7.9
2025-01-22 19:16:55.296108	213.9	24.2	-92.2	7.6
2025-01-22 19:16:56.448652	214.1	24.3	-92.0	6.0
2025-01-22 19:16:57.603910	214.4	24.5	-92.3	9.4
2025-01-22 19:16:58.759486	214.6	24.6	-91.8	11.1
2025-01-22 19:16:59.920730	214.8	24.7	-91.8	11.6
2025-01-22 19:17:01.072885	215.0	24.9	-92.0	8.7
2025-01-22 19:17:02.217447	215.2	25.0	-92.3	7.6
2025-01-22 19:17:03.365071	215.5	25.1	-91.8	5.6
2025-01-22 19:17:04.519069	215.7	25.3	-91.9	1.7
2025-01-22 19:17:05.673820	215.9	25.4	-91.9	1.9
2025-01-22 19:17:06.826418	216.2	25.5	-91.9	3.9
2025-01-22 19:17:07.977658	216.4	25.7	-92.1	4.0
2025-01-22 19:17:09.123063	216.6	25.8	-92.3	7.2
2025-01-22 19:17:10.271444	216.9	25.9	-91.9	7.6
2025-01-22 19:17:11.427335	217.1	26.1	-91.8	9.0
2025-01-22 19:17:12.574195	217.4	26.2	-92.0	8.6
2025-01-22 19:17:13.722251	217.6	26.4	-92.3	7.0
2025-01-22 19:17:14.877047	217.9	26.5	-92.3	6.0
2025-01-22 19:17:16.031695	218.1	26.6	-92.5	2.9
2025-01-22 19:17:17.184091	218.4	26.8	-92.1	0.4
2025-01-22 19:17:18.333001	218.6	26.9	-91.9	4.5
2025-01-22 19:17:19.491629	218.9	27.0	-91.8	3.5
2025-01-22 19:17:20.641257	219.1	27.2	-92.3	1.0
2025-01-22 19:17:21.790826	219.4	27.3	-92.3	3.7
2025-01-22 19:17:22.935359	219.6	27.4	-92.2	3.2
2025-01-22 19:17:24.090911	219.9	27.6	-92.4	3.7
2025-01-22 19:17:25.241822	220.2	27.7	-92.3	0.5
2025-01-22 19:17:26.392746	220.4	27.8	-91.8	2.2
2025-01-22 19:17:27.545063	220.7	28.0	-91.9	2.7
2025-01-22 19:17:28.690458	221.0	28.1	-92.2	2.6
2025-01-22 19:17:29.837529	221.3	28.3	-92.6	0.6
2025-01-22 19:17:30.983200	221.5	28.4	-92.4	1.3
2025-01-22 19:17:32.118862	221.8	28.5	-92.4	3.1
2025-01-22 19:17:33.264535	222.1	28.7	-91.8	2.3
2025-01-22 19:17:34.410537	222.4	28.8	-92.2	6.4
2025-01-22 19:17:35.562596	222.7	28.9	-92.2	5.8
2025-01-22 19:17:36.710732	223.0	29.1	-92.4	2.7
2025-01-22 19:17:37.862711	223.2	29.2	-91.9	1.6
2025-01-22 19:17:39.020702	223.5	29.3	-92.3	1.3
2025-01-22 19:17:40.178411	223.8	29.5	-92.0	2.1
2025-01-22 19:17:41.327030	224.1	29.6	-92.3	7.2
2025-01-22 19:17:42.480544	224.4	29.7	-92.2	5.9
2025-01-22 19:17:43.636597	224.7	29.9	-92.1	5.3
2025-01-22 19:17:44.789054	225.1	30.0	-92.4	8.7
2025-01-22 19:17:45.942533	225.4	30.1	-92.0	7.6
2025-01-22 19:17:47.093216	225.7	30.3	-92.1	6.6
2025-01-22 19:17:48.241207	226.0	30.4	-92.2	4.5
2025-01-22 19:17:49.392518	226.3	30.5	-92.0	6.9
2025-01-22 19:17:50.540699	226.6	30.7	-92.3	2.8
2025-01-22 19:17:51.689727	226.9	30.8	-92.0	3.8
2025-01-22 19:17:52.838401	227.3	30.9	-92.3	5.8
2025-01-22 19:17:53.982934	227.6	31.1	-92.3	5.6
2025-01-22 19:17:55.135252	227.9	31.2	-92.2	11.3
2025-01-22 19:17:56.290583	228.3	31.3	-91.8	14.7
2025-01-22 19:17:57.439709	228.6	31.5	-92.0	16.1
2025-01-22 19:17:58.585514	228.9	31.6	-92.0	16.9
2025-01-22 19:17:59.737301	229.3	31.7	-92.1	16.6
2025-01-22 19:18:00.889283	229.6	31.8	-91.9	14.4
2025-01-22 19:18:02.044636	230.0	32.0	-92.0	8.6
2025-01-22 19:18:03.191731	230.3	32.1	-92.3	9.1
2025-01-22 19:18:04.337207	230.6	32.2	-92.3	11.5
2025-01-22 19:18:05.485639	231.0	32.4	-92.0	8.8
2025-01-22 19:18:06.635020	231.4	32.5	-92.2	13.5
2025-01-22 19:18:07.787036	231.7	32.6	-92.3	14.8
2025-01-22 19:18:08.939278	232.1	32.7	-92.0	17.8
2025-01-22 19:18:10.089611	232.4	32.9	-92.0	18.0
2025-01-22 19:18:11.241627	232.8	33.0	-91.6	14.1
2025-01-22 19:18:12.392438	233.2	33.1	-92.1	12.3
2025-01-22 19:18:13.542204	233.5	33.2	-92.1	9.7
2025-01-22 19:18:14.710522	233.9	33.3	-92.1	8.1
2025-01-22 19:18:15.862574	234.3	33.5	-92.2	7.4
2025-01-22 19:18:17.011412	234.7	33.6	-92.0	4.1
2025-01-22 19:18:18.162471	235.1	33.7	-92.1	4.7
2025-01-22 19:18:19.309931	235.4	33.8	-92.1	7.0
2025-01-22 19:18:20.456727	235.8	33.9	-91.9	4.7
2025-01-22 19:18:21.607101	236.2	34.0	-91.9	5.8
2025-01-22 19:18:22.765025	236.6	34.2	-92.3	10.5
2025-01-22 19:18:23.916681	237.0	34.3	-92.0	12.4
2025-01-22 19:18:25.068582	237.4	34.4	-92.3	13.5
2025-01-22 19:18:26.215311	237.8	34.5	-92.5	14.0
2025-01-22 19:18:27.359419	238.2	34.6	-91.7	11.4
2025-01-22 19:18:28.504792	238.6	34.7	-92.1	10.0
2025-01-22 19:18:29.651789	239.0	34.8	-92.3	8.7
2025-01-22 19:18:30.798004	239.4	34.9	-91.9	9.5
2025-01-22 19:18:31.942795	239.8	35.0	-92.1	4.0
2025-01-22 19:18:33.091732	240.3	35.1	-92.4	3.8
2025-01-22 19:18:34.242215	240.7	35.2	-92.2	5.4
2025-01-22 19:18:35.390628	241.1	35.3	-91.9	8.2
2025-01-22 19:18:36.538335	241.5	35.4	-92.2	4.7
2025-01-22 19:18:37.685543	242.0	35.5	-91.9	3.9
2025-01-22 19:18:38.844000	242.4	35.6	-92.5	4.9
2025-01-22 19:18:39.988121	242.8	35.7	-92.0	2.9
2025-01-22 19:18:41.138159	243.2	35.8	-92.3	6.0
2025-01-22 19:18:42.296699	243.7	35.9	-92.2	5.3
2025-01-22 19:18:43.449819	244.1	36.0	-92.4	2.6
2025-01-22 19:18:44.597097	244.6	36.1	-91.9	3.8
2025-01-22 19:18:45.749097	245.0	36.2	-92.3	7.2
2025-01-22 19:18:46.897907	245.5	36.2	-91.2	3.2
2025-01-22 19:18:48.044863	245.9	36.3	-92.1	1.6
2025-01-22 19:18:49.194409	246.4	36.4	-92.0	2.0
2025-01-22 19:18:50.343041	246.8	36.5	-91.7	6.8
2025-01-22 19:18:51.490290	247.3	36.6	-92.2	2.5
2025-01-22 19:18:52.640021	247.7	36.6	-92.2	3.5
2025-01-22 19:18:53.788717	248.2	36.7	-91.9	6.6
2025-01-22 19:18:54.946635	248.6	36.8	-92.1	7.3
2025-01-22 19:18:56.097550	249.1	36.9	-92.0	6.3
2025-01-22 19:18:57.257306	249.6	36.9	-92.0	10.2
2025-01-22 19:18:58.408829	250.0	37.0	-92.4	13.5
2025-01-22 19:18:59.556340	250.5	37.1	-92.0	12.2
2025-01-22 19:19:00.704128	251.0	37.1	-92.1	13.0
2025-01-22 19:19:01.851524	251.4	37.2	-92.2	14.9
2025-01-22 19:19:03.001052	251.9	37.2	-92.4	11.1
2025-01-22 19:19:04.153551	252.4	37.3	-92.3	10.1
2025-01-22 19:19:05.302807	252.9	37.3	-92.2	12.5
2025-01-22 19:19:06.449482	253.3	37.4	-92.0	9.3
2025-01-22 19:19:07.605065	253.8	37.4	-92.2	8.8
2025-01-22 19:19:08.752484	254.3	37.5	-92.2	10.1
2025-01-22 19:19:09.900291	254.8	37.5	-92.2	8.7
2025-01-22 19:19:11.043328	255.3	37.6	-92.6	7.0
2025-01-22 19:19:12.198739	255.7	37.6	-92.3	7.8
2025-01-22 19:19:13.348784	256.2	37.7	-92.1	10.4
2025-01-22 19:19:14.495532	256.7	37.7	-92.0	4.1
2025-01-22 19:19:15.643130	257.2	37.7	-92.2	6.7
2025-01-22 19:19:16.789486	257.7	37.8	-92.1	7.3
2025-01-22 19:19:17.939113	258.2	37.8	-92.2	6.0
2025-01-22 19:19:19.091513	258.7	37.8	-92.2	5.7
2025-01-22 19:19:20.234499	259.2	37.8	-92.4	7.8
2025-01-22 19:19:21.389501	259.7	37.9	-92.5	11.6
2025-01-22 19:19:22.537744	260.1	37.9	-91.8	7.4
2025-01-22 19:19:23.686708	260.6	37.9	-92.4	5.7
2025-01-22 19:19:24.833595	261.1	37.9	-92.4	3.3
2025-01-22 19:19:26.087936	261.7	37.9	-92.2	4.4
2025-01-22 19:19:27.236465	262.2	37.9	-92.3	3.6
2025-01-22 19:19:28.385359	262.7	38.0	-92.5	6.6
2025-01-22 19:19:29.534827	263.2	38.0	-91.8	3.0
2025-01-22 19:19:30.680826	263.6	38.0	-91.8	5.2
2025-01-22 19:19:31.826884	264.1	38.0	-92.6	5.9
2025-01-22 19:19:32.978406	264.6	38.0	-92.2	6.1
2025-01-22 19:19:34.125105	265.1	38.0	-92.1	5.6
2025-01-22 19:19:35.276664	265.6	38.0	-92.2	4.5
2025-01-22 19:19:36.418407	266.1	38.0	-92.1	2.8
2025-01-22 19:19:37.574438	266.6	37.9	-92.2	5.0
2025-01-22 19:19:38.727146	267.1	37.9	-91.9	3.9
2025-01-22 19:19:39.881144	267.6	37.9	-92.4	4.8
2025-01-22 19:19:41.035309	268.1	37.9	-92.5	3.0
2025-01-22 19:19:42.180555	268.6	37.9	-92.3	5.4
2025-01-22 19:19:43.330759	269.1	37.9	-91.6	2.9
2025-01-22 19:19:44.470309	269.6	37.8	-91.5	4.0
2025-01-22 19:19:45.616515	270.1	37.8	-92.0	4.5
2025-01-22 19:19:46.767380	270.5	37.8	-91.9	5.2
2025-01-22 19:19:47.920279	271.0	37.8	-92.3	4.5
2025-01-22 19:19:49.066988	271.5	37.7	-92.3	4.1
2025-01-22 19:19:50.217623	272.0	37.7	-92.3	6.1
2025-01-22 19:19:51.364283	272.5	37.6	-91.9	7.6
2025-01-22 19:19:52.513420	273.0	37.6	-91.8	3.9
2025-01-22 19:19:53.667152	273.5	37.6	-92.1	6.3
2025-01-22 19:19:54.819422	273.9	37.5	-92.3	7.1
2025-01-22 19:19:55.969522	274.4	37.5	-91.9	3.4
2025-01-22 19:19:57.116808	274.9	37.4	-92.3	6.9
2025-01-22 19:19:58.262683	275.4	37.4	-92.2	8.8
2025-01-22 19:19:59.410848	275.9	37.3	-91.8	9.9
2025-01-22 19:20:00.553217	276.3	37.3	-92.1	5.4
2025-01-22 19:20:01.701842	276.8	37.2	-92.3	5.8
2025-01-22 19:20:02.859399	277.3	37.2	-92.4	8.3
2025-01-22 19:20:04.013030	277.7	37.1	-92.2	2.8
2025-01-22 19:20:05.161988	278.2	37.0	-92.0	4.9
2025-01-22 19:20:06.306372	278.7	37.0	-92.0	6.1
2025-01-22 19:20:07.458859	279.1	36.9	-91.7	3.3
2025-01-22 19:20:08.612213	279.6	36.8	-92.2	6.3
2025-01-22 19:20:09.761531	280.1	36.8	-92.1	6.1
2025-01-22 19:20:10.908962	280.5	36.7	-92.2	5.3
2025-01-22 19:20:12.058392	281.0	36.6	-92.4	4.1
2025-01-22 19:20:13.209295	281.4	36.5	-92.2	5.2
2025-01-22 19:20:14.358700	281.9	36.5	-92.1	5.2
2025-01-22 19:20:15.519545	282.3	36.4	-92.0	3.7
2025-01-22 19:20:16.664275	282.8	36.3	-92.5	3.3
2025-01-22 19:20:17.811205	283.2	36.2	-92.2	8.5
2025-01-22 19:20:18.959523	283.7	36.1	-92.4	5.6
2025-01-22 19:20:20.106738	284.1	36.0	-91.6	5.1
2025-01-22 19:20:21.269462	284.6	36.0	-92.0	5.4
2025-01-22 19:20:22.425232	285.0	35.9	-91.7	8.0
2025-01-22 19:20:23.571627	285.4	35.8	-92.0	3.2
2025-01-22 19:20:24.723262	285.9	35.7	-92.2	2.2
2025-01-22 19:20:25.875835	286.3	35.6	-92.5	6.5
2025-01-22 19:20:27.024769	286.7	35.5	-92.2	6.1
2025-01-22 19:20:28.171911	287.1	35.4	-92.3	6.3
2025-01-22 19:20:29.320263	287.6	35.3	-92.2	4.7
2025-01-22 19:20:30.466511	288.0	35.2	-91.9	3.0
2025-01-22 19:20:31.719913	288.4	35.1	-92.4	3.6
2025-01-22 19:20:32.867600	288.8	35.0	-92.3	3.9
2025-01-22 19:20:34.025685	289.3	34.9	-92.1	3.3
2025-01-22 19:20:35.175886	289.7	34.8	-92.1	6.8
2025-01-22 19:20:36.335791	290.1	34.7	-91.9	6.5
2025-01-22 19:20:37.478021	290.5	34.6	-92.3	3.2
2025-01-22 19:20:38.628827	290.9	34.4	-91.7	4.0
2025-01-22 19:20:39.779530	291.3	34.3	-92.3	3.8
2025-01-22 19:20:40.935529	291.7	34.2	-92.2	3.0
2025-01-22 19:20:42.087646	292.1	34.1	-92.3	2.9
2025-01-22 19:20:43.242741	292.5	34.0	-92.5	4.1
2025-01-22 19:20:44.390563	292.8	33.9	-92.2	2.2
2025-01-22 19:20:45.537473	293.2	33.8	-91.6	1.1
2025-01-22 19:20:46.691926	293.6	33.7	-92.2	2.3
2025-01-22 19:20:47.841311	294.0	33.5	-92.6	5.1
2025-01-22 19:20:48.988970	294.4	33.4	-92.1	3.3
2025-01-22 19:20:50.146568	294.7	33.3	-92.2	3.9
2025-01-22 19:20:51.293953	295.1	33.2	-92.1	2.3
2025-01-22 19:20:52.444787	295.5	33.1	-92.2	2.0
2025-01-22 19:20:53.590392	295.9	32.9	-91.8	3.0
2025-01-22 19:20:54.738351	296.2	32.8	-92.2	1.4
2025-01-22 19:20:55.889151	296.6	32.7	-92.2	4.3
2025-01-22 19:20:57.033060	296.9	32.6	-92.3	1.8
2025-01-22 19:20:58.186796	297.3	32.4	-92.7	3.5
2025-01-22 19:20:59.337326	297.6	32.3	-92.0	2.4
2025-01-22 19:21:00.486729	298.0	32.2	-92.1	4.3
2025-01-22 19:21:01.636771	298.3	32.1	-92.3	3.8
2025-01-22 19:21:02.791245	298.7	31.9	-92.1	5.8
2025-01-22 19:21:03.943829	299.0	31.8	-92.3	5.3
2025-01-22 19:21:05.091228	299.4	31.7	-92.4	5.7
2025-01-22 19:21:06.241218	299.7	31.6	-92.1	7.9
2025-01-22 19:21:07.389927	300.0	31.4	-91.9	13.2
2025-01-22 19:21:08.549687	300.4	31.3	-92.1	13.3
2025-01-22 19:21:09.705615	300.7	31.2	-92.6	15.5
2025-01-22 19:21:10.854470	301.0	31.0	-91.8	11.8
2025-01-22 19:21:12.000236	301.3	30.9	-92.1	13.6
2025-01-22 19:21:13.151123	301.7	30.8	-92.4	11.0
2025-01-22 19:21:14.301155	302.0	30.6	-92.0	8.3
2025-01-22 19:21:15.453049	302.3	30.5	-91.6	8.1
2025-01-22 19:21:16.608226	302.6	30.4	-91.8	5.6
2025-01-22 19:21:17.765606	302.9	30.3	-92.0	5.3
2025-01-22 19:21:18.919864	303.2	30.1	-92.1	6.7
2025-01-22 19:21:20.067375	303.5	30.0	-92.2	5.1
2025-01-22 19:21:21.221032	303.8	29.9	-92.1	1.8
2025-01-22 19:21:22.368491	304.1	29.7	-91.6	3.8
2025-01-22 19:21:23.517527	304.4	29.6	-91.9	2.4
2025-01-22 19:21:24.674192	304.7	29.5	-92.0	4.5
2025-01-22 19:21:25.824943	305.0	29.3	-92.4	6.1
2025-01-22 19:21:26.979624	305.3	29.2	-92.2	4.0
2025-01-22 19:21:28.128566	305.6	29.0	-91.9	6.1
2025-01-22 19:21:29.281559	305.9	28.9	-92.0	8.0
2025-01-22 19:21:30.426351	306.2	28.8	-91.9	6.6
2025-01-22 19:21:31.573721	306.5	28.6	-91.8	7.0
2025-01-22 19:21:32.710966	306.7	28.5	-92.0	11.1
2025-01-22 19:21:33.845834	307.0	28.4	-92.1	11.1
2025-01-22 19:21:34.993391	307.3	28.2	-92.1	11.0
2025-01-22 19:21:36.140813	307.6	28.1	-92.3	13.9
2025-01-22 19:21:37.294188	307.8	28.0	-91.9	10.7
2025-01-22 19:21:38.450761	308.1	27.8	-91.5	10.2
2025-01-22 19:21:39.606679	308.4	27.7	-91.6	15.9
2025-01-22 19:21:40.761184	308.6	27.6	-91.8	17.7
2025-01-22 19:21:41.912011	308.9	27.4	-92.2	10.7
2025-01-22 19:21:43.064581	309.2	27.3	-92.1	10.6
2025-01-22 19:21:44.217169	309.4	27.2	-92.0	11.1
2025-01-22 19:21:45.373208	309.7	27.0	-91.7	10.5
2025-01-22 19:21:46.520059	309.9	26.9	-91.7	6.4
2025-01-22 19:21:47.676158	310.2	26.8	-91.8	6.9
2025-01-22 19:21:48.824740	310.4	26.6	-91.5	6.5
2025-01-22 19:21:49.975712	310.7	26.5	-92.0	2.9
2025-01-22 19:21:51.124038	310.9	26.4	-91.9	4.7
2025-01-22 19:21:52.282226	311.2	26.2	-91.8	5.7
2025-01-22 19:21:53.431360	311.4	26.1	-91.6	4.6
2025-01-22 19:21:54.578977	311.7	26.0	-91.9	4.9
2025-01-22 19:21:55.732227	311.9	25.8	-92.0	6.8
2025-01-22 19:21:56.892115	312.1	25.7	-92.1	4.8
2025-01-22 19:21:58.042420	312.4	25.6	-92.2	4.2
2025-01-22 19:21:59.194453	312.6	25.4	-91.7	7.6
2025-01-22 19:22:00.345165	312.8	25.3	-91.6	7.7
2025-01-22 19:22:01.490856	313.0	25.2	-91.7	8.1
2025-01-22 19:22:02.638710	313.3	25.0	-92.3	9.6
2025-01-22 19:22:03.792595	313.5	24.9	-91.4	7.0
2025-01-22 19:22:04.943950	313.7	24.8	-92.0	9.2
2025-01-22 19:22:06.101052	313.9	24.6	-91.5	6.5
2025-01-22 19:22:07.260395	314.2	24.5	-91.8	7.4
2025-01-22 19:22:08.414552	314.4	24.4	-91.8	8.1
2025-01-22 19:22:09.564375	314.6	24.2	-91.7	3.0
2025-01-22 19:22:10.710997	314.8	24.1	-91.6	6.3
2025-01-22 19:22:11.860229	315.0	24.0	-92.1	5.5
2025-01-22 19:22:13.010375	315.2	23.8	-91.9	2.1
2025-01-22 19:22:14.157209	315.4	23.7	-91.9	3.8
2025-01-22 19:22:15.306320	315.6	23.6	-91.8	5.1
2025-01-22 19:22:16.453654	315.8	23.5	-91.8	2.2
2025-01-22 19:22:17.602051	316.1	23.3	-91.8	2.8
2025-01-22 19:22:18.756193	316.3	23.2	-91.9	1.6
2025-01-22 19:22:19.917932	316.5	23.1	-92.1	5.6
2025-01-22 19:22:21.072216	316.7	22.9	-91.8	5.2
2025-01-22 19:22:22.223042	316.9	22.8	-91.8	2.0
2025-01-22 19:22:23.373199	317.0	22.7	-91.7	1.2
2025-01-22 19:22:24.534503	317.2	22.6	-91.7	2.5
2025-01-22 19:22:25.684395	317.4	22.4	-91.8	3.4
2025-01-22 19:22:26.842375	317.6	22.3	-92.0	3.3
2025-01-22 19:22:27.986534	317.8	22.2	-92.2	4.5
2025-01-22 19:22:29.156455	318.0	22.0	-92.1	6.0
2025-01-22 19:22:30.305775	318.2	21.9	-91.8	5.3
2025-01-22 19:22:31.461447	318.4	21.8	-92.0	2.0
2025-01-22 19:22:32.606349	318.6	21.7	-91.7	1.3
2025-01-22 19:22:33.755860	318.7	21.5	-92.3	4.1
2025-01-22 19:22:34.908930	318.9	21.4	-92.1	2.3
2025-01-22 19:22:36.058861	319.1	21.3	-91.4	2.0
2025-01-22 19:22:37.210011	319.3	21.2	-91.9	6.4
2025-01-22 19:22:38.362331	319.5	21.0	-91.7	3.9
2025-01-22 19:22:39.514096	319.6	20.9	-92.1	6.2
2025-01-22 19:22:40.660616	319.8	20.8	-91.6	8.7
2025-01-22 19:22:41.809001	320.0	20.7	-91.9	5.6
2025-01-22 19:22:42.967711	320.1	20.6	-92.0	7.0
2025-01-22 19:22:44.115877	320.3	20.4	-92.0	5.2
2025-01-22 19:22:45.262012	320.5	20.3	-91.8	4.3
2025-01-22 19:22:46.407376	320.7	20.2	-91.9	1.9
2025-01-22 19:22:47.658885	320.8	20.1	-91.7	1.7
2025-01-22 19:22:48.809620	321.0	19.9	-91.9	3.7
2025-01-22 19:22:49.960327	321.2	19.8	-91.9	2.2
2025-01-22 19:22:51.105268	321.3	19.7	-92.2	2.1
2025-01-22 19:22:52.261637	321.5	19.6	-92.0	3.5
2025-01-22 19:22:53.409172	321.6	19.5	-91.6	2.2
2025-01-22 19:22:54.555652	321.8	19.3	-91.9	0.8
2025-01-22 19:22:55.701983	322.0	19.2	-91.9	2.9
2025-01-22 19:22:56.848777	322.1	19.1	-92.0	4.3
2025-01-22 19:22:57.993575	322.3	19.0	-92.4	3.6
2025-01-22 19:22:59.138001	322.4	18.9	-92.4	3.7
2025-01-22 19:23:00.268240	322.6	18.8	-92.0	8.5
2025-01-22 19:23:01.389749	322.7	18.6	-92.2	8.7
2025-01-22 19:23:02.509749	322.9	18.5	-92.1	4.5
2025-01-22 19:23:03.630392	323.0	18.4	-92.0	5.8
2025-01-22 19:23:04.752176	323.2	18.3	-92.1	7.5
2025-01-22 19:23:05.872019	323.3	18.2	-92.6	3.2
2025-01-22 19:23:06.993475	323.4	18.1	-92.4	4.0
2025-01-22 19:23:08.112411	323.6	18.0	-92.1	1.5
2025-01-22 19:23:09.232846	323.7	17.9	-92.3	2.9
2025-01-22 19:23:10.368772	323.9	17.7	-92.1	3.3
2025-01-22 19:23:11.515040	324.0	17.6	-92.2	2.6
2025-01-22 19:23:12.659387	324.1	17.5	-91.9	2.0
2025-01-22 19:23:13.805937	324.3	17.4	-92.0	1.1
2025-01-22 19:23:14.960704	324.4	17.3	-91.9	1.6
2025-01-22 19:23:16.112480	324.6	17.2	-92.1	3.6
2025-01-22 19:23:17.257104	324.7	17.1	-92.2	2.3
2025-01-22 19:23:18.410712	324.8	17.0	-91.9	2.9
2025-01-22 19:23:19.558219	325.0	16.9	-91.8	4.4
2025-01-22 19:23:20.714379	325.1	16.7	-92.0	1.6
2025-01-22 19:23:21.864069	325.2	16.6	-91.9	2.7
2025-01-22 19:23:23.006727	325.4	16.5	-91.6	1.6
2025-01-22 19:23:24.161700	325.5	16.4	-92.0	1.8
2025-01-22 19:23:25.314636	325.6	16.3	-91.7	1.3
2025-01-22 19:23:26.467334	325.8	16.2	-91.9	1.8
2025-01-22 19:23:27.619064	325.9	16.1	-91.9	1.0
2025-01-22 19:23:28.768383	326.0	16.0	-91.8	3.0
2025-01-22 19:23:29.918745	326.2	15.9	-91.8	3.0
2025-01-22 19:23:31.067631	326.3	15.8	-92.1	2.3
2025-01-22 19:23:32.213954	326.4	15.7	-92.3	2.1
2025-01-22 19:23:33.362782	326.5	15.6	-91.6	3.7
2025-01-22 19:23:34.516985	326.7	15.4	-91.6	3.5
2025-01-22 19:23:35.669604	326.8	15.3	-91.9	7.2
2025-01-22 19:23:36.823293	326.9	15.2	-92.2	5.8
2025-01-22 19:23:37.979328	327.0	15.1	-91.8	3.4
2025-01-22 19:23:39.124596	327.1	15.0	-92.4	2.3
2025-01-22 19:23:40.278313	327.3	14.9	-91.7	4.1
2025-01-22 19:23:41.428062	327.4	14.8	-91.4	3.9
2025-01-22 19:23:42.575361	327.5	14.7	-91.8	1.3
2025-01-22 19:23:43.726402	327.6	14.6	-92.0	3.0
#Closed at: 2025-01-22 19:15:31.746781