passes_logs/2025/01/22/LEX_Murmansk/LEX_Murmansk__20250122_073353_NOAA_19_rec.log

#Pass ID: 20250122_073353_NOAA 19
#Satellite: NOAA 19
#Configuration: NOAA 19
#Start time: 2025-01-22 07:33:48.666928

#LorettStation: 1.0.0 05.05.2024
#Station: LEX_Murmansk
#Location: 33.156738 lon 68.926811 lat
#TLE: 1 33591U 09005A   25021.16349212  .00000417  00000+0  24660-3 0  9995
#TLE: 2 33591  99.0186  84.9732 0014271  40.9333 319.2908 14.13264918822414

#Time	Az	El	Level	SNR
2025-01-22 07:34:00.840236	33.0	16.2	-89.2	2.4
2025-01-22 07:34:02.007606	33.1	16.3	-89.6	2.9
2025-01-22 07:34:03.177169	33.2	16.4	-89.2	2.8
2025-01-22 07:34:04.338780	33.3	16.5	-89.3	3.8
2025-01-22 07:34:05.502912	33.4	16.6	-89.8	3.2
2025-01-22 07:34:06.660640	33.6	16.7	-89.5	1.8
2025-01-22 07:34:07.821120	33.7	16.9	-89.7	3.9
2025-01-22 07:34:08.989712	33.8	17.0	-89.9	0.9
2025-01-22 07:34:10.153338	33.9	17.1	-89.3	1.3
2025-01-22 07:34:11.316537	34.1	17.2	-89.6	1.8
2025-01-22 07:34:12.483788	34.2	17.3	-89.7	2.3
2025-01-22 07:34:13.646850	34.3	17.4	-89.7	3.6
2025-01-22 07:34:14.812636	34.4	17.6	-89.6	3.5
2025-01-22 07:34:15.978302	34.6	17.7	-89.7	3.7
2025-01-22 07:34:17.131410	34.7	17.8	-89.5	3.4
2025-01-22 07:34:18.280372	34.8	17.9	-89.4	2.5
2025-01-22 07:34:19.447400	35.0	18.0	-90.1	4.1
2025-01-22 07:34:20.612861	35.1	18.2	-89.9	4.9
2025-01-22 07:34:21.793911	35.2	18.3	-90.1	6.8
2025-01-22 07:34:22.963205	35.4	18.4	-89.7	5.5
2025-01-22 07:34:24.127822	35.5	18.5	-89.9	6.6
2025-01-22 07:34:25.289283	35.6	18.7	-89.7	2.2
2025-01-22 07:34:26.555042	35.8	18.8	-89.6	2.5
2025-01-22 07:34:27.831699	35.9	18.9	-89.6	2.0
2025-01-22 07:34:28.985760	36.1	19.0	-89.7	2.1
2025-01-22 07:34:30.159266	36.2	19.2	-89.3	2.0
2025-01-22 07:34:31.323710	36.4	19.3	-89.3	5.4
2025-01-22 07:34:32.475129	36.5	19.4	-89.5	6.9
2025-01-22 07:34:33.639462	36.6	19.5	-89.4	7.1
2025-01-22 07:34:34.800959	36.8	19.7	-89.2	5.5
2025-01-22 07:34:35.968935	36.9	19.8	-89.4	3.7
2025-01-22 07:34:37.124182	37.1	19.9	-89.4	4.2
2025-01-22 07:34:38.292961	37.2	20.1	-89.0	4.8
2025-01-22 07:34:39.457978	37.4	20.2	-89.7	3.8
2025-01-22 07:34:40.617493	37.5	20.3	-89.6	11.1
2025-01-22 07:34:41.785771	37.7	20.4	-89.8	8.6
2025-01-22 07:34:42.951834	37.8	20.6	-89.8	4.8
2025-01-22 07:34:44.119595	38.0	20.7	-89.4	2.8
2025-01-22 07:34:45.383034	38.2	20.8	-89.6	0.3
2025-01-22 07:34:46.538152	38.3	21.0	-89.7	3.4
2025-01-22 07:34:47.698136	38.5	21.1	-90.1	2.2
2025-01-22 07:34:48.860106	38.6	21.2	-89.2	6.0
2025-01-22 07:34:50.025067	38.8	21.4	-89.6	5.0
2025-01-22 07:34:51.189692	39.0	21.5	-90.2	5.7
2025-01-22 07:34:52.354659	39.1	21.6	-89.9	6.4
2025-01-22 07:34:53.526617	39.3	21.8	-90.9	5.3
2025-01-22 07:34:54.697699	39.5	21.9	-90.6	5.3
2025-01-22 07:34:55.859483	39.6	22.0	-90.3	4.7
2025-01-22 07:34:57.025508	39.8	22.2	-90.6	9.4
2025-01-22 07:34:58.192592	40.0	22.3	-90.1	11.2
2025-01-22 07:34:59.359157	40.2	22.4	-90.4	5.3
2025-01-22 07:35:00.520464	40.3	22.6	-90.5	6.1
2025-01-22 07:35:01.676256	40.5	22.7	-90.4	5.8
2025-01-22 07:35:02.840243	40.7	22.9	-90.2	1.7
2025-01-22 07:35:04.000070	40.9	23.0	-90.8	2.6
2025-01-22 07:35:05.167782	41.0	23.1	-90.5	1.5
2025-01-22 07:35:06.323720	41.2	23.3	-90.4	2.3
2025-01-22 07:35:07.477473	41.4	23.4	-90.9	7.8
2025-01-22 07:35:08.639639	41.6	23.5	-90.9	12.0
2025-01-22 07:35:09.802633	41.8	23.7	-91.0	5.3
2025-01-22 07:35:10.967124	42.0	23.8	-90.5	5.7
2025-01-22 07:35:12.130137	42.2	24.0	-90.4	7.7
2025-01-22 07:35:13.291607	42.4	24.1	-89.9	4.2
2025-01-22 07:35:14.456467	42.5	24.3	-90.7	8.4
2025-01-22 07:35:15.616776	42.7	24.4	-90.7	7.0
2025-01-22 07:35:16.772751	42.9	24.5	-90.8	10.1
2025-01-22 07:35:17.940618	43.1	24.7	-90.7	11.6
2025-01-22 07:35:19.096988	43.3	24.8	-90.6	6.0
2025-01-22 07:35:20.261887	43.5	25.0	-89.9	4.1
2025-01-22 07:35:21.425603	43.7	25.1	-90.3	5.4
2025-01-22 07:35:22.589648	44.0	25.3	-91.0	2.7
2025-01-22 07:35:23.752658	44.2	25.4	-90.5	1.3
2025-01-22 07:35:24.913812	44.4	25.5	-90.7	6.4
2025-01-22 07:35:26.084957	44.6	25.7	-90.6	5.6
2025-01-22 07:35:27.236337	44.8	25.8	-90.7	6.6
2025-01-22 07:35:28.402531	45.0	26.0	-90.4	3.9
2025-01-22 07:35:29.560129	45.2	26.1	-90.8	6.8
2025-01-22 07:35:30.729613	45.4	26.3	-91.0	3.3
2025-01-22 07:35:31.893288	45.7	26.4	-89.7	2.8
2025-01-22 07:35:33.068540	45.9	26.6	-89.9	5.0
2025-01-22 07:35:34.233832	46.1	26.7	-89.3	3.9
2025-01-22 07:35:35.399949	46.3	26.9	-89.9	7.5
2025-01-22 07:35:36.563969	46.6	27.0	-89.6	5.1
2025-01-22 07:35:37.724256	46.8	27.2	-90.0	6.2
2025-01-22 07:35:38.888616	47.0	27.3	-89.9	2.4
2025-01-22 07:35:40.046268	47.3	27.5	-89.8	2.7
2025-01-22 07:35:41.211705	47.5	27.6	-89.8	2.0
2025-01-22 07:35:42.377459	47.8	27.8	-89.8	0.6
2025-01-22 07:35:43.654531	48.0	27.9	-89.9	0.5
2025-01-22 07:35:44.818344	48.3	28.1	-89.6	1.0
2025-01-22 07:35:45.980202	48.5	28.2	-90.0	3.5
2025-01-22 07:35:47.143498	48.8	28.4	-89.7	4.3
2025-01-22 07:35:48.302581	49.0	28.6	-89.8	7.1
2025-01-22 07:35:49.468519	49.3	28.7	-90.6	10.6
2025-01-22 07:35:50.630916	49.5	28.9	-90.4	8.0
2025-01-22 07:35:51.795812	49.8	29.0	-90.7	4.1
2025-01-22 07:35:52.960152	50.0	29.2	-90.8	3.7
2025-01-22 07:35:54.120724	50.3	29.3	-90.8	2.9
2025-01-22 07:35:55.285823	50.6	29.5	-90.5	2.1
2025-01-22 07:35:56.445788	50.8	29.6	-91.1	1.8
2025-01-22 07:35:57.609767	51.1	29.8	-90.8	3.8
2025-01-22 07:35:58.772750	51.4	29.9	-90.9	3.2
2025-01-22 07:35:59.937724	51.7	30.1	-90.4	2.1
2025-01-22 07:36:01.096935	51.9	30.2	-89.6	1.2
2025-01-22 07:36:02.268296	52.2	30.4	-90.4	2.4
2025-01-22 07:36:03.430877	52.5	30.5	-89.7	2.9
2025-01-22 07:36:04.592713	52.8	30.7	-89.9	1.6
2025-01-22 07:36:05.757932	53.1	30.9	-90.0	2.1
2025-01-22 07:36:06.930497	53.4	31.0	-89.7	5.6
2025-01-22 07:36:08.101760	53.7	31.2	-89.3	4.7
2025-01-22 07:36:09.267508	54.0	31.3	-89.5	4.1
2025-01-22 07:36:10.434445	54.3	31.5	-90.7	8.1
2025-01-22 07:36:11.603787	54.6	31.6	-90.5	9.6
2025-01-22 07:36:12.761195	54.9	31.8	-90.6	8.1
2025-01-22 07:36:13.904537	55.2	31.9	-90.5	9.0
2025-01-22 07:36:15.060408	55.5	32.1	-90.6	9.0
2025-01-22 07:36:16.222413	55.8	32.2	-90.7	7.1
2025-01-22 07:36:17.378406	56.1	32.4	-90.6	8.4
2025-01-22 07:36:18.540929	56.4	32.6	-90.8	11.6
2025-01-22 07:36:19.705819	56.8	32.7	-90.7	14.5
2025-01-22 07:36:20.876724	57.1	32.9	-90.7	19.5
2025-01-22 07:36:22.035410	57.4	33.0	-90.7	13.2
2025-01-22 07:36:23.193890	57.7	33.2	-89.8	12.5
2025-01-22 07:36:24.357396	58.1	33.3	-89.5	8.3
2025-01-22 07:36:25.523747	58.4	33.5	-89.6	6.7
2025-01-22 07:36:26.682762	58.8	33.6	-89.9	6.3
2025-01-22 07:36:27.960489	59.1	33.8	-90.3	6.3
2025-01-22 07:36:29.126118	59.5	33.9	-90.3	6.2
2025-01-22 07:36:30.294238	59.8	34.1	-90.1	4.6
2025-01-22 07:36:31.465890	60.2	34.2	-89.9	6.5
2025-01-22 07:36:32.627076	60.6	34.4	-90.5	10.0
2025-01-22 07:36:33.798721	60.9	34.5	-91.2	15.2
2025-01-22 07:36:34.966121	61.3	34.7	-90.4	16.6
2025-01-22 07:36:36.126815	61.7	34.8	-90.4	16.3
2025-01-22 07:36:37.277089	62.0	35.0	-90.4	11.1
2025-01-22 07:36:38.441715	62.4	35.1	-90.7	14.3
2025-01-22 07:36:39.609206	62.8	35.3	-90.6	9.1
2025-01-22 07:36:40.774629	63.2	35.4	-90.8	7.4
2025-01-22 07:36:41.952194	63.5	35.6	-90.4	8.3
2025-01-22 07:36:43.116606	63.9	35.7	-90.4	6.1
2025-01-22 07:36:44.295080	64.3	35.9	-90.3	9.2
2025-01-22 07:36:45.455775	64.7	36.0	-90.6	8.0
2025-01-22 07:36:46.616923	65.1	36.1	-90.6	16.0
2025-01-22 07:36:47.777366	65.5	36.3	-90.4	15.7
2025-01-22 07:36:48.938686	65.9	36.4	-90.3	18.5
2025-01-22 07:36:50.107668	66.3	36.6	-90.3	13.0
2025-01-22 07:36:51.273046	66.7	36.7	-90.3	7.7
2025-01-22 07:36:52.432323	67.2	36.8	-90.9	7.3
2025-01-22 07:36:53.597567	67.6	37.0	-90.9	3.7
2025-01-22 07:36:54.761443	68.0	37.1	-90.8	2.8
2025-01-22 07:36:55.930248	68.4	37.2	-90.7	5.5
2025-01-22 07:36:57.084414	68.8	37.4	-90.6	4.3
2025-01-22 07:36:58.252114	69.3	37.5	-90.1	4.5
2025-01-22 07:36:59.416606	69.7	37.6	-90.3	10.6
2025-01-22 07:37:00.568846	70.1	37.8	-90.7	8.4
2025-01-22 07:37:01.735828	70.6	37.9	-90.6	11.5
2025-01-22 07:37:02.898201	71.0	38.0	-91.2	16.0
2025-01-22 07:37:04.062293	71.5	38.1	-91.0	17.5
2025-01-22 07:37:05.222559	71.9	38.3	-90.5	15.8
2025-01-22 07:37:06.388976	72.4	38.4	-88.7	15.5
2025-01-22 07:37:07.549974	72.8	38.5	-90.5	15.1
2025-01-22 07:37:08.714014	73.3	38.6	-90.2	8.2
2025-01-22 07:37:09.878296	73.8	38.7	-90.5	9.0
2025-01-22 07:37:11.053790	74.2	38.9	-89.8	9.3
2025-01-22 07:37:12.216767	74.7	39.0	-88.7	7.8
2025-01-22 07:37:13.381829	75.2	39.1	-89.8	8.6
2025-01-22 07:37:14.555260	75.7	39.2	-89.8	10.0
2025-01-22 07:37:15.715605	76.2	39.3	-89.3	12.4
2025-01-22 07:37:16.874469	76.6	39.4	-89.9	10.2
2025-01-22 07:37:18.035399	77.1	39.5	-89.9	10.7
2025-01-22 07:37:19.200843	77.6	39.6	-90.4	12.6
2025-01-22 07:37:20.362118	78.1	39.7	-90.4	15.1
2025-01-22 07:37:21.533216	78.6	39.8	-90.3	13.0
2025-01-22 07:37:22.695275	79.1	39.9	-90.3	8.9
2025-01-22 07:37:23.859090	79.6	40.0	-88.8	6.2
2025-01-22 07:37:25.021544	80.1	40.1	-89.5	9.2
2025-01-22 07:37:26.183877	80.6	40.2	-89.9	3.3
2025-01-22 07:37:27.347618	81.1	40.3	-90.0	1.2
2025-01-22 07:37:28.510869	81.6	40.3	-89.9	4.9
2025-01-22 07:37:29.668440	82.2	40.4	-90.6	8.3
2025-01-22 07:37:30.824588	82.7	40.5	-90.1	5.2
2025-01-22 07:37:31.985630	83.2	40.6	-90.1	3.6
2025-01-22 07:37:33.149573	83.7	40.6	-89.4	4.9
2025-01-22 07:37:34.313594	84.2	40.7	-88.9	11.3
2025-01-22 07:37:35.471400	84.8	40.8	-89.7	5.6
2025-01-22 07:37:36.639485	85.3	40.9	-89.4	4.1
2025-01-22 07:37:37.803240	85.8	40.9	-89.7	8.0
2025-01-22 07:37:38.962258	86.4	41.0	-89.7	7.4
2025-01-22 07:37:40.129592	86.9	41.0	-89.1	9.7
2025-01-22 07:37:41.284769	87.4	41.1	-87.3	10.4
2025-01-22 07:37:42.446091	88.0	41.1	-89.9	12.6
2025-01-22 07:37:43.607750	88.5	41.2	-88.4	10.1
2025-01-22 07:37:44.776647	89.1	41.2	-89.5	12.7
2025-01-22 07:37:45.935143	89.6	41.3	-90.7	9.8
2025-01-22 07:37:47.104816	90.1	41.3	-89.6	9.5
2025-01-22 07:37:48.270755	90.7	41.4	-88.7	11.5
2025-01-22 07:37:49.434950	91.2	41.4	-90.9	8.4
2025-01-22 07:37:50.601366	91.8	41.4	-89.4	6.9
2025-01-22 07:37:51.772052	92.3	41.5	-89.9	11.8
2025-01-22 07:37:52.931993	92.9	41.5	-90.7	8.8
2025-01-22 07:37:54.096845	93.5	41.5	-90.9	5.8
2025-01-22 07:37:55.260917	94.0	41.6	-89.8	12.7
2025-01-22 07:37:56.422168	94.6	41.6	-90.7	9.4
2025-01-22 07:37:57.577068	95.1	41.6	-91.0	6.6
2025-01-22 07:37:58.742736	95.7	41.6	-90.3	10.6
2025-01-22 07:37:59.908536	96.2	41.6	-90.8	9.8
2025-01-22 07:38:01.066739	96.8	41.6	-90.6	3.6
2025-01-22 07:38:02.226771	97.3	41.6	-90.0	5.6
2025-01-22 07:38:03.392328	97.9	41.6	-90.8	5.0
2025-01-22 07:38:04.553125	98.4	41.6	-90.6	1.2
2025-01-22 07:38:05.719526	99.0	41.6	-89.9	2.5
2025-01-22 07:38:06.882999	99.6	41.6	-90.4	3.5
2025-01-22 07:38:08.043431	100.1	41.6	-90.4	4.5
2025-01-22 07:38:09.209770	100.7	41.6	-90.8	2.0
2025-01-22 07:38:10.375555	101.2	41.6	-90.8	1.9
2025-01-22 07:38:11.539286	101.8	41.6	-91.0	2.1
2025-01-22 07:38:12.697433	102.3	41.5	-91.0	2.1
2025-01-22 07:38:13.857780	102.9	41.5	-90.8	4.1
2025-01-22 07:38:15.016297	103.4	41.5	-91.1	6.3
2025-01-22 07:38:16.183937	104.0	41.4	-90.6	8.5
2025-01-22 07:38:17.331901	104.5	41.4	-90.6	9.4
2025-01-22 07:38:18.499091	105.1	41.4	-91.0	10.0
2025-01-22 07:38:19.663386	105.6	41.3	-91.2	12.8
2025-01-22 07:38:20.828834	106.2	41.3	-90.1	13.6
2025-01-22 07:38:21.993300	106.7	41.3	-90.1	12.2
2025-01-22 07:38:23.151776	107.3	41.2	-90.2	13.1
2025-01-22 07:38:24.315267	107.8	41.2	-90.2	14.2
2025-01-22 07:38:25.475395	108.3	41.1	-91.0	13.2
2025-01-22 07:38:26.643183	108.9	41.0	-90.8	13.4
2025-01-22 07:38:27.801877	109.4	41.0	-91.1	13.7
2025-01-22 07:38:28.962970	109.9	40.9	-90.7	8.8
2025-01-22 07:38:30.124744	110.5	40.9	-90.7	10.3
2025-01-22 07:38:31.294713	111.0	40.8	-89.8	11.7
2025-01-22 07:38:32.458993	111.5	40.7	-90.6	7.5
2025-01-22 07:38:33.631281	112.1	40.7	-90.8	6.7
2025-01-22 07:38:34.788746	112.6	40.6	-90.4	11.5
2025-01-22 07:38:35.967287	113.1	40.5	-91.1	9.7
2025-01-22 07:38:37.130364	113.6	40.4	-90.7	8.4
2025-01-22 07:38:38.288056	114.1	40.3	-90.7	12.8
2025-01-22 07:38:39.455258	114.7	40.3	-90.8	7.1
2025-01-22 07:38:40.620536	115.2	40.2	-90.9	7.8
2025-01-22 07:38:41.787709	115.7	40.1	-90.6	11.4
2025-01-22 07:38:42.950948	116.2	40.0	-91.1	5.8
2025-01-22 07:38:44.125460	116.7	39.9	-90.5	5.4
2025-01-22 07:38:45.290615	117.2	39.8	-89.4	11.1
2025-01-22 07:38:46.453830	117.7	39.7	-89.7	7.8
2025-01-22 07:38:47.612375	118.2	39.6	-90.0	8.1
2025-01-22 07:38:48.776885	118.7	39.5	-90.2	10.6
2025-01-22 07:38:49.954059	119.2	39.4	-90.1	6.7
2025-01-22 07:38:51.115841	119.6	39.3	-90.0	8.8
2025-01-22 07:38:52.281096	120.1	39.2	-89.9	11.0
2025-01-22 07:38:53.444311	120.6	39.1	-89.9	6.5
2025-01-22 07:38:54.608342	121.1	39.0	-91.0	3.2
2025-01-22 07:38:55.766712	121.6	38.9	-91.0	10.8
2025-01-22 07:38:56.928733	122.0	38.8	-91.0	7.2
2025-01-22 07:38:58.086019	122.5	38.6	-90.5	6.7
2025-01-22 07:38:59.233904	122.9	38.5	-90.6	10.2
2025-01-22 07:39:00.393674	123.4	38.4	-90.2	8.2
2025-01-22 07:39:01.558604	123.9	38.3	-90.6	10.6
2025-01-22 07:39:02.723347	124.3	38.2	-90.7	12.9
2025-01-22 07:39:03.886324	124.8	38.0	-90.8	12.1
2025-01-22 07:39:05.052391	125.2	37.9	-89.9	12.2
2025-01-22 07:39:06.213359	125.6	37.8	-90.0	14.0
2025-01-22 07:39:07.377552	126.1	37.7	-90.3	16.4
2025-01-22 07:39:08.538752	126.5	37.5	-90.6	17.4
2025-01-22 07:39:09.699689	126.9	37.4	-90.2	16.4
2025-01-22 07:39:10.854330	127.4	37.3	-90.3	14.6
2025-01-22 07:39:12.009782	127.8	37.1	-90.3	14.0
2025-01-22 07:39:13.174288	128.2	37.0	-89.9	15.4
2025-01-22 07:39:14.338401	128.6	36.9	-90.0	14.4
2025-01-22 07:39:15.505205	129.1	36.7	-90.2	15.3
2025-01-22 07:39:16.657007	129.5	36.6	-90.1	14.0
2025-01-22 07:39:17.795519	129.9	36.5	-90.3	15.4
2025-01-22 07:39:18.955817	130.3	36.3	-90.4	15.5
2025-01-22 07:39:20.127532	130.7	36.2	-90.8	16.0
2025-01-22 07:39:21.286067	131.1	36.0	-90.8	14.9
2025-01-22 07:39:22.449272	131.5	35.9	-90.7	14.0
2025-01-22 07:39:23.606373	131.8	35.8	-91.0	13.7
2025-01-22 07:39:24.765850	132.2	35.6	-90.6	16.0
2025-01-22 07:39:25.930693	132.6	35.5	-90.4	10.7
2025-01-22 07:39:27.093782	133.0	35.3	-89.6	6.0
2025-01-22 07:39:28.253640	133.4	35.2	-89.8	8.8
2025-01-22 07:39:29.420796	133.8	35.0	-91.0	5.8
2025-01-22 07:39:30.581733	134.1	34.9	-90.6	5.2
2025-01-22 07:39:31.747424	134.5	34.7	-91.2	11.0
2025-01-22 07:39:32.912039	134.9	34.6	-90.3	5.6
2025-01-22 07:39:34.073327	135.2	34.4	-90.8	2.0
2025-01-22 07:39:35.241364	135.6	34.3	-90.7	5.7
2025-01-22 07:39:36.405646	135.9	34.1	-91.1	4.5
2025-01-22 07:39:37.568561	136.3	34.0	-90.6	2.2
2025-01-22 07:39:38.733413	136.6	33.8	-90.9	6.3
2025-01-22 07:39:39.893234	137.0	33.7	-90.2	1.7
2025-01-22 07:39:41.060857	137.3	33.5	-90.7	2.2
2025-01-22 07:39:42.225389	137.7	33.4	-90.7	8.2
2025-01-22 07:39:43.388796	138.0	33.2	-90.9	9.9
2025-01-22 07:39:44.551122	138.3	33.1	-91.1	8.6
2025-01-22 07:39:45.712244	138.7	32.9	-90.9	12.9
2025-01-22 07:39:46.876447	139.0	32.8	-90.8	11.3
2025-01-22 07:39:48.041236	139.3	32.6	-90.8	6.1
2025-01-22 07:39:49.208372	139.6	32.4	-90.8	9.1
2025-01-22 07:39:50.368284	140.0	32.3	-90.0	10.1
2025-01-22 07:39:51.534599	140.3	32.1	-90.9	10.1
2025-01-22 07:39:52.701848	140.6	32.0	-90.9	8.6
2025-01-22 07:39:53.867023	140.9	31.8	-91.1	4.1
2025-01-22 07:39:55.031309	141.2	31.7	-90.8	4.5
2025-01-22 07:39:56.195668	141.5	31.5	-90.6	6.1
2025-01-22 07:39:57.362478	141.8	31.4	-90.3	6.6
2025-01-22 07:39:58.523537	142.1	31.2	-90.7	5.4
2025-01-22 07:39:59.685329	142.4	31.1	-90.8	2.6
2025-01-22 07:40:00.845592	142.7	30.9	-90.8	1.7
2025-01-22 07:40:02.012420	143.0	30.7	-91.1	2.7
2025-01-22 07:40:03.177199	143.3	30.6	-90.5	2.8
2025-01-22 07:40:04.345045	143.6	30.4	-90.5	2.3
2025-01-22 07:40:05.510319	143.8	30.3	-90.7	0.9
2025-01-22 07:40:06.678029	144.1	30.1	-90.7	3.3
2025-01-22 07:40:07.821556	144.4	30.0	-90.3	3.7
2025-01-22 07:40:08.980815	144.7	29.8	-90.7	4.8
2025-01-22 07:40:10.141842	144.9	29.7	-90.2	1.8
2025-01-22 07:40:11.301238	145.2	29.5	-90.7	2.7
2025-01-22 07:40:12.471557	145.5	29.4	-90.5	1.7
2025-01-22 07:40:13.641081	145.7	29.2	-90.9	2.2
2025-01-22 07:40:14.804647	146.0	29.1	-90.7	2.7
2025-01-22 07:40:15.962640	146.3	28.9	-91.1	5.4
2025-01-22 07:40:17.135016	146.5	28.7	-90.4	6.9
2025-01-22 07:40:18.284215	146.8	28.6	-90.4	5.8
2025-01-22 07:40:19.454724	147.0	28.4	-91.0	6.0
2025-01-22 07:40:20.614343	147.3	28.3	-91.0	7.8
2025-01-22 07:40:21.780076	147.5	28.1	-91.3	8.8
2025-01-22 07:40:22.943903	147.8	28.0	-91.0	5.7
2025-01-22 07:40:24.107770	148.0	27.8	-90.7	4.1
2025-01-22 07:40:25.276727	148.2	27.7	-91.0	6.8
2025-01-22 07:40:26.437508	148.5	27.5	-91.0	3.1
2025-01-22 07:40:27.602159	148.7	27.4	-90.9	3.0
2025-01-22 07:40:28.760414	148.9	27.2	-90.8	7.1
2025-01-22 07:40:29.926357	149.2	27.1	-90.7	4.5
2025-01-22 07:40:31.086569	149.4	26.9	-90.7	4.4
2025-01-22 07:40:32.247667	149.6	26.8	-91.0	10.3
2025-01-22 07:40:33.414684	149.9	26.6	-90.8	4.8
2025-01-22 07:40:34.573054	150.1	26.5	-90.8	3.8
2025-01-22 07:40:35.738458	150.3	26.3	-90.9	7.5
2025-01-22 07:40:36.901557	150.5	26.2	-90.8	7.6
2025-01-22 07:40:38.062004	150.7	26.0	-91.0	8.3
2025-01-22 07:40:39.226956	151.0	25.9	-90.7	8.0
2025-01-22 07:40:40.406395	151.2	25.7	-90.9	10.9
2025-01-22 07:40:41.573176	151.4	25.6	-90.6	10.7
2025-01-22 07:40:42.739534	151.6	25.5	-90.9	8.5
2025-01-22 07:40:43.906072	151.8	25.3	-90.6	9.5
2025-01-22 07:40:45.069270	152.0	25.2	-90.7	9.2
2025-01-22 07:40:46.237468	152.2	25.0	-90.8	9.0
2025-01-22 07:40:47.403488	152.4	24.9	-90.8	8.8
2025-01-22 07:40:48.572614	152.6	24.7	-91.0	4.8
2025-01-22 07:40:49.739839	152.8	24.6	-90.9	6.1
2025-01-22 07:40:50.906682	153.0	24.4	-90.1	4.4
2025-01-22 07:40:52.074210	153.2	24.3	-89.7	3.3
2025-01-22 07:40:53.228235	153.4	24.2	-89.5	6.6
2025-01-22 07:40:54.392208	153.6	24.0	-89.5	7.2
2025-01-22 07:40:55.556348	153.8	23.9	-90.3	6.5
2025-01-22 07:40:56.736404	154.0	23.7	-89.7	10.0
2025-01-22 07:40:57.897157	154.2	23.6	-90.2	8.4
2025-01-22 07:40:59.069901	154.4	23.4	-90.2	8.3
2025-01-22 07:41:00.226226	154.5	23.3	-89.5	7.3
2025-01-22 07:41:01.390319	154.7	23.2	-89.8	5.9
2025-01-22 07:41:02.568766	154.9	23.0	-90.3	6.4
2025-01-22 07:41:03.737240	155.1	22.9	-90.4	4.4
2025-01-22 07:41:04.903290	155.3	22.8	-90.2	4.2
2025-01-22 07:41:06.070422	155.4	22.6	-90.1	2.8
2025-01-22 07:41:07.230556	155.6	22.5	-90.9	3.9
2025-01-22 07:41:08.386043	155.8	22.3	-89.9	2.6
2025-01-22 07:41:09.550578	156.0	22.2	-90.1	3.9
2025-01-22 07:41:10.719744	156.1	22.1	-90.2	5.1
2025-01-22 07:41:11.884343	156.3	21.9	-90.0	5.2
2025-01-22 07:41:13.062797	156.5	21.8	-90.3	5.2
2025-01-22 07:41:14.223938	156.6	21.7	-89.4	4.2
2025-01-22 07:41:15.387915	156.8	21.5	-90.7	4.2
2025-01-22 07:41:16.551822	157.0	21.4	-91.2	4.8
2025-01-22 07:41:17.716470	157.1	21.3	-90.9	8.0
2025-01-22 07:41:18.881226	157.3	21.1	-91.1	6.8
2025-01-22 07:41:20.031264	157.4	21.0	-91.0	7.6
2025-01-22 07:41:21.152826	157.6	20.9	-90.7	6.6
2025-01-22 07:41:22.273725	157.8	20.8	-90.6	6.5
2025-01-22 07:41:23.394155	157.9	20.6	-90.8	6.2
2025-01-22 07:41:24.514518	158.1	20.5	-91.0	4.1
2025-01-22 07:41:25.635064	158.2	20.4	-90.8	3.8
2025-01-22 07:41:26.755639	158.3	20.3	-91.2	5.8
2025-01-22 07:41:27.875743	158.5	20.1	-89.4	3.7
2025-01-22 07:41:29.003986	158.6	20.0	-90.7	2.4
2025-01-22 07:41:30.128119	158.8	19.9	-90.8	2.1
2025-01-22 07:41:31.277543	158.9	19.8	-90.8	0.7
2025-01-22 07:41:32.429029	159.1	19.6	-90.5	6.3
2025-01-22 07:41:33.589871	159.2	19.5	-90.9	2.9
2025-01-22 07:41:34.752366	159.4	19.4	-90.4	4.4
2025-01-22 07:41:35.913975	159.5	19.3	-90.2	4.4
2025-01-22 07:41:37.071173	159.6	19.1	-89.9	2.5
2025-01-22 07:41:38.230801	159.8	19.0	-90.0	4.3
2025-01-22 07:41:39.394372	159.9	18.9	-89.9	1.8
2025-01-22 07:41:40.562519	160.1	18.8	-90.1	1.3
2025-01-22 07:41:41.725916	160.2	18.6	-90.0	2.4
2025-01-22 07:41:42.893857	160.3	18.5	-90.0	2.4
2025-01-22 07:41:44.057691	160.5	18.4	-90.1	1.1
2025-01-22 07:41:45.225121	160.6	18.3	-89.8	4.8
2025-01-22 07:41:46.387926	160.7	18.1	-90.0	4.2
2025-01-22 07:41:47.544439	160.9	18.0	-90.4	3.4
2025-01-22 07:41:48.699352	161.0	17.9	-90.0	3.2
2025-01-22 07:41:49.860127	161.1	17.8	-90.1	2.6
2025-01-22 07:41:51.025355	161.3	17.7	-90.3	1.7
2025-01-22 07:41:52.302910	161.4	17.5	-89.7	1.7
2025-01-22 07:41:53.467741	161.5	17.4	-89.0	3.2
2025-01-22 07:41:54.632943	161.7	17.3	-89.7	2.9
2025-01-22 07:41:55.797663	161.8	17.2	-90.5	2.5
2025-01-22 07:41:56.962193	161.9	17.1	-90.6	2.4
2025-01-22 07:41:58.122023	162.0	16.9	-90.3	2.1
2025-01-22 07:41:59.286612	162.2	16.8	-90.2	3.5
2025-01-22 07:42:00.440055	162.3	16.7	-90.3	1.0
2025-01-22 07:42:01.600162	162.4	16.6	-90.5	2.8
2025-01-22 07:42:02.866243	162.5	16.5	-89.9	3.3
2025-01-22 07:42:04.033659	162.6	16.4	-90.7	4.1
2025-01-22 07:42:05.197698	162.8	16.2	-90.7	1.2
2025-01-22 07:42:06.360542	162.9	16.1	-90.7	4.5
2025-01-22 07:42:07.525949	163.0	16.0	-90.7	4.2
2025-01-22 07:42:08.680898	163.1	15.9	-91.0	5.0
2025-01-22 07:42:09.850701	163.2	15.8	-90.7	7.1
2025-01-22 07:42:11.012344	163.3	15.7	-90.8	3.4
2025-01-22 07:42:12.177978	163.5	15.6	-90.5	2.8
2025-01-22 07:42:13.342955	163.6	15.5	-90.7	3.6
2025-01-22 07:42:14.509987	163.7	15.3	-90.9	2.8
2025-01-22 07:42:15.671514	163.8	15.2	-90.9	4.0
2025-01-22 07:42:16.836949	163.9	15.1	-91.0	3.2
2025-01-22 07:42:18.013541	164.0	15.0	-90.8	3.6
2025-01-22 07:42:19.168128	164.1	14.9	-90.5	2.8
2025-01-22 07:42:20.334519	164.2	14.8	-90.4	4.0
2025-01-22 07:42:21.497056	164.3	14.7	-90.4	4.3
2025-01-22 07:42:22.661214	164.4	14.6	-90.6	3.2
#Closed at: 2025-01-22 07:33:53.655328