passes_logs/2025/01/22/LEX_Murmansk/LEX_Murmansk__20250122_125939_NOAA_18_rec.log

#Pass ID: 20250122_125939_NOAA 18
#Satellite: NOAA 18
#Configuration: NOAA 18
#Start time: 2025-01-22 12:59:34.466027

#LorettStation: 1.0.0 05.05.2024
#Station: LEX_Murmansk
#Location: 33.156738 lon 68.926811 lat
#TLE: 1 28654U 05018A   25021.17963601  .00000484  00000+0  28040-3 0  9994
#TLE: 2 28654  98.8557 102.1724 0014626 162.0619 198.1073 14.13492794 14053

#Time	Az	El	Level	SNR
2025-01-22 12:59:46.575558	26.2	16.0	-89.4	3.6
2025-01-22 12:59:47.725170	26.0	16.1	-89.5	1.9
2025-01-22 12:59:48.876484	25.8	16.2	-90.7	2.8
2025-01-22 12:59:50.024245	25.7	16.3	-90.6	5.8
2025-01-22 12:59:51.174979	25.5	16.4	-90.4	3.4
2025-01-22 12:59:52.323025	25.3	16.5	-90.2	6.1
2025-01-22 12:59:53.481119	25.2	16.6	-90.7	4.6
2025-01-22 12:59:54.632017	25.0	16.7	-90.9	6.5
2025-01-22 12:59:55.780709	24.8	16.7	-90.6	7.1
2025-01-22 12:59:56.934399	24.6	16.8	-90.1	5.4
2025-01-22 12:59:58.086506	24.5	16.9	-89.6	4.6
2025-01-22 12:59:59.227118	24.3	17.0	-89.9	6.8
2025-01-22 13:00:00.375624	24.1	17.1	-89.9	7.1
2025-01-22 13:00:01.523684	23.9	17.2	-90.0	6.4
2025-01-22 13:00:02.677079	23.8	17.3	-89.9	7.9
2025-01-22 13:00:03.834302	23.6	17.4	-90.2	8.6
2025-01-22 13:00:04.979110	23.4	17.5	-90.2	2.3
2025-01-22 13:00:06.135673	23.2	17.6	-89.7	4.8
2025-01-22 13:00:07.287407	23.0	17.7	-88.9	6.8
2025-01-22 13:00:08.441694	22.9	17.8	-90.6	4.7
2025-01-22 13:00:09.591580	22.7	17.9	-90.8	7.1
2025-01-22 13:00:10.740299	22.5	18.0	-91.0	6.1
2025-01-22 13:00:11.892846	22.3	18.1	-90.9	9.2
2025-01-22 13:00:13.042266	22.1	18.2	-90.7	6.1
2025-01-22 13:00:14.200790	21.9	18.3	-90.5	7.7
2025-01-22 13:00:15.346257	21.7	18.4	-90.7	6.4
2025-01-22 13:00:16.496425	21.5	18.5	-91.1	6.3
2025-01-22 13:00:17.651994	21.3	18.6	-91.2	5.2
2025-01-22 13:00:18.806891	21.1	18.7	-89.3	7.8
2025-01-22 13:00:19.955430	21.0	18.8	-89.6	5.3
2025-01-22 13:00:21.106939	20.8	18.9	-88.9	8.8
2025-01-22 13:00:22.265448	20.6	19.0	-89.8	10.3
2025-01-22 13:00:23.420535	20.4	19.1	-89.3	7.3
2025-01-22 13:00:24.573092	20.2	19.2	-89.8	4.8
2025-01-22 13:00:25.719283	20.0	19.2	-89.6	9.0
2025-01-22 13:00:26.865203	19.7	19.3	-89.8	6.4
2025-01-22 13:00:28.020106	19.5	19.4	-89.4	5.1
2025-01-22 13:00:29.168140	19.3	19.5	-89.5	6.6
2025-01-22 13:00:30.314772	19.1	19.6	-90.6	8.3
2025-01-22 13:00:31.461159	18.9	19.7	-90.8	10.9
2025-01-22 13:00:32.611958	18.7	19.8	-91.0	8.2
2025-01-22 13:00:33.770108	18.5	19.9	-90.9	9.4
2025-01-22 13:00:34.916495	18.3	20.0	-89.0	9.5
2025-01-22 13:00:36.068778	18.1	20.1	-88.8	6.4
2025-01-22 13:00:37.219577	17.9	20.2	-89.5	8.7
2025-01-22 13:00:38.374322	17.6	20.3	-89.3	4.7
2025-01-22 13:00:39.525302	17.4	20.4	-89.9	9.1
2025-01-22 13:00:40.674656	17.2	20.5	-89.7	8.7
2025-01-22 13:00:41.824834	17.0	20.6	-89.9	10.2
2025-01-22 13:00:42.975087	16.8	20.7	-89.6	6.8
2025-01-22 13:00:44.117730	16.5	20.8	-89.2	7.3
2025-01-22 13:00:45.281478	16.3	20.9	-89.8	10.1
2025-01-22 13:00:46.433844	16.1	21.0	-89.5	5.7
2025-01-22 13:00:47.584739	15.9	21.1	-89.8	4.5
2025-01-22 13:00:48.734552	15.6	21.2	-89.6	7.0
2025-01-22 13:00:49.885437	15.4	21.3	-89.9	4.0
2025-01-22 13:00:51.035013	15.2	21.4	-89.0	4.2
2025-01-22 13:00:52.180999	14.9	21.5	-89.3	9.3
2025-01-22 13:00:53.330591	14.7	21.6	-89.3	10.0
2025-01-22 13:00:54.476954	14.5	21.6	-90.1	7.5
2025-01-22 13:00:55.625405	14.2	21.7	-90.7	10.2
2025-01-22 13:00:56.778436	14.0	21.8	-90.7	11.2
2025-01-22 13:00:57.929090	13.7	21.9	-91.0	8.7
2025-01-22 13:00:59.086450	13.5	22.0	-90.7	10.3
2025-01-22 13:01:00.232525	13.2	22.1	-89.5	10.2
2025-01-22 13:01:01.389769	13.0	22.2	-90.0	9.6
2025-01-22 13:01:02.542856	12.8	22.3	-89.9	11.8
2025-01-22 13:01:03.699949	12.5	22.4	-89.7	12.0
2025-01-22 13:01:04.852204	12.3	22.5	-89.7	12.0
2025-01-22 13:01:06.001386	12.0	22.6	-89.7	13.1
2025-01-22 13:01:07.156256	11.7	22.7	-90.7	10.8
2025-01-22 13:01:08.305911	11.5	22.8	-90.6	13.8
2025-01-22 13:01:09.454624	11.2	22.9	-91.0	5.5
2025-01-22 13:01:10.609596	11.0	22.9	-90.8	11.5
2025-01-22 13:01:11.766741	10.7	23.0	-90.4	11.3
2025-01-22 13:01:12.913852	10.5	23.1	-89.7	5.6
2025-01-22 13:01:14.066416	10.2	23.2	-89.3	7.5
2025-01-22 13:01:15.224542	9.9	23.3	-89.9	10.7
2025-01-22 13:01:16.381732	9.7	23.4	-90.1	11.7
2025-01-22 13:01:17.531994	9.4	23.5	-90.1	11.1
2025-01-22 13:01:18.682027	9.1	23.6	-90.2	11.6
2025-01-22 13:01:19.836655	8.9	23.7	-89.9	11.4
2025-01-22 13:01:20.989249	8.6	23.8	-90.1	12.0
2025-01-22 13:01:22.135876	8.3	23.8	-89.6	10.5
2025-01-22 13:01:23.287790	8.0	23.9	-89.8	12.7
2025-01-22 13:01:24.434841	7.8	24.0	-89.8	9.9
2025-01-22 13:01:25.583628	7.5	24.1	-90.2	7.8
2025-01-22 13:01:26.734105	7.2	24.2	-90.0	14.3
2025-01-22 13:01:27.883744	6.9	24.3	-90.2	8.7
2025-01-22 13:01:29.031950	6.6	24.4	-91.2	12.3
2025-01-22 13:01:30.176295	6.4	24.4	-90.7	14.4
2025-01-22 13:01:31.333625	6.1	24.5	-91.0	13.7
2025-01-22 13:01:32.476028	5.8	24.6	-91.2	13.5
2025-01-22 13:01:33.625036	5.5	24.7	-91.3	13.7
2025-01-22 13:01:34.779915	5.2	24.8	-91.3	15.3
2025-01-22 13:01:35.930206	4.9	24.9	-91.1	9.3
2025-01-22 13:01:37.081123	4.6	24.9	-89.6	9.3
2025-01-22 13:01:38.225683	4.3	25.0	-89.7	12.1
2025-01-22 13:01:39.375393	4.0	25.1	-90.0	7.6
2025-01-22 13:01:40.531062	3.7	25.2	-89.5	7.8
2025-01-22 13:01:41.684115	3.4	25.3	-89.6	12.1
2025-01-22 13:01:42.840337	3.1	25.3	-89.4	9.0
2025-01-22 13:01:43.987404	2.8	25.4	-89.8	9.1
2025-01-22 13:01:45.135069	2.5	25.5	-89.4	9.8
2025-01-22 13:01:46.278781	2.2	25.6	-89.5	11.7
2025-01-22 13:01:47.434552	1.9	25.6	-89.6	11.7
2025-01-22 13:01:48.576437	1.6	25.7	-89.8	11.5
2025-01-22 13:01:49.731773	1.3	25.8	-89.2	9.4
2025-01-22 13:01:50.883420	1.0	25.9	-89.4	11.1
2025-01-22 13:01:52.027430	0.7	25.9	-89.4	10.1
2025-01-22 13:01:53.177129	0.4	26.0	-89.9	10.8
2025-01-22 13:01:54.326788	0.0	26.1	-89.0	14.1
2025-01-22 13:01:55.478178	359.7	26.1	-89.9	9.1
2025-01-22 13:01:56.627369	359.4	26.2	-89.8	14.0
2025-01-22 13:01:57.776981	359.1	26.3	-90.1	13.3
2025-01-22 13:01:58.926387	358.8	26.3	-90.2	8.5
2025-01-22 13:02:00.084892	358.4	26.4	-89.6	10.2
2025-01-22 13:02:01.235985	358.1	26.5	-89.7	12.0
2025-01-22 13:02:02.386151	357.8	26.5	-90.1	13.2
2025-01-22 13:02:03.540020	357.5	26.6	-89.5	9.8
2025-01-22 13:02:04.693021	357.1	26.7	-90.0	14.1
2025-01-22 13:02:05.848434	356.8	26.7	-90.0	9.7
2025-01-22 13:02:06.998854	356.5	26.8	-89.5	6.3
2025-01-22 13:02:08.155389	356.1	26.9	-89.1	9.3
2025-01-22 13:02:09.309339	355.8	26.9	-89.2	9.8
2025-01-22 13:02:10.462675	355.5	27.0	-90.0	5.5
2025-01-22 13:02:11.612769	355.1	27.0	-90.0	8.5
2025-01-22 13:02:12.767535	354.8	27.1	-90.3	11.1
2025-01-22 13:02:13.918679	354.5	27.1	-91.1	7.7
2025-01-22 13:02:15.075065	354.1	27.2	-90.8	7.0
2025-01-22 13:02:16.230437	353.8	27.3	-90.3	12.6
2025-01-22 13:02:17.382614	353.4	27.3	-90.0	7.5
2025-01-22 13:02:18.536673	353.1	27.4	-90.1	8.7
2025-01-22 13:02:19.691280	352.8	27.4	-89.9	10.1
2025-01-22 13:02:20.848087	352.4	27.5	-89.7	8.3
2025-01-22 13:02:21.999782	352.1	27.5	-90.2	10.3
2025-01-22 13:02:23.144192	351.7	27.6	-89.3	9.1
2025-01-22 13:02:24.293228	351.4	27.6	-90.7	10.7
2025-01-22 13:02:25.448217	351.0	27.7	-90.9	7.0
2025-01-22 13:02:26.603585	350.7	27.7	-91.1	10.6
2025-01-22 13:02:27.755754	350.3	27.7	-90.8	8.0
2025-01-22 13:02:28.899204	350.0	27.8	-90.0	6.9
2025-01-22 13:02:30.048630	349.6	27.8	-90.0	9.0
2025-01-22 13:02:31.201065	349.3	27.9	-89.6	10.8
2025-01-22 13:02:32.353021	348.9	27.9	-90.0	7.4
2025-01-22 13:02:33.502010	348.5	27.9	-89.6	7.9
2025-01-22 13:02:34.651425	348.2	28.0	-90.1	9.8
2025-01-22 13:02:35.803808	347.8	28.0	-90.1	10.2
2025-01-22 13:02:36.954263	347.5	28.0	-90.1	6.7
2025-01-22 13:02:38.100987	347.1	28.1	-89.7	5.4
2025-01-22 13:02:39.248748	346.8	28.1	-90.0	6.0
2025-01-22 13:02:40.399431	346.4	28.1	-89.8	7.0
2025-01-22 13:02:41.545358	346.0	28.2	-89.9	6.4
2025-01-22 13:02:42.698267	345.7	28.2	-90.1	12.3
2025-01-22 13:02:43.855137	345.3	28.2	-89.8	8.6
2025-01-22 13:02:45.004252	345.0	28.2	-90.0	8.2
2025-01-22 13:02:46.154483	344.6	28.3	-89.4	7.3
2025-01-22 13:02:47.311320	344.2	28.3	-89.6	8.1
2025-01-22 13:02:48.460253	343.9	28.3	-89.9	5.6
2025-01-22 13:02:49.612486	343.5	28.3	-89.9	6.0
2025-01-22 13:02:50.762521	343.1	28.3	-89.4	5.2
2025-01-22 13:02:51.915539	342.8	28.4	-91.2	5.5
2025-01-22 13:02:53.065017	342.4	28.4	-90.7	4.0
2025-01-22 13:02:54.222251	342.0	28.4	-90.8	7.3
2025-01-22 13:02:55.375730	341.7	28.4	-89.9	5.4
2025-01-22 13:02:56.528972	341.3	28.4	-89.4	4.0
2025-01-22 13:02:57.675931	340.9	28.4	-90.0	7.7
2025-01-22 13:02:58.839911	340.6	28.4	-90.2	9.5
2025-01-22 13:02:59.985649	340.2	28.5	-90.2	5.0
2025-01-22 13:03:01.132947	339.8	28.5	-89.5	7.4
2025-01-22 13:03:02.286565	339.5	28.5	-90.9	10.4
2025-01-22 13:03:03.444116	339.1	28.5	-91.1	8.2
2025-01-22 13:03:04.601523	338.7	28.5	-91.0	10.0
2025-01-22 13:03:05.754741	338.3	28.5	-91.0	7.1
2025-01-22 13:03:06.908576	338.0	28.5	-91.4	8.7
2025-01-22 13:03:08.059526	337.6	28.5	-90.8	6.9
2025-01-22 13:03:09.210660	337.2	28.5	-90.3	8.3
2025-01-22 13:03:10.359405	336.9	28.5	-91.0	10.5
2025-01-22 13:03:11.510396	336.5	28.5	-91.4	10.9
2025-01-22 13:03:12.660621	336.1	28.5	-89.4	8.3
2025-01-22 13:03:13.809805	335.8	28.4	-89.8	9.9
2025-01-22 13:03:14.961905	335.4	28.4	-89.6	8.6
2025-01-22 13:03:16.113028	335.0	28.4	-89.1	7.7
2025-01-22 13:03:17.266915	334.7	28.4	-89.3	9.5
2025-01-22 13:03:18.416043	334.3	28.4	-90.1	7.6
2025-01-22 13:03:19.565044	333.9	28.4	-89.6	9.6
2025-01-22 13:03:20.725070	333.6	28.4	-90.1	11.0
2025-01-22 13:03:21.878733	333.2	28.4	-89.4	11.9
2025-01-22 13:03:23.044759	332.8	28.3	-89.3	5.8
2025-01-22 13:03:24.203480	332.5	28.3	-89.4	5.9
2025-01-22 13:03:25.354670	332.1	28.3	-89.6	9.6
2025-01-22 13:03:26.504902	331.7	28.3	-90.2	6.4
2025-01-22 13:03:27.656987	331.4	28.3	-90.1	7.7
2025-01-22 13:03:28.808203	331.0	28.2	-89.7	7.7
2025-01-22 13:03:29.958927	330.6	28.2	-89.4	7.9
2025-01-22 13:03:31.112332	330.3	28.2	-89.3	8.7
2025-01-22 13:03:32.264406	329.9	28.1	-89.7	2.3
2025-01-22 13:03:33.414771	329.5	28.1	-90.3	6.3
2025-01-22 13:03:34.576314	329.2	28.1	-90.1	10.0
2025-01-22 13:03:35.728903	328.8	28.1	-90.0	9.2
2025-01-22 13:03:36.877311	328.5	28.0	-90.1	9.9
2025-01-22 13:03:38.028975	328.1	28.0	-89.3	6.0
2025-01-22 13:03:39.183710	327.7	27.9	-90.6	14.5
2025-01-22 13:03:40.334162	327.4	27.9	-90.9	8.8
2025-01-22 13:03:41.483605	327.0	27.9	-91.3	7.7
2025-01-22 13:03:42.638192	326.7	27.8	-90.9	9.8
2025-01-22 13:03:43.789714	326.3	27.8	-91.0	5.5
2025-01-22 13:03:44.941191	326.0	27.8	-90.9	4.8
2025-01-22 13:03:46.090500	325.6	27.7	-90.8	7.8
2025-01-22 13:03:47.244230	325.3	27.7	-90.7	13.9
2025-01-22 13:03:48.391704	324.9	27.6	-90.5	6.3
2025-01-22 13:03:49.543889	324.6	27.6	-91.2	7.7
2025-01-22 13:03:50.691757	324.2	27.5	-91.2	8.5
2025-01-22 13:03:51.847920	323.9	27.5	-91.2	9.6
2025-01-22 13:03:53.001446	323.5	27.4	-91.1	5.4
2025-01-22 13:03:54.160951	323.2	27.4	-90.9	11.8
2025-01-22 13:03:55.312029	322.8	27.3	-91.0	11.6
2025-01-22 13:03:56.461932	322.5	27.3	-90.9	4.8
2025-01-22 13:03:57.618054	322.1	27.2	-91.1	11.9
2025-01-22 13:03:58.763372	321.8	27.2	-91.2	12.8
2025-01-22 13:03:59.916650	321.5	27.1	-91.2	8.2
2025-01-22 13:04:01.059303	321.1	27.1	-90.5	5.7
2025-01-22 13:04:02.209815	320.8	27.0	-90.6	9.2
2025-01-22 13:04:03.364532	320.5	26.9	-90.9	5.0
2025-01-22 13:04:04.515806	320.1	26.9	-91.3	7.9
2025-01-22 13:04:05.666771	319.8	26.8	-91.4	11.3
2025-01-22 13:04:06.817950	319.5	26.8	-91.1	11.2
2025-01-22 13:04:07.965496	319.1	26.7	-90.8	8.3
2025-01-22 13:04:09.119157	318.8	26.6	-91.0	6.0
2025-01-22 13:04:10.268817	318.5	26.6	-90.5	18.6
2025-01-22 13:04:11.419661	318.1	26.5	-90.7	6.0
2025-01-22 13:04:12.571135	317.8	26.4	-90.8	7.9
2025-01-22 13:04:13.721349	317.5	26.4	-91.2	13.3
2025-01-22 13:04:14.868309	317.2	26.3	-90.9	4.5
2025-01-22 13:04:16.027706	316.9	26.2	-90.7	7.2
2025-01-22 13:04:17.175485	316.5	26.2	-90.5	7.3
2025-01-22 13:04:18.324065	316.2	26.1	-90.9	11.2
2025-01-22 13:04:19.473412	315.9	26.0	-91.5	7.4
2025-01-22 13:04:20.622526	315.6	25.9	-91.0	9.9
2025-01-22 13:04:21.774956	315.3	25.9	-90.9	7.6
2025-01-22 13:04:22.921874	315.0	25.8	-91.1	5.7
2025-01-22 13:04:24.073363	314.6	25.7	-89.3	7.6
2025-01-22 13:04:25.225494	314.3	25.7	-89.7	9.4
2025-01-22 13:04:26.380528	314.0	25.6	-89.8	8.4
2025-01-22 13:04:27.529711	313.7	25.5	-90.0	10.0
2025-01-22 13:04:28.679255	313.4	25.4	-90.0	7.4
2025-01-22 13:04:29.825484	313.1	25.3	-89.9	10.4
2025-01-22 13:04:30.977220	312.8	25.3	-91.1	10.8
2025-01-22 13:04:32.135507	312.5	25.2	-90.7	11.7
2025-01-22 13:04:33.280164	312.2	25.1	-90.9	8.1
2025-01-22 13:04:34.435568	311.9	25.0	-91.5	9.3
2025-01-22 13:04:35.585927	311.6	24.9	-91.2	10.5
2025-01-22 13:04:36.741309	311.3	24.9	-90.6	6.8
2025-01-22 13:04:37.886921	311.0	24.8	-91.3	10.0
2025-01-22 13:04:39.037241	310.7	24.7	-91.2	12.4
2025-01-22 13:04:40.188346	310.4	24.6	-90.9	18.2
2025-01-22 13:04:41.334639	310.2	24.5	-91.5	9.9
2025-01-22 13:04:42.486211	309.9	24.5	-91.3	15.1
2025-01-22 13:04:43.639371	309.6	24.4	-90.3	12.0
2025-01-22 13:04:44.793142	309.3	24.3	-90.4	7.5
2025-01-22 13:04:45.939413	309.0	24.2	-90.5	3.8
2025-01-22 13:04:47.088378	308.7	24.1	-90.1	9.1
2025-01-22 13:04:48.235482	308.5	24.0	-90.1	7.6
2025-01-22 13:04:49.381746	308.2	23.9	-90.3	6.3
2025-01-22 13:04:50.532018	307.9	23.8	-90.4	6.5
2025-01-22 13:04:51.677967	307.6	23.8	-90.4	7.3
2025-01-22 13:04:52.831383	307.4	23.7	-89.8	6.1
2025-01-22 13:04:53.983757	307.1	23.6	-90.0	5.9
2025-01-22 13:04:55.139853	306.8	23.5	-91.1	10.0
2025-01-22 13:04:56.290461	306.5	23.4	-89.8	8.1
2025-01-22 13:04:57.438463	306.3	23.3	-91.3	8.6
2025-01-22 13:04:58.586724	306.0	23.2	-91.0	8.0
2025-01-22 13:04:59.735696	305.7	23.1	-91.4	6.3
2025-01-22 13:05:00.882259	305.5	23.0	-90.9	6.6
2025-01-22 13:05:02.029578	305.2	23.0	-91.1	5.6
2025-01-22 13:05:03.176289	305.0	22.9	-90.9	16.6
2025-01-22 13:05:04.330112	304.7	22.8	-91.1	7.5
2025-01-22 13:05:05.475282	304.4	22.7	-91.1	7.3
2025-01-22 13:05:06.634331	304.2	22.6	-91.0	12.8
2025-01-22 13:05:07.784617	303.9	22.5	-91.1	7.9
2025-01-22 13:05:08.938358	303.7	22.4	-91.1	6.5
2025-01-22 13:05:10.087611	303.4	22.3	-90.5	6.2
2025-01-22 13:05:11.237465	303.2	22.2	-89.6	7.5
2025-01-22 13:05:12.388737	302.9	22.1	-89.9	5.0
2025-01-22 13:05:13.535011	302.7	22.0	-90.3	2.1
2025-01-22 13:05:14.683802	302.5	21.9	-90.1	6.1
2025-01-22 13:05:15.832091	302.2	21.8	-89.9	12.2
2025-01-22 13:05:16.986570	302.0	21.7	-89.9	10.0
2025-01-22 13:05:18.133338	301.7	21.6	-90.8	14.6
2025-01-22 13:05:19.285109	301.5	21.6	-89.9	7.2
2025-01-22 13:05:20.443662	301.2	21.5	-90.2	14.6
2025-01-22 13:05:21.597254	301.0	21.4	-90.1	13.4
2025-01-22 13:05:22.747600	300.8	21.3	-89.9	7.3
2025-01-22 13:05:23.895730	300.5	21.2	-89.7	4.7
2025-01-22 13:05:25.046620	300.3	21.1	-89.8	7.9
2025-01-22 13:05:26.199713	300.1	21.0	-91.1	4.8
2025-01-22 13:05:27.355570	299.9	20.9	-91.1	6.7
2025-01-22 13:05:28.505183	299.6	20.8	-91.2	4.9
2025-01-22 13:05:29.655486	299.4	20.7	-91.5	13.0
2025-01-22 13:05:30.804414	299.2	20.6	-91.5	5.5
2025-01-22 13:05:31.961741	299.0	20.5	-91.1	5.4
2025-01-22 13:05:33.107634	298.7	20.4	-90.9	2.9
2025-01-22 13:05:34.261444	298.5	20.3	-90.7	5.5
2025-01-22 13:05:35.412421	298.3	20.2	-91.2	4.9
2025-01-22 13:05:36.560714	298.1	20.1	-91.2	6.1
2025-01-22 13:05:37.712199	297.9	20.0	-91.2	5.2
2025-01-22 13:05:38.859570	297.6	19.9	-91.2	6.2
2025-01-22 13:05:40.011702	297.4	19.8	-90.9	5.3
2025-01-22 13:05:41.156577	297.2	19.7	-91.0	3.8
2025-01-22 13:05:42.309473	297.0	19.6	-90.3	2.8
2025-01-22 13:05:43.462967	296.8	19.5	-91.0	6.5
2025-01-22 13:05:44.615212	296.6	19.4	-91.1	7.2
2025-01-22 13:05:45.766189	296.4	19.3	-91.1	5.9
2025-01-22 13:05:46.922317	296.2	19.2	-91.4	6.0
2025-01-22 13:05:48.073003	296.0	19.1	-91.1	5.8
2025-01-22 13:05:49.220816	295.8	19.0	-90.7	7.5
2025-01-22 13:05:50.373381	295.6	18.9	-91.3	3.7
2025-01-22 13:05:51.525130	295.4	18.8	-91.3	4.8
2025-01-22 13:05:52.674739	295.2	18.7	-91.3	6.4
2025-01-22 13:05:53.823427	295.0	18.6	-89.9	7.0
2025-01-22 13:05:54.980735	294.8	18.6	-89.8	5.5
2025-01-22 13:05:56.135514	294.6	18.5	-89.9	5.4
2025-01-22 13:05:57.285899	294.4	18.4	-89.9	6.9
2025-01-22 13:05:58.437225	294.2	18.3	-89.2	4.4
2025-01-22 13:05:59.588787	294.0	18.2	-90.3	5.4
2025-01-22 13:06:00.740259	293.8	18.1	-90.1	8.5
2025-01-22 13:06:01.890972	293.6	18.0	-90.1	6.7
2025-01-22 13:06:03.046988	293.4	17.9	-90.0	5.3
2025-01-22 13:06:04.194784	293.3	17.8	-90.0	8.1
2025-01-22 13:06:05.346602	293.1	17.7	-90.0	7.4
2025-01-22 13:06:06.504183	292.9	17.6	-90.3	10.2
2025-01-22 13:06:07.657084	292.7	17.5	-89.8	11.5
2025-01-22 13:06:08.811136	292.5	17.4	-89.8	5.6
2025-01-22 13:06:09.962300	292.3	17.3	-89.6	5.8
2025-01-22 13:06:11.115648	292.2	17.2	-90.3	7.7
2025-01-22 13:06:12.264234	292.0	17.1	-89.1	7.9
2025-01-22 13:06:13.412821	291.8	17.0	-90.1	7.4
2025-01-22 13:06:14.568086	291.6	16.9	-90.9	6.4
2025-01-22 13:06:15.713172	291.5	16.8	-89.9	6.2
2025-01-22 13:06:16.865803	291.3	16.7	-89.7	3.3
2025-01-22 13:06:18.024191	291.1	16.6	-90.0	5.5
2025-01-22 13:06:19.172604	290.9	16.5	-89.6	5.4
2025-01-22 13:06:20.322594	290.8	16.4	-89.7	5.4
2025-01-22 13:06:21.460188	290.6	16.3	-90.4	4.2
2025-01-22 13:06:22.611105	290.4	16.2	-90.0	8.9
2025-01-22 13:06:23.759629	290.3	16.1	-90.0	7.6
2025-01-22 13:06:24.906563	290.1	16.0	-90.2	6.6
2025-01-22 13:06:26.052733	289.9	16.0	-89.1	4.6
2025-01-22 13:06:27.202539	289.8	15.9	-90.5	5.3
2025-01-22 13:06:28.349388	289.6	15.8	-90.8	9.3
2025-01-22 13:06:29.508606	289.4	15.7	-90.0	9.5
2025-01-22 13:06:30.664956	289.3	15.6	-89.9	11.5
2025-01-22 13:06:31.817087	289.1	15.5	-90.3	5.4
2025-01-22 13:06:32.978610	289.0	15.4	-90.0	5.9
2025-01-22 13:06:34.137663	288.8	15.3	-89.6	9.1
2025-01-22 13:06:35.285956	288.7	15.2	-89.9	6.6
2025-01-22 13:06:36.433856	288.5	15.1	-91.3	7.7
2025-01-22 13:06:37.588279	288.3	15.0	-91.5	4.3
2025-01-22 13:06:38.738233	288.2	14.9	-91.5	6.7
2025-01-22 13:06:39.886035	288.0	14.8	-91.1	4.6
2025-01-22 13:06:41.034404	287.9	14.7	-91.1	4.3
2025-01-22 13:06:42.184653	287.7	14.6	-91.4	4.7
2025-01-22 13:06:43.336750	287.6	14.5	-91.4	4.7
#Closed at: 2025-01-22 12:59:39.381492