passes_logs/2025/01/22/LEX_Murmansk/LEX_Murmansk__20250122_143930_NOAA_18_rec.log

#Pass ID: 20250122_143930_NOAA 18
#Satellite: NOAA 18
#Configuration: NOAA 18
#Start time: 2025-01-22 14:39:25.217732

#LorettStation: 1.0.0 05.05.2024
#Station: LEX_Murmansk
#Location: 33.156738 lon 68.926811 lat
#TLE: 1 28654U 05018A   25022.24143052  .00000458  00000+0  26647-3 0  9995
#TLE: 2 28654  98.8556 103.2235 0014680 159.1096 201.0679 14.13493787 14203

#Time	Az	El	Level	SNR
2025-01-22 14:39:37.396099	43.0	15.9	-88.3	7.4
2025-01-22 14:39:38.556620	42.8	16.0	-88.0	4.5
2025-01-22 14:39:39.716528	42.6	16.0	-87.6	4.7
2025-01-22 14:39:40.870817	42.4	16.1	-88.7	4.8
2025-01-22 14:39:42.027291	42.2	16.2	-88.7	6.2
2025-01-22 14:39:43.181057	42.0	16.3	-87.6	3.7
2025-01-22 14:39:44.342942	41.9	16.4	-88.3	4.4
2025-01-22 14:39:45.495297	41.7	16.4	-88.6	5.2
2025-01-22 14:39:46.658846	41.5	16.5	-88.7	6.6
2025-01-22 14:39:47.814821	41.3	16.6	-88.2	4.4
2025-01-22 14:39:48.971662	41.1	16.7	-89.7	7.2
2025-01-22 14:39:50.122933	40.9	16.8	-89.5	3.4
2025-01-22 14:39:51.280080	40.7	16.9	-89.8	5.4
2025-01-22 14:39:52.432795	40.5	16.9	-90.4	5.7
2025-01-22 14:39:53.586153	40.3	17.0	-90.6	4.0
2025-01-22 14:39:54.736701	40.1	17.1	-90.7	5.5
2025-01-22 14:39:55.901924	39.9	17.2	-90.7	7.0
2025-01-22 14:39:57.052922	39.7	17.3	-90.1	6.2
2025-01-22 14:39:58.213115	39.5	17.3	-88.5	3.2
2025-01-22 14:39:59.373024	39.3	17.4	-90.4	7.0
2025-01-22 14:40:00.526577	39.1	17.5	-90.1	4.6
2025-01-22 14:40:01.672602	38.8	17.6	-88.9	6.2
2025-01-22 14:40:02.836367	38.6	17.7	-89.9	6.5
2025-01-22 14:40:03.987336	38.4	17.7	-90.2	6.2
2025-01-22 14:40:05.143352	38.2	17.8	-89.1	7.7
2025-01-22 14:40:06.306115	38.0	17.9	-89.8	7.3
2025-01-22 14:40:07.463450	37.8	18.0	-90.6	6.9
2025-01-22 14:40:08.617443	37.6	18.1	-90.3	6.6
2025-01-22 14:40:09.769302	37.3	18.1	-90.6	8.1
2025-01-22 14:40:10.925747	37.1	18.2	-90.6	7.3
2025-01-22 14:40:12.081296	36.9	18.3	-89.9	8.5
2025-01-22 14:40:13.237036	36.7	18.4	-90.1	8.9
2025-01-22 14:40:14.383001	36.5	18.5	-90.4	5.5
2025-01-22 14:40:15.538206	36.3	18.5	-90.1	5.3
2025-01-22 14:40:16.694284	36.0	18.6	-90.8	6.7
2025-01-22 14:40:17.851107	35.8	18.7	-90.4	5.6
2025-01-22 14:40:19.008073	35.6	18.8	-90.3	6.5
2025-01-22 14:40:20.163395	35.3	18.9	-89.7	6.0
2025-01-22 14:40:21.314072	35.1	18.9	-89.9	5.6
2025-01-22 14:40:22.473818	34.9	19.0	-90.3	6.5
2025-01-22 14:40:23.631576	34.7	19.1	-90.1	4.8
2025-01-22 14:40:24.801583	34.4	19.2	-90.4	9.5
2025-01-22 14:40:25.975274	34.2	19.2	-90.3	4.9
2025-01-22 14:40:27.131966	34.0	19.3	-90.0	9.4
2025-01-22 14:40:28.288651	33.7	19.4	-90.1	8.8
2025-01-22 14:40:29.435570	33.5	19.5	-89.9	6.8
2025-01-22 14:40:30.582571	33.2	19.5	-90.2	7.3
2025-01-22 14:40:31.732687	33.0	19.6	-90.0	10.5
2025-01-22 14:40:32.879417	32.8	19.7	-90.5	10.0
2025-01-22 14:40:34.039461	32.5	19.8	-90.1	7.9
2025-01-22 14:40:35.191952	32.3	19.8	-90.0	8.9
2025-01-22 14:40:36.347436	32.0	19.9	-88.8	9.1
2025-01-22 14:40:37.501781	31.8	20.0	-88.8	7.8
2025-01-22 14:40:38.656887	31.6	20.1	-89.1	7.3
2025-01-22 14:40:39.808328	31.3	20.1	-89.2	8.2
2025-01-22 14:40:40.966824	31.1	20.2	-89.5	8.3
2025-01-22 14:40:42.123187	30.8	20.3	-88.8	8.7
2025-01-22 14:40:43.287549	30.6	20.3	-89.1	10.3
2025-01-22 14:40:44.445661	30.3	20.4	-88.9	9.7
2025-01-22 14:40:45.607647	30.0	20.5	-88.9	11.0
2025-01-22 14:40:46.765203	29.8	20.6	-89.2	11.9
2025-01-22 14:40:47.926430	29.5	20.6	-89.1	10.6
2025-01-22 14:40:49.073103	29.3	20.7	-88.9	12.5
2025-01-22 14:40:50.232409	29.0	20.8	-88.7	13.0
2025-01-22 14:40:51.386137	28.8	20.8	-89.8	8.3
2025-01-22 14:40:52.536759	28.5	20.9	-90.0	7.4
2025-01-22 14:40:53.699764	28.2	21.0	-90.0	9.8
2025-01-22 14:40:54.862896	28.0	21.0	-89.9	10.7
2025-01-22 14:40:56.015274	27.7	21.1	-89.7	7.4
2025-01-22 14:40:57.168320	27.5	21.2	-89.8	8.8
2025-01-22 14:40:58.326159	27.2	21.2	-89.7	12.6
2025-01-22 14:40:59.482206	26.9	21.3	-89.9	10.4
2025-01-22 14:41:00.636804	26.7	21.4	-90.4	13.5
2025-01-22 14:41:01.787655	26.4	21.4	-90.2	11.9
2025-01-22 14:41:02.937830	26.1	21.5	-90.1	11.3
2025-01-22 14:41:04.092674	25.8	21.6	-90.1	12.0
2025-01-22 14:41:05.244958	25.6	21.6	-90.5	13.4
2025-01-22 14:41:06.392953	25.3	21.7	-89.8	7.2
2025-01-22 14:41:07.548523	25.0	21.7	-89.4	10.0
2025-01-22 14:41:08.719960	24.7	21.8	-89.3	11.5
2025-01-22 14:41:09.880768	24.5	21.9	-90.3	9.4
2025-01-22 14:41:11.035449	24.2	21.9	-90.1	10.1
2025-01-22 14:41:12.188297	23.9	22.0	-89.3	12.4
2025-01-22 14:41:13.348539	23.6	22.0	-90.3	13.7
2025-01-22 14:41:14.513976	23.3	22.1	-90.6	15.0
2025-01-22 14:41:15.663599	23.1	22.2	-90.3	14.8
2025-01-22 14:41:16.822684	22.8	22.2	-90.9	13.4
2025-01-22 14:41:17.981708	22.5	22.3	-90.2	11.6
2025-01-22 14:41:19.140611	22.2	22.3	-89.7	10.0
2025-01-22 14:41:20.297858	21.9	22.4	-89.0	12.0
2025-01-22 14:41:21.452741	21.6	22.4	-90.3	8.4
2025-01-22 14:41:22.611381	21.3	22.5	-90.8	10.4
2025-01-22 14:41:23.766986	21.1	22.6	-90.4	11.1
2025-01-22 14:41:24.921878	20.8	22.6	-88.9	7.6
2025-01-22 14:41:26.085077	20.5	22.7	-89.6	5.8
2025-01-22 14:41:27.229982	20.2	22.7	-89.8	11.6
2025-01-22 14:41:28.383439	19.9	22.8	-90.0	7.9
2025-01-22 14:41:29.535063	19.6	22.8	-90.4	8.0
2025-01-22 14:41:30.694528	19.3	22.9	-90.7	12.2
2025-01-22 14:41:31.845177	19.0	22.9	-90.6	11.6
2025-01-22 14:41:32.991486	18.7	23.0	-90.5	12.5
2025-01-22 14:41:34.143737	18.4	23.0	-90.3	13.4
2025-01-22 14:41:35.305889	18.1	23.0	-90.4	12.4
2025-01-22 14:41:36.451075	17.8	23.1	-90.6	13.1
2025-01-22 14:41:37.604682	17.5	23.1	-90.6	14.2
2025-01-22 14:41:38.756343	17.2	23.2	-90.4	12.7
2025-01-22 14:41:39.913251	16.9	23.2	-90.5	9.8
2025-01-22 14:41:41.068707	16.6	23.3	-90.4	8.1
2025-01-22 14:41:42.223768	16.3	23.3	-90.1	11.4
2025-01-22 14:41:43.380912	16.0	23.3	-90.2	7.6
2025-01-22 14:41:44.540829	15.7	23.4	-90.4	7.5
2025-01-22 14:41:45.688462	15.4	23.4	-91.0	11.2
2025-01-22 14:41:46.844343	15.1	23.5	-91.0	9.8
2025-01-22 14:41:47.993089	14.8	23.5	-90.6	9.4
2025-01-22 14:41:49.148724	14.5	23.5	-90.5	11.5
2025-01-22 14:41:50.303141	14.1	23.6	-90.3	11.7
2025-01-22 14:41:51.456267	13.8	23.6	-91.0	10.5
2025-01-22 14:41:52.616766	13.5	23.6	-90.8	12.4
2025-01-22 14:41:53.786716	13.2	23.7	-90.6	12.0
2025-01-22 14:41:54.943332	12.9	23.7	-90.4	12.8
2025-01-22 14:41:56.099277	12.6	23.7	-90.4	12.1
2025-01-22 14:41:57.248352	12.3	23.8	-90.2	13.0
2025-01-22 14:41:58.405294	12.0	23.8	-90.2	9.6
2025-01-22 14:41:59.560884	11.6	23.8	-89.7	9.2
2025-01-22 14:42:00.713365	11.3	23.8	-90.2	10.5
2025-01-22 14:42:01.872403	11.0	23.9	-90.0	7.2
2025-01-22 14:42:03.029562	10.7	23.9	-88.8	6.5
2025-01-22 14:42:04.192803	10.4	23.9	-88.0	9.1
2025-01-22 14:42:05.348202	10.1	23.9	-86.7	9.8
2025-01-22 14:42:06.508098	9.7	24.0	-86.4	5.1
2025-01-22 14:42:07.664890	9.4	24.0	-86.7	9.8
2025-01-22 14:42:08.818413	9.1	24.0	-87.7	10.6
2025-01-22 14:42:09.973216	8.8	24.0	-87.5	5.5
2025-01-22 14:42:11.126974	8.5	24.0	-88.4	9.3
2025-01-22 14:42:12.280514	8.1	24.1	-88.4	12.4
2025-01-22 14:42:13.438832	7.8	24.1	-89.4	9.7
2025-01-22 14:42:14.593137	7.5	24.1	-89.6	11.2
2025-01-22 14:42:15.750320	7.2	24.1	-89.6	12.9
2025-01-22 14:42:16.908282	6.9	24.1	-89.8	12.9
2025-01-22 14:42:18.056834	6.5	24.1	-89.7	13.4
2025-01-22 14:42:19.209342	6.2	24.2	-89.3	13.8
2025-01-22 14:42:20.358404	5.9	24.2	-89.2	11.2
2025-01-22 14:42:21.517359	5.6	24.2	-89.2	10.9
2025-01-22 14:42:22.669770	5.3	24.2	-89.6	13.4
2025-01-22 14:42:23.832764	4.9	24.2	-87.1	14.1
2025-01-22 14:42:24.992481	4.6	24.2	-89.7	10.9
2025-01-22 14:42:26.147109	4.3	24.2	-89.0	12.7
2025-01-22 14:42:27.302473	4.0	24.2	-89.1	9.5
2025-01-22 14:42:28.453903	3.6	24.2	-88.7	10.1
2025-01-22 14:42:29.608063	3.3	24.2	-89.3	13.0
2025-01-22 14:42:30.768339	3.0	24.2	-89.3	13.6
2025-01-22 14:42:31.916666	2.7	24.2	-89.4	9.9
2025-01-22 14:42:33.059794	2.3	24.2	-87.4	7.2
2025-01-22 14:42:34.213442	2.0	24.2	-89.2	9.3
2025-01-22 14:42:35.368760	1.7	24.2	-89.5	8.2
2025-01-22 14:42:36.522369	1.4	24.2	-89.6	8.3
2025-01-22 14:42:37.682142	1.1	24.2	-90.6	11.4
2025-01-22 14:42:38.848352	0.7	24.2	-90.3	10.2
2025-01-22 14:42:40.009730	0.4	24.2	-90.1	9.7
2025-01-22 14:42:41.165867	0.1	24.2	-89.7	12.0
2025-01-22 14:42:42.319229	359.8	24.2	-89.0	9.1
2025-01-22 14:42:43.473278	359.4	24.2	-89.2	8.4
2025-01-22 14:42:44.632849	359.1	24.2	-88.9	9.7
2025-01-22 14:42:45.787664	358.8	24.2	-89.4	12.0
2025-01-22 14:42:46.945130	358.5	24.1	-89.0	10.1
2025-01-22 14:42:48.103371	358.1	24.1	-88.6	8.4
2025-01-22 14:42:49.254750	357.8	24.1	-88.9	13.6
2025-01-22 14:42:50.415092	357.5	24.1	-88.9	10.0
2025-01-22 14:42:51.570185	357.2	24.1	-88.9	9.0
2025-01-22 14:42:52.722829	356.9	24.1	-86.6	11.3
2025-01-22 14:42:53.876579	356.5	24.1	-86.5	11.6
2025-01-22 14:42:55.034385	356.2	24.0	-86.8	10.0
2025-01-22 14:42:56.183532	355.9	24.0	-88.5	13.6
2025-01-22 14:42:57.337339	355.6	24.0	-89.1	9.4
2025-01-22 14:42:58.486406	355.3	24.0	-89.8	10.4
2025-01-22 14:42:59.640031	355.0	23.9	-90.5	11.8
2025-01-22 14:43:00.792231	354.6	23.9	-89.6	13.2
2025-01-22 14:43:01.953988	354.3	23.9	-89.9	14.6
2025-01-22 14:43:03.109785	354.0	23.9	-89.0	13.8
2025-01-22 14:43:04.259292	353.7	23.8	-89.4	10.6
2025-01-22 14:43:05.420136	353.4	23.8	-90.0	12.1
2025-01-22 14:43:06.569741	353.1	23.8	-90.0	9.2
2025-01-22 14:43:07.712569	352.7	23.8	-89.1	12.2
2025-01-22 14:43:08.870981	352.4	23.7	-89.8	11.2
2025-01-22 14:43:10.027904	352.1	23.7	-89.7	16.1
2025-01-22 14:43:11.185374	351.8	23.7	-89.7	14.3
2025-01-22 14:43:12.337231	351.5	23.6	-89.8	12.9
2025-01-22 14:43:13.489797	351.2	23.6	-90.2	10.0
2025-01-22 14:43:14.646772	350.9	23.6	-89.9	11.0
2025-01-22 14:43:15.799810	350.6	23.5	-90.5	13.0
2025-01-22 14:43:16.950256	350.2	23.5	-89.9	13.0
2025-01-22 14:43:18.116429	349.9	23.5	-89.9	12.8
2025-01-22 14:43:19.277814	349.6	23.4	-90.2	13.5
2025-01-22 14:43:20.437763	349.3	23.4	-89.9	10.0
2025-01-22 14:43:21.587502	349.0	23.4	-89.3	13.8
2025-01-22 14:43:22.743472	348.7	23.3	-90.0	13.1
2025-01-22 14:43:23.889840	348.4	23.3	-90.5	10.0
2025-01-22 14:43:25.044799	348.1	23.2	-90.5	9.0
2025-01-22 14:43:26.201479	347.8	23.2	-90.0	10.2
2025-01-22 14:43:27.357672	347.5	23.1	-90.2	10.7
2025-01-22 14:43:28.520038	347.2	23.1	-90.3	11.9
2025-01-22 14:43:29.683913	346.9	23.1	-90.6	7.9
2025-01-22 14:43:30.833773	346.6	23.0	-90.5	8.0
2025-01-22 14:43:31.987287	346.3	23.0	-90.6	8.5
2025-01-22 14:43:33.142658	346.0	22.9	-90.3	11.0
2025-01-22 14:43:34.302599	345.7	22.9	-89.4	12.1
2025-01-22 14:43:35.456710	345.4	22.8	-88.8	8.3
2025-01-22 14:43:36.619236	345.1	22.8	-90.1	8.2
2025-01-22 14:43:37.770122	344.8	22.7	-89.3	10.1
2025-01-22 14:43:38.929506	344.5	22.7	-87.8	10.1
2025-01-22 14:43:40.089963	344.2	22.6	-89.8	10.2
2025-01-22 14:43:41.250672	343.9	22.6	-89.7	11.2
2025-01-22 14:43:42.398312	343.6	22.5	-90.4	11.9
2025-01-22 14:43:43.548338	343.3	22.5	-90.5	11.5
2025-01-22 14:43:44.712750	343.1	22.4	-90.2	11.2
2025-01-22 14:43:45.878464	342.8	22.3	-90.1	13.0
2025-01-22 14:43:47.025843	342.5	22.3	-90.7	15.0
2025-01-22 14:43:48.187524	342.2	22.2	-90.5	13.3
2025-01-22 14:43:49.344633	341.9	22.2	-90.5	14.3
2025-01-22 14:43:50.508058	341.6	22.1	-91.0	13.5
2025-01-22 14:43:51.671279	341.3	22.1	-91.2	11.4
2025-01-22 14:43:52.824551	341.1	22.0	-91.1	9.9
2025-01-22 14:43:53.978270	340.8	21.9	-91.0	9.9
2025-01-22 14:43:55.134598	340.5	21.9	-90.7	11.9
2025-01-22 14:43:56.292006	340.2	21.8	-89.9	14.4
2025-01-22 14:43:57.446123	339.9	21.8	-90.8	10.9
2025-01-22 14:43:58.607531	339.7	21.7	-91.0	12.8
2025-01-22 14:43:59.768839	339.4	21.6	-90.9	14.0
2025-01-22 14:44:00.927438	339.1	21.6	-91.2	11.1
2025-01-22 14:44:02.085879	338.8	21.5	-90.5	11.0
2025-01-22 14:44:03.249348	338.6	21.4	-90.8	13.8
2025-01-22 14:44:04.403565	338.3	21.4	-90.6	12.1
2025-01-22 14:44:05.563188	338.0	21.3	-90.6	13.0
2025-01-22 14:44:06.718576	337.8	21.2	-90.6	12.8
2025-01-22 14:44:07.874848	337.5	21.2	-91.1	7.9
2025-01-22 14:44:09.031248	337.2	21.1	-90.9	4.9
2025-01-22 14:44:10.188729	337.0	21.0	-90.4	5.1
2025-01-22 14:44:11.346413	336.7	21.0	-90.4	11.7
2025-01-22 14:44:12.507980	336.4	20.9	-90.6	10.0
2025-01-22 14:44:13.660161	336.2	20.8	-91.0	10.6
2025-01-22 14:44:14.818218	335.9	20.8	-91.1	7.5
2025-01-22 14:44:15.977473	335.7	20.7	-90.9	6.5
2025-01-22 14:44:17.132096	335.4	20.6	-91.0	6.5
2025-01-22 14:44:18.284296	335.1	20.6	-90.9	7.5
2025-01-22 14:44:19.440003	334.9	20.5	-90.5	4.8
2025-01-22 14:44:20.597472	334.6	20.4	-91.1	4.1
2025-01-22 14:44:21.755455	334.4	20.3	-90.6	7.0
2025-01-22 14:44:22.903820	334.1	20.3	-90.6	4.9
2025-01-22 14:44:24.059253	333.9	20.2	-91.0	6.4
2025-01-22 14:44:25.215009	333.6	20.1	-90.8	5.7
2025-01-22 14:44:26.366362	333.4	20.1	-91.1	5.4
2025-01-22 14:44:27.525067	333.1	20.0	-90.9	6.9
2025-01-22 14:44:28.687936	332.9	19.9	-90.5	7.3
2025-01-22 14:44:29.835703	332.6	19.8	-90.8	5.3
2025-01-22 14:44:30.995893	332.4	19.8	-90.8	5.4
2025-01-22 14:44:32.143401	332.2	19.7	-90.6	6.2
2025-01-22 14:44:33.298579	331.9	19.6	-90.2	5.7
2025-01-22 14:44:34.456503	331.7	19.5	-90.5	4.3
2025-01-22 14:44:35.612019	331.4	19.5	-90.8	6.3
2025-01-22 14:44:36.769407	331.2	19.4	-90.5	7.4
2025-01-22 14:44:37.932197	331.0	19.3	-90.4	5.2
2025-01-22 14:44:39.091736	330.7	19.2	-90.5	6.4
2025-01-22 14:44:40.258982	330.5	19.2	-90.3	5.6
2025-01-22 14:44:41.414752	330.3	19.1	-90.5	6.9
2025-01-22 14:44:42.564503	330.0	19.0	-90.6	2.9
2025-01-22 14:44:43.720235	329.8	18.9	-90.7	6.3
2025-01-22 14:44:44.869120	329.6	18.8	-90.5	7.2
2025-01-22 14:44:46.029609	329.3	18.8	-90.7	5.4
2025-01-22 14:44:47.187199	329.1	18.7	-90.8	4.9
2025-01-22 14:44:48.351056	328.9	18.6	-90.8	3.2
2025-01-22 14:44:49.502179	328.7	18.5	-91.0	5.4
2025-01-22 14:44:50.661103	328.4	18.5	-90.9	4.9
2025-01-22 14:44:51.812955	328.2	18.4	-90.7	5.7
2025-01-22 14:44:52.950603	328.0	18.3	-90.9	5.4
2025-01-22 14:44:54.103845	327.8	18.2	-90.6	5.2
2025-01-22 14:44:55.260020	327.6	18.1	-90.6	4.6
2025-01-22 14:44:56.409058	327.3	18.1	-90.8	5.9
2025-01-22 14:44:57.563948	327.1	18.0	-90.9	5.1
2025-01-22 14:44:58.724196	326.9	17.9	-90.8	8.2
2025-01-22 14:44:59.873875	326.7	17.8	-90.8	5.6
2025-01-22 14:45:01.022873	326.5	17.7	-91.1	5.4
2025-01-22 14:45:02.185673	326.3	17.7	-90.7	4.5
2025-01-22 14:45:03.341817	326.1	17.6	-90.8	5.0
2025-01-22 14:45:04.494830	325.8	17.5	-90.9	3.6
2025-01-22 14:45:05.643916	325.6	17.4	-90.7	4.1
2025-01-22 14:45:06.789398	325.4	17.3	-91.2	3.4
2025-01-22 14:45:07.944610	325.2	17.3	-91.2	4.3
2025-01-22 14:45:09.097132	325.0	17.2	-90.9	2.4
2025-01-22 14:45:10.252494	324.8	17.1	-90.8	5.2
2025-01-22 14:45:11.415864	324.6	17.0	-90.9	5.4
2025-01-22 14:45:12.567468	324.4	16.9	-91.0	5.8
2025-01-22 14:45:13.725971	324.2	16.8	-91.1	8.0
2025-01-22 14:45:14.883975	324.0	16.8	-90.7	7.4
2025-01-22 14:45:16.041564	323.8	16.7	-90.6	5.3
2025-01-22 14:45:17.197710	323.6	16.6	-90.5	6.9
2025-01-22 14:45:18.357894	323.4	16.5	-90.1	6.3
2025-01-22 14:45:19.512121	323.2	16.4	-90.8	6.9
2025-01-22 14:45:20.673050	323.0	16.3	-90.6	9.6
2025-01-22 14:45:21.823043	322.8	16.3	-90.7	9.3
2025-01-22 14:45:22.982779	322.6	16.2	-91.0	7.1
2025-01-22 14:45:24.136920	322.5	16.1	-90.4	8.9
2025-01-22 14:45:25.299013	322.3	16.0	-90.4	5.8
2025-01-22 14:45:26.456189	322.1	15.9	-90.9	5.2
2025-01-22 14:45:27.608659	321.9	15.9	-90.5	7.6
2025-01-22 14:45:28.764053	321.7	15.8	-90.8	6.4
2025-01-22 14:45:29.925017	321.5	15.7	-91.0	3.2
2025-01-22 14:45:31.082741	321.3	15.6	-90.8	6.2
2025-01-22 14:45:32.233115	321.1	15.5	-90.3	4.7
2025-01-22 14:45:33.380164	321.0	15.4	-90.6	6.7
2025-01-22 14:45:34.542568	320.8	15.4	-91.0	5.4
2025-01-22 14:45:35.686275	320.6	15.3	-91.0	10.1
2025-01-22 14:45:36.848643	320.4	15.2	-91.2	8.4
2025-01-22 14:45:37.996448	320.2	15.1	-90.9	7.5
2025-01-22 14:45:39.147980	320.1	15.0	-90.3	7.1
2025-01-22 14:45:40.299398	319.9	14.9	-90.6	11.4
2025-01-22 14:45:41.455414	319.7	14.9	-90.7	8.6
2025-01-22 14:45:42.615768	319.5	14.8	-90.6	7.4
2025-01-22 14:45:43.764594	319.4	14.7	-91.0	7.0
2025-01-22 14:45:44.972611	319.2	14.6	-90.5	8.3
#Closed at: 2025-01-22 14:39:30.224424