passes_logs/2025/01/22/LEX_Murmansk/LEX_Murmansk__20250122_212129_NOAA_18_rec.log

#Pass ID: 20250122_212129_NOAA 18
#Satellite: NOAA 18
#Configuration: NOAA 18
#Start time: 2025-01-22 21:21:25.053037

#LorettStation: 1.0.0 05.05.2024
#Station: LEX_Murmansk
#Location: 33.156738 lon 68.926811 lat
#TLE: 1 28654U 05018A   25022.24143052  .00000458  00000+0  26647-3 0  9995
#TLE: 2 28654  98.8556 103.2235 0014680 159.1096 201.0679 14.13493787 14203

#Time	Az	El	Level	SNR
2025-01-22 21:21:37.209127	238.5	15.8	-91.8	14.5
2025-01-22 21:21:38.355222	238.7	15.9	-92.1	11.5
2025-01-22 21:21:39.499949	238.9	15.9	-92.4	8.7
2025-01-22 21:21:40.643541	239.1	16.0	-92.4	9.6
2025-01-22 21:21:41.793353	239.3	16.1	-92.4	12.0
2025-01-22 21:21:42.940331	239.5	16.2	-92.5	10.9
2025-01-22 21:21:44.088020	239.7	16.2	-92.0	11.8
2025-01-22 21:21:45.236544	239.9	16.3	-92.1	13.2
2025-01-22 21:21:46.385510	240.1	16.4	-92.6	14.4
2025-01-22 21:21:47.535071	240.3	16.5	-92.4	11.7
2025-01-22 21:21:48.681314	240.5	16.5	-92.5	10.5
2025-01-22 21:21:49.830788	240.7	16.6	-92.9	8.8
2025-01-22 21:21:50.978715	240.9	16.7	-92.4	3.7
2025-01-22 21:21:52.122691	241.1	16.7	-92.4	7.3
2025-01-22 21:21:53.271706	241.4	16.8	-92.5	6.9
2025-01-22 21:21:54.416171	241.6	16.9	-92.6	5.8
2025-01-22 21:21:55.566747	241.8	17.0	-92.4	7.5
2025-01-22 21:21:56.711842	242.0	17.0	-92.7	10.7
2025-01-22 21:21:57.861327	242.2	17.1	-92.2	8.2
2025-01-22 21:21:58.992616	242.4	17.2	-92.5	6.1
2025-01-22 21:22:00.113073	242.6	17.2	-92.3	7.7
2025-01-22 21:22:01.233277	242.8	17.3	-92.4	8.1
2025-01-22 21:22:02.354586	243.0	17.4	-92.4	7.2
2025-01-22 21:22:03.475489	243.3	17.5	-92.7	9.0
2025-01-22 21:22:04.595953	243.5	17.5	-92.4	7.7
2025-01-22 21:22:05.717388	243.7	17.6	-92.4	9.8
2025-01-22 21:22:06.837782	243.9	17.7	-92.8	13.3
2025-01-22 21:22:07.962447	244.1	17.7	-92.7	10.4
2025-01-22 21:22:09.089489	244.3	17.8	-92.0	11.0
2025-01-22 21:22:10.236815	244.6	17.9	-92.3	14.4
2025-01-22 21:22:11.388111	244.8	17.9	-92.7	14.3
2025-01-22 21:22:12.542754	245.0	18.0	-92.7	11.7
2025-01-22 21:22:13.683188	245.2	18.1	-92.6	12.5
2025-01-22 21:22:14.833961	245.5	18.1	-92.9	11.6
2025-01-22 21:22:15.982633	245.7	18.2	-92.5	4.1
2025-01-22 21:22:17.134242	245.9	18.3	-92.3	6.7
2025-01-22 21:22:18.279414	246.2	18.3	-92.2	10.7
2025-01-22 21:22:19.425955	246.4	18.4	-92.9	6.4
2025-01-22 21:22:20.576482	246.6	18.5	-92.3	6.5
2025-01-22 21:22:21.723903	246.9	18.6	-92.5	12.7
2025-01-22 21:22:22.870956	247.1	18.6	-92.9	13.2
2025-01-22 21:22:24.015079	247.3	18.7	-92.9	9.8
2025-01-22 21:22:25.162763	247.6	18.8	-92.3	13.6
2025-01-22 21:22:26.304334	247.8	18.8	-92.5	11.8
2025-01-22 21:22:27.431861	248.0	18.9	-92.8	10.5
2025-01-22 21:22:28.575761	248.3	18.9	-92.4	9.3
2025-01-22 21:22:29.716339	248.5	19.0	-92.5	10.1
2025-01-22 21:22:30.855195	248.8	19.1	-92.5	8.3
2025-01-22 21:22:32.000833	249.0	19.1	-92.5	6.4
2025-01-22 21:22:33.143324	249.3	19.2	-92.4	8.7
2025-01-22 21:22:34.296892	249.5	19.3	-92.0	6.3
2025-01-22 21:22:35.441000	249.7	19.3	-92.7	4.2
2025-01-22 21:22:36.592874	250.0	19.4	-92.6	9.4
2025-01-22 21:22:37.743708	250.2	19.5	-92.8	5.2
2025-01-22 21:22:38.890941	250.5	19.5	-93.0	4.5
2025-01-22 21:22:40.042979	250.7	19.6	-92.5	2.2
2025-01-22 21:22:41.188293	251.0	19.6	-92.6	4.0
2025-01-22 21:22:42.336388	251.2	19.7	-92.4	4.9
2025-01-22 21:22:43.493689	251.5	19.8	-92.7	4.9
2025-01-22 21:22:44.639944	251.8	19.8	-92.5	8.1
2025-01-22 21:22:45.786809	252.0	19.9	-92.6	4.8
2025-01-22 21:22:46.935733	252.3	19.9	-92.9	5.7
2025-01-22 21:22:48.082582	252.5	20.0	-92.3	3.4
2025-01-22 21:22:49.236515	252.8	20.1	-92.5	7.5
2025-01-22 21:22:50.380203	253.0	20.1	-92.7	4.8
2025-01-22 21:22:51.525591	253.3	20.2	-92.7	5.5
2025-01-22 21:22:52.680214	253.6	20.2	-92.1	7.9
2025-01-22 21:22:53.829084	253.8	20.3	-92.8	8.8
2025-01-22 21:22:54.972333	254.1	20.3	-92.5	6.8
2025-01-22 21:22:56.122437	254.3	20.4	-92.4	9.5
2025-01-22 21:22:57.270644	254.6	20.5	-92.3	10.4
2025-01-22 21:22:58.419713	254.9	20.5	-92.4	9.8
2025-01-22 21:22:59.565385	255.1	20.6	-92.9	9.1
2025-01-22 21:23:00.717408	255.4	20.6	-92.6	10.7
2025-01-22 21:23:01.860707	255.7	20.7	-92.9	11.7
2025-01-22 21:23:03.008201	255.9	20.7	-93.1	8.6
2025-01-22 21:23:04.156887	256.2	20.8	-92.1	9.3
2025-01-22 21:23:05.303544	256.5	20.8	-92.4	11.3
2025-01-22 21:23:06.454205	256.8	20.9	-92.9	11.2
2025-01-22 21:23:07.603324	257.0	20.9	-92.5	10.0
2025-01-22 21:23:08.752612	257.3	21.0	-92.9	11.1
2025-01-22 21:23:09.907044	257.6	21.0	-92.8	7.2
2025-01-22 21:23:11.050141	257.9	21.1	-92.6	6.5
2025-01-22 21:23:12.197873	258.1	21.1	-92.3	9.7
2025-01-22 21:23:13.338736	258.4	21.2	-92.6	9.7
2025-01-22 21:23:14.488793	258.7	21.2	-92.7	7.4
2025-01-22 21:23:15.632819	259.0	21.3	-92.7	7.6
2025-01-22 21:23:16.785146	259.2	21.3	-92.6	9.7
2025-01-22 21:23:17.933737	259.5	21.4	-92.6	6.1
2025-01-22 21:23:19.078845	259.8	21.4	-92.6	6.3
2025-01-22 21:23:20.237613	260.1	21.5	-91.9	13.0
2025-01-22 21:23:21.388257	260.4	21.5	-92.4	6.1
2025-01-22 21:23:22.539570	260.6	21.5	-92.7	8.7
2025-01-22 21:23:23.688288	260.9	21.6	-92.8	12.8
2025-01-22 21:23:24.842209	261.2	21.6	-92.4	10.9
2025-01-22 21:23:26.001954	261.5	21.7	-92.7	12.5
2025-01-22 21:23:27.148900	261.8	21.7	-92.4	16.9
2025-01-22 21:23:28.299499	262.1	21.7	-92.5	15.4
2025-01-22 21:23:29.443522	262.4	21.8	-92.9	11.7
2025-01-22 21:23:30.592051	262.7	21.8	-92.5	11.9
2025-01-22 21:23:31.740066	262.9	21.9	-92.8	16.7
2025-01-22 21:23:32.886909	263.2	21.9	-92.9	10.9
2025-01-22 21:23:34.031786	263.5	21.9	-92.7	11.7
2025-01-22 21:23:35.166672	263.8	22.0	-92.5	15.8
2025-01-22 21:23:36.287148	264.1	22.0	-92.5	13.2
2025-01-22 21:23:37.408175	264.4	22.0	-92.9	7.3
2025-01-22 21:23:38.529996	264.7	22.1	-92.8	13.1
2025-01-22 21:23:39.651556	265.0	22.1	-93.1	10.7
2025-01-22 21:23:40.772828	265.2	22.1	-92.2	6.7
2025-01-22 21:23:41.892862	265.5	22.2	-92.7	7.8
2025-01-22 21:23:43.013707	265.8	22.2	-92.6	11.5
2025-01-22 21:23:44.134926	266.1	22.2	-92.4	16.4
2025-01-22 21:23:45.261434	266.4	22.3	-91.8	9.5
2025-01-22 21:23:46.407074	266.7	22.3	-92.7	5.3
2025-01-22 21:23:47.557453	267.0	22.3	-92.7	16.7
2025-01-22 21:23:48.701337	267.3	22.3	-92.4	9.8
2025-01-22 21:23:49.850128	267.6	22.4	-92.3	11.8
2025-01-22 21:23:50.998104	267.9	22.4	-92.6	6.6
2025-01-22 21:23:52.148023	268.2	22.4	-92.2	13.7
2025-01-22 21:23:53.293837	268.5	22.4	-92.7	4.1
2025-01-22 21:23:54.443775	268.8	22.5	-93.0	6.7
2025-01-22 21:23:55.594755	269.1	22.5	-92.6	6.5
2025-01-22 21:23:56.743508	269.4	22.5	-92.6	10.6
2025-01-22 21:23:57.888691	269.7	22.5	-92.8	9.2
2025-01-22 21:23:59.032595	270.0	22.5	-92.5	10.4
2025-01-22 21:24:00.182454	270.3	22.6	-92.0	8.2
2025-01-22 21:24:01.333421	270.6	22.6	-92.2	6.8
2025-01-22 21:24:02.482361	270.9	22.6	-92.7	6.0
2025-01-22 21:24:03.633465	271.2	22.6	-92.4	8.4
2025-01-22 21:24:04.783153	271.5	22.6	-92.4	10.2
2025-01-22 21:24:05.926447	271.8	22.7	-92.6	8.3
2025-01-22 21:24:07.076274	272.1	22.7	-92.4	10.2
2025-01-22 21:24:08.230365	272.4	22.7	-92.5	12.0
2025-01-22 21:24:09.383603	272.7	22.7	-92.3	10.8
2025-01-22 21:24:10.534009	273.0	22.7	-92.6	12.2
2025-01-22 21:24:11.680824	273.3	22.7	-93.0	10.7
2025-01-22 21:24:12.828668	273.6	22.7	-92.1	13.2
2025-01-22 21:24:14.447058	274.1	22.7	-92.5	11.9
2025-01-22 21:24:15.595301	274.4	22.8	-92.9	14.1
2025-01-22 21:24:16.739371	274.7	22.8	-93.0	10.7
2025-01-22 21:24:17.882103	275.0	22.8	-92.3	14.0
2025-01-22 21:24:19.031445	275.3	22.8	-92.6	11.1
2025-01-22 21:24:20.183649	275.6	22.8	-92.4	15.9
2025-01-22 21:24:21.333836	275.9	22.8	-91.7	15.7
2025-01-22 21:24:22.488007	276.2	22.8	-92.6	10.3
2025-01-22 21:24:23.637523	276.5	22.8	-91.8	8.3
2025-01-22 21:24:24.781345	276.8	22.8	-92.8	17.0
2025-01-22 21:24:25.934642	277.1	22.8	-92.6	9.7
2025-01-22 21:24:27.083287	277.4	22.8	-92.1	8.4
2025-01-22 21:24:28.231731	277.7	22.8	-92.4	11.3
2025-01-22 21:24:29.380484	278.1	22.8	-92.2	10.1
2025-01-22 21:24:30.531996	278.4	22.8	-93.0	6.6
2025-01-22 21:24:31.683252	278.7	22.8	-92.7	8.4
2025-01-22 21:24:32.838373	279.0	22.8	-92.7	9.4
2025-01-22 21:24:33.980393	279.3	22.8	-92.6	6.4
2025-01-22 21:24:35.132297	279.6	22.8	-92.2	4.0
2025-01-22 21:24:36.282055	279.9	22.8	-91.8	6.6
2025-01-22 21:24:37.433551	280.2	22.8	-92.7	5.8
2025-01-22 21:24:38.583832	280.5	22.7	-93.0	10.4
2025-01-22 21:24:39.730748	280.8	22.7	-92.8	6.7
2025-01-22 21:24:40.877607	281.1	22.7	-92.5	11.6
2025-01-22 21:24:42.029431	281.4	22.7	-92.7	6.1
2025-01-22 21:24:43.174383	281.7	22.7	-92.2	12.5
2025-01-22 21:24:44.323407	282.0	22.7	-92.5	9.1
2025-01-22 21:24:45.470900	282.3	22.7	-92.9	9.8
2025-01-22 21:24:46.618411	282.6	22.7	-92.7	7.4
2025-01-22 21:24:47.770773	282.9	22.7	-92.7	10.2
2025-01-22 21:24:48.925784	283.3	22.6	-92.3	10.7
2025-01-22 21:24:50.073406	283.6	22.6	-92.2	9.4
2025-01-22 21:24:51.232942	283.9	22.6	-92.3	7.6
2025-01-22 21:24:52.380996	284.2	22.6	-92.8	13.4
2025-01-22 21:24:53.524915	284.5	22.6	-92.7	7.0
2025-01-22 21:24:54.673246	284.8	22.5	-92.6	13.4
2025-01-22 21:24:55.821127	285.1	22.5	-92.7	10.7
2025-01-22 21:24:56.971921	285.4	22.5	-92.6	9.0
2025-01-22 21:24:58.120195	285.7	22.5	-92.6	12.6
2025-01-22 21:24:59.269707	286.0	22.5	-92.0	5.3
2025-01-22 21:25:00.415681	286.3	22.4	-92.7	7.8
2025-01-22 21:25:01.567652	286.6	22.4	-93.1	12.9
2025-01-22 21:25:02.719789	286.9	22.4	-92.5	10.2
2025-01-22 21:25:03.873379	287.2	22.4	-92.7	9.2
2025-01-22 21:25:05.024030	287.5	22.3	-93.0	5.7
2025-01-22 21:25:06.175691	287.8	22.3	-92.5	8.5
2025-01-22 21:25:07.323828	288.1	22.3	-92.5	12.5
2025-01-22 21:25:08.476288	288.4	22.2	-92.6	7.8
2025-01-22 21:25:09.622536	288.7	22.2	-92.6	17.7
2025-01-22 21:25:10.766983	289.0	22.2	-93.1	6.2
2025-01-22 21:25:11.912360	289.3	22.2	-92.8	11.8
2025-01-22 21:25:13.058861	289.5	22.1	-92.5	11.0
2025-01-22 21:25:14.208194	289.8	22.1	-92.8	9.5
2025-01-22 21:25:15.354275	290.1	22.1	-92.4	14.9
2025-01-22 21:25:16.501047	290.4	22.0	-92.9	13.4
2025-01-22 21:25:17.655061	290.7	22.0	-92.9	7.8
2025-01-22 21:25:18.801672	291.0	22.0	-93.0	16.7
2025-01-22 21:25:19.955875	291.3	21.9	-92.6	7.8
2025-01-22 21:25:21.103690	291.6	21.9	-92.5	7.7
2025-01-22 21:25:22.249389	291.9	21.8	-92.6	9.1
2025-01-22 21:25:23.397555	292.2	21.8	-92.5	12.3
2025-01-22 21:25:24.549571	292.5	21.8	-93.0	8.8
2025-01-22 21:25:25.699012	292.8	21.7	-92.4	4.4
2025-01-22 21:25:26.847175	293.0	21.7	-92.5	11.6
2025-01-22 21:25:27.994469	293.3	21.7	-93.0	11.4
2025-01-22 21:25:29.146902	293.6	21.6	-92.3	15.5
2025-01-22 21:25:30.292417	293.9	21.6	-92.7	14.2
2025-01-22 21:25:31.442043	294.2	21.5	-93.0	10.9
2025-01-22 21:25:32.585099	294.5	21.5	-92.5	8.5
2025-01-22 21:25:33.741981	294.7	21.4	-93.0	7.2
2025-01-22 21:25:34.888230	295.0	21.4	-92.6	10.3
2025-01-22 21:25:36.041676	295.3	21.3	-92.7	3.3
2025-01-22 21:25:37.201345	295.6	21.3	-92.5	5.3
2025-01-22 21:25:38.345225	295.9	21.3	-92.2	7.5
2025-01-22 21:25:39.490747	296.1	21.2	-92.2	8.4
2025-01-22 21:25:40.649223	296.4	21.2	-92.8	4.7
2025-01-22 21:25:41.794173	296.7	21.1	-93.0	11.9
2025-01-22 21:25:42.946116	297.0	21.1	-92.5	9.4
2025-01-22 21:25:44.097669	297.3	21.0	-92.5	8.1
2025-01-22 21:25:45.249351	297.5	21.0	-91.9	8.0
2025-01-22 21:25:46.398660	297.8	20.9	-92.6	11.1
2025-01-22 21:25:47.544080	298.1	20.9	-92.4	13.4
2025-01-22 21:25:48.692465	298.3	20.8	-92.5	7.1
2025-01-22 21:25:49.846348	298.6	20.8	-92.7	10.3
2025-01-22 21:25:50.997149	298.9	20.7	-92.8	9.1
2025-01-22 21:25:52.149165	299.2	20.7	-92.5	8.7
2025-01-22 21:25:53.297369	299.4	20.6	-92.2	3.1
2025-01-22 21:25:54.441591	299.7	20.5	-92.7	9.2
2025-01-22 21:25:55.591113	300.0	20.5	-92.9	9.2
2025-01-22 21:25:56.738476	300.2	20.4	-92.5	5.8
2025-01-22 21:25:57.890248	300.5	20.4	-92.4	9.6
2025-01-22 21:25:59.053601	300.8	20.3	-92.4	12.6
2025-01-22 21:26:00.208567	301.0	20.3	-92.6	9.2
2025-01-22 21:26:01.357875	301.3	20.2	-92.8	6.0
2025-01-22 21:26:02.502730	301.5	20.2	-93.0	7.9
2025-01-22 21:26:03.651202	301.8	20.1	-92.8	4.4
2025-01-22 21:26:04.798834	302.1	20.0	-93.0	10.6
2025-01-22 21:26:05.946203	302.3	20.0	-93.1	13.8
2025-01-22 21:26:07.089240	302.6	19.9	-92.4	12.2
2025-01-22 21:26:08.234931	302.8	19.9	-92.6	11.8
2025-01-22 21:26:09.393171	303.1	19.8	-92.0	9.5
2025-01-22 21:26:10.542807	303.3	19.7	-93.0	10.8
2025-01-22 21:26:11.689615	303.6	19.7	-92.9	11.1
2025-01-22 21:26:12.844467	303.8	19.6	-92.4	5.2
2025-01-22 21:26:13.987646	304.1	19.6	-93.0	5.5
2025-01-22 21:26:15.137617	304.3	19.5	-92.8	7.7
2025-01-22 21:26:16.284869	304.6	19.4	-92.5	6.2
2025-01-22 21:26:17.436068	304.8	19.4	-92.6	3.1
2025-01-22 21:26:18.585150	305.1	19.3	-92.7	6.9
2025-01-22 21:26:19.725397	305.3	19.2	-92.9	5.6
2025-01-22 21:26:20.846359	305.6	19.2	-92.5	11.2
2025-01-22 21:26:21.966817	305.8	19.1	-93.0	4.5
2025-01-22 21:26:23.088426	306.0	19.1	-92.7	3.8
2025-01-22 21:26:24.208934	306.3	19.0	-92.1	11.9
2025-01-22 21:26:25.328954	306.5	18.9	-92.4	7.5
2025-01-22 21:26:26.450358	306.7	18.9	-92.5	4.8
2025-01-22 21:26:27.572729	307.0	18.8	-92.8	5.7
2025-01-22 21:26:28.693376	307.2	18.7	-92.9	12.4
2025-01-22 21:26:29.814275	307.4	18.7	-92.8	6.7
2025-01-22 21:26:30.964417	307.7	18.6	-92.9	4.4
2025-01-22 21:26:32.107472	307.9	18.5	-92.7	4.1
2025-01-22 21:26:33.255904	308.1	18.5	-92.1	13.3
2025-01-22 21:26:34.395448	308.4	18.4	-92.5	4.7
2025-01-22 21:26:35.548574	308.6	18.3	-93.1	5.9
2025-01-22 21:26:36.695200	308.8	18.3	-92.4	9.0
2025-01-22 21:26:37.842730	309.1	18.2	-92.9	5.7
2025-01-22 21:26:38.990588	309.3	18.1	-93.1	7.6
2025-01-22 21:26:40.140432	309.5	18.1	-92.8	6.2
2025-01-22 21:26:41.286917	309.8	18.0	-92.8	5.7
2025-01-22 21:26:42.435616	310.0	17.9	-93.2	3.6
2025-01-22 21:26:43.580415	310.2	17.9	-92.9	6.7
2025-01-22 21:26:44.726462	310.4	17.8	-92.4	5.2
2025-01-22 21:26:45.874785	310.7	17.7	-93.1	6.9
2025-01-22 21:26:47.024645	310.9	17.6	-93.1	4.7
2025-01-22 21:26:48.174736	311.1	17.6	-92.2	5.5
2025-01-22 21:26:49.322073	311.3	17.5	-92.4	7.4
2025-01-22 21:26:50.470780	311.5	17.4	-93.0	6.3
2025-01-22 21:26:51.618380	311.8	17.4	-93.0	10.2
2025-01-22 21:26:52.771733	312.0	17.3	-92.7	7.1
2025-01-22 21:26:53.924366	312.2	17.2	-93.2	10.1
2025-01-22 21:26:55.067815	312.4	17.1	-92.8	13.5
2025-01-22 21:26:56.218456	312.6	17.1	-92.6	9.5
2025-01-22 21:26:57.363848	312.8	17.0	-92.5	11.0
2025-01-22 21:26:58.510531	313.0	16.9	-92.5	8.7
2025-01-22 21:26:59.659380	313.3	16.9	-92.7	4.1
2025-01-22 21:27:00.803045	313.5	16.8	-92.7	11.0
2025-01-22 21:27:01.949093	313.7	16.7	-93.0	4.4
2025-01-22 21:27:03.100557	313.9	16.6	-92.5	5.8
2025-01-22 21:27:04.251810	314.1	16.6	-92.4	11.7
2025-01-22 21:27:05.398774	314.3	16.5	-92.5	3.7
2025-01-22 21:27:06.543115	314.5	16.4	-92.7	5.1
2025-01-22 21:27:07.691462	314.7	16.4	-93.2	10.0
2025-01-22 21:27:08.842769	314.9	16.3	-92.8	5.5
2025-01-22 21:27:09.992615	315.1	16.2	-92.9	4.0
2025-01-22 21:27:11.135545	315.3	16.1	-92.6	5.8
2025-01-22 21:27:12.279681	315.5	16.1	-92.2	4.1
2025-01-22 21:27:13.429875	315.7	16.0	-92.8	8.2
2025-01-22 21:27:14.574453	315.9	15.9	-93.0	9.3
2025-01-22 21:27:15.722177	316.1	15.8	-91.9	8.4
2025-01-22 21:27:16.875734	316.3	15.8	-93.0	9.4
2025-01-22 21:27:18.021516	316.5	15.7	-93.0	7.3
2025-01-22 21:27:19.167896	316.7	15.6	-92.4	7.3
2025-01-22 21:27:20.312316	316.9	15.5	-92.1	12.5
2025-01-22 21:27:21.465825	317.1	15.5	-92.6	8.3
2025-01-22 21:27:22.616213	317.3	15.4	-92.7	5.6
2025-01-22 21:27:23.760935	317.5	15.3	-92.3	8.7
2025-01-22 21:27:24.906852	317.7	15.2	-92.3	5.1
2025-01-22 21:27:26.047161	317.9	15.2	-92.6	6.6
2025-01-22 21:27:27.198913	318.0	15.1	-92.8	5.8
2025-01-22 21:27:28.346912	318.2	15.0	-92.2	7.6
2025-01-22 21:27:29.490621	318.4	14.9	-92.6	6.6
2025-01-22 21:27:30.640976	318.6	14.9	-92.6	8.4
2025-01-22 21:27:31.787415	318.8	14.8	-92.5	7.7
2025-01-22 21:27:32.939674	319.0	14.7	-92.9	3.7
#Closed at: 2025-01-22 21:21:29.998333