passes_logs/2025/01/22/LEX_Murmansk/LEX_Murmansk__20250122_193814_NOAA_18_rec.log

#Pass ID: 20250122_193814_NOAA 18
#Satellite: NOAA 18
#Configuration: NOAA 18
#Start time: 2025-01-22 19:38:09.255236

#LorettStation: 1.0.0 05.05.2024
#Station: LEX_Murmansk
#Location: 33.156738 lon 68.926811 lat
#TLE: 1 28654U 05018A   25022.24143052  .00000458  00000+0  26647-3 0  9995
#TLE: 2 28654  98.8556 103.2235 0014680 159.1096 201.0679 14.13493787 14203

#Time	Az	El	Level	SNR
2025-01-22 19:38:25.548523	176.4	16.7	-88.2	4.4
2025-01-22 19:38:27.870149	176.5	17.0	-89.0	5.7
2025-01-22 19:38:30.196341	176.6	17.2	-92.5	4.5
2025-01-22 19:38:32.517126	176.8	17.5	-92.1	2.9
2025-01-22 19:38:34.850331	176.9	17.8	-92.6	7.7
2025-01-22 19:38:37.176379	177.0	18.0	-92.8	3.5
2025-01-22 19:38:39.509628	177.2	18.3	-92.4	4.2
2025-01-22 19:38:41.838194	177.3	18.6	-92.8	6.0
2025-01-22 19:38:44.171342	177.5	18.8	-92.6	5.1
2025-01-22 19:38:46.492962	177.6	19.1	-92.2	8.3
2025-01-22 19:38:48.817135	177.8	19.4	-92.4	10.2
2025-01-22 19:38:51.145261	177.9	19.7	-92.4	9.4
2025-01-22 19:38:53.472179	178.1	20.0	-92.6	13.9
2025-01-22 19:38:55.795152	178.3	20.2	-92.8	14.6
2025-01-22 19:38:58.123730	178.4	20.5	-92.7	10.6
2025-01-22 19:39:00.436763	178.6	20.8	-92.7	7.4
2025-01-22 19:39:02.772300	178.8	21.1	-92.8	5.7
2025-01-22 19:39:05.103660	178.9	21.4	-92.9	5.3
2025-01-22 19:39:07.421391	179.1	21.7	-92.2	3.7
2025-01-22 19:39:09.752083	179.3	22.0	-93.0	6.5
2025-01-22 19:39:12.069284	179.5	22.3	-92.4	9.0
2025-01-22 19:39:14.401644	179.7	22.7	-92.3	12.3
2025-01-22 19:39:16.726382	179.9	23.0	-92.5	7.1
2025-01-22 19:39:19.049649	180.1	23.3	-92.6	13.0
2025-01-22 19:39:21.373220	180.3	23.6	-92.5	11.7
2025-01-22 19:39:23.687808	180.5	24.0	-92.4	13.5
2025-01-22 19:39:25.993875	180.7	24.3	-92.7	12.2
2025-01-22 19:39:28.315355	180.9	24.6	-92.5	9.2
2025-01-22 19:39:30.628116	181.1	25.0	-92.2	11.4
2025-01-22 19:39:32.954396	181.3	25.3	-92.7	9.9
2025-01-22 19:39:35.281687	181.5	25.7	-93.1	3.9
2025-01-22 19:39:37.611538	181.8	26.0	-92.6	6.2
2025-01-22 19:39:39.937519	182.0	26.4	-92.8	8.7
2025-01-22 19:39:42.264291	182.3	26.7	-92.7	9.4
2025-01-22 19:39:44.569958	182.5	27.1	-92.4	11.7
2025-01-22 19:39:46.885295	182.7	27.5	-92.8	10.8
2025-01-22 19:39:49.217883	183.0	27.8	-93.0	8.5
2025-01-22 19:39:51.547116	183.3	28.2	-92.3	7.6
2025-01-22 19:39:53.872121	183.5	28.6	-92.9	7.1
2025-01-22 19:39:56.195005	183.8	29.0	-92.6	9.2
2025-01-22 19:39:58.528734	184.1	29.4	-92.5	10.1
2025-01-22 19:40:00.850518	184.4	29.8	-92.7	10.0
2025-01-22 19:40:03.175766	184.7	30.2	-92.7	12.4
2025-01-22 19:40:05.502455	185.0	30.6	-92.7	13.8
2025-01-22 19:40:07.822003	185.3	31.0	-92.1	8.8
2025-01-22 19:40:10.150377	185.6	31.4	-92.8	6.0
2025-01-22 19:40:12.480710	185.9	31.8	-92.6	8.4
2025-01-22 19:40:14.801486	186.3	32.3	-92.7	12.9
2025-01-22 19:40:17.116754	186.6	32.7	-92.6	14.7
2025-01-22 19:40:19.434113	186.9	33.1	-92.4	12.5
2025-01-22 19:40:21.761463	187.3	33.6	-92.8	11.4
2025-01-22 19:40:24.085233	187.7	34.0	-92.4	13.3
2025-01-22 19:40:26.427703	188.1	34.5	-92.7	13.5
2025-01-22 19:40:28.756989	188.5	34.9	-92.5	5.2
2025-01-22 19:40:31.081327	188.9	35.4	-92.6	13.5
2025-01-22 19:40:33.401703	189.3	35.9	-92.6	13.5
2025-01-22 19:40:35.724712	189.7	36.3	-92.9	12.1
2025-01-22 19:40:38.049199	190.1	36.8	-93.0	12.1
2025-01-22 19:40:40.380869	190.6	37.3	-92.1	13.0
2025-01-22 19:40:42.709746	191.0	37.8	-92.0	14.0
2025-01-22 19:40:45.034893	191.5	38.3	-92.4	15.1
2025-01-22 19:40:47.361632	192.0	38.8	-91.6	9.3
2025-01-22 19:40:49.682710	192.5	39.3	-92.7	6.4
2025-01-22 19:40:52.015643	193.0	39.8	-92.7	15.5
2025-01-22 19:40:54.345283	193.6	40.3	-92.5	18.8
2025-01-22 19:40:56.665093	194.1	40.8	-92.8	15.6
2025-01-22 19:40:59.005468	194.7	41.3	-92.4	16.1
2025-01-22 19:41:01.084494	195.2	41.8	-92.5	14.2
2025-01-22 19:41:03.384682	195.8	42.3	-91.8	17.6
2025-01-22 19:41:05.714056	196.5	42.9	-92.5	19.4
2025-01-22 19:41:08.035607	197.1	43.4	-92.2	11.5
2025-01-22 19:41:10.353603	197.8	44.0	-91.7	15.7
2025-01-22 19:41:12.688178	198.5	44.5	-92.7	16.4
2025-01-22 19:41:15.019921	199.2	45.1	-92.7	17.6
2025-01-22 19:41:17.345293	199.9	45.6	-92.0	19.2
2025-01-22 19:41:19.667886	200.7	46.2	-92.6	19.3
2025-01-22 19:41:21.996252	201.5	46.7	-92.6	12.9
2025-01-22 19:41:24.316197	202.3	47.3	-92.0	17.0
2025-01-22 19:41:26.641270	203.2	47.8	-91.6	13.4
2025-01-22 19:41:28.980699	204.1	48.4	-92.5	10.5
2025-01-22 19:41:31.306862	205.0	48.9	-91.8	12.8
2025-01-22 19:41:33.644645	205.9	49.5	-92.7	11.9
2025-01-22 19:41:35.965836	206.9	50.1	-92.5	8.3
2025-01-22 19:41:38.294307	208.0	50.6	-92.0	17.4
2025-01-22 19:41:40.615688	209.0	51.2	-92.4	15.3
2025-01-22 19:41:42.936010	210.1	51.7	-92.3	18.9
2025-01-22 19:41:45.262148	211.2	52.2	-92.3	18.3
2025-01-22 19:41:47.584276	212.4	52.8	-92.6	9.1
2025-01-22 19:41:49.911403	213.6	53.3	-92.4	14.6
2025-01-22 19:41:52.239246	214.9	53.8	-91.4	19.9
2025-01-22 19:41:54.570088	216.2	54.3	-92.2	19.9
2025-01-22 19:41:56.878719	217.6	54.8	-92.4	19.0
2025-01-22 19:41:59.139889	218.9	55.3	-92.5	20.5
2025-01-22 19:42:01.382120	220.3	55.7	-92.2	14.8
2025-01-22 19:42:03.622769	221.8	56.2	-92.9	19.4
2025-01-22 19:42:05.863270	223.3	56.6	-92.9	24.2
2025-01-22 19:42:08.147717	224.8	57.0	-92.6	21.9
2025-01-22 19:42:10.473675	226.5	57.5	-92.4	21.0
2025-01-22 19:42:12.801368	228.2	57.8	-92.4	22.7
2025-01-22 19:42:15.123663	229.9	58.2	-92.3	23.4
2025-01-22 19:42:17.449872	231.7	58.6	-92.3	19.5
2025-01-22 19:42:19.771090	233.5	58.9	-92.8	23.2
2025-01-22 19:42:22.098999	235.4	59.2	-92.6	15.4
2025-01-22 19:42:24.420630	237.3	59.5	-92.2	14.4
2025-01-22 19:42:26.741453	239.3	59.7	-91.9	23.1
2025-01-22 19:42:29.065661	241.2	59.9	-92.6	19.6
2025-01-22 19:42:31.391953	243.3	60.1	-92.3	20.4
2025-01-22 19:42:33.723007	245.3	60.2	-92.6	23.5
2025-01-22 19:42:36.036061	247.4	60.4	-92.6	21.6
2025-01-22 19:42:38.347085	249.4	60.4	-91.8	19.9
2025-01-22 19:42:40.665252	251.5	60.5	-92.4	22.2
2025-01-22 19:42:42.989108	253.6	60.5	-92.2	17.7
2025-01-22 19:42:45.314462	255.7	60.5	-92.3	17.4
2025-01-22 19:42:47.632210	257.8	60.4	-92.2	17.5
2025-01-22 19:42:49.956397	259.9	60.4	-92.6	11.3
2025-01-22 19:42:52.279970	262.0	60.3	-92.2	16.9
2025-01-22 19:42:54.596115	264.0	60.1	-92.6	11.8
2025-01-22 19:42:56.914654	266.0	59.9	-92.8	9.5
2025-01-22 19:42:59.231949	268.0	59.7	-92.3	12.9
2025-01-22 19:43:01.564829	270.0	59.5	-92.5	8.0
2025-01-22 19:43:03.891484	271.9	59.2	-92.5	9.6
2025-01-22 19:43:06.209763	273.7	58.9	-91.9	11.8
2025-01-22 19:43:08.532879	275.6	58.6	-92.3	10.3
2025-01-22 19:43:10.863763	277.4	58.3	-92.9	15.0
2025-01-22 19:43:13.192363	279.1	57.9	-92.1	9.5
2025-01-22 19:43:15.503312	280.8	57.5	-92.0	8.4
2025-01-22 19:43:17.827999	282.5	57.1	-92.4	18.1
2025-01-22 19:43:20.163937	284.1	56.7	-91.9	15.7
2025-01-22 19:43:22.489562	285.6	56.2	-92.6	8.7
2025-01-22 19:43:24.813383	287.1	55.8	-92.6	16.4
2025-01-22 19:43:27.133530	288.6	55.3	-92.4	11.5
2025-01-22 19:43:29.461442	290.0	54.8	-92.6	7.1
2025-01-22 19:43:31.791439	291.3	54.3	-92.6	15.1
2025-01-22 19:43:34.120341	292.6	53.8	-92.6	12.0
2025-01-22 19:43:36.431771	293.9	53.3	-92.3	8.1
2025-01-22 19:43:38.738662	295.1	52.7	-92.4	16.7
2025-01-22 19:43:41.063031	296.3	52.2	-92.0	9.9
2025-01-22 19:43:43.389146	297.4	51.7	-92.2	10.1
2025-01-22 19:43:45.720225	298.5	51.1	-92.3	17.2
2025-01-22 19:43:48.037656	299.6	50.6	-92.7	12.2
2025-01-22 19:43:50.366284	300.6	50.0	-92.0	13.8
2025-01-22 19:43:52.693924	301.6	49.5	-92.1	14.5
2025-01-22 19:43:55.018656	302.5	48.9	-92.5	14.5
2025-01-22 19:43:57.341171	303.4	48.4	-92.2	16.3
2025-01-22 19:43:59.684506	304.3	47.8	-92.3	15.5
2025-01-22 19:44:02.010331	305.2	47.2	-92.6	17.6
2025-01-22 19:44:04.340214	306.0	46.7	-92.3	14.7
2025-01-22 19:44:06.659821	306.8	46.1	-92.3	17.2
2025-01-22 19:44:08.982509	307.6	45.6	-92.7	12.8
2025-01-22 19:44:11.315839	308.3	45.0	-91.6	15.2
2025-01-22 19:44:13.643124	309.0	44.5	-92.5	12.8
2025-01-22 19:44:15.968061	309.7	43.9	-92.7	9.8
2025-01-22 19:44:18.285149	310.4	43.4	-92.2	17.3
2025-01-22 19:44:20.610918	311.0	42.9	-92.7	12.9
2025-01-22 19:44:22.941377	311.7	42.3	-91.7	12.9
2025-01-22 19:44:25.253458	312.3	41.8	-91.2	17.3
2025-01-22 19:44:27.570353	312.9	41.3	-92.5	18.5
2025-01-22 19:44:29.894496	313.4	40.7	-92.7	21.4
2025-01-22 19:44:32.228088	314.0	40.2	-92.4	19.7
2025-01-22 19:44:34.555414	314.5	39.7	-92.6	16.6
2025-01-22 19:44:36.887247	315.0	39.2	-92.4	10.0
2025-01-22 19:44:39.205188	315.5	38.7	-92.0	8.8
2025-01-22 19:44:41.543286	316.0	38.2	-92.5	7.9
2025-01-22 19:44:43.877394	316.5	37.7	-92.6	7.6
2025-01-22 19:44:46.205992	317.0	37.2	-91.8	4.8
2025-01-22 19:44:48.533559	317.4	36.7	-92.2	9.5
2025-01-22 19:44:50.857892	317.9	36.3	-92.9	15.0
2025-01-22 19:44:53.185911	318.3	35.8	-92.2	14.0
2025-01-22 19:44:55.511506	318.7	35.3	-92.3	3.1
2025-01-22 19:44:57.842236	319.1	34.9	-92.0	10.0
2025-01-22 19:45:00.170177	319.5	34.4	-92.1	10.9
2025-01-22 19:45:02.495987	319.9	33.9	-92.6	8.8
2025-01-22 19:45:04.828877	320.2	33.5	-92.6	10.1
2025-01-22 19:45:07.140805	320.6	33.1	-92.0	15.3
2025-01-22 19:45:09.463991	320.9	32.6	-92.6	16.1
2025-01-22 19:45:11.778178	321.3	32.2	-92.9	12.7
2025-01-22 19:45:14.104644	321.6	31.8	-92.1	9.3
2025-01-22 19:45:16.433469	321.9	31.3	-92.5	6.2
2025-01-22 19:45:18.761557	322.3	30.9	-92.7	12.7
2025-01-22 19:45:21.086147	322.6	30.5	-92.5	14.2
2025-01-22 19:45:23.419062	322.9	30.1	-91.7	14.8
2025-01-22 19:45:25.740425	323.2	29.7	-92.1	10.2
2025-01-22 19:45:28.056475	323.5	29.3	-92.4	10.3
2025-01-22 19:45:30.380580	323.7	28.9	-91.7	8.7
2025-01-22 19:45:32.709643	324.0	28.5	-92.6	13.7
2025-01-22 19:45:35.039517	324.3	28.1	-92.6	5.9
2025-01-22 19:45:37.356756	324.5	27.8	-91.8	12.1
2025-01-22 19:45:39.682533	324.8	27.4	-92.5	14.6
2025-01-22 19:45:41.987511	325.0	27.0	-92.8	12.9
2025-01-22 19:45:44.310644	325.3	26.7	-92.4	12.5
2025-01-22 19:45:46.643125	325.5	26.3	-92.3	10.8
2025-01-22 19:45:48.968199	325.8	25.9	-92.3	9.8
2025-01-22 19:45:51.286013	326.0	25.6	-92.0	8.3
2025-01-22 19:45:53.617866	326.2	25.2	-92.7	9.3
2025-01-22 19:45:55.949166	326.4	24.9	-92.8	12.8
2025-01-22 19:45:58.269577	326.7	24.6	-92.3	8.8
2025-01-22 19:46:00.589736	326.9	24.2	-92.3	8.5
2025-01-22 19:46:02.924732	327.1	23.9	-92.8	9.8
2025-01-22 19:46:05.254884	327.3	23.6	-92.5	12.2
2025-01-22 19:46:07.578032	327.5	23.2	-92.8	5.9
2025-01-22 19:46:09.915607	327.7	22.9	-93.0	7.9
2025-01-22 19:46:12.239295	327.9	22.6	-92.7	9.0
2025-01-22 19:46:14.571192	328.1	22.3	-92.9	8.1
2025-01-22 19:46:16.893275	328.2	22.0	-92.8	11.8
2025-01-22 19:46:19.213228	328.4	21.7	-92.4	11.3
2025-01-22 19:46:21.512012	328.6	21.4	-93.0	7.8
2025-01-22 19:46:23.753014	328.8	21.1	-92.4	11.8
2025-01-22 19:46:25.994057	328.9	20.8	-92.5	7.9
2025-01-22 19:46:28.235234	329.1	20.5	-92.3	9.1
2025-01-22 19:46:30.491600	329.3	20.2	-92.8	5.7
2025-01-22 19:46:32.812243	329.4	19.9	-92.8	4.5
2025-01-22 19:46:35.144046	329.6	19.7	-92.2	3.2
2025-01-22 19:46:37.465793	329.7	19.4	-92.1	4.0
2025-01-22 19:46:39.798296	329.9	19.1	-92.7	6.0
2025-01-22 19:46:42.127197	330.1	18.8	-92.3	5.5
2025-01-22 19:46:44.458267	330.2	18.5	-92.2	6.7
2025-01-22 19:46:46.782970	330.4	18.3	-92.6	4.1
2025-01-22 19:46:49.107983	330.5	18.0	-92.6	4.5
2025-01-22 19:46:51.434728	330.6	17.7	-92.9	6.8
2025-01-22 19:46:53.760966	330.8	17.5	-92.8	4.2
2025-01-22 19:46:56.093464	330.9	17.2	-92.4	3.3
2025-01-22 19:46:58.417111	331.1	17.0	-92.5	4.0
2025-01-22 19:47:00.733397	331.2	16.7	-92.2	5.9
2025-01-22 19:47:03.060145	331.3	16.5	-92.4	2.7
2025-01-22 19:47:05.391878	331.5	16.2	-92.4	4.3
2025-01-22 19:47:07.709249	331.6	16.0	-93.0	4.2
2025-01-22 19:47:10.039625	331.7	15.7	-92.4	5.3
2025-01-22 19:47:12.371118	331.8	15.5	-92.1	4.1
2025-01-22 19:47:14.702666	332.0	15.2	-92.9	6.8
2025-01-22 19:47:17.034403	332.1	15.0	-92.5	6.6
2025-01-22 19:47:19.351616	332.2	14.8	-91.7	5.6
2025-01-22 19:47:21.679216	332.3	14.5	-92.9	7.9
#Closed at: 2025-01-22 19:38:14.331405