passes_logs/2025/01/22/LEX_Murmansk/LEX_Murmansk__20250122_155404_NOAA_19_rec.log

#Pass ID: 20250122_155404_NOAA 19
#Satellite: NOAA 19
#Configuration: NOAA 19
#Start time: 2025-01-22 15:53:59.427835

#LorettStation: 1.0.0 05.05.2024
#Station: LEX_Murmansk
#Location: 33.156738 lon 68.926811 lat
#TLE: 1 33591U 09005A   25022.22545190  .00000382  00000+0  22773-3 0  9990
#TLE: 2 33591  99.0184  86.0433 0014227  38.0135 322.2038 14.13265658822568

#Time	Az	El	Level	SNR
2025-01-22 15:54:11.693837	98.3	16.2	-89.7	7.1
2025-01-22 15:54:12.859984	98.2	16.3	-89.9	5.2
2025-01-22 15:54:14.023732	98.1	16.4	-89.9	7.9
2025-01-22 15:54:15.182609	98.0	16.5	-89.8	8.1
2025-01-22 15:54:16.345856	97.8	16.6	-89.7	9.3
2025-01-22 15:54:17.508815	97.7	16.8	-89.2	8.6
2025-01-22 15:54:18.674413	97.6	16.9	-89.5	5.5
2025-01-22 15:54:19.835241	97.5	17.0	-89.7	3.3
2025-01-22 15:54:21.002020	97.3	17.1	-89.7	3.6
2025-01-22 15:54:22.165980	97.2	17.2	-89.1	3.6
2025-01-22 15:54:23.333676	97.1	17.3	-88.9	3.1
2025-01-22 15:54:24.497718	96.9	17.5	-89.2	8.4
2025-01-22 15:54:25.654672	96.8	17.6	-88.9	8.9
2025-01-22 15:54:26.823739	96.7	17.7	-88.6	11.2
2025-01-22 15:54:27.988369	96.5	17.8	-89.3	10.8
2025-01-22 15:54:29.156373	96.4	17.9	-89.1	5.9
2025-01-22 15:54:30.313562	96.3	18.1	-89.0	5.8
2025-01-22 15:54:31.476729	96.1	18.2	-89.5	4.9
2025-01-22 15:54:32.634102	96.0	18.3	-89.4	9.5
2025-01-22 15:54:33.799017	95.9	18.4	-89.4	9.3
2025-01-22 15:54:34.962022	95.7	18.6	-89.8	4.7
2025-01-22 15:54:36.123805	95.6	18.7	-89.5	4.2
2025-01-22 15:54:37.287983	95.4	18.8	-89.4	3.2
2025-01-22 15:54:38.468342	95.3	18.9	-89.6	2.3
2025-01-22 15:54:39.629281	95.2	19.0	-89.6	3.0
2025-01-22 15:54:40.787854	95.0	19.2	-89.8	1.1
2025-01-22 15:54:41.951434	94.9	19.3	-89.7	3.0
2025-01-22 15:54:43.110850	94.7	19.4	-89.2	6.6
2025-01-22 15:54:44.279423	94.6	19.5	-89.1	5.4
2025-01-22 15:54:45.441506	94.4	19.7	-89.4	4.9
2025-01-22 15:54:46.603494	94.3	19.8	-89.8	4.2
2025-01-22 15:54:47.769545	94.1	19.9	-90.0	3.1
2025-01-22 15:54:48.924229	94.0	20.1	-90.0	3.3
2025-01-22 15:54:50.087241	93.8	20.2	-89.7	3.4
2025-01-22 15:54:51.245942	93.6	20.3	-89.5	2.3
2025-01-22 15:54:52.407109	93.5	20.4	-89.9	5.0
2025-01-22 15:54:53.566587	93.3	20.6	-90.1	2.3
2025-01-22 15:54:54.738365	93.2	20.7	-90.6	3.1
2025-01-22 15:54:55.899110	93.0	20.8	-90.6	2.2
2025-01-22 15:54:57.068005	92.8	21.0	-90.6	1.8
2025-01-22 15:54:58.229328	92.7	21.1	-90.3	3.2
2025-01-22 15:54:59.399391	92.5	21.2	-90.6	4.8
2025-01-22 15:55:00.549265	92.3	21.3	-90.4	7.2
2025-01-22 15:55:01.711231	92.2	21.5	-90.4	7.5
2025-01-22 15:55:02.873494	92.0	21.6	-90.7	6.4
2025-01-22 15:55:04.023304	91.8	21.7	-90.4	5.6
2025-01-22 15:55:05.177052	91.7	21.9	-90.4	5.6
2025-01-22 15:55:06.343611	91.5	22.0	-90.3	4.4
2025-01-22 15:55:07.504605	91.3	22.1	-90.3	3.0
2025-01-22 15:55:08.659721	91.1	22.3	-90.5	4.2
2025-01-22 15:55:09.825256	90.9	22.4	-90.5	3.7
2025-01-22 15:55:10.984292	90.8	22.5	-90.2	5.0
2025-01-22 15:55:12.150928	90.6	22.7	-90.3	2.6
2025-01-22 15:55:13.315431	90.4	22.8	-90.6	2.5
2025-01-22 15:55:14.480631	90.2	23.0	-90.2	2.2
2025-01-22 15:55:15.645148	90.0	23.1	-90.6	2.7
2025-01-22 15:55:16.810210	89.8	23.2	-90.4	2.5
2025-01-22 15:55:17.976596	89.6	23.4	-90.8	2.2
2025-01-22 15:55:19.137982	89.4	23.5	-90.3	2.8
2025-01-22 15:55:20.301794	89.2	23.6	-90.4	1.9
2025-01-22 15:55:21.461891	89.0	23.8	-90.5	3.5
2025-01-22 15:55:22.628362	88.8	23.9	-90.9	1.5
2025-01-22 15:55:23.789872	88.6	24.1	-91.0	0.4
2025-01-22 15:55:24.953965	88.4	24.2	-90.6	1.8
2025-01-22 15:55:26.119242	88.2	24.3	-90.2	2.2
2025-01-22 15:55:27.283241	88.0	24.5	-90.2	1.9
2025-01-22 15:55:28.448396	87.8	24.6	-90.6	3.9
2025-01-22 15:55:29.611354	87.6	24.8	-90.6	3.5
2025-01-22 15:55:30.771625	87.4	24.9	-90.4	3.8
2025-01-22 15:55:31.934866	87.2	25.0	-90.6	5.8
2025-01-22 15:55:33.107231	87.0	25.2	-90.3	1.9
2025-01-22 15:55:34.274689	86.8	25.3	-89.6	1.5
2025-01-22 15:55:35.440224	86.5	25.5	-89.4	1.3
2025-01-22 15:55:36.607562	86.3	25.6	-89.9	2.1
2025-01-22 15:55:37.771974	86.1	25.8	-90.1	1.9
2025-01-22 15:55:38.939321	85.9	25.9	-89.9	5.0
2025-01-22 15:55:40.098893	85.6	26.0	-89.5	5.3
2025-01-22 15:55:41.257927	85.4	26.2	-90.0	7.3
2025-01-22 15:55:42.422714	85.2	26.3	-90.1	4.0
2025-01-22 15:55:43.592073	84.9	26.5	-89.9	4.1
2025-01-22 15:55:44.755136	84.7	26.6	-89.6	3.1
2025-01-22 15:55:45.926066	84.5	26.8	-90.2	2.5
2025-01-22 15:55:47.087052	84.2	26.9	-90.4	4.6
2025-01-22 15:55:48.247364	84.0	27.0	-90.3	6.0
2025-01-22 15:55:49.411789	83.7	27.2	-90.7	6.1
2025-01-22 15:55:50.569267	83.5	27.3	-90.6	6.7
2025-01-22 15:55:51.731252	83.2	27.5	-90.3	5.5
2025-01-22 15:55:52.895181	83.0	27.6	-90.6	5.5
2025-01-22 15:55:54.055972	82.7	27.8	-90.0	4.3
2025-01-22 15:55:55.216942	82.5	27.9	-90.7	0.8
2025-01-22 15:55:56.377360	82.2	28.1	-90.8	2.8
2025-01-22 15:55:57.544598	82.0	28.2	-90.5	4.5
2025-01-22 15:55:58.703821	81.7	28.4	-90.6	6.2
2025-01-22 15:55:59.869280	81.4	28.5	-90.5	8.1
2025-01-22 15:56:01.029023	81.2	28.7	-90.6	8.5
2025-01-22 15:56:02.189152	80.9	28.8	-90.2	9.7
2025-01-22 15:56:03.357233	80.6	28.9	-90.4	8.7
2025-01-22 15:56:04.529386	80.3	29.1	-90.4	8.7
2025-01-22 15:56:05.690924	80.1	29.2	-90.5	5.7
2025-01-22 15:56:06.860264	79.8	29.4	-90.2	6.4
2025-01-22 15:56:08.023622	79.5	29.5	-89.7	7.8
2025-01-22 15:56:09.185204	79.2	29.7	-89.6	7.4
2025-01-22 15:56:10.341247	78.9	29.8	-90.2	10.2
2025-01-22 15:56:11.508108	78.6	30.0	-90.0	11.9
2025-01-22 15:56:12.675789	78.3	30.1	-90.0	10.7
2025-01-22 15:56:13.841004	78.0	30.3	-90.4	5.2
2025-01-22 15:56:15.007494	77.7	30.4	-90.7	8.0
2025-01-22 15:56:16.174172	77.4	30.6	-89.9	4.9
2025-01-22 15:56:17.331771	77.1	30.7	-89.9	1.8
2025-01-22 15:56:18.499050	76.8	30.8	-90.1	4.1
2025-01-22 15:56:19.662346	76.5	31.0	-89.8	4.2
2025-01-22 15:56:20.821940	76.2	31.1	-90.2	5.3
2025-01-22 15:56:21.984413	75.9	31.3	-90.1	8.5
2025-01-22 15:56:23.148989	75.6	31.4	-90.0	12.6
2025-01-22 15:56:24.309044	75.3	31.6	-90.3	12.0
2025-01-22 15:56:25.475212	74.9	31.7	-89.5	11.3
2025-01-22 15:56:26.643553	74.6	31.9	-89.6	11.0
2025-01-22 15:56:27.802343	74.3	32.0	-89.6	9.9
2025-01-22 15:56:28.966737	73.9	32.1	-90.6	8.5
2025-01-22 15:56:30.127299	73.6	32.3	-90.4	8.3
2025-01-22 15:56:31.289164	73.3	32.4	-90.1	7.4
2025-01-22 15:56:32.452952	72.9	32.6	-90.9	10.3
2025-01-22 15:56:33.623571	72.6	32.7	-89.9	14.4
2025-01-22 15:56:34.784756	72.2	32.8	-90.6	17.0
2025-01-22 15:56:35.953294	71.9	33.0	-90.6	13.4
2025-01-22 15:56:37.121971	71.5	33.1	-90.3	13.8
2025-01-22 15:56:38.284095	71.2	33.3	-90.6	11.2
2025-01-22 15:56:39.449716	70.8	33.4	-91.0	10.0
2025-01-22 15:56:40.612643	70.4	33.5	-90.9	7.9
2025-01-22 15:56:41.776090	70.1	33.7	-90.9	4.6
2025-01-22 15:56:42.938118	69.7	33.8	-90.7	4.5
2025-01-22 15:56:44.096919	69.3	33.9	-90.4	5.1
2025-01-22 15:56:45.261078	69.0	34.1	-90.4	4.1
2025-01-22 15:56:46.428865	68.6	34.2	-90.4	7.3
2025-01-22 15:56:47.591384	68.2	34.3	-90.4	10.6
2025-01-22 15:56:48.751533	67.8	34.5	-90.7	13.4
2025-01-22 15:56:49.916931	67.4	34.6	-91.0	15.2
2025-01-22 15:56:51.077215	67.0	34.7	-90.7	15.9
2025-01-22 15:56:52.240785	66.6	34.9	-90.6	16.3
2025-01-22 15:56:53.404471	66.2	35.0	-90.7	15.5
2025-01-22 15:56:54.569989	65.8	35.1	-90.4	15.3
2025-01-22 15:56:55.733465	65.4	35.2	-90.6	8.9
2025-01-22 15:56:56.897976	65.0	35.4	-90.6	10.7
2025-01-22 15:56:58.064838	64.6	35.5	-90.6	9.6
2025-01-22 15:56:59.221937	64.2	35.6	-90.1	5.8
2025-01-22 15:57:00.384189	63.8	35.7	-90.7	9.3
2025-01-22 15:57:01.547635	63.4	35.8	-90.7	13.7
2025-01-22 15:57:02.707460	62.9	36.0	-90.9	15.2
2025-01-22 15:57:03.872836	62.5	36.1	-90.7	16.1
2025-01-22 15:57:05.051456	62.1	36.2	-90.2	12.4
2025-01-22 15:57:06.218816	61.7	36.3	-90.6	16.4
2025-01-22 15:57:07.379674	61.2	36.4	-90.7	13.2
2025-01-22 15:57:08.540564	60.8	36.5	-90.6	11.1
2025-01-22 15:57:09.713502	60.3	36.6	-90.7	6.8
2025-01-22 15:57:10.876809	59.9	36.7	-90.8	5.3
2025-01-22 15:57:12.042573	59.5	36.8	-90.4	7.4
2025-01-22 15:57:13.211124	59.0	36.9	-90.5	2.8
2025-01-22 15:57:14.378981	58.6	37.0	-91.0	5.7
2025-01-22 15:57:15.539842	58.1	37.1	-90.8	7.9
2025-01-22 15:57:16.709562	57.6	37.2	-91.0	6.4
2025-01-22 15:57:17.869639	57.2	37.3	-91.0	7.3
2025-01-22 15:57:19.032854	56.7	37.4	-90.5	8.6
2025-01-22 15:57:20.197466	56.3	37.5	-89.9	11.1
2025-01-22 15:57:21.359406	55.8	37.6	-90.6	13.8
2025-01-22 15:57:22.525179	55.3	37.7	-90.5	14.9
2025-01-22 15:57:23.701410	54.8	37.8	-90.6	15.4
2025-01-22 15:57:24.869578	54.4	37.9	-90.8	15.1
2025-01-22 15:57:26.036459	53.9	38.0	-90.8	16.3
2025-01-22 15:57:27.201455	53.4	38.0	-90.9	12.4
2025-01-22 15:57:28.368480	52.9	38.1	-90.6	9.1
2025-01-22 15:57:29.531113	52.4	38.2	-90.7	11.4
2025-01-22 15:57:30.696373	51.9	38.3	-90.1	5.3
2025-01-22 15:57:31.855300	51.5	38.3	-90.5	4.9
2025-01-22 15:57:33.028752	51.0	38.4	-90.2	9.1
2025-01-22 15:57:34.190867	50.5	38.5	-89.8	6.9
2025-01-22 15:57:35.352647	50.0	38.6	-89.7	5.4
2025-01-22 15:57:36.512534	49.5	38.6	-90.0	9.3
2025-01-22 15:57:37.693472	49.0	38.7	-90.8	10.2
2025-01-22 15:57:38.850812	48.5	38.7	-90.6	10.1
2025-01-22 15:57:40.015000	48.0	38.8	-90.7	15.6
2025-01-22 15:57:41.178725	47.5	38.8	-90.3	15.3
2025-01-22 15:57:42.344417	47.0	38.9	-90.2	16.7
2025-01-22 15:57:43.509471	46.4	38.9	-90.5	17.6
2025-01-22 15:57:44.675390	45.9	39.0	-90.7	14.6
2025-01-22 15:57:45.852541	45.4	39.0	-90.6	11.6
2025-01-22 15:57:47.007426	44.9	39.1	-90.5	11.7
2025-01-22 15:57:48.170120	44.4	39.1	-90.1	9.5
2025-01-22 15:57:49.348213	43.9	39.1	-90.3	6.3
2025-01-22 15:57:50.513063	43.4	39.2	-90.5	10.2
2025-01-22 15:57:51.671805	42.9	39.2	-90.1	9.5
2025-01-22 15:57:52.838248	42.3	39.2	-89.9	6.4
2025-01-22 15:57:54.009709	41.8	39.3	-89.6	6.0
2025-01-22 15:57:55.171750	41.3	39.3	-89.3	5.1
2025-01-22 15:57:56.334653	40.8	39.3	-90.0	5.0
2025-01-22 15:57:57.495896	40.3	39.3	-90.1	4.3
2025-01-22 15:57:58.653589	39.7	39.3	-90.5	5.8
2025-01-22 15:57:59.819772	39.2	39.3	-90.9	3.6
2025-01-22 15:58:00.965565	38.7	39.3	-90.5	4.8
2025-01-22 15:58:02.122494	38.2	39.4	-90.5	7.3
2025-01-22 15:58:03.294425	37.7	39.4	-90.1	4.7
2025-01-22 15:58:04.459124	37.1	39.4	-90.6	3.6
2025-01-22 15:58:05.622315	36.6	39.4	-90.6	4.8
2025-01-22 15:58:06.777642	36.1	39.4	-90.4	4.3
2025-01-22 15:58:07.941646	35.6	39.3	-90.3	8.4
2025-01-22 15:58:09.094970	35.1	39.3	-90.2	9.6
2025-01-22 15:58:10.250210	34.5	39.3	-90.1	8.6
2025-01-22 15:58:11.408961	34.0	39.3	-90.3	9.0
2025-01-22 15:58:12.574947	33.5	39.3	-90.5	10.4
2025-01-22 15:58:13.732473	33.0	39.3	-90.7	9.2
2025-01-22 15:58:14.898578	32.5	39.2	-90.7	12.1
2025-01-22 15:58:16.059616	32.0	39.2	-90.2	12.4
2025-01-22 15:58:17.218969	31.4	39.2	-89.4	12.8
2025-01-22 15:58:18.382698	30.9	39.2	-89.8	14.6
2025-01-22 15:58:19.545359	30.4	39.1	-90.0	13.6
2025-01-22 15:58:20.704387	29.9	39.1	-90.6	14.7
2025-01-22 15:58:21.865822	29.4	39.0	-90.4	12.2
2025-01-22 15:58:23.032180	28.9	39.0	-90.5	14.2
2025-01-22 15:58:24.188095	28.4	39.0	-89.8	14.6
2025-01-22 15:58:25.354141	27.9	38.9	-89.9	13.9
2025-01-22 15:58:26.513767	27.4	38.9	-90.4	15.8
2025-01-22 15:58:27.677204	26.9	38.8	-90.7	13.4
2025-01-22 15:58:28.840570	26.4	38.8	-90.4	12.1
2025-01-22 15:58:29.999909	25.9	38.7	-90.7	11.3
2025-01-22 15:58:31.146876	25.4	38.6	-90.2	13.3
2025-01-22 15:58:32.309448	24.9	38.6	-89.4	11.4
2025-01-22 15:58:33.473343	24.4	38.5	-89.4	10.1
2025-01-22 15:58:34.641639	23.9	38.5	-90.2	14.2
2025-01-22 15:58:35.803611	23.4	38.4	-90.0	10.2
2025-01-22 15:58:36.971284	22.9	38.3	-89.8	10.6
2025-01-22 15:58:38.132671	22.4	38.2	-89.6	10.5
2025-01-22 15:58:39.292321	21.9	38.2	-90.6	9.2
2025-01-22 15:58:40.455010	21.4	38.1	-90.5	12.5
2025-01-22 15:58:41.609185	21.0	38.0	-90.8	10.0
2025-01-22 15:58:42.769386	20.5	37.9	-90.7	10.9
2025-01-22 15:58:43.928038	20.0	37.8	-90.3	11.9
2025-01-22 15:58:45.093406	19.5	37.8	-90.4	12.9
2025-01-22 15:58:46.254787	19.1	37.7	-90.2	12.7
2025-01-22 15:58:47.423339	18.6	37.6	-89.7	11.4
2025-01-22 15:58:48.587738	18.1	37.5	-90.0	12.0
2025-01-22 15:58:49.755546	17.7	37.4	-90.0	9.8
2025-01-22 15:58:50.912637	17.2	37.3	-89.6	12.4
2025-01-22 15:58:52.067654	16.8	37.2	-89.6	10.8
2025-01-22 15:58:53.223522	16.3	37.1	-89.3	11.3
2025-01-22 15:58:54.378448	15.9	37.0	-89.9	9.4
2025-01-22 15:58:55.543304	15.4	36.9	-89.6	9.0
2025-01-22 15:58:56.704026	15.0	36.8	-89.5	9.4
2025-01-22 15:58:57.872286	14.5	36.7	-89.8	8.6
2025-01-22 15:58:59.031970	14.1	36.6	-89.4	8.9
2025-01-22 15:59:00.194672	13.6	36.5	-89.4	9.9
2025-01-22 15:59:01.351653	13.2	36.4	-89.7	8.6
2025-01-22 15:59:02.512100	12.8	36.3	-90.0	11.7
2025-01-22 15:59:03.675621	12.4	36.2	-90.8	13.1
2025-01-22 15:59:04.840990	11.9	36.0	-90.7	11.3
2025-01-22 15:59:06.004484	11.5	35.9	-90.6	13.8
2025-01-22 15:59:07.169772	11.1	35.8	-90.5	13.3
2025-01-22 15:59:08.340040	10.7	35.7	-90.3	12.2
2025-01-22 15:59:09.498940	10.3	35.6	-91.2	13.9
2025-01-22 15:59:10.662720	9.8	35.4	-91.0	11.6
2025-01-22 15:59:11.820913	9.4	35.3	-90.8	10.4
2025-01-22 15:59:12.984845	9.0	35.2	-90.6	13.3
2025-01-22 15:59:14.144792	8.6	35.1	-90.2	10.1
2025-01-22 15:59:15.311713	8.2	34.9	-90.1	12.1
2025-01-22 15:59:16.474788	7.8	34.8	-90.4	10.9
2025-01-22 15:59:17.637455	7.5	34.7	-90.5	12.3
2025-01-22 15:59:18.802588	7.1	34.6	-90.6	11.3
2025-01-22 15:59:19.958515	6.7	34.4	-90.6	10.8
2025-01-22 15:59:21.118313	6.3	34.3	-90.6	11.7
2025-01-22 15:59:22.279896	5.9	34.2	-90.9	8.6
2025-01-22 15:59:23.444764	5.5	34.0	-90.9	8.5
2025-01-22 15:59:24.603031	5.2	33.9	-90.9	8.9
2025-01-22 15:59:25.765784	4.8	33.8	-90.3	7.3
2025-01-22 15:59:26.929841	4.4	33.6	-90.2	8.2
2025-01-22 15:59:28.092540	4.1	33.5	-90.1	7.0
2025-01-22 15:59:29.257570	3.7	33.4	-89.7	4.1
2025-01-22 15:59:30.420520	3.3	33.2	-89.5	4.2
2025-01-22 15:59:31.581078	3.0	33.1	-89.9	2.3
2025-01-22 15:59:32.741930	2.6	33.0	-89.6	2.8
2025-01-22 15:59:33.908864	2.3	32.8	-89.4	4.6
2025-01-22 15:59:35.063709	2.0	32.7	-89.7	4.2
2025-01-22 15:59:36.229897	1.6	32.5	-89.6	2.0
2025-01-22 15:59:37.392945	1.3	32.4	-89.7	4.7
2025-01-22 15:59:38.559207	0.9	32.3	-89.7	5.0
2025-01-22 15:59:39.716431	0.6	32.1	-89.3	2.9
2025-01-22 15:59:40.882994	0.3	32.0	-89.9	5.6
2025-01-22 15:59:42.040807	359.9	31.8	-90.6	4.5
2025-01-22 15:59:43.203273	359.6	31.7	-90.5	4.8
2025-01-22 15:59:44.364473	359.3	31.5	-90.7	6.2
2025-01-22 15:59:45.533012	359.0	31.4	-90.3	6.8
2025-01-22 15:59:46.697247	358.7	31.3	-90.7	10.0
2025-01-22 15:59:47.854024	358.3	31.1	-90.8	7.8
2025-01-22 15:59:49.022108	358.0	31.0	-90.9	5.3
2025-01-22 15:59:50.180101	357.7	30.8	-90.5	5.8
2025-01-22 15:59:51.347992	357.4	30.7	-90.7	8.1
2025-01-22 15:59:52.505767	357.1	30.5	-90.8	6.9
2025-01-22 15:59:53.674053	356.8	30.4	-90.7	9.7
2025-01-22 15:59:54.840430	356.5	30.2	-90.4	7.5
2025-01-22 15:59:56.002295	356.2	30.1	-90.2	7.5
2025-01-22 15:59:57.167639	355.9	30.0	-90.3	7.4
2025-01-22 15:59:58.328391	355.6	29.8	-90.6	4.8
2025-01-22 15:59:59.492991	355.4	29.7	-90.4	6.9
2025-01-22 16:00:00.644466	355.1	29.5	-90.2	6.3
2025-01-22 16:00:01.804578	354.8	29.4	-90.3	1.4
2025-01-22 16:00:02.963840	354.5	29.2	-90.9	3.0
2025-01-22 16:00:04.126786	354.2	29.1	-90.7	1.9
2025-01-22 16:00:05.290796	354.0	28.9	-90.5	1.9
2025-01-22 16:00:06.458259	353.7	28.8	-90.5	3.8
2025-01-22 16:00:07.615822	353.4	28.7	-90.8	4.2
2025-01-22 16:00:08.777789	353.2	28.5	-90.4	2.6
2025-01-22 16:00:09.938741	352.9	28.4	-90.9	3.2
2025-01-22 16:00:11.101888	352.6	28.2	-90.6	5.0
2025-01-22 16:00:12.261306	352.4	28.1	-90.4	3.6
2025-01-22 16:00:13.424630	352.1	27.9	-89.8	4.6
2025-01-22 16:00:14.589129	351.9	27.8	-89.8	3.6
2025-01-22 16:00:15.751473	351.6	27.6	-89.5	6.5
2025-01-22 16:00:16.916114	351.4	27.5	-89.6	5.7
2025-01-22 16:00:18.067920	351.1	27.3	-89.7	6.6
2025-01-22 16:00:19.228388	350.9	27.2	-89.5	4.7
2025-01-22 16:00:20.389734	350.6	27.1	-89.5	9.5
2025-01-22 16:00:21.552278	350.4	26.9	-90.0	6.0
2025-01-22 16:00:22.711374	350.2	26.8	-89.6	4.9
2025-01-22 16:00:23.869431	349.9	26.6	-89.9	9.3
2025-01-22 16:00:25.034231	349.7	26.5	-90.2	4.9
2025-01-22 16:00:26.197416	349.4	26.3	-90.3	2.2
2025-01-22 16:00:27.363492	349.2	26.2	-90.9	4.6
2025-01-22 16:00:28.529775	349.0	26.1	-90.8	4.5
2025-01-22 16:00:29.691859	348.8	25.9	-90.9	4.2
2025-01-22 16:00:30.860195	348.5	25.8	-90.7	0.4
2025-01-22 16:00:32.029758	348.3	25.6	-90.8	5.1
2025-01-22 16:00:33.197874	348.1	25.5	-90.7	5.1
2025-01-22 16:00:34.363010	347.9	25.3	-90.4	6.1
2025-01-22 16:00:35.531586	347.7	25.2	-90.5	5.7
2025-01-22 16:00:36.694088	347.4	25.1	-90.7	4.1
2025-01-22 16:00:37.861209	347.2	24.9	-90.8	7.0
2025-01-22 16:00:39.020705	347.0	24.8	-90.5	8.5
2025-01-22 16:00:40.190535	346.8	24.6	-90.6	8.5
2025-01-22 16:00:41.353362	346.6	24.5	-90.8	8.2
2025-01-22 16:00:42.513254	346.4	24.4	-90.6	8.2
2025-01-22 16:00:43.675047	346.2	24.2	-91.1	5.9
2025-01-22 16:00:44.842490	346.0	24.1	-90.8	3.8
2025-01-22 16:00:46.008227	345.8	23.9	-90.7	4.0
2025-01-22 16:00:47.175531	345.6	23.8	-90.3	1.5
2025-01-22 16:00:48.350310	345.4	23.7	-90.9	3.4
2025-01-22 16:00:49.513109	345.2	23.5	-90.8	4.2
2025-01-22 16:00:50.687043	345.0	23.4	-90.7	2.5
2025-01-22 16:00:51.845030	344.8	23.3	-90.6	3.0
2025-01-22 16:00:53.015696	344.6	23.1	-91.0	5.8
2025-01-22 16:00:54.182847	344.5	23.0	-90.6	4.8
2025-01-22 16:00:55.344025	344.3	22.8	-90.4	3.9
2025-01-22 16:00:56.512714	344.1	22.7	-90.6	7.4
2025-01-22 16:00:57.676327	343.9	22.6	-90.4	4.5
2025-01-22 16:00:58.843983	343.7	22.4	-90.7	7.5
2025-01-22 16:01:00.008299	343.5	22.3	-90.7	11.9
2025-01-22 16:01:01.160844	343.4	22.2	-90.7	6.3
2025-01-22 16:01:02.312451	343.2	22.0	-89.9	8.7
2025-01-22 16:01:03.476226	343.0	21.9	-90.1	4.3
2025-01-22 16:01:04.644963	342.8	21.8	-90.3	4.2
2025-01-22 16:01:05.809497	342.7	21.6	-90.4	5.4
2025-01-22 16:01:06.975286	342.5	21.5	-90.7	3.1
2025-01-22 16:01:08.142336	342.3	21.4	-90.9	4.4
2025-01-22 16:01:09.305982	342.2	21.3	-90.2	2.0
2025-01-22 16:01:10.473716	342.0	21.1	-90.2	3.3
2025-01-22 16:01:11.636350	341.8	21.0	-90.4	5.1
2025-01-22 16:01:12.800339	341.7	20.9	-90.6	2.6
2025-01-22 16:01:13.964423	341.5	20.7	-90.9	2.0
2025-01-22 16:01:15.131661	341.4	20.6	-90.8	4.3
2025-01-22 16:01:16.296830	341.2	20.5	-90.7	5.4
2025-01-22 16:01:17.460415	341.0	20.3	-91.0	3.9
2025-01-22 16:01:18.628564	340.9	20.2	-91.0	0.7
2025-01-22 16:01:19.794817	340.7	20.1	-90.8	2.4
2025-01-22 16:01:20.954453	340.6	20.0	-90.8	2.9
2025-01-22 16:01:22.113732	340.4	19.8	-90.5	3.5
2025-01-22 16:01:23.273047	340.3	19.7	-90.6	2.7
2025-01-22 16:01:24.433628	340.1	19.6	-90.7	3.1
2025-01-22 16:01:25.596531	340.0	19.5	-90.6	3.6
2025-01-22 16:01:26.761178	339.8	19.3	-90.6	3.3
2025-01-22 16:01:27.921136	339.7	19.2	-90.4	1.3
2025-01-22 16:01:29.067467	339.5	19.1	-90.2	2.5
2025-01-22 16:01:30.235326	339.4	19.0	-90.4	2.8
2025-01-22 16:01:31.393689	339.3	18.9	-90.9	2.6
2025-01-22 16:01:32.551526	339.1	18.7	-90.7	0.7
2025-01-22 16:01:33.715612	339.0	18.6	-91.0	2.1
2025-01-22 16:01:34.880104	338.8	18.5	-90.6	1.6
2025-01-22 16:01:36.047743	338.7	18.4	-90.4	5.0
2025-01-22 16:01:37.211189	338.6	18.2	-90.4	1.3
2025-01-22 16:01:38.370792	338.4	18.1	-90.7	1.1
2025-01-22 16:01:39.654702	338.3	18.0	-90.9	2.6
2025-01-22 16:01:40.818253	338.1	17.9	-91.2	1.5
2025-01-22 16:01:41.973997	338.0	17.8	-90.9	3.7
2025-01-22 16:01:43.141837	337.9	17.6	-90.8	1.6
2025-01-22 16:01:44.300636	337.8	17.5	-90.5	2.7
2025-01-22 16:01:45.467444	337.6	17.4	-90.8	3.0
2025-01-22 16:01:46.631843	337.5	17.3	-90.6	1.9
2025-01-22 16:01:47.791398	337.4	17.2	-90.6	3.2
2025-01-22 16:01:48.956009	337.2	17.0	-90.5	3.0
2025-01-22 16:01:50.120501	337.1	16.9	-90.6	2.2
2025-01-22 16:01:51.287667	337.0	16.8	-90.7	2.5
2025-01-22 16:01:52.448492	336.9	16.7	-90.9	4.2
2025-01-22 16:01:53.610681	336.7	16.6	-90.9	2.1
2025-01-22 16:01:54.776745	336.6	16.5	-91.0	4.0
2025-01-22 16:01:55.938732	336.5	16.4	-90.6	1.7
2025-01-22 16:01:57.106715	336.4	16.2	-89.5	2.4
2025-01-22 16:01:58.271286	336.3	16.1	-89.6	0.4
2025-01-22 16:01:59.439019	336.2	16.0	-90.2	3.0
2025-01-22 16:02:00.702783	336.0	15.9	-89.9	2.0
2025-01-22 16:02:01.863482	335.9	15.8	-89.2	2.3
2025-01-22 16:02:03.024822	335.8	15.7	-89.9	5.5
2025-01-22 16:02:04.187967	335.7	15.6	-90.9	2.4
2025-01-22 16:02:05.461583	335.6	15.4	-90.4	2.8
2025-01-22 16:02:06.623424	335.4	15.3	-90.8	2.3
2025-01-22 16:02:07.784423	335.3	15.2	-90.5	1.5
2025-01-22 16:02:08.948428	335.2	15.1	-90.6	2.7
2025-01-22 16:02:10.112058	335.1	15.0	-90.7	2.0
2025-01-22 16:02:11.278635	335.0	14.9	-90.5	0.6
2025-01-22 16:02:12.440383	334.9	14.8	-89.6	1.8
2025-01-22 16:02:13.601486	334.8	14.7	-90.1	2.7
2025-01-22 16:02:14.761876	334.7	14.6	-90.2	1.9
#Closed at: 2025-01-22 15:54:04.481079