passes_logs/2025/01/22/LEX_Murmansk/LEX_Murmansk__20250122_175734_NOAA_18_rec.log

#Pass ID: 20250122_175734_NOAA 18
#Satellite: NOAA 18
#Configuration: NOAA 18
#Start time: 2025-01-22 17:57:29.398933

#LorettStation: 1.0.0 05.05.2024
#Station: LEX_Murmansk
#Location: 33.156738 lon 68.926811 lat
#TLE: 1 28654U 05018A   25022.24143052  .00000458  00000+0  26647-3 0  9995
#TLE: 2 28654  98.8556 103.2235 0014680 159.1096 201.0679 14.13493787 14203

#Time	Az	El	Level	SNR
2025-01-22 17:57:41.507471	124.3	16.3	-89.6	6.1
2025-01-22 17:57:43.805061	124.1	16.5	-89.8	9.9
2025-01-22 17:57:46.093325	124.0	16.8	-89.8	8.9
2025-01-22 17:57:48.384168	123.9	17.0	-89.4	8.7
2025-01-22 17:57:50.678161	123.7	17.3	-90.4	9.7
2025-01-22 17:57:52.972510	123.6	17.5	-89.5	9.2
2025-01-22 17:57:55.264432	123.5	17.8	-89.7	9.6
2025-01-22 17:57:57.559586	123.3	18.0	-90.1	7.3
2025-01-22 17:57:59.849778	123.2	18.3	-89.7	8.5
2025-01-22 17:58:02.141918	123.0	18.6	-89.8	10.9
2025-01-22 17:58:04.437657	122.9	18.8	-89.6	12.7
2025-01-22 17:58:06.729773	122.7	19.1	-90.1	14.4
2025-01-22 17:58:09.021189	122.6	19.4	-89.9	13.2
2025-01-22 17:58:11.318604	122.4	19.7	-89.6	11.7
2025-01-22 17:58:13.608771	122.2	19.9	-90.4	8.3
2025-01-22 17:58:15.902875	122.1	20.2	-90.5	6.8
2025-01-22 17:58:18.195629	121.9	20.5	-90.1	12.9
2025-01-22 17:58:20.486318	121.7	20.8	-90.5	14.0
2025-01-22 17:58:22.780905	121.6	21.1	-90.6	17.0
2025-01-22 17:58:25.079395	121.4	21.4	-90.8	10.7
2025-01-22 17:58:27.375306	121.2	21.7	-90.2	13.3
2025-01-22 17:58:29.667164	121.0	22.0	-90.4	10.4
2025-01-22 17:58:31.963855	120.8	22.3	-90.7	5.8
2025-01-22 17:58:34.250578	120.6	22.6	-90.3	9.4
2025-01-22 17:58:36.544779	120.4	22.9	-90.6	10.5
2025-01-22 17:58:38.847778	120.2	23.2	-90.6	7.9
2025-01-22 17:58:41.138677	120.0	23.5	-90.3	8.5
2025-01-22 17:58:43.426569	119.8	23.9	-90.7	8.4
2025-01-22 17:58:45.713549	119.6	24.2	-90.8	9.2
2025-01-22 17:58:48.013357	119.4	24.5	-90.6	5.1
2025-01-22 17:58:50.307490	119.2	24.9	-90.6	7.6
2025-01-22 17:58:52.606943	118.9	25.2	-90.5	6.2
2025-01-22 17:58:54.902865	118.7	25.5	-90.5	6.2
2025-01-22 17:58:57.193578	118.5	25.9	-91.0	6.5
2025-01-22 17:58:59.495727	118.2	26.2	-90.8	7.2
2025-01-22 17:59:01.788271	118.0	26.6	-90.9	5.9
2025-01-22 17:59:04.081892	117.7	26.9	-90.0	5.1
2025-01-22 17:59:06.377287	117.4	27.3	-90.4	4.0
2025-01-22 17:59:08.668818	117.2	27.6	-90.3	8.2
2025-01-22 17:59:10.958997	116.9	28.0	-90.3	11.5
2025-01-22 17:59:13.261894	116.6	28.4	-90.1	12.4
2025-01-22 17:59:15.555722	116.3	28.8	-90.4	8.5
2025-01-22 17:59:17.850278	116.0	29.1	-90.6	7.6
2025-01-22 17:59:20.147781	115.7	29.5	-90.6	4.4
2025-01-22 17:59:22.458706	115.4	29.9	-90.6	5.1
2025-01-22 17:59:24.750652	115.1	30.3	-90.6	11.3
2025-01-22 17:59:27.052604	114.8	30.7	-90.4	12.9
2025-01-22 17:59:29.349181	114.4	31.1	-90.0	9.1
2025-01-22 17:59:31.643505	114.1	31.5	-90.4	13.5
2025-01-22 17:59:33.948283	113.7	31.9	-89.4	11.5
2025-01-22 17:59:36.237368	113.4	32.3	-90.5	16.8
2025-01-22 17:59:38.525308	113.0	32.8	-90.5	11.1
2025-01-22 17:59:40.816065	112.6	33.2	-90.8	9.8
2025-01-22 17:59:43.126283	112.2	33.6	-90.5	10.8
2025-01-22 17:59:45.422358	111.8	34.0	-90.8	9.1
2025-01-22 17:59:47.716708	111.4	34.5	-90.5	13.3
2025-01-22 17:59:50.010008	111.0	34.9	-90.9	12.3
2025-01-22 17:59:52.298572	110.6	35.4	-90.5	9.9
2025-01-22 17:59:54.595836	110.1	35.8	-90.4	9.9
2025-01-22 17:59:56.911231	109.7	36.3	-90.6	12.7
2025-01-22 17:59:59.205364	109.2	36.7	-90.8	13.1
2025-01-22 18:00:01.495595	108.7	37.2	-90.2	4.5
2025-01-22 18:00:03.794020	108.2	37.7	-90.6	8.5
2025-01-22 18:00:06.088396	107.7	38.1	-90.4	13.4
2025-01-22 18:00:08.386103	107.2	38.6	-90.4	6.9
2025-01-22 18:00:10.686717	106.6	39.1	-91.2	4.5
2025-01-22 18:00:12.984708	106.1	39.6	-90.7	7.2
2025-01-22 18:00:15.276022	105.5	40.0	-90.6	13.3
2025-01-22 18:00:17.573682	104.9	40.5	-90.9	9.2
2025-01-22 18:00:19.862854	104.3	41.0	-91.0	6.5
2025-01-22 18:00:22.161806	103.6	41.5	-90.8	8.5
2025-01-22 18:00:24.459351	103.0	42.0	-90.4	6.7
2025-01-22 18:00:26.746156	102.3	42.5	-90.8	14.0
2025-01-22 18:00:29.044189	101.6	43.0	-91.3	17.9
2025-01-22 18:00:31.338310	100.9	43.5	-90.4	18.2
2025-01-22 18:00:33.642420	100.1	44.0	-91.1	16.9
2025-01-22 18:00:35.938633	99.4	44.5	-90.9	13.5
2025-01-22 18:00:38.237678	98.6	45.0	-90.4	14.7
2025-01-22 18:00:40.526251	97.8	45.5	-90.8	13.2
2025-01-22 18:00:42.813231	96.9	46.0	-91.1	13.0
2025-01-22 18:00:45.107405	96.0	46.5	-90.3	11.4
2025-01-22 18:00:47.396134	95.1	47.0	-90.8	8.5
2025-01-22 18:00:49.705996	94.2	47.5	-91.0	15.0
2025-01-22 18:00:52.000711	93.3	48.0	-90.9	10.9
2025-01-22 18:00:54.291094	92.3	48.5	-90.6	12.6
2025-01-22 18:00:56.586386	91.2	49.0	-90.8	7.4
2025-01-22 18:00:58.880527	90.2	49.5	-91.2	7.7
2025-01-22 18:01:01.170728	89.1	50.0	-90.6	9.0
2025-01-22 18:01:03.460600	88.0	50.4	-91.0	12.9
2025-01-22 18:01:05.754308	86.8	50.9	-91.2	10.1
2025-01-22 18:01:08.045214	85.6	51.3	-90.7	11.5
2025-01-22 18:01:10.335402	84.4	51.8	-91.0	12.0
2025-01-22 18:01:12.626390	83.1	52.2	-91.2	10.6
2025-01-22 18:01:14.921335	81.8	52.7	-91.0	5.6
2025-01-22 18:01:17.209687	80.5	53.1	-90.4	6.9
2025-01-22 18:01:19.502653	79.1	53.5	-90.8	10.7
2025-01-22 18:01:21.787395	77.7	53.8	-90.9	17.2
2025-01-22 18:01:24.043565	76.2	54.2	-90.5	17.7
2025-01-22 18:01:26.286397	74.8	54.5	-90.5	15.8
2025-01-22 18:01:28.528830	73.3	54.9	-90.7	11.4
2025-01-22 18:01:30.770380	71.8	55.2	-90.2	18.1
2025-01-22 18:01:33.023199	70.2	55.5	-90.5	11.2
2025-01-22 18:01:35.313533	68.6	55.8	-90.8	17.1
2025-01-22 18:01:37.607965	66.9	56.0	-90.8	15.7
2025-01-22 18:01:39.899781	65.2	56.2	-90.8	16.9
2025-01-22 18:01:42.191085	63.5	56.4	-90.6	17.8
2025-01-22 18:01:44.488275	61.7	56.6	-90.7	17.4
2025-01-22 18:01:46.783277	60.0	56.8	-90.5	17.6
2025-01-22 18:01:49.077024	58.2	56.9	-90.5	14.3
2025-01-22 18:01:51.364113	56.4	57.0	-90.8	13.2
2025-01-22 18:01:53.660566	54.6	57.1	-91.1	16.3
2025-01-22 18:01:55.956099	52.8	57.1	-90.6	11.0
2025-01-22 18:01:58.248524	50.9	57.2	-90.3	18.6
2025-01-22 18:02:00.532219	49.1	57.2	-90.6	8.3
2025-01-22 18:02:02.822431	47.3	57.1	-91.0	15.6
2025-01-22 18:02:05.117916	45.5	57.1	-90.5	12.7
2025-01-22 18:02:07.420576	43.7	57.0	-90.8	10.5
2025-01-22 18:02:09.716278	41.9	56.9	-90.8	13.4
2025-01-22 18:02:12.010296	40.1	56.7	-91.1	9.1
2025-01-22 18:02:14.303698	38.3	56.5	-90.7	15.3
2025-01-22 18:02:16.598637	36.6	56.3	-90.8	5.3
2025-01-22 18:02:18.886670	34.9	56.1	-91.0	10.6
2025-01-22 18:02:21.182345	33.2	55.9	-90.8	13.3
2025-01-22 18:02:23.476227	31.6	55.6	-90.2	10.7
2025-01-22 18:02:25.773574	30.0	55.3	-90.7	16.0
2025-01-22 18:02:28.064872	28.4	55.0	-90.7	9.2
2025-01-22 18:02:30.364757	26.8	54.7	-90.2	10.7
2025-01-22 18:02:32.614558	25.4	54.4	-90.7	10.9
2025-01-22 18:02:34.856318	23.9	54.0	-91.1	6.1
2025-01-22 18:02:37.097002	22.5	53.6	-90.9	8.1
2025-01-22 18:02:39.336992	21.1	53.3	-90.7	14.9
2025-01-22 18:02:41.590113	19.8	52.9	-90.8	14.3
2025-01-22 18:02:43.879969	18.5	52.4	-90.8	4.8
2025-01-22 18:02:46.166043	17.2	52.0	-90.9	7.4
2025-01-22 18:02:48.456814	15.9	51.6	-90.3	13.2
2025-01-22 18:02:50.745196	14.7	51.1	-90.9	14.8
2025-01-22 18:02:53.037550	13.5	50.7	-90.4	11.6
2025-01-22 18:02:55.335182	12.4	50.2	-90.4	18.5
2025-01-22 18:02:57.635528	11.3	49.7	-90.0	17.9
2025-01-22 18:02:59.932415	10.2	49.2	-90.6	11.0
2025-01-22 18:03:02.219313	9.2	48.8	-90.3	17.0
2025-01-22 18:03:04.510815	8.2	48.3	-90.6	11.1
2025-01-22 18:03:06.805545	7.2	47.8	-90.0	13.8
2025-01-22 18:03:09.102694	6.2	47.3	-90.4	10.5
2025-01-22 18:03:11.400008	5.3	46.8	-90.6	12.6
2025-01-22 18:03:13.699034	4.4	46.3	-90.9	21.5
2025-01-22 18:03:15.989881	3.6	45.8	-90.4	11.9
2025-01-22 18:03:18.282980	2.8	45.3	-90.6	19.3
2025-01-22 18:03:20.574038	2.0	44.8	-90.8	18.5
2025-01-22 18:03:22.869926	1.2	44.3	-90.6	19.8
2025-01-22 18:03:25.167862	0.4	43.7	-90.6	22.1
2025-01-22 18:03:27.464610	359.7	43.2	-90.9	17.0
2025-01-22 18:03:29.764100	359.0	42.7	-90.8	13.2
2025-01-22 18:03:32.058130	358.3	42.2	-90.8	13.5
2025-01-22 18:03:34.349860	357.6	41.7	-90.7	22.5
2025-01-22 18:03:36.649104	357.0	41.3	-91.0	14.8
2025-01-22 18:03:38.944706	356.4	40.8	-90.4	9.3
2025-01-22 18:03:41.235333	355.7	40.3	-90.2	18.3
2025-01-22 18:03:43.532422	355.2	39.8	-90.6	9.8
2025-01-22 18:03:45.826959	354.6	39.3	-90.1	15.6
2025-01-22 18:03:48.124226	354.0	38.8	-90.5	13.8
2025-01-22 18:03:50.412107	353.5	38.3	-90.2	13.7
2025-01-22 18:03:52.707901	353.0	37.9	-90.1	13.2
2025-01-22 18:03:55.000976	352.5	37.4	-90.2	13.7
2025-01-22 18:03:57.294251	352.0	36.9	-89.9	11.5
2025-01-22 18:03:59.587511	351.5	36.5	-90.4	6.3
2025-01-22 18:04:01.875388	351.0	36.0	-90.4	9.2
2025-01-22 18:04:04.161568	350.6	35.6	-90.1	11.5
2025-01-22 18:04:06.460749	350.1	35.1	-90.6	7.1
2025-01-22 18:04:08.749272	349.7	34.7	-90.5	16.2
2025-01-22 18:04:11.045383	349.3	34.2	-90.3	12.5
2025-01-22 18:04:13.338254	348.9	33.8	-90.3	13.3
2025-01-22 18:04:15.627932	348.5	33.4	-90.8	10.0
2025-01-22 18:04:17.919776	348.1	33.0	-90.7	6.5
2025-01-22 18:04:20.205828	347.7	32.5	-90.5	11.2
2025-01-22 18:04:22.499684	347.4	32.1	-90.4	8.3
2025-01-22 18:04:24.792940	347.0	31.7	-90.8	11.2
2025-01-22 18:04:27.081046	346.7	31.3	-90.7	7.6
2025-01-22 18:04:29.378324	346.3	30.9	-90.4	8.1
2025-01-22 18:04:31.672361	346.0	30.5	-90.8	12.5
2025-01-22 18:04:33.965393	345.7	30.1	-90.9	10.0
2025-01-22 18:04:36.258736	345.4	29.7	-90.4	10.4
2025-01-22 18:04:38.556659	345.1	29.3	-90.6	8.9
2025-01-22 18:04:40.831207	344.8	28.9	-91.2	11.4
2025-01-22 18:04:43.072002	344.5	28.6	-90.7	6.2
2025-01-22 18:04:45.312973	344.2	28.2	-90.9	5.6
2025-01-22 18:04:47.554878	343.9	27.8	-91.1	7.4
2025-01-22 18:04:49.797576	343.7	27.5	-90.9	10.9
2025-01-22 18:04:52.077399	343.4	27.1	-90.7	5.7
2025-01-22 18:04:54.366268	343.1	26.8	-90.5	6.9
2025-01-22 18:04:56.658937	342.9	26.4	-90.7	9.1
2025-01-22 18:04:58.950696	342.6	26.1	-90.9	4.3
2025-01-22 18:05:01.241301	342.4	25.7	-90.2	10.6
2025-01-22 18:05:03.538162	342.2	25.4	-90.3	8.4
2025-01-22 18:05:05.833927	341.9	25.0	-90.4	11.0
2025-01-22 18:05:08.125757	341.7	24.7	-90.1	10.7
2025-01-22 18:05:10.417271	341.5	24.4	-90.0	7.5
2025-01-22 18:05:12.707367	341.3	24.0	-90.4	9.4
2025-01-22 18:05:15.005287	341.1	23.7	-90.1	10.6
2025-01-22 18:05:17.299138	340.8	23.4	-90.4	10.9
2025-01-22 18:05:19.595307	340.6	23.1	-90.9	11.2
2025-01-22 18:05:21.889557	340.4	22.8	-90.9	7.3
2025-01-22 18:05:24.180350	340.2	22.5	-90.9	11.6
2025-01-22 18:05:26.473937	340.1	22.2	-91.2	5.6
2025-01-22 18:05:28.771116	339.9	21.9	-90.4	12.6
2025-01-22 18:05:31.066264	339.7	21.6	-90.5	9.0
2025-01-22 18:05:33.356531	339.5	21.3	-90.6	9.5
2025-01-22 18:05:35.651614	339.3	21.0	-90.9	10.1
2025-01-22 18:05:37.946046	339.2	20.7	-91.0	9.6
2025-01-22 18:05:40.244017	339.0	20.4	-90.4	6.4
2025-01-22 18:05:42.537754	338.8	20.1	-90.9	6.3
2025-01-22 18:05:44.836661	338.7	19.8	-90.5	7.3
2025-01-22 18:05:47.130973	338.5	19.5	-90.5	3.9
2025-01-22 18:05:49.426708	338.3	19.3	-90.5	5.9
2025-01-22 18:05:51.711434	338.2	19.0	-90.4	6.6
2025-01-22 18:05:53.954458	338.0	18.7	-90.4	4.2
2025-01-22 18:05:56.196130	337.9	18.5	-90.2	6.3
2025-01-22 18:05:58.437425	337.7	18.2	-90.2	3.1
2025-01-22 18:06:00.681170	337.6	17.9	-90.5	5.0
2025-01-22 18:06:02.945701	337.5	17.7	-90.5	5.2
2025-01-22 18:06:05.235258	337.3	17.4	-90.3	6.3
2025-01-22 18:06:07.525477	337.2	17.2	-90.6	2.6
2025-01-22 18:06:09.818642	337.1	16.9	-90.6	3.3
2025-01-22 18:06:12.112133	336.9	16.7	-90.3	5.4
2025-01-22 18:06:14.402730	336.8	16.4	-90.2	4.1
2025-01-22 18:06:16.699396	336.7	16.2	-90.2	3.5
2025-01-22 18:06:18.992876	336.5	15.9	-90.5	5.9
2025-01-22 18:06:21.285564	336.4	15.7	-90.0	3.3
2025-01-22 18:06:23.579107	336.3	15.4	-90.5	3.6
2025-01-22 18:06:25.878517	336.2	15.2	-90.1	4.8
2025-01-22 18:06:28.170752	336.1	15.0	-90.4	5.2
2025-01-22 18:06:30.445355	336.0	14.7	-89.9	5.8
2025-01-22 18:06:32.777489	335.8	14.5	-90.2	4.4
#Closed at: 2025-01-22 17:57:34.318382