passes_logs/2025/01/22/LEX_Murmansk/LEX_Murmansk__20250122_161824_NOAA_18_rec.log

#Pass ID: 20250122_161824_NOAA 18
#Satellite: NOAA 18
#Configuration: NOAA 18
#Start time: 2025-01-22 16:18:18.989513

#LorettStation: 1.0.0 05.05.2024
#Station: LEX_Murmansk
#Location: 33.156738 lon 68.926811 lat
#TLE: 1 28654U 05018A   25022.24143052  .00000458  00000+0  26647-3 0  9995
#TLE: 2 28654  98.8556 103.2235 0014680 159.1096 201.0679 14.13493787 14203

#Time	Az	El	Level	SNR
2025-01-22 16:18:31.260647	78.2	16.1	-89.8	9.2
2025-01-22 16:18:32.426047	78.0	16.2	-89.9	6.2
2025-01-22 16:18:33.590483	77.9	16.3	-90.0	3.7
2025-01-22 16:18:34.756377	77.7	16.4	-90.1	10.1
2025-01-22 16:18:35.920752	77.6	16.5	-90.3	10.3
2025-01-22 16:18:37.084887	77.4	16.6	-89.8	9.1
2025-01-22 16:18:38.248578	77.3	16.7	-89.5	14.0
2025-01-22 16:18:39.417489	77.1	16.8	-90.3	12.5
2025-01-22 16:18:40.585001	76.9	16.9	-90.1	9.0
2025-01-22 16:18:41.747288	76.8	17.0	-90.1	13.5
2025-01-22 16:18:42.914223	76.6	17.1	-90.1	9.9
2025-01-22 16:18:44.077935	76.4	17.2	-89.9	8.4
2025-01-22 16:18:45.241688	76.3	17.3	-89.7	10.1
2025-01-22 16:18:46.397248	76.1	17.4	-90.4	14.7
2025-01-22 16:18:47.557757	75.9	17.5	-89.9	12.9
2025-01-22 16:18:48.721067	75.8	17.6	-89.9	14.8
2025-01-22 16:18:49.881376	75.6	17.7	-88.8	10.8
2025-01-22 16:18:51.046833	75.4	17.8	-89.6	6.9
2025-01-22 16:18:52.207447	75.3	17.9	-89.3	11.5
2025-01-22 16:18:53.373763	75.1	18.0	-89.4	9.2
2025-01-22 16:18:54.537334	74.9	18.1	-89.5	6.9
2025-01-22 16:18:55.697128	74.7	18.2	-89.3	12.1
2025-01-22 16:18:56.855846	74.5	18.3	-89.5	12.8
2025-01-22 16:18:58.020146	74.4	18.4	-89.4	13.8
2025-01-22 16:18:59.189010	74.2	18.5	-90.2	18.1
2025-01-22 16:19:00.351148	74.0	18.6	-90.0	15.7
2025-01-22 16:19:01.517032	73.8	18.7	-90.6	9.9
2025-01-22 16:19:02.675365	73.6	18.8	-90.3	15.4
2025-01-22 16:19:03.838963	73.5	18.9	-90.8	18.5
2025-01-22 16:19:04.998693	73.3	19.0	-90.8	18.1
2025-01-22 16:19:06.166028	73.1	19.1	-90.6	13.3
2025-01-22 16:19:07.325279	72.9	19.3	-90.5	11.5
2025-01-22 16:19:08.489198	72.7	19.4	-90.4	7.5
2025-01-22 16:19:09.652231	72.5	19.5	-90.0	11.5
2025-01-22 16:19:10.812679	72.3	19.6	-90.1	15.3
2025-01-22 16:19:11.970630	72.1	19.7	-90.4	5.8
2025-01-22 16:19:13.091369	71.9	19.8	-90.1	3.2
2025-01-22 16:19:14.224170	71.7	19.9	-90.5	11.4
2025-01-22 16:19:15.381371	71.5	20.0	-91.0	11.0
2025-01-22 16:19:16.545759	71.3	20.1	-90.9	9.5
2025-01-22 16:19:17.709512	71.1	20.2	-90.7	11.3
2025-01-22 16:19:18.868699	70.9	20.3	-90.3	17.0
2025-01-22 16:19:20.036919	70.7	20.4	-90.6	14.4
2025-01-22 16:19:21.198560	70.5	20.5	-90.5	13.0
2025-01-22 16:19:22.366340	70.3	20.6	-90.1	11.7
2025-01-22 16:19:23.529529	70.1	20.7	-90.4	8.6
2025-01-22 16:19:24.695731	69.9	20.8	-90.6	17.3
2025-01-22 16:19:25.847574	69.7	20.9	-90.6	9.4
2025-01-22 16:19:27.003858	69.5	21.0	-90.8	14.8
2025-01-22 16:19:28.165834	69.3	21.2	-90.0	15.2
2025-01-22 16:19:29.330017	69.0	21.3	-90.0	17.4
2025-01-22 16:19:30.488232	68.8	21.4	-90.6	7.1
2025-01-22 16:19:31.654001	68.6	21.5	-90.9	7.8
2025-01-22 16:19:32.817673	68.4	21.6	-90.8	10.5
2025-01-22 16:19:33.979061	68.2	21.7	-90.5	5.8
2025-01-22 16:19:35.146760	67.9	21.8	-90.1	9.9
2025-01-22 16:19:36.297188	67.7	21.9	-90.5	6.6
2025-01-22 16:19:37.459895	67.5	22.0	-90.4	11.5
2025-01-22 16:19:38.619344	67.3	22.1	-90.4	9.0
2025-01-22 16:19:39.779296	67.0	22.2	-90.3	13.9
2025-01-22 16:19:40.940663	66.8	22.3	-90.5	10.3
2025-01-22 16:19:42.101222	66.6	22.4	-90.4	9.7
2025-01-22 16:19:43.261389	66.3	22.5	-89.9	10.1
2025-01-22 16:19:44.428917	66.1	22.6	-90.1	5.6
2025-01-22 16:19:45.589928	65.9	22.8	-90.3	8.3
2025-01-22 16:19:46.752425	65.6	22.9	-90.2	13.3
2025-01-22 16:19:47.913555	65.4	23.0	-90.4	10.5
2025-01-22 16:19:49.072695	65.1	23.1	-90.0	8.7
2025-01-22 16:19:50.236069	64.9	23.2	-89.9	10.3
2025-01-22 16:19:51.397025	64.6	23.3	-90.4	6.0
2025-01-22 16:19:52.555829	64.4	23.4	-90.5	8.1
2025-01-22 16:19:53.725496	64.1	23.5	-90.1	12.5
2025-01-22 16:19:54.889237	63.9	23.6	-90.3	6.7
2025-01-22 16:19:56.051762	63.6	23.7	-90.4	5.2
2025-01-22 16:19:57.222497	63.4	23.8	-89.6	9.5
2025-01-22 16:19:58.384781	63.1	23.9	-88.8	4.7
2025-01-22 16:19:59.548016	62.9	24.0	-89.5	8.4
2025-01-22 16:20:00.710779	62.6	24.1	-89.5	10.1
2025-01-22 16:20:01.884045	62.3	24.2	-89.7	10.6
2025-01-22 16:20:03.041424	62.1	24.3	-89.9	5.2
2025-01-22 16:20:04.206159	61.8	24.4	-88.8	11.4
2025-01-22 16:20:05.386077	61.5	24.5	-89.8	5.4
2025-01-22 16:20:06.543858	61.3	24.6	-89.1	5.7
2025-01-22 16:20:07.715286	61.0	24.7	-89.3	9.7
2025-01-22 16:20:08.874958	60.7	24.8	-90.6	5.8
2025-01-22 16:20:10.045558	60.4	24.9	-90.3	9.1
2025-01-22 16:20:11.213217	60.2	25.0	-90.3	8.6
2025-01-22 16:20:12.377408	59.9	25.1	-90.5	7.9
2025-01-22 16:20:13.538934	59.6	25.2	-90.3	9.1
2025-01-22 16:20:14.701530	59.3	25.3	-90.2	7.8
2025-01-22 16:20:15.871715	59.0	25.4	-90.7	6.8
2025-01-22 16:20:17.034015	58.8	25.5	-90.5	6.1
2025-01-22 16:20:18.197695	58.5	25.6	-90.1	6.8
2025-01-22 16:20:19.354372	58.2	25.7	-90.6	9.5
2025-01-22 16:20:20.515190	57.9	25.8	-90.3	6.6
2025-01-22 16:20:21.681931	57.6	25.9	-90.5	11.4
2025-01-22 16:20:22.840642	57.3	26.0	-90.2	7.8
2025-01-22 16:20:24.007981	57.0	26.1	-89.1	5.6
2025-01-22 16:20:25.170622	56.7	26.2	-88.6	5.1
2025-01-22 16:20:26.329574	56.4	26.3	-88.7	3.5
2025-01-22 16:20:27.491209	56.1	26.4	-89.5	5.5
2025-01-22 16:20:28.653417	55.8	26.5	-89.4	5.6
2025-01-22 16:20:29.819080	55.5	26.6	-89.5	8.1
2025-01-22 16:20:30.982712	55.2	26.7	-89.3	4.4
2025-01-22 16:20:32.147738	54.9	26.8	-90.0	4.6
2025-01-22 16:20:33.304899	54.6	26.9	-90.6	6.3
2025-01-22 16:20:34.463898	54.3	27.0	-90.8	5.1
2025-01-22 16:20:35.625035	54.0	27.1	-90.8	4.7
2025-01-22 16:20:36.826059	53.6	27.2	-90.7	6.3
2025-01-22 16:20:37.993432	53.3	27.2	-90.1	7.2
2025-01-22 16:20:39.163363	53.0	27.3	-90.1	6.0
2025-01-22 16:20:40.322508	52.7	27.4	-90.5	6.4
2025-01-22 16:20:41.483887	52.3	27.5	-90.9	7.0
2025-01-22 16:20:42.642265	52.0	27.6	-90.5	6.2
2025-01-22 16:20:43.807408	51.7	27.7	-90.8	8.7
2025-01-22 16:20:44.968300	51.4	27.8	-90.4	6.6
2025-01-22 16:20:46.134058	51.0	27.8	-90.4	4.6
2025-01-22 16:20:47.292436	50.7	27.9	-90.4	4.5
2025-01-22 16:20:48.452767	50.4	28.0	-90.2	4.7
2025-01-22 16:20:49.612804	50.0	28.1	-91.0	5.9
2025-01-22 16:20:50.776946	49.7	28.2	-90.6	6.8
2025-01-22 16:20:51.940215	49.4	28.3	-90.5	6.5
2025-01-22 16:20:53.104196	49.0	28.3	-89.8	4.3
2025-01-22 16:20:54.268317	48.7	28.4	-90.0	8.1
2025-01-22 16:20:55.427663	48.3	28.5	-90.3	7.7
2025-01-22 16:20:56.596363	48.0	28.6	-90.5	7.2
2025-01-22 16:20:57.754006	47.6	28.6	-90.8	10.5
2025-01-22 16:20:58.917379	47.3	28.7	-90.7	9.5
2025-01-22 16:21:00.078544	46.9	28.8	-90.5	8.9
2025-01-22 16:21:01.233161	46.6	28.9	-90.2	8.1
2025-01-22 16:21:02.396016	46.2	28.9	-90.6	7.2
2025-01-22 16:21:03.556365	45.9	29.0	-90.5	6.0
2025-01-22 16:21:04.718244	45.5	29.1	-90.4	7.9
2025-01-22 16:21:05.889353	45.2	29.1	-90.6	7.6
2025-01-22 16:21:07.047617	44.8	29.2	-90.6	6.5
2025-01-22 16:21:08.211451	44.5	29.3	-89.9	11.9
2025-01-22 16:21:09.372637	44.1	29.3	-90.5	10.1
2025-01-22 16:21:10.537760	43.7	29.4	-90.5	11.4
2025-01-22 16:21:11.702246	43.4	29.5	-89.4	11.9
2025-01-22 16:21:12.861863	43.0	29.5	-89.3	7.2
2025-01-22 16:21:14.026420	42.6	29.6	-89.7	7.1
2025-01-22 16:21:15.187247	42.3	29.6	-89.6	7.4
2025-01-22 16:21:16.355319	41.9	29.7	-90.5	7.6
2025-01-22 16:21:17.511746	41.5	29.7	-90.7	7.0
2025-01-22 16:21:18.669713	41.1	29.8	-91.2	8.6
2025-01-22 16:21:19.835967	40.8	29.9	-88.8	8.0
2025-01-22 16:21:20.996713	40.4	29.9	-90.8	6.1
2025-01-22 16:21:22.161260	40.0	30.0	-90.7	8.0
2025-01-22 16:21:23.322068	39.6	30.0	-90.7	8.3
2025-01-22 16:21:24.487811	39.3	30.1	-91.0	6.9
2025-01-22 16:21:25.646483	38.9	30.1	-90.7	7.9
2025-01-22 16:21:26.798202	38.5	30.1	-90.9	12.5
2025-01-22 16:21:27.951508	38.1	30.2	-90.7	8.3
2025-01-22 16:21:29.116814	37.7	30.2	-90.3	10.9
2025-01-22 16:21:30.278189	37.4	30.3	-90.2	12.5
2025-01-22 16:21:31.446123	37.0	30.3	-90.7	12.8
2025-01-22 16:21:32.605118	36.6	30.4	-90.5	11.7
2025-01-22 16:21:33.763279	36.2	30.4	-90.7	10.0
2025-01-22 16:21:34.927103	35.8	30.4	-91.0	13.0
2025-01-22 16:21:36.088131	35.4	30.5	-90.8	7.6
2025-01-22 16:21:37.249422	35.0	30.5	-90.8	9.6
2025-01-22 16:21:38.419809	34.6	30.5	-90.4	10.1
2025-01-22 16:21:39.580697	34.2	30.6	-90.6	11.8
2025-01-22 16:21:40.737842	33.8	30.6	-90.8	11.4
2025-01-22 16:21:41.896282	33.5	30.6	-90.8	7.8
2025-01-22 16:21:43.057828	33.1	30.6	-90.6	8.4
2025-01-22 16:21:44.222710	32.7	30.7	-90.4	11.8
2025-01-22 16:21:45.387271	32.3	30.7	-90.7	7.1
2025-01-22 16:21:46.550560	31.9	30.7	-90.6	5.6
2025-01-22 16:21:47.706808	31.5	30.7	-90.6	9.5
2025-01-22 16:21:48.865545	31.1	30.7	-89.8	7.5
2025-01-22 16:21:50.025720	30.7	30.8	-89.1	6.6
2025-01-22 16:21:51.189034	30.3	30.8	-89.3	10.8
2025-01-22 16:21:52.353212	29.9	30.8	-89.8	12.5
2025-01-22 16:21:53.517360	29.5	30.8	-90.2	7.4
2025-01-22 16:21:54.682115	29.1	30.8	-89.5	9.5
2025-01-22 16:21:55.840563	28.7	30.8	-89.3	5.6
2025-01-22 16:21:56.998504	28.3	30.8	-89.3	8.7
2025-01-22 16:21:58.153527	27.9	30.8	-89.2	7.3
2025-01-22 16:21:59.321550	27.5	30.8	-89.5	7.3
2025-01-22 16:22:00.476760	27.1	30.8	-89.7	9.5
2025-01-22 16:22:01.636579	26.7	30.8	-89.7	11.4
2025-01-22 16:22:02.799658	26.3	30.8	-90.9	11.2
2025-01-22 16:22:03.957930	25.9	30.8	-90.7	10.4
2025-01-22 16:22:05.112936	25.5	30.8	-90.3	5.7
2025-01-22 16:22:06.282636	25.1	30.8	-90.4	8.2
2025-01-22 16:22:07.434233	24.7	30.8	-90.6	9.2
2025-01-22 16:22:08.599275	24.3	30.8	-90.5	9.0
2025-01-22 16:22:09.764039	23.9	30.8	-90.0	5.9
2025-01-22 16:22:10.927372	23.5	30.8	-90.3	9.9
2025-01-22 16:22:12.099296	23.1	30.8	-90.0	9.5
2025-01-22 16:22:13.251296	22.7	30.8	-90.5	12.8
2025-01-22 16:22:14.416947	22.3	30.7	-91.2	6.1
2025-01-22 16:22:15.581548	21.9	30.7	-91.1	6.7
2025-01-22 16:22:16.747382	21.5	30.7	-90.8	4.7
2025-01-22 16:22:17.907663	21.1	30.7	-91.0	5.2
2025-01-22 16:22:19.067252	20.8	30.7	-90.7	4.5
2025-01-22 16:22:20.233236	20.4	30.6	-90.5	8.5
2025-01-22 16:22:21.394954	20.0	30.6	-90.7	5.7
2025-01-22 16:22:22.557972	19.6	30.6	-90.7	6.9
2025-01-22 16:22:23.720977	19.2	30.6	-90.8	13.8
2025-01-22 16:22:24.886223	18.8	30.5	-90.9	8.0
2025-01-22 16:22:26.044086	18.4	30.5	-90.9	7.0
2025-01-22 16:22:27.203336	18.0	30.5	-90.3	8.5
2025-01-22 16:22:28.359613	17.6	30.4	-90.4	7.9
2025-01-22 16:22:29.525732	17.2	30.4	-91.0	7.1
2025-01-22 16:22:30.689387	16.8	30.3	-91.1	10.8
2025-01-22 16:22:31.852589	16.5	30.3	-90.9	12.0
2025-01-22 16:22:33.009938	16.1	30.3	-91.0	7.7
2025-01-22 16:22:34.170532	15.7	30.2	-90.5	9.6
2025-01-22 16:22:35.332171	15.3	30.2	-89.7	9.8
2025-01-22 16:22:36.497800	14.9	30.1	-89.9	8.0
2025-01-22 16:22:37.656544	14.5	30.1	-90.8	14.0
2025-01-22 16:22:38.819308	14.2	30.0	-90.6	9.9
2025-01-22 16:22:39.978613	13.8	30.0	-90.6	6.6
2025-01-22 16:22:41.142702	13.4	29.9	-90.4	10.6
2025-01-22 16:22:42.308971	13.0	29.9	-90.1	10.6
2025-01-22 16:22:43.471076	12.6	29.8	-89.6	3.8
2025-01-22 16:22:44.629347	12.3	29.8	-90.4	7.0
2025-01-22 16:22:45.791031	11.9	29.7	-90.4	6.6
2025-01-22 16:22:46.956877	11.5	29.7	-90.2	5.6
2025-01-22 16:22:48.114522	11.2	29.6	-90.5	6.4
2025-01-22 16:22:49.275451	10.8	29.6	-90.5	6.2
2025-01-22 16:22:50.434162	10.4	29.5	-90.8	6.3
2025-01-22 16:22:51.597061	10.1	29.4	-90.9	5.8
2025-01-22 16:22:52.757519	9.7	29.4	-90.8	5.5
2025-01-22 16:22:53.929694	9.3	29.3	-90.7	3.0
2025-01-22 16:22:55.092486	9.0	29.3	-90.4	6.4
2025-01-22 16:22:56.253841	8.6	29.2	-90.7	7.7
2025-01-22 16:22:57.408600	8.2	29.1	-91.0	4.7
2025-01-22 16:22:58.569146	7.9	29.0	-90.9	6.2
2025-01-22 16:22:59.736207	7.5	29.0	-91.2	5.5
2025-01-22 16:23:00.900272	7.2	28.9	-90.9	4.9
2025-01-22 16:23:02.067509	6.8	28.8	-90.7	3.6
2025-01-22 16:23:03.232623	6.5	28.8	-90.6	6.7
2025-01-22 16:23:04.396641	6.1	28.7	-91.0	6.4
2025-01-22 16:23:05.557217	5.8	28.6	-91.0	6.3
2025-01-22 16:23:06.720459	5.4	28.5	-90.0	6.4
2025-01-22 16:23:07.877291	5.1	28.5	-91.0	4.5
2025-01-22 16:23:09.039063	4.7	28.4	-90.7	4.6
2025-01-22 16:23:10.204914	4.4	28.3	-90.5	5.1
2025-01-22 16:23:11.375124	4.0	28.2	-90.9	5.4
2025-01-22 16:23:12.539116	3.7	28.2	-91.3	5.5
2025-01-22 16:23:13.698987	3.4	28.1	-91.3	9.8
2025-01-22 16:23:14.872162	3.0	28.0	-90.9	5.3
2025-01-22 16:23:16.035515	2.7	27.9	-90.6	5.1
2025-01-22 16:23:17.200573	2.4	27.8	-90.1	6.9
2025-01-22 16:23:18.362546	2.0	27.7	-90.6	10.7
2025-01-22 16:23:19.528484	1.7	27.7	-91.4	9.6
2025-01-22 16:23:20.692090	1.4	27.6	-91.1	14.0
2025-01-22 16:23:21.848560	1.1	27.5	-91.2	10.8
2025-01-22 16:23:23.012347	0.7	27.4	-91.3	9.2
2025-01-22 16:23:24.172218	0.4	27.3	-89.7	9.7
2025-01-22 16:23:25.335220	0.1	27.2	-89.6	12.1
2025-01-22 16:23:26.491546	359.8	27.1	-90.2	7.5
2025-01-22 16:23:27.651417	359.5	27.0	-90.0	11.5
2025-01-22 16:23:28.816300	359.1	26.9	-90.0	13.2
2025-01-22 16:23:29.978633	358.8	26.9	-90.0	9.1
2025-01-22 16:23:31.141549	358.5	26.8	-90.7	12.7
2025-01-22 16:23:32.306223	358.2	26.7	-90.7	12.4
2025-01-22 16:23:33.467025	357.9	26.6	-90.8	10.7
2025-01-22 16:23:34.629008	357.6	26.5	-90.9	9.8
2025-01-22 16:23:35.793159	357.3	26.4	-91.1	12.8
2025-01-22 16:23:36.954668	357.0	26.3	-91.0	15.3
2025-01-22 16:23:38.109609	356.7	26.2	-90.0	15.0
2025-01-22 16:23:39.271448	356.4	26.1	-90.4	12.3
2025-01-22 16:23:40.436303	356.1	26.0	-91.0	15.2
2025-01-22 16:23:41.598295	355.8	25.9	-90.8	10.8
2025-01-22 16:23:42.754942	355.5	25.8	-90.7	12.6
2025-01-22 16:23:43.920910	355.2	25.7	-90.5	10.2
2025-01-22 16:23:45.086420	354.9	25.6	-90.4	10.5
2025-01-22 16:23:46.253207	354.7	25.5	-90.6	11.2
2025-01-22 16:23:47.413253	354.4	25.4	-90.8	9.0
2025-01-22 16:23:48.570539	354.1	25.3	-90.6	9.4
2025-01-22 16:23:49.732084	353.8	25.2	-90.9	14.7
2025-01-22 16:23:50.894632	353.5	25.1	-90.5	9.5
2025-01-22 16:23:52.058811	353.2	25.0	-90.6	8.5
2025-01-22 16:23:53.215479	353.0	24.9	-90.5	10.5
2025-01-22 16:23:54.376804	352.7	24.8	-90.9	8.7
2025-01-22 16:23:55.541838	352.4	24.7	-90.8	5.8
2025-01-22 16:23:56.711440	352.1	24.6	-91.2	13.1
2025-01-22 16:23:57.864113	351.9	24.5	-91.1	13.2
2025-01-22 16:23:59.026485	351.6	24.4	-90.9	8.5
2025-01-22 16:24:00.181535	351.4	24.3	-90.7	14.2
2025-01-22 16:24:01.337035	351.1	24.2	-90.8	9.3
2025-01-22 16:24:02.512359	350.8	24.1	-90.5	7.3
2025-01-22 16:24:03.680963	350.6	24.0	-90.4	11.0
2025-01-22 16:24:04.847703	350.3	23.9	-90.8	10.4
2025-01-22 16:24:06.010515	350.0	23.8	-91.0	6.4
2025-01-22 16:24:07.175890	349.8	23.7	-91.2	7.1
2025-01-22 16:24:08.335536	349.5	23.6	-90.7	10.2
2025-01-22 16:24:09.499954	349.3	23.5	-91.3	9.6
2025-01-22 16:24:10.664404	349.0	23.3	-90.6	10.7
2025-01-22 16:24:11.824212	348.8	23.2	-91.1	10.2
2025-01-22 16:24:12.985747	348.5	23.1	-90.8	11.5
2025-01-22 16:24:14.150838	348.3	23.0	-90.7	6.3
2025-01-22 16:24:15.312339	348.1	22.9	-90.2	9.0
2025-01-22 16:24:16.472464	347.8	22.8	-90.5	8.9
2025-01-22 16:24:17.630311	347.6	22.7	-90.8	4.5
2025-01-22 16:24:18.784505	347.3	22.6	-90.9	8.6
2025-01-22 16:24:19.951453	347.1	22.5	-91.1	5.8
2025-01-22 16:24:21.114628	346.9	22.4	-90.7	9.6
2025-01-22 16:24:22.280337	346.6	22.3	-90.4	8.1
2025-01-22 16:24:23.439372	346.4	22.2	-90.9	7.4
2025-01-22 16:24:24.604486	346.2	22.1	-91.2	8.2
2025-01-22 16:24:25.764926	345.9	22.0	-90.8	11.6
2025-01-22 16:24:26.932867	345.7	21.9	-90.6	8.7
2025-01-22 16:24:28.094509	345.5	21.8	-90.5	7.2
2025-01-22 16:24:29.259396	345.3	21.6	-90.2	7.4
2025-01-22 16:24:30.421814	345.0	21.5	-90.4	7.4
2025-01-22 16:24:31.581799	344.8	21.4	-89.9	8.2
2025-01-22 16:24:32.742891	344.6	21.3	-90.2	8.6
2025-01-22 16:24:33.903804	344.4	21.2	-90.5	6.3
2025-01-22 16:24:35.074820	344.2	21.1	-90.3	3.8
2025-01-22 16:24:36.238388	343.9	21.0	-90.4	6.3
2025-01-22 16:24:37.402048	343.7	20.9	-89.7	9.5
2025-01-22 16:24:38.553448	343.5	20.8	-89.2	11.1
2025-01-22 16:24:39.713903	343.3	20.7	-89.5	8.3
2025-01-22 16:24:40.874084	343.1	20.6	-90.3	2.8
2025-01-22 16:24:42.037017	342.9	20.5	-90.7	7.2
2025-01-22 16:24:43.201648	342.7	20.4	-90.3	2.8
2025-01-22 16:24:44.366626	342.5	20.3	-89.9	4.6
2025-01-22 16:24:45.530552	342.3	20.2	-90.1	4.4
2025-01-22 16:24:46.696176	342.1	20.0	-90.4	5.5
2025-01-22 16:24:47.855229	341.9	19.9	-89.9	1.0
2025-01-22 16:24:49.014769	341.7	19.8	-90.2	6.3
2025-01-22 16:24:50.181193	341.5	19.7	-89.8	6.7
2025-01-22 16:24:51.341591	341.3	19.6	-90.1	8.0
2025-01-22 16:24:52.504996	341.1	19.5	-89.9	3.7
2025-01-22 16:24:53.666626	340.9	19.4	-89.7	6.0
2025-01-22 16:24:54.833174	340.7	19.3	-90.3	5.2
2025-01-22 16:24:55.989244	340.5	19.2	-91.0	6.8
2025-01-22 16:24:57.153027	340.3	19.1	-90.3	7.4
2025-01-22 16:24:58.306747	340.1	19.0	-90.8	7.9
2025-01-22 16:24:59.470743	340.0	18.9	-90.9	5.8
2025-01-22 16:25:00.634305	339.8	18.8	-91.0	6.8
2025-01-22 16:25:01.792733	339.6	18.7	-90.7	8.2
2025-01-22 16:25:02.953552	339.4	18.6	-90.4	6.2
2025-01-22 16:25:04.122546	339.2	18.5	-90.2	5.3
2025-01-22 16:25:05.284176	339.0	18.4	-90.8	5.1
2025-01-22 16:25:06.443127	338.9	18.2	-90.8	7.5
2025-01-22 16:25:07.609057	338.7	18.1	-91.1	5.6
2025-01-22 16:25:08.767780	338.5	18.0	-90.8	8.5
2025-01-22 16:25:09.930971	338.3	17.9	-90.9	5.4
2025-01-22 16:25:11.092469	338.2	17.8	-90.7	4.7
2025-01-22 16:25:12.255678	338.0	17.7	-90.6	4.4
2025-01-22 16:25:13.424156	337.8	17.6	-90.6	5.1
2025-01-22 16:25:14.584688	337.6	17.5	-91.0	4.9
2025-01-22 16:25:15.752208	337.5	17.4	-90.9	6.8
2025-01-22 16:25:16.910634	337.3	17.3	-90.5	4.0
2025-01-22 16:25:18.071787	337.1	17.2	-90.5	5.9
2025-01-22 16:25:19.231920	337.0	17.1	-90.4	4.4
2025-01-22 16:25:20.391065	336.8	17.0	-90.9	4.0
2025-01-22 16:25:21.556335	336.6	16.9	-91.2	4.9
2025-01-22 16:25:22.719740	336.5	16.8	-90.8	7.5
2025-01-22 16:25:23.880507	336.3	16.7	-90.5	6.5
2025-01-22 16:25:25.028721	336.2	16.6	-91.0	4.3
2025-01-22 16:25:26.169856	336.0	16.5	-90.4	7.6
2025-01-22 16:25:27.289719	335.8	16.4	-90.4	4.6
2025-01-22 16:25:28.410479	335.7	16.3	-90.6	3.1
2025-01-22 16:25:29.538070	335.5	16.2	-91.0	5.7
2025-01-22 16:25:30.659336	335.4	16.1	-91.0	7.0
2025-01-22 16:25:31.779249	335.2	16.0	-90.7	5.0
2025-01-22 16:25:32.900591	335.1	15.9	-90.8	5.6
2025-01-22 16:25:34.021240	335.0	15.8	-90.8	3.6
2025-01-22 16:25:35.146092	334.8	15.7	-90.5	6.6
2025-01-22 16:25:36.265622	334.7	15.6	-90.4	6.5
2025-01-22 16:25:37.412190	334.5	15.5	-90.7	7.1
2025-01-22 16:25:38.575215	334.4	15.4	-90.5	3.5
2025-01-22 16:25:39.734375	334.2	15.3	-90.6	3.0
2025-01-22 16:25:40.901296	334.1	15.2	-90.6	6.9
2025-01-22 16:25:42.052990	333.9	15.1	-90.8	7.9
2025-01-22 16:25:43.220680	333.8	15.0	-90.7	6.5
2025-01-22 16:25:44.382733	333.6	14.9	-90.6	7.7
2025-01-22 16:25:45.545760	333.5	14.8	-90.7	5.7
2025-01-22 16:25:46.712445	333.4	14.7	-90.9	6.4
2025-01-22 16:25:47.870436	333.2	14.6	-90.7	7.4
2025-01-22 16:25:49.023550	333.1	14.5	-90.5	4.0
#Closed at: 2025-01-22 16:18:24.072918