passes_logs/2025/01/22/LEX_Murmansk/LEX_Murmansk__20250122_141511_NOAA_19_rec.log

#Pass ID: 20250122_141511_NOAA 19
#Satellite: NOAA 19
#Configuration: NOAA 19
#Start time: 2025-01-22 14:15:06.185225

#LorettStation: 1.0.0 05.05.2024
#Station: LEX_Murmansk
#Location: 33.156738 lon 68.926811 lat
#TLE: 1 33591U 09005A   25022.22545190  .00000382  00000+0  22773-3 0  9990
#TLE: 2 33591  99.0184  86.0433 0014227  38.0135 322.2038 14.13265658822568

#Time	Az	El	Level	SNR
2025-01-22 14:15:20.350065	57.0	16.1	-89.2	3.4
2025-01-22 14:15:21.513303	56.8	16.2	-89.5	1.3
2025-01-22 14:15:22.675821	56.6	16.3	-89.1	3.9
2025-01-22 14:15:23.840894	56.4	16.4	-89.1	3.1
2025-01-22 14:15:24.988141	56.2	16.4	-89.6	3.5
2025-01-22 14:15:26.141690	56.0	16.5	-89.3	6.5
2025-01-22 14:15:27.302914	55.9	16.6	-89.5	4.2
2025-01-22 14:15:28.465908	55.7	16.7	-89.3	2.6
2025-01-22 14:15:29.608773	55.5	16.8	-89.7	4.6
2025-01-22 14:15:30.782666	55.3	16.9	-89.2	2.0
2025-01-22 14:15:31.948503	55.1	17.0	-89.2	4.7
2025-01-22 14:15:33.101006	54.9	17.1	-89.1	6.5
2025-01-22 14:15:34.262620	54.7	17.2	-89.1	5.4
2025-01-22 14:15:35.424887	54.5	17.3	-89.3	10.8
2025-01-22 14:15:36.583444	54.3	17.3	-89.3	6.7
2025-01-22 14:15:37.745160	54.1	17.4	-89.5	5.7
2025-01-22 14:15:38.911465	53.9	17.5	-89.8	4.4
2025-01-22 14:15:40.067039	53.7	17.6	-89.2	1.9
2025-01-22 14:15:41.226729	53.5	17.7	-89.5	2.3
2025-01-22 14:15:42.378236	53.3	17.8	-89.5	3.3
2025-01-22 14:15:43.528293	53.1	17.9	-89.7	3.7
2025-01-22 14:15:44.684996	52.9	18.0	-89.9	5.3
2025-01-22 14:15:45.840212	52.7	18.1	-89.4	6.1
2025-01-22 14:15:46.998919	52.5	18.1	-89.7	7.3
2025-01-22 14:15:48.152262	52.3	18.2	-89.6	8.5
2025-01-22 14:15:49.322181	52.1	18.3	-89.7	7.4
2025-01-22 14:15:50.483523	51.9	18.4	-89.8	6.7
2025-01-22 14:15:51.646749	51.7	18.5	-89.6	7.9
2025-01-22 14:15:52.804313	51.5	18.6	-89.5	4.6
2025-01-22 14:15:53.961454	51.2	18.7	-89.8	5.6
2025-01-22 14:15:55.136833	51.0	18.8	-89.0	5.9
2025-01-22 14:15:56.285435	50.8	18.8	-89.3	4.5
2025-01-22 14:15:57.451428	50.6	18.9	-89.4	6.2
2025-01-22 14:15:58.609669	50.4	19.0	-89.5	4.0
2025-01-22 14:15:59.773129	50.1	19.1	-89.3	4.1
2025-01-22 14:16:00.927816	49.9	19.2	-89.9	6.5
2025-01-22 14:16:02.084932	49.7	19.3	-89.5	1.7
2025-01-22 14:16:03.205175	49.5	19.4	-89.5	3.9
2025-01-22 14:16:04.343773	49.3	19.5	-89.8	2.8
2025-01-22 14:16:05.498291	49.0	19.5	-89.8	4.3
2025-01-22 14:16:06.641024	48.8	19.6	-89.7	4.1
2025-01-22 14:16:07.804623	48.6	19.7	-89.8	5.6
2025-01-22 14:16:08.955711	48.4	19.8	-90.0	7.2
2025-01-22 14:16:10.115086	48.1	19.9	-89.7	12.6
2025-01-22 14:16:11.270529	47.9	20.0	-89.2	6.9
2025-01-22 14:16:12.426584	47.7	20.1	-90.0	9.9
2025-01-22 14:16:13.587799	47.4	20.1	-89.8	6.6
2025-01-22 14:16:14.748155	47.2	20.2	-90.1	5.3
2025-01-22 14:16:15.899880	47.0	20.3	-89.9	4.8
2025-01-22 14:16:17.063107	46.7	20.4	-89.7	6.1
2025-01-22 14:16:18.216701	46.5	20.5	-89.9	4.9
2025-01-22 14:16:19.379382	46.2	20.6	-89.8	5.9
2025-01-22 14:16:20.536914	46.0	20.7	-89.6	5.7
2025-01-22 14:16:21.694911	45.7	20.7	-89.8	8.4
2025-01-22 14:16:22.857121	45.5	20.8	-89.8	5.9
2025-01-22 14:16:24.018863	45.2	20.9	-89.7	8.3
2025-01-22 14:16:25.178149	45.0	21.0	-89.6	4.2
2025-01-22 14:16:26.334271	44.7	21.1	-89.5	2.9
2025-01-22 14:16:27.487988	44.5	21.2	-90.0	3.9
2025-01-22 14:16:28.641878	44.2	21.2	-89.5	3.7
2025-01-22 14:16:29.798328	44.0	21.3	-89.5	2.1
2025-01-22 14:16:30.957801	43.7	21.4	-89.3	1.5
2025-01-22 14:16:32.118412	43.5	21.5	-89.2	3.0
2025-01-22 14:16:33.283952	43.2	21.6	-89.3	7.0
2025-01-22 14:16:34.443855	43.0	21.6	-89.7	6.7
2025-01-22 14:16:35.600294	42.7	21.7	-89.8	9.5
2025-01-22 14:16:36.754382	42.4	21.8	-89.3	12.6
2025-01-22 14:16:37.904175	42.2	21.9	-89.6	11.9
2025-01-22 14:16:39.065064	41.9	22.0	-89.6	9.3
2025-01-22 14:16:40.227034	41.6	22.0	-89.7	4.8
2025-01-22 14:16:41.381592	41.4	22.1	-89.2	5.6
2025-01-22 14:16:42.532556	41.1	22.2	-89.4	4.1
2025-01-22 14:16:43.687175	40.8	22.3	-90.0	3.9
2025-01-22 14:16:44.847947	40.6	22.3	-90.1	5.0
2025-01-22 14:16:45.995916	40.3	22.4	-89.6	9.5
2025-01-22 14:16:47.151273	40.0	22.5	-89.4	11.4
2025-01-22 14:16:48.308357	39.8	22.6	-89.1	9.9
2025-01-22 14:16:49.467349	39.5	22.6	-89.4	5.1
2025-01-22 14:16:50.625362	39.2	22.7	-90.0	6.4
2025-01-22 14:16:51.789671	38.9	22.8	-89.8	5.1
2025-01-22 14:16:52.942274	38.6	22.9	-89.6	4.9
2025-01-22 14:16:54.103887	38.4	22.9	-89.4	5.5
2025-01-22 14:16:55.261334	38.1	23.0	-89.6	2.7
2025-01-22 14:16:56.420942	37.8	23.1	-89.7	4.1
2025-01-22 14:16:57.584941	37.5	23.1	-90.0	3.8
2025-01-22 14:16:58.736308	37.2	23.2	-89.7	2.1
2025-01-22 14:16:59.892386	36.9	23.3	-89.9	4.1
2025-01-22 14:17:01.047230	36.6	23.4	-89.7	5.2
2025-01-22 14:17:02.204249	36.3	23.4	-89.6	7.2
2025-01-22 14:17:03.366026	36.1	23.5	-89.8	6.3
2025-01-22 14:17:04.535492	35.8	23.6	-89.6	7.9
2025-01-22 14:17:05.699801	35.5	23.6	-90.0	9.4
2025-01-22 14:17:06.852578	35.2	23.7	-89.6	9.0
2025-01-22 14:17:08.016112	34.9	23.8	-89.7	6.9
2025-01-22 14:17:09.176606	34.6	23.8	-89.4	3.8
2025-01-22 14:17:10.332302	34.3	23.9	-89.3	6.2
2025-01-22 14:17:11.491766	34.0	23.9	-89.4	5.9
2025-01-22 14:17:12.653747	33.7	24.0	-89.8	4.5
2025-01-22 14:17:13.815806	33.4	24.1	-88.9	3.9
2025-01-22 14:17:14.978442	33.1	24.1	-90.0	7.4
2025-01-22 14:17:16.132450	32.7	24.2	-89.7	6.9
2025-01-22 14:17:17.291740	32.4	24.2	-89.6	8.6
2025-01-22 14:17:18.453775	32.1	24.3	-89.4	8.7
2025-01-22 14:17:19.609593	31.8	24.4	-89.8	9.7
2025-01-22 14:17:20.764990	31.5	24.4	-89.5	9.4
2025-01-22 14:17:21.920211	31.2	24.5	-89.8	7.8
2025-01-22 14:17:23.078793	30.9	24.5	-89.6	6.4
2025-01-22 14:17:24.232927	30.6	24.6	-89.7	4.6
2025-01-22 14:17:25.375989	30.3	24.6	-89.7	4.8
2025-01-22 14:17:26.518633	30.0	24.7	-90.0	3.7
2025-01-22 14:17:27.665729	29.6	24.7	-90.0	3.2
2025-01-22 14:17:28.828637	29.3	24.8	-89.8	2.2
2025-01-22 14:17:29.990079	29.0	24.8	-89.6	2.6
2025-01-22 14:17:31.154054	28.7	24.9	-90.0	2.5
2025-01-22 14:17:32.314187	28.4	24.9	-89.6	3.3
2025-01-22 14:17:33.469608	28.0	25.0	-89.6	7.4
2025-01-22 14:17:34.629180	27.7	25.0	-89.5	9.6
2025-01-22 14:17:35.783970	27.4	25.1	-89.6	9.4
2025-01-22 14:17:36.943315	27.1	25.1	-89.7	10.1
2025-01-22 14:17:38.105008	26.7	25.2	-89.6	10.8
2025-01-22 14:17:39.269180	26.4	25.2	-89.4	10.1
2025-01-22 14:17:40.436508	26.1	25.3	-89.6	8.3
2025-01-22 14:17:41.589844	25.8	25.3	-89.8	9.7
2025-01-22 14:17:42.749718	25.4	25.3	-90.0	6.9
2025-01-22 14:17:43.906625	25.1	25.4	-89.9	9.1
2025-01-22 14:17:45.067606	24.8	25.4	-89.5	8.5
2025-01-22 14:17:46.223129	24.4	25.4	-89.6	6.4
2025-01-22 14:17:47.379957	24.1	25.5	-89.7	4.6
2025-01-22 14:17:48.529166	23.8	25.5	-89.9	8.2
2025-01-22 14:17:49.686288	23.4	25.6	-89.6	3.3
2025-01-22 14:17:50.847895	23.1	25.6	-89.9	5.2
2025-01-22 14:17:52.015305	22.8	25.6	-90.2	5.8
2025-01-22 14:17:53.178326	22.4	25.6	-89.6	3.9
2025-01-22 14:17:54.339779	22.1	25.7	-89.8	4.8
2025-01-22 14:17:55.493858	21.8	25.7	-90.4	7.9
2025-01-22 14:17:56.648812	21.4	25.7	-90.5	8.0
2025-01-22 14:17:57.804222	21.1	25.8	-90.4	8.6
2025-01-22 14:17:58.957733	20.8	25.8	-89.7	9.8
2025-01-22 14:18:00.112119	20.4	25.8	-89.7	11.9
2025-01-22 14:18:01.270974	20.1	25.8	-89.8	10.5
2025-01-22 14:18:02.423720	19.7	25.9	-89.6	8.6
2025-01-22 14:18:03.578466	19.4	25.9	-90.0	9.4
2025-01-22 14:18:04.732005	19.1	25.9	-89.8	6.0
2025-01-22 14:18:05.898402	18.7	25.9	-89.6	7.0
2025-01-22 14:18:07.060485	18.4	25.9	-89.7	6.9
2025-01-22 14:18:08.215559	18.0	25.9	-89.8	4.7
2025-01-22 14:18:09.373208	17.7	26.0	-89.8	4.4
2025-01-22 14:18:10.534535	17.3	26.0	-90.1	3.4
2025-01-22 14:18:11.692360	17.0	26.0	-90.1	2.5
2025-01-22 14:18:12.854291	16.7	26.0	-89.8	5.2
2025-01-22 14:18:14.017987	16.3	26.0	-90.0	4.8
2025-01-22 14:18:15.162338	16.0	26.0	-89.9	1.7
2025-01-22 14:18:16.311230	15.6	26.0	-89.8	1.5
2025-01-22 14:18:17.474650	15.3	26.0	-89.8	4.7
2025-01-22 14:18:18.636453	14.9	26.0	-90.1	3.6
2025-01-22 14:18:19.792533	14.6	26.0	-90.0	3.2
2025-01-22 14:18:20.956909	14.3	26.1	-90.3	4.8
2025-01-22 14:18:22.116177	13.9	26.1	-89.7	2.4
2025-01-22 14:18:23.276470	13.6	26.1	-89.7	4.2
2025-01-22 14:18:24.437441	13.2	26.1	-90.0	4.2
2025-01-22 14:18:25.598792	12.9	26.1	-89.9	5.9
2025-01-22 14:18:26.752476	12.5	26.1	-90.0	3.5
2025-01-22 14:18:27.916470	12.2	26.1	-90.0	5.6
2025-01-22 14:18:29.077429	11.8	26.1	-89.8	4.2
2025-01-22 14:18:30.233820	11.5	26.0	-89.4	6.0
2025-01-22 14:18:31.384497	11.2	26.0	-90.1	7.3
2025-01-22 14:18:32.539674	10.8	26.0	-89.9	14.5
2025-01-22 14:18:33.705399	10.5	26.0	-90.2	8.5
2025-01-22 14:18:34.865755	10.1	26.0	-90.1	11.1
2025-01-22 14:18:36.015399	9.8	26.0	-90.4	8.2
2025-01-22 14:18:37.172226	9.4	26.0	-90.3	10.1
2025-01-22 14:18:38.327807	9.1	26.0	-89.6	7.7
2025-01-22 14:18:39.485125	8.8	26.0	-89.8	7.8
2025-01-22 14:18:40.640461	8.4	25.9	-89.8	9.0
2025-01-22 14:18:41.798576	8.1	25.9	-89.9	9.7
2025-01-22 14:18:42.950945	7.7	25.9	-90.2	7.5
2025-01-22 14:18:44.113110	7.4	25.9	-90.1	7.4
2025-01-22 14:18:45.272494	7.0	25.9	-90.0	5.9
2025-01-22 14:18:46.429019	6.7	25.9	-90.2	5.3
2025-01-22 14:18:47.588443	6.4	25.8	-90.2	4.9
2025-01-22 14:18:48.745178	6.0	25.8	-89.6	3.6
2025-01-22 14:18:49.900618	5.7	25.8	-89.3	6.5
2025-01-22 14:18:51.055842	5.4	25.8	-89.2	4.1
2025-01-22 14:18:52.215549	5.0	25.7	-89.7	6.2
2025-01-22 14:18:53.374326	4.7	25.7	-89.2	4.8
2025-01-22 14:18:54.529885	4.3	25.7	-89.7	7.3
2025-01-22 14:18:55.683453	4.0	25.7	-90.1	5.0
2025-01-22 14:18:56.843319	3.7	25.6	-89.9	4.1
2025-01-22 14:18:57.994145	3.3	25.6	-89.9	5.4
2025-01-22 14:18:59.153740	3.0	25.6	-89.6	3.5
2025-01-22 14:19:00.307435	2.7	25.5	-89.7	5.2
2025-01-22 14:19:01.465288	2.3	25.5	-89.7	4.9
2025-01-22 14:19:02.620061	2.0	25.5	-89.8	7.8
2025-01-22 14:19:03.779477	1.7	25.4	-90.0	4.8
2025-01-22 14:19:04.941060	1.4	25.4	-89.7	3.6
2025-01-22 14:19:06.098735	1.0	25.3	-89.9	8.6
2025-01-22 14:19:07.256973	0.7	25.3	-89.6	13.6
2025-01-22 14:19:08.416355	0.4	25.3	-89.5	5.0
2025-01-22 14:19:09.572149	0.0	25.2	-89.8	6.2
2025-01-22 14:19:10.738413	359.7	25.2	-89.8	5.6
2025-01-22 14:19:11.897825	359.4	25.1	-89.8	6.3
2025-01-22 14:19:13.055436	359.1	25.1	-89.5	7.3
2025-01-22 14:19:14.219807	358.7	25.0	-89.5	6.5
2025-01-22 14:19:15.380111	358.4	25.0	-89.9	3.6
2025-01-22 14:19:16.541463	358.1	25.0	-90.2	6.9
2025-01-22 14:19:17.694661	357.8	24.9	-90.2	3.6
2025-01-22 14:19:18.842506	357.5	24.9	-90.3	4.0
2025-01-22 14:19:19.996941	357.1	24.8	-90.2	6.7
2025-01-22 14:19:21.157541	356.8	24.8	-89.8	4.7
2025-01-22 14:19:22.313050	356.5	24.7	-90.1	5.4
2025-01-22 14:19:23.476029	356.2	24.7	-90.1	7.4
2025-01-22 14:19:24.630206	355.9	24.6	-89.8	8.5
2025-01-22 14:19:25.795063	355.6	24.5	-90.4	4.3
2025-01-22 14:19:26.947599	355.3	24.5	-90.2	5.9
2025-01-22 14:19:28.094092	354.9	24.4	-90.0	6.1
2025-01-22 14:19:29.248739	354.6	24.4	-89.9	4.1
2025-01-22 14:19:30.403749	354.3	24.3	-89.9	6.8
2025-01-22 14:19:31.550740	354.0	24.3	-90.4	5.8
2025-01-22 14:19:32.691484	353.7	24.2	-90.0	6.6
2025-01-22 14:19:33.848301	353.4	24.1	-90.3	5.8
2025-01-22 14:19:35.006404	353.1	24.1	-90.1	8.1
2025-01-22 14:19:36.174474	352.8	24.0	-89.9	6.2
2025-01-22 14:19:37.329393	352.5	24.0	-89.7	4.8
2025-01-22 14:19:38.491512	352.2	23.9	-89.6	6.8
2025-01-22 14:19:39.647168	351.9	23.8	-90.0	7.1
2025-01-22 14:19:40.805786	351.6	23.8	-90.2	5.7
2025-01-22 14:19:41.958225	351.3	23.7	-89.8	7.0
2025-01-22 14:19:43.115425	351.0	23.6	-89.8	6.7
2025-01-22 14:19:44.275523	350.7	23.6	-89.9	6.9
2025-01-22 14:19:45.435328	350.4	23.5	-90.0	7.2
2025-01-22 14:19:46.586222	350.1	23.4	-90.1	8.0
2025-01-22 14:19:47.744303	349.9	23.4	-90.2	8.6
2025-01-22 14:19:48.901520	349.6	23.3	-90.4	8.1
2025-01-22 14:19:50.064284	349.3	23.2	-90.1	10.1
2025-01-22 14:19:51.224476	349.0	23.2	-90.1	7.3
2025-01-22 14:19:52.380366	348.7	23.1	-90.1	9.3
2025-01-22 14:19:53.542963	348.4	23.0	-90.0	9.2
2025-01-22 14:19:54.709894	348.1	23.0	-90.2	9.8
2025-01-22 14:19:55.867604	347.8	22.9	-90.6	10.4
2025-01-22 14:19:57.028126	347.6	22.8	-90.1	6.3
2025-01-22 14:19:58.189393	347.3	22.7	-90.4	8.8
2025-01-22 14:19:59.342407	347.0	22.7	-89.6	9.1
2025-01-22 14:20:00.498743	346.7	22.6	-90.1	8.7
2025-01-22 14:20:01.658560	346.5	22.5	-90.3	8.7
2025-01-22 14:20:02.820469	346.2	22.4	-90.5	7.3
2025-01-22 14:20:03.982796	345.9	22.4	-90.6	7.4
2025-01-22 14:20:05.136498	345.6	22.3	-90.2	9.7
2025-01-22 14:20:06.306759	345.4	22.2	-89.9	8.2
2025-01-22 14:20:07.454388	345.1	22.1	-90.4	9.4
2025-01-22 14:20:08.609635	344.8	22.1	-90.6	8.5
2025-01-22 14:20:09.765780	344.6	22.0	-90.3	7.4
2025-01-22 14:20:10.913247	344.3	21.9	-90.2	10.2
2025-01-22 14:20:12.073395	344.1	21.8	-90.0	9.3
2025-01-22 14:20:13.235423	343.8	21.7	-90.0	5.8
2025-01-22 14:20:14.395550	343.5	21.7	-89.8	6.1
2025-01-22 14:20:15.543490	343.3	21.6	-90.1	8.7
2025-01-22 14:20:16.699363	343.0	21.5	-90.4	4.1
2025-01-22 14:20:17.863632	342.8	21.4	-90.2	7.0
2025-01-22 14:20:19.016372	342.5	21.3	-90.4	7.1
2025-01-22 14:20:20.190965	342.2	21.3	-90.0	2.3
2025-01-22 14:20:21.350500	342.0	21.2	-89.5	2.6
2025-01-22 14:20:22.505155	341.7	21.1	-90.4	4.4
2025-01-22 14:20:23.664345	341.5	21.0	-89.1	3.2
2025-01-22 14:20:24.818347	341.2	20.9	-89.8	4.2
2025-01-22 14:20:25.978666	341.0	20.9	-90.2	0.9
2025-01-22 14:20:27.131671	340.8	20.8	-89.7	4.9
2025-01-22 14:20:28.287119	340.5	20.7	-90.0	2.1
2025-01-22 14:20:29.454930	340.3	20.6	-90.0	3.5
2025-01-22 14:20:30.606648	340.0	20.5	-89.3	3.2
2025-01-22 14:20:31.763188	339.8	20.4	-88.6	2.8
2025-01-22 14:20:32.919006	339.6	20.4	-87.7	2.7
2025-01-22 14:20:34.072164	339.3	20.3	-87.5	0.4
2025-01-22 14:20:35.232142	339.1	20.2	-89.9	4.0
2025-01-22 14:20:36.393017	338.8	20.1	-90.4	2.6
2025-01-22 14:20:37.548642	338.6	20.0	-90.0	3.6
2025-01-22 14:20:38.706810	338.4	19.9	-90.3	7.4
2025-01-22 14:20:39.868857	338.1	19.8	-90.3	3.6
2025-01-22 14:20:41.032885	337.9	19.8	-90.0	5.0
2025-01-22 14:20:42.198164	337.7	19.7	-89.8	4.6
2025-01-22 14:20:43.355242	337.5	19.6	-90.1	3.9
2025-01-22 14:20:44.507135	337.2	19.5	-90.3	6.3
2025-01-22 14:20:45.678287	337.0	19.4	-89.7	5.1
2025-01-22 14:20:46.825730	336.8	19.3	-90.3	4.4
2025-01-22 14:20:47.978123	336.6	19.2	-90.5	2.8
2025-01-22 14:20:49.140364	336.3	19.2	-90.1	2.4
2025-01-22 14:20:50.295690	336.1	19.1	-90.3	4.5
2025-01-22 14:20:51.450789	335.9	19.0	-89.9	3.2
2025-01-22 14:20:52.613735	335.7	18.9	-89.6	3.8
2025-01-22 14:20:53.771034	335.5	18.8	-90.3	3.0
2025-01-22 14:20:54.928855	335.3	18.7	-90.1	4.3
2025-01-22 14:20:56.092470	335.1	18.6	-89.7	4.0
2025-01-22 14:20:57.246253	334.8	18.5	-89.6	2.3
2025-01-22 14:20:58.401556	334.6	18.5	-89.4	2.5
2025-01-22 14:20:59.557657	334.4	18.4	-89.6	2.5
2025-01-22 14:21:00.717851	334.2	18.3	-90.0	3.0
2025-01-22 14:21:01.878195	334.0	18.2	-89.4	1.9
2025-01-22 14:21:03.034830	333.8	18.1	-89.0	3.2
2025-01-22 14:21:04.193022	333.6	18.0	-89.2	3.2
2025-01-22 14:21:05.352732	333.4	17.9	-89.4	1.9
2025-01-22 14:21:06.512138	333.2	17.8	-89.0	1.0
2025-01-22 14:21:07.661153	333.0	17.7	-89.4	2.0
2025-01-22 14:21:08.815672	332.8	17.7	-89.5	1.8
2025-01-22 14:21:09.976643	332.6	17.6	-90.7	0.9
2025-01-22 14:21:11.136449	332.4	17.5	-90.2	3.8
2025-01-22 14:21:12.297491	332.2	17.4	-90.1	2.3
2025-01-22 14:21:13.455850	332.0	17.3	-90.0	3.1
2025-01-22 14:21:14.606452	331.8	17.2	-90.1	6.4
2025-01-22 14:21:15.766829	331.6	17.1	-90.2	3.4
2025-01-22 14:21:16.917236	331.4	17.0	-90.2	3.4
2025-01-22 14:21:18.072199	331.2	16.9	-89.3	2.1
2025-01-22 14:21:19.233933	331.1	16.9	-90.1	1.5
2025-01-22 14:21:20.393603	330.9	16.8	-90.0	2.7
2025-01-22 14:21:21.555434	330.7	16.7	-90.5	3.1
2025-01-22 14:21:22.709458	330.5	16.6	-89.7	3.4
2025-01-22 14:21:23.852050	330.3	16.5	-90.0	3.2
2025-01-22 14:21:25.006965	330.1	16.4	-90.2	3.0
2025-01-22 14:21:26.167457	329.9	16.3	-90.0	3.0
2025-01-22 14:21:27.325853	329.8	16.2	-90.0	4.2
2025-01-22 14:21:28.482564	329.6	16.1	-89.9	3.9
2025-01-22 14:21:29.637419	329.4	16.1	-90.0	4.6
2025-01-22 14:21:30.816131	329.2	16.0	-89.9	5.5
2025-01-22 14:21:31.968056	329.0	15.9	-90.0	6.0
2025-01-22 14:21:33.129905	328.9	15.8	-90.1	4.6
2025-01-22 14:21:34.286833	328.7	15.7	-89.9	5.8
2025-01-22 14:21:35.438119	328.5	15.6	-90.2	4.5
2025-01-22 14:21:36.595640	328.3	15.5	-90.0	4.1
2025-01-22 14:21:37.755063	328.2	15.4	-90.1	5.1
2025-01-22 14:21:38.901830	328.0	15.3	-90.4	4.7
2025-01-22 14:21:40.062620	327.8	15.3	-89.8	2.7
2025-01-22 14:21:41.224949	327.7	15.2	-89.8	2.0
2025-01-22 14:21:42.390956	327.5	15.1	-89.5	2.6
2025-01-22 14:21:43.548260	327.3	15.0	-90.2	4.1
2025-01-22 14:21:44.710437	327.2	14.9	-90.4	4.4
2025-01-22 14:21:45.856612	327.0	14.8	-90.2	2.7
2025-01-22 14:21:47.016000	326.8	14.7	-90.4	3.1
2025-01-22 14:21:48.172518	326.7	14.6	-89.2	4.7
#Closed at: 2025-01-22 14:15:11.140705