passes_logs/2025/01/22/LEX_Murmansk/LEX_Murmansk__20250122_123548_NOAA_19_rec.log

#Pass ID: 20250122_123548_NOAA 19
#Satellite: NOAA 19
#Configuration: NOAA 19
#Start time: 2025-01-22 12:35:43.480612

#LorettStation: 1.0.0 05.05.2024
#Station: LEX_Murmansk
#Location: 33.156738 lon 68.926811 lat
#TLE: 1 33591U 09005A   25021.16349212  .00000417  00000+0  24660-3 0  9995
#TLE: 2 33591  99.0186  84.9732 0014271  40.9333 319.2908 14.13264918822414

#Time	Az	El	Level	SNR
2025-01-22 12:35:55.883717	32.0	15.9	-90.4	3.9
2025-01-22 12:35:57.033067	31.9	16.0	-90.2	3.9
2025-01-22 12:35:58.196060	31.7	16.1	-90.3	2.2
2025-01-22 12:35:59.346687	31.5	16.2	-90.1	2.5
2025-01-22 12:36:00.493228	31.3	16.3	-90.7	1.0
2025-01-22 12:36:01.645285	31.1	16.4	-90.6	3.0
2025-01-22 12:36:02.792314	30.9	16.5	-90.8	2.9
2025-01-22 12:36:03.943908	30.8	16.5	-91.0	3.3
2025-01-22 12:36:05.089724	30.6	16.6	-90.2	3.9
2025-01-22 12:36:06.250561	30.4	16.7	-90.4	1.9
2025-01-22 12:36:07.410509	30.2	16.8	-90.7	1.2
2025-01-22 12:36:08.565300	30.0	16.9	-90.7	2.1
2025-01-22 12:36:09.712019	29.8	17.0	-90.8	3.9
2025-01-22 12:36:10.861181	29.6	17.1	-90.9	3.6
2025-01-22 12:36:12.015085	29.4	17.2	-91.1	3.4
2025-01-22 12:36:13.168383	29.2	17.2	-90.5	4.0
2025-01-22 12:36:14.328718	29.0	17.3	-90.3	5.5
2025-01-22 12:36:15.484534	28.8	17.4	-90.6	2.3
2025-01-22 12:36:16.637125	28.6	17.5	-90.8	4.1
2025-01-22 12:36:17.788351	28.4	17.6	-90.7	5.3
2025-01-22 12:36:18.942435	28.2	17.7	-90.8	6.4
2025-01-22 12:36:20.084602	28.0	17.8	-90.4	8.0
2025-01-22 12:36:21.230972	27.8	17.9	-90.7	4.7
2025-01-22 12:36:22.378279	27.6	17.9	-90.4	6.6
2025-01-22 12:36:23.525257	27.4	18.0	-89.6	6.2
2025-01-22 12:36:24.675676	27.2	18.1	-90.0	4.3
2025-01-22 12:36:25.822066	27.0	18.2	-90.4	2.7
2025-01-22 12:36:26.969368	26.8	18.3	-90.4	0.7
2025-01-22 12:36:28.121278	26.6	18.4	-89.6	2.6
2025-01-22 12:36:29.273560	26.4	18.5	-90.2	1.0
2025-01-22 12:36:30.433408	26.1	18.5	-90.0	2.4
2025-01-22 12:36:31.587776	25.9	18.6	-91.3	6.9
2025-01-22 12:36:32.734675	25.7	18.7	-91.0	9.0
2025-01-22 12:36:33.885430	25.5	18.8	-90.7	8.1
2025-01-22 12:36:35.034548	25.3	18.9	-90.9	6.4
2025-01-22 12:36:36.190658	25.1	19.0	-90.8	10.0
2025-01-22 12:36:37.343751	24.8	19.1	-90.5	5.1
2025-01-22 12:36:38.490582	24.6	19.1	-91.0	4.2
2025-01-22 12:36:39.648174	24.4	19.2	-91.0	4.2
2025-01-22 12:36:40.791185	24.2	19.3	-91.0	3.4
2025-01-22 12:36:41.936660	24.0	19.4	-90.4	4.9
2025-01-22 12:36:43.098498	23.7	19.5	-90.1	4.5
2025-01-22 12:36:44.245306	23.5	19.6	-90.0	3.8
2025-01-22 12:36:45.397033	23.3	19.6	-90.0	7.1
2025-01-22 12:36:46.552310	23.0	19.7	-89.8	4.4
2025-01-22 12:36:47.706331	22.8	19.8	-89.9	5.2
2025-01-22 12:36:48.850526	22.6	19.9	-90.5	4.5
2025-01-22 12:36:50.001633	22.3	20.0	-90.9	4.2
2025-01-22 12:36:51.146870	22.1	20.1	-90.7	3.3
2025-01-22 12:36:52.293648	21.9	20.1	-90.9	2.0
2025-01-22 12:36:53.450116	21.6	20.2	-91.0	2.9
2025-01-22 12:36:54.601205	21.4	20.3	-91.0	4.1
2025-01-22 12:36:55.755560	21.2	20.4	-90.9	3.8
2025-01-22 12:36:56.913668	20.9	20.5	-90.9	3.4
2025-01-22 12:36:58.066123	20.7	20.6	-90.8	6.9
2025-01-22 12:36:59.214655	20.4	20.6	-89.5	7.0
2025-01-22 12:37:00.361172	20.2	20.7	-89.8	6.0
2025-01-22 12:37:01.505294	19.9	20.8	-91.2	5.0
2025-01-22 12:37:02.651535	19.7	20.9	-91.1	4.5
2025-01-22 12:37:03.807668	19.4	20.9	-91.1	3.3
2025-01-22 12:37:04.957524	19.2	21.0	-91.3	3.6
2025-01-22 12:37:06.112993	18.9	21.1	-90.7	2.9
2025-01-22 12:37:07.261731	18.7	21.2	-90.5	4.0
2025-01-22 12:37:08.407948	18.4	21.3	-90.7	6.8
2025-01-22 12:37:09.560049	18.2	21.3	-91.0	9.2
2025-01-22 12:37:10.712265	17.9	21.4	-91.0	9.4
2025-01-22 12:37:11.858954	17.7	21.5	-91.0	7.3
2025-01-22 12:37:13.013193	17.4	21.6	-91.1	6.9
2025-01-22 12:37:14.168381	17.1	21.6	-90.8	3.3
2025-01-22 12:37:15.319959	16.9	21.7	-90.7	1.9
2025-01-22 12:37:16.467156	16.6	21.8	-90.8	2.4
2025-01-22 12:37:17.613179	16.3	21.9	-91.2	1.6
2025-01-22 12:37:18.766289	16.1	21.9	-91.1	2.5
2025-01-22 12:37:19.915079	15.8	22.0	-91.2	2.5
2025-01-22 12:37:21.061020	15.5	22.1	-90.8	1.4
2025-01-22 12:37:22.208509	15.3	22.2	-90.9	3.2
2025-01-22 12:37:23.360849	15.0	22.2	-91.1	5.5
2025-01-22 12:37:24.522541	14.7	22.3	-91.3	11.4
2025-01-22 12:37:25.668699	14.5	22.4	-91.1	10.5
2025-01-22 12:37:26.818194	14.2	22.5	-90.8	6.3
2025-01-22 12:37:27.965163	13.9	22.5	-91.1	8.3
2025-01-22 12:37:29.112861	13.6	22.6	-90.9	7.3
2025-01-22 12:37:30.264179	13.3	22.7	-91.0	5.9
2025-01-22 12:37:31.408914	13.1	22.7	-90.8	6.0
2025-01-22 12:37:32.561625	12.8	22.8	-90.8	6.9
2025-01-22 12:37:33.709275	12.5	22.9	-91.0	4.7
2025-01-22 12:37:34.870223	12.2	22.9	-91.0	6.8
2025-01-22 12:37:36.028365	11.9	23.0	-91.2	9.6
2025-01-22 12:37:37.175523	11.6	23.1	-90.9	7.6
2025-01-22 12:37:38.333644	11.4	23.1	-90.4	12.3
2025-01-22 12:37:39.484718	11.1	23.2	-90.9	11.9
2025-01-22 12:37:40.632500	10.8	23.3	-90.4	11.2
2025-01-22 12:37:41.777170	10.5	23.3	-90.0	7.6
2025-01-22 12:37:42.930434	10.2	23.4	-90.1	7.7
2025-01-22 12:37:44.083309	9.9	23.4	-90.4	6.2
2025-01-22 12:37:45.239335	9.6	23.5	-90.0	3.0
2025-01-22 12:37:46.398468	9.3	23.6	-90.4	5.1
2025-01-22 12:37:47.547015	9.0	23.6	-90.5	4.1
2025-01-22 12:37:48.693403	8.7	23.7	-90.1	1.7
2025-01-22 12:37:49.844097	8.4	23.7	-90.2	0.8
2025-01-22 12:37:50.997422	8.1	23.8	-89.8	4.8
2025-01-22 12:37:52.145365	7.8	23.9	-91.2	3.3
2025-01-22 12:37:53.297610	7.5	23.9	-90.8	5.6
2025-01-22 12:37:54.447425	7.2	24.0	-91.0	6.1
2025-01-22 12:37:55.596334	6.9	24.0	-90.9	8.8
2025-01-22 12:37:56.742783	6.6	24.1	-91.5	9.7
2025-01-22 12:37:57.897486	6.3	24.1	-91.4	11.6
2025-01-22 12:37:59.053085	6.0	24.2	-91.4	9.2
2025-01-22 12:38:00.201194	5.7	24.2	-90.7	8.5
2025-01-22 12:38:01.358527	5.4	24.3	-91.0	5.6
2025-01-22 12:38:02.506539	5.1	24.3	-90.9	7.3
2025-01-22 12:38:03.658063	4.7	24.4	-91.5	6.5
2025-01-22 12:38:04.805323	4.4	24.4	-91.2	5.4
2025-01-22 12:38:05.955449	4.1	24.5	-91.1	7.4
2025-01-22 12:38:07.104128	3.8	24.5	-91.1	7.7
2025-01-22 12:38:08.254766	3.5	24.6	-91.1	7.6
2025-01-22 12:38:09.404867	3.2	24.6	-91.3	8.3
2025-01-22 12:38:10.551678	2.9	24.7	-91.4	8.6
2025-01-22 12:38:11.698489	2.5	24.7	-91.2	8.2
2025-01-22 12:38:12.848304	2.2	24.8	-91.6	11.3
2025-01-22 12:38:14.001011	1.9	24.8	-91.1	9.9
2025-01-22 12:38:15.149844	1.6	24.8	-91.0	9.2
2025-01-22 12:38:16.301663	1.3	24.9	-91.2	7.1
2025-01-22 12:38:17.459642	0.9	24.9	-91.1	12.5
2025-01-22 12:38:18.610374	0.6	25.0	-91.0	10.8
2025-01-22 12:38:19.758737	0.3	25.0	-91.2	9.1
2025-01-22 12:38:20.906945	360.0	25.0	-91.1	7.3
2025-01-22 12:38:22.053147	359.7	25.1	-91.0	7.3
2025-01-22 12:38:23.205221	359.3	25.1	-91.2	5.6
2025-01-22 12:38:24.358195	359.0	25.1	-91.0	3.4
2025-01-22 12:38:25.503938	358.7	25.2	-90.9	5.5
2025-01-22 12:38:26.652651	358.3	25.2	-91.3	4.4
2025-01-22 12:38:27.804543	358.0	25.2	-90.1	2.2
2025-01-22 12:38:28.958724	357.7	25.2	-87.7	4.1
2025-01-22 12:38:30.121966	357.4	25.3	-90.3	4.9
2025-01-22 12:38:31.273606	357.0	25.3	-90.4	3.0
2025-01-22 12:38:32.421722	356.7	25.3	-90.9	6.3
2025-01-22 12:38:33.573463	356.4	25.4	-90.6	6.1
2025-01-22 12:38:34.720545	356.0	25.4	-90.8	6.2
2025-01-22 12:38:35.874164	355.7	25.4	-90.3	8.5
2025-01-22 12:38:37.016564	355.4	25.4	-90.5	10.2
2025-01-22 12:38:38.176297	355.0	25.4	-90.1	12.3
2025-01-22 12:38:39.323164	354.7	25.5	-88.3	7.4
2025-01-22 12:38:40.472193	354.4	25.5	-88.2	3.8
2025-01-22 12:38:41.628285	354.0	25.5	-87.9	9.6
2025-01-22 12:38:42.785550	353.7	25.5	-88.0	10.3
2025-01-22 12:38:43.933641	353.4	25.5	-90.7	9.4
2025-01-22 12:38:45.077681	353.0	25.5	-87.8	5.6
2025-01-22 12:38:46.229897	352.7	25.6	-88.1	6.7
2025-01-22 12:38:47.377949	352.4	25.6	-90.4	7.9
2025-01-22 12:38:48.524641	352.0	25.6	-90.8	8.2
2025-01-22 12:38:49.676075	351.7	25.6	-90.0	5.3
2025-01-22 12:38:50.824662	351.3	25.6	-90.9	7.1
2025-01-22 12:38:51.978094	351.0	25.6	-90.9	5.9
2025-01-22 12:38:53.121729	350.7	25.6	-90.7	5.3
2025-01-22 12:38:54.277838	350.3	25.6	-90.3	5.3
2025-01-22 12:38:55.424709	350.0	25.6	-90.8	6.0
2025-01-22 12:38:56.578464	349.7	25.6	-90.9	4.4
2025-01-22 12:38:57.726802	349.3	25.6	-90.9	5.2
2025-01-22 12:38:58.872060	349.0	25.6	-91.2	5.5
2025-01-22 12:39:00.029616	348.7	25.6	-90.8	9.3
2025-01-22 12:39:01.175618	348.3	25.6	-90.8	6.6
2025-01-22 12:39:02.327826	348.0	25.6	-90.4	3.2
2025-01-22 12:39:03.476457	347.6	25.6	-91.2	8.0
2025-01-22 12:39:04.640655	347.3	25.6	-91.1	6.2
2025-01-22 12:39:05.794376	347.0	25.6	-91.2	6.3
2025-01-22 12:39:06.949498	346.6	25.6	-91.5	6.8
2025-01-22 12:39:08.094926	346.3	25.6	-90.8	7.5
2025-01-22 12:39:09.239850	346.0	25.6	-90.8	6.3
2025-01-22 12:39:10.389424	345.6	25.6	-91.1	6.6
2025-01-22 12:39:11.550601	345.3	25.6	-90.8	9.0
2025-01-22 12:39:12.698610	344.9	25.6	-91.1	10.0
2025-01-22 12:39:13.847379	344.6	25.5	-91.1	10.7
2025-01-22 12:39:14.998236	344.3	25.5	-91.1	8.1
2025-01-22 12:39:16.152697	343.9	25.5	-91.1	8.4
2025-01-22 12:39:17.299073	343.6	25.5	-90.7	6.7
2025-01-22 12:39:18.446279	343.3	25.5	-90.6	4.5
2025-01-22 12:39:19.594246	342.9	25.5	-91.3	9.8
2025-01-22 12:39:20.740834	342.6	25.4	-91.0	12.0
2025-01-22 12:39:21.889519	342.3	25.4	-90.3	5.6
2025-01-22 12:39:23.036655	341.9	25.4	-89.9	11.3
2025-01-22 12:39:24.184093	341.6	25.4	-90.3	2.9
2025-01-22 12:39:25.346679	341.3	25.4	-90.1	10.6
2025-01-22 12:39:26.491950	340.9	25.3	-90.4	2.8
2025-01-22 12:39:27.625749	340.6	25.3	-90.5	6.4
2025-01-22 12:39:28.766175	340.3	25.3	-90.4	4.7
2025-01-22 12:39:29.916826	340.0	25.3	-90.9	6.5
2025-01-22 12:39:31.065387	339.6	25.2	-91.1	3.5
2025-01-22 12:39:32.213777	339.3	25.2	-90.8	5.2
2025-01-22 12:39:33.373539	339.0	25.2	-90.7	0.7
2025-01-22 12:39:34.531214	338.7	25.1	-90.9	3.6
2025-01-22 12:39:35.685364	338.3	25.1	-89.8	3.3
2025-01-22 12:39:36.850681	338.0	25.1	-90.2	4.2
2025-01-22 12:39:38.002022	337.7	25.0	-90.2	8.4
2025-01-22 12:39:39.154654	337.3	25.0	-90.5	8.6
2025-01-22 12:39:40.312759	337.0	25.0	-90.4	2.9
2025-01-22 12:39:41.460698	336.7	24.9	-90.6	3.5
2025-01-22 12:39:42.610917	336.4	24.9	-90.9	5.7
2025-01-22 12:39:43.761738	336.1	24.8	-91.1	5.1
2025-01-22 12:39:44.913894	335.7	24.8	-90.9	5.7
2025-01-22 12:39:46.065175	335.4	24.8	-90.2	4.6
2025-01-22 12:39:47.216695	335.1	24.7	-90.0	5.8
2025-01-22 12:39:48.367747	334.8	24.7	-90.4	3.5
2025-01-22 12:39:49.519580	334.5	24.6	-90.2	5.6
2025-01-22 12:39:50.673654	334.1	24.6	-90.5	2.4
2025-01-22 12:39:51.823609	333.8	24.5	-90.4	2.4
2025-01-22 12:39:52.972662	333.5	24.5	-91.2	6.2
2025-01-22 12:39:54.127473	333.2	24.4	-90.8	5.1
2025-01-22 12:39:55.277173	332.9	24.4	-90.8	3.4
2025-01-22 12:39:56.426781	332.6	24.4	-90.8	3.4
2025-01-22 12:39:57.575086	332.3	24.3	-91.1	2.6
2025-01-22 12:39:58.720279	332.0	24.3	-90.7	5.5
2025-01-22 12:39:59.877977	331.7	24.2	-90.7	6.1
2025-01-22 12:40:01.028255	331.3	24.1	-91.0	4.0
2025-01-22 12:40:02.181715	331.0	24.1	-90.8	5.3
2025-01-22 12:40:03.327677	330.7	24.0	-91.0	3.9
2025-01-22 12:40:04.475594	330.4	24.0	-90.7	4.5
2025-01-22 12:40:05.627308	330.1	23.9	-90.9	5.7
2025-01-22 12:40:06.783053	329.8	23.9	-91.0	4.4
2025-01-22 12:40:07.934670	329.5	23.8	-91.0	5.6
2025-01-22 12:40:09.085414	329.2	23.8	-90.7	7.1
2025-01-22 12:40:10.233988	328.9	23.7	-90.8	7.1
2025-01-22 12:40:11.377329	328.6	23.6	-91.1	7.0
2025-01-22 12:40:12.532895	328.3	23.6	-91.2	5.5
2025-01-22 12:40:13.683324	328.0	23.5	-91.0	3.3
2025-01-22 12:40:14.835028	327.7	23.5	-91.0	2.8
2025-01-22 12:40:15.985633	327.5	23.4	-90.2	5.0
2025-01-22 12:40:17.139245	327.2	23.3	-90.1	4.7
2025-01-22 12:40:18.291313	326.9	23.3	-89.9	3.3
2025-01-22 12:40:19.440481	326.6	23.2	-90.4	6.1
2025-01-22 12:40:20.600162	326.3	23.1	-90.5	3.7
2025-01-22 12:40:21.749226	326.0	23.1	-90.3	5.6
2025-01-22 12:40:22.904382	325.7	23.0	-90.8	3.5
2025-01-22 12:40:24.050095	325.4	22.9	-90.7	5.8
2025-01-22 12:40:25.199295	325.2	22.9	-90.9	8.0
2025-01-22 12:40:26.354588	324.9	22.8	-90.7	5.4
2025-01-22 12:40:27.501872	324.6	22.7	-90.7	2.9
2025-01-22 12:40:28.653894	324.3	22.7	-91.3	5.4
2025-01-22 12:40:29.803971	324.0	22.6	-91.3	2.9
2025-01-22 12:40:30.958742	323.8	22.5	-91.2	3.8
2025-01-22 12:40:32.104303	323.5	22.5	-90.7	3.5
2025-01-22 12:40:33.253405	323.2	22.4	-91.1	3.6
2025-01-22 12:40:34.403902	322.9	22.3	-91.4	6.6
2025-01-22 12:40:35.550920	322.7	22.3	-91.2	8.0
2025-01-22 12:40:36.701767	322.4	22.2	-90.7	4.4
2025-01-22 12:40:37.851886	322.1	22.1	-91.2	3.6
2025-01-22 12:40:39.004308	321.9	22.0	-91.3	2.9
2025-01-22 12:40:40.161400	321.6	22.0	-90.9	4.5
2025-01-22 12:40:41.314833	321.3	21.9	-91.1	0.9
2025-01-22 12:40:42.465294	321.1	21.8	-90.9	3.4
2025-01-22 12:40:43.627198	320.8	21.7	-90.8	2.3
2025-01-22 12:40:44.778434	320.5	21.7	-90.9	2.7
2025-01-22 12:40:45.929785	320.3	21.6	-91.0	1.9
2025-01-22 12:40:47.077779	320.0	21.5	-90.9	6.7
2025-01-22 12:40:48.229760	319.7	21.4	-90.8	1.2
2025-01-22 12:40:49.387568	319.5	21.4	-91.2	4.5
2025-01-22 12:40:50.540804	319.2	21.3	-91.2	5.7
2025-01-22 12:40:51.691718	319.0	21.2	-90.5	1.1
2025-01-22 12:40:52.838741	318.7	21.1	-90.8	1.8
2025-01-22 12:40:53.972306	318.5	21.0	-91.0	1.8
2025-01-22 12:40:55.121364	318.2	21.0	-90.6	2.1
2025-01-22 12:40:56.269209	318.0	20.9	-90.7	3.4
2025-01-22 12:40:57.420730	317.7	20.8	-91.1	3.7
2025-01-22 12:40:58.574780	317.5	20.7	-90.6	3.3
2025-01-22 12:40:59.729677	317.2	20.7	-90.9	2.6
2025-01-22 12:41:00.875925	317.0	20.6	-90.6	1.6
2025-01-22 12:41:02.024663	316.8	20.5	-90.9	1.4
2025-01-22 12:41:03.170673	316.5	20.4	-90.7	3.9
2025-01-22 12:41:04.319896	316.3	20.3	-90.7	2.4
2025-01-22 12:41:05.471606	316.0	20.2	-90.9	2.7
2025-01-22 12:41:06.620806	315.8	20.2	-91.2	5.0
2025-01-22 12:41:07.773472	315.6	20.1	-91.5	1.9
2025-01-22 12:41:09.026532	315.3	20.0	-90.9	3.1
2025-01-22 12:41:10.181292	315.1	19.9	-90.8	3.3
2025-01-22 12:41:11.329064	314.8	19.8	-91.1	5.2
2025-01-22 12:41:12.482761	314.6	19.7	-91.4	3.0
2025-01-22 12:41:13.640107	314.4	19.7	-91.3	6.2
2025-01-22 12:41:14.798053	314.2	19.6	-91.2	6.3
2025-01-22 12:41:15.938565	313.9	19.5	-91.0	4.5
2025-01-22 12:41:17.086217	313.7	19.4	-90.9	3.5
2025-01-22 12:41:18.238991	313.5	19.3	-91.2	3.1
2025-01-22 12:41:19.391782	313.3	19.2	-91.1	2.5
2025-01-22 12:41:20.544551	313.0	19.2	-91.1	3.7
2025-01-22 12:41:21.695668	312.8	19.1	-90.9	5.3
2025-01-22 12:41:22.850225	312.6	19.0	-91.2	3.3
2025-01-22 12:41:23.999330	312.4	18.9	-91.2	2.3
2025-01-22 12:41:25.147875	312.2	18.8	-91.0	2.7
2025-01-22 12:41:26.306907	311.9	18.7	-90.7	2.8
2025-01-22 12:41:27.460413	311.7	18.6	-90.9	1.8
2025-01-22 12:41:28.610729	311.5	18.6	-91.1	1.9
2025-01-22 12:41:29.764868	311.3	18.5	-91.1	3.5
2025-01-22 12:41:30.923356	311.1	18.4	-90.9	8.5
2025-01-22 12:41:32.070060	310.9	18.3	-89.9	4.2
2025-01-22 12:41:33.228371	310.7	18.2	-91.2	3.7
2025-01-22 12:41:34.378671	310.5	18.1	-90.8	2.2
2025-01-22 12:41:35.531780	310.2	18.0	-91.1	3.5
2025-01-22 12:41:36.678946	310.0	18.0	-91.2	6.8
2025-01-22 12:41:37.829969	309.8	17.9	-91.2	8.3
2025-01-22 12:41:38.978640	309.6	17.8	-90.8	7.4
2025-01-22 12:41:40.122489	309.4	17.7	-90.4	4.6
2025-01-22 12:41:41.287453	309.2	17.6	-90.6	6.5
2025-01-22 12:41:42.435533	309.0	17.5	-91.2	4.7
2025-01-22 12:41:43.585448	308.8	17.4	-91.1	4.0
2025-01-22 12:41:44.735160	308.6	17.4	-91.0	4.6
2025-01-22 12:41:45.884763	308.4	17.3	-91.1	4.0
2025-01-22 12:41:47.037644	308.2	17.2	-91.0	3.0
2025-01-22 12:41:48.181760	308.1	17.1	-90.9	2.2
2025-01-22 12:41:49.334240	307.9	17.0	-90.4	5.5
2025-01-22 12:41:50.490209	307.7	16.9	-90.9	2.8
2025-01-22 12:41:51.641285	307.5	16.8	-90.8	2.8
2025-01-22 12:41:52.786907	307.3	16.8	-91.1	2.5
2025-01-22 12:41:53.932898	307.1	16.7	-91.1	2.5
2025-01-22 12:41:55.088293	306.9	16.6	-90.7	3.9
2025-01-22 12:41:56.242789	306.7	16.5	-90.7	1.0
2025-01-22 12:41:57.390347	306.5	16.4	-91.1	2.8
2025-01-22 12:41:58.539900	306.4	16.3	-91.0	4.1
2025-01-22 12:41:59.695866	306.2	16.2	-90.8	0.3
2025-01-22 12:42:00.840518	306.0	16.1	-90.8	6.2
2025-01-22 12:42:01.992347	305.8	16.1	-91.3	6.2
2025-01-22 12:42:03.140127	305.6	16.0	-90.9	8.6
2025-01-22 12:42:04.285670	305.5	15.9	-90.9	6.2
2025-01-22 12:42:05.433764	305.3	15.8	-91.1	11.2
2025-01-22 12:42:06.583621	305.1	15.7	-91.2	6.3
2025-01-22 12:42:07.736918	304.9	15.6	-90.9	5.1
2025-01-22 12:42:08.892810	304.8	15.5	-91.2	3.7
2025-01-22 12:42:10.041335	304.6	15.5	-90.7	4.7
2025-01-22 12:42:11.192756	304.4	15.4	-89.8	2.6
2025-01-22 12:42:12.340398	304.2	15.3	-90.1	1.2
2025-01-22 12:42:13.492588	304.1	15.2	-89.9	2.8
2025-01-22 12:42:14.644665	303.9	15.1	-90.1	2.1
2025-01-22 12:42:15.792662	303.7	15.0	-90.0	2.8
2025-01-22 12:42:16.939283	303.6	14.9	-90.5	1.5
2025-01-22 12:42:18.089186	303.4	14.8	-90.4	5.0
2025-01-22 12:42:19.250441	303.2	14.8	-90.3	0.8
2025-01-22 12:42:20.399268	303.1	14.7	-90.2	2.6
2025-01-22 12:42:21.605129	302.9	14.6	-90.9	4.2
#Closed at: 2025-01-22 12:35:48.433885