passes_logs/2025/01/22/LEX_Murmansk/LEX_Murmansk__20250122_075744_NOAA_18_rec.log

#Pass ID: 20250122_075744_NOAA 18
#Satellite: NOAA 18
#Configuration: NOAA 18
#Start time: 2025-01-22 07:57:39.715666

#LorettStation: 1.0.0 05.05.2024
#Station: LEX_Murmansk
#Location: 33.156738 lon 68.926811 lat
#TLE: 1 28654U 05018A   25021.17963601  .00000484  00000+0  28040-3 0  9994
#TLE: 2 28654  98.8557 102.1724 0014626 162.0619 198.1073 14.13492794 14053

#Time	Az	El	Level	SNR
2025-01-22 07:57:51.851293	39.3	15.9	-91.3	4.4
2025-01-22 07:57:52.990902	39.5	16.0	-90.6	5.5
2025-01-22 07:57:54.137483	39.7	16.1	-90.6	5.1
2025-01-22 07:57:55.284881	39.9	16.2	-90.6	3.6
2025-01-22 07:57:56.433277	40.0	16.3	-90.9	2.7
2025-01-22 07:57:57.576787	40.2	16.4	-91.1	4.3
2025-01-22 07:57:58.724026	40.4	16.5	-91.4	4.7
2025-01-22 07:57:59.870287	40.6	16.6	-90.8	5.7
2025-01-22 07:58:01.013067	40.8	16.6	-91.2	3.4
2025-01-22 07:58:02.154048	40.9	16.7	-91.1	4.8
2025-01-22 07:58:03.300679	41.1	16.8	-90.8	4.3
2025-01-22 07:58:04.447521	41.3	16.9	-90.9	5.0
2025-01-22 07:58:05.594577	41.5	17.0	-91.0	4.7
2025-01-22 07:58:06.742678	41.7	17.1	-90.9	3.9
2025-01-22 07:58:07.889660	41.9	17.2	-91.2	3.1
2025-01-22 07:58:09.038590	42.1	17.3	-91.2	4.1
2025-01-22 07:58:10.183953	42.2	17.4	-90.9	3.5
2025-01-22 07:58:11.336584	42.4	17.4	-90.5	4.5
2025-01-22 07:58:12.480404	42.6	17.5	-91.3	4.6
2025-01-22 07:58:13.625508	42.8	17.6	-90.9	4.7
2025-01-22 07:58:14.789774	43.0	17.7	-91.3	4.3
2025-01-22 07:58:15.932226	43.2	17.8	-89.9	5.6
2025-01-22 07:58:17.079802	43.4	17.9	-89.5	6.4
2025-01-22 07:58:18.230200	43.6	18.0	-89.0	6.1
2025-01-22 07:58:19.377530	43.8	18.1	-88.5	6.3
2025-01-22 07:58:20.519460	44.0	18.2	-89.9	6.6
2025-01-22 07:58:21.666029	44.2	18.3	-89.2	5.8
2025-01-22 07:58:22.811785	44.4	18.3	-89.8	6.9
2025-01-22 07:58:23.960184	44.6	18.4	-89.6	6.1
2025-01-22 07:58:25.107522	44.8	18.5	-89.0	3.8
2025-01-22 07:58:26.255338	45.0	18.6	-88.9	4.4
2025-01-22 07:58:27.401767	45.2	18.7	-89.6	5.9
2025-01-22 07:58:28.550788	45.4	18.8	-89.8	4.3
2025-01-22 07:58:29.697662	45.6	18.9	-89.1	6.8
2025-01-22 07:58:30.855678	45.9	19.0	-89.4	7.8
2025-01-22 07:58:32.005399	46.1	19.1	-89.5	4.9
2025-01-22 07:58:33.150542	46.3	19.2	-89.6	8.0
2025-01-22 07:58:34.297164	46.5	19.2	-89.5	5.8
2025-01-22 07:58:35.440872	46.7	19.3	-90.0	8.8
2025-01-22 07:58:36.587744	46.9	19.4	-89.5	7.6
2025-01-22 07:58:37.731317	47.1	19.5	-89.9	12.0
2025-01-22 07:58:38.877033	47.4	19.6	-90.1	12.7
2025-01-22 07:58:40.019482	47.6	19.7	-91.1	14.1
2025-01-22 07:58:41.164220	47.8	19.8	-89.8	9.7
2025-01-22 07:58:42.307008	48.0	19.9	-90.6	13.2
2025-01-22 07:58:43.456463	48.3	20.0	-90.4	9.9
2025-01-22 07:58:44.604126	48.5	20.0	-90.3	6.3
2025-01-22 07:58:45.758222	48.7	20.1	-89.6	11.3
2025-01-22 07:58:46.905432	48.9	20.2	-90.1	4.3
2025-01-22 07:58:48.053802	49.2	20.3	-89.7	5.6
2025-01-22 07:58:49.206331	49.4	20.4	-89.2	8.9
2025-01-22 07:58:50.351300	49.6	20.5	-89.5	10.7
2025-01-22 07:58:51.497065	49.9	20.6	-89.5	7.0
2025-01-22 07:58:52.641090	50.1	20.7	-88.8	9.0
2025-01-22 07:58:53.793423	50.3	20.7	-90.9	12.2
2025-01-22 07:58:54.934209	50.6	20.8	-90.8	10.9
2025-01-22 07:58:56.081980	50.8	20.9	-90.5	9.4
2025-01-22 07:58:57.231643	51.0	21.0	-90.6	10.5
2025-01-22 07:58:58.375704	51.3	21.1	-90.4	8.5
2025-01-22 07:58:59.517874	51.5	21.2	-90.6	7.5
2025-01-22 07:59:00.660839	51.8	21.3	-90.8	13.5
2025-01-22 07:59:01.807090	52.0	21.3	-90.7	17.5
2025-01-22 07:59:02.954783	52.3	21.4	-91.0	8.8
2025-01-22 07:59:04.097606	52.5	21.5	-90.3	11.5
2025-01-22 07:59:05.246428	52.7	21.6	-90.4	15.3
2025-01-22 07:59:06.393623	53.0	21.7	-90.8	10.9
2025-01-22 07:59:07.540636	53.3	21.8	-91.3	4.7
2025-01-22 07:59:08.700621	53.5	21.9	-91.5	6.0
2025-01-22 07:59:09.848197	53.8	21.9	-91.1	12.1
2025-01-22 07:59:10.995880	54.0	22.0	-91.1	3.9
2025-01-22 07:59:12.142859	54.3	22.1	-91.1	8.2
2025-01-22 07:59:13.286584	54.5	22.2	-90.8	16.0
2025-01-22 07:59:14.432814	54.8	22.3	-91.3	7.4
2025-01-22 07:59:15.581727	55.0	22.4	-91.4	6.3
2025-01-22 07:59:16.725774	55.3	22.4	-91.1	12.6
2025-01-22 07:59:17.862460	55.6	22.5	-91.1	10.1
2025-01-22 07:59:18.999875	55.8	22.6	-91.1	15.3
2025-01-22 07:59:20.149329	56.1	22.7	-91.2	10.6
2025-01-22 07:59:21.292984	56.4	22.8	-91.2	15.0
2025-01-22 07:59:22.436572	56.6	22.8	-91.1	11.9
2025-01-22 07:59:23.591355	56.9	22.9	-91.1	15.1
2025-01-22 07:59:24.735565	57.2	23.0	-91.5	9.0
2025-01-22 07:59:25.881914	57.5	23.1	-90.9	10.0
2025-01-22 07:59:27.034773	57.7	23.2	-91.4	7.4
2025-01-22 07:59:28.180368	58.0	23.2	-91.1	8.9
2025-01-22 07:59:29.326046	58.3	23.3	-90.3	10.9
2025-01-22 07:59:30.472072	58.6	23.4	-91.3	6.3
2025-01-22 07:59:31.619543	58.8	23.5	-91.7	12.7
2025-01-22 07:59:32.771658	59.1	23.5	-91.4	14.6
2025-01-22 07:59:33.915997	59.4	23.6	-91.2	12.3
2025-01-22 07:59:35.063618	59.7	23.7	-91.3	4.9
2025-01-22 07:59:36.212550	60.0	23.8	-91.2	6.3
2025-01-22 07:59:37.359046	60.3	23.9	-91.3	6.1
2025-01-22 07:59:38.505311	60.5	23.9	-91.4	7.0
2025-01-22 07:59:39.654648	60.8	24.0	-91.6	3.2
2025-01-22 07:59:40.800141	61.1	24.1	-91.4	10.3
2025-01-22 07:59:41.940672	61.4	24.1	-91.2	6.3
2025-01-22 07:59:43.084861	61.7	24.2	-91.0	7.1
2025-01-22 07:59:44.231411	62.0	24.3	-90.9	10.8
2025-01-22 07:59:45.377862	62.3	24.4	-91.0	6.9
2025-01-22 07:59:46.528096	62.6	24.4	-91.2	15.6
2025-01-22 07:59:47.674652	62.9	24.5	-91.2	10.5
2025-01-22 07:59:48.820665	63.2	24.6	-91.4	15.9
2025-01-22 07:59:49.963988	63.5	24.6	-91.5	13.4
2025-01-22 07:59:51.111932	63.8	24.7	-90.8	10.8
2025-01-22 07:59:52.259655	64.1	24.8	-91.2	14.8
2025-01-22 07:59:53.403512	64.4	24.8	-91.2	8.5
2025-01-22 07:59:54.551999	64.7	24.9	-91.1	9.3
2025-01-22 07:59:55.702440	65.0	25.0	-91.4	12.0
2025-01-22 07:59:56.847016	65.3	25.0	-91.6	11.5
2025-01-22 07:59:57.993313	65.6	25.1	-90.7	6.6
2025-01-22 07:59:59.144501	65.9	25.2	-91.3	7.2
2025-01-22 08:00:00.285423	66.3	25.2	-91.2	6.8
2025-01-22 08:00:01.430146	66.6	25.3	-91.3	8.8
2025-01-22 08:00:02.576474	66.9	25.3	-91.5	11.2
2025-01-22 08:00:03.724234	67.2	25.4	-91.6	6.1
2025-01-22 08:00:04.871638	67.5	25.5	-91.2	7.5
2025-01-22 08:00:06.032114	67.8	25.5	-91.3	4.6
2025-01-22 08:00:07.174386	68.2	25.6	-91.3	4.3
2025-01-22 08:00:08.326029	68.5	25.6	-91.2	5.8
2025-01-22 08:00:09.477721	68.8	25.7	-91.7	6.3
2025-01-22 08:00:10.624986	69.1	25.7	-91.3	7.8
2025-01-22 08:00:11.772144	69.4	25.8	-91.4	11.0
2025-01-22 08:00:12.919435	69.8	25.9	-91.3	5.4
2025-01-22 08:00:14.063445	70.1	25.9	-91.2	5.0
2025-01-22 08:00:15.211533	70.4	26.0	-90.9	5.2
2025-01-22 08:00:16.359728	70.7	26.0	-91.4	2.5
2025-01-22 08:00:17.511910	71.1	26.1	-91.2	6.3
2025-01-22 08:00:18.655611	71.4	26.1	-91.1	7.1
2025-01-22 08:00:19.801359	71.7	26.2	-91.4	8.3
2025-01-22 08:00:20.946681	72.1	26.2	-91.3	5.0
2025-01-22 08:00:22.091385	72.4	26.2	-91.1	5.9
2025-01-22 08:00:23.235458	72.7	26.3	-91.2	4.2
2025-01-22 08:00:24.381252	73.1	26.3	-91.1	3.9
2025-01-22 08:00:25.525811	73.4	26.4	-91.6	4.1
2025-01-22 08:00:26.667753	73.7	26.4	-91.0	7.1
2025-01-22 08:00:27.813980	74.1	26.5	-91.2	5.3
2025-01-22 08:00:28.966293	74.4	26.5	-91.6	5.0
2025-01-22 08:00:30.115113	74.8	26.5	-90.9	3.9
2025-01-22 08:00:31.258374	75.1	26.6	-91.1	4.0
2025-01-22 08:00:32.405840	75.4	26.6	-91.3	5.8
2025-01-22 08:00:33.554401	75.8	26.7	-91.2	8.2
2025-01-22 08:00:34.700367	76.1	26.7	-91.7	8.6
2025-01-22 08:00:35.847252	76.5	26.7	-91.4	4.2
2025-01-22 08:00:36.999281	76.8	26.8	-91.4	5.0
2025-01-22 08:00:38.149043	77.2	26.8	-91.3	6.5
2025-01-22 08:00:39.288862	77.5	26.8	-91.3	6.8
2025-01-22 08:00:40.438090	77.8	26.9	-91.3	7.8
2025-01-22 08:00:41.590133	78.2	26.9	-91.7	8.5
2025-01-22 08:00:42.738938	78.5	26.9	-91.2	11.2
2025-01-22 08:00:43.888093	78.9	26.9	-91.2	11.5
2025-01-22 08:00:45.033532	79.2	27.0	-91.8	9.0
2025-01-22 08:00:46.181649	79.6	27.0	-91.3	7.0
2025-01-22 08:00:47.324753	79.9	27.0	-91.0	8.4
2025-01-22 08:00:48.481044	80.3	27.0	-91.3	8.9
2025-01-22 08:00:49.623563	80.6	27.1	-91.5	8.3
2025-01-22 08:00:50.776951	81.0	27.1	-91.1	7.0
2025-01-22 08:00:51.922114	81.3	27.1	-91.7	10.5
2025-01-22 08:00:53.067412	81.7	27.1	-91.4	8.2
2025-01-22 08:00:54.216630	82.0	27.1	-91.0	8.4
2025-01-22 08:00:55.364016	82.4	27.1	-91.2	9.9
2025-01-22 08:00:56.516648	82.7	27.2	-91.3	7.3
2025-01-22 08:00:57.665222	83.1	27.2	-91.4	11.3
2025-01-22 08:00:58.813378	83.5	27.2	-91.1	10.9
2025-01-22 08:00:59.963385	83.8	27.2	-91.4	3.3
2025-01-22 08:01:01.103364	84.2	27.2	-91.3	5.5
2025-01-22 08:01:02.248976	84.5	27.2	-91.0	6.5
2025-01-22 08:01:03.390998	84.9	27.2	-91.2	7.4
2025-01-22 08:01:04.541168	85.2	27.2	-91.6	4.6
2025-01-22 08:01:05.690537	85.6	27.2	-91.1	7.1
2025-01-22 08:01:06.839630	85.9	27.2	-91.0	7.1
2025-01-22 08:01:07.989337	86.3	27.2	-91.6	4.8
2025-01-22 08:01:09.136244	86.6	27.2	-90.9	6.7
2025-01-22 08:01:10.278707	87.0	27.2	-91.1	7.3
2025-01-22 08:01:11.431584	87.4	27.2	-91.4	3.4
2025-01-22 08:01:12.579978	87.7	27.2	-91.2	4.3
2025-01-22 08:01:13.731071	88.1	27.2	-91.5	5.8
2025-01-22 08:01:14.883861	88.4	27.2	-90.8	5.1
2025-01-22 08:01:16.142461	88.8	27.2	-86.0	1.1
2025-01-22 08:01:17.297823	89.2	27.2	-90.6	5.6
2025-01-22 08:01:18.442502	89.5	27.2	-89.6	7.5
2025-01-22 08:01:19.590749	89.9	27.2	-90.6	8.4
2025-01-22 08:01:20.735275	90.2	27.2	-85.9	4.5
2025-01-22 08:01:21.883699	90.6	27.2	-91.3	8.8
2025-01-22 08:01:23.024904	90.9	27.2	-91.7	7.1
2025-01-22 08:01:24.174201	91.3	27.2	-91.3	6.7
2025-01-22 08:01:25.323791	91.6	27.2	-91.1	5.8
2025-01-22 08:01:26.472389	92.0	27.1	-90.8	5.3
2025-01-22 08:01:27.617130	92.4	27.1	-91.0	6.0
2025-01-22 08:01:28.765137	92.7	27.1	-90.2	7.7
2025-01-22 08:01:29.911357	93.1	27.1	-89.8	6.5
2025-01-22 08:01:31.061538	93.4	27.1	-90.2	4.6
2025-01-22 08:01:32.209219	93.8	27.0	-89.7	7.2
2025-01-22 08:01:33.354493	94.1	27.0	-90.1	6.0
2025-01-22 08:01:34.523306	94.5	27.0	-90.7	6.5
2025-01-22 08:01:35.672703	94.8	27.0	-90.4	10.1
2025-01-22 08:01:36.818675	95.2	26.9	-90.7	12.6
2025-01-22 08:01:37.965033	95.5	26.9	-90.6	8.5
2025-01-22 08:01:39.110972	95.9	26.9	-90.4	7.4
2025-01-22 08:01:40.258533	96.2	26.9	-90.4	12.0
2025-01-22 08:01:41.407182	96.6	26.8	-90.7	7.9
2025-01-22 08:01:42.553907	96.9	26.8	-90.2	7.9
2025-01-22 08:01:43.698836	97.2	26.8	-90.0	10.7
2025-01-22 08:01:44.847828	97.6	26.7	-90.7	12.7
2025-01-22 08:01:45.999960	97.9	26.7	-90.0	7.4
2025-01-22 08:01:47.145102	98.3	26.7	-90.1	11.7
2025-01-22 08:01:48.293702	98.6	26.6	-90.1	12.5
2025-01-22 08:01:49.443301	99.0	26.6	-90.0	7.6
2025-01-22 08:01:50.585918	99.3	26.6	-90.4	8.0
2025-01-22 08:01:51.725959	99.6	26.5	-90.0	11.4
2025-01-22 08:01:52.872791	100.0	26.5	-90.3	12.9
2025-01-22 08:01:54.018690	100.3	26.4	-90.7	7.7
2025-01-22 08:01:55.163707	100.7	26.4	-90.2	13.4
2025-01-22 08:01:56.313802	101.0	26.4	-90.2	13.2
2025-01-22 08:01:57.458682	101.3	26.3	-90.6	7.6
2025-01-22 08:01:58.607773	101.7	26.3	-90.4	9.2
2025-01-22 08:01:59.757984	102.0	26.2	-90.6	11.9
2025-01-22 08:02:00.895432	102.3	26.2	-90.8	6.9
2025-01-22 08:02:02.041413	102.7	26.1	-90.2	4.7
2025-01-22 08:02:03.183195	103.0	26.1	-91.3	9.1
2025-01-22 08:02:04.333189	103.3	26.0	-91.4	8.6
2025-01-22 08:02:05.477758	103.7	26.0	-91.5	7.9
2025-01-22 08:02:06.624347	104.0	25.9	-91.1	11.0
2025-01-22 08:02:07.771525	104.3	25.9	-91.7	12.5
2025-01-22 08:02:08.920578	104.6	25.8	-91.6	4.8
2025-01-22 08:02:10.068140	105.0	25.8	-90.9	5.4
2025-01-22 08:02:11.214039	105.3	25.7	-91.1	7.6
2025-01-22 08:02:12.360058	105.6	25.7	-91.3	7.5
2025-01-22 08:02:13.510870	105.9	25.6	-91.1	6.1
2025-01-22 08:02:14.658186	106.3	25.5	-91.4	8.3
2025-01-22 08:02:15.812027	106.6	25.5	-91.7	9.2
2025-01-22 08:02:16.956070	106.9	25.4	-91.3	6.0
2025-01-22 08:02:18.101531	107.2	25.4	-91.6	3.8
2025-01-22 08:02:19.248082	107.5	25.3	-91.4	7.3
2025-01-22 08:02:20.393018	107.8	25.2	-91.0	4.4
2025-01-22 08:02:21.539675	108.2	25.2	-91.3	6.6
2025-01-22 08:02:22.686723	108.5	25.1	-91.5	7.9
2025-01-22 08:02:23.831059	108.8	25.1	-91.0	6.2
2025-01-22 08:02:24.979558	109.1	25.0	-91.5	4.1
2025-01-22 08:02:26.123537	109.4	24.9	-91.1	3.7
2025-01-22 08:02:27.272993	109.7	24.9	-91.0	6.3
2025-01-22 08:02:28.420789	110.0	24.8	-91.2	3.6
2025-01-22 08:02:29.569685	110.3	24.7	-91.7	3.8
2025-01-22 08:02:30.720251	110.6	24.7	-91.3	6.4
2025-01-22 08:02:31.863753	110.9	24.6	-91.4	4.4
2025-01-22 08:02:33.008142	111.2	24.5	-91.2	5.2
2025-01-22 08:02:34.155857	111.5	24.4	-91.2	2.9
2025-01-22 08:02:35.304759	111.8	24.4	-91.3	3.8
2025-01-22 08:02:36.455127	112.1	24.3	-91.2	3.9
2025-01-22 08:02:37.602432	112.4	24.2	-91.6	5.9
2025-01-22 08:02:38.750869	112.7	24.2	-91.7	5.8
2025-01-22 08:02:39.899847	113.0	24.1	-91.2	3.9
2025-01-22 08:02:41.043444	113.3	24.0	-91.4	5.7
2025-01-22 08:02:42.185720	113.6	23.9	-90.9	6.1
2025-01-22 08:02:43.325984	113.9	23.9	-91.3	6.2
2025-01-22 08:02:44.473174	114.2	23.8	-91.8	4.4
2025-01-22 08:02:45.625246	114.5	23.7	-91.0	4.4
2025-01-22 08:02:46.772636	114.8	23.6	-91.3	7.7
2025-01-22 08:02:47.922816	115.0	23.6	-91.5	8.8
2025-01-22 08:02:49.067577	115.3	23.5	-91.0	10.1
2025-01-22 08:02:50.212812	115.6	23.4	-90.2	11.4
2025-01-22 08:02:51.353254	115.9	23.3	-91.0	11.2
2025-01-22 08:02:52.499550	116.2	23.3	-90.1	9.8
2025-01-22 08:02:53.648637	116.4	23.2	-90.1	12.9
2025-01-22 08:02:54.794073	116.7	23.1	-90.5	11.9
2025-01-22 08:02:55.940378	117.0	23.0	-90.4	12.7
2025-01-22 08:02:57.084000	117.3	22.9	-90.3	12.3
2025-01-22 08:02:58.230489	117.5	22.9	-90.1	14.0
2025-01-22 08:02:59.381275	117.8	22.8	-90.1	14.0
2025-01-22 08:03:00.526157	118.1	22.7	-90.5	15.7
2025-01-22 08:03:01.674198	118.3	22.6	-90.6	15.8
2025-01-22 08:03:02.817394	118.6	22.5	-90.2	15.7
2025-01-22 08:03:03.959506	118.9	22.4	-90.1	14.5
2025-01-22 08:03:05.101502	119.1	22.4	-90.0	12.5
2025-01-22 08:03:06.246950	119.4	22.3	-89.9	12.8
2025-01-22 08:03:07.392390	119.7	22.2	-90.3	11.0
2025-01-22 08:03:08.538422	119.9	22.1	-90.3	9.7
2025-01-22 08:03:09.682947	120.2	22.0	-91.4	10.6
2025-01-22 08:03:10.826381	120.4	21.9	-90.9	8.6
2025-01-22 08:03:11.972444	120.7	21.9	-91.5	8.0
2025-01-22 08:03:13.117680	120.9	21.8	-91.3	9.0
2025-01-22 08:03:14.258982	121.2	21.7	-91.0	14.4
2025-01-22 08:03:15.405057	121.4	21.6	-90.6	8.5
2025-01-22 08:03:16.548170	121.7	21.5	-91.3	8.0
2025-01-22 08:03:17.695690	121.9	21.4	-91.2	14.6
2025-01-22 08:03:18.843188	122.2	21.3	-90.5	13.2
2025-01-22 08:03:19.992025	122.4	21.3	-91.1	9.4
2025-01-22 08:03:21.138851	122.7	21.2	-91.1	12.6
2025-01-22 08:03:22.285048	122.9	21.1	-90.7	14.0
2025-01-22 08:03:23.428742	123.2	21.0	-91.0	9.3
2025-01-22 08:03:24.573866	123.4	20.9	-90.5	9.1
2025-01-22 08:03:25.723989	123.7	20.8	-90.3	12.9
2025-01-22 08:03:26.871863	123.9	20.7	-90.0	12.5
2025-01-22 08:03:28.019817	124.1	20.6	-90.3	11.7
2025-01-22 08:03:29.168286	124.4	20.6	-89.7	14.1
2025-01-22 08:03:30.311216	124.6	20.5	-90.1	15.4
2025-01-22 08:03:31.462041	124.8	20.4	-90.4	14.6
2025-01-22 08:03:32.612874	125.1	20.3	-89.7	13.8
2025-01-22 08:03:33.761930	125.3	20.2	-90.2	14.2
2025-01-22 08:03:34.903191	125.5	20.1	-90.3	14.0
2025-01-22 08:03:36.051104	125.8	20.0	-90.0	13.5
2025-01-22 08:03:37.201660	126.0	19.9	-90.8	14.6
2025-01-22 08:03:38.345473	126.2	19.8	-91.1	14.4
2025-01-22 08:03:39.497411	126.4	19.8	-91.4	14.0
2025-01-22 08:03:40.641390	126.7	19.7	-91.2	15.2
2025-01-22 08:03:41.791097	126.9	19.6	-91.5	14.1
2025-01-22 08:03:42.940985	127.1	19.5	-91.4	10.6
2025-01-22 08:03:44.080546	127.3	19.4	-90.7	9.5
2025-01-22 08:03:45.232637	127.5	19.3	-91.0	14.6
2025-01-22 08:03:46.376029	127.8	19.2	-91.0	9.7
2025-01-22 08:03:47.525380	128.0	19.1	-91.1	7.2
2025-01-22 08:03:48.675599	128.2	19.0	-91.4	13.4
2025-01-22 08:03:49.819454	128.4	18.9	-90.9	14.5
2025-01-22 08:03:50.969464	128.6	18.9	-91.0	7.8
2025-01-22 08:03:52.114329	128.8	18.8	-90.8	8.0
2025-01-22 08:03:53.258806	129.0	18.7	-91.2	14.7
2025-01-22 08:03:54.404194	129.2	18.6	-90.4	10.4
2025-01-22 08:03:55.548874	129.4	18.5	-91.1	10.7
2025-01-22 08:03:56.698401	129.7	18.4	-91.3	15.4
2025-01-22 08:03:57.843356	129.9	18.3	-91.0	11.9
2025-01-22 08:03:58.990702	130.1	18.2	-91.4	12.7
2025-01-22 08:04:00.139808	130.3	18.1	-91.3	15.0
2025-01-22 08:04:01.291676	130.5	18.0	-91.2	13.7
2025-01-22 08:04:02.438914	130.7	18.0	-91.1	14.4
2025-01-22 08:04:03.586831	130.9	17.9	-91.5	11.8
2025-01-22 08:04:04.739340	131.1	17.8	-91.7	13.7
2025-01-22 08:04:05.880916	131.3	17.7	-90.4	10.1
2025-01-22 08:04:07.028824	131.5	17.6	-90.2	8.9
2025-01-22 08:04:08.176677	131.7	17.5	-90.2	11.2
2025-01-22 08:04:09.321601	131.8	17.4	-90.1	9.0
2025-01-22 08:04:10.465408	132.0	17.3	-90.6	5.4
2025-01-22 08:04:11.609381	132.2	17.2	-90.5	5.9
2025-01-22 08:04:12.756113	132.4	17.1	-90.3	8.0
2025-01-22 08:04:13.903142	132.6	17.0	-90.6	6.1
2025-01-22 08:04:15.054623	132.8	17.0	-90.6	6.7
2025-01-22 08:04:16.198672	133.0	16.9	-90.0	6.2
2025-01-22 08:04:17.348788	133.2	16.8	-89.9	7.1
2025-01-22 08:04:18.492565	133.4	16.7	-90.3	6.5
2025-01-22 08:04:19.641252	133.5	16.6	-90.5	8.4
2025-01-22 08:04:20.786556	133.7	16.5	-90.0	7.6
2025-01-22 08:04:21.932074	133.9	16.4	-90.5	6.3
2025-01-22 08:04:23.081595	134.1	16.3	-89.8	7.9
2025-01-22 08:04:24.229792	134.3	16.2	-89.9	8.2
2025-01-22 08:04:25.379598	134.4	16.1	-90.2	7.7
2025-01-22 08:04:26.524010	134.6	16.1	-90.4	7.2
2025-01-22 08:04:27.671864	134.8	16.0	-90.2	6.9
2025-01-22 08:04:28.815793	135.0	15.9	-90.6	9.2
2025-01-22 08:04:29.963172	135.1	15.8	-89.9	5.0
2025-01-22 08:04:31.111583	135.3	15.7	-90.0	5.8
2025-01-22 08:04:32.258167	135.5	15.6	-90.0	6.8
2025-01-22 08:04:33.403226	135.7	15.5	-89.8	6.1
2025-01-22 08:04:34.547773	135.8	15.4	-90.5	4.1
2025-01-22 08:04:35.692478	136.0	15.3	-91.3	4.1
2025-01-22 08:04:36.843308	136.2	15.3	-90.9	3.3
2025-01-22 08:04:37.990209	136.3	15.2	-91.4	6.1
2025-01-22 08:04:39.136035	136.5	15.1	-91.2	2.5
2025-01-22 08:04:40.282234	136.7	15.0	-90.9	2.6
2025-01-22 08:04:41.431026	136.8	14.9	-91.2	3.4
2025-01-22 08:04:42.574039	137.0	14.8	-91.4	4.4
2025-01-22 08:04:43.725591	137.2	14.7	-89.8	4.9
2025-01-22 08:04:44.871361	137.3	14.6	-90.1	4.1
#Closed at: 2025-01-22 07:57:44.677899