passes_logs/2025/01/22/LEX_Murmansk/LEX_Murmansk__20250122_105525_NOAA_19_rec.log

#Pass ID: 20250122_105525_NOAA 19
#Satellite: NOAA 19
#Configuration: NOAA 19
#Start time: 2025-01-22 10:55:20.263758

#LorettStation: 1.0.0 05.05.2024
#Station: LEX_Murmansk
#Location: 33.156738 lon 68.926811 lat
#TLE: 1 33591U 09005A   25021.16349212  .00000417  00000+0  24660-3 0  9995
#TLE: 2 33591  99.0186  84.9732 0014271  40.9333 319.2908 14.13264918822414

#Time	Az	El	Level	SNR
2025-01-22 10:55:32.418135	23.9	16.1	-90.1	4.1
2025-01-22 10:55:33.567078	23.7	16.3	-89.4	4.7
2025-01-22 10:55:34.724605	23.6	16.4	-90.1	1.0
2025-01-22 10:55:35.873577	23.5	16.5	-90.3	2.3
2025-01-22 10:55:37.025446	23.4	16.6	-90.4	3.4
2025-01-22 10:55:38.185770	23.2	16.7	-90.1	1.3
2025-01-22 10:55:39.339440	23.1	16.8	-90.3	4.2
2025-01-22 10:55:40.491394	23.0	16.9	-90.6	3.2
2025-01-22 10:55:41.644440	22.8	17.0	-90.6	3.5
2025-01-22 10:55:42.803840	22.7	17.2	-90.2	3.9
2025-01-22 10:55:43.953219	22.6	17.3	-90.5	6.1
2025-01-22 10:55:45.105096	22.4	17.4	-90.2	4.4
2025-01-22 10:55:46.260541	22.3	17.5	-90.1	4.3
2025-01-22 10:55:47.406698	22.2	17.6	-89.8	3.2
2025-01-22 10:55:48.555969	22.0	17.7	-90.1	8.4
2025-01-22 10:55:49.706371	21.9	17.8	-90.1	9.9
2025-01-22 10:55:50.868702	21.8	18.0	-90.6	3.0
2025-01-22 10:55:52.013712	21.6	18.1	-90.4	3.6
2025-01-22 10:55:53.161190	21.5	18.2	-90.2	2.6
2025-01-22 10:55:54.314912	21.3	18.3	-90.2	1.3
2025-01-22 10:55:55.468361	21.2	18.4	-90.5	0.7
2025-01-22 10:55:56.619871	21.0	18.5	-90.3	2.6
2025-01-22 10:55:57.765199	20.9	18.7	-90.4	2.7
2025-01-22 10:55:58.918576	20.7	18.8	-90.7	6.3
2025-01-22 10:56:00.066170	20.6	18.9	-90.1	6.1
2025-01-22 10:56:01.217730	20.4	19.0	-90.3	8.7
2025-01-22 10:56:02.394473	20.3	19.1	-90.2	9.0
2025-01-22 10:56:03.548440	20.1	19.3	-90.3	5.8
2025-01-22 10:56:04.702952	20.0	19.4	-90.5	5.0
2025-01-22 10:56:05.851629	19.8	19.5	-90.8	4.0
2025-01-22 10:56:07.011550	19.7	19.6	-90.5	7.2
2025-01-22 10:56:08.156803	19.5	19.7	-90.0	7.8
2025-01-22 10:56:09.306011	19.4	19.9	-90.2	5.4
2025-01-22 10:56:10.456525	19.2	20.0	-90.5	2.3
2025-01-22 10:56:11.608126	19.0	20.1	-90.5	1.8
2025-01-22 10:56:12.765818	18.9	20.2	-90.6	2.3
2025-01-22 10:56:13.911133	18.7	20.4	-90.6	2.9
2025-01-22 10:56:15.058308	18.5	20.5	-89.9	3.8
2025-01-22 10:56:16.206060	18.4	20.6	-90.5	4.7
2025-01-22 10:56:17.351794	18.2	20.7	-90.6	6.2
2025-01-22 10:56:18.506728	18.0	20.8	-90.4	9.0
2025-01-22 10:56:19.654392	17.9	21.0	-90.3	9.3
2025-01-22 10:56:20.810712	17.7	21.1	-90.4	7.7
2025-01-22 10:56:21.963022	17.5	21.2	-90.8	7.0
2025-01-22 10:56:23.105368	17.3	21.3	-90.4	5.0
2025-01-22 10:56:24.256648	17.2	21.5	-90.1	4.8
2025-01-22 10:56:25.414345	17.0	21.6	-90.6	8.5
2025-01-22 10:56:26.564627	16.8	21.7	-90.7	6.2
2025-01-22 10:56:27.711761	16.6	21.9	-91.0	7.4
2025-01-22 10:56:28.858655	16.4	22.0	-90.6	5.5
2025-01-22 10:56:30.011145	16.3	22.1	-90.5	4.2
2025-01-22 10:56:31.156182	16.1	22.2	-90.4	1.4
2025-01-22 10:56:32.304717	15.9	22.4	-90.4	2.5
2025-01-22 10:56:33.466811	15.7	22.5	-90.7	3.3
2025-01-22 10:56:34.623644	15.5	22.6	-90.7	5.0
2025-01-22 10:56:35.779663	15.3	22.8	-90.8	5.4
2025-01-22 10:56:36.927774	15.1	22.9	-89.9	10.8
2025-01-22 10:56:38.078201	14.9	23.0	-90.3	7.5
2025-01-22 10:56:39.229057	14.7	23.1	-90.3	7.4
2025-01-22 10:56:40.387310	14.5	23.3	-90.4	7.6
2025-01-22 10:56:41.546245	14.3	23.4	-88.2	5.4
2025-01-22 10:56:42.699563	14.1	23.5	-90.1	3.9
2025-01-22 10:56:43.856746	13.9	23.7	-90.4	4.8
2025-01-22 10:56:45.007205	13.7	23.8	-90.4	6.4
2025-01-22 10:56:46.155020	13.5	23.9	-90.2	5.8
2025-01-22 10:56:47.302067	13.3	24.1	-90.0	8.9
2025-01-22 10:56:48.454298	13.1	24.2	-90.0	3.2
2025-01-22 10:56:49.607130	12.9	24.3	-90.4	5.6
2025-01-22 10:56:50.768029	12.7	24.5	-90.9	3.0
2025-01-22 10:56:51.915083	12.4	24.6	-89.3	3.0
2025-01-22 10:56:53.065194	12.2	24.7	-90.3	2.9
2025-01-22 10:56:54.215300	12.0	24.9	-90.3	2.0
2025-01-22 10:56:55.370596	11.8	25.0	-90.3	3.7
2025-01-22 10:56:56.507141	11.6	25.1	-90.5	8.3
2025-01-22 10:56:57.646336	11.3	25.2	-87.4	9.1
2025-01-22 10:56:58.787847	11.1	25.4	-90.2	8.1
2025-01-22 10:56:59.940052	10.9	25.5	-90.8	7.0
2025-01-22 10:57:01.091593	10.7	25.6	-90.3	6.9
2025-01-22 10:57:02.243495	10.4	25.8	-88.0	5.0
2025-01-22 10:57:03.394262	10.2	25.9	-87.3	6.4
2025-01-22 10:57:04.544443	9.9	26.1	-90.6	8.1
2025-01-22 10:57:05.695562	9.7	26.2	-90.8	7.1
2025-01-22 10:57:06.844190	9.5	26.3	-90.6	10.8
2025-01-22 10:57:07.991060	9.2	26.5	-90.5	6.6
2025-01-22 10:57:09.133996	9.0	26.6	-90.3	5.7
2025-01-22 10:57:10.283889	8.7	26.7	-89.7	3.7
2025-01-22 10:57:11.427964	8.5	26.9	-90.3	4.6
2025-01-22 10:57:12.577073	8.2	27.0	-90.6	3.7
2025-01-22 10:57:13.726331	8.0	27.1	-89.8	2.1
2025-01-22 10:57:14.880359	7.7	27.3	-90.3	3.7
2025-01-22 10:57:16.035070	7.5	27.4	-85.7	6.0
2025-01-22 10:57:17.181387	7.2	27.5	-90.0	4.8
2025-01-22 10:57:18.337602	6.9	27.7	-90.0	3.6
2025-01-22 10:57:19.494738	6.7	27.8	-90.4	3.9
2025-01-22 10:57:20.642098	6.4	27.9	-90.7	5.5
2025-01-22 10:57:21.792401	6.1	28.1	-90.7	6.1
2025-01-22 10:57:22.950946	5.9	28.2	-90.2	1.9
2025-01-22 10:57:24.101579	5.6	28.3	-89.9	3.9
2025-01-22 10:57:25.251780	5.3	28.5	-90.0	2.5
2025-01-22 10:57:26.399551	5.0	28.6	-89.7	2.7
2025-01-22 10:57:27.544033	4.8	28.7	-89.5	5.6
2025-01-22 10:57:28.707862	4.5	28.9	-88.1	6.0
2025-01-22 10:57:29.862748	4.2	29.0	-86.3	4.3
2025-01-22 10:57:31.014588	3.9	29.1	-83.9	3.0
2025-01-22 10:57:32.166921	3.6	29.3	-87.1	2.5
2025-01-22 10:57:33.319642	3.3	29.4	-88.9	2.0
2025-01-22 10:57:34.471114	3.0	29.5	-89.5	2.1
2025-01-22 10:57:35.620413	2.7	29.7	-90.0	1.7
2025-01-22 10:57:36.769619	2.4	29.8	-90.7	1.7
2025-01-22 10:57:37.919281	2.1	29.9	-90.2	2.6
2025-01-22 10:57:39.067542	1.8	30.1	-90.3	4.3
2025-01-22 10:57:40.217201	1.5	30.2	-90.4	4.7
2025-01-22 10:57:41.372774	1.2	30.3	-90.2	6.3
2025-01-22 10:57:42.520026	0.9	30.5	-90.1	8.3
2025-01-22 10:57:43.669310	0.6	30.6	-89.9	6.7
2025-01-22 10:57:44.821584	0.2	30.7	-90.2	5.6
2025-01-22 10:57:45.980822	359.9	30.9	-90.5	9.2
2025-01-22 10:57:47.133134	359.6	31.0	-90.1	5.0
2025-01-22 10:57:48.285538	359.3	31.1	-90.3	1.7
2025-01-22 10:57:49.432468	358.9	31.2	-90.9	6.5
2025-01-22 10:57:50.581516	358.6	31.4	-90.6	6.0
2025-01-22 10:57:51.729316	358.3	31.5	-90.8	7.7
2025-01-22 10:57:52.878517	357.9	31.6	-90.5	7.2
2025-01-22 10:57:54.030968	357.6	31.8	-87.6	8.9
2025-01-22 10:57:55.176850	357.2	31.9	-87.4	8.9
2025-01-22 10:57:56.325194	356.9	32.0	-88.2	7.2
2025-01-22 10:57:57.478010	356.6	32.1	-90.0	6.2
2025-01-22 10:57:58.625380	356.2	32.3	-90.3	5.6
2025-01-22 10:57:59.770759	355.9	32.4	-90.5	2.0
2025-01-22 10:58:00.923157	355.5	32.5	-90.8	4.0
2025-01-22 10:58:02.074682	355.1	32.6	-90.6	3.3
2025-01-22 10:58:03.224822	354.8	32.7	-90.1	1.7
2025-01-22 10:58:04.373325	354.4	32.9	-90.6	3.5
2025-01-22 10:58:05.523940	354.1	33.0	-90.7	3.8
2025-01-22 10:58:06.673815	353.7	33.1	-90.9	6.1
2025-01-22 10:58:07.821866	353.3	33.2	-90.5	8.1
2025-01-22 10:58:08.972871	352.9	33.3	-90.5	10.5
2025-01-22 10:58:10.130374	352.6	33.4	-90.3	3.1
2025-01-22 10:58:11.282981	352.2	33.6	-90.5	7.9
2025-01-22 10:58:12.432822	351.8	33.7	-90.8	6.5
2025-01-22 10:58:13.582647	351.4	33.8	-91.2	6.1
2025-01-22 10:58:14.732907	351.0	33.9	-90.3	7.3
2025-01-22 10:58:15.886142	350.6	34.0	-90.5	6.5
2025-01-22 10:58:17.043730	350.2	34.1	-90.7	3.8
2025-01-22 10:58:18.197127	349.8	34.2	-90.8	5.5
2025-01-22 10:58:19.350364	349.4	34.3	-90.8	6.1
2025-01-22 10:58:20.498405	349.0	34.4	-90.0	11.2
2025-01-22 10:58:21.647886	348.6	34.5	-90.6	15.2
2025-01-22 10:58:22.807592	348.2	34.6	-90.6	9.8
2025-01-22 10:58:23.958242	347.8	34.7	-91.0	12.1
2025-01-22 10:58:25.106661	347.4	34.8	-90.8	5.7
2025-01-22 10:58:26.257118	347.0	34.9	-90.5	7.2
2025-01-22 10:58:27.402964	346.6	35.0	-90.4	4.9
2025-01-22 10:58:28.556037	346.2	35.1	-90.9	6.1
2025-01-22 10:58:29.707473	345.8	35.2	-91.1	3.3
2025-01-22 10:58:30.864284	345.3	35.3	-90.9	2.9
2025-01-22 10:58:32.015506	344.9	35.4	-90.8	4.3
2025-01-22 10:58:33.164644	344.5	35.5	-90.8	3.5
2025-01-22 10:58:34.317019	344.0	35.6	-90.6	1.6
2025-01-22 10:58:35.469287	343.6	35.7	-91.2	3.7
2025-01-22 10:58:36.625123	343.2	35.7	-91.2	7.9
2025-01-22 10:58:37.768136	342.7	35.8	-90.5	8.7
2025-01-22 10:58:38.919414	342.3	35.9	-90.6	9.8
2025-01-22 10:58:40.066726	341.9	36.0	-90.5	9.0
2025-01-22 10:58:41.222053	341.4	36.1	-90.9	9.3
2025-01-22 10:58:42.367470	341.0	36.1	-90.7	13.7
2025-01-22 10:58:43.516422	340.5	36.2	-90.8	12.3
2025-01-22 10:58:44.666764	340.1	36.3	-91.0	10.1
2025-01-22 10:58:45.813022	339.6	36.4	-90.9	8.8
2025-01-22 10:58:46.966218	339.2	36.4	-90.5	11.1
2025-01-22 10:58:48.114995	338.7	36.5	-89.9	7.7
2025-01-22 10:58:49.265309	338.3	36.6	-90.5	4.1
2025-01-22 10:58:50.414746	337.8	36.6	-90.4	7.1
2025-01-22 10:58:51.563040	337.3	36.7	-90.5	7.1
2025-01-22 10:58:52.715001	336.9	36.7	-90.4	3.8
2025-01-22 10:58:53.859720	336.4	36.8	-90.8	4.0
2025-01-22 10:58:55.014257	335.9	36.8	-90.8	9.4
2025-01-22 10:58:56.168572	335.5	36.9	-90.1	4.8
2025-01-22 10:58:57.327165	335.0	36.9	-90.5	5.4
2025-01-22 10:58:58.474579	334.5	37.0	-90.5	11.1
2025-01-22 10:58:59.625637	334.1	37.0	-91.0	12.7
2025-01-22 10:59:00.771353	333.6	37.1	-91.2	11.4
2025-01-22 10:59:01.916992	333.1	37.1	-91.0	4.6
2025-01-22 10:59:03.070543	332.7	37.2	-90.7	7.7
2025-01-22 10:59:04.217715	332.2	37.2	-90.6	9.1
2025-01-22 10:59:05.379357	331.7	37.2	-90.9	9.9
2025-01-22 10:59:06.530867	331.2	37.3	-90.9	10.2
2025-01-22 10:59:07.678688	330.7	37.3	-91.1	7.5
2025-01-22 10:59:08.831689	330.3	37.3	-90.3	8.9
2025-01-22 10:59:09.977285	329.8	37.4	-90.8	8.8
2025-01-22 10:59:11.129611	329.3	37.4	-90.6	10.1
2025-01-22 10:59:12.277524	328.8	37.4	-90.7	4.0
2025-01-22 10:59:13.435524	328.3	37.4	-90.4	4.6
2025-01-22 10:59:14.588482	327.8	37.4	-90.7	3.0
2025-01-22 10:59:15.746603	327.4	37.4	-90.7	3.9
2025-01-22 10:59:16.893309	326.9	37.5	-91.1	2.9
2025-01-22 10:59:18.042313	326.4	37.5	-89.7	6.1
2025-01-22 10:59:19.191129	325.9	37.5	-90.3	4.9
2025-01-22 10:59:20.343416	325.4	37.5	-90.5	1.8
2025-01-22 10:59:21.497008	324.9	37.5	-91.3	5.6
2025-01-22 10:59:22.651570	324.5	37.5	-90.2	2.2
2025-01-22 10:59:23.791952	324.0	37.5	-90.3	4.0
2025-01-22 10:59:24.938453	323.5	37.5	-90.9	5.1
2025-01-22 10:59:26.099490	323.0	37.5	-90.4	5.0
2025-01-22 10:59:27.241387	322.5	37.5	-90.7	6.4
2025-01-22 10:59:28.389698	322.0	37.4	-90.5	6.2
2025-01-22 10:59:29.537735	321.6	37.4	-90.8	5.9
2025-01-22 10:59:30.683008	321.1	37.4	-90.3	6.5
2025-01-22 10:59:31.832255	320.6	37.4	-90.8	3.6
2025-01-22 10:59:32.985619	320.1	37.4	-91.0	8.6
2025-01-22 10:59:34.133959	319.6	37.4	-90.1	7.7
2025-01-22 10:59:35.278345	319.2	37.3	-90.3	11.4
2025-01-22 10:59:36.427167	318.7	37.3	-91.1	7.5
2025-01-22 10:59:37.574882	318.2	37.3	-90.4	8.6
2025-01-22 10:59:38.726668	317.7	37.2	-91.0	9.1
2025-01-22 10:59:39.878176	317.2	37.2	-91.2	10.2
2025-01-22 10:59:41.032420	316.8	37.2	-91.2	10.2
2025-01-22 10:59:42.183881	316.3	37.1	-91.0	9.3
2025-01-22 10:59:43.335851	315.8	37.1	-90.7	8.4
2025-01-22 10:59:44.484351	315.3	37.0	-90.9	7.0
2025-01-22 10:59:45.635554	314.9	37.0	-90.7	11.6
2025-01-22 10:59:46.784405	314.4	36.9	-91.5	6.9
2025-01-22 10:59:47.936651	313.9	36.9	-90.9	7.7
2025-01-22 10:59:49.092848	313.5	36.8	-90.6	5.4
2025-01-22 10:59:50.248635	313.0	36.8	-90.7	8.2
2025-01-22 10:59:51.397181	312.5	36.7	-91.0	8.2
2025-01-22 10:59:52.550150	312.1	36.7	-91.0	7.8
2025-01-22 10:59:53.707142	311.6	36.6	-90.8	12.9
2025-01-22 10:59:54.858003	311.2	36.6	-90.8	9.3
2025-01-22 10:59:56.017486	310.7	36.5	-90.5	15.2
2025-01-22 10:59:57.170426	310.2	36.4	-90.8	6.8
2025-01-22 10:59:58.324020	309.8	36.4	-90.4	13.8
2025-01-22 10:59:59.476962	309.3	36.3	-90.1	4.3
2025-01-22 11:00:00.623854	308.9	36.2	-91.1	10.1
2025-01-22 11:00:01.773083	308.4	36.1	-91.0	4.2
2025-01-22 11:00:02.925729	308.0	36.1	-90.8	4.7
2025-01-22 11:00:04.080322	307.5	36.0	-90.8	8.0
2025-01-22 11:00:05.237924	307.1	35.9	-90.7	7.5
2025-01-22 11:00:06.385752	306.7	35.8	-91.2	10.1
2025-01-22 11:00:07.543364	306.2	35.7	-91.3	5.9
2025-01-22 11:00:08.689521	305.8	35.7	-91.1	11.0
2025-01-22 11:00:09.840398	305.4	35.6	-90.7	6.9
2025-01-22 11:00:10.999684	304.9	35.5	-91.1	11.4
2025-01-22 11:00:12.151020	304.5	35.4	-91.0	8.2
2025-01-22 11:00:13.304923	304.1	35.3	-90.9	5.9
2025-01-22 11:00:14.455110	303.7	35.2	-91.1	14.0
2025-01-22 11:00:15.608061	303.2	35.1	-90.8	10.6
2025-01-22 11:00:16.756682	302.8	35.0	-90.9	5.7
2025-01-22 11:00:17.905283	302.4	34.9	-90.9	8.9
2025-01-22 11:00:19.058274	302.0	34.8	-90.9	6.1
2025-01-22 11:00:20.205282	301.6	34.7	-90.7	3.9
2025-01-22 11:00:21.357372	301.2	34.6	-90.2	5.8
2025-01-22 11:00:22.505250	300.8	34.5	-90.1	2.6
2025-01-22 11:00:23.654752	300.4	34.4	-90.1	5.1
2025-01-22 11:00:24.800931	300.0	34.3	-89.8	2.1
2025-01-22 11:00:25.947506	299.6	34.2	-90.0	8.7
2025-01-22 11:00:27.099891	299.2	34.1	-90.2	2.5
2025-01-22 11:00:28.247580	298.8	34.0	-89.9	10.5
2025-01-22 11:00:29.398807	298.4	33.9	-90.0	2.7
2025-01-22 11:00:30.551571	298.0	33.8	-90.0	3.2
2025-01-22 11:00:31.709303	297.6	33.7	-90.7	0.8
2025-01-22 11:00:32.860779	297.2	33.6	-91.3	3.1
2025-01-22 11:00:34.019279	296.9	33.4	-91.1	4.8
2025-01-22 11:00:35.170634	296.5	33.3	-91.0	2.7
2025-01-22 11:00:36.320665	296.1	33.2	-90.2	3.8
2025-01-22 11:00:37.471383	295.7	33.1	-90.2	4.0
2025-01-22 11:00:38.630468	295.4	33.0	-90.8	1.6
2025-01-22 11:00:39.780859	295.0	32.9	-90.7	3.5
2025-01-22 11:00:40.931469	294.6	32.7	-91.2	4.9
2025-01-22 11:00:42.088943	294.3	32.6	-91.0	2.8
2025-01-22 11:00:43.236256	293.9	32.5	-90.6	3.3
2025-01-22 11:00:44.384676	293.6	32.4	-90.9	5.3
2025-01-22 11:00:45.536059	293.2	32.3	-91.2	3.4
2025-01-22 11:00:46.689216	292.9	32.1	-91.2	2.6
2025-01-22 11:00:47.840374	292.5	32.0	-90.9	2.4
2025-01-22 11:00:48.986573	292.2	31.9	-90.8	3.6
2025-01-22 11:00:50.137612	291.8	31.8	-90.9	2.6
2025-01-22 11:00:51.289715	291.5	31.6	-90.7	2.8
2025-01-22 11:00:52.440387	291.1	31.5	-91.2	3.4
2025-01-22 11:00:53.584564	290.8	31.4	-90.6	4.2
2025-01-22 11:00:54.743788	290.5	31.3	-90.9	3.5
2025-01-22 11:00:55.889766	290.2	31.1	-90.8	2.2
2025-01-22 11:00:57.041938	289.8	31.0	-91.0	1.9
2025-01-22 11:00:58.189818	289.5	30.9	-89.5	4.5
2025-01-22 11:00:59.344167	289.2	30.7	-90.7	5.9
2025-01-22 11:01:00.504928	288.9	30.6	-90.7	4.6
2025-01-22 11:01:01.652639	288.5	30.5	-91.0	4.6
2025-01-22 11:01:02.806618	288.2	30.3	-91.3	7.7
2025-01-22 11:01:03.960322	287.9	30.2	-91.0	9.2
2025-01-22 11:01:05.113293	287.6	30.1	-90.2	12.0
2025-01-22 11:01:06.258969	287.3	30.0	-90.7	8.3
2025-01-22 11:01:07.407942	287.0	29.8	-91.1	15.1
2025-01-22 11:01:08.553898	286.7	29.7	-90.7	9.9
2025-01-22 11:01:09.698662	286.4	29.6	-90.8	10.3
2025-01-22 11:01:10.842756	286.1	29.4	-89.1	11.4
2025-01-22 11:01:11.992168	285.8	29.3	-90.0	6.1
2025-01-22 11:01:13.146361	285.5	29.2	-90.0	11.8
2025-01-22 11:01:14.296956	285.2	29.0	-90.0	9.4
2025-01-22 11:01:15.451840	285.0	28.9	-90.2	8.5
2025-01-22 11:01:16.607333	284.7	28.8	-90.1	2.8
2025-01-22 11:01:17.757797	284.4	28.6	-90.5	5.8
2025-01-22 11:01:18.911214	284.1	28.5	-89.5	3.7
2025-01-22 11:01:20.065464	283.8	28.4	-90.9	5.9
2025-01-22 11:01:21.220525	283.6	28.2	-91.0	5.3
2025-01-22 11:01:22.367858	283.3	28.1	-91.0	5.5
2025-01-22 11:01:23.519654	283.0	27.9	-91.1	3.5
2025-01-22 11:01:24.673660	282.8	27.8	-91.1	13.1
2025-01-22 11:01:25.829459	282.5	27.7	-91.0	10.6
2025-01-22 11:01:26.978971	282.2	27.5	-90.9	4.3
2025-01-22 11:01:28.123631	282.0	27.4	-91.1	3.8
2025-01-22 11:01:29.275100	281.7	27.3	-90.7	12.8
2025-01-22 11:01:30.431843	281.4	27.1	-90.8	7.9
2025-01-22 11:01:31.588284	281.2	27.0	-90.9	4.1
2025-01-22 11:01:32.735728	280.9	26.9	-91.1	7.4
2025-01-22 11:01:33.886882	280.7	26.7	-90.8	12.7
2025-01-22 11:01:35.045120	280.4	26.6	-90.9	9.7
2025-01-22 11:01:36.201204	280.2	26.5	-90.6	6.2
2025-01-22 11:01:37.350100	280.0	26.3	-91.0	6.0
2025-01-22 11:01:38.497933	279.7	26.2	-90.9	12.6
2025-01-22 11:01:39.648613	279.5	26.1	-90.8	13.3
2025-01-22 11:01:40.800955	279.2	25.9	-90.9	5.2
2025-01-22 11:01:41.948265	279.0	25.8	-91.1	6.6
2025-01-22 11:01:43.098890	278.8	25.7	-90.7	8.5
2025-01-22 11:01:44.249815	278.5	25.5	-90.6	9.0
2025-01-22 11:01:45.396646	278.3	25.4	-90.9	5.3
2025-01-22 11:01:46.544287	278.1	25.3	-91.3	6.2
2025-01-22 11:01:47.699790	277.9	25.1	-91.3	7.2
2025-01-22 11:01:48.847784	277.6	25.0	-90.9	11.3
2025-01-22 11:01:50.003328	277.4	24.9	-90.9	8.0
2025-01-22 11:01:51.155011	277.2	24.7	-90.6	5.9
2025-01-22 11:01:52.311219	277.0	24.6	-90.6	18.0
2025-01-22 11:01:53.457896	276.8	24.5	-91.2	3.8
2025-01-22 11:01:54.613476	276.5	24.3	-91.2	12.3
2025-01-22 11:01:55.763577	276.3	24.2	-90.8	7.6
2025-01-22 11:01:56.906334	276.1	24.1	-90.5	14.7
2025-01-22 11:01:58.055479	275.9	23.9	-91.0	12.3
2025-01-22 11:01:59.202198	275.7	23.8	-90.4	5.4
2025-01-22 11:02:00.351038	275.5	23.7	-91.0	12.6
2025-01-22 11:02:01.498985	275.3	23.5	-91.3	3.9
2025-01-22 11:02:02.647216	275.1	23.4	-89.5	8.8
2025-01-22 11:02:03.798998	274.9	23.3	-91.1	3.9
2025-01-22 11:02:04.946308	274.7	23.2	-91.3	7.5
2025-01-22 11:02:06.100145	274.5	23.0	-91.0	3.1
2025-01-22 11:02:07.248831	274.3	22.9	-91.0	8.5
2025-01-22 11:02:08.395616	274.1	22.8	-90.6	5.7
2025-01-22 11:02:09.544174	273.9	22.6	-91.1	4.3
2025-01-22 11:02:10.692974	273.7	22.5	-91.4	10.3
2025-01-22 11:02:11.850645	273.5	22.4	-91.6	4.9
2025-01-22 11:02:13.008688	273.4	22.3	-91.2	3.1
2025-01-22 11:02:14.156973	273.2	22.1	-90.6	2.5
2025-01-22 11:02:15.309544	273.0	22.0	-90.6	2.8
2025-01-22 11:02:16.465545	272.8	21.9	-91.3	4.4
2025-01-22 11:02:17.622681	272.6	21.7	-90.7	2.3
2025-01-22 11:02:18.777475	272.4	21.6	-91.3	5.6
2025-01-22 11:02:19.946514	272.3	21.5	-91.0	2.6
2025-01-22 11:02:21.100828	272.1	21.4	-91.1	2.0
2025-01-22 11:02:22.250046	271.9	21.2	-90.6	5.8
2025-01-22 11:02:23.415188	271.7	21.1	-90.7	3.7
2025-01-22 11:02:24.569819	271.6	21.0	-91.2	1.4
2025-01-22 11:02:25.720234	271.4	20.9	-91.1	1.5
2025-01-22 11:02:26.873741	271.2	20.7	-91.2	4.1
2025-01-22 11:02:28.027647	271.0	20.6	-90.7	4.0
2025-01-22 11:02:29.169037	270.9	20.5	-90.8	2.3
2025-01-22 11:02:30.323541	270.7	20.4	-90.8	2.5
2025-01-22 11:02:31.475455	270.5	20.2	-90.7	3.6
2025-01-22 11:02:32.630359	270.4	20.1	-90.6	0.9
2025-01-22 11:02:33.776641	270.2	20.0	-91.2	2.5
2025-01-22 11:02:34.930749	270.1	19.9	-91.2	3.1
2025-01-22 11:02:36.085367	269.9	19.8	-90.7	3.4
2025-01-22 11:02:37.232726	269.7	19.6	-90.5	2.9
2025-01-22 11:02:38.384215	269.6	19.5	-90.1	2.8
2025-01-22 11:02:39.535473	269.4	19.4	-91.1	2.5
2025-01-22 11:02:40.688575	269.3	19.3	-90.9	1.1
2025-01-22 11:02:41.832955	269.1	19.2	-91.2	4.1
2025-01-22 11:02:42.977740	269.0	19.0	-90.8	3.6
2025-01-22 11:02:44.128652	268.8	18.9	-90.7	2.5
2025-01-22 11:02:45.272489	268.7	18.8	-91.2	2.6
2025-01-22 11:02:46.432009	268.5	18.7	-90.8	3.0
2025-01-22 11:02:47.588675	268.4	18.6	-91.2	1.8
2025-01-22 11:02:48.736027	268.2	18.5	-90.9	3.6
2025-01-22 11:02:49.889002	268.1	18.3	-90.3	3.0
2025-01-22 11:02:51.048854	268.0	18.2	-90.6	4.9
2025-01-22 11:02:52.204600	267.8	18.1	-90.8	3.1
2025-01-22 11:02:53.361587	267.7	18.0	-90.4	2.8
2025-01-22 11:02:54.506979	267.5	17.9	-91.0	3.0
2025-01-22 11:02:55.659032	267.4	17.8	-91.1	3.0
2025-01-22 11:02:56.815278	267.2	17.6	-90.8	2.7
2025-01-22 11:02:57.961642	267.1	17.5	-91.0	2.2
2025-01-22 11:02:59.106241	267.0	17.4	-90.4	4.2
2025-01-22 11:03:00.247722	266.8	17.3	-90.7	2.4
2025-01-22 11:03:01.394859	266.7	17.2	-91.1	4.9
2025-01-22 11:03:02.543451	266.6	17.1	-91.2	2.2
2025-01-22 11:03:03.694052	266.4	17.0	-90.4	4.9
2025-01-22 11:03:04.846345	266.3	16.8	-90.2	7.6
2025-01-22 11:03:06.003690	266.2	16.7	-91.1	7.5
2025-01-22 11:03:07.157714	266.1	16.6	-89.8	0.3
2025-01-22 11:03:08.309781	265.9	16.5	-90.6	8.1
2025-01-22 11:03:09.457212	265.8	16.4	-91.0	8.4
2025-01-22 11:03:10.600230	265.7	16.3	-91.0	8.9
2025-01-22 11:03:11.752873	265.6	16.2	-90.8	4.9
2025-01-22 11:03:12.903843	265.4	16.1	-90.9	3.3
2025-01-22 11:03:14.056024	265.3	16.0	-90.5	4.1
2025-01-22 11:03:15.207071	265.2	15.9	-90.4	7.0
2025-01-22 11:03:16.361070	265.1	15.7	-90.7	6.8
2025-01-22 11:03:17.512831	264.9	15.6	-89.8	6.1
2025-01-22 11:03:18.662225	264.8	15.5	-91.1	3.0
2025-01-22 11:03:19.815598	264.7	15.4	-91.0	9.3
2025-01-22 11:03:20.962604	264.6	15.3	-90.9	4.3
2025-01-22 11:03:22.118515	264.5	15.2	-90.5	4.9
2025-01-22 11:03:23.277923	264.4	15.1	-90.5	4.4
2025-01-22 11:03:24.428013	264.2	15.0	-90.2	5.9
2025-01-22 11:03:25.573904	264.1	14.9	-90.5	6.6
2025-01-22 11:03:26.722952	264.0	14.8	-90.5	7.2
2025-01-22 11:03:27.884511	263.9	14.7	-91.1	7.5
2025-01-22 11:03:29.039485	263.8	14.6	-90.7	5.6
2025-01-22 11:03:30.190045	263.7	14.5	-91.0	4.0
#Closed at: 2025-01-22 10:55:25.210239