passes_logs/2025/01/15/XPeterburg/XPeterburg__20250115_114705_FENGYUN_3D_rec.log

#Pass ID: 20250115_114705_FENGYUN 3D
#Satellite: FENGYUN 3D
#Configuration: FENGYUN 3D
#Start time: 2025-01-15 11:46:59

#Version: 1.5.20200625
#Station: XPeterburg
#Location: 30.318091 lon 59.932769 lat
#TLE: 1 43010U 17072A   25015.12714915  .00000179  00000+0  10635-3 0  9992
#TLE: 2 43010  98.9421 337.3600 0002531  88.7002 271.4463 14.19543625371481

#Time	Az	El	Level	Level2	SNR	BER	Gain	Gain2
2025-01-15 11:46:59.67	164.28	67.65	-38.6	-40.1	3.4	8387271	95	2897
2025-01-15 11:47:00.07	164.32	67.83	-38.4	-51.9	3.6	7757183	73	11667
2025-01-15 11:47:00.47	164.36	68.01	-38.8	-41.4	3.4	8403087	94	3313
2025-01-15 11:47:00.87	164.40	68.20	-38.7	-42.2	3.7	8406120	94	3703
2025-01-15 11:47:01.27	164.43	68.38	-38.4	-40.1	3.5	8422931	94	2977
2025-01-15 11:47:01.68	164.48	68.57	-37.8	-39.6	3.8	8393291	94	3037
2025-01-15 11:47:02.08	164.52	68.75	-37.0	-37.3	4.7	8234951	92	2521
2025-01-15 11:47:02.48	164.56	68.93	-35.9	-35.4	5.8	7704105	90	2324
2025-01-15 11:47:02.88	164.60	69.12	-34.9	-34.2	7.1	2518970	88	2283
2025-01-15 11:47:03.29	164.64	69.31	-33.7	-33.3	8.4	1258975	85	2341
2025-01-15 11:47:03.69	164.69	69.49	-32.6	-32.1	9.8	222587	83	2308
2025-01-15 11:47:04.09	164.73	69.68	-31.7	-31.0	11.1	71044	81	2288
2025-01-15 11:47:04.49	164.78	69.86	-30.8	-29.7	12.2	19557	80	2175
2025-01-15 11:47:04.89	164.82	70.05	-29.9	-28.9	13.1	1373	78	2202
2025-01-15 11:47:05.30	164.87	70.24	-29.5	-28.7	13.6	263	77	2238
2025-01-15 11:47:05.70	164.92	70.43	-29.6	-28.9	13.5	171	77	2262
2025-01-15 11:47:06.10	164.97	70.61	-29.8	-29.3	13.3	549	77	2328
2025-01-15 11:47:06.50	165.02	70.80	-30.0	-29.7	13.1	434	77	2383
2025-01-15 11:47:06.90	165.07	70.99	-30.0	-29.7	13.1	274	77	2384
2025-01-15 11:47:07.31	165.13	71.18	-30.0	-29.8	13.1	297	77	2387
2025-01-15 11:47:07.71	165.18	71.37	-29.8	-29.4	13.3	595	77	2333
2025-01-15 11:47:08.11	165.23	71.56	-30.0	-29.7	13.3	183	77	2387
2025-01-15 11:47:08.51	165.29	71.75	-30.1	-29.9	13.3	331	77	2411
2025-01-15 11:47:08.91	165.35	71.93	-30.2	-30.3	13.2	205	77	2468
2025-01-15 11:47:09.32	165.41	72.13	-30.3	-29.8	13.3	411	78	2336
2025-01-15 11:47:09.72	165.46	72.32	-30.3	-29.8	13.3	503	78	2340
2025-01-15 11:47:10.12	165.53	72.51	-30.3	-29.9	13.2	446	78	2352
2025-01-15 11:47:10.52	165.59	72.70	-30.3	-30.0	13.2	503	78	2361
2025-01-15 11:47:10.92	165.65	72.89	-30.3	-29.9	13.2	549	78	2352
2025-01-15 11:47:11.33	165.72	73.09	-30.4	-30.1	13.1	526	78	2375
2025-01-15 11:47:11.73	165.78	73.28	-30.5	-30.2	13.0	354	78	2391
2025-01-15 11:47:12.13	165.85	73.47	-30.6	-30.4	12.9	698	78	2419
2025-01-15 11:47:12.53	165.92	73.66	-30.5	-30.2	13.0	537	78	2394
2025-01-15 11:47:12.94	166.00	73.86	-30.4	-30.0	13.0	720	78	2348
2025-01-15 11:47:13.34	166.07	74.05	-30.3	-29.8	13.0	457	78	2327
2025-01-15 11:47:13.74	166.14	74.24	-30.3	-29.7	13.1	537	78	2307
2025-01-15 11:47:14.14	166.22	74.44	-30.5	-30.1	12.8	537	78	2364
2025-01-15 11:47:14.54	166.30	74.63	-30.5	-30.2	12.8	1052	78	2375
2025-01-15 11:47:14.95	166.38	74.83	-30.7	-30.5	12.6	1075	78	2420
2025-01-15 11:47:15.35	166.47	75.02	-30.7	-30.6	12.5	1693	78	2436
2025-01-15 11:47:15.75	166.55	75.22	-30.9	-31.0	12.2	1808	78	2497
2025-01-15 11:47:16.15	166.64	75.41	-31.0	-31.2	12.1	3009	78	2518
2025-01-15 11:47:16.55	166.73	75.61	-30.9	-30.6	12.1	3330	79	2364
2025-01-15 11:47:16.96	166.83	75.81	-30.8	-30.3	12.2	3593	79	2323
2025-01-15 11:47:17.36	166.92	76.00	-30.7	-30.1	12.3	2403	79	2295
2025-01-15 11:47:17.76	167.02	76.20	-30.6	-29.9	12.5	1911	79	2271
2025-01-15 11:47:18.16	167.12	76.39	-30.4	-29.6	12.7	1556	79	2225
2025-01-15 11:47:18.56	167.23	76.59	-30.4	-29.5	12.8	892	79	2218
2025-01-15 11:47:18.97	167.34	76.79	-30.5	-29.7	12.8	972	79	2243
2025-01-15 11:47:19.37	167.45	76.98	-30.7	-30.1	12.7	1132	79	2290
2025-01-15 11:47:19.77	167.56	77.18	-30.7	-30.2	12.7	1567	79	2312
2025-01-15 11:47:20.17	167.68	77.38	-30.8	-30.3	12.7	1361	79	2329
2025-01-15 11:47:20.57	167.80	77.57	-30.7	-30.2	12.8	892	79	2306
2025-01-15 11:47:20.98	167.93	77.78	-30.4	-29.6	13.2	766	79	2225
2025-01-15 11:47:21.38	168.06	77.97	-30.4	-29.5	13.3	457	79	2218
2025-01-15 11:47:21.78	168.19	78.17	-30.4	-29.5	13.4	308	79	2222
2025-01-15 11:47:22.18	168.33	78.37	-30.6	-30.0	13.2	331	79	2296
2025-01-15 11:47:22.58	168.47	78.57	-30.7	-30.2	13.0	343	79	2328
2025-01-15 11:47:22.99	168.63	78.77	-30.8	-30.3	13.0	457	79	2334
2025-01-15 11:47:23.39	168.78	78.97	-30.8	-30.4	12.9	663	79	2356
2025-01-15 11:47:23.79	168.94	79.17	-30.8	-30.5	12.9	549	79	2366
2025-01-15 11:47:24.19	169.11	79.36	-30.8	-30.3	12.9	778	79	2342
2025-01-15 11:47:24.60	169.28	79.57	-30.9	-30.5	12.8	812	79	2371
2025-01-15 11:47:25.00	169.46	79.77	-30.9	-30.5	12.8	915	79	2367
2025-01-15 11:47:25.40	169.65	79.96	-30.6	-30.1	13.0	835	79	2302
2025-01-15 11:47:25.80	169.84	80.16	-30.4	-29.6	13.3	526	79	2242
2025-01-15 11:47:26.20	170.05	80.36	-30.4	-29.5	13.4	308	79	2221
2025-01-15 11:47:26.61	170.26	80.57	-30.4	-29.5	13.4	274	79	2229
2025-01-15 11:47:27.01	170.48	80.76	-30.5	-29.8	13.2	274	79	2267
2025-01-15 11:47:27.41	170.71	80.96	-30.4	-29.6	13.3	297	79	2235
2025-01-15 11:47:27.81	170.95	81.16	-30.2	-29.7	13.5	263	78	2314
2025-01-15 11:47:28.21	171.20	81.36	-30.0	-29.2	13.8	102	78	2246
2025-01-15 11:47:28.62	171.47	81.57	-29.6	-28.8	14.3	45	77	2250
2025-01-15 11:47:29.02	171.75	81.76	-29.5	-28.7	14.4	45	77	2235
2025-01-15 11:47:29.42	172.04	81.96	-29.7	-29.0	14.2	34	77	2274
2025-01-15 11:47:29.82	172.35	82.16	-29.5	-28.7	14.4	11	77	2242
2025-01-15 11:47:30.22	172.67	82.36	-29.9	-29.4	14.1	11	77	2340
2025-01-15 11:47:30.63	173.02	82.57	-29.9	-29.5	14.0	68	77	2346
2025-01-15 11:47:31.03	173.37	82.76	-29.6	-29.0	14.2	45	77	2274
2025-01-15 11:47:31.43	173.75	82.96	-29.7	-29.1	14.1	80	77	2292
2025-01-15 11:47:31.83	174.15	83.16	-29.6	-28.8	14.2	22	77	2252
2025-01-15 11:47:32.23	174.57	83.36	-29.7	-29.0	14.2	22	77	2281
2025-01-15 11:47:32.63	175.02	83.56	-29.9	-29.6	13.8	34	77	2359
2025-01-15 11:47:33.04	175.52	83.76	-29.9	-29.5	13.8	57	77	2345
2025-01-15 11:47:33.44	176.03	83.96	-30.0	-29.6	13.7	80	77	2370
2025-01-15 11:47:33.84	176.57	84.15	-29.8	-29.3	13.8	68	77	2326
2025-01-15 11:47:34.24	177.16	84.35	-29.7	-29.1	14.0	45	77	2296
2025-01-15 11:47:34.65	177.80	84.55	-29.5	-28.6	14.2	45	77	2234
2025-01-15 11:47:35.05	178.47	84.75	-29.5	-28.6	14.1	22	77	2225
2025-01-15 11:47:35.45	179.20	84.94	-29.7	-29.0	13.9	11	77	2278
2025-01-15 11:47:35.85	179.98	85.13	-29.6	-28.8	13.9	57	77	2254
2025-01-15 11:47:36.25	180.83	85.33	-29.5	-28.7	14.0	57	77	2233
2025-01-15 11:47:36.66	181.77	85.52	-29.5	-28.6	14.1	68	77	2227
2025-01-15 11:47:37.06	182.78	85.71	-29.6	-28.8	13.9	57	77	2258
2025-01-15 11:47:37.46	183.88	85.90	-29.6	-28.9	13.9	34	77	2270
2025-01-15 11:47:37.86	185.09	86.09	-29.7	-29.1	13.8	22	77	2296
2025-01-15 11:47:38.26	186.41	86.28	-29.8	-29.3	13.7	137	77	2319
2025-01-15 11:47:38.67	187.92	86.47	-29.6	-28.8	13.9	114	77	2259
2025-01-15 11:47:39.07	189.55	86.65	-29.7	-29.2	13.8	68	77	2299
2025-01-15 11:47:39.47	191.36	86.83	-29.6	-28.8	14.0	57	77	2259
2025-01-15 11:47:39.87	193.39	87.00	-29.5	-28.7	14.1	68	77	2237
2025-01-15 11:47:40.27	195.67	87.17	-29.5	-28.8	14.1	11	77	2246
2025-01-15 11:47:40.68	198.30	87.34	-29.5	-28.6	14.3	11	77	2220
2025-01-15 11:47:41.08	201.21	87.50	-29.5	-28.7	14.3	22	77	2247
2025-01-15 11:47:41.48	204.51	87.65	-29.4	-28.4	14.5	22	77	2202
2025-01-15 11:47:41.88	208.24	87.80	-29.4	-28.5	14.6	0	77	2215
2025-01-15 11:47:42.28	212.48	87.93	-29.5	-28.6	14.6	34	77	2225
2025-01-15 11:47:42.69	217.40	88.05	-29.5	-28.7	14.4	11	77	2246
2025-01-15 11:47:43.09	222.78	88.16	-29.7	-29.0	14.3	22	77	2284
2025-01-15 11:47:43.49	228.76	88.24	-29.3	-28.2	14.6	0	77	2178
2025-01-15 11:47:43.89	235.27	88.31	-29.4	-28.9	14.5	0	76	2338
2025-01-15 11:47:44.29	242.20	88.35	-29.2	-28.6	14.8	11	76	2294
2025-01-15 11:47:44.70	249.57	88.37	-29.3	-28.7	14.7	11	76	2302
2025-01-15 11:47:45.10	256.78	88.36	-29.5	-29.1	14.5	22	76	2354
2025-01-15 11:47:45.50	263.80	88.32	-29.5	-29.2	14.4	22	76	2376
2025-01-15 11:47:45.90	270.43	88.26	-29.7	-29.6	14.2	0	76	2423
2025-01-15 11:47:46.30	276.56	88.18	-29.6	-29.4	14.2	57	76	2406
2025-01-15 11:47:46.71	282.23	88.08	-29.5	-29.1	14.3	11	76	2351
2025-01-15 11:47:47.11	287.17	87.96	-29.5	-29.2	14.2	45	76	2374
2025-01-15 11:47:47.51	291.55	87.83	-29.6	-29.4	14.1	34	76	2405
2025-01-15 11:47:47.91	295.41	87.69	-29.7	-29.6	14.0	22	76	2421
2025-01-15 11:47:48.31	298.82	87.54	-29.8	-29.7	14.0	125	76	2437
2025-01-15 11:47:48.72	301.89	87.38	-29.6	-29.4	14.0	34	76	2404
2025-01-15 11:47:49.12	304.54	87.22	-29.6	-29.3	14.1	34	76	2388
2025-01-15 11:47:49.52	306.89	87.05	-29.4	-29.0	14.2	11	76	2341
2025-01-15 11:47:49.92	308.98	86.87	-29.3	-28.8	14.4	22	76	2320
2025-01-15 11:47:50.32	310.85	86.70	-29.3	-28.7	14.4	22	76	2301
2025-01-15 11:47:50.73	312.56	86.51	-29.0	-28.2	14.7	11	76	2233
2025-01-15 11:47:51.13	314.07	86.33	-29.0	-28.2	14.7	11	76	2239
2025-01-15 11:47:51.53	315.43	86.14	-29.1	-28.3	14.7	0	76	2253
2025-01-15 11:47:51.93	316.67	85.95	-29.1	-28.4	14.7	11	76	2263
2025-01-15 11:47:52.33	317.80	85.77	-29.2	-28.6	14.5	11	76	2291
2025-01-15 11:47:52.73	318.83	85.58	-29.1	-28.3	14.7	0	76	2258
2025-01-15 11:47:53.14	319.79	85.38	-28.9	-28.0	14.8	0	76	2220
2025-01-15 11:47:53.54	320.66	85.19	-28.5	-27.6	15.2	0	75	2227
2025-01-15 11:47:53.94	321.46	84.99	-28.3	-27.2	15.4	0	75	2179
2025-01-15 11:47:54.34	322.20	84.80	-28.4	-27.4	15.3	0	75	2204
2025-01-15 11:47:54.74	322.89	84.60	-28.3	-27.4	15.4	0	75	2202
2025-01-15 11:47:55.15	323.54	84.40	-28.5	-27.7	15.2	0	75	2250
2025-01-15 11:47:55.55	324.13	84.21	-28.3	-27.4	15.3	0	75	2203
2025-01-15 11:47:55.95	324.69	84.01	-28.3	-27.8	15.5	0	74	2318
2025-01-15 11:47:56.35	325.21	83.81	-28.1	-27.4	15.6	0	74	2271
2025-01-15 11:47:56.75	325.70	83.62	-27.6	-26.9	16.2	0	73	2264
2025-01-15 11:47:57.16	326.17	83.41	-27.8	-27.3	16.0	0	73	2320
2025-01-15 11:47:57.56	326.60	83.22	-27.8	-27.2	16.1	0	73	2307
2025-01-15 11:47:57.96	327.00	83.02	-28.0	-27.7	15.9	0	73	2381
2025-01-15 11:47:58.36	327.39	82.82	-28.2	-28.0	15.7	0	73	2416
2025-01-15 11:47:58.76	327.75	82.62	-28.1	-28.0	15.8	0	73	2412
2025-01-15 11:47:59.16	328.09	82.42	-27.9	-27.5	16.0	0	73	2346
2025-01-15 11:47:59.57	328.43	82.22	-27.7	-27.2	16.2	0	73	2303
2025-01-15 11:47:59.97	328.74	82.02	-27.7	-27.1	16.2	0	73	2300
2025-01-15 11:48:00.37	329.03	81.82	-27.8	-27.2	16.2	0	73	2303
2025-01-15 11:48:00.77	329.31	81.62	-28.1	-27.8	15.8	0	73	2394
2025-01-15 11:48:01.18	329.58	81.42	-28.3	-28.3	15.5	0	73	2467
2025-01-15 11:48:01.58	329.84	81.22	-28.3	-28.2	15.5	0	73	2451
2025-01-15 11:48:01.98	330.08	81.02	-28.2	-28.1	15.5	0	73	2429
2025-01-15 11:48:02.38	330.32	80.82	-28.1	-27.9	15.6	0	73	2400
2025-01-15 11:48:02.78	330.54	80.62	-27.9	-27.6	15.8	0	73	2355
2025-01-15 11:48:03.19	330.76	80.42	-28.0	-27.7	15.7	0	73	2370
2025-01-15 11:48:03.59	330.96	80.22	-27.9	-27.5	15.7	0	73	2349
2025-01-15 11:48:03.99	331.16	80.02	-27.8	-27.2	15.9	0	73	2305
2025-01-15 11:48:04.39	331.35	79.82	-27.9	-27.4	15.7	0	73	2326
2025-01-15 11:48:04.79	331.53	79.62	-27.7	-27.1	15.8	0	73	2284
2025-01-15 11:48:05.20	331.71	79.42	-27.7	-27.0	15.8	0	73	2270
2025-01-15 11:48:05.60	331.87	79.22	-27.7	-27.0	15.7	0	73	2277
2025-01-15 11:48:06.00	332.03	79.03	-27.8	-27.2	15.5	0	73	2302
2025-01-15 11:48:06.40	332.19	78.83	-27.9	-27.3	15.4	0	73	2315
2025-01-15 11:48:06.80	332.34	78.63	-27.8	-27.2	15.4	0	73	2288
2025-01-15 11:48:07.21	332.49	78.43	-27.8	-27.2	15.4	0	73	2304
2025-01-15 11:48:07.61	332.63	78.23	-28.0	-27.6	15.2	0	73	2354
2025-01-15 11:48:08.01	332.76	78.03	-28.2	-28.0	15.0	0	73	2406
2025-01-15 11:48:08.41	332.90	77.84	-28.5	-28.5	14.8	0	73	2486
2025-01-15 11:48:08.81	333.02	77.64	-28.6	-28.4	14.7	0	74	2399
2025-01-15 11:48:09.22	333.15	77.44	-28.8	-28.7	14.6	0	74	2438
2025-01-15 11:48:09.62	333.27	77.24	-28.9	-29.0	14.6	11	74	2485
2025-01-15 11:48:10.02	333.38	77.04	-28.9	-28.6	14.5	0	75	2360
2025-01-15 11:48:10.42	333.49	76.85	-29.1	-28.8	14.4	45	75	2400
2025-01-15 11:48:10.82	333.60	76.65	-29.2	-29.2	14.2	11	75	2456
2025-01-15 11:48:11.23	333.71	76.45	-29.4	-29.5	14.0	45	75	2500
2025-01-15 11:48:11.63	333.81	76.26	-29.7	-29.6	14.0	57	76	2437
2025-01-15 11:48:12.03	333.91	76.06	-29.6	-29.4	14.0	80	76	2406
2025-01-15 11:48:12.43	334.01	75.87	-29.4	-29.0	14.3	11	76	2350
2025-01-15 11:48:12.84	334.10	75.67	-29.3	-28.9	14.4	57	76	2332
2025-01-15 11:48:13.24	334.19	75.47	-29.4	-29.0	14.3	0	76	2361
2025-01-15 11:48:13.64	334.28	75.28	-29.6	-29.5	14.0	22	76	2432
2025-01-15 11:48:14.04	334.37	75.08	-29.9	-30.0	13.7	91	76	2507
2025-01-15 11:48:14.45	334.45	74.89	-30.2	-30.2	13.3	80	77	2460
2025-01-15 11:48:14.85	334.54	74.69	-30.4	-30.6	13.0	480	77	2521
2025-01-15 11:48:15.25	334.62	74.50	-30.4	-30.6	12.9	652	77	2527
2025-01-15 11:48:15.65	334.69	74.31	-30.3	-30.3	13.0	766	77	2475
2025-01-15 11:48:16.05	334.77	74.11	-30.2	-30.2	13.0	560	77	2460
2025-01-15 11:48:16.46	334.84	73.92	-30.4	-30.6	12.7	698	77	2509
2025-01-15 11:48:16.86	334.92	73.73	-30.6	-30.5	12.4	1728	78	2427
2025-01-15 11:48:17.26	334.99	73.53	-30.7	-30.6	12.3	1728	78	2438
2025-01-15 11:48:17.66	335.06	73.34	-30.8	-30.8	12.2	3273	78	2475
2025-01-15 11:48:18.06	335.12	73.15	-30.9	-31.1	12.1	3753	78	2512
2025-01-15 11:48:18.47	335.19	72.96	-30.9	-31.1	12.0	4051	78	2514
2025-01-15 11:48:18.87	335.25	72.76	-31.0	-30.7	11.9	5458	79	2388
2025-01-15 11:48:19.27	335.32	72.57	-31.2	-31.2	11.7	7141	79	2462
2025-01-15 11:48:19.67	335.38	72.38	-31.7	-31.8	11.3	9578	80	2476
2025-01-15 11:48:20.07	335.44	72.20	-32.0	-31.9	10.9	19683	81	2429
2025-01-15 11:48:20.47	335.50	72.01	-32.1	-32.1	10.7	32707	81	2460
2025-01-15 11:48:20.88	335.55	71.81	-32.1	-32.0	10.8	36449	81	2445
2025-01-15 11:48:21.28	335.61	71.62	-32.1	-32.1	10.8	43052	81	2455
2025-01-15 11:48:21.68	335.67	71.44	-32.3	-32.4	10.5	40340	81	2504
2025-01-15 11:48:22.08	335.72	71.25	-32.0	-31.8	10.9	54645	81	2406
2025-01-15 11:48:22.48	335.77	71.06	-39.5	-45.1	3.6	3968696	95	4697
2025-01-15 11:48:22.89	335.82	70.87	-39.3	-42.8	3.4	8432418	96	3688
2025-01-15 11:48:23.29	335.88	70.68	-39.5	-44.4	3.6	8388839	96	4345
2025-01-15 11:48:23.69	335.92	70.49	-39.6	-43.6	3.4	8444229	96	3926
2025-01-15 11:48:24.09	335.97	70.31	-39.5	-44.2	3.6	8403499	96	4220
2025-01-15 11:48:24.49	336.02	70.12	-39.6	-43.9	3.4	8427177	96	4058

#Closed at: 2025-01-15 11:48:24