passes_logs/2025/01/15/XPeterburg/XPeterburg__20250115_101149_SUOMI_NPP_rec.log

#Pass ID: 20250115_101149_SUOMI NPP
#Satellite: SUOMI NPP
#Configuration: NPP
#Start time: 2025-01-15 10:11:44

#Version: 1.5.20200625
#Station: XPeterburg
#Location: 30.318091 lon 59.932769 lat
#TLE: 1 37849U 11061A   25013.15774042  .00000145  00000+0  89802-4 0  9991
#TLE: 2 37849  98.7444 314.1696 0001761  43.7896 316.3420 14.19537310684653

#Time	Az	El	Level	Level2	SNR	BER	Gain	Gain2
2025-01-15 10:11:44.17	130.91	68.08	-39.2	-46.0	3.3	15358398	96	2708
2025-01-15 10:11:44.57	130.67	68.24	-38.7	-57.6	3.6	15271903	73	10750
2025-01-15 10:11:44.97	130.43	68.40	-39.3	-46.4	3.4	15212768	95	2779
2025-01-15 10:11:45.37	130.18	68.56	-38.9	-45.9	3.6	15212768	96	2744
2025-01-15 10:11:45.78	129.92	68.73	-38.8	-44.6	3.4	15135810	95	2404
2025-01-15 10:11:46.18	129.67	68.89	-38.6	-44.8	3.7	15163490	95	2505
2025-01-15 10:11:46.58	129.41	69.06	-38.4	-42.9	3.9	15023994	95	2057
2025-01-15 10:11:46.98	129.15	69.22	-38.0	-41.5	4.2	13898109	94	1850
2025-01-15 10:11:47.38	128.88	69.38	-37.9	-41.3	4.3	10995338	94	1808
2025-01-15 10:11:47.79	128.60	69.54	-37.7	-40.9	4.7	9124542	93	1768
2025-01-15 10:11:48.19	128.32	69.71	-37.7	-40.8	4.8	6847290	93	1766
2025-01-15 10:11:48.59	128.04	69.87	-37.4	-39.8	5.4	5973777	93	1629
2025-01-15 10:11:48.99	127.76	70.03	-37.2	-39.7	5.7	4338584	92	1647
2025-01-15 10:11:49.40	127.46	70.19	-36.8	-38.7	6.4	3019859	92	1523
2025-01-15 10:11:49.80	127.16	70.35	-36.6	-38.5	7.0	1839157	91	1535
2025-01-15 10:11:50.20	126.86	70.51	-36.4	-38.2	7.3	1839157	91	1500
2025-01-15 10:11:50.60	126.55	70.67	-36.3	-37.8	7.5	1246765	91	1464
2025-01-15 10:11:51.01	126.23	70.84	-35.8	-37.5	8.3	947456	89	1498
2025-01-15 10:11:51.41	125.91	71.00	-35.6	-37.0	8.6	567367	89	1458
2025-01-15 10:11:51.81	125.59	71.16	-35.5	-36.9	8.7	403121	89	1443
2025-01-15 10:11:52.21	125.26	71.32	-35.3	-36.4	8.9	342407	89	1393
2025-01-15 10:11:52.62	124.91	71.48	-35.3	-36.3	9.0	299972	89	1381
2025-01-15 10:11:53.02	124.57	71.64	-35.2	-36.6	9.1	251998	88	1444
2025-01-15 10:11:53.42	124.22	71.79	-35.3	-36.8	9.1	239540	88	1463
2025-01-15 10:11:53.82	123.87	71.95	-35.3	-37.0	9.1	221359	88	1489
2025-01-15 10:11:54.22	123.50	72.11	-35.2	-36.5	9.3	228942	88	1438
2025-01-15 10:11:54.63	123.13	72.27	-35.3	-36.8	9.3	168190	88	1470
2025-01-15 10:11:55.03	122.75	72.42	-35.1	-36.5	9.4	208770	88	1434
2025-01-15 10:11:55.43	122.37	72.58	-35.2	-36.6	9.4	208770	88	1446
2025-01-15 10:11:55.83	121.98	72.73	-35.6	-37.5	8.9	183738	88	1541
2025-01-15 10:11:56.24	121.57	72.89	-35.7	-37.9	8.7	252464	88	1590
2025-01-15 10:11:56.64	121.16	73.05	-35.9	-38.3	8.5	328826	88	1638
2025-01-15 10:11:57.04	120.75	73.20	-36.2	-38.7	8.1	416870	89	1644
2025-01-15 10:11:57.44	120.33	73.35	-36.4	-39.4	7.7	599006	89	1729
2025-01-15 10:11:57.85	119.89	73.51	-36.6	-39.5	7.2	858947	90	1713
2025-01-15 10:11:58.25	119.45	73.66	-36.5	-39.1	7.4	1145874	90	1666
2025-01-15 10:11:58.65	119.00	73.81	-36.6	-39.3	7.3	1194778	90	1681
2025-01-15 10:11:59.05	118.55	73.96	-36.6	-39.4	7.4	1079437	90	1690
2025-01-15 10:11:59.45	118.09	74.11	-36.4	-38.9	7.7	994621	90	1636
2025-01-15 10:11:59.86	117.60	74.26	-36.1	-38.0	8.1	738082	90	1532
2025-01-15 10:12:00.26	117.12	74.40	-35.7	-37.3	9.0	405250	89	1489
2025-01-15 10:12:00.66	116.62	74.55	-35.5	-36.9	9.3	405250	89	1447
2025-01-15 10:12:01.07	116.11	74.70	-35.6	-37.1	9.2	201705	89	1469
2025-01-15 10:12:01.47	115.60	74.84	-35.5	-37.0	9.2	171623	89	1462
2025-01-15 10:12:01.87	115.07	74.98	-35.5	-36.9	9.2	194679	89	1448
2025-01-15 10:12:02.27	114.54	75.13	-35.8	-37.7	8.7	205657	89	1531
2025-01-15 10:12:02.67	114.00	75.27	-35.9	-37.8	8.5	307090	89	1534
2025-01-15 10:12:03.08	113.43	75.41	-35.8	-37.5	8.6	408264	89	1498
2025-01-15 10:12:03.48	112.86	75.55	-35.7	-37.4	8.6	360900	89	1497
2025-01-15 10:12:03.88	112.29	75.69	-35.8	-37.6	8.4	335899	89	1515
2025-01-15 10:12:04.28	111.70	75.82	-35.7	-37.3	8.6	407020	89	1474
2025-01-15 10:12:04.69	111.08	75.96	-35.8	-37.5	8.5	395103	89	1490
2025-01-15 10:12:05.09	110.47	76.09	-35.8	-37.5	8.2	457344	89	1495
2025-01-15 10:12:05.49	109.84	76.22	-35.7	-37.1	8.7	457344	89	1451
2025-01-15 10:12:05.89	109.21	76.35	-35.7	-37.2	8.5	351158	89	1462
2025-01-15 10:12:06.30	108.54	76.48	-35.6	-36.8	8.7	334274	89	1424
2025-01-15 10:12:06.70	107.88	76.61	-35.7	-37.1	8.8	332534	89	1455
2025-01-15 10:12:07.10	107.20	76.74	-36.0	-38.0	7.9	331878	89	1549
2025-01-15 10:12:07.50	106.51	76.86	-36.1	-38.1	7.8	638412	89	1549
2025-01-15 10:12:07.91	105.79	76.98	-36.0	-37.9	7.9	750373	89	1522
2025-01-15 10:12:08.31	105.08	77.10	-36.0	-37.9	7.9	665138	89	1534
2025-01-15 10:12:08.71	104.35	77.22	-36.2	-38.2	7.7	683288	89	1558
2025-01-15 10:12:09.11	103.60	77.34	-36.3	-38.5	7.5	826530	89	1586
2025-01-15 10:12:09.51	102.84	77.45	-36.3	-38.5	7.4	992347	89	1581
2025-01-15 10:12:09.92	102.05	77.57	-36.1	-38.0	7.7	1056846	89	1532
2025-01-15 10:12:10.32	101.27	77.68	-36.4	-38.7	7.4	986328	89	1613
2025-01-15 10:12:10.72	100.46	77.78	-36.0	-37.8	7.9	986328	89	1508
2025-01-15 10:12:11.12	99.65	77.89	-36.3	-38.5	7.5	952407	89	1589
2025-01-15 10:12:11.53	98.80	77.99	-36.5	-38.7	7.1	838287	90	1576
2025-01-15 10:12:11.93	97.95	78.09	-36.8	-39.4	6.6	1303695	90	1661
2025-01-15 10:12:12.33	97.09	78.19	-37.4	-39.9	5.8	1914505	92	1634
2025-01-15 10:12:12.73	96.22	78.28	-37.8	-40.8	5.2	3404632	92	1754
2025-01-15 10:12:13.14	95.31	78.38	-37.8	-40.9	5.2	4702041	92	1763
2025-01-15 10:12:13.54	94.41	78.47	-38.0	-40.8	4.9	5292945	93	1712
2025-01-15 10:12:13.94	93.49	78.56	-38.1	-41.2	4.8	6299865	93	1770
2025-01-15 10:12:14.34	92.56	78.64	-38.3	-41.9	4.5	7032386	93	1867
2025-01-15 10:12:14.75	91.59	78.72	-38.2	-41.7	4.8	7743164	93	1834
2025-01-15 10:12:15.15	90.63	78.80	-38.0	-41.0	5.1	5732025	93	1743
2025-01-15 10:12:15.55	89.66	78.87	-37.9	-40.7	5.2	5732025	93	1693
2025-01-15 10:12:15.95	88.67	78.95	-38.1	-41.6	4.7	5055816	93	1823
2025-01-15 10:12:16.35	87.68	79.01	-38.2	-41.8	4.6	6358306	93	1855
2025-01-15 10:12:16.76	86.64	79.08	-38.2	-41.6	4.6	7555709	93	1826
2025-01-15 10:12:17.16	85.62	79.14	-38.0	-41.0	5.0	6466468	93	1737
2025-01-15 10:12:17.56	84.58	79.20	-37.7	-40.1	5.6	5519935	93	1629
2025-01-15 10:12:17.96	83.54	79.25	-37.7	-40.3	5.6	3871360	93	1652
2025-01-15 10:12:18.37	82.45	79.31	-37.6	-39.8	5.9	3898559	93	1594
2025-01-15 10:12:18.77	81.39	79.35	-37.9	-40.8	5.3	3966392	93	1727
2025-01-15 10:12:19.17	80.31	79.40	-38.1	-41.6	4.8	5110603	93	1839
2025-01-15 10:12:19.57	79.23	79.44	-38.2	-41.8	4.7	6563209	93	1864
2025-01-15 10:12:19.97	78.14	79.47	-38.2	-42.0	4.6	7029922	93	1902
2025-01-15 10:12:20.38	77.01	79.51	-38.2	-41.7	4.7	7279655	93	1857
2025-01-15 10:12:20.78	75.90	79.54	-38.0	-41.3	5.0	7279655	93	1785
2025-01-15 10:12:21.18	74.79	79.56	-37.9	-40.7	5.3	6142204	93	1701
2025-01-15 10:12:21.58	73.67	79.58	-37.8	-40.5	5.6	5289436	93	1680
2025-01-15 10:12:21.99	72.52	79.60	-37.7	-40.4	5.6	4024948	93	1666
2025-01-15 10:12:22.39	71.40	79.61	-37.9	-40.8	5.5	4039054	93	1720
2025-01-15 10:12:22.79	70.27	79.62	-38.1	-41.5	5.0	4168861	93	1833
2025-01-15 10:12:23.19	69.14	79.63	-38.2	-42.0	4.8	5815635	93	1896
2025-01-15 10:12:23.60	67.99	79.63	-38.5	-42.8	4.2	7762863	94	2024
2025-01-15 10:12:24.00	66.86	79.62	-38.4	-42.4	4.2	10789726	94	1944
2025-01-15 10:12:24.40	65.73	79.62	-38.4	-42.4	4.3	9001434	94	1935
2025-01-15 10:12:24.80	64.60	79.60	-38.3	-42.0	4.4	9418121	94	1882
2025-01-15 10:12:25.20	63.48	79.59	-38.0	-40.6	5.0	7065307	94	1666
2025-01-15 10:12:25.61	62.34	79.57	-37.7	-40.1	5.8	7065307	93	1625
2025-01-15 10:12:26.01	61.22	79.55	-37.3	-39.1	6.5	4045440	93	1512
2025-01-15 10:12:26.41	60.11	79.52	-37.0	-38.8	7.1	2674438	92	1515
2025-01-15 10:12:26.81	59.01	79.49	-36.8	-38.3	7.4	1492477	92	1461
2025-01-15 10:12:27.22	57.89	79.46	-37.1	-39.2	6.9	1257530	92	1569
2025-01-15 10:12:27.62	56.80	79.42	-37.3	-39.8	6.4	1559974	92	1639
2025-01-15 10:12:28.02	55.72	79.38	-37.2	-39.5	6.4	2131050	92	1601
2025-01-15 10:12:28.42	54.65	79.33	-37.2	-39.4	6.5	2011825	92	1585
2025-01-15 10:12:28.82	53.59	79.28	-37.0	-39.0	6.8	2053749	92	1545
2025-01-15 10:12:29.23	52.51	79.23	-36.9	-38.7	7.0	1769973	92	1515
2025-01-15 10:12:29.63	51.47	79.17	-37.0	-39.0	6.9	1406234	92	1551
2025-01-15 10:12:30.03	50.44	79.11	-37.2	-39.6	6.4	1629692	92	1611
2025-01-15 10:12:30.43	49.43	79.05	-37.6	-40.7	5.8	2848312	92	1758
2025-01-15 10:12:30.84	48.40	78.98	-37.9	-41.7	5.2	2848312	92	1903
2025-01-15 10:12:31.24	47.41	78.91	-37.9	-41.3	5.3	4006370	92	1835
2025-01-15 10:12:31.64	46.43	78.84	-37.4	-39.9	5.8	4832557	92	1640
2025-01-15 10:12:32.04	45.46	78.76	-37.0	-38.8	6.7	3843643	92	1509
2025-01-15 10:12:32.45	44.49	78.68	-36.8	-38.3	6.9	2131156	92	1451
2025-01-15 10:12:32.85	43.55	78.60	-36.7	-38.7	7.2	1549140	91	1536
2025-01-15 10:12:33.25	42.63	78.51	-37.2	-40.0	6.4	1343261	91	1697
2025-01-15 10:12:33.65	41.72	78.42	-37.6	-40.4	5.4	2510963	92	1710
2025-01-15 10:12:34.06	40.80	78.33	-38.0	-41.6	4.8	4665603	92	1864
2025-01-15 10:12:34.46	39.92	78.24	-37.6	-40.2	5.4	6010574	92	1666
2025-01-15 10:12:34.86	39.05	78.14	-37.6	-40.3	5.5	4637588	92	1677
2025-01-15 10:12:35.26	38.20	78.04	-37.5	-39.9	5.6	4302650	92	1629
2025-01-15 10:12:35.67	37.35	77.94	-37.5	-40.0	5.6	3818550	92	1650
2025-01-15 10:12:36.07	36.52	77.83	-37.5	-39.9	5.6	3818550	92	1635
2025-01-15 10:12:36.47	35.72	77.73	-37.5	-40.0	5.5	3942131	92	1638
2025-01-15 10:12:36.87	34.92	77.62	-37.7	-40.7	5.2	4102195	92	1738
2025-01-15 10:12:37.28	34.12	77.51	-37.8	-40.9	5.1	4678993	92	1756
2025-01-15 10:12:37.68	33.36	77.39	-38.0	-41.5	4.8	5431777	92	1841
2025-01-15 10:12:38.08	32.61	77.28	-38.0	-41.0	4.8	6410011	93	1749
2025-01-15 10:12:38.48	31.87	77.16	-38.1	-41.5	4.5	6621841	93	1820
2025-01-15 10:12:38.89	31.13	77.04	-37.9	-40.8	4.8	7512680	93	1711
2025-01-15 10:12:39.29	30.42	76.92	-38.2	-41.6	4.5	7372566	93	1833
2025-01-15 10:12:39.69	29.73	76.80	-38.3	-42.1	4.3	8501525	93	1912
2025-01-15 10:12:40.09	29.05	76.67	-38.5	-42.7	3.9	11421096	94	2009
2025-01-15 10:12:40.49	28.38	76.55	-38.3	-42.1	4.0	13373138	94	1905
2025-01-15 10:12:40.90	27.71	76.42	-38.5	-42.7	3.9	13373138	94	2010
2025-01-15 10:12:41.30	27.06	76.29	-38.6	-44.8	3.7	13141120	94	2504
2025-01-15 10:12:41.70	26.43	76.16	-38.5	-43.2	4.0	14521385	94	2114
2025-01-15 10:12:42.10	25.82	76.03	-38.2	-41.8	4.4	13749717	94	1856
2025-01-15 10:12:42.50	25.21	75.89	-37.9	-40.5	4.9	10035324	94	1669
2025-01-15 10:12:42.91	24.60	75.75	-37.6	-39.9	5.6	6308486	93	1609
2025-01-15 10:12:43.31	24.02	75.62	-37.0	-38.8	6.8	3669631	92	1516
2025-01-15 10:12:43.71	23.45	75.48	-36.9	-38.7	7.0	1783317	92	1513
2025-01-15 10:12:44.11	22.89	75.34	-36.8	-39.0	7.2	1350708	91	1585
2025-01-15 10:12:44.52	22.33	75.20	-36.6	-38.4	7.7	1064079	91	1521
2025-01-15 10:12:44.92	21.79	75.06	-36.4	-38.1	7.9	741691	91	1487
2025-01-15 10:12:45.32	21.26	74.92	-36.3	-37.7	8.2	626243	91	1450
2025-01-15 10:12:45.72	20.74	74.77	-35.8	-37.6	8.7	439369	89	1518
2025-01-15 10:12:46.12	20.24	74.63	-35.8	-37.6	8.8	439369	89	1515
2025-01-15 10:12:46.53	19.73	74.48	-35.7	-37.3	9.0	322563	89	1489
2025-01-15 10:12:46.93	19.24	74.33	-35.8	-37.6	8.9	233261	89	1523
2025-01-15 10:12:47.33	18.76	74.19	-35.7	-37.3	9.0	262802	89	1491
2025-01-15 10:12:47.73	18.29	74.04	-35.5	-36.9	9.4	255767	89	1451
2025-01-15 10:12:48.13	17.83	73.89	-35.1	-36.6	9.9	150238	88	1454
2025-01-15 10:12:48.54	17.37	73.74	-35.0	-36.4	10.0	98640	88	1435
2025-01-15 10:12:48.94	16.93	73.59	-34.9	-36.1	10.2	76271	88	1404
2025-01-15 10:12:49.34	16.50	73.44	-34.6	-35.8	10.6	56015	87	1411
2025-01-15 10:12:49.74	16.07	73.28	-33.8	-34.5	11.4	27076	86	1330
2025-01-15 10:12:50.15	15.65	73.13	-33.6	-34.5	11.7	9063	85	1367
2025-01-15 10:12:50.55	15.24	72.97	-33.3	-33.8	12.0	5493	85	1310
2025-01-15 10:12:50.95	14.84	72.82	-33.1	-33.9	12.2	5493	84	1347
2025-01-15 10:12:51.35	14.44	72.67	-33.3	-34.4	11.9	3616	84	1394
2025-01-15 10:12:51.76	14.05	72.51	-33.9	-35.8	11.0	3234	84	1523
2025-01-15 10:12:52.16	13.67	72.35	-34.5	-36.6	10.3	12199	85	1572
2025-01-15 10:12:52.56	13.29	72.20	-34.7	-36.7	9.7	45234	86	1541
2025-01-15 10:12:52.96	12.93	72.04	-34.6	-36.5	9.9	99090	86	1516
2025-01-15 10:12:53.36	12.57	71.88	-34.6	-36.3	9.9	99700	86	1505
2025-01-15 10:12:53.77	12.21	71.72	-34.4	-35.9	10.1	88264	86	1463
2025-01-15 10:12:54.17	11.87	71.56	-34.4	-35.8	10.3	55999	86	1453
2025-01-15 10:12:54.57	11.53	71.41	-34.2	-35.4	10.5	46340	86	1419
2025-01-15 10:12:54.97	11.19	71.25	-34.1	-35.4	10.6	32310	86	1416
2025-01-15 10:12:55.38	10.86	71.09	-34.0	-35.0	10.9	31738	86	1383
2025-01-15 10:12:55.78	10.54	70.93	-33.9	-34.9	11.0	19630	86	1377
2025-01-15 10:12:56.18	10.22	70.77	-33.9	-34.8	11.0	19630	86	1366
2025-01-15 10:12:56.58	9.91	70.61	-34.4	-36.0	10.3	22575	86	1476
2025-01-15 10:12:56.99	9.60	70.44	-35.3	-37.5	9.4	38642	87	1587

#Closed at: 2025-01-15 10:12:57