passes_logs/2025/01/15/XPeterburg/XPeterburg__20250115_001902_SUOMI_NPP_rec.log

#Pass ID: 20250115_001902_SUOMI NPP
#Satellite: SUOMI NPP
#Configuration: NPP
#Start time: 2025-01-15 00:18:55

#Version: 1.5.20200625
#Station: XPeterburg
#Location: 30.318091 lon 59.932769 lat
#TLE: 1 37849U 11061A   25013.15774042  .00000145  00000+0  89802-4 0  9991
#TLE: 2 37849  98.7444 314.1696 0001761  43.7896 316.3420 14.19537310684653

#Time	Az	El	Level	Level2	SNR	BER	Gain	Gain2
2025-01-15 00:18:55.84	32.07	67.32	-39.3	-46.2	3.3	15351943	96	2731
2025-01-15 00:18:56.24	32.19	67.50	-39.3	-58.5	3.6	15277091	73	11232
2025-01-15 00:18:56.64	32.32	67.67	-39.3	-47.1	3.4	15224609	95	2996
2025-01-15 00:18:57.04	32.44	67.85	-39.5	-48.2	3.0	15224609	96	3367
2025-01-15 00:18:57.45	32.57	68.03	-39.4	-46.9	3.4	15117210	96	2916
2025-01-15 00:18:57.85	32.71	68.20	-39.3	-47.2	3.6	15227272	97	3075
2025-01-15 00:18:58.25	32.84	68.38	-39.5	-46.6	3.4	15072685	97	2785
2025-01-15 00:18:58.65	32.97	68.56	-39.2	-47.4	3.6	15234832	96	3155
2025-01-15 00:18:59.06	33.12	68.74	-39.1	-46.0	3.4	15112991	96	2712
2025-01-15 00:18:59.46	33.26	68.91	-39.0	-46.2	3.6	15217071	96	2823
2025-01-15 00:18:59.86	33.40	69.09	-39.1	-45.2	3.5	15078575	96	2468
2025-01-15 00:19:00.26	33.54	69.27	-38.9	-43.4	3.4	15200218	96	2063
2025-01-15 00:19:00.66	33.69	69.45	-38.5	-43.4	4.1	14851921	95	2166
2025-01-15 00:19:01.06	33.84	69.62	-38.3	-41.8	4.2	12206306	95	1838
2025-01-15 00:19:01.47	34.00	69.81	-38.0	-41.3	4.4	9465576	94	1805
2025-01-15 00:19:01.87	34.16	69.99	-37.8	-40.7	4.6	9465576	94	1712
2025-01-15 00:19:02.27	34.32	70.16	-37.7	-40.8	4.9	7848030	93	1747
2025-01-15 00:19:02.67	34.48	70.34	-37.6	-40.4	5.2	6536354	93	1691
2025-01-15 00:19:03.08	34.65	70.53	-37.2	-39.5	6.0	5242034	92	1612
2025-01-15 00:19:03.48	34.82	70.71	-36.9	-38.8	6.6	3402709	92	1535
2025-01-15 00:19:03.88	34.99	70.88	-36.6	-38.5	7.3	2257545	91	1527
2025-01-15 00:19:04.28	35.17	71.06	-36.4	-38.0	7.7	1263702	91	1475
2025-01-15 00:19:04.68	35.35	71.24	-36.3	-37.9	7.8	809547	91	1473
2025-01-15 00:19:05.09	35.54	71.43	-35.9	-38.0	8.1	624504	89	1567
2025-01-15 00:19:05.49	35.72	71.61	-35.8	-37.5	8.3	538063	89	1512
2025-01-15 00:19:05.89	35.91	71.79	-35.6	-37.2	8.7	427314	89	1476
2025-01-15 00:19:06.29	36.11	71.97	-35.7	-37.4	8.7	356529	89	1499
2025-01-15 00:19:06.70	36.31	72.15	-35.5	-36.8	8.9	280632	89	1439
2025-01-15 00:19:07.10	36.52	72.33	-35.2	-36.6	9.4	280632	88	1446
2025-01-15 00:19:07.50	36.73	72.51	-35.2	-36.7	9.4	176727	88	1460
2025-01-15 00:19:07.90	36.94	72.69	-35.3	-36.9	9.3	151458	88	1480
2025-01-15 00:19:08.30	37.15	72.87	-35.6	-37.7	8.7	192565	88	1566
2025-01-15 00:19:08.70	37.38	73.05	-35.9	-38.4	8.5	287872	88	1647
2025-01-15 00:19:09.10	37.60	73.24	-36.2	-38.7	8.1	388114	89	1639
2025-01-15 00:19:09.51	37.84	73.42	-36.3	-39.1	7.8	592094	89	1687
2025-01-15 00:19:09.91	38.08	73.60	-36.4	-39.2	7.8	769592	89	1707
2025-01-15 00:19:10.31	38.32	73.78	-36.4	-38.9	7.5	865432	90	1632
2025-01-15 00:19:10.71	38.57	73.96	-36.2	-38.3	7.8	860473	90	1558
2025-01-15 00:19:11.12	38.83	74.15	-36.2	-38.2	8.0	673362	90	1548
2025-01-15 00:19:11.52	39.09	74.33	-36.1	-37.8	8.4	523994	90	1511
2025-01-15 00:19:11.92	39.36	74.51	-36.2	-38.3	8.0	523994	90	1559
2025-01-15 00:19:12.32	39.63	74.69	-36.4	-38.6	7.8	558845	90	1591
2025-01-15 00:19:12.73	39.92	74.87	-36.7	-39.4	7.2	739089	90	1681
2025-01-15 00:19:13.13	40.21	75.05	-36.8	-39.7	7.0	1082237	90	1712
2025-01-15 00:19:13.53	40.51	75.23	-36.8	-39.8	6.8	1463768	90	1722
2025-01-15 00:19:13.93	40.81	75.41	-37.3	-40.4	6.4	1767250	91	1756
2025-01-15 00:19:14.33	41.12	75.59	-37.3	-40.3	6.3	2117828	91	1731
2025-01-15 00:19:14.74	41.44	75.78	-37.3	-40.2	6.5	2240463	91	1718
2025-01-15 00:19:15.14	41.77	75.96	-37.1	-39.7	6.7	2036781	91	1656
2025-01-15 00:19:15.54	42.11	76.14	-37.0	-39.4	6.9	1799522	91	1619
2025-01-15 00:19:15.94	42.45	76.32	-36.9	-38.9	7.1	1564163	91	1559
2025-01-15 00:19:16.35	42.82	76.50	-36.9	-39.0	7.1	1305503	91	1578
2025-01-15 00:19:16.75	43.18	76.68	-36.7	-38.6	7.3	1219375	91	1531
2025-01-15 00:19:17.15	43.55	76.86	-36.7	-38.6	7.3	1219375	91	1533
2025-01-15 00:19:17.55	43.94	77.03	-36.9	-39.2	6.9	1194206	91	1590
2025-01-15 00:19:17.95	44.34	77.21	-36.9	-38.9	7.0	1403465	91	1560
2025-01-15 00:19:18.36	44.75	77.39	-37.0	-39.3	6.7	1720001	91	1598
2025-01-15 00:19:18.76	45.17	77.57	-37.4	-40.2	6.2	1922264	91	1707
2025-01-15 00:19:19.16	45.60	77.75	-37.4	-39.8	5.8	2196342	92	1625
2025-01-15 00:19:19.56	46.05	77.92	-37.7	-40.6	5.6	3399909	92	1717
2025-01-15 00:19:19.97	46.52	78.10	-37.8	-40.8	5.5	3681999	92	1743
2025-01-15 00:19:20.37	46.99	78.28	-37.6	-40.3	5.9	3537231	92	1681
2025-01-15 00:19:20.77	47.48	78.45	-37.7	-40.5	5.6	3400680	92	1710
2025-01-15 00:19:21.17	47.98	78.62	-37.6	-40.4	5.8	3554275	92	1700
2025-01-15 00:19:21.57	48.50	78.80	-37.6	-40.4	5.8	3488815	92	1684
2025-01-15 00:19:21.98	49.05	78.97	-37.8	-40.9	5.6	3488815	92	1760
2025-01-15 00:19:22.38	49.60	79.14	-37.7	-40.6	5.8	3635528	92	1722
2025-01-15 00:19:22.78	50.17	79.31	-37.7	-40.7	5.9	3420433	92	1731
2025-01-15 00:19:23.18	50.76	79.48	-37.9	-41.2	5.7	3176750	92	1813
2025-01-15 00:19:23.58	51.37	79.65	-37.9	-41.3	5.6	3745559	92	1814
2025-01-15 00:19:23.99	52.01	79.82	-37.9	-41.1	5.6	3832122	92	1797
2025-01-15 00:19:24.39	52.66	79.99	-38.1	-41.3	5.4	3778366	93	1783
2025-01-15 00:19:24.79	53.33	80.15	-38.1	-41.4	5.4	4249076	93	1795
2025-01-15 00:19:25.19	54.03	80.32	-38.0	-41.1	5.5	4101455	93	1762
2025-01-15 00:19:25.60	54.77	80.48	-38.0	-41.1	5.6	4239486	93	1763
2025-01-15 00:19:26.00	55.51	80.64	-37.9	-40.9	5.6	3977638	93	1743
2025-01-15 00:19:26.40	56.29	80.80	-37.8	-40.7	5.8	3905876	93	1707
2025-01-15 00:19:26.80	57.09	80.96	-37.7	-40.4	5.9	3549728	93	1679
2025-01-15 00:19:27.20	57.91	81.12	-37.3	-39.3	6.6	3549728	93	1539
2025-01-15 00:19:27.61	58.79	81.28	-36.9	-38.7	7.4	2398765	92	1510
2025-01-15 00:19:28.01	59.68	81.43	-36.7	-38.6	7.9	1490303	91	1532
2025-01-15 00:19:28.41	60.61	81.58	-36.5	-38.0	8.3	816986	91	1474
2025-01-15 00:19:28.81	61.56	81.73	-36.0	-37.4	8.9	542236	90	1454
2025-01-15 00:19:29.22	62.58	81.88	-35.8	-37.0	9.2	307083	90	1418
2025-01-15 00:19:29.62	63.61	82.02	-35.4	-36.7	9.9	194381	89	1420
2025-01-15 00:19:30.02	64.67	82.16	-35.3	-36.9	10.2	87364	88	1477
2025-01-15 00:19:30.42	65.78	82.30	-35.2	-36.7	10.3	58883	88	1460
2025-01-15 00:19:30.83	66.95	82.44	-35.1	-36.4	10.3	56205	88	1434
2025-01-15 00:19:31.23	68.14	82.57	-34.9	-35.9	10.7	39550	88	1389
2025-01-15 00:19:31.63	69.37	82.70	-34.7	-35.6	10.9	25802	88	1359
2025-01-15 00:19:32.03	70.65	82.83	-34.6	-35.7	11.2	15983	87	1398
2025-01-15 00:19:32.43	71.97	82.95	-33.7	-34.8	12.0	15983	85	1390
2025-01-15 00:19:32.84	73.37	83.07	-33.4	-34.0	12.5	7034	85	1326
2025-01-15 00:19:33.24	74.79	83.18	-33.1	-33.9	12.8	1487	84	1353
2025-01-15 00:19:33.64	76.25	83.29	-32.8	-33.7	13.3	488	83	1368
2025-01-15 00:19:34.04	77.76	83.40	-33.1	-34.4	12.9	236	83	1433
2025-01-15 00:19:34.45	79.36	83.50	-33.3	-34.9	12.7	396	83	1479
2025-01-15 00:19:34.85	80.97	83.60	-33.5	-35.3	12.6	579	83	1518
2025-01-15 00:19:35.25	82.63	83.69	-33.5	-35.0	12.3	1235	84	1449
2025-01-15 00:19:35.65	84.33	83.78	-33.6	-35.2	12.1	1777	84	1469
2025-01-15 00:19:36.05	86.08	83.86	-33.4	-34.7	12.4	2037	84	1419
2025-01-15 00:19:36.46	87.92	83.93	-33.1	-33.8	12.8	1007	84	1345
2025-01-15 00:19:36.86	89.76	84.00	-33.2	-34.1	12.7	671	84	1368
2025-01-15 00:19:37.26	91.64	84.06	-33.1	-33.8	12.8	671	84	1344
2025-01-15 00:19:37.66	93.56	84.12	-32.8	-33.2	13.2	579	84	1288
2025-01-15 00:19:38.06	95.51	84.17	-32.8	-33.7	13.3	411	83	1363
2025-01-15 00:19:38.47	97.54	84.21	-32.7	-33.4	13.3	144	83	1345
2025-01-15 00:19:38.87	99.55	84.24	-32.7	-33.6	13.2	175	83	1361
2025-01-15 00:19:39.27	101.59	84.27	-32.6	-33.3	13.3	144	83	1336
2025-01-15 00:19:39.67	103.64	84.29	-32.5	-33.0	13.5	175	83	1311
2025-01-15 00:19:40.07	105.70	84.30	-32.4	-32.9	13.5	137	83	1299
2025-01-15 00:19:40.48	107.82	84.31	-32.3	-33.2	13.9	83	82	1358
2025-01-15 00:19:40.88	109.88	84.31	-32.0	-32.5	14.2	22	82	1299
2025-01-15 00:19:41.28	111.95	84.30	-32.3	-33.1	13.9	61	82	1352
2025-01-15 00:19:41.68	114.01	84.28	-32.7	-34.0	13.3	106	82	1431
2025-01-15 00:19:42.09	116.10	84.26	-33.1	-34.3	12.7	457	83	1424
2025-01-15 00:19:42.49	118.12	84.23	-33.5	-35.3	12.2	457	83	1510
2025-01-15 00:19:42.89	120.12	84.19	-33.4	-34.6	12.3	1602	84	1406
2025-01-15 00:19:43.29	122.09	84.14	-33.1	-33.8	12.8	2029	84	1338
2025-01-15 00:19:43.69	124.02	84.09	-32.9	-33.5	13.0	923	84	1312
2025-01-15 00:19:44.10	125.97	84.03	-32.7	-33.3	13.3	312	83	1330
2025-01-15 00:19:44.50	127.83	83.97	-32.6	-33.2	13.4	137	83	1316
2025-01-15 00:19:44.90	129.65	83.90	-32.5	-33.1	13.4	83	83	1311
2025-01-15 00:19:45.30	131.42	83.82	-32.9	-33.9	13.1	198	83	1379
2025-01-15 00:19:45.70	133.15	83.74	-33.3	-34.8	12.5	404	83	1460
2025-01-15 00:19:46.11	134.87	83.65	-33.5	-34.8	12.3	1304	84	1419
2025-01-15 00:19:46.51	136.51	83.55	-33.7	-35.2	12.0	2250	84	1458
2025-01-15 00:19:46.91	138.09	83.45	-33.3	-34.3	12.5	1968	84	1382
2025-01-15 00:19:47.31	139.63	83.35	-33.3	-34.3	12.7	1968	84	1377
2025-01-15 00:19:47.71	141.12	83.24	-33.5	-34.6	12.3	1121	84	1410
2025-01-15 00:19:48.11	142.56	83.13	-33.7	-35.3	12.0	1243	84	1474
2025-01-15 00:19:48.52	143.98	83.01	-34.4	-36.2	11.2	2685	85	1525
2025-01-15 00:19:48.92	145.33	82.89	-34.9	-37.1	10.2	10948	86	1571
2025-01-15 00:19:49.32	146.63	82.77	-35.4	-37.1	9.8	51689	88	1491
2025-01-15 00:19:49.72	147.88	82.64	-35.8	-38.0	9.3	103439	88	1585
2025-01-15 00:19:50.13	149.12	82.50	-36.2	-38.4	8.7	219039	89	1594
2025-01-15 00:19:50.53	150.29	82.37	-36.2	-38.6	8.7	303405	89	1609
2025-01-15 00:19:50.93	151.42	82.23	-36.4	-38.6	8.3	394233	90	1575
2025-01-15 00:19:51.33	152.50	82.09	-37.5	-40.8	6.7	832214	91	1803
2025-01-15 00:19:51.73	153.55	81.95	-37.8	-41.1	6.1	2102806	92	1799
2025-01-15 00:19:52.13	154.56	81.81	-38.2	-41.9	5.3	3503684	93	1891
2025-01-15 00:19:52.54	155.56	81.65	-38.2	-42.0	5.1	3503684	93	1894
2025-01-15 00:19:52.94	156.50	81.50	-38.3	-42.1	5.0	5714286	93	1903
2025-01-15 00:19:53.34	157.41	81.35	-38.1	-41.5	5.3	5302871	93	1814
2025-01-15 00:19:53.74	158.28	81.20	-37.7	-40.3	6.1	5144721	93	1646
2025-01-15 00:19:54.15	159.15	81.04	-37.6	-39.9	6.4	3302589	93	1605
2025-01-15 00:19:54.55	159.96	80.88	-37.3	-39.3	7.0	2168899	93	1539
2025-01-15 00:19:54.95	160.75	80.72	-37.0	-38.9	7.6	1557487	92	1526
2025-01-15 00:19:55.35	161.51	80.56	-36.7	-38.5	8.3	861495	91	1513
2025-01-15 00:19:55.75	162.24	80.40	-36.4	-37.7	8.9	431961	91	1439
2025-01-15 00:19:56.16	162.97	80.23	-36.7	-38.6	8.3	322570	91	1537
2025-01-15 00:19:56.56	163.65	80.07	-37.3	-40.3	7.1	711677	91	1737
2025-01-15 00:19:56.96	164.31	79.90	-37.6	-40.5	6.4	1805160	92	1726
2025-01-15 00:19:57.36	164.96	79.74	-37.8	-41.1	6.0	1805160	92	1807
2025-01-15 00:19:57.76	165.57	79.57	-37.8	-41.2	5.9	2471611	92	1804
2025-01-15 00:19:58.17	166.19	79.40	-37.9	-41.5	5.7	3229606	92	1843
2025-01-15 00:19:58.57	166.77	79.23	-37.7	-40.8	6.1	3493103	92	1748
2025-01-15 00:19:58.97	167.33	79.06	-37.9	-41.3	5.8	2857376	92	1816
2025-01-15 00:19:59.37	167.87	78.88	-37.5	-40.1	6.4	3094497	92	1653
2025-01-15 00:19:59.77	168.40	78.71	-37.5	-40.2	6.3	2472534	92	1672
2025-01-15 00:20:00.18	168.92	78.53	-37.0	-38.8	7.1	2194374	92	1507
2025-01-15 00:20:00.58	169.42	78.36	-36.8	-38.8	7.4	1297935	91	1534
2025-01-15 00:20:00.98	169.90	78.19	-36.9	-39.0	7.2	1101745	91	1563
2025-01-15 00:20:01.38	170.36	78.01	-37.1	-39.6	6.8	1478073	91	1624
2025-01-15 00:20:01.79	170.83	77.83	-37.3	-39.8	6.6	1673171	91	1646
2025-01-15 00:20:02.19	171.27	77.66	-37.7	-40.5	5.7	2638023	92	1708
2025-01-15 00:20:02.59	171.69	77.48	-38.0	-41.0	5.1	2638023	93	1734
2025-01-15 00:20:02.99	172.11	77.30	-38.3	-41.7	4.6	4651786	93	1833
2025-01-15 00:20:03.39	172.51	77.12	-38.4	-41.8	4.2	6722816	94	1818
2025-01-15 00:20:03.80	172.91	76.94	-38.6	-42.5	3.9	9374992	94	1930
2025-01-15 00:20:04.20	173.29	76.76	-38.6	-42.7	3.9	12335380	94	1956
2025-01-15 00:20:04.60	173.66	76.58	-38.5	-42.1	4.1	13299392	94	1872
2025-01-15 00:20:05.01	174.03	76.40	-38.4	-41.8	4.1	11346160	94	1835
2025-01-15 00:20:05.41	174.38	76.22	-38.3	-41.6	4.3	10675788	94	1799
2025-01-15 00:20:05.81	174.72	76.04	-38.3	-41.8	4.2	9898185	94	1835
2025-01-15 00:20:06.21	175.05	75.86	-38.2	-41.3	4.5	9450012	94	1767
2025-01-15 00:20:06.61	175.37	75.68	-37.7	-40.0	5.5	6995704	93	1617
2025-01-15 00:20:07.02	175.69	75.50	-37.1	-38.8	6.6	3489669	92	1511
2025-01-15 00:20:07.42	176.00	75.32	-36.5	-38.1	7.7	3489669	91	1475
2025-01-15 00:20:07.82	176.30	75.14	-35.9	-37.1	8.6	1114418	90	1422
2025-01-15 00:20:08.22	176.59	74.96	-35.8	-37.0	8.7	502845	90	1409
2025-01-15 00:20:08.62	176.87	74.78	-36.0	-38.2	8.6	332641	89	1568
2025-01-15 00:20:09.03	177.16	74.59	-36.3	-38.9	8.0	362937	89	1654
2025-01-15 00:20:09.43	177.43	74.41	-36.8	-39.7	7.1	590141	90	1727
2025-01-15 00:20:09.83	177.69	74.23	-37.5	-40.7	6.0	1371612	92	1765
2025-01-15 00:20:10.23	177.95	74.05	-38.1	-42.1	5.0	3356544	93	1943
2025-01-15 00:20:10.64	178.21	73.86	-38.1	-41.9	5.0	5267822	93	1917
2025-01-15 00:20:11.04	178.46	73.68	-38.1	-42.0	4.8	6076011	93	1923
2025-01-15 00:20:11.44	178.70	73.50	-38.0	-41.6	5.0	6007705	93	1869
2025-01-15 00:20:11.84	178.93	73.32	-38.0	-41.6	5.0	5819702	93	1867
2025-01-15 00:20:12.25	179.17	73.14	-38.0	-41.8	4.9	5817840	93	1892
2025-01-15 00:20:12.65	179.39	72.95	-38.2	-42.3	4.5	5817840	93	1979
2025-01-15 00:20:13.05	179.61	72.77	-38.1	-42.0	4.5	7259658	93	1931
2025-01-15 00:20:13.45	179.83	72.59	-37.9	-41.2	4.9	7717079	93	1790
2025-01-15 00:20:13.85	180.04	72.41	-37.8	-40.9	5.0	6297790	93	1751
2025-01-15 00:20:14.26	180.25	72.23	-38.1	-41.7	4.6	5547798	93	1863
2025-01-15 00:20:14.66	180.45	72.05	-38.4	-43.1	4.1	6995559	93	2103
2025-01-15 00:20:15.06	180.65	71.87	-38.7	-45.7	3.5	11660827	94	2735
2025-01-15 00:20:15.46	180.84	71.69	-38.8	-45.2	3.7	14649314	94	2582
2025-01-15 00:20:15.87	181.03	71.50	-38.7	-44.1	3.6	14914779	94	2291
2025-01-15 00:20:16.27	181.22	71.32	-38.6	-44.4	3.9	14918502	94	2409
2025-01-15 00:20:16.67	181.40	71.14	-38.6	-43.8	3.6	14530967	94	2252
2025-01-15 00:20:17.07	181.58	70.96	-38.6	-44.8	3.8	14940849	94	2496
2025-01-15 00:20:17.47	181.75	70.78	-38.5	-43.3	3.7	14940849	94	2144
2025-01-15 00:20:17.88	181.93	70.60	-38.3	-42.4	3.8	14668167	94	1969
2025-01-15 00:20:18.28	182.09	70.42	-39.5	-48.3	3.6	14149909	95	3394

#Closed at: 2025-01-15 00:20:18