passes_logs/2025/01/07/LEX_Murmansk/LEX_Murmansk__20250107_211127_NOAA_18_rec.log

#Pass ID: 20250107_211127_NOAA 18
#Satellite: NOAA 18
#Configuration: NOAA 18
#Start time: 2025-01-07 21:11:22.566828

#LorettStation: 1.0.0 05.05.2024
#Station: LEX_Murmansk
#Location: 33.156738 lon 68.926811 lat
#TLE: 1 28654U 05018A   25006.88073240  .00000470  00000+0  27325-3 0  9996
#TLE: 2 28654  98.8580  88.0152 0013976 202.1444 157.9126 14.13479687 11959

#Time	Az	El	Level	SNR
2025-01-07 21:11:34.795043	231.4	15.9	-90.8	8.4
2025-01-07 21:11:35.950745	231.6	16.0	-90.7	6.8
2025-01-07 21:11:37.098789	231.8	16.0	-90.3	4.1
2025-01-07 21:11:38.249437	232.0	16.1	-89.9	5.0
2025-01-07 21:11:39.411258	232.1	16.2	-90.7	7.2
2025-01-07 21:11:40.563860	232.3	16.3	-90.6	6.2
2025-01-07 21:11:41.721481	232.5	16.4	-90.5	9.4
2025-01-07 21:11:42.891952	232.7	16.5	-90.6	6.6
2025-01-07 21:11:44.050085	232.9	16.5	-90.6	7.3
2025-01-07 21:11:45.207733	233.1	16.6	-90.1	7.6
2025-01-07 21:11:46.357076	233.3	16.7	-90.6	6.6
2025-01-07 21:11:47.510419	233.5	16.8	-91.0	4.1
2025-01-07 21:11:48.662822	233.7	16.9	-90.5	3.7
2025-01-07 21:11:49.815082	233.9	16.9	-90.8	8.2
2025-01-07 21:11:50.965595	234.1	17.0	-90.6	5.9
2025-01-07 21:11:52.114454	234.3	17.1	-90.4	8.1
2025-01-07 21:11:53.270690	234.5	17.2	-90.6	9.2
2025-01-07 21:11:54.420117	234.7	17.3	-91.2	9.7
2025-01-07 21:11:55.579042	234.9	17.4	-90.7	10.2
2025-01-07 21:11:56.735804	235.1	17.4	-90.9	10.8
2025-01-07 21:11:57.894690	235.3	17.5	-91.1	7.1
2025-01-07 21:11:59.053131	235.5	17.6	-90.8	7.1
2025-01-07 21:12:00.212056	235.7	17.7	-90.2	9.9
2025-01-07 21:12:01.359413	235.9	17.8	-89.9	8.2
2025-01-07 21:12:02.519761	236.1	17.9	-90.4	6.8
2025-01-07 21:12:03.677798	236.3	17.9	-90.4	7.1
2025-01-07 21:12:04.834195	236.5	18.0	-91.1	7.5
2025-01-07 21:12:05.985600	236.8	18.1	-90.9	8.3
2025-01-07 21:12:07.143642	237.0	18.2	-90.6	8.3
2025-01-07 21:12:08.299825	237.2	18.3	-89.1	6.6
2025-01-07 21:12:09.449795	237.4	18.3	-89.0	5.2
2025-01-07 21:12:10.602312	237.6	18.4	-89.2	6.3
2025-01-07 21:12:11.755994	237.8	18.5	-90.4	12.4
2025-01-07 21:12:12.910902	238.1	18.6	-89.9	6.5
2025-01-07 21:12:14.068261	238.3	18.7	-89.7	5.7
2025-01-07 21:12:15.227721	238.5	18.7	-89.3	6.0
2025-01-07 21:12:16.383847	238.7	18.8	-89.5	11.3
2025-01-07 21:12:17.540084	238.9	18.9	-89.7	9.7
2025-01-07 21:12:18.694497	239.2	19.0	-90.2	11.6
2025-01-07 21:12:19.849505	239.4	19.1	-90.4	9.7
2025-01-07 21:12:21.004908	239.6	19.1	-90.0	10.9
2025-01-07 21:12:22.163913	239.8	19.2	-89.8	8.4
2025-01-07 21:12:23.325237	240.1	19.3	-90.1	10.8
2025-01-07 21:12:24.488240	240.3	19.4	-90.5	6.1
2025-01-07 21:12:25.640485	240.5	19.5	-89.8	7.2
2025-01-07 21:12:26.796296	240.8	19.5	-90.2	11.5
2025-01-07 21:12:27.942384	241.0	19.6	-90.2	7.7
2025-01-07 21:12:29.105321	241.2	19.7	-89.3	9.0
2025-01-07 21:12:30.274410	241.5	19.8	-89.7	6.2
2025-01-07 21:12:31.437432	241.7	19.8	-89.6	7.7
2025-01-07 21:12:32.593755	242.0	19.9	-90.3	8.2
2025-01-07 21:12:33.759142	242.2	20.0	-90.8	12.9
2025-01-07 21:12:34.907477	242.4	20.1	-90.4	9.7
2025-01-07 21:12:36.065391	242.7	20.2	-90.3	6.1
2025-01-07 21:12:37.212253	242.9	20.2	-89.7	7.4
2025-01-07 21:12:38.369921	243.2	20.3	-90.0	5.7
2025-01-07 21:12:39.515633	243.4	20.4	-90.7	6.0
2025-01-07 21:12:40.665734	243.6	20.5	-91.0	6.2
2025-01-07 21:12:41.804903	243.9	20.5	-90.9	7.4
2025-01-07 21:12:42.924932	244.1	20.6	-90.8	4.7
2025-01-07 21:12:44.045742	244.4	20.7	-90.4	11.6
2025-01-07 21:12:45.166745	244.6	20.7	-90.7	8.4
2025-01-07 21:12:46.288862	244.9	20.8	-90.3	9.1
2025-01-07 21:12:47.410209	245.1	20.9	-90.7	7.2
2025-01-07 21:12:48.530802	245.4	21.0	-90.1	5.6
2025-01-07 21:12:49.655334	245.6	21.0	-90.9	7.2
2025-01-07 21:12:50.778073	245.9	21.1	-90.9	7.1
2025-01-07 21:12:51.927973	246.1	21.2	-91.0	5.9
2025-01-07 21:12:53.072302	246.4	21.2	-90.8	4.3
2025-01-07 21:12:54.227164	246.6	21.3	-90.4	3.3
2025-01-07 21:12:55.382029	246.9	21.4	-90.5	6.1
2025-01-07 21:12:56.531662	247.1	21.5	-91.2	3.3
2025-01-07 21:12:57.681001	247.4	21.5	-91.3	8.0
2025-01-07 21:12:58.837444	247.7	21.6	-90.8	8.7
2025-01-07 21:12:59.994030	247.9	21.7	-91.2	4.2
2025-01-07 21:13:01.123329	248.2	21.7	-90.6	4.9
2025-01-07 21:13:02.257309	248.5	21.8	-90.7	4.2
2025-01-07 21:13:03.403133	248.7	21.9	-91.0	5.4
2025-01-07 21:13:04.549998	249.0	21.9	-91.2	3.5
2025-01-07 21:13:05.701549	249.3	22.0	-91.1	4.5
2025-01-07 21:13:06.844894	249.5	22.1	-91.4	5.7
2025-01-07 21:13:07.990626	249.8	22.1	-90.9	6.7
2025-01-07 21:13:09.138341	250.1	22.2	-90.7	4.1
2025-01-07 21:13:10.291016	250.4	22.3	-90.5	6.9
2025-01-07 21:13:11.442671	250.6	22.3	-91.2	7.0
2025-01-07 21:13:12.603803	250.9	22.4	-91.4	4.8
2025-01-07 21:13:13.764022	251.2	22.4	-91.1	6.1
2025-01-07 21:13:14.912734	251.5	22.5	-91.5	5.6
2025-01-07 21:13:16.072426	251.8	22.6	-91.0	5.0
2025-01-07 21:13:17.224731	252.0	22.6	-90.4	4.9
2025-01-07 21:13:18.378843	252.3	22.7	-90.3	6.5
2025-01-07 21:13:19.534825	252.6	22.8	-91.1	4.7
2025-01-07 21:13:20.691486	252.9	22.8	-91.2	5.6
2025-01-07 21:13:21.840034	253.2	22.9	-91.3	6.0
2025-01-07 21:13:22.969030	253.5	22.9	-91.1	6.2
2025-01-07 21:13:24.112840	253.7	23.0	-91.0	7.6
2025-01-07 21:13:25.261267	254.0	23.0	-90.5	11.2
2025-01-07 21:13:26.400070	254.3	23.1	-90.9	6.0
2025-01-07 21:13:27.548914	254.6	23.2	-91.3	5.7
2025-01-07 21:13:28.704334	254.9	23.2	-91.0	5.6
2025-01-07 21:13:29.860343	255.2	23.3	-91.0	8.2
2025-01-07 21:13:31.010525	255.5	23.3	-90.9	7.4
2025-01-07 21:13:32.165930	255.8	23.4	-90.5	9.7
2025-01-07 21:13:33.316464	256.1	23.4	-90.7	11.9
2025-01-07 21:13:34.473407	256.4	23.5	-91.1	4.8
2025-01-07 21:13:35.615585	256.7	23.5	-90.9	7.2
2025-01-07 21:13:36.758262	257.0	23.6	-91.3	12.4
2025-01-07 21:13:37.885926	257.3	23.6	-90.7	9.4
2025-01-07 21:13:39.034227	257.6	23.7	-90.7	6.5
2025-01-07 21:13:40.172584	257.8	23.7	-90.5	6.9
2025-01-07 21:13:41.320470	258.2	23.8	-90.6	14.9
2025-01-07 21:13:42.468981	258.5	23.8	-90.8	13.7
2025-01-07 21:13:43.618364	258.8	23.9	-91.4	12.4
2025-01-07 21:13:44.765442	259.1	23.9	-91.1	12.9
2025-01-07 21:13:45.915247	259.4	24.0	-91.0	13.9
2025-01-07 21:13:47.049754	259.7	24.0	-90.5	8.1
2025-01-07 21:13:48.183044	260.0	24.0	-90.7	18.3
2025-01-07 21:13:49.328701	260.3	24.1	-90.3	11.4
2025-01-07 21:13:50.466820	260.6	24.1	-91.1	14.0
2025-01-07 21:13:51.617229	260.9	24.2	-91.3	7.1
2025-01-07 21:13:52.764592	261.2	24.2	-91.2	11.2
2025-01-07 21:13:53.901740	261.5	24.2	-90.9	9.7
2025-01-07 21:13:55.051335	261.8	24.3	-90.9	10.1
2025-01-07 21:13:56.202837	262.1	24.3	-90.5	16.9
2025-01-07 21:13:57.358219	262.4	24.4	-90.9	17.1
2025-01-07 21:13:58.510132	262.8	24.4	-91.2	11.0
2025-01-07 21:13:59.665180	263.1	24.4	-91.4	13.9
2025-01-07 21:14:00.808059	263.4	24.5	-91.1	16.4
2025-01-07 21:14:01.956704	263.7	24.5	-91.3	8.4
2025-01-07 21:14:03.109147	264.0	24.5	-91.1	17.4
2025-01-07 21:14:04.260397	264.3	24.6	-90.7	18.3
2025-01-07 21:14:05.409951	264.7	24.6	-91.4	22.3
2025-01-07 21:14:06.554921	265.0	24.6	-91.1	15.1
2025-01-07 21:14:07.693955	265.3	24.7	-91.2	9.6
2025-01-07 21:14:08.826318	265.6	24.7	-91.3	12.1
2025-01-07 21:14:09.975346	265.9	24.7	-90.7	8.1
2025-01-07 21:14:11.122638	266.2	24.7	-90.7	5.6
2025-01-07 21:14:12.269495	266.6	24.8	-90.8	15.1
2025-01-07 21:14:13.411841	266.9	24.8	-90.8	6.2
2025-01-07 21:14:14.565048	267.2	24.8	-90.9	6.9
2025-01-07 21:14:15.719605	267.5	24.8	-90.9	12.0
2025-01-07 21:14:16.866832	267.8	24.9	-91.1	13.2
2025-01-07 21:14:18.016042	268.2	24.9	-90.8	6.7
2025-01-07 21:14:19.147099	268.5	24.9	-90.3	7.2
2025-01-07 21:14:20.282832	268.8	24.9	-90.6	7.7
2025-01-07 21:14:21.432322	269.1	24.9	-89.8	5.4
2025-01-07 21:14:22.577376	269.5	24.9	-90.8	8.5
2025-01-07 21:14:23.728441	269.8	25.0	-90.7	13.5
2025-01-07 21:14:24.881267	270.1	25.0	-90.4	12.3
2025-01-07 21:14:26.034882	270.4	25.0	-90.3	7.1
2025-01-07 21:14:27.181878	270.8	25.0	-90.4	13.3
2025-01-07 21:14:28.335802	271.1	25.0	-90.2	14.6
2025-01-07 21:14:29.489115	271.4	25.0	-90.4	15.2
2025-01-07 21:14:30.642013	271.7	25.0	-91.0	9.4
2025-01-07 21:14:31.797911	272.1	25.1	-90.9	18.3
2025-01-07 21:14:32.953712	272.4	25.1	-90.4	17.8
2025-01-07 21:14:34.103687	272.7	25.1	-90.5	18.0
2025-01-07 21:14:35.244747	273.0	25.1	-90.6	12.0
2025-01-07 21:14:36.368414	273.4	25.1	-90.6	14.2
2025-01-07 21:14:37.511482	273.7	25.1	-90.9	9.3
2025-01-07 21:14:38.654829	274.0	25.1	-91.2	12.2
2025-01-07 21:14:39.810438	274.3	25.1	-91.3	15.8
2025-01-07 21:14:40.972930	274.7	25.1	-91.1	14.2
2025-01-07 21:14:42.119000	275.0	25.1	-90.4	9.3
2025-01-07 21:14:43.272144	275.3	25.1	-90.5	11.4
2025-01-07 21:14:44.429675	275.7	25.1	-90.9	10.1
2025-01-07 21:14:45.581001	276.0	25.1	-90.5	9.0
2025-01-07 21:14:46.729324	276.3	25.1	-90.6	13.2
2025-01-07 21:14:47.883023	276.6	25.1	-90.6	8.9
2025-01-07 21:14:49.030446	277.0	25.1	-90.2	10.1
2025-01-07 21:14:50.181665	277.3	25.1	-90.4	8.5
2025-01-07 21:14:51.302565	277.6	25.1	-90.4	10.0
2025-01-07 21:14:52.430776	277.9	25.1	-90.8	5.6
2025-01-07 21:14:53.568808	278.3	25.1	-91.0	5.8
2025-01-07 21:14:54.714324	278.6	25.0	-90.6	10.8
2025-01-07 21:14:55.858538	278.9	25.0	-90.7	9.2
2025-01-07 21:14:57.004636	279.2	25.0	-91.1	7.0
2025-01-07 21:14:58.167753	279.6	25.0	-90.5	6.3
2025-01-07 21:14:59.323728	279.9	25.0	-90.4	7.5
2025-01-07 21:15:00.467267	280.2	25.0	-90.8	7.4
2025-01-07 21:15:01.625568	280.5	25.0	-90.7	7.4
2025-01-07 21:15:02.787760	280.9	24.9	-91.1	9.3
2025-01-07 21:15:03.935594	281.2	24.9	-91.0	8.9
2025-01-07 21:15:05.100720	281.5	24.9	-90.5	7.4
2025-01-07 21:15:06.262585	281.9	24.9	-90.5	7.3
2025-01-07 21:15:07.417780	282.2	24.9	-89.7	9.1
2025-01-07 21:15:08.569245	282.5	24.9	-89.8	5.7
2025-01-07 21:15:09.726751	282.8	24.8	-89.6	12.5
2025-01-07 21:15:10.881346	283.2	24.8	-90.4	5.3
2025-01-07 21:15:12.032914	283.5	24.8	-91.3	10.7
2025-01-07 21:15:13.184943	283.8	24.8	-90.8	12.4
2025-01-07 21:15:14.338371	284.1	24.7	-90.5	8.4
2025-01-07 21:15:15.491314	284.4	24.7	-91.1	7.8
2025-01-07 21:15:16.645235	284.8	24.7	-91.2	15.1
2025-01-07 21:15:17.808058	285.1	24.6	-91.3	7.6
2025-01-07 21:15:18.958590	285.4	24.6	-91.2	5.9
2025-01-07 21:15:20.104455	285.7	24.6	-90.8	7.3
2025-01-07 21:15:21.265659	286.0	24.6	-90.9	6.4
2025-01-07 21:15:22.425955	286.4	24.5	-90.9	8.5
2025-01-07 21:15:23.583511	286.7	24.5	-91.2	6.3
2025-01-07 21:15:24.732484	287.0	24.5	-91.4	9.3
2025-01-07 21:15:25.889870	287.3	24.4	-91.1	8.7
2025-01-07 21:15:27.032416	287.6	24.4	-91.0	10.4
2025-01-07 21:15:28.153427	287.9	24.4	-90.9	15.1
2025-01-07 21:15:29.274754	288.2	24.3	-90.9	7.9
2025-01-07 21:15:30.395299	288.5	24.3	-91.5	10.8
2025-01-07 21:15:31.520478	288.8	24.2	-91.4	10.1
2025-01-07 21:15:32.640473	289.1	24.2	-91.3	7.6
2025-01-07 21:15:33.763911	289.4	24.2	-91.5	14.3
2025-01-07 21:15:34.888119	289.7	24.1	-91.5	11.7
2025-01-07 21:15:36.008142	290.0	24.1	-91.4	9.6
2025-01-07 21:15:37.160592	290.4	24.0	-90.9	11.4
2025-01-07 21:15:38.306751	290.7	24.0	-91.1	7.5
2025-01-07 21:15:39.453823	291.0	24.0	-91.2	8.3
2025-01-07 21:15:40.613860	291.3	23.9	-91.5	13.6
2025-01-07 21:15:41.771340	291.6	23.9	-91.1	12.8
2025-01-07 21:15:42.926390	291.9	23.8	-91.4	10.0
2025-01-07 21:15:44.073971	292.2	23.8	-90.9	10.0
2025-01-07 21:15:45.234503	292.5	23.7	-90.8	10.3
2025-01-07 21:15:46.387530	292.8	23.7	-91.3	6.2
2025-01-07 21:15:47.533691	293.1	23.6	-91.1	8.0
2025-01-07 21:15:48.689027	293.4	23.6	-91.3	14.1
2025-01-07 21:15:49.844572	293.7	23.5	-90.8	6.6
2025-01-07 21:15:51.005334	294.0	23.5	-91.3	5.3
2025-01-07 21:15:52.153483	294.3	23.4	-91.0	5.9
2025-01-07 21:15:53.307025	294.6	23.4	-91.0	9.7
2025-01-07 21:15:54.462520	294.9	23.3	-91.5	8.8
2025-01-07 21:15:55.610950	295.2	23.3	-90.8	6.7
2025-01-07 21:15:56.762043	295.5	23.2	-91.3	6.4
2025-01-07 21:15:57.911371	295.7	23.1	-91.6	8.1
2025-01-07 21:15:59.068988	296.0	23.1	-91.2	6.1
2025-01-07 21:16:00.219479	296.3	23.0	-91.0	10.3
2025-01-07 21:16:01.363642	296.6	23.0	-90.2	9.0
2025-01-07 21:16:02.517831	296.9	22.9	-91.2	7.1
2025-01-07 21:16:03.673973	297.2	22.9	-91.4	13.1
2025-01-07 21:16:04.822968	297.5	22.8	-90.9	8.2
2025-01-07 21:16:05.966361	297.8	22.7	-91.1	12.6
2025-01-07 21:16:07.119103	298.0	22.7	-90.9	8.4
2025-01-07 21:16:08.276953	298.3	22.6	-90.5	5.2
2025-01-07 21:16:09.437866	298.6	22.6	-90.9	9.8
2025-01-07 21:16:10.595841	298.9	22.5	-91.2	14.0
2025-01-07 21:16:11.756113	299.2	22.4	-89.7	16.1
2025-01-07 21:16:12.919770	299.4	22.4	-90.0	12.0
2025-01-07 21:16:14.076585	299.7	22.3	-89.4	5.8
2025-01-07 21:16:15.226326	300.0	22.2	-90.5	8.0
2025-01-07 21:16:16.382206	300.3	22.2	-90.5	9.6
2025-01-07 21:16:17.536202	300.6	22.1	-90.9	9.3
2025-01-07 21:16:18.696866	300.8	22.0	-90.9	14.1
2025-01-07 21:16:19.859453	301.1	22.0	-90.8	8.2
2025-01-07 21:16:21.012701	301.4	21.9	-91.1	8.8
2025-01-07 21:16:22.164909	301.6	21.8	-90.9	7.6
2025-01-07 21:16:23.324815	301.9	21.8	-90.4	7.0
2025-01-07 21:16:24.489035	302.2	21.7	-91.0	5.1
2025-01-07 21:16:25.641462	302.4	21.6	-90.9	7.9
2025-01-07 21:16:26.800143	302.7	21.6	-90.7	9.5
2025-01-07 21:16:27.952489	303.0	21.5	-90.4	9.8
2025-01-07 21:16:29.114510	303.2	21.4	-89.8	9.3
2025-01-07 21:16:30.271213	303.5	21.4	-90.6	10.8
2025-01-07 21:16:31.422248	303.8	21.3	-91.1	7.9
2025-01-07 21:16:32.572570	304.0	21.2	-91.1	5.4
2025-01-07 21:16:33.730201	304.3	21.1	-91.3	15.2
2025-01-07 21:16:34.857047	304.5	21.1	-90.9	13.7
2025-01-07 21:16:35.977470	304.8	21.0	-90.4	9.6
2025-01-07 21:16:37.097097	305.0	20.9	-90.4	7.1
2025-01-07 21:16:38.217495	305.3	20.9	-90.4	7.7
2025-01-07 21:16:39.337113	305.5	20.8	-90.3	8.5
2025-01-07 21:16:40.458946	305.8	20.7	-91.5	6.3
2025-01-07 21:16:41.579993	306.0	20.7	-91.1	5.2
2025-01-07 21:16:42.703761	306.2	20.6	-91.3	4.5
2025-01-07 21:16:43.837192	306.5	20.5	-91.2	8.2
2025-01-07 21:16:44.992039	306.7	20.4	-91.0	6.4
2025-01-07 21:16:46.139789	307.0	20.4	-90.6	6.3
2025-01-07 21:16:47.295318	307.2	20.3	-90.6	6.9
2025-01-07 21:16:48.447770	307.5	20.2	-90.5	5.1
2025-01-07 21:16:49.607135	307.7	20.1	-90.8	7.0
2025-01-07 21:16:50.758004	307.9	20.1	-90.9	7.9
2025-01-07 21:16:51.919549	308.2	20.0	-91.0	9.1
2025-01-07 21:16:53.075514	308.4	19.9	-90.1	6.0
2025-01-07 21:16:54.229514	308.7	19.8	-90.2	6.2
2025-01-07 21:16:55.387293	308.9	19.7	-90.3	5.4
2025-01-07 21:16:56.535000	309.1	19.7	-91.4	4.0
2025-01-07 21:16:57.683486	309.4	19.6	-91.5	8.5
2025-01-07 21:16:58.836961	309.6	19.5	-91.3	7.5
2025-01-07 21:16:59.991636	309.8	19.4	-90.8	7.6
2025-01-07 21:17:01.135796	310.1	19.4	-90.6	7.9
2025-01-07 21:17:02.287799	310.3	19.3	-90.4	7.9
2025-01-07 21:17:03.437694	310.5	19.2	-90.9	7.4
2025-01-07 21:17:04.587572	310.7	19.1	-90.9	7.5
2025-01-07 21:17:05.733396	311.0	19.0	-91.2	8.2
2025-01-07 21:17:06.865234	311.2	19.0	-90.7	6.7
2025-01-07 21:17:08.002211	311.4	18.9	-91.2	6.5
2025-01-07 21:17:09.143479	311.6	18.8	-90.3	5.0
2025-01-07 21:17:10.273731	311.8	18.7	-90.7	7.4
2025-01-07 21:17:11.416929	312.1	18.7	-90.6	5.0
2025-01-07 21:17:12.564936	312.3	18.6	-90.9	7.7
2025-01-07 21:17:13.708339	312.5	18.5	-91.0	9.7
2025-01-07 21:17:14.851433	312.7	18.4	-90.9	7.6
2025-01-07 21:17:16.003912	312.9	18.3	-89.9	6.1
2025-01-07 21:17:17.159137	313.1	18.3	-89.3	6.0
2025-01-07 21:17:18.306818	313.4	18.2	-89.3	6.5
2025-01-07 21:17:19.467743	313.6	18.1	-91.0	7.6
2025-01-07 21:17:20.618424	313.8	18.0	-91.5	5.6
2025-01-07 21:17:21.777098	314.0	17.9	-91.4	7.0
2025-01-07 21:17:22.928658	314.2	17.9	-91.7	5.9
2025-01-07 21:17:24.080062	314.4	17.8	-91.4	7.7
2025-01-07 21:17:25.235545	314.6	17.7	-91.2	9.9
2025-01-07 21:17:26.395050	314.8	17.6	-91.8	13.7
2025-01-07 21:17:27.551667	315.0	17.5	-91.5	8.1
2025-01-07 21:17:28.698489	315.2	17.4	-91.6	6.8
2025-01-07 21:17:29.858313	315.4	17.4	-91.3	5.9
2025-01-07 21:17:31.012853	315.6	17.3	-91.4	8.0
2025-01-07 21:17:32.165709	315.8	17.2	-91.2	7.4
2025-01-07 21:17:33.312652	316.0	17.1	-91.4	8.3
2025-01-07 21:17:34.457637	316.2	17.0	-89.7	14.1
2025-01-07 21:17:35.583993	316.4	17.0	-91.6	6.5
2025-01-07 21:17:36.732751	316.6	16.9	-91.6	5.3
2025-01-07 21:17:37.871565	316.8	16.8	-91.9	5.4
2025-01-07 21:17:39.017890	317.0	16.7	-91.5	4.4
2025-01-07 21:17:40.152137	317.2	16.6	-90.7	4.7
2025-01-07 21:17:41.291710	317.4	16.5	-91.2	4.1
2025-01-07 21:17:42.444066	317.6	16.5	-91.8	8.1
2025-01-07 21:17:43.597784	317.8	16.4	-91.7	5.1
2025-01-07 21:17:44.746788	318.0	16.3	-91.7	10.3
2025-01-07 21:17:45.907235	318.2	16.2	-91.6	4.3
2025-01-07 21:17:47.059898	318.3	16.1	-90.9	4.0
2025-01-07 21:17:48.212346	318.5	16.1	-90.8	5.6
2025-01-07 21:17:49.367846	318.7	16.0	-91.1	7.8
2025-01-07 21:17:50.517977	318.9	15.9	-91.3	5.3
2025-01-07 21:17:51.672412	319.1	15.8	-91.1	6.6
2025-01-07 21:17:52.828468	319.3	15.7	-91.3	5.8
2025-01-07 21:17:54.014397	319.5	15.6	-91.7	7.6
2025-01-07 21:17:55.155085	319.6	15.6	-90.9	10.6
2025-01-07 21:17:56.284165	319.8	15.5	-90.9	9.2
2025-01-07 21:17:57.437137	320.0	15.4	-91.1	7.5
2025-01-07 21:17:58.577460	320.2	15.3	-91.9	10.0
2025-01-07 21:17:59.736814	320.3	15.2	-91.5	7.4
2025-01-07 21:18:00.872180	320.5	15.2	-91.7	4.3
2025-01-07 21:18:02.023097	320.7	15.1	-91.5	6.7
2025-01-07 21:18:03.179916	320.9	15.0	-90.9	7.6
2025-01-07 21:18:04.332570	321.0	14.9	-90.7	5.6
2025-01-07 21:18:05.484626	321.2	14.8	-91.1	6.1
2025-01-07 21:18:06.641202	321.4	14.7	-91.5	6.2
2025-01-07 21:18:07.794157	321.6	14.7	-91.2	6.2
#Closed at: 2025-01-07 21:11:27.601300