passes_logs/2025/01/07/LEX_Murmansk/LEX_Murmansk__20250107_154119_NOAA_19_rec.log

#Pass ID: 20250107_154119_NOAA 19
#Satellite: NOAA 19
#Configuration: NOAA 19
#Start time: 2025-01-07 15:41:14.859948

#LorettStation: 1.0.0 05.05.2024
#Station: LEX_Murmansk
#Location: 33.156738 lon 68.926811 lat
#TLE: 1 33591U 09005A   25006.86236638  .00000398  00000+0  23653-3 0  9991
#TLE: 2 33591  99.0211  70.5614 0014662  79.2072 281.0749 14.13253225820137

#Time	Az	El	Level	SNR
2025-01-07 15:41:27.115269	93.1	16.2	-90.4	5.6
2025-01-07 15:41:28.283462	92.9	16.3	-89.3	7.2
2025-01-07 15:41:29.444666	92.8	16.4	-91.5	10.9
2025-01-07 15:41:30.605922	92.7	16.5	-91.0	10.9
2025-01-07 15:41:31.766091	92.5	16.6	-90.9	7.2
2025-01-07 15:41:32.930253	92.4	16.7	-91.1	8.4
2025-01-07 15:41:34.094532	92.3	16.8	-91.2	4.0
2025-01-07 15:41:35.253753	92.1	16.9	-91.1	4.3
2025-01-07 15:41:36.416052	92.0	17.1	-90.6	8.6
2025-01-07 15:41:37.581862	91.8	17.2	-90.6	7.4
2025-01-07 15:41:38.744944	91.7	17.3	-90.3	5.2
2025-01-07 15:41:39.900236	91.6	17.4	-90.4	4.7
2025-01-07 15:41:41.064806	91.4	17.5	-90.9	0.9
2025-01-07 15:41:42.226607	91.3	17.6	-90.6	1.1
2025-01-07 15:41:43.391130	91.1	17.7	-91.0	3.6
2025-01-07 15:41:44.542605	91.0	17.9	-90.2	6.3
2025-01-07 15:41:45.705316	90.9	18.0	-91.1	5.9
2025-01-07 15:41:46.866940	90.7	18.1	-91.2	7.2
2025-01-07 15:41:48.027528	90.6	18.2	-91.5	10.6
2025-01-07 15:41:49.195421	90.4	18.3	-91.3	5.5
2025-01-07 15:41:50.352443	90.3	18.4	-91.2	3.8
2025-01-07 15:41:51.517638	90.1	18.6	-91.2	4.0
2025-01-07 15:41:52.681431	90.0	18.7	-91.6	6.4
2025-01-07 15:41:53.840111	89.8	18.8	-91.3	9.7
2025-01-07 15:41:55.001166	89.6	18.9	-91.3	8.4
2025-01-07 15:41:56.176244	89.5	19.0	-91.3	7.3
2025-01-07 15:41:57.337876	89.3	19.2	-91.1	4.4
2025-01-07 15:41:58.508119	89.2	19.3	-91.5	4.0
2025-01-07 15:41:59.669296	89.0	19.4	-91.0	2.0
2025-01-07 15:42:00.817116	88.8	19.5	-91.4	3.6
2025-01-07 15:42:01.981808	88.7	19.6	-91.5	2.8
2025-01-07 15:42:03.134954	88.5	19.8	-90.8	5.2
2025-01-07 15:42:04.302252	88.4	19.9	-90.4	11.6
2025-01-07 15:42:05.435633	88.2	20.0	-91.2	8.7
2025-01-07 15:42:06.555992	88.0	20.1	-91.5	10.4
2025-01-07 15:42:07.676982	87.9	20.2	-91.5	7.3
2025-01-07 15:42:08.797025	87.7	20.4	-91.3	4.6
2025-01-07 15:42:09.917385	87.5	20.5	-91.2	7.6
2025-01-07 15:42:11.038733	87.4	20.6	-90.1	5.4
2025-01-07 15:42:12.159389	87.2	20.7	-90.8	9.9
2025-01-07 15:42:13.282897	87.0	20.8	-90.8	11.4
2025-01-07 15:42:14.417584	86.8	21.0	-90.7	8.4
2025-01-07 15:42:15.579167	86.7	21.1	-91.3	6.7
2025-01-07 15:42:16.730467	86.5	21.2	-90.9	2.5
2025-01-07 15:42:17.888857	86.3	21.3	-90.7	6.2
2025-01-07 15:42:19.040650	86.1	21.5	-91.0	3.1
2025-01-07 15:42:20.201062	85.9	21.6	-90.8	2.7
2025-01-07 15:42:21.331319	85.8	21.7	-90.7	5.0
2025-01-07 15:42:22.478158	85.6	21.8	-90.9	6.3
2025-01-07 15:42:23.635426	85.4	22.0	-91.3	11.0
2025-01-07 15:42:24.774306	85.2	22.1	-91.3	10.6
2025-01-07 15:42:25.926511	85.0	22.2	-90.8	10.2
2025-01-07 15:42:27.091796	84.8	22.3	-90.3	9.3
2025-01-07 15:42:28.250783	84.6	22.5	-90.2	1.7
2025-01-07 15:42:29.409853	84.4	22.6	-90.8	2.3
2025-01-07 15:42:30.574522	84.2	22.7	-90.7	8.8
2025-01-07 15:42:31.736036	84.0	22.9	-90.8	4.0
2025-01-07 15:42:32.899244	83.8	23.0	-91.5	5.0
2025-01-07 15:42:34.059234	83.6	23.1	-89.7	3.3
2025-01-07 15:42:35.216146	83.4	23.2	-91.2	1.7
2025-01-07 15:42:36.375320	83.2	23.4	-91.3	2.3
2025-01-07 15:42:37.534280	83.0	23.5	-91.6	2.4
2025-01-07 15:42:38.697692	82.8	23.6	-91.5	3.2
2025-01-07 15:42:39.857615	82.6	23.8	-91.2	2.6
2025-01-07 15:42:41.019575	82.3	23.9	-91.6	5.6
2025-01-07 15:42:42.183570	82.1	24.0	-91.1	6.2
2025-01-07 15:42:43.344979	81.9	24.2	-91.1	7.9
2025-01-07 15:42:44.502825	81.7	24.3	-91.3	9.8
2025-01-07 15:42:45.656117	81.5	24.4	-91.6	4.8
2025-01-07 15:42:46.815664	81.2	24.5	-91.5	5.1
2025-01-07 15:42:47.980821	81.0	24.7	-91.4	4.0
2025-01-07 15:42:49.146317	80.8	24.8	-91.1	3.7
2025-01-07 15:42:50.309956	80.6	24.9	-90.9	4.6
2025-01-07 15:42:51.469711	80.3	25.1	-91.4	6.3
2025-01-07 15:42:52.631822	80.1	25.2	-91.5	5.7
2025-01-07 15:42:53.792564	79.9	25.3	-91.4	1.8
2025-01-07 15:42:54.945423	79.6	25.5	-91.8	2.1
2025-01-07 15:42:56.106271	79.4	25.6	-91.4	0.7
2025-01-07 15:42:57.265654	79.1	25.7	-90.9	3.7
2025-01-07 15:42:58.422372	78.9	25.9	-91.1	2.3
2025-01-07 15:42:59.582318	78.6	26.0	-91.4	0.6
2025-01-07 15:43:00.738713	78.4	26.1	-91.4	2.7
2025-01-07 15:43:01.903332	78.1	26.3	-91.4	2.4
2025-01-07 15:43:03.063124	77.9	26.4	-91.0	1.5
2025-01-07 15:43:04.228720	77.6	26.5	-91.0	3.6
2025-01-07 15:43:05.388569	77.4	26.7	-91.4	3.7
2025-01-07 15:43:06.548242	77.1	26.8	-91.5	2.2
2025-01-07 15:43:07.715287	76.9	26.9	-91.6	2.8
2025-01-07 15:43:08.879450	76.6	27.1	-90.9	4.4
2025-01-07 15:43:10.040003	76.3	27.2	-91.6	2.2
2025-01-07 15:43:11.204492	76.1	27.3	-91.1	2.4
2025-01-07 15:43:12.364819	75.8	27.5	-91.3	8.3
2025-01-07 15:43:13.529978	75.5	27.6	-91.5	10.3
2025-01-07 15:43:14.687527	75.2	27.7	-91.6	7.5
2025-01-07 15:43:15.847619	75.0	27.9	-91.2	6.2
2025-01-07 15:43:17.020426	74.7	28.0	-91.8	4.7
2025-01-07 15:43:18.185245	74.4	28.1	-91.4	2.2
2025-01-07 15:43:19.349508	74.1	28.3	-91.2	2.7
2025-01-07 15:43:20.506474	73.8	28.4	-91.6	3.0
2025-01-07 15:43:21.666749	73.5	28.5	-91.8	2.7
2025-01-07 15:43:22.835465	73.2	28.7	-91.8	2.4
2025-01-07 15:43:23.992549	73.0	28.8	-91.7	4.2
2025-01-07 15:43:25.150543	72.7	28.9	-91.6	5.8
2025-01-07 15:43:26.312241	72.4	29.1	-91.6	7.6
2025-01-07 15:43:27.474627	72.1	29.2	-91.5	8.3
2025-01-07 15:43:28.639470	71.8	29.3	-91.3	5.7
2025-01-07 15:43:29.800611	71.4	29.5	-91.7	7.3
2025-01-07 15:43:30.965219	71.1	29.6	-91.7	8.6
2025-01-07 15:43:32.122986	70.8	29.7	-91.2	6.6
2025-01-07 15:43:33.287148	70.5	29.8	-90.8	4.0
2025-01-07 15:43:34.447352	70.2	30.0	-91.2	8.5
2025-01-07 15:43:35.605058	69.9	30.1	-91.2	9.5
2025-01-07 15:43:36.768286	69.6	30.2	-91.7	9.9
2025-01-07 15:43:37.931114	69.2	30.4	-91.6	13.2
2025-01-07 15:43:39.094832	68.9	30.5	-91.6	11.9
2025-01-07 15:43:40.261010	68.6	30.6	-91.5	7.0
2025-01-07 15:43:41.423381	68.2	30.7	-91.5	7.3
2025-01-07 15:43:42.584429	67.9	30.9	-91.5	6.1
2025-01-07 15:43:43.747645	67.6	31.0	-91.6	3.1
2025-01-07 15:43:44.909270	67.2	31.1	-90.5	4.3
2025-01-07 15:43:46.071696	66.9	31.2	-91.4	6.2
2025-01-07 15:43:47.231917	66.5	31.4	-91.5	1.9
2025-01-07 15:43:48.396414	66.2	31.5	-91.6	6.0
2025-01-07 15:43:49.556588	65.8	31.6	-91.3	8.7
2025-01-07 15:43:50.721501	65.5	31.7	-91.2	11.4
2025-01-07 15:43:51.883722	65.1	31.8	-91.6	14.7
2025-01-07 15:43:53.051626	64.8	32.0	-91.4	15.6
2025-01-07 15:43:54.211525	64.4	32.1	-91.1	14.6
2025-01-07 15:43:55.371986	64.1	32.2	-91.1	13.7
2025-01-07 15:43:56.534876	63.7	32.3	-91.2	12.3
2025-01-07 15:43:57.693160	63.3	32.4	-91.5	9.5
2025-01-07 15:43:58.860848	62.9	32.6	-91.2	7.6
2025-01-07 15:44:00.016170	62.6	32.7	-91.0	10.5
2025-01-07 15:44:01.168119	62.2	32.8	-91.2	9.4
2025-01-07 15:44:02.323300	61.8	32.9	-91.2	8.3
2025-01-07 15:44:03.490025	61.4	33.0	-91.4	15.8
2025-01-07 15:44:04.665695	61.1	33.1	-91.4	17.4
2025-01-07 15:44:05.829736	60.7	33.2	-92.0	15.4
2025-01-07 15:44:06.991721	60.3	33.3	-91.6	17.5
2025-01-07 15:44:08.159407	59.9	33.4	-91.1	12.9
2025-01-07 15:44:09.328634	59.5	33.5	-91.5	12.2
2025-01-07 15:44:10.485358	59.1	33.6	-91.7	12.0
2025-01-07 15:44:11.645589	58.7	33.8	-91.5	9.2
2025-01-07 15:44:12.808179	58.3	33.9	-91.4	6.3
2025-01-07 15:44:13.970361	57.9	34.0	-91.6	6.6
2025-01-07 15:44:15.134562	57.5	34.1	-91.5	4.2
2025-01-07 15:44:16.296513	57.1	34.2	-91.2	4.5
2025-01-07 15:44:17.459072	56.6	34.2	-91.2	6.1
2025-01-07 15:44:18.625548	56.2	34.3	-91.4	7.6
2025-01-07 15:44:19.789519	55.8	34.4	-91.4	8.6
2025-01-07 15:44:20.948510	55.4	34.5	-91.7	10.0
2025-01-07 15:44:22.113232	55.0	34.6	-91.5	14.1
2025-01-07 15:44:23.274058	54.5	34.7	-91.4	18.3
2025-01-07 15:44:24.435469	54.1	34.8	-91.5	18.8
2025-01-07 15:44:25.592635	53.7	34.9	-91.5	17.9
2025-01-07 15:44:26.745301	53.3	35.0	-91.8	15.4
2025-01-07 15:44:27.908311	52.8	35.0	-91.3	12.5
2025-01-07 15:44:29.076182	52.4	35.1	-91.5	11.2
2025-01-07 15:44:30.240827	52.0	35.2	-91.1	5.3
2025-01-07 15:44:31.404953	51.5	35.3	-91.5	8.2
2025-01-07 15:44:32.569670	51.1	35.4	-91.5	10.6
2025-01-07 15:44:33.737110	50.6	35.4	-91.7	5.8
2025-01-07 15:44:34.905594	50.2	35.5	-91.3	8.9
2025-01-07 15:44:36.061972	49.7	35.6	-91.0	12.4
2025-01-07 15:44:37.229892	49.3	35.6	-90.7	9.1
2025-01-07 15:44:38.388936	48.8	35.7	-90.5	9.3
2025-01-07 15:44:39.556183	48.4	35.8	-90.7	11.0
2025-01-07 15:44:40.711681	47.9	35.8	-91.0	13.9
2025-01-07 15:44:41.870769	47.5	35.9	-91.2	17.0
2025-01-07 15:44:43.000877	47.0	36.0	-91.3	18.5
2025-01-07 15:44:44.121307	46.6	36.0	-91.7	17.1
2025-01-07 15:44:45.242384	46.1	36.1	-90.9	12.3
2025-01-07 15:44:46.362361	45.7	36.1	-91.5	11.5
2025-01-07 15:44:47.483929	45.2	36.2	-91.7	11.5
2025-01-07 15:44:48.604939	44.8	36.2	-91.2	7.8
2025-01-07 15:44:49.725462	44.3	36.3	-91.9	6.3
2025-01-07 15:44:50.850059	43.9	36.3	-91.7	6.2
2025-01-07 15:44:51.986253	43.4	36.3	-91.7	6.4
2025-01-07 15:44:53.145459	42.9	36.4	-91.0	6.3
2025-01-07 15:44:54.291114	42.5	36.4	-91.2	2.3
2025-01-07 15:44:55.457549	42.0	36.5	-91.8	4.0
2025-01-07 15:44:56.614012	41.5	36.5	-91.9	5.9
2025-01-07 15:44:57.784755	41.1	36.5	-91.5	4.5
2025-01-07 15:44:58.947827	40.6	36.6	-91.3	5.9
2025-01-07 15:45:00.114130	40.1	36.6	-91.1	7.7
2025-01-07 15:45:01.265152	39.6	36.6	-91.5	7.6
2025-01-07 15:45:02.426444	39.1	36.6	-91.4	9.7
2025-01-07 15:45:03.583378	38.7	36.7	-91.4	8.8
2025-01-07 15:45:04.747221	38.2	36.7	-91.6	9.6
2025-01-07 15:45:05.907285	37.7	36.7	-91.8	14.5
2025-01-07 15:45:07.070045	37.2	36.7	-91.2	15.3
2025-01-07 15:45:08.232654	36.7	36.7	-91.2	15.0
2025-01-07 15:45:09.390309	36.3	36.7	-91.2	13.4
2025-01-07 15:45:10.556033	35.8	36.7	-91.6	12.0
2025-01-07 15:45:11.715254	35.3	36.7	-91.7	12.8
2025-01-07 15:45:12.883653	34.8	36.7	-91.6	16.3
2025-01-07 15:45:14.042044	34.3	36.7	-91.6	15.9
2025-01-07 15:45:15.203034	33.9	36.7	-91.6	12.6
2025-01-07 15:45:16.365056	33.4	36.7	-91.2	11.8
2025-01-07 15:45:17.526102	32.9	36.7	-91.7	12.8
2025-01-07 15:45:18.688242	32.4	36.7	-91.4	10.0
2025-01-07 15:45:19.846527	31.9	36.7	-91.6	10.2
2025-01-07 15:45:21.008206	31.4	36.7	-91.5	9.5
2025-01-07 15:45:22.166751	31.0	36.7	-91.1	8.2
2025-01-07 15:45:23.323388	30.5	36.7	-91.5	6.8
2025-01-07 15:45:24.481230	30.0	36.6	-91.6	8.4
2025-01-07 15:45:25.636050	29.5	36.6	-91.7	10.3
2025-01-07 15:45:26.780256	29.1	36.6	-91.6	5.2
2025-01-07 15:45:27.901926	28.6	36.6	-92.0	6.9
2025-01-07 15:45:29.021468	28.1	36.5	-91.5	5.9
2025-01-07 15:45:30.142090	27.7	36.5	-91.8	8.9
2025-01-07 15:45:31.262920	27.2	36.5	-91.5	4.8
2025-01-07 15:45:32.383721	26.8	36.4	-91.2	7.3
2025-01-07 15:45:33.504387	26.3	36.4	-92.0	9.4
2025-01-07 15:45:34.628428	25.9	36.4	-91.4	9.9
2025-01-07 15:45:35.749727	25.4	36.3	-92.0	4.2
2025-01-07 15:45:36.898028	24.9	36.3	-91.5	5.4
2025-01-07 15:45:38.049625	24.5	36.2	-90.3	8.0
2025-01-07 15:45:39.206194	24.0	36.2	-90.7	5.4
2025-01-07 15:45:40.365480	23.6	36.1	-91.3	5.7
2025-01-07 15:45:41.530855	23.1	36.1	-91.3	7.0
2025-01-07 15:45:42.690186	22.6	36.0	-91.2	5.7
2025-01-07 15:45:43.856228	22.2	36.0	-91.4	3.8
2025-01-07 15:45:45.018236	21.7	35.9	-91.8	6.3
2025-01-07 15:45:46.175224	21.3	35.8	-91.2	6.6
2025-01-07 15:45:47.333245	20.8	35.8	-91.1	4.0
2025-01-07 15:45:48.494627	20.3	35.7	-91.6	7.4
2025-01-07 15:45:49.661896	19.9	35.6	-91.9	7.3
2025-01-07 15:45:50.818887	19.4	35.6	-92.0	5.1
2025-01-07 15:45:51.984978	19.0	35.5	-91.7	7.9
2025-01-07 15:45:53.148176	18.5	35.4	-91.8	8.0
2025-01-07 15:45:54.312989	18.1	35.4	-91.6	5.6
2025-01-07 15:45:55.471447	17.7	35.3	-91.8	4.9
2025-01-07 15:45:56.628493	17.2	35.2	-92.1	9.9
2025-01-07 15:45:57.787911	16.8	35.1	-92.0	6.6
2025-01-07 15:45:58.951787	16.4	35.1	-91.7	8.2
2025-01-07 15:46:00.117541	15.9	35.0	-91.7	8.4
2025-01-07 15:46:01.270550	15.5	34.9	-91.7	4.7
2025-01-07 15:46:02.433760	15.1	34.8	-91.8	6.9
2025-01-07 15:46:03.590967	14.6	34.7	-91.8	9.3
2025-01-07 15:46:04.755634	14.2	34.6	-91.6	7.7
2025-01-07 15:46:05.912002	13.8	34.5	-91.6	9.0
2025-01-07 15:46:07.075479	13.4	34.4	-91.3	10.0
2025-01-07 15:46:08.237662	13.0	34.3	-91.2	4.5
2025-01-07 15:46:09.393873	12.5	34.3	-91.8	5.6
2025-01-07 15:46:10.551832	12.1	34.2	-91.6	9.4
2025-01-07 15:46:11.684202	11.7	34.1	-91.8	5.8
2025-01-07 15:46:12.804767	11.3	34.0	-92.0	3.7
2025-01-07 15:46:13.926151	11.0	33.9	-91.6	6.6
2025-01-07 15:46:15.046878	10.6	33.8	-91.1	8.6
2025-01-07 15:46:16.167888	10.2	33.7	-91.4	6.4
2025-01-07 15:46:17.287811	9.8	33.6	-91.2	5.1
2025-01-07 15:46:18.407734	9.4	33.5	-91.7	6.2
2025-01-07 15:46:19.528488	9.0	33.4	-91.1	8.8
2025-01-07 15:46:20.654837	8.7	33.3	-91.5	7.6
2025-01-07 15:46:21.802479	8.3	33.2	-91.6	3.1
2025-01-07 15:46:22.946909	7.9	33.0	-91.7	4.7
2025-01-07 15:46:24.081961	7.5	32.9	-91.2	6.7
2025-01-07 15:46:25.230171	7.1	32.8	-91.2	4.3
2025-01-07 15:46:26.350039	6.8	32.7	-91.0	2.1
2025-01-07 15:46:27.499749	6.4	32.6	-91.7	6.6
2025-01-07 15:46:28.645721	6.0	32.5	-91.5	7.7
2025-01-07 15:46:29.802112	5.7	32.4	-91.4	3.1
2025-01-07 15:46:30.951027	5.3	32.3	-91.5	4.9
2025-01-07 15:46:32.100169	5.0	32.1	-90.9	7.7
2025-01-07 15:46:33.262899	4.6	32.0	-91.0	5.2
2025-01-07 15:46:34.421547	4.2	31.9	-91.2	5.6
2025-01-07 15:46:35.586217	3.9	31.8	-91.2	10.1
2025-01-07 15:46:36.743220	3.5	31.7	-91.2	5.4
2025-01-07 15:46:37.906996	3.2	31.6	-90.9	8.5
2025-01-07 15:46:39.065510	2.8	31.4	-90.8	7.7
2025-01-07 15:46:40.232478	2.5	31.3	-90.6	5.4
2025-01-07 15:46:41.396183	2.1	31.2	-91.6	7.6
2025-01-07 15:46:42.559500	1.8	31.1	-91.8	6.5
2025-01-07 15:46:43.728547	1.5	30.9	-91.5	6.1
2025-01-07 15:46:44.898119	1.1	30.8	-91.7	6.0
2025-01-07 15:46:46.053349	0.8	30.7	-91.5	9.3
2025-01-07 15:46:47.215507	0.5	30.6	-91.5	10.5
2025-01-07 15:46:48.380924	0.1	30.4	-91.3	4.2
2025-01-07 15:46:49.540219	359.8	30.3	-91.4	10.5
2025-01-07 15:46:50.708047	359.5	30.2	-91.1	9.6
2025-01-07 15:46:51.868446	359.2	30.0	-91.2	6.4
2025-01-07 15:46:53.027837	358.8	29.9	-91.3	7.3
2025-01-07 15:46:54.188633	358.5	29.8	-91.1	5.4
2025-01-07 15:46:55.351940	358.2	29.7	-91.3	3.2
2025-01-07 15:46:56.510919	357.9	29.5	-91.8	6.0
2025-01-07 15:46:57.671948	357.6	29.4	-92.1	6.5
2025-01-07 15:46:58.831983	357.3	29.3	-91.9	5.3
2025-01-07 15:46:59.997256	357.0	29.1	-91.6	6.3
2025-01-07 15:47:01.147916	356.7	29.0	-91.2	7.4
2025-01-07 15:47:02.306275	356.4	28.9	-91.6	0.7
2025-01-07 15:47:03.470595	356.1	28.7	-91.6	6.2
2025-01-07 15:47:04.632038	355.8	28.6	-92.0	8.3
2025-01-07 15:47:05.794642	355.5	28.5	-92.0	2.8
2025-01-07 15:47:06.948084	355.2	28.4	-92.0	5.2
2025-01-07 15:47:08.102943	355.0	28.2	-91.7	5.9
2025-01-07 15:47:09.265223	354.7	28.1	-91.6	5.1
2025-01-07 15:47:10.403078	354.4	28.0	-91.7	8.0
2025-01-07 15:47:11.526680	354.1	27.8	-91.2	7.8
2025-01-07 15:47:12.647084	353.9	27.7	-92.0	8.1
2025-01-07 15:47:13.767577	353.6	27.6	-91.9	9.9
2025-01-07 15:47:14.889054	353.3	27.4	-91.7	9.5
2025-01-07 15:47:16.009308	353.1	27.3	-91.6	10.0
2025-01-07 15:47:17.131692	352.8	27.2	-91.5	8.4
2025-01-07 15:47:18.256729	352.6	27.1	-91.6	9.8
2025-01-07 15:47:19.389279	352.3	26.9	-91.2	7.8
2025-01-07 15:47:20.546544	352.1	26.8	-92.1	8.9
2025-01-07 15:47:21.699286	351.8	26.7	-91.7	8.8
2025-01-07 15:47:22.859149	351.5	26.5	-91.4	7.8
2025-01-07 15:47:24.012343	351.3	26.4	-90.9	8.3
2025-01-07 15:47:25.175779	351.0	26.3	-91.0	3.3
2025-01-07 15:47:26.337084	350.8	26.1	-90.6	5.9
2025-01-07 15:47:27.494677	350.5	26.0	-90.4	3.8
2025-01-07 15:47:28.652625	350.3	25.9	-90.9	5.2
2025-01-07 15:47:29.778418	350.1	25.7	-91.4	4.2
2025-01-07 15:47:30.924339	349.8	25.6	-91.3	4.4
2025-01-07 15:47:32.072589	349.6	25.5	-91.7	5.0
2025-01-07 15:47:33.217828	349.4	25.3	-91.4	2.5
2025-01-07 15:47:34.367681	349.1	25.2	-91.4	3.5
2025-01-07 15:47:35.525200	348.9	25.1	-91.5	4.7
2025-01-07 15:47:36.681129	348.7	25.0	-91.9	6.9
2025-01-07 15:47:37.836027	348.4	24.8	-92.1	4.9
2025-01-07 15:47:38.994392	348.2	24.7	-92.1	5.4
2025-01-07 15:47:40.157321	348.0	24.6	-91.5	7.4
2025-01-07 15:47:41.322218	347.7	24.4	-91.7	11.0
2025-01-07 15:47:42.481085	347.5	24.3	-91.6	14.3
2025-01-07 15:47:43.640512	347.3	24.2	-91.7	12.1
2025-01-07 15:47:44.800627	347.1	24.0	-91.7	9.4
2025-01-07 15:47:45.967194	346.9	23.9	-91.4	10.7
2025-01-07 15:47:47.122600	346.7	23.8	-91.2	12.5
2025-01-07 15:47:48.279944	346.4	23.6	-91.0	4.6
2025-01-07 15:47:49.443450	346.2	23.5	-91.5	6.2
2025-01-07 15:47:50.605041	346.0	23.4	-91.0	7.0
2025-01-07 15:47:51.770625	345.8	23.3	-91.4	1.6
2025-01-07 15:47:52.928157	345.6	23.1	-91.1	5.8
2025-01-07 15:47:54.090295	345.4	23.0	-90.6	6.9
2025-01-07 15:47:55.250164	345.2	22.9	-90.9	3.9
2025-01-07 15:47:56.409954	345.0	22.7	-91.1	7.0
2025-01-07 15:47:57.565569	344.8	22.6	-91.0	5.8
2025-01-07 15:47:58.728849	344.6	22.5	-91.3	4.6
2025-01-07 15:47:59.891906	344.4	22.4	-91.8	12.9
2025-01-07 15:48:01.046701	344.2	22.2	-91.8	12.8
2025-01-07 15:48:02.210892	344.0	22.1	-91.7	11.0
2025-01-07 15:48:03.368032	343.8	22.0	-91.5	11.9
2025-01-07 15:48:04.528596	343.7	21.8	-91.6	11.0
2025-01-07 15:48:05.691101	343.5	21.7	-92.0	11.4
2025-01-07 15:48:06.855721	343.3	21.6	-91.4	9.1
2025-01-07 15:48:08.020678	343.1	21.5	-91.6	5.2
2025-01-07 15:48:09.183438	342.9	21.3	-90.9	4.2
2025-01-07 15:48:10.334992	342.7	21.2	-91.6	3.1
2025-01-07 15:48:11.497730	342.5	21.1	-91.7	4.5
2025-01-07 15:48:12.656113	342.4	21.0	-91.5	2.8
2025-01-07 15:48:13.818584	342.2	20.8	-91.8	2.6
2025-01-07 15:48:14.982910	342.0	20.7	-91.8	2.5
2025-01-07 15:48:16.161179	341.8	20.6	-91.9	1.5
2025-01-07 15:48:17.316794	341.7	20.5	-91.9	2.4
2025-01-07 15:48:18.477810	341.5	20.3	-91.9	3.1
2025-01-07 15:48:19.642717	341.3	20.2	-92.2	4.1
2025-01-07 15:48:20.804529	341.2	20.1	-92.0	4.9
2025-01-07 15:48:21.969665	341.0	20.0	-91.8	3.9
2025-01-07 15:48:23.128575	340.8	19.9	-90.6	3.8
2025-01-07 15:48:24.291410	340.7	19.7	-91.4	3.3
2025-01-07 15:48:25.452006	340.5	19.6	-91.7	3.1
2025-01-07 15:48:26.611412	340.3	19.5	-92.1	2.4
2025-01-07 15:48:27.778702	340.2	19.4	-91.5	2.4
2025-01-07 15:48:28.940072	340.0	19.3	-91.8	2.0
2025-01-07 15:48:30.097222	339.9	19.1	-90.9	1.7
2025-01-07 15:48:31.227705	339.7	19.0	-90.6	0.5
2025-01-07 15:48:32.349925	339.6	18.9	-91.5	1.8
2025-01-07 15:48:33.470346	339.4	18.8	-92.1	4.1
2025-01-07 15:48:34.591390	339.3	18.7	-92.1	3.0
2025-01-07 15:48:35.711658	339.1	18.6	-91.9	2.8
2025-01-07 15:48:36.832382	339.0	18.4	-91.8	4.0
2025-01-07 15:48:37.954375	338.8	18.3	-91.7	1.4
2025-01-07 15:48:39.080370	338.7	18.2	-91.5	5.3
2025-01-07 15:48:40.226033	338.5	18.1	-90.7	3.2
2025-01-07 15:48:41.382257	338.4	18.0	-91.0	2.0
2025-01-07 15:48:42.529841	338.2	17.9	-91.4	2.5
2025-01-07 15:48:43.698331	338.1	17.8	-91.2	1.1
2025-01-07 15:48:44.858042	338.0	17.6	-91.5	1.0
2025-01-07 15:48:46.017590	337.8	17.5	-91.4	1.4
2025-01-07 15:48:47.177385	337.7	17.4	-91.0	2.3
2025-01-07 15:48:48.344163	337.5	17.3	-91.1	2.6
2025-01-07 15:48:49.507996	337.4	17.2	-91.1	1.4
2025-01-07 15:48:50.669406	337.3	17.1	-91.4	2.2
2025-01-07 15:48:51.829320	337.1	17.0	-91.9	2.7
2025-01-07 15:48:52.989255	337.0	16.8	-91.9	0.7
2025-01-07 15:48:54.152624	336.9	16.7	-91.5	3.3
2025-01-07 15:48:55.312093	336.7	16.6	-91.6	0.6
2025-01-07 15:48:56.474698	336.6	16.5	-91.4	2.6
2025-01-07 15:48:57.623832	336.5	16.4	-92.1	2.4
2025-01-07 15:48:58.786300	336.3	16.3	-91.5	1.0
2025-01-07 15:48:59.936300	336.2	16.2	-91.8	1.8
2025-01-07 15:49:01.058014	336.1	16.1	-91.8	4.0
2025-01-07 15:49:02.217727	335.9	16.0	-91.8	2.5
2025-01-07 15:49:03.367621	335.8	15.9	-91.7	1.8
2025-01-07 15:49:04.515983	335.7	15.7	-91.8	1.5
2025-01-07 15:49:05.672416	335.6	15.6	-91.9	3.2
2025-01-07 15:49:06.828408	335.4	15.5	-91.9	3.6
2025-01-07 15:49:07.986528	335.3	15.4	-91.9	2.6
2025-01-07 15:49:09.148239	335.2	15.3	-91.8	2.5
2025-01-07 15:49:10.418866	335.1	15.2	-92.0	3.5
2025-01-07 15:49:11.583527	335.0	15.1	-92.1	3.1
2025-01-07 15:49:12.740088	334.8	15.0	-91.9	4.6
2025-01-07 15:49:13.897114	334.7	14.9	-92.2	1.7
2025-01-07 15:49:15.060257	334.6	14.8	-92.0	1.7
2025-01-07 15:49:16.224188	334.5	14.7	-91.6	2.6
2025-01-07 15:49:17.377280	334.4	14.6	-91.7	3.1
#Closed at: 2025-01-07 15:41:19.905026