passes_logs/2025/01/07/LEX_Murmansk/LEX_Murmansk__20250107_072100_NOAA_19_rec.log

#Pass ID: 20250107_072100_NOAA 19
#Satellite: NOAA 19
#Configuration: NOAA 19
#Start time: 2025-01-07 07:20:55.363261

#LorettStation: 1.0.0 05.05.2024
#Station: LEX_Murmansk
#Location: 33.156738 lon 68.926811 lat
#TLE: 1 33591U 09005A   25006.86236638  .00000398  00000+0  23653-3 0  9991
#TLE: 2 33591  99.0211  70.5614 0014662  79.2072 281.0749 14.13253225820137

#Time	Az	El	Level	SNR
2025-01-07 07:21:07.551418	34.6	16.1	-92.5	2.4
2025-01-07 07:21:08.672703	34.8	16.2	-92.8	2.1
2025-01-07 07:21:09.792693	34.9	16.3	-92.2	2.0
2025-01-07 07:21:10.915325	35.0	16.4	-92.7	5.2
2025-01-07 07:21:12.053222	35.1	16.5	-92.5	3.1
2025-01-07 07:21:13.202276	35.3	16.7	-92.0	1.2
2025-01-07 07:21:14.352029	35.4	16.8	-92.3	1.8
2025-01-07 07:21:15.505354	35.6	16.9	-92.2	2.9
2025-01-07 07:21:16.661362	35.7	17.0	-92.2	2.2
2025-01-07 07:21:17.816833	35.8	17.1	-92.3	1.4
2025-01-07 07:21:18.973698	36.0	17.2	-92.2	3.3
2025-01-07 07:21:20.124901	36.1	17.3	-91.9	1.4
2025-01-07 07:21:21.273405	36.3	17.4	-92.2	2.9
2025-01-07 07:21:22.428664	36.4	17.5	-92.0	1.5
2025-01-07 07:21:23.590173	36.6	17.7	-91.4	3.1
2025-01-07 07:21:24.739229	36.7	17.8	-92.0	6.1
2025-01-07 07:21:25.887805	36.9	17.9	-92.0	7.5
2025-01-07 07:21:27.039589	37.0	18.0	-92.7	6.5
2025-01-07 07:21:28.196471	37.2	18.1	-92.3	3.0
2025-01-07 07:21:29.348480	37.3	18.2	-92.3	3.3
2025-01-07 07:21:30.504281	37.5	18.3	-92.6	3.8
2025-01-07 07:21:31.655572	37.6	18.4	-91.8	3.9
2025-01-07 07:21:32.807150	37.8	18.6	-92.5	8.1
2025-01-07 07:21:33.960408	37.9	18.7	-92.5	9.7
2025-01-07 07:21:35.114550	38.1	18.8	-92.7	7.1
2025-01-07 07:21:36.264508	38.3	18.9	-92.2	4.3
2025-01-07 07:21:37.412771	38.4	19.0	-91.4	1.7
2025-01-07 07:21:38.565472	38.6	19.1	-92.1	1.5
2025-01-07 07:21:39.718693	38.7	19.3	-92.3	2.9
2025-01-07 07:21:40.865489	38.9	19.4	-92.6	2.5
2025-01-07 07:21:42.019668	39.1	19.5	-92.3	4.4
2025-01-07 07:21:43.175634	39.2	19.6	-92.5	8.9
2025-01-07 07:21:44.327232	39.4	19.7	-92.0	10.9
2025-01-07 07:21:45.476006	39.6	19.8	-92.4	10.1
2025-01-07 07:21:46.633688	39.7	20.0	-92.6	9.4
2025-01-07 07:21:47.792485	39.9	20.1	-92.5	7.1
2025-01-07 07:21:48.946756	40.1	20.2	-91.9	7.9
2025-01-07 07:21:50.103931	40.3	20.3	-91.3	6.2
2025-01-07 07:21:51.257716	40.4	20.4	-91.2	9.7
2025-01-07 07:21:52.409966	40.6	20.6	-91.7	11.3
2025-01-07 07:21:53.564848	40.8	20.7	-92.2	10.9
2025-01-07 07:21:54.716711	41.0	20.8	-92.2	6.2
2025-01-07 07:21:55.866606	41.1	20.9	-92.5	3.4
2025-01-07 07:21:57.029982	41.3	21.1	-92.5	5.0
2025-01-07 07:21:58.184486	41.5	21.2	-92.0	2.7
2025-01-07 07:21:59.329843	41.7	21.3	-91.9	3.7
2025-01-07 07:22:00.454057	41.9	21.4	-92.3	5.6
2025-01-07 07:22:01.575442	42.1	21.5	-92.3	7.9
2025-01-07 07:22:02.694814	42.2	21.7	-92.3	9.5
2025-01-07 07:22:03.816964	42.4	21.8	-92.6	11.3
2025-01-07 07:22:04.937547	42.6	21.9	-92.6	8.7
2025-01-07 07:22:06.058796	42.8	22.0	-92.2	5.0
2025-01-07 07:22:07.178981	43.0	22.1	-92.1	5.6
2025-01-07 07:22:08.302849	43.2	22.3	-92.0	4.4
2025-01-07 07:22:09.444383	43.4	22.4	-92.1	8.8
2025-01-07 07:22:10.601974	43.6	22.5	-92.2	10.3
2025-01-07 07:22:11.745293	43.8	22.6	-92.4	14.8
2025-01-07 07:22:12.909507	44.0	22.8	-92.5	11.8
2025-01-07 07:22:14.061993	44.2	22.9	-92.1	9.7
2025-01-07 07:22:15.213498	44.4	23.0	-91.8	4.8
2025-01-07 07:22:16.363983	44.6	23.1	-92.3	1.9
2025-01-07 07:22:17.517212	44.8	23.3	-92.2	3.4
2025-01-07 07:22:18.668901	45.0	23.4	-92.4	6.2
2025-01-07 07:22:19.827492	45.2	23.5	-92.5	4.0
2025-01-07 07:22:20.979339	45.4	23.6	-92.5	8.9
2025-01-07 07:22:22.128568	45.6	23.8	-92.1	8.9
2025-01-07 07:22:23.286325	45.9	23.9	-92.2	8.5
2025-01-07 07:22:24.442435	46.1	24.0	-92.5	11.0
2025-01-07 07:22:25.603580	46.3	24.2	-92.7	12.0
2025-01-07 07:22:26.758788	46.5	24.3	-92.3	5.9
2025-01-07 07:22:27.911671	46.7	24.4	-92.6	6.2
2025-01-07 07:22:29.064867	47.0	24.5	-92.4	8.0
2025-01-07 07:22:30.213847	47.2	24.7	-92.4	6.9
2025-01-07 07:22:31.360758	47.4	24.8	-92.3	11.3
2025-01-07 07:22:32.517693	47.7	24.9	-92.6	10.9
2025-01-07 07:22:33.667292	47.9	25.1	-92.2	8.0
2025-01-07 07:22:34.813751	48.1	25.2	-91.6	4.8
2025-01-07 07:22:35.954081	48.4	25.3	-91.6	5.0
2025-01-07 07:22:37.088540	48.6	25.4	-91.3	3.0
2025-01-07 07:22:38.236454	48.8	25.6	-91.5	3.2
2025-01-07 07:22:39.375581	49.1	25.7	-91.4	1.9
2025-01-07 07:22:40.527597	49.3	25.8	-91.7	2.4
2025-01-07 07:22:41.681767	49.6	26.0	-91.9	5.0
2025-01-07 07:22:42.822332	49.8	26.1	-91.6	7.3
2025-01-07 07:22:43.974862	50.1	26.2	-92.2	7.2
2025-01-07 07:22:45.127223	50.3	26.4	-92.3	6.6
2025-01-07 07:22:46.290022	50.6	26.5	-92.4	6.4
2025-01-07 07:22:47.441785	50.8	26.6	-91.3	3.8
2025-01-07 07:22:48.597830	51.1	26.7	-91.6	4.3
2025-01-07 07:22:49.752418	51.3	26.9	-91.4	3.3
2025-01-07 07:22:50.908383	51.6	27.0	-91.1	1.5
2025-01-07 07:22:52.057349	51.9	27.1	-90.9	1.8
2025-01-07 07:22:53.204538	52.1	27.3	-91.2	0.6
2025-01-07 07:22:54.344823	52.4	27.4	-91.9	2.4
2025-01-07 07:22:55.471108	52.7	27.5	-92.2	3.2
2025-01-07 07:22:56.618614	52.9	27.7	-92.8	1.9
2025-01-07 07:22:57.758826	53.2	27.8	-92.4	1.9
2025-01-07 07:22:58.897641	53.5	27.9	-92.1	2.8
2025-01-07 07:23:00.054131	53.8	28.0	-92.3	3.5
2025-01-07 07:23:01.194810	54.0	28.2	-92.2	3.3
2025-01-07 07:23:02.325450	54.3	28.3	-91.7	3.3
2025-01-07 07:23:03.461773	54.6	28.4	-91.9	3.5
2025-01-07 07:23:04.618729	54.9	28.6	-92.3	4.0
2025-01-07 07:23:05.773870	55.2	28.7	-92.3	4.9
2025-01-07 07:23:06.916356	55.5	28.8	-92.3	6.4
2025-01-07 07:23:08.069091	55.8	28.9	-92.1	5.7
2025-01-07 07:23:09.221347	56.1	29.1	-91.7	6.8
2025-01-07 07:23:10.378381	56.4	29.2	-91.9	5.2
2025-01-07 07:23:11.526047	56.7	29.3	-92.3	9.4
2025-01-07 07:23:12.686485	57.0	29.5	-92.3	5.6
2025-01-07 07:23:13.842936	57.3	29.6	-92.4	5.3
2025-01-07 07:23:14.998197	57.6	29.7	-92.5	10.2
2025-01-07 07:23:16.154166	57.9	29.8	-92.1	9.6
2025-01-07 07:23:17.311645	58.2	30.0	-91.9	12.5
2025-01-07 07:23:18.458870	58.5	30.1	-91.7	14.8
2025-01-07 07:23:19.612689	58.8	30.2	-92.0	12.4
2025-01-07 07:23:20.768449	59.2	30.4	-92.3	9.4
2025-01-07 07:23:21.925052	59.5	30.5	-92.3	6.3
2025-01-07 07:23:23.075973	59.8	30.6	-92.5	5.4
2025-01-07 07:23:24.230871	60.1	30.7	-92.3	2.0
2025-01-07 07:23:25.384364	60.5	30.9	-92.1	3.1
2025-01-07 07:23:26.542873	60.8	31.0	-92.9	5.3
2025-01-07 07:23:27.696780	61.2	31.1	-92.7	5.5
2025-01-07 07:23:28.847811	61.5	31.2	-92.3	5.0
2025-01-07 07:23:30.000299	61.8	31.3	-92.8	9.8
2025-01-07 07:23:31.153045	62.2	31.5	-92.4	12.9
2025-01-07 07:23:32.300484	62.5	31.6	-92.4	14.9
2025-01-07 07:23:33.453371	62.9	31.7	-92.5	15.0
2025-01-07 07:23:34.608739	63.2	31.8	-92.8	13.1
2025-01-07 07:23:35.763728	63.6	31.9	-92.4	9.6
2025-01-07 07:23:36.915170	63.9	32.1	-92.7	10.3
2025-01-07 07:23:38.070877	64.3	32.2	-92.5	10.1
2025-01-07 07:23:39.224241	64.7	32.3	-92.7	6.2
2025-01-07 07:23:40.373365	65.0	32.4	-92.0	8.6
2025-01-07 07:23:41.531314	65.4	32.5	-92.3	12.2
2025-01-07 07:23:42.688508	65.8	32.6	-92.6	13.1
2025-01-07 07:23:43.833459	66.1	32.8	-92.6	12.3
2025-01-07 07:23:44.989570	66.5	32.9	-92.7	14.7
2025-01-07 07:23:46.141870	66.9	33.0	-92.7	16.0
2025-01-07 07:23:47.298822	67.3	33.1	-92.5	13.3
2025-01-07 07:23:48.452314	67.6	33.2	-92.1	11.8
2025-01-07 07:23:49.609720	68.0	33.3	-92.6	11.0
2025-01-07 07:23:50.764858	68.4	33.4	-92.5	5.7
2025-01-07 07:23:51.915478	68.8	33.5	-92.0	5.9
2025-01-07 07:23:53.063753	69.2	33.6	-92.0	4.7
2025-01-07 07:23:54.220328	69.6	33.7	-92.1	3.8
2025-01-07 07:23:55.378116	70.0	33.8	-91.9	6.0
2025-01-07 07:23:56.533528	70.4	33.9	-92.1	10.1
2025-01-07 07:23:57.680784	70.8	34.0	-92.1	10.6
2025-01-07 07:23:58.837725	71.2	34.1	-92.2	12.3
2025-01-07 07:23:59.993195	71.6	34.2	-92.4	16.0
2025-01-07 07:24:01.141267	72.0	34.3	-92.0	17.0
2025-01-07 07:24:02.291171	72.4	34.4	-92.2	15.1
2025-01-07 07:24:03.441809	72.8	34.5	-92.2	15.4
2025-01-07 07:24:04.596150	73.2	34.6	-92.2	14.6
2025-01-07 07:24:05.747409	73.7	34.7	-92.1	10.7
2025-01-07 07:24:06.907748	74.1	34.8	-92.1	12.2
2025-01-07 07:24:08.065234	74.5	34.9	-92.1	14.0
2025-01-07 07:24:09.220439	74.9	35.0	-92.6	9.1
2025-01-07 07:24:10.379834	75.4	35.0	-92.8	6.8
2025-01-07 07:24:11.531483	75.8	35.1	-92.8	12.2
2025-01-07 07:24:12.698779	76.2	35.2	-92.6	11.1
2025-01-07 07:24:13.854527	76.7	35.3	-92.7	10.3
2025-01-07 07:24:15.006942	77.1	35.4	-93.0	15.4
2025-01-07 07:24:16.158427	77.5	35.5	-92.1	14.3
2025-01-07 07:24:17.315012	78.0	35.5	-92.4	14.7
2025-01-07 07:24:18.469544	78.4	35.6	-92.6	15.6
2025-01-07 07:24:19.622268	78.9	35.7	-92.6	15.0
2025-01-07 07:24:20.777757	79.3	35.7	-92.8	9.8
2025-01-07 07:24:21.934014	79.8	35.8	-92.6	12.9
2025-01-07 07:24:23.084618	80.2	35.9	-92.7	13.1
2025-01-07 07:24:24.238557	80.7	35.9	-92.4	8.8
2025-01-07 07:24:25.388536	81.1	36.0	-92.4	10.6
2025-01-07 07:24:26.544219	81.6	36.1	-92.6	7.8
2025-01-07 07:24:27.697141	82.0	36.1	-92.4	4.6
2025-01-07 07:24:28.863706	82.5	36.2	-92.3	3.0
2025-01-07 07:24:30.019630	83.0	36.2	-92.3	5.1
2025-01-07 07:24:31.177929	83.4	36.3	-92.4	4.3
2025-01-07 07:24:32.332661	83.9	36.4	-92.5	2.1
2025-01-07 07:24:33.490847	84.4	36.4	-89.2	4.4
2025-01-07 07:24:34.645906	84.8	36.4	-93.1	8.4
2025-01-07 07:24:35.803905	85.3	36.5	-92.9	7.2
2025-01-07 07:24:36.957894	85.8	36.5	-92.9	8.1
2025-01-07 07:24:38.116501	86.2	36.6	-92.7	11.7
2025-01-07 07:24:39.272358	86.7	36.6	-92.7	12.3
2025-01-07 07:24:40.425657	87.2	36.7	-88.7	8.4
2025-01-07 07:24:41.574194	87.6	36.7	-92.8	14.9
2025-01-07 07:24:42.723955	88.1	36.7	-92.6	15.3
2025-01-07 07:24:43.875525	88.6	36.8	-92.9	17.1
2025-01-07 07:24:45.033139	89.1	36.8	-93.0	16.0
2025-01-07 07:24:46.189851	89.5	36.8	-89.7	14.0
2025-01-07 07:24:47.340828	90.0	36.8	-89.3	12.6
2025-01-07 07:24:48.487531	90.5	36.9	-92.5	17.2
2025-01-07 07:24:49.643580	91.0	36.9	-92.5	15.4
2025-01-07 07:24:50.797486	91.5	36.9	-92.9	12.9
2025-01-07 07:24:51.957753	91.9	36.9	-92.8	14.2
2025-01-07 07:24:53.121423	92.4	36.9	-92.9	12.9
2025-01-07 07:24:54.275807	92.9	36.9	-92.6	6.7
2025-01-07 07:24:55.425815	93.4	37.0	-92.9	10.2
2025-01-07 07:24:56.577617	93.9	37.0	-92.6	11.2
2025-01-07 07:24:57.743906	94.4	37.0	-93.0	5.8
2025-01-07 07:24:58.896293	94.8	37.0	-93.0	6.1
2025-01-07 07:25:00.058497	95.3	37.0	-92.8	6.9
2025-01-07 07:25:01.198498	95.8	37.0	-92.7	4.1
2025-01-07 07:25:02.344231	96.3	37.0	-92.9	3.1
2025-01-07 07:25:03.509453	96.8	37.0	-93.1	7.7
2025-01-07 07:25:04.659333	97.2	36.9	-92.0	5.3
2025-01-07 07:25:05.813290	97.7	36.9	-92.4	5.4
2025-01-07 07:25:06.972056	98.2	36.9	-92.2	7.7
2025-01-07 07:25:08.127619	98.7	36.9	-91.8	5.6
2025-01-07 07:25:09.285732	99.2	36.9	-92.0	5.7
2025-01-07 07:25:10.440882	99.6	36.9	-92.5	7.9
2025-01-07 07:25:11.601456	100.1	36.9	-92.5	9.3
2025-01-07 07:25:12.751890	100.6	36.8	-92.7	6.8
2025-01-07 07:25:13.905974	101.1	36.8	-92.9	10.0
2025-01-07 07:25:15.053468	101.6	36.8	-93.0	14.0
2025-01-07 07:25:16.200999	102.0	36.7	-92.4	13.4
2025-01-07 07:25:17.322083	102.5	36.7	-92.6	14.3
2025-01-07 07:25:18.442632	103.0	36.7	-92.7	14.3
2025-01-07 07:25:19.564087	103.4	36.6	-92.6	16.0
2025-01-07 07:25:20.684906	103.9	36.6	-92.7	16.1
2025-01-07 07:25:21.806734	104.3	36.6	-92.4	16.9
2025-01-07 07:25:22.926979	104.8	36.5	-92.6	17.4
2025-01-07 07:25:24.049202	105.2	36.5	-92.6	17.9
2025-01-07 07:25:25.175775	105.7	36.4	-92.9	17.2
2025-01-07 07:25:26.322556	106.2	36.4	-92.4	14.9
2025-01-07 07:25:27.477130	106.6	36.3	-92.8	15.4
2025-01-07 07:25:28.622923	107.1	36.3	-92.9	16.3
2025-01-07 07:25:29.769780	107.5	36.2	-92.3	14.7
2025-01-07 07:25:30.921709	108.0	36.2	-92.8	13.0
2025-01-07 07:25:32.071400	108.5	36.1	-93.0	12.4
2025-01-07 07:25:33.228432	108.9	36.1	-92.6	13.4
2025-01-07 07:25:34.377041	109.4	36.0	-93.0	15.9
2025-01-07 07:25:35.535404	109.8	35.9	-93.0	16.5
2025-01-07 07:25:36.690832	110.3	35.9	-92.6	13.3
2025-01-07 07:25:37.838490	110.7	35.8	-92.9	14.4
2025-01-07 07:25:38.991509	111.2	35.7	-92.5	14.0
2025-01-07 07:25:40.144904	111.6	35.7	-93.0	15.0
2025-01-07 07:25:41.293836	112.1	35.6	-92.6	13.8
2025-01-07 07:25:42.440659	112.5	35.5	-89.3	11.2
2025-01-07 07:25:43.588381	112.9	35.4	-90.1	11.5
2025-01-07 07:25:44.744985	113.4	35.4	-92.9	16.9
2025-01-07 07:25:45.898319	113.8	35.3	-93.0	15.0
2025-01-07 07:25:47.048928	114.3	35.2	-92.7	14.9
2025-01-07 07:25:48.213181	114.7	35.1	-92.6	15.7
2025-01-07 07:25:49.370994	115.1	35.0	-93.1	15.6
2025-01-07 07:25:50.530947	115.5	34.9	-92.9	13.2
2025-01-07 07:25:51.676203	116.0	34.9	-92.8	11.5
2025-01-07 07:25:52.828768	116.4	34.8	-92.9	12.5
2025-01-07 07:25:53.986780	116.8	34.7	-92.6	11.3
2025-01-07 07:25:55.144317	117.2	34.6	-92.6	12.8
2025-01-07 07:25:56.297240	117.6	34.5	-92.7	13.0
2025-01-07 07:25:57.442764	118.1	34.4	-93.0	13.9
2025-01-07 07:25:58.588749	118.5	34.3	-92.7	11.8
2025-01-07 07:25:59.734225	118.9	34.2	-92.9	10.5
2025-01-07 07:26:00.879958	119.3	34.1	-93.0	10.2
2025-01-07 07:26:02.023113	119.7	34.0	-92.5	11.0
2025-01-07 07:26:03.181755	120.1	33.9	-92.8	11.8
2025-01-07 07:26:04.333932	120.5	33.8	-92.2	13.4
2025-01-07 07:26:05.485526	120.9	33.7	-92.4	13.2
2025-01-07 07:26:06.644396	121.3	33.6	-90.6	13.6
2025-01-07 07:26:07.790141	121.7	33.5	-91.5	16.0
2025-01-07 07:26:08.944462	122.1	33.4	-92.3	14.7
2025-01-07 07:26:10.094442	122.4	33.3	-92.1	13.8
2025-01-07 07:26:11.243561	122.8	33.2	-92.8	17.2
2025-01-07 07:26:12.394851	123.2	33.1	-92.7	14.8
2025-01-07 07:26:13.558220	123.6	32.9	-92.6	12.1
2025-01-07 07:26:14.711898	124.0	32.8	-92.8	15.1
2025-01-07 07:26:15.859916	124.3	32.7	-92.8	14.0
2025-01-07 07:26:17.018195	124.7	32.6	-92.6	10.1
2025-01-07 07:26:18.175161	125.1	32.5	-92.7	14.0
2025-01-07 07:26:19.329518	125.4	32.4	-92.0	14.8
2025-01-07 07:26:20.497120	125.8	32.3	-92.7	10.5
2025-01-07 07:26:21.652568	126.2	32.1	-92.5	11.5
2025-01-07 07:26:22.805427	126.5	32.0	-93.0	13.1
2025-01-07 07:26:23.952485	126.9	31.9	-92.9	7.3
2025-01-07 07:26:25.106928	127.2	31.8	-92.4	7.1
2025-01-07 07:26:26.268240	127.6	31.7	-92.0	11.7
2025-01-07 07:26:27.424569	127.9	31.5	-92.7	4.7
2025-01-07 07:26:28.583726	128.3	31.4	-93.0	5.3
2025-01-07 07:26:29.733490	128.6	31.3	-92.5	7.8
2025-01-07 07:26:30.896968	129.0	31.2	-92.9	8.2
2025-01-07 07:26:32.043388	129.3	31.1	-92.7	3.0
2025-01-07 07:26:33.192869	129.7	30.9	-92.8	4.3
2025-01-07 07:26:34.345850	130.0	30.8	-92.4	4.7
2025-01-07 07:26:35.503110	130.3	30.7	-93.2	4.1
2025-01-07 07:26:36.660801	130.6	30.6	-92.8	4.0
2025-01-07 07:26:37.815828	131.0	30.4	-92.5	5.4
2025-01-07 07:26:38.961615	131.3	30.3	-92.9	3.0
2025-01-07 07:26:40.121641	131.6	30.2	-92.9	2.9
2025-01-07 07:26:41.272432	131.9	30.1	-92.6	3.9
2025-01-07 07:26:42.416828	132.3	29.9	-92.3	6.8
2025-01-07 07:26:43.537056	132.6	29.8	-92.7	4.5
2025-01-07 07:26:44.657430	132.9	29.7	-93.0	5.8
2025-01-07 07:26:45.777953	133.2	29.6	-92.7	5.8
2025-01-07 07:26:46.898869	133.5	29.4	-92.4	7.4
2025-01-07 07:26:48.019631	133.8	29.3	-92.6	10.2
2025-01-07 07:26:49.140199	134.0	29.2	-91.9	5.6
2025-01-07 07:26:50.263870	134.3	29.1	-92.7	5.3
2025-01-07 07:26:51.385328	134.6	28.9	-92.2	1.7
2025-01-07 07:26:52.534833	134.9	28.8	-92.7	2.6
2025-01-07 07:26:53.683475	135.2	28.7	-92.5	5.6
2025-01-07 07:26:54.828019	135.5	28.5	-92.4	6.7
2025-01-07 07:26:55.982223	135.8	28.4	-92.8	7.5
2025-01-07 07:26:57.137480	136.1	28.3	-91.5	3.2
2025-01-07 07:26:58.295972	136.4	28.2	-92.1	3.6
2025-01-07 07:26:59.449366	136.6	28.0	-92.6	4.1
2025-01-07 07:27:00.601504	136.9	27.9	-92.4	4.4
2025-01-07 07:27:01.761285	137.2	27.8	-92.4	7.1
2025-01-07 07:27:02.915270	137.5	27.6	-93.0	4.7
2025-01-07 07:27:04.066410	137.8	27.5	-92.6	4.7
2025-01-07 07:27:05.222278	138.0	27.4	-92.9	7.0
2025-01-07 07:27:06.382090	138.3	27.2	-92.3	6.4
2025-01-07 07:27:07.537153	138.6	27.1	-92.6	4.7
2025-01-07 07:27:08.694320	138.8	27.0	-92.6	9.1
2025-01-07 07:27:09.853429	139.1	26.8	-92.9	9.2
2025-01-07 07:27:11.017151	139.4	26.7	-92.6	7.4
2025-01-07 07:27:12.178715	139.6	26.6	-92.0	11.0
2025-01-07 07:27:13.334739	139.9	26.4	-92.1	10.2
2025-01-07 07:27:14.488454	140.1	26.3	-92.1	8.2
2025-01-07 07:27:15.643644	140.4	26.2	-92.4	5.5
2025-01-07 07:27:16.796939	140.6	26.1	-92.6	9.7
2025-01-07 07:27:17.953337	140.9	25.9	-92.7	10.7
2025-01-07 07:27:19.094459	141.1	25.8	-92.7	11.5
2025-01-07 07:27:20.229845	141.4	25.7	-92.6	14.3
2025-01-07 07:27:21.371513	141.6	25.5	-92.8	12.3
2025-01-07 07:27:22.515745	141.8	25.4	-92.9	9.2
2025-01-07 07:27:23.663599	142.1	25.3	-93.1	10.5
2025-01-07 07:27:24.807242	142.3	25.1	-92.8	10.8
2025-01-07 07:27:25.962056	142.5	25.0	-92.7	5.3
2025-01-07 07:27:27.113328	142.8	24.9	-92.5	5.5
2025-01-07 07:27:28.265017	143.0	24.8	-92.6	11.5
2025-01-07 07:27:29.416259	143.2	24.6	-92.7	4.8
2025-01-07 07:27:30.575715	143.5	24.5	-92.9	6.2
2025-01-07 07:27:31.737401	143.7	24.4	-93.0	11.8
2025-01-07 07:27:32.890731	143.9	24.2	-93.3	9.6
2025-01-07 07:27:34.054127	144.1	24.1	-92.6	5.0
2025-01-07 07:27:35.224286	144.4	24.0	-92.4	11.1
2025-01-07 07:27:36.365896	144.6	23.9	-92.7	10.1
2025-01-07 07:27:37.512780	144.8	23.7	-92.4	7.1
2025-01-07 07:27:38.638357	145.0	23.6	-92.7	10.9
2025-01-07 07:27:39.782205	145.2	23.5	-92.9	11.0
2025-01-07 07:27:40.926319	145.4	23.3	-92.9	13.8
2025-01-07 07:27:42.079076	145.6	23.2	-92.5	12.8
2025-01-07 07:27:43.227227	145.8	23.1	-92.2	12.5
2025-01-07 07:27:44.373879	146.0	23.0	-92.4	12.7
2025-01-07 07:27:45.526576	146.2	22.8	-92.6	10.1
2025-01-07 07:27:46.685042	146.4	22.7	-92.0	8.6
2025-01-07 07:27:47.837617	146.6	22.6	-92.3	10.0
2025-01-07 07:27:48.996889	146.9	22.5	-92.7	4.5
2025-01-07 07:27:50.151744	147.0	22.3	-92.1	4.2
2025-01-07 07:27:51.304487	147.2	22.2	-92.2	9.1
2025-01-07 07:27:52.458792	147.4	22.1	-92.5	6.4
2025-01-07 07:27:53.609583	147.6	22.0	-92.6	8.2
2025-01-07 07:27:54.765173	147.8	21.8	-92.9	11.6
2025-01-07 07:27:55.919075	148.0	21.7	-93.1	7.7
2025-01-07 07:27:57.076565	148.2	21.6	-92.6	9.0
2025-01-07 07:27:58.223181	148.4	21.5	-92.2	11.2
2025-01-07 07:27:59.382858	148.6	21.3	-92.5	11.8
2025-01-07 07:28:00.527280	148.8	21.2	-93.1	7.8
2025-01-07 07:28:01.687424	149.0	21.1	-92.9	9.0
2025-01-07 07:28:02.841299	149.1	21.0	-92.8	7.9
2025-01-07 07:28:03.972699	149.3	20.9	-92.8	6.7
2025-01-07 07:28:05.112565	149.5	20.7	-92.3	6.2
2025-01-07 07:28:06.262055	149.7	20.6	-92.8	7.2
2025-01-07 07:28:07.408885	149.8	20.5	-93.0	4.9
2025-01-07 07:28:08.553070	150.0	20.4	-92.6	4.1
2025-01-07 07:28:09.702224	150.2	20.3	-93.1	9.6
2025-01-07 07:28:10.855681	150.4	20.1	-92.7	7.9
2025-01-07 07:28:12.002180	150.5	20.0	-93.1	3.2
2025-01-07 07:28:13.146590	150.7	19.9	-92.8	6.3
2025-01-07 07:28:14.291208	150.9	19.8	-92.9	9.0
2025-01-07 07:28:15.450994	151.0	19.7	-92.8	5.1
2025-01-07 07:28:16.606684	151.2	19.5	-92.9	6.1
2025-01-07 07:28:17.755761	151.4	19.4	-93.2	7.6
2025-01-07 07:28:18.907795	151.5	19.3	-92.8	6.2
2025-01-07 07:28:20.058794	151.7	19.2	-92.9	6.4
2025-01-07 07:28:21.214508	151.9	19.1	-92.7	4.2
2025-01-07 07:28:22.361225	152.0	18.9	-93.0	3.4
2025-01-07 07:28:23.514022	152.2	18.8	-93.2	3.0
2025-01-07 07:28:24.669946	152.3	18.7	-93.1	4.9
2025-01-07 07:28:25.812928	152.5	18.6	-92.5	4.7
2025-01-07 07:28:26.958770	152.6	18.5	-92.9	3.8
2025-01-07 07:28:28.082106	152.8	18.4	-93.1	5.0
2025-01-07 07:28:29.228393	153.0	18.3	-92.5	7.4
2025-01-07 07:28:30.370176	153.1	18.1	-92.6	6.4
2025-01-07 07:28:31.522587	153.3	18.0	-93.0	3.2
2025-01-07 07:28:32.668388	153.4	17.9	-93.2	6.2
2025-01-07 07:28:33.817359	153.6	17.8	-92.7	2.2
2025-01-07 07:28:34.978792	153.7	17.7	-92.6	0.5
2025-01-07 07:28:36.119542	153.8	17.6	-92.7	2.8
2025-01-07 07:28:37.278422	154.0	17.5	-92.9	1.9
2025-01-07 07:28:38.444580	154.1	17.4	-92.7	2.1
2025-01-07 07:28:39.594652	154.3	17.2	-92.8	3.0
2025-01-07 07:28:40.746382	154.4	17.1	-93.0	1.8
2025-01-07 07:28:41.897870	154.6	17.0	-92.5	4.5
2025-01-07 07:28:43.049062	154.7	16.9	-92.6	1.9
2025-01-07 07:28:44.204977	154.9	16.8	-92.8	5.5
2025-01-07 07:28:45.363000	155.0	16.7	-92.7	6.1
2025-01-07 07:28:46.518854	155.1	16.6	-92.8	2.4
2025-01-07 07:28:47.680157	155.3	16.5	-92.6	5.5
2025-01-07 07:28:48.833209	155.4	16.4	-92.5	6.5
2025-01-07 07:28:49.989867	155.5	16.2	-92.5	5.5
2025-01-07 07:28:51.146580	155.7	16.1	-92.3	7.1
2025-01-07 07:28:52.311730	155.8	16.0	-92.4	3.4
2025-01-07 07:28:53.466403	155.9	15.9	-92.6	5.2
2025-01-07 07:28:54.627260	156.1	15.8	-92.9	4.0
2025-01-07 07:28:55.774976	156.2	15.7	-92.7	3.0
2025-01-07 07:28:56.930354	156.3	15.6	-93.1	2.9
2025-01-07 07:28:58.081991	156.5	15.5	-92.6	4.5
2025-01-07 07:28:59.235302	156.6	15.4	-92.5	6.8
2025-01-07 07:29:00.379303	156.7	15.3	-92.9	7.4
2025-01-07 07:29:01.531166	156.8	15.2	-93.0	5.8
2025-01-07 07:29:02.687691	157.0	15.1	-92.7	8.3
2025-01-07 07:29:03.830867	157.1	15.0	-93.3	8.2
2025-01-07 07:29:04.981272	157.2	14.9	-92.5	4.4
2025-01-07 07:29:06.142972	157.3	14.8	-92.3	4.4
2025-01-07 07:29:07.297704	157.5	14.7	-92.1	8.0
2025-01-07 07:29:08.442629	157.6	14.6	-92.3	6.0
#Closed at: 2025-01-07 07:21:00.409779