passes_logs/2025/01/07/LEX_Murmansk/LEX_Murmansk__20250107_104229_NOAA_19_rec.log

#Pass ID: 20250107_104229_NOAA 19
#Satellite: NOAA 19
#Configuration: NOAA 19
#Start time: 2025-01-07 10:42:24.481943

#LorettStation: 1.0.0 05.05.2024
#Station: LEX_Murmansk
#Location: 33.156738 lon 68.926811 lat
#TLE: 1 33591U 09005A   25006.86236638  .00000398  00000+0  23653-3 0  9991
#TLE: 2 33591  99.0211  70.5614 0014662  79.2072 281.0749 14.13253225820137

#Time	Az	El	Level	SNR
2025-01-07 10:42:36.781293	23.5	16.2	-92.3	3.4
2025-01-07 10:42:37.947282	23.4	16.3	-92.4	2.0
2025-01-07 10:42:39.113006	23.3	16.4	-91.8	2.2
2025-01-07 10:42:40.265610	23.2	16.5	-92.1	1.9
2025-01-07 10:42:41.424086	23.1	16.6	-92.4	4.8
2025-01-07 10:42:42.587164	22.9	16.8	-92.4	3.3
2025-01-07 10:42:43.750066	22.8	16.9	-92.3	2.7
2025-01-07 10:42:44.915284	22.7	17.0	-92.2	5.3
2025-01-07 10:42:46.077595	22.6	17.1	-92.3	5.0
2025-01-07 10:42:47.238462	22.5	17.2	-92.4	9.1
2025-01-07 10:42:48.401233	22.3	17.4	-92.3	8.5
2025-01-07 10:42:49.570096	22.2	17.5	-92.6	5.3
2025-01-07 10:42:50.726247	22.1	17.6	-91.9	1.6
2025-01-07 10:42:51.886653	21.9	17.7	-91.6	3.7
2025-01-07 10:42:53.039893	21.8	17.8	-91.7	3.3
2025-01-07 10:42:54.200203	21.7	18.0	-91.1	1.5
2025-01-07 10:42:55.362888	21.6	18.1	-91.2	5.8
2025-01-07 10:42:56.527321	21.4	18.2	-91.7	7.2
2025-01-07 10:42:57.691313	21.3	18.3	-91.7	7.0
2025-01-07 10:42:58.856249	21.2	18.4	-91.7	7.0
2025-01-07 10:43:00.013481	21.0	18.6	-89.4	5.9
2025-01-07 10:43:01.158608	20.9	18.7	-91.3	4.9
2025-01-07 10:43:02.317818	20.7	18.8	-91.6	0.8
2025-01-07 10:43:03.479325	20.6	18.9	-91.6	7.7
2025-01-07 10:43:04.642334	20.5	19.1	-91.8	9.7
2025-01-07 10:43:05.807176	20.3	19.2	-92.3	9.6
2025-01-07 10:43:06.970528	20.2	19.3	-92.4	7.9
2025-01-07 10:43:08.131652	20.0	19.4	-92.0	6.2
2025-01-07 10:43:09.297663	19.9	19.6	-92.1	1.8
2025-01-07 10:43:10.448652	19.7	19.7	-92.7	2.9
2025-01-07 10:43:11.612657	19.6	19.8	-92.6	5.6
2025-01-07 10:43:12.771664	19.4	19.9	-92.2	4.7
2025-01-07 10:43:13.930440	19.3	20.1	-92.1	6.6
2025-01-07 10:43:15.090511	19.1	20.2	-92.1	7.7
2025-01-07 10:43:16.252181	19.0	20.3	-91.9	8.3
2025-01-07 10:43:17.410751	18.8	20.4	-92.6	6.9
2025-01-07 10:43:18.574073	18.7	20.6	-91.9	6.9
2025-01-07 10:43:19.740308	18.5	20.7	-92.1	4.4
2025-01-07 10:43:20.903688	18.4	20.8	-92.5	8.1
2025-01-07 10:43:22.063095	18.2	21.0	-92.3	12.1
2025-01-07 10:43:23.226209	18.0	21.1	-91.9	9.6
2025-01-07 10:43:24.385424	17.9	21.2	-92.0	9.5
2025-01-07 10:43:25.547987	17.7	21.4	-92.1	6.7
2025-01-07 10:43:26.707938	17.5	21.5	-92.4	3.8
2025-01-07 10:43:27.869623	17.4	21.6	-91.8	3.0
2025-01-07 10:43:29.034458	17.2	21.8	-92.0	3.1
2025-01-07 10:43:30.191190	17.0	21.9	-91.0	3.7
2025-01-07 10:43:31.355870	16.9	22.0	-91.5	6.1
2025-01-07 10:43:32.524058	16.7	22.2	-91.8	8.8
2025-01-07 10:43:33.691909	16.5	22.3	-91.9	8.4
2025-01-07 10:43:34.854055	16.3	22.4	-92.0	7.4
2025-01-07 10:43:36.022435	16.2	22.6	-91.9	7.9
2025-01-07 10:43:37.189451	16.0	22.7	-91.4	5.3
2025-01-07 10:43:38.349799	15.8	22.8	-91.5	4.9
2025-01-07 10:43:39.511171	15.6	23.0	-92.0	7.8
2025-01-07 10:43:40.672138	15.4	23.1	-92.2	10.0
2025-01-07 10:43:41.824218	15.3	23.3	-91.9	11.2
2025-01-07 10:43:42.983864	15.1	23.4	-91.9	6.7
2025-01-07 10:43:44.126917	14.9	23.5	-92.1	7.9
2025-01-07 10:43:45.247222	14.7	23.7	-92.2	3.7
2025-01-07 10:43:46.371756	14.5	23.8	-91.6	4.7
2025-01-07 10:43:47.491482	14.3	23.9	-92.0	3.1
2025-01-07 10:43:48.612351	14.1	24.1	-92.2	6.2
2025-01-07 10:43:49.732813	13.9	24.2	-92.5	7.0
2025-01-07 10:43:50.853902	13.8	24.3	-91.9	9.5
2025-01-07 10:43:51.978272	13.6	24.5	-92.0	10.8
2025-01-07 10:43:53.103631	13.4	24.6	-91.9	10.0
2025-01-07 10:43:54.264458	13.2	24.8	-91.9	7.3
2025-01-07 10:43:55.422329	12.9	24.9	-91.8	6.5
2025-01-07 10:43:56.587122	12.7	25.0	-92.4	8.5
2025-01-07 10:43:57.747659	12.5	25.2	-92.4	5.5
2025-01-07 10:43:58.906206	12.3	25.3	-92.0	8.7
2025-01-07 10:44:00.065962	12.1	25.5	-91.8	5.5
2025-01-07 10:44:01.210945	11.9	25.6	-92.2	9.5
2025-01-07 10:44:02.376055	11.7	25.8	-92.2	7.9
2025-01-07 10:44:03.537650	11.5	25.9	-92.5	6.9
2025-01-07 10:44:04.705628	11.2	26.1	-92.3	3.6
2025-01-07 10:44:05.871180	11.0	26.2	-92.2	3.4
2025-01-07 10:44:07.031999	10.8	26.3	-92.4	3.4
2025-01-07 10:44:08.194658	10.5	26.5	-92.1	4.5
2025-01-07 10:44:09.352896	10.3	26.6	-92.4	5.5
2025-01-07 10:44:10.515629	10.1	26.8	-92.7	11.7
2025-01-07 10:44:11.670907	9.9	26.9	-92.6	12.7
2025-01-07 10:44:12.827359	9.6	27.1	-92.5	13.4
2025-01-07 10:44:13.997008	9.4	27.2	-92.1	13.9
2025-01-07 10:44:15.160544	9.1	27.4	-92.1	9.8
2025-01-07 10:44:16.323512	8.9	27.5	-92.2	6.5
2025-01-07 10:44:17.481927	8.6	27.7	-92.4	9.1
2025-01-07 10:44:18.644746	8.4	27.8	-92.3	8.9
2025-01-07 10:44:19.813330	8.1	28.0	-92.1	10.5
2025-01-07 10:44:20.974986	7.9	28.1	-92.3	10.2
2025-01-07 10:44:22.124720	7.6	28.3	-92.4	8.4
2025-01-07 10:44:23.289239	7.4	28.4	-92.2	3.0
2025-01-07 10:44:24.448219	7.1	28.6	-92.4	4.0
2025-01-07 10:44:25.609551	6.9	28.7	-92.3	4.2
2025-01-07 10:44:26.764563	6.6	28.9	-92.4	0.3
2025-01-07 10:44:27.911527	6.3	29.0	-92.3	2.4
2025-01-07 10:44:29.032312	6.1	29.1	-92.6	4.3
2025-01-07 10:44:30.154019	5.8	29.3	-92.5	2.4
2025-01-07 10:44:31.274419	5.5	29.4	-92.2	2.7
2025-01-07 10:44:32.395074	5.3	29.6	-92.3	7.6
2025-01-07 10:44:33.515331	5.0	29.7	-92.5	10.1
2025-01-07 10:44:34.636902	4.7	29.9	-92.6	10.2
2025-01-07 10:44:35.759475	4.4	30.0	-92.6	6.5
2025-01-07 10:44:36.879870	4.2	30.1	-92.5	4.7
2025-01-07 10:44:38.032944	3.9	30.3	-92.8	5.0
2025-01-07 10:44:39.183559	3.6	30.4	-91.9	3.9
2025-01-07 10:44:40.345597	3.3	30.6	-91.7	3.0
2025-01-07 10:44:41.499790	3.0	30.7	-92.2	4.7
2025-01-07 10:44:42.656614	2.7	30.9	-91.8	4.5
2025-01-07 10:44:43.824730	2.4	31.0	-92.1	9.8
2025-01-07 10:44:44.985872	2.1	31.2	-92.5	7.0
2025-01-07 10:44:46.147707	1.8	31.3	-92.2	5.7
2025-01-07 10:44:47.307684	1.5	31.5	-92.4	3.2
2025-01-07 10:44:48.465836	1.1	31.6	-92.3	4.4
2025-01-07 10:44:49.623881	0.8	31.8	-92.5	5.4
2025-01-07 10:44:50.782473	0.5	31.9	-92.8	2.5
2025-01-07 10:44:51.942647	0.2	32.1	-92.4	3.4
2025-01-07 10:44:53.100938	359.9	32.2	-92.4	3.5
2025-01-07 10:44:54.273611	359.5	32.4	-92.3	4.4
2025-01-07 10:44:55.430690	359.2	32.5	-92.4	4.8
2025-01-07 10:44:56.597877	358.8	32.7	-92.6	7.6
2025-01-07 10:44:57.758510	358.5	32.8	-92.4	2.5
2025-01-07 10:44:58.920865	358.2	32.9	-92.4	7.2
2025-01-07 10:45:00.079914	357.8	33.1	-91.9	7.4
2025-01-07 10:45:01.227339	357.5	33.2	-92.3	5.1
2025-01-07 10:45:02.388120	357.1	33.4	-91.9	3.7
2025-01-07 10:45:03.552241	356.8	33.5	-92.2	6.7
2025-01-07 10:45:04.707782	356.4	33.7	-92.2	7.5
2025-01-07 10:45:05.875063	356.0	33.8	-92.4	5.6
2025-01-07 10:45:07.033846	355.7	33.9	-92.2	10.0
2025-01-07 10:45:08.195336	355.3	34.1	-91.9	10.9
2025-01-07 10:45:09.349184	354.9	34.2	-91.4	12.9
2025-01-07 10:45:10.505191	354.6	34.3	-92.5	7.2
2025-01-07 10:45:11.660856	354.2	34.5	-92.3	7.1
2025-01-07 10:45:12.824952	353.8	34.6	-92.2	5.1
2025-01-07 10:45:13.985303	353.4	34.8	-92.5	5.9
2025-01-07 10:45:15.149069	353.0	34.9	-91.2	4.5
2025-01-07 10:45:16.305384	352.7	35.0	-92.2	2.3
2025-01-07 10:45:17.465390	352.3	35.2	-92.2	2.9
2025-01-07 10:45:18.627471	351.9	35.3	-92.0	9.4
2025-01-07 10:45:19.786344	351.5	35.4	-92.6	4.3
2025-01-07 10:45:20.948128	351.1	35.5	-92.5	6.0
2025-01-07 10:45:22.110436	350.7	35.7	-92.2	12.3
2025-01-07 10:45:23.276993	350.3	35.8	-92.5	14.1
2025-01-07 10:45:24.446224	349.8	35.9	-92.5	11.5
2025-01-07 10:45:25.609930	349.4	36.1	-92.7	14.9
2025-01-07 10:45:26.769496	349.0	36.2	-92.8	14.8
2025-01-07 10:45:27.936680	348.6	36.3	-92.5	9.7
2025-01-07 10:45:29.098250	348.2	36.4	-92.3	6.2
2025-01-07 10:45:30.257310	347.7	36.5	-92.2	7.4
2025-01-07 10:45:31.418786	347.3	36.7	-93.0	6.7
2025-01-07 10:45:32.579930	346.9	36.8	-93.1	7.5
2025-01-07 10:45:33.740186	346.4	36.9	-92.5	6.8
2025-01-07 10:45:34.899547	346.0	37.0	-92.5	9.7
2025-01-07 10:45:36.061003	345.5	37.1	-92.7	3.3
2025-01-07 10:45:37.221245	345.1	37.2	-93.1	13.1
2025-01-07 10:45:38.380319	344.6	37.3	-92.5	15.1
2025-01-07 10:45:39.549856	344.2	37.4	-92.9	18.1
2025-01-07 10:45:40.714001	343.7	37.6	-93.0	13.5
2025-01-07 10:45:41.884027	343.3	37.7	-92.9	10.6
2025-01-07 10:45:43.047903	342.8	37.8	-93.0	11.1
2025-01-07 10:45:44.211076	342.3	37.9	-91.4	3.4
2025-01-07 10:45:45.376951	341.9	38.0	-92.2	6.7
2025-01-07 10:45:46.538864	341.4	38.1	-92.1	8.4
2025-01-07 10:45:47.701777	340.9	38.1	-92.1	5.2
2025-01-07 10:45:48.864482	340.4	38.2	-93.3	3.3
2025-01-07 10:45:50.029026	340.0	38.3	-93.0	7.0
2025-01-07 10:45:51.187996	339.5	38.4	-92.6	5.1
2025-01-07 10:45:52.348773	339.0	38.5	-92.5	4.4
2025-01-07 10:45:53.514203	338.5	38.6	-92.8	14.1
2025-01-07 10:45:54.674869	338.0	38.7	-92.6	12.7
2025-01-07 10:45:55.841539	337.5	38.7	-91.4	16.6
2025-01-07 10:45:57.010225	337.0	38.8	-92.1	16.4
2025-01-07 10:45:58.170389	336.5	38.9	-91.6	12.3
2025-01-07 10:45:59.327065	336.0	39.0	-91.7	14.9
2025-01-07 10:46:00.477642	335.5	39.0	-91.6	12.9
2025-01-07 10:46:01.607694	335.1	39.1	-91.9	15.1
2025-01-07 10:46:02.728555	334.6	39.2	-91.7	17.3
2025-01-07 10:46:03.849402	334.1	39.2	-92.2	7.1
2025-01-07 10:46:04.969986	333.6	39.3	-91.9	9.4
2025-01-07 10:46:06.091551	333.1	39.3	-90.5	9.1
2025-01-07 10:46:07.212082	332.6	39.4	-91.7	6.9
2025-01-07 10:46:08.332462	332.1	39.5	-91.8	5.6
2025-01-07 10:46:09.457343	331.6	39.5	-92.2	7.1
2025-01-07 10:46:10.592746	331.1	39.6	-91.8	6.3
2025-01-07 10:46:11.756870	330.6	39.6	-91.8	7.4
2025-01-07 10:46:12.911054	330.1	39.6	-92.2	4.2
2025-01-07 10:46:14.074180	329.5	39.7	-91.3	12.3
2025-01-07 10:46:15.240556	329.0	39.7	-91.5	4.8
2025-01-07 10:46:16.404210	328.5	39.8	-91.5	7.8
2025-01-07 10:46:17.565788	328.0	39.8	-91.6	9.3
2025-01-07 10:46:18.722832	327.4	39.8	-93.2	11.0
2025-01-07 10:46:19.885452	326.9	39.8	-93.2	16.8
2025-01-07 10:46:21.040608	326.4	39.9	-92.8	16.7
2025-01-07 10:46:22.202383	325.9	39.9	-92.5	18.1
2025-01-07 10:46:23.367602	325.3	39.9	-92.5	21.6
2025-01-07 10:46:24.524839	324.8	39.9	-93.3	17.2
2025-01-07 10:46:25.686358	324.3	39.9	-93.1	16.2
2025-01-07 10:46:26.847122	323.7	39.9	-93.0	13.4
2025-01-07 10:46:28.004995	323.2	40.0	-93.0	15.1
2025-01-07 10:46:29.167734	322.7	40.0	-92.8	8.2
2025-01-07 10:46:30.329698	322.2	40.0	-92.8	9.5
2025-01-07 10:46:31.490303	321.6	40.0	-92.7	9.1
2025-01-07 10:46:32.654323	321.1	40.0	-93.0	9.1
2025-01-07 10:46:33.812480	320.6	40.0	-93.0	6.9
2025-01-07 10:46:34.975062	320.0	39.9	-93.0	5.9
2025-01-07 10:46:36.139184	319.5	39.9	-92.5	5.2
2025-01-07 10:46:37.299224	319.0	39.9	-92.6	3.4
2025-01-07 10:46:38.464055	318.4	39.9	-92.8	8.9
2025-01-07 10:46:39.625481	317.9	39.9	-93.1	7.1
2025-01-07 10:46:40.786104	317.4	39.9	-93.0	3.5
2025-01-07 10:46:41.950135	316.9	39.8	-92.8	3.6
2025-01-07 10:46:43.102270	316.3	39.8	-92.8	4.0
2025-01-07 10:46:44.264951	315.8	39.8	-92.7	4.1
2025-01-07 10:46:45.425042	315.3	39.7	-93.2	5.4
2025-01-07 10:46:46.587661	314.8	39.7	-93.2	6.4
2025-01-07 10:46:47.750872	314.2	39.7	-93.2	4.6
2025-01-07 10:46:48.909954	313.7	39.6	-93.1	3.6
2025-01-07 10:46:50.073044	313.2	39.6	-92.8	7.2
2025-01-07 10:46:51.229600	312.7	39.5	-92.8	2.4
2025-01-07 10:46:52.388346	312.2	39.5	-92.8	6.5
2025-01-07 10:46:53.550390	311.6	39.4	-92.8	5.6
2025-01-07 10:46:54.709253	311.1	39.4	-93.1	5.5
2025-01-07 10:46:55.872162	310.6	39.3	-93.0	8.5
2025-01-07 10:46:57.037163	310.1	39.3	-92.9	9.5
2025-01-07 10:46:58.195354	309.6	39.2	-92.5	6.7
2025-01-07 10:46:59.358578	309.1	39.1	-92.5	7.1
2025-01-07 10:47:00.509347	308.6	39.1	-93.0	9.1
2025-01-07 10:47:01.665978	308.1	39.0	-92.9	7.8
2025-01-07 10:47:02.827911	307.6	38.9	-92.9	5.6
2025-01-07 10:47:03.985468	307.1	38.8	-93.0	10.2
2025-01-07 10:47:05.141430	306.6	38.8	-92.3	9.6
2025-01-07 10:47:06.294635	306.1	38.7	-91.3	6.2
2025-01-07 10:47:07.415168	305.7	38.6	-93.0	9.6
2025-01-07 10:47:08.536666	305.2	38.5	-93.1	11.7
2025-01-07 10:47:09.658588	304.7	38.5	-93.1	9.2
2025-01-07 10:47:10.778901	304.2	38.4	-92.9	10.7
2025-01-07 10:47:11.899495	303.8	38.3	-92.7	11.9
2025-01-07 10:47:13.020635	303.3	38.2	-93.1	12.7
2025-01-07 10:47:14.148872	302.9	38.1	-92.4	11.2
2025-01-07 10:47:15.269687	302.4	38.0	-92.3	11.0
2025-01-07 10:47:16.428633	301.9	37.9	-92.8	8.6
2025-01-07 10:47:17.581519	301.5	37.8	-92.8	11.0
2025-01-07 10:47:18.745166	301.0	37.7	-91.7	6.1
2025-01-07 10:47:19.912353	300.5	37.6	-91.5	7.6
2025-01-07 10:47:21.076761	300.1	37.5	-91.7	6.4
2025-01-07 10:47:22.235474	299.6	37.4	-92.4	7.3
2025-01-07 10:47:23.402300	299.2	37.3	-91.9	10.9
2025-01-07 10:47:24.563749	298.7	37.2	-91.8	7.2
2025-01-07 10:47:25.727635	298.3	37.1	-91.6	5.8
2025-01-07 10:47:26.885214	297.8	37.0	-91.7	8.4
2025-01-07 10:47:28.043377	297.4	36.9	-91.4	8.0
2025-01-07 10:47:29.208085	297.0	36.7	-91.5	5.7
2025-01-07 10:47:30.372250	296.5	36.6	-91.6	9.3
2025-01-07 10:47:31.521646	296.1	36.5	-91.5	6.7
2025-01-07 10:47:32.687665	295.7	36.4	-91.9	6.6
2025-01-07 10:47:33.850511	295.2	36.3	-92.4	5.0
2025-01-07 10:47:35.020580	294.8	36.1	-92.4	8.7
2025-01-07 10:47:36.181735	294.4	36.0	-91.9	3.7
2025-01-07 10:47:37.341110	294.0	35.9	-92.3	3.5
2025-01-07 10:47:38.502074	293.6	35.8	-92.4	7.2
2025-01-07 10:47:39.661552	293.2	35.6	-92.4	3.3
2025-01-07 10:47:40.824622	292.8	35.5	-92.3	4.1
2025-01-07 10:47:41.983758	292.4	35.4	-92.3	5.6
2025-01-07 10:47:43.142462	292.0	35.2	-91.4	6.1
2025-01-07 10:47:44.305996	291.6	35.1	-92.0	4.1
2025-01-07 10:47:45.468969	291.2	35.0	-91.9	4.6
2025-01-07 10:47:46.629105	290.8	34.8	-92.5	5.5
2025-01-07 10:47:47.787253	290.4	34.7	-92.0	4.1
2025-01-07 10:47:48.949416	290.0	34.6	-92.6	7.4
2025-01-07 10:47:50.114114	289.6	34.4	-92.2	7.6
2025-01-07 10:47:51.278713	289.3	34.3	-92.0	5.8
2025-01-07 10:47:52.440320	288.9	34.2	-92.1	7.0
2025-01-07 10:47:53.608582	288.5	34.0	-91.1	8.2
2025-01-07 10:47:54.769627	288.2	33.9	-91.7	6.6
2025-01-07 10:47:55.931075	287.8	33.7	-92.1	6.7
2025-01-07 10:47:57.090830	287.4	33.6	-92.2	3.5
2025-01-07 10:47:58.248466	287.1	33.5	-92.0	6.6
2025-01-07 10:47:59.414005	286.7	33.3	-91.7	7.4
2025-01-07 10:48:00.567315	286.4	33.2	-91.7	6.4
2025-01-07 10:48:01.726672	286.0	33.0	-92.2	6.8
2025-01-07 10:48:02.906417	285.7	32.9	-92.3	11.4
2025-01-07 10:48:04.071338	285.3	32.7	-92.3	10.2
2025-01-07 10:48:05.233632	285.0	32.6	-92.4	8.0
2025-01-07 10:48:06.402787	284.7	32.4	-91.9	8.0
2025-01-07 10:48:07.567038	284.3	32.3	-92.7	6.2
2025-01-07 10:48:08.729431	284.0	32.2	-92.3	4.2
2025-01-07 10:48:09.894950	283.7	32.0	-92.1	6.0
2025-01-07 10:48:11.061252	283.3	31.9	-92.5	6.7
2025-01-07 10:48:12.221561	283.0	31.7	-92.7	2.3
2025-01-07 10:48:13.383590	282.7	31.6	-92.4	5.6
2025-01-07 10:48:14.547277	282.4	31.4	-92.6	3.8
2025-01-07 10:48:15.711925	282.1	31.3	-92.5	4.1
2025-01-07 10:48:16.880887	281.8	31.1	-92.4	1.8
2025-01-07 10:48:18.045114	281.5	31.0	-92.5	4.5
2025-01-07 10:48:19.211721	281.1	30.8	-92.4	3.1
2025-01-07 10:48:20.377903	280.8	30.7	-92.1	2.5
2025-01-07 10:48:21.533799	280.5	30.5	-92.7	3.9
2025-01-07 10:48:22.695992	280.3	30.4	-92.5	1.6
2025-01-07 10:48:23.859506	280.0	30.2	-92.3	4.6
2025-01-07 10:48:25.027096	279.7	30.1	-91.9	6.1
2025-01-07 10:48:26.185922	279.4	29.9	-92.2	4.4
2025-01-07 10:48:27.348611	279.1	29.8	-92.1	7.1
2025-01-07 10:48:28.504188	278.8	29.6	-92.1	8.4
2025-01-07 10:48:29.659782	278.5	29.5	-92.4	10.0
2025-01-07 10:48:30.821517	278.3	29.3	-92.1	10.2
2025-01-07 10:48:31.979278	278.0	29.2	-92.1	4.1
2025-01-07 10:48:33.139696	277.7	29.0	-91.9	6.2
2025-01-07 10:48:34.299590	277.5	28.9	-91.0	6.3
2025-01-07 10:48:35.464143	277.2	28.7	-91.6	5.9
2025-01-07 10:48:36.625341	276.9	28.6	-91.8	4.9
2025-01-07 10:48:37.790811	276.7	28.4	-92.4	3.8
2025-01-07 10:48:38.949043	276.4	28.3	-92.3	5.2
2025-01-07 10:48:40.111265	276.1	28.1	-92.1	5.1
2025-01-07 10:48:41.273245	275.9	28.0	-92.0	3.0
2025-01-07 10:48:42.435231	275.6	27.8	-92.5	5.6
2025-01-07 10:48:43.605669	275.4	27.7	-92.0	4.1
2025-01-07 10:48:44.767350	275.1	27.5	-92.4	6.1
2025-01-07 10:48:45.931651	274.9	27.4	-92.2	5.3
2025-01-07 10:48:47.096407	274.6	27.3	-92.0	7.4
2025-01-07 10:48:48.259866	274.4	27.1	-92.0	3.3
2025-01-07 10:48:49.424603	274.2	27.0	-92.3	7.6
2025-01-07 10:48:50.597622	273.9	26.8	-92.6	8.0
2025-01-07 10:48:51.753689	273.7	26.7	-92.2	11.6
2025-01-07 10:48:52.916551	273.5	26.5	-92.6	7.5
2025-01-07 10:48:54.078056	273.2	26.4	-92.2	10.5
2025-01-07 10:48:55.246877	273.0	26.2	-91.5	5.0
2025-01-07 10:48:56.411054	272.8	26.1	-92.0	11.9
2025-01-07 10:48:57.579316	272.6	25.9	-92.3	14.3
2025-01-07 10:48:58.740539	272.3	25.8	-91.9	10.8
2025-01-07 10:48:59.903923	272.1	25.6	-91.9	8.5
2025-01-07 10:49:01.058489	271.9	25.5	-91.9	10.1
2025-01-07 10:49:02.212724	271.7	25.4	-91.6	2.8
2025-01-07 10:49:03.377144	271.5	25.2	-91.5	8.5
2025-01-07 10:49:04.536207	271.3	25.1	-91.7	5.2
2025-01-07 10:49:05.701517	271.1	24.9	-91.7	4.2
2025-01-07 10:49:06.866598	270.8	24.8	-92.3	2.6
2025-01-07 10:49:08.028592	270.6	24.6	-92.2	7.4
2025-01-07 10:49:09.171139	270.4	24.5	-91.6	4.6
2025-01-07 10:49:10.332326	270.2	24.4	-91.3	5.8
2025-01-07 10:49:11.453130	270.0	24.2	-90.6	9.2
2025-01-07 10:49:12.573602	269.9	24.1	-91.7	13.5
2025-01-07 10:49:13.693593	269.7	24.0	-91.6	8.0
2025-01-07 10:49:14.813825	269.5	23.8	-91.4	10.7
2025-01-07 10:49:15.934354	269.3	23.7	-91.3	10.7
2025-01-07 10:49:17.054184	269.1	23.5	-91.0	6.0
2025-01-07 10:49:18.175249	268.9	23.4	-91.4	10.8
2025-01-07 10:49:19.295820	268.7	23.3	-91.0	5.7
2025-01-07 10:49:20.415818	268.6	23.1	-90.9	8.5
2025-01-07 10:49:21.541110	268.4	23.0	-91.5	5.4
2025-01-07 10:49:22.679320	268.2	22.9	-91.8	2.2
2025-01-07 10:49:23.802393	268.0	22.7	-92.1	4.2
2025-01-07 10:49:24.929847	267.9	22.6	-92.1	6.9
2025-01-07 10:49:26.052094	267.7	22.5	-92.0	3.6
2025-01-07 10:49:27.172613	267.5	22.4	-91.5	5.6
2025-01-07 10:49:28.292929	267.3	22.2	-91.7	3.2
2025-01-07 10:49:29.413937	267.2	22.1	-91.4	4.9
2025-01-07 10:49:30.535297	267.0	22.0	-91.7	6.6
2025-01-07 10:49:31.655387	266.8	21.8	-92.3	0.5
2025-01-07 10:49:32.776738	266.7	21.7	-92.1	4.0
2025-01-07 10:49:33.911471	266.5	21.6	-92.5	4.2
2025-01-07 10:49:35.049512	266.3	21.4	-91.7	3.6
2025-01-07 10:49:36.169681	266.2	21.3	-91.8	5.4
2025-01-07 10:49:37.310688	266.0	21.2	-91.9	8.8
2025-01-07 10:49:38.479101	265.9	21.1	-91.2	4.3
2025-01-07 10:49:39.641418	265.7	20.9	-92.0	8.4
2025-01-07 10:49:40.796789	265.5	20.8	-92.4	3.5
2025-01-07 10:49:41.946083	265.4	20.7	-91.8	1.5
2025-01-07 10:49:43.093590	265.2	20.5	-92.0	4.6
2025-01-07 10:49:44.253023	265.1	20.4	-91.9	4.5
2025-01-07 10:49:45.420132	264.9	20.3	-92.0	7.7
2025-01-07 10:49:46.580848	264.8	20.1	-91.9	2.5
2025-01-07 10:49:47.744781	264.6	20.0	-92.2	14.0
2025-01-07 10:49:48.899279	264.5	19.9	-92.2	3.7
2025-01-07 10:49:50.061935	264.3	19.8	-92.1	8.1
2025-01-07 10:49:51.223610	264.2	19.6	-91.5	2.5
2025-01-07 10:49:52.379041	264.0	19.5	-92.0	10.5
2025-01-07 10:49:53.540759	263.9	19.4	-91.9	2.7
2025-01-07 10:49:54.700212	263.7	19.3	-91.5	4.2
2025-01-07 10:49:55.862823	263.6	19.1	-92.6	6.5
2025-01-07 10:49:57.023594	263.4	19.0	-92.3	4.6
2025-01-07 10:49:58.179282	263.3	18.9	-92.1	7.0
2025-01-07 10:49:59.339111	263.2	18.8	-92.2	2.7
2025-01-07 10:50:00.497856	263.0	18.6	-92.6	4.0
2025-01-07 10:50:01.660927	262.9	18.5	-91.8	2.5
2025-01-07 10:50:02.822750	262.8	18.4	-92.0	2.6
2025-01-07 10:50:03.990468	262.6	18.3	-92.3	2.5
2025-01-07 10:50:05.151223	262.5	18.2	-91.8	3.9
2025-01-07 10:50:06.317666	262.4	18.0	-92.0	2.9
2025-01-07 10:50:07.475659	262.2	17.9	-92.2	7.8
2025-01-07 10:50:08.645590	262.1	17.8	-92.6	9.0
2025-01-07 10:50:09.806286	262.0	17.7	-92.7	10.4
2025-01-07 10:50:10.965201	261.8	17.5	-92.5	8.6
2025-01-07 10:50:12.117279	261.7	17.4	-92.0	6.5
2025-01-07 10:50:13.284948	261.6	17.3	-92.4	1.9
2025-01-07 10:50:14.447011	261.5	17.2	-92.4	4.7
2025-01-07 10:50:15.602802	261.3	17.1	-92.6	5.5
2025-01-07 10:50:16.765425	261.2	17.0	-92.2	3.6
2025-01-07 10:50:17.924346	261.1	16.8	-91.2	4.7
2025-01-07 10:50:19.079031	261.0	16.7	-92.0	4.1
2025-01-07 10:50:20.244800	260.8	16.6	-91.7	4.9
2025-01-07 10:50:21.410034	260.7	16.5	-92.1	6.6
2025-01-07 10:50:22.571339	260.6	16.4	-92.0	10.5
2025-01-07 10:50:23.740347	260.5	16.3	-92.3	4.3
2025-01-07 10:50:24.901318	260.4	16.1	-90.1	5.7
2025-01-07 10:50:26.064059	260.2	16.0	-91.4	4.2
2025-01-07 10:50:27.219883	260.1	15.9	-90.7	8.8
2025-01-07 10:50:28.376182	260.0	15.8	-90.9	2.7
2025-01-07 10:50:29.535534	259.9	15.7	-91.6	3.8
2025-01-07 10:50:30.703875	259.8	15.6	-90.6	4.3
2025-01-07 10:50:31.865284	259.7	15.5	-91.0	3.4
2025-01-07 10:50:33.023599	259.6	15.4	-91.2	2.9
2025-01-07 10:50:34.186653	259.5	15.2	-91.2	7.0
2025-01-07 10:50:35.340334	259.4	15.1	-91.1	2.3
2025-01-07 10:50:36.493482	259.2	15.0	-91.2	5.4
2025-01-07 10:50:37.637535	259.1	14.9	-91.7	4.9
2025-01-07 10:50:38.759908	259.0	14.8	-92.0	3.2
2025-01-07 10:50:39.879707	258.9	14.7	-91.7	7.3
2025-01-07 10:50:41.000246	258.8	14.6	-92.0	4.5
2025-01-07 10:50:42.150052	258.7	14.5	-91.3	4.4
#Closed at: 2025-01-07 10:42:29.448944