passes_logs/2025/01/07/LEX_Murmansk/LEX_Murmansk__20250107_090139_NOAA_19_rec.log

#Pass ID: 20250107_090139_NOAA 19
#Satellite: NOAA 19
#Configuration: NOAA 19
#Start time: 2025-01-07 09:01:34.412982

#LorettStation: 1.0.0 05.05.2024
#Station: LEX_Murmansk
#Location: 33.156738 lon 68.926811 lat
#TLE: 1 33591U 09005A   25006.86236638  .00000398  00000+0  23653-3 0  9991
#TLE: 2 33591  99.0211  70.5614 0014662  79.2072 281.0749 14.13253225820137

#Time	Az	El	Level	SNR
2025-01-07 09:01:46.693872	25.6	16.3	-91.9	3.7
2025-01-07 09:01:48.965579	25.6	16.6	-92.0	6.3
2025-01-07 09:01:51.269342	25.6	16.8	-91.8	2.4
2025-01-07 09:01:53.576215	25.6	17.1	-92.0	6.7
2025-01-07 09:01:55.888809	25.6	17.4	-92.3	6.6
2025-01-07 09:01:58.207154	25.6	17.7	-91.7	2.5
2025-01-07 09:02:00.517510	25.6	17.9	-91.9	3.7
2025-01-07 09:02:02.842380	25.6	18.2	-91.8	7.3
2025-01-07 09:02:05.148067	25.5	18.5	-91.9	9.2
2025-01-07 09:02:07.418016	25.5	18.8	-92.2	5.7
2025-01-07 09:02:09.724573	25.5	19.0	-92.2	7.6
2025-01-07 09:02:12.045868	25.5	19.3	-92.2	11.5
2025-01-07 09:02:14.357530	25.5	19.6	-92.0	2.2
2025-01-07 09:02:16.675782	25.5	19.9	-92.3	3.9
2025-01-07 09:02:19.000715	25.5	20.2	-92.2	10.1
2025-01-07 09:02:21.333101	25.5	20.5	-92.2	6.9
2025-01-07 09:02:23.653261	25.5	20.8	-92.1	8.1
2025-01-07 09:02:25.977161	25.4	21.2	-92.3	11.9
2025-01-07 09:02:28.307365	25.4	21.5	-91.7	8.0
2025-01-07 09:02:30.632413	25.4	21.8	-91.2	4.9
2025-01-07 09:02:32.951912	25.4	22.1	-91.6	2.2
2025-01-07 09:02:35.271781	25.4	22.4	-92.0	9.6
2025-01-07 09:02:37.581266	25.4	22.8	-91.9	11.2
2025-01-07 09:02:39.902825	25.3	23.1	-92.1	4.2
2025-01-07 09:02:42.195271	25.3	23.5	-92.3	6.9
2025-01-07 09:02:44.437596	25.3	23.8	-92.5	10.3
2025-01-07 09:02:46.678728	25.3	24.1	-92.2	4.2
2025-01-07 09:02:48.921533	25.3	24.5	-92.4	5.9
2025-01-07 09:02:51.168467	25.3	24.8	-91.9	13.1
2025-01-07 09:02:53.457254	25.2	25.2	-92.2	13.5
2025-01-07 09:02:55.767159	25.2	25.5	-92.3	5.9
2025-01-07 09:02:58.088427	25.2	25.9	-92.0	10.0
2025-01-07 09:03:00.401773	25.2	26.3	-92.3	11.4
2025-01-07 09:03:02.720169	25.2	26.7	-92.2	3.3
2025-01-07 09:03:05.038255	25.1	27.1	-92.5	3.4
2025-01-07 09:03:07.363222	25.1	27.5	-92.0	8.0
2025-01-07 09:03:09.692153	25.1	27.9	-92.3	12.4
2025-01-07 09:03:12.015921	25.1	28.3	-92.3	7.8
2025-01-07 09:03:14.332502	25.0	28.7	-92.0	9.1
2025-01-07 09:03:16.608488	25.0	29.1	-92.3	9.1
2025-01-07 09:03:18.915200	25.0	29.5	-92.4	2.7
2025-01-07 09:03:21.219155	24.9	30.0	-92.3	4.7
2025-01-07 09:03:23.527164	24.9	30.4	-92.3	6.0
2025-01-07 09:03:25.844016	24.9	30.8	-92.2	11.2
2025-01-07 09:03:28.164533	24.8	31.3	-92.3	7.5
2025-01-07 09:03:30.492406	24.8	31.8	-92.7	9.0
2025-01-07 09:03:32.825419	24.8	32.2	-92.7	10.2
2025-01-07 09:03:35.144903	24.7	32.7	-92.3	5.6
2025-01-07 09:03:37.449306	24.7	33.2	-92.6	2.9
2025-01-07 09:03:39.733338	24.7	33.7	-92.5	2.9
2025-01-07 09:03:42.029803	24.6	34.2	-92.3	7.9
2025-01-07 09:03:44.307805	24.6	34.6	-92.3	9.9
2025-01-07 09:03:46.606084	24.5	35.2	-92.6	11.0
2025-01-07 09:03:48.910012	24.5	35.7	-92.4	12.0
2025-01-07 09:03:51.220400	24.4	36.2	-92.2	10.0
2025-01-07 09:03:53.541335	24.4	36.7	-92.9	7.4
2025-01-07 09:03:55.863892	24.3	37.3	-92.6	3.7
2025-01-07 09:03:58.187349	24.3	37.9	-92.2	7.6
2025-01-07 09:04:00.504753	24.2	38.4	-92.4	16.6
2025-01-07 09:04:02.821499	24.2	39.0	-92.3	12.1
2025-01-07 09:04:05.101210	24.1	39.6	-92.3	11.1
2025-01-07 09:04:07.388758	24.0	40.2	-92.6	17.0
2025-01-07 09:04:09.695720	24.0	40.8	-92.5	16.2
2025-01-07 09:04:11.982191	23.9	41.4	-92.2	7.8
2025-01-07 09:04:14.280205	23.8	42.0	-92.5	3.7
2025-01-07 09:04:16.588463	23.7	42.6	-92.7	10.1
2025-01-07 09:04:18.907571	23.7	43.3	-91.7	15.8
2025-01-07 09:04:21.237879	23.6	43.9	-91.1	14.3
2025-01-07 09:04:23.559083	23.5	44.6	-91.4	11.4
2025-01-07 09:04:25.882351	23.4	45.3	-91.7	14.7
2025-01-07 09:04:28.211566	23.3	46.0	-91.6	17.3
2025-01-07 09:04:30.530640	23.2	46.7	-92.2	11.3
2025-01-07 09:04:32.856554	23.1	47.4	-92.1	4.0
2025-01-07 09:04:35.175267	23.0	48.1	-92.3	2.8
2025-01-07 09:04:37.508153	22.9	48.9	-92.7	11.1
2025-01-07 09:04:39.840084	22.7	49.6	-92.6	14.0
2025-01-07 09:04:42.171669	22.6	50.4	-92.6	8.8
2025-01-07 09:04:44.497504	22.5	51.2	-92.7	9.1
2025-01-07 09:04:46.830247	22.3	52.0	-92.2	7.9
2025-01-07 09:04:49.150830	22.2	52.8	-92.3	13.0
2025-01-07 09:04:51.467199	22.0	53.6	-92.6	3.7
2025-01-07 09:04:53.793195	21.8	54.5	-92.4	4.6
2025-01-07 09:04:56.114848	21.7	55.3	-92.5	3.8
2025-01-07 09:04:58.433951	21.5	56.2	-92.0	4.9
2025-01-07 09:05:00.750706	21.2	57.0	-92.3	9.2
2025-01-07 09:05:03.079819	21.0	57.9	-92.5	9.2
2025-01-07 09:05:05.393451	20.8	58.8	-92.3	8.0
2025-01-07 09:05:07.689358	20.5	59.7	-92.4	8.4
2025-01-07 09:05:09.933064	20.3	60.6	-92.4	14.4
2025-01-07 09:05:12.175865	20.0	61.5	-92.0	17.2
2025-01-07 09:05:14.417960	19.7	62.4	-92.5	14.2
2025-01-07 09:05:16.662115	19.3	63.4	-92.4	9.5
2025-01-07 09:05:18.946204	18.9	64.3	-92.7	5.3
2025-01-07 09:05:21.244151	18.5	65.3	-92.4	2.4
2025-01-07 09:05:23.570617	18.1	66.3	-92.6	10.6
2025-01-07 09:05:25.895831	17.6	67.3	-92.6	12.4
2025-01-07 09:05:28.215728	17.0	68.3	-92.4	12.8
2025-01-07 09:05:30.537624	16.4	69.4	-92.9	7.9
2025-01-07 09:05:32.860133	15.7	70.4	-92.2	9.0
2025-01-07 09:05:35.188891	15.0	71.4	-92.2	8.1
2025-01-07 09:05:37.513728	14.1	72.5	-92.3	12.4
2025-01-07 09:05:39.825364	13.1	73.5	-92.4	10.9
2025-01-07 09:05:42.146534	12.0	74.6	-92.5	14.1
2025-01-07 09:05:44.474726	10.7	75.7	-92.7	16.0
2025-01-07 09:05:46.791387	9.2	76.7	-92.5	17.6
2025-01-07 09:05:49.096138	7.5	77.8	-92.1	12.5
2025-01-07 09:05:51.389676	5.3	78.8	-92.7	11.2
2025-01-07 09:05:53.630925	2.9	79.8	-92.6	9.9
2025-01-07 09:05:55.872427	359.8	80.8	-92.5	7.3
2025-01-07 09:05:58.114287	356.1	81.8	-92.2	8.1
2025-01-07 09:06:00.362766	351.3	82.7	-92.4	8.2
2025-01-07 09:06:02.667133	345.0	83.6	-92.6	14.8
2025-01-07 09:06:04.988157	336.8	84.4	-92.4	19.8
2025-01-07 09:06:07.306177	326.2	85.0	-92.4	19.3
2025-01-07 09:06:09.617109	313.1	85.4	-92.8	20.5
2025-01-07 09:06:11.899199	298.5	85.6	-92.6	21.4
2025-01-07 09:06:14.190341	283.8	85.4	-92.4	21.4
2025-01-07 09:06:16.506338	270.8	85.0	-92.7	22.7
2025-01-07 09:06:18.814526	260.2	84.4	-92.5	19.4
2025-01-07 09:06:21.134059	252.0	83.6	-92.4	19.1
2025-01-07 09:06:23.454563	245.7	82.7	-92.5	18.8
2025-01-07 09:06:25.784777	240.8	81.7	-92.3	14.7
2025-01-07 09:06:28.095838	236.9	80.7	-92.4	15.4
2025-01-07 09:06:30.412717	233.9	79.7	-92.5	13.8
2025-01-07 09:06:32.722701	231.4	78.7	-92.5	10.5
2025-01-07 09:06:34.998906	229.3	77.6	-92.3	13.6
2025-01-07 09:06:37.293588	227.6	76.6	-91.9	7.8
2025-01-07 09:06:39.601659	226.1	75.5	-91.9	11.4
2025-01-07 09:06:41.912061	224.9	74.5	-91.9	11.7
2025-01-07 09:06:44.238166	223.8	73.4	-92.4	7.3
2025-01-07 09:06:46.560667	222.8	72.4	-92.5	13.2
2025-01-07 09:06:48.885406	222.0	71.3	-92.6	13.4
2025-01-07 09:06:51.209188	221.2	70.3	-90.5	10.6
2025-01-07 09:06:53.537165	220.5	69.2	-92.6	15.4
2025-01-07 09:06:55.864497	219.9	68.2	-92.4	11.7
2025-01-07 09:06:58.172766	219.4	67.2	-92.2	12.2
2025-01-07 09:07:00.482916	218.9	66.2	-92.4	16.6
2025-01-07 09:07:02.810040	218.5	65.2	-92.8	16.1
2025-01-07 09:07:05.132233	218.0	64.2	-92.3	21.5
2025-01-07 09:07:07.445905	217.7	63.2	-92.6	20.8
2025-01-07 09:07:09.771353	217.3	62.3	-92.4	20.2
2025-01-07 09:07:12.096115	217.0	61.3	-92.3	19.8
2025-01-07 09:07:14.422142	216.7	60.4	-92.7	18.9
2025-01-07 09:07:16.738534	216.4	59.5	-92.9	21.0
2025-01-07 09:07:19.057970	216.2	58.5	-92.4	17.7
2025-01-07 09:07:21.377784	216.0	57.7	-92.6	19.1
2025-01-07 09:07:23.696821	215.7	56.8	-91.8	18.3
2025-01-07 09:07:26.024396	215.5	55.9	-92.2	11.2
2025-01-07 09:07:28.344895	215.3	55.0	-91.5	19.1
2025-01-07 09:07:30.667005	215.1	54.2	-92.5	16.9
2025-01-07 09:07:32.990053	215.0	53.4	-92.6	12.2
2025-01-07 09:07:35.320605	214.8	52.5	-92.5	18.1
2025-01-07 09:07:37.633241	214.7	51.7	-92.2	14.9
2025-01-07 09:07:39.954107	214.5	51.0	-92.5	16.4
2025-01-07 09:07:42.276938	214.4	50.2	-91.8	14.3
2025-01-07 09:07:44.597480	214.3	49.4	-92.6	14.2
2025-01-07 09:07:46.934889	214.1	48.7	-92.6	11.9
2025-01-07 09:07:49.274313	214.0	47.9	-92.2	14.7
2025-01-07 09:07:51.593260	213.9	47.2	-92.9	3.3
2025-01-07 09:07:53.936049	213.8	46.5	-92.1	7.0
2025-01-07 09:07:56.259214	213.7	45.8	-92.4	15.5
2025-01-07 09:07:58.588243	213.6	45.1	-92.7	9.2
2025-01-07 09:08:00.893905	213.5	44.4	-92.7	15.2
2025-01-07 09:08:03.223082	213.4	43.7	-92.5	13.2
2025-01-07 09:08:05.547167	213.3	43.1	-92.7	11.7
2025-01-07 09:08:07.860146	213.3	42.4	-91.2	13.3
2025-01-07 09:08:10.181472	213.2	41.8	-91.8	10.1
2025-01-07 09:08:12.512138	213.1	41.2	-92.7	6.9
2025-01-07 09:08:14.842112	213.0	40.5	-91.9	10.2
2025-01-07 09:08:17.158312	213.0	39.9	-92.4	11.5
2025-01-07 09:08:19.478619	212.9	39.3	-91.8	10.4
2025-01-07 09:08:21.804792	212.8	38.8	-92.3	11.0
2025-01-07 09:08:24.136793	212.8	38.2	-92.6	12.6
2025-01-07 09:08:26.455723	212.7	37.6	-89.9	5.8
2025-01-07 09:08:28.772896	212.7	37.1	-91.4	9.4
2025-01-07 09:08:31.099700	212.6	36.5	-92.0	4.0
2025-01-07 09:08:33.425788	212.6	36.0	-91.3	7.0
2025-01-07 09:08:35.745451	212.5	35.4	-90.7	9.0
2025-01-07 09:08:38.070763	212.5	34.9	-89.8	10.4
2025-01-07 09:08:40.390144	212.4	34.4	-92.2	10.0
2025-01-07 09:08:42.720365	212.4	33.9	-92.4	10.4
2025-01-07 09:08:45.038164	212.3	33.4	-92.0	6.4
2025-01-07 09:08:47.349837	212.3	32.9	-92.5	8.8
2025-01-07 09:08:49.672438	212.3	32.5	-91.3	5.4
2025-01-07 09:08:51.997566	212.2	32.0	-92.9	6.2
2025-01-07 09:08:54.326494	212.2	31.5	-92.7	3.8
2025-01-07 09:08:56.659251	212.2	31.1	-92.6	5.5
2025-01-07 09:08:58.980120	212.1	30.6	-92.2	4.0
2025-01-07 09:09:01.277105	212.1	30.2	-92.6	8.7
2025-01-07 09:09:03.571653	212.1	29.7	-92.3	2.5
2025-01-07 09:09:05.812803	212.0	29.3	-92.4	7.5
2025-01-07 09:09:08.056421	212.0	28.9	-92.7	9.9
2025-01-07 09:09:10.298467	212.0	28.5	-91.7	9.3
2025-01-07 09:09:12.555453	211.9	28.1	-92.7	6.1
2025-01-07 09:09:14.862892	211.9	27.7	-92.4	8.2
2025-01-07 09:09:17.182321	211.9	27.3	-92.7	5.8
2025-01-07 09:09:19.494732	211.9	26.9	-92.6	6.8
2025-01-07 09:09:21.811755	211.8	26.5	-92.8	5.5
2025-01-07 09:09:24.140620	211.8	26.1	-92.6	7.5
2025-01-07 09:09:26.462139	211.8	25.7	-92.7	7.8
2025-01-07 09:09:28.776206	211.8	25.4	-92.9	6.3
2025-01-07 09:09:31.097674	211.8	25.0	-92.7	4.5
2025-01-07 09:09:33.417786	211.7	24.6	-92.9	6.1
2025-01-07 09:09:35.744058	211.7	24.3	-92.5	10.0
2025-01-07 09:09:38.057048	211.7	23.9	-92.1	10.3
2025-01-07 09:09:40.359939	211.7	23.6	-92.8	11.0
2025-01-07 09:09:42.636126	211.7	23.3	-92.5	6.9
2025-01-07 09:09:44.941548	211.6	22.9	-92.3	7.1
2025-01-07 09:09:47.259475	211.6	22.6	-92.7	11.0
2025-01-07 09:09:49.562247	211.6	22.3	-92.6	7.3
2025-01-07 09:09:51.881452	211.6	21.9	-93.1	9.6
2025-01-07 09:09:54.201245	211.6	21.6	-92.2	9.0
2025-01-07 09:09:56.516862	211.6	21.3	-92.3	5.8
2025-01-07 09:09:58.838757	211.5	21.0	-91.9	5.7
2025-01-07 09:10:01.146233	211.5	20.7	-91.8	6.0
2025-01-07 09:10:03.467266	211.5	20.4	-92.6	5.3
2025-01-07 09:10:05.771672	211.5	20.1	-93.1	9.6
2025-01-07 09:10:08.037579	211.5	19.8	-93.1	7.6
2025-01-07 09:10:10.338241	211.5	19.5	-92.8	6.3
2025-01-07 09:10:12.637294	211.5	19.2	-91.9	4.4
2025-01-07 09:10:14.945396	211.5	18.9	-92.3	3.9
2025-01-07 09:10:17.268260	211.4	18.6	-92.2	7.2
2025-01-07 09:10:19.593276	211.4	18.3	-92.7	7.7
2025-01-07 09:10:21.923268	211.4	18.0	-92.1	5.8
2025-01-07 09:10:24.245763	211.4	17.8	-91.4	4.5
2025-01-07 09:10:26.567713	211.4	17.5	-92.1	2.3
2025-01-07 09:10:28.878309	211.4	17.2	-91.9	5.7
2025-01-07 09:10:31.161901	211.4	17.0	-92.4	6.7
2025-01-07 09:10:33.455091	211.4	16.7	-92.2	6.0
2025-01-07 09:10:35.763853	211.4	16.4	-92.7	5.4
2025-01-07 09:10:38.068710	211.4	16.2	-92.2	2.7
2025-01-07 09:10:40.380098	211.4	15.9	-92.5	5.1
2025-01-07 09:10:42.702089	211.3	15.7	-92.2	5.9
2025-01-07 09:10:45.018626	211.3	15.4	-92.9	5.3
2025-01-07 09:10:47.341880	211.3	15.2	-92.3	5.7
2025-01-07 09:10:49.622307	211.3	14.9	-92.5	3.7
2025-01-07 09:10:51.930529	211.3	14.7	-92.4	1.6
2025-01-07 09:10:54.260374	211.3	14.4	-92.4	0.9
#Closed at: 2025-01-07 09:01:39.460454