passes_logs/2025/01/07/LEX_Murmansk/LEX_Murmansk__20250107_160856_NOAA_18_rec.log

#Pass ID: 20250107_160856_NOAA 18
#Satellite: NOAA 18
#Configuration: NOAA 18
#Start time: 2025-01-07 16:08:51.839860

#LorettStation: 1.0.0 05.05.2024
#Station: LEX_Murmansk
#Location: 33.156738 lon 68.926811 lat
#TLE: 1 28654U 05018A   25006.88073240  .00000470  00000+0  27325-3 0  9996
#TLE: 2 28654  98.8580  88.0152 0013976 202.1444 157.9126 14.13479687 11959

#Time	Az	El	Level	SNR
2025-01-07 16:09:04.086498	74.6	16.0	-91.8	8.4
2025-01-07 16:09:05.239455	74.4	16.1	-91.6	14.7
2025-01-07 16:09:06.399233	74.3	16.2	-91.8	11.2
2025-01-07 16:09:07.557282	74.1	16.3	-92.4	4.5
2025-01-07 16:09:08.719767	74.0	16.4	-92.3	16.3
2025-01-07 16:09:09.881834	73.8	16.5	-91.3	11.7
2025-01-07 16:09:11.043856	73.6	16.6	-91.3	10.6
2025-01-07 16:09:12.202970	73.5	16.7	-90.9	13.2
2025-01-07 16:09:13.363656	73.3	16.8	-90.7	16.5
2025-01-07 16:09:14.522390	73.2	16.9	-91.5	19.3
2025-01-07 16:09:15.687997	73.0	17.0	-91.7	6.5
2025-01-07 16:09:16.841366	72.8	17.1	-91.3	14.2
2025-01-07 16:09:17.988296	72.7	17.2	-91.4	8.6
2025-01-07 16:09:19.121959	72.5	17.3	-90.9	9.5
2025-01-07 16:09:20.273082	72.3	17.4	-91.2	13.6
2025-01-07 16:09:21.414134	72.1	17.5	-90.9	11.0
2025-01-07 16:09:22.544443	72.0	17.6	-91.2	18.0
2025-01-07 16:09:23.686482	71.8	17.7	-91.1	11.7
2025-01-07 16:09:24.841903	71.6	17.8	-91.5	9.7
2025-01-07 16:09:26.005315	71.5	17.9	-91.3	9.2
2025-01-07 16:09:27.159349	71.3	18.0	-90.8	5.8
2025-01-07 16:09:28.283413	71.1	18.1	-90.7	15.7
2025-01-07 16:09:29.434603	70.9	18.2	-92.1	8.4
2025-01-07 16:09:30.571337	70.7	18.3	-92.5	13.6
2025-01-07 16:09:31.724319	70.6	18.4	-92.4	12.5
2025-01-07 16:09:32.880595	70.4	18.5	-92.6	6.5
2025-01-07 16:09:34.040210	70.2	18.6	-91.9	10.8
2025-01-07 16:09:35.201378	70.0	18.7	-91.9	15.2
2025-01-07 16:09:36.364581	69.8	18.8	-92.0	14.7
2025-01-07 16:09:37.523400	69.6	18.9	-91.7	5.6
2025-01-07 16:09:38.677454	69.4	19.0	-91.6	10.5
2025-01-07 16:09:39.846581	69.2	19.1	-92.0	12.7
2025-01-07 16:09:41.005776	69.1	19.2	-92.4	12.9
2025-01-07 16:09:42.164672	68.9	19.3	-91.5	11.4
2025-01-07 16:09:43.328125	68.7	19.4	-91.4	14.4
2025-01-07 16:09:44.493330	68.5	19.5	-91.7	9.6
2025-01-07 16:09:45.655660	68.3	19.6	-92.0	7.4
2025-01-07 16:09:46.812131	68.1	19.7	-92.1	17.1
2025-01-07 16:09:47.975078	67.9	19.8	-92.0	8.0
2025-01-07 16:09:49.138853	67.7	19.9	-91.6	5.3
2025-01-07 16:09:50.299544	67.5	20.0	-91.9	14.1
2025-01-07 16:09:51.462276	67.3	20.1	-92.0	10.1
2025-01-07 16:09:52.612359	67.0	20.2	-92.3	14.2
2025-01-07 16:09:53.769347	66.8	20.3	-91.7	16.6
2025-01-07 16:09:54.926707	66.6	20.4	-92.0	16.6
2025-01-07 16:09:56.089717	66.4	20.5	-91.5	11.1
2025-01-07 16:09:57.258286	66.2	20.6	-91.8	12.0
2025-01-07 16:09:58.421584	66.0	20.7	-91.5	9.5
2025-01-07 16:09:59.586842	65.8	20.8	-91.7	14.1
2025-01-07 16:10:00.739902	65.6	20.9	-91.7	13.3
2025-01-07 16:10:01.899328	65.3	21.0	-91.9	14.2
2025-01-07 16:10:03.057731	65.1	21.1	-91.3	15.4
2025-01-07 16:10:04.224089	64.9	21.3	-91.9	15.0
2025-01-07 16:10:05.378585	64.7	21.4	-92.2	10.8
2025-01-07 16:10:06.534764	64.5	21.5	-92.6	7.5
2025-01-07 16:10:07.685225	64.2	21.6	-92.6	12.6
2025-01-07 16:10:08.806605	64.0	21.7	-92.5	15.3
2025-01-07 16:10:09.928328	63.8	21.8	-92.2	7.6
2025-01-07 16:10:11.048930	63.6	21.8	-92.2	7.6
2025-01-07 16:10:12.170404	63.4	21.9	-92.4	12.0
2025-01-07 16:10:13.291526	63.1	22.0	-91.8	14.7
2025-01-07 16:10:14.411133	62.9	22.1	-92.1	16.3
2025-01-07 16:10:15.532424	62.7	22.2	-92.3	19.0
2025-01-07 16:10:16.657858	62.4	22.3	-92.3	15.0
2025-01-07 16:10:17.803168	62.2	22.4	-92.3	15.6
2025-01-07 16:10:18.947032	62.0	22.5	-92.5	15.3
2025-01-07 16:10:20.106316	61.7	22.6	-91.9	10.5
2025-01-07 16:10:21.269090	61.5	22.7	-91.9	16.4
2025-01-07 16:10:22.432096	61.2	22.8	-92.0	14.5
2025-01-07 16:10:23.595318	61.0	22.9	-92.9	14.9
2025-01-07 16:10:24.752752	60.7	23.0	-92.5	15.1
2025-01-07 16:10:25.918001	60.5	23.1	-92.6	15.0
2025-01-07 16:10:27.068979	60.2	23.2	-92.1	10.7
2025-01-07 16:10:28.232355	60.0	23.3	-92.3	10.5
2025-01-07 16:10:29.403174	59.7	23.4	-92.1	7.6
2025-01-07 16:10:30.569931	59.5	23.5	-92.3	6.3
2025-01-07 16:10:31.729997	59.2	23.6	-92.5	10.0
2025-01-07 16:10:32.889471	59.0	23.7	-92.5	14.5
2025-01-07 16:10:34.058470	58.7	23.8	-92.4	6.4
2025-01-07 16:10:35.231108	58.4	23.9	-91.7	7.1
2025-01-07 16:10:36.396041	58.2	24.0	-91.8	9.3
2025-01-07 16:10:37.559050	57.9	24.1	-92.0	10.4
2025-01-07 16:10:38.717439	57.6	24.2	-92.2	12.1
2025-01-07 16:10:39.879683	57.4	24.3	-91.8	11.0
2025-01-07 16:10:41.042302	57.1	24.4	-91.6	11.6
2025-01-07 16:10:42.197124	56.8	24.5	-91.5	11.1
2025-01-07 16:10:43.356816	56.6	24.6	-91.8	12.7
2025-01-07 16:10:44.521837	56.3	24.7	-91.8	4.6
2025-01-07 16:10:45.683214	56.0	24.8	-92.1	7.4
2025-01-07 16:10:46.846483	55.7	24.9	-92.3	13.5
2025-01-07 16:10:48.012391	55.4	25.0	-92.6	10.7
2025-01-07 16:10:49.161118	55.2	25.1	-92.2	7.4
2025-01-07 16:10:50.326652	54.9	25.2	-92.2	10.9
2025-01-07 16:10:51.490757	54.6	25.3	-92.3	8.7
2025-01-07 16:10:52.651376	54.3	25.3	-92.7	11.6
2025-01-07 16:10:53.813843	54.0	25.4	-92.4	12.0
2025-01-07 16:10:54.978685	53.7	25.5	-92.2	7.1
2025-01-07 16:10:56.134842	53.4	25.6	-92.4	5.9
2025-01-07 16:10:57.297657	53.1	25.7	-92.6	9.6
2025-01-07 16:10:58.462020	52.8	25.8	-92.5	5.7
2025-01-07 16:10:59.626146	52.5	25.9	-92.5	5.2
2025-01-07 16:11:00.776118	52.2	26.0	-92.3	13.0
2025-01-07 16:11:01.933418	51.9	26.1	-92.7	9.6
2025-01-07 16:11:03.092089	51.6	26.1	-92.3	10.3
2025-01-07 16:11:04.254893	51.3	26.2	-92.2	12.1
2025-01-07 16:11:05.397470	51.0	26.3	-92.7	12.1
2025-01-07 16:11:06.555347	50.7	26.4	-92.3	8.2
2025-01-07 16:11:07.708970	50.4	26.5	-92.2	9.8
2025-01-07 16:11:08.863788	50.1	26.6	-92.3	6.3
2025-01-07 16:11:09.986533	49.8	26.6	-92.4	5.6
2025-01-07 16:11:11.106474	49.5	26.7	-92.1	5.9
2025-01-07 16:11:12.226807	49.2	26.8	-92.1	5.8
2025-01-07 16:11:13.347313	48.9	26.9	-91.8	6.5
2025-01-07 16:11:14.468519	48.6	27.0	-92.5	5.1
2025-01-07 16:11:15.588724	48.3	27.0	-92.4	4.5
2025-01-07 16:11:16.710439	48.0	27.1	-92.5	9.4
2025-01-07 16:11:17.836596	47.7	27.2	-92.3	11.8
2025-01-07 16:11:18.990679	47.3	27.3	-92.7	9.2
2025-01-07 16:11:20.150228	47.0	27.3	-92.0	7.9
2025-01-07 16:11:21.302199	46.7	27.4	-91.5	7.7
2025-01-07 16:11:22.454238	46.3	27.5	-92.5	7.8
2025-01-07 16:11:23.622162	46.0	27.6	-92.4	3.9
2025-01-07 16:11:24.751013	45.7	27.6	-92.4	11.5
2025-01-07 16:11:25.886874	45.4	27.7	-92.8	6.8
2025-01-07 16:11:27.020374	45.0	27.8	-92.7	3.9
2025-01-07 16:11:28.156358	44.7	27.8	-92.3	6.4
2025-01-07 16:11:29.324393	44.4	27.9	-92.1	9.6
2025-01-07 16:11:30.472379	44.0	28.0	-92.1	4.3
2025-01-07 16:11:31.638575	43.7	28.0	-92.4	10.7
2025-01-07 16:11:32.788471	43.4	28.1	-92.4	10.9
2025-01-07 16:11:33.953733	43.0	28.2	-92.2	12.2
2025-01-07 16:11:35.110682	42.7	28.2	-92.0	13.6
2025-01-07 16:11:36.276175	42.3	28.3	-92.3	11.7
2025-01-07 16:11:37.437167	42.0	28.4	-92.0	6.1
2025-01-07 16:11:38.602736	41.6	28.4	-92.5	7.4
2025-01-07 16:11:39.765853	41.3	28.5	-92.6	12.2
2025-01-07 16:11:40.934460	40.9	28.5	-92.1	8.9
2025-01-07 16:11:42.098362	40.6	28.6	-92.1	9.5
2025-01-07 16:11:43.263814	40.2	28.7	-91.9	11.7
2025-01-07 16:11:44.430750	39.8	28.7	-92.3	10.9
2025-01-07 16:11:45.584621	39.5	28.8	-92.2	5.8
2025-01-07 16:11:46.750274	39.1	28.8	-92.2	6.5
2025-01-07 16:11:47.910425	38.8	28.9	-91.8	9.3
2025-01-07 16:11:49.077077	38.4	28.9	-91.3	8.2
2025-01-07 16:11:50.240186	38.0	29.0	-91.2	10.1
2025-01-07 16:11:51.403931	37.7	29.0	-91.5	8.9
2025-01-07 16:11:52.559679	37.3	29.1	-92.2	12.6
2025-01-07 16:11:53.722870	36.9	29.1	-92.3	14.2
2025-01-07 16:11:54.887846	36.6	29.2	-92.4	15.0
2025-01-07 16:11:56.048540	36.2	29.2	-92.4	11.3
2025-01-07 16:11:57.215158	35.8	29.3	-92.0	14.6
2025-01-07 16:11:58.382690	35.5	29.3	-91.9	10.8
2025-01-07 16:11:59.541637	35.1	29.3	-92.6	9.9
2025-01-07 16:12:00.689829	34.7	29.4	-92.4	9.2
2025-01-07 16:12:01.848168	34.4	29.4	-92.1	10.2
2025-01-07 16:12:03.005407	34.0	29.4	-92.3	6.9
2025-01-07 16:12:04.170856	33.6	29.5	-92.0	8.7
2025-01-07 16:12:05.329856	33.2	29.5	-92.4	13.1
2025-01-07 16:12:06.480809	32.9	29.5	-92.5	9.5
2025-01-07 16:12:07.611219	32.5	29.6	-92.8	8.7
2025-01-07 16:12:08.731272	32.1	29.6	-92.2	12.9
2025-01-07 16:12:09.850974	31.8	29.6	-92.5	12.1
2025-01-07 16:12:10.972817	31.4	29.7	-92.4	7.2
2025-01-07 16:12:12.092829	31.0	29.7	-91.9	6.9
2025-01-07 16:12:13.215555	30.7	29.7	-92.2	11.5
2025-01-07 16:12:14.336410	30.3	29.7	-92.0	12.1
2025-01-07 16:12:15.458104	29.9	29.7	-92.6	8.8
2025-01-07 16:12:16.579897	29.6	29.8	-92.5	9.8
2025-01-07 16:12:17.727264	29.2	29.8	-92.8	9.1
2025-01-07 16:12:18.871673	28.8	29.8	-93.2	8.3
2025-01-07 16:12:20.013189	28.5	29.8	-92.0	6.6
2025-01-07 16:12:21.167696	28.1	29.8	-91.3	4.0
2025-01-07 16:12:22.316754	27.7	29.8	-91.5	6.5
2025-01-07 16:12:23.476631	27.3	29.9	-91.5	8.8
2025-01-07 16:12:24.633136	26.9	29.9	-91.8	6.6
2025-01-07 16:12:25.797653	26.5	29.9	-91.8	8.4
2025-01-07 16:12:26.960246	26.2	29.9	-91.6	9.4
2025-01-07 16:12:28.120430	25.8	29.9	-90.7	10.1
2025-01-07 16:12:29.280817	25.4	29.9	-90.7	11.2
2025-01-07 16:12:30.442841	25.0	29.9	-91.4	8.5
2025-01-07 16:12:31.609327	24.6	29.9	-90.9	7.9
2025-01-07 16:12:32.763284	24.2	29.9	-90.6	8.5
2025-01-07 16:12:33.931294	23.9	29.9	-90.9	6.8
2025-01-07 16:12:35.091982	23.5	29.9	-91.1	10.3
2025-01-07 16:12:36.255373	23.1	29.9	-90.9	12.5
2025-01-07 16:12:37.414599	22.7	29.9	-92.1	11.7
2025-01-07 16:12:38.579986	22.3	29.9	-92.6	9.1
2025-01-07 16:12:39.745073	21.9	29.9	-92.5	11.6
2025-01-07 16:12:40.902619	21.6	29.8	-92.3	11.0
2025-01-07 16:12:42.066541	21.2	29.8	-92.2	8.5
2025-01-07 16:12:43.223553	20.8	29.8	-91.9	10.4
2025-01-07 16:12:44.383973	20.4	29.8	-92.1	9.6
2025-01-07 16:12:45.542994	20.0	29.8	-92.3	8.9
2025-01-07 16:12:46.704788	19.6	29.8	-92.2	12.3
2025-01-07 16:12:47.867206	19.3	29.8	-92.1	14.1
2025-01-07 16:12:49.029410	18.9	29.7	-92.0	11.7
2025-01-07 16:12:50.183445	18.5	29.7	-91.2	10.5
2025-01-07 16:12:51.345160	18.1	29.7	-91.4	10.7
2025-01-07 16:12:52.504536	17.7	29.7	-92.0	11.3
2025-01-07 16:12:53.667555	17.4	29.6	-92.2	11.8
2025-01-07 16:12:54.837007	17.0	29.6	-92.8	12.7
2025-01-07 16:12:55.997335	16.6	29.6	-92.5	13.0
2025-01-07 16:12:57.155915	16.2	29.6	-92.2	13.7
2025-01-07 16:12:58.339476	15.9	29.5	-91.9	12.1
2025-01-07 16:12:59.506144	15.5	29.5	-92.3	13.7
2025-01-07 16:13:00.654148	15.1	29.5	-92.6	14.3
2025-01-07 16:13:01.814511	14.7	29.4	-92.5	13.1
2025-01-07 16:13:02.973339	14.4	29.4	-92.5	17.1
2025-01-07 16:13:04.142134	14.0	29.3	-91.8	15.3
2025-01-07 16:13:05.300336	13.6	29.3	-91.9	14.6
2025-01-07 16:13:06.451972	13.3	29.3	-92.3	13.1
2025-01-07 16:13:07.587688	12.9	29.2	-92.5	12.3
2025-01-07 16:13:08.707921	12.5	29.2	-92.9	12.8
2025-01-07 16:13:09.831269	12.2	29.1	-92.5	11.0
2025-01-07 16:13:10.952230	11.8	29.1	-92.5	12.8
2025-01-07 16:13:12.074525	11.5	29.0	-92.6	11.4
2025-01-07 16:13:13.194330	11.1	29.0	-92.2	10.2
2025-01-07 16:13:14.313632	10.8	29.0	-92.1	10.8
2025-01-07 16:13:15.438397	10.4	28.9	-92.3	10.8
2025-01-07 16:13:16.601838	10.1	28.9	-92.4	9.3
2025-01-07 16:13:17.750988	9.7	28.8	-92.2	10.3
2025-01-07 16:13:18.906166	9.4	28.7	-92.1	7.1
2025-01-07 16:13:20.036433	9.0	28.7	-92.6	7.3
2025-01-07 16:13:21.178497	8.7	28.6	-91.8	9.5
2025-01-07 16:13:22.336771	8.3	28.6	-91.8	7.7
2025-01-07 16:13:23.489362	7.9	28.5	-92.2	5.5
2025-01-07 16:13:24.645471	7.6	28.5	-92.2	7.0
2025-01-07 16:13:25.799167	7.3	28.4	-92.7	8.9
2025-01-07 16:13:26.953348	6.9	28.3	-92.8	6.6
2025-01-07 16:13:28.104207	6.6	28.3	-92.1	6.1
2025-01-07 16:13:29.237412	6.2	28.2	-92.0	5.9
2025-01-07 16:13:30.374334	5.9	28.2	-91.6	7.2
2025-01-07 16:13:31.529222	5.5	28.1	-92.4	8.9
2025-01-07 16:13:32.670907	5.2	28.0	-92.5	8.4
2025-01-07 16:13:33.826236	4.9	28.0	-92.8	8.5
2025-01-07 16:13:34.986203	4.5	27.9	-91.3	9.5
2025-01-07 16:13:36.144242	4.2	27.8	-90.4	9.4
2025-01-07 16:13:37.298736	3.9	27.7	-90.6	9.6
2025-01-07 16:13:38.464706	3.5	27.7	-90.7	11.7
2025-01-07 16:13:39.626450	3.2	27.6	-90.6	12.3
2025-01-07 16:13:40.795132	2.8	27.5	-91.4	12.3
2025-01-07 16:13:41.959078	2.5	27.5	-91.5	12.4
2025-01-07 16:13:43.126376	2.2	27.4	-90.4	11.5
2025-01-07 16:13:44.281908	1.9	27.3	-90.5	12.5
2025-01-07 16:13:45.444538	1.5	27.2	-91.0	14.0
2025-01-07 16:13:46.609382	1.2	27.2	-91.4	12.8
2025-01-07 16:13:47.758762	0.9	27.1	-91.8	11.1
2025-01-07 16:13:48.921086	0.6	27.0	-91.0	10.8
2025-01-07 16:13:50.062187	0.3	26.9	-91.3	9.5
2025-01-07 16:13:51.200346	359.9	26.8	-90.7	8.5
2025-01-07 16:13:52.351434	359.6	26.8	-91.1	11.9
2025-01-07 16:13:53.499416	359.3	26.7	-92.8	13.7
2025-01-07 16:13:54.651504	359.0	26.6	-92.5	12.9
2025-01-07 16:13:55.800314	358.7	26.5	-92.3	14.9
2025-01-07 16:13:56.962834	358.4	26.4	-92.4	9.5
2025-01-07 16:13:58.121945	358.1	26.3	-91.9	12.2
2025-01-07 16:13:59.277566	357.8	26.3	-92.4	12.9
2025-01-07 16:14:00.409590	357.5	26.2	-92.0	14.5
2025-01-07 16:14:01.557242	357.2	26.1	-92.9	10.8
2025-01-07 16:14:02.726456	356.9	26.0	-93.1	16.9
2025-01-07 16:14:03.875793	356.6	25.9	-92.7	16.4
2025-01-07 16:14:05.033273	356.3	25.8	-92.3	10.0
2025-01-07 16:14:06.181433	356.0	25.7	-92.1	13.2
2025-01-07 16:14:07.341298	355.7	25.6	-92.3	17.3
2025-01-07 16:14:08.502499	355.4	25.6	-92.4	9.3
2025-01-07 16:14:09.665041	355.1	25.5	-92.8	11.7
2025-01-07 16:14:10.821323	354.8	25.4	-92.4	15.5
2025-01-07 16:14:11.988508	354.5	25.3	-92.6	10.7
2025-01-07 16:14:13.146956	354.2	25.2	-91.9	11.0
2025-01-07 16:14:14.310408	353.9	25.1	-91.9	13.9
2025-01-07 16:14:15.470484	353.7	25.0	-92.5	8.5
2025-01-07 16:14:16.630203	353.4	24.9	-92.4	8.3
2025-01-07 16:14:17.797213	353.1	24.8	-92.5	13.3
2025-01-07 16:14:18.971051	352.8	24.7	-92.5	11.5
2025-01-07 16:14:20.136784	352.5	24.6	-92.1	8.0
2025-01-07 16:14:21.296756	352.3	24.5	-92.1	15.8
2025-01-07 16:14:22.461173	352.0	24.4	-92.1	11.5
2025-01-07 16:14:23.624677	351.7	24.3	-92.2	12.1
2025-01-07 16:14:24.787433	351.4	24.2	-92.3	12.8
2025-01-07 16:14:25.953547	351.2	24.1	-92.4	11.7
2025-01-07 16:14:27.114415	350.9	24.0	-92.2	14.7
2025-01-07 16:14:28.277899	350.6	24.0	-92.1	10.6
2025-01-07 16:14:29.441062	350.4	23.9	-92.3	11.8
2025-01-07 16:14:30.598766	350.1	23.8	-92.7	12.5
2025-01-07 16:14:31.761691	349.9	23.7	-92.5	13.8
2025-01-07 16:14:32.918371	349.6	23.6	-92.4	19.0
2025-01-07 16:14:34.076870	349.3	23.5	-92.4	12.5
2025-01-07 16:14:35.242083	349.1	23.4	-92.2	14.8
2025-01-07 16:14:36.406714	348.8	23.3	-91.9	13.6
2025-01-07 16:14:37.557061	348.6	23.2	-92.7	14.8
2025-01-07 16:14:38.715387	348.3	23.1	-92.8	11.0
2025-01-07 16:14:39.854436	348.1	23.0	-92.0	12.0
2025-01-07 16:14:40.976486	347.9	22.9	-92.3	10.4
2025-01-07 16:14:42.096988	347.6	22.8	-91.7	11.9
2025-01-07 16:14:43.217699	347.4	22.7	-91.8	15.1
2025-01-07 16:14:44.338776	347.1	22.6	-91.8	12.4
2025-01-07 16:14:45.459389	346.9	22.5	-92.0	9.3
2025-01-07 16:14:46.579963	346.7	22.4	-92.3	10.3
2025-01-07 16:14:47.701985	346.4	22.3	-92.2	11.8
2025-01-07 16:14:48.832353	346.2	22.2	-92.6	16.4
2025-01-07 16:14:49.957444	346.0	22.1	-92.3	11.5
2025-01-07 16:14:51.104347	345.8	22.0	-92.1	12.1
2025-01-07 16:14:52.253885	345.5	21.9	-91.6	10.9
2025-01-07 16:14:53.404451	345.3	21.8	-92.2	13.4
2025-01-07 16:14:54.558062	345.1	21.7	-92.6	12.7
2025-01-07 16:14:55.711400	344.8	21.6	-92.6	11.7
2025-01-07 16:14:56.867194	344.6	21.5	-92.2	15.5
2025-01-07 16:14:58.026987	344.4	21.4	-92.6	13.3
2025-01-07 16:14:59.190689	344.2	21.3	-91.9	11.2
2025-01-07 16:15:00.336907	344.0	21.2	-91.4	11.2
2025-01-07 16:15:01.493897	343.7	21.1	-92.2	12.6
2025-01-07 16:15:02.654163	343.5	21.0	-92.2	13.4
2025-01-07 16:15:03.813748	343.3	20.9	-92.1	12.3
2025-01-07 16:15:04.978595	343.1	20.8	-91.6	11.6
2025-01-07 16:15:06.141988	342.9	20.7	-91.7	9.3
2025-01-07 16:15:07.304290	342.7	20.6	-91.9	9.9
2025-01-07 16:15:08.460400	342.4	20.5	-92.0	9.2
2025-01-07 16:15:09.618375	342.2	20.4	-92.1	10.2
2025-01-07 16:15:10.783087	342.0	20.3	-92.4	12.1
2025-01-07 16:15:11.945744	341.8	20.2	-92.6	11.1
2025-01-07 16:15:13.102078	341.6	20.1	-92.2	10.0
2025-01-07 16:15:14.264893	341.4	19.9	-92.0	10.2
2025-01-07 16:15:15.426659	341.2	19.8	-91.9	8.2
2025-01-07 16:15:16.591974	341.0	19.7	-92.1	9.4
2025-01-07 16:15:17.746600	340.8	19.6	-92.1	8.6
2025-01-07 16:15:18.906496	340.6	19.5	-92.5	9.5
2025-01-07 16:15:20.065853	340.4	19.4	-92.1	9.7
2025-01-07 16:15:21.238700	340.2	19.3	-91.6	11.3
2025-01-07 16:15:22.403087	340.0	19.2	-91.5	9.3
2025-01-07 16:15:23.560343	339.8	19.1	-92.0	10.7
2025-01-07 16:15:24.717862	339.6	19.0	-91.7	8.9
2025-01-07 16:15:25.879633	339.4	18.9	-91.9	7.8
2025-01-07 16:15:27.042755	339.2	18.8	-92.1	7.6
2025-01-07 16:15:28.197028	339.1	18.7	-91.6	9.0
2025-01-07 16:15:29.351920	338.9	18.6	-91.9	6.7
2025-01-07 16:15:30.496633	338.7	18.5	-91.4	6.2
2025-01-07 16:15:31.617876	338.5	18.4	-91.6	7.4
2025-01-07 16:15:32.739975	338.3	18.3	-90.8	7.9
2025-01-07 16:15:33.859448	338.1	18.2	-91.8	8.7
2025-01-07 16:15:34.980885	338.0	18.1	-91.0	8.2
2025-01-07 16:15:36.102171	337.8	18.0	-90.9	7.4
2025-01-07 16:15:37.221839	337.6	17.9	-92.2	7.7
2025-01-07 16:15:38.347212	337.5	17.8	-92.0	5.5
2025-01-07 16:15:39.471892	337.3	17.7	-92.3	6.5
2025-01-07 16:15:40.632173	337.1	17.6	-92.4	7.3
2025-01-07 16:15:41.774781	336.9	17.5	-92.5	6.7
2025-01-07 16:15:42.936226	336.8	17.4	-92.6	5.9
2025-01-07 16:15:44.098637	336.6	17.3	-92.0	5.5
2025-01-07 16:15:45.266869	336.4	17.2	-92.1	4.2
2025-01-07 16:15:46.421849	336.2	17.1	-92.1	4.1
2025-01-07 16:15:47.587424	336.1	17.0	-92.1	5.3
2025-01-07 16:15:48.746203	335.9	16.9	-92.2	5.0
2025-01-07 16:15:49.905220	335.7	16.8	-92.4	4.9
2025-01-07 16:15:51.063531	335.6	16.7	-92.2	6.1
2025-01-07 16:15:52.224005	335.4	16.6	-91.9	3.9
2025-01-07 16:15:53.377413	335.3	16.5	-92.1	5.1
2025-01-07 16:15:54.538066	335.1	16.4	-92.7	5.2
2025-01-07 16:15:55.700198	334.9	16.3	-92.8	6.1
2025-01-07 16:15:56.858041	334.8	16.2	-92.6	4.8
2025-01-07 16:15:58.021339	334.6	16.1	-92.3	4.8
2025-01-07 16:15:59.176084	334.5	16.0	-92.0	5.4
2025-01-07 16:16:00.331472	334.3	16.0	-91.9	5.3
2025-01-07 16:16:01.484066	334.1	15.9	-92.8	6.3
2025-01-07 16:16:02.645857	334.0	15.8	-92.5	6.5
2025-01-07 16:16:03.802605	333.8	15.7	-92.7	6.1
2025-01-07 16:16:04.962594	333.7	15.6	-92.4	8.9
2025-01-07 16:16:06.127819	333.5	15.5	-92.1	8.9
2025-01-07 16:16:07.291438	333.4	15.4	-91.9	6.1
2025-01-07 16:16:08.451587	333.2	15.3	-92.1	8.1
2025-01-07 16:16:09.616263	333.1	15.2	-92.6	6.5
2025-01-07 16:16:10.778904	332.9	15.1	-92.4	10.1
2025-01-07 16:16:11.934905	332.8	15.0	-92.2	6.5
2025-01-07 16:16:13.094932	332.6	14.9	-91.9	7.1
2025-01-07 16:16:14.247136	332.5	14.8	-91.9	8.6
2025-01-07 16:16:15.410243	332.3	14.7	-92.0	6.2
#Closed at: 2025-01-07 16:08:56.893185