passes_logs/2025/01/07/LEX_Murmansk/LEX_Murmansk__20250107_092832_NOAA_18_rec.log

#Pass ID: 20250107_092832_NOAA 18
#Satellite: NOAA 18
#Configuration: NOAA 18
#Start time: 2025-01-07 09:28:27.743071

#LorettStation: 1.0.0 05.05.2024
#Station: LEX_Murmansk
#Location: 33.156738 lon 68.926811 lat
#TLE: 1 28654U 05018A   25006.88073240  .00000470  00000+0  27325-3 0  9996
#TLE: 2 28654  98.8580  88.0152 0013976 202.1444 157.9126 14.13479687 11959

#Time	Az	El	Level	SNR
2025-01-07 09:28:39.987093	27.7	16.3	-91.7	5.6
2025-01-07 09:28:42.276555	27.8	16.5	-91.1	7.6
2025-01-07 09:28:44.582091	27.9	16.8	-91.9	5.8
2025-01-07 09:28:46.886919	28.0	17.0	-91.5	9.5
2025-01-07 09:28:49.193333	28.1	17.3	-91.7	9.3
2025-01-07 09:28:51.487478	28.2	17.6	-92.9	5.6
2025-01-07 09:28:53.781679	28.3	17.8	-93.0	6.3
2025-01-07 09:28:56.076172	28.4	18.1	-92.5	7.5
2025-01-07 09:28:58.371237	28.5	18.3	-92.7	10.4
2025-01-07 09:29:00.653078	28.7	18.6	-93.3	7.5
2025-01-07 09:29:02.955675	28.8	18.9	-92.6	11.2
2025-01-07 09:29:05.250393	28.9	19.2	-93.0	14.5
2025-01-07 09:29:07.544427	29.0	19.4	-92.8	7.0
2025-01-07 09:29:09.853211	29.1	19.7	-93.0	12.7
2025-01-07 09:29:12.152792	29.3	20.0	-92.2	9.9
2025-01-07 09:29:14.446144	29.4	20.3	-92.6	15.4
2025-01-07 09:29:16.739192	29.5	20.6	-92.7	15.6
2025-01-07 09:29:19.005732	29.6	20.9	-93.1	16.1
2025-01-07 09:29:21.250607	29.8	21.2	-92.9	12.9
2025-01-07 09:29:23.494727	29.9	21.5	-92.9	8.8
2025-01-07 09:29:25.737139	30.0	21.8	-92.9	11.9
2025-01-07 09:29:28.005462	30.2	22.1	-93.3	10.0
2025-01-07 09:29:30.294196	30.3	22.4	-92.7	14.4
2025-01-07 09:29:32.592308	30.5	22.7	-92.8	12.2
2025-01-07 09:29:34.885073	30.6	23.0	-93.3	15.4
2025-01-07 09:29:37.194532	30.8	23.3	-92.5	13.8
2025-01-07 09:29:39.485113	30.9	23.7	-93.0	9.4
2025-01-07 09:29:41.782470	31.1	24.0	-92.8	9.3
2025-01-07 09:29:44.073175	31.2	24.3	-92.8	9.1
2025-01-07 09:29:46.365674	31.4	24.7	-92.7	16.1
2025-01-07 09:29:48.663257	31.5	25.0	-92.6	11.7
2025-01-07 09:29:50.958538	31.7	25.3	-92.0	11.1
2025-01-07 09:29:53.246341	31.9	25.7	-91.7	9.1
2025-01-07 09:29:55.540475	32.1	26.1	-93.1	5.3
2025-01-07 09:29:57.845479	32.2	26.4	-93.0	8.8
2025-01-07 09:30:00.145533	32.4	26.8	-92.9	5.0
2025-01-07 09:30:02.436822	32.6	27.1	-92.0	9.4
2025-01-07 09:30:04.726647	32.8	27.5	-92.8	9.1
2025-01-07 09:30:07.023850	33.0	27.9	-92.8	7.4
2025-01-07 09:30:09.328826	33.2	28.3	-92.3	13.0
2025-01-07 09:30:11.618855	33.4	28.7	-92.4	12.1
2025-01-07 09:30:13.909231	33.6	29.1	-92.8	10.5
2025-01-07 09:30:16.216810	33.8	29.5	-91.9	6.8
2025-01-07 09:30:18.510696	34.1	29.9	-92.4	8.4
2025-01-07 09:30:20.818023	34.3	30.3	-93.2	14.4
2025-01-07 09:30:23.112463	34.5	30.7	-92.5	8.1
2025-01-07 09:30:25.407308	34.8	31.1	-93.0	15.8
2025-01-07 09:30:27.701341	35.0	31.5	-93.0	11.7
2025-01-07 09:30:29.998107	35.2	32.0	-92.9	9.2
2025-01-07 09:30:32.303053	35.5	32.4	-92.4	9.7
2025-01-07 09:30:34.593945	35.8	32.8	-93.0	6.5
2025-01-07 09:30:36.900173	36.0	33.3	-93.0	14.0
2025-01-07 09:30:39.195547	36.3	33.7	-91.7	16.5
2025-01-07 09:30:41.504951	36.6	34.2	-92.3	14.8
2025-01-07 09:30:43.800393	36.9	34.7	-92.2	14.9
2025-01-07 09:30:46.096750	37.2	35.1	-92.5	17.1
2025-01-07 09:30:48.394096	37.5	35.6	-92.0	16.5
2025-01-07 09:30:50.671457	37.8	36.1	-92.9	9.3
2025-01-07 09:30:52.979134	38.1	36.6	-92.7	8.9
2025-01-07 09:30:55.273076	38.5	37.1	-92.6	17.6
2025-01-07 09:30:57.578705	38.8	37.6	-92.9	17.9
2025-01-07 09:30:59.875031	39.2	38.1	-92.8	17.4
2025-01-07 09:31:02.169221	39.5	38.6	-92.2	11.6
2025-01-07 09:31:04.457261	39.9	39.2	-92.5	17.1
2025-01-07 09:31:06.747415	40.3	39.7	-92.8	15.8
2025-01-07 09:31:09.049291	40.7	40.2	-92.5	11.1
2025-01-07 09:31:11.347921	41.1	40.8	-92.3	15.8
2025-01-07 09:31:13.634770	41.6	41.3	-92.6	9.5
2025-01-07 09:31:15.921661	42.0	41.9	-92.7	19.0
2025-01-07 09:31:18.215955	42.5	42.4	-92.3	18.4
2025-01-07 09:31:20.508644	43.0	43.0	-92.8	15.9
2025-01-07 09:31:22.804971	43.5	43.6	-92.8	17.8
2025-01-07 09:31:25.103936	44.0	44.2	-92.5	20.4
2025-01-07 09:31:27.401645	44.5	44.8	-92.1	15.7
2025-01-07 09:31:29.696969	45.1	45.4	-93.0	14.2
2025-01-07 09:31:31.994726	45.6	46.0	-92.1	9.0
2025-01-07 09:31:34.286770	46.2	46.6	-91.8	12.3
2025-01-07 09:31:36.591992	46.9	47.2	-92.0	14.9
2025-01-07 09:31:38.897920	47.5	47.8	-92.6	11.2
2025-01-07 09:31:41.190856	48.2	48.4	-92.3	11.5
2025-01-07 09:31:43.483824	48.9	49.1	-92.9	5.5
2025-01-07 09:31:45.784187	49.6	49.7	-91.7	15.1
2025-01-07 09:31:48.083736	50.4	50.3	-91.2	11.0
2025-01-07 09:31:50.386138	51.1	51.0	-92.2	5.3
2025-01-07 09:31:52.681264	52.0	51.6	-92.9	9.8
2025-01-07 09:31:54.972261	52.8	52.3	-92.9	7.0
2025-01-07 09:31:57.269530	53.7	52.9	-92.7	16.0
2025-01-07 09:31:59.566576	54.7	53.6	-93.2	10.9
2025-01-07 09:32:01.858304	55.6	54.2	-93.2	14.8
2025-01-07 09:32:04.147829	56.7	54.9	-92.3	16.1
2025-01-07 09:32:06.441899	57.7	55.5	-92.2	15.0
2025-01-07 09:32:08.743375	58.9	56.2	-92.2	19.3
2025-01-07 09:32:11.043989	60.0	56.8	-92.6	17.5
2025-01-07 09:32:13.332356	61.3	57.4	-91.8	20.0
2025-01-07 09:32:15.638100	62.6	58.1	-93.0	17.3
2025-01-07 09:32:17.937759	63.9	58.7	-92.2	14.3
2025-01-07 09:32:20.234189	65.3	59.3	-92.6	16.3
2025-01-07 09:32:22.530069	66.8	59.9	-92.1	12.0
2025-01-07 09:32:24.823512	68.4	60.5	-92.6	18.2
2025-01-07 09:32:27.117933	70.0	61.1	-93.0	13.7
2025-01-07 09:32:29.415227	71.7	61.7	-92.1	18.8
2025-01-07 09:32:31.723500	73.5	62.2	-92.7	20.5
2025-01-07 09:32:34.012903	75.3	62.7	-92.9	18.4
2025-01-07 09:32:36.282885	77.3	63.2	-92.9	19.4
2025-01-07 09:32:38.524616	79.2	63.7	-92.9	13.6
2025-01-07 09:32:40.765748	81.3	64.2	-93.3	20.8
2025-01-07 09:32:43.007409	83.4	64.6	-92.9	16.8
2025-01-07 09:32:45.269026	85.6	65.0	-92.7	22.6
2025-01-07 09:32:47.561537	88.0	65.3	-93.0	19.9
2025-01-07 09:32:49.864574	90.4	65.6	-92.4	19.7
2025-01-07 09:32:52.167295	92.9	65.9	-92.0	14.1
2025-01-07 09:32:54.466524	95.4	66.2	-93.0	11.8
2025-01-07 09:32:56.761374	98.0	66.4	-93.2	19.2
2025-01-07 09:32:59.067512	100.6	66.5	-92.9	12.2
2025-01-07 09:33:01.352591	103.3	66.7	-92.8	18.4
2025-01-07 09:33:03.650958	106.0	66.7	-92.8	13.1
2025-01-07 09:33:05.955536	108.7	66.7	-93.1	15.0
2025-01-07 09:33:08.245839	111.4	66.7	-92.1	19.5
2025-01-07 09:33:10.543399	114.1	66.6	-92.5	11.7
2025-01-07 09:33:12.854455	116.8	66.5	-92.7	18.4
2025-01-07 09:33:15.142693	119.4	66.4	-92.3	10.8
2025-01-07 09:33:17.437755	122.0	66.2	-92.6	14.6
2025-01-07 09:33:19.736084	124.5	65.9	-92.4	18.7
2025-01-07 09:33:22.038805	127.0	65.6	-92.7	13.9
2025-01-07 09:33:24.345862	129.4	65.3	-91.9	19.5
2025-01-07 09:33:26.641472	131.8	64.9	-92.5	16.1
2025-01-07 09:33:28.962643	134.0	64.5	-92.4	17.2
2025-01-07 09:33:31.256768	136.2	64.1	-92.1	17.1
2025-01-07 09:33:33.566490	138.3	63.6	-93.0	12.7
2025-01-07 09:33:35.866267	140.3	63.1	-92.6	16.3
2025-01-07 09:33:38.165692	142.3	62.6	-92.3	16.0
2025-01-07 09:33:40.461705	144.1	62.1	-92.6	16.7
2025-01-07 09:33:42.758459	145.9	61.5	-92.9	21.4
2025-01-07 09:33:45.054766	147.6	61.0	-92.8	16.0
2025-01-07 09:33:47.346395	149.2	60.4	-92.6	19.2
2025-01-07 09:33:49.652376	150.7	59.8	-92.5	14.3
2025-01-07 09:33:51.949323	152.2	59.2	-92.9	12.4
2025-01-07 09:33:54.249202	153.6	58.5	-92.2	12.4
2025-01-07 09:33:56.547000	154.9	57.9	-92.6	11.9
2025-01-07 09:33:58.854721	156.2	57.3	-93.7	14.2
2025-01-07 09:34:01.151746	157.4	56.6	-92.5	8.0
2025-01-07 09:34:03.459119	158.6	56.0	-93.3	11.9
2025-01-07 09:34:05.758600	159.7	55.3	-93.1	17.1
2025-01-07 09:34:08.044494	160.8	54.7	-92.8	11.5
2025-01-07 09:34:10.343438	161.8	54.0	-93.0	17.8
2025-01-07 09:34:12.643598	162.8	53.4	-93.5	7.7
2025-01-07 09:34:14.939929	163.7	52.7	-93.3	11.6
2025-01-07 09:34:17.231283	164.6	52.1	-92.8	11.6
2025-01-07 09:34:19.528235	165.4	51.4	-93.3	15.8
2025-01-07 09:34:21.825479	166.3	50.8	-93.3	16.7
2025-01-07 09:34:24.121907	167.0	50.1	-92.8	16.9
2025-01-07 09:34:26.421409	167.8	49.5	-92.9	13.3
2025-01-07 09:34:28.724988	168.5	48.8	-93.5	12.0
2025-01-07 09:34:31.024074	169.2	48.2	-93.2	12.3
2025-01-07 09:34:33.329823	169.9	47.6	-92.9	17.1
2025-01-07 09:34:35.622170	170.5	46.9	-93.3	11.2
2025-01-07 09:34:37.926741	171.1	46.3	-93.0	15.7
2025-01-07 09:34:40.236373	171.7	45.7	-92.8	16.0
2025-01-07 09:34:42.536640	172.3	45.1	-92.7	10.1
2025-01-07 09:34:44.841100	172.8	44.5	-92.9	17.3
2025-01-07 09:34:47.135628	173.4	43.9	-92.3	17.2
2025-01-07 09:34:49.430039	173.9	43.3	-93.0	20.7
2025-01-07 09:34:51.728452	174.4	42.7	-93.0	20.0
2025-01-07 09:34:54.042135	174.9	42.2	-92.8	18.1
2025-01-07 09:34:56.334223	175.3	41.6	-92.9	16.1
2025-01-07 09:34:58.629619	175.8	41.0	-92.2	11.4
2025-01-07 09:35:00.923536	176.2	40.5	-92.5	11.6
2025-01-07 09:35:03.224783	176.6	39.9	-93.0	13.7
2025-01-07 09:35:05.520721	177.0	39.4	-93.3	10.7
2025-01-07 09:35:07.824090	177.4	38.9	-92.9	16.0
2025-01-07 09:35:10.135916	177.8	38.3	-91.9	13.1
2025-01-07 09:35:12.430897	178.1	37.8	-91.9	12.6
2025-01-07 09:35:14.724350	178.5	37.3	-90.9	12.8
2025-01-07 09:35:17.024368	178.8	36.8	-92.2	10.5
2025-01-07 09:35:19.316652	179.2	36.3	-91.1	13.2
2025-01-07 09:35:21.616602	179.5	35.8	-91.6	4.9
2025-01-07 09:35:23.910841	179.8	35.3	-91.6	13.4
2025-01-07 09:35:26.218113	180.1	34.8	-91.7	11.4
2025-01-07 09:35:28.521572	180.4	34.4	-91.8	11.9
2025-01-07 09:35:30.819516	180.7	33.9	-92.3	13.7
2025-01-07 09:35:33.124582	181.0	33.4	-92.4	13.0
2025-01-07 09:35:35.418311	181.3	33.0	-92.8	10.9
2025-01-07 09:35:37.722003	181.5	32.5	-93.0	12.3
2025-01-07 09:35:40.014275	181.8	32.1	-93.5	10.7
2025-01-07 09:35:42.327733	182.0	31.6	-92.5	12.7
2025-01-07 09:35:44.632587	182.3	31.2	-92.8	10.6
2025-01-07 09:35:46.943434	182.5	30.8	-93.2	13.6
2025-01-07 09:35:49.205789	182.8	30.4	-92.0	14.3
2025-01-07 09:35:51.498664	183.0	29.9	-92.7	10.4
2025-01-07 09:35:53.793446	183.2	29.5	-93.1	11.1
2025-01-07 09:35:56.092034	183.4	29.1	-92.9	4.9
2025-01-07 09:35:58.387791	183.6	28.7	-92.8	9.6
2025-01-07 09:36:00.678773	183.9	28.3	-92.6	10.0
2025-01-07 09:36:02.978780	184.1	27.9	-93.2	10.1
2025-01-07 09:36:05.286946	184.3	27.6	-93.2	13.3
2025-01-07 09:36:07.584570	184.5	27.2	-93.3	9.3
2025-01-07 09:36:09.886358	184.6	26.8	-93.3	11.6
2025-01-07 09:36:12.182971	184.8	26.4	-92.7	11.8
2025-01-07 09:36:14.482017	185.0	26.1	-92.9	10.9
2025-01-07 09:36:16.773326	185.2	25.7	-93.1	13.0
2025-01-07 09:36:19.075251	185.4	25.4	-93.0	13.4
2025-01-07 09:36:21.383862	185.5	25.0	-92.9	12.5
2025-01-07 09:36:23.684782	185.7	24.7	-93.3	12.0
2025-01-07 09:36:25.989902	185.9	24.3	-93.5	6.8
2025-01-07 09:36:28.290615	186.0	24.0	-93.0	11.0
2025-01-07 09:36:30.588021	186.2	23.6	-93.0	11.2
2025-01-07 09:36:32.884264	186.3	23.3	-92.5	13.7
2025-01-07 09:36:35.172540	186.5	23.0	-92.3	14.0
2025-01-07 09:36:37.462559	186.6	22.7	-92.4	11.0
2025-01-07 09:36:39.761298	186.8	22.3	-92.9	13.7
2025-01-07 09:36:42.061840	186.9	22.0	-92.8	9.5
2025-01-07 09:36:44.364138	187.1	21.7	-92.2	10.5
2025-01-07 09:36:46.674849	187.2	21.4	-92.5	7.6
2025-01-07 09:36:48.970910	187.3	21.1	-92.5	7.1
2025-01-07 09:36:51.275780	187.5	20.8	-92.3	5.7
2025-01-07 09:36:53.571378	187.6	20.5	-92.1	3.1
2025-01-07 09:36:55.880223	187.7	20.2	-92.3	9.3
2025-01-07 09:36:58.173643	187.9	19.9	-90.9	8.5
2025-01-07 09:37:00.463773	188.0	19.6	-91.9	9.1
2025-01-07 09:37:02.771214	188.1	19.3	-92.8	11.0
2025-01-07 09:37:05.065587	188.2	19.1	-91.2	9.4
2025-01-07 09:37:07.375600	188.3	18.8	-92.6	10.4
2025-01-07 09:37:09.673123	188.5	18.5	-91.4	8.1
2025-01-07 09:37:11.979567	188.6	18.2	-93.0	4.2
2025-01-07 09:37:14.273315	188.7	18.0	-92.5	6.6
2025-01-07 09:37:16.572377	188.8	17.7	-92.7	6.9
2025-01-07 09:37:18.861529	188.9	17.4	-92.8	8.5
2025-01-07 09:37:21.172868	189.0	17.2	-92.8	9.5
2025-01-07 09:37:23.467672	189.1	16.9	-93.1	6.0
2025-01-07 09:37:25.768793	189.2	16.6	-92.5	10.0
2025-01-07 09:37:28.078187	189.3	16.4	-92.6	8.8
2025-01-07 09:37:30.388927	189.4	16.1	-93.1	11.7
2025-01-07 09:37:32.687879	189.5	15.9	-92.8	10.3
2025-01-07 09:37:34.980071	189.6	15.6	-92.7	7.2
2025-01-07 09:37:37.285543	189.7	15.4	-92.6	7.9
2025-01-07 09:37:39.591795	189.8	15.2	-92.8	9.0
2025-01-07 09:37:41.899815	189.9	14.9	-93.1	5.2
2025-01-07 09:37:44.206341	190.0	14.7	-92.6	7.4
2025-01-07 09:37:46.510066	190.1	14.4	-92.7	8.1
#Closed at: 2025-01-07 09:28:32.789721