passes_logs/2025/01/07/LEX_Murmansk/LEX_Murmansk__20250107_142959_NOAA_18_rec.log

#Pass ID: 20250107_142959_NOAA 18
#Satellite: NOAA 18
#Configuration: NOAA 18
#Start time: 2025-01-07 14:29:54.912868

#LorettStation: 1.0.0 05.05.2024
#Station: LEX_Murmansk
#Location: 33.156738 lon 68.926811 lat
#TLE: 1 28654U 05018A   25006.88073240  .00000470  00000+0  27325-3 0  9996
#TLE: 2 28654  98.8580  88.0152 0013976 202.1444 157.9126 14.13479687 11959

#Time	Az	El	Level	SNR
2025-01-07 14:30:07.017000	41.0	15.9	-90.8	4.9
2025-01-07 14:30:08.186061	40.8	15.9	-90.5	3.7
2025-01-07 14:30:09.342649	40.7	16.0	-90.3	5.0
2025-01-07 14:30:10.500649	40.5	16.1	-90.8	2.4
2025-01-07 14:30:11.662350	40.3	16.2	-90.5	6.5
2025-01-07 14:30:12.823156	40.1	16.3	-90.1	6.5
2025-01-07 14:30:13.984751	39.9	16.4	-91.1	4.4
2025-01-07 14:30:15.141300	39.7	16.4	-90.2	2.4
2025-01-07 14:30:16.288809	39.5	16.5	-90.5	1.5
2025-01-07 14:30:17.444124	39.3	16.6	-90.8	4.6
2025-01-07 14:30:18.593910	39.1	16.7	-91.0	4.6
2025-01-07 14:30:19.750406	38.9	16.8	-90.8	6.1
2025-01-07 14:30:20.910293	38.7	16.9	-91.1	6.6
2025-01-07 14:30:22.074761	38.5	16.9	-90.0	4.5
2025-01-07 14:30:23.235392	38.3	17.0	-89.6	6.2
2025-01-07 14:30:24.403974	38.1	17.1	-89.8	6.5
2025-01-07 14:30:25.561714	37.9	17.2	-90.2	5.7
2025-01-07 14:30:26.720577	37.7	17.3	-90.0	4.2
2025-01-07 14:30:27.876457	37.5	17.3	-90.8	5.9
2025-01-07 14:30:29.035278	37.3	17.4	-90.7	4.6
2025-01-07 14:30:30.182405	37.1	17.5	-90.5	5.2
2025-01-07 14:30:31.303252	36.9	17.6	-90.5	5.0
2025-01-07 14:30:32.423404	36.7	17.7	-91.0	7.7
2025-01-07 14:30:33.544871	36.5	17.7	-90.9	7.3
2025-01-07 14:30:34.666793	36.3	17.8	-90.9	7.5
2025-01-07 14:30:35.787100	36.1	17.9	-90.8	5.6
2025-01-07 14:30:36.908036	35.9	18.0	-90.8	5.5
2025-01-07 14:30:38.031483	35.7	18.1	-90.7	4.4
2025-01-07 14:30:39.155597	35.5	18.1	-90.2	7.7
2025-01-07 14:30:40.313417	35.3	18.2	-90.2	5.9
2025-01-07 14:30:41.460954	35.1	18.3	-90.7	5.4
2025-01-07 14:30:42.627066	34.8	18.4	-90.8	5.9
2025-01-07 14:30:43.794475	34.6	18.4	-90.7	7.2
2025-01-07 14:30:44.949119	34.4	18.5	-90.6	5.9
2025-01-07 14:30:46.106696	34.2	18.6	-90.6	6.9
2025-01-07 14:30:47.259965	34.0	18.7	-90.4	8.2
2025-01-07 14:30:48.426916	33.7	18.8	-90.5	9.5
2025-01-07 14:30:49.581550	33.5	18.8	-90.7	11.1
2025-01-07 14:30:50.747076	33.3	18.9	-90.6	10.5
2025-01-07 14:30:51.901077	33.1	19.0	-90.8	7.3
2025-01-07 14:30:53.074004	32.8	19.1	-90.1	7.1
2025-01-07 14:30:54.226153	32.6	19.2	-90.3	8.1
2025-01-07 14:30:55.389542	32.4	19.2	-90.6	7.2
2025-01-07 14:30:56.543894	32.1	19.3	-90.6	8.9
2025-01-07 14:30:57.698383	31.9	19.4	-90.5	11.9
2025-01-07 14:30:58.860151	31.7	19.5	-90.7	9.2
2025-01-07 14:31:00.019599	31.4	19.5	-91.0	12.6
2025-01-07 14:31:01.144865	31.2	19.6	-90.4	8.3
2025-01-07 14:31:02.308527	31.0	19.7	-90.4	7.8
2025-01-07 14:31:03.466742	30.7	19.8	-90.3	8.9
2025-01-07 14:31:04.630767	30.5	19.8	-90.3	7.9
2025-01-07 14:31:05.785122	30.2	19.9	-90.2	10.5
2025-01-07 14:31:06.937333	30.0	20.0	-90.4	5.5
2025-01-07 14:31:08.089536	29.8	20.1	-90.0	6.2
2025-01-07 14:31:09.241697	29.5	20.1	-89.6	10.9
2025-01-07 14:31:10.403288	29.3	20.2	-90.3	12.2
2025-01-07 14:31:11.553769	29.0	20.3	-90.1	10.8
2025-01-07 14:31:12.705668	28.8	20.4	-90.2	15.0
2025-01-07 14:31:13.831934	28.5	20.4	-90.8	12.2
2025-01-07 14:31:14.952753	28.3	20.5	-90.5	10.5
2025-01-07 14:31:16.073409	28.1	20.6	-90.5	10.4
2025-01-07 14:31:17.194017	27.8	20.6	-90.1	10.2
2025-01-07 14:31:18.316578	27.6	20.7	-89.5	12.8
2025-01-07 14:31:19.437432	27.3	20.8	-90.1	10.1
2025-01-07 14:31:20.557915	27.1	20.8	-89.5	8.6
2025-01-07 14:31:21.680826	26.8	20.9	-89.4	12.8
2025-01-07 14:31:22.823229	26.6	21.0	-90.0	12.7
2025-01-07 14:31:23.980210	26.3	21.0	-90.1	11.2
2025-01-07 14:31:25.128966	26.0	21.1	-90.2	12.4
2025-01-07 14:31:26.274671	25.8	21.2	-89.4	11.6
2025-01-07 14:31:27.427124	25.5	21.2	-89.8	10.7
2025-01-07 14:31:28.560170	25.3	21.3	-89.7	9.3
2025-01-07 14:31:29.703391	25.0	21.4	-89.6	10.9
2025-01-07 14:31:30.851318	24.7	21.4	-90.2	8.7
2025-01-07 14:31:31.999547	24.5	21.5	-89.9	6.0
2025-01-07 14:31:33.157139	24.2	21.6	-89.7	9.4
2025-01-07 14:31:34.312210	23.9	21.6	-90.3	12.6
2025-01-07 14:31:35.464685	23.7	21.7	-89.8	5.9
2025-01-07 14:31:36.623675	23.4	21.8	-89.5	6.8
2025-01-07 14:31:37.778624	23.1	21.8	-90.0	10.6
2025-01-07 14:31:38.942227	22.8	21.9	-89.7	10.7
2025-01-07 14:31:40.098582	22.6	21.9	-89.6	12.1
2025-01-07 14:31:41.262507	22.3	22.0	-89.0	8.5
2025-01-07 14:31:42.412828	22.0	22.1	-89.8	11.0
2025-01-07 14:31:43.570471	21.7	22.1	-89.7	11.2
2025-01-07 14:31:44.717881	21.5	22.2	-89.7	11.9
2025-01-07 14:31:45.864144	21.2	22.2	-90.0	11.8
2025-01-07 14:31:46.990874	20.9	22.3	-90.0	7.6
2025-01-07 14:31:48.142083	20.6	22.4	-89.7	9.1
2025-01-07 14:31:49.284994	20.4	22.4	-89.8	11.8
2025-01-07 14:31:50.442330	20.1	22.5	-90.2	9.8
2025-01-07 14:31:51.593537	19.8	22.5	-90.3	12.5
2025-01-07 14:31:52.734562	19.5	22.6	-90.1	11.5
2025-01-07 14:31:53.891259	19.2	22.6	-90.9	14.9
2025-01-07 14:31:55.044020	18.9	22.7	-90.5	12.5
2025-01-07 14:31:56.199914	18.6	22.7	-90.5	16.6
2025-01-07 14:31:57.357972	18.3	22.8	-90.4	14.1
2025-01-07 14:31:58.510055	18.1	22.8	-90.2	13.1
2025-01-07 14:31:59.672618	17.8	22.9	-90.4	11.6
2025-01-07 14:32:00.824637	17.5	22.9	-90.5	11.7
2025-01-07 14:32:01.988657	17.2	23.0	-90.3	9.3
2025-01-07 14:32:03.153594	16.9	23.0	-90.2	7.7
2025-01-07 14:32:04.320216	16.6	23.1	-89.9	12.8
2025-01-07 14:32:05.473533	16.3	23.1	-90.3	7.7
2025-01-07 14:32:06.631015	16.0	23.2	-90.6	7.5
2025-01-07 14:32:07.785385	15.7	23.2	-90.5	11.6
2025-01-07 14:32:08.942471	15.4	23.3	-90.0	6.2
2025-01-07 14:32:10.099626	15.1	23.3	-90.1	6.4
2025-01-07 14:32:11.262299	14.8	23.4	-89.8	10.7
2025-01-07 14:32:12.424637	14.5	23.4	-90.0	7.6
2025-01-07 14:32:13.580353	14.2	23.4	-90.2	9.3
2025-01-07 14:32:14.729676	13.9	23.5	-90.1	14.1
2025-01-07 14:32:15.899558	13.6	23.5	-90.1	11.1
2025-01-07 14:32:17.060705	13.3	23.6	-90.1	13.8
2025-01-07 14:32:18.220932	12.9	23.6	-90.0	14.0
2025-01-07 14:32:19.375112	12.6	23.6	-90.5	15.2
2025-01-07 14:32:20.542516	12.3	23.7	-90.5	15.2
2025-01-07 14:32:21.702977	12.0	23.7	-90.2	12.5
2025-01-07 14:32:22.863831	11.7	23.7	-90.4	13.3
2025-01-07 14:32:24.024283	11.4	23.8	-89.7	8.2
2025-01-07 14:32:25.188738	11.1	23.8	-90.0	9.8
2025-01-07 14:32:26.352031	10.8	23.8	-89.7	10.5
2025-01-07 14:32:27.499238	10.5	23.9	-90.0	7.2
2025-01-07 14:32:28.648340	10.2	23.9	-90.1	7.7
2025-01-07 14:32:29.807486	9.8	23.9	-90.0	11.3
2025-01-07 14:32:30.967452	9.5	24.0	-89.6	6.8
2025-01-07 14:32:32.132127	9.2	24.0	-89.4	8.0
2025-01-07 14:32:33.289715	8.9	24.0	-89.4	11.4
2025-01-07 14:32:34.449030	8.6	24.0	-89.9	6.4
2025-01-07 14:32:35.603510	8.3	24.1	-90.2	11.2
2025-01-07 14:32:36.767722	7.9	24.1	-90.0	13.8
2025-01-07 14:32:37.921897	7.6	24.1	-90.2	12.8
2025-01-07 14:32:39.068453	7.3	24.1	-89.8	14.8
2025-01-07 14:32:40.228331	7.0	24.2	-89.6	11.6
2025-01-07 14:32:41.362147	6.7	24.2	-90.4	14.1
2025-01-07 14:32:42.481758	6.4	24.2	-90.3	12.3
2025-01-07 14:32:43.602101	6.1	24.2	-90.6	13.1
2025-01-07 14:32:44.723057	5.8	24.2	-90.1	11.9
2025-01-07 14:32:45.846311	5.4	24.2	-90.6	12.3
2025-01-07 14:32:46.967070	5.1	24.3	-90.3	10.2
2025-01-07 14:32:48.087361	4.8	24.3	-89.5	9.4
2025-01-07 14:32:49.212193	4.5	24.3	-90.3	12.0
2025-01-07 14:32:50.341986	4.2	24.3	-89.9	11.2
2025-01-07 14:32:51.501699	3.9	24.3	-90.1	7.6
2025-01-07 14:32:52.656041	3.6	24.3	-90.5	10.0
2025-01-07 14:32:53.808861	3.2	24.3	-90.0	14.4
2025-01-07 14:32:54.966101	2.9	24.3	-90.1	8.4
2025-01-07 14:32:56.130390	2.6	24.4	-90.4	8.9
2025-01-07 14:32:57.300678	2.3	24.4	-90.3	14.5
2025-01-07 14:32:58.447184	1.9	24.4	-90.9	8.6
2025-01-07 14:32:59.602122	1.6	24.4	-90.5	8.7
2025-01-07 14:33:00.729623	1.3	24.4	-90.4	13.2
2025-01-07 14:33:01.887216	1.0	24.4	-90.5	12.4
2025-01-07 14:33:03.037956	0.7	24.4	-90.4	10.2
2025-01-07 14:33:04.189575	0.3	24.4	-90.2	13.3
2025-01-07 14:33:05.336976	0.0	24.4	-90.4	8.9
2025-01-07 14:33:06.487396	359.7	24.4	-90.5	12.4
2025-01-07 14:33:07.650295	359.4	24.4	-90.6	13.6
2025-01-07 14:33:08.800917	359.1	24.4	-90.8	14.2
2025-01-07 14:33:09.949156	358.7	24.4	-90.8	15.1
2025-01-07 14:33:11.109618	358.4	24.4	-90.7	15.6
2025-01-07 14:33:12.277285	358.1	24.4	-91.1	12.7
2025-01-07 14:33:13.435952	357.8	24.3	-90.7	14.8
2025-01-07 14:33:14.590954	357.4	24.3	-90.7	16.2
2025-01-07 14:33:15.751271	357.1	24.3	-91.2	13.7
2025-01-07 14:33:16.912616	356.8	24.3	-91.1	15.9
2025-01-07 14:33:18.065793	356.5	24.3	-90.3	13.6
2025-01-07 14:33:19.223854	356.2	24.3	-90.4	16.3
2025-01-07 14:33:20.390708	355.8	24.3	-90.6	13.1
2025-01-07 14:33:21.550760	355.5	24.3	-91.2	12.3
2025-01-07 14:33:22.719076	355.2	24.3	-91.1	16.9
2025-01-07 14:33:23.871899	354.9	24.2	-90.7	14.9
2025-01-07 14:33:25.018688	354.5	24.2	-90.9	11.9
2025-01-07 14:33:26.145207	354.2	24.2	-90.6	7.7
2025-01-07 14:33:27.298093	353.9	24.2	-90.7	15.4
2025-01-07 14:33:28.436652	353.6	24.2	-91.1	12.9
2025-01-07 14:33:29.581751	353.3	24.1	-90.9	11.6
2025-01-07 14:33:30.738770	353.0	24.1	-91.3	14.6
2025-01-07 14:33:31.892578	352.7	24.1	-90.9	15.6
2025-01-07 14:33:33.045591	352.3	24.1	-90.8	10.0
2025-01-07 14:33:34.198488	352.0	24.1	-90.7	12.5
2025-01-07 14:33:35.360294	351.7	24.0	-90.6	13.0
2025-01-07 14:33:36.518221	351.4	24.0	-91.4	7.7
2025-01-07 14:33:37.668578	351.1	24.0	-90.9	10.6
2025-01-07 14:33:38.823668	350.8	24.0	-90.9	11.0
2025-01-07 14:33:39.989209	350.4	23.9	-91.0	7.0
2025-01-07 14:33:41.140538	350.1	23.9	-90.3	8.3
2025-01-07 14:33:42.300498	349.8	23.9	-89.9	12.8
2025-01-07 14:33:43.457376	349.5	23.8	-90.5	8.6
2025-01-07 14:33:44.618263	349.2	23.8	-90.7	9.3
2025-01-07 14:33:45.776260	348.9	23.8	-90.4	14.4
2025-01-07 14:33:46.937114	348.6	23.7	-90.2	13.1
2025-01-07 14:33:48.088998	348.3	23.7	-90.0	9.5
2025-01-07 14:33:49.244547	348.0	23.7	-89.7	11.7
2025-01-07 14:33:50.390645	347.7	23.6	-90.3	10.2
2025-01-07 14:33:51.531209	347.3	23.6	-90.3	9.6
2025-01-07 14:33:52.670627	347.0	23.5	-90.4	9.4
2025-01-07 14:33:53.817566	346.7	23.5	-90.4	11.8
2025-01-07 14:33:54.965883	346.4	23.5	-90.1	6.9
2025-01-07 14:33:56.132302	346.1	23.4	-89.5	5.7
2025-01-07 14:33:57.279743	345.8	23.4	-90.1	9.9
2025-01-07 14:33:58.428188	345.5	23.3	-90.2	10.3
2025-01-07 14:33:59.581531	345.2	23.3	-90.3	10.0
2025-01-07 14:34:00.725128	344.9	23.3	-89.9	12.7
2025-01-07 14:34:01.851331	344.6	23.2	-89.7	9.7
2025-01-07 14:34:02.992168	344.3	23.2	-90.2	9.0
2025-01-07 14:34:04.134606	344.0	23.1	-90.5	7.3
2025-01-07 14:34:05.278220	343.8	23.1	-90.2	8.7
2025-01-07 14:34:06.423935	343.5	23.0	-90.5	9.1
2025-01-07 14:34:07.572371	343.2	23.0	-90.3	8.4
2025-01-07 14:34:08.718902	342.9	22.9	-89.9	9.3
2025-01-07 14:34:09.872160	342.6	22.9	-90.4	11.3
2025-01-07 14:34:11.030126	342.3	22.8	-90.2	5.9
2025-01-07 14:34:12.185689	342.0	22.8	-90.5	7.4
2025-01-07 14:34:13.340291	341.7	22.7	-90.5	10.6
2025-01-07 14:34:14.497723	341.4	22.7	-91.2	7.0
2025-01-07 14:34:15.642780	341.1	22.6	-90.8	8.4
2025-01-07 14:34:16.793946	340.8	22.6	-91.2	9.7
2025-01-07 14:34:17.947648	340.6	22.5	-91.0	7.9
2025-01-07 14:34:19.101392	340.3	22.5	-91.2	5.7
2025-01-07 14:34:20.259421	340.0	22.4	-90.9	10.2
2025-01-07 14:34:21.411026	339.7	22.3	-91.0	9.5
2025-01-07 14:34:22.566818	339.4	22.3	-91.1	7.4
2025-01-07 14:34:23.727767	339.1	22.2	-91.0	12.6
2025-01-07 14:34:24.880175	338.9	22.2	-90.6	14.9
2025-01-07 14:34:26.035158	338.6	22.1	-90.7	8.3
2025-01-07 14:34:27.169677	338.3	22.0	-90.8	9.9
2025-01-07 14:34:28.301822	338.0	22.0	-90.5	13.5
2025-01-07 14:34:29.448259	337.8	21.9	-91.2	9.3
2025-01-07 14:34:30.594876	337.5	21.9	-90.7	7.7
2025-01-07 14:34:31.754732	337.2	21.8	-90.7	10.1
2025-01-07 14:34:32.908576	336.9	21.7	-90.7	7.3
2025-01-07 14:34:34.058747	336.7	21.7	-90.8	5.9
2025-01-07 14:34:35.211270	336.4	21.6	-90.1	9.1
2025-01-07 14:34:36.367886	336.1	21.5	-90.3	8.7
2025-01-07 14:34:37.510784	335.9	21.5	-89.9	4.1
2025-01-07 14:34:38.648499	335.6	21.4	-90.4	7.5
2025-01-07 14:34:39.795415	335.3	21.4	-90.2	11.6
2025-01-07 14:34:40.937885	335.1	21.3	-90.5	8.1
2025-01-07 14:34:42.095406	334.8	21.2	-90.2	7.4
2025-01-07 14:34:43.246726	334.5	21.2	-90.1	8.6
2025-01-07 14:34:44.398580	334.3	21.1	-90.2	8.9
2025-01-07 14:34:45.553356	334.0	21.0	-90.5	8.0
2025-01-07 14:34:46.705141	333.8	20.9	-90.3	9.7
2025-01-07 14:34:47.867339	333.5	20.9	-90.0	8.3
2025-01-07 14:34:49.036255	333.2	20.8	-89.9	6.8
2025-01-07 14:34:50.195121	333.0	20.7	-90.0	8.3
2025-01-07 14:34:51.357313	332.7	20.7	-90.9	7.8
2025-01-07 14:34:52.507977	332.5	20.6	-90.5	7.5
2025-01-07 14:34:53.671738	332.2	20.5	-90.7	7.8
2025-01-07 14:34:54.838198	332.0	20.5	-90.6	9.7
2025-01-07 14:34:55.986758	331.7	20.4	-91.1	6.5
2025-01-07 14:34:57.147599	331.5	20.3	-90.5	7.4
2025-01-07 14:34:58.295824	331.2	20.2	-90.9	3.0
2025-01-07 14:34:59.451853	331.0	20.2	-91.4	3.5
2025-01-07 14:35:00.597740	330.7	20.1	-91.5	4.0
2025-01-07 14:35:01.757580	330.5	20.0	-91.5	4.9
2025-01-07 14:35:02.910566	330.2	19.9	-91.4	3.6
2025-01-07 14:35:04.063884	330.0	19.9	-91.3	3.7
2025-01-07 14:35:05.224977	329.8	19.8	-91.2	6.1
2025-01-07 14:35:06.371391	329.5	19.7	-91.6	2.6
2025-01-07 14:35:07.540890	329.3	19.6	-91.5	4.9
2025-01-07 14:35:08.692617	329.0	19.6	-91.4	4.8
2025-01-07 14:35:09.847113	328.8	19.5	-91.3	4.3
2025-01-07 14:35:10.998436	328.6	19.4	-91.6	4.2
2025-01-07 14:35:12.161865	328.3	19.3	-90.8	5.2
2025-01-07 14:35:13.312690	328.1	19.3	-91.2	5.8
2025-01-07 14:35:14.474152	327.9	19.2	-91.0	5.9
2025-01-07 14:35:15.607661	327.6	19.1	-91.1	5.9
2025-01-07 14:35:16.727357	327.4	19.0	-91.2	5.1
2025-01-07 14:35:17.848091	327.2	19.0	-91.0	7.2
2025-01-07 14:35:18.967943	327.0	18.9	-91.0	6.4
2025-01-07 14:35:20.089398	326.8	18.8	-91.0	4.2
2025-01-07 14:35:21.210312	326.5	18.7	-91.0	3.6
2025-01-07 14:35:22.329955	326.3	18.6	-91.2	7.4
2025-01-07 14:35:23.450757	326.1	18.6	-91.4	4.5
2025-01-07 14:35:24.575430	325.9	18.5	-91.6	5.5
2025-01-07 14:35:25.723010	325.7	18.4	-91.5	7.3
2025-01-07 14:35:26.869457	325.5	18.3	-91.5	6.1
2025-01-07 14:35:28.029427	325.2	18.3	-91.6	3.6
2025-01-07 14:35:29.181816	325.0	18.2	-91.2	9.5
2025-01-07 14:35:30.341902	324.8	18.1	-90.9	5.8
2025-01-07 14:35:31.499859	324.6	18.0	-91.3	5.4
2025-01-07 14:35:32.647799	324.4	17.9	-91.5	4.9
2025-01-07 14:35:33.806874	324.2	17.9	-91.5	5.3
2025-01-07 14:35:34.963499	324.0	17.8	-91.6	4.3
2025-01-07 14:35:36.122854	323.8	17.7	-91.5	3.9
2025-01-07 14:35:37.284596	323.5	17.6	-91.1	4.5
2025-01-07 14:35:38.449567	323.3	17.5	-91.2	7.8
2025-01-07 14:35:39.600012	323.1	17.4	-91.4	5.9
2025-01-07 14:35:40.754788	322.9	17.4	-91.6	4.0
2025-01-07 14:35:41.915312	322.7	17.3	-91.5	7.1
2025-01-07 14:35:43.075504	322.5	17.2	-91.2	6.1
2025-01-07 14:35:44.232345	322.3	17.1	-90.8	6.0
2025-01-07 14:35:45.390423	322.1	17.0	-91.5	4.9
2025-01-07 14:35:46.550191	321.9	17.0	-91.4	6.0
2025-01-07 14:35:47.720908	321.7	16.9	-91.4	8.2
2025-01-07 14:35:48.876033	321.5	16.8	-91.1	7.2
2025-01-07 14:35:50.026220	321.3	16.7	-91.3	8.0
2025-01-07 14:35:51.187872	321.1	16.6	-91.1	6.9
2025-01-07 14:35:52.341253	320.9	16.5	-91.4	8.2
2025-01-07 14:35:53.495122	320.7	16.5	-91.2	6.1
2025-01-07 14:35:54.644779	320.5	16.4	-91.4	5.7
2025-01-07 14:35:55.812009	320.3	16.3	-91.5	9.0
2025-01-07 14:35:56.966076	320.2	16.2	-91.2	8.7
2025-01-07 14:35:58.126003	320.0	16.1	-90.7	3.6
2025-01-07 14:35:59.278505	319.8	16.1	-90.9	8.1
2025-01-07 14:36:00.424333	319.6	16.0	-91.6	6.8
2025-01-07 14:36:01.587857	319.4	15.9	-90.7	8.2
2025-01-07 14:36:02.741172	319.2	15.8	-90.7	8.5
2025-01-07 14:36:03.896546	319.0	15.7	-90.7	8.0
2025-01-07 14:36:05.059016	318.8	15.6	-90.4	7.4
2025-01-07 14:36:06.218874	318.7	15.6	-90.2	5.9
2025-01-07 14:36:07.380436	318.5	15.5	-90.4	8.6
2025-01-07 14:36:08.535620	318.3	15.4	-91.5	7.4
2025-01-07 14:36:09.687762	318.1	15.3	-91.7	7.5
2025-01-07 14:36:10.851117	317.9	15.2	-91.7	8.0
2025-01-07 14:36:12.010348	317.8	15.1	-91.5	5.5
2025-01-07 14:36:13.161288	317.6	15.1	-91.2	5.9
2025-01-07 14:36:14.325128	317.4	15.0	-91.5	7.4
2025-01-07 14:36:15.486018	317.2	14.9	-91.6	6.3
2025-01-07 14:36:16.644196	317.1	14.8	-91.4	8.0
2025-01-07 14:36:17.795693	316.9	14.7	-91.7	12.4
2025-01-07 14:36:18.954591	316.7	14.6	-90.8	8.4
#Closed at: 2025-01-07 14:29:59.824872