passes_logs/2025/01/07/LEX_Murmansk/LEX_Murmansk__20250107_190221_NOAA_19_rec.log

#Pass ID: 20250107_190221_NOAA 19
#Satellite: NOAA 19
#Configuration: NOAA 19
#Start time: 2025-01-07 19:02:15.907469

#LorettStation: 1.0.0 05.05.2024
#Station: LEX_Murmansk
#Location: 33.156738 lon 68.926811 lat
#TLE: 1 33591U 09005A   25006.86236638  .00000398  00000+0  23653-3 0  9991
#TLE: 2 33591  99.0211  70.5614 0014662  79.2072 281.0749 14.13253225820137

#Time	Az	El	Level	SNR
2025-01-07 19:02:28.186605	195.8	16.2	-92.1	1.2
2025-01-07 19:02:29.443625	196.0	16.3	-92.6	2.3
2025-01-07 19:02:30.598785	196.1	16.4	-92.5	2.1
2025-01-07 19:02:31.747511	196.2	16.6	-92.2	0.4
2025-01-07 19:02:32.907745	196.3	16.7	-92.2	3.2
2025-01-07 19:02:34.059364	196.4	16.8	-92.4	1.1
2025-01-07 19:02:35.210186	196.5	16.9	-92.1	2.3
2025-01-07 19:02:36.367090	196.7	17.0	-92.3	3.0
2025-01-07 19:02:37.522408	196.8	17.1	-92.8	2.2
2025-01-07 19:02:38.669575	196.9	17.3	-92.7	1.6
2025-01-07 19:02:39.823607	197.0	17.4	-92.2	0.8
2025-01-07 19:02:40.973168	197.2	17.5	-92.8	3.0
2025-01-07 19:02:42.231206	197.3	17.6	-92.4	2.3
2025-01-07 19:02:43.385362	197.4	17.7	-92.4	2.2
2025-01-07 19:02:44.545314	197.5	17.9	-92.4	4.0
2025-01-07 19:02:45.693828	197.7	18.0	-92.4	6.1
2025-01-07 19:02:46.846226	197.8	18.1	-92.8	4.4
2025-01-07 19:02:47.998963	197.9	18.2	-92.7	3.9
2025-01-07 19:02:49.150203	198.1	18.4	-92.1	4.0
2025-01-07 19:02:50.304238	198.2	18.5	-92.4	4.3
2025-01-07 19:02:51.455861	198.3	18.6	-91.8	8.8
2025-01-07 19:02:52.616762	198.5	18.7	-92.1	9.4
2025-01-07 19:02:53.770353	198.6	18.9	-92.5	9.1
2025-01-07 19:02:54.925025	198.7	19.0	-92.5	6.3
2025-01-07 19:02:56.075654	198.9	19.1	-92.3	1.8
2025-01-07 19:02:57.227754	199.0	19.2	-92.5	1.6
2025-01-07 19:02:58.379418	199.1	19.4	-92.5	1.8
2025-01-07 19:02:59.532324	199.3	19.5	-92.6	2.4
2025-01-07 19:03:00.673865	199.4	19.6	-92.5	4.2
2025-01-07 19:03:01.830608	199.6	19.7	-92.7	6.8
2025-01-07 19:03:02.987502	199.7	19.9	-92.5	7.3
2025-01-07 19:03:04.134529	199.9	20.0	-92.2	5.9
2025-01-07 19:03:05.285936	200.0	20.1	-92.4	3.3
2025-01-07 19:03:06.440967	200.2	20.2	-91.8	2.7
2025-01-07 19:03:07.595811	200.3	20.4	-92.1	5.5
2025-01-07 19:03:08.748911	200.5	20.5	-91.6	3.1
2025-01-07 19:03:09.902055	200.6	20.6	-91.7	3.2
2025-01-07 19:03:11.051393	200.8	20.8	-92.3	4.1
2025-01-07 19:03:12.200249	200.9	20.9	-92.3	1.3
2025-01-07 19:03:13.363001	201.1	21.0	-92.4	2.7
2025-01-07 19:03:14.512328	201.2	21.2	-92.6	3.0
2025-01-07 19:03:15.661341	201.4	21.3	-92.6	3.0
2025-01-07 19:03:16.823463	201.5	21.4	-92.6	4.0
2025-01-07 19:03:17.984370	201.7	21.6	-92.8	4.4
2025-01-07 19:03:19.132666	201.9	21.7	-92.2	7.3
2025-01-07 19:03:20.294062	202.0	21.8	-92.4	9.5
2025-01-07 19:03:21.449524	202.2	22.0	-92.7	9.5
2025-01-07 19:03:22.610029	202.4	22.1	-92.8	8.7
2025-01-07 19:03:23.770280	202.5	22.3	-92.4	5.6
2025-01-07 19:03:24.925611	202.7	22.4	-93.0	6.9
2025-01-07 19:03:26.076312	202.9	22.5	-92.5	8.5
2025-01-07 19:03:27.232106	203.0	22.7	-92.1	5.0
2025-01-07 19:03:28.386492	203.2	22.8	-92.5	8.3
2025-01-07 19:03:29.540387	203.4	23.0	-92.5	7.2
2025-01-07 19:03:30.710629	203.6	23.1	-92.6	6.3
2025-01-07 19:03:31.864408	203.7	23.2	-92.9	2.9
2025-01-07 19:03:33.023242	203.9	23.4	-92.9	2.3
2025-01-07 19:03:34.187741	204.1	23.5	-92.2	0.2
2025-01-07 19:03:35.337890	204.3	23.7	-92.2	2.5
2025-01-07 19:03:36.501106	204.5	23.8	-92.8	3.1
2025-01-07 19:03:37.653528	204.6	23.9	-92.8	8.2
2025-01-07 19:03:38.812173	204.8	24.1	-92.9	9.4
2025-01-07 19:03:39.968357	205.0	24.2	-92.9	11.4
2025-01-07 19:03:41.126903	205.2	24.4	-92.3	8.4
2025-01-07 19:03:42.275995	205.4	24.5	-92.1	5.4
2025-01-07 19:03:43.431315	205.6	24.7	-92.6	7.0
2025-01-07 19:03:44.580777	205.8	24.8	-92.6	8.4
2025-01-07 19:03:45.741679	206.0	25.0	-92.6	7.6
2025-01-07 19:03:46.896803	206.2	25.1	-92.4	10.4
2025-01-07 19:03:48.062102	206.4	25.3	-92.4	12.8
2025-01-07 19:03:49.206751	206.6	25.4	-92.3	8.1
2025-01-07 19:03:50.352380	206.8	25.6	-92.4	2.4
2025-01-07 19:03:51.503298	207.0	25.7	-92.4	4.6
2025-01-07 19:03:52.655810	207.2	25.9	-92.3	2.0
2025-01-07 19:03:53.810014	207.4	26.0	-92.7	2.4
2025-01-07 19:03:54.956344	207.6	26.2	-92.9	3.4
2025-01-07 19:03:56.118149	207.8	26.3	-92.3	3.7
2025-01-07 19:03:57.268971	208.1	26.5	-91.9	4.7
2025-01-07 19:03:58.419468	208.3	26.6	-92.2	8.8
2025-01-07 19:03:59.567254	208.5	26.8	-92.8	11.7
2025-01-07 19:04:00.713309	208.7	26.9	-92.9	6.8
2025-01-07 19:04:01.872395	208.9	27.1	-92.9	6.0
2025-01-07 19:04:03.022066	209.2	27.2	-92.5	6.8
2025-01-07 19:04:04.189722	209.4	27.4	-92.0	5.2
2025-01-07 19:04:05.341093	209.6	27.5	-92.3	7.0
2025-01-07 19:04:06.498160	209.9	27.7	-92.6	8.8
2025-01-07 19:04:07.653628	210.1	27.8	-92.5	7.5
2025-01-07 19:04:08.813389	210.3	28.0	-91.7	7.1
2025-01-07 19:04:09.973092	210.6	28.1	-92.7	6.8
2025-01-07 19:04:11.127918	210.8	28.3	-92.5	5.7
2025-01-07 19:04:12.288457	211.1	28.5	-92.2	0.1
2025-01-07 19:04:13.443696	211.3	28.6	-92.6	2.8
2025-01-07 19:04:14.600479	211.6	28.8	-92.5	5.0
2025-01-07 19:04:15.751839	211.8	28.9	-92.4	3.9
2025-01-07 19:04:16.908299	212.1	29.1	-92.8	6.6
2025-01-07 19:04:18.067634	212.3	29.2	-92.2	9.7
2025-01-07 19:04:19.221036	212.6	29.4	-92.5	11.5
2025-01-07 19:04:20.373570	212.8	29.6	-92.3	8.2
2025-01-07 19:04:21.522460	213.1	29.7	-92.8	9.5
2025-01-07 19:04:22.677855	213.4	29.9	-92.8	5.8
2025-01-07 19:04:23.831337	213.6	30.0	-92.8	4.5
2025-01-07 19:04:24.968550	213.9	30.2	-92.7	5.7
2025-01-07 19:04:26.124443	214.2	30.3	-92.4	4.7
2025-01-07 19:04:27.286809	214.5	30.5	-92.3	5.3
2025-01-07 19:04:28.441476	214.7	30.7	-92.1	5.8
2025-01-07 19:04:29.587019	215.0	30.8	-92.8	5.2
2025-01-07 19:04:30.749862	215.3	31.0	-92.8	1.7
2025-01-07 19:04:31.909840	215.6	31.1	-92.9	2.8
2025-01-07 19:04:33.070325	215.9	31.3	-92.6	1.7
2025-01-07 19:04:34.220379	216.2	31.5	-92.8	1.2
2025-01-07 19:04:35.372664	216.5	31.6	-92.8	6.1
2025-01-07 19:04:36.530736	216.8	31.8	-92.6	4.2
2025-01-07 19:04:37.678749	217.1	31.9	-92.6	5.3
2025-01-07 19:04:38.840274	217.4	32.1	-92.6	5.6
2025-01-07 19:04:39.995332	217.7	32.3	-92.2	8.3
2025-01-07 19:04:41.151009	218.0	32.4	-92.3	9.7
2025-01-07 19:04:42.305388	218.3	32.6	-92.7	13.0
2025-01-07 19:04:43.459590	218.6	32.7	-92.6	12.7
2025-01-07 19:04:44.619919	218.9	32.9	-92.9	9.0
2025-01-07 19:04:45.771322	219.3	33.1	-92.3	6.5
2025-01-07 19:04:46.927496	219.6	33.2	-92.5	10.3
2025-01-07 19:04:48.089503	219.9	33.4	-92.5	11.9
2025-01-07 19:04:49.244523	220.2	33.5	-92.0	12.5
2025-01-07 19:04:50.399857	220.6	33.7	-91.0	14.9
2025-01-07 19:04:51.555619	220.9	33.8	-91.7	15.4
2025-01-07 19:04:52.704343	221.3	34.0	-91.8	13.6
2025-01-07 19:04:53.868895	221.6	34.2	-91.8	9.2
2025-01-07 19:04:55.015254	222.0	34.3	-92.6	9.2
2025-01-07 19:04:56.170595	222.3	34.5	-92.7	5.8
2025-01-07 19:04:57.332798	222.7	34.6	-92.4	3.4
2025-01-07 19:04:58.484830	223.0	34.8	-92.3	5.7
2025-01-07 19:04:59.636785	223.4	34.9	-92.8	7.1
2025-01-07 19:05:00.777223	223.7	35.1	-92.8	4.2
2025-01-07 19:05:01.934935	224.1	35.3	-92.8	10.1
2025-01-07 19:05:03.097328	224.5	35.4	-92.4	11.2
2025-01-07 19:05:04.247146	224.9	35.6	-92.6	14.4
2025-01-07 19:05:05.400628	225.2	35.7	-92.2	15.7
2025-01-07 19:05:06.554018	225.6	35.9	-92.9	17.5
2025-01-07 19:05:07.708083	226.0	36.0	-92.6	14.5
2025-01-07 19:05:08.865673	226.4	36.2	-92.4	12.5
2025-01-07 19:05:10.016017	226.8	36.3	-92.5	11.6
2025-01-07 19:05:11.176266	227.2	36.5	-92.3	7.9
2025-01-07 19:05:12.331596	227.6	36.6	-92.0	6.7
2025-01-07 19:05:13.486709	228.0	36.8	-92.8	13.1
2025-01-07 19:05:14.636249	228.4	36.9	-92.8	15.5
2025-01-07 19:05:15.784671	228.8	37.1	-92.3	16.5
2025-01-07 19:05:16.937779	229.2	37.2	-92.3	17.1
2025-01-07 19:05:18.097875	229.6	37.3	-92.4	18.3
2025-01-07 19:05:19.250801	230.0	37.5	-92.1	16.5
2025-01-07 19:05:20.400728	230.5	37.6	-92.5	13.7
2025-01-07 19:05:21.553868	230.9	37.8	-92.6	11.0
2025-01-07 19:05:22.711622	231.3	37.9	-92.8	8.5
2025-01-07 19:05:23.862375	231.8	38.0	-92.4	6.7
2025-01-07 19:05:25.010722	232.2	38.2	-92.7	6.3
2025-01-07 19:05:26.170087	232.6	38.3	-92.4	4.0
2025-01-07 19:05:27.332674	233.1	38.5	-92.2	4.2
2025-01-07 19:05:28.488983	233.5	38.6	-92.1	8.6
2025-01-07 19:05:29.645258	234.0	38.7	-92.7	12.6
2025-01-07 19:05:30.798024	234.5	38.8	-92.9	8.2
2025-01-07 19:05:31.953900	234.9	39.0	-93.2	16.5
2025-01-07 19:05:33.105903	235.4	39.1	-92.2	16.5
2025-01-07 19:05:34.266616	235.9	39.2	-92.5	16.9
2025-01-07 19:05:35.414045	236.3	39.3	-92.6	14.4
2025-01-07 19:05:36.566447	236.8	39.5	-92.6	18.2
2025-01-07 19:05:37.729235	237.3	39.6	-92.8	17.4
2025-01-07 19:05:38.891243	237.8	39.7	-93.1	10.0
2025-01-07 19:05:40.040606	238.2	39.8	-92.6	13.5
2025-01-07 19:05:41.190725	238.7	39.9	-92.6	5.1
2025-01-07 19:05:42.345962	239.2	40.1	-92.5	6.2
2025-01-07 19:05:43.496690	239.7	40.2	-93.1	10.3
2025-01-07 19:05:44.650555	240.2	40.3	-92.6	12.7
2025-01-07 19:05:45.802528	240.7	40.4	-92.7	9.7
2025-01-07 19:05:46.947791	241.2	40.5	-92.7	12.1
2025-01-07 19:05:48.105911	241.7	40.6	-92.3	18.1
2025-01-07 19:05:49.256255	242.2	40.7	-92.1	15.6
2025-01-07 19:05:50.414238	242.7	40.8	-92.8	21.9
2025-01-07 19:05:51.569198	243.3	40.9	-92.5	15.9
2025-01-07 19:05:52.706707	243.8	41.0	-92.7	16.8
2025-01-07 19:05:53.866896	244.3	41.1	-92.8	14.3
2025-01-07 19:05:55.015050	244.8	41.1	-93.0	13.6
2025-01-07 19:05:56.163015	245.4	41.2	-92.4	10.1
2025-01-07 19:05:57.315684	245.9	41.3	-92.5	6.8
2025-01-07 19:05:58.473956	246.4	41.4	-92.4	8.5
2025-01-07 19:05:59.625602	247.0	41.5	-92.4	8.5
2025-01-07 19:06:00.764198	247.5	41.5	-92.7	4.5
2025-01-07 19:06:01.915406	248.0	41.6	-92.6	7.3
2025-01-07 19:06:03.077290	248.6	41.7	-92.3	6.3
2025-01-07 19:06:04.228453	249.1	41.8	-92.0	5.8
2025-01-07 19:06:05.379427	249.7	41.8	-92.3	11.3
2025-01-07 19:06:06.529111	250.2	41.9	-92.4	6.7
2025-01-07 19:06:07.683139	250.8	41.9	-92.3	13.6
2025-01-07 19:06:08.841060	251.3	42.0	-92.5	15.2
2025-01-07 19:06:09.992678	251.9	42.0	-91.5	13.1
2025-01-07 19:06:11.147772	252.4	42.1	-92.0	22.7
2025-01-07 19:06:12.301034	253.0	42.1	-92.0	13.9
2025-01-07 19:06:13.453853	253.6	42.2	-91.9	19.4
2025-01-07 19:06:14.612446	254.1	42.2	-92.1	14.2
2025-01-07 19:06:15.764163	254.7	42.3	-91.9	20.3
2025-01-07 19:06:16.917106	255.2	42.3	-91.6	21.7
2025-01-07 19:06:18.068461	255.8	42.3	-92.0	18.8
2025-01-07 19:06:19.224115	256.4	42.4	-92.1	21.8
2025-01-07 19:06:20.374690	256.9	42.4	-92.3	11.8
2025-01-07 19:06:21.530188	257.5	42.4	-92.5	17.0
2025-01-07 19:06:22.676471	258.1	42.4	-92.6	14.6
2025-01-07 19:06:23.826785	258.6	42.5	-92.7	10.2
2025-01-07 19:06:24.977219	259.2	42.5	-92.3	7.0
2025-01-07 19:06:26.121016	259.8	42.5	-92.3	11.0
2025-01-07 19:06:27.275147	260.4	42.5	-92.6	4.8
2025-01-07 19:06:28.421972	260.9	42.5	-92.1	12.0
2025-01-07 19:06:29.572595	261.5	42.5	-92.5	9.6
2025-01-07 19:06:30.741654	262.1	42.5	-92.9	4.9
2025-01-07 19:06:31.890425	262.6	42.5	-92.5	7.9
2025-01-07 19:06:33.038073	263.2	42.5	-92.7	10.5
2025-01-07 19:06:34.195109	263.8	42.5	-92.3	6.0
2025-01-07 19:06:35.342209	264.3	42.5	-93.0	4.9
2025-01-07 19:06:36.496506	264.9	42.4	-92.6	9.0
2025-01-07 19:06:37.648377	265.5	42.4	-92.9	11.9
2025-01-07 19:06:38.798447	266.1	42.4	-92.8	11.1
2025-01-07 19:06:39.953155	266.6	42.4	-92.9	11.0
2025-01-07 19:06:41.107224	267.2	42.3	-92.3	10.1
2025-01-07 19:06:42.263463	267.8	42.3	-92.8	10.7
2025-01-07 19:06:43.415645	268.3	42.3	-92.6	11.3
2025-01-07 19:06:44.565164	268.9	42.2	-92.7	13.7
2025-01-07 19:06:45.715939	269.4	42.2	-92.4	11.5
2025-01-07 19:06:46.869189	270.0	42.1	-92.7	14.2
2025-01-07 19:06:48.027233	270.6	42.1	-92.5	12.9
2025-01-07 19:06:49.179330	271.1	42.0	-92.2	13.8
2025-01-07 19:06:50.335663	271.7	42.0	-92.6	20.3
2025-01-07 19:06:51.488328	272.2	41.9	-92.9	13.4
2025-01-07 19:06:52.640310	272.8	41.9	-92.8	18.0
2025-01-07 19:06:53.789112	273.3	41.8	-92.8	14.7
2025-01-07 19:06:54.950369	273.9	41.8	-92.7	14.9
2025-01-07 19:06:56.096578	274.4	41.7	-92.0	16.1
2025-01-07 19:06:57.250337	275.0	41.6	-92.1	15.8
2025-01-07 19:06:58.407328	275.5	41.5	-92.1	18.2
2025-01-07 19:06:59.557684	276.0	41.5	-92.9	20.4
2025-01-07 19:07:00.701730	276.6	41.4	-92.6	19.7
2025-01-07 19:07:01.852052	277.1	41.3	-92.8	13.5
2025-01-07 19:07:03.009453	277.6	41.2	-92.2	16.9
2025-01-07 19:07:04.155053	278.2	41.1	-92.1	21.0
2025-01-07 19:07:05.307369	278.7	41.1	-92.7	14.8
2025-01-07 19:07:06.464672	279.2	41.0	-92.7	15.2
2025-01-07 19:07:07.621644	279.7	40.9	-92.5	11.3
2025-01-07 19:07:08.771091	280.2	40.8	-92.4	16.5
2025-01-07 19:07:09.926949	280.8	40.7	-92.5	14.6
2025-01-07 19:07:11.085797	281.3	40.6	-91.6	21.4
2025-01-07 19:07:12.237213	281.8	40.5	-92.2	14.6
2025-01-07 19:07:13.390294	282.3	40.4	-91.7	15.0
2025-01-07 19:07:14.554275	282.8	40.3	-92.2	19.9
2025-01-07 19:07:15.713906	283.3	40.2	-91.8	18.3
2025-01-07 19:07:16.875560	283.8	40.1	-92.7	16.5
2025-01-07 19:07:18.030736	284.3	39.9	-91.4	11.8
2025-01-07 19:07:19.186224	284.8	39.8	-91.1	15.8
2025-01-07 19:07:20.336433	285.2	39.7	-91.5	16.3
2025-01-07 19:07:21.490512	285.7	39.6	-92.8	17.8
2025-01-07 19:07:22.638540	286.2	39.5	-92.7	19.5
2025-01-07 19:07:23.789228	286.7	39.4	-92.9	14.8
2025-01-07 19:07:24.946267	287.1	39.2	-92.7	15.4
2025-01-07 19:07:26.092390	287.6	39.1	-92.5	19.0
2025-01-07 19:07:27.244470	288.1	39.0	-92.3	9.5
2025-01-07 19:07:28.400402	288.5	38.9	-92.6	22.4
2025-01-07 19:07:29.555177	289.0	38.7	-92.6	11.5
2025-01-07 19:07:30.709875	289.4	38.6	-92.7	19.7
2025-01-07 19:07:31.865156	289.9	38.5	-92.8	13.3
2025-01-07 19:07:33.020053	290.3	38.3	-92.8	14.7
2025-01-07 19:07:34.171971	290.8	38.2	-92.5	10.7
2025-01-07 19:07:35.327057	291.2	38.1	-92.5	9.4
2025-01-07 19:07:36.474714	291.6	37.9	-92.8	10.5
2025-01-07 19:07:37.627107	292.1	37.8	-92.5	10.5
2025-01-07 19:07:38.776230	292.5	37.6	-92.8	9.3
2025-01-07 19:07:39.935871	292.9	37.5	-92.9	7.4
2025-01-07 19:07:41.082937	293.3	37.4	-92.9	6.5
2025-01-07 19:07:42.241664	293.8	37.2	-92.5	8.5
2025-01-07 19:07:43.390779	294.2	37.1	-92.8	9.4
2025-01-07 19:07:44.550300	294.6	36.9	-93.1	10.2
2025-01-07 19:07:45.699919	295.0	36.8	-92.3	4.9
2025-01-07 19:07:46.856017	295.4	36.6	-92.8	2.4
2025-01-07 19:07:47.998890	295.8	36.5	-92.8	7.4
2025-01-07 19:07:49.154153	296.2	36.3	-92.5	5.3
2025-01-07 19:07:50.311745	296.6	36.2	-92.5	3.3
2025-01-07 19:07:51.463587	297.0	36.0	-93.2	5.8
2025-01-07 19:07:52.617160	297.3	35.9	-92.9	6.1
2025-01-07 19:07:53.772433	297.7	35.7	-92.5	5.0
2025-01-07 19:07:54.924233	298.1	35.6	-92.9	2.9
2025-01-07 19:07:56.072975	298.5	35.4	-92.9	1.3
2025-01-07 19:07:57.224606	298.8	35.3	-92.5	2.3
2025-01-07 19:07:58.378009	299.2	35.1	-92.5	2.3
2025-01-07 19:07:59.532917	299.6	35.0	-92.4	4.9
2025-01-07 19:08:00.680635	299.9	34.8	-92.5	4.9
2025-01-07 19:08:01.828985	300.3	34.7	-92.9	0.0
2025-01-07 19:08:02.981367	300.6	34.5	-93.1	4.7
2025-01-07 19:08:04.137079	301.0	34.4	-92.2	5.7
2025-01-07 19:08:05.288338	301.3	34.2	-92.4	2.2
2025-01-07 19:08:06.446406	301.7	34.0	-92.9	6.2
2025-01-07 19:08:07.598830	302.0	33.9	-92.8	6.1
2025-01-07 19:08:08.751630	302.4	33.7	-92.9	4.0
2025-01-07 19:08:09.906664	302.7	33.6	-92.9	13.2
2025-01-07 19:08:11.060167	303.0	33.4	-92.8	14.7
2025-01-07 19:08:12.212543	303.4	33.2	-92.3	10.3
2025-01-07 19:08:13.363784	303.7	33.1	-92.6	10.3
2025-01-07 19:08:14.510875	304.0	32.9	-93.1	4.9
2025-01-07 19:08:15.670995	304.3	32.8	-92.8	4.8
2025-01-07 19:08:16.823140	304.6	32.6	-92.3	9.8
2025-01-07 19:08:17.979134	304.9	32.5	-93.0	10.8
2025-01-07 19:08:19.135640	305.3	32.3	-92.4	7.4
2025-01-07 19:08:20.295927	305.6	32.1	-92.3	5.5
2025-01-07 19:08:21.447093	305.9	32.0	-91.9	5.1
2025-01-07 19:08:22.598560	306.2	31.8	-92.0	3.6
2025-01-07 19:08:23.751916	306.5	31.7	-92.2	5.4
2025-01-07 19:08:24.915337	306.8	31.5	-91.9	6.4
2025-01-07 19:08:26.065299	307.1	31.3	-92.7	4.8
2025-01-07 19:08:27.215280	307.3	31.2	-92.7	3.6
2025-01-07 19:08:28.368880	307.6	31.0	-92.4	6.4
2025-01-07 19:08:29.526072	307.9	30.9	-92.8	6.8
2025-01-07 19:08:30.681937	308.2	30.7	-92.6	6.8
2025-01-07 19:08:31.832615	308.5	30.6	-93.1	6.1
2025-01-07 19:08:32.986277	308.7	30.4	-92.8	11.4
2025-01-07 19:08:34.142772	309.0	30.2	-92.7	8.5
2025-01-07 19:08:35.299127	309.3	30.1	-92.6	12.1
2025-01-07 19:08:36.453951	309.6	29.9	-92.9	15.8
2025-01-07 19:08:37.613788	309.8	29.8	-92.9	17.0
2025-01-07 19:08:38.775242	310.1	29.6	-92.6	18.8
2025-01-07 19:08:39.931916	310.4	29.4	-92.9	11.0
2025-01-07 19:08:41.082356	310.6	29.3	-92.2	12.3
2025-01-07 19:08:42.230652	310.9	29.1	-92.6	6.9
2025-01-07 19:08:43.382035	311.1	29.0	-92.2	8.2
2025-01-07 19:08:44.535757	311.4	28.8	-92.8	10.5
2025-01-07 19:08:45.684585	311.6	28.7	-92.9	3.8
2025-01-07 19:08:46.838922	311.9	28.5	-92.8	3.4
2025-01-07 19:08:47.983253	312.1	28.4	-92.9	6.8
2025-01-07 19:08:49.136355	312.3	28.2	-92.1	3.8
2025-01-07 19:08:50.282477	312.6	28.0	-92.7	3.4
2025-01-07 19:08:51.441722	312.8	27.9	-92.6	5.7
2025-01-07 19:08:52.590160	313.1	27.7	-92.7	6.3
2025-01-07 19:08:53.737459	313.3	27.6	-93.0	5.3
2025-01-07 19:08:54.886663	313.5	27.4	-92.7	8.8
2025-01-07 19:08:56.039217	313.7	27.3	-92.8	9.7
2025-01-07 19:08:57.189870	314.0	27.1	-92.4	8.7
2025-01-07 19:08:58.342822	314.2	27.0	-92.6	10.3
2025-01-07 19:08:59.501104	314.4	26.8	-93.0	6.3
2025-01-07 19:09:00.650181	314.6	26.7	-93.0	14.6
2025-01-07 19:09:01.802214	314.9	26.5	-92.9	9.8
2025-01-07 19:09:02.957338	315.1	26.4	-92.6	10.4
2025-01-07 19:09:04.109084	315.3	26.2	-92.6	7.5
2025-01-07 19:09:05.265779	315.5	26.1	-91.9	4.2
2025-01-07 19:09:06.422896	315.7	25.9	-92.6	7.5
2025-01-07 19:09:07.576663	315.9	25.8	-92.8	8.2
2025-01-07 19:09:08.733418	316.1	25.6	-92.8	4.9
2025-01-07 19:09:09.886500	316.3	25.5	-92.8	3.9
2025-01-07 19:09:11.043247	316.5	25.3	-92.5	4.4
2025-01-07 19:09:12.196001	316.7	25.2	-92.4	3.9
2025-01-07 19:09:13.344796	316.9	25.0	-92.1	4.1
2025-01-07 19:09:14.496234	317.1	24.9	-92.9	7.1
2025-01-07 19:09:15.646822	317.3	24.8	-92.4	12.0
2025-01-07 19:09:16.801968	317.5	24.6	-93.0	12.1
2025-01-07 19:09:17.957650	317.7	24.5	-93.2	10.7
2025-01-07 19:09:19.117946	317.9	24.3	-92.5	13.8
2025-01-07 19:09:20.265651	318.1	24.2	-92.8	14.4
2025-01-07 19:09:21.418773	318.3	24.0	-92.5	9.8
2025-01-07 19:09:22.570880	318.5	23.9	-92.7	7.9
2025-01-07 19:09:23.731104	318.6	23.7	-92.6	8.8
2025-01-07 19:09:24.896284	318.8	23.6	-92.6	6.3
2025-01-07 19:09:26.045199	319.0	23.5	-92.5	3.3
2025-01-07 19:09:27.197091	319.2	23.3	-92.1	2.4
2025-01-07 19:09:28.349921	319.4	23.2	-92.1	1.7
2025-01-07 19:09:29.497585	319.5	23.0	-92.5	4.6
2025-01-07 19:09:30.647229	319.7	22.9	-92.6	5.4
2025-01-07 19:09:31.795559	319.9	22.8	-91.9	3.3
2025-01-07 19:09:32.954363	320.1	22.6	-91.8	3.4
2025-01-07 19:09:34.108271	320.2	22.5	-91.6	4.9
2025-01-07 19:09:35.253232	320.4	22.4	-91.8	5.7
2025-01-07 19:09:36.401896	320.6	22.2	-91.8	3.6
2025-01-07 19:09:37.558199	320.7	22.1	-92.0	7.5
2025-01-07 19:09:38.707391	320.9	21.9	-91.8	4.5
2025-01-07 19:09:39.863674	321.1	21.8	-91.8	3.3
2025-01-07 19:09:41.025387	321.2	21.7	-92.7	3.5
2025-01-07 19:09:42.177507	321.4	21.5	-91.8	3.6
2025-01-07 19:09:43.328815	321.5	21.4	-91.5	1.1
2025-01-07 19:09:44.483785	321.7	21.3	-91.6	3.6
2025-01-07 19:09:45.642278	321.9	21.1	-91.9	4.2
2025-01-07 19:09:46.905070	322.0	21.0	-91.8	3.4
2025-01-07 19:09:48.058964	322.2	20.9	-92.1	1.8
2025-01-07 19:09:49.209976	322.3	20.7	-92.1	2.7
2025-01-07 19:09:50.361333	322.5	20.6	-91.3	2.5
2025-01-07 19:09:51.514839	322.6	20.5	-92.3	3.5
2025-01-07 19:09:52.668437	322.8	20.3	-93.1	0.1
2025-01-07 19:09:53.817077	322.9	20.2	-93.2	3.6
2025-01-07 19:09:54.968664	323.1	20.1	-92.7	4.5
2025-01-07 19:09:56.127333	323.2	20.0	-92.4	1.1
2025-01-07 19:09:57.279096	323.4	19.8	-92.4	2.8
2025-01-07 19:09:58.431606	323.5	19.7	-92.6	1.9
2025-01-07 19:09:59.589874	323.6	19.6	-92.8	2.5
2025-01-07 19:10:00.726839	323.8	19.5	-93.0	2.2
2025-01-07 19:10:01.880141	323.9	19.3	-92.9	0.7
2025-01-07 19:10:03.034979	324.1	19.2	-92.8	0.6
2025-01-07 19:10:04.184796	324.2	19.1	-92.4	0.6
2025-01-07 19:10:05.336605	324.3	19.0	-92.6	1.8
2025-01-07 19:10:06.485092	324.5	18.8	-93.0	3.0
2025-01-07 19:10:07.644316	324.6	18.7	-92.6	3.5
2025-01-07 19:10:08.793318	324.7	18.6	-92.9	4.4
2025-01-07 19:10:09.940855	324.9	18.5	-93.0	2.9
2025-01-07 19:10:11.093032	325.0	18.3	-92.6	5.3
2025-01-07 19:10:12.256868	325.1	18.2	-92.4	7.0
2025-01-07 19:10:13.402672	325.3	18.1	-92.8	2.3
2025-01-07 19:10:14.556392	325.4	18.0	-92.7	1.5
2025-01-07 19:10:15.713841	325.5	17.9	-92.8	1.1
2025-01-07 19:10:16.865762	325.6	17.7	-92.7	1.1
2025-01-07 19:10:18.013814	325.8	17.6	-93.3	2.8
2025-01-07 19:10:19.168110	325.9	17.5	-92.2	2.0
2025-01-07 19:10:20.316479	326.0	17.4	-92.7	0.9
2025-01-07 19:10:21.464688	326.1	17.3	-92.6	1.9
2025-01-07 19:10:22.612192	326.3	17.1	-89.4	3.8
2025-01-07 19:10:23.758830	326.4	17.0	-89.9	1.5
2025-01-07 19:10:24.907867	326.5	16.9	-89.4	5.0
2025-01-07 19:10:26.060544	326.6	16.8	-89.6	2.4
2025-01-07 19:10:27.222142	326.7	16.7	-89.3	2.8
2025-01-07 19:10:28.379338	326.8	16.6	-89.2	5.6
2025-01-07 19:10:29.531467	327.0	16.4	-89.4	2.1
2025-01-07 19:10:30.687840	327.1	16.3	-90.0	2.2
2025-01-07 19:10:31.841616	327.2	16.2	-89.5	3.2
2025-01-07 19:10:32.998564	327.3	16.1	-89.4	4.9
2025-01-07 19:10:34.150768	327.4	16.0	-88.9	1.4
2025-01-07 19:10:35.305882	327.5	15.9	-89.7	3.2
2025-01-07 19:10:36.458148	327.6	15.8	-89.7	4.1
2025-01-07 19:10:37.611640	327.8	15.7	-89.4	3.3
2025-01-07 19:10:38.764364	327.9	15.5	-89.4	2.9
2025-01-07 19:10:39.914357	328.0	15.4	-88.9	1.7
2025-01-07 19:10:41.071993	328.1	15.3	-89.0	2.9
2025-01-07 19:10:42.232704	328.2	15.2	-89.3	2.6
2025-01-07 19:10:43.391864	328.3	15.1	-89.8	2.1
2025-01-07 19:10:44.546955	328.4	15.0	-89.8	3.5
2025-01-07 19:10:45.705423	328.5	14.9	-89.0	3.1
2025-01-07 19:10:46.858686	328.6	14.8	-89.7	2.6
2025-01-07 19:10:48.016853	328.7	14.7	-89.3	2.8
2025-01-07 19:10:49.173445	328.8	14.6	-89.4	1.5
#Closed at: 2025-01-07 19:02:21.003909