passes_logs/2025/01/07/LEX_Murmansk/LEX_Murmansk__20250107_192831_NOAA_18_rec.log

#Pass ID: 20250107_192831_NOAA 18
#Satellite: NOAA 18
#Configuration: NOAA 18
#Start time: 2025-01-07 19:28:26.635529

#LorettStation: 1.0.0 05.05.2024
#Station: LEX_Murmansk
#Location: 33.156738 lon 68.926811 lat
#TLE: 1 28654U 05018A   25006.88073240  .00000470  00000+0  27325-3 0  9996
#TLE: 2 28654  98.8580  88.0152 0013976 202.1444 157.9126 14.13479687 11959

#Time	Az	El	Level	SNR
2025-01-07 19:28:38.732875	171.0	16.3	-89.6	4.4
2025-01-07 19:28:41.025001	171.1	16.5	-90.1	5.6
2025-01-07 19:28:43.323410	171.2	16.8	-89.8	5.4
2025-01-07 19:28:45.617967	171.3	17.0	-89.4	3.7
2025-01-07 19:28:47.911640	171.4	17.3	-89.9	5.6
2025-01-07 19:28:50.206663	171.5	17.5	-89.2	5.2
2025-01-07 19:28:52.504313	171.6	17.8	-90.1	5.2
2025-01-07 19:28:54.800713	171.7	18.1	-89.7	5.7
2025-01-07 19:28:57.097592	171.8	18.3	-89.7	6.3
2025-01-07 19:28:59.390476	172.0	18.6	-89.9	7.0
2025-01-07 19:29:01.674458	172.1	18.9	-87.4	3.5
2025-01-07 19:29:03.968022	172.2	19.2	-89.8	8.6
2025-01-07 19:29:06.256509	172.3	19.4	-90.2	6.6
2025-01-07 19:29:08.548655	172.4	19.7	-89.2	5.0
2025-01-07 19:29:10.848002	172.6	20.0	-88.6	6.5
2025-01-07 19:29:13.146623	172.7	20.3	-89.9	6.0
2025-01-07 19:29:15.438930	172.8	20.6	-90.0	6.4
2025-01-07 19:29:17.736579	172.9	20.9	-89.9	6.6
2025-01-07 19:29:20.026913	173.1	21.2	-89.7	5.8
2025-01-07 19:29:22.329750	173.2	21.5	-90.1	9.0
2025-01-07 19:29:24.616691	173.4	21.8	-89.8	8.5
2025-01-07 19:29:26.917471	173.5	22.1	-90.1	12.8
2025-01-07 19:29:29.211412	173.6	22.4	-90.2	9.9
2025-01-07 19:29:31.503383	173.8	22.7	-90.5	5.6
2025-01-07 19:29:33.796386	173.9	23.0	-90.5	12.7
2025-01-07 19:29:36.101716	174.1	23.4	-90.1	11.6
2025-01-07 19:29:38.399084	174.2	23.7	-89.7	13.2
2025-01-07 19:29:40.700872	174.4	24.0	-90.2	12.7
2025-01-07 19:29:42.994502	174.6	24.4	-89.8	9.6
2025-01-07 19:29:45.282578	174.7	24.7	-90.4	12.9
2025-01-07 19:29:47.577513	174.9	25.0	-90.6	6.1
2025-01-07 19:29:49.873205	175.1	25.4	-90.4	12.1
2025-01-07 19:29:52.172226	175.2	25.7	-90.4	9.8
2025-01-07 19:29:54.474261	175.4	26.1	-90.4	11.0
2025-01-07 19:29:56.772012	175.6	26.5	-90.4	11.4
2025-01-07 19:29:59.080694	175.8	26.8	-90.6	10.7
2025-01-07 19:30:01.365183	176.0	27.2	-87.8	9.0
2025-01-07 19:30:03.657376	176.2	27.6	-91.0	9.2
2025-01-07 19:30:05.955424	176.4	27.9	-90.7	7.8
2025-01-07 19:30:08.252173	176.6	28.3	-90.6	11.2
2025-01-07 19:30:10.542477	176.8	28.7	-91.0	10.9
2025-01-07 19:30:12.841164	177.0	29.1	-90.6	13.2
2025-01-07 19:30:15.141474	177.2	29.5	-88.2	8.2
2025-01-07 19:30:17.447967	177.5	29.9	-91.1	10.0
2025-01-07 19:30:19.748462	177.7	30.3	-90.8	11.8
2025-01-07 19:30:22.040438	177.9	30.7	-90.6	6.0
2025-01-07 19:30:24.334925	178.2	31.2	-90.9	9.8
2025-01-07 19:30:26.645220	178.4	31.6	-90.6	11.1
2025-01-07 19:30:28.946116	178.7	32.0	-91.0	9.7
2025-01-07 19:30:31.238768	178.9	32.5	-90.8	14.1
2025-01-07 19:30:33.534696	179.2	32.9	-90.9	12.0
2025-01-07 19:30:35.829107	179.5	33.3	-91.1	12.7
2025-01-07 19:30:38.129811	179.8	33.8	-90.1	5.6
2025-01-07 19:30:40.426218	180.0	34.3	-90.5	5.2
2025-01-07 19:30:42.716837	180.3	34.7	-91.2	12.3
2025-01-07 19:30:45.020292	180.6	35.2	-91.0	9.9
2025-01-07 19:30:47.319184	181.0	35.7	-90.3	14.6
2025-01-07 19:30:49.623320	181.3	36.2	-90.4	10.9
2025-01-07 19:30:51.914833	181.6	36.7	-91.3	10.4
2025-01-07 19:30:54.224229	182.0	37.2	-90.3	8.8
2025-01-07 19:30:56.519235	182.3	37.7	-91.0	10.3
2025-01-07 19:30:58.812906	182.7	38.2	-90.4	11.2
2025-01-07 19:31:01.102788	183.1	38.7	-90.8	5.8
2025-01-07 19:31:03.395116	183.4	39.2	-91.1	11.9
2025-01-07 19:31:05.689333	183.8	39.7	-91.2	10.0
2025-01-07 19:31:07.981811	184.3	40.3	-91.1	14.5
2025-01-07 19:31:10.283031	184.7	40.8	-90.7	13.0
2025-01-07 19:31:12.573319	185.1	41.4	-90.8	7.4
2025-01-07 19:31:14.860575	185.6	41.9	-91.5	10.6
2025-01-07 19:31:17.161355	186.0	42.5	-90.9	11.7
2025-01-07 19:31:19.462684	186.5	43.0	-91.2	9.4
2025-01-07 19:31:21.758816	187.0	43.6	-91.3	16.6
2025-01-07 19:31:24.062590	187.6	44.2	-91.1	11.6
2025-01-07 19:31:26.361530	188.1	44.8	-90.8	15.9
2025-01-07 19:31:28.663869	188.7	45.4	-91.3	15.9
2025-01-07 19:31:30.973055	189.3	46.0	-90.8	11.1
2025-01-07 19:31:33.267556	189.9	46.6	-90.9	12.0
2025-01-07 19:31:35.567681	190.5	47.2	-90.9	17.3
2025-01-07 19:31:37.862980	191.1	47.8	-90.8	17.3
2025-01-07 19:31:40.163188	191.8	48.4	-90.6	8.9
2025-01-07 19:31:42.458658	192.5	49.1	-91.1	7.6
2025-01-07 19:31:44.748228	193.3	49.7	-90.9	13.0
2025-01-07 19:31:47.049916	194.0	50.3	-90.3	13.2
2025-01-07 19:31:49.337744	194.8	50.9	-90.9	10.3
2025-01-07 19:31:51.626755	195.7	51.6	-90.4	11.0
2025-01-07 19:31:53.914310	196.5	52.2	-90.1	9.3
2025-01-07 19:31:56.213878	197.4	52.9	-91.3	19.6
2025-01-07 19:31:58.524130	198.4	53.5	-91.2	17.5
2025-01-07 19:32:00.815916	199.4	54.1	-91.2	20.1
2025-01-07 19:32:03.115024	200.4	54.8	-91.0	10.0
2025-01-07 19:32:05.412045	201.5	55.4	-91.2	12.6
2025-01-07 19:32:07.710776	202.6	56.1	-91.0	12.7
2025-01-07 19:32:10.007728	203.8	56.7	-91.2	8.9
2025-01-07 19:32:12.299115	205.0	57.3	-91.0	13.0
2025-01-07 19:32:14.596164	206.3	57.9	-91.1	12.8
2025-01-07 19:32:16.899009	207.7	58.5	-91.6	18.8
2025-01-07 19:32:19.196062	209.1	59.1	-91.1	12.5
2025-01-07 19:32:21.493644	210.6	59.7	-91.0	13.9
2025-01-07 19:32:23.784820	212.1	60.3	-90.8	17.8
2025-01-07 19:32:26.075889	213.7	60.9	-91.1	13.3
2025-01-07 19:32:28.369932	215.4	61.4	-91.0	21.6
2025-01-07 19:32:30.671184	217.2	62.0	-91.0	18.1
2025-01-07 19:32:32.958268	219.0	62.5	-90.8	15.5
2025-01-07 19:32:35.254153	220.9	63.0	-90.6	16.1
2025-01-07 19:32:37.561908	223.0	63.4	-90.9	10.8
2025-01-07 19:32:39.856964	225.0	63.9	-90.9	18.6
2025-01-07 19:32:42.152286	227.2	64.3	-91.1	10.9
2025-01-07 19:32:44.448757	229.4	64.7	-90.9	11.5
2025-01-07 19:32:46.754271	231.7	65.0	-91.2	16.1
2025-01-07 19:32:49.051342	234.1	65.3	-91.1	14.3
2025-01-07 19:32:51.342782	236.5	65.6	-90.9	9.6
2025-01-07 19:32:53.637856	239.0	65.8	-91.2	17.5
2025-01-07 19:32:55.939303	241.5	66.0	-90.7	19.3
2025-01-07 19:32:58.232634	244.1	66.2	-90.8	31.4
2025-01-07 19:33:00.518412	246.7	66.3	-91.2	12.2
2025-01-07 19:33:02.812818	249.3	66.3	-91.1	17.6
2025-01-07 19:33:05.107534	251.9	66.3	-91.3	18.5
2025-01-07 19:33:07.405827	254.6	66.3	-91.2	18.5
2025-01-07 19:33:09.702296	257.2	66.2	-91.1	18.1
2025-01-07 19:33:12.001582	259.8	66.1	-91.0	11.3
2025-01-07 19:33:14.297401	262.4	66.0	-91.0	22.2
2025-01-07 19:33:16.589808	264.9	65.8	-91.5	9.1
2025-01-07 19:33:18.886161	267.3	65.5	-91.1	16.2
2025-01-07 19:33:21.182668	269.8	65.2	-91.3	21.3
2025-01-07 19:33:23.473427	272.1	64.9	-91.3	11.8
2025-01-07 19:33:25.774072	274.4	64.6	-90.2	9.8
2025-01-07 19:33:28.073384	276.6	64.2	-90.1	8.2
2025-01-07 19:33:30.360183	278.7	63.8	-91.3	7.3
2025-01-07 19:33:32.654467	280.8	63.3	-91.2	7.2
2025-01-07 19:33:34.950037	282.7	62.8	-91.4	10.0
2025-01-07 19:33:37.245843	284.6	62.3	-90.9	6.9
2025-01-07 19:33:39.537572	286.5	61.8	-91.2	8.9
2025-01-07 19:33:41.836458	288.2	61.3	-91.2	6.8
2025-01-07 19:33:44.128444	289.9	60.7	-90.5	9.1
2025-01-07 19:33:46.432857	291.5	60.2	-91.5	7.3
2025-01-07 19:33:48.755738	293.0	59.6	-91.2	7.0
2025-01-07 19:33:51.050299	294.5	59.0	-91.0	9.2
2025-01-07 19:33:53.345100	295.9	58.4	-91.1	13.2
2025-01-07 19:33:55.638342	297.2	57.8	-91.1	10.4
2025-01-07 19:33:57.935491	298.5	57.1	-91.0	11.8
2025-01-07 19:34:00.222135	299.7	56.5	-91.0	9.9
2025-01-07 19:34:02.508273	300.9	55.9	-91.2	9.4
2025-01-07 19:34:04.799552	302.0	55.2	-91.1	16.7
2025-01-07 19:34:07.105851	303.1	54.6	-91.0	11.2
2025-01-07 19:34:09.400167	304.1	54.0	-91.0	16.9
2025-01-07 19:34:11.695317	305.1	53.3	-91.3	8.4
2025-01-07 19:34:13.985188	306.0	52.7	-91.2	10.4
2025-01-07 19:34:16.282374	306.9	52.1	-91.4	13.8
2025-01-07 19:34:18.573335	307.7	51.4	-91.3	12.8
2025-01-07 19:34:20.867477	308.6	50.8	-91.2	6.7
2025-01-07 19:34:23.159854	309.3	50.1	-91.0	9.2
2025-01-07 19:34:25.453635	310.1	49.5	-91.5	10.7
2025-01-07 19:34:27.730245	310.8	48.9	-91.6	8.1
2025-01-07 19:34:30.024354	311.5	48.3	-90.4	11.5
2025-01-07 19:34:32.320874	312.2	47.7	-90.4	13.9
2025-01-07 19:34:34.633286	312.9	47.0	-91.0	13.5
2025-01-07 19:34:36.924649	313.5	46.4	-91.3	14.2
2025-01-07 19:34:39.223310	314.1	45.8	-91.3	13.5
2025-01-07 19:34:41.519905	314.6	45.2	-91.6	10.5
2025-01-07 19:34:43.808926	315.2	44.7	-91.3	7.5
2025-01-07 19:34:46.111323	315.7	44.1	-91.3	18.7
2025-01-07 19:34:48.426082	316.3	43.5	-91.0	12.7
2025-01-07 19:34:50.722290	316.8	42.9	-91.5	12.6
2025-01-07 19:34:53.016906	317.2	42.3	-91.3	16.5
2025-01-07 19:34:55.312882	317.7	41.8	-91.0	17.3
2025-01-07 19:34:57.608329	318.2	41.2	-91.5	8.2
2025-01-07 19:34:59.907963	318.6	40.7	-91.6	9.0
2025-01-07 19:35:02.201458	319.0	40.1	-91.4	7.4
2025-01-07 19:35:04.499184	319.4	39.6	-91.3	9.9
2025-01-07 19:35:06.808089	319.8	39.1	-91.6	16.5
2025-01-07 19:35:09.104855	320.2	38.6	-91.0	11.7
2025-01-07 19:35:11.400813	320.6	38.0	-91.5	19.4
2025-01-07 19:35:13.695397	321.0	37.5	-91.5	5.4
2025-01-07 19:35:15.991934	321.3	37.0	-91.9	12.3
2025-01-07 19:35:18.285035	321.6	36.5	-91.2	11.7
2025-01-07 19:35:20.581816	322.0	36.1	-91.4	4.0
2025-01-07 19:35:22.876146	322.3	35.6	-91.7	9.4
2025-01-07 19:35:25.172743	322.6	35.1	-91.3	3.3
2025-01-07 19:35:27.474197	322.9	34.6	-91.7	13.2
2025-01-07 19:35:29.769802	323.2	34.2	-91.5	16.9
2025-01-07 19:35:32.062726	323.5	33.7	-91.5	15.9
2025-01-07 19:35:34.363189	323.8	33.2	-91.2	17.1
2025-01-07 19:35:36.669410	324.1	32.8	-91.6	12.9
2025-01-07 19:35:38.967756	324.3	32.4	-91.4	9.9
2025-01-07 19:35:41.256306	324.6	31.9	-90.9	17.0
2025-01-07 19:35:43.551648	324.8	31.5	-91.8	12.1
2025-01-07 19:35:45.846083	325.1	31.1	-91.2	18.1
2025-01-07 19:35:48.140804	325.3	30.7	-91.4	15.2
2025-01-07 19:35:50.437869	325.6	30.2	-91.3	12.8
2025-01-07 19:35:52.743570	325.8	29.8	-91.6	14.4
2025-01-07 19:35:55.041000	326.0	29.4	-91.4	8.4
2025-01-07 19:35:57.339777	326.2	29.0	-91.4	12.1
2025-01-07 19:35:59.644388	326.4	28.6	-91.3	13.4
2025-01-07 19:36:01.926372	326.7	28.3	-91.5	15.3
2025-01-07 19:36:04.225465	326.9	27.9	-91.3	15.3
2025-01-07 19:36:06.522643	327.1	27.5	-91.4	11.5
2025-01-07 19:36:08.821089	327.3	27.1	-91.4	10.6
2025-01-07 19:36:11.131933	327.4	26.8	-90.9	7.5
2025-01-07 19:36:13.426100	327.6	26.4	-91.4	10.0
2025-01-07 19:36:15.737573	327.8	26.0	-91.4	11.3
2025-01-07 19:36:18.032582	328.0	25.7	-90.3	12.7
2025-01-07 19:36:20.334119	328.2	25.3	-90.4	14.1
2025-01-07 19:36:22.639147	328.3	25.0	-91.0	11.1
2025-01-07 19:36:24.929778	328.5	24.6	-91.4	8.2
2025-01-07 19:36:27.240527	328.7	24.3	-91.5	16.0
2025-01-07 19:36:29.536742	328.8	24.0	-91.6	9.9
2025-01-07 19:36:31.832991	329.0	23.6	-91.5	12.8
2025-01-07 19:36:34.132801	329.2	23.3	-91.2	17.0
2025-01-07 19:36:36.430058	329.3	23.0	-91.2	9.8
2025-01-07 19:36:38.724423	329.5	22.7	-91.6	12.0
2025-01-07 19:36:41.016963	329.6	22.3	-91.5	7.1
2025-01-07 19:36:43.312242	329.7	22.0	-91.3	11.2
2025-01-07 19:36:45.623374	329.9	21.7	-90.9	7.8
2025-01-07 19:36:47.918202	330.0	21.4	-91.2	11.4
2025-01-07 19:36:50.213400	330.2	21.1	-91.4	13.9
2025-01-07 19:36:52.520207	330.3	20.8	-91.6	11.4
2025-01-07 19:36:54.811178	330.4	20.5	-91.6	9.9
2025-01-07 19:36:57.105342	330.6	20.2	-91.1	5.6
2025-01-07 19:36:59.404111	330.7	20.0	-91.5	6.4
2025-01-07 19:37:01.688931	330.8	19.7	-91.3	6.4
2025-01-07 19:37:03.980252	330.9	19.4	-91.4	6.3
2025-01-07 19:37:06.272482	331.1	19.1	-91.5	8.6
2025-01-07 19:37:08.570793	331.2	18.8	-91.7	6.8
2025-01-07 19:37:10.863448	331.3	18.6	-91.5	8.3
2025-01-07 19:37:13.164191	331.4	18.3	-91.2	8.0
2025-01-07 19:37:15.456744	331.5	18.0	-91.2	5.6
2025-01-07 19:37:17.750433	331.6	17.8	-91.7	6.5
2025-01-07 19:37:20.049104	331.7	17.5	-91.2	5.1
2025-01-07 19:37:22.339141	331.9	17.2	-91.4	6.3
2025-01-07 19:37:24.637292	332.0	17.0	-91.4	4.4
2025-01-07 19:37:26.931161	332.1	16.7	-91.4	5.4
2025-01-07 19:37:29.227661	332.2	16.5	-91.3	3.9
2025-01-07 19:37:31.523517	332.3	16.2	-91.5	5.4
2025-01-07 19:37:33.821247	332.4	16.0	-91.0	3.6
2025-01-07 19:37:36.129603	332.5	15.7	-91.4	5.2
2025-01-07 19:37:38.429443	332.6	15.5	-91.4	4.6
2025-01-07 19:37:40.728747	332.7	15.3	-91.7	3.6
2025-01-07 19:37:43.020362	332.8	15.0	-91.8	8.2
2025-01-07 19:37:45.318969	332.9	14.8	-91.6	5.9
2025-01-07 19:37:47.614059	332.9	14.6	-91.4	4.2
#Closed at: 2025-01-07 19:28:31.550028