passes_logs/2025/01/07/LEX_Murmansk/LEX_Murmansk__20250107_140227_NOAA_19_rec.log

#Pass ID: 20250107_140227_NOAA 19
#Satellite: NOAA 19
#Configuration: NOAA 19
#Start time: 2025-01-07 14:02:22.794059

#LorettStation: 1.0.0 05.05.2024
#Station: LEX_Murmansk
#Location: 33.156738 lon 68.926811 lat
#TLE: 1 33591U 09005A   25006.86236638  .00000398  00000+0  23653-3 0  9991
#TLE: 2 33591  99.0211  70.5614 0014662  79.2072 281.0749 14.13253225820137

#Time	Az	El	Level	SNR
2025-01-07 14:02:34.967640	53.3	15.9	-91.4	3.2
2025-01-07 14:02:36.134751	53.1	16.0	-91.0	3.8
2025-01-07 14:02:37.297510	52.9	16.1	-91.0	6.3
2025-01-07 14:02:38.457927	52.7	16.2	-91.0	5.9
2025-01-07 14:02:39.620368	52.5	16.3	-91.1	5.8
2025-01-07 14:02:40.777677	52.3	16.4	-91.4	3.6
2025-01-07 14:02:41.942466	52.2	16.4	-91.1	2.2
2025-01-07 14:02:43.104525	52.0	16.5	-90.9	2.7
2025-01-07 14:02:44.268881	51.8	16.6	-91.0	2.8
2025-01-07 14:02:45.429805	51.6	16.7	-92.1	5.3
2025-01-07 14:02:46.596910	51.4	16.8	-91.5	8.8
2025-01-07 14:02:47.758047	51.2	16.9	-92.0	10.6
2025-01-07 14:02:48.930342	51.0	17.0	-91.7	7.2
2025-01-07 14:02:50.089565	50.8	17.1	-91.3	4.4
2025-01-07 14:02:51.248919	50.6	17.1	-91.5	3.1
2025-01-07 14:02:52.399175	50.4	17.2	-91.5	2.4
2025-01-07 14:02:53.526123	50.2	17.3	-91.9	3.2
2025-01-07 14:02:54.649064	50.0	17.4	-91.9	3.0
2025-01-07 14:02:55.772913	49.8	17.5	-92.1	4.1
2025-01-07 14:02:56.894092	49.6	17.6	-91.2	4.2
2025-01-07 14:02:58.014611	49.4	17.6	-91.0	6.4
2025-01-07 14:02:59.135660	49.2	17.7	-90.8	7.8
2025-01-07 14:03:00.258667	49.0	17.8	-91.0	9.3
2025-01-07 14:03:01.380432	48.8	17.9	-90.4	8.4
2025-01-07 14:03:02.532611	48.6	18.0	-91.3	6.9
2025-01-07 14:03:03.689549	48.4	18.1	-91.3	4.2
2025-01-07 14:03:04.845127	48.2	18.2	-91.4	3.8
2025-01-07 14:03:06.017285	48.0	18.2	-91.4	6.4
2025-01-07 14:03:07.175715	47.8	18.3	-91.0	4.5
2025-01-07 14:03:08.337098	47.6	18.4	-90.9	7.1
2025-01-07 14:03:09.502391	47.3	18.5	-91.3	7.3
2025-01-07 14:03:10.658592	47.1	18.6	-91.4	10.6
2025-01-07 14:03:11.819518	46.9	18.7	-91.6	7.2
2025-01-07 14:03:12.979742	46.7	18.8	-91.6	5.3
2025-01-07 14:03:14.143566	46.5	18.8	-91.3	5.0
2025-01-07 14:03:15.302341	46.2	18.9	-90.8	2.5
2025-01-07 14:03:16.467852	46.0	19.0	-91.5	3.1
2025-01-07 14:03:17.631675	45.8	19.1	-91.2	2.9
2025-01-07 14:03:18.792545	45.6	19.2	-92.1	3.3
2025-01-07 14:03:19.957948	45.3	19.3	-92.0	4.8
2025-01-07 14:03:21.120723	45.1	19.3	-91.3	5.2
2025-01-07 14:03:22.281644	44.9	19.4	-91.7	4.7
2025-01-07 14:03:23.441465	44.6	19.5	-91.5	8.0
2025-01-07 14:03:24.602439	44.4	19.6	-90.8	6.7
2025-01-07 14:03:25.766993	44.2	19.7	-91.1	4.9
2025-01-07 14:03:26.928683	43.9	19.8	-91.0	6.0
2025-01-07 14:03:28.090628	43.7	19.8	-90.8	6.4
2025-01-07 14:03:29.256731	43.5	19.9	-91.3	4.9
2025-01-07 14:03:30.404604	43.2	20.0	-91.1	4.9
2025-01-07 14:03:31.563549	43.0	20.1	-91.3	8.9
2025-01-07 14:03:32.728338	42.7	20.2	-91.0	9.0
2025-01-07 14:03:33.887839	42.5	20.3	-91.4	11.0
2025-01-07 14:03:35.046298	42.3	20.3	-91.2	7.5
2025-01-07 14:03:36.211966	42.0	20.4	-91.1	8.1
2025-01-07 14:03:37.367954	41.8	20.5	-91.7	4.2
2025-01-07 14:03:38.532817	41.5	20.6	-91.7	5.0
2025-01-07 14:03:39.695890	41.3	20.7	-91.6	2.6
2025-01-07 14:03:40.857279	41.0	20.7	-91.3	2.0
2025-01-07 14:03:42.017703	40.8	20.8	-91.3	3.4
2025-01-07 14:03:43.183338	40.5	20.9	-91.4	3.7
2025-01-07 14:03:44.348872	40.2	21.0	-91.6	4.8
2025-01-07 14:03:45.512829	40.0	21.1	-91.9	10.6
2025-01-07 14:03:46.675809	39.7	21.1	-91.7	7.7
2025-01-07 14:03:47.836637	39.5	21.2	-92.1	12.7
2025-01-07 14:03:49.006351	39.2	21.3	-92.2	9.0
2025-01-07 14:03:50.167140	38.9	21.4	-91.9	7.3
2025-01-07 14:03:51.341788	38.7	21.4	-91.6	6.4
2025-01-07 14:03:52.499964	38.4	21.5	-91.8	6.6
2025-01-07 14:03:53.664641	38.2	21.6	-92.2	6.3
2025-01-07 14:03:54.827997	37.9	21.7	-92.2	5.6
2025-01-07 14:03:55.989311	37.6	21.7	-91.6	7.0
2025-01-07 14:03:57.152016	37.3	21.8	-91.8	8.7
2025-01-07 14:03:58.312346	37.1	21.9	-91.9	10.1
2025-01-07 14:03:59.475436	36.8	22.0	-92.2	12.5
2025-01-07 14:04:00.626789	36.5	22.0	-92.3	10.3
2025-01-07 14:04:01.791696	36.3	22.1	-92.1	9.4
2025-01-07 14:04:02.952317	36.0	22.2	-92.2	5.0
2025-01-07 14:04:04.113689	35.7	22.2	-92.0	5.1
2025-01-07 14:04:05.272412	35.4	22.3	-91.8	3.2
2025-01-07 14:04:06.436979	35.1	22.4	-92.0	4.1
2025-01-07 14:04:07.592902	34.9	22.5	-91.5	2.7
2025-01-07 14:04:08.754794	34.6	22.5	-92.0	2.1
2025-01-07 14:04:09.916464	34.3	22.6	-91.7	3.8
2025-01-07 14:04:11.075012	34.0	22.7	-91.1	2.8
2025-01-07 14:04:12.235100	33.7	22.7	-91.3	5.3
2025-01-07 14:04:13.398231	33.4	22.8	-91.1	8.9
2025-01-07 14:04:14.533280	33.2	22.9	-91.8	10.2
2025-01-07 14:04:15.698692	32.9	22.9	-91.8	13.7
2025-01-07 14:04:16.862785	32.6	23.0	-91.7	12.9
2025-01-07 14:04:18.018601	32.3	23.0	-92.4	11.9
2025-01-07 14:04:19.178846	32.0	23.1	-92.0	9.7
2025-01-07 14:04:20.343751	31.7	23.2	-92.0	6.9
2025-01-07 14:04:21.501778	31.4	23.2	-92.1	7.7
2025-01-07 14:04:22.661572	31.1	23.3	-92.2	6.8
2025-01-07 14:04:23.824639	30.8	23.4	-92.1	3.9
2025-01-07 14:04:24.975895	30.5	23.4	-92.1	7.4
2025-01-07 14:04:26.120157	30.2	23.5	-91.9	10.2
2025-01-07 14:04:27.241078	29.9	23.5	-91.6	3.8
2025-01-07 14:04:28.362573	29.6	23.6	-91.7	9.5
2025-01-07 14:04:29.484827	29.3	23.6	-91.0	8.7
2025-01-07 14:04:30.604838	29.0	23.7	-92.3	12.8
2025-01-07 14:04:31.724878	28.8	23.8	-92.1	12.2
2025-01-07 14:04:32.846495	28.5	23.8	-92.0	11.6
2025-01-07 14:04:33.970893	28.2	23.9	-92.3	12.8
2025-01-07 14:04:35.091402	27.9	23.9	-91.5	9.2
2025-01-07 14:04:36.251864	27.6	24.0	-91.7	9.0
2025-01-07 14:04:37.402835	27.2	24.0	-92.1	6.0
2025-01-07 14:04:38.565711	26.9	24.1	-92.0	5.3
2025-01-07 14:04:39.725957	26.6	24.1	-91.8	2.9
2025-01-07 14:04:40.882985	26.3	24.2	-91.4	5.1
2025-01-07 14:04:42.051540	26.0	24.2	-92.4	4.2
2025-01-07 14:04:43.208844	25.7	24.3	-92.3	2.7
2025-01-07 14:04:44.372745	25.4	24.3	-92.1	6.5
2025-01-07 14:04:45.538755	25.0	24.3	-92.4	7.7
2025-01-07 14:04:46.694944	24.7	24.4	-92.3	6.4
2025-01-07 14:04:47.857803	24.4	24.4	-92.3	8.7
2025-01-07 14:04:49.018384	24.1	24.5	-92.4	11.8
2025-01-07 14:04:50.180750	23.8	24.5	-91.6	11.8
2025-01-07 14:04:51.344352	23.4	24.6	-91.9	11.3
2025-01-07 14:04:52.517303	23.1	24.6	-91.6	10.7
2025-01-07 14:04:53.678740	22.8	24.6	-92.2	10.6
2025-01-07 14:04:54.843157	22.5	24.7	-92.4	12.8
2025-01-07 14:04:55.983274	22.1	24.7	-92.0	9.5
2025-01-07 14:04:57.116714	21.8	24.8	-91.7	13.3
2025-01-07 14:04:58.267816	21.5	24.8	-91.7	8.7
2025-01-07 14:04:59.404825	21.2	24.8	-92.2	8.3
2025-01-07 14:05:00.528843	20.9	24.9	-92.0	8.8
2025-01-07 14:05:01.679216	20.5	24.9	-92.1	6.2
2025-01-07 14:05:02.827884	20.2	24.9	-92.0	4.9
2025-01-07 14:05:03.979753	19.9	24.9	-91.9	8.2
2025-01-07 14:05:05.124636	19.6	25.0	-91.9	6.3
2025-01-07 14:05:06.247075	19.2	25.0	-92.0	3.7
2025-01-07 14:05:07.408832	18.9	25.0	-91.9	4.3
2025-01-07 14:05:08.553846	18.6	25.1	-92.1	8.3
2025-01-07 14:05:09.716607	18.2	25.1	-92.3	2.9
2025-01-07 14:05:10.861532	17.9	25.1	-91.7	6.9
2025-01-07 14:05:12.016151	17.6	25.1	-92.0	7.0
2025-01-07 14:05:13.175848	17.2	25.2	-91.5	9.2
2025-01-07 14:05:14.338912	16.9	25.2	-91.4	13.3
2025-01-07 14:05:15.502661	16.6	25.2	-91.9	9.5
2025-01-07 14:05:16.661287	16.2	25.2	-92.2	10.8
2025-01-07 14:05:17.826530	15.9	25.2	-92.1	6.3
2025-01-07 14:05:18.989015	15.6	25.3	-92.3	5.9
2025-01-07 14:05:20.152892	15.2	25.3	-91.8	6.2
2025-01-07 14:05:21.311394	14.9	25.3	-91.7	6.1
2025-01-07 14:05:22.471982	14.6	25.3	-92.2	5.4
2025-01-07 14:05:23.635700	14.2	25.3	-92.2	2.5
2025-01-07 14:05:24.794419	13.9	25.3	-92.2	4.0
2025-01-07 14:05:25.957940	13.5	25.3	-92.0	3.5
2025-01-07 14:05:27.122947	13.2	25.3	-92.0	4.7
2025-01-07 14:05:28.281278	12.9	25.3	-91.7	0.3
2025-01-07 14:05:29.442302	12.5	25.4	-92.0	2.2
2025-01-07 14:05:30.610344	12.2	25.4	-92.1	2.9
2025-01-07 14:05:31.766506	11.8	25.4	-92.3	2.3
2025-01-07 14:05:32.929746	11.5	25.4	-92.2	2.8
2025-01-07 14:05:34.089591	11.2	25.4	-91.9	5.1
2025-01-07 14:05:35.251822	10.8	25.4	-91.8	3.5
2025-01-07 14:05:36.388691	10.5	25.4	-92.3	3.3
2025-01-07 14:05:37.531055	10.2	25.4	-92.0	2.7
2025-01-07 14:05:38.686282	9.8	25.4	-91.9	5.6
2025-01-07 14:05:39.830587	9.5	25.4	-92.1	5.5
2025-01-07 14:05:40.987109	9.2	25.4	-92.5	8.3
2025-01-07 14:05:42.152669	8.8	25.4	-92.1	7.1
2025-01-07 14:05:43.301528	8.5	25.4	-91.8	8.8
2025-01-07 14:05:44.461330	8.1	25.4	-92.2	10.1
2025-01-07 14:05:45.620324	7.8	25.3	-92.4	10.6
2025-01-07 14:05:46.782237	7.5	25.3	-92.5	9.9
2025-01-07 14:05:47.950738	7.1	25.3	-91.9	8.1
2025-01-07 14:05:49.081908	6.8	25.3	-91.6	10.0
2025-01-07 14:05:50.247779	6.5	25.3	-92.0	9.3
2025-01-07 14:05:51.403754	6.1	25.3	-92.3	8.3
2025-01-07 14:05:52.562849	5.8	25.3	-92.3	5.6
2025-01-07 14:05:53.724344	5.4	25.3	-92.5	10.4
2025-01-07 14:05:54.898790	5.1	25.2	-92.1	11.5
2025-01-07 14:05:56.061384	4.8	25.2	-92.3	12.1
2025-01-07 14:05:57.225319	4.4	25.2	-92.0	10.1
2025-01-07 14:05:58.387032	4.1	25.2	-92.2	9.8
2025-01-07 14:05:59.557426	3.8	25.2	-92.4	12.9
2025-01-07 14:06:00.710231	3.4	25.1	-92.4	9.4
2025-01-07 14:06:01.866442	3.1	25.1	-92.3	10.2
2025-01-07 14:06:03.034447	2.8	25.1	-92.3	9.9
2025-01-07 14:06:04.192664	2.4	25.1	-91.9	8.2
2025-01-07 14:06:05.357025	2.1	25.0	-92.2	7.5
2025-01-07 14:06:06.521488	1.8	25.0	-92.2	9.6
2025-01-07 14:06:07.686979	1.4	25.0	-91.8	7.1
2025-01-07 14:06:08.848475	1.1	25.0	-91.5	6.2
2025-01-07 14:06:10.010113	0.8	24.9	-91.6	6.2
2025-01-07 14:06:11.169698	0.4	24.9	-91.6	7.3
2025-01-07 14:06:12.328804	0.1	24.9	-91.5	5.9
2025-01-07 14:06:13.495004	359.8	24.8	-91.2	7.6
2025-01-07 14:06:14.659413	359.4	24.8	-91.3	5.2
2025-01-07 14:06:15.823574	359.1	24.8	-91.4	2.3
2025-01-07 14:06:16.978541	358.8	24.7	-93.1	8.7
2025-01-07 14:06:18.143328	358.5	24.7	-91.9	6.1
2025-01-07 14:06:19.302460	358.1	24.6	-92.1	4.3
2025-01-07 14:06:20.467112	357.8	24.6	-92.7	9.5
2025-01-07 14:06:21.627847	357.5	24.6	-92.7	10.8
2025-01-07 14:06:22.793756	357.2	24.5	-92.4	8.0
2025-01-07 14:06:23.953695	356.9	24.5	-92.3	9.3
2025-01-07 14:06:25.113906	356.5	24.4	-92.2	8.5
2025-01-07 14:06:26.276824	356.2	24.4	-91.7	6.0
2025-01-07 14:06:27.435795	355.9	24.4	-92.6	5.0
2025-01-07 14:06:28.601669	355.6	24.3	-92.8	11.8
2025-01-07 14:06:29.757927	355.3	24.3	-92.1	4.1
2025-01-07 14:06:30.922706	354.9	24.2	-92.4	7.0
2025-01-07 14:06:32.074568	354.6	24.2	-92.3	5.6
2025-01-07 14:06:33.238975	354.3	24.1	-91.9	3.2
2025-01-07 14:06:34.393272	354.0	24.1	-91.9	6.0
2025-01-07 14:06:35.537330	353.7	24.0	-92.4	9.0
2025-01-07 14:06:36.658019	353.4	24.0	-92.4	7.4
2025-01-07 14:06:37.778802	353.1	23.9	-92.3	5.7
2025-01-07 14:06:38.899291	352.8	23.9	-92.2	7.4
2025-01-07 14:06:40.019983	352.5	23.8	-92.1	8.7
2025-01-07 14:06:41.140747	352.2	23.8	-92.0	4.5
2025-01-07 14:06:42.262126	351.9	23.7	-91.7	4.1
2025-01-07 14:06:43.394269	351.6	23.7	-92.4	5.9
2025-01-07 14:06:44.515139	351.3	23.6	-92.1	5.0
2025-01-07 14:06:45.675774	351.0	23.5	-92.4	5.3
2025-01-07 14:06:46.837636	350.7	23.5	-92.5	5.5
2025-01-07 14:06:48.003765	350.4	23.4	-92.2	6.4
2025-01-07 14:06:49.154637	350.1	23.4	-91.9	6.7
2025-01-07 14:06:50.321899	349.8	23.3	-92.3	3.9
2025-01-07 14:06:51.478343	349.5	23.2	-92.2	7.5
2025-01-07 14:06:52.638503	349.2	23.2	-92.3	6.9
2025-01-07 14:06:53.801485	348.9	23.1	-92.1	4.1
2025-01-07 14:06:54.968548	348.6	23.1	-92.6	8.6
2025-01-07 14:06:56.133006	348.4	23.0	-91.8	7.8
2025-01-07 14:06:57.293638	348.1	22.9	-91.2	6.0
2025-01-07 14:06:58.459775	347.8	22.9	-91.9	8.8
2025-01-07 14:06:59.622966	347.5	22.8	-92.4	5.5
2025-01-07 14:07:00.771392	347.2	22.7	-92.4	8.8
2025-01-07 14:07:01.930100	346.9	22.7	-92.5	3.1
2025-01-07 14:07:03.092390	346.6	22.6	-91.9	7.1
2025-01-07 14:07:04.249722	346.4	22.5	-91.7	7.9
2025-01-07 14:07:05.404236	346.1	22.5	-92.4	8.5
2025-01-07 14:07:06.531406	345.8	22.4	-92.0	10.1
2025-01-07 14:07:07.686284	345.5	22.3	-92.3	6.6
2025-01-07 14:07:08.828920	345.2	22.3	-92.1	7.1
2025-01-07 14:07:09.980711	345.0	22.2	-92.0	8.5
2025-01-07 14:07:11.130935	344.7	22.1	-91.8	11.4
2025-01-07 14:07:12.280403	344.4	22.0	-92.0	12.7
2025-01-07 14:07:13.436945	344.2	22.0	-92.0	13.0
2025-01-07 14:07:14.596517	343.9	21.9	-91.9	7.6
2025-01-07 14:07:15.755997	343.6	21.8	-92.0	9.6
2025-01-07 14:07:16.921283	343.3	21.8	-91.1	9.9
2025-01-07 14:07:18.082132	343.1	21.7	-91.2	12.2
2025-01-07 14:07:19.245084	342.8	21.6	-91.3	7.8
2025-01-07 14:07:20.404707	342.5	21.5	-91.9	10.5
2025-01-07 14:07:21.563614	342.3	21.5	-92.4	10.8
2025-01-07 14:07:22.725215	342.0	21.4	-92.4	7.3
2025-01-07 14:07:23.885492	341.8	21.3	-92.2	8.0
2025-01-07 14:07:25.044869	341.5	21.2	-91.5	7.9
2025-01-07 14:07:26.209760	341.2	21.1	-91.8	4.7
2025-01-07 14:07:27.375198	341.0	21.1	-90.1	4.5
2025-01-07 14:07:28.534838	340.7	21.0	-92.3	6.5
2025-01-07 14:07:29.694313	340.5	20.9	-92.4	4.1
2025-01-07 14:07:30.858906	340.2	20.8	-92.6	4.3
2025-01-07 14:07:32.020023	340.0	20.8	-92.3	4.9
2025-01-07 14:07:33.181695	339.7	20.7	-89.6	2.5
2025-01-07 14:07:34.342832	339.5	20.6	-89.9	1.5
2025-01-07 14:07:35.500472	339.2	20.5	-90.1	3.8
2025-01-07 14:07:36.661549	339.0	20.4	-89.9	2.4
2025-01-07 14:07:37.816654	338.7	20.4	-90.2	1.0
2025-01-07 14:07:38.979165	338.5	20.3	-90.3	2.7
2025-01-07 14:07:40.140524	338.2	20.2	-89.8	3.1
2025-01-07 14:07:41.297906	338.0	20.1	-89.8	2.4
2025-01-07 14:07:42.446237	337.7	20.0	-89.7	4.4
2025-01-07 14:07:43.586580	337.5	20.0	-89.2	2.7
2025-01-07 14:07:44.706555	337.3	19.9	-89.3	2.2
2025-01-07 14:07:45.826182	337.1	19.8	-89.6	1.5
2025-01-07 14:07:46.947269	336.8	19.7	-89.8	4.9
2025-01-07 14:07:48.067594	336.6	19.6	-89.5	3.0
2025-01-07 14:07:49.188394	336.4	19.6	-88.9	2.9
2025-01-07 14:07:50.316702	336.2	19.5	-89.5	1.0
2025-01-07 14:07:51.437912	335.9	19.4	-89.0	3.0
2025-01-07 14:07:52.587731	335.7	19.3	-88.9	4.3
2025-01-07 14:07:53.749807	335.5	19.2	-89.1	1.7
2025-01-07 14:07:54.897321	335.2	19.1	-89.2	3.7
2025-01-07 14:07:56.056132	335.0	19.1	-89.0	4.3
2025-01-07 14:07:57.216211	334.8	19.0	-88.9	4.5
2025-01-07 14:07:58.377818	334.6	18.9	-88.9	2.8
2025-01-07 14:07:59.537896	334.4	18.8	-89.2	2.4
2025-01-07 14:08:00.685549	334.1	18.7	-89.1	2.5
2025-01-07 14:08:01.847143	333.9	18.6	-88.5	2.7
2025-01-07 14:08:03.007896	333.7	18.6	-89.4	1.8
2025-01-07 14:08:04.176006	333.5	18.5	-89.1	1.9
2025-01-07 14:08:05.332637	333.3	18.4	-88.5	4.0
2025-01-07 14:08:06.494117	333.0	18.3	-88.8	3.8
2025-01-07 14:08:07.654291	332.8	18.2	-89.1	1.7
2025-01-07 14:08:08.817948	332.6	18.1	-88.9	1.9
2025-01-07 14:08:09.971223	332.4	18.0	-89.3	3.9
2025-01-07 14:08:11.131503	332.2	18.0	-88.9	3.7
2025-01-07 14:08:12.290206	332.0	17.9	-88.9	0.8
2025-01-07 14:08:13.454988	331.8	17.8	-88.0	1.5
2025-01-07 14:08:14.620191	331.6	17.7	-88.6	2.4
2025-01-07 14:08:15.786882	331.4	17.6	-88.5	3.6
2025-01-07 14:08:16.951681	331.2	17.5	-88.7	1.4
2025-01-07 14:08:18.119094	331.0	17.4	-88.0	3.2
2025-01-07 14:08:19.279547	330.8	17.3	-88.1	3.7
2025-01-07 14:08:20.446967	330.6	17.3	-88.8	3.4
2025-01-07 14:08:21.605321	330.4	17.2	-88.4	2.1
2025-01-07 14:08:22.761633	330.2	17.1	-88.8	4.0
2025-01-07 14:08:23.924706	330.0	17.0	-88.5	2.7
2025-01-07 14:08:25.084729	329.8	16.9	-88.5	3.8
2025-01-07 14:08:26.250286	329.6	16.8	-88.5	4.8
2025-01-07 14:08:27.409521	329.4	16.7	-88.5	4.2
2025-01-07 14:08:28.570362	329.2	16.6	-88.9	3.0
2025-01-07 14:08:29.734900	329.0	16.6	-88.6	3.1
2025-01-07 14:08:30.893242	328.8	16.5	-89.0	2.9
2025-01-07 14:08:32.050720	328.6	16.4	-88.6	2.1
2025-01-07 14:08:33.210053	328.4	16.3	-88.5	3.2
2025-01-07 14:08:34.373630	328.3	16.2	-88.2	4.3
2025-01-07 14:08:35.540902	328.1	16.1	-88.6	2.5
2025-01-07 14:08:36.705672	327.9	16.0	-88.4	2.0
2025-01-07 14:08:37.866298	327.7	15.9	-88.8	4.6
2025-01-07 14:08:39.031195	327.5	15.9	-88.6	4.3
2025-01-07 14:08:40.184128	327.3	15.8	-88.7	3.0
2025-01-07 14:08:41.351845	327.2	15.7	-88.1	1.9
2025-01-07 14:08:42.508221	327.0	15.6	-88.8	3.1
2025-01-07 14:08:43.675226	326.8	15.5	-88.1	2.7
2025-01-07 14:08:44.838424	326.6	15.4	-88.7	4.9
2025-01-07 14:08:45.993375	326.4	15.3	-88.3	4.9
2025-01-07 14:08:47.156284	326.3	15.3	-86.8	2.9
2025-01-07 14:08:48.320869	326.1	15.2	-88.5	3.9
2025-01-07 14:08:49.470592	325.9	15.1	-88.4	3.1
2025-01-07 14:08:50.614969	325.8	15.0	-88.5	2.2
2025-01-07 14:08:51.735711	325.6	14.9	-88.5	2.9
2025-01-07 14:08:52.855795	325.4	14.8	-88.5	4.7
2025-01-07 14:08:53.975828	325.3	14.7	-89.2	4.0
2025-01-07 14:08:55.096560	325.1	14.7	-88.8	4.4
#Closed at: 2025-01-07 14:02:27.763332