passes_logs/2025/01/07/LEX_Murmansk/LEX_Murmansk__20250107_122257_NOAA_19_rec.log

#Pass ID: 20250107_122257_NOAA 19
#Satellite: NOAA 19
#Configuration: NOAA 19
#Start time: 2025-01-07 12:22:52.876296

#LorettStation: 1.0.0 05.05.2024
#Station: LEX_Murmansk
#Location: 33.156738 lon 68.926811 lat
#TLE: 1 33591U 09005A   25006.86236638  .00000398  00000+0  23653-3 0  9991
#TLE: 2 33591  99.0211  70.5614 0014662  79.2072 281.0749 14.13253225820137

#Time	Az	El	Level	SNR
2025-01-07 12:23:05.083366	30.2	15.9	-91.0	3.9
2025-01-07 12:23:06.235882	30.1	16.0	-91.3	3.3
2025-01-07 12:23:07.383439	29.9	16.1	-91.2	1.9
2025-01-07 12:23:08.531901	29.7	16.2	-91.8	1.5
2025-01-07 12:23:09.675059	29.5	16.3	-91.0	2.8
2025-01-07 12:23:10.821743	29.4	16.4	-91.9	1.8
2025-01-07 12:23:11.978721	29.2	16.5	-92.2	2.4
2025-01-07 12:23:13.126366	29.0	16.6	-91.3	3.4
2025-01-07 12:23:14.273477	28.8	16.6	-91.5	4.1
2025-01-07 12:23:15.420805	28.6	16.7	-91.8	7.6
2025-01-07 12:23:16.566169	28.4	16.8	-91.7	8.9
2025-01-07 12:23:17.720902	28.2	16.9	-92.2	4.4
2025-01-07 12:23:18.863991	28.1	17.0	-91.8	5.1
2025-01-07 12:23:20.009600	27.9	17.1	-91.0	5.4
2025-01-07 12:23:21.162613	27.7	17.2	-91.6	4.9
2025-01-07 12:23:22.312095	27.5	17.3	-91.1	4.9
2025-01-07 12:23:23.459391	27.3	17.4	-92.1	5.4
2025-01-07 12:23:24.605850	27.1	17.4	-92.0	6.3
2025-01-07 12:23:25.745977	26.9	17.5	-91.5	6.5
2025-01-07 12:23:26.898246	26.7	17.6	-91.8	5.3
2025-01-07 12:23:28.050914	26.5	17.7	-92.1	4.0
2025-01-07 12:23:29.202528	26.3	17.8	-91.7	2.4
2025-01-07 12:23:30.350836	26.1	17.9	-90.4	2.2
2025-01-07 12:23:31.497568	25.9	18.0	-92.1	1.8
2025-01-07 12:23:32.644484	25.7	18.1	-92.1	4.5
2025-01-07 12:23:33.796677	25.5	18.2	-91.7	3.5
2025-01-07 12:23:34.942209	25.3	18.2	-91.8	7.2
2025-01-07 12:23:36.092802	25.1	18.3	-91.5	9.3
2025-01-07 12:23:37.245701	24.9	18.4	-91.8	7.0
2025-01-07 12:23:38.398178	24.7	18.5	-91.8	8.3
2025-01-07 12:23:39.547758	24.4	18.6	-91.7	8.9
2025-01-07 12:23:40.697301	24.2	18.7	-92.0	3.5
2025-01-07 12:23:41.840468	24.0	18.8	-92.5	2.8
2025-01-07 12:23:42.987843	23.8	18.9	-92.0	4.6
2025-01-07 12:23:44.138594	23.6	19.0	-91.5	3.8
2025-01-07 12:23:45.284350	23.4	19.0	-91.9	6.4
2025-01-07 12:23:46.433327	23.2	19.1	-91.8	8.0
2025-01-07 12:23:47.578682	22.9	19.2	-91.9	10.7
2025-01-07 12:23:48.728924	22.7	19.3	-92.2	11.0
2025-01-07 12:23:49.877736	22.5	19.4	-92.2	6.1
2025-01-07 12:23:51.024717	22.3	19.5	-92.0	4.1
2025-01-07 12:23:52.173996	22.1	19.6	-91.8	5.8
2025-01-07 12:23:53.322252	21.8	19.6	-92.0	2.8
2025-01-07 12:23:54.468532	21.6	19.7	-91.9	2.8
2025-01-07 12:23:55.612051	21.4	19.8	-92.0	2.0
2025-01-07 12:23:56.762064	21.1	19.9	-92.5	2.9
2025-01-07 12:23:57.905869	20.9	20.0	-92.2	6.1
2025-01-07 12:23:59.049488	20.7	20.1	-92.3	9.5
2025-01-07 12:24:00.192261	20.5	20.2	-91.6	7.5
2025-01-07 12:24:01.329195	20.2	20.2	-92.0	9.4
2025-01-07 12:24:02.476752	20.0	20.3	-91.8	8.6
2025-01-07 12:24:03.624256	19.7	20.4	-90.4	3.3
2025-01-07 12:24:04.773951	19.5	20.5	-91.4	3.7
2025-01-07 12:24:05.921379	19.3	20.6	-91.4	4.2
2025-01-07 12:24:07.066191	19.0	20.7	-91.5	4.4
2025-01-07 12:24:08.213761	18.8	20.7	-91.3	4.3
2025-01-07 12:24:09.358933	18.5	20.8	-91.3	6.4
2025-01-07 12:24:10.504684	18.3	20.9	-91.9	8.6
2025-01-07 12:24:11.652995	18.1	21.0	-91.7	7.5
2025-01-07 12:24:12.797808	17.8	21.1	-92.0	7.4
2025-01-07 12:24:13.947143	17.6	21.2	-91.7	7.2
2025-01-07 12:24:15.089331	17.3	21.2	-91.7	5.9
2025-01-07 12:24:16.236032	17.1	21.3	-91.4	3.7
2025-01-07 12:24:17.389425	16.8	21.4	-91.2	3.3
2025-01-07 12:24:18.537205	16.6	21.5	-91.7	2.8
2025-01-07 12:24:19.683697	16.3	21.6	-91.9	3.4
2025-01-07 12:24:20.829079	16.0	21.6	-92.1	4.1
2025-01-07 12:24:21.976989	15.8	21.7	-91.9	4.1
2025-01-07 12:24:23.123640	15.5	21.8	-91.6	6.3
2025-01-07 12:24:24.276515	15.3	21.9	-91.4	6.3
2025-01-07 12:24:25.422073	15.0	22.0	-91.6	7.0
2025-01-07 12:24:26.567019	14.7	22.0	-90.9	9.0
2025-01-07 12:24:27.717122	14.5	22.1	-91.8	7.0
2025-01-07 12:24:28.871285	14.2	22.2	-91.7	5.2
2025-01-07 12:24:30.015393	13.9	22.3	-91.9	6.6
2025-01-07 12:24:31.167424	13.7	22.4	-91.9	6.2
2025-01-07 12:24:32.315619	13.4	22.4	-91.9	4.4
2025-01-07 12:24:33.463013	13.1	22.5	-92.5	7.6
2025-01-07 12:24:34.608290	12.9	22.6	-91.6	9.1
2025-01-07 12:24:35.755331	12.6	22.7	-92.0	12.4
2025-01-07 12:24:36.903700	12.3	22.7	-92.3	13.4
2025-01-07 12:24:38.049089	12.0	22.8	-91.6	13.7
2025-01-07 12:24:39.194374	11.7	22.9	-91.2	13.3
2025-01-07 12:24:40.344567	11.5	22.9	-91.6	10.6
2025-01-07 12:24:41.496064	11.2	23.0	-91.5	9.3
2025-01-07 12:24:42.652292	10.9	23.1	-91.5	7.1
2025-01-07 12:24:43.799061	10.6	23.2	-91.8	3.8
2025-01-07 12:24:44.945536	10.3	23.2	-91.7	4.5
2025-01-07 12:24:46.089930	10.0	23.3	-91.8	4.9
2025-01-07 12:24:47.234554	9.8	23.4	-91.8	3.0
2025-01-07 12:24:48.381692	9.5	23.4	-91.1	4.1
2025-01-07 12:24:49.529859	9.2	23.5	-91.8	7.3
2025-01-07 12:24:50.681024	8.9	23.6	-91.6	7.8
2025-01-07 12:24:51.826086	8.6	23.6	-92.0	10.0
2025-01-07 12:24:52.970007	8.3	23.7	-91.5	9.6
2025-01-07 12:24:54.120147	8.0	23.8	-91.0	11.1
2025-01-07 12:24:55.261188	7.7	23.8	-92.0	12.6
2025-01-07 12:24:56.410742	7.4	23.9	-91.9	10.9
2025-01-07 12:24:57.559275	7.1	24.0	-91.9	10.1
2025-01-07 12:24:58.711533	6.8	24.0	-91.9	7.6
2025-01-07 12:24:59.856889	6.5	24.1	-91.8	4.8
2025-01-07 12:25:01.000028	6.2	24.1	-92.1	6.6
2025-01-07 12:25:02.152551	5.9	24.2	-91.6	6.3
2025-01-07 12:25:03.297626	5.6	24.3	-91.8	4.2
2025-01-07 12:25:04.441319	5.3	24.3	-92.0	8.7
2025-01-07 12:25:05.588349	5.0	24.4	-92.0	8.3
2025-01-07 12:25:06.732522	4.7	24.4	-90.6	8.6
2025-01-07 12:25:07.881333	4.4	24.5	-91.9	9.6
2025-01-07 12:25:09.028085	4.1	24.5	-92.0	10.6
2025-01-07 12:25:10.174917	3.8	24.6	-91.5	11.2
2025-01-07 12:25:11.322401	3.5	24.7	-92.0	12.3
2025-01-07 12:25:12.472320	3.1	24.7	-89.7	9.3
2025-01-07 12:25:13.621837	2.8	24.8	-92.1	8.7
2025-01-07 12:25:14.772659	2.5	24.8	-92.1	5.3
2025-01-07 12:25:15.920007	2.2	24.9	-92.0	4.8
2025-01-07 12:25:17.067174	1.9	24.9	-92.1	7.2
2025-01-07 12:25:18.217705	1.6	25.0	-92.2	2.4
2025-01-07 12:25:19.372791	1.2	25.0	-92.4	3.2
2025-01-07 12:25:20.526834	0.9	25.1	-91.9	3.5
2025-01-07 12:25:21.683330	0.6	25.1	-91.6	3.9
2025-01-07 12:25:22.844807	0.3	25.2	-92.0	3.1
2025-01-07 12:25:23.996807	359.9	25.2	-90.4	4.4
2025-01-07 12:25:25.145994	359.6	25.2	-92.0	10.2
2025-01-07 12:25:26.298313	359.3	25.3	-92.1	9.0
2025-01-07 12:25:27.446843	359.0	25.3	-92.3	10.8
2025-01-07 12:25:28.592324	358.6	25.4	-91.8	10.4
2025-01-07 12:25:29.744003	358.3	25.4	-91.6	10.9
2025-01-07 12:25:30.889359	358.0	25.4	-91.8	10.3
2025-01-07 12:25:32.037396	357.6	25.5	-91.6	10.1
2025-01-07 12:25:33.190333	357.3	25.5	-91.4	9.7
2025-01-07 12:25:34.337624	357.0	25.6	-92.0	8.5
2025-01-07 12:25:35.484925	356.7	25.6	-92.1	8.9
2025-01-07 12:25:36.627603	356.3	25.6	-91.9	10.4
2025-01-07 12:25:37.794997	356.0	25.7	-92.1	6.6
2025-01-07 12:25:38.940392	355.7	25.7	-92.2	8.1
2025-01-07 12:25:40.093500	355.3	25.7	-91.8	9.8
2025-01-07 12:25:41.244488	355.0	25.7	-92.1	4.0
2025-01-07 12:25:42.398464	354.6	25.8	-91.8	6.7
2025-01-07 12:25:43.553251	354.3	25.8	-91.7	7.8
2025-01-07 12:25:44.698419	354.0	25.8	-92.3	5.9
2025-01-07 12:25:45.849638	353.6	25.9	-92.4	7.4
2025-01-07 12:25:46.993097	353.3	25.9	-92.1	10.2
2025-01-07 12:25:48.142499	353.0	25.9	-92.1	9.8
2025-01-07 12:25:49.288813	352.6	25.9	-92.1	8.7
2025-01-07 12:25:50.435797	352.3	25.9	-91.2	10.7
2025-01-07 12:25:51.588007	351.9	26.0	-91.4	8.0
2025-01-07 12:25:52.727624	351.6	26.0	-91.7	10.7
2025-01-07 12:25:53.880827	351.3	26.0	-91.8	10.9
2025-01-07 12:25:55.029055	350.9	26.0	-91.3	8.7
2025-01-07 12:25:56.176211	350.6	26.0	-91.3	8.2
2025-01-07 12:25:57.325732	350.2	26.1	-91.4	8.6
2025-01-07 12:25:58.474600	349.9	26.1	-91.4	9.2
2025-01-07 12:25:59.623161	349.6	26.1	-91.5	8.2
2025-01-07 12:26:00.757222	349.2	26.1	-91.5	5.1
2025-01-07 12:26:01.905774	348.9	26.1	-91.2	6.3
2025-01-07 12:26:03.052966	348.5	26.1	-91.7	6.8
2025-01-07 12:26:04.198679	348.2	26.1	-91.6	5.2
2025-01-07 12:26:05.344902	347.8	26.1	-91.2	3.1
2025-01-07 12:26:06.488394	347.5	26.1	-91.6	3.0
2025-01-07 12:26:07.637364	347.2	26.1	-92.1	7.5
2025-01-07 12:26:08.785066	346.8	26.1	-90.9	2.2
2025-01-07 12:26:09.930627	346.5	26.1	-91.8	3.9
2025-01-07 12:26:11.083380	346.1	26.1	-91.9	5.9
2025-01-07 12:26:12.229556	345.8	26.1	-91.2	1.0
2025-01-07 12:26:13.378008	345.4	26.1	-91.1	2.1
2025-01-07 12:26:14.527654	345.1	26.1	-91.5	2.0
2025-01-07 12:26:15.670827	344.8	26.1	-91.8	3.4
2025-01-07 12:26:16.818539	344.4	26.1	-91.5	1.1
2025-01-07 12:26:17.968516	344.1	26.1	-90.8	3.9
2025-01-07 12:26:19.118039	343.7	26.1	-90.9	5.6
2025-01-07 12:26:20.266449	343.4	26.1	-91.1	3.2
2025-01-07 12:26:21.413437	343.0	26.1	-92.1	5.8
2025-01-07 12:26:22.559958	342.7	26.1	-92.1	9.4
2025-01-07 12:26:23.708514	342.4	26.1	-92.2	8.6
2025-01-07 12:26:24.863747	342.0	26.1	-91.5	8.5
2025-01-07 12:26:26.008751	341.7	26.0	-92.0	10.3
2025-01-07 12:26:27.154100	341.3	26.0	-91.6	9.9
2025-01-07 12:26:28.307211	341.0	26.0	-91.6	9.2
2025-01-07 12:26:29.456592	340.6	26.0	-92.0	10.0
2025-01-07 12:26:30.605793	340.3	26.0	-92.1	7.3
2025-01-07 12:26:31.750990	340.0	26.0	-92.1	8.5
2025-01-07 12:26:32.891939	339.6	25.9	-92.1	7.6
2025-01-07 12:26:34.037016	339.3	25.9	-92.3	7.1
2025-01-07 12:26:35.188246	339.0	25.9	-90.7	7.4
2025-01-07 12:26:36.333259	338.6	25.9	-91.6	9.7
2025-01-07 12:26:37.480650	338.3	25.8	-92.3	6.7
2025-01-07 12:26:38.629237	337.9	25.8	-92.3	9.3
2025-01-07 12:26:39.777918	337.6	25.8	-91.8	4.0
2025-01-07 12:26:40.927850	337.3	25.8	-92.1	7.5
2025-01-07 12:26:42.069794	336.9	25.7	-92.1	6.4
2025-01-07 12:26:43.217366	336.6	25.7	-91.1	9.2
2025-01-07 12:26:44.363814	336.3	25.7	-91.9	9.3
2025-01-07 12:26:45.510959	335.9	25.6	-91.9	9.7
2025-01-07 12:26:46.651847	335.6	25.6	-91.5	9.0
2025-01-07 12:26:47.800540	335.3	25.6	-92.0	9.5
2025-01-07 12:26:48.950350	334.9	25.5	-91.4	9.0
2025-01-07 12:26:50.098187	334.6	25.5	-91.0	9.6
2025-01-07 12:26:51.245019	334.3	25.5	-91.5	6.8
2025-01-07 12:26:52.387222	334.0	25.4	-91.6	6.5
2025-01-07 12:26:53.536538	333.6	25.4	-91.2	8.4
2025-01-07 12:26:54.683455	333.3	25.3	-91.5	5.6
2025-01-07 12:26:55.831395	333.0	25.3	-92.2	7.6
2025-01-07 12:26:56.978229	332.6	25.3	-91.8	4.9
2025-01-07 12:26:58.122319	332.3	25.2	-91.7	7.3
2025-01-07 12:26:59.271298	332.0	25.2	-92.0	6.6
2025-01-07 12:27:00.409722	331.7	25.1	-92.4	8.4
2025-01-07 12:27:01.549893	331.4	25.1	-92.3	8.9
2025-01-07 12:27:02.696308	331.0	25.0	-92.3	5.7
2025-01-07 12:27:03.842072	330.7	25.0	-90.6	5.0
2025-01-07 12:27:04.986764	330.4	24.9	-91.9	4.3
2025-01-07 12:27:06.143541	330.1	24.9	-91.7	7.3
2025-01-07 12:27:07.286340	329.8	24.8	-91.3	6.8
2025-01-07 12:27:08.429441	329.5	24.8	-91.6	5.9
2025-01-07 12:27:09.576905	329.1	24.7	-91.3	9.4
2025-01-07 12:27:10.725407	328.8	24.7	-91.6	7.8
2025-01-07 12:27:11.881124	328.5	24.6	-91.4	8.0
2025-01-07 12:27:13.031608	328.2	24.6	-91.2	8.7
2025-01-07 12:27:14.175599	327.9	24.5	-91.4	8.5
2025-01-07 12:27:15.322655	327.6	24.5	-90.0	7.6
2025-01-07 12:27:16.466717	327.3	24.4	-90.9	6.7
2025-01-07 12:27:17.612057	327.0	24.4	-91.3	6.3
2025-01-07 12:27:18.758011	326.7	24.3	-91.8	4.4
2025-01-07 12:27:19.908846	326.4	24.2	-91.5	4.6
2025-01-07 12:27:21.059152	326.0	24.2	-91.8	4.3
2025-01-07 12:27:22.206366	325.7	24.1	-91.4	6.6
2025-01-07 12:27:23.347605	325.4	24.1	-90.8	7.1
2025-01-07 12:27:24.497031	325.1	24.0	-91.9	9.3
2025-01-07 12:27:25.653255	324.8	23.9	-90.7	11.0
2025-01-07 12:27:26.801425	324.5	23.9	-91.4	10.8
2025-01-07 12:27:27.945634	324.2	23.8	-90.8	8.9
2025-01-07 12:27:29.090092	324.0	23.7	-91.5	10.8
2025-01-07 12:27:30.238327	323.7	23.7	-91.3	7.3
2025-01-07 12:27:31.384277	323.4	23.6	-91.7	6.3
2025-01-07 12:27:32.530418	323.1	23.5	-91.0	1.9
2025-01-07 12:27:33.675529	322.8	23.5	-91.0	4.2
2025-01-07 12:27:34.821491	322.5	23.4	-92.0	4.1
2025-01-07 12:27:35.968853	322.2	23.3	-91.8	1.9
2025-01-07 12:27:37.117902	321.9	23.3	-91.4	3.8
2025-01-07 12:27:38.264453	321.6	23.2	-91.6	7.1
2025-01-07 12:27:39.413924	321.4	23.1	-91.8	9.8
2025-01-07 12:27:40.561000	321.1	23.1	-92.2	9.4
2025-01-07 12:27:41.708882	320.8	23.0	-91.7	4.4
2025-01-07 12:27:42.861283	320.5	22.9	-91.5	5.3
2025-01-07 12:27:44.009507	320.2	22.8	-91.7	3.3
2025-01-07 12:27:45.155505	320.0	22.8	-91.5	2.8
2025-01-07 12:27:46.299623	319.7	22.7	-91.8	4.3
2025-01-07 12:27:47.445460	319.4	22.6	-91.0	3.5
2025-01-07 12:27:48.599427	319.1	22.5	-91.1	5.3
2025-01-07 12:27:49.743253	318.9	22.5	-92.0	5.1
2025-01-07 12:27:50.890818	318.6	22.4	-92.2	3.9
2025-01-07 12:27:52.034818	318.3	22.3	-92.2	4.7
2025-01-07 12:27:53.180475	318.0	22.2	-92.2	1.2
2025-01-07 12:27:54.325063	317.8	22.2	-91.5	1.2
2025-01-07 12:27:55.470544	317.5	22.1	-91.4	4.7
2025-01-07 12:27:56.614274	317.3	22.0	-92.0	3.2
2025-01-07 12:27:57.762012	317.0	21.9	-91.2	2.0
2025-01-07 12:27:58.907078	316.7	21.9	-92.1	3.7
2025-01-07 12:28:00.057603	316.5	21.8	-92.2	5.4
2025-01-07 12:28:01.190594	316.2	21.7	-91.9	1.0
2025-01-07 12:28:02.333908	316.0	21.6	-90.8	2.5
2025-01-07 12:28:03.478870	315.7	21.5	-92.3	2.9
2025-01-07 12:28:04.627733	315.4	21.5	-91.9	3.3
2025-01-07 12:28:05.769859	315.2	21.4	-92.6	2.0
2025-01-07 12:28:06.911251	314.9	21.3	-92.4	4.0
2025-01-07 12:28:08.055781	314.7	21.2	-91.3	2.9
2025-01-07 12:28:09.203609	314.4	21.1	-92.0	1.7
2025-01-07 12:28:10.349542	314.2	21.1	-92.0	2.7
2025-01-07 12:28:11.496620	313.9	21.0	-91.2	5.9
2025-01-07 12:28:12.642345	313.7	20.9	-92.5	4.1
2025-01-07 12:28:13.786578	313.5	20.8	-92.3	1.7
2025-01-07 12:28:14.935756	313.2	20.7	-92.3	1.7
2025-01-07 12:28:16.079568	313.0	20.6	-92.2	3.8
2025-01-07 12:28:17.227300	312.7	20.6	-91.9	3.1
2025-01-07 12:28:18.375465	312.5	20.5	-92.1	3.0
2025-01-07 12:28:19.527136	312.3	20.4	-92.4	2.1
2025-01-07 12:28:20.672523	312.0	20.3	-92.1	2.9
2025-01-07 12:28:21.819712	311.8	20.2	-92.2	1.0
2025-01-07 12:28:22.959737	311.6	20.1	-92.5	4.4
2025-01-07 12:28:24.107389	311.3	20.0	-92.0	1.9
2025-01-07 12:28:25.251796	311.1	20.0	-92.1	3.4
2025-01-07 12:28:26.402528	310.9	19.9	-92.7	2.4
2025-01-07 12:28:27.550458	310.6	19.8	-92.0	3.7
2025-01-07 12:28:28.695755	310.4	19.7	-92.5	3.3
2025-01-07 12:28:29.841843	310.2	19.6	-92.6	0.3
2025-01-07 12:28:30.986973	310.0	19.5	-92.0	1.9
2025-01-07 12:28:32.138483	309.7	19.4	-92.0	2.8
2025-01-07 12:28:33.283512	309.5	19.4	-92.2	1.1
2025-01-07 12:28:34.429267	309.3	19.3	-92.1	1.5
2025-01-07 12:28:35.581476	309.1	19.2	-92.0	2.3
2025-01-07 12:28:36.722150	308.9	19.1	-92.4	1.3
2025-01-07 12:28:37.878375	308.6	19.0	-92.4	3.5
2025-01-07 12:28:39.023903	308.4	18.9	-92.1	4.1
2025-01-07 12:28:40.173793	308.2	18.8	-90.8	1.0
2025-01-07 12:28:41.324866	308.0	18.7	-92.3	4.0
2025-01-07 12:28:42.475906	307.8	18.7	-92.6	4.1
2025-01-07 12:28:43.624599	307.6	18.6	-92.3	7.3
2025-01-07 12:28:44.767373	307.4	18.5	-92.5	2.5
2025-01-07 12:28:45.916805	307.1	18.4	-92.7	6.3
2025-01-07 12:28:47.061475	306.9	18.3	-91.9	5.6
2025-01-07 12:28:48.208915	306.7	18.2	-92.0	4.7
2025-01-07 12:28:49.353297	306.5	18.1	-92.0	6.4
2025-01-07 12:28:50.502074	306.3	18.0	-92.1	6.4
2025-01-07 12:28:51.643657	306.1	18.0	-92.1	3.8
2025-01-07 12:28:52.793361	305.9	17.9	-92.5	3.9
2025-01-07 12:28:53.940778	305.7	17.8	-92.1	5.1
2025-01-07 12:28:55.101912	305.5	17.7	-91.9	2.4
2025-01-07 12:28:56.251860	305.3	17.6	-92.1	5.1
2025-01-07 12:28:57.400675	305.1	17.5	-92.3	1.7
2025-01-07 12:28:58.550117	304.9	17.4	-91.6	3.6
2025-01-07 12:28:59.698736	304.7	17.3	-92.1	3.2
2025-01-07 12:29:00.839898	304.5	17.2	-92.2	3.4
2025-01-07 12:29:01.984820	304.4	17.2	-92.3	2.3
2025-01-07 12:29:03.132537	304.2	17.1	-90.6	2.8
2025-01-07 12:29:04.277193	304.0	17.0	-92.0	2.2
2025-01-07 12:29:05.420583	303.8	16.9	-92.4	2.2
2025-01-07 12:29:06.570384	303.6	16.8	-91.7	3.1
2025-01-07 12:29:07.710580	303.4	16.7	-92.5	3.4
2025-01-07 12:29:08.857069	303.2	16.6	-92.1	2.2
2025-01-07 12:29:10.003030	303.0	16.5	-92.1	4.5
2025-01-07 12:29:11.149429	302.9	16.4	-92.1	3.7
2025-01-07 12:29:12.298357	302.7	16.4	-91.8	5.0
2025-01-07 12:29:13.444617	302.5	16.3	-92.4	3.6
2025-01-07 12:29:14.589133	302.3	16.2	-92.3	4.8
2025-01-07 12:29:15.737898	302.1	16.1	-91.9	4.6
2025-01-07 12:29:16.876698	302.0	16.0	-92.3	2.5
2025-01-07 12:29:18.011691	301.8	15.9	-92.4	5.2
2025-01-07 12:29:19.136495	301.6	15.8	-92.1	2.5
2025-01-07 12:29:20.255941	301.4	15.7	-91.8	2.6
2025-01-07 12:29:21.376496	301.3	15.7	-91.9	2.4
2025-01-07 12:29:22.497365	301.1	15.6	-92.0	3.1
2025-01-07 12:29:23.617721	300.9	15.5	-91.7	3.4
2025-01-07 12:29:24.737701	300.8	15.4	-92.2	2.4
2025-01-07 12:29:25.861413	300.6	15.3	-91.8	3.2
2025-01-07 12:29:26.983692	300.4	15.2	-92.4	3.5
2025-01-07 12:29:28.121866	300.3	15.1	-91.8	5.0
2025-01-07 12:29:29.267831	300.1	15.1	-89.3	4.6
2025-01-07 12:29:30.404083	300.0	15.0	-92.0	7.2
2025-01-07 12:29:31.550602	299.8	14.9	-92.2	5.2
2025-01-07 12:29:32.697960	299.6	14.8	-92.3	5.0
2025-01-07 12:29:33.850087	299.5	14.7	-92.3	7.1
2025-01-07 12:29:34.995428	299.3	14.6	-92.4	11.1
#Closed at: 2025-01-07 12:22:57.892488