passes_logs/2025/01/07/LEX_Murmansk/LEX_Murmansk__20250107_125003_NOAA_18_rec.log

#Pass ID: 20250107_125003_NOAA 18
#Satellite: NOAA 18
#Configuration: NOAA 18
#Start time: 2025-01-07 12:49:58.554724

#LorettStation: 1.0.0 05.05.2024
#Station: LEX_Murmansk
#Location: 33.156738 lon 68.926811 lat
#TLE: 1 28654U 05018A   25006.88073240  .00000470  00000+0  27325-3 0  9996
#TLE: 2 28654  98.8580  88.0152 0013976 202.1444 157.9126 14.13479687 11959

#Time	Az	El	Level	SNR
2025-01-07 12:50:10.860287	25.7	16.0	-91.6	2.9
2025-01-07 12:50:12.021654	25.5	16.1	-91.1	6.3
2025-01-07 12:50:13.186863	25.4	16.2	-90.2	4.0
2025-01-07 12:50:14.349653	25.2	16.3	-89.6	6.3
2025-01-07 12:50:15.517004	25.0	16.4	-90.7	5.8
2025-01-07 12:50:16.679565	24.9	16.5	-91.2	4.1
2025-01-07 12:50:17.840066	24.7	16.6	-91.4	6.0
2025-01-07 12:50:19.002953	24.6	16.7	-91.5	4.1
2025-01-07 12:50:20.166634	24.4	16.8	-91.2	7.2
2025-01-07 12:50:21.322089	24.2	16.9	-90.5	7.7
2025-01-07 12:50:22.485524	24.1	17.0	-92.1	9.5
2025-01-07 12:50:23.647672	23.9	17.1	-92.5	12.1
2025-01-07 12:50:24.815239	23.7	17.2	-92.0	10.0
2025-01-07 12:50:25.976688	23.5	17.3	-91.9	10.5
2025-01-07 12:50:27.136979	23.4	17.4	-91.3	10.4
2025-01-07 12:50:28.297801	23.2	17.5	-91.0	12.9
2025-01-07 12:50:29.459397	23.0	17.6	-91.9	5.4
2025-01-07 12:50:30.626751	22.9	17.7	-92.1	10.6
2025-01-07 12:50:31.788799	22.7	17.8	-91.5	10.9
2025-01-07 12:50:32.952709	22.5	17.9	-92.3	5.9
2025-01-07 12:50:34.112988	22.3	18.0	-90.8	11.0
2025-01-07 12:50:35.278198	22.1	18.1	-92.1	8.7
2025-01-07 12:50:36.439432	22.0	18.2	-92.5	5.8
2025-01-07 12:50:37.601950	21.8	18.3	-92.2	4.2
2025-01-07 12:50:38.763861	21.6	18.4	-92.6	7.6
2025-01-07 12:50:39.929142	21.4	18.5	-92.6	6.5
2025-01-07 12:50:41.088719	21.2	18.6	-91.9	8.0
2025-01-07 12:50:42.253732	21.0	18.7	-91.8	13.4
2025-01-07 12:50:43.419097	20.8	18.8	-90.4	12.1
2025-01-07 12:50:44.580664	20.6	18.9	-91.4	15.0
2025-01-07 12:50:45.747834	20.5	19.0	-90.9	12.4
2025-01-07 12:50:46.907603	20.3	19.1	-91.1	12.3
2025-01-07 12:50:48.074121	20.1	19.2	-91.0	10.4
2025-01-07 12:50:49.237272	19.9	19.3	-90.1	12.3
2025-01-07 12:50:50.398099	19.7	19.4	-91.8	15.5
2025-01-07 12:50:51.560917	19.5	19.5	-91.2	12.2
2025-01-07 12:50:52.720504	19.3	19.6	-92.3	14.5
2025-01-07 12:50:53.886207	19.1	19.7	-92.2	11.8
2025-01-07 12:50:55.051528	18.9	19.8	-92.3	11.1
2025-01-07 12:50:56.217743	18.7	19.9	-92.0	11.8
2025-01-07 12:50:57.365425	18.5	20.0	-91.7	10.7
2025-01-07 12:50:58.528314	18.3	20.1	-92.1	6.4
2025-01-07 12:50:59.692228	18.0	20.2	-92.3	8.9
2025-01-07 12:51:00.845307	17.8	20.3	-92.5	13.5
2025-01-07 12:51:02.003612	17.6	20.4	-90.8	7.5
2025-01-07 12:51:03.162773	17.4	20.5	-89.0	8.8
2025-01-07 12:51:04.318356	17.2	20.6	-90.1	9.6
2025-01-07 12:51:05.481008	17.0	20.7	-91.4	9.8
2025-01-07 12:51:06.648034	16.8	20.8	-91.5	9.1
2025-01-07 12:51:07.816051	16.6	20.9	-91.2	8.9
2025-01-07 12:51:08.974846	16.3	21.0	-91.5	7.6
2025-01-07 12:51:10.147352	16.1	21.1	-91.4	7.2
2025-01-07 12:51:11.301180	15.9	21.2	-90.7	7.6
2025-01-07 12:51:12.458634	15.7	21.3	-91.1	5.8
2025-01-07 12:51:13.622915	15.4	21.5	-92.2	8.2
2025-01-07 12:51:14.783748	15.2	21.6	-92.6	6.9
2025-01-07 12:51:15.945105	15.0	21.7	-91.9	6.1
2025-01-07 12:51:17.111286	14.8	21.8	-91.5	6.6
2025-01-07 12:51:18.276024	14.5	21.9	-91.2	9.3
2025-01-07 12:51:19.438707	14.3	22.0	-91.0	5.9
2025-01-07 12:51:20.596567	14.1	22.1	-91.4	4.7
2025-01-07 12:51:21.757298	13.8	22.2	-91.7	10.2
2025-01-07 12:51:22.913240	13.6	22.3	-91.9	12.2
2025-01-07 12:51:24.073649	13.3	22.4	-91.5	8.1
2025-01-07 12:51:25.234781	13.1	22.5	-91.4	12.5
2025-01-07 12:51:26.399213	12.9	22.6	-91.9	12.4
2025-01-07 12:51:27.574993	12.6	22.7	-91.7	14.5
2025-01-07 12:51:28.740083	12.4	22.8	-90.9	12.2
2025-01-07 12:51:29.907316	12.1	22.9	-91.8	13.8
2025-01-07 12:51:31.072748	11.9	23.0	-92.1	12.7
2025-01-07 12:51:32.232556	11.6	23.1	-91.5	13.5
2025-01-07 12:51:33.403364	11.4	23.2	-92.2	15.2
2025-01-07 12:51:34.564948	11.1	23.3	-92.2	11.5
2025-01-07 12:51:35.736936	10.9	23.4	-91.4	9.8
2025-01-07 12:51:36.890815	10.6	23.4	-91.5	16.1
2025-01-07 12:51:38.055933	10.3	23.5	-91.1	13.7
2025-01-07 12:51:39.224103	10.1	23.6	-91.7	12.6
2025-01-07 12:51:40.385437	9.8	23.7	-92.0	14.1
2025-01-07 12:51:41.552609	9.6	23.8	-92.4	8.7
2025-01-07 12:51:42.707875	9.3	23.9	-91.1	9.9
2025-01-07 12:51:43.868219	9.0	24.0	-92.2	14.0
2025-01-07 12:51:45.035052	8.8	24.1	-92.4	4.9
2025-01-07 12:51:46.192686	8.5	24.2	-92.3	7.7
2025-01-07 12:51:47.359692	8.2	24.3	-91.0	9.4
2025-01-07 12:51:48.524001	7.9	24.4	-91.9	8.7
2025-01-07 12:51:49.686578	7.7	24.5	-92.4	12.5
2025-01-07 12:51:50.849998	7.4	24.6	-92.3	13.1
2025-01-07 12:51:52.008669	7.1	24.7	-92.1	12.1
2025-01-07 12:51:53.169305	6.8	24.8	-91.8	7.3
2025-01-07 12:51:54.336899	6.6	24.9	-91.5	12.1
2025-01-07 12:51:55.497956	6.3	25.0	-91.9	9.9
2025-01-07 12:51:56.660059	6.0	25.1	-92.3	6.2
2025-01-07 12:51:57.820686	5.7	25.2	-92.1	16.1
2025-01-07 12:51:58.981400	5.4	25.2	-92.4	9.5
2025-01-07 12:52:00.144715	5.1	25.3	-91.9	6.5
2025-01-07 12:52:01.291391	4.8	25.4	-91.6	13.9
2025-01-07 12:52:02.453188	4.5	25.5	-92.0	14.1
2025-01-07 12:52:03.614650	4.3	25.6	-91.3	12.1
2025-01-07 12:52:04.777642	4.0	25.7	-92.4	10.0
2025-01-07 12:52:05.931766	3.7	25.8	-92.6	11.1
2025-01-07 12:52:07.093165	3.4	25.9	-92.2	11.1
2025-01-07 12:52:08.248295	3.1	26.0	-92.0	12.6
2025-01-07 12:52:09.407337	2.8	26.0	-92.1	14.4
2025-01-07 12:52:10.550623	2.5	26.1	-92.4	6.3
2025-01-07 12:52:11.670380	2.2	26.2	-92.3	10.2
2025-01-07 12:52:12.792153	1.9	26.3	-92.3	11.0
2025-01-07 12:52:13.912263	1.6	26.4	-92.4	11.6
2025-01-07 12:52:15.033850	1.3	26.4	-92.2	8.7
2025-01-07 12:52:16.155665	1.0	26.5	-91.8	9.5
2025-01-07 12:52:17.276535	0.7	26.6	-91.1	9.2
2025-01-07 12:52:18.400123	0.4	26.7	-91.5	9.1
2025-01-07 12:52:19.528095	0.1	26.8	-92.6	7.6
2025-01-07 12:52:20.690848	359.7	26.8	-92.4	7.5
2025-01-07 12:52:21.839313	359.4	26.9	-91.8	10.7
2025-01-07 12:52:23.000146	359.1	27.0	-92.6	10.7
2025-01-07 12:52:24.154751	358.8	27.1	-92.2	9.8
2025-01-07 12:52:25.311182	358.5	27.1	-91.5	10.7
2025-01-07 12:52:26.471709	358.1	27.2	-91.3	8.9
2025-01-07 12:52:27.632094	357.8	27.3	-91.7	9.3
2025-01-07 12:52:28.795250	357.5	27.4	-92.7	9.9
2025-01-07 12:52:29.953886	357.1	27.4	-92.1	10.1
2025-01-07 12:52:31.114202	356.8	27.5	-91.6	11.3
2025-01-07 12:52:32.276633	356.5	27.6	-91.6	11.2
2025-01-07 12:52:33.444555	356.1	27.7	-92.1	13.1
2025-01-07 12:52:34.605838	355.8	27.7	-92.4	10.8
2025-01-07 12:52:35.767732	355.5	27.8	-92.6	10.8
2025-01-07 12:52:36.929897	355.1	27.9	-92.7	12.5
2025-01-07 12:52:38.085518	354.8	27.9	-92.1	9.0
2025-01-07 12:52:39.242785	354.4	28.0	-91.7	12.9
2025-01-07 12:52:40.403031	354.1	28.1	-92.2	8.0
2025-01-07 12:52:41.562371	353.7	28.1	-92.5	6.2
2025-01-07 12:52:42.733535	353.4	28.2	-92.2	10.9
2025-01-07 12:52:43.897572	353.0	28.2	-92.5	10.4
2025-01-07 12:52:45.065923	352.7	28.3	-91.5	7.2
2025-01-07 12:52:46.226898	352.3	28.4	-92.1	10.7
2025-01-07 12:52:47.386454	352.0	28.4	-91.8	12.0
2025-01-07 12:52:48.552026	351.6	28.5	-91.1	7.9
2025-01-07 12:52:49.712454	351.3	28.5	-92.7	12.2
2025-01-07 12:52:50.874168	350.9	28.6	-92.4	14.8
2025-01-07 12:52:52.030238	350.6	28.6	-92.4	12.2
2025-01-07 12:52:53.194083	350.2	28.7	-92.1	12.5
2025-01-07 12:52:54.353737	349.9	28.7	-92.2	12.4
2025-01-07 12:52:55.513002	349.5	28.8	-92.8	14.0
2025-01-07 12:52:56.678155	349.1	28.8	-92.8	10.8
2025-01-07 12:52:57.841862	348.8	28.9	-92.0	8.8
2025-01-07 12:52:59.001753	348.4	28.9	-92.7	7.7
2025-01-07 12:53:00.160849	348.0	29.0	-91.2	6.6
2025-01-07 12:53:01.314691	347.7	29.0	-91.4	11.6
2025-01-07 12:53:02.475878	347.3	29.1	-92.7	8.0
2025-01-07 12:53:03.638683	346.9	29.1	-92.6	10.9
2025-01-07 12:53:04.799100	346.6	29.1	-92.5	15.0
2025-01-07 12:53:05.963158	346.2	29.2	-92.4	12.3
2025-01-07 12:53:07.127649	345.8	29.2	-91.7	12.0
2025-01-07 12:53:08.293562	345.5	29.3	-91.9	16.7
2025-01-07 12:53:09.449861	345.1	29.3	-92.7	13.6
2025-01-07 12:53:10.611545	344.7	29.3	-91.4	15.0
2025-01-07 12:53:11.776937	344.3	29.4	-92.2	15.8
2025-01-07 12:53:12.932839	344.0	29.4	-92.6	17.0
2025-01-07 12:53:14.097425	343.6	29.4	-91.8	15.5
2025-01-07 12:53:15.259098	343.2	29.4	-92.0	14.2
2025-01-07 12:53:16.423910	342.8	29.5	-92.2	11.9
2025-01-07 12:53:17.580983	342.5	29.5	-92.5	11.6
2025-01-07 12:53:18.747957	342.1	29.5	-92.0	11.1
2025-01-07 12:53:19.910137	341.7	29.5	-92.3	12.0
2025-01-07 12:53:21.073177	341.3	29.6	-92.2	7.7
2025-01-07 12:53:22.236084	340.9	29.6	-91.8	11.7
2025-01-07 12:53:23.397935	340.6	29.6	-91.7	9.1
2025-01-07 12:53:24.559266	340.2	29.6	-91.6	6.9
2025-01-07 12:53:25.722956	339.8	29.6	-92.1	8.5
2025-01-07 12:53:26.892299	339.4	29.6	-92.3	9.6
2025-01-07 12:53:28.050938	339.0	29.7	-92.5	6.8
2025-01-07 12:53:29.214577	338.7	29.7	-92.2	11.0
2025-01-07 12:53:30.375263	338.3	29.7	-92.0	11.9
2025-01-07 12:53:31.543661	337.9	29.7	-92.5	6.3
2025-01-07 12:53:32.704963	337.5	29.7	-92.3	10.4
2025-01-07 12:53:33.872686	337.1	29.7	-92.5	12.3
2025-01-07 12:53:35.037280	336.7	29.7	-91.5	6.8
2025-01-07 12:53:36.205173	336.3	29.7	-92.0	12.7
2025-01-07 12:53:37.368414	336.0	29.7	-91.7	12.8
2025-01-07 12:53:38.538575	335.6	29.7	-91.8	9.8
2025-01-07 12:53:39.693487	335.2	29.7	-91.7	11.6
2025-01-07 12:53:40.856919	334.8	29.7	-90.9	15.2
2025-01-07 12:53:42.029926	334.4	29.7	-92.2	12.9
2025-01-07 12:53:43.190555	334.0	29.7	-91.7	13.1
2025-01-07 12:53:44.353613	333.7	29.7	-92.1	11.7
2025-01-07 12:53:45.518888	333.3	29.7	-92.5	13.5
2025-01-07 12:53:46.668621	332.9	29.7	-91.7	13.1
2025-01-07 12:53:47.834133	332.5	29.7	-91.5	8.2
2025-01-07 12:53:48.997815	332.1	29.6	-90.6	12.4
2025-01-07 12:53:50.157421	331.8	29.6	-90.4	13.3
2025-01-07 12:53:51.324107	331.4	29.6	-90.3	14.2
2025-01-07 12:53:52.490726	331.0	29.6	-90.7	15.2
2025-01-07 12:53:53.645207	330.6	29.6	-90.6	12.7
2025-01-07 12:53:54.810162	330.2	29.6	-90.8	12.9
2025-01-07 12:53:55.977369	329.8	29.5	-92.1	11.4
2025-01-07 12:53:57.138199	329.5	29.5	-91.6	9.4
2025-01-07 12:53:58.303282	329.1	29.5	-91.7	11.5
2025-01-07 12:53:59.463343	328.7	29.5	-92.1	10.1
2025-01-07 12:54:00.616145	328.3	29.4	-92.3	10.4
2025-01-07 12:54:01.775351	328.0	29.4	-92.4	14.4
2025-01-07 12:54:02.936936	327.6	29.4	-91.5	8.8
2025-01-07 12:54:04.100168	327.2	29.3	-92.2	8.8
2025-01-07 12:54:05.262925	326.8	29.3	-91.8	12.7
2025-01-07 12:54:06.426749	326.5	29.3	-92.1	9.7
2025-01-07 12:54:07.593712	326.1	29.2	-92.2	8.5
2025-01-07 12:54:08.752714	325.7	29.2	-92.5	11.9
2025-01-07 12:54:09.916601	325.3	29.2	-92.1	13.6
2025-01-07 12:54:11.077132	325.0	29.1	-91.8	6.4
2025-01-07 12:54:12.242410	324.6	29.1	-91.3	13.4
2025-01-07 12:54:13.400319	324.2	29.0	-90.4	10.4
2025-01-07 12:54:14.573841	323.9	29.0	-92.2	10.3
2025-01-07 12:54:15.729223	323.5	29.0	-92.1	10.4
2025-01-07 12:54:16.885918	323.1	28.9	-92.1	13.0
2025-01-07 12:54:18.048982	322.8	28.9	-92.5	8.9
2025-01-07 12:54:19.208284	322.4	28.8	-91.8	12.5
2025-01-07 12:54:20.372218	322.0	28.8	-92.0	11.7
2025-01-07 12:54:21.534741	321.7	28.7	-92.0	8.3
2025-01-07 12:54:22.700303	321.3	28.7	-92.1	13.6
2025-01-07 12:54:23.857694	321.0	28.6	-92.4	15.2
2025-01-07 12:54:25.017214	320.6	28.6	-92.2	8.3
2025-01-07 12:54:26.180839	320.3	28.5	-91.7	12.6
2025-01-07 12:54:27.346008	319.9	28.4	-91.2	14.9
2025-01-07 12:54:28.507435	319.5	28.4	-91.8	6.8
2025-01-07 12:54:29.674462	319.2	28.3	-92.3	9.1
2025-01-07 12:54:30.836201	318.8	28.3	-92.5	13.1
2025-01-07 12:54:32.006006	318.5	28.2	-92.4	7.8
2025-01-07 12:54:33.165748	318.1	28.1	-91.7	9.2
2025-01-07 12:54:34.329676	317.8	28.1	-91.0	11.3
2025-01-07 12:54:35.490825	317.4	28.0	-92.5	7.4
2025-01-07 12:54:36.638114	317.1	27.9	-92.5	6.9
2025-01-07 12:54:37.759708	316.8	27.9	-92.3	11.8
2025-01-07 12:54:38.880415	316.4	27.8	-92.9	11.3
2025-01-07 12:54:40.005931	316.1	27.8	-92.4	8.2
2025-01-07 12:54:41.125474	315.8	27.7	-90.5	9.7
2025-01-07 12:54:42.245748	315.5	27.6	-91.6	11.7
2025-01-07 12:54:43.366185	315.1	27.6	-91.9	10.7
2025-01-07 12:54:44.486503	314.8	27.5	-91.5	8.2
2025-01-07 12:54:45.610024	314.5	27.4	-92.8	9.5
2025-01-07 12:54:46.761045	314.2	27.3	-92.6	13.0
2025-01-07 12:54:47.918216	313.8	27.3	-92.8	13.9
2025-01-07 12:54:49.069273	313.5	27.2	-91.9	8.0
2025-01-07 12:54:50.232854	313.2	27.1	-91.9	12.6
2025-01-07 12:54:51.389901	312.9	27.0	-92.2	14.8
2025-01-07 12:54:52.550786	312.5	27.0	-91.9	9.9
2025-01-07 12:54:53.705310	312.2	26.9	-92.4	9.9
2025-01-07 12:54:54.869578	311.9	26.8	-92.5	15.8
2025-01-07 12:54:56.032401	311.6	26.7	-92.9	9.8
2025-01-07 12:54:57.192277	311.3	26.6	-91.9	10.5
2025-01-07 12:54:58.351428	310.9	26.6	-92.1	12.0
2025-01-07 12:54:59.520027	310.6	26.5	-92.3	8.7
2025-01-07 12:55:00.671667	310.3	26.4	-92.3	11.1
2025-01-07 12:55:01.836630	310.0	26.3	-92.3	7.5
2025-01-07 12:55:02.996198	309.7	26.2	-92.6	8.7
2025-01-07 12:55:04.151812	309.4	26.2	-91.8	12.1
2025-01-07 12:55:05.317209	309.1	26.1	-91.5	13.0
2025-01-07 12:55:06.475966	308.8	26.0	-92.3	11.7
2025-01-07 12:55:07.633550	308.5	25.9	-92.5	11.0
2025-01-07 12:55:08.801529	308.2	25.8	-92.3	13.6
2025-01-07 12:55:09.967438	307.9	25.7	-92.5	14.1
2025-01-07 12:55:11.126299	307.6	25.6	-91.9	12.4
2025-01-07 12:55:12.290077	307.3	25.5	-91.3	9.6
2025-01-07 12:55:13.452536	307.0	25.5	-90.9	11.5
2025-01-07 12:55:14.617381	306.7	25.4	-92.5	13.9
2025-01-07 12:55:15.777193	306.4	25.3	-92.4	11.7
2025-01-07 12:55:16.936815	306.1	25.2	-92.6	14.7
2025-01-07 12:55:18.102658	305.8	25.1	-92.2	11.7
2025-01-07 12:55:19.263979	305.5	25.0	-91.9	9.9
2025-01-07 12:55:20.425714	305.2	24.9	-91.0	13.7
2025-01-07 12:55:21.591474	305.0	24.8	-92.7	8.8
2025-01-07 12:55:22.758062	304.7	24.7	-92.3	12.8
2025-01-07 12:55:23.918723	304.4	24.6	-92.2	9.0
2025-01-07 12:55:25.082206	304.1	24.5	-91.9	7.7
2025-01-07 12:55:26.246732	303.8	24.4	-91.1	6.1
2025-01-07 12:55:27.420535	303.6	24.3	-92.4	10.7
2025-01-07 12:55:28.586649	303.3	24.2	-92.5	9.7
2025-01-07 12:55:29.750355	303.0	24.1	-91.0	10.5
2025-01-07 12:55:30.918863	302.7	24.0	-92.3	14.3
2025-01-07 12:55:32.087346	302.5	23.9	-92.3	8.9
2025-01-07 12:55:33.253488	302.2	23.9	-91.7	7.8
2025-01-07 12:55:34.413454	301.9	23.8	-92.1	8.1
2025-01-07 12:55:35.576436	301.7	23.7	-91.5	7.9
2025-01-07 12:55:36.739307	301.4	23.6	-92.5	11.5
2025-01-07 12:55:37.901511	301.1	23.5	-92.0	11.8
2025-01-07 12:55:39.064849	300.9	23.4	-92.3	7.8
2025-01-07 12:55:40.227982	300.6	23.3	-92.3	5.9
2025-01-07 12:55:41.393346	300.4	23.2	-92.5	8.9
2025-01-07 12:55:42.554326	300.1	23.1	-92.6	10.2
2025-01-07 12:55:43.710406	299.9	23.0	-91.5	11.4
2025-01-07 12:55:44.873103	299.6	22.9	-92.6	8.4
2025-01-07 12:55:46.040865	299.4	22.8	-92.8	11.1
2025-01-07 12:55:47.204653	299.1	22.7	-92.2	8.0
2025-01-07 12:55:48.372549	298.9	22.6	-90.5	7.6
2025-01-07 12:55:49.527385	298.6	22.5	-92.8	13.3
2025-01-07 12:55:50.692354	298.4	22.4	-92.3	7.9
2025-01-07 12:55:51.860321	298.1	22.3	-92.6	5.2
2025-01-07 12:55:53.013263	297.9	22.2	-92.4	10.7
2025-01-07 12:55:54.176354	297.7	22.1	-91.5	5.9
2025-01-07 12:55:55.346398	297.4	22.0	-92.0	9.3
2025-01-07 12:55:56.512270	297.2	21.9	-92.5	9.7
2025-01-07 12:55:57.674376	297.0	21.8	-92.2	7.9
2025-01-07 12:55:58.848805	296.7	21.7	-92.5	13.3
2025-01-07 12:56:00.003264	296.5	21.6	-92.5	9.5
2025-01-07 12:56:01.154553	296.3	21.5	-92.0	4.7
2025-01-07 12:56:02.312734	296.1	21.4	-91.0	6.5
2025-01-07 12:56:03.475395	295.8	21.3	-91.5	4.1
2025-01-07 12:56:04.639699	295.6	21.1	-92.5	7.6
2025-01-07 12:56:05.799175	295.4	21.0	-92.5	6.6
2025-01-07 12:56:06.966166	295.2	20.9	-92.6	6.3
2025-01-07 12:56:08.126947	294.9	20.8	-92.0	6.3
2025-01-07 12:56:09.293937	294.7	20.7	-92.2	4.6
2025-01-07 12:56:10.458435	294.5	20.6	-92.9	6.2
2025-01-07 12:56:11.622730	294.3	20.5	-92.8	5.7
2025-01-07 12:56:12.789943	294.1	20.4	-91.6	6.5
2025-01-07 12:56:13.945077	293.9	20.3	-92.2	5.6
2025-01-07 12:56:15.105806	293.6	20.2	-92.4	12.1
2025-01-07 12:56:16.269393	293.4	20.1	-92.5	7.3
2025-01-07 12:56:17.436246	293.2	20.0	-92.1	8.2
2025-01-07 12:56:18.599833	293.0	19.9	-92.9	6.9
2025-01-07 12:56:19.762462	292.8	19.8	-92.5	9.5
2025-01-07 12:56:20.926691	292.6	19.7	-93.3	8.2
2025-01-07 12:56:22.090895	292.4	19.6	-92.8	7.6
2025-01-07 12:56:23.253942	292.2	19.5	-92.3	11.0
2025-01-07 12:56:24.417558	292.0	19.4	-92.8	5.0
2025-01-07 12:56:25.580934	291.8	19.3	-92.4	8.7
2025-01-07 12:56:26.747081	291.6	19.2	-92.8	8.0
2025-01-07 12:56:27.914989	291.4	19.1	-91.4	11.0
2025-01-07 12:56:29.077279	291.2	19.0	-92.6	5.4
2025-01-07 12:56:30.244457	291.0	18.9	-92.4	8.5
2025-01-07 12:56:31.403057	290.8	18.8	-92.2	8.6
2025-01-07 12:56:32.570376	290.6	18.7	-92.3	7.8
2025-01-07 12:56:33.730230	290.4	18.6	-93.0	7.5
2025-01-07 12:56:34.894755	290.3	18.5	-93.2	6.3
2025-01-07 12:56:36.060831	290.1	18.4	-93.0	7.5
2025-01-07 12:56:37.222464	289.9	18.3	-92.5	5.5
2025-01-07 12:56:38.386415	289.7	18.2	-92.3	8.4
2025-01-07 12:56:39.551092	289.5	18.1	-92.9	7.5
2025-01-07 12:56:40.717645	289.3	18.0	-91.9	5.5
2025-01-07 12:56:41.879158	289.2	17.9	-91.7	10.2
2025-01-07 12:56:43.041131	289.0	17.8	-91.4	7.6
2025-01-07 12:56:44.198679	288.8	17.7	-91.0	8.3
2025-01-07 12:56:45.364388	288.6	17.6	-91.2	6.4
2025-01-07 12:56:46.534638	288.4	17.5	-91.3	7.0
2025-01-07 12:56:47.691947	288.3	17.4	-91.0	4.4
2025-01-07 12:56:48.856748	288.1	17.3	-91.2	7.8
2025-01-07 12:56:50.018832	287.9	17.2	-91.1	6.9
2025-01-07 12:56:51.185584	287.7	17.1	-90.8	6.5
2025-01-07 12:56:52.350459	287.6	17.0	-90.4	7.4
2025-01-07 12:56:53.515196	287.4	16.9	-91.5	7.7
2025-01-07 12:56:54.670679	287.2	16.8	-92.8	4.7
2025-01-07 12:56:55.834607	287.1	16.7	-92.7	12.7
2025-01-07 12:56:56.992095	286.9	16.6	-92.6	9.7
2025-01-07 12:56:58.153882	286.7	16.5	-91.8	9.4
2025-01-07 12:56:59.319800	286.6	16.4	-91.9	10.5
2025-01-07 12:57:00.466629	286.4	16.3	-92.3	11.8
2025-01-07 12:57:01.625907	286.3	16.2	-92.4	13.4
2025-01-07 12:57:02.791756	286.1	16.1	-92.6	7.9
2025-01-07 12:57:03.950606	285.9	16.0	-92.3	8.8
2025-01-07 12:57:05.112162	285.8	15.9	-91.6	6.1
2025-01-07 12:57:06.275030	285.6	15.8	-91.8	10.2
2025-01-07 12:57:07.438426	285.5	15.7	-91.4	8.3
2025-01-07 12:57:08.601960	285.3	15.6	-91.7	7.5
2025-01-07 12:57:09.760280	285.2	15.5	-91.2	8.0
2025-01-07 12:57:10.927996	285.0	15.4	-92.1	6.4
2025-01-07 12:57:12.090807	284.8	15.3	-92.0	6.1
2025-01-07 12:57:13.256666	284.7	15.2	-91.4	5.3
2025-01-07 12:57:14.416704	284.5	15.1	-92.6	13.6
2025-01-07 12:57:15.584830	284.4	15.0	-92.6	9.7
2025-01-07 12:57:16.749335	284.2	14.9	-92.4	7.5
2025-01-07 12:57:17.914473	284.1	14.8	-91.2	10.0
2025-01-07 12:57:19.081286	284.0	14.7	-92.0	9.6
2025-01-07 12:57:20.242381	283.8	14.6	-91.9	9.3
2025-01-07 12:57:21.393574	283.7	14.5	-92.4	13.0
#Closed at: 2025-01-07 12:50:03.641436