passes_logs/2025/01/28/LEX_Murmansk/LEX_Murmansk__20250128_082130_NOAA_18_rec.log

#Pass ID: 20250128_082130_NOAA 18
#Satellite: NOAA 18
#Configuration: NOAA 18
#Start time: 2025-01-28 08:21:25.109772

#LorettStation: 1.0.0 05.05.2024
#Station: LEX_Murmansk
#Location: 33.156738 lon 68.926811 lat
#TLE: 1 28654U 05018A   25027.12567402  .00000414  00000+0  24299-3 0  9999
#TLE: 2 28654  98.8547 108.0587 0014840 145.8119 214.4012 14.13498347 14893

#Time	Az	El	Level	SNR
2025-01-28 08:21:37.313756	35.3	16.1	-91.1	3.6
2025-01-28 08:21:38.476041	35.4	16.2	-91.3	2.3
2025-01-28 08:21:39.638520	35.6	16.3	-91.4	5.1
2025-01-28 08:21:40.801012	35.7	16.4	-91.3	4.7
2025-01-28 08:21:41.966157	35.9	16.5	-91.5	2.6
2025-01-28 08:21:43.134419	36.0	16.6	-91.4	5.0
2025-01-28 08:21:44.296186	36.2	16.7	-91.8	4.9
2025-01-28 08:21:45.462711	36.3	16.8	-91.9	4.8
2025-01-28 08:21:46.626685	36.5	16.9	-91.9	6.0
2025-01-28 08:21:47.788674	36.6	17.0	-91.8	7.1
2025-01-28 08:21:48.949550	36.8	17.1	-91.8	6.5
2025-01-28 08:21:50.111374	36.9	17.2	-91.2	5.8
2025-01-28 08:21:51.274182	37.1	17.4	-91.3	6.9
2025-01-28 08:21:52.432036	37.2	17.5	-91.5	3.9
2025-01-28 08:21:53.600263	37.4	17.6	-91.5	5.9
2025-01-28 08:21:54.759617	37.6	17.7	-91.9	4.9
2025-01-28 08:21:55.926373	37.7	17.8	-91.8	5.5
2025-01-28 08:21:57.085132	37.9	17.9	-91.6	7.1
2025-01-28 08:21:58.239054	38.0	18.0	-91.3	7.7
2025-01-28 08:21:59.398346	38.2	18.1	-91.8	5.7
2025-01-28 08:22:00.551655	38.4	18.2	-91.6	5.6
2025-01-28 08:22:01.710781	38.5	18.3	-91.7	6.6
2025-01-28 08:22:02.869188	38.7	18.4	-91.8	7.8
2025-01-28 08:22:04.029946	38.9	18.6	-92.0	7.1
2025-01-28 08:22:05.189861	39.0	18.7	-91.3	11.7
2025-01-28 08:22:06.351515	39.2	18.8	-91.2	8.3
2025-01-28 08:22:07.510763	39.4	18.9	-91.5	7.8
2025-01-28 08:22:08.679437	39.6	19.0	-91.9	9.3
2025-01-28 08:22:09.839937	39.7	19.1	-92.2	6.6
2025-01-28 08:22:11.004429	39.9	19.2	-91.6	4.9
2025-01-28 08:22:12.175528	40.1	19.3	-91.6	7.0
2025-01-28 08:22:13.342292	40.3	19.4	-91.6	8.9
2025-01-28 08:22:14.507684	40.5	19.6	-92.0	9.6
2025-01-28 08:22:15.670933	40.6	19.7	-92.1	9.9
2025-01-28 08:22:16.834728	40.8	19.8	-92.1	9.1
2025-01-28 08:22:17.994218	41.0	19.9	-91.9	5.5
2025-01-28 08:22:19.155966	41.2	20.0	-91.6	9.9
2025-01-28 08:22:20.315239	41.4	20.1	-91.8	11.8
2025-01-28 08:22:21.483223	41.6	20.2	-91.4	12.0
2025-01-28 08:22:22.647272	41.8	20.4	-91.7	12.1
2025-01-28 08:22:23.812523	41.9	20.5	-89.8	10.7
2025-01-28 08:22:24.975681	42.1	20.6	-90.6	9.2
2025-01-28 08:22:26.143132	42.3	20.7	-90.7	9.5
2025-01-28 08:22:27.304524	42.5	20.8	-90.1	10.4
2025-01-28 08:22:28.460275	42.7	20.9	-90.3	8.1
2025-01-28 08:22:29.624306	42.9	21.0	-90.5	13.9
2025-01-28 08:22:30.787714	43.1	21.2	-91.9	14.7
2025-01-28 08:22:31.954024	43.3	21.3	-92.3	11.9
2025-01-28 08:22:33.117767	43.5	21.4	-91.7	10.4
2025-01-28 08:22:34.281639	43.7	21.5	-91.4	10.7
2025-01-28 08:22:35.444163	43.9	21.6	-91.9	6.7
2025-01-28 08:22:36.607746	44.1	21.7	-91.7	8.8
2025-01-28 08:22:37.769052	44.3	21.9	-92.1	10.5
2025-01-28 08:22:38.934563	44.6	22.0	-91.9	8.1
2025-01-28 08:22:40.097773	44.8	22.1	-91.7	9.5
2025-01-28 08:22:41.258844	45.0	22.2	-91.8	11.3
2025-01-28 08:22:42.420487	45.2	22.3	-92.0	11.5
2025-01-28 08:22:43.580989	45.4	22.4	-91.7	10.7
2025-01-28 08:22:44.745050	45.6	22.6	-91.6	11.5
2025-01-28 08:22:45.911857	45.8	22.7	-91.5	9.1
2025-01-28 08:22:47.077696	46.1	22.8	-91.6	9.1
2025-01-28 08:22:48.236491	46.3	22.9	-91.8	12.6
2025-01-28 08:22:49.401817	46.5	23.0	-92.1	11.5
2025-01-28 08:22:50.568465	46.7	23.2	-92.2	14.9
2025-01-28 08:22:51.731994	47.0	23.3	-92.0	15.9
2025-01-28 08:22:52.899469	47.2	23.4	-91.8	14.9
2025-01-28 08:22:54.061901	47.4	23.5	-91.9	9.5
2025-01-28 08:22:55.230079	47.7	23.6	-92.0	12.2
2025-01-28 08:22:56.390305	47.9	23.7	-91.6	6.5
2025-01-28 08:22:57.554444	48.1	23.9	-91.8	6.4
2025-01-28 08:22:58.716134	48.4	24.0	-91.9	11.1
2025-01-28 08:22:59.877058	48.6	24.1	-92.2	8.2
2025-01-28 08:23:01.037565	48.9	24.2	-91.8	8.9
2025-01-28 08:23:02.201234	49.1	24.3	-92.0	11.3
2025-01-28 08:23:03.356700	49.3	24.5	-92.1	11.8
2025-01-28 08:23:04.520894	49.6	24.6	-92.1	11.7
2025-01-28 08:23:05.701934	49.8	24.7	-92.1	12.1
2025-01-28 08:23:06.864729	50.1	24.8	-92.0	10.3
2025-01-28 08:23:08.027197	50.3	24.9	-91.9	10.7
2025-01-28 08:23:09.190526	50.6	25.1	-91.6	14.4
2025-01-28 08:23:10.363804	50.9	25.2	-91.8	9.9
2025-01-28 08:23:11.528570	51.1	25.3	-91.9	13.2
2025-01-28 08:23:12.693073	51.4	25.4	-91.6	13.4
2025-01-28 08:23:13.857266	51.6	25.5	-91.8	11.7
2025-01-28 08:23:15.022029	51.9	25.6	-92.1	11.6
2025-01-28 08:23:16.181219	52.2	25.8	-91.5	11.5
2025-01-28 08:23:17.345932	52.4	25.9	-91.8	8.5
2025-01-28 08:23:18.507400	52.7	26.0	-92.1	6.0
2025-01-28 08:23:19.681325	53.0	26.1	-92.0	9.4
2025-01-28 08:23:20.842160	53.2	26.2	-91.9	4.9
2025-01-28 08:23:22.011799	53.5	26.4	-92.1	4.3
2025-01-28 08:23:23.175636	53.8	26.5	-91.7	6.4
2025-01-28 08:23:24.342058	54.1	26.6	-91.8	8.3
2025-01-28 08:23:25.507527	54.4	26.7	-92.0	8.0
2025-01-28 08:23:26.670330	54.7	26.8	-92.0	5.9
2025-01-28 08:23:27.834053	54.9	26.9	-92.0	6.8
2025-01-28 08:23:28.997471	55.2	27.1	-91.8	5.9
2025-01-28 08:23:30.165786	55.5	27.2	-92.0	6.7
2025-01-28 08:23:31.329883	55.8	27.3	-91.9	9.1
2025-01-28 08:23:32.495350	56.1	27.4	-92.2	7.9
2025-01-28 08:23:33.654961	56.4	27.5	-92.0	11.2
2025-01-28 08:23:34.818543	56.7	27.6	-92.0	11.4
2025-01-28 08:23:35.986313	57.0	27.8	-92.1	10.9
2025-01-28 08:23:37.145705	57.3	27.9	-91.6	6.9
2025-01-28 08:23:38.306753	57.6	28.0	-91.8	6.2
2025-01-28 08:23:39.470593	57.9	28.1	-91.8	7.7
2025-01-28 08:23:40.637362	58.2	28.2	-92.0	8.9
2025-01-28 08:23:41.795957	58.5	28.3	-92.5	7.5
2025-01-28 08:23:42.956801	58.8	28.4	-92.1	4.7
2025-01-28 08:23:44.119447	59.2	28.5	-91.6	4.4
2025-01-28 08:23:45.280720	59.5	28.7	-91.7	3.9
2025-01-28 08:23:46.446197	59.8	28.8	-92.1	2.6
2025-01-28 08:23:47.609188	60.1	28.9	-92.2	5.4
2025-01-28 08:23:48.769890	60.4	29.0	-92.2	6.5
2025-01-28 08:23:49.933802	60.8	29.1	-92.0	11.2
2025-01-28 08:23:51.101728	61.1	29.2	-91.7	10.1
2025-01-28 08:23:52.265082	61.4	29.3	-91.7	11.4
2025-01-28 08:23:53.433724	61.8	29.4	-92.0	11.8
2025-01-28 08:23:54.593556	62.1	29.5	-91.9	12.9
2025-01-28 08:23:55.759081	62.4	29.6	-92.0	18.1
2025-01-28 08:23:56.922396	62.8	29.7	-91.8	12.2
2025-01-28 08:23:58.082397	63.1	29.8	-91.4	11.4
2025-01-28 08:23:59.249530	63.5	29.9	-91.7	11.4
2025-01-28 08:24:00.405364	63.8	30.0	-92.1	10.4
2025-01-28 08:24:01.568285	64.1	30.1	-91.9	9.6
2025-01-28 08:24:02.724807	64.5	30.3	-91.9	9.1
2025-01-28 08:24:03.883715	64.8	30.4	-91.7	11.8
2025-01-28 08:24:05.044862	65.2	30.5	-91.8	11.2
2025-01-28 08:24:06.212502	65.6	30.6	-91.7	12.6
2025-01-28 08:24:07.376508	65.9	30.6	-92.0	11.1
2025-01-28 08:24:08.539551	66.3	30.7	-92.3	13.1
2025-01-28 08:24:09.704079	66.6	30.8	-92.4	17.2
2025-01-28 08:24:10.868320	67.0	30.9	-92.2	10.6
2025-01-28 08:24:12.030577	67.4	31.0	-92.2	6.9
2025-01-28 08:24:13.189905	67.7	31.1	-91.9	13.4
2025-01-28 08:24:14.355689	68.1	31.2	-91.8	9.3
2025-01-28 08:24:15.520414	68.5	31.3	-92.1	8.6
2025-01-28 08:24:16.682374	68.9	31.4	-92.0	15.4
2025-01-28 08:24:17.845967	69.2	31.5	-91.9	12.6
2025-01-28 08:24:19.004114	69.6	31.6	-92.3	12.3
2025-01-28 08:24:20.170063	70.0	31.7	-92.1	13.2
2025-01-28 08:24:21.333764	70.4	31.8	-92.2	15.9
2025-01-28 08:24:22.499711	70.8	31.8	-91.8	15.7
2025-01-28 08:24:23.661875	71.2	31.9	-92.1	16.5
2025-01-28 08:24:24.828235	71.5	32.0	-92.0	18.6
2025-01-28 08:24:25.991457	71.9	32.1	-91.9	15.4
2025-01-28 08:24:27.154817	72.3	32.2	-91.8	18.1
2025-01-28 08:24:28.314433	72.7	32.2	-91.6	17.9
2025-01-28 08:24:29.478148	73.1	32.3	-91.8	10.5
2025-01-28 08:24:30.639689	73.5	32.4	-92.0	17.8
2025-01-28 08:24:31.803396	73.9	32.5	-92.2	19.1
2025-01-28 08:24:32.966057	74.3	32.6	-92.1	14.1
2025-01-28 08:24:34.127973	74.7	32.6	-91.6	18.7
2025-01-28 08:24:35.295932	75.1	32.7	-91.9	17.9
2025-01-28 08:24:36.456986	75.5	32.8	-92.0	15.8
2025-01-28 08:24:37.622775	76.0	32.8	-92.0	17.3
2025-01-28 08:24:38.786578	76.4	32.9	-91.8	18.2
2025-01-28 08:24:39.954775	76.8	33.0	-91.6	18.1
2025-01-28 08:24:41.114966	77.2	33.0	-91.7	18.3
2025-01-28 08:24:42.276587	77.6	33.1	-91.8	18.1
2025-01-28 08:24:43.436571	78.0	33.2	-92.1	15.1
2025-01-28 08:24:44.573195	78.4	33.2	-92.2	15.2
2025-01-28 08:24:45.733751	78.9	33.3	-91.9	18.8
2025-01-28 08:24:46.897979	79.3	33.3	-91.9	12.9
2025-01-28 08:24:48.059955	79.7	33.4	-91.7	7.7
2025-01-28 08:24:49.214627	80.1	33.4	-91.7	18.9
2025-01-28 08:24:50.380787	80.6	33.5	-91.9	10.6
2025-01-28 08:24:51.543825	81.0	33.5	-92.0	9.9
2025-01-28 08:24:52.709588	81.4	33.6	-92.2	17.2
2025-01-28 08:24:53.869233	81.8	33.6	-91.9	11.1
2025-01-28 08:24:55.030374	82.3	33.7	-92.0	12.2
2025-01-28 08:24:56.189951	82.7	33.7	-91.7	18.7
2025-01-28 08:24:57.360167	83.1	33.8	-91.8	15.7
2025-01-28 08:24:58.518567	83.6	33.8	-92.2	16.9
2025-01-28 08:24:59.694022	84.0	33.8	-91.8	18.0
2025-01-28 08:25:00.852492	84.5	33.9	-91.8	17.0
2025-01-28 08:25:02.024463	84.9	33.9	-92.0	18.1
2025-01-28 08:25:03.185149	85.3	33.9	-91.9	17.4
2025-01-28 08:25:04.346467	85.8	34.0	-91.9	17.3
2025-01-28 08:25:05.516214	86.2	34.0	-91.9	17.1
2025-01-28 08:25:06.676008	86.7	34.0	-92.2	18.2
2025-01-28 08:25:07.846647	87.1	34.0	-92.0	15.3
2025-01-28 08:25:09.009068	87.5	34.1	-92.2	16.4
2025-01-28 08:25:10.172542	88.0	34.1	-91.9	17.8
2025-01-28 08:25:11.346310	88.4	34.1	-91.9	13.4
2025-01-28 08:25:12.508291	88.9	34.1	-92.1	11.5
2025-01-28 08:25:13.669894	89.3	34.1	-92.1	18.4
2025-01-28 08:25:14.834997	89.8	34.2	-91.8	14.7
2025-01-28 08:25:15.996783	90.2	34.2	-92.1	10.9
2025-01-28 08:25:17.156097	90.7	34.2	-91.8	15.2
2025-01-28 08:25:18.316495	91.1	34.2	-91.6	13.5
2025-01-28 08:25:19.481115	91.6	34.2	-92.0	10.9
2025-01-28 08:25:20.641632	92.0	34.2	-92.3	17.8
2025-01-28 08:25:21.810384	92.5	34.2	-92.4	17.6
2025-01-28 08:25:22.971142	92.9	34.2	-90.7	12.6
2025-01-28 08:25:24.140869	93.3	34.2	-90.3	16.9
2025-01-28 08:25:25.294425	93.8	34.2	-90.5	17.1
2025-01-28 08:25:26.452511	94.2	34.2	-91.0	13.5
2025-01-28 08:25:27.613156	94.7	34.2	-90.8	16.8
2025-01-28 08:25:28.770196	95.1	34.2	-90.9	20.0
2025-01-28 08:25:29.934265	95.6	34.2	-92.1	19.1
2025-01-28 08:25:31.098805	96.0	34.1	-91.8	19.3
2025-01-28 08:25:32.266073	96.5	34.1	-91.6	19.4
2025-01-28 08:25:33.437808	96.9	34.1	-92.1	19.2
2025-01-28 08:25:34.608179	97.4	34.1	-92.2	20.2
2025-01-28 08:25:35.767828	97.8	34.1	-92.2	21.0
2025-01-28 08:25:36.936905	98.3	34.1	-92.2	19.2
2025-01-28 08:25:38.103331	98.7	34.0	-91.6	18.7
2025-01-28 08:25:39.265765	99.1	34.0	-91.6	18.3
2025-01-28 08:25:40.429939	99.6	34.0	-92.1	18.5
2025-01-28 08:25:41.592799	100.0	33.9	-91.9	17.6
2025-01-28 08:25:42.765681	100.5	33.9	-92.2	17.8
2025-01-28 08:25:43.927084	100.9	33.9	-91.9	16.5
2025-01-28 08:25:45.089001	101.3	33.8	-91.8	16.8
2025-01-28 08:25:46.257680	101.8	33.8	-91.7	18.4
2025-01-28 08:25:47.420223	102.2	33.8	-92.0	14.8
2025-01-28 08:25:48.581812	102.7	33.7	-92.1	13.1
2025-01-28 08:25:49.746527	103.1	33.7	-92.2	14.9
2025-01-28 08:25:50.914196	103.5	33.6	-92.4	13.3
2025-01-28 08:25:52.074849	104.0	33.6	-92.0	13.7
2025-01-28 08:25:53.239187	104.4	33.6	-92.0	14.0
2025-01-28 08:25:54.401682	104.8	33.5	-92.1	10.6
2025-01-28 08:25:55.567026	105.2	33.5	-92.2	11.8
2025-01-28 08:25:56.726300	105.7	33.4	-92.2	12.7
2025-01-28 08:25:57.891626	106.1	33.3	-92.1	12.0
2025-01-28 08:25:59.055179	106.5	33.3	-91.7	10.1
2025-01-28 08:26:00.213252	106.9	33.2	-91.9	13.1
2025-01-28 08:26:01.373734	107.4	33.2	-92.1	11.5
2025-01-28 08:26:02.538041	107.8	33.1	-92.3	12.8
2025-01-28 08:26:03.699138	108.2	33.1	-92.2	16.8
2025-01-28 08:26:04.853787	108.6	33.0	-92.3	12.7
2025-01-28 08:26:06.018558	109.0	32.9	-91.7	9.9
2025-01-28 08:26:07.180052	109.4	32.9	-92.0	14.9
2025-01-28 08:26:08.345651	109.9	32.8	-91.7	13.3
2025-01-28 08:26:09.500179	110.3	32.7	-91.8	11.3
2025-01-28 08:26:10.665996	110.7	32.6	-91.9	17.6
2025-01-28 08:26:11.824503	111.1	32.6	-91.7	15.5
2025-01-28 08:26:12.981373	111.5	32.5	-92.0	13.1
2025-01-28 08:26:14.143146	111.9	32.4	-91.7	17.2
2025-01-28 08:26:15.309583	112.3	32.4	-91.8	16.5
2025-01-28 08:26:16.465855	112.7	32.3	-91.8	12.2
2025-01-28 08:26:17.632606	113.1	32.2	-91.8	16.5
2025-01-28 08:26:18.790346	113.5	32.1	-91.7	15.8
2025-01-28 08:26:19.954340	113.9	32.0	-92.1	12.5
2025-01-28 08:26:21.120361	114.3	32.0	-91.7	14.8
2025-01-28 08:26:22.285808	114.7	31.9	-92.0	13.9
2025-01-28 08:26:23.449794	115.0	31.8	-92.3	13.2
2025-01-28 08:26:24.613839	115.4	31.7	-92.2	12.3
2025-01-28 08:26:25.778790	115.8	31.6	-92.0	9.5
2025-01-28 08:26:26.939380	116.2	31.5	-92.1	9.3
2025-01-28 08:26:28.099831	116.6	31.4	-91.7	10.4
2025-01-28 08:26:29.262402	116.9	31.3	-91.4	13.3
2025-01-28 08:26:30.421471	117.3	31.2	-91.7	11.9
2025-01-28 08:26:31.589731	117.7	31.2	-91.8	11.0
2025-01-28 08:26:32.752006	118.1	31.1	-92.0	13.8
2025-01-28 08:26:33.909026	118.4	31.0	-92.5	13.0
2025-01-28 08:26:35.071382	118.8	30.9	-91.8	13.5
2025-01-28 08:26:36.232217	119.2	30.8	-90.5	10.5
2025-01-28 08:26:37.393590	119.5	30.7	-90.7	11.6
2025-01-28 08:26:38.566246	119.9	30.6	-90.6	12.0
2025-01-28 08:26:39.727468	120.3	30.5	-90.4	12.0
2025-01-28 08:26:40.903565	120.6	30.4	-91.1	14.1
2025-01-28 08:26:42.068050	121.0	30.3	-91.2	13.4
2025-01-28 08:26:43.233049	121.3	30.2	-90.6	12.1
2025-01-28 08:26:44.400640	121.7	30.1	-90.3	10.1
2025-01-28 08:26:45.566624	122.0	30.0	-91.7	10.1
2025-01-28 08:26:46.726353	122.4	29.9	-91.8	10.6
2025-01-28 08:26:47.890554	122.7	29.8	-91.7	10.6
2025-01-28 08:26:49.046431	123.0	29.7	-91.9	11.1
2025-01-28 08:26:50.206410	123.4	29.5	-92.0	11.5
2025-01-28 08:26:51.360340	123.7	29.4	-91.7	9.6
2025-01-28 08:26:52.521116	124.1	29.3	-91.8	9.6
2025-01-28 08:26:53.683251	124.4	29.2	-92.1	8.0
2025-01-28 08:26:54.849442	124.7	29.1	-92.3	6.5
2025-01-28 08:26:56.013903	125.0	29.0	-92.2	7.0
2025-01-28 08:26:57.172695	125.4	28.9	-91.6	4.1
2025-01-28 08:26:58.338543	125.7	28.8	-91.9	3.8
2025-01-28 08:26:59.497290	126.0	28.7	-92.1	4.7
2025-01-28 08:27:00.650735	126.3	28.6	-92.3	5.5
2025-01-28 08:27:01.825407	126.7	28.4	-92.3	5.0
2025-01-28 08:27:02.994000	127.0	28.3	-91.9	3.8
2025-01-28 08:27:04.148426	127.3	28.2	-92.0	5.4
2025-01-28 08:27:05.313318	127.6	28.1	-91.9	6.7
2025-01-28 08:27:06.475502	127.9	28.0	-91.9	7.0
2025-01-28 08:27:07.638816	128.2	27.9	-91.7	7.2
2025-01-28 08:27:08.796286	128.5	27.8	-92.0	4.8
2025-01-28 08:27:09.962166	128.8	27.6	-92.2	4.2
2025-01-28 08:27:11.123306	129.1	27.5	-92.0	4.2
2025-01-28 08:27:12.280594	129.4	27.4	-91.8	5.7
2025-01-28 08:27:13.446216	129.7	27.3	-91.7	4.9
2025-01-28 08:27:14.602879	130.0	27.2	-92.2	6.8
2025-01-28 08:27:15.764192	130.3	27.1	-92.5	9.2
2025-01-28 08:27:16.922172	130.6	27.0	-92.1	8.4
2025-01-28 08:27:18.081139	130.9	26.8	-92.0	10.3
2025-01-28 08:27:19.235487	131.2	26.7	-92.0	7.9
2025-01-28 08:27:20.398677	131.4	26.6	-92.2	7.8
2025-01-28 08:27:21.561470	131.7	26.5	-92.3	12.3
2025-01-28 08:27:22.728518	132.0	26.4	-92.3	15.7
2025-01-28 08:27:23.893683	132.3	26.2	-92.2	15.9
2025-01-28 08:27:25.062136	132.6	26.1	-91.8	14.9
2025-01-28 08:27:26.226468	132.8	26.0	-92.1	13.8
2025-01-28 08:27:27.387981	133.1	25.9	-92.1	13.9
2025-01-28 08:27:28.550828	133.4	25.8	-91.9	15.7
2025-01-28 08:27:29.709535	133.6	25.7	-91.4	15.7
2025-01-28 08:27:30.866134	133.9	25.5	-92.2	16.0
2025-01-28 08:27:32.032112	134.2	25.4	-91.9	13.8
2025-01-28 08:27:33.197382	134.4	25.3	-91.8	16.2
2025-01-28 08:27:34.358525	134.7	25.2	-91.9	11.3
2025-01-28 08:27:35.521138	134.9	25.1	-92.0	10.0
2025-01-28 08:27:36.682496	135.2	24.9	-92.0	16.9
2025-01-28 08:27:37.854735	135.5	24.8	-92.0	11.8
2025-01-28 08:27:39.011927	135.7	24.7	-91.8	10.1
2025-01-28 08:27:40.178785	136.0	24.6	-91.6	15.7
2025-01-28 08:27:41.339059	136.2	24.5	-91.9	13.4
2025-01-28 08:27:42.496991	136.5	24.3	-92.3	10.9
2025-01-28 08:27:43.663773	136.7	24.2	-91.0	14.2
2025-01-28 08:27:44.824434	136.9	24.1	-91.0	12.7
2025-01-28 08:27:45.988226	137.2	24.0	-90.7	12.9
2025-01-28 08:27:47.149286	137.4	23.9	-90.6	14.2
2025-01-28 08:27:48.314481	137.7	23.7	-89.5	12.7
2025-01-28 08:27:49.471098	137.9	23.6	-90.8	12.1
2025-01-28 08:27:50.631563	138.1	23.5	-92.1	14.4
2025-01-28 08:27:51.796030	138.4	23.4	-92.0	14.8
2025-01-28 08:27:52.959451	138.6	23.3	-91.8	13.2
2025-01-28 08:27:54.120296	138.8	23.1	-92.0	12.9
2025-01-28 08:27:55.287888	139.1	23.0	-91.7	14.2
2025-01-28 08:27:56.448954	139.3	22.9	-91.8	9.5
2025-01-28 08:27:57.612261	139.5	22.8	-91.2	9.4
2025-01-28 08:27:58.775963	139.7	22.7	-91.2	11.2
2025-01-28 08:27:59.932821	139.9	22.5	-91.5	7.0
2025-01-28 08:28:01.089464	140.2	22.4	-91.5	9.8
2025-01-28 08:28:02.248582	140.4	22.3	-90.8	10.7
2025-01-28 08:28:03.416117	140.6	22.2	-91.1	8.7
2025-01-28 08:28:04.570563	140.8	22.1	-91.4	6.6
2025-01-28 08:28:05.734017	141.0	22.0	-91.4	11.6
2025-01-28 08:28:06.898284	141.2	21.8	-90.5	8.5
2025-01-28 08:28:08.073784	141.4	21.7	-91.0	10.9
2025-01-28 08:28:09.232739	141.7	21.6	-91.3	14.7
2025-01-28 08:28:10.391561	141.9	21.5	-89.3	11.0
2025-01-28 08:28:11.567838	142.1	21.4	-90.5	13.6
2025-01-28 08:28:12.727925	142.3	21.2	-90.5	13.3
2025-01-28 08:28:13.896245	142.5	21.1	-90.3	12.7
2025-01-28 08:28:15.059779	142.7	21.0	-89.2	8.1
2025-01-28 08:28:16.214846	142.9	20.9	-89.3	10.1
2025-01-28 08:28:17.381629	143.1	20.8	-89.4	9.5
2025-01-28 08:28:18.540578	143.3	20.7	-89.7	10.1
2025-01-28 08:28:19.697742	143.5	20.5	-89.9	12.9
2025-01-28 08:28:20.857231	143.7	20.4	-90.0	9.5
2025-01-28 08:28:22.022498	143.8	20.3	-89.7	9.0
2025-01-28 08:28:23.182731	144.0	20.2	-89.1	10.1
2025-01-28 08:28:24.345253	144.2	20.1	-89.0	7.7
2025-01-28 08:28:25.509451	144.4	20.0	-89.1	7.4
2025-01-28 08:28:26.670661	144.6	19.9	-88.9	7.8
2025-01-28 08:28:27.833532	144.8	19.7	-89.0	6.6
2025-01-28 08:28:28.998617	145.0	19.6	-88.8	8.5
2025-01-28 08:28:30.155699	145.2	19.5	-89.3	7.2
2025-01-28 08:28:31.315790	145.3	19.4	-89.7	7.9
2025-01-28 08:28:32.484766	145.5	19.3	-89.9	7.0
2025-01-28 08:28:33.646345	145.7	19.2	-89.8	7.9
2025-01-28 08:28:34.805025	145.9	19.1	-89.8	6.9
2025-01-28 08:28:35.964860	146.1	18.9	-89.6	9.1
2025-01-28 08:28:37.128987	146.2	18.8	-89.5	9.5
2025-01-28 08:28:38.289519	146.4	18.7	-89.2	8.2
2025-01-28 08:28:39.447792	146.6	18.6	-89.5	6.2
2025-01-28 08:28:40.604748	146.7	18.5	-89.6	6.5
2025-01-28 08:28:41.770479	146.9	18.4	-89.9	8.7
2025-01-28 08:28:42.930317	147.1	18.3	-89.4	4.2
2025-01-28 08:28:44.091584	147.2	18.2	-89.6	4.7
2025-01-28 08:28:45.249770	147.4	18.1	-89.5	2.6
2025-01-28 08:28:46.411307	147.6	17.9	-89.7	3.4
2025-01-28 08:28:47.570569	147.7	17.8	-89.9	4.6
2025-01-28 08:28:48.733334	147.9	17.7	-90.2	6.3
2025-01-28 08:28:49.892192	148.1	17.6	-89.7	5.1
2025-01-28 08:28:51.048400	148.2	17.5	-89.9	5.8
2025-01-28 08:28:52.216501	148.4	17.4	-90.8	6.2
2025-01-28 08:28:53.375528	148.5	17.3	-90.4	4.2
2025-01-28 08:28:54.539283	148.7	17.2	-90.2	4.9
2025-01-28 08:28:55.699642	148.9	17.1	-90.0	7.2
2025-01-28 08:28:56.856460	149.0	17.0	-90.0	4.9
2025-01-28 08:28:58.014729	149.2	16.9	-90.1	6.7
2025-01-28 08:28:59.182448	149.3	16.7	-89.7	6.3
2025-01-28 08:29:00.326453	149.5	16.6	-89.8	5.5
2025-01-28 08:29:01.476129	149.6	16.5	-89.8	3.9
2025-01-28 08:29:02.638244	149.8	16.4	-89.8	4.7
2025-01-28 08:29:03.798995	149.9	16.3	-90.4	4.8
2025-01-28 08:29:04.952205	150.1	16.2	-90.2	5.5
2025-01-28 08:29:06.116908	150.2	16.1	-90.0	4.4
2025-01-28 08:29:07.275177	150.4	16.0	-89.7	6.1
2025-01-28 08:29:08.440812	150.5	15.9	-89.8	6.7
2025-01-28 08:29:09.594783	150.7	15.8	-90.3	6.5
2025-01-28 08:29:10.757103	150.8	15.7	-90.1	6.6
2025-01-28 08:29:11.918546	150.9	15.6	-90.1	5.3
2025-01-28 08:29:13.076382	151.1	15.5	-89.8	5.5
2025-01-28 08:29:14.243478	151.2	15.4	-89.9	4.8
2025-01-28 08:29:15.407709	151.4	15.3	-89.8	6.2
2025-01-28 08:29:16.564194	151.5	15.2	-90.1	5.8
2025-01-28 08:29:17.722850	151.6	15.1	-90.1	5.3
2025-01-28 08:29:18.886354	151.8	15.0	-90.0	5.1
2025-01-28 08:29:20.047318	151.9	14.9	-89.9	3.1
2025-01-28 08:29:21.214478	152.0	14.8	-89.8	5.2
2025-01-28 08:29:22.375618	152.2	14.7	-89.8	6.5
2025-01-28 08:29:23.526133	152.3	14.6	-89.8	4.7
#Closed at: 2025-01-28 08:21:30.132686