passes_logs/2025/01/28/LEX_Murmansk/LEX_Murmansk__20250128_182119_NOAA_18_rec.log

#Pass ID: 20250128_182119_NOAA 18
#Satellite: NOAA 18
#Configuration: NOAA 18
#Start time: 2025-01-28 18:21:14.235644

#LorettStation: 1.0.0 05.05.2024
#Station: LEX_Murmansk
#Location: 33.156738 lon 68.926811 lat
#TLE: 1 28654U 05018A   25028.04589186  .00000422  00000+0  24750-3 0  9995
#TLE: 2 28654  98.8546 108.9697 0014880 143.3316 216.8878 14.13499339 15023

#Time	Az	El	Level	SNR
2025-01-28 18:21:26.448705	136.0	16.3	-92.2	6.1
2025-01-28 18:21:28.769675	135.9	16.6	-92.2	9.1
2025-01-28 18:21:31.079356	135.8	16.8	-92.2	6.0
2025-01-28 18:21:33.405718	135.8	17.1	-92.1	3.2
2025-01-28 18:21:35.715287	135.7	17.3	-92.4	10.7
2025-01-28 18:21:38.045549	135.6	17.6	-92.7	9.2
2025-01-28 18:21:40.358925	135.5	17.9	-92.4	10.4
2025-01-28 18:21:42.672419	135.4	18.2	-92.3	12.4
2025-01-28 18:21:44.985920	135.3	18.4	-92.9	10.5
2025-01-28 18:21:47.287372	135.3	18.7	-92.1	11.5
2025-01-28 18:21:49.538789	135.2	19.0	-92.4	5.5
2025-01-28 18:21:51.781594	135.1	19.3	-92.5	13.0
2025-01-28 18:21:54.023577	135.0	19.5	-92.4	12.3
2025-01-28 18:21:56.265994	134.9	19.8	-92.0	8.0
2025-01-28 18:21:58.514422	134.8	20.1	-92.3	13.7
2025-01-28 18:22:00.812623	134.7	20.4	-92.6	13.9
2025-01-28 18:22:03.115398	134.6	20.7	-92.6	10.4
2025-01-28 18:22:05.405608	134.5	21.0	-92.6	9.7
2025-01-28 18:22:07.720063	134.4	21.3	-92.7	19.6
2025-01-28 18:22:10.019871	134.3	21.6	-92.6	17.7
2025-01-28 18:22:12.332156	134.2	21.9	-92.4	18.9
2025-01-28 18:22:14.648894	134.1	22.3	-92.7	23.3
2025-01-28 18:22:16.963877	134.0	22.6	-92.4	11.4
2025-01-28 18:22:19.271237	133.9	22.9	-92.2	11.9
2025-01-28 18:22:21.590615	133.7	23.2	-92.4	9.4
2025-01-28 18:22:23.898018	133.6	23.6	-91.3	17.3
2025-01-28 18:22:26.203311	133.5	23.9	-90.3	14.8
2025-01-28 18:22:28.507239	133.4	24.2	-92.7	9.6
2025-01-28 18:22:30.839293	133.2	24.6	-92.3	12.8
2025-01-28 18:22:33.151136	133.1	24.9	-92.3	16.9
2025-01-28 18:22:35.463424	133.0	25.3	-92.3	8.0
2025-01-28 18:22:37.780587	132.8	25.7	-92.7	11.3
2025-01-28 18:22:40.097453	132.7	26.0	-92.3	8.1
2025-01-28 18:22:42.404280	132.6	26.4	-92.0	10.7
2025-01-28 18:22:44.720976	132.4	26.8	-92.4	11.6
2025-01-28 18:22:47.035037	132.3	27.2	-92.2	7.8
2025-01-28 18:22:49.357577	132.1	27.5	-92.0	7.2
2025-01-28 18:22:51.657842	131.9	27.9	-92.4	6.4
2025-01-28 18:22:53.964409	131.8	28.3	-92.6	5.1
2025-01-28 18:22:56.285989	131.6	28.7	-92.1	12.3
2025-01-28 18:22:58.591448	131.4	29.1	-92.1	3.8
2025-01-28 18:23:00.897889	131.2	29.5	-92.6	6.4
2025-01-28 18:23:03.209473	131.1	30.0	-92.4	7.0
2025-01-28 18:23:05.520271	130.9	30.4	-92.9	7.1
2025-01-28 18:23:07.835621	130.7	30.8	-92.4	8.5
2025-01-28 18:23:10.139072	130.5	31.2	-92.1	8.2
2025-01-28 18:23:12.451796	130.3	31.7	-92.8	5.9
2025-01-28 18:23:14.765163	130.1	32.1	-92.9	11.2
2025-01-28 18:23:17.075703	129.9	32.6	-92.0	11.6
2025-01-28 18:23:19.388831	129.6	33.0	-91.9	8.3
2025-01-28 18:23:21.702666	129.4	33.5	-92.6	5.3
2025-01-28 18:23:24.020277	129.2	34.0	-92.6	6.6
2025-01-28 18:23:26.334191	128.9	34.5	-92.1	9.5
2025-01-28 18:23:28.639653	128.7	35.0	-91.2	11.6
2025-01-28 18:23:30.944280	128.4	35.4	-90.9	8.8
2025-01-28 18:23:33.254735	128.1	36.0	-91.9	13.5
2025-01-28 18:23:35.577927	127.9	36.5	-92.6	14.1
2025-01-28 18:23:37.901027	127.6	37.0	-92.6	13.3
2025-01-28 18:23:40.202428	127.3	37.5	-92.0	20.7
2025-01-28 18:23:42.516267	127.0	38.0	-92.7	15.7
2025-01-28 18:23:44.823515	126.7	38.6	-92.8	13.5
2025-01-28 18:23:47.130867	126.3	39.1	-92.3	11.1
2025-01-28 18:23:49.443507	126.0	39.7	-92.3	9.2
2025-01-28 18:23:51.777871	125.7	40.2	-92.5	16.1
2025-01-28 18:23:54.096038	125.3	40.8	-92.4	13.9
2025-01-28 18:23:56.412025	124.9	41.4	-92.7	9.8
2025-01-28 18:23:58.734301	124.5	42.0	-93.0	16.2
2025-01-28 18:24:01.035494	124.1	42.5	-92.5	11.9
2025-01-28 18:24:03.354255	123.7	43.1	-92.2	11.1
2025-01-28 18:24:05.664160	123.3	43.8	-92.5	14.3
2025-01-28 18:24:07.976024	122.8	44.4	-93.1	4.9
2025-01-28 18:24:10.302640	122.3	45.0	-92.1	15.9
2025-01-28 18:24:12.619035	121.8	45.6	-92.9	13.9
2025-01-28 18:24:14.936445	121.3	46.3	-92.7	13.3
2025-01-28 18:24:17.246592	120.8	46.9	-92.4	17.6
2025-01-28 18:24:19.570896	120.2	47.6	-92.9	11.8
2025-01-28 18:24:21.879130	119.7	48.2	-92.5	13.0
2025-01-28 18:24:24.195118	119.1	48.9	-92.6	3.5
2025-01-28 18:24:26.500299	118.4	49.5	-92.7	8.5
2025-01-28 18:24:28.829095	117.8	50.2	-92.8	9.1
2025-01-28 18:24:31.135149	117.1	50.9	-90.8	8.2
2025-01-28 18:24:33.443390	116.4	51.6	-90.9	7.4
2025-01-28 18:24:35.767792	115.6	52.3	-92.5	17.2
2025-01-28 18:24:38.089494	114.8	53.0	-92.4	5.4
2025-01-28 18:24:40.393890	114.0	53.7	-92.4	12.8
2025-01-28 18:24:42.705879	113.1	54.4	-92.7	15.5
2025-01-28 18:24:45.017894	112.2	55.1	-93.1	12.7
2025-01-28 18:24:47.337822	111.2	55.8	-92.1	15.7
2025-01-28 18:24:49.661922	110.2	56.5	-92.7	16.8
2025-01-28 18:24:51.979899	109.1	57.2	-92.6	8.1
2025-01-28 18:24:54.293400	108.0	57.9	-91.3	6.9
2025-01-28 18:24:56.592960	106.8	58.6	-92.6	15.4
2025-01-28 18:24:58.905739	105.5	59.3	-92.5	13.6
2025-01-28 18:25:01.198968	104.2	60.0	-92.0	6.2
2025-01-28 18:25:03.507425	102.8	60.7	-92.6	14.5
2025-01-28 18:25:05.823067	101.3	61.4	-92.4	17.9
2025-01-28 18:25:08.117897	99.8	62.1	-91.8	17.1
2025-01-28 18:25:10.425807	98.1	62.7	-92.4	13.0
2025-01-28 18:25:12.729544	96.4	63.3	-92.5	17.6
2025-01-28 18:25:15.037685	94.6	64.0	-92.3	17.8
2025-01-28 18:25:17.347297	92.7	64.6	-91.9	17.0
2025-01-28 18:25:19.651958	90.6	65.1	-92.6	24.3
2025-01-28 18:25:21.976764	88.5	65.7	-92.7	16.2
2025-01-28 18:25:24.287631	86.2	66.2	-92.0	11.0
2025-01-28 18:25:26.606271	83.9	66.7	-92.3	5.9
2025-01-28 18:25:28.913728	81.4	67.2	-92.3	10.2
2025-01-28 18:25:31.233143	78.8	67.6	-92.2	11.5
2025-01-28 18:25:33.550703	76.1	68.0	-92.2	9.1
2025-01-28 18:25:35.867381	73.4	68.3	-90.7	9.6
2025-01-28 18:25:38.172281	70.5	68.6	-90.2	11.4
2025-01-28 18:25:40.485551	67.6	68.8	-92.4	16.3
2025-01-28 18:25:42.788740	64.6	69.0	-92.4	10.1
2025-01-28 18:25:45.103891	61.5	69.1	-92.0	16.0
2025-01-28 18:25:47.416080	58.5	69.2	-92.5	16.4
2025-01-28 18:25:49.727421	55.4	69.2	-92.6	17.7
2025-01-28 18:25:52.048962	52.3	69.2	-92.5	8.8
2025-01-28 18:25:54.358599	49.2	69.1	-92.6	11.4
2025-01-28 18:25:56.674879	46.2	68.9	-92.7	17.4
2025-01-28 18:25:58.999081	43.2	68.7	-92.7	11.0
2025-01-28 18:26:01.303247	40.3	68.5	-92.1	8.3
2025-01-28 18:26:03.619766	37.4	68.2	-92.5	13.5
2025-01-28 18:26:05.942445	34.7	67.8	-92.9	11.4
2025-01-28 18:26:08.246326	32.1	67.4	-92.0	16.7
2025-01-28 18:26:10.554830	29.6	67.0	-93.0	6.0
2025-01-28 18:26:12.866064	27.1	66.5	-92.9	9.1
2025-01-28 18:26:15.172314	24.8	66.0	-91.9	17.4
2025-01-28 18:26:17.481053	22.6	65.5	-92.8	14.1
2025-01-28 18:26:19.799247	20.5	64.9	-92.3	19.6
2025-01-28 18:26:22.115184	18.5	64.3	-92.0	18.4
2025-01-28 18:26:24.424050	16.6	63.7	-92.5	13.3
2025-01-28 18:26:26.726605	14.8	63.1	-92.6	22.5
2025-01-28 18:26:29.030322	13.1	62.4	-92.5	16.0
2025-01-28 18:26:31.343247	11.5	61.8	-92.2	19.4
2025-01-28 18:26:33.663000	10.0	61.1	-92.4	22.7
2025-01-28 18:26:35.966127	8.6	60.4	-92.5	14.2
2025-01-28 18:26:38.285592	7.2	59.7	-92.3	20.4
2025-01-28 18:26:40.597246	5.9	59.0	-91.0	14.3
2025-01-28 18:26:42.904383	4.7	58.3	-90.8	11.0
2025-01-28 18:26:45.217691	3.5	57.6	-91.7	20.2
2025-01-28 18:26:47.528811	2.4	56.9	-92.9	11.7
2025-01-28 18:26:49.853306	1.3	56.2	-92.4	13.2
2025-01-28 18:26:52.157503	0.4	55.5	-92.6	15.8
2025-01-28 18:26:54.469969	359.4	54.8	-92.7	10.9
2025-01-28 18:26:56.786857	358.5	54.1	-92.7	19.0
2025-01-28 18:26:59.085783	357.7	53.4	-92.2	17.0
2025-01-28 18:27:01.385297	356.8	52.7	-92.2	18.7
2025-01-28 18:27:03.696731	356.1	52.0	-92.3	16.5
2025-01-28 18:27:06.003194	355.3	51.3	-92.5	16.7
2025-01-28 18:27:08.321427	354.6	50.6	-92.0	13.8
2025-01-28 18:27:10.625459	353.9	49.9	-92.9	16.7
2025-01-28 18:27:12.929224	353.3	49.3	-92.2	12.8
2025-01-28 18:27:15.236828	352.7	48.6	-92.4	15.5
2025-01-28 18:27:17.550839	352.1	47.9	-92.6	10.2
2025-01-28 18:27:19.865327	351.5	47.3	-92.8	10.9
2025-01-28 18:27:22.167055	351.0	46.6	-92.2	16.6
2025-01-28 18:27:24.486885	350.4	46.0	-92.1	14.6
2025-01-28 18:27:26.791563	349.9	45.4	-92.7	19.6
2025-01-28 18:27:29.107948	349.5	44.7	-92.4	20.7
2025-01-28 18:27:31.423875	349.0	44.1	-92.8	19.7
2025-01-28 18:27:33.726269	348.5	43.5	-92.5	20.9
2025-01-28 18:27:36.043189	348.1	42.9	-92.3	17.7
2025-01-28 18:27:38.355693	347.7	42.3	-92.2	13.8
2025-01-28 18:27:40.658102	347.3	41.7	-92.7	19.4
2025-01-28 18:27:42.968270	346.9	41.1	-92.6	9.6
2025-01-28 18:27:45.283933	346.6	40.6	-90.5	14.0
2025-01-28 18:27:47.599656	346.2	40.0	-91.2	11.7
2025-01-28 18:27:49.913578	345.8	39.4	-92.5	18.4
2025-01-28 18:27:52.231500	345.5	38.9	-92.1	11.5
2025-01-28 18:27:54.537589	345.2	38.4	-92.4	17.4
2025-01-28 18:27:56.847242	344.9	37.8	-92.8	9.8
2025-01-28 18:27:59.155071	344.6	37.3	-92.0	14.0
2025-01-28 18:28:01.454289	344.3	36.8	-92.8	8.2
2025-01-28 18:28:03.773642	344.0	36.3	-92.7	17.1
2025-01-28 18:28:06.083936	343.7	35.8	-92.4	16.4
2025-01-28 18:28:08.391306	343.5	35.3	-92.5	12.7
2025-01-28 18:28:10.706574	343.2	34.8	-92.4	10.7
2025-01-28 18:28:13.016108	343.0	34.3	-92.4	11.3
2025-01-28 18:28:15.319788	342.7	33.8	-92.1	14.4
2025-01-28 18:28:17.631277	342.5	33.3	-92.3	15.5
2025-01-28 18:28:19.948022	342.3	32.9	-92.6	8.3
2025-01-28 18:28:22.265475	342.1	32.4	-92.0	9.8
2025-01-28 18:28:24.577386	341.8	32.0	-92.3	9.3
2025-01-28 18:28:26.887060	341.6	31.5	-93.2	9.4
2025-01-28 18:28:29.204586	341.4	31.1	-92.2	4.8
2025-01-28 18:28:31.511674	341.2	30.6	-93.0	10.0
2025-01-28 18:28:33.818533	341.0	30.2	-93.1	14.4
2025-01-28 18:28:36.132366	340.9	29.8	-92.2	10.4
2025-01-28 18:28:38.439805	340.7	29.4	-92.5	3.8
2025-01-28 18:28:40.757021	340.5	29.0	-92.6	12.3
2025-01-28 18:28:43.077105	340.3	28.6	-92.2	8.3
2025-01-28 18:28:45.384110	340.2	28.2	-92.8	8.8
2025-01-28 18:28:47.693970	340.0	27.8	-92.4	12.9
2025-01-28 18:28:49.992411	339.8	27.4	-91.1	5.9
2025-01-28 18:28:52.306159	339.7	27.0	-90.7	9.6
2025-01-28 18:28:54.613836	339.5	26.6	-92.6	14.2
2025-01-28 18:28:56.909969	339.4	26.2	-92.2	16.5
2025-01-28 18:28:59.225469	339.2	25.9	-92.3	11.3
2025-01-28 18:29:01.536212	339.1	25.5	-92.7	14.9
2025-01-28 18:29:03.851638	339.0	25.2	-92.7	9.0
2025-01-28 18:29:06.163403	338.8	24.8	-92.4	10.7
2025-01-28 18:29:08.478501	338.7	24.4	-92.6	11.4
2025-01-28 18:29:10.790461	338.6	24.1	-92.8	10.1
2025-01-28 18:29:13.114560	338.5	23.8	-92.1	15.7
2025-01-28 18:29:15.422673	338.3	23.4	-92.3	11.6
2025-01-28 18:29:17.727220	338.2	23.1	-92.8	19.6
2025-01-28 18:29:20.050306	338.1	22.8	-92.7	6.7
2025-01-28 18:29:22.369431	338.0	22.4	-92.4	10.7
2025-01-28 18:29:24.676283	337.9	22.1	-92.6	15.9
2025-01-28 18:29:26.979416	337.8	21.8	-92.5	15.3
2025-01-28 18:29:29.276887	337.7	21.5	-91.9	13.7
2025-01-28 18:29:31.524465	337.6	21.2	-92.7	8.9
2025-01-28 18:29:33.768532	337.5	20.9	-92.6	9.5
2025-01-28 18:29:36.009190	337.4	20.6	-92.8	10.2
2025-01-28 18:29:38.250039	337.3	20.3	-92.2	9.1
2025-01-28 18:29:40.504254	337.2	20.0	-92.7	6.0
2025-01-28 18:29:42.810577	337.1	19.7	-92.6	5.4
2025-01-28 18:29:45.119840	337.0	19.4	-92.0	4.0
2025-01-28 18:29:47.422288	336.9	19.1	-92.4	5.2
2025-01-28 18:29:49.743031	336.8	18.9	-92.4	6.9
2025-01-28 18:29:52.045789	336.7	18.6	-92.8	9.0
2025-01-28 18:29:54.358262	336.6	18.3	-91.2	9.3
2025-01-28 18:29:56.676621	336.6	18.0	-92.4	5.5
2025-01-28 18:29:58.984399	336.5	17.8	-92.8	3.8
2025-01-28 18:30:01.281942	336.4	17.5	-92.4	6.3
2025-01-28 18:30:03.601740	336.3	17.2	-92.9	2.2
2025-01-28 18:30:05.910051	336.2	17.0	-92.4	6.0
2025-01-28 18:30:08.209353	336.2	16.7	-92.0	5.7
2025-01-28 18:30:10.523447	336.1	16.5	-92.6	4.3
2025-01-28 18:30:12.822924	336.0	16.2	-92.6	4.4
2025-01-28 18:30:15.138116	335.9	15.9	-92.3	5.5
2025-01-28 18:30:17.450047	335.9	15.7	-92.4	4.2
2025-01-28 18:30:19.747397	335.8	15.4	-92.7	4.6
2025-01-28 18:30:22.070274	335.7	15.2	-92.2	3.7
2025-01-28 18:30:24.389243	335.7	15.0	-92.8	7.6
2025-01-28 18:30:26.700381	335.6	14.7	-92.7	5.1
2025-01-28 18:30:29.100941	335.5	14.5	-92.0	2.9
#Closed at: 2025-01-28 18:21:19.243944