passes_logs/2025/01/28/LEX_Murmansk/LEX_Murmansk__20250128_112039_NOAA_19_rec.log

#Pass ID: 20250128_112039_NOAA 19
#Satellite: NOAA 19
#Configuration: NOAA 19
#Start time: 2025-01-28 11:20:35.014703

#LorettStation: 1.0.0 05.05.2024
#Station: LEX_Murmansk
#Location: 33.156738 lon 68.926811 lat
#TLE: 1 33591U 09005A   25027.18125374  .00000353  00000+0  21226-3 0  9998
#TLE: 2 33591  99.0174  91.0366 0013998  24.4913 335.6921 14.13269986823260

#Time	Az	El	Level	SNR
2025-01-28 11:20:49.141590	24.6	16.3	-88.7	3.4
2025-01-28 11:20:50.298413	24.4	16.4	-88.8	2.6
2025-01-28 11:20:51.465259	24.3	16.5	-88.8	1.7
2025-01-28 11:20:52.620290	24.2	16.6	-89.0	2.6
2025-01-28 11:20:53.751979	24.0	16.7	-88.8	0.9
2025-01-28 11:20:54.916963	23.9	16.8	-88.9	2.6
2025-01-28 11:20:56.077597	23.7	16.9	-89.3	0.4
2025-01-28 11:20:57.241676	23.6	17.0	-89.4	1.0
2025-01-28 11:20:58.401603	23.4	17.1	-89.7	2.1
2025-01-28 11:20:59.556947	23.2	17.2	-89.7	6.1
2025-01-28 11:21:00.713430	23.1	17.3	-89.8	4.3
2025-01-28 11:21:01.873402	22.9	17.4	-89.8	7.1
2025-01-28 11:21:03.031383	22.8	17.5	-90.0	10.1
2025-01-28 11:21:04.196839	22.6	17.6	-89.9	7.3
2025-01-28 11:21:05.355890	22.5	17.8	-90.0	7.3
2025-01-28 11:21:06.520786	22.3	17.9	-89.6	4.2
2025-01-28 11:21:07.678166	22.1	18.0	-89.7	4.7
2025-01-28 11:21:08.843090	22.0	18.1	-90.0	7.1
2025-01-28 11:21:10.007843	21.8	18.2	-89.6	6.4
2025-01-28 11:21:11.170680	21.6	18.3	-89.5	7.6
2025-01-28 11:21:12.331971	21.5	18.4	-89.5	3.1
2025-01-28 11:21:13.493346	21.3	18.5	-89.6	3.8
2025-01-28 11:21:14.656792	21.1	18.6	-89.1	3.9
2025-01-28 11:21:15.820251	21.0	18.7	-89.7	1.7
2025-01-28 11:21:16.979642	20.8	18.9	-89.9	1.5
2025-01-28 11:21:18.136489	20.6	19.0	-89.8	4.7
2025-01-28 11:21:19.299836	20.4	19.1	-89.9	5.1
2025-01-28 11:21:20.460630	20.3	19.2	-89.9	9.9
2025-01-28 11:21:21.625806	20.1	19.3	-90.0	6.8
2025-01-28 11:21:22.789071	19.9	19.4	-90.1	4.4
2025-01-28 11:21:23.948416	19.7	19.5	-90.0	7.6
2025-01-28 11:21:25.110461	19.5	19.6	-89.8	4.0
2025-01-28 11:21:26.271831	19.4	19.7	-89.8	2.4
2025-01-28 11:21:27.431614	19.2	19.9	-90.0	6.3
2025-01-28 11:21:28.594783	19.0	20.0	-90.0	5.8
2025-01-28 11:21:29.757152	18.8	20.1	-89.8	10.4
2025-01-28 11:21:30.915476	18.6	20.2	-89.9	8.9
2025-01-28 11:21:32.080849	18.4	20.3	-89.8	5.2
2025-01-28 11:21:33.236100	18.2	20.4	-89.7	3.1
2025-01-28 11:21:34.398201	18.0	20.5	-89.4	2.8
2025-01-28 11:21:35.557068	17.9	20.7	-89.9	1.7
2025-01-28 11:21:36.716008	17.7	20.8	-90.0	1.9
2025-01-28 11:21:37.876143	17.5	20.9	-89.8	4.8
2025-01-28 11:21:39.038163	17.3	21.0	-89.4	7.0
2025-01-28 11:21:40.209211	17.1	21.1	-89.8	8.6
2025-01-28 11:21:41.370273	16.9	21.2	-89.8	7.1
2025-01-28 11:21:42.531722	16.7	21.3	-89.7	9.2
2025-01-28 11:21:43.694471	16.5	21.5	-89.7	8.5
2025-01-28 11:21:44.862486	16.2	21.6	-89.5	4.3
2025-01-28 11:21:46.023317	16.0	21.7	-88.6	7.5
2025-01-28 11:21:47.194784	15.8	21.8	-89.3	4.4
2025-01-28 11:21:48.355956	15.6	21.9	-89.4	4.3
2025-01-28 11:21:49.520402	15.4	22.0	-89.3	5.2
2025-01-28 11:21:50.684096	15.2	22.1	-89.6	5.9
2025-01-28 11:21:51.847052	15.0	22.3	-89.3	5.4
2025-01-28 11:21:53.004776	14.8	22.4	-89.1	6.3
2025-01-28 11:21:54.164680	14.5	22.5	-89.3	3.2
2025-01-28 11:21:55.322853	14.3	22.6	-90.2	4.5
2025-01-28 11:21:56.482223	14.1	22.7	-90.1	3.3
2025-01-28 11:21:57.644066	13.9	22.8	-89.9	5.8
2025-01-28 11:21:58.798053	13.6	23.0	-90.4	7.0
2025-01-28 11:21:59.955482	13.4	23.1	-90.7	6.9
2025-01-28 11:22:01.112022	13.2	23.2	-90.2	11.0
2025-01-28 11:22:02.274016	13.0	23.3	-90.3	12.3
2025-01-28 11:22:03.438167	12.7	23.4	-90.2	8.2
2025-01-28 11:22:04.606937	12.5	23.5	-90.4	9.3
2025-01-28 11:22:05.768592	12.3	23.7	-90.4	4.8
2025-01-28 11:22:06.935405	12.0	23.8	-90.0	6.3
2025-01-28 11:22:08.098619	11.8	23.9	-90.1	9.0
2025-01-28 11:22:09.253531	11.5	24.0	-90.2	7.7
2025-01-28 11:22:10.416470	11.3	24.1	-90.2	9.6
2025-01-28 11:22:11.578910	11.1	24.2	-90.5	5.5
2025-01-28 11:22:12.740177	10.8	24.3	-90.7	5.4
2025-01-28 11:22:13.900201	10.6	24.5	-90.4	4.9
2025-01-28 11:22:15.056463	10.3	24.6	-90.6	1.6
2025-01-28 11:22:16.215858	10.1	24.7	-90.8	3.4
2025-01-28 11:22:17.375224	9.8	24.8	-90.4	3.5
2025-01-28 11:22:18.531215	9.6	24.9	-90.3	1.9
2025-01-28 11:22:19.697025	9.3	25.0	-90.4	3.5
2025-01-28 11:22:20.858298	9.0	25.1	-90.2	5.4
2025-01-28 11:22:22.021919	8.8	25.3	-90.3	4.4
2025-01-28 11:22:23.176321	8.5	25.4	-90.2	9.9
2025-01-28 11:22:24.336235	8.2	25.5	-90.2	8.7
2025-01-28 11:22:25.497716	8.0	25.6	-90.3	9.0
2025-01-28 11:22:26.665298	7.7	25.7	-90.3	7.3
2025-01-28 11:22:27.825575	7.4	25.8	-90.3	6.3
2025-01-28 11:22:28.992043	7.2	25.9	-90.3	7.6
2025-01-28 11:22:30.161509	6.9	26.1	-90.4	5.8
2025-01-28 11:22:31.321077	6.6	26.2	-90.0	5.9
2025-01-28 11:22:32.475650	6.3	26.3	-90.3	5.9
2025-01-28 11:22:33.632894	6.1	26.4	-90.6	6.5
2025-01-28 11:22:34.795047	5.8	26.5	-90.5	7.4
2025-01-28 11:22:35.954141	5.5	26.6	-90.3	7.2
2025-01-28 11:22:37.114296	5.2	26.7	-89.7	7.6
2025-01-28 11:22:38.272348	4.9	26.8	-89.9	3.9
2025-01-28 11:22:39.434082	4.6	27.0	-90.2	2.0
2025-01-28 11:22:40.589087	4.3	27.1	-90.0	3.4
2025-01-28 11:22:41.763116	4.0	27.2	-90.5	3.9
2025-01-28 11:22:42.924136	3.7	27.3	-90.5	3.2
2025-01-28 11:22:44.087767	3.4	27.4	-90.3	4.8
2025-01-28 11:22:45.255257	3.1	27.5	-90.2	3.2
2025-01-28 11:22:46.420424	2.8	27.6	-90.4	4.8
2025-01-28 11:22:47.590097	2.5	27.7	-90.2	6.6
2025-01-28 11:22:48.759358	2.2	27.8	-90.8	7.9
2025-01-28 11:22:49.922190	1.9	27.9	-90.6	6.2
2025-01-28 11:22:51.087748	1.6	28.0	-90.3	4.3
2025-01-28 11:22:52.251283	1.3	28.1	-90.1	3.5
2025-01-28 11:22:53.417460	1.0	28.2	-90.0	3.5
2025-01-28 11:22:54.577442	0.6	28.4	-89.4	3.0
2025-01-28 11:22:55.749248	0.3	28.5	-89.6	4.0
2025-01-28 11:22:56.911843	360.0	28.6	-89.7	4.8
2025-01-28 11:22:58.077415	359.7	28.7	-89.6	7.6
2025-01-28 11:22:59.238979	359.3	28.8	-89.9	7.5
2025-01-28 11:23:00.400006	359.0	28.9	-90.3	7.9
2025-01-28 11:23:01.573824	358.7	29.0	-90.2	5.9
2025-01-28 11:23:02.735264	358.4	29.1	-90.5	3.9
2025-01-28 11:23:03.904933	358.0	29.2	-90.6	4.8
2025-01-28 11:23:05.070984	357.7	29.3	-90.3	5.3
2025-01-28 11:23:06.236748	357.3	29.4	-90.1	4.3
2025-01-28 11:23:07.395087	357.0	29.5	-90.2	3.1
2025-01-28 11:23:08.560980	356.7	29.6	-90.4	4.1
2025-01-28 11:23:09.719034	356.3	29.6	-90.2	1.4
2025-01-28 11:23:10.880766	356.0	29.7	-89.8	5.2
2025-01-28 11:23:12.048744	355.6	29.8	-90.0	3.9
2025-01-28 11:23:13.205678	355.3	29.9	-90.1	6.2
2025-01-28 11:23:14.369696	354.9	30.0	-90.2	9.5
2025-01-28 11:23:15.533929	354.6	30.1	-90.4	8.0
2025-01-28 11:23:16.693636	354.2	30.2	-90.4	9.6
2025-01-28 11:23:17.849524	353.8	30.3	-90.0	11.3
2025-01-28 11:23:19.005743	353.5	30.4	-89.9	9.0
2025-01-28 11:23:20.167748	353.1	30.5	-90.3	7.6
2025-01-28 11:23:21.331271	352.8	30.5	-90.3	7.1
2025-01-28 11:23:22.501089	352.4	30.6	-90.5	7.3
2025-01-28 11:23:23.654741	352.0	30.7	-90.5	4.2
2025-01-28 11:23:24.817057	351.7	30.8	-89.9	4.7
2025-01-28 11:23:25.977760	351.3	30.9	-90.3	8.3
2025-01-28 11:23:27.146131	350.9	30.9	-90.0	5.2
2025-01-28 11:23:28.306588	350.5	31.0	-89.7	4.8
2025-01-28 11:23:29.472478	350.2	31.1	-90.1	9.4
2025-01-28 11:23:30.633826	349.8	31.2	-90.2	8.7
2025-01-28 11:23:31.792091	349.4	31.3	-89.6	6.4
2025-01-28 11:23:32.953330	349.0	31.3	-89.5	8.3
2025-01-28 11:23:34.115969	348.6	31.4	-89.9	7.8
2025-01-28 11:23:35.277679	348.2	31.5	-89.8	5.4
2025-01-28 11:23:36.441408	347.9	31.5	-90.1	7.0
2025-01-28 11:23:37.600256	347.5	31.6	-90.2	4.9
2025-01-28 11:23:38.760464	347.1	31.7	-90.2	3.8
2025-01-28 11:23:39.927880	346.7	31.7	-89.8	5.1
2025-01-28 11:23:41.088906	346.3	31.8	-89.9	4.3
2025-01-28 11:23:42.256916	345.9	31.9	-90.0	2.9
2025-01-28 11:23:43.421629	345.5	31.9	-89.8	3.9
2025-01-28 11:23:44.585098	345.1	32.0	-89.9	5.3
2025-01-28 11:23:45.756110	344.7	32.0	-90.2	4.2
2025-01-28 11:23:46.919338	344.3	32.1	-90.2	7.5
2025-01-28 11:23:48.083812	343.9	32.2	-90.0	8.7
2025-01-28 11:23:49.249462	343.5	32.2	-89.4	8.3
2025-01-28 11:23:50.412286	343.1	32.3	-89.9	9.6
2025-01-28 11:23:51.576412	342.7	32.3	-89.9	11.4
2025-01-28 11:23:52.731882	342.3	32.4	-90.1	11.5
2025-01-28 11:23:53.896420	341.9	32.4	-89.9	12.0
2025-01-28 11:23:55.060308	341.4	32.5	-90.0	12.7
2025-01-28 11:23:56.224837	341.0	32.5	-89.4	10.8
2025-01-28 11:23:57.388623	340.6	32.5	-89.5	10.0
2025-01-28 11:23:58.552314	340.2	32.6	-89.6	10.5
2025-01-28 11:23:59.715893	339.8	32.6	-89.4	4.7
2025-01-28 11:24:00.866767	339.4	32.7	-89.7	5.4
2025-01-28 11:24:02.030004	339.0	32.7	-90.1	6.8
2025-01-28 11:24:03.189870	338.5	32.7	-89.9	7.0
2025-01-28 11:24:04.356409	338.1	32.8	-90.1	4.2
2025-01-28 11:24:05.514789	337.7	32.8	-90.0	8.5
2025-01-28 11:24:06.674333	337.3	32.8	-90.1	4.2
2025-01-28 11:24:07.846315	336.9	32.9	-90.2	4.8
2025-01-28 11:24:09.010568	336.4	32.9	-90.6	7.2
2025-01-28 11:24:10.169659	336.0	32.9	-90.2	6.2
2025-01-28 11:24:11.331999	335.6	32.9	-90.6	5.5
2025-01-28 11:24:12.492804	335.2	32.9	-90.2	10.4
2025-01-28 11:24:13.653673	334.7	33.0	-90.6	11.4
2025-01-28 11:24:14.820866	334.3	33.0	-90.4	12.1
2025-01-28 11:24:15.978705	333.9	33.0	-90.9	14.3
2025-01-28 11:24:17.142854	333.5	33.0	-90.4	13.1
2025-01-28 11:24:18.299142	333.0	33.0	-90.1	10.3
2025-01-28 11:24:19.462005	332.6	33.0	-90.2	12.6
2025-01-28 11:24:20.622971	332.2	33.0	-90.7	10.8
2025-01-28 11:24:21.790531	331.8	33.0	-90.5	9.5
2025-01-28 11:24:22.945337	331.3	33.0	-90.3	8.9
2025-01-28 11:24:24.109197	330.9	33.0	-90.6	9.4
2025-01-28 11:24:25.274668	330.5	33.0	-90.7	9.0
2025-01-28 11:24:26.439006	330.1	33.0	-90.6	10.3
2025-01-28 11:24:27.603834	329.6	33.0	-90.5	9.7
2025-01-28 11:24:28.780527	329.2	33.0	-89.9	5.8
2025-01-28 11:24:29.935658	328.8	33.0	-90.3	8.2
2025-01-28 11:24:31.097088	328.4	33.0	-89.7	6.9
2025-01-28 11:24:32.256583	327.9	33.0	-89.8	4.0
2025-01-28 11:24:33.416694	327.5	33.0	-89.8	5.9
2025-01-28 11:24:34.584540	327.1	33.0	-90.1	4.6
2025-01-28 11:24:35.743106	326.7	33.0	-90.4	3.8
2025-01-28 11:24:36.909575	326.2	33.0	-90.3	6.8
2025-01-28 11:24:38.076432	325.8	32.9	-90.1	6.0
2025-01-28 11:24:39.228917	325.4	32.9	-90.0	4.2
2025-01-28 11:24:40.393847	325.0	32.9	-90.4	4.8
2025-01-28 11:24:41.556381	324.5	32.9	-90.8	6.4
2025-01-28 11:24:42.719735	324.1	32.8	-89.6	3.4
2025-01-28 11:24:43.875069	323.7	32.8	-89.7	4.6
2025-01-28 11:24:45.031182	323.3	32.8	-89.6	7.4
2025-01-28 11:24:46.190583	322.9	32.8	-89.7	3.6
2025-01-28 11:24:47.352340	322.4	32.7	-89.6	1.9
2025-01-28 11:24:48.514224	322.0	32.7	-89.8	7.0
2025-01-28 11:24:49.650172	321.6	32.6	-90.1	5.6
2025-01-28 11:24:50.803566	321.2	32.6	-89.9	2.8
2025-01-28 11:24:51.960108	320.8	32.6	-90.2	7.0
2025-01-28 11:24:53.116992	320.4	32.5	-90.2	7.8
2025-01-28 11:24:54.280244	320.0	32.5	-90.0	4.9
2025-01-28 11:24:55.439903	319.6	32.4	-89.9	7.1
2025-01-28 11:24:56.593968	319.2	32.4	-90.6	7.6
2025-01-28 11:24:57.754802	318.7	32.3	-89.9	4.6
2025-01-28 11:24:58.919082	318.3	32.3	-90.0	5.3
2025-01-28 11:25:00.079639	317.9	32.2	-90.1	6.3
2025-01-28 11:25:01.234953	317.5	32.2	-90.3	6.3
2025-01-28 11:25:02.396062	317.1	32.1	-90.2	6.7
2025-01-28 11:25:03.557269	316.7	32.1	-90.5	9.6
2025-01-28 11:25:04.716352	316.3	32.0	-90.2	6.8
2025-01-28 11:25:05.883799	315.9	32.0	-90.2	7.7
2025-01-28 11:25:07.044521	315.5	31.9	-89.6	6.7
2025-01-28 11:25:08.203562	315.1	31.9	-89.6	5.4
2025-01-28 11:25:09.363799	314.7	31.8	-89.9	5.0
2025-01-28 11:25:10.529034	314.3	31.7	-90.0	8.5
2025-01-28 11:25:11.686638	314.0	31.7	-89.4	5.5
2025-01-28 11:25:12.855826	313.6	31.6	-89.7	7.8
2025-01-28 11:25:14.011747	313.2	31.5	-89.8	7.7
2025-01-28 11:25:15.175823	312.8	31.5	-90.0	7.8
2025-01-28 11:25:16.336727	312.4	31.4	-89.9	7.7
2025-01-28 11:25:17.497462	312.0	31.3	-89.6	7.6
2025-01-28 11:25:18.664058	311.6	31.2	-89.9	7.1
2025-01-28 11:25:19.827710	311.3	31.2	-89.4	5.0
2025-01-28 11:25:20.994853	310.9	31.1	-89.5	8.5
2025-01-28 11:25:22.158845	310.5	31.0	-89.7	6.5
2025-01-28 11:25:23.314333	310.1	30.9	-90.2	6.2
2025-01-28 11:25:24.481271	309.8	30.8	-90.3	8.6
2025-01-28 11:25:25.645891	309.4	30.8	-90.2	7.7
2025-01-28 11:25:26.814706	309.0	30.7	-89.8	4.9
2025-01-28 11:25:27.974847	308.6	30.6	-89.8	7.9
2025-01-28 11:25:29.143142	308.3	30.5	-89.8	7.1
2025-01-28 11:25:30.295885	307.9	30.4	-90.1	4.0
2025-01-28 11:25:31.455116	307.6	30.3	-90.2	6.7
2025-01-28 11:25:32.614813	307.2	30.3	-90.2	7.3
2025-01-28 11:25:33.780394	306.8	30.2	-89.7	4.3
2025-01-28 11:25:34.946022	306.5	30.1	-89.9	5.3
2025-01-28 11:25:36.110476	306.1	30.0	-90.1	7.0
2025-01-28 11:25:37.275656	305.8	29.9	-89.9	2.6
2025-01-28 11:25:38.434450	305.4	29.8	-89.9	4.3
2025-01-28 11:25:39.591833	305.1	29.7	-90.2	6.8
2025-01-28 11:25:40.753322	304.7	29.6	-90.3	2.7
2025-01-28 11:25:41.920750	304.4	29.5	-90.3	4.6
2025-01-28 11:25:43.079882	304.0	29.4	-90.3	4.3
2025-01-28 11:25:44.241327	303.7	29.3	-90.4	3.4
2025-01-28 11:25:45.401960	303.4	29.2	-90.2	5.4
2025-01-28 11:25:46.565134	303.0	29.1	-90.6	5.4
2025-01-28 11:25:47.725034	302.7	29.0	-90.3	3.9
2025-01-28 11:25:48.878249	302.4	28.9	-90.4	6.1
2025-01-28 11:25:50.043992	302.0	28.8	-90.1	7.4
2025-01-28 11:25:51.202403	301.7	28.7	-89.9	6.3
2025-01-28 11:25:52.364522	301.4	28.6	-89.8	5.3
2025-01-28 11:25:53.521040	301.1	28.5	-90.2	8.9
2025-01-28 11:25:54.689618	300.8	28.4	-90.2	5.8
2025-01-28 11:25:55.853875	300.4	28.3	-90.4	7.6
2025-01-28 11:25:57.014996	300.1	28.2	-90.7	7.1
2025-01-28 11:25:58.177466	299.8	28.1	-90.4	8.3
2025-01-28 11:25:59.345346	299.5	28.0	-90.2	8.2
2025-01-28 11:26:00.495535	299.2	27.9	-90.1	10.4
2025-01-28 11:26:01.652651	298.9	27.8	-89.8	10.2
2025-01-28 11:26:02.819944	298.6	27.7	-90.1	9.3
2025-01-28 11:26:03.984070	298.3	27.6	-90.4	10.2
2025-01-28 11:26:05.146609	298.0	27.5	-90.1	8.7
2025-01-28 11:26:06.315636	297.7	27.4	-89.7	9.0
2025-01-28 11:26:07.475420	297.4	27.3	-90.2	8.3
2025-01-28 11:26:08.630412	297.1	27.2	-89.8	8.4
2025-01-28 11:26:09.795105	296.8	27.1	-89.9	7.6
2025-01-28 11:26:10.957183	296.5	26.9	-89.9	4.4
2025-01-28 11:26:12.119648	296.2	26.8	-90.1	5.8
2025-01-28 11:26:13.277305	295.9	26.7	-90.2	2.7
2025-01-28 11:26:14.436990	295.6	26.6	-90.2	5.7
2025-01-28 11:26:15.600143	295.3	26.5	-90.2	5.2
2025-01-28 11:26:16.766739	295.0	26.4	-90.4	2.8
2025-01-28 11:26:17.927324	294.8	26.3	-90.6	5.3
2025-01-28 11:26:19.088530	294.5	26.2	-90.2	5.2
2025-01-28 11:26:20.247601	294.2	26.1	-90.2	2.2
2025-01-28 11:26:21.413422	293.9	25.9	-89.7	5.1
2025-01-28 11:26:22.582181	293.7	25.8	-90.1	3.0
2025-01-28 11:26:23.737046	293.4	25.7	-89.7	2.6
2025-01-28 11:26:24.895513	293.1	25.6	-89.6	2.6
2025-01-28 11:26:26.058388	292.9	25.5	-89.1	2.9
2025-01-28 11:26:27.218436	292.6	25.4	-90.4	3.8
2025-01-28 11:26:28.378984	292.3	25.3	-90.3	4.8
2025-01-28 11:26:29.546295	292.1	25.1	-90.2	5.1
2025-01-28 11:26:30.706546	291.8	25.0	-89.9	4.8
2025-01-28 11:26:31.866905	291.6	24.9	-89.9	7.9
2025-01-28 11:26:33.026393	291.3	24.8	-90.2	8.2
2025-01-28 11:26:34.183667	291.0	24.7	-90.1	8.9
2025-01-28 11:26:35.340633	290.8	24.6	-89.6	8.1
2025-01-28 11:26:36.503217	290.5	24.5	-89.8	9.8
2025-01-28 11:26:37.662906	290.3	24.3	-89.9	10.7
2025-01-28 11:26:38.822353	290.1	24.2	-90.3	10.1
2025-01-28 11:26:39.981792	289.8	24.1	-89.8	8.5
2025-01-28 11:26:41.142212	289.6	24.0	-89.8	8.8
2025-01-28 11:26:42.307914	289.3	23.9	-90.1	8.4
2025-01-28 11:26:43.463358	289.1	23.8	-90.5	7.1
2025-01-28 11:26:44.624400	288.9	23.6	-90.5	8.7
2025-01-28 11:26:45.790247	288.6	23.5	-90.4	6.1
2025-01-28 11:26:46.952919	288.4	23.4	-90.3	4.0
2025-01-28 11:26:48.114450	288.2	23.3	-89.8	8.0
2025-01-28 11:26:49.276476	287.9	23.2	-89.9	9.1
2025-01-28 11:26:50.440371	287.7	23.1	-89.7	4.7
2025-01-28 11:26:51.606940	287.5	23.0	-89.6	5.5
2025-01-28 11:26:52.774928	287.2	22.8	-90.0	9.3
2025-01-28 11:26:53.928660	287.0	22.7	-90.8	7.0
2025-01-28 11:26:55.097320	286.8	22.6	-90.8	7.2
2025-01-28 11:26:56.262044	286.6	22.5	-90.4	7.9
2025-01-28 11:26:57.429070	286.4	22.4	-90.6	7.8
2025-01-28 11:26:58.594482	286.1	22.3	-90.6	7.6
2025-01-28 11:26:59.760163	285.9	22.1	-90.7	8.9
2025-01-28 11:27:00.915834	285.7	22.0	-89.6	5.0
2025-01-28 11:27:02.073640	285.5	21.9	-89.3	8.6
2025-01-28 11:27:03.234065	285.3	21.8	-89.5	5.8
2025-01-28 11:27:04.393739	285.1	21.7	-89.4	5.9
2025-01-28 11:27:05.558806	284.9	21.6	-89.4	5.5
2025-01-28 11:27:06.723219	284.7	21.5	-89.8	8.0
2025-01-28 11:27:07.886620	284.5	21.3	-89.8	3.9
2025-01-28 11:27:09.046896	284.3	21.2	-90.0	5.1
2025-01-28 11:27:10.217869	284.1	21.1	-89.6	7.3
2025-01-28 11:27:11.380243	283.9	21.0	-89.6	2.3
2025-01-28 11:27:12.539694	283.7	20.9	-89.5	5.0
2025-01-28 11:27:13.694996	283.5	20.8	-89.7	6.5
2025-01-28 11:27:14.856912	283.3	20.7	-89.5	8.1
2025-01-28 11:27:16.015664	283.1	20.5	-90.1	4.3
2025-01-28 11:27:17.169817	282.9	20.4	-90.0	7.1
2025-01-28 11:27:18.336883	282.7	20.3	-90.0	5.9
2025-01-28 11:27:19.500444	282.5	20.2	-89.7	6.8
2025-01-28 11:27:20.665281	282.3	20.1	-89.8	7.8
2025-01-28 11:27:21.827649	282.1	20.0	-89.5	9.2
2025-01-28 11:27:22.984349	282.0	19.9	-89.3	8.1
2025-01-28 11:27:24.146919	281.8	19.8	-89.2	9.6
2025-01-28 11:27:25.304506	281.6	19.6	-89.0	9.0
2025-01-28 11:27:26.465112	281.4	19.5	-89.5	7.9
2025-01-28 11:27:27.630083	281.2	19.4	-89.5	7.2
2025-01-28 11:27:28.789415	281.0	19.3	-89.3	7.3
2025-01-28 11:27:29.956824	280.9	19.2	-90.3	5.3
2025-01-28 11:27:31.119697	280.7	19.1	-90.2	6.8
2025-01-28 11:27:32.279147	280.5	19.0	-90.4	7.9
2025-01-28 11:27:33.440472	280.3	18.9	-90.0	4.2
2025-01-28 11:27:34.595291	280.2	18.8	-90.1	4.8
2025-01-28 11:27:35.754276	280.0	18.6	-90.3	8.6
2025-01-28 11:27:36.928144	279.8	18.5	-90.2	4.9
2025-01-28 11:27:38.088822	279.7	18.4	-90.1	6.8
2025-01-28 11:27:39.251995	279.5	18.3	-90.4	5.4
2025-01-28 11:27:40.424038	279.3	18.2	-90.6	5.5
2025-01-28 11:27:41.585348	279.2	18.1	-90.9	9.0
2025-01-28 11:27:42.757777	279.0	18.0	-90.7	6.9
2025-01-28 11:27:43.919366	278.8	17.9	-90.4	6.3
2025-01-28 11:27:45.088924	278.7	17.8	-90.2	6.2
2025-01-28 11:27:46.252289	278.5	17.7	-90.2	6.4
2025-01-28 11:27:47.414549	278.4	17.5	-90.3	5.7
2025-01-28 11:27:48.581383	278.2	17.4	-90.6	4.7
2025-01-28 11:27:49.742774	278.0	17.3	-90.4	9.2
2025-01-28 11:27:50.907614	277.9	17.2	-90.4	5.3
2025-01-28 11:27:52.066308	277.7	17.1	-90.4	5.3
2025-01-28 11:27:53.228212	277.6	17.0	-90.0	7.2
2025-01-28 11:27:54.389408	277.4	16.9	-90.2	5.6
2025-01-28 11:27:55.550864	277.3	16.8	-90.0	6.3
2025-01-28 11:27:56.718318	277.1	16.7	-89.9	9.6
2025-01-28 11:27:57.879100	277.0	16.6	-89.9	8.4
2025-01-28 11:27:59.047226	276.8	16.5	-90.3	8.9
2025-01-28 11:28:00.202073	276.7	16.4	-90.5	9.1
2025-01-28 11:28:01.358056	276.5	16.3	-89.2	10.5
2025-01-28 11:28:02.517105	276.4	16.2	-90.4	10.0
2025-01-28 11:28:03.682836	276.3	16.1	-90.6	8.4
2025-01-28 11:28:04.838609	276.1	16.0	-90.5	7.5
2025-01-28 11:28:06.001501	276.0	15.9	-90.3	6.9
2025-01-28 11:28:07.168829	275.8	15.8	-90.1	7.6
2025-01-28 11:28:08.326952	275.7	15.6	-89.8	6.5
2025-01-28 11:28:09.484961	275.5	15.5	-90.0	3.9
2025-01-28 11:28:10.646427	275.4	15.4	-90.1	5.9
2025-01-28 11:28:11.814175	275.3	15.3	-90.2	7.1
2025-01-28 11:28:12.968960	275.1	15.2	-90.3	3.2
2025-01-28 11:28:14.127222	275.0	15.1	-89.7	5.4
2025-01-28 11:28:15.288128	274.9	15.0	-90.2	4.3
2025-01-28 11:28:16.450307	274.7	14.9	-90.1	8.4
2025-01-28 11:28:17.614278	274.6	14.8	-89.4	6.2
2025-01-28 11:28:18.765914	274.5	14.7	-89.3	4.5
2025-01-28 11:28:19.929497	274.3	14.6	-89.4	4.2
#Closed at: 2025-01-28 11:20:39.921325