passes_logs/2025/01/28/LEX_Murmansk/LEX_Murmansk__20250128_194127_NOAA_19_rec.log

#Pass ID: 20250128_194127_NOAA 19
#Satellite: NOAA 19
#Configuration: NOAA 19
#Start time: 2025-01-28 19:41:22.527305

#LorettStation: 1.0.0 05.05.2024
#Station: LEX_Murmansk
#Location: 33.156738 lon 68.926811 lat
#TLE: 1 33591U 09005A   25027.88922411  .00000392  00000+0  23338-3 0  9991
#TLE: 2 33591  99.0173  91.7499 0013972  22.5257 337.6525 14.13270697823101

#Time	Az	El	Level	SNR
2025-01-28 19:41:34.772231	218.2	16.0	-92.2	3.7
2025-01-28 19:41:35.934230	218.4	16.1	-92.5	9.7
2025-01-28 19:41:37.082322	218.5	16.2	-92.0	4.1
2025-01-28 19:41:38.236728	218.7	16.3	-92.0	4.2
2025-01-28 19:41:39.390802	218.9	16.4	-92.2	5.8
2025-01-28 19:41:40.553925	219.0	16.5	-91.9	3.9
2025-01-28 19:41:41.711533	219.2	16.6	-91.7	5.0
2025-01-28 19:41:42.873377	219.4	16.7	-92.7	5.1
2025-01-28 19:41:44.035453	219.5	16.8	-92.4	5.9
2025-01-28 19:41:45.187052	219.7	16.9	-92.4	7.7
2025-01-28 19:41:46.339801	219.9	17.0	-92.2	7.8
2025-01-28 19:41:47.497170	220.1	17.1	-92.0	5.3
2025-01-28 19:41:48.657492	220.2	17.2	-92.6	3.7
2025-01-28 19:41:49.816885	220.4	17.3	-92.6	1.1
2025-01-28 19:41:50.969210	220.6	17.4	-92.3	4.0
2025-01-28 19:41:52.130596	220.8	17.5	-92.1	4.7
2025-01-28 19:41:53.286340	221.0	17.6	-92.2	2.4
2025-01-28 19:41:54.449948	221.1	17.7	-92.8	5.2
2025-01-28 19:41:55.598343	221.3	17.8	-92.1	6.2
2025-01-28 19:41:56.750152	221.5	17.9	-92.5	11.8
2025-01-28 19:41:57.905202	221.7	18.0	-92.2	8.3
2025-01-28 19:41:59.058517	221.9	18.1	-92.5	8.2
2025-01-28 19:42:00.211473	222.1	18.2	-91.8	6.2
2025-01-28 19:42:01.366362	222.3	18.3	-92.2	6.9
2025-01-28 19:42:02.520960	222.5	18.4	-92.4	6.0
2025-01-28 19:42:03.682262	222.6	18.5	-92.4	10.1
2025-01-28 19:42:04.839941	222.8	18.6	-92.7	9.6
2025-01-28 19:42:05.995036	223.0	18.7	-92.7	8.3
2025-01-28 19:42:07.157209	223.2	18.8	-92.3	9.4
2025-01-28 19:42:08.308224	223.4	18.9	-92.3	5.4
2025-01-28 19:42:09.470828	223.6	19.0	-92.6	4.4
2025-01-28 19:42:10.622542	223.8	19.1	-92.0	5.2
2025-01-28 19:42:11.785508	224.0	19.2	-92.1	1.8
2025-01-28 19:42:12.943018	224.2	19.3	-92.1	4.2
2025-01-28 19:42:14.100983	224.4	19.4	-91.8	5.4
2025-01-28 19:42:15.255435	224.6	19.5	-91.9	6.9
2025-01-28 19:42:16.420899	224.8	19.6	-91.0	8.8
2025-01-28 19:42:17.581011	225.0	19.7	-91.3	9.6
2025-01-28 19:42:18.735019	225.3	19.8	-91.0	8.8
2025-01-28 19:42:19.897191	225.5	19.9	-92.1	6.5
2025-01-28 19:42:21.057738	225.7	20.0	-91.9	7.4
2025-01-28 19:42:22.217027	225.9	20.1	-91.8	4.8
2025-01-28 19:42:23.373811	226.1	20.2	-91.9	9.2
2025-01-28 19:42:24.524017	226.3	20.3	-91.9	11.7
2025-01-28 19:42:25.676897	226.5	20.4	-92.3	10.7
2025-01-28 19:42:26.830845	226.7	20.5	-92.5	12.8
2025-01-28 19:42:27.986400	227.0	20.6	-92.5	9.5
2025-01-28 19:42:29.135533	227.2	20.7	-92.0	9.1
2025-01-28 19:42:30.300636	227.4	20.8	-92.3	5.3
2025-01-28 19:42:31.457521	227.6	20.9	-92.3	5.3
2025-01-28 19:42:32.617175	227.9	21.0	-92.3	5.3
2025-01-28 19:42:33.762863	228.1	21.1	-92.4	2.0
2025-01-28 19:42:34.914553	228.3	21.2	-92.0	4.3
2025-01-28 19:42:36.061812	228.5	21.3	-92.3	3.3
2025-01-28 19:42:37.224059	228.8	21.4	-92.2	6.9
2025-01-28 19:42:38.354410	229.0	21.5	-92.0	13.9
2025-01-28 19:42:39.474538	229.2	21.6	-92.4	14.4
2025-01-28 19:42:40.595334	229.4	21.7	-92.4	11.7
2025-01-28 19:42:41.717013	229.7	21.8	-92.6	4.2
2025-01-28 19:42:42.837928	229.9	21.9	-92.5	6.6
2025-01-28 19:42:43.960763	230.1	22.0	-92.5	6.5
2025-01-28 19:42:45.082141	230.4	22.1	-92.4	8.3
2025-01-28 19:42:46.203347	230.6	22.2	-92.0	8.2
2025-01-28 19:42:47.327936	230.8	22.3	-92.0	4.2
2025-01-28 19:42:48.448326	231.1	22.4	-91.9	7.7
2025-01-28 19:42:49.600642	231.3	22.5	-92.2	16.6
2025-01-28 19:42:50.750810	231.6	22.6	-92.6	10.6
2025-01-28 19:42:51.903087	231.8	22.7	-92.4	8.5
2025-01-28 19:42:53.053240	232.1	22.8	-92.1	5.9
2025-01-28 19:42:54.212791	232.3	22.9	-92.3	1.1
2025-01-28 19:42:55.370294	232.6	23.0	-92.3	2.3
2025-01-28 19:42:56.538279	232.8	23.1	-92.6	2.5
2025-01-28 19:42:57.695553	233.1	23.2	-92.3	5.2
2025-01-28 19:42:58.856904	233.3	23.3	-92.6	5.4
2025-01-28 19:43:00.015932	233.6	23.4	-92.7	7.7
2025-01-28 19:43:01.166014	233.9	23.5	-92.0	10.4
2025-01-28 19:43:02.318066	234.1	23.6	-92.3	12.5
2025-01-28 19:43:03.469352	234.4	23.7	-92.4	14.3
2025-01-28 19:43:04.625177	234.7	23.8	-92.7	9.7
2025-01-28 19:43:05.742965	234.9	23.9	-92.6	3.8
2025-01-28 19:43:06.904719	235.2	24.0	-92.5	6.5
2025-01-28 19:43:08.070197	235.5	24.1	-92.3	4.0
2025-01-28 19:43:09.228088	235.7	24.2	-92.5	6.2
2025-01-28 19:43:10.385683	236.0	24.3	-92.5	5.8
2025-01-28 19:43:11.543710	236.3	24.4	-92.6	9.5
2025-01-28 19:43:12.705387	236.6	24.4	-92.9	5.7
2025-01-28 19:43:13.872192	236.8	24.5	-92.5	7.4
2025-01-28 19:43:15.025813	237.1	24.6	-92.4	6.3
2025-01-28 19:43:16.176848	237.4	24.7	-92.3	4.4
2025-01-28 19:43:17.337411	237.7	24.8	-92.2	5.4
2025-01-28 19:43:18.492971	238.0	24.9	-92.1	2.5
2025-01-28 19:43:19.656530	238.3	25.0	-91.4	2.5
2025-01-28 19:43:20.920137	238.6	25.1	-91.2	2.3
2025-01-28 19:43:22.071453	238.9	25.2	-91.3	2.4
2025-01-28 19:43:23.224430	239.2	25.3	-91.4	1.0
2025-01-28 19:43:24.385492	239.5	25.4	-92.3	3.7
2025-01-28 19:43:25.536424	239.8	25.5	-92.6	8.0
2025-01-28 19:43:26.693985	240.1	25.6	-92.6	3.9
2025-01-28 19:43:27.856867	240.4	25.7	-92.4	10.4
2025-01-28 19:43:29.011827	240.7	25.7	-92.5	2.8
2025-01-28 19:43:30.165254	241.0	25.8	-92.0	6.6
2025-01-28 19:43:31.331129	241.3	25.9	-92.2	5.7
2025-01-28 19:43:32.485067	241.6	26.0	-92.5	12.7
2025-01-28 19:43:33.643586	241.9	26.1	-92.6	7.5
2025-01-28 19:43:34.803163	242.2	26.2	-92.7	6.6
2025-01-28 19:43:35.952534	242.5	26.3	-92.0	7.0
2025-01-28 19:43:37.104070	242.8	26.4	-92.0	11.9
2025-01-28 19:43:38.258152	243.1	26.4	-92.2	11.7
2025-01-28 19:43:39.415196	243.4	26.5	-92.4	4.7
2025-01-28 19:43:40.567600	243.8	26.6	-92.5	9.9
2025-01-28 19:43:41.734439	244.1	26.7	-92.5	12.0
2025-01-28 19:43:42.895632	244.4	26.8	-92.4	14.1
2025-01-28 19:43:44.048734	244.7	26.8	-92.2	12.2
2025-01-28 19:43:45.195242	245.0	26.9	-92.1	10.4
2025-01-28 19:43:46.349069	245.4	27.0	-92.1	4.5
2025-01-28 19:43:47.496776	245.7	27.1	-92.6	6.9
2025-01-28 19:43:48.654421	246.0	27.2	-92.5	6.1
2025-01-28 19:43:49.813804	246.3	27.2	-92.4	5.2
2025-01-28 19:43:50.970975	246.7	27.3	-92.6	7.7
2025-01-28 19:43:52.127524	247.0	27.4	-92.3	9.0
2025-01-28 19:43:53.284311	247.3	27.5	-92.3	11.2
2025-01-28 19:43:54.440428	247.7	27.5	-92.6	16.9
2025-01-28 19:43:55.597323	248.0	27.6	-92.4	19.2
2025-01-28 19:43:56.752111	248.4	27.7	-91.8	15.7
2025-01-28 19:43:57.902573	248.7	27.8	-92.0	16.8
2025-01-28 19:43:59.063902	249.0	27.8	-92.2	22.5
2025-01-28 19:44:00.215145	249.4	27.9	-91.9	17.7
2025-01-28 19:44:01.369132	249.7	28.0	-92.2	16.2
2025-01-28 19:44:02.532227	250.1	28.0	-92.4	17.2
2025-01-28 19:44:03.682657	250.4	28.1	-92.6	10.0
2025-01-28 19:44:04.836700	250.8	28.2	-92.5	10.9
2025-01-28 19:44:05.983774	251.1	28.2	-92.5	13.3
2025-01-28 19:44:07.137209	251.5	28.3	-91.7	11.4
2025-01-28 19:44:08.291640	251.8	28.4	-91.8	5.1
2025-01-28 19:44:09.448310	252.2	28.4	-92.4	10.3
2025-01-28 19:44:10.609191	252.5	28.5	-92.5	12.7
2025-01-28 19:44:11.759320	252.9	28.5	-92.4	14.1
2025-01-28 19:44:12.920153	253.2	28.6	-92.5	16.1
2025-01-28 19:44:14.084052	253.6	28.7	-92.2	17.4
2025-01-28 19:44:15.243546	254.0	28.7	-92.2	14.3
2025-01-28 19:44:16.401218	254.3	28.8	-92.4	19.3
2025-01-28 19:44:17.560836	254.7	28.8	-92.6	16.8
2025-01-28 19:44:18.723278	255.1	28.9	-92.5	12.6
2025-01-28 19:44:19.881486	255.4	28.9	-92.2	11.6
2025-01-28 19:44:21.037619	255.8	29.0	-92.7	10.2
2025-01-28 19:44:22.188565	256.2	29.0	-92.3	6.3
2025-01-28 19:44:23.351703	256.5	29.1	-92.3	5.1
2025-01-28 19:44:24.511846	256.9	29.1	-91.8	7.7
2025-01-28 19:44:25.668448	257.3	29.2	-91.6	4.6
2025-01-28 19:44:26.826924	257.6	29.2	-91.4	3.2
2025-01-28 19:44:27.987778	258.0	29.3	-91.4	7.2
2025-01-28 19:44:29.144315	258.4	29.3	-92.4	6.8
2025-01-28 19:44:30.297753	258.8	29.3	-92.5	5.0
2025-01-28 19:44:31.461167	259.1	29.4	-92.5	9.9
2025-01-28 19:44:32.623763	259.5	29.4	-92.4	13.1
2025-01-28 19:44:33.783156	259.9	29.5	-92.6	10.0
2025-01-28 19:44:34.946398	260.3	29.5	-92.4	12.6
2025-01-28 19:44:36.109761	260.7	29.5	-92.2	12.1
2025-01-28 19:44:37.269183	261.0	29.6	-92.3	13.6
2025-01-28 19:44:38.433267	261.4	29.6	-92.3	13.0
2025-01-28 19:44:39.595534	261.8	29.6	-92.3	13.5
2025-01-28 19:44:40.751564	262.2	29.6	-92.4	13.6
2025-01-28 19:44:41.906534	262.6	29.7	-92.7	13.3
2025-01-28 19:44:43.061738	262.9	29.7	-92.2	11.4
2025-01-28 19:44:44.220955	263.3	29.7	-92.6	11.1
2025-01-28 19:44:45.378022	263.7	29.8	-92.5	12.8
2025-01-28 19:44:46.538782	264.1	29.8	-92.7	8.1
2025-01-28 19:44:47.698514	264.5	29.8	-92.5	4.8
2025-01-28 19:44:48.859853	264.9	29.8	-92.6	2.5
2025-01-28 19:44:50.026220	265.3	29.8	-92.4	4.8
2025-01-28 19:44:51.186548	265.7	29.9	-92.1	2.1
2025-01-28 19:44:52.347578	266.0	29.9	-92.2	5.4
2025-01-28 19:44:53.504075	266.4	29.9	-92.4	2.5
2025-01-28 19:44:54.657690	266.8	29.9	-92.5	3.5
2025-01-28 19:44:55.811562	267.2	29.9	-92.6	2.0
2025-01-28 19:44:56.973381	267.6	29.9	-92.2	3.4
2025-01-28 19:44:58.125464	268.0	29.9	-92.7	1.3
2025-01-28 19:44:59.290756	268.4	29.9	-92.4	1.9
2025-01-28 19:45:00.438069	268.8	29.9	-92.5	3.6
2025-01-28 19:45:01.598059	269.1	29.9	-92.8	3.7
2025-01-28 19:45:02.747659	269.5	29.9	-92.3	6.2
2025-01-28 19:45:03.905955	269.9	29.9	-92.3	2.7
2025-01-28 19:45:05.063824	270.3	29.9	-92.5	4.4
2025-01-28 19:45:06.216581	270.7	29.9	-92.2	1.0
2025-01-28 19:45:07.382667	271.1	29.9	-92.5	4.8
2025-01-28 19:45:08.544405	271.5	29.9	-92.6	6.3
2025-01-28 19:45:09.699563	271.9	29.9	-92.4	4.9
2025-01-28 19:45:10.853532	272.3	29.9	-92.4	3.9
2025-01-28 19:45:11.993299	272.6	29.9	-92.8	2.3
2025-01-28 19:45:13.145580	273.0	29.9	-92.4	4.5
2025-01-28 19:45:14.306103	273.4	29.9	-92.6	7.2
2025-01-28 19:45:15.460562	273.8	29.9	-92.4	3.2
2025-01-28 19:45:16.617084	274.2	29.9	-92.4	4.0
2025-01-28 19:45:17.772558	274.6	29.9	-92.5	2.9
2025-01-28 19:45:18.928916	275.0	29.8	-92.4	2.3
2025-01-28 19:45:20.083983	275.3	29.8	-92.5	4.5
2025-01-28 19:45:21.245123	275.7	29.8	-92.3	5.3
2025-01-28 19:45:22.406253	276.1	29.8	-92.6	2.3
2025-01-28 19:45:23.562713	276.5	29.8	-92.5	9.1
2025-01-28 19:45:24.722631	276.9	29.7	-92.8	3.4
2025-01-28 19:45:25.878982	277.3	29.7	-92.7	4.5
2025-01-28 19:45:27.037723	277.6	29.7	-92.5	6.7
2025-01-28 19:45:28.195717	278.0	29.7	-91.3	2.7
2025-01-28 19:45:29.351946	278.4	29.6	-91.3	5.4
2025-01-28 19:45:30.513337	278.8	29.6	-91.7	5.2
2025-01-28 19:45:31.666389	279.2	29.6	-91.9	3.8
2025-01-28 19:45:32.813854	279.5	29.5	-92.4	3.4
2025-01-28 19:45:33.971642	279.9	29.5	-92.5	5.8
2025-01-28 19:45:35.129800	280.3	29.5	-92.4	2.6
2025-01-28 19:45:36.277379	280.7	29.4	-92.2	2.9
2025-01-28 19:45:37.445331	281.1	29.4	-92.2	5.1
2025-01-28 19:45:38.605866	281.4	29.3	-92.5	3.3
2025-01-28 19:45:39.772797	281.8	29.3	-92.6	2.4
2025-01-28 19:45:40.926388	282.2	29.3	-92.8	4.2
2025-01-28 19:45:42.088210	282.6	29.2	-92.4	1.3
2025-01-28 19:45:43.247269	282.9	29.2	-92.1	3.5
2025-01-28 19:45:44.409711	283.3	29.1	-92.7	5.0
2025-01-28 19:45:45.573958	283.7	29.1	-93.2	5.7
2025-01-28 19:45:46.727551	284.0	29.0	-92.9	4.2
2025-01-28 19:45:47.883064	284.4	29.0	-92.3	5.3
2025-01-28 19:45:49.040558	284.8	28.9	-92.5	7.5
2025-01-28 19:45:50.206308	285.1	28.9	-92.5	2.7
2025-01-28 19:45:51.361999	285.5	28.8	-92.3	3.0
2025-01-28 19:45:52.517509	285.9	28.8	-92.5	7.7
2025-01-28 19:45:53.673462	286.2	28.7	-92.7	4.7
2025-01-28 19:45:54.839415	286.6	28.7	-92.8	3.3
2025-01-28 19:45:55.983340	286.9	28.6	-92.8	5.6
2025-01-28 19:45:57.144144	287.3	28.5	-92.3	7.4
2025-01-28 19:45:58.300288	287.7	28.5	-92.3	1.3
2025-01-28 19:45:59.461948	288.0	28.4	-92.5	7.2
2025-01-28 19:46:00.611023	288.4	28.4	-92.4	8.1
2025-01-28 19:46:01.759978	288.7	28.3	-92.7	2.8
2025-01-28 19:46:02.920178	289.1	28.2	-92.6	5.1
2025-01-28 19:46:04.073667	289.4	28.2	-92.3	6.0
2025-01-28 19:46:05.233788	289.8	28.1	-91.9	1.0
2025-01-28 19:46:06.386583	290.1	28.0	-92.3	3.6
2025-01-28 19:46:07.537673	290.4	28.0	-92.4	5.1
2025-01-28 19:46:08.693406	290.8	27.9	-92.8	3.7
2025-01-28 19:46:09.852990	291.1	27.8	-92.5	4.9
2025-01-28 19:46:11.010317	291.5	27.8	-92.6	5.6
2025-01-28 19:46:12.161981	291.8	27.7	-92.4	2.7
2025-01-28 19:46:13.316540	292.1	27.6	-92.1	2.3
2025-01-28 19:46:14.483145	292.5	27.6	-92.5	6.2
2025-01-28 19:46:15.644857	292.8	27.5	-92.7	3.7
2025-01-28 19:46:16.797345	293.2	27.4	-92.8	1.3
2025-01-28 19:46:17.956980	293.5	27.3	-92.8	3.1
2025-01-28 19:46:19.111667	293.8	27.3	-92.4	6.5
2025-01-28 19:46:20.268351	294.1	27.2	-92.4	6.1
2025-01-28 19:46:21.415917	294.5	27.1	-92.2	4.2
2025-01-28 19:46:22.536919	294.8	27.0	-92.4	5.8
2025-01-28 19:46:23.657042	295.1	27.0	-92.0	3.9
2025-01-28 19:46:24.777066	295.4	26.9	-92.3	4.6
2025-01-28 19:46:25.897710	295.7	26.8	-92.1	5.0
2025-01-28 19:46:27.019271	296.0	26.7	-92.1	5.7
2025-01-28 19:46:28.141391	296.3	26.6	-92.2	6.1
2025-01-28 19:46:29.261839	296.6	26.6	-91.9	6.1
2025-01-28 19:46:30.387569	297.0	26.5	-92.3	3.0
2025-01-28 19:46:31.527338	297.3	26.4	-92.2	9.9
2025-01-28 19:46:32.693883	297.6	26.3	-91.6	4.2
2025-01-28 19:46:33.859850	297.9	26.2	-91.5	2.4
2025-01-28 19:46:35.022289	298.2	26.1	-91.5	7.0
2025-01-28 19:46:36.177859	298.5	26.1	-91.3	5.0
2025-01-28 19:46:37.327806	298.8	26.0	-92.3	10.4
2025-01-28 19:46:38.493342	299.1	25.9	-92.5	7.0
2025-01-28 19:46:39.647475	299.4	25.8	-92.6	14.4
2025-01-28 19:46:40.807166	299.7	25.7	-92.9	8.7
2025-01-28 19:46:41.967083	300.0	25.6	-92.6	13.8
2025-01-28 19:46:43.124761	300.3	25.5	-92.3	14.2
2025-01-28 19:46:44.282352	300.6	25.4	-92.4	7.4
2025-01-28 19:46:45.443710	300.9	25.4	-92.6	4.0
2025-01-28 19:46:46.597120	301.2	25.3	-92.7	6.8
2025-01-28 19:46:47.758395	301.5	25.2	-92.4	8.6
2025-01-28 19:46:48.921664	301.8	25.1	-92.5	14.2
2025-01-28 19:46:50.077851	302.1	25.0	-92.3	7.9
2025-01-28 19:46:51.229463	302.3	24.9	-92.3	8.1
2025-01-28 19:46:52.389036	302.6	24.8	-92.6	3.9
2025-01-28 19:46:53.544478	302.9	24.7	-92.5	13.1
2025-01-28 19:46:54.705995	303.2	24.6	-92.8	7.7
2025-01-28 19:46:55.859760	303.5	24.5	-92.6	5.5
2025-01-28 19:46:57.015843	303.7	24.4	-92.6	8.4
2025-01-28 19:46:58.170006	304.0	24.3	-91.9	4.1
2025-01-28 19:46:59.330872	304.3	24.2	-92.2	2.0
2025-01-28 19:47:00.485663	304.6	24.1	-92.4	7.2
2025-01-28 19:47:01.641834	304.8	24.1	-92.6	2.2
2025-01-28 19:47:02.791399	305.1	24.0	-92.8	3.7
2025-01-28 19:47:03.951918	305.4	23.9	-92.8	3.2
2025-01-28 19:47:05.103627	305.6	23.8	-92.7	5.1
2025-01-28 19:47:06.260078	305.9	23.7	-92.6	3.9
2025-01-28 19:47:07.412391	306.2	23.6	-92.7	5.7
2025-01-28 19:47:08.571853	306.4	23.5	-92.9	4.1
2025-01-28 19:47:09.723202	306.7	23.4	-92.3	5.8
2025-01-28 19:47:10.890671	306.9	23.3	-92.3	2.2
2025-01-28 19:47:12.042872	307.2	23.2	-92.3	7.2
2025-01-28 19:47:13.202889	307.5	23.1	-92.3	3.2
2025-01-28 19:47:14.360726	307.7	23.0	-92.4	4.2
2025-01-28 19:47:15.520507	308.0	22.9	-92.4	6.0
2025-01-28 19:47:16.680205	308.2	22.8	-92.4	0.7
2025-01-28 19:47:17.833289	308.5	22.7	-92.6	4.3
2025-01-28 19:47:18.991774	308.7	22.6	-92.5	7.1
2025-01-28 19:47:20.150245	308.9	22.5	-92.1	3.2
2025-01-28 19:47:21.305691	309.2	22.4	-92.5	2.8
2025-01-28 19:47:22.451152	309.4	22.3	-92.8	3.9
2025-01-28 19:47:23.613236	309.7	22.2	-92.9	8.0
2025-01-28 19:47:24.771457	309.9	22.1	-92.6	3.8
2025-01-28 19:47:25.926827	310.2	22.0	-92.8	6.9
2025-01-28 19:47:27.080053	310.4	21.9	-92.6	6.8
2025-01-28 19:47:28.231146	310.6	21.8	-92.0	3.7
2025-01-28 19:47:29.391564	310.9	21.7	-92.5	2.9
2025-01-28 19:47:30.553670	311.1	21.6	-92.9	1.4
2025-01-28 19:47:31.705998	311.3	21.5	-92.5	2.4
2025-01-28 19:47:32.862654	311.5	21.4	-92.6	2.8
2025-01-28 19:47:34.023167	311.8	21.3	-92.6	3.2
2025-01-28 19:47:35.188919	312.0	21.2	-92.3	0.7
2025-01-28 19:47:36.350210	312.2	21.1	-92.5	3.3
2025-01-28 19:47:37.514897	312.5	21.0	-91.4	2.3
2025-01-28 19:47:38.669155	312.7	20.9	-91.9	2.5
2025-01-28 19:47:39.831060	312.9	20.8	-91.7	3.2
2025-01-28 19:47:40.985741	313.1	20.7	-92.7	5.1
2025-01-28 19:47:42.137941	313.3	20.6	-92.2	3.0
2025-01-28 19:47:43.297695	313.6	20.5	-92.5	1.6
2025-01-28 19:47:44.465110	313.8	20.4	-92.8	9.3
2025-01-28 19:47:45.620867	314.0	20.3	-92.6	2.9
2025-01-28 19:47:46.771041	314.2	20.2	-92.8	4.7
2025-01-28 19:47:47.934526	314.4	20.1	-92.6	3.9
2025-01-28 19:47:49.093781	314.6	20.0	-92.2	3.2
2025-01-28 19:47:50.254321	314.8	19.9	-92.1	6.7
2025-01-28 19:47:51.408470	315.0	19.8	-92.7	4.7
2025-01-28 19:47:52.562992	315.2	19.7	-92.7	1.6
2025-01-28 19:47:53.717904	315.4	19.6	-92.9	1.9
2025-01-28 19:47:54.880922	315.6	19.5	-92.7	1.7
2025-01-28 19:47:56.030924	315.8	19.4	-92.6	3.3
2025-01-28 19:47:57.189673	316.0	19.3	-92.7	1.6
2025-01-28 19:47:58.353765	316.2	19.2	-92.6	3.1
2025-01-28 19:47:59.514763	316.4	19.1	-92.8	1.8
2025-01-28 19:48:00.664411	316.6	19.0	-92.6	0.4
2025-01-28 19:48:01.817662	316.8	18.9	-92.9	2.3
2025-01-28 19:48:02.982333	317.0	18.8	-92.5	2.0
2025-01-28 19:48:04.150850	317.2	18.7	-92.5	2.5
2025-01-28 19:48:05.300968	317.4	18.6	-92.4	2.4
2025-01-28 19:48:06.449846	317.6	18.5	-92.3	9.9
2025-01-28 19:48:07.605795	317.8	18.4	-92.6	3.5
2025-01-28 19:48:08.762432	318.0	18.3	-92.4	3.8
2025-01-28 19:48:09.927820	318.2	18.2	-92.4	6.7
2025-01-28 19:48:11.090658	318.4	18.1	-92.6	5.0
2025-01-28 19:48:12.246283	318.5	18.0	-92.3	7.2
2025-01-28 19:48:13.399155	318.7	17.9	-92.3	5.0
2025-01-28 19:48:14.553966	318.9	17.8	-92.6	4.9
2025-01-28 19:48:15.712864	319.1	17.7	-92.5	1.8
2025-01-28 19:48:16.867299	319.3	17.6	-92.9	2.8
2025-01-28 19:48:18.022947	319.5	17.5	-92.5	4.4
2025-01-28 19:48:19.184666	319.6	17.4	-92.3	2.7
2025-01-28 19:48:20.343920	319.8	17.3	-92.3	2.7
2025-01-28 19:48:21.501679	320.0	17.2	-92.8	4.6
2025-01-28 19:48:22.661584	320.2	17.1	-92.6	5.2
2025-01-28 19:48:23.927164	320.4	17.0	-92.9	3.7
2025-01-28 19:48:25.081436	320.5	16.9	-92.7	3.5
2025-01-28 19:48:26.241742	320.7	16.8	-92.1	3.3
2025-01-28 19:48:27.394178	320.9	16.7	-92.3	10.2
2025-01-28 19:48:28.551040	321.0	16.6	-92.6	2.5
2025-01-28 19:48:29.708621	321.2	16.5	-92.3	1.7
2025-01-28 19:48:30.863553	321.4	16.4	-92.4	4.5
2025-01-28 19:48:32.018423	321.5	16.3	-92.5	10.5
2025-01-28 19:48:33.171669	321.7	16.2	-92.5	7.9
2025-01-28 19:48:34.331560	321.9	16.1	-92.6	8.8
2025-01-28 19:48:35.483451	322.0	16.0	-92.6	3.5
2025-01-28 19:48:36.641457	322.2	15.9	-92.5	4.7
2025-01-28 19:48:37.800815	322.3	15.9	-92.8	3.9
2025-01-28 19:48:38.958726	322.5	15.8	-92.5	1.0
2025-01-28 19:48:40.120730	322.7	15.7	-92.2	3.3
2025-01-28 19:48:41.279820	322.8	15.6	-91.7	2.6
2025-01-28 19:48:42.440812	323.0	15.5	-91.9	2.9
2025-01-28 19:48:43.600939	323.1	15.4	-91.9	2.6
2025-01-28 19:48:44.754263	323.3	15.3	-91.7	1.6
2025-01-28 19:48:45.906774	323.5	15.2	-92.7	3.0
2025-01-28 19:48:47.057458	323.6	15.1	-92.2	3.3
2025-01-28 19:48:48.216239	323.8	15.0	-92.0	0.8
2025-01-28 19:48:49.379833	323.9	14.9	-92.3	6.6
2025-01-28 19:48:50.548021	324.1	14.8	-92.9	6.5
2025-01-28 19:48:51.710511	324.2	14.7	-92.9	7.1
2025-01-28 19:48:52.868483	324.4	14.6	-92.6	6.7
#Closed at: 2025-01-28 19:41:27.570947