passes_logs/2025/01/28/LEX_Murmansk/LEX_Murmansk__20250128_114256_NOAA_18_rec.log

#Pass ID: 20250128_114256_NOAA 18
#Satellite: NOAA 18
#Configuration: NOAA 18
#Start time: 2025-01-28 11:42:51.905334

#LorettStation: 1.0.0 05.05.2024
#Station: LEX_Murmansk
#Location: 33.156738 lon 68.926811 lat
#TLE: 1 28654U 05018A   25027.12567402  .00000414  00000+0  24299-3 0  9999
#TLE: 2 28654  98.8547 108.0587 0014840 145.8119 214.4012 14.13498347 14893

#Time	Az	El	Level	SNR
2025-01-28 11:43:04.058049	22.9	16.2	-89.8	4.5
2025-01-28 11:43:05.213647	22.8	16.3	-89.6	5.2
2025-01-28 11:43:06.362195	22.6	16.4	-89.8	4.1
2025-01-28 11:43:07.512461	22.5	16.5	-89.5	5.8
2025-01-28 11:43:08.670025	22.4	16.6	-89.6	2.8
2025-01-28 11:43:09.820343	22.3	16.8	-89.9	5.7
2025-01-28 11:43:10.979402	22.2	16.9	-89.7	5.3
2025-01-28 11:43:12.124061	22.1	17.0	-89.7	2.1
2025-01-28 11:43:13.277579	22.0	17.1	-89.6	3.6
2025-01-28 11:43:14.430102	21.9	17.2	-90.0	5.7
2025-01-28 11:43:15.590544	21.7	17.4	-89.9	5.0
2025-01-28 11:43:16.746905	21.6	17.5	-89.8	6.4
2025-01-28 11:43:17.907748	21.5	17.6	-89.9	9.0
2025-01-28 11:43:19.061278	21.4	17.7	-89.6	7.1
2025-01-28 11:43:20.212431	21.3	17.8	-90.0	7.4
2025-01-28 11:43:21.373387	21.1	18.0	-90.0	10.0
2025-01-28 11:43:22.529618	21.0	18.1	-89.9	9.3
2025-01-28 11:43:23.678709	20.9	18.2	-90.3	11.2
2025-01-28 11:43:24.835295	20.8	18.3	-89.9	9.8
2025-01-28 11:43:25.994214	20.6	18.4	-90.2	6.6
2025-01-28 11:43:27.143602	20.5	18.6	-89.5	8.1
2025-01-28 11:43:28.297137	20.4	18.7	-89.6	11.4
2025-01-28 11:43:29.449838	20.2	18.8	-90.2	6.8
2025-01-28 11:43:30.602814	20.1	18.9	-89.6	11.3
2025-01-28 11:43:31.756923	20.0	19.1	-89.9	9.9
2025-01-28 11:43:32.914279	19.9	19.2	-90.0	10.9
2025-01-28 11:43:34.068006	19.7	19.3	-89.9	6.4
2025-01-28 11:43:35.216544	19.6	19.4	-89.5	12.6
2025-01-28 11:43:36.373756	19.4	19.6	-89.9	11.7
2025-01-28 11:43:37.527393	19.3	19.7	-89.7	7.6
2025-01-28 11:43:38.680676	19.2	19.8	-89.7	7.6
2025-01-28 11:43:39.840506	19.0	20.0	-89.8	8.8
2025-01-28 11:43:40.995390	18.9	20.1	-89.4	7.9
2025-01-28 11:43:42.146914	18.7	20.2	-89.6	6.5
2025-01-28 11:43:43.311659	18.6	20.3	-89.8	8.6
2025-01-28 11:43:44.469444	18.5	20.5	-90.1	6.0
2025-01-28 11:43:45.626768	18.3	20.6	-90.1	7.8
2025-01-28 11:43:46.782108	18.2	20.7	-90.5	3.7
2025-01-28 11:43:47.934002	18.0	20.9	-89.9	8.1
2025-01-28 11:43:49.096824	17.9	21.0	-90.2	11.6
2025-01-28 11:43:50.246756	17.7	21.1	-90.4	8.5
2025-01-28 11:43:51.402270	17.6	21.3	-90.0	7.4
2025-01-28 11:43:52.559219	17.4	21.4	-89.9	7.3
2025-01-28 11:43:53.712847	17.3	21.5	-90.3	8.0
2025-01-28 11:43:54.866915	17.1	21.7	-90.4	9.4
2025-01-28 11:43:56.026994	16.9	21.8	-90.4	14.0
2025-01-28 11:43:57.190738	16.8	21.9	-89.8	9.4
2025-01-28 11:43:58.341931	16.6	22.1	-88.8	9.0
2025-01-28 11:43:59.493578	16.5	22.2	-89.2	6.6
2025-01-28 11:44:00.640490	16.3	22.4	-88.6	8.1
2025-01-28 11:44:01.796191	16.1	22.5	-88.9	10.3
2025-01-28 11:44:02.951233	16.0	22.6	-89.1	5.7
2025-01-28 11:44:04.102055	15.8	22.8	-89.4	9.1
2025-01-28 11:44:05.256905	15.6	22.9	-90.2	11.9
2025-01-28 11:44:06.410115	15.4	23.0	-90.3	10.7
2025-01-28 11:44:07.559851	15.3	23.2	-89.9	12.0
2025-01-28 11:44:08.719041	15.1	23.3	-89.6	13.8
2025-01-28 11:44:09.874036	14.9	23.5	-90.1	10.6
2025-01-28 11:44:11.030644	14.7	23.6	-90.1	8.9
2025-01-28 11:44:12.179656	14.6	23.8	-89.7	9.8
2025-01-28 11:44:13.325467	14.4	23.9	-89.7	13.5
2025-01-28 11:44:14.481865	14.2	24.0	-89.9	12.6
2025-01-28 11:44:15.629374	14.0	24.2	-89.7	10.7
2025-01-28 11:44:16.793814	13.8	24.3	-89.7	9.5
2025-01-28 11:44:17.954432	13.6	24.5	-90.2	6.9
2025-01-28 11:44:19.118543	13.5	24.6	-90.1	9.4
2025-01-28 11:44:20.273596	13.3	24.8	-89.7	11.4
2025-01-28 11:44:21.427958	13.1	24.9	-89.9	6.1
2025-01-28 11:44:22.581846	12.9	25.1	-90.3	8.6
2025-01-28 11:44:23.738085	12.7	25.2	-90.2	13.4
2025-01-28 11:44:24.891742	12.5	25.3	-90.3	10.5
2025-01-28 11:44:26.048974	12.3	25.5	-90.1	14.0
2025-01-28 11:44:27.202072	12.1	25.6	-90.3	10.4
2025-01-28 11:44:28.355750	11.9	25.8	-90.1	10.3
2025-01-28 11:44:29.508948	11.7	25.9	-90.1	7.3
2025-01-28 11:44:30.659097	11.5	26.1	-90.0	10.1
2025-01-28 11:44:31.819061	11.2	26.2	-90.1	11.7
2025-01-28 11:44:32.978786	11.0	26.4	-89.9	7.7
2025-01-28 11:44:34.128364	10.8	26.5	-90.1	8.2
2025-01-28 11:44:35.283184	10.6	26.7	-90.3	6.6
2025-01-28 11:44:36.440246	10.4	26.8	-90.2	6.2
2025-01-28 11:44:37.598392	10.2	27.0	-90.0	6.3
2025-01-28 11:44:38.750869	9.9	27.1	-90.3	8.0
2025-01-28 11:44:39.901270	9.7	27.3	-89.9	5.0
2025-01-28 11:44:41.056518	9.5	27.4	-89.9	4.0
2025-01-28 11:44:42.205268	9.3	27.6	-90.2	5.3
2025-01-28 11:44:43.358174	9.0	27.7	-90.6	7.1
2025-01-28 11:44:44.506294	8.8	27.9	-90.2	7.2
2025-01-28 11:44:45.662508	8.5	28.1	-90.5	8.0
2025-01-28 11:44:46.815801	8.3	28.2	-90.4	7.2
2025-01-28 11:44:47.975545	8.1	28.4	-90.2	4.7
2025-01-28 11:44:49.123886	7.8	28.5	-90.3	4.2
2025-01-28 11:44:50.277191	7.6	28.7	-90.1	7.0
2025-01-28 11:44:51.421044	7.3	28.8	-89.7	7.4
2025-01-28 11:44:52.554404	7.1	29.0	-90.3	6.6
2025-01-28 11:44:53.700680	6.8	29.1	-90.0	6.6
2025-01-28 11:44:54.853971	6.6	29.3	-89.0	7.6
2025-01-28 11:44:56.015109	6.3	29.4	-89.7	8.5
2025-01-28 11:44:57.168454	6.1	29.6	-89.7	6.8
2025-01-28 11:44:58.324034	5.8	29.8	-90.0	7.8
2025-01-28 11:44:59.482847	5.5	29.9	-90.4	3.6
2025-01-28 11:45:00.629662	5.3	30.1	-90.1	8.1
2025-01-28 11:45:01.781295	5.0	30.2	-90.1	8.2
2025-01-28 11:45:02.932637	4.7	30.4	-89.4	5.7
2025-01-28 11:45:04.087060	4.4	30.5	-89.8	7.3
2025-01-28 11:45:05.241847	4.2	30.7	-89.7	8.3
2025-01-28 11:45:06.389849	3.9	30.8	-90.1	9.6
2025-01-28 11:45:07.540126	3.6	31.0	-90.3	11.1
2025-01-28 11:45:08.688902	3.3	31.2	-90.2	8.0
2025-01-28 11:45:09.845414	3.0	31.3	-90.0	9.5
2025-01-28 11:45:10.992626	2.7	31.5	-90.1	9.0
2025-01-28 11:45:12.139087	2.4	31.6	-90.2	10.4
2025-01-28 11:45:13.289118	2.1	31.8	-90.0	8.7
2025-01-28 11:45:14.453073	1.8	31.9	-90.2	9.1
2025-01-28 11:45:15.611498	1.5	32.1	-90.2	10.4
2025-01-28 11:45:16.764277	1.2	32.3	-89.9	9.5
2025-01-28 11:45:17.914140	0.9	32.4	-90.0	6.2
2025-01-28 11:45:19.073213	0.6	32.6	-89.6	5.5
2025-01-28 11:45:20.230836	0.3	32.7	-89.9	8.6
2025-01-28 11:45:21.384805	360.0	32.9	-90.1	7.1
2025-01-28 11:45:22.534005	359.6	33.0	-90.1	5.0
2025-01-28 11:45:23.675462	359.3	33.2	-89.9	10.8
2025-01-28 11:45:24.809602	359.0	33.3	-89.5	11.8
2025-01-28 11:45:25.929886	358.7	33.5	-90.1	9.1
2025-01-28 11:45:27.050404	358.3	33.6	-89.7	10.0
2025-01-28 11:45:28.170893	358.0	33.8	-89.7	13.2
2025-01-28 11:45:29.292030	357.7	33.9	-90.1	13.3
2025-01-28 11:45:30.412756	357.3	34.1	-89.7	15.0
2025-01-28 11:45:31.533610	357.0	34.2	-90.2	13.2
2025-01-28 11:45:32.654023	356.7	34.4	-90.2	14.9
2025-01-28 11:45:33.774546	356.3	34.5	-90.1	13.0
2025-01-28 11:45:34.895020	356.0	34.7	-90.4	10.1
2025-01-28 11:45:36.029978	355.6	34.8	-90.4	11.4
2025-01-28 11:45:37.178954	355.3	35.0	-90.1	13.7
2025-01-28 11:45:38.326712	354.9	35.1	-89.9	14.9
2025-01-28 11:45:39.483918	354.5	35.3	-90.1	13.4
2025-01-28 11:45:40.628780	354.1	35.4	-90.6	15.9
2025-01-28 11:45:41.787645	353.8	35.6	-89.6	13.6
2025-01-28 11:45:42.937987	353.4	35.7	-89.1	11.2
2025-01-28 11:45:44.108364	353.0	35.9	-88.7	10.1
2025-01-28 11:45:45.260119	352.6	36.0	-89.3	11.4
2025-01-28 11:45:46.416383	352.2	36.2	-90.4	6.5
2025-01-28 11:45:47.569024	351.8	36.3	-90.1	5.6
2025-01-28 11:45:48.713595	351.4	36.4	-90.1	10.9
2025-01-28 11:45:49.868162	351.0	36.6	-90.2	7.4
2025-01-28 11:45:51.018520	350.6	36.7	-90.1	9.9
2025-01-28 11:45:52.176773	350.2	36.9	-89.9	14.4
2025-01-28 11:45:53.338173	349.8	37.0	-90.1	12.1
2025-01-28 11:45:54.487197	349.4	37.1	-90.4	13.9
2025-01-28 11:45:55.638050	349.0	37.3	-90.2	14.0
2025-01-28 11:45:56.791817	348.5	37.4	-90.1	15.3
2025-01-28 11:45:57.938864	348.1	37.5	-90.4	13.5
2025-01-28 11:45:59.085195	347.7	37.7	-90.3	12.6
2025-01-28 11:46:00.234258	347.2	37.8	-90.3	12.7
2025-01-28 11:46:01.388645	346.8	37.9	-90.2	10.5
2025-01-28 11:46:02.537033	346.4	38.1	-90.3	12.1
2025-01-28 11:46:03.692986	345.9	38.2	-90.3	17.1
2025-01-28 11:46:04.844156	345.5	38.3	-90.5	14.4
2025-01-28 11:46:05.991928	345.0	38.4	-90.1	12.4
2025-01-28 11:46:07.152009	344.6	38.6	-89.9	16.4
2025-01-28 11:46:08.301822	344.1	38.7	-90.0	17.7
2025-01-28 11:46:09.468764	343.6	38.8	-90.2	18.0
2025-01-28 11:46:10.618663	343.2	38.9	-90.6	16.0
2025-01-28 11:46:11.776528	342.7	39.0	-90.5	18.3
2025-01-28 11:46:12.928010	342.2	39.1	-89.2	14.7
2025-01-28 11:46:14.081009	341.8	39.2	-89.1	12.6
2025-01-28 11:46:15.227573	341.3	39.4	-89.4	14.5
2025-01-28 11:46:16.382863	340.8	39.5	-89.5	9.2
2025-01-28 11:46:17.532962	340.3	39.6	-89.3	8.3
2025-01-28 11:46:18.683044	339.8	39.7	-89.9	14.3
2025-01-28 11:46:19.840763	339.3	39.8	-90.6	15.9
2025-01-28 11:46:20.990052	338.9	39.9	-90.1	8.9
2025-01-28 11:46:22.111240	338.4	40.0	-90.4	14.6
2025-01-28 11:46:23.232524	337.9	40.1	-90.0	13.9
2025-01-28 11:46:24.353111	337.4	40.1	-90.3	14.8
2025-01-28 11:46:25.473703	336.9	40.2	-90.3	11.4
2025-01-28 11:46:26.593710	336.4	40.3	-90.2	13.9
2025-01-28 11:46:27.713682	335.9	40.4	-90.6	15.9
2025-01-28 11:46:28.834529	335.4	40.5	-90.2	16.2
2025-01-28 11:46:29.955355	334.9	40.6	-90.3	19.2
2025-01-28 11:46:31.078855	334.4	40.6	-89.8	18.0
2025-01-28 11:46:32.214544	333.9	40.7	-90.4	17.9
2025-01-28 11:46:33.365124	333.4	40.8	-90.1	16.4
2025-01-28 11:46:34.513373	332.8	40.9	-90.7	16.2
2025-01-28 11:46:35.647701	332.3	40.9	-90.6	17.5
2025-01-28 11:46:36.804983	331.8	41.0	-90.5	17.3
2025-01-28 11:46:37.944547	331.3	41.1	-90.5	13.0
2025-01-28 11:46:39.094496	330.7	41.1	-90.2	13.9
2025-01-28 11:46:40.244010	330.2	41.2	-90.6	17.6
2025-01-28 11:46:41.388914	329.7	41.2	-90.1	11.3
2025-01-28 11:46:42.546351	329.1	41.3	-90.4	10.3
2025-01-28 11:46:43.698324	328.6	41.3	-90.3	18.2
2025-01-28 11:46:44.854902	328.0	41.4	-90.6	13.4
2025-01-28 11:46:45.999343	327.5	41.4	-90.6	12.9
2025-01-28 11:46:47.151463	326.9	41.5	-90.2	16.2
2025-01-28 11:46:48.301502	326.4	41.5	-90.1	17.4
2025-01-28 11:46:49.453575	325.9	41.5	-90.5	15.5
2025-01-28 11:46:50.608071	325.3	41.6	-90.7	15.9
2025-01-28 11:46:51.763977	324.8	41.6	-90.7	16.3
2025-01-28 11:46:52.919319	324.2	41.6	-90.7	17.6
2025-01-28 11:46:54.070952	323.6	41.6	-90.0	19.1
2025-01-28 11:46:55.233050	323.1	41.7	-90.1	18.9
2025-01-28 11:46:56.387167	322.5	41.7	-90.5	19.6
2025-01-28 11:46:57.539513	322.0	41.7	-90.1	18.3
2025-01-28 11:46:58.690892	321.4	41.7	-90.2	20.2
2025-01-28 11:46:59.849449	320.9	41.7	-90.3	16.6
2025-01-28 11:47:00.993545	320.3	41.7	-90.6	13.8
2025-01-28 11:47:02.144920	319.8	41.7	-90.2	14.7
2025-01-28 11:47:03.301903	319.2	41.7	-89.2	15.1
2025-01-28 11:47:04.450970	318.6	41.7	-90.3	9.6
2025-01-28 11:47:05.590729	318.1	41.7	-90.1	11.8
2025-01-28 11:47:06.711992	317.6	41.7	-90.4	14.2
2025-01-28 11:47:07.831485	317.0	41.7	-90.6	13.8
2025-01-28 11:47:08.952070	316.5	41.7	-90.7	8.6
2025-01-28 11:47:10.073187	315.9	41.6	-90.5	8.5
2025-01-28 11:47:11.194378	315.4	41.6	-90.1	16.6
2025-01-28 11:47:12.315520	314.9	41.6	-90.2	17.1
2025-01-28 11:47:13.435824	314.3	41.6	-90.4	10.7
2025-01-28 11:47:14.557035	313.8	41.5	-90.6	9.6
2025-01-28 11:47:15.683578	313.3	41.5	-90.7	15.5
2025-01-28 11:47:16.826613	312.7	41.5	-90.5	14.9
2025-01-28 11:47:17.980735	312.2	41.4	-90.6	9.6
2025-01-28 11:47:19.132695	311.6	41.4	-90.2	12.1
2025-01-28 11:47:20.289124	311.1	41.3	-88.7	13.5
2025-01-28 11:47:21.430321	310.5	41.3	-89.2	8.3
2025-01-28 11:47:22.585469	310.0	41.2	-89.4	10.0
2025-01-28 11:47:23.744235	309.4	41.2	-90.5	17.6
2025-01-28 11:47:24.895573	308.9	41.1	-90.5	12.7
2025-01-28 11:47:26.046956	308.4	41.1	-90.0	10.0
2025-01-28 11:47:27.201032	307.8	41.0	-90.3	17.4
2025-01-28 11:47:28.346997	307.3	40.9	-89.9	13.7
2025-01-28 11:47:29.504198	306.8	40.9	-90.4	11.0
2025-01-28 11:47:30.653974	306.3	40.8	-90.2	16.3
2025-01-28 11:47:31.804623	305.7	40.7	-90.3	18.9
2025-01-28 11:47:32.954192	305.2	40.7	-90.3	12.4
2025-01-28 11:47:34.110315	304.7	40.6	-90.2	15.5
2025-01-28 11:47:35.271798	304.2	40.5	-90.2	17.6
2025-01-28 11:47:36.431582	303.7	40.4	-90.4	13.7
2025-01-28 11:47:37.585093	303.1	40.3	-90.4	14.5
2025-01-28 11:47:38.730568	302.6	40.2	-90.4	16.8
2025-01-28 11:47:39.880457	302.1	40.1	-90.7	13.2
2025-01-28 11:47:41.034126	301.6	40.1	-90.6	13.4
2025-01-28 11:47:42.191367	301.1	40.0	-90.5	15.9
2025-01-28 11:47:43.341743	300.6	39.9	-90.0	15.9
2025-01-28 11:47:44.492475	300.1	39.8	-90.4	12.7
2025-01-28 11:47:45.651324	299.6	39.7	-90.4	16.1
2025-01-28 11:47:46.807615	299.1	39.6	-90.1	16.1
2025-01-28 11:47:47.952918	298.7	39.5	-90.7	14.0
2025-01-28 11:47:49.104868	298.2	39.3	-90.4	14.0
2025-01-28 11:47:50.258202	297.7	39.2	-90.2	18.1
2025-01-28 11:47:51.408073	297.2	39.1	-90.5	13.4
2025-01-28 11:47:52.567243	296.8	39.0	-90.3	11.7
2025-01-28 11:47:53.714065	296.3	38.9	-90.6	17.1
2025-01-28 11:47:54.873516	295.8	38.8	-90.9	13.0
2025-01-28 11:47:56.029854	295.4	38.7	-90.6	12.6
2025-01-28 11:47:57.196716	294.9	38.5	-90.4	17.2
2025-01-28 11:47:58.354054	294.4	38.4	-90.2	10.8
2025-01-28 11:47:59.501652	294.0	38.3	-90.8	10.1
2025-01-28 11:48:00.647766	293.5	38.2	-90.7	15.8
2025-01-28 11:48:01.798514	293.1	38.0	-90.9	15.0
2025-01-28 11:48:02.952130	292.6	37.9	-90.8	10.2
2025-01-28 11:48:04.106043	292.2	37.8	-90.2	12.5
2025-01-28 11:48:05.257277	291.8	37.6	-90.5	17.4
2025-01-28 11:48:06.410473	291.3	37.5	-90.5	9.5
2025-01-28 11:48:07.568172	290.9	37.4	-91.1	9.4
2025-01-28 11:48:08.718626	290.5	37.2	-90.9	14.9
2025-01-28 11:48:09.867275	290.1	37.1	-91.2	10.7
2025-01-28 11:48:11.019759	289.7	37.0	-90.8	8.2
2025-01-28 11:48:12.185114	289.2	36.8	-90.6	14.4
2025-01-28 11:48:13.342845	288.8	36.7	-90.6	11.2
2025-01-28 11:48:14.499174	288.4	36.5	-90.8	8.3
2025-01-28 11:48:15.655543	288.0	36.4	-90.7	13.0
2025-01-28 11:48:16.812055	287.6	36.3	-90.7	12.4
2025-01-28 11:48:17.961114	287.2	36.1	-90.5	9.3
2025-01-28 11:48:19.111655	286.8	36.0	-90.4	12.6
2025-01-28 11:48:20.256789	286.4	35.8	-90.6	13.4
2025-01-28 11:48:21.409742	286.0	35.7	-90.9	9.4
2025-01-28 11:48:22.564675	285.7	35.5	-90.6	10.5
2025-01-28 11:48:23.712459	285.3	35.4	-89.5	11.5
2025-01-28 11:48:24.860804	284.9	35.2	-89.6	8.5
2025-01-28 11:48:26.009210	284.5	35.1	-89.3	9.2
2025-01-28 11:48:27.168240	284.2	34.9	-89.4	6.9
2025-01-28 11:48:28.322791	283.8	34.8	-90.7	9.5
2025-01-28 11:48:29.480736	283.4	34.6	-90.6	11.6
2025-01-28 11:48:30.630119	283.1	34.5	-90.3	13.4
2025-01-28 11:48:31.782755	282.7	34.3	-90.4	13.1
2025-01-28 11:48:32.938714	282.4	34.2	-90.5	12.3
2025-01-28 11:48:34.087227	282.0	34.0	-90.5	9.4
2025-01-28 11:48:35.249530	281.7	33.9	-90.3	12.0
2025-01-28 11:48:36.398815	281.3	33.7	-90.8	8.9
2025-01-28 11:48:37.558413	281.0	33.6	-90.6	11.8
2025-01-28 11:48:38.708024	280.7	33.4	-91.0	13.5
2025-01-28 11:48:39.858171	280.3	33.3	-90.5	12.8
2025-01-28 11:48:41.006319	280.0	33.1	-90.7	10.7
2025-01-28 11:48:42.161729	279.7	32.9	-90.6	12.9
2025-01-28 11:48:43.307341	279.4	32.8	-90.4	11.6
2025-01-28 11:48:44.459695	279.0	32.6	-90.8	7.6
2025-01-28 11:48:45.623975	278.7	32.5	-90.5	8.4
2025-01-28 11:48:46.781420	278.4	32.3	-90.8	9.2
2025-01-28 11:48:47.932946	278.1	32.2	-90.8	7.3
2025-01-28 11:48:49.082437	277.8	32.0	-89.6	5.5
2025-01-28 11:48:50.241533	277.5	31.8	-89.5	9.1
2025-01-28 11:48:51.399477	277.2	31.7	-89.5	5.4
2025-01-28 11:48:52.556505	276.9	31.5	-89.7	6.4
2025-01-28 11:48:53.707819	276.6	31.4	-89.4	5.1
2025-01-28 11:48:54.864795	276.3	31.2	-89.5	5.3
2025-01-28 11:48:56.015862	276.0	31.1	-90.7	5.4
2025-01-28 11:48:57.164889	275.7	30.9	-90.4	6.2
2025-01-28 11:48:58.319505	275.4	30.7	-90.2	3.9
2025-01-28 11:48:59.479554	275.1	30.6	-90.7	5.1
2025-01-28 11:49:00.636081	274.9	30.4	-90.9	4.7
2025-01-28 11:49:01.793055	274.6	30.3	-90.8	4.4
2025-01-28 11:49:02.938625	274.3	30.1	-90.6	7.1
2025-01-28 11:49:04.095249	274.0	29.9	-90.7	5.3
2025-01-28 11:49:05.249939	273.8	29.8	-90.4	3.9
2025-01-28 11:49:06.408812	273.5	29.6	-90.9	4.2
2025-01-28 11:49:07.558392	273.3	29.5	-90.9	4.7
2025-01-28 11:49:08.715126	273.0	29.3	-90.8	6.0
2025-01-28 11:49:09.863556	272.7	29.2	-91.0	4.8
2025-01-28 11:49:11.020031	272.5	29.0	-91.2	6.4
2025-01-28 11:49:12.172940	272.2	28.9	-90.4	9.6
2025-01-28 11:49:13.329168	272.0	28.7	-90.5	8.7
2025-01-28 11:49:14.473762	271.7	28.5	-90.8	8.7
2025-01-28 11:49:15.625199	271.5	28.4	-91.0	11.5
2025-01-28 11:49:16.782295	271.2	28.2	-90.7	13.1
2025-01-28 11:49:17.933776	271.0	28.1	-90.9	9.8
2025-01-28 11:49:19.080170	270.8	27.9	-90.4	9.6
2025-01-28 11:49:20.234375	270.5	27.8	-90.3	13.5
2025-01-28 11:49:21.388493	270.3	27.6	-90.2	12.3
2025-01-28 11:49:22.539614	270.1	27.5	-90.6	13.0
2025-01-28 11:49:23.691533	269.8	27.3	-90.4	13.5
2025-01-28 11:49:24.847369	269.6	27.2	-90.7	14.8
2025-01-28 11:49:25.999081	269.4	27.0	-90.5	13.5
2025-01-28 11:49:27.149246	269.2	26.9	-91.0	14.6
2025-01-28 11:49:28.305876	268.9	26.7	-90.8	13.9
2025-01-28 11:49:29.463991	268.7	26.5	-90.9	11.8
2025-01-28 11:49:30.617105	268.5	26.4	-90.9	13.7
2025-01-28 11:49:31.778824	268.3	26.2	-90.8	13.8
2025-01-28 11:49:32.931364	268.1	26.1	-90.8	9.3
2025-01-28 11:49:34.079734	267.9	25.9	-90.6	8.4
2025-01-28 11:49:35.232554	267.6	25.8	-90.6	11.9
2025-01-28 11:49:36.381345	267.4	25.6	-91.0	7.5
2025-01-28 11:49:37.534537	267.2	25.5	-90.8	7.7
2025-01-28 11:49:38.692442	267.0	25.4	-90.8	14.6
2025-01-28 11:49:39.843406	266.8	25.2	-90.7	11.6
2025-01-28 11:49:40.992857	266.6	25.1	-90.6	10.8
2025-01-28 11:49:42.149382	266.4	24.9	-90.2	14.6
2025-01-28 11:49:43.306727	266.2	24.8	-90.3	12.5
2025-01-28 11:49:44.456982	266.1	24.6	-90.7	13.4
2025-01-28 11:49:45.610035	265.9	24.5	-90.8	14.2
2025-01-28 11:49:46.773197	265.7	24.3	-90.8	16.0
2025-01-28 11:49:47.926089	265.5	24.2	-90.6	15.1
2025-01-28 11:49:49.076645	265.3	24.0	-90.5	13.1
2025-01-28 11:49:50.235854	265.1	23.9	-90.3	13.7
2025-01-28 11:49:51.384308	264.9	23.8	-90.7	11.7
2025-01-28 11:49:52.540684	264.7	23.6	-90.7	10.4
2025-01-28 11:49:53.691772	264.6	23.5	-90.8	13.1
2025-01-28 11:49:54.848636	264.4	23.3	-90.9	12.3
2025-01-28 11:49:55.995324	264.2	23.2	-90.6	11.3
2025-01-28 11:49:57.145976	264.0	23.0	-90.3	13.3
2025-01-28 11:49:58.301269	263.9	22.9	-90.3	14.4
2025-01-28 11:49:59.453750	263.7	22.8	-90.8	11.9
2025-01-28 11:50:00.591428	263.5	22.6	-90.5	13.9
2025-01-28 11:50:01.746745	263.4	22.5	-90.5	15.7
2025-01-28 11:50:02.904908	263.2	22.3	-90.6	14.5
2025-01-28 11:50:04.054827	263.0	22.2	-90.6	15.5
2025-01-28 11:50:05.207066	262.9	22.1	-90.4	13.4
2025-01-28 11:50:06.359252	262.7	21.9	-90.6	12.1
2025-01-28 11:50:07.508174	262.5	21.8	-90.6	9.3
2025-01-28 11:50:08.666091	262.4	21.7	-90.2	13.4
2025-01-28 11:50:09.817003	262.2	21.5	-90.5	11.9
2025-01-28 11:50:10.969079	262.1	21.4	-90.7	8.2
2025-01-28 11:50:12.121840	261.9	21.3	-90.4	10.1
2025-01-28 11:50:13.276625	261.8	21.1	-90.5	9.6
2025-01-28 11:50:14.426755	261.6	21.0	-89.4	7.1
2025-01-28 11:50:15.582306	261.4	20.9	-89.5	5.1
2025-01-28 11:50:16.726715	261.3	20.7	-89.3	7.8
2025-01-28 11:50:17.888332	261.2	20.6	-89.4	8.2
2025-01-28 11:50:19.035365	261.0	20.5	-90.9	10.5
2025-01-28 11:50:20.194544	260.9	20.3	-90.6	10.4
2025-01-28 11:50:21.344101	260.7	20.2	-90.2	11.4
2025-01-28 11:50:22.498057	260.6	20.1	-90.7	12.9
2025-01-28 11:50:23.649730	260.4	19.9	-90.2	10.7
2025-01-28 11:50:24.808076	260.3	19.8	-90.7	10.3
2025-01-28 11:50:25.963567	260.1	19.7	-90.7	6.9
2025-01-28 11:50:27.118939	260.0	19.5	-90.7	7.3
2025-01-28 11:50:28.267759	259.9	19.4	-90.9	7.2
2025-01-28 11:50:29.418710	259.7	19.3	-90.9	5.0
2025-01-28 11:50:30.574494	259.6	19.2	-90.8	9.0
2025-01-28 11:50:31.726870	259.5	19.0	-90.4	10.5
2025-01-28 11:50:32.886201	259.3	18.9	-90.6	7.1
2025-01-28 11:50:34.038493	259.2	18.8	-90.5	4.4
2025-01-28 11:50:35.197629	259.1	18.7	-90.2	5.2
2025-01-28 11:50:36.347596	258.9	18.5	-90.6	4.5
2025-01-28 11:50:37.505986	258.8	18.4	-90.8	4.5
2025-01-28 11:50:38.657746	258.7	18.3	-90.8	5.3
2025-01-28 11:50:39.804718	258.6	18.2	-90.4	4.0
2025-01-28 11:50:40.955287	258.4	18.0	-90.1	4.1
2025-01-28 11:50:42.104078	258.3	17.9	-90.3	5.2
2025-01-28 11:50:43.258259	258.2	17.8	-90.4	5.4
2025-01-28 11:50:44.418534	258.1	17.7	-90.2	4.9
2025-01-28 11:50:45.579393	257.9	17.6	-90.8	5.2
2025-01-28 11:50:46.729451	257.8	17.4	-91.0	8.2
2025-01-28 11:50:47.878317	257.7	17.3	-91.0	6.4
2025-01-28 11:50:49.026513	257.6	17.2	-91.0	5.4
2025-01-28 11:50:50.183063	257.5	17.1	-90.4	8.4
2025-01-28 11:50:51.339215	257.3	17.0	-90.2	8.8
2025-01-28 11:50:52.490765	257.2	16.8	-90.7	10.3
2025-01-28 11:50:53.647605	257.1	16.7	-91.1	9.4
2025-01-28 11:50:54.792513	257.0	16.6	-90.8	9.1
2025-01-28 11:50:55.947862	256.9	16.5	-90.6	7.4
2025-01-28 11:50:57.099528	256.8	16.4	-90.8	8.9
2025-01-28 11:50:58.254967	256.7	16.3	-90.3	10.1
2025-01-28 11:50:59.404500	256.6	16.1	-90.3	8.0
2025-01-28 11:51:00.551292	256.4	16.0	-90.9	8.6
2025-01-28 11:51:01.697464	256.3	15.9	-91.0	12.2
2025-01-28 11:51:02.818053	256.2	15.8	-90.7	12.3
2025-01-28 11:51:03.939911	256.1	15.7	-90.5	8.0
2025-01-28 11:51:05.062609	256.0	15.6	-90.5	9.6
2025-01-28 11:51:06.183316	255.9	15.5	-90.2	10.7
2025-01-28 11:51:07.303996	255.8	15.4	-90.4	12.0
2025-01-28 11:51:08.425513	255.7	15.2	-90.3	8.9
2025-01-28 11:51:09.545562	255.6	15.1	-90.7	8.8
2025-01-28 11:51:10.666059	255.5	15.0	-90.5	9.4
2025-01-28 11:51:11.789345	255.4	14.9	-90.7	10.0
2025-01-28 11:51:12.922157	255.3	14.8	-90.4	6.2
2025-01-28 11:51:14.070078	255.2	14.7	-90.7	5.8
2025-01-28 11:51:15.222278	255.1	14.6	-90.1	9.4
2025-01-28 11:51:16.372092	255.0	14.5	-90.0	6.3
#Closed at: 2025-01-28 11:42:56.865035