passes_logs/2025/01/28/LEX_Murmansk/LEX_Murmansk__20250128_075906_NOAA_19_rec.log

#Pass ID: 20250128_075906_NOAA 19
#Satellite: NOAA 19
#Configuration: NOAA 19
#Start time: 2025-01-28 07:59:01.826562

#LorettStation: 1.0.0 05.05.2024
#Station: LEX_Murmansk
#Location: 33.156738 lon 68.926811 lat
#TLE: 1 33591U 09005A   25027.18125374  .00000353  00000+0  21226-3 0  9998
#TLE: 2 33591  99.0174  91.0366 0013998  24.4913 335.6921 14.13269986823260

#Time	Az	El	Level	SNR
2025-01-28 07:59:14.079165	30.2	16.3	-90.4	0.8
2025-01-28 07:59:16.406610	30.4	16.5	-90.8	2.7
2025-01-28 07:59:18.729718	30.6	16.7	-90.7	3.6
2025-01-28 07:59:21.058451	30.7	17.0	-90.5	5.5
2025-01-28 07:59:23.387084	30.9	17.2	-90.4	2.9
2025-01-28 07:59:25.709386	31.1	17.5	-90.7	2.8
2025-01-28 07:59:28.033459	31.3	17.8	-90.5	2.4
2025-01-28 07:59:30.366768	31.4	18.0	-91.3	4.2
2025-01-28 07:59:32.685023	31.6	18.3	-91.4	2.6
2025-01-28 07:59:35.013070	31.8	18.5	-91.4	3.6
2025-01-28 07:59:37.340873	32.0	18.8	-91.5	4.4
2025-01-28 07:59:39.660836	32.2	19.1	-91.3	6.3
2025-01-28 07:59:41.980378	32.4	19.3	-91.6	4.1
2025-01-28 07:59:44.304835	32.6	19.6	-91.4	2.8
2025-01-28 07:59:46.635643	32.8	19.9	-91.4	8.4
2025-01-28 07:59:48.959009	33.0	20.2	-91.4	8.1
2025-01-28 07:59:51.288394	33.2	20.4	-91.2	2.8
2025-01-28 07:59:53.613799	33.5	20.7	-91.5	6.0
2025-01-28 07:59:55.938825	33.7	21.0	-91.9	5.1
2025-01-28 07:59:58.265222	33.9	21.3	-91.4	0.7
2025-01-28 08:00:00.581656	34.1	21.6	-91.4	1.7
2025-01-28 08:00:02.898480	34.4	21.9	-90.9	4.2
2025-01-28 08:00:05.228144	34.6	22.2	-90.5	3.8
2025-01-28 08:00:07.556960	34.8	22.5	-90.8	4.7
2025-01-28 08:00:09.877372	35.1	22.8	-90.6	8.2
2025-01-28 08:00:12.199662	35.3	23.1	-90.7	8.9
2025-01-28 08:00:14.528610	35.6	23.4	-90.9	3.8
2025-01-28 08:00:16.854234	35.8	23.7	-90.8	1.7
2025-01-28 08:00:19.188354	36.1	24.0	-90.8	4.7
2025-01-28 08:00:21.510764	36.4	24.4	-90.7	9.9
2025-01-28 08:00:23.836563	36.7	24.7	-90.7	5.3
2025-01-28 08:00:26.156409	36.9	25.0	-90.9	7.3
2025-01-28 08:00:28.485233	37.2	25.4	-90.9	10.8
2025-01-28 08:00:30.814684	37.5	25.7	-90.8	5.6
2025-01-28 08:00:33.137263	37.8	26.0	-90.4	4.2
2025-01-28 08:00:35.466622	38.1	26.4	-90.8	3.4
2025-01-28 08:00:37.794761	38.4	26.7	-90.9	6.7
2025-01-28 08:00:40.123663	38.7	27.1	-90.9	9.8
2025-01-28 08:00:42.443048	39.1	27.4	-91.5	4.3
2025-01-28 08:00:44.770215	39.4	27.8	-90.8	5.3
2025-01-28 08:00:47.084151	39.7	28.1	-90.5	7.4
2025-01-28 08:00:49.415561	40.1	28.5	-91.1	6.2
2025-01-28 08:00:51.737231	40.4	28.8	-90.9	1.1
2025-01-28 08:00:54.075151	40.8	29.2	-91.6	2.1
2025-01-28 08:00:56.399930	41.2	29.6	-91.5	6.0
2025-01-28 08:00:58.724137	41.5	30.0	-92.0	10.6
2025-01-28 08:01:01.050426	41.9	30.3	-90.8	6.9
2025-01-28 08:01:03.369916	42.3	30.7	-91.2	8.1
2025-01-28 08:01:05.710894	42.7	31.1	-90.6	10.7
2025-01-28 08:01:08.032844	43.1	31.5	-90.6	7.2
2025-01-28 08:01:10.352763	43.6	31.9	-90.8	4.3
2025-01-28 08:01:12.680515	44.0	32.3	-91.0	3.1
2025-01-28 08:01:15.008513	44.4	32.7	-90.8	12.6
2025-01-28 08:01:17.341326	44.9	33.1	-90.6	13.8
2025-01-28 08:01:19.666885	45.4	33.5	-90.9	8.1
2025-01-28 08:01:21.990630	45.8	33.9	-91.1	10.3
2025-01-28 08:01:24.319342	46.3	34.3	-90.7	13.2
2025-01-28 08:01:26.651561	46.8	34.8	-91.0	13.3
2025-01-28 08:01:28.982382	47.4	35.2	-91.1	7.8
2025-01-28 08:01:31.313464	47.9	35.6	-91.4	4.5
2025-01-28 08:01:33.631710	48.4	36.0	-91.5	7.0
2025-01-28 08:01:35.962005	49.0	36.5	-91.3	13.1
2025-01-28 08:01:38.292836	49.6	36.9	-91.6	13.9
2025-01-28 08:01:40.624742	50.1	37.3	-91.8	11.1
2025-01-28 08:01:42.952975	50.7	37.8	-91.5	9.9
2025-01-28 08:01:45.284245	51.4	38.2	-91.3	12.5
2025-01-28 08:01:47.612265	52.0	38.7	-91.7	12.9
2025-01-28 08:01:49.944731	52.7	39.1	-91.4	9.6
2025-01-28 08:01:52.271988	53.3	39.6	-91.4	2.7
2025-01-28 08:01:54.595855	54.0	40.0	-90.6	4.4
2025-01-28 08:01:56.924861	54.7	40.4	-91.1	10.7
2025-01-28 08:01:59.247851	55.4	40.9	-90.9	17.1
2025-01-28 08:02:01.569565	56.2	41.3	-90.9	16.0
2025-01-28 08:02:03.894643	56.9	41.8	-90.8	11.9
2025-01-28 08:02:06.224663	57.7	42.2	-90.7	7.3
2025-01-28 08:02:08.559559	58.5	42.7	-91.9	14.5
2025-01-28 08:02:10.881703	59.4	43.1	-91.5	17.2
2025-01-28 08:02:13.208631	60.2	43.6	-91.5	9.2
2025-01-28 08:02:15.537879	61.1	44.0	-91.5	5.5
2025-01-28 08:02:17.872523	62.0	44.5	-91.1	4.5
2025-01-28 08:02:20.198627	62.9	44.9	-90.5	5.6
2025-01-28 08:02:22.521256	63.9	45.3	-90.8	10.1
2025-01-28 08:02:24.841149	64.9	45.8	-90.8	12.4
2025-01-28 08:02:27.168403	65.9	46.2	-90.7	11.2
2025-01-28 08:02:29.514173	66.9	46.6	-91.7	5.8
2025-01-28 08:02:31.837081	68.0	47.0	-91.3	5.7
2025-01-28 08:02:34.163869	69.1	47.4	-91.6	6.5
2025-01-28 08:02:36.488611	70.2	47.8	-91.7	9.0
2025-01-28 08:02:38.817310	71.3	48.2	-91.8	12.4
2025-01-28 08:02:41.150956	72.5	48.6	-90.9	7.9
2025-01-28 08:02:43.475504	73.7	49.0	-90.8	3.0
2025-01-28 08:02:45.803450	74.9	49.4	-90.7	2.5
2025-01-28 08:02:48.130438	76.2	49.7	-91.0	5.1
2025-01-28 08:02:50.462102	77.5	50.1	-90.7	4.0
2025-01-28 08:02:52.784837	78.8	50.4	-91.8	4.4
2025-01-28 08:02:55.111517	80.2	50.7	-91.5	10.9
2025-01-28 08:02:57.444914	81.5	51.0	-91.7	13.5
2025-01-28 08:02:59.764683	82.9	51.3	-91.8	11.1
2025-01-28 08:03:02.011739	84.3	51.5	-91.5	11.1
2025-01-28 08:03:04.334790	85.7	51.8	-91.4	15.5
2025-01-28 08:03:06.664880	87.2	52.0	-91.7	12.4
2025-01-28 08:03:08.997266	88.7	52.2	-91.6	7.0
2025-01-28 08:03:11.320936	90.2	52.4	-91.3	10.4
2025-01-28 08:03:13.639745	91.8	52.6	-91.7	9.9
2025-01-28 08:03:15.969073	93.3	52.7	-91.2	15.4
2025-01-28 08:03:18.286845	94.9	52.9	-91.3	13.6
2025-01-28 08:03:20.613962	96.4	53.0	-90.9	14.0
2025-01-28 08:03:22.935810	98.0	53.1	-90.7	10.0
2025-01-28 08:03:25.255658	99.6	53.1	-90.6	13.5
2025-01-28 08:03:27.583161	101.2	53.2	-91.0	6.3
2025-01-28 08:03:29.904192	102.8	53.2	-91.6	9.0
2025-01-28 08:03:32.223716	104.4	53.2	-90.5	9.8
2025-01-28 08:03:34.547507	106.0	53.2	-91.2	3.4
2025-01-28 08:03:36.871635	107.6	53.2	-91.0	10.2
2025-01-28 08:03:39.211572	109.3	53.1	-91.6	11.8
2025-01-28 08:03:41.537324	110.8	53.0	-91.7	3.5
2025-01-28 08:03:43.875258	112.4	52.9	-91.4	7.7
2025-01-28 08:03:46.201560	114.0	52.8	-91.5	10.7
2025-01-28 08:03:48.538131	115.5	52.6	-91.5	5.2
2025-01-28 08:03:50.870587	117.1	52.4	-91.8	9.5
2025-01-28 08:03:53.197149	118.6	52.2	-90.9	10.7
2025-01-28 08:03:55.523224	120.1	52.0	-91.1	7.2
2025-01-28 08:03:57.846776	121.6	51.8	-91.0	10.4
2025-01-28 08:04:00.166987	123.0	51.5	-90.8	9.8
2025-01-28 08:04:02.487981	124.4	51.3	-90.4	7.0
2025-01-28 08:04:04.807791	125.8	51.0	-90.8	8.4
2025-01-28 08:04:07.136031	127.2	50.7	-91.2	7.7
2025-01-28 08:04:09.460936	128.5	50.4	-91.5	9.9
2025-01-28 08:04:11.790727	129.9	50.1	-91.8	7.5
2025-01-28 08:04:14.118644	131.2	49.7	-91.7	5.7
2025-01-28 08:04:16.452116	132.4	49.4	-91.9	4.8
2025-01-28 08:04:18.776917	133.6	49.0	-91.9	8.3
2025-01-28 08:04:21.105542	134.8	48.6	-91.9	3.9
2025-01-28 08:04:23.431259	136.0	48.2	-92.0	7.5
2025-01-28 08:04:25.764042	137.2	47.8	-91.6	11.6
2025-01-28 08:04:28.094006	138.3	47.4	-90.9	4.8
2025-01-28 08:04:30.417421	139.4	47.0	-91.0	5.5
2025-01-28 08:04:32.739481	140.4	46.6	-91.1	10.9
2025-01-28 08:04:35.075392	141.5	46.2	-91.8	4.5
2025-01-28 08:04:37.396836	142.5	45.8	-91.5	7.8
2025-01-28 08:04:39.720719	143.4	45.3	-91.5	14.8
2025-01-28 08:04:42.047020	144.4	44.9	-91.9	10.2
2025-01-28 08:04:44.355757	145.3	44.5	-91.9	16.1
2025-01-28 08:04:46.681859	146.2	44.0	-91.9	11.3
2025-01-28 08:04:49.008596	147.1	43.6	-91.7	10.1
2025-01-28 08:04:51.338319	148.0	43.1	-91.3	16.1
2025-01-28 08:04:53.657535	148.8	42.7	-91.6	13.0
2025-01-28 08:04:56.001250	149.6	42.2	-91.8	14.4
2025-01-28 08:04:58.323894	150.4	41.8	-89.8	13.6
2025-01-28 08:05:00.647339	151.2	41.4	-90.8	14.2
2025-01-28 08:05:02.965531	151.9	40.9	-90.7	10.1
2025-01-28 08:05:05.289189	152.6	40.5	-91.4	14.6
2025-01-28 08:05:07.615319	153.3	40.0	-91.9	8.0
2025-01-28 08:05:09.942789	154.0	39.6	-91.9	3.3
2025-01-28 08:05:12.262289	154.7	39.1	-91.7	6.9
2025-01-28 08:05:14.597558	155.3	38.7	-91.6	4.2
2025-01-28 08:05:16.926943	156.0	38.2	-91.7	7.8
2025-01-28 08:05:19.257060	156.6	37.8	-91.9	8.2
2025-01-28 08:05:21.589300	157.2	37.3	-91.6	10.2
2025-01-28 08:05:23.912178	157.8	36.9	-91.9	9.2
2025-01-28 08:05:26.244076	158.3	36.5	-91.7	9.8
2025-01-28 08:05:28.570521	158.9	36.0	-91.7	10.8
2025-01-28 08:05:30.897493	159.4	35.6	-91.5	6.8
2025-01-28 08:05:33.215197	160.0	35.2	-91.5	11.6
2025-01-28 08:05:35.543845	160.5	34.8	-91.8	6.0
2025-01-28 08:05:37.877013	161.0	34.4	-90.8	7.1
2025-01-28 08:05:40.209113	161.5	33.9	-90.6	14.6
2025-01-28 08:05:42.536532	162.0	33.5	-90.7	11.8
2025-01-28 08:05:44.876308	162.4	33.1	-91.9	8.7
2025-01-28 08:05:47.202238	162.9	32.7	-91.8	8.7
2025-01-28 08:05:49.520185	163.3	32.3	-91.8	6.8
2025-01-28 08:05:51.836641	163.8	31.9	-92.0	3.9
2025-01-28 08:05:54.161250	164.2	31.5	-91.6	9.9
2025-01-28 08:05:56.487203	164.6	31.1	-91.5	6.8
2025-01-28 08:05:58.808600	165.0	30.7	-91.8	9.4
2025-01-28 08:06:01.124566	165.4	30.4	-91.4	7.4
2025-01-28 08:06:03.443724	165.8	30.0	-91.8	6.4
2025-01-28 08:06:05.767345	166.2	29.6	-91.6	8.3
2025-01-28 08:06:08.095736	166.5	29.2	-91.7	8.6
2025-01-28 08:06:10.421240	166.9	28.9	-91.8	10.4
2025-01-28 08:06:12.747383	167.2	28.5	-91.9	9.7
2025-01-28 08:06:15.068779	167.6	28.1	-91.4	4.5
2025-01-28 08:06:17.398006	167.9	27.8	-91.5	5.0
2025-01-28 08:06:19.733265	168.2	27.4	-91.9	7.8
2025-01-28 08:06:22.065100	168.6	27.1	-91.4	4.8
2025-01-28 08:06:24.398454	168.9	26.7	-91.0	5.8
2025-01-28 08:06:26.728628	169.2	26.4	-91.2	7.5
2025-01-28 08:06:29.060024	169.5	26.0	-91.0	3.2
2025-01-28 08:06:31.383820	169.8	25.7	-91.0	5.0
2025-01-28 08:06:33.698634	170.1	25.4	-91.6	7.8
2025-01-28 08:06:36.030478	170.4	25.0	-91.9	5.1
2025-01-28 08:06:38.357487	170.7	24.7	-91.6	7.8
2025-01-28 08:06:40.685467	170.9	24.4	-91.6	9.6
2025-01-28 08:06:43.019467	171.2	24.1	-91.8	7.5
2025-01-28 08:06:45.345262	171.5	23.7	-91.7	8.0
2025-01-28 08:06:47.668524	171.7	23.4	-90.9	8.2
2025-01-28 08:06:50.000644	172.0	23.1	-90.9	5.8
2025-01-28 08:06:52.331549	172.2	22.8	-90.9	7.7
2025-01-28 08:06:54.651267	172.5	22.5	-91.1	9.0
2025-01-28 08:06:56.974685	172.7	22.2	-91.0	8.7
2025-01-28 08:06:59.304797	173.0	21.9	-91.1	7.2
2025-01-28 08:07:01.630328	173.2	21.6	-92.0	6.2
2025-01-28 08:07:03.949774	173.4	21.3	-91.7	5.5
2025-01-28 08:07:06.276984	173.6	21.0	-91.0	5.9
2025-01-28 08:07:08.603247	173.9	20.7	-91.5	5.5
2025-01-28 08:07:10.923586	174.1	20.4	-92.0	7.4
2025-01-28 08:07:13.254639	174.3	20.2	-91.4	10.0
2025-01-28 08:07:15.585771	174.5	19.9	-91.9	5.4
2025-01-28 08:07:17.916608	174.7	19.6	-91.9	5.8
2025-01-28 08:07:20.246223	174.9	19.3	-90.9	8.7
2025-01-28 08:07:22.570220	175.1	19.1	-90.7	8.2
2025-01-28 08:07:24.913228	175.3	18.8	-91.0	9.0
2025-01-28 08:07:27.236893	175.5	18.5	-90.6	5.6
2025-01-28 08:07:29.570434	175.7	18.3	-90.8	2.7
2025-01-28 08:07:31.889623	175.9	18.0	-90.7	2.5
2025-01-28 08:07:34.220002	176.0	17.7	-90.9	2.0
2025-01-28 08:07:36.540081	176.2	17.5	-90.6	2.5
2025-01-28 08:07:38.869474	176.4	17.2	-90.9	2.2
2025-01-28 08:07:41.194843	176.6	17.0	-91.6	3.2
2025-01-28 08:07:43.519807	176.7	16.7	-91.9	3.1
2025-01-28 08:07:45.842845	176.9	16.5	-91.7	4.8
2025-01-28 08:07:48.175951	177.1	16.2	-90.8	4.0
2025-01-28 08:07:50.505511	177.2	16.0	-91.0	2.4
2025-01-28 08:07:52.839275	177.4	15.8	-90.9	3.9
2025-01-28 08:07:55.153245	177.6	15.5	-91.0	5.2
2025-01-28 08:07:57.485306	177.7	15.3	-91.9	4.5
2025-01-28 08:07:59.814727	177.9	15.1	-91.9	4.4
2025-01-28 08:08:02.133743	178.0	14.8	-91.6	3.9
2025-01-28 08:08:04.452216	178.2	14.6	-91.8	3.6
#Closed at: 2025-01-28 07:59:06.880581