passes_logs/2025/01/28/LEX_Murmansk/LEX_Murmansk__20250128_161858_NOAA_19_rec.log

#Pass ID: 20250128_161858_NOAA 19
#Satellite: NOAA 19
#Configuration: NOAA 19
#Start time: 2025-01-28 16:18:53.382537

#LorettStation: 1.0.0 05.05.2024
#Station: LEX_Murmansk
#Location: 33.156738 lon 68.926811 lat
#TLE: 1 33591U 09005A   25027.88922411  .00000392  00000+0  23338-3 0  9991
#TLE: 2 33591  99.0173  91.7499 0013972  22.5257 337.6525 14.13270697823101

#Time	Az	El	Level	SNR
2025-01-28 16:19:05.581916	109.8	16.2	-88.8	4.3
2025-01-28 16:19:06.747470	109.7	16.4	-89.1	3.3
2025-01-28 16:19:07.905830	109.6	16.5	-89.1	5.3
2025-01-28 16:19:09.058755	109.5	16.6	-88.8	6.2
2025-01-28 16:19:10.207177	109.4	16.7	-88.5	12.1
2025-01-28 16:19:11.367837	109.3	16.8	-88.5	6.8
2025-01-28 16:19:12.519108	109.2	17.0	-88.9	7.0
2025-01-28 16:19:13.673893	109.1	17.1	-88.8	4.3
2025-01-28 16:19:14.828206	109.0	17.2	-88.7	2.8
2025-01-28 16:19:15.979460	108.9	17.3	-89.0	8.7
2025-01-28 16:19:17.132793	108.8	17.5	-88.8	12.4
2025-01-28 16:19:18.290061	108.7	17.6	-88.9	9.1
2025-01-28 16:19:19.450213	108.6	17.7	-88.7	8.2
2025-01-28 16:19:20.606776	108.5	17.8	-88.9	4.1
2025-01-28 16:19:21.764327	108.4	18.0	-89.0	1.7
2025-01-28 16:19:22.922577	108.3	18.1	-89.0	4.8
2025-01-28 16:19:24.073450	108.2	18.2	-88.7	6.6
2025-01-28 16:19:25.236625	108.1	18.3	-88.3	5.4
2025-01-28 16:19:26.389260	108.0	18.5	-88.8	6.7
2025-01-28 16:19:27.556212	107.9	18.6	-88.6	8.5
2025-01-28 16:19:28.713572	107.8	18.7	-88.6	2.1
2025-01-28 16:19:29.869951	107.6	18.9	-88.6	3.3
2025-01-28 16:19:31.040096	107.5	19.0	-88.6	4.7
2025-01-28 16:19:32.195958	107.4	19.1	-88.5	5.6
2025-01-28 16:19:33.356784	107.3	19.3	-88.2	6.0
2025-01-28 16:19:34.516681	107.2	19.4	-88.9	6.3
2025-01-28 16:19:35.668313	107.1	19.5	-88.9	3.1
2025-01-28 16:19:36.830731	106.9	19.7	-88.6	3.4
2025-01-28 16:19:37.991943	106.8	19.8	-89.0	4.0
2025-01-28 16:19:39.156928	106.7	19.9	-88.8	2.8
2025-01-28 16:19:40.320420	106.6	20.1	-88.8	4.0
2025-01-28 16:19:41.474348	106.4	20.2	-89.3	3.2
2025-01-28 16:19:42.631947	106.3	20.3	-88.9	9.5
2025-01-28 16:19:43.797355	106.2	20.5	-88.9	10.7
2025-01-28 16:19:44.952485	106.1	20.6	-88.8	4.6
2025-01-28 16:19:46.104316	105.9	20.7	-88.9	3.7
2025-01-28 16:19:47.256328	105.8	20.9	-88.8	6.4
2025-01-28 16:19:48.423849	105.7	21.0	-88.9	5.3
2025-01-28 16:19:49.577411	105.5	21.2	-89.3	5.1
2025-01-28 16:19:50.737062	105.4	21.3	-89.2	3.2
2025-01-28 16:19:51.892959	105.3	21.4	-88.9	7.5
2025-01-28 16:19:53.053023	105.1	21.6	-89.1	3.5
2025-01-28 16:19:54.211808	105.0	21.7	-89.2	4.2
2025-01-28 16:19:55.367971	104.9	21.9	-89.3	2.1
2025-01-28 16:19:56.518970	104.7	22.0	-89.5	2.5
2025-01-28 16:19:57.678566	104.6	22.2	-89.2	1.4
2025-01-28 16:19:58.833655	104.4	22.3	-89.7	3.0
2025-01-28 16:19:59.997579	104.3	22.5	-89.7	5.5
2025-01-28 16:20:01.150766	104.1	22.6	-89.3	3.8
2025-01-28 16:20:02.307054	104.0	22.7	-89.3	7.3
2025-01-28 16:20:03.465140	103.8	22.9	-89.3	3.0
2025-01-28 16:20:04.611600	103.7	23.0	-89.0	5.1
2025-01-28 16:20:05.762902	103.5	23.2	-89.2	4.6
2025-01-28 16:20:06.918928	103.4	23.3	-89.1	3.2
2025-01-28 16:20:08.082560	103.2	23.5	-89.0	4.2
2025-01-28 16:20:09.241175	103.1	23.6	-89.1	4.9
2025-01-28 16:20:10.392111	102.9	23.8	-88.4	2.0
2025-01-28 16:20:11.556144	102.8	23.9	-89.0	2.1
2025-01-28 16:20:12.711495	102.6	24.1	-89.4	4.0
2025-01-28 16:20:13.868719	102.4	24.3	-89.2	2.4
2025-01-28 16:20:15.027090	102.3	24.4	-89.2	2.9
2025-01-28 16:20:16.182009	102.1	24.6	-89.3	3.3
2025-01-28 16:20:17.335156	101.9	24.7	-89.1	2.5
2025-01-28 16:20:18.490574	101.8	24.9	-89.2	3.9
2025-01-28 16:20:19.645950	101.6	25.0	-89.1	4.4
2025-01-28 16:20:20.803580	101.4	25.2	-88.9	5.6
2025-01-28 16:20:21.957970	101.3	25.3	-89.4	4.2
2025-01-28 16:20:23.113583	101.1	25.5	-89.0	7.2
2025-01-28 16:20:24.282010	100.9	25.7	-89.1	1.4
2025-01-28 16:20:25.432004	100.7	25.8	-89.0	12.8
2025-01-28 16:20:26.587025	100.6	26.0	-89.1	8.1
2025-01-28 16:20:27.741547	100.4	26.1	-89.1	9.2
2025-01-28 16:20:28.896994	100.2	26.3	-89.3	5.9
2025-01-28 16:20:30.053397	100.0	26.5	-89.2	7.0
2025-01-28 16:20:31.214857	99.8	26.6	-89.1	2.7
2025-01-28 16:20:32.365752	99.6	26.8	-89.0	2.8
2025-01-28 16:20:33.535080	99.4	27.0	-89.4	2.3
2025-01-28 16:20:34.689078	99.2	27.1	-89.8	5.8
2025-01-28 16:20:35.838085	99.0	27.3	-88.6	5.2
2025-01-28 16:20:36.983775	98.8	27.4	-88.4	9.3
2025-01-28 16:20:38.139651	98.6	27.6	-88.7	9.5
2025-01-28 16:20:39.288426	98.4	27.8	-88.9	7.0
2025-01-28 16:20:40.450527	98.2	27.9	-89.2	3.1
2025-01-28 16:20:41.604737	98.0	28.1	-89.4	7.9
2025-01-28 16:20:42.762526	97.8	28.3	-89.4	3.8
2025-01-28 16:20:43.921996	97.6	28.5	-89.0	6.1
2025-01-28 16:20:45.073650	97.4	28.6	-89.1	12.9
2025-01-28 16:20:46.223902	97.2	28.8	-89.3	5.3
2025-01-28 16:20:47.373935	97.0	29.0	-89.5	5.0
2025-01-28 16:20:48.536148	96.7	29.1	-89.2	6.7
2025-01-28 16:20:49.684157	96.5	29.3	-89.0	5.0
2025-01-28 16:20:50.843953	96.3	29.5	-89.3	4.3
2025-01-28 16:20:52.001185	96.1	29.7	-89.0	3.9
2025-01-28 16:20:53.152752	95.8	29.8	-89.1	2.2
2025-01-28 16:20:54.314989	95.6	30.0	-89.0	2.9
2025-01-28 16:20:55.472983	95.4	30.2	-88.8	11.9
2025-01-28 16:20:56.621760	95.1	30.3	-89.2	7.5
2025-01-28 16:20:57.779468	94.9	30.5	-89.6	8.0
2025-01-28 16:20:58.938928	94.6	30.7	-89.5	5.6
2025-01-28 16:21:00.068516	94.4	30.9	-89.0	5.6
2025-01-28 16:21:01.216033	94.2	31.0	-88.8	7.3
2025-01-28 16:21:02.371996	93.9	31.2	-88.8	7.1
2025-01-28 16:21:03.522719	93.6	31.4	-89.4	5.7
2025-01-28 16:21:04.680663	93.4	31.6	-89.6	9.7
2025-01-28 16:21:05.839496	93.1	31.8	-89.8	5.5
2025-01-28 16:21:06.993095	92.9	31.9	-89.4	8.7
2025-01-28 16:21:08.148851	92.6	32.1	-89.3	9.5
2025-01-28 16:21:09.304940	92.3	32.3	-89.2	7.2
2025-01-28 16:21:10.456582	92.1	32.5	-89.2	6.8
2025-01-28 16:21:11.609341	91.8	32.7	-89.2	2.5
2025-01-28 16:21:12.769162	91.5	32.8	-89.1	3.5
2025-01-28 16:21:13.924918	91.2	33.0	-89.2	3.4
2025-01-28 16:21:15.075833	90.9	33.2	-89.9	5.8
2025-01-28 16:21:16.228886	90.7	33.4	-89.8	8.3
2025-01-28 16:21:17.389372	90.4	33.6	-89.8	8.2
2025-01-28 16:21:18.547339	90.1	33.7	-89.2	14.0
2025-01-28 16:21:19.712649	89.8	33.9	-89.5	15.2
2025-01-28 16:21:20.869049	89.5	34.1	-89.5	9.1
2025-01-28 16:21:22.023158	89.2	34.3	-89.6	8.3
2025-01-28 16:21:23.172689	88.9	34.5	-89.7	5.9
2025-01-28 16:21:24.339554	88.6	34.7	-89.7	8.3
2025-01-28 16:21:25.495405	88.2	34.8	-90.1	11.5
2025-01-28 16:21:26.652825	87.9	35.0	-89.8	14.0
2025-01-28 16:21:27.815873	87.6	35.2	-89.5	14.3
2025-01-28 16:21:28.979211	87.3	35.4	-89.2	8.2
2025-01-28 16:21:30.136426	86.9	35.6	-89.1	11.1
2025-01-28 16:21:31.294726	86.6	35.8	-89.3	8.0
2025-01-28 16:21:32.456606	86.3	35.9	-89.7	5.6
2025-01-28 16:21:33.616185	85.9	36.1	-89.3	5.6
2025-01-28 16:21:34.774317	85.6	36.3	-89.5	3.9
2025-01-28 16:21:35.933452	85.2	36.5	-89.7	4.6
2025-01-28 16:21:37.085829	84.9	36.7	-89.4	4.0
2025-01-28 16:21:38.235120	84.5	36.9	-89.6	4.3
2025-01-28 16:21:39.397183	84.2	37.0	-88.7	6.9
2025-01-28 16:21:40.544696	83.8	37.2	-89.3	7.7
2025-01-28 16:21:41.699019	83.4	37.4	-88.7	8.2
2025-01-28 16:21:42.862490	83.1	37.6	-89.2	9.8
2025-01-28 16:21:44.017674	82.7	37.8	-89.5	11.3
2025-01-28 16:21:45.170949	82.3	37.9	-88.8	6.5
2025-01-28 16:21:46.330024	81.9	38.1	-90.0	5.8
2025-01-28 16:21:47.487596	81.5	38.3	-89.7	6.9
2025-01-28 16:21:48.653758	81.1	38.5	-90.2	9.4
2025-01-28 16:21:49.805996	80.7	38.7	-89.9	9.7
2025-01-28 16:21:50.968605	80.3	38.8	-89.8	13.2
2025-01-28 16:21:52.130257	79.9	39.0	-89.3	11.7
2025-01-28 16:21:53.290290	79.5	39.2	-89.6	13.5
2025-01-28 16:21:54.450500	79.1	39.4	-89.4	11.8
2025-01-28 16:21:55.616508	78.7	39.5	-89.4	7.2
2025-01-28 16:21:56.767859	78.3	39.7	-89.4	5.4
2025-01-28 16:21:57.919044	77.8	39.9	-89.8	5.7
2025-01-28 16:21:59.082691	77.4	40.0	-89.6	3.9
2025-01-28 16:22:00.242585	77.0	40.2	-89.4	1.5
2025-01-28 16:22:01.398433	76.5	40.4	-89.4	6.8
2025-01-28 16:22:02.547069	76.1	40.5	-89.3	2.4
2025-01-28 16:22:03.705656	75.6	40.7	-89.7	5.7
2025-01-28 16:22:04.862789	75.2	40.9	-90.0	9.5
2025-01-28 16:22:06.021663	74.7	41.0	-89.9	10.0
2025-01-28 16:22:07.167323	74.2	41.2	-89.6	12.2
2025-01-28 16:22:08.325832	73.8	41.4	-89.2	10.9
2025-01-28 16:22:09.477934	73.3	41.5	-89.3	14.6
2025-01-28 16:22:10.638304	72.8	41.7	-89.4	11.9
2025-01-28 16:22:11.788388	72.3	41.8	-89.3	7.9
2025-01-28 16:22:12.953952	71.8	42.0	-89.9	7.1
2025-01-28 16:22:14.109382	71.3	42.1	-89.7	7.9
2025-01-28 16:22:15.260629	70.8	42.3	-89.2	4.8
2025-01-28 16:22:16.417820	70.3	42.4	-89.2	7.4
2025-01-28 16:22:17.573318	69.8	42.6	-89.7	9.9
2025-01-28 16:22:18.727031	69.3	42.7	-90.2	10.4
2025-01-28 16:22:19.885658	68.8	42.9	-90.2	13.7
2025-01-28 16:22:21.038262	68.3	43.0	-89.6	14.6
2025-01-28 16:22:22.199662	67.8	43.1	-89.4	12.3
2025-01-28 16:22:23.360461	67.2	43.3	-89.9	12.7
2025-01-28 16:22:24.517105	66.7	43.4	-89.9	12.7
2025-01-28 16:22:25.675669	66.2	43.5	-89.9	10.7
2025-01-28 16:22:26.830494	65.6	43.7	-89.7	8.9
2025-01-28 16:22:27.986838	65.1	43.8	-90.0	7.7
2025-01-28 16:22:29.145993	64.5	43.9	-89.6	5.5
2025-01-28 16:22:30.302275	64.0	44.0	-89.5	3.5
2025-01-28 16:22:31.460763	63.4	44.2	-89.7	5.4
2025-01-28 16:22:32.607922	62.8	44.3	-90.0	6.0
2025-01-28 16:22:33.768653	62.3	44.4	-89.5	4.8
2025-01-28 16:22:34.922314	61.7	44.5	-89.8	5.3
2025-01-28 16:22:36.077380	61.1	44.6	-89.5	7.2
2025-01-28 16:22:37.235353	60.5	44.7	-89.4	8.2
2025-01-28 16:22:38.395633	59.9	44.8	-89.8	9.9
2025-01-28 16:22:39.556245	59.4	44.9	-89.4	11.8
2025-01-28 16:22:40.720514	58.8	45.0	-89.3	9.6
2025-01-28 16:22:41.876208	58.2	45.1	-89.3	9.7
2025-01-28 16:22:43.036646	57.6	45.2	-89.3	12.3
2025-01-28 16:22:44.196484	57.0	45.3	-89.0	14.7
2025-01-28 16:22:45.353389	56.4	45.3	-89.0	13.1
2025-01-28 16:22:46.503782	55.8	45.4	-89.0	11.2
2025-01-28 16:22:47.658617	55.1	45.5	-88.9	9.4
2025-01-28 16:22:48.816808	54.5	45.6	-89.3	6.5
2025-01-28 16:22:49.976507	53.9	45.6	-89.4	5.0
2025-01-28 16:22:51.137860	53.3	45.7	-89.5	7.5
2025-01-28 16:22:52.295380	52.7	45.8	-89.3	5.6
2025-01-28 16:22:53.453874	52.1	45.8	-89.7	7.3
2025-01-28 16:22:54.613633	51.4	45.9	-89.8	9.3
2025-01-28 16:22:55.771367	50.8	45.9	-89.4	4.7
2025-01-28 16:22:56.926787	50.2	46.0	-89.2	7.3
2025-01-28 16:22:58.089469	49.5	46.0	-89.0	9.4
2025-01-28 16:22:59.250637	48.9	46.0	-89.3	7.7
2025-01-28 16:23:00.403354	48.3	46.1	-89.3	6.4
2025-01-28 16:23:01.568919	47.6	46.1	-89.7	8.9
2025-01-28 16:23:02.720103	47.0	46.1	-89.8	10.9
2025-01-28 16:23:03.879583	46.4	46.2	-89.6	11.9
2025-01-28 16:23:05.044642	45.7	46.2	-89.5	11.7
2025-01-28 16:23:06.198441	45.1	46.2	-89.8	12.8
2025-01-28 16:23:07.358986	44.4	46.2	-89.9	14.3
2025-01-28 16:23:08.533976	43.8	46.2	-89.8	14.2
2025-01-28 16:23:09.701626	43.1	46.2	-89.9	14.0
2025-01-28 16:23:10.869451	42.5	46.2	-89.8	13.2
2025-01-28 16:23:12.028922	41.9	46.2	-89.7	12.6
2025-01-28 16:23:13.187584	41.2	46.2	-89.6	12.7
2025-01-28 16:23:14.351657	40.6	46.2	-89.7	12.8
2025-01-28 16:23:15.502927	39.9	46.2	-89.3	11.2
2025-01-28 16:23:16.653761	39.3	46.1	-89.5	10.2
2025-01-28 16:23:17.819486	38.7	46.1	-89.4	9.0
2025-01-28 16:23:18.971542	38.0	46.1	-89.5	10.9
2025-01-28 16:23:20.133986	37.4	46.0	-89.1	10.1
2025-01-28 16:23:21.288733	36.8	46.0	-89.1	6.7
2025-01-28 16:23:22.438072	36.1	46.0	-89.6	8.0
2025-01-28 16:23:23.600015	35.5	45.9	-89.6	10.4
2025-01-28 16:23:24.757283	34.9	45.9	-90.4	8.0
2025-01-28 16:23:25.908792	34.3	45.8	-90.0	9.1
2025-01-28 16:23:27.064136	33.6	45.8	-89.7	7.0
2025-01-28 16:23:28.220017	33.0	45.7	-89.6	6.1
2025-01-28 16:23:29.375144	32.4	45.6	-89.7	7.8
2025-01-28 16:23:30.533291	31.8	45.6	-90.0	7.6
2025-01-28 16:23:31.685158	31.2	45.5	-90.3	6.0
2025-01-28 16:23:32.844663	30.6	45.4	-89.9	2.6
2025-01-28 16:23:34.000391	30.0	45.4	-89.5	7.5
2025-01-28 16:23:35.163349	29.3	45.3	-89.8	5.0
2025-01-28 16:23:36.321406	28.7	45.2	-89.9	4.5
2025-01-28 16:23:37.479371	28.1	45.1	-89.9	8.3
2025-01-28 16:23:38.633793	27.6	45.0	-90.0	8.2
2025-01-28 16:23:39.783184	27.0	44.9	-89.2	5.5
2025-01-28 16:23:40.938480	26.4	44.8	-89.6	7.6
2025-01-28 16:23:42.104051	25.8	44.7	-89.3	4.9
2025-01-28 16:23:43.264859	25.2	44.6	-89.6	2.6
2025-01-28 16:23:44.415885	24.6	44.5	-89.6	5.9
2025-01-28 16:23:45.574164	24.1	44.4	-89.6	5.4
2025-01-28 16:23:46.737021	23.5	44.3	-89.1	3.9
2025-01-28 16:23:47.899443	22.9	44.2	-89.1	6.1
2025-01-28 16:23:49.059966	22.4	44.1	-89.2	6.8
2025-01-28 16:23:50.219995	21.8	43.9	-89.0	4.4
2025-01-28 16:23:51.382645	21.3	43.8	-89.2	4.7
2025-01-28 16:23:52.538857	20.7	43.7	-89.6	8.4
2025-01-28 16:23:53.694235	20.2	43.6	-90.1	6.1
2025-01-28 16:23:54.852657	19.6	43.4	-89.2	5.7
2025-01-28 16:23:56.011632	19.1	43.3	-89.7	9.5
2025-01-28 16:23:57.166506	18.6	43.2	-90.0	6.9
2025-01-28 16:23:58.329232	18.0	43.0	-89.7	5.9
2025-01-28 16:23:59.483671	17.5	42.9	-89.9	8.2
2025-01-28 16:24:00.635417	17.0	42.8	-90.1	9.0
2025-01-28 16:24:01.794048	16.5	42.6	-89.4	5.0
2025-01-28 16:24:02.955710	16.0	42.5	-89.4	8.2
2025-01-28 16:24:04.108071	15.5	42.3	-89.9	11.3
2025-01-28 16:24:05.269907	15.0	42.2	-89.6	6.9
2025-01-28 16:24:06.433911	14.5	42.0	-89.6	8.6
2025-01-28 16:24:07.587893	14.0	41.9	-89.3	6.9
2025-01-28 16:24:08.740065	13.5	41.7	-89.8	7.1
2025-01-28 16:24:09.899485	13.0	41.6	-89.7	8.5
2025-01-28 16:24:11.059169	12.6	41.4	-89.5	8.3
2025-01-28 16:24:12.206124	12.1	41.2	-89.4	7.0
2025-01-28 16:24:13.366758	11.6	41.1	-89.2	9.3
2025-01-28 16:24:14.528476	11.2	40.9	-89.4	9.5
2025-01-28 16:24:15.687575	10.7	40.8	-90.0	7.5
2025-01-28 16:24:16.852007	10.3	40.6	-90.3	8.2
2025-01-28 16:24:18.000737	9.8	40.4	-89.4	10.0
2025-01-28 16:24:19.156721	9.4	40.3	-89.6	11.9
2025-01-28 16:24:20.316772	8.9	40.1	-89.4	13.4
2025-01-28 16:24:21.477501	8.5	39.9	-89.4	12.9
2025-01-28 16:24:22.639817	8.1	39.7	-89.9	11.3
2025-01-28 16:24:23.801405	7.7	39.6	-89.8	11.7
2025-01-28 16:24:24.961622	7.2	39.4	-90.0	10.2
2025-01-28 16:24:26.121941	6.8	39.2	-89.7	14.4
2025-01-28 16:24:27.265133	6.4	39.1	-89.5	13.9
2025-01-28 16:24:28.429583	6.0	38.9	-89.8	11.7
2025-01-28 16:24:29.592479	5.6	38.7	-89.9	13.4
2025-01-28 16:24:30.756065	5.2	38.5	-90.2	14.2
2025-01-28 16:24:31.906104	4.8	38.3	-90.0	11.1
2025-01-28 16:24:33.062991	4.4	38.2	-90.1	11.9
2025-01-28 16:24:34.223064	4.0	38.0	-89.8	9.7
2025-01-28 16:24:35.376832	3.7	37.8	-89.9	9.0
2025-01-28 16:24:36.533578	3.3	37.6	-90.0	9.8
2025-01-28 16:24:37.692080	2.9	37.5	-90.1	8.5
2025-01-28 16:24:38.853902	2.5	37.3	-89.5	6.7
2025-01-28 16:24:40.016093	2.2	37.1	-89.6	6.7
2025-01-28 16:24:41.169910	1.8	36.9	-89.4	5.9
2025-01-28 16:24:42.330404	1.5	36.7	-89.8	4.1
2025-01-28 16:24:43.493516	1.1	36.6	-90.2	7.7
2025-01-28 16:24:44.649447	0.8	36.4	-89.7	6.3
2025-01-28 16:24:45.805654	0.4	36.2	-90.2	4.8
2025-01-28 16:24:46.965122	0.1	36.0	-90.5	7.2
2025-01-28 16:24:48.118532	359.7	35.8	-90.1	5.7
2025-01-28 16:24:49.283634	359.4	35.6	-90.1	4.0
2025-01-28 16:24:50.439465	359.1	35.5	-90.2	5.7
2025-01-28 16:24:51.601888	358.8	35.3	-90.2	6.7
2025-01-28 16:24:52.761859	358.4	35.1	-89.6	6.2
2025-01-28 16:24:53.920709	358.1	34.9	-89.1	7.6
2025-01-28 16:24:55.083128	357.8	34.7	-89.3	7.9
2025-01-28 16:24:56.238816	357.5	34.5	-89.6	8.4
2025-01-28 16:24:57.388285	357.2	34.4	-90.0	9.9
2025-01-28 16:24:58.522875	356.9	34.2	-89.7	4.6
2025-01-28 16:24:59.681602	356.6	34.0	-89.7	7.7
2025-01-28 16:25:00.836374	356.3	33.8	-89.8	9.0
2025-01-28 16:25:01.993633	356.0	33.6	-89.9	5.3
2025-01-28 16:25:03.150061	355.7	33.5	-89.6	4.3
2025-01-28 16:25:04.304106	355.4	33.3	-90.1	5.2
2025-01-28 16:25:05.465375	355.1	33.1	-90.0	4.7
2025-01-28 16:25:06.626839	354.9	32.9	-90.2	5.5
2025-01-28 16:25:07.784907	354.6	32.7	-89.6	4.3
2025-01-28 16:25:08.944044	354.3	32.6	-89.8	6.1
2025-01-28 16:25:10.102456	354.0	32.4	-90.3	5.4
2025-01-28 16:25:11.254111	353.8	32.2	-90.2	2.0
2025-01-28 16:25:12.414157	353.5	32.0	-89.9	5.5
2025-01-28 16:25:13.568023	353.2	31.8	-89.8	4.9
2025-01-28 16:25:14.726413	353.0	31.7	-89.8	3.8
2025-01-28 16:25:15.886567	352.7	31.5	-89.8	3.3
2025-01-28 16:25:17.046384	352.5	31.3	-89.5	5.4
2025-01-28 16:25:18.201808	352.2	31.1	-90.1	5.5
2025-01-28 16:25:19.369559	352.0	31.0	-90.0	7.3
2025-01-28 16:25:20.527120	351.7	30.8	-90.0	7.6
2025-01-28 16:25:21.681735	351.5	30.6	-90.0	8.1
2025-01-28 16:25:22.841403	351.2	30.4	-90.3	9.3
2025-01-28 16:25:24.006722	351.0	30.3	-90.2	9.2
2025-01-28 16:25:25.158712	350.8	30.1	-89.8	8.5
2025-01-28 16:25:26.318260	350.5	29.9	-88.4	7.9
2025-01-28 16:25:27.471100	350.3	29.7	-89.7	7.0
2025-01-28 16:25:28.630983	350.1	29.6	-89.3	5.5
2025-01-28 16:25:29.792014	349.9	29.4	-89.6	3.7
2025-01-28 16:25:30.945728	349.6	29.2	-90.4	5.7
2025-01-28 16:25:32.104579	349.4	29.1	-90.6	5.0
2025-01-28 16:25:33.256934	349.2	28.9	-90.6	1.6
2025-01-28 16:25:34.406891	349.0	28.7	-90.9	2.5
2025-01-28 16:25:35.566854	348.8	28.5	-89.9	4.4
2025-01-28 16:25:36.719474	348.6	28.4	-90.2	3.2
2025-01-28 16:25:37.871239	348.4	28.2	-90.0	5.6
2025-01-28 16:25:39.028171	348.1	28.0	-90.2	5.6
2025-01-28 16:25:40.177588	347.9	27.9	-90.1	3.4
2025-01-28 16:25:41.335396	347.7	27.7	-90.2	2.4
2025-01-28 16:25:42.493276	347.5	27.6	-90.6	7.8
2025-01-28 16:25:43.655031	347.3	27.4	-89.9	8.0
2025-01-28 16:25:44.830751	347.1	27.2	-90.2	6.9
2025-01-28 16:25:45.992144	346.9	27.1	-90.1	7.7
2025-01-28 16:25:47.151327	346.8	26.9	-89.7	7.1
2025-01-28 16:25:48.299743	346.6	26.7	-89.6	4.9
2025-01-28 16:25:49.459454	346.4	26.6	-89.6	6.5
2025-01-28 16:25:50.615919	346.2	26.4	-89.4	4.2
2025-01-28 16:25:51.787705	346.0	26.2	-89.7	6.0
2025-01-28 16:25:52.947423	345.8	26.1	-89.9	1.5
2025-01-28 16:25:54.105954	345.6	25.9	-90.3	4.7
2025-01-28 16:25:55.263539	345.5	25.8	-90.3	1.6
2025-01-28 16:25:56.419761	345.3	25.6	-90.4	3.2
2025-01-28 16:25:57.571927	345.1	25.5	-90.6	3.8
2025-01-28 16:25:58.731888	344.9	25.3	-90.4	4.1
2025-01-28 16:25:59.881247	344.8	25.1	-90.4	9.4
2025-01-28 16:26:01.026664	344.6	25.0	-90.3	8.4
2025-01-28 16:26:02.182631	344.4	24.8	-90.3	10.1
2025-01-28 16:26:03.343574	344.3	24.7	-89.9	7.8
2025-01-28 16:26:04.501704	344.1	24.5	-90.3	8.6
2025-01-28 16:26:05.661201	343.9	24.4	-90.3	7.5
2025-01-28 16:26:06.819297	343.8	24.2	-90.3	4.6
2025-01-28 16:26:07.975168	343.6	24.1	-90.3	6.1
2025-01-28 16:26:09.132395	343.5	23.9	-89.9	5.3
2025-01-28 16:26:10.288850	343.3	23.8	-90.2	0.4
2025-01-28 16:26:11.450513	343.2	23.6	-90.4	4.9
2025-01-28 16:26:12.605180	343.0	23.5	-90.2	5.0
2025-01-28 16:26:13.758167	342.8	23.3	-89.9	4.1
2025-01-28 16:26:14.914431	342.7	23.2	-90.1	7.6
2025-01-28 16:26:16.072873	342.5	23.0	-89.7	10.8
2025-01-28 16:26:17.226817	342.4	22.9	-89.6	7.0
2025-01-28 16:26:18.379441	342.3	22.7	-89.7	10.0
2025-01-28 16:26:19.537859	342.1	22.6	-89.8	9.1
2025-01-28 16:26:20.697689	342.0	22.4	-90.1	5.8
2025-01-28 16:26:21.855590	341.8	22.3	-90.3	7.0
2025-01-28 16:26:23.006206	341.7	22.1	-89.6	9.3
2025-01-28 16:26:24.171844	341.5	22.0	-89.1	4.6
2025-01-28 16:26:25.320877	341.4	21.9	-89.3	2.9
2025-01-28 16:26:26.481150	341.3	21.7	-89.0	4.7
2025-01-28 16:26:27.627115	341.1	21.6	-89.3	4.8
2025-01-28 16:26:28.789248	341.0	21.4	-90.6	3.4
2025-01-28 16:26:29.947908	340.9	21.3	-90.3	5.0
2025-01-28 16:26:31.108274	340.7	21.2	-89.5	8.0
2025-01-28 16:26:32.265356	340.6	21.0	-89.9	5.3
2025-01-28 16:26:33.425104	340.5	20.9	-90.0	5.3
2025-01-28 16:26:34.582282	340.3	20.7	-89.9	5.1
2025-01-28 16:26:35.738818	340.2	20.6	-90.1	3.0
2025-01-28 16:26:36.890911	340.1	20.5	-90.2	4.6
2025-01-28 16:26:38.042815	340.0	20.3	-90.3	4.5
2025-01-28 16:26:39.204954	339.8	20.2	-89.5	2.2
2025-01-28 16:26:40.370342	339.7	20.1	-90.1	3.0
2025-01-28 16:26:41.531060	339.6	19.9	-90.3	2.9
2025-01-28 16:26:42.693430	339.5	19.8	-90.4	1.1
2025-01-28 16:26:43.857471	339.4	19.7	-90.1	3.1
2025-01-28 16:26:45.020822	339.2	19.5	-90.1	2.3
2025-01-28 16:26:46.176180	339.1	19.4	-90.2	2.9
2025-01-28 16:26:47.330688	339.0	19.3	-90.5	2.5
2025-01-28 16:26:48.488790	338.9	19.1	-90.5	2.4
2025-01-28 16:26:49.653897	338.8	19.0	-90.4	5.4
2025-01-28 16:26:50.808105	338.7	18.9	-90.2	3.3
2025-01-28 16:26:51.968206	338.5	18.7	-90.0	4.7
2025-01-28 16:26:53.132486	338.4	18.6	-90.1	4.2
2025-01-28 16:26:54.281565	338.3	18.5	-90.2	4.4
2025-01-28 16:26:55.433445	338.2	18.4	-90.5	1.9
2025-01-28 16:26:56.596869	338.1	18.2	-90.3	4.3
2025-01-28 16:26:57.747247	338.0	18.1	-90.1	2.1
2025-01-28 16:26:58.909098	337.9	18.0	-90.2	2.5
2025-01-28 16:27:00.064814	337.8	17.9	-90.3	4.1
2025-01-28 16:27:01.199056	337.7	17.7	-90.0	4.4
2025-01-28 16:27:02.348191	337.6	17.6	-89.6	3.9
2025-01-28 16:27:03.468898	337.5	17.5	-89.2	2.5
2025-01-28 16:27:04.588983	337.4	17.4	-89.5	4.7
2025-01-28 16:27:05.709313	337.3	17.3	-89.5	2.3
2025-01-28 16:27:06.831751	337.2	17.1	-89.5	2.6
2025-01-28 16:27:07.952905	337.1	17.0	-89.7	2.0
2025-01-28 16:27:09.074275	337.0	16.9	-89.2	3.0
2025-01-28 16:27:10.194499	336.9	16.8	-89.5	3.3
2025-01-28 16:27:11.314664	336.8	16.7	-89.7	2.6
2025-01-28 16:27:12.456662	336.7	16.5	-89.7	1.0
2025-01-28 16:27:13.611583	336.6	16.4	-89.3	1.9
2025-01-28 16:27:14.762375	336.5	16.3	-89.9	0.6
2025-01-28 16:27:15.920827	336.4	16.2	-89.9	3.5
2025-01-28 16:27:17.084992	336.3	16.1	-89.8	4.4
2025-01-28 16:27:18.245398	336.2	16.0	-89.9	3.8
2025-01-28 16:27:19.406823	336.2	15.8	-90.3	3.8
2025-01-28 16:27:20.557254	336.1	15.7	-90.3	5.4
2025-01-28 16:27:21.715496	336.0	15.6	-90.3	6.9
2025-01-28 16:27:22.877826	335.9	15.5	-90.1	4.9
2025-01-28 16:27:24.033128	335.8	15.4	-90.0	4.5
2025-01-28 16:27:25.183964	335.7	15.3	-89.9	4.2
2025-01-28 16:27:26.345869	335.6	15.1	-89.7	1.4
2025-01-28 16:27:27.500545	335.5	15.0	-89.4	3.4
2025-01-28 16:27:28.656799	335.4	14.9	-90.1	2.9
2025-01-28 16:27:29.807872	335.4	14.8	-90.3	2.8
2025-01-28 16:27:30.971354	335.3	14.7	-90.7	4.8
2025-01-28 16:27:32.124638	335.2	14.6	-90.5	5.8
2025-01-28 16:27:33.284946	335.1	14.5	-90.3	6.0
#Closed at: 2025-01-28 16:18:58.385466