passes_logs/2025/01/28/LEX_Murmansk/LEX_Murmansk__20250128_143959_NOAA_19_rec.log

#Pass ID: 20250128_143959_NOAA 19
#Satellite: NOAA 19
#Configuration: NOAA 19
#Start time: 2025-01-28 14:39:54.261661

#LorettStation: 1.0.0 05.05.2024
#Station: LEX_Murmansk
#Location: 33.156738 lon 68.926811 lat
#TLE: 1 33591U 09005A   25027.88922411  .00000392  00000+0  23338-3 0  9991
#TLE: 2 33591  99.0173  91.7499 0013972  22.5257 337.6525 14.13270697823101

#Time	Az	El	Level	SNR
2025-01-28 14:40:06.426096	66.3	16.0	-90.4	1.8
2025-01-28 14:40:07.547065	66.2	16.1	-90.7	5.0
2025-01-28 14:40:08.667976	66.0	16.2	-90.9	7.7
2025-01-28 14:40:09.788070	65.8	16.3	-90.8	7.8
2025-01-28 14:40:10.908599	65.7	16.3	-90.6	7.1
2025-01-28 14:40:12.029950	65.5	16.4	-91.0	8.5
2025-01-28 14:40:13.151224	65.3	16.5	-90.6	4.5
2025-01-28 14:40:14.272779	65.2	16.6	-91.0	4.6
2025-01-28 14:40:15.396671	65.0	16.7	-90.6	4.2
2025-01-28 14:40:16.520510	64.8	16.8	-90.7	6.9
2025-01-28 14:40:17.667582	64.6	16.9	-90.9	5.9
2025-01-28 14:40:18.812279	64.5	17.0	-90.7	13.8
2025-01-28 14:40:19.957066	64.3	17.1	-90.7	7.6
2025-01-28 14:40:21.100257	64.1	17.2	-90.7	5.4
2025-01-28 14:40:22.248353	63.9	17.3	-90.9	1.7
2025-01-28 14:40:23.393010	63.7	17.4	-90.9	4.0
2025-01-28 14:40:24.540245	63.5	17.5	-90.8	3.7
2025-01-28 14:40:25.688764	63.4	17.6	-90.8	3.2
2025-01-28 14:40:26.839430	63.2	17.7	-91.0	4.2
2025-01-28 14:40:27.983925	63.0	17.8	-91.0	7.3
2025-01-28 14:40:29.128726	62.8	17.8	-90.7	10.7
2025-01-28 14:40:30.274789	62.6	17.9	-90.6	7.8
2025-01-28 14:40:31.422178	62.4	18.0	-90.3	11.0
2025-01-28 14:40:32.564822	62.2	18.1	-90.2	6.0
2025-01-28 14:40:33.710668	62.0	18.2	-90.9	5.4
2025-01-28 14:40:34.868258	61.8	18.3	-90.9	9.0
2025-01-28 14:40:36.014891	61.6	18.4	-90.8	6.2
2025-01-28 14:40:37.161878	61.4	18.5	-90.7	9.3
2025-01-28 14:40:38.306247	61.3	18.6	-90.7	12.2
2025-01-28 14:40:39.455366	61.1	18.7	-91.1	8.0
2025-01-28 14:40:40.605074	60.8	18.8	-90.9	9.2
2025-01-28 14:40:41.750457	60.6	18.9	-90.7	5.8
2025-01-28 14:40:42.899541	60.4	19.0	-90.9	3.9
2025-01-28 14:40:44.048701	60.2	19.1	-90.8	3.8
2025-01-28 14:40:45.197120	60.0	19.2	-90.7	1.9
2025-01-28 14:40:46.349567	59.8	19.3	-90.6	3.2
2025-01-28 14:40:47.502407	59.6	19.4	-91.0	4.0
2025-01-28 14:40:48.651000	59.4	19.5	-90.8	6.9
2025-01-28 14:40:49.802390	59.2	19.6	-91.2	5.4
2025-01-28 14:40:50.953281	59.0	19.6	-90.6	13.9
2025-01-28 14:40:52.102025	58.8	19.7	-91.0	13.3
2025-01-28 14:40:53.251690	58.6	19.8	-91.0	5.9
2025-01-28 14:40:54.403869	58.3	19.9	-90.6	8.2
2025-01-28 14:40:55.556657	58.1	20.0	-90.9	6.2
2025-01-28 14:40:56.710125	57.9	20.1	-90.8	6.3
2025-01-28 14:40:57.854489	57.7	20.2	-91.2	7.4
2025-01-28 14:40:59.003569	57.5	20.3	-90.4	12.9
2025-01-28 14:41:00.145803	57.2	20.4	-90.6	12.6
2025-01-28 14:41:01.288436	57.0	20.5	-90.5	10.5
2025-01-28 14:41:02.437192	56.8	20.6	-90.7	7.7
2025-01-28 14:41:03.581804	56.6	20.7	-91.1	6.4
2025-01-28 14:41:04.736653	56.3	20.8	-90.9	4.6
2025-01-28 14:41:05.883897	56.1	20.9	-90.7	2.6
2025-01-28 14:41:07.036293	55.9	21.0	-90.8	4.2
2025-01-28 14:41:08.190295	55.6	21.1	-90.7	2.7
2025-01-28 14:41:09.337397	55.4	21.1	-90.8	4.0
2025-01-28 14:41:10.485831	55.2	21.2	-91.2	9.7
2025-01-28 14:41:11.635829	54.9	21.3	-91.0	8.3
2025-01-28 14:41:12.787030	54.7	21.4	-90.7	7.8
2025-01-28 14:41:13.940502	54.4	21.5	-91.1	11.2
2025-01-28 14:41:15.099639	54.2	21.6	-91.0	14.6
2025-01-28 14:41:16.248146	54.0	21.7	-90.3	11.2
2025-01-28 14:41:17.397532	53.7	21.8	-90.8	9.3
2025-01-28 14:41:18.545819	53.5	21.9	-91.1	4.2
2025-01-28 14:41:19.693420	53.2	22.0	-91.0	7.6
2025-01-28 14:41:20.845726	53.0	22.1	-91.0	5.4
2025-01-28 14:41:21.989079	52.7	22.2	-90.8	7.3
2025-01-28 14:41:23.138931	52.5	22.2	-91.1	6.5
2025-01-28 14:41:24.287770	52.2	22.3	-91.2	11.4
2025-01-28 14:41:25.435291	52.0	22.4	-90.9	8.8
2025-01-28 14:41:26.587392	51.7	22.5	-91.0	7.3
2025-01-28 14:41:27.734470	51.4	22.6	-91.3	8.5
2025-01-28 14:41:28.882169	51.2	22.7	-91.0	5.2
2025-01-28 14:41:30.030535	50.9	22.8	-90.9	2.2
2025-01-28 14:41:31.181054	50.7	22.9	-90.7	1.3
2025-01-28 14:41:32.324710	50.4	23.0	-91.0	3.2
2025-01-28 14:41:33.474124	50.1	23.0	-91.1	2.3
2025-01-28 14:41:34.623575	49.9	23.1	-91.0	8.4
2025-01-28 14:41:35.772942	49.6	23.2	-91.2	4.6
2025-01-28 14:41:36.921737	49.3	23.3	-90.9	10.0
2025-01-28 14:41:38.069191	49.1	23.4	-90.0	10.1
2025-01-28 14:41:39.217406	48.8	23.5	-90.2	12.6
2025-01-28 14:41:40.366555	48.5	23.6	-89.4	11.5
2025-01-28 14:41:41.514176	48.2	23.6	-90.5	11.1
2025-01-28 14:41:42.666024	48.0	23.7	-91.2	8.9
2025-01-28 14:41:43.808849	47.7	23.8	-90.9	7.7
2025-01-28 14:41:44.955463	47.4	23.9	-91.0	9.0
2025-01-28 14:41:46.099344	47.1	24.0	-90.7	6.9
2025-01-28 14:41:47.242651	46.8	24.0	-90.7	4.6
2025-01-28 14:41:48.393776	46.6	24.1	-90.1	7.0
2025-01-28 14:41:49.545569	46.3	24.2	-90.2	9.7
2025-01-28 14:41:50.697151	46.0	24.3	-90.3	13.1
2025-01-28 14:41:51.843852	45.7	24.4	-90.5	9.5
2025-01-28 14:41:52.994356	45.4	24.4	-90.7	10.1
2025-01-28 14:41:54.140326	45.1	24.5	-90.6	9.1
2025-01-28 14:41:55.288532	44.8	24.6	-90.4	6.9
2025-01-28 14:41:56.441357	44.5	24.7	-90.5	5.2
2025-01-28 14:41:57.589741	44.2	24.8	-91.0	4.5
2025-01-28 14:41:58.737480	43.9	24.8	-90.4	2.9
2025-01-28 14:41:59.890204	43.6	24.9	-90.8	5.2
2025-01-28 14:42:01.030509	43.3	25.0	-90.8	5.1
2025-01-28 14:42:02.176760	43.0	25.1	-90.4	0.6
2025-01-28 14:42:03.322682	42.7	25.1	-90.4	3.3
2025-01-28 14:42:04.471876	42.4	25.2	-90.6	5.4
2025-01-28 14:42:05.622362	42.1	25.3	-90.3	6.3
2025-01-28 14:42:06.764843	41.8	25.3	-90.2	7.3
2025-01-28 14:42:07.916390	41.5	25.4	-90.3	8.1
2025-01-28 14:42:09.058744	41.2	25.5	-89.9	7.9
2025-01-28 14:42:10.206140	40.9	25.6	-89.7	5.2
2025-01-28 14:42:11.359055	40.6	25.6	-90.1	5.9
2025-01-28 14:42:12.502130	40.3	25.7	-90.5	6.5
2025-01-28 14:42:13.652969	39.9	25.8	-90.6	7.3
2025-01-28 14:42:14.812815	39.6	25.8	-90.7	5.3
2025-01-28 14:42:15.963999	39.3	25.9	-91.1	8.1
2025-01-28 14:42:17.107906	39.0	26.0	-90.8	8.6
2025-01-28 14:42:18.255014	38.7	26.0	-90.9	4.9
2025-01-28 14:42:19.406366	38.3	26.1	-91.4	9.1
2025-01-28 14:42:20.559674	38.0	26.1	-91.3	11.6
2025-01-28 14:42:21.710824	37.7	26.2	-90.7	9.2
2025-01-28 14:42:22.847389	37.4	26.3	-90.8	8.8
2025-01-28 14:42:23.996941	37.1	26.3	-91.5	10.7
2025-01-28 14:42:25.147789	36.7	26.4	-91.3	6.5
2025-01-28 14:42:26.289983	36.4	26.4	-91.2	4.9
2025-01-28 14:42:27.438828	36.1	26.5	-91.5	5.5
2025-01-28 14:42:28.588582	35.7	26.5	-91.2	4.0
2025-01-28 14:42:29.736890	35.4	26.6	-90.7	2.5
2025-01-28 14:42:30.883450	35.1	26.7	-90.9	2.1
2025-01-28 14:42:32.029238	34.7	26.7	-90.9	3.1
2025-01-28 14:42:33.181337	34.4	26.8	-90.7	4.1
2025-01-28 14:42:34.327742	34.1	26.8	-90.9	2.7
2025-01-28 14:42:35.475952	33.7	26.9	-90.9	4.9
2025-01-28 14:42:36.629627	33.4	26.9	-91.3	5.9
2025-01-28 14:42:37.775396	33.0	27.0	-90.9	6.5
2025-01-28 14:42:38.920751	32.7	27.0	-91.0	5.0
2025-01-28 14:42:40.071506	32.4	27.0	-90.8	5.6
2025-01-28 14:42:41.222247	32.0	27.1	-90.7	5.4
2025-01-28 14:42:42.367384	31.7	27.1	-90.0	6.5
2025-01-28 14:42:43.514100	31.3	27.2	-90.3	7.5
2025-01-28 14:42:44.666440	31.0	27.2	-89.3	11.9
2025-01-28 14:42:45.814136	30.6	27.3	-90.7	10.0
2025-01-28 14:42:46.964535	30.3	27.3	-90.9	10.2
2025-01-28 14:42:48.112003	29.9	27.3	-91.1	6.6
2025-01-28 14:42:49.264155	29.6	27.4	-91.1	4.7
2025-01-28 14:42:50.412748	29.2	27.4	-90.9	4.8
2025-01-28 14:42:51.558930	28.9	27.4	-90.9	6.6
2025-01-28 14:42:52.707478	28.5	27.5	-91.0	3.9
2025-01-28 14:42:53.855477	28.2	27.5	-91.1	2.6
2025-01-28 14:42:55.003541	27.8	27.5	-90.7	5.3
2025-01-28 14:42:56.157604	27.5	27.6	-89.5	4.0
2025-01-28 14:42:57.309001	27.1	27.6	-89.8	3.5
2025-01-28 14:42:58.452470	26.8	27.6	-90.1	2.1
2025-01-28 14:42:59.601756	26.4	27.6	-89.5	4.8
2025-01-28 14:43:00.753341	26.1	27.7	-89.8	2.4
2025-01-28 14:43:01.896782	25.7	27.7	-90.4	5.6
2025-01-28 14:43:03.049409	25.4	27.7	-90.4	8.3
2025-01-28 14:43:04.191970	25.0	27.7	-89.9	8.5
2025-01-28 14:43:05.340317	24.6	27.8	-90.9	7.0
2025-01-28 14:43:06.496632	24.3	27.8	-91.2	6.5
2025-01-28 14:43:07.645968	23.9	27.8	-91.3	10.2
2025-01-28 14:43:08.797180	23.6	27.8	-91.2	6.8
2025-01-28 14:43:09.946438	23.2	27.8	-91.2	6.5
2025-01-28 14:43:11.094872	22.8	27.8	-91.1	6.2
2025-01-28 14:43:12.246988	22.5	27.8	-90.9	8.5
2025-01-28 14:43:13.397293	22.1	27.9	-91.0	9.0
2025-01-28 14:43:14.540349	21.8	27.9	-91.1	6.5
2025-01-28 14:43:15.696851	21.4	27.9	-91.1	4.6
2025-01-28 14:43:16.853661	21.0	27.9	-91.2	5.3
2025-01-28 14:43:17.998564	20.7	27.9	-91.2	4.1
2025-01-28 14:43:19.145649	20.3	27.9	-90.9	2.4
2025-01-28 14:43:20.292739	20.0	27.9	-91.0	2.7
2025-01-28 14:43:21.441696	19.6	27.9	-91.3	3.3
2025-01-28 14:43:22.593588	19.2	27.9	-91.0	3.1
2025-01-28 14:43:23.740336	18.9	27.9	-91.1	3.5
2025-01-28 14:43:24.894601	18.5	27.9	-91.0	3.2
2025-01-28 14:43:26.043623	18.2	27.9	-91.1	5.8
2025-01-28 14:43:27.191623	17.8	27.9	-90.7	3.3
2025-01-28 14:43:28.330593	17.4	27.9	-91.2	4.4
2025-01-28 14:43:29.482769	17.1	27.9	-91.3	2.6
2025-01-28 14:43:30.633774	16.7	27.9	-91.1	5.6
2025-01-28 14:43:31.777475	16.4	27.9	-91.1	4.0
2025-01-28 14:43:32.933677	16.0	27.9	-91.0	3.1
2025-01-28 14:43:34.080822	15.6	27.8	-91.0	4.5
2025-01-28 14:43:35.230397	15.3	27.8	-90.8	5.3
2025-01-28 14:43:36.377661	14.9	27.8	-90.6	4.0
2025-01-28 14:43:37.522510	14.6	27.8	-91.2	4.4
2025-01-28 14:43:38.672298	14.2	27.8	-90.7	4.5
2025-01-28 14:43:39.818508	13.8	27.8	-91.0	5.1
2025-01-28 14:43:40.968038	13.5	27.7	-90.9	4.8
2025-01-28 14:43:42.116484	13.1	27.7	-90.6	7.3
2025-01-28 14:43:43.263874	12.8	27.7	-90.5	4.3
2025-01-28 14:43:44.406233	12.4	27.7	-91.2	6.6
2025-01-28 14:43:45.553809	12.1	27.7	-90.7	6.5
2025-01-28 14:43:46.706148	11.7	27.6	-90.7	3.2
2025-01-28 14:43:47.850326	11.4	27.6	-90.8	5.2
2025-01-28 14:43:48.997496	11.0	27.6	-91.1	6.7
2025-01-28 14:43:50.146797	10.6	27.6	-90.8	6.1
2025-01-28 14:43:51.293204	10.3	27.5	-90.7	9.6
2025-01-28 14:43:52.439295	9.9	27.5	-90.9	9.2
2025-01-28 14:43:53.584684	9.6	27.5	-91.1	8.8
2025-01-28 14:43:54.733233	9.2	27.4	-90.9	8.5
2025-01-28 14:43:55.889764	8.9	27.4	-91.1	10.6
2025-01-28 14:43:57.040186	8.5	27.4	-90.9	10.0
2025-01-28 14:43:58.191537	8.2	27.3	-91.0	9.4
2025-01-28 14:43:59.332408	7.8	27.3	-90.6	8.0
2025-01-28 14:44:00.472192	7.5	27.2	-91.0	3.7
2025-01-28 14:44:01.620228	7.2	27.2	-91.0	3.3
2025-01-28 14:44:02.765013	6.8	27.2	-91.2	2.9
2025-01-28 14:44:03.916509	6.5	27.1	-91.4	4.3
2025-01-28 14:44:05.063868	6.1	27.1	-90.9	3.8
2025-01-28 14:44:06.211543	5.8	27.0	-90.8	6.4
2025-01-28 14:44:07.362120	5.4	27.0	-90.9	6.4
2025-01-28 14:44:08.509123	5.1	26.9	-90.8	7.0
2025-01-28 14:44:09.656571	4.8	26.9	-90.7	5.6
2025-01-28 14:44:10.803803	4.4	26.8	-90.8	5.0
2025-01-28 14:44:11.952073	4.1	26.8	-91.0	6.0
2025-01-28 14:44:13.106196	3.8	26.7	-90.9	5.9
2025-01-28 14:44:14.250764	3.4	26.7	-90.9	6.3
2025-01-28 14:44:15.395659	3.1	26.6	-90.8	10.4
2025-01-28 14:44:16.538095	2.8	26.6	-90.9	9.2
2025-01-28 14:44:17.685939	2.4	26.5	-91.0	7.7
2025-01-28 14:44:18.835014	2.1	26.5	-90.9	7.0
2025-01-28 14:44:19.979669	1.8	26.4	-91.1	7.4
2025-01-28 14:44:21.129185	1.4	26.4	-90.7	6.8
2025-01-28 14:44:22.277106	1.1	26.3	-91.0	6.0
2025-01-28 14:44:23.422988	0.8	26.2	-90.9	5.5
2025-01-28 14:44:24.570825	0.5	26.2	-90.7	7.6
2025-01-28 14:44:25.720272	0.1	26.1	-90.6	7.9
2025-01-28 14:44:26.867176	359.8	26.1	-91.0	8.5
2025-01-28 14:44:28.011697	359.5	26.0	-90.6	10.3
2025-01-28 14:44:29.163580	359.2	25.9	-90.3	7.6
2025-01-28 14:44:30.315841	358.9	25.9	-90.5	7.0
2025-01-28 14:44:31.466770	358.6	25.8	-90.6	10.2
2025-01-28 14:44:32.611442	358.2	25.7	-90.8	11.5
2025-01-28 14:44:33.760104	357.9	25.7	-91.0	10.6
2025-01-28 14:44:34.908827	357.6	25.6	-91.3	12.3
2025-01-28 14:44:36.054557	357.3	25.5	-91.1	11.2
2025-01-28 14:44:37.205227	357.0	25.5	-90.8	10.2
2025-01-28 14:44:38.350706	356.7	25.4	-91.1	11.0
2025-01-28 14:44:39.499252	356.4	25.3	-91.2	11.6
2025-01-28 14:44:40.647087	356.1	25.3	-90.8	13.2
2025-01-28 14:44:41.792144	355.8	25.2	-91.3	14.0
2025-01-28 14:44:42.939744	355.5	25.1	-91.3	14.8
2025-01-28 14:44:44.092702	355.2	25.0	-90.8	10.9
2025-01-28 14:44:45.240675	354.9	25.0	-90.2	9.6
2025-01-28 14:44:46.387317	354.6	24.9	-91.0	10.8
2025-01-28 14:44:47.539325	354.3	24.8	-90.7	9.8
2025-01-28 14:44:48.685970	354.0	24.7	-90.4	9.0
2025-01-28 14:44:49.836146	353.7	24.7	-91.1	9.3
2025-01-28 14:44:50.990767	353.4	24.6	-91.2	9.3
2025-01-28 14:44:52.133850	353.1	24.5	-90.7	11.0
2025-01-28 14:44:53.282287	352.8	24.4	-91.1	9.7
2025-01-28 14:44:54.433523	352.5	24.3	-91.3	10.2
2025-01-28 14:44:55.580114	352.2	24.3	-90.9	9.7
2025-01-28 14:44:56.734456	351.9	24.2	-91.1	4.6
2025-01-28 14:44:57.881011	351.7	24.1	-90.8	8.8
2025-01-28 14:44:59.022320	351.4	24.0	-91.4	5.7
2025-01-28 14:45:00.166463	351.1	23.9	-90.9	5.9
2025-01-28 14:45:01.312126	350.8	23.9	-91.4	2.0
2025-01-28 14:45:02.458626	350.5	23.8	-90.7	6.2
2025-01-28 14:45:03.604047	350.3	23.7	-90.6	5.9
2025-01-28 14:45:04.749963	350.0	23.6	-91.0	4.4
2025-01-28 14:45:05.895931	349.7	23.5	-91.4	4.5
2025-01-28 14:45:07.041846	349.5	23.4	-90.8	4.6
2025-01-28 14:45:08.188966	349.2	23.4	-90.9	5.0
2025-01-28 14:45:09.340539	348.9	23.3	-90.6	2.3
2025-01-28 14:45:10.488214	348.6	23.2	-90.3	7.1
2025-01-28 14:45:11.641339	348.4	23.1	-90.9	4.8
2025-01-28 14:45:12.786221	348.1	23.0	-90.9	5.2
2025-01-28 14:45:13.933811	347.9	22.9	-91.1	7.9
2025-01-28 14:45:15.081916	347.6	22.8	-90.7	6.5
2025-01-28 14:45:16.230249	347.3	22.8	-90.5	5.0
2025-01-28 14:45:17.378077	347.1	22.7	-90.8	6.0
2025-01-28 14:45:18.527902	346.8	22.6	-90.8	5.1
2025-01-28 14:45:19.676749	346.6	22.5	-90.8	5.2
2025-01-28 14:45:20.821813	346.3	22.4	-91.3	5.2
2025-01-28 14:45:21.972540	346.1	22.3	-91.1	7.5
2025-01-28 14:45:23.120353	345.8	22.2	-91.0	9.0
2025-01-28 14:45:24.264334	345.6	22.1	-90.7	8.5
2025-01-28 14:45:25.417873	345.3	22.1	-90.5	9.9
2025-01-28 14:45:26.564806	345.1	22.0	-90.7	10.2
2025-01-28 14:45:27.719063	344.8	21.9	-90.6	10.3
2025-01-28 14:45:28.862920	344.6	21.8	-90.8	12.5
2025-01-28 14:45:30.017205	344.3	21.7	-90.6	10.2
2025-01-28 14:45:31.161223	344.1	21.6	-90.1	10.0
2025-01-28 14:45:32.315401	343.8	21.5	-90.7	7.7
2025-01-28 14:45:33.463211	343.6	21.4	-90.8	7.6
2025-01-28 14:45:34.609943	343.4	21.3	-90.6	9.3
2025-01-28 14:45:35.755809	343.1	21.2	-90.8	7.2
2025-01-28 14:45:36.902781	342.9	21.1	-90.4	7.4
2025-01-28 14:45:38.043805	342.7	21.0	-91.3	5.2
2025-01-28 14:45:39.193034	342.4	21.0	-90.7	3.3
2025-01-28 14:45:40.343974	342.2	20.9	-90.5	4.8
2025-01-28 14:45:41.488369	342.0	20.8	-90.8	4.9
2025-01-28 14:45:42.638948	341.7	20.7	-90.7	4.0
2025-01-28 14:45:43.783178	341.5	20.6	-90.7	3.3
2025-01-28 14:45:44.929882	341.3	20.5	-90.1	2.4
2025-01-28 14:45:46.075719	341.1	20.4	-90.1	2.6
2025-01-28 14:45:47.230063	340.9	20.3	-90.2	1.0
2025-01-28 14:45:48.375718	340.6	20.2	-90.7	0.8
2025-01-28 14:45:49.533372	340.4	20.1	-90.8	1.8
2025-01-28 14:45:50.679145	340.2	20.0	-90.1	1.6
2025-01-28 14:45:51.831021	340.0	19.9	-90.7	2.2
2025-01-28 14:45:52.983088	339.8	19.8	-90.9	2.1
2025-01-28 14:45:54.127812	339.5	19.7	-90.3	2.4
2025-01-28 14:45:55.283812	339.3	19.6	-90.5	2.9
2025-01-28 14:45:56.430342	339.1	19.6	-90.2	1.9
2025-01-28 14:45:57.583809	338.9	19.5	-90.2	1.9
2025-01-28 14:45:58.730401	338.7	19.4	-90.5	3.8
2025-01-28 14:45:59.878178	338.5	19.3	-90.5	5.4
2025-01-28 14:46:01.025815	338.3	19.2	-90.1	1.7
2025-01-28 14:46:02.178118	338.1	19.1	-89.9	3.5
2025-01-28 14:46:03.321659	337.9	19.0	-89.9	4.8
2025-01-28 14:46:04.468315	337.7	18.9	-89.7	4.9
2025-01-28 14:46:05.615054	337.5	18.8	-89.5	4.9
2025-01-28 14:46:06.767695	337.3	18.7	-89.8	1.2
2025-01-28 14:46:07.925305	337.1	18.6	-89.7	2.1
2025-01-28 14:46:09.073519	336.9	18.5	-89.6	2.7
2025-01-28 14:46:10.223579	336.7	18.4	-89.9	2.3
2025-01-28 14:46:11.374208	336.5	18.3	-89.9	3.4
2025-01-28 14:46:12.519736	336.3	18.2	-90.0	5.5
2025-01-28 14:46:13.669936	336.1	18.1	-89.8	2.2
2025-01-28 14:46:14.813781	335.9	18.0	-90.5	2.9
2025-01-28 14:46:15.964512	335.7	18.0	-90.7	2.5
2025-01-28 14:46:17.117865	335.5	17.9	-90.2	3.1
2025-01-28 14:46:18.261555	335.4	17.8	-90.2	1.6
2025-01-28 14:46:19.409907	335.2	17.7	-90.0	3.0
2025-01-28 14:46:20.557168	335.0	17.6	-90.5	3.5
2025-01-28 14:46:21.689009	334.8	17.5	-90.4	2.0
2025-01-28 14:46:22.809058	334.6	17.4	-89.9	2.3
2025-01-28 14:46:23.930657	334.4	17.3	-90.1	2.3
2025-01-28 14:46:25.050513	334.3	17.2	-89.7	1.8
2025-01-28 14:46:26.169679	334.1	17.1	-89.7	1.4
2025-01-28 14:46:27.290833	333.9	17.0	-89.8	1.4
2025-01-28 14:46:28.411275	333.8	16.9	-89.7	2.9
2025-01-28 14:46:29.532720	333.6	16.8	-89.3	1.4
2025-01-28 14:46:30.655651	333.4	16.7	-90.3	0.3
2025-01-28 14:46:31.795515	333.2	16.7	-90.3	1.8
2025-01-28 14:46:32.942235	333.1	16.6	-90.0	3.5
2025-01-28 14:46:34.094506	332.9	16.5	-89.6	1.4
2025-01-28 14:46:35.240915	332.7	16.4	-89.5	1.8
2025-01-28 14:46:36.384797	332.6	16.3	-90.0	1.7
2025-01-28 14:46:37.531359	332.4	16.2	-90.9	4.0
2025-01-28 14:46:38.681215	332.2	16.1	-90.8	4.6
2025-01-28 14:46:39.825788	332.1	16.0	-89.9	2.0
2025-01-28 14:46:40.971531	331.9	15.9	-90.2	3.8
2025-01-28 14:46:42.118968	331.7	15.8	-90.1	6.9
2025-01-28 14:46:43.265341	331.6	15.7	-89.8	4.8
2025-01-28 14:46:44.411025	331.4	15.6	-90.2	5.9
2025-01-28 14:46:45.559821	331.2	15.5	-90.4	4.0
2025-01-28 14:46:46.705713	331.1	15.5	-89.7	3.6
2025-01-28 14:46:47.863063	330.9	15.4	-90.2	3.6
2025-01-28 14:46:49.009565	330.8	15.3	-89.9	0.8
2025-01-28 14:46:50.158337	330.6	15.2	-90.0	1.9
2025-01-28 14:46:51.307022	330.4	15.1	-90.0	2.4
2025-01-28 14:46:52.449630	330.3	15.0	-89.7	2.3
2025-01-28 14:46:53.598444	330.1	14.9	-90.3	2.8
2025-01-28 14:46:54.735123	330.0	14.8	-90.2	2.0
2025-01-28 14:46:55.866180	329.8	14.7	-90.4	5.5
2025-01-28 14:46:57.006037	329.7	14.6	-90.3	3.6
2025-01-28 14:46:58.165288	329.5	14.5	-90.6	2.3
#Closed at: 2025-01-28 14:39:59.271845