passes_logs/2025/01/28/LEX_Murmansk/LEX_Murmansk__20250128_130050_NOAA_19_rec.log

#Pass ID: 20250128_130050_NOAA 19
#Satellite: NOAA 19
#Configuration: NOAA 19
#Start time: 2025-01-28 13:00:45.536116

#LorettStation: 1.0.0 05.05.2024
#Station: LEX_Murmansk
#Location: 33.156738 lon 68.926811 lat
#TLE: 1 33591U 09005A   25027.18125374  .00000353  00000+0  21226-3 0  9998
#TLE: 2 33591  99.0174  91.0366 0013998  24.4913 335.6921 14.13269986823260

#Time	Az	El	Level	SNR
2025-01-28 13:00:57.620638	36.6	15.9	-90.1	1.1
2025-01-28 13:00:58.778186	36.4	16.0	-90.7	0.9
2025-01-28 13:00:59.935366	36.2	16.1	-90.3	2.3
2025-01-28 13:01:01.077529	36.0	16.1	-90.0	1.9
2025-01-28 13:01:02.222190	35.8	16.2	-89.3	1.8
2025-01-28 13:01:03.374181	35.6	16.3	-89.0	2.9
2025-01-28 13:01:04.525637	35.5	16.4	-89.7	2.8
2025-01-28 13:01:05.677252	35.3	16.5	-90.1	2.1
2025-01-28 13:01:06.827332	35.1	16.6	-89.3	1.6
2025-01-28 13:01:07.979884	34.9	16.6	-89.4	3.0
2025-01-28 13:01:09.137347	34.7	16.7	-89.3	1.0
2025-01-28 13:01:10.276035	34.5	16.8	-89.2	2.0
2025-01-28 13:01:11.422657	34.3	16.9	-89.4	2.6
2025-01-28 13:01:12.576636	34.1	17.0	-89.7	3.3
2025-01-28 13:01:13.732129	33.9	17.1	-89.5	2.8
2025-01-28 13:01:14.892727	33.7	17.2	-89.4	2.9
2025-01-28 13:01:16.039905	33.5	17.2	-89.9	4.9
2025-01-28 13:01:17.188949	33.3	17.3	-89.5	4.5
2025-01-28 13:01:18.341335	33.1	17.4	-89.3	4.3
2025-01-28 13:01:19.497391	32.9	17.5	-89.6	4.8
2025-01-28 13:01:20.651996	32.7	17.6	-89.4	3.2
2025-01-28 13:01:21.807171	32.5	17.7	-90.1	2.9
2025-01-28 13:01:22.961435	32.3	17.7	-90.0	4.8
2025-01-28 13:01:24.116208	32.1	17.8	-90.3	2.1
2025-01-28 13:01:25.267913	31.9	17.9	-90.2	4.7
2025-01-28 13:01:26.412712	31.7	18.0	-90.1	3.1
2025-01-28 13:01:27.566576	31.4	18.1	-90.7	5.3
2025-01-28 13:01:28.725643	31.2	18.2	-90.3	4.1
2025-01-28 13:01:29.881280	31.0	18.2	-90.2	0.5
2025-01-28 13:01:31.039248	30.8	18.3	-90.0	2.0
2025-01-28 13:01:32.203302	30.6	18.4	-90.1	1.8
2025-01-28 13:01:33.358724	30.4	18.5	-90.3	3.4
2025-01-28 13:01:34.511603	30.1	18.6	-90.3	2.8
2025-01-28 13:01:35.661097	29.9	18.6	-90.3	3.8
2025-01-28 13:01:36.814516	29.7	18.7	-90.6	6.4
2025-01-28 13:01:37.959456	29.5	18.8	-90.3	7.6
2025-01-28 13:01:39.114359	29.3	18.9	-90.0	8.3
2025-01-28 13:01:40.272599	29.0	19.0	-90.2	6.1
2025-01-28 13:01:41.430789	28.8	19.1	-90.0	3.4
2025-01-28 13:01:42.585717	28.6	19.1	-90.5	5.9
2025-01-28 13:01:43.740360	28.3	19.2	-90.6	4.6
2025-01-28 13:01:44.894423	28.1	19.3	-90.7	5.6
2025-01-28 13:01:46.047497	27.9	19.4	-90.2	6.5
2025-01-28 13:01:47.207072	27.7	19.5	-90.1	6.3
2025-01-28 13:01:48.357984	27.4	19.5	-90.1	7.3
2025-01-28 13:01:49.508483	27.2	19.6	-89.8	7.3
2025-01-28 13:01:50.661128	27.0	19.7	-90.4	4.4
2025-01-28 13:01:51.815493	26.7	19.8	-89.9	4.3
2025-01-28 13:01:52.968188	26.5	19.8	-90.1	4.4
2025-01-28 13:01:54.128252	26.2	19.9	-89.8	2.6
2025-01-28 13:01:55.285007	26.0	20.0	-89.9	3.9
2025-01-28 13:01:56.435653	25.8	20.1	-90.1	3.6
2025-01-28 13:01:57.585159	25.5	20.2	-90.2	3.8
2025-01-28 13:01:58.737099	25.3	20.2	-90.2	4.6
2025-01-28 13:01:59.887672	25.0	20.3	-90.7	4.7
2025-01-28 13:02:01.041079	24.8	20.4	-90.2	5.7
2025-01-28 13:02:02.191839	24.5	20.5	-89.7	7.4
2025-01-28 13:02:03.342765	24.3	20.5	-89.8	5.8
2025-01-28 13:02:04.498521	24.0	20.6	-90.2	5.5
2025-01-28 13:02:05.645978	23.8	20.7	-90.1	3.3
2025-01-28 13:02:06.803730	23.5	20.8	-90.4	4.7
2025-01-28 13:02:07.954170	23.3	20.8	-90.5	7.4
2025-01-28 13:02:09.108565	23.0	20.9	-90.2	7.9
2025-01-28 13:02:10.266941	22.8	21.0	-90.4	4.3
2025-01-28 13:02:11.419332	22.5	21.1	-90.5	5.9
2025-01-28 13:02:12.576284	22.2	21.1	-90.5	5.9
2025-01-28 13:02:13.728897	22.0	21.2	-90.7	6.5
2025-01-28 13:02:14.883929	21.7	21.3	-90.5	7.9
2025-01-28 13:02:16.037803	21.5	21.3	-90.8	10.6
2025-01-28 13:02:17.189113	21.2	21.4	-89.9	7.5
2025-01-28 13:02:18.339645	20.9	21.5	-90.2	4.9
2025-01-28 13:02:19.499197	20.7	21.6	-90.1	5.3
2025-01-28 13:02:20.650511	20.4	21.6	-90.4	3.0
2025-01-28 13:02:21.811617	20.1	21.7	-89.6	2.4
2025-01-28 13:02:22.965883	19.9	21.8	-89.6	2.5
2025-01-28 13:02:24.117560	19.6	21.8	-89.6	4.1
2025-01-28 13:02:25.265958	19.3	21.9	-89.8	2.7
2025-01-28 13:02:26.428197	19.0	22.0	-90.7	2.2
2025-01-28 13:02:27.578059	18.8	22.0	-90.9	4.8
2025-01-28 13:02:28.729920	18.5	22.1	-90.0	6.2
2025-01-28 13:02:29.889869	18.2	22.2	-90.5	7.5
2025-01-28 13:02:31.037483	17.9	22.2	-90.3	7.1
2025-01-28 13:02:32.193240	17.7	22.3	-90.3	6.6
2025-01-28 13:02:33.352314	17.4	22.4	-90.2	8.6
2025-01-28 13:02:34.509844	17.1	22.4	-90.5	8.2
2025-01-28 13:02:35.671059	16.8	22.5	-90.6	8.8
2025-01-28 13:02:36.820541	16.5	22.5	-90.9	5.5
2025-01-28 13:02:37.978066	16.2	22.6	-90.6	4.3
2025-01-28 13:02:39.127090	16.0	22.7	-90.4	5.0
2025-01-28 13:02:40.287755	15.7	22.7	-90.4	3.4
2025-01-28 13:02:41.445448	15.4	22.8	-90.5	5.9
2025-01-28 13:02:42.605595	15.1	22.8	-90.6	8.3
2025-01-28 13:02:43.759826	14.8	22.9	-90.4	9.1
2025-01-28 13:02:44.910704	14.5	23.0	-90.2	9.7
2025-01-28 13:02:46.068780	14.2	23.0	-90.4	8.0
2025-01-28 13:02:47.217739	13.9	23.1	-90.7	7.9
2025-01-28 13:02:48.374805	13.6	23.1	-90.5	9.4
2025-01-28 13:02:49.527180	13.3	23.2	-90.6	8.0
2025-01-28 13:02:50.684840	13.0	23.2	-90.7	6.9
2025-01-28 13:02:51.832711	12.7	23.3	-90.2	6.1
2025-01-28 13:02:52.986179	12.4	23.3	-90.7	5.3
2025-01-28 13:02:54.139894	12.1	23.4	-90.3	7.9
2025-01-28 13:02:55.292417	11.8	23.4	-90.5	1.7
2025-01-28 13:02:56.437358	11.5	23.5	-90.2	4.3
2025-01-28 13:02:57.587594	11.2	23.5	-90.2	5.5
2025-01-28 13:02:58.744339	10.9	23.6	-90.2	4.8
2025-01-28 13:02:59.897984	10.6	23.6	-90.5	6.3
2025-01-28 13:03:01.043956	10.3	23.7	-90.0	8.6
2025-01-28 13:03:02.193928	10.0	23.7	-90.1	8.0
2025-01-28 13:03:03.344954	9.7	23.8	-89.8	9.8
2025-01-28 13:03:04.500421	9.4	23.8	-90.4	10.1
2025-01-28 13:03:05.657063	9.1	23.9	-90.5	11.6
2025-01-28 13:03:06.814092	8.8	23.9	-90.6	10.5
2025-01-28 13:03:07.967428	8.5	23.9	-90.8	9.0
2025-01-28 13:03:09.123870	8.2	24.0	-90.4	7.0
2025-01-28 13:03:10.272489	7.9	24.0	-90.3	7.3
2025-01-28 13:03:11.424081	7.5	24.1	-90.5	6.8
2025-01-28 13:03:12.584734	7.2	24.1	-90.5	8.4
2025-01-28 13:03:13.745251	6.9	24.1	-90.3	3.8
2025-01-28 13:03:14.895739	6.6	24.2	-90.0	7.7
2025-01-28 13:03:16.051420	6.3	24.2	-90.2	5.4
2025-01-28 13:03:17.205240	6.0	24.2	-90.4	2.7
2025-01-28 13:03:18.356486	5.6	24.3	-90.3	3.5
2025-01-28 13:03:19.508155	5.3	24.3	-90.1	8.0
2025-01-28 13:03:20.668647	5.0	24.3	-90.4	6.7
2025-01-28 13:03:21.823165	4.7	24.4	-90.4	8.4
2025-01-28 13:03:22.983188	4.4	24.4	-90.5	8.8
2025-01-28 13:03:24.135028	4.0	24.4	-90.3	12.1
2025-01-28 13:03:25.288523	3.7	24.5	-89.4	10.7
2025-01-28 13:03:26.443631	3.4	24.5	-89.8	11.4
2025-01-28 13:03:27.597071	3.1	24.5	-89.8	10.3
2025-01-28 13:03:28.746873	2.8	24.5	-89.4	11.0
2025-01-28 13:03:29.903496	2.4	24.6	-90.5	11.5
2025-01-28 13:03:31.031101	2.1	24.6	-90.0	9.4
2025-01-28 13:03:32.153845	1.8	24.6	-90.3	8.5
2025-01-28 13:03:33.274140	1.5	24.6	-90.1	4.6
2025-01-28 13:03:34.397448	1.2	24.6	-90.5	4.9
2025-01-28 13:03:35.529320	0.9	24.7	-90.7	6.1
2025-01-28 13:03:36.654837	0.5	24.7	-90.4	6.9
2025-01-28 13:03:37.776421	0.2	24.7	-90.6	3.2
2025-01-28 13:03:38.896119	359.9	24.7	-90.6	5.9
2025-01-28 13:03:40.016574	359.6	24.7	-90.5	4.0
2025-01-28 13:03:41.137707	359.3	24.7	-90.5	6.4
2025-01-28 13:03:42.257665	359.0	24.8	-90.3	3.2
2025-01-28 13:03:43.380237	358.6	24.8	-90.3	3.9
2025-01-28 13:03:44.501138	358.3	24.8	-90.6	3.2
2025-01-28 13:03:45.635789	358.0	24.8	-90.9	5.3
2025-01-28 13:03:46.788110	357.7	24.8	-90.6	3.1
2025-01-28 13:03:47.936971	357.3	24.8	-90.6	6.0
2025-01-28 13:03:49.093161	357.0	24.8	-90.5	6.6
2025-01-28 13:03:50.254318	356.7	24.8	-90.2	7.8
2025-01-28 13:03:51.413796	356.3	24.8	-90.6	9.2
2025-01-28 13:03:52.565700	356.0	24.8	-90.5	11.9
2025-01-28 13:03:53.720554	355.7	24.8	-90.7	12.7
2025-01-28 13:03:54.875062	355.4	24.8	-90.6	12.6
2025-01-28 13:03:56.028722	355.0	24.8	-90.3	11.2
2025-01-28 13:03:57.181522	354.7	24.8	-90.3	13.2
2025-01-28 13:03:58.326392	354.4	24.8	-90.6	12.0
2025-01-28 13:03:59.479366	354.0	24.8	-90.6	13.5
2025-01-28 13:04:00.642250	353.7	24.8	-90.4	12.6
2025-01-28 13:04:01.793613	353.4	24.8	-90.7	11.7
2025-01-28 13:04:02.942998	353.1	24.8	-90.3	11.2
2025-01-28 13:04:04.096993	352.7	24.8	-89.6	11.2
2025-01-28 13:04:05.257148	352.4	24.8	-90.2	11.4
2025-01-28 13:04:06.416303	352.1	24.8	-90.2	8.1
2025-01-28 13:04:07.565847	351.7	24.8	-90.4	11.2
2025-01-28 13:04:08.713566	351.4	24.8	-90.7	7.6
2025-01-28 13:04:09.858423	351.1	24.8	-90.2	7.8
2025-01-28 13:04:11.004043	350.8	24.8	-90.5	9.7
2025-01-28 13:04:12.162257	350.4	24.8	-90.5	7.6
2025-01-28 13:04:13.311480	350.1	24.7	-90.3	6.5
2025-01-28 13:04:14.460377	349.8	24.7	-90.3	7.1
2025-01-28 13:04:15.603697	349.5	24.7	-90.6	8.5
2025-01-28 13:04:16.759304	349.1	24.7	-90.9	3.8
2025-01-28 13:04:17.910758	348.8	24.7	-90.7	5.1
2025-01-28 13:04:19.072955	348.5	24.7	-90.6	6.6
2025-01-28 13:04:20.226006	348.2	24.6	-90.7	3.8
2025-01-28 13:04:21.377444	347.8	24.6	-90.3	3.6
2025-01-28 13:04:22.538184	347.5	24.6	-90.5	7.0
2025-01-28 13:04:23.687333	347.2	24.6	-90.3	2.8
2025-01-28 13:04:24.836651	346.9	24.5	-90.6	3.8
2025-01-28 13:04:25.985810	346.6	24.5	-90.7	6.7
2025-01-28 13:04:27.136476	346.2	24.5	-90.3	6.5
2025-01-28 13:04:28.286115	345.9	24.5	-90.1	4.4
2025-01-28 13:04:29.450252	345.6	24.4	-89.5	6.0
2025-01-28 13:04:30.594499	345.3	24.4	-90.0	5.1
2025-01-28 13:04:31.742348	345.0	24.4	-90.1	4.6
2025-01-28 13:04:32.906757	344.6	24.4	-89.9	4.5
2025-01-28 13:04:34.061633	344.3	24.3	-90.4	6.2
2025-01-28 13:04:35.218638	344.0	24.3	-90.4	4.9
2025-01-28 13:04:36.368837	343.7	24.3	-90.2	3.1
2025-01-28 13:04:37.523100	343.4	24.2	-90.3	6.1
2025-01-28 13:04:38.674345	343.0	24.2	-90.7	5.4
2025-01-28 13:04:39.829163	342.7	24.1	-90.5	3.1
2025-01-28 13:04:40.981281	342.4	24.1	-90.5	6.7
2025-01-28 13:04:42.133128	342.1	24.1	-90.5	7.9
2025-01-28 13:04:43.289652	341.8	24.0	-90.4	4.9
2025-01-28 13:04:44.442115	341.5	24.0	-90.5	6.7
2025-01-28 13:04:45.593181	341.2	24.0	-90.5	8.8
2025-01-28 13:04:46.748603	340.9	23.9	-90.5	5.9
2025-01-28 13:04:47.897255	340.6	23.9	-90.6	5.4
2025-01-28 13:04:49.055405	340.2	23.8	-90.6	6.4
2025-01-28 13:04:50.207037	339.9	23.8	-90.5	5.6
2025-01-28 13:04:51.366770	339.6	23.7	-90.6	3.5
2025-01-28 13:04:52.527118	339.3	23.7	-90.7	7.3
2025-01-28 13:04:53.684064	339.0	23.6	-90.8	4.2
2025-01-28 13:04:54.835048	338.7	23.6	-90.7	3.3
2025-01-28 13:04:55.984040	338.4	23.6	-90.4	3.7
2025-01-28 13:04:57.137130	338.1	23.5	-90.6	4.7
2025-01-28 13:04:58.284819	337.8	23.5	-90.6	3.3
2025-01-28 13:04:59.435644	337.5	23.4	-90.6	6.2
2025-01-28 13:05:00.585998	337.2	23.4	-90.8	6.7
2025-01-28 13:05:01.734068	336.9	23.3	-90.8	5.4
2025-01-28 13:05:02.887971	336.6	23.2	-90.6	5.0
2025-01-28 13:05:04.045591	336.3	23.2	-90.4	3.6
2025-01-28 13:05:05.209072	336.0	23.1	-90.4	2.0
2025-01-28 13:05:06.367299	335.7	23.1	-90.5	4.2
2025-01-28 13:05:07.521463	335.4	23.0	-90.5	5.4
2025-01-28 13:05:08.670204	335.1	23.0	-90.0	5.0
2025-01-28 13:05:09.830146	334.8	22.9	-90.6	3.6
2025-01-28 13:05:10.987305	334.6	22.9	-90.2	5.2
2025-01-28 13:05:12.142483	334.3	22.8	-90.1	4.6
2025-01-28 13:05:13.295995	334.0	22.7	-90.2	3.6
2025-01-28 13:05:14.454067	333.7	22.7	-90.1	4.7
2025-01-28 13:05:15.602434	333.4	22.6	-90.4	5.4
2025-01-28 13:05:16.757802	333.1	22.6	-90.2	4.5
2025-01-28 13:05:17.907252	332.8	22.5	-90.3	5.6
2025-01-28 13:05:19.055307	332.6	22.4	-90.3	3.6
2025-01-28 13:05:20.214773	332.3	22.4	-90.3	4.9
2025-01-28 13:05:21.363097	332.0	22.3	-90.3	4.2
2025-01-28 13:05:22.521412	331.7	22.2	-90.4	9.2
2025-01-28 13:05:23.685018	331.4	22.2	-90.8	2.4
2025-01-28 13:05:24.831192	331.2	22.1	-90.6	2.7
2025-01-28 13:05:25.987901	330.9	22.1	-90.9	5.6
2025-01-28 13:05:27.142914	330.6	22.0	-90.3	4.2
2025-01-28 13:05:28.289858	330.3	21.9	-90.4	3.7
2025-01-28 13:05:29.452732	330.1	21.9	-90.7	5.7
2025-01-28 13:05:30.612820	329.8	21.8	-90.6	4.0
2025-01-28 13:05:31.762355	329.5	21.7	-90.5	4.7
2025-01-28 13:05:32.915112	329.3	21.7	-90.4	6.2
2025-01-28 13:05:34.068810	329.0	21.6	-89.4	7.9
2025-01-28 13:05:35.228416	328.7	21.5	-89.3	4.1
2025-01-28 13:05:36.392451	328.5	21.4	-89.4	5.9
2025-01-28 13:05:37.547507	328.2	21.4	-89.4	3.4
2025-01-28 13:05:38.695656	327.9	21.3	-90.3	4.2
2025-01-28 13:05:39.851855	327.7	21.2	-90.3	6.9
2025-01-28 13:05:41.005164	327.4	21.2	-90.5	8.4
2025-01-28 13:05:42.154472	327.2	21.1	-90.3	8.2
2025-01-28 13:05:43.313092	326.9	21.0	-90.2	6.6
2025-01-28 13:05:44.469769	326.6	20.9	-90.4	3.9
2025-01-28 13:05:45.627110	326.4	20.9	-90.6	11.0
2025-01-28 13:05:46.780853	326.1	20.8	-90.7	8.0
2025-01-28 13:05:47.931206	325.9	20.7	-90.2	5.2
2025-01-28 13:05:49.083132	325.6	20.6	-90.5	4.6
2025-01-28 13:05:50.245014	325.4	20.6	-90.4	3.7
2025-01-28 13:05:51.396338	325.1	20.5	-90.7	3.6
2025-01-28 13:05:52.555124	324.9	20.4	-90.7	1.7
2025-01-28 13:05:53.711208	324.6	20.3	-90.5	3.8
2025-01-28 13:05:54.863963	324.4	20.3	-90.7	4.9
2025-01-28 13:05:56.015394	324.2	20.2	-90.2	6.1
2025-01-28 13:05:57.168944	323.9	20.1	-90.0	4.3
2025-01-28 13:05:58.327736	323.7	20.0	-90.1	2.2
2025-01-28 13:05:59.482799	323.4	20.0	-90.0	2.9
2025-01-28 13:06:00.634013	323.2	19.9	-90.3	2.8
2025-01-28 13:06:01.790847	322.9	19.8	-90.4	2.5
2025-01-28 13:06:02.944411	322.7	19.7	-90.3	2.6
2025-01-28 13:06:04.087945	322.5	19.6	-90.0	3.3
2025-01-28 13:06:05.236639	322.2	19.6	-90.0	3.0
2025-01-28 13:06:06.388456	322.0	19.5	-90.0	3.8
2025-01-28 13:06:07.539702	321.8	19.4	-90.3	3.1
2025-01-28 13:06:08.690629	321.6	19.3	-90.0	2.9
2025-01-28 13:06:09.839366	321.3	19.3	-90.1	3.2
2025-01-28 13:06:10.985098	321.1	19.2	-90.2	1.0
2025-01-28 13:06:12.134409	320.9	19.1	-89.9	2.1
2025-01-28 13:06:13.281893	320.6	19.0	-90.1	0.8
2025-01-28 13:06:14.442385	320.4	18.9	-90.2	1.7
2025-01-28 13:06:15.614480	320.2	18.8	-90.1	2.7
2025-01-28 13:06:16.771058	320.0	18.8	-90.5	2.7
2025-01-28 13:06:17.923698	319.8	18.7	-90.6	3.6
2025-01-28 13:06:19.080176	319.5	18.6	-89.6	2.2
2025-01-28 13:06:20.236572	319.3	18.5	-90.0	4.4
2025-01-28 13:06:21.392506	319.1	18.4	-90.2	5.2
2025-01-28 13:06:22.545613	318.9	18.4	-90.3	3.3
2025-01-28 13:06:23.709358	318.7	18.3	-89.9	4.0
2025-01-28 13:06:24.860357	318.5	18.2	-90.3	4.2
2025-01-28 13:06:26.017846	318.2	18.1	-90.4	5.8
2025-01-28 13:06:27.174568	318.0	18.0	-90.5	2.9
2025-01-28 13:06:28.322420	317.8	17.9	-90.3	4.8
2025-01-28 13:06:29.479784	317.6	17.9	-90.7	2.8
2025-01-28 13:06:30.638224	317.4	17.8	-90.6	4.2
2025-01-28 13:06:31.792246	317.2	17.7	-90.2	3.0
2025-01-28 13:06:32.945827	317.0	17.6	-90.4	2.6
2025-01-28 13:06:34.103992	316.8	17.5	-90.5	7.2
2025-01-28 13:06:35.260298	316.6	17.4	-90.2	2.8
2025-01-28 13:06:36.408398	316.4	17.4	-90.5	3.8
2025-01-28 13:06:37.562043	316.2	17.3	-90.8	2.3
2025-01-28 13:06:38.716436	316.0	17.2	-89.7	2.8
2025-01-28 13:06:39.879074	315.8	17.1	-89.7	3.3
2025-01-28 13:06:41.036335	315.6	17.0	-89.7	3.1
2025-01-28 13:06:42.193927	315.4	16.9	-90.4	4.7
2025-01-28 13:06:43.348261	315.2	16.9	-89.9	2.7
2025-01-28 13:06:44.504519	315.0	16.8	-90.3	1.6
2025-01-28 13:06:45.656356	314.8	16.7	-90.5	2.6
2025-01-28 13:06:46.817459	314.6	16.6	-90.4	2.1
2025-01-28 13:06:47.971854	314.4	16.5	-90.4	3.0
2025-01-28 13:06:49.130300	314.2	16.4	-90.3	2.7
2025-01-28 13:06:50.276626	314.0	16.4	-90.7	7.4
2025-01-28 13:06:51.435794	313.8	16.3	-91.0	6.2
2025-01-28 13:06:52.579686	313.7	16.2	-90.5	3.7
2025-01-28 13:06:53.735780	313.5	16.1	-90.3	4.1
2025-01-28 13:06:54.899680	313.3	16.0	-90.3	11.0
2025-01-28 13:06:56.057155	313.1	15.9	-90.4	4.7
2025-01-28 13:06:57.216690	312.9	15.9	-90.5	4.8
2025-01-28 13:06:58.363388	312.7	15.8	-90.2	3.5
2025-01-28 13:06:59.513387	312.6	15.7	-90.5	4.1
2025-01-28 13:07:00.663922	312.4	15.6	-90.1	3.7
2025-01-28 13:07:01.925665	312.2	15.5	-90.2	3.3
2025-01-28 13:07:03.073612	312.0	15.4	-90.3	4.5
2025-01-28 13:07:04.222274	311.8	15.3	-90.1	3.9
2025-01-28 13:07:05.372003	311.7	15.3	-90.1	2.4
2025-01-28 13:07:06.517929	311.5	15.2	-90.1	1.7
2025-01-28 13:07:07.668225	311.3	15.1	-90.2	2.8
2025-01-28 13:07:08.820794	311.1	15.0	-90.6	2.5
2025-01-28 13:07:09.976893	311.0	14.9	-90.6	8.6
2025-01-28 13:07:11.135953	310.8	14.8	-90.1	4.4
2025-01-28 13:07:12.290598	310.6	14.7	-90.3	7.9
2025-01-28 13:07:13.440523	310.5	14.7	-90.7	4.2
#Closed at: 2025-01-28 13:00:50.442968