passes_logs/2025/01/28/LEX_Murmansk/LEX_Murmansk__20250128_100206_NOAA_18_rec.log

#Pass ID: 20250128_100206_NOAA 18
#Satellite: NOAA 18
#Configuration: NOAA 18
#Start time: 2025-01-28 10:02:01.426994

#LorettStation: 1.0.0 05.05.2024
#Station: LEX_Murmansk
#Location: 33.156738 lon 68.926811 lat
#TLE: 1 28654U 05018A   25027.12567402  .00000414  00000+0  24299-3 0  9999
#TLE: 2 28654  98.8547 108.0587 0014840 145.8119 214.4012 14.13498347 14893

#Time	Az	El	Level	SNR
2025-01-28 10:02:13.542139	25.5	16.3	-90.6	4.8
2025-01-28 10:02:15.872540	25.5	16.6	-90.9	4.4
2025-01-28 10:02:18.197409	25.6	16.8	-90.9	5.3
2025-01-28 10:02:20.523305	25.6	17.1	-90.9	5.0
2025-01-28 10:02:22.862612	25.6	17.4	-86.1	4.6
2025-01-28 10:02:25.185109	25.6	17.6	-87.2	5.3
2025-01-28 10:02:27.518646	25.6	17.9	-85.7	4.4
2025-01-28 10:02:29.852914	25.6	18.2	-85.6	6.5
2025-01-28 10:02:32.185431	25.6	18.5	-85.9	5.3
2025-01-28 10:02:34.506885	25.6	18.8	-85.8	6.0
2025-01-28 10:02:36.840442	25.7	19.0	-86.3	6.2
2025-01-28 10:02:39.154724	25.7	19.3	-86.3	6.4
2025-01-28 10:02:41.481689	25.7	19.6	-86.3	7.1
2025-01-28 10:02:43.804628	25.7	19.9	-85.7	7.9
2025-01-28 10:02:46.133705	25.7	20.2	-86.3	8.1
2025-01-28 10:02:48.471283	25.7	20.5	-86.3	6.7
2025-01-28 10:02:50.803958	25.7	20.8	-86.4	9.7
2025-01-28 10:02:53.128063	25.8	21.1	-86.3	7.8
2025-01-28 10:02:55.455864	25.8	21.5	-86.3	7.1
2025-01-28 10:02:57.786978	25.8	21.8	-86.2	8.0
2025-01-28 10:03:00.114979	25.8	22.1	-86.1	7.9
2025-01-28 10:03:02.436961	25.8	22.4	-86.3	5.6
2025-01-28 10:03:04.756179	25.8	22.8	-86.8	9.7
2025-01-28 10:03:07.085339	25.8	23.1	-86.9	10.1
2025-01-28 10:03:09.417779	25.9	23.4	-87.9	9.6
2025-01-28 10:03:11.733413	25.9	23.8	-88.3	9.9
2025-01-28 10:03:14.058953	25.9	24.1	-87.9	13.1
2025-01-28 10:03:16.389327	25.9	24.5	-87.9	7.1
2025-01-28 10:03:18.705112	25.9	24.8	-87.3	8.0
2025-01-28 10:03:21.027563	25.9	25.2	-87.6	10.6
2025-01-28 10:03:23.352091	25.9	25.6	-86.8	11.3
2025-01-28 10:03:25.680534	26.0	26.0	-87.3	9.9
2025-01-28 10:03:28.006855	26.0	26.3	-87.7	10.1
2025-01-28 10:03:30.338252	26.0	26.7	-87.3	8.0
2025-01-28 10:03:32.724457	26.0	27.1	-87.3	8.6
2025-01-28 10:03:35.053262	26.0	27.5	-87.5	6.0
2025-01-28 10:03:37.374791	26.0	27.9	-87.8	7.9
2025-01-28 10:03:39.703010	26.1	28.3	-87.5	7.3
2025-01-28 10:03:42.031084	26.1	28.7	-88.1	7.1
2025-01-28 10:03:44.350395	26.1	29.2	-86.5	8.2
2025-01-28 10:03:46.664679	26.1	29.6	-87.3	9.1
2025-01-28 10:03:48.982352	26.1	30.0	-86.6	5.5
2025-01-28 10:03:51.324404	26.1	30.5	-86.4	5.7
2025-01-28 10:03:53.649971	26.2	30.9	-86.4	7.2
2025-01-28 10:03:55.991474	26.2	31.4	-86.9	9.8
2025-01-28 10:03:58.323787	26.2	31.8	-87.3	7.0
2025-01-28 10:04:00.644546	26.2	32.3	-86.9	8.0
2025-01-28 10:04:02.968204	26.2	32.8	-87.2	9.7
2025-01-28 10:04:05.296967	26.2	33.3	-87.5	7.3
2025-01-28 10:04:07.622196	26.3	33.7	-87.2	6.0
2025-01-28 10:04:09.954014	26.3	34.2	-87.1	6.8
2025-01-28 10:04:12.284632	26.3	34.8	-86.9	11.5
2025-01-28 10:04:14.613905	26.3	35.3	-86.3	11.4
2025-01-28 10:04:16.943242	26.3	35.8	-86.6	9.9
2025-01-28 10:04:19.271243	26.4	36.3	-86.5	12.3
2025-01-28 10:04:21.601340	26.4	36.9	-86.5	10.5
2025-01-28 10:04:23.930407	26.4	37.4	-86.3	7.9
2025-01-28 10:04:26.259216	26.4	38.0	-86.4	10.7
2025-01-28 10:04:28.593307	26.5	38.6	-86.8	6.2
2025-01-28 10:04:30.918626	26.5	39.1	-87.9	12.5
2025-01-28 10:04:33.236043	26.5	39.7	-88.0	9.9
2025-01-28 10:04:35.559053	26.5	40.3	-87.5	10.3
2025-01-28 10:04:37.891700	26.5	40.9	-88.4	14.1
2025-01-28 10:04:40.222387	26.6	41.6	-87.0	14.9
2025-01-28 10:04:42.547654	26.6	42.2	-87.7	9.4
2025-01-28 10:04:44.874015	26.6	42.8	-88.1	10.8
2025-01-28 10:04:47.198187	26.6	43.5	-88.2	13.9
2025-01-28 10:04:49.517938	26.7	44.2	-88.2	14.7
2025-01-28 10:04:51.849839	26.7	44.8	-88.3	14.6
2025-01-28 10:04:54.179759	26.7	45.5	-88.2	12.0
2025-01-28 10:04:56.510758	26.8	46.2	-88.2	13.3
2025-01-28 10:04:58.834085	26.8	46.9	-88.6	15.7
2025-01-28 10:05:01.157234	26.8	47.7	-87.8	9.6
2025-01-28 10:05:03.479640	26.9	48.4	-88.8	6.9
2025-01-28 10:05:05.806931	26.9	49.1	-87.5	12.4
2025-01-28 10:05:08.138044	26.9	49.9	-88.5	8.9
2025-01-28 10:05:10.456421	27.0	50.7	-88.5	7.6
2025-01-28 10:05:12.788269	27.0	51.5	-87.8	6.7
2025-01-28 10:05:15.108994	27.0	52.3	-87.8	9.4
2025-01-28 10:05:17.429788	27.1	53.1	-88.0	8.3
2025-01-28 10:05:19.764247	27.1	53.9	-87.7	13.8
2025-01-28 10:05:22.094298	27.2	54.8	-86.2	5.1
2025-01-28 10:05:24.421893	27.2	55.6	-86.3	3.9
2025-01-28 10:05:26.745382	27.3	56.5	-86.3	7.2
2025-01-28 10:05:29.078328	27.3	57.4	-86.4	7.9
2025-01-28 10:05:31.406830	27.4	58.3	-86.2	10.9
2025-01-28 10:05:33.731600	27.4	59.2	-87.7	8.7
2025-01-28 10:05:36.056719	27.5	60.1	-88.2	6.5
2025-01-28 10:05:38.385857	27.6	61.1	-87.6	8.5
2025-01-28 10:05:40.704957	27.6	62.0	-86.9	15.7
2025-01-28 10:05:43.037618	27.7	63.0	-86.5	14.3
2025-01-28 10:05:45.369297	27.8	64.0	-86.7	15.1
2025-01-28 10:05:47.700988	27.9	65.0	-86.2	10.8
2025-01-28 10:05:50.038253	28.0	66.0	-87.1	8.2
2025-01-28 10:05:52.373822	28.1	67.0	-88.6	7.3
2025-01-28 10:05:54.698666	28.2	68.0	-87.9	15.0
2025-01-28 10:05:57.028505	28.3	69.1	-88.0	12.8
2025-01-28 10:05:59.358123	28.4	70.1	-87.7	12.9
2025-01-28 10:06:01.679071	28.6	71.2	-87.0	9.2
2025-01-28 10:06:03.997804	28.8	72.3	-87.6	11.9
2025-01-28 10:06:06.324217	29.0	73.4	-87.9	13.4
2025-01-28 10:06:08.651986	29.2	74.5	-87.8	16.2
2025-01-28 10:06:10.973792	29.4	75.6	-88.1	12.6
2025-01-28 10:06:13.302774	29.7	76.7	-88.1	15.2
2025-01-28 10:06:15.623542	30.1	77.8	-87.6	13.7
2025-01-28 10:06:17.943558	30.5	79.0	-88.2	14.6
2025-01-28 10:06:20.275186	31.0	80.1	-88.3	17.9
2025-01-28 10:06:22.607868	31.7	81.3	-87.5	17.5
2025-01-28 10:06:24.930937	32.5	82.4	-87.2	13.8
2025-01-28 10:06:27.258181	33.7	83.6	-87.0	19.5
2025-01-28 10:06:29.582654	35.4	84.7	-87.8	9.8
2025-01-28 10:06:31.900384	38.0	85.9	-87.9	10.7
2025-01-28 10:06:34.224398	42.6	87.0	-87.7	19.0
2025-01-28 10:06:36.558745	52.7	88.1	-87.7	13.9
2025-01-28 10:06:38.888281	85.0	89.0	-87.5	13.5
2025-01-28 10:06:41.229253	154.9	88.9	-87.7	20.0
2025-01-28 10:06:43.561614	181.8	88.0	-86.3	16.9
2025-01-28 10:06:45.886936	190.7	86.9	-87.3	19.5
2025-01-28 10:06:48.216594	195.0	85.7	-88.4	20.4
2025-01-28 10:06:50.544499	197.4	84.6	-88.2	19.1
2025-01-28 10:06:52.872594	199.0	83.4	-87.5	17.2
2025-01-28 10:06:55.195079	200.1	82.2	-87.7	17.5
2025-01-28 10:06:57.522701	200.9	81.1	-87.3	16.5
2025-01-28 10:06:59.841845	201.6	79.9	-87.1	18.0
2025-01-28 10:07:02.160774	202.1	78.8	-86.5	14.7
2025-01-28 10:07:04.474956	202.5	77.7	-88.7	17.1
2025-01-28 10:07:06.799938	202.8	76.5	-88.4	18.7
2025-01-28 10:07:09.119499	203.1	75.4	-88.1	15.6
2025-01-28 10:07:11.448024	203.4	74.3	-88.0	11.5
2025-01-28 10:07:13.769556	203.6	73.2	-88.7	16.9
2025-01-28 10:07:16.084987	203.8	72.1	-88.5	13.7
2025-01-28 10:07:18.412431	203.9	71.0	-88.5	15.2
2025-01-28 10:07:20.732497	204.1	70.0	-87.8	14.5
2025-01-28 10:07:23.063144	204.2	68.9	-88.0	12.5
2025-01-28 10:07:25.376329	204.3	67.9	-88.3	15.0
2025-01-28 10:07:27.699368	204.4	66.8	-86.8	15.0
2025-01-28 10:07:30.032189	204.5	65.8	-88.4	13.7
2025-01-28 10:07:32.348732	204.6	64.8	-88.7	14.8
2025-01-28 10:07:34.676628	204.7	63.8	-87.2	12.3
2025-01-28 10:07:37.007999	204.8	62.8	-87.6	9.4
2025-01-28 10:07:39.341249	204.9	61.9	-87.3	11.6
2025-01-28 10:07:41.669835	204.9	60.9	-87.9	10.4
2025-01-28 10:07:43.998084	205.0	60.0	-87.9	9.0
2025-01-28 10:07:46.323140	205.1	59.0	-88.1	11.6
2025-01-28 10:07:48.645184	205.1	58.1	-87.9	11.8
2025-01-28 10:07:50.974333	205.2	57.2	-87.5	10.2
2025-01-28 10:07:53.300092	205.2	56.3	-88.8	14.8
2025-01-28 10:07:55.625169	205.3	55.5	-88.0	14.7
2025-01-28 10:07:57.954562	205.3	54.6	-87.0	14.0
2025-01-28 10:08:00.276001	205.4	53.8	-87.0	15.6
2025-01-28 10:08:02.608305	205.4	52.9	-87.1	14.3
2025-01-28 10:08:04.936863	205.5	52.1	-86.7	10.6
2025-01-28 10:08:07.275234	205.5	51.3	-86.5	13.3
2025-01-28 10:08:09.600146	205.5	50.5	-86.8	9.8
2025-01-28 10:08:11.933726	205.6	49.7	-86.8	7.8
2025-01-28 10:08:14.259850	205.6	49.0	-86.8	9.2
2025-01-28 10:08:16.590859	205.6	48.2	-87.2	7.3
2025-01-28 10:08:18.921738	205.7	47.5	-88.2	8.0
2025-01-28 10:08:21.253697	205.7	46.7	-88.2	12.8
2025-01-28 10:08:23.585282	205.7	46.0	-88.1	11.9
2025-01-28 10:08:25.905112	205.8	45.3	-87.5	8.4
2025-01-28 10:08:28.232158	205.8	44.6	-86.9	10.9
2025-01-28 10:08:30.560096	205.8	44.0	-87.4	11.4
2025-01-28 10:08:32.884578	205.8	43.3	-87.9	10.6
2025-01-28 10:08:35.196690	205.9	42.6	-88.1	14.0
2025-01-28 10:08:37.541576	205.9	42.0	-87.5	8.8
2025-01-28 10:08:39.865024	205.9	41.4	-86.9	10.5
2025-01-28 10:08:42.193886	205.9	40.7	-86.7	13.7
2025-01-28 10:08:44.533320	206.0	40.1	-86.9	11.2
2025-01-28 10:08:46.857323	206.0	39.5	-87.0	12.3
2025-01-28 10:08:49.188008	206.0	38.9	-86.6	9.5
2025-01-28 10:08:51.517819	206.0	38.3	-87.6	6.7
2025-01-28 10:08:53.849102	206.1	37.8	-87.4	7.4
2025-01-28 10:08:56.172828	206.1	37.2	-88.0	10.9
2025-01-28 10:08:58.499626	206.1	36.7	-89.1	7.0
2025-01-28 10:09:00.820610	206.1	36.1	-88.0	10.0
2025-01-28 10:09:03.147809	206.1	35.6	-88.1	7.3
2025-01-28 10:09:05.470103	206.2	35.1	-88.7	6.6
2025-01-28 10:09:07.803480	206.2	34.5	-89.2	6.4
2025-01-28 10:09:10.130169	206.2	34.0	-88.8	6.9
2025-01-28 10:09:12.457556	206.2	33.5	-88.4	6.3
2025-01-28 10:09:14.781840	206.2	33.0	-89.4	3.9
2025-01-28 10:09:17.095245	206.2	32.6	-88.4	4.3
2025-01-28 10:09:19.424388	206.3	32.1	-88.8	5.4
2025-01-28 10:09:21.754626	206.3	31.6	-88.1	6.1
2025-01-28 10:09:24.077814	206.3	31.1	-87.8	5.5
2025-01-28 10:09:26.403797	206.3	30.7	-88.9	4.0
2025-01-28 10:09:28.733578	206.3	30.2	-88.8	5.3
2025-01-28 10:09:31.064117	206.4	29.8	-88.9	5.8
2025-01-28 10:09:33.385786	206.4	29.4	-88.7	6.1
2025-01-28 10:09:35.707610	206.4	28.9	-89.0	9.1
2025-01-28 10:09:38.035510	206.4	28.5	-88.6	7.9
2025-01-28 10:09:40.355116	206.4	28.1	-87.5	5.9
2025-01-28 10:09:42.693431	206.4	27.7	-88.8	8.1
2025-01-28 10:09:45.018331	206.4	27.3	-89.0	7.3
2025-01-28 10:09:47.324680	206.5	26.9	-89.2	9.6
2025-01-28 10:09:49.644736	206.5	26.5	-88.6	8.1
2025-01-28 10:09:51.977860	206.5	26.1	-87.6	6.3
2025-01-28 10:09:54.297207	206.5	25.7	-86.6	5.7
2025-01-28 10:09:56.617963	206.5	25.4	-88.6	8.9
2025-01-28 10:09:58.946241	206.5	25.0	-87.2	6.9
2025-01-28 10:10:01.264500	206.5	24.6	-89.0	7.3
2025-01-28 10:10:03.590620	206.6	24.3	-88.6	10.6
2025-01-28 10:10:05.915806	206.6	23.9	-87.6	9.7
2025-01-28 10:10:08.257311	206.6	23.6	-87.6	10.7
2025-01-28 10:10:10.586378	206.6	23.2	-87.8	8.8
2025-01-28 10:10:12.912854	206.6	22.9	-87.4	9.0
2025-01-28 10:10:15.230112	206.6	22.5	-87.8	10.5
2025-01-28 10:10:17.547498	206.6	22.2	-88.7	10.2
2025-01-28 10:10:19.879396	206.7	21.9	-88.8	7.4
2025-01-28 10:10:22.207467	206.7	21.5	-88.5	5.5
2025-01-28 10:10:24.527345	206.7	21.2	-89.2	5.7
2025-01-28 10:10:26.848035	206.7	20.9	-89.0	6.2
2025-01-28 10:10:29.170644	206.7	20.6	-89.2	5.5
2025-01-28 10:10:31.500098	206.7	20.3	-89.6	9.4
2025-01-28 10:10:33.831763	206.7	20.0	-89.1	8.4
2025-01-28 10:10:36.163247	206.7	19.7	-89.3	7.5
2025-01-28 10:10:38.490548	206.8	19.4	-89.6	6.7
2025-01-28 10:10:40.812752	206.8	19.1	-88.5	5.3
2025-01-28 10:10:43.135803	206.8	18.8	-88.4	5.5
2025-01-28 10:10:45.465856	206.8	18.5	-87.0	4.0
2025-01-28 10:10:47.795382	206.8	18.2	-87.8	5.9
2025-01-28 10:10:50.127556	206.8	17.9	-88.3	5.5
2025-01-28 10:10:52.452571	206.8	17.7	-89.2	3.9
2025-01-28 10:10:54.775717	206.8	17.4	-89.1	6.9
2025-01-28 10:10:57.106994	206.9	17.1	-88.9	5.4
2025-01-28 10:10:59.426708	206.9	16.9	-88.5	6.3
2025-01-28 10:11:01.739278	206.9	16.6	-88.8	7.6
2025-01-28 10:11:04.068304	206.9	16.3	-89.1	4.4
2025-01-28 10:11:06.392518	206.9	16.1	-89.3	5.3
2025-01-28 10:11:08.716813	206.9	15.8	-88.7	5.0
2025-01-28 10:11:11.039965	206.9	15.6	-87.5	8.4
2025-01-28 10:11:13.363902	206.9	15.3	-88.0	6.5
2025-01-28 10:11:15.689057	207.0	15.1	-87.8	6.0
2025-01-28 10:11:18.018232	207.0	14.8	-87.6	4.1
2025-01-28 10:11:20.338539	207.0	14.6	-87.7	4.2
#Closed at: 2025-01-28 10:02:06.353712