passes_logs/2025/01/28/LEX_Murmansk/LEX_Murmansk__20250128_164153_NOAA_18_rec.log

#Pass ID: 20250128_164153_NOAA 18
#Satellite: NOAA 18
#Configuration: NOAA 18
#Start time: 2025-01-28 16:41:48.160841

#LorettStation: 1.0.0 05.05.2024
#Station: LEX_Murmansk
#Location: 33.156738 lon 68.926811 lat
#TLE: 1 28654U 05018A   25028.04589186  .00000422  00000+0  24750-3 0  9995
#TLE: 2 28654  98.8546 108.9697 0014880 143.3316 216.8878 14.13499339 15023

#Time	Az	El	Level	SNR
2025-01-28 16:42:00.322793	88.3	16.1	-90.1	7.9
2025-01-28 16:42:01.466442	88.2	16.2	-90.2	8.8
2025-01-28 16:42:02.589134	88.1	16.3	-90.3	6.2
2025-01-28 16:42:03.741705	87.9	16.4	-90.7	10.6
2025-01-28 16:42:04.883495	87.8	16.5	-90.6	7.1
2025-01-28 16:42:06.030438	87.7	16.6	-90.3	6.9
2025-01-28 16:42:07.180287	87.5	16.7	-90.4	8.1
2025-01-28 16:42:08.335297	87.4	16.8	-90.2	7.3
2025-01-28 16:42:09.474367	87.2	17.0	-90.1	5.5
2025-01-28 16:42:10.618859	87.1	17.1	-90.7	6.2
2025-01-28 16:42:11.771502	86.9	17.2	-90.7	9.6
2025-01-28 16:42:12.921995	86.8	17.3	-90.3	9.6
2025-01-28 16:42:14.079100	86.6	17.4	-90.2	7.9
2025-01-28 16:42:15.223782	86.5	17.5	-90.1	7.4
2025-01-28 16:42:16.374933	86.3	17.6	-90.2	7.8
2025-01-28 16:42:17.529883	86.2	17.7	-90.6	5.4
2025-01-28 16:42:18.679437	86.0	17.8	-90.7	9.8
2025-01-28 16:42:19.827545	85.9	17.9	-90.5	10.9
2025-01-28 16:42:20.957458	85.7	18.0	-90.0	6.8
2025-01-28 16:42:22.091824	85.6	18.2	-90.0	7.9
2025-01-28 16:42:23.239617	85.4	18.3	-89.6	6.4
2025-01-28 16:42:24.383171	85.3	18.4	-90.5	6.0
2025-01-28 16:42:25.540532	85.1	18.5	-90.9	5.9
2025-01-28 16:42:26.683096	84.9	18.6	-90.6	9.5
2025-01-28 16:42:27.839543	84.8	18.7	-90.4	9.8
2025-01-28 16:42:28.993849	84.6	18.8	-90.1	4.8
2025-01-28 16:42:30.147664	84.5	18.9	-90.2	8.0
2025-01-28 16:42:31.298293	84.3	19.1	-90.3	11.8
2025-01-28 16:42:32.440277	84.1	19.2	-90.5	4.4
2025-01-28 16:42:33.589838	84.0	19.3	-90.0	8.4
2025-01-28 16:42:34.711382	83.8	19.4	-90.4	8.0
2025-01-28 16:42:35.868876	83.6	19.5	-90.4	9.5
2025-01-28 16:42:37.007017	83.4	19.6	-90.6	11.2
2025-01-28 16:42:38.151042	83.3	19.7	-90.5	6.8
2025-01-28 16:42:39.299472	83.1	19.9	-90.1	10.3
2025-01-28 16:42:40.444812	82.9	20.0	-90.3	5.8
2025-01-28 16:42:41.586918	82.7	20.1	-90.5	9.8
2025-01-28 16:42:42.746153	82.6	20.2	-90.6	12.4
2025-01-28 16:42:43.896792	82.4	20.3	-90.8	4.9
2025-01-28 16:42:45.065477	82.2	20.4	-90.4	4.9
2025-01-28 16:42:46.216813	82.0	20.5	-90.4	9.3
2025-01-28 16:42:47.362253	81.8	20.7	-90.6	8.3
2025-01-28 16:42:48.515624	81.7	20.8	-90.9	9.3
2025-01-28 16:42:49.675564	81.5	20.9	-90.9	10.0
2025-01-28 16:42:50.826690	81.3	21.0	-89.1	2.9
2025-01-28 16:42:51.981800	81.1	21.1	-89.5	7.9
2025-01-28 16:42:53.137942	80.9	21.2	-89.3	9.7
2025-01-28 16:42:54.292073	80.7	21.4	-89.3	8.4
2025-01-28 16:42:55.445353	80.5	21.5	-90.8	9.0
2025-01-28 16:42:56.590910	80.3	21.6	-90.9	11.0
2025-01-28 16:42:57.747703	80.1	21.7	-90.7	11.0
2025-01-28 16:42:58.901210	79.9	21.8	-90.6	11.6
2025-01-28 16:43:00.043523	79.7	22.0	-90.9	9.9
2025-01-28 16:43:01.186000	79.5	22.1	-90.6	11.0
2025-01-28 16:43:02.337251	79.3	22.2	-90.4	7.5
2025-01-28 16:43:03.498841	79.1	22.3	-90.7	4.7
2025-01-28 16:43:04.650757	78.9	22.4	-90.7	7.1
2025-01-28 16:43:05.796989	78.7	22.6	-91.0	9.1
2025-01-28 16:43:06.936901	78.5	22.7	-90.6	8.0
2025-01-28 16:43:08.090307	78.3	22.8	-90.5	10.2
2025-01-28 16:43:09.237504	78.0	22.9	-90.7	9.1
2025-01-28 16:43:10.386971	77.8	23.0	-91.0	14.7
2025-01-28 16:43:11.547802	77.6	23.2	-91.2	10.7
2025-01-28 16:43:12.693194	77.4	23.3	-90.6	13.0
2025-01-28 16:43:13.847180	77.2	23.4	-90.6	9.7
2025-01-28 16:43:14.993436	77.0	23.5	-90.7	9.8
2025-01-28 16:43:16.137884	76.7	23.6	-90.0	8.1
2025-01-28 16:43:17.259046	76.5	23.8	-89.8	6.1
2025-01-28 16:43:18.380337	76.3	23.9	-90.3	10.9
2025-01-28 16:43:19.500150	76.1	24.0	-90.5	13.2
2025-01-28 16:43:20.620602	75.8	24.1	-90.9	9.3
2025-01-28 16:43:21.740879	75.6	24.2	-90.5	9.4
2025-01-28 16:43:22.861671	75.4	24.3	-90.6	6.0
2025-01-28 16:43:23.984560	75.2	24.5	-90.5	5.1
2025-01-28 16:43:25.104637	74.9	24.6	-90.1	7.0
2025-01-28 16:43:26.229711	74.7	24.7	-90.6	7.9
2025-01-28 16:43:27.360093	74.5	24.8	-90.3	5.8
2025-01-28 16:43:28.513305	74.2	24.9	-90.8	6.4
2025-01-28 16:43:29.658751	74.0	25.1	-90.6	6.1
2025-01-28 16:43:30.803223	73.7	25.2	-90.9	5.7
2025-01-28 16:43:31.943572	73.5	25.3	-91.0	7.8
2025-01-28 16:43:33.072973	73.2	25.4	-90.7	5.6
2025-01-28 16:43:34.209074	73.0	25.5	-90.8	4.5
2025-01-28 16:43:35.361230	72.7	25.7	-90.8	4.0
2025-01-28 16:43:36.502116	72.5	25.8	-90.0	5.4
2025-01-28 16:43:37.640975	72.2	25.9	-90.7	4.7
2025-01-28 16:43:38.785055	72.0	26.0	-90.7	2.8
2025-01-28 16:43:39.930043	71.7	26.1	-91.0	5.9
2025-01-28 16:43:41.077332	71.4	26.2	-90.9	3.7
2025-01-28 16:43:42.229309	71.2	26.4	-90.4	4.8
2025-01-28 16:43:43.384931	70.9	26.5	-90.9	5.7
2025-01-28 16:43:44.539291	70.6	26.6	-90.7	4.6
2025-01-28 16:43:45.687201	70.4	26.7	-90.7	1.7
2025-01-28 16:43:46.835650	70.1	26.8	-90.6	6.3
2025-01-28 16:43:47.983766	69.8	27.0	-91.2	4.0
2025-01-28 16:43:49.137580	69.5	27.1	-90.7	3.5
2025-01-28 16:43:50.286791	69.2	27.2	-91.2	4.1
2025-01-28 16:43:51.437704	69.0	27.3	-91.1	3.8
2025-01-28 16:43:52.588116	68.7	27.4	-91.1	6.6
2025-01-28 16:43:53.740462	68.4	27.6	-90.9	8.2
2025-01-28 16:43:54.897014	68.1	27.7	-89.4	5.2
2025-01-28 16:43:56.044530	67.8	27.8	-89.0	5.2
2025-01-28 16:43:57.192979	67.5	27.9	-89.3	5.1
2025-01-28 16:43:58.346689	67.2	28.0	-89.6	4.7
2025-01-28 16:43:59.500151	66.9	28.1	-91.1	5.6
2025-01-28 16:44:00.650733	66.6	28.3	-90.8	5.2
2025-01-28 16:44:01.806712	66.3	28.4	-90.6	4.3
2025-01-28 16:44:02.955777	66.0	28.5	-90.9	5.6
2025-01-28 16:44:04.104326	65.7	28.6	-90.5	7.6
2025-01-28 16:44:05.258696	65.4	28.7	-90.7	6.4
2025-01-28 16:44:06.410194	65.1	28.8	-90.5	8.1
2025-01-28 16:44:07.563480	64.8	28.9	-90.6	7.9
2025-01-28 16:44:08.711087	64.5	29.0	-90.7	12.5
2025-01-28 16:44:09.860869	64.1	29.2	-91.2	7.8
2025-01-28 16:44:11.015679	63.8	29.3	-90.9	6.1
2025-01-28 16:44:12.175763	63.5	29.4	-90.7	14.3
2025-01-28 16:44:13.329557	63.2	29.5	-90.7	7.6
2025-01-28 16:44:14.479844	62.8	29.6	-90.5	8.4
2025-01-28 16:44:15.630638	62.5	29.7	-90.9	13.6
2025-01-28 16:44:16.785752	62.2	29.8	-89.7	9.7
2025-01-28 16:44:17.939946	61.8	29.9	-89.8	9.2
2025-01-28 16:44:19.097766	61.5	30.0	-89.3	10.3
2025-01-28 16:44:20.262632	61.2	30.1	-89.1	13.7
2025-01-28 16:44:21.415239	60.8	30.2	-89.7	9.3
2025-01-28 16:44:22.570366	60.5	30.3	-89.3	10.2
2025-01-28 16:44:23.734830	60.1	30.5	-90.7	13.6
2025-01-28 16:44:24.892880	59.8	30.6	-90.7	10.8
2025-01-28 16:44:26.039732	59.4	30.7	-90.3	8.5
2025-01-28 16:44:27.189682	59.1	30.8	-90.0	13.1
2025-01-28 16:44:28.339319	58.7	30.9	-90.7	9.2
2025-01-28 16:44:29.487667	58.4	31.0	-91.0	11.7
2025-01-28 16:44:30.646961	58.0	31.1	-89.6	11.9
2025-01-28 16:44:31.799428	57.7	31.2	-88.6	13.9
2025-01-28 16:44:32.955396	57.3	31.2	-89.1	14.2
2025-01-28 16:44:34.112377	56.9	31.3	-89.1	14.6
2025-01-28 16:44:35.260419	56.6	31.4	-89.2	11.6
2025-01-28 16:44:36.407233	56.2	31.5	-89.7	10.7
2025-01-28 16:44:37.558966	55.8	31.6	-89.4	8.4
2025-01-28 16:44:38.711617	55.5	31.7	-89.0	10.3
2025-01-28 16:44:39.868591	55.1	31.8	-90.8	5.0
2025-01-28 16:44:41.021535	54.7	31.9	-90.9	5.8
2025-01-28 16:44:42.175542	54.3	32.0	-90.7	12.1
2025-01-28 16:44:43.322821	53.9	32.1	-90.4	12.4
2025-01-28 16:44:44.470711	53.6	32.2	-90.8	9.6
2025-01-28 16:44:45.620277	53.2	32.2	-91.0	15.5
2025-01-28 16:44:46.768234	52.8	32.3	-90.8	15.6
2025-01-28 16:44:47.919095	52.4	32.4	-91.0	13.9
2025-01-28 16:44:49.063741	52.0	32.5	-90.5	15.7
2025-01-28 16:44:50.205838	51.6	32.6	-90.2	13.5
2025-01-28 16:44:51.327025	51.2	32.6	-89.9	13.1
2025-01-28 16:44:52.448486	50.8	32.7	-90.4	11.5
2025-01-28 16:44:53.570635	50.5	32.8	-90.0	11.5
2025-01-28 16:44:54.690692	50.1	32.9	-90.6	15.8
2025-01-28 16:44:55.810577	49.7	32.9	-90.8	19.0
2025-01-28 16:44:56.931161	49.3	33.0	-90.3	11.2
2025-01-28 16:44:58.052192	48.9	33.1	-90.9	10.1
2025-01-28 16:44:59.173185	48.5	33.1	-89.3	13.6
2025-01-28 16:45:00.297285	48.1	33.2	-89.2	12.1
2025-01-28 16:45:01.433029	47.7	33.3	-89.3	10.2
2025-01-28 16:45:02.587861	47.3	33.3	-88.9	13.2
2025-01-28 16:45:03.740014	46.9	33.4	-89.6	16.2
2025-01-28 16:45:04.888239	46.4	33.4	-89.4	14.3
2025-01-28 16:45:06.037253	46.0	33.5	-90.8	18.0
2025-01-28 16:45:07.194037	45.6	33.6	-90.4	17.4
2025-01-28 16:45:08.345115	45.2	33.6	-90.5	15.5
2025-01-28 16:45:09.494874	44.8	33.7	-90.6	14.3
2025-01-28 16:45:10.640276	44.4	33.7	-90.5	16.0
2025-01-28 16:45:11.799319	43.9	33.8	-90.2	14.1
2025-01-28 16:45:12.945632	43.5	33.8	-90.3	12.3
2025-01-28 16:45:14.090424	43.1	33.9	-89.8	16.4
2025-01-28 16:45:15.232448	42.7	33.9	-90.0	17.0
2025-01-28 16:45:16.361830	42.2	33.9	-90.3	10.7
2025-01-28 16:45:17.501038	41.8	34.0	-90.8	9.7
2025-01-28 16:45:18.643327	41.4	34.0	-91.2	16.9
2025-01-28 16:45:19.782754	41.0	34.1	-90.2	14.5
2025-01-28 16:45:20.931098	40.5	34.1	-90.6	7.5
2025-01-28 16:45:22.081642	40.1	34.1	-90.8	7.9
2025-01-28 16:45:23.222647	39.7	34.2	-90.3	13.8
2025-01-28 16:45:24.368143	39.2	34.2	-90.6	8.1
2025-01-28 16:45:25.517981	38.8	34.2	-91.0	9.2
2025-01-28 16:45:26.667300	38.3	34.3	-90.5	18.2
2025-01-28 16:45:27.816699	37.9	34.3	-90.9	12.6
2025-01-28 16:45:28.964866	37.5	34.3	-91.3	10.8
2025-01-28 16:45:30.114618	37.0	34.3	-90.5	13.1
2025-01-28 16:45:31.265848	36.6	34.3	-90.5	15.3
2025-01-28 16:45:32.417941	36.2	34.4	-90.5	13.8
2025-01-28 16:45:33.567983	35.7	34.4	-90.7	9.9
2025-01-28 16:45:34.725945	35.3	34.4	-90.8	13.7
2025-01-28 16:45:35.879934	34.8	34.4	-90.8	15.7
2025-01-28 16:45:37.028334	34.4	34.4	-90.6	17.0
2025-01-28 16:45:38.182405	33.9	34.4	-90.5	17.2
2025-01-28 16:45:39.335391	33.5	34.4	-90.6	14.1
2025-01-28 16:45:40.488768	33.1	34.4	-91.1	14.7
2025-01-28 16:45:41.638103	32.6	34.4	-90.9	17.2
2025-01-28 16:45:42.790580	32.2	34.4	-91.1	16.8
2025-01-28 16:45:43.946154	31.7	34.4	-90.5	13.6
2025-01-28 16:45:45.099304	31.3	34.4	-90.7	15.7
2025-01-28 16:45:46.248642	30.8	34.4	-90.5	16.2
2025-01-28 16:45:47.399242	30.4	34.4	-90.5	9.4
2025-01-28 16:45:48.553129	30.0	34.4	-89.9	9.4
2025-01-28 16:45:49.707351	29.5	34.4	-90.4	14.3
2025-01-28 16:45:50.852764	29.1	34.4	-90.1	7.6
2025-01-28 16:45:52.004251	28.6	34.4	-90.4	8.5
2025-01-28 16:45:53.158996	28.2	34.3	-90.2	12.6
2025-01-28 16:45:54.296409	27.8	34.3	-90.2	14.0
2025-01-28 16:45:55.419960	27.3	34.3	-90.9	9.3
2025-01-28 16:45:56.539596	26.9	34.3	-90.4	8.2
2025-01-28 16:45:57.660606	26.5	34.3	-90.6	13.1
2025-01-28 16:45:58.780570	26.1	34.2	-90.9	11.0
2025-01-28 16:45:59.900546	25.6	34.2	-90.8	7.1
2025-01-28 16:46:01.021445	25.2	34.2	-90.9	7.0
2025-01-28 16:46:02.142180	24.8	34.1	-90.7	12.7
2025-01-28 16:46:03.262024	24.4	34.1	-90.6	12.5
2025-01-28 16:46:04.383876	23.9	34.1	-90.8	7.0
2025-01-28 16:46:05.515978	23.5	34.0	-90.8	8.9
2025-01-28 16:46:06.664008	23.1	34.0	-90.4	14.5
2025-01-28 16:46:07.816168	22.7	34.0	-90.6	13.8
2025-01-28 16:46:08.967365	22.2	33.9	-90.8	11.1
2025-01-28 16:46:10.118050	21.8	33.9	-90.8	11.3
2025-01-28 16:46:11.259695	21.4	33.8	-90.5	12.2
2025-01-28 16:46:12.404234	20.9	33.8	-90.5	10.0
2025-01-28 16:46:13.556243	20.5	33.7	-90.9	11.9
2025-01-28 16:46:14.711699	20.1	33.7	-89.6	14.5
2025-01-28 16:46:15.863410	19.7	33.6	-88.6	10.3
2025-01-28 16:46:17.007347	19.3	33.6	-89.2	12.7
2025-01-28 16:46:18.152999	18.8	33.5	-90.8	13.0
2025-01-28 16:46:19.318965	18.4	33.4	-90.8	12.8
2025-01-28 16:46:20.474283	18.0	33.4	-90.7	9.3
2025-01-28 16:46:21.613078	17.6	33.3	-91.0	10.0
2025-01-28 16:46:22.761307	17.2	33.3	-91.1	12.2
2025-01-28 16:46:23.914424	16.8	33.2	-90.7	9.9
2025-01-28 16:46:25.067630	16.4	33.1	-90.6	9.5
2025-01-28 16:46:26.221974	16.0	33.1	-90.7	12.5
2025-01-28 16:46:27.374268	15.5	33.0	-90.7	10.2
2025-01-28 16:46:28.526975	15.1	32.9	-90.6	10.6
2025-01-28 16:46:29.680307	14.7	32.8	-91.0	12.7
2025-01-28 16:46:30.829982	14.3	32.8	-91.1	12.3
2025-01-28 16:46:31.979235	13.9	32.7	-90.8	12.6
2025-01-28 16:46:33.122764	13.5	32.6	-90.2	14.0
2025-01-28 16:46:34.276706	13.2	32.5	-90.4	15.4
2025-01-28 16:46:35.424120	12.8	32.5	-90.7	11.9
2025-01-28 16:46:36.582216	12.4	32.4	-90.8	13.3
2025-01-28 16:46:37.740105	12.0	32.3	-90.8	13.1
2025-01-28 16:46:38.883388	11.6	32.2	-90.1	11.1
2025-01-28 16:46:40.041931	11.2	32.1	-90.2	13.6
2025-01-28 16:46:41.192389	10.8	32.1	-90.4	15.5
2025-01-28 16:46:42.346579	10.4	32.0	-90.1	12.0
2025-01-28 16:46:43.497012	10.1	31.9	-90.0	10.7
2025-01-28 16:46:44.645402	9.7	31.8	-90.3	14.3
2025-01-28 16:46:45.793647	9.3	31.7	-90.6	15.4
2025-01-28 16:46:46.941250	8.9	31.6	-90.3	11.5
2025-01-28 16:46:48.086761	8.6	31.5	-90.0	11.5
2025-01-28 16:46:49.209879	8.2	31.4	-90.3	14.9
2025-01-28 16:46:50.357165	7.8	31.3	-90.0	10.0
2025-01-28 16:46:51.496254	7.5	31.2	-89.1	6.0
2025-01-28 16:46:52.643617	7.1	31.1	-89.1	9.3
2025-01-28 16:46:53.790819	6.8	31.0	-89.3	10.8
2025-01-28 16:46:54.934245	6.4	30.9	-89.4	9.3
2025-01-28 16:46:56.086096	6.0	30.8	-88.8	7.9
2025-01-28 16:46:57.236400	5.7	30.7	-88.8	10.8
2025-01-28 16:46:58.385888	5.3	30.6	-88.8	6.6
2025-01-28 16:46:59.536151	5.0	30.5	-89.6	7.6
2025-01-28 16:47:00.682730	4.6	30.4	-89.0	10.1
2025-01-28 16:47:01.830786	4.3	30.3	-89.1	7.9
2025-01-28 16:47:02.990483	4.0	30.2	-89.2	5.9
2025-01-28 16:47:04.151624	3.6	30.1	-89.1	9.8
2025-01-28 16:47:05.299333	3.3	30.0	-90.5	8.5
2025-01-28 16:47:06.451211	2.9	29.9	-90.6	6.6
2025-01-28 16:47:07.603914	2.6	29.8	-90.4	7.6
2025-01-28 16:47:08.758214	2.3	29.7	-90.5	8.8
2025-01-28 16:47:09.916971	1.9	29.6	-90.4	6.1
2025-01-28 16:47:11.068014	1.6	29.5	-90.2	5.6
2025-01-28 16:47:12.222900	1.3	29.4	-90.5	10.1
2025-01-28 16:47:13.371263	1.0	29.3	-90.7	9.2
2025-01-28 16:47:14.528634	0.6	29.1	-90.6	4.4
2025-01-28 16:47:15.681127	0.3	29.0	-90.5	8.6
2025-01-28 16:47:16.836580	0.0	28.9	-90.4	7.1
2025-01-28 16:47:17.983422	359.7	28.8	-90.6	6.5
2025-01-28 16:47:19.134274	359.4	28.7	-90.6	10.0
2025-01-28 16:47:20.284425	359.1	28.6	-90.1	12.0
2025-01-28 16:47:21.432868	358.8	28.5	-90.4	11.1
2025-01-28 16:47:22.583908	358.5	28.4	-90.4	12.5
2025-01-28 16:47:23.728900	358.2	28.2	-90.6	10.6
2025-01-28 16:47:24.886796	357.9	28.1	-90.6	8.0
2025-01-28 16:47:26.021458	357.6	28.0	-90.1	10.5
2025-01-28 16:47:27.143212	357.3	27.9	-90.1	8.5
2025-01-28 16:47:28.264469	357.0	27.8	-90.2	10.5
2025-01-28 16:47:29.385924	356.7	27.7	-90.4	7.5
2025-01-28 16:47:30.506232	356.4	27.6	-89.5	6.6
2025-01-28 16:47:31.626171	356.2	27.4	-89.4	8.1
2025-01-28 16:47:32.747205	355.9	27.3	-89.3	9.7
2025-01-28 16:47:33.868590	355.6	27.2	-89.2	6.2
2025-01-28 16:47:34.989609	355.3	27.1	-88.9	8.2
2025-01-28 16:47:36.109705	355.1	27.0	-88.4	7.7
2025-01-28 16:47:37.234562	354.8	26.9	-88.5	11.1
2025-01-28 16:47:38.381129	354.5	26.7	-89.0	9.1
2025-01-28 16:47:39.521839	354.2	26.6	-88.9	8.6
2025-01-28 16:47:40.669819	354.0	26.5	-89.0	11.5
2025-01-28 16:47:41.813354	353.7	26.4	-89.4	10.8
2025-01-28 16:47:42.956121	353.4	26.3	-89.1	9.4
2025-01-28 16:47:44.108711	353.2	26.1	-89.2	15.8
2025-01-28 16:47:45.255777	352.9	26.0	-88.7	10.0
2025-01-28 16:47:46.406050	352.6	25.9	-89.7	8.8
2025-01-28 16:47:47.558681	352.4	25.8	-89.2	9.6
2025-01-28 16:47:48.708912	352.1	25.7	-89.3	11.4
2025-01-28 16:47:49.856670	351.9	25.5	-89.0	10.5
2025-01-28 16:47:51.016700	351.6	25.4	-89.1	15.5
2025-01-28 16:47:52.162873	351.4	25.3	-88.7	9.8
2025-01-28 16:47:53.313657	351.1	25.2	-88.9	9.5
2025-01-28 16:47:54.474863	350.9	25.1	-88.6	10.1
2025-01-28 16:47:55.620475	350.6	24.9	-89.1	10.1
2025-01-28 16:47:56.771004	350.4	24.8	-89.1	8.6
2025-01-28 16:47:57.926690	350.1	24.7	-89.7	11.8
2025-01-28 16:47:59.082094	349.9	24.6	-89.1	15.8
2025-01-28 16:48:00.227273	349.7	24.5	-89.0	11.4
2025-01-28 16:48:01.374604	349.4	24.3	-89.3	9.9
2025-01-28 16:48:02.525454	349.2	24.2	-89.8	8.0
2025-01-28 16:48:03.671033	349.0	24.1	-88.8	10.4
2025-01-28 16:48:04.828722	348.7	24.0	-88.9	10.3
2025-01-28 16:48:05.977500	348.5	23.8	-89.1	6.8
2025-01-28 16:48:07.129471	348.3	23.7	-89.4	13.7
2025-01-28 16:48:08.275649	348.0	23.6	-89.1	12.8
2025-01-28 16:48:09.424507	347.8	23.5	-89.3	8.3
2025-01-28 16:48:10.597244	347.6	23.4	-89.5	9.4
2025-01-28 16:48:11.747088	347.4	23.2	-89.3	7.8
2025-01-28 16:48:12.895356	347.2	23.1	-89.9	6.5
2025-01-28 16:48:14.049608	346.9	23.0	-88.9	7.0
2025-01-28 16:48:15.199708	346.7	22.9	-89.0	9.3
2025-01-28 16:48:16.348943	346.5	22.8	-89.3	5.4
2025-01-28 16:48:17.505832	346.3	22.6	-89.9	7.4
2025-01-28 16:48:18.657874	346.1	22.5	-89.4	9.8
2025-01-28 16:48:19.814037	345.9	22.4	-89.6	9.7
2025-01-28 16:48:20.963213	345.7	22.3	-90.1	9.0
2025-01-28 16:48:22.115360	345.5	22.2	-89.8	9.3
2025-01-28 16:48:23.263581	345.3	22.0	-90.5	12.5
2025-01-28 16:48:24.416871	345.1	21.9	-90.4	9.5
2025-01-28 16:48:25.572776	344.9	21.8	-90.7	11.3
2025-01-28 16:48:26.723260	344.7	21.7	-90.9	13.6
2025-01-28 16:48:27.870984	344.5	21.6	-91.0	8.4
2025-01-28 16:48:29.018030	344.3	21.4	-90.8	4.7
2025-01-28 16:48:30.169819	344.1	21.3	-90.8	9.7
2025-01-28 16:48:31.321114	343.9	21.2	-90.4	10.5
2025-01-28 16:48:32.477380	343.7	21.1	-90.6	5.9
2025-01-28 16:48:33.630541	343.5	21.0	-90.9	9.1
2025-01-28 16:48:34.764941	343.3	20.9	-90.6	13.1
2025-01-28 16:48:35.885030	343.1	20.7	-90.8	8.7
2025-01-28 16:48:37.006778	342.9	20.6	-90.4	8.6
2025-01-28 16:48:38.126165	342.8	20.5	-90.0	7.1
2025-01-28 16:48:39.247370	342.6	20.4	-90.3	6.8
2025-01-28 16:48:40.367929	342.4	20.3	-90.8	6.9
2025-01-28 16:48:41.488990	342.2	20.2	-90.6	5.2
2025-01-28 16:48:42.610741	342.1	20.1	-90.5	4.7
2025-01-28 16:48:43.733140	341.9	20.0	-90.4	5.7
2025-01-28 16:48:44.857807	341.7	19.8	-90.4	5.2
2025-01-28 16:48:45.997962	341.5	19.7	-90.9	5.0
2025-01-28 16:48:47.156931	341.4	19.6	-90.2	6.5
2025-01-28 16:48:48.310511	341.2	19.5	-90.3	5.5
2025-01-28 16:48:49.460855	341.0	19.4	-89.7	6.1
2025-01-28 16:48:50.610770	340.9	19.3	-89.7	6.1
2025-01-28 16:48:51.765327	340.7	19.2	-89.9	6.7
2025-01-28 16:48:52.909982	340.5	19.0	-90.5	4.0
2025-01-28 16:48:54.059179	340.4	18.9	-90.3	5.5
2025-01-28 16:48:55.211761	340.2	18.8	-89.7	6.3
2025-01-28 16:48:56.357799	340.0	18.7	-90.3	5.0
2025-01-28 16:48:57.510270	339.9	18.6	-90.6	5.2
2025-01-28 16:48:58.662257	339.7	18.5	-90.7	5.7
2025-01-28 16:48:59.809022	339.5	18.4	-90.3	5.2
2025-01-28 16:49:00.950087	339.4	18.3	-90.4	7.3
2025-01-28 16:49:02.101803	339.2	18.1	-90.6	6.3
2025-01-28 16:49:03.254071	339.1	18.0	-90.2	7.4
2025-01-28 16:49:04.406304	338.9	17.9	-90.4	7.0
2025-01-28 16:49:05.552247	338.8	17.8	-90.5	6.5
2025-01-28 16:49:06.704513	338.6	17.7	-90.7	6.6
2025-01-28 16:49:07.854751	338.5	17.6	-90.3	5.4
2025-01-28 16:49:09.010048	338.3	17.5	-90.3	4.9
2025-01-28 16:49:10.162253	338.2	17.4	-90.1	6.0
2025-01-28 16:49:11.317669	338.0	17.3	-90.2	5.8
2025-01-28 16:49:12.460854	337.9	17.1	-90.1	5.2
2025-01-28 16:49:13.614558	337.7	17.0	-90.1	5.2
2025-01-28 16:49:14.764272	337.6	16.9	-90.2	4.9
2025-01-28 16:49:15.921161	337.4	16.8	-90.4	6.6
2025-01-28 16:49:17.068813	337.3	16.7	-90.6	4.3
2025-01-28 16:49:18.217270	337.1	16.6	-90.0	6.8
2025-01-28 16:49:19.370142	337.0	16.5	-90.1	5.3
2025-01-28 16:49:20.515664	336.9	16.4	-90.0	6.8
2025-01-28 16:49:21.663198	336.7	16.3	-90.2	5.5
2025-01-28 16:49:22.817259	336.6	16.2	-90.3	6.5
2025-01-28 16:49:23.961410	336.4	16.1	-90.2	5.0
2025-01-28 16:49:25.117764	336.3	16.0	-89.9	4.9
2025-01-28 16:49:26.269111	336.2	15.9	-90.1	5.0
2025-01-28 16:49:27.420137	336.0	15.8	-90.1	6.1
2025-01-28 16:49:28.567676	335.9	15.6	-89.6	4.8
2025-01-28 16:49:29.722704	335.8	15.5	-90.7	6.7
2025-01-28 16:49:30.864474	335.6	15.4	-89.5	6.0
2025-01-28 16:49:31.984985	335.5	15.3	-88.8	6.6
2025-01-28 16:49:33.105460	335.4	15.2	-88.6	6.8
2025-01-28 16:49:34.225954	335.3	15.1	-89.0	4.5
2025-01-28 16:49:35.346548	335.1	15.0	-90.1	7.3
2025-01-28 16:49:36.467222	335.0	14.9	-90.3	4.4
2025-01-28 16:49:37.587822	334.9	14.8	-90.1	7.0
2025-01-28 16:49:38.708379	334.8	14.7	-90.3	7.9
2025-01-28 16:49:39.829041	334.7	14.6	-90.3	5.2
2025-01-28 16:49:41.001567	334.5	14.5	-89.8	6.5
#Closed at: 2025-01-28 16:41:53.152029