passes_logs/2025/01/28/LEX_Murmansk/LEX_Murmansk__20250128_061909_NOAA_19_rec.log

#Pass ID: 20250128_061909_NOAA 19
#Satellite: NOAA 19
#Configuration: NOAA 19
#Start time: 2025-01-28 06:19:04.602509

#LorettStation: 1.0.0 05.05.2024
#Station: LEX_Murmansk
#Location: 33.156738 lon 68.926811 lat
#TLE: 1 33591U 09005A   25027.18125374  .00000353  00000+0  21226-3 0  9998
#TLE: 2 33591  99.0174  91.0366 0013998  24.4913 335.6921 14.13269986823260

#Time	Az	El	Level	SNR
2025-01-28 06:19:16.872892	48.3	15.7	-89.4	0.1
2025-01-28 06:19:18.049537	48.5	15.7	-89.0	1.4
2025-01-28 06:19:19.216810	48.7	15.8	-89.4	2.6
2025-01-28 06:19:20.374375	48.9	15.9	-89.5	3.2
2025-01-28 06:19:21.536788	49.1	15.9	-91.2	1.7
2025-01-28 06:19:22.702606	49.4	16.0	-91.2	1.6
2025-01-28 06:19:23.869850	49.6	16.0	-91.2	0.7
2025-01-28 06:19:25.030642	49.8	16.1	-91.3	2.8
2025-01-28 06:19:26.194854	50.0	16.2	-90.5	1.8
2025-01-28 06:19:27.356492	50.2	16.2	-90.8	1.6
2025-01-28 06:19:28.525034	50.5	16.3	-91.0	2.8
2025-01-28 06:19:29.689308	50.7	16.3	-90.9	3.8
2025-01-28 06:19:30.853367	50.9	16.4	-91.2	1.0
2025-01-28 06:19:32.015430	51.1	16.5	-91.3	8.1
2025-01-28 06:19:33.178902	51.4	16.5	-91.4	6.9
2025-01-28 06:19:34.343818	51.6	16.6	-90.6	7.0
2025-01-28 06:19:35.504346	51.8	16.6	-90.3	4.8
2025-01-28 06:19:36.662270	52.0	16.7	-90.2	3.0
2025-01-28 06:19:37.828762	52.3	16.7	-90.2	3.8
2025-01-28 06:19:38.993212	52.5	16.8	-90.2	4.4
2025-01-28 06:19:40.156935	52.7	16.9	-90.1	5.5
2025-01-28 06:19:41.324946	53.0	16.9	-90.3	6.3
2025-01-28 06:19:42.486797	53.2	17.0	-90.4	5.7
2025-01-28 06:19:43.649739	53.4	17.0	-91.3	6.7
2025-01-28 06:19:44.810294	53.7	17.1	-91.4	9.9
2025-01-28 06:19:45.975710	53.9	17.1	-91.4	7.5
2025-01-28 06:19:47.132838	54.1	17.2	-91.1	8.6
2025-01-28 06:19:48.296598	54.4	17.2	-91.1	5.6
2025-01-28 06:19:49.461102	54.6	17.3	-91.1	5.0
2025-01-28 06:19:50.626194	54.9	17.4	-91.0	6.4
2025-01-28 06:19:51.790341	55.1	17.4	-91.1	4.2
2025-01-28 06:19:52.954588	55.3	17.5	-91.1	5.2
2025-01-28 06:19:54.118745	55.6	17.5	-91.1	0.5
2025-01-28 06:19:55.284990	55.8	17.6	-91.0	2.0
2025-01-28 06:19:56.445294	56.1	17.6	-91.5	3.8
2025-01-28 06:19:57.611808	56.3	17.7	-91.2	2.5
2025-01-28 06:19:58.773398	56.5	17.7	-91.2	5.0
2025-01-28 06:19:59.939766	56.8	17.8	-90.5	8.2
2025-01-28 06:20:01.099507	57.0	17.8	-90.2	10.2
2025-01-28 06:20:02.262435	57.3	17.9	-90.4	9.3
2025-01-28 06:20:03.428917	57.5	17.9	-90.2	12.4
2025-01-28 06:20:04.587582	57.8	18.0	-90.4	9.0
2025-01-28 06:20:05.752999	58.0	18.0	-90.6	7.6
2025-01-28 06:20:06.912188	58.3	18.1	-91.0	10.7
2025-01-28 06:20:08.077659	58.5	18.1	-91.4	8.0
2025-01-28 06:20:09.250699	58.8	18.2	-91.2	5.4
2025-01-28 06:20:10.417793	59.0	18.2	-91.1	7.0
2025-01-28 06:20:11.580370	59.3	18.3	-91.5	7.5
2025-01-28 06:20:12.743342	59.5	18.3	-91.6	6.8
2025-01-28 06:20:13.908063	59.8	18.3	-91.7	8.4
2025-01-28 06:20:15.081628	60.1	18.4	-90.5	9.1
2025-01-28 06:20:16.243214	60.3	18.4	-90.8	11.2
2025-01-28 06:20:17.403752	60.6	18.5	-90.7	8.4
2025-01-28 06:20:18.578523	60.8	18.5	-90.8	9.0
2025-01-28 06:20:19.737182	61.1	18.6	-90.9	13.1
2025-01-28 06:20:20.905611	61.3	18.6	-90.4	11.3
2025-01-28 06:20:22.070132	61.6	18.6	-91.3	6.7
2025-01-28 06:20:23.233806	61.9	18.7	-91.3	2.8
2025-01-28 06:20:24.392093	62.1	18.7	-90.8	6.6
2025-01-28 06:20:25.556845	62.4	18.8	-90.8	5.4
2025-01-28 06:20:26.725429	62.6	18.8	-91.4	3.2
2025-01-28 06:20:27.890358	62.9	18.9	-91.3	3.9
2025-01-28 06:20:29.063549	63.2	18.9	-91.4	4.5
2025-01-28 06:20:30.226511	63.4	18.9	-91.2	4.0
2025-01-28 06:20:31.384328	63.7	19.0	-91.2	3.7
2025-01-28 06:20:32.549913	64.0	19.0	-91.4	4.8
2025-01-28 06:20:33.715127	64.2	19.0	-91.3	5.3
2025-01-28 06:20:34.877974	64.5	19.1	-91.2	10.7
2025-01-28 06:20:36.042092	64.8	19.1	-91.7	9.1
2025-01-28 06:20:37.204358	65.0	19.1	-91.5	11.4
2025-01-28 06:20:38.367487	65.3	19.2	-91.2	15.2
2025-01-28 06:20:39.529339	65.6	19.2	-91.4	12.3
2025-01-28 06:20:40.697938	65.8	19.3	-91.2	14.5
2025-01-28 06:20:41.861862	66.1	19.3	-91.4	11.9
2025-01-28 06:20:43.027272	66.4	19.3	-91.4	9.2
2025-01-28 06:20:44.169102	66.7	19.3	-91.3	8.8
2025-01-28 06:20:45.320063	66.9	19.4	-91.1	12.0
2025-01-28 06:20:46.475965	67.2	19.4	-91.5	5.4
2025-01-28 06:20:47.638675	67.5	19.4	-91.7	8.1
2025-01-28 06:20:48.799282	67.7	19.5	-91.6	14.1
2025-01-28 06:20:49.962109	68.0	19.5	-91.6	8.7
2025-01-28 06:20:51.127502	68.3	19.5	-91.4	5.3
2025-01-28 06:20:52.295228	68.6	19.6	-91.4	12.2
2025-01-28 06:20:53.454943	68.8	19.6	-91.3	9.1
2025-01-28 06:20:54.620868	69.1	19.6	-91.3	12.3
2025-01-28 06:20:55.788813	69.4	19.6	-91.3	8.5
2025-01-28 06:20:56.953179	69.7	19.7	-91.6	11.2
2025-01-28 06:20:58.119251	69.9	19.7	-91.6	13.1
2025-01-28 06:20:59.280409	70.2	19.7	-91.6	11.5
2025-01-28 06:21:00.439123	70.5	19.7	-91.4	11.2
2025-01-28 06:21:01.601150	70.8	19.7	-91.5	11.0
2025-01-28 06:21:02.760168	71.1	19.8	-91.4	10.2
2025-01-28 06:21:03.925539	71.3	19.8	-90.8	9.0
2025-01-28 06:21:05.082065	71.6	19.8	-91.2	4.6
2025-01-28 06:21:06.247634	71.9	19.8	-91.2	12.6
2025-01-28 06:21:07.412344	72.2	19.9	-91.1	7.7
2025-01-28 06:21:08.582089	72.5	19.9	-91.3	4.3
2025-01-28 06:21:09.748999	72.7	19.9	-91.4	14.5
2025-01-28 06:21:10.913515	73.0	19.9	-91.4	4.7
2025-01-28 06:21:12.084688	73.3	19.9	-91.1	4.6
2025-01-28 06:21:13.246855	73.6	19.9	-90.9	13.3
2025-01-28 06:21:14.412501	73.9	20.0	-91.4	9.4
2025-01-28 06:21:15.576062	74.2	20.0	-91.4	5.7
2025-01-28 06:21:16.738982	74.4	20.0	-91.5	10.7
2025-01-28 06:21:17.897306	74.7	20.0	-91.4	9.8
2025-01-28 06:21:19.066026	75.0	20.0	-91.5	6.3
2025-01-28 06:21:20.226233	75.3	20.0	-91.3	9.9
2025-01-28 06:21:21.391640	75.6	20.0	-91.3	9.1
2025-01-28 06:21:22.557317	75.8	20.0	-91.4	10.8
2025-01-28 06:21:23.723159	76.1	20.1	-91.3	8.5
2025-01-28 06:21:24.887468	76.4	20.1	-91.6	6.9
2025-01-28 06:21:26.051099	76.7	20.1	-91.8	10.8
2025-01-28 06:21:27.215900	77.0	20.1	-91.5	12.6
2025-01-28 06:21:28.383765	77.3	20.1	-91.3	10.2
2025-01-28 06:21:29.552937	77.6	20.1	-91.4	11.6
2025-01-28 06:21:30.718496	77.8	20.1	-90.6	9.2
2025-01-28 06:21:31.878455	78.1	20.1	-90.7	9.5
2025-01-28 06:21:33.042678	78.4	20.1	-90.9	9.4
2025-01-28 06:21:34.201851	78.7	20.1	-90.8	11.4
2025-01-28 06:21:35.368523	79.0	20.1	-91.0	12.5
2025-01-28 06:21:36.533051	79.3	20.1	-91.1	7.2
2025-01-28 06:21:37.696795	79.6	20.1	-91.5	10.8
2025-01-28 06:21:38.859142	79.8	20.1	-91.3	11.7
2025-01-28 06:21:40.023253	80.1	20.1	-91.3	8.0
2025-01-28 06:21:41.187639	80.4	20.1	-91.2	10.6
2025-01-28 06:21:42.348957	80.7	20.1	-91.0	10.6
2025-01-28 06:21:43.510213	81.0	20.1	-91.1	6.5
2025-01-28 06:21:44.664750	81.3	20.1	-91.1	7.4
2025-01-28 06:21:45.830672	81.5	20.1	-90.4	8.3
2025-01-28 06:21:46.987568	81.8	20.1	-90.4	5.2
2025-01-28 06:21:48.155376	82.1	20.1	-90.5	8.3
2025-01-28 06:21:49.314318	82.4	20.1	-90.7	11.7
2025-01-28 06:21:50.481522	82.7	20.1	-90.9	7.7
2025-01-28 06:21:51.645690	83.0	20.1	-90.7	9.2
2025-01-28 06:21:52.812588	83.3	20.1	-90.7	11.0
2025-01-28 06:21:53.970877	83.5	20.1	-90.8	5.8
2025-01-28 06:21:55.131074	83.8	20.0	-90.5	9.1
2025-01-28 06:21:56.298739	84.1	20.0	-90.4	11.4
2025-01-28 06:21:57.452044	84.4	20.0	-90.4	8.3
2025-01-28 06:21:58.617709	84.7	20.0	-90.5	8.9
2025-01-28 06:21:59.790321	85.0	20.0	-90.6	11.6
2025-01-28 06:22:00.954361	85.2	20.0	-90.7	9.5
2025-01-28 06:22:02.119699	85.5	20.0	-90.3	8.1
2025-01-28 06:22:03.283165	85.8	20.0	-90.4	11.7
2025-01-28 06:22:04.444928	86.1	19.9	-90.4	10.6
2025-01-28 06:22:05.608396	86.4	19.9	-90.8	12.0
2025-01-28 06:22:06.769495	86.6	19.9	-90.4	8.3
2025-01-28 06:22:07.931374	86.9	19.9	-90.6	8.7
2025-01-28 06:22:09.091822	87.2	19.9	-90.2	6.4
2025-01-28 06:22:10.257556	87.5	19.9	-90.7	9.4
2025-01-28 06:22:11.424007	87.8	19.8	-90.8	11.3
2025-01-28 06:22:12.587622	88.0	19.8	-91.2	11.8
2025-01-28 06:22:13.752406	88.3	19.8	-90.7	11.6
2025-01-28 06:22:14.919049	88.6	19.8	-91.2	10.2
2025-01-28 06:22:16.085483	88.9	19.8	-91.4	7.9
2025-01-28 06:22:17.248980	89.2	19.7	-91.6	11.4
2025-01-28 06:22:18.413415	89.4	19.7	-91.3	9.0
2025-01-28 06:22:19.579263	89.7	19.7	-91.4	7.8
2025-01-28 06:22:20.741464	90.0	19.7	-91.2	6.5
2025-01-28 06:22:21.905644	90.3	19.6	-90.6	7.3
2025-01-28 06:22:23.069399	90.6	19.6	-90.7	6.4
2025-01-28 06:22:24.232214	90.8	19.6	-90.6	6.7
2025-01-28 06:22:25.399396	91.1	19.6	-90.4	4.2
2025-01-28 06:22:26.564135	91.4	19.5	-90.9	6.6
2025-01-28 06:22:27.724881	91.7	19.5	-90.6	5.8
2025-01-28 06:22:28.885360	91.9	19.5	-91.0	5.3
2025-01-28 06:22:30.052343	92.2	19.5	-90.7	4.7
2025-01-28 06:22:31.214497	92.5	19.4	-90.8	6.7
2025-01-28 06:22:32.374624	92.8	19.4	-90.6	5.5
2025-01-28 06:22:33.536502	93.0	19.4	-91.4	5.4
2025-01-28 06:22:34.699414	93.3	19.3	-91.7	6.9
2025-01-28 06:22:35.859539	93.6	19.3	-91.4	7.6
2025-01-28 06:22:37.025295	93.8	19.3	-91.4	5.1
2025-01-28 06:22:38.184503	94.1	19.2	-91.2	6.8
2025-01-28 06:22:39.347457	94.4	19.2	-91.3	6.5
2025-01-28 06:22:40.516135	94.6	19.2	-91.6	7.6
2025-01-28 06:22:41.671771	94.9	19.1	-91.5	9.0
2025-01-28 06:22:42.839964	95.2	19.1	-91.5	9.8
2025-01-28 06:22:43.999323	95.4	19.1	-91.4	5.9
2025-01-28 06:22:45.165260	95.7	19.0	-91.2	5.4
2025-01-28 06:22:46.324981	96.0	19.0	-91.3	6.2
2025-01-28 06:22:47.496280	96.2	19.0	-91.4	7.1
2025-01-28 06:22:48.661256	96.5	18.9	-91.5	6.2
2025-01-28 06:22:49.825411	96.8	18.9	-91.5	5.8
2025-01-28 06:22:50.993067	97.0	18.8	-91.2	6.1
2025-01-28 06:22:52.155352	97.3	18.8	-91.5	2.6
2025-01-28 06:22:53.326916	97.6	18.8	-91.4	3.3
2025-01-28 06:22:54.493411	97.8	18.7	-91.3	3.3
2025-01-28 06:22:55.654066	98.1	18.7	-91.2	3.0
2025-01-28 06:22:56.818340	98.3	18.6	-91.7	3.7
2025-01-28 06:22:57.988408	98.6	18.6	-91.5	2.6
2025-01-28 06:22:59.152048	98.9	18.5	-91.4	4.2
2025-01-28 06:23:00.307866	99.1	18.5	-91.6	4.4
2025-01-28 06:23:01.480656	99.4	18.5	-91.1	4.0
2025-01-28 06:23:02.645477	99.6	18.4	-91.4	4.4
2025-01-28 06:23:03.814554	99.9	18.4	-91.8	4.4
2025-01-28 06:23:04.978179	100.1	18.3	-91.9	2.9
2025-01-28 06:23:06.144048	100.4	18.3	-91.6	3.4
2025-01-28 06:23:07.305481	100.7	18.2	-91.2	4.1
2025-01-28 06:23:08.478578	100.9	18.2	-91.1	3.3
2025-01-28 06:23:09.643475	101.2	18.1	-90.8	4.3
2025-01-28 06:23:10.806436	101.4	18.1	-90.9	3.8
2025-01-28 06:23:11.974768	101.7	18.0	-91.1	2.7
2025-01-28 06:23:13.140632	101.9	18.0	-90.8	1.4
2025-01-28 06:23:14.314695	102.2	17.9	-89.9	2.1
2025-01-28 06:23:15.478446	102.4	17.9	-90.3	1.3
2025-01-28 06:23:16.643414	102.7	17.8	-90.8	3.5
2025-01-28 06:23:17.921365	102.9	17.8	-90.8	2.1
2025-01-28 06:23:19.082208	103.2	17.7	-90.8	2.3
2025-01-28 06:23:20.251596	103.4	17.7	-90.8	3.7
2025-01-28 06:23:21.420750	103.7	17.6	-90.6	5.4
2025-01-28 06:23:22.580309	103.9	17.6	-90.7	4.4
2025-01-28 06:23:23.743528	104.2	17.5	-90.8	7.4
2025-01-28 06:23:24.908519	104.4	17.5	-91.2	9.2
2025-01-28 06:23:26.065803	104.6	17.4	-90.6	7.8
2025-01-28 06:23:27.228341	104.9	17.4	-90.7	5.4
2025-01-28 06:23:28.390701	105.1	17.3	-90.5	4.5
2025-01-28 06:23:29.556587	105.4	17.3	-91.7	6.4
2025-01-28 06:23:30.715123	105.6	17.2	-90.6	7.5
2025-01-28 06:23:31.883373	105.8	17.2	-90.6	9.7
2025-01-28 06:23:33.048431	106.1	17.1	-90.6	8.3
2025-01-28 06:23:34.215595	106.3	17.1	-90.6	11.5
2025-01-28 06:23:35.376381	106.5	17.0	-90.5	9.4
2025-01-28 06:23:36.544324	106.8	16.9	-90.7	4.9
2025-01-28 06:23:37.703363	107.0	16.9	-90.6	9.5
2025-01-28 06:23:38.862679	107.2	16.8	-90.7	9.1
2025-01-28 06:23:40.032535	107.5	16.8	-90.5	5.2
2025-01-28 06:23:41.191564	107.7	16.7	-90.4	9.2
2025-01-28 06:23:42.358459	107.9	16.7	-91.1	7.0
2025-01-28 06:23:43.519744	108.1	16.6	-91.2	5.0
2025-01-28 06:23:44.675238	108.4	16.5	-91.6	7.8
2025-01-28 06:23:45.836065	108.6	16.5	-90.5	7.1
2025-01-28 06:23:47.000565	108.8	16.4	-90.0	2.8
2025-01-28 06:23:48.158763	109.0	16.4	-90.0	4.9
2025-01-28 06:23:49.322041	109.3	16.3	-90.0	7.5
2025-01-28 06:23:50.486473	109.5	16.2	-90.4	3.5
2025-01-28 06:23:51.649628	109.7	16.2	-90.8	5.6
2025-01-28 06:23:52.819424	109.9	16.1	-91.1	9.2
2025-01-28 06:23:53.978096	110.2	16.1	-90.6	4.9
2025-01-28 06:23:55.142695	110.4	16.0	-90.7	6.5
2025-01-28 06:23:56.306788	110.6	15.9	-90.5	7.8
2025-01-28 06:23:57.470498	110.8	15.9	-90.7	6.7
2025-01-28 06:23:58.634790	111.0	15.8	-90.6	6.1
2025-01-28 06:23:59.796417	111.3	15.8	-90.4	8.8
2025-01-28 06:24:00.953898	111.5	15.7	-91.0	6.5
2025-01-28 06:24:02.114394	111.7	15.6	-90.9	6.9
2025-01-28 06:24:03.278765	111.9	15.6	-90.7	11.0
2025-01-28 06:24:04.437788	112.1	15.5	-91.0	7.2
2025-01-28 06:24:05.602387	112.3	15.4	-91.1	8.4
2025-01-28 06:24:06.772124	112.5	15.4	-91.1	11.7
2025-01-28 06:24:07.930696	112.7	15.3	-90.5	10.3
2025-01-28 06:24:09.089818	112.9	15.3	-90.9	11.6
2025-01-28 06:24:10.258146	113.2	15.2	-90.7	9.3
2025-01-28 06:24:11.421921	113.4	15.1	-89.7	3.6
2025-01-28 06:24:12.592080	113.6	15.1	-91.2	7.6
2025-01-28 06:24:13.759120	113.8	15.0	-90.6	7.1
2025-01-28 06:24:14.920244	114.0	14.9	-90.9	7.6
2025-01-28 06:24:16.083877	114.2	14.9	-90.8	7.9
2025-01-28 06:24:17.245306	114.4	14.8	-90.7	5.4
2025-01-28 06:24:18.408324	114.6	14.7	-90.8	5.5
2025-01-28 06:24:19.571722	114.8	14.7	-90.7	5.9
#Closed at: 2025-01-28 06:19:09.660324