passes_logs/2025/01/28/LEX_Murmansk/LEX_Murmansk__20250128_150303_NOAA_18_rec.log

#Pass ID: 20250128_150303_NOAA 18
#Satellite: NOAA 18
#Configuration: NOAA 18
#Start time: 2025-01-28 15:02:58.571378

#LorettStation: 1.0.0 05.05.2024
#Station: LEX_Murmansk
#Location: 33.156738 lon 68.926811 lat
#TLE: 1 28654U 05018A   25028.04589186  .00000422  00000+0  24750-3 0  9995
#TLE: 2 28654  98.8546 108.9697 0014880 143.3316 216.8878 14.13499339 15023

#Time	Az	El	Level	SNR
2025-01-28 15:03:10.796735	49.7	15.9	-91.2	8.8
2025-01-28 15:03:11.964069	49.5	16.0	-90.9	6.7
2025-01-28 15:03:13.127805	49.3	16.1	-90.7	7.0
2025-01-28 15:03:14.287825	49.1	16.1	-90.9	9.7
2025-01-28 15:03:15.460301	48.9	16.2	-90.9	6.1
2025-01-28 15:03:16.628211	48.7	16.3	-91.2	7.2
2025-01-28 15:03:17.787179	48.5	16.4	-91.2	8.7
2025-01-28 15:03:18.951726	48.3	16.5	-90.5	6.9
2025-01-28 15:03:20.112069	48.1	16.6	-90.8	3.6
2025-01-28 15:03:21.283941	47.9	16.7	-90.3	3.6
2025-01-28 15:03:22.444718	47.7	16.7	-90.5	2.8
2025-01-28 15:03:23.604096	47.5	16.8	-90.9	4.6
2025-01-28 15:03:24.768974	47.3	16.9	-90.9	5.8
2025-01-28 15:03:25.926405	47.1	17.0	-90.7	4.0
2025-01-28 15:03:27.087349	46.9	17.1	-90.3	3.6
2025-01-28 15:03:28.248532	46.7	17.2	-90.4	6.6
2025-01-28 15:03:29.416306	46.5	17.2	-90.3	5.1
2025-01-28 15:03:30.574759	46.3	17.3	-91.2	6.8
2025-01-28 15:03:31.733684	46.1	17.4	-91.0	8.3
2025-01-28 15:03:32.901944	45.9	17.5	-91.3	5.5
2025-01-28 15:03:34.061388	45.7	17.6	-90.8	8.0
2025-01-28 15:03:35.223413	45.5	17.7	-90.8	7.9
2025-01-28 15:03:36.383848	45.3	17.7	-90.8	5.5
2025-01-28 15:03:37.539700	45.1	17.8	-91.1	7.2
2025-01-28 15:03:38.702160	44.9	17.9	-91.0	8.7
2025-01-28 15:03:39.866178	44.7	18.0	-90.9	7.3
2025-01-28 15:03:41.023232	44.4	18.1	-90.1	8.1
2025-01-28 15:03:42.190618	44.2	18.2	-89.1	7.9
2025-01-28 15:03:43.354288	44.0	18.2	-89.5	7.3
2025-01-28 15:03:44.520236	43.8	18.3	-89.9	6.1
2025-01-28 15:03:45.682512	43.6	18.4	-90.7	4.0
2025-01-28 15:03:46.841607	43.4	18.5	-90.7	3.7
2025-01-28 15:03:47.999584	43.1	18.6	-90.6	4.0
2025-01-28 15:03:49.157273	42.9	18.6	-90.6	6.6
2025-01-28 15:03:50.319227	42.7	18.7	-90.6	4.6
2025-01-28 15:03:51.482760	42.5	18.8	-90.8	6.7
2025-01-28 15:03:52.647552	42.2	18.9	-90.8	7.4
2025-01-28 15:03:53.808918	42.0	19.0	-90.9	10.1
2025-01-28 15:03:54.974555	41.8	19.0	-90.4	9.8
2025-01-28 15:03:56.139130	41.6	19.1	-90.7	8.0
2025-01-28 15:03:57.302887	41.3	19.2	-90.5	6.6
2025-01-28 15:03:58.465185	41.1	19.3	-90.5	6.9
2025-01-28 15:03:59.628188	40.9	19.4	-90.6	9.1
2025-01-28 15:04:00.772690	40.6	19.4	-90.4	11.0
2025-01-28 15:04:01.937442	40.4	19.5	-90.5	12.1
2025-01-28 15:04:03.093197	40.1	19.6	-90.2	10.1
2025-01-28 15:04:04.257763	39.9	19.7	-89.9	9.4
2025-01-28 15:04:05.421896	39.7	19.8	-90.2	11.0
2025-01-28 15:04:06.593656	39.4	19.8	-91.0	11.1
2025-01-28 15:04:07.760668	39.2	19.9	-91.1	12.9
2025-01-28 15:04:08.925132	38.9	20.0	-90.8	7.9
2025-01-28 15:04:10.088323	38.7	20.1	-90.6	5.2
2025-01-28 15:04:11.253985	38.4	20.1	-90.6	8.5
2025-01-28 15:04:12.417240	38.2	20.2	-90.7	5.8
2025-01-28 15:04:13.581443	38.0	20.3	-91.1	7.8
2025-01-28 15:04:14.744161	37.7	20.4	-91.1	11.2
2025-01-28 15:04:15.906982	37.5	20.4	-91.2	8.8
2025-01-28 15:04:17.072377	37.2	20.5	-91.1	10.7
2025-01-28 15:04:18.236243	36.9	20.6	-90.9	9.6
2025-01-28 15:04:19.401860	36.7	20.7	-90.7	12.3
2025-01-28 15:04:20.568850	36.4	20.7	-91.0	13.3
2025-01-28 15:04:21.736699	36.2	20.8	-90.6	12.8
2025-01-28 15:04:22.898209	35.9	20.9	-90.5	9.6
2025-01-28 15:04:24.065819	35.7	21.0	-89.9	9.5
2025-01-28 15:04:25.230813	35.4	21.0	-90.1	13.2
2025-01-28 15:04:26.394387	35.1	21.1	-90.1	8.1
2025-01-28 15:04:27.553090	34.9	21.2	-90.2	4.8
2025-01-28 15:04:28.713035	34.6	21.2	-90.3	8.9
2025-01-28 15:04:29.877038	34.3	21.3	-91.4	12.3
2025-01-28 15:04:31.037087	34.1	21.4	-91.3	16.1
2025-01-28 15:04:32.200142	33.8	21.5	-91.1	12.9
2025-01-28 15:04:33.361291	33.5	21.5	-90.6	11.2
2025-01-28 15:04:34.522751	33.3	21.6	-90.9	10.6
2025-01-28 15:04:35.685620	33.0	21.7	-91.3	13.5
2025-01-28 15:04:36.845621	32.7	21.7	-91.3	10.4
2025-01-28 15:04:38.000413	32.4	21.8	-91.3	7.1
2025-01-28 15:04:39.165349	32.2	21.9	-90.8	13.2
2025-01-28 15:04:40.327807	31.9	21.9	-90.9	10.5
2025-01-28 15:04:41.492557	31.6	22.0	-91.2	9.2
2025-01-28 15:04:42.654552	31.3	22.1	-90.9	10.7
2025-01-28 15:04:43.820378	31.1	22.1	-90.6	14.0
2025-01-28 15:04:44.984037	30.8	22.2	-89.9	10.8
2025-01-28 15:04:46.149345	30.5	22.2	-89.0	12.8
2025-01-28 15:04:47.304950	30.2	22.3	-89.4	14.1
2025-01-28 15:04:48.464544	29.9	22.4	-89.0	14.4
2025-01-28 15:04:49.627393	29.6	22.4	-90.7	15.3
2025-01-28 15:04:50.790438	29.4	22.5	-90.5	12.1
2025-01-28 15:04:51.949697	29.1	22.6	-91.1	11.7
2025-01-28 15:04:53.105594	28.8	22.6	-90.7	12.5
2025-01-28 15:04:54.273455	28.5	22.7	-90.7	12.6
2025-01-28 15:04:55.437389	28.2	22.7	-91.1	7.7
2025-01-28 15:04:56.605293	27.9	22.8	-90.7	11.3
2025-01-28 15:04:57.765394	27.6	22.8	-90.6	14.3
2025-01-28 15:04:58.934370	27.3	22.9	-90.7	14.5
2025-01-28 15:05:00.085719	27.0	23.0	-90.0	14.1
2025-01-28 15:05:01.241169	26.7	23.0	-90.6	15.6
2025-01-28 15:05:02.409340	26.4	23.1	-90.5	13.0
2025-01-28 15:05:03.570054	26.1	23.1	-90.5	14.8
2025-01-28 15:05:04.733820	25.8	23.2	-90.6	13.8
2025-01-28 15:05:05.897884	25.5	23.2	-90.5	11.3
2025-01-28 15:05:07.060000	25.2	23.3	-90.6	9.2
2025-01-28 15:05:08.212479	24.9	23.3	-90.7	11.8
2025-01-28 15:05:09.376469	24.6	23.4	-90.6	9.3
2025-01-28 15:05:10.539787	24.3	23.4	-91.0	8.4
2025-01-28 15:05:11.718184	24.0	23.5	-90.7	13.8
2025-01-28 15:05:12.882850	23.7	23.5	-90.9	7.7
2025-01-28 15:05:14.046080	23.4	23.6	-90.7	7.3
2025-01-28 15:05:15.200228	23.1	23.6	-90.4	12.0
2025-01-28 15:05:16.344987	22.8	23.6	-91.0	10.6
2025-01-28 15:05:17.465984	22.5	23.7	-91.3	10.9
2025-01-28 15:05:18.613295	22.2	23.7	-90.8	14.7
2025-01-28 15:05:19.776425	21.9	23.8	-91.2	16.4
2025-01-28 15:05:20.936818	21.5	23.8	-91.6	14.3
2025-01-28 15:05:22.100420	21.2	23.8	-91.1	15.8
2025-01-28 15:05:23.262564	20.9	23.9	-91.1	16.4
2025-01-28 15:05:24.425391	20.6	23.9	-91.3	13.2
2025-01-28 15:05:25.584564	20.3	24.0	-91.5	9.6
2025-01-28 15:05:26.741986	20.0	24.0	-91.0	11.8
2025-01-28 15:05:27.900927	19.7	24.0	-91.0	10.4
2025-01-28 15:05:29.057206	19.3	24.1	-91.1	8.9
2025-01-28 15:05:30.218501	19.0	24.1	-90.9	15.2
2025-01-28 15:05:31.377257	18.7	24.1	-91.1	7.5
2025-01-28 15:05:32.541466	18.4	24.2	-91.1	6.8
2025-01-28 15:05:33.704668	18.1	24.2	-89.7	10.4
2025-01-28 15:05:34.868175	17.7	24.2	-90.2	9.6
2025-01-28 15:05:36.033407	17.4	24.3	-90.3	8.8
2025-01-28 15:05:37.195874	17.1	24.3	-89.7	9.2
2025-01-28 15:05:38.353829	16.8	24.3	-89.5	8.6
2025-01-28 15:05:39.519422	16.4	24.3	-90.1	7.5
2025-01-28 15:05:40.682756	16.1	24.4	-90.4	11.2
2025-01-28 15:05:41.844424	15.8	24.4	-90.0	11.1
2025-01-28 15:05:43.010061	15.5	24.4	-89.9	11.5
2025-01-28 15:05:44.178215	15.1	24.4	-89.4	10.2
2025-01-28 15:05:45.340283	14.8	24.5	-89.4	10.6
2025-01-28 15:05:46.502150	14.5	24.5	-90.5	10.5
2025-01-28 15:05:47.661055	14.2	24.5	-90.5	10.7
2025-01-28 15:05:48.825572	13.8	24.5	-90.1	11.6
2025-01-28 15:05:49.982309	13.5	24.5	-90.2	7.9
2025-01-28 15:05:51.149008	13.2	24.5	-89.5	8.2
2025-01-28 15:05:52.312603	12.9	24.6	-90.0	10.9
2025-01-28 15:05:53.470949	12.5	24.6	-90.9	8.6
2025-01-28 15:05:54.637147	12.2	24.6	-91.1	11.0
2025-01-28 15:05:55.803245	11.9	24.6	-91.3	11.0
2025-01-28 15:05:56.972425	11.5	24.6	-91.4	5.4
2025-01-28 15:05:58.129411	11.2	24.6	-90.8	5.6
2025-01-28 15:05:59.289115	10.9	24.6	-90.7	2.7
2025-01-28 15:06:00.454820	10.5	24.6	-91.3	4.1
2025-01-28 15:06:01.622819	10.2	24.6	-91.3	4.8
2025-01-28 15:06:02.780202	9.9	24.6	-91.4	6.0
2025-01-28 15:06:03.942878	9.6	24.7	-91.6	6.7
2025-01-28 15:06:05.102305	9.2	24.7	-91.1	8.4
2025-01-28 15:06:06.267597	8.9	24.7	-90.6	12.4
2025-01-28 15:06:07.429298	8.6	24.7	-90.5	8.0
2025-01-28 15:06:08.588612	8.2	24.7	-90.9	8.1
2025-01-28 15:06:09.756408	7.9	24.7	-90.9	11.5
2025-01-28 15:06:10.914390	7.6	24.7	-91.1	8.5
2025-01-28 15:06:12.076265	7.2	24.7	-91.0	8.6
2025-01-28 15:06:13.220043	6.9	24.7	-91.2	12.3
2025-01-28 15:06:14.340009	6.6	24.6	-90.9	7.2
2025-01-28 15:06:15.460716	6.3	24.6	-91.2	7.2
2025-01-28 15:06:16.583568	6.0	24.6	-90.9	14.5
2025-01-28 15:06:17.704270	5.6	24.6	-91.1	13.1
2025-01-28 15:06:18.825310	5.3	24.6	-91.0	11.1
2025-01-28 15:06:19.945501	5.0	24.6	-90.7	14.3
2025-01-28 15:06:21.065518	4.7	24.6	-90.9	14.0
2025-01-28 15:06:22.185987	4.4	24.6	-90.9	11.1
2025-01-28 15:06:23.312548	4.1	24.6	-91.0	12.4
2025-01-28 15:06:24.446168	3.7	24.6	-91.4	11.3
2025-01-28 15:06:25.610490	3.4	24.5	-91.4	10.9
2025-01-28 15:06:26.763446	3.1	24.5	-90.7	15.2
2025-01-28 15:06:27.920283	2.7	24.5	-91.1	9.2
2025-01-28 15:06:29.072036	2.4	24.5	-91.0	11.6
2025-01-28 15:06:30.198409	2.1	24.5	-90.8	15.0
2025-01-28 15:06:31.352983	1.8	24.5	-90.9	10.0
2025-01-28 15:06:32.510838	1.5	24.4	-91.4	10.2
2025-01-28 15:06:33.666099	1.1	24.4	-91.4	14.1
2025-01-28 15:06:34.822829	0.8	24.4	-91.2	10.3
2025-01-28 15:06:35.978539	0.5	24.4	-91.5	9.5
2025-01-28 15:06:37.136802	0.2	24.3	-91.5	11.2
2025-01-28 15:06:38.289682	359.8	24.3	-90.9	11.1
2025-01-28 15:06:39.455015	359.5	24.3	-91.4	9.1
2025-01-28 15:06:40.615327	359.2	24.3	-91.5	12.4
2025-01-28 15:06:41.776846	358.9	24.2	-91.7	13.2
2025-01-28 15:06:42.940884	358.5	24.2	-91.2	9.8
2025-01-28 15:06:44.092987	358.2	24.2	-91.1	12.8
2025-01-28 15:06:45.258755	357.9	24.2	-90.8	14.4
2025-01-28 15:06:46.422132	357.6	24.1	-91.1	10.3
2025-01-28 15:06:47.583558	357.3	24.1	-91.2	11.1
2025-01-28 15:06:48.741187	357.0	24.1	-91.5	14.7
2025-01-28 15:06:49.896075	356.6	24.0	-91.4	9.7
2025-01-28 15:06:51.034275	356.3	24.0	-91.3	7.2
2025-01-28 15:06:52.167896	356.0	23.9	-91.4	12.2
2025-01-28 15:06:53.323031	355.7	23.9	-90.4	6.7
2025-01-28 15:06:54.472128	355.4	23.9	-89.8	8.0
2025-01-28 15:06:55.626203	355.1	23.8	-89.3	10.5
2025-01-28 15:06:56.777207	354.8	23.8	-89.7	11.1
2025-01-28 15:06:57.937025	354.5	23.7	-91.2	9.2
2025-01-28 15:06:59.086708	354.1	23.7	-90.8	12.7
2025-01-28 15:07:00.245339	353.8	23.7	-90.7	19.3
2025-01-28 15:07:01.399896	353.5	23.6	-91.0	5.8
2025-01-28 15:07:02.559849	353.2	23.6	-91.5	7.6
2025-01-28 15:07:03.723443	352.9	23.5	-91.4	14.9
2025-01-28 15:07:04.880192	352.6	23.5	-91.0	10.7
2025-01-28 15:07:06.041664	352.3	23.4	-91.2	7.0
2025-01-28 15:07:07.202551	352.0	23.4	-91.0	13.7
2025-01-28 15:07:08.358290	351.7	23.3	-91.1	7.7
2025-01-28 15:07:09.520292	351.4	23.3	-91.4	8.6
2025-01-28 15:07:10.677267	351.1	23.2	-91.5	13.7
2025-01-28 15:07:11.839422	350.8	23.2	-89.9	10.4
2025-01-28 15:07:12.997489	350.5	23.1	-91.6	7.8
2025-01-28 15:07:14.167974	350.2	23.1	-91.4	10.3
2025-01-28 15:07:15.328249	349.9	23.0	-90.9	12.5
2025-01-28 15:07:16.493073	349.6	23.0	-90.9	8.1
2025-01-28 15:07:17.658457	349.3	22.9	-91.2	12.9
2025-01-28 15:07:18.824529	349.0	22.9	-91.3	14.1
2025-01-28 15:07:19.982526	348.7	22.8	-91.2	7.8
2025-01-28 15:07:21.147712	348.4	22.8	-91.3	10.2
2025-01-28 15:07:22.320059	348.1	22.7	-91.3	8.5
2025-01-28 15:07:23.481613	347.8	22.6	-91.3	6.3
2025-01-28 15:07:24.633359	347.5	22.6	-91.4	10.2
2025-01-28 15:07:25.792767	347.2	22.5	-91.5	11.3
2025-01-28 15:07:26.953125	347.0	22.5	-91.4	7.1
2025-01-28 15:07:28.112030	346.7	22.4	-91.3	10.8
2025-01-28 15:07:29.269184	346.4	22.3	-91.2	9.5
2025-01-28 15:07:30.395695	346.1	22.3	-91.1	6.5
2025-01-28 15:07:31.517814	345.8	22.2	-91.7	8.6
2025-01-28 15:07:32.637928	345.6	22.2	-91.0	8.7
2025-01-28 15:07:33.758147	345.3	22.1	-91.2	9.8
2025-01-28 15:07:34.879443	345.0	22.0	-91.6	7.6
2025-01-28 15:07:35.999962	344.7	22.0	-91.4	6.2
2025-01-28 15:07:37.120413	344.5	21.9	-91.2	12.3
2025-01-28 15:07:38.242783	344.2	21.8	-91.1	10.2
2025-01-28 15:07:39.367957	343.9	21.8	-91.0	10.1
2025-01-28 15:07:40.503203	343.7	21.7	-91.3	10.1
2025-01-28 15:07:41.659960	343.4	21.6	-90.4	13.4
2025-01-28 15:07:42.823426	343.1	21.6	-90.9	12.5
2025-01-28 15:07:43.990427	342.9	21.5	-90.7	11.5
2025-01-28 15:07:45.137331	342.6	21.4	-90.6	12.9
2025-01-28 15:07:46.302076	342.3	21.4	-91.0	10.0
2025-01-28 15:07:47.465502	342.1	21.3	-90.9	10.1
2025-01-28 15:07:48.629684	341.8	21.2	-91.1	8.8
2025-01-28 15:07:49.793948	341.5	21.2	-91.1	7.9
2025-01-28 15:07:50.955928	341.3	21.1	-91.1	8.8
2025-01-28 15:07:52.116394	341.0	21.0	-90.8	9.3
2025-01-28 15:07:53.278823	340.7	20.9	-90.9	8.7
2025-01-28 15:07:54.438539	340.5	20.9	-91.3	9.7
2025-01-28 15:07:55.599558	340.2	20.8	-91.2	7.8
2025-01-28 15:07:56.755529	340.0	20.7	-90.8	8.8
2025-01-28 15:07:57.913647	339.7	20.7	-90.1	8.0
2025-01-28 15:07:59.076438	339.5	20.6	-89.7	9.2
2025-01-28 15:08:00.235275	339.2	20.5	-89.5	9.1
2025-01-28 15:08:01.391265	338.9	20.4	-89.4	6.7
2025-01-28 15:08:02.551270	338.7	20.4	-91.2	6.9
2025-01-28 15:08:03.711587	338.4	20.3	-91.4	5.4
2025-01-28 15:08:04.870545	338.2	20.2	-91.1	8.0
2025-01-28 15:08:06.006165	338.0	20.1	-91.3	6.2
2025-01-28 15:08:07.146362	337.7	20.1	-90.5	7.1
2025-01-28 15:08:08.295139	337.5	20.0	-91.1	4.5
2025-01-28 15:08:09.441994	337.2	19.9	-90.8	5.0
2025-01-28 15:08:10.598591	337.0	19.8	-91.1	5.9
2025-01-28 15:08:11.749987	336.7	19.7	-90.7	5.7
2025-01-28 15:08:12.913245	336.5	19.7	-90.5	5.6
2025-01-28 15:08:14.076069	336.3	19.6	-90.7	4.1
2025-01-28 15:08:15.236049	336.0	19.5	-90.6	5.6
2025-01-28 15:08:16.400134	335.8	19.4	-90.7	3.7
2025-01-28 15:08:17.563396	335.6	19.4	-90.9	4.2
2025-01-28 15:08:18.730207	335.3	19.3	-91.5	4.1
2025-01-28 15:08:19.892683	335.1	19.2	-91.5	4.8
2025-01-28 15:08:21.052691	334.9	19.1	-91.2	6.3
2025-01-28 15:08:22.213372	334.6	19.0	-91.0	5.6
2025-01-28 15:08:23.377949	334.4	19.0	-91.2	4.0
2025-01-28 15:08:24.546201	334.2	18.9	-91.5	2.8
2025-01-28 15:08:25.709956	333.9	18.8	-91.8	8.9
2025-01-28 15:08:26.874050	333.7	18.7	-91.5	7.9
2025-01-28 15:08:28.034758	333.5	18.6	-90.9	7.1
2025-01-28 15:08:29.190098	333.3	18.5	-90.9	6.7
2025-01-28 15:08:30.352075	333.0	18.5	-91.3	6.0
2025-01-28 15:08:31.511266	332.8	18.4	-91.4	6.4
2025-01-28 15:08:32.676261	332.6	18.3	-91.4	6.6
2025-01-28 15:08:33.840286	332.4	18.2	-90.6	4.4
2025-01-28 15:08:35.005133	332.2	18.1	-90.5	4.2
2025-01-28 15:08:36.168470	332.0	18.1	-90.5	2.6
2025-01-28 15:08:37.333111	331.7	18.0	-90.4	4.1
2025-01-28 15:08:38.499793	331.5	17.9	-90.4	4.1
2025-01-28 15:08:39.663498	331.3	17.8	-90.6	5.3
2025-01-28 15:08:40.826892	331.1	17.7	-91.5	5.3
2025-01-28 15:08:41.994983	330.9	17.6	-91.5	3.3
2025-01-28 15:08:43.154742	330.7	17.5	-91.1	2.3
2025-01-28 15:08:44.318717	330.5	17.5	-91.1	4.6
2025-01-28 15:08:45.482023	330.3	17.4	-91.1	5.2
2025-01-28 15:08:46.644570	330.1	17.3	-90.7	7.3
2025-01-28 15:08:47.813211	329.9	17.2	-91.3	5.2
2025-01-28 15:08:48.965749	329.7	17.1	-91.1	4.2
2025-01-28 15:08:50.120402	329.4	17.0	-90.8	6.2
2025-01-28 15:08:51.280229	329.2	17.0	-90.9	4.6
2025-01-28 15:08:52.442761	329.0	16.9	-90.7	4.7
2025-01-28 15:08:53.600975	328.9	16.8	-90.7	7.0
2025-01-28 15:08:54.766968	328.7	16.7	-90.8	7.3
2025-01-28 15:08:55.931106	328.5	16.6	-91.1	9.4
2025-01-28 15:08:57.095883	328.3	16.5	-90.9	6.9
2025-01-28 15:08:58.253834	328.1	16.5	-91.2	7.2
2025-01-28 15:08:59.417628	327.9	16.4	-90.8	5.8
2025-01-28 15:09:00.570697	327.7	16.3	-91.2	7.1
2025-01-28 15:09:01.724230	327.5	16.2	-91.2	8.8
2025-01-28 15:09:02.883813	327.3	16.1	-91.5	9.7
2025-01-28 15:09:04.051905	327.1	16.0	-91.5	6.6
2025-01-28 15:09:05.213242	326.9	15.9	-91.2	9.7
2025-01-28 15:09:06.379824	326.7	15.9	-91.0	7.5
2025-01-28 15:09:07.543425	326.6	15.8	-91.1	7.1
2025-01-28 15:09:08.700711	326.4	15.7	-90.9	8.8
2025-01-28 15:09:09.865718	326.2	15.6	-91.1	4.9
2025-01-28 15:09:11.022931	326.0	15.5	-91.4	4.3
2025-01-28 15:09:12.183122	325.8	15.4	-91.2	7.1
2025-01-28 15:09:13.344693	325.6	15.4	-91.2	6.6
2025-01-28 15:09:14.508493	325.5	15.3	-91.4	8.3
2025-01-28 15:09:15.664960	325.3	15.2	-91.4	5.8
2025-01-28 15:09:16.825047	325.1	15.1	-91.5	6.3
2025-01-28 15:09:17.985536	324.9	15.0	-91.7	4.3
2025-01-28 15:09:19.162133	324.8	14.9	-91.5	5.2
2025-01-28 15:09:20.326265	324.6	14.8	-91.3	6.5
2025-01-28 15:09:21.488979	324.4	14.8	-91.9	4.1
2025-01-28 15:09:22.653778	324.2	14.7	-91.4	5.7
#Closed at: 2025-01-28 15:03:03.613437