passes_logs/2025/01/28/LEX_Murmansk/LEX_Murmansk__20250128_132328_NOAA_18_rec.log

#Pass ID: 20250128_132328_NOAA 18
#Satellite: NOAA 18
#Configuration: NOAA 18
#Start time: 2025-01-28 13:23:23.770465

#LorettStation: 1.0.0 05.05.2024
#Station: LEX_Murmansk
#Location: 33.156738 lon 68.926811 lat
#TLE: 1 28654U 05018A   25028.04589186  .00000422  00000+0  24750-3 0  9995
#TLE: 2 28654  98.8546 108.9697 0014880 143.3316 216.8878 14.13499339 15023

#Time	Az	El	Level	SNR
2025-01-28 13:23:37.985709	28.1	16.1	-90.1	2.5
2025-01-28 13:23:39.146652	27.9	16.2	-90.0	3.3
2025-01-28 13:23:40.305911	27.7	16.3	-90.1	2.9
2025-01-28 13:23:41.466036	27.6	16.4	-90.0	5.5
2025-01-28 13:23:42.626957	27.4	16.5	-90.0	5.4
2025-01-28 13:23:43.789907	27.2	16.5	-90.1	6.3
2025-01-28 13:23:44.953622	27.0	16.6	-89.8	4.2
2025-01-28 13:23:46.112648	26.8	16.7	-89.6	9.0
2025-01-28 13:23:47.273701	26.6	16.8	-89.9	9.5
2025-01-28 13:23:48.431612	26.4	16.9	-90.1	7.1
2025-01-28 13:23:49.589704	26.3	17.0	-90.2	5.7
2025-01-28 13:23:50.762084	26.1	17.1	-89.9	4.9
2025-01-28 13:23:51.918516	25.9	17.2	-89.9	5.0
2025-01-28 13:23:53.078117	25.7	17.3	-89.9	5.5
2025-01-28 13:23:54.245815	25.5	17.4	-90.3	4.6
2025-01-28 13:23:55.407722	25.3	17.4	-90.3	5.0
2025-01-28 13:23:56.568838	25.1	17.5	-90.4	4.8
2025-01-28 13:23:57.733164	24.9	17.6	-90.2	6.2
2025-01-28 13:23:58.899370	24.7	17.7	-90.1	5.0
2025-01-28 13:24:00.064195	24.5	17.8	-90.0	5.3
2025-01-28 13:24:01.216439	24.3	17.9	-89.6	9.5
2025-01-28 13:24:02.383961	24.1	18.0	-89.8	10.8
2025-01-28 13:24:03.542608	23.9	18.1	-88.7	7.7
2025-01-28 13:24:04.702766	23.7	18.2	-88.7	7.8
2025-01-28 13:24:05.859531	23.5	18.3	-88.9	10.6
2025-01-28 13:24:07.021843	23.3	18.3	-88.8	7.5
2025-01-28 13:24:08.182243	23.1	18.4	-89.6	12.4
2025-01-28 13:24:09.360647	22.9	18.5	-90.2	10.1
2025-01-28 13:24:10.526239	22.7	18.6	-90.4	11.6
2025-01-28 13:24:11.692322	22.4	18.7	-90.5	9.5
2025-01-28 13:24:12.851773	22.2	18.8	-90.3	8.4
2025-01-28 13:24:14.016234	22.0	18.9	-90.4	8.3
2025-01-28 13:24:15.180238	21.8	19.0	-90.2	6.8
2025-01-28 13:24:16.345023	21.6	19.1	-90.4	4.9
2025-01-28 13:24:17.506692	21.4	19.2	-90.5	6.5
2025-01-28 13:24:18.666354	21.1	19.2	-90.4	8.2
2025-01-28 13:24:19.829402	20.9	19.3	-90.7	6.7
2025-01-28 13:24:20.997489	20.7	19.4	-90.8	8.4
2025-01-28 13:24:22.154299	20.5	19.5	-90.5	7.9
2025-01-28 13:24:23.313727	20.3	19.6	-90.3	11.2
2025-01-28 13:24:24.474703	20.0	19.7	-90.3	10.7
2025-01-28 13:24:25.638245	19.8	19.8	-90.9	8.0
2025-01-28 13:24:26.804703	19.6	19.9	-90.7	8.3
2025-01-28 13:24:27.968734	19.3	20.0	-90.6	7.0
2025-01-28 13:24:29.134003	19.1	20.0	-90.8	6.6
2025-01-28 13:24:30.292398	18.9	20.1	-90.1	6.4
2025-01-28 13:24:31.451157	18.6	20.2	-90.4	5.3
2025-01-28 13:24:32.618464	18.4	20.3	-90.5	9.5
2025-01-28 13:24:33.787082	18.2	20.4	-90.4	7.9
2025-01-28 13:24:34.945175	17.9	20.5	-90.4	11.7
2025-01-28 13:24:36.115104	17.7	20.6	-90.2	9.3
2025-01-28 13:24:37.279962	17.5	20.6	-90.1	8.2
2025-01-28 13:24:38.447798	17.2	20.7	-90.4	6.5
2025-01-28 13:24:39.610886	17.0	20.8	-89.9	9.0
2025-01-28 13:24:40.778942	16.7	20.9	-89.7	7.6
2025-01-28 13:24:41.940029	16.5	21.0	-89.9	4.6
2025-01-28 13:24:43.101124	16.2	21.1	-90.1	8.3
2025-01-28 13:24:44.267453	16.0	21.2	-89.9	7.9
2025-01-28 13:24:45.431940	15.7	21.2	-89.7	6.1
2025-01-28 13:24:46.590148	15.5	21.3	-89.3	7.3
2025-01-28 13:24:47.751914	15.2	21.4	-89.4	8.0
2025-01-28 13:24:48.906974	15.0	21.5	-90.0	10.0
2025-01-28 13:24:50.073902	14.7	21.6	-90.1	8.0
2025-01-28 13:24:51.229717	14.5	21.7	-89.6	9.2
2025-01-28 13:24:52.380558	14.2	21.7	-89.5	8.6
2025-01-28 13:24:53.529235	13.9	21.8	-89.9	8.6
2025-01-28 13:24:54.695941	13.7	21.9	-89.8	11.4
2025-01-28 13:24:55.839889	13.4	22.0	-90.0	8.9
2025-01-28 13:24:56.982329	13.2	22.1	-89.3	9.1
2025-01-28 13:24:58.149769	12.9	22.1	-90.2	12.6
2025-01-28 13:24:59.313083	12.6	22.2	-90.3	14.7
2025-01-28 13:25:00.469017	12.4	22.3	-90.1	14.1
2025-01-28 13:25:01.627524	12.1	22.4	-90.6	14.2
2025-01-28 13:25:02.790655	11.8	22.5	-90.9	13.4
2025-01-28 13:25:03.951231	11.6	22.5	-90.6	9.8
2025-01-28 13:25:05.111707	11.3	22.6	-90.0	10.9
2025-01-28 13:25:06.279178	11.0	22.7	-90.2	11.6
2025-01-28 13:25:07.441272	10.7	22.8	-90.3	7.3
2025-01-28 13:25:08.602510	10.5	22.8	-90.2	13.7
2025-01-28 13:25:09.767156	10.2	22.9	-90.1	13.7
2025-01-28 13:25:10.924507	9.9	23.0	-89.6	8.2
2025-01-28 13:25:12.087421	9.6	23.1	-89.5	9.2
2025-01-28 13:25:13.247979	9.3	23.1	-90.5	14.7
2025-01-28 13:25:14.412013	9.0	23.2	-90.8	11.1
2025-01-28 13:25:15.580297	8.8	23.3	-90.6	14.1
2025-01-28 13:25:16.740042	8.5	23.4	-90.9	15.9
2025-01-28 13:25:17.903703	8.2	23.4	-91.0	14.8
2025-01-28 13:25:19.066247	7.9	23.5	-90.7	13.7
2025-01-28 13:25:20.221876	7.6	23.6	-90.5	16.9
2025-01-28 13:25:21.389202	7.3	23.6	-90.6	7.2
2025-01-28 13:25:22.547982	7.0	23.7	-91.1	10.6
2025-01-28 13:25:23.703675	6.7	23.8	-90.9	16.1
2025-01-28 13:25:24.865731	6.4	23.8	-90.8	9.8
2025-01-28 13:25:26.041353	6.1	23.9	-90.5	12.3
2025-01-28 13:25:27.199990	5.8	24.0	-90.3	13.6
2025-01-28 13:25:28.361630	5.5	24.0	-90.6	13.6
2025-01-28 13:25:29.520555	5.2	24.1	-90.4	12.7
2025-01-28 13:25:30.676580	4.9	24.2	-90.5	15.5
2025-01-28 13:25:31.835381	4.6	24.2	-90.4	15.0
2025-01-28 13:25:32.995518	4.3	24.3	-90.3	11.1
2025-01-28 13:25:34.155395	4.0	24.4	-90.1	9.2
2025-01-28 13:25:35.318692	3.7	24.4	-90.0	10.9
2025-01-28 13:25:36.487892	3.4	24.5	-90.5	9.8
2025-01-28 13:25:37.641313	3.1	24.5	-90.3	11.2
2025-01-28 13:25:38.804001	2.8	24.6	-90.6	12.5
2025-01-28 13:25:39.967427	2.5	24.7	-90.7	6.7
2025-01-28 13:25:41.128578	2.1	24.7	-90.4	11.1
2025-01-28 13:25:42.293317	1.8	24.8	-88.8	9.7
2025-01-28 13:25:43.453602	1.5	24.8	-90.6	11.4
2025-01-28 13:25:44.620578	1.2	24.9	-90.8	13.5
2025-01-28 13:25:45.780756	0.9	24.9	-90.8	13.3
2025-01-28 13:25:46.940076	0.6	25.0	-90.9	12.3
2025-01-28 13:25:48.102508	0.2	25.0	-90.5	11.3
2025-01-28 13:25:49.261644	359.9	25.1	-90.5	12.7
2025-01-28 13:25:50.425418	359.6	25.1	-90.5	12.8
2025-01-28 13:25:51.589877	359.3	25.2	-90.5	12.6
2025-01-28 13:25:52.749348	358.9	25.2	-90.1	13.3
2025-01-28 13:25:53.907659	358.6	25.3	-89.8	8.0
2025-01-28 13:25:55.074901	358.3	25.3	-90.3	10.0
2025-01-28 13:25:56.235841	358.0	25.4	-90.2	11.5
2025-01-28 13:25:57.400476	357.6	25.4	-90.5	9.4
2025-01-28 13:25:58.571708	357.3	25.5	-90.7	9.7
2025-01-28 13:25:59.735015	357.0	25.5	-90.6	16.5
2025-01-28 13:26:00.887254	356.6	25.6	-90.4	10.9
2025-01-28 13:26:02.041253	356.3	25.6	-90.8	10.7
2025-01-28 13:26:03.203412	356.0	25.6	-90.4	16.8
2025-01-28 13:26:04.362614	355.6	25.7	-90.1	12.7
2025-01-28 13:26:05.523276	355.3	25.7	-90.1	10.9
2025-01-28 13:26:06.693926	355.0	25.8	-90.1	13.4
2025-01-28 13:26:07.851412	354.6	25.8	-90.0	13.5
2025-01-28 13:26:09.011912	354.3	25.8	-89.9	12.1
2025-01-28 13:26:10.179358	354.0	25.9	-90.4	12.0
2025-01-28 13:26:11.343631	353.6	25.9	-90.2	14.5
2025-01-28 13:26:12.503629	353.3	25.9	-90.4	10.7
2025-01-28 13:26:13.682240	352.9	26.0	-90.3	15.8
2025-01-28 13:26:14.848698	352.6	26.0	-90.3	9.5
2025-01-28 13:26:16.006814	352.3	26.0	-90.7	8.9
2025-01-28 13:26:17.170819	351.9	26.0	-90.4	10.9
2025-01-28 13:26:18.335021	351.6	26.1	-90.4	8.5
2025-01-28 13:26:19.494561	351.2	26.1	-89.4	6.6
2025-01-28 13:26:20.654424	350.9	26.1	-88.7	9.5
2025-01-28 13:26:21.818397	350.5	26.1	-88.3	10.6
2025-01-28 13:26:22.978493	350.2	26.2	-90.6	6.6
2025-01-28 13:26:24.137884	349.9	26.2	-90.5	11.1
2025-01-28 13:26:25.295673	349.5	26.2	-90.4	14.3
2025-01-28 13:26:26.456921	349.2	26.2	-90.6	10.2
2025-01-28 13:26:27.620853	348.8	26.2	-90.6	11.2
2025-01-28 13:26:28.783599	348.5	26.3	-90.7	11.3
2025-01-28 13:26:29.945572	348.1	26.3	-90.8	9.2
2025-01-28 13:26:31.109908	347.8	26.3	-89.7	11.0
2025-01-28 13:26:32.273754	347.4	26.3	-90.1	11.4
2025-01-28 13:26:33.439465	347.1	26.3	-89.4	8.9
2025-01-28 13:26:34.608208	346.7	26.3	-90.6	10.8
2025-01-28 13:26:35.774031	346.4	26.3	-90.9	11.8
2025-01-28 13:26:36.940044	346.0	26.3	-91.0	12.0
2025-01-28 13:26:38.104464	345.7	26.3	-90.7	11.4
2025-01-28 13:26:39.269678	345.3	26.3	-90.9	13.1
2025-01-28 13:26:40.435295	345.0	26.4	-90.9	10.2
2025-01-28 13:26:41.591988	344.6	26.4	-90.9	12.5
2025-01-28 13:26:42.757450	344.3	26.4	-90.8	11.0
2025-01-28 13:26:43.906686	343.9	26.4	-90.1	8.7
2025-01-28 13:26:45.073650	343.6	26.4	-90.3	8.2
2025-01-28 13:26:46.231395	343.2	26.4	-89.5	9.8
2025-01-28 13:26:47.395746	342.9	26.4	-90.3	8.4
2025-01-28 13:26:48.555502	342.5	26.4	-90.4	5.2
2025-01-28 13:26:49.719290	342.2	26.3	-90.5	14.8
2025-01-28 13:26:50.883455	341.8	26.3	-90.1	8.0
2025-01-28 13:26:52.042609	341.5	26.3	-90.3	6.9
2025-01-28 13:26:53.205059	341.1	26.3	-88.3	10.0
2025-01-28 13:26:54.358868	340.8	26.3	-87.0	8.2
2025-01-28 13:26:55.522927	340.4	26.3	-89.4	5.9
2025-01-28 13:26:56.683669	340.1	26.3	-90.6	15.7
2025-01-28 13:26:57.856215	339.7	26.3	-90.7	11.1
2025-01-28 13:26:59.007887	339.4	26.3	-90.6	8.0
2025-01-28 13:27:00.167794	339.1	26.3	-90.1	15.9
2025-01-28 13:27:01.324936	338.7	26.2	-90.2	14.2
2025-01-28 13:27:02.487561	338.4	26.2	-90.6	9.3
2025-01-28 13:27:03.647649	338.0	26.2	-90.6	13.7
2025-01-28 13:27:04.810051	337.7	26.2	-90.4	9.7
2025-01-28 13:27:05.970856	337.3	26.2	-90.5	9.0
2025-01-28 13:27:07.136276	337.0	26.1	-90.1	12.7
2025-01-28 13:27:08.271233	336.6	26.1	-90.3	14.7
2025-01-28 13:27:09.436455	336.3	26.1	-90.5	7.2
2025-01-28 13:27:10.596353	336.0	26.1	-90.1	12.7
2025-01-28 13:27:11.760739	335.6	26.0	-90.1	13.1
2025-01-28 13:27:12.920533	335.3	26.0	-90.1	13.9
2025-01-28 13:27:14.079976	334.9	26.0	-90.0	13.9
2025-01-28 13:27:15.244091	334.6	25.9	-84.9	5.9
2025-01-28 13:27:16.402631	334.3	25.9	-86.5	6.2
2025-01-28 13:27:17.567356	333.9	25.9	-90.2	11.1
2025-01-28 13:27:18.725207	333.6	25.9	-90.1	15.5
2025-01-28 13:27:19.884323	333.2	25.8	-90.0	14.9
2025-01-28 13:27:21.047391	332.9	25.8	-89.8	12.4
2025-01-28 13:27:22.210927	332.6	25.7	-90.0	14.6
2025-01-28 13:27:23.371092	332.2	25.7	-89.3	9.7
2025-01-28 13:27:24.531342	331.9	25.7	-89.5	10.4
2025-01-28 13:27:25.691521	331.6	25.6	-89.6	9.3
2025-01-28 13:27:26.852594	331.2	25.6	-89.3	13.6
2025-01-28 13:27:28.013940	330.9	25.5	-90.2	13.4
2025-01-28 13:27:29.172764	330.6	25.5	-90.3	14.2
2025-01-28 13:27:30.334410	330.2	25.5	-90.4	14.2
2025-01-28 13:27:31.497274	329.9	25.4	-89.7	12.7
2025-01-28 13:27:32.663234	329.6	25.4	-86.2	9.0
2025-01-28 13:27:33.825183	329.2	25.3	-90.2	11.5
2025-01-28 13:27:34.986979	328.9	25.3	-90.1	10.4
2025-01-28 13:27:36.151268	328.6	25.2	-90.1	9.7
2025-01-28 13:27:37.309509	328.3	25.2	-90.0	13.4
2025-01-28 13:27:38.471026	327.9	25.1	-89.9	6.8
2025-01-28 13:27:39.633313	327.6	25.1	-90.0	13.4
2025-01-28 13:27:40.794115	327.3	25.0	-90.1	10.7
2025-01-28 13:27:41.955244	327.0	25.0	-90.2	12.8
2025-01-28 13:27:43.119197	326.7	24.9	-90.2	7.4
2025-01-28 13:27:44.272327	326.3	24.9	-90.3	7.6
2025-01-28 13:27:45.424540	326.0	24.8	-86.6	5.2
2025-01-28 13:27:46.600257	325.7	24.8	-87.2	9.9
2025-01-28 13:27:47.760947	325.4	24.7	-90.3	15.5
2025-01-28 13:27:48.935923	325.1	24.6	-90.4	15.0
2025-01-28 13:27:50.105465	324.8	24.6	-90.3	14.3
2025-01-28 13:27:51.267706	324.4	24.5	-90.3	12.4
2025-01-28 13:27:52.433991	324.1	24.5	-90.1	17.9
2025-01-28 13:27:53.594385	323.8	24.4	-90.0	14.3
2025-01-28 13:27:54.766342	323.5	24.3	-90.3	14.2
2025-01-28 13:27:55.931200	323.2	24.3	-90.6	12.6
2025-01-28 13:27:57.089297	322.9	24.2	-90.2	13.3
2025-01-28 13:27:58.255033	322.6	24.1	-90.1	11.0
2025-01-28 13:27:59.415728	322.3	24.1	-90.5	11.5
2025-01-28 13:28:00.564883	322.0	24.0	-90.5	11.2
2025-01-28 13:28:01.728783	321.7	24.0	-90.3	14.1
2025-01-28 13:28:02.896312	321.4	23.9	-90.4	13.2
2025-01-28 13:28:04.060672	321.1	23.8	-90.1	13.8
2025-01-28 13:28:05.226435	320.8	23.7	-90.3	14.8
2025-01-28 13:28:06.390286	320.5	23.7	-87.7	8.1
2025-01-28 13:28:07.548208	320.2	23.6	-85.9	3.3
2025-01-28 13:28:08.708368	319.9	23.5	-90.7	5.3
2025-01-28 13:28:09.872066	319.6	23.5	-90.5	5.4
2025-01-28 13:28:11.033344	319.3	23.4	-90.3	6.0
2025-01-28 13:28:12.192475	319.0	23.3	-90.1	8.4
2025-01-28 13:28:13.357617	318.7	23.3	-89.9	6.6
2025-01-28 13:28:14.517218	318.5	23.2	-90.1	6.2
2025-01-28 13:28:15.685627	318.2	23.1	-90.0	12.3
2025-01-28 13:28:16.849948	317.9	23.0	-90.5	8.3
2025-01-28 13:28:18.014452	317.6	23.0	-90.7	6.3
2025-01-28 13:28:19.176945	317.3	22.9	-90.6	7.4
2025-01-28 13:28:20.338543	317.0	22.8	-90.3	5.5
2025-01-28 13:28:21.500630	316.8	22.7	-90.5	6.2
2025-01-28 13:28:22.663167	316.5	22.7	-90.4	8.3
2025-01-28 13:28:23.821076	316.2	22.6	-90.4	6.8
2025-01-28 13:28:24.981328	315.9	22.5	-90.4	5.0
2025-01-28 13:28:26.144675	315.7	22.4	-90.3	6.5
2025-01-28 13:28:27.297748	315.4	22.3	-87.4	7.2
2025-01-28 13:28:28.467994	315.1	22.3	-89.5	4.6
2025-01-28 13:28:29.630278	314.9	22.2	-89.5	13.0
2025-01-28 13:28:30.803363	314.6	22.1	-89.6	12.6
2025-01-28 13:28:31.966910	314.3	22.0	-90.4	5.9
2025-01-28 13:28:33.129146	314.1	21.9	-90.4	15.1
2025-01-28 13:28:34.288559	313.8	21.9	-90.6	6.9
2025-01-28 13:28:35.452379	313.5	21.8	-90.1	10.2
2025-01-28 13:28:36.620236	313.3	21.7	-90.0	8.7
2025-01-28 13:28:37.782072	313.0	21.6	-90.1	10.1
2025-01-28 13:28:38.945550	312.8	21.5	-90.1	5.4
2025-01-28 13:28:40.108106	312.5	21.4	-90.1	6.3
2025-01-28 13:28:41.274047	312.2	21.4	-90.3	10.9
2025-01-28 13:28:42.436663	312.0	21.3	-90.6	9.2
2025-01-28 13:28:43.600246	311.7	21.2	-90.8	11.1
2025-01-28 13:28:44.763758	311.5	21.1	-90.3	5.0
2025-01-28 13:28:45.926570	311.2	21.0	-90.6	7.9
2025-01-28 13:28:47.089379	311.0	20.9	-90.1	4.1
2025-01-28 13:28:48.251820	310.7	20.9	-90.2	5.7
2025-01-28 13:28:49.414593	310.5	20.8	-90.5	4.8
2025-01-28 13:28:50.581206	310.3	20.7	-90.5	11.2
2025-01-28 13:28:51.740152	310.0	20.6	-90.6	12.1
2025-01-28 13:28:52.910221	309.8	20.5	-90.1	5.0
2025-01-28 13:28:54.064509	309.5	20.4	-90.2	8.2
2025-01-28 13:28:55.230224	309.3	20.3	-90.1	8.8
2025-01-28 13:28:56.394141	309.1	20.2	-91.0	6.3
2025-01-28 13:28:57.561284	308.8	20.2	-91.1	6.4
2025-01-28 13:28:58.722015	308.6	20.1	-91.2	9.1
2025-01-28 13:28:59.884785	308.4	20.0	-90.3	5.2
2025-01-28 13:29:01.041585	308.1	19.9	-90.3	6.1
2025-01-28 13:29:02.205242	307.9	19.8	-90.3	11.1
2025-01-28 13:29:03.371572	307.7	19.7	-90.5	5.7
2025-01-28 13:29:04.523282	307.4	19.6	-90.3	4.8
2025-01-28 13:29:05.688118	307.2	19.5	-90.5	3.9
2025-01-28 13:29:06.843126	307.0	19.5	-90.9	7.4
2025-01-28 13:29:08.008656	306.8	19.4	-91.2	4.5
2025-01-28 13:29:09.168635	306.5	19.3	-90.5	5.8
2025-01-28 13:29:10.335146	306.3	19.2	-90.2	7.6
2025-01-28 13:29:11.499425	306.1	19.1	-90.3	7.4
2025-01-28 13:29:12.661889	305.9	19.0	-90.3	6.1
2025-01-28 13:29:13.826373	305.7	18.9	-90.3	4.1
2025-01-28 13:29:14.984065	305.4	18.8	-90.9	7.5
2025-01-28 13:29:16.148709	305.2	18.7	-90.7	8.4
2025-01-28 13:29:17.314525	305.0	18.6	-90.3	12.9
2025-01-28 13:29:18.477758	304.8	18.6	-90.5	9.5
2025-01-28 13:29:19.641516	304.6	18.5	-90.6	12.4
2025-01-28 13:29:20.805672	304.4	18.4	-91.0	6.9
2025-01-28 13:29:21.969327	304.2	18.3	-91.1	9.7
2025-01-28 13:29:23.137480	304.0	18.2	-89.2	3.5
2025-01-28 13:29:24.294801	303.8	18.1	-90.2	9.7
2025-01-28 13:29:25.461746	303.6	18.0	-90.5	9.4
2025-01-28 13:29:26.628227	303.3	17.9	-90.4	8.9
2025-01-28 13:29:27.788905	303.1	17.8	-90.6	4.6
2025-01-28 13:29:28.956248	302.9	17.7	-90.7	4.9
2025-01-28 13:29:30.119220	302.7	17.7	-90.6	8.9
2025-01-28 13:29:31.284442	302.5	17.6	-90.6	4.8
2025-01-28 13:29:32.444046	302.3	17.5	-89.5	3.2
2025-01-28 13:29:33.606974	302.2	17.4	-89.3	5.8
2025-01-28 13:29:34.759917	302.0	17.3	-89.6	7.2
2025-01-28 13:29:35.920836	301.8	17.2	-90.7	6.1
2025-01-28 13:29:37.077030	301.6	17.1	-90.8	6.6
2025-01-28 13:29:38.236037	301.4	17.0	-90.6	3.7
2025-01-28 13:29:39.404281	301.2	16.9	-90.8	6.8
2025-01-28 13:29:40.579901	301.0	16.8	-90.4	12.6
2025-01-28 13:29:41.745492	300.8	16.7	-90.8	12.8
2025-01-28 13:29:42.907790	300.6	16.7	-91.1	8.3
2025-01-28 13:29:44.071217	300.4	16.6	-90.9	15.4
2025-01-28 13:29:45.226857	300.3	16.5	-90.5	7.4
2025-01-28 13:29:46.390657	300.1	16.4	-90.8	6.7
2025-01-28 13:29:47.552156	299.9	16.3	-90.8	6.0
2025-01-28 13:29:48.717032	299.7	16.2	-90.5	12.5
2025-01-28 13:29:49.877116	299.5	16.1	-90.9	5.4
2025-01-28 13:29:51.037221	299.3	16.0	-90.8	10.4
2025-01-28 13:29:52.200771	299.2	15.9	-90.5	17.9
2025-01-28 13:29:53.360374	299.0	15.8	-90.5	6.4
2025-01-28 13:29:54.522095	298.8	15.7	-90.6	9.7
2025-01-28 13:29:55.688578	298.6	15.7	-90.6	7.4
2025-01-28 13:29:56.854058	298.5	15.6	-90.9	4.6
2025-01-28 13:29:58.019146	298.3	15.5	-90.9	8.8
2025-01-28 13:29:59.173162	298.1	15.4	-90.3	6.2
2025-01-28 13:30:00.324964	298.0	15.3	-90.1	7.3
2025-01-28 13:30:01.487606	297.8	15.2	-90.6	5.4
2025-01-28 13:30:02.649140	297.6	15.1	-90.8	6.9
2025-01-28 13:30:03.812102	297.5	15.0	-91.1	6.5
2025-01-28 13:30:04.972824	297.3	14.9	-90.5	8.4
2025-01-28 13:30:06.136890	297.1	14.8	-90.3	7.8
2025-01-28 13:30:07.303177	297.0	14.8	-90.1	8.9
2025-01-28 13:30:08.465064	296.8	14.7	-90.3	7.7
2025-01-28 13:30:09.630043	296.6	14.6	-90.1	5.9
#Closed at: 2025-01-28 13:23:28.747400