passes_logs/2025/01/28/LEX_Murmansk/LEX_Murmansk__20250128_175907_NOAA_19_rec.log

#Pass ID: 20250128_175907_NOAA 19
#Satellite: NOAA 19
#Configuration: NOAA 19
#Start time: 2025-01-28 17:59:02.269436

#LorettStation: 1.0.0 05.05.2024
#Station: LEX_Murmansk
#Location: 33.156738 lon 68.926811 lat
#TLE: 1 33591U 09005A   25027.88922411  .00000392  00000+0  23338-3 0  9991
#TLE: 2 33591  99.0173  91.7499 0013972  22.5257 337.6525 14.13270697823101

#Time	Az	El	Level	SNR
2025-01-28 17:59:14.478755	160.1	16.3	-91.2	3.8
2025-01-28 17:59:16.789027	160.2	16.6	-91.2	4.7
2025-01-28 17:59:19.096206	160.2	16.8	-91.1	3.5
2025-01-28 17:59:21.402335	160.3	17.1	-91.1	2.4
2025-01-28 17:59:23.652400	160.3	17.4	-91.0	1.0
2025-01-28 17:59:25.892847	160.4	17.6	-91.1	2.1
2025-01-28 17:59:28.134112	160.4	17.9	-91.3	4.2
2025-01-28 17:59:30.375504	160.5	18.2	-91.2	5.3
2025-01-28 17:59:32.623640	160.5	18.4	-90.8	3.4
2025-01-28 17:59:34.930409	160.6	18.7	-91.2	7.0
2025-01-28 17:59:37.212217	160.6	19.0	-91.1	6.2
2025-01-28 17:59:39.493582	160.7	19.3	-91.0	2.1
2025-01-28 17:59:41.791906	160.8	19.6	-91.4	3.6
2025-01-28 17:59:44.088681	160.8	19.9	-91.6	4.4
2025-01-28 17:59:46.362791	160.9	20.2	-91.2	2.5
2025-01-28 17:59:48.663477	160.9	20.5	-91.0	2.9
2025-01-28 17:59:50.960149	161.0	20.8	-91.3	7.8
2025-01-28 17:59:53.270241	161.1	21.1	-91.2	5.3
2025-01-28 17:59:55.582712	161.1	21.4	-90.5	0.6
2025-01-28 17:59:57.881949	161.2	21.7	-91.2	5.1
2025-01-28 18:00:00.193598	161.3	22.0	-91.3	9.6
2025-01-28 18:00:02.505256	161.3	22.4	-90.7	8.7
2025-01-28 18:00:04.815264	161.4	22.7	-91.1	7.7
2025-01-28 18:00:07.126720	161.5	23.0	-90.4	8.1
2025-01-28 18:00:09.429459	161.5	23.4	-90.3	4.5
2025-01-28 18:00:11.737799	161.6	23.7	-91.3	4.2
2025-01-28 18:00:14.055737	161.7	24.1	-91.0	0.1
2025-01-28 18:00:16.366997	161.8	24.4	-90.9	5.7
2025-01-28 18:00:18.674717	161.9	24.8	-91.2	10.2
2025-01-28 18:00:20.975619	161.9	25.1	-91.4	4.8
2025-01-28 18:00:23.287267	162.0	25.5	-90.7	9.3
2025-01-28 18:00:25.597493	162.1	25.9	-90.8	3.9
2025-01-28 18:00:27.910720	162.2	26.2	-91.6	1.8
2025-01-28 18:00:30.221742	162.3	26.6	-91.7	2.9
2025-01-28 18:00:32.535362	162.4	27.0	-91.1	3.5
2025-01-28 18:00:34.852626	162.5	27.4	-91.4	8.6
2025-01-28 18:00:37.161594	162.5	27.8	-91.5	7.1
2025-01-28 18:00:39.467354	162.6	28.2	-91.4	10.6
2025-01-28 18:00:41.775614	162.7	28.6	-91.7	10.5
2025-01-28 18:00:44.096424	162.8	29.0	-91.4	3.0
2025-01-28 18:00:46.412139	162.9	29.5	-91.5	3.1
2025-01-28 18:00:48.726142	163.1	29.9	-91.4	2.6
2025-01-28 18:00:51.031726	163.2	30.3	-91.0	7.3
2025-01-28 18:00:53.339270	163.3	30.8	-91.2	3.3
2025-01-28 18:00:55.649099	163.4	31.2	-91.5	7.7
2025-01-28 18:00:57.955998	163.5	31.7	-91.7	6.8
2025-01-28 18:01:00.253795	163.6	32.1	-91.6	2.6
2025-01-28 18:01:02.562503	163.7	32.6	-91.3	3.1
2025-01-28 18:01:04.875171	163.9	33.1	-91.2	5.2
2025-01-28 18:01:07.189089	164.0	33.5	-91.3	5.2
2025-01-28 18:01:09.492135	164.1	34.0	-90.5	4.2
2025-01-28 18:01:11.794460	164.3	34.5	-90.5	4.3
2025-01-28 18:01:14.099718	164.4	35.0	-91.3	9.0
2025-01-28 18:01:16.405744	164.5	35.6	-91.2	12.0
2025-01-28 18:01:18.720417	164.7	36.1	-91.6	4.8
2025-01-28 18:01:21.017804	164.9	36.6	-91.5	1.1
2025-01-28 18:01:23.320331	165.0	37.1	-91.3	4.7
2025-01-28 18:01:25.640473	165.2	37.7	-91.7	8.0
2025-01-28 18:01:27.947407	165.3	38.2	-91.4	5.0
2025-01-28 18:01:30.259073	165.5	38.8	-91.2	4.6
2025-01-28 18:01:32.559108	165.7	39.4	-91.1	8.6
2025-01-28 18:01:34.867833	165.9	40.0	-91.6	8.4
2025-01-28 18:01:37.191619	166.1	40.6	-92.7	5.5
2025-01-28 18:01:39.495418	166.3	41.2	-91.7	1.7
2025-01-28 18:01:41.795044	166.5	41.8	-92.6	4.4
2025-01-28 18:01:44.107945	166.7	42.4	-92.7	11.3
2025-01-28 18:01:46.419904	166.9	43.0	-92.3	11.9
2025-01-28 18:01:48.722847	167.2	43.7	-92.4	7.9
2025-01-28 18:01:51.025750	167.4	44.3	-92.7	8.8
2025-01-28 18:01:53.338216	167.6	45.0	-92.4	9.0
2025-01-28 18:01:55.651052	167.9	45.7	-92.4	7.8
2025-01-28 18:01:57.967628	168.2	46.3	-92.5	4.0
2025-01-28 18:02:00.269863	168.5	47.0	-92.6	3.8
2025-01-28 18:02:02.572414	168.8	47.7	-92.2	8.7
2025-01-28 18:02:04.876426	169.1	48.5	-92.6	6.3
2025-01-28 18:02:07.184796	169.4	49.2	-92.4	5.7
2025-01-28 18:02:09.500206	169.7	49.9	-92.5	5.1
2025-01-28 18:02:11.807253	170.1	50.7	-92.7	7.5
2025-01-28 18:02:14.120473	170.5	51.4	-91.2	3.8
2025-01-28 18:02:16.432871	170.8	52.2	-91.1	7.2
2025-01-28 18:02:18.740083	171.3	53.0	-92.3	4.2
2025-01-28 18:02:21.051579	171.7	53.8	-92.3	2.1
2025-01-28 18:02:23.359342	172.2	54.6	-91.8	2.7
2025-01-28 18:02:25.673003	172.6	55.4	-92.1	6.1
2025-01-28 18:02:27.985999	173.2	56.2	-92.3	10.5
2025-01-28 18:02:30.293076	173.7	57.1	-92.3	7.2
2025-01-28 18:02:32.602336	174.3	57.9	-92.3	2.8
2025-01-28 18:02:34.913608	174.9	58.8	-92.5	8.3
2025-01-28 18:02:37.211320	175.6	59.6	-92.3	17.8
2025-01-28 18:02:39.519313	176.3	60.5	-92.3	11.3
2025-01-28 18:02:41.823721	177.0	61.4	-92.4	7.8
2025-01-28 18:02:44.138006	177.8	62.3	-92.3	6.5
2025-01-28 18:02:46.442717	178.7	63.2	-92.0	4.3
2025-01-28 18:02:48.748057	179.6	64.0	-92.6	6.7
2025-01-28 18:02:51.047538	180.6	64.9	-92.3	13.0
2025-01-28 18:02:53.360977	181.7	65.9	-92.6	10.5
2025-01-28 18:02:55.664288	182.9	66.8	-92.4	14.1
2025-01-28 18:02:57.974780	184.2	67.7	-92.0	8.6
2025-01-28 18:03:00.282901	185.6	68.6	-92.0	9.2
2025-01-28 18:03:02.590182	187.1	69.5	-92.4	3.3
2025-01-28 18:03:04.902648	188.8	70.4	-92.5	10.2
2025-01-28 18:03:07.212584	190.7	71.3	-92.5	14.4
2025-01-28 18:03:09.524230	192.7	72.1	-92.0	15.0
2025-01-28 18:03:11.840264	195.0	73.0	-92.3	13.9
2025-01-28 18:03:14.157537	197.5	73.8	-92.5	12.4
2025-01-28 18:03:16.462231	200.4	74.6	-92.8	4.2
2025-01-28 18:03:18.761185	203.5	75.4	-92.5	8.1
2025-01-28 18:03:21.069681	206.9	76.1	-92.7	3.3
2025-01-28 18:03:23.378929	210.8	76.8	-92.5	9.3
2025-01-28 18:03:25.695886	215.1	77.4	-92.3	9.3
2025-01-28 18:03:28.009639	219.8	78.0	-92.3	11.7
2025-01-28 18:03:30.316315	224.9	78.5	-92.2	16.9
2025-01-28 18:03:32.619492	230.4	78.8	-92.5	19.5
2025-01-28 18:03:34.925350	236.2	79.1	-92.3	18.7
2025-01-28 18:03:37.229710	242.3	79.2	-92.2	20.3
2025-01-28 18:03:39.545055	248.4	79.2	-91.9	20.9
2025-01-28 18:03:41.859234	254.5	79.1	-92.5	16.8
2025-01-28 18:03:44.163035	260.4	78.9	-92.4	18.0
2025-01-28 18:03:46.472702	266.1	78.6	-92.1	15.0
2025-01-28 18:03:48.791458	271.4	78.2	-92.8	16.5
2025-01-28 18:03:51.110000	276.3	77.7	-92.1	11.9
2025-01-28 18:03:53.416718	280.7	77.1	-92.3	12.2
2025-01-28 18:03:55.714537	284.7	76.4	-92.5	15.2
2025-01-28 18:03:58.028842	288.3	75.7	-92.2	6.8
2025-01-28 18:04:00.334151	291.6	75.0	-92.1	13.3
2025-01-28 18:04:02.596668	294.5	74.2	-92.1	6.8
2025-01-28 18:04:04.907380	297.1	73.4	-92.4	7.6
2025-01-28 18:04:07.216498	299.5	72.5	-92.3	13.6
2025-01-28 18:04:09.518804	301.6	71.7	-92.4	6.6
2025-01-28 18:04:11.830083	303.6	70.8	-92.9	9.9
2025-01-28 18:04:14.135886	305.3	69.9	-92.5	6.6
2025-01-28 18:04:16.452109	306.9	69.0	-92.3	5.6
2025-01-28 18:04:18.770871	308.4	68.1	-92.5	5.2
2025-01-28 18:04:21.084957	309.7	67.2	-92.2	2.4
2025-01-28 18:04:23.385009	310.9	66.3	-92.9	5.8
2025-01-28 18:04:25.680673	312.1	65.4	-92.5	3.3
2025-01-28 18:04:27.988502	313.1	64.5	-92.8	3.8
2025-01-28 18:04:30.292563	314.1	63.6	-92.9	8.5
2025-01-28 18:04:32.604186	315.0	62.7	-92.4	4.3
2025-01-28 18:04:34.916200	315.8	61.8	-92.4	5.4
2025-01-28 18:04:37.232124	316.6	60.9	-92.2	13.5
2025-01-28 18:04:39.536161	317.3	60.0	-92.7	14.1
2025-01-28 18:04:41.841479	318.0	59.2	-92.3	17.0
2025-01-28 18:04:44.159319	318.6	58.3	-92.4	16.4
2025-01-28 18:04:46.476496	319.2	57.5	-92.4	14.4
2025-01-28 18:04:48.787501	319.7	56.6	-92.5	17.2
2025-01-28 18:04:51.107209	320.3	55.8	-92.5	16.6
2025-01-28 18:04:53.423036	320.8	55.0	-92.7	9.3
2025-01-28 18:04:55.733691	321.2	54.2	-92.6	9.5
2025-01-28 18:04:58.050075	321.7	53.4	-92.8	4.1
2025-01-28 18:05:00.359236	322.1	52.6	-92.7	9.0
2025-01-28 18:05:02.660190	322.5	51.8	-92.7	4.8
2025-01-28 18:05:04.976756	322.9	51.1	-92.6	6.3
2025-01-28 18:05:07.278893	323.3	50.3	-92.6	11.8
2025-01-28 18:05:09.571908	323.6	49.6	-91.4	7.4
2025-01-28 18:05:11.868563	323.9	48.9	-91.2	11.9
2025-01-28 18:05:14.182676	324.2	48.1	-92.5	10.3
2025-01-28 18:05:16.496779	324.5	47.4	-92.3	9.8
2025-01-28 18:05:18.802864	324.8	46.7	-92.6	10.8
2025-01-28 18:05:21.106693	325.1	46.1	-92.4	8.3
2025-01-28 18:05:23.419285	325.4	45.4	-92.1	4.6
2025-01-28 18:05:25.732892	325.6	44.7	-92.7	8.2
2025-01-28 18:05:28.042154	325.9	44.1	-92.5	4.4
2025-01-28 18:05:30.366807	326.1	43.4	-92.2	12.2
2025-01-28 18:05:32.671155	326.3	42.8	-92.8	15.6
2025-01-28 18:05:34.980427	326.6	42.2	-93.0	16.9
2025-01-28 18:05:37.295789	326.8	41.5	-92.1	16.1
2025-01-28 18:05:39.604361	327.0	40.9	-92.2	14.5
2025-01-28 18:05:41.921305	327.2	40.4	-92.6	8.5
2025-01-28 18:05:44.236277	327.4	39.8	-92.6	9.6
2025-01-28 18:05:46.559024	327.5	39.2	-92.6	5.2
2025-01-28 18:05:48.862582	327.7	38.6	-93.0	7.6
2025-01-28 18:05:51.160274	327.9	38.1	-92.5	11.4
2025-01-28 18:05:53.445714	328.1	37.5	-92.2	11.1
2025-01-28 18:05:55.759114	328.2	37.0	-92.8	7.9
2025-01-28 18:05:58.064173	328.4	36.5	-91.9	6.9
2025-01-28 18:06:00.376658	328.5	35.9	-92.4	6.5
2025-01-28 18:06:02.682473	328.7	35.4	-92.6	6.3
2025-01-28 18:06:04.984270	328.8	34.9	-92.7	5.3
2025-01-28 18:06:07.280364	329.0	34.4	-92.1	8.2
2025-01-28 18:06:09.587885	329.1	33.9	-91.8	11.4
2025-01-28 18:06:11.902830	329.2	33.4	-92.5	15.1
2025-01-28 18:06:14.212251	329.4	33.0	-92.0	10.0
2025-01-28 18:06:16.527547	329.5	32.5	-91.1	5.2
2025-01-28 18:06:18.832125	329.6	32.0	-92.4	8.1
2025-01-28 18:06:21.142532	329.7	31.6	-92.3	7.4
2025-01-28 18:06:23.450724	329.8	31.1	-92.5	9.6
2025-01-28 18:06:25.747321	329.9	30.7	-92.8	11.3
2025-01-28 18:06:28.066282	330.1	30.3	-92.4	10.1
2025-01-28 18:06:30.377413	330.2	29.8	-92.2	9.5
2025-01-28 18:06:32.678374	330.3	29.4	-92.5	6.6
2025-01-28 18:06:34.974257	330.4	29.0	-92.2	1.3
2025-01-28 18:06:37.255458	330.5	28.6	-92.4	5.2
2025-01-28 18:06:39.567942	330.6	28.2	-92.1	4.6
2025-01-28 18:06:41.869967	330.7	27.8	-92.1	9.4
2025-01-28 18:06:44.163409	330.7	27.4	-92.6	8.6
2025-01-28 18:06:46.474132	330.8	27.0	-92.1	4.1
2025-01-28 18:06:48.781565	330.9	26.6	-92.2	5.8
2025-01-28 18:06:51.091217	331.0	26.2	-92.4	5.8
2025-01-28 18:06:53.393597	331.1	25.9	-92.0	7.0
2025-01-28 18:06:55.691704	331.2	25.5	-91.9	13.2
2025-01-28 18:06:57.994085	331.3	25.2	-92.4	11.7
2025-01-28 18:07:00.295508	331.3	24.8	-92.0	8.3
2025-01-28 18:07:02.600204	331.4	24.4	-92.1	3.9
2025-01-28 18:07:04.904260	331.5	24.1	-92.3	4.6
2025-01-28 18:07:07.208640	331.6	23.8	-92.2	7.3
2025-01-28 18:07:09.513030	331.7	23.4	-92.4	7.0
2025-01-28 18:07:11.824037	331.7	23.1	-92.6	12.6
2025-01-28 18:07:14.129608	331.8	22.8	-92.0	11.6
2025-01-28 18:07:16.442908	331.9	22.4	-92.2	5.1
2025-01-28 18:07:18.746829	331.9	22.1	-92.6	8.1
2025-01-28 18:07:21.054256	332.0	21.8	-92.7	7.4
2025-01-28 18:07:23.353831	332.1	21.5	-92.4	13.1
2025-01-28 18:07:25.679023	332.1	21.2	-92.6	8.1
2025-01-28 18:07:27.987312	332.2	20.9	-92.8	5.7
2025-01-28 18:07:30.297965	332.3	20.5	-92.4	2.2
2025-01-28 18:07:32.597852	332.3	20.3	-92.0	0.0
2025-01-28 18:07:34.906654	332.4	20.0	-92.4	3.2
2025-01-28 18:07:37.214091	332.5	19.7	-92.4	2.0
2025-01-28 18:07:39.522131	332.5	19.4	-91.8	2.3
2025-01-28 18:07:41.800148	332.6	19.1	-92.0	3.0
2025-01-28 18:07:44.040475	332.6	18.8	-92.6	2.0
2025-01-28 18:07:46.287792	332.7	18.5	-92.6	2.1
2025-01-28 18:07:48.529484	332.7	18.3	-92.7	3.5
2025-01-28 18:07:50.774237	332.8	18.0	-92.8	0.5
2025-01-28 18:07:53.042003	332.8	17.7	-91.8	2.8
2025-01-28 18:07:55.353591	332.9	17.5	-91.5	0.4
2025-01-28 18:07:57.664081	333.0	17.2	-92.9	1.5
2025-01-28 18:07:59.972411	333.0	16.9	-92.3	1.0
2025-01-28 18:08:02.270959	333.1	16.7	-92.8	1.1
2025-01-28 18:08:04.578157	333.1	16.4	-92.8	1.2
2025-01-28 18:08:06.890111	333.2	16.2	-92.3	4.9
2025-01-28 18:08:09.201878	333.2	15.9	-93.0	3.4
2025-01-28 18:08:11.612826	333.3	15.7	-92.7	1.2
2025-01-28 18:08:13.921127	333.3	15.4	-92.9	4.7
2025-01-28 18:08:16.238375	333.4	15.2	-92.7	3.1
2025-01-28 18:08:18.542971	333.4	14.9	-92.4	3.4
2025-01-28 18:08:20.863725	333.4	14.7	-92.5	4.4
2025-01-28 18:08:23.177796	333.5	14.5	-92.7	2.8
#Closed at: 2025-01-28 17:59:07.279046