passes_logs/2026/01/01/R3.2S_Murmansk/R3.2S_Murmansk__20260101_154950_ZKG05_rec.log

#Pass ID: 20260101_154950_ZKG05
#Satellite: ZKG05
#Configuration: ZKG05
#almurnet v.1.7.20251203
#Start time: 2026-01-01 15:49:50

#Version: 2.2.20231116
#Station: R3.2S_Murmansk
#Location: 33.079688 lon 68.888172 lat
#TLE: 1 65263U 25180E   25363.54303023  .00006586  00000-0  34273-3 0  9994
#TLE: 2 65263  97.4772 128.0191 0001674  87.3453 272.7971 15.16366041 20011

#Time	Az	El	Level	Level2	SNR	BER	BlckErr	Temp	State	Recorded	gain1	gain2
2026-01-01 15:49:50.43	29.36	1.97	-59.6	-62.8	6.2	0.00e+00	0	38	0	0	85	21025
2026-01-01 15:49:52.45	29.17	2.09	-59.7	-62.9	6.2	0.00e+00	0	38	104	0	86	19960
2026-01-01 15:49:54.46	28.97	2.21	-59.7	-62.8	6.2	0.00e+00	0	38	104	0	86	19896
2026-01-01 15:49:56.49	28.77	2.33	-59.7	-62.9	6.2	0.00e+00	0	38	104	0	86	19938
2026-01-01 15:49:58.50	28.57	2.45	-59.7	-62.8	6.2	0.00e+00	0	38	104	0	86	19857
2026-01-01 15:50:00.52	28.37	2.57	-59.7	-62.8	6.2	0.00e+00	0	39	104	0	86	19855
2026-01-01 15:50:02.54	28.16	2.69	-59.7	-62.8	6.2	0.00e+00	0	39	104	0	86	19886
2026-01-01 15:50:04.56	27.95	2.81	-59.7	-62.8	6.2	0.00e+00	0	39	104	0	86	19924
2026-01-01 15:50:06.57	27.74	2.93	-59.7	-62.8	6.2	0.00e+00	0	39	104	0	86	19927
2026-01-01 15:50:08.59	27.53	3.05	-59.7	-62.8	6.2	0.00e+00	0	39	104	0	86	19921
2026-01-01 15:50:10.60	27.32	3.17	-59.7	-62.8	6.2	0.00e+00	0	39	104	0	86	19890
2026-01-01 15:50:12.61	27.10	3.29	-59.7	-62.8	6.2	0.00e+00	0	39	104	0	86	19930
2026-01-01 15:50:14.63	26.88	3.42	-59.7	-62.9	6.2	0.00e+00	0	39	104	0	86	19950
2026-01-01 15:50:16.64	26.66	3.54	-59.7	-62.9	6.2	0.00e+00	0	39	104	0	86	19966
2026-01-01 15:50:18.66	26.43	3.66	-59.7	-62.9	6.2	0.00e+00	0	40	104	0	86	19965
2026-01-01 15:50:20.68	26.21	3.79	-59.7	-62.9	6.2	0.00e+00	0	39	104	0	86	19935
2026-01-01 15:50:22.69	25.98	3.91	-59.7	-62.9	6.2	0.00e+00	0	39	104	0	86	19994
2026-01-01 15:50:24.71	25.75	4.03	-59.7	-62.9	6.2	0.00e+00	0	40	104	0	86	19982
2026-01-01 15:50:26.73	25.51	4.16	-59.7	-62.9	6.2	0.00e+00	0	40	104	0	86	19995
2026-01-01 15:50:28.74	25.28	4.28	-59.7	-62.9	6.2	0.00e+00	0	40	104	0	86	19988
2026-01-01 15:50:30.76	25.04	4.41	-59.7	-62.9	6.2	0.00e+00	0	40	104	0	86	19949
2026-01-01 15:50:32.78	24.79	4.54	-59.7	-62.9	6.2	0.00e+00	0	40	104	0	86	19989
2026-01-01 15:50:34.79	24.55	4.66	-59.7	-62.9	6.2	0.00e+00	0	40	104	0	86	19966
2026-01-01 15:50:36.80	24.30	4.79	-59.7	-62.9	6.2	0.00e+00	0	40	104	0	86	20040
2026-01-01 15:50:38.82	24.05	4.91	-59.7	-62.9	6.2	0.00e+00	0	40	104	0	86	20028
2026-01-01 15:50:40.84	23.80	5.04	-59.7	-62.9	6.2	0.00e+00	0	40	104	0	86	19994
2026-01-01 15:50:42.85	23.55	5.17	-59.9	-63.0	6.2	0.00e+00	0	40	104	0	86	20311
2026-01-01 15:50:44.87	23.29	5.30	-59.8	-63.0	6.2	0.00e+00	0	40	104	0	86	20227
2026-01-01 15:50:46.88	23.03	5.43	-59.9	-63.0	6.2	0.00e+00	0	40	104	0	86	20386
2026-01-01 15:50:48.89	22.76	5.55	-59.8	-63.0	6.2	0.00e+00	0	41	104	0	86	20280
2026-01-01 15:50:50.91	22.49	5.68	-59.9	-63.1	6.2	0.00e+00	0	41	104	0	86	20408
2026-01-01 15:50:52.93	22.22	5.81	-59.9	-63.0	6.2	0.00e+00	0	41	104	0	86	20313
2026-01-01 15:50:54.94	21.95	5.94	-60.0	-63.1	6.2	0.00e+00	0	41	104	0	86	20575
2026-01-01 15:50:56.96	21.67	6.07	-59.9	-63.1	6.2	0.00e+00	0	41	104	0	86	20442
2026-01-01 15:50:58.98	21.39	6.20	-60.0	-63.1	6.2	0.00e+00	0	41	104	0	86	20606
2026-01-01 15:51:01.00	21.11	6.33	-59.9	-63.1	6.2	0.00e+00	0	41	104	0	86	20399
2026-01-01 15:51:03.02	20.82	6.46	-60.0	-63.1	6.2	0.00e+00	0	41	104	0	86	20597
2026-01-01 15:51:05.04	20.53	6.59	-59.9	-63.1	6.2	0.00e+00	0	41	104	0	86	20483
2026-01-01 15:51:07.05	20.24	6.73	-60.0	-63.2	6.2	0.00e+00	0	41	104	0	86	20668
2026-01-01 15:51:09.06	19.94	6.86	-59.9	-63.1	6.2	0.00e+00	0	41	104	0	86	20512
2026-01-01 15:51:11.07	19.64	6.99	-60.0	-63.2	6.2	0.00e+00	0	41	104	0	86	20731
2026-01-01 15:51:13.09	19.34	7.12	-60.0	-63.1	6.2	0.00e+00	0	41	104	0	86	20545
2026-01-01 15:51:15.10	19.03	7.25	-60.0	-63.2	6.2	0.00e+00	0	41	104	0	86	20768
2026-01-01 15:51:17.12	18.72	7.39	-60.0	-63.1	6.2	0.00e+00	0	41	104	0	86	20604
2026-01-01 15:51:19.13	18.41	7.52	-60.1	-63.2	6.2	0.00e+00	0	41	104	0	86	20807
2026-01-01 15:51:21.13	18.10	7.65	-60.0	-63.2	6.2	0.00e+00	0	41	104	0	86	20677
2026-01-01 15:51:23.15	17.77	7.78	-60.1	-63.2	6.2	0.00e+00	0	41	104	0	86	20796
2026-01-01 15:51:25.16	17.45	7.92	-60.0	-63.2	6.2	0.00e+00	0	41	104	0	86	20694
2026-01-01 15:51:27.17	17.12	8.05	-60.1	-63.3	6.2	0.00e+00	0	41	104	0	86	20908
2026-01-01 15:51:29.18	16.79	8.18	-60.1	-63.2	6.2	0.00e+00	0	41	104	0	86	20766
2026-01-01 15:51:31.20	16.45	8.32	-60.1	-63.3	6.2	0.00e+00	0	41	104	0	86	20911
2026-01-01 15:51:33.21	16.11	8.45	-60.1	-63.2	6.2	0.00e+00	0	41	104	0	86	20827
2026-01-01 15:51:35.22	15.77	8.58	-60.1	-63.3	6.2	0.00e+00	0	41	104	0	86	20964
2026-01-01 15:51:37.24	15.42	8.72	-60.1	-63.3	6.2	0.00e+00	0	41	104	0	86	20888
2026-01-01 15:51:39.25	15.07	8.85	-60.1	-63.3	6.2	0.00e+00	0	41	104	0	86	20939
2026-01-01 15:51:41.26	14.72	8.99	-60.1	-63.3	6.2	0.00e+00	0	41	104	0	86	20914
2026-01-01 15:51:43.27	14.36	9.12	-60.2	-63.3	6.2	0.00e+00	0	41	104	0	86	21015
2026-01-01 15:51:45.29	13.99	9.25	-60.1	-63.3	6.2	0.00e+00	0	41	104	0	86	20964
2026-01-01 15:51:47.30	13.63	9.39	-60.2	-63.3	6.2	0.00e+00	0	41	104	0	86	21084
2026-01-01 15:51:49.31	13.25	9.52	-60.2	-63.3	6.2	0.00e+00	0	42	104	0	86	20964
2026-01-01 15:51:51.33	12.88	9.66	-60.2	-63.4	6.2	0.00e+00	0	41	104	0	86	21125
2026-01-01 15:51:53.34	12.50	9.79	-60.2	-63.3	6.2	0.00e+00	0	41	104	0	86	20960
2026-01-01 15:51:55.36	12.11	9.92	-60.2	-63.4	6.2	0.00e+00	0	42	104	0	86	21128
2026-01-01 15:51:57.37	11.72	10.06	-60.2	-63.3	6.2	0.00e+00	0	42	104	0	86	21050
2026-01-01 15:51:59.38	11.33	10.19	-60.2	-63.3	6.2	0.00e+00	0	42	104	0	86	21098
2026-01-01 15:52:01.40	10.93	10.33	-60.2	-63.3	6.2	0.00e+00	0	42	104	0	86	21109
2026-01-01 15:52:03.41	10.53	10.46	-60.2	-63.4	6.2	0.00e+00	0	42	104	0	86	21235
2026-01-01 15:52:05.42	10.12	10.59	-60.2	-63.4	6.2	0.00e+00	0	42	104	0	86	21125
2026-01-01 15:52:07.43	9.71	10.72	-60.3	-63.4	6.2	0.00e+00	0	42	104	0	86	21315
2026-01-01 15:52:09.44	9.29	10.86	-60.2	-63.4	6.2	0.00e+00	0	42	104	0	86	21283
2026-01-01 15:52:11.46	8.87	10.99	-60.3	-63.4	6.2	0.00e+00	0	42	104	0	86	21302
2026-01-01 15:52:13.47	8.45	11.12	-60.3	-63.4	6.2	0.00e+00	0	42	104	0	86	21267
2026-01-01 15:52:15.49	8.01	11.25	-60.3	-63.4	6.2	0.00e+00	0	42	104	0	86	21330
2026-01-01 15:52:17.50	7.58	11.38	-60.3	-63.5	6.2	0.00e+00	0	42	104	0	86	21364
2026-01-01 15:52:19.52	7.14	11.51	-60.3	-63.5	6.2	0.00e+00	0	42	104	0	86	21363
2026-01-01 15:52:21.54	6.69	11.64	-60.3	-63.4	6.2	0.00e+00	0	42	104	0	86	21327
2026-01-01 15:52:23.55	6.24	11.77	-60.3	-63.5	6.2	0.00e+00	0	42	104	0	86	21377
2026-01-01 15:52:25.56	5.79	11.90	-60.3	-63.5	6.2	0.00e+00	0	42	104	0	86	21360
2026-01-01 15:52:27.57	5.33	12.03	-60.3	-63.5	6.2	0.00e+00	0	42	104	0	86	21363
2026-01-01 15:52:29.57	4.87	12.15	-60.3	-63.5	6.2	0.00e+00	0	42	104	0	86	21439
2026-01-01 15:52:31.59	4.40	12.28	-60.3	-63.5	6.2	0.00e+00	0	42	104	0	86	21402
2026-01-01 15:52:33.60	3.93	12.40	-60.3	-63.5	6.2	0.00e+00	0	42	104	0	86	21483
2026-01-01 15:52:35.62	3.45	12.53	-60.4	-63.5	6.2	0.00e+00	0	42	104	0	86	21457
2026-01-01 15:52:37.64	2.96	12.65	-60.4	-63.5	6.2	0.00e+00	0	42	104	0	86	21469
2026-01-01 15:52:39.64	2.48	12.77	-60.4	-63.5	6.2	0.00e+00	0	42	104	0	86	21540
2026-01-01 15:52:41.66	1.98	12.90	-60.4	-63.5	6.2	0.00e+00	0	42	104	0	86	21452
2026-01-01 15:52:43.67	1.48	13.02	-60.4	-63.5	6.2	0.00e+00	0	42	104	0	86	21505
2026-01-01 15:52:45.68	0.98	13.14	-60.4	-63.5	6.2	0.00e+00	0	42	104	0	86	21465
2026-01-01 15:52:47.70	0.47	13.25	-60.4	-63.5	6.2	0.00e+00	0	42	104	0	86	21598
2026-01-01 15:52:49.71	359.96	13.37	-60.4	-63.6	6.2	0.00e+00	0	42	104	0	86	21631
2026-01-01 15:52:51.73	359.44	13.49	-60.4	-63.6	6.2	0.00e+00	0	42	104	0	86	21614
2026-01-01 15:52:53.74	358.92	13.60	-60.4	-63.6	6.2	0.00e+00	0	42	104	0	86	21686
2026-01-01 15:52:55.76	358.39	13.72	-60.4	-63.6	6.2	0.00e+00	0	42	104	0	86	21693
2026-01-01 15:52:57.78	357.86	13.83	-60.4	-63.6	6.2	0.00e+00	0	42	104	0	86	21684
2026-01-01 15:52:59.79	357.32	13.94	-60.4	-63.6	6.2	0.00e+00	0	42	104	0	86	21725
2026-01-01 15:53:01.81	356.78	14.05	-60.4	-63.6	6.2	0.00e+00	0	42	104	0	86	21611
2026-01-01 15:53:03.83	356.23	14.15	-60.5	-63.6	6.2	0.00e+00	0	42	104	0	86	21711
2026-01-01 15:53:05.84	355.68	14.26	-60.5	-63.6	6.2	0.00e+00	0	42	104	0	86	21742
2026-01-01 15:53:07.86	355.12	14.36	-60.5	-63.6	6.2	0.00e+00	0	42	104	0	86	21825
2026-01-01 15:53:09.87	354.56	14.46	-60.5	-63.6	6.2	0.00e+00	0	42	104	0	86	21836
2026-01-01 15:53:11.88	354.00	14.56	-60.5	-63.6	6.2	0.00e+00	0	42	104	0	86	21823
2026-01-01 15:53:13.89	353.43	14.66	-60.5	-63.6	6.2	0.00e+00	0	42	104	0	86	21786
2026-01-01 15:53:15.91	352.85	14.76	-60.5	-63.6	6.2	0.00e+00	0	42	104	0	86	21837
2026-01-01 15:53:17.92	352.28	14.85	-60.5	-63.7	6.2	0.00e+00	0	42	104	0	86	21859
2026-01-01 15:53:19.93	351.69	14.94	-60.6	-63.8	6.2	0.00e+00	0	42	104	0	86	22118
2026-01-01 15:53:21.95	351.11	15.03	-60.6	-63.7	6.2	0.00e+00	0	42	104	0	86	22058
2026-01-01 15:53:23.96	350.52	15.12	-60.6	-63.7	6.2	0.00e+00	0	42	104	0	86	22067
2026-01-01 15:53:25.98	349.92	15.20	-60.6	-63.7	6.2	0.00e+00	0	42	104	0	86	21970
2026-01-01 15:53:27.99	349.32	15.29	-60.6	-63.7	6.2	0.00e+00	0	42	104	0	86	21972
2026-01-01 15:53:30.01	348.72	15.37	-60.6	-63.7	6.2	0.00e+00	0	42	104	0	86	22058
2026-01-01 15:53:32.03	348.11	15.45	-60.6	-63.7	6.2	0.00e+00	0	42	104	0	86	22066
2026-01-01 15:53:34.04	347.50	15.52	-60.6	-63.7	6.2	0.00e+00	0	42	104	0	86	22065
2026-01-01 15:53:36.06	346.88	15.59	-60.6	-63.7	6.2	0.00e+00	0	42	104	0	86	22092
2026-01-01 15:53:38.07	346.27	15.66	-60.6	-63.7	6.2	0.00e+00	0	42	104	0	86	22080
2026-01-01 15:53:40.09	345.64	15.73	-60.6	-63.8	6.2	0.00e+00	0	42	104	0	86	22181
2026-01-01 15:53:42.11	345.02	15.79	-60.6	-63.7	6.2	0.00e+00	0	42	104	0	86	22069
2026-01-01 15:53:44.13	344.39	15.86	-60.6	-63.7	6.2	0.00e+00	0	42	104	0	86	22076
2026-01-01 15:53:46.14	343.76	15.91	-60.6	-63.8	6.2	0.00e+00	0	42	104	0	86	22134
2026-01-01 15:53:48.15	343.13	15.97	-60.6	-63.8	6.2	0.00e+00	0	42	104	0	86	22181
2026-01-01 15:53:50.16	342.49	16.02	-60.6	-63.8	6.2	0.00e+00	0	42	104	0	86	22151
2026-01-01 15:53:52.18	341.85	16.07	-60.6	-63.8	6.2	0.00e+00	0	42	104	0	86	22194
2026-01-01 15:53:54.19	341.21	16.12	-60.6	-63.7	6.2	0.00e+00	0	42	104	0	86	22004
2026-01-01 15:53:56.21	340.57	16.16	-60.6	-63.7	6.2	0.00e+00	0	42	104	0	86	21980
2026-01-01 15:53:58.23	339.92	16.20	-60.6	-63.8	6.2	0.00e+00	0	42	104	0	86	22224
2026-01-01 15:54:00.23	339.28	16.24	-60.6	-63.8	6.2	0.00e+00	0	42	104	0	86	22224
2026-01-01 15:54:02.24	338.63	16.27	-60.7	-63.8	6.2	0.00e+00	0	42	104	0	86	22215
2026-01-01 15:54:04.26	337.98	16.30	-60.7	-63.8	6.2	0.00e+00	0	42	104	0	86	22205
2026-01-01 15:54:06.27	337.33	16.33	-60.7	-63.8	6.2	0.00e+00	0	42	104	0	86	22219
2026-01-01 15:54:08.29	336.67	16.36	-60.7	-63.8	6.2	0.00e+00	0	42	104	0	86	22289
2026-01-01 15:54:10.31	336.02	16.38	-60.7	-63.8	6.2	0.00e+00	0	42	104	0	86	22199
2026-01-01 15:54:12.32	335.36	16.39	-60.7	-63.8	6.2	0.00e+00	0	42	104	0	86	22330
2026-01-01 15:54:14.34	334.70	16.41	-60.7	-63.9	6.2	0.00e+00	0	42	104	0	86	22405
2026-01-01 15:54:16.35	334.05	16.42	-60.7	-63.8	6.2	0.00e+00	0	42	104	0	86	22331
2026-01-01 15:54:18.36	333.39	16.43	-60.7	-63.9	6.2	0.00e+00	0	42	104	0	86	22414
2026-01-01 15:54:20.38	332.73	16.43	-60.7	-63.9	6.2	0.00e+00	0	42	104	0	86	22423
2026-01-01 15:54:22.40	332.07	16.43	-60.7	-63.9	6.2	0.00e+00	0	42	104	0	86	22421
2026-01-01 15:54:24.41	331.41	16.43	-60.7	-63.9	6.2	0.00e+00	0	42	104	0	86	22444
2026-01-01 15:54:26.43	330.76	16.42	-60.8	-63.9	6.2	0.00e+00	0	42	104	0	86	22554
2026-01-01 15:54:28.45	330.10	16.41	-60.7	-63.9	6.2	0.00e+00	0	42	104	0	86	22443
2026-01-01 15:54:30.46	329.44	16.40	-60.8	-63.9	6.2	0.00e+00	0	42	104	0	86	22514
2026-01-01 15:54:32.48	328.78	16.38	-60.7	-63.9	6.2	0.00e+00	0	42	104	0	86	22488
2026-01-01 15:54:34.50	328.13	16.36	-60.8	-63.9	6.2	0.00e+00	0	42	104	0	86	22503
2026-01-01 15:54:36.51	327.47	16.34	-60.7	-63.9	6.2	0.00e+00	0	42	104	0	86	22509
2026-01-01 15:54:38.52	326.82	16.32	-60.8	-63.9	6.2	0.00e+00	0	42	104	0	86	22559
2026-01-01 15:54:40.53	326.17	16.29	-60.8	-63.9	6.2	0.00e+00	0	42	104	0	86	22494
2026-01-01 15:54:42.55	325.52	16.25	-60.8	-63.9	6.2	0.00e+00	0	42	104	0	86	22608
2026-01-01 15:54:44.57	324.87	16.22	-60.7	-63.9	6.2	0.00e+00	0	42	104	0	86	22520
2026-01-01 15:54:46.58	324.22	16.18	-60.8	-63.9	6.2	0.00e+00	0	42	104	0	86	22592
2026-01-01 15:54:48.59	323.58	16.14	-60.8	-63.9	6.2	0.00e+00	0	42	104	0	86	22546
2026-01-01 15:54:50.60	322.94	16.09	-60.8	-64.0	6.2	0.00e+00	0	42	104	0	86	22658
2026-01-01 15:54:52.61	322.30	16.04	-60.8	-63.9	6.2	0.00e+00	0	42	104	0	86	22554
2026-01-01 15:54:54.63	321.66	15.99	-60.8	-64.0	6.2	0.00e+00	0	42	104	0	86	22652
2026-01-01 15:54:56.65	321.03	15.94	-60.8	-63.9	6.2	0.00e+00	0	42	104	0	86	22570
2026-01-01 15:54:58.67	320.39	15.88	-60.8	-63.9	6.2	0.00e+00	0	42	104	0	86	22620
2026-01-01 15:55:00.68	319.76	15.82	-60.8	-63.9	6.2	0.00e+00	0	42	104	0	86	22458
2026-01-01 15:55:02.70	319.14	15.75	-60.8	-63.9	6.2	0.00e+00	0	42	104	0	86	22613
2026-01-01 15:55:04.71	318.51	15.69	-60.8	-63.9	6.2	0.00e+00	0	42	104	0	86	22499
2026-01-01 15:55:06.73	317.89	15.62	-60.8	-63.9	6.2	0.00e+00	0	42	104	0	86	22600
2026-01-01 15:55:08.74	317.28	15.55	-60.8	-63.9	6.2	0.00e+00	0	42	104	0	86	22507
2026-01-01 15:55:10.75	316.67	15.47	-60.8	-63.9	6.2	0.00e+00	0	42	104	0	86	22584
2026-01-01 15:55:12.76	316.06	15.40	-60.7	-63.9	6.2	0.00e+00	0	42	104	0	86	22464
2026-01-01 15:55:14.78	315.45	15.32	-60.8	-63.9	6.2	0.00e+00	0	42	104	0	86	22597
2026-01-01 15:55:16.79	314.85	15.24	-60.7	-63.9	6.2	0.00e+00	0	42	104	0	86	22463
2026-01-01 15:55:18.81	314.25	15.15	-60.8	-63.9	6.2	0.00e+00	0	42	104	0	86	22509
2026-01-01 15:55:20.82	313.66	15.06	-60.7	-63.9	6.2	0.00e+00	0	42	104	0	86	22447
2026-01-01 15:55:22.84	313.07	14.98	-60.8	-63.9	6.2	0.00e+00	0	42	104	0	86	22501
2026-01-01 15:55:24.85	312.49	14.88	-60.7	-63.9	6.2	0.00e+00	0	42	104	0	86	22391
2026-01-01 15:55:26.87	311.90	14.79	-60.8	-63.9	6.2	0.00e+00	0	42	104	0	86	22504
2026-01-01 15:55:28.88	311.33	14.70	-60.7	-63.9	6.2	0.00e+00	0	42	104	0	86	22444
2026-01-01 15:55:30.90	310.75	14.60	-60.7	-63.9	6.2	0.00e+00	0	42	104	0	86	22480
2026-01-01 15:55:32.91	310.19	14.50	-60.7	-63.8	6.2	0.00e+00	0	42	104	0	86	22324
2026-01-01 15:55:34.92	309.62	14.40	-60.7	-63.9	6.2	0.00e+00	0	42	104	0	86	22366
2026-01-01 15:55:36.94	309.06	14.30	-60.7	-63.9	6.2	0.00e+00	0	42	104	0	86	22370
2026-01-01 15:55:38.95	308.51	14.19	-60.7	-63.8	6.2	0.00e+00	0	42	104	0	86	22354
2026-01-01 15:55:40.96	307.96	14.08	-60.7	-63.8	6.2	0.00e+00	0	42	104	0	86	22301
2026-01-01 15:55:42.97	307.42	13.98	-60.7	-63.8	6.2	0.00e+00	0	42	104	0	86	22358
2026-01-01 15:55:44.99	306.88	13.87	-60.7	-63.8	6.2	0.00e+00	0	42	104	0	86	22241
2026-01-01 15:55:47.01	306.34	13.75	-60.7	-63.8	6.2	0.00e+00	0	42	104	0	86	22312
2026-01-01 15:55:49.02	305.81	13.64	-60.7	-63.8	6.2	0.00e+00	0	42	104	0	86	22258
2026-01-01 15:55:51.03	305.29	13.53	-60.7	-63.8	6.2	0.00e+00	0	42	104	0	86	22300
2026-01-01 15:55:53.04	304.77	13.41	-60.6	-63.8	6.2	0.00e+00	0	42	104	0	86	22258
2026-01-01 15:55:55.06	304.25	13.29	-60.7	-63.8	6.2	0.00e+00	0	42	104	0	86	22206
2026-01-01 15:55:57.07	303.74	13.18	-60.6	-63.8	6.2	0.00e+00	0	42	104	0	86	22203
2026-01-01 15:55:59.09	303.23	13.06	-60.7	-63.8	6.2	0.00e+00	0	42	104	0	86	22250
2026-01-01 15:56:01.09	302.73	12.94	-60.6	-63.8	6.2	0.00e+00	0	42	104	0	86	22174
2026-01-01 15:56:03.10	302.24	12.82	-60.6	-63.8	6.2	0.00e+00	0	42	104	0	86	22187
2026-01-01 15:56:05.11	301.75	12.69	-60.6	-63.7	6.2	0.00e+00	0	42	104	0	86	22094
2026-01-01 15:56:07.13	301.26	12.57	-60.6	-63.8	6.2	0.00e+00	0	42	104	0	86	22245
2026-01-01 15:56:09.14	300.78	12.45	-60.6	-63.7	6.2	0.00e+00	0	42	104	0	86	22089
2026-01-01 15:56:11.16	300.30	12.32	-60.6	-63.8	6.2	0.00e+00	0	42	104	0	86	22192
2026-01-01 15:56:13.18	299.83	12.19	-60.6	-63.7	6.2	0.00e+00	0	42	104	0	86	22057
2026-01-01 15:56:15.19	299.36	12.07	-60.6	-63.8	6.2	0.00e+00	0	42	104	0	86	22112
2026-01-01 15:56:17.20	298.90	11.94	-60.6	-63.7	6.2	0.00e+00	0	42	104	0	86	22078
2026-01-01 15:56:19.21	298.44	11.81	-60.6	-63.8	6.2	0.00e+00	0	42	104	0	86	22163
2026-01-01 15:56:21.22	297.99	11.68	-60.6	-63.7	6.2	0.00e+00	0	42	104	0	86	21975
2026-01-01 15:56:23.24	297.54	11.55	-60.6	-63.7	6.2	0.00e+00	0	42	104	0	86	22081
2026-01-01 15:56:25.25	297.10	11.42	-60.6	-63.7	6.2	0.00e+00	0	42	104	0	86	22081
2026-01-01 15:56:27.27	296.66	11.29	-60.6	-63.7	6.2	0.00e+00	0	42	104	0	86	22096
2026-01-01 15:56:29.28	296.23	11.16	-60.6	-63.7	6.2	0.00e+00	0	42	104	0	86	22043
2026-01-01 15:56:31.30	295.80	11.03	-60.6	-63.7	6.2	0.00e+00	0	42	104	0	86	22044
2026-01-01 15:56:33.30	295.38	10.90	-60.6	-63.8	6.2	0.00e+00	0	42	104	0	86	22238
2026-01-01 15:56:35.31	294.96	10.76	-60.6	-63.8	6.2	0.00e+00	0	42	104	0	86	22135
2026-01-01 15:56:37.33	294.54	10.63	-60.6	-63.7	6.2	0.00e+00	0	42	104	0	86	22071
2026-01-01 15:56:39.35	294.13	10.50	-60.6	-63.8	6.2	0.00e+00	0	42	104	0	86	22163
2026-01-01 15:56:41.37	293.72	10.36	-60.6	-63.8	6.2	0.00e+00	0	42	104	0	86	22218
2026-01-01 15:56:43.38	293.32	10.23	-60.6	-63.7	6.2	0.00e+00	0	42	104	0	86	22107
2026-01-01 15:56:45.40	292.92	10.10	-60.6	-63.8	6.2	0.00e+00	0	42	104	0	86	22112
2026-01-01 15:56:47.42	292.53	9.96	-60.5	-63.7	6.2	0.00e+00	0	42	104	0	86	21911
2026-01-01 15:56:49.43	292.14	9.83	-60.6	-63.8	6.2	0.00e+00	0	43	104	0	86	22148
2026-01-01 15:56:51.45	291.76	9.69	-60.5	-63.7	6.2	0.00e+00	0	42	104	0	86	21907
2026-01-01 15:56:53.46	291.38	9.56	-60.6	-63.7	6.2	0.00e+00	0	42	104	0	86	22057
2026-01-01 15:56:55.47	291.01	9.43	-60.5	-63.6	6.2	0.00e+00	0	42	104	0	86	21853
2026-01-01 15:56:57.49	290.63	9.29	-60.6	-63.7	6.2	0.00e+00	0	42	104	0	86	21989
2026-01-01 15:56:59.51	290.27	9.16	-60.5	-63.6	6.2	0.00e+00	0	42	104	0	86	21805
2026-01-01 15:57:01.53	289.90	9.02	-60.5	-63.7	6.2	0.00e+00	0	42	104	0	86	21995
2026-01-01 15:57:03.54	289.55	8.89	-60.4	-63.6	6.2	0.00e+00	0	42	104	0	86	21754
2026-01-01 15:57:05.55	289.19	8.75	-60.5	-63.7	6.2	0.00e+00	0	42	104	0	86	21912
2026-01-01 15:57:07.57	288.84	8.62	-60.4	-63.6	6.2	0.00e+00	0	42	104	0	86	21653
2026-01-01 15:57:09.59	288.49	8.48	-60.5	-63.6	6.2	0.00e+00	0	42	104	0	86	21777
2026-01-01 15:57:11.59	288.15	8.35	-60.4	-63.5	6.2	0.00e+00	0	42	104	0	86	21531
2026-01-01 15:57:13.61	287.81	8.22	-60.5	-63.6	6.2	0.00e+00	0	42	104	0	86	21683
2026-01-01 15:57:15.62	287.48	8.08	-60.3	-63.5	6.2	0.00e+00	0	42	104	0	86	21419
2026-01-01 15:57:17.64	287.15	7.95	-60.4	-63.6	6.2	0.00e+00	0	42	104	0	86	21675
2026-01-01 15:57:19.65	286.82	7.81	-60.3	-63.5	6.2	0.00e+00	0	42	104	0	86	21385
2026-01-01 15:57:21.67	286.50	7.68	-60.4	-63.6	6.2	0.00e+00	0	42	104	0	86	21678
2026-01-01 15:57:23.69	286.18	7.55	-60.3	-63.4	6.2	0.00e+00	0	42	104	0	86	21282
2026-01-01 15:57:25.70	285.86	7.41	-60.4	-63.5	6.2	0.00e+00	0	42	104	0	86	21478
2026-01-01 15:57:27.72	285.55	7.28	-60.2	-63.4	6.2	0.00e+00	0	42	104	0	86	21193
2026-01-01 15:57:29.73	285.24	7.15	-60.3	-63.5	6.2	0.00e+00	0	42	104	0	86	21389
2026-01-01 15:57:31.75	284.93	7.02	-60.2	-63.3	6.2	0.00e+00	0	42	104	0	86	21013
2026-01-01 15:57:33.77	284.63	6.88	-60.3	-63.4	6.2	0.00e+00	0	42	104	0	86	21278
2026-01-01 15:57:35.79	284.33	6.75	-60.1	-63.3	6.2	0.00e+00	0	42	104	0	86	20940
2026-01-01 15:57:37.81	284.04	6.62	-60.2	-63.4	6.2	0.00e+00	0	43	104	0	86	21147
2026-01-01 15:57:39.82	283.75	6.49	-60.1	-63.2	6.2	0.00e+00	0	43	104	0	86	20835
2026-01-01 15:57:41.84	283.46	6.36	-60.2	-63.3	6.2	0.00e+00	0	42	104	0	86	21077
2026-01-01 15:57:43.85	283.17	6.23	-60.0	-63.2	6.2	0.00e+00	0	42	104	0	86	20667
2026-01-01 15:57:45.86	282.89	6.10	-60.1	-63.3	6.2	0.00e+00	0	42	104	0	86	20957
2026-01-01 15:57:47.87	282.61	5.97	-60.0	-63.1	6.2	0.00e+00	0	43	104	0	86	20587
2026-01-01 15:57:49.89	282.34	5.84	-60.1	-63.2	6.2	0.00e+00	0	42	104	0	86	20751
2026-01-01 15:57:51.90	282.06	5.71	-59.9	-63.0	6.2	0.00e+00	0	42	104	0	86	20323
2026-01-01 15:57:53.91	281.80	5.58	-60.0	-63.1	6.2	0.00e+00	0	42	104	0	86	20600
2026-01-01 15:57:55.92	281.53	5.45	-59.8	-62.9	6.2	0.00e+00	0	42	104	0	86	20152
2026-01-01 15:57:57.94	281.27	5.32	-59.9	-63.1	6.2	0.00e+00	0	42	104	0	86	20457
2026-01-01 15:57:59.94	281.01	5.19	-59.8	-62.9	6.2	0.00e+00	0	42	104	0	86	20056
2026-01-01 15:58:01.97	280.75	5.06	-59.9	-63.0	6.2	0.00e+00	0	42	104	0	86	20345
2026-01-01 15:58:03.99	280.49	4.94	-60.5	-63.6	6.2	0.00e+00	0	42	104	0	86	21746
2026-01-01 15:58:06.00	280.24	4.81	-60.9	-64.0	6.2	0.00e+00	0	42	104	0	87	21557
2026-01-01 15:58:08.01	279.99	4.68	-61.2	-64.3	6.2	0.00e+00	0	42	104	0	87	22345
2026-01-01 15:58:10.03	279.74	4.56	-61.4	-64.5	6.2	0.00e+00	0	42	104	0	88	21574
2026-01-01 15:58:12.04	279.50	4.43	-61.6	-64.8	6.2	0.00e+00	0	42	104	0	88	22172
2026-01-01 15:58:14.06	279.26	4.31	-61.8	-64.9	6.2	0.00e+00	0	42	104	0	89	21349
2026-01-01 15:58:16.07	279.02	4.18	-61.9	-65.1	6.2	0.00e+00	0	42	104	0	89	21658
2026-01-01 15:58:18.10	278.78	4.05	-62.1	-65.2	6.2	0.00e+00	0	42	104	0	89	22092
2026-01-01 15:58:20.12	278.55	3.93	-62.1	-65.2	6.2	0.00e+00	0	42	104	0	89	22101
2026-01-01 15:58:22.14	278.32	3.81	-62.1	-65.2	6.2	0.00e+00	0	42	104	0	89	22063
2026-01-01 15:58:24.16	278.09	3.68	-62.1	-65.3	6.2	0.00e+00	0	42	104	0	89	22167
2026-01-01 15:58:26.17	277.87	3.56	-62.1	-65.2	6.2	0.00e+00	0	42	104	0	89	22086
2026-01-01 15:58:28.18	277.64	3.44	-62.0	-65.2	6.2	0.00e+00	0	42	104	0	89	21904
2026-01-01 15:58:30.20	277.42	3.31	-62.0	-65.1	6.2	0.00e+00	0	42	104	0	89	21801
2026-01-01 15:58:32.22	277.20	3.19	-61.9	-65.0	6.2	0.00e+00	0	42	104	0	89	21533
2026-01-01 15:58:34.24	276.99	3.07	-61.9	-65.0	6.2	0.00e+00	0	43	104	0	89	21515
2026-01-01 15:58:36.26	276.77	2.95	-61.9	-65.0	6.2	0.00e+00	0	42	104	0	89	21448
2026-01-01 15:58:38.28	276.56	2.82	-61.8	-65.0	6.2	0.00e+00	0	43	104	0	89	21384
2026-01-01 15:58:40.29	276.35	2.70	-61.8	-64.9	6.2	0.00e+00	0	43	104	0	89	21340
2026-01-01 15:58:42.31	276.14	2.58	-61.8	-64.9	6.2	0.00e+00	0	42	104	0	89	21343
2026-01-01 15:58:44.33	275.94	2.46	-61.8	-64.9	6.2	0.00e+00	0	43	104	0	89	21273
2026-01-01 15:58:46.35	275.73	2.34	-61.8	-64.9	6.2	0.00e+00	0	42	104	0	89	21224
2026-01-01 15:58:48.37	275.53	2.22	-61.7	-64.9	6.2	0.00e+00	0	43	104	0	89	21182
2026-01-01 15:58:50.38	275.33	2.10	-61.7	-64.8	6.2	0.00e+00	0	42	104	0	89	21095

#Closed at: 2026-01-01 15:58:52
#Recorded file [0 MB]: D:/lorett/data/31004_260101_184950.dat