passes_logs/2026/01/01/R3.2S_Murmansk/R3.2S_Murmansk__20260101_031521_FENGYUN_3D_rec.log

#Pass ID: 20260101_031521_FENGYUN 3D
#Satellite: FENGYUN 3D
#Configuration: FENGYUN 3D
#almurnet v.1.7.20251203
#Start time: 2026-01-01 03:15:23

#Version: 2.2.20231116
#Station: R3.2S_Murmansk
#Location: 33.079688 lon 68.888172 lat
#TLE: 1 43010U 17072A   25365.62623336  .00000074  00000+0  56776-4 0  9992
#TLE: 2 43010  98.9911 332.2217 0001845 134.7096 225.4230 14.19689678421212

#Time	Az	El	Level	Level2	SNR	BER	BlckErr	Temp	State	Recorded	gain1	gain2
2026-01-01 03:15:23.56	27.23	2.14	-59.8	-72.8	3.8	8.46e-01	0	33	0	0	86	15483
2026-01-01 03:15:27.56	27.20	2.40	-59.8	-72.7	3.8	8.45e-01	0	33	104	0	84	17173
2026-01-01 03:15:31.58	27.16	2.66	-59.8	-72.6	3.8	8.46e-01	0	33	104	0	84	16944
2026-01-01 03:15:35.56	27.12	2.92	-59.8	-72.3	3.8	8.46e-01	0	33	104	0	84	16443
2026-01-01 03:15:39.56	27.08	3.19	-59.8	-72.1	3.8	8.46e-01	0	33	104	0	84	16124
2026-01-01 03:15:43.55	27.04	3.45	-59.6	-70.7	3.8	8.46e-01	0	34	104	0	84	13664
2026-01-01 03:15:47.53	27.00	3.72	-59.6	-70.3	4.0	8.43e-01	0	33	104	0	84	13006
2026-01-01 03:15:51.52	26.96	3.99	-59.8	-72.1	3.8	8.46e-01	0	34	104	0	84	16001
2026-01-01 03:15:55.52	26.91	4.27	-59.5	-69.6	4.1	8.43e-01	0	34	104	0	84	11965
2026-01-01 03:15:59.52	26.87	4.54	-57.5	-62.0	9.0	3.67e-02	0	34	0	12582912	81	5945
2026-01-01 03:16:03.50	26.82	4.82	-55.7	-58.5	12.2	1.01e-04	0	34	0	34603008	77	4985
2026-01-01 03:16:07.52	26.77	5.11	-57.4	-61.4	9.8	1.10e-06	0	34	0	57671680	79	6271
2026-01-01 03:16:11.52	26.72	5.39	-55.3	-57.8	12.9	0.00e+00	0	34	0	75497472	75	5215
2026-01-01 03:16:15.51	26.67	5.68	-51.4	-52.9	16.1	0.00e+00	0	34	0	98566144	69	4182
2026-01-01 03:16:19.52	26.62	5.98	-51.4	-52.9	16.2	0.00e+00	0	34	0	120586240	69	4152
2026-01-01 03:16:23.51	26.57	6.27	-51.4	-52.8	16.2	0.00e+00	0	34	0	142606336	68	4377
2026-01-01 03:16:27.52	26.52	6.57	-51.2	-52.6	16.4	0.00e+00	0	34	0	165675008	68	4262
2026-01-01 03:16:31.51	26.46	6.87	-51.1	-52.5	16.5	0.00e+00	0	34	0	187695104	68	4209
2026-01-01 03:16:35.51	26.40	7.18	-51.0	-52.4	16.5	0.00e+00	0	34	0	210763776	68	4149
2026-01-01 03:16:39.51	26.34	7.49	-51.0	-52.4	16.6	0.00e+00	0	34	0	232783872	68	4150
2026-01-01 03:16:43.52	26.28	7.81	-50.6	-52.0	16.7	0.00e+00	0	34	0	255852544	67	4207
2026-01-01 03:16:47.51	26.22	8.12	-50.5	-51.8	16.7	0.00e+00	0	34	0	277872640	67	4123
2026-01-01 03:16:51.48	26.16	8.44	-50.5	-51.8	16.8	0.00e+00	0	34	0	300941312	67	4107
2026-01-01 03:16:55.49	26.09	8.77	-50.3	-51.6	16.9	0.00e+00	0	34	0	322961408	67	4014
2026-01-01 03:16:59.47	26.02	9.10	-50.2	-51.5	17.0	0.00e+00	0	34	0	346030080	67	3992
2026-01-01 03:17:03.45	25.95	9.43	-50.1	-51.4	17.1	0.00e+00	0	34	0	368050176	66	4149
2026-01-01 03:17:07.46	25.88	9.77	-50.0	-51.2	17.1	0.00e+00	0	34	0	390070272	66	4075
2026-01-01 03:17:11.44	25.81	10.11	-49.9	-51.1	17.2	0.00e+00	0	34	0	413138944	66	4044
2026-01-01 03:17:15.44	25.73	10.46	-49.7	-51.0	17.2	0.00e+00	0	34	0	435159040	66	3969
2026-01-01 03:17:19.43	25.65	10.81	-49.8	-51.0	17.2	0.00e+00	0	34	0	458227712	66	3989
2026-01-01 03:17:23.43	25.57	11.17	-49.6	-50.9	17.3	0.00e+00	0	34	0	480247808	65	4147
2026-01-01 03:17:27.42	25.49	11.53	-49.7	-50.9	17.3	0.00e+00	0	34	0	502267904	65	4167
2026-01-01 03:17:31.42	25.41	11.90	-49.6	-50.8	17.3	0.00e+00	0	35	0	525336576	65	4128
2026-01-01 03:17:35.43	25.32	12.28	-49.6	-50.8	17.3	0.00e+00	0	35	0	547356672	65	4138
2026-01-01 03:17:39.42	25.23	12.66	-49.8	-51.1	17.2	0.00e+00	0	35	0	570425344	65	4250
2026-01-01 03:17:43.41	25.13	13.04	-49.7	-50.9	17.3	0.00e+00	0	34	0	592445440	65	4181
2026-01-01 03:17:47.40	25.04	13.43	-49.8	-51.0	17.3	0.00e+00	0	35	0	615514112	65	4214
2026-01-01 03:17:51.38	24.94	13.83	-49.6	-50.8	17.4	0.00e+00	0	35	0	637534208	65	4112
2026-01-01 03:17:55.39	24.83	14.24	-49.5	-50.7	17.4	0.00e+00	0	35	0	659554304	65	4087
2026-01-01 03:17:59.37	24.73	14.65	-49.2	-50.4	17.5	0.00e+00	0	34	0	682622976	64	4154
2026-01-01 03:18:03.36	24.62	15.07	-48.9	-50.1	17.6	0.00e+00	0	35	0	704643072	64	4026
2026-01-01 03:18:07.36	24.51	15.49	-48.8	-50.0	17.7	0.00e+00	0	35	0	727711744	64	3981
2026-01-01 03:18:11.36	24.39	15.93	-48.6	-49.7	17.8	0.00e+00	0	35	0	749731840	63	4094
2026-01-01 03:18:15.36	24.27	16.37	-48.4	-49.5	17.8	0.00e+00	0	35	0	772800512	63	4004
2026-01-01 03:18:19.37	24.14	16.82	-48.3	-49.4	17.9	0.00e+00	0	35	0	794820608	63	3935
2026-01-01 03:18:23.36	24.01	17.27	-48.2	-49.3	17.9	0.00e+00	0	35	0	817889280	62	4112
2026-01-01 03:18:27.36	23.88	17.74	-47.9	-48.9	18.0	0.00e+00	0	35	0	839909376	62	3954
2026-01-01 03:18:31.35	23.74	18.21	-47.6	-48.7	18.0	0.00e+00	0	34	0	861929472	61	4080
2026-01-01 03:18:35.35	23.60	18.70	-47.6	-48.7	18.1	0.00e+00	0	35	0	884998144	61	4066
2026-01-01 03:18:39.34	23.45	19.19	-47.7	-48.7	18.1	0.00e+00	0	34	0	907018240	61	4089
2026-01-01 03:18:43.33	23.29	19.69	-47.7	-48.8	18.1	0.00e+00	0	34	0	930086912	61	4134
2026-01-01 03:18:47.32	23.13	20.21	-47.9	-49.0	18.0	0.00e+00	0	34	0	952107008	61	4196
2026-01-01 03:18:51.30	22.97	20.73	-47.9	-49.0	18.0	0.00e+00	0	34	0	974127104	61	4218
2026-01-01 03:18:55.30	22.80	21.26	-47.8	-48.9	18.0	0.00e+00	0	35	0	997195776	61	4184
2026-01-01 03:18:59.30	22.62	21.81	-47.6	-48.6	18.1	0.00e+00	0	35	0	1019215872	61	4046
2026-01-01 03:19:03.29	22.43	22.36	-47.3	-48.4	18.2	0.00e+00	0	35	0	1042284544	61	3914
2026-01-01 03:19:07.29	22.24	22.93	-47.0	-48.0	18.3	0.00e+00	0	35	0	1064304640	60	3994
2026-01-01 03:19:11.29	22.04	23.52	-47.0	-48.0	18.3	0.00e+00	0	35	0	1087373312	60	3990
2026-01-01 03:19:15.28	21.83	24.11	-47.0	-48.0	18.3	0.00e+00	0	35	0	1109393408	60	3998
2026-01-01 03:19:19.27	21.61	24.72	-47.1	-48.1	18.3	0.00e+00	0	35	0	1132462080	60	4023
2026-01-01 03:19:23.26	21.38	25.34	-46.9	-47.9	18.3	0.00e+00	0	35	0	1154482176	60	3955
2026-01-01 03:19:27.27	21.14	25.98	-46.7	-47.7	18.4	0.00e+00	0	35	0	1176502272	60	3868
2026-01-01 03:19:31.28	20.89	26.63	-47.0	-48.0	18.4	0.00e+00	0	35	0	1199570944	59	4207
2026-01-01 03:19:35.28	20.63	27.30	-47.2	-48.2	18.3	0.00e+00	0	35	0	1221591040	59	4325
2026-01-01 03:19:39.27	20.36	27.98	-47.3	-48.3	18.3	0.00e+00	0	35	0	1244659712	59	4366
2026-01-01 03:19:43.27	20.08	28.68	-47.0	-48.0	18.3	0.00e+00	0	35	0	1266679808	60	3994
2026-01-01 03:19:47.25	19.78	29.39	-46.9	-48.0	18.4	0.00e+00	0	35	0	1288699904	60	3962
2026-01-01 03:19:51.25	19.47	30.13	-46.9	-47.9	18.4	0.00e+00	0	35	0	1311768576	60	3940
2026-01-01 03:19:55.24	19.14	30.88	-47.1	-48.1	18.3	0.00e+00	0	35	0	1333788672	59	4266
2026-01-01 03:19:59.23	18.80	31.65	-47.0	-48.0	18.4	0.00e+00	0	35	0	1356857344	59	4219
2026-01-01 03:20:03.22	18.44	32.44	-46.7	-47.8	18.4	0.00e+00	0	35	0	1378877440	59	4113
2026-01-01 03:20:07.22	18.06	33.25	-46.4	-47.4	18.5	0.00e+00	0	35	0	1401946112	59	3934
2026-01-01 03:20:11.22	17.66	34.08	-46.7	-47.7	18.4	0.00e+00	0	35	0	1423966208	59	4098
2026-01-01 03:20:15.21	17.23	34.93	-46.5	-47.5	18.5	0.00e+00	0	35	0	1447034880	59	3969
2026-01-01 03:20:19.21	16.79	35.81	-46.4	-47.4	18.5	0.00e+00	0	35	0	1469054976	59	3957
2026-01-01 03:20:23.21	16.31	36.71	-46.6	-47.6	18.5	0.00e+00	0	35	0	1492123648	59	4008
2026-01-01 03:20:27.21	15.81	37.63	-46.8	-47.8	18.5	0.00e+00	0	35	0	1514143744	59	4137
2026-01-01 03:20:31.22	15.28	38.57	-46.7	-47.7	18.5	0.00e+00	0	35	0	1536163840	59	4095
2026-01-01 03:20:35.21	14.72	39.54	-47.1	-48.1	18.4	0.00e+00	0	35	0	1559232512	59	4273
2026-01-01 03:20:39.21	14.12	40.53	-47.2	-48.2	18.3	0.00e+00	0	35	0	1581252608	59	4335
2026-01-01 03:20:43.21	13.48	41.55	-47.1	-48.2	18.3	0.00e+00	0	35	0	1604321280	60	4056
2026-01-01 03:20:47.20	12.79	42.58	-46.9	-47.9	18.4	0.00e+00	0	35	0	1626341376	59	4160
2026-01-01 03:20:51.20	12.06	43.65	-46.9	-47.9	18.5	0.00e+00	0	35	0	1648361472	59	4186
2026-01-01 03:20:55.19	11.28	44.74	-47.2	-48.3	18.3	0.00e+00	0	35	0	1671430144	59	4355
2026-01-01 03:20:59.19	10.44	45.85	-47.1	-48.1	18.4	0.00e+00	0	35	0	1693450240	59	4268
2026-01-01 03:21:03.20	9.54	46.99	-47.2	-48.3	18.4	0.00e+00	0	35	0	1716518912	59	4356
2026-01-01 03:21:07.19	8.57	48.15	-47.1	-48.2	18.4	0.00e+00	0	35	0	1738539008	60	4057
2026-01-01 03:21:11.19	7.52	49.33	-47.5	-48.5	18.3	0.00e+00	0	35	0	1761607680	60	4216
2026-01-01 03:21:15.18	6.39	50.53	-47.6	-48.7	18.2	0.00e+00	0	35	0	1783627776	60	4293
2026-01-01 03:21:19.18	5.15	51.76	-47.9	-48.9	18.2	0.00e+00	0	35	0	1806696448	61	4176
2026-01-01 03:21:23.19	3.81	53.00	-47.8	-48.8	18.3	0.00e+00	0	35	0	1828716544	61	4143
2026-01-01 03:21:27.18	2.35	54.25	-47.9	-48.9	18.3	0.00e+00	0	35	0	1851785216	61	4167
2026-01-01 03:21:31.18	0.76	55.51	-47.4	-48.4	18.4	0.00e+00	0	35	0	1873805312	61	3944
2026-01-01 03:21:35.17	359.02	56.77	-47.3	-48.3	18.4	0.00e+00	0	35	0	1896873984	61	3880
2026-01-01 03:21:39.16	357.10	58.04	-47.3	-48.3	18.4	0.00e+00	0	35	0	1918894080	60	4114
2026-01-01 03:21:43.16	354.99	59.30	-47.5	-48.5	18.3	0.00e+00	0	35	0	1940914176	60	4230
2026-01-01 03:21:47.15	352.68	60.54	-47.3	-48.3	18.4	0.00e+00	0	35	0	1963982848	60	4128
2026-01-01 03:21:51.15	350.12	61.77	-46.8	-47.8	18.5	0.00e+00	0	35	0	1986002944	60	3884
2026-01-01 03:21:55.13	347.31	62.96	-46.8	-47.8	18.5	0.00e+00	0	35	0	2009071616	60	3910
2026-01-01 03:21:59.11	344.20	64.10	-46.9	-47.9	18.5	0.00e+00	0	35	0	2031091712	59	4174
2026-01-01 03:22:03.10	340.78	65.19	-46.8	-47.8	18.5	0.00e+00	0	35	0	2053111808	59	4133
2026-01-01 03:22:07.09	337.01	66.20	-45.8	-46.8	18.7	0.00e+00	0	35	0	2076180480	58	3887
2026-01-01 03:22:11.08	332.89	67.12	-46.0	-47.0	18.7	0.00e+00	0	35	0	2098200576	58	3959
2026-01-01 03:22:15.07	328.41	67.93	-46.2	-47.2	18.6	0.00e+00	0	35	0	2121269248	58	4087
2026-01-01 03:22:19.04	323.61	68.61	-46.6	-47.6	18.5	0.00e+00	0	35	0	2143289344	58	4280
2026-01-01 03:22:23.05	318.46	69.15	-46.5	-47.5	18.6	0.00e+00	0	35	0	2165309440	58	4200
2026-01-01 03:22:27.02	313.10	69.53	-46.6	-47.6	18.5	0.00e+00	0	35	0	2188378112	58	4272
2026-01-01 03:22:31.02	307.55	69.73	-46.4	-47.4	18.6	0.00e+00	0	35	0	2210398208	58	4153
2026-01-01 03:22:35.01	301.93	69.76	-46.4	-47.4	18.6	0.00e+00	0	35	0	2233466880	58	4172
2026-01-01 03:22:39.00	296.36	69.60	-46.3	-47.3	18.6	0.00e+00	0	35	0	2255486976	58	4126
2026-01-01 03:22:43.01	290.90	69.26	-46.6	-47.6	18.6	0.00e+00	0	35	0	2278555648	58	4260
2026-01-01 03:22:47.00	285.70	68.76	-46.5	-47.5	18.6	0.00e+00	0	35	0	2300575744	58	4235
2026-01-01 03:22:51.02	280.77	68.10	-46.6	-47.6	18.5	0.00e+00	0	35	0	2322595840	58	4265
2026-01-01 03:22:55.00	276.21	67.32	-46.3	-47.3	18.6	0.00e+00	0	35	0	2345664512	58	4117
2026-01-01 03:22:59.00	272.00	66.42	-46.4	-47.4	18.6	0.00e+00	0	35	0	2367684608	58	4179
2026-01-01 03:23:02.99	268.15	65.42	-46.6	-47.6	18.5	0.00e+00	0	35	0	2390753280	59	4043
2026-01-01 03:23:06.99	264.63	64.35	-46.7	-47.7	18.6	0.00e+00	0	35	0	2412773376	59	4068
2026-01-01 03:23:10.97	261.46	63.21	-46.9	-47.8	18.5	0.00e+00	0	35	0	2434793472	59	4141
2026-01-01 03:23:14.96	258.57	62.03	-47.4	-48.5	18.3	0.00e+00	0	35	0	2457862144	59	4442
2026-01-01 03:23:18.96	255.95	60.81	-46.9	-47.9	18.5	0.00e+00	0	35	0	2479882240	60	3937
2026-01-01 03:23:22.96	253.57	59.56	-46.9	-47.8	18.5	0.00e+00	0	35	0	2502950912	60	3908
2026-01-01 03:23:26.95	251.42	58.30	-47.1	-48.1	18.4	0.00e+00	0	35	0	2524971008	59	4252
2026-01-01 03:23:30.96	249.46	57.03	-47.5	-48.5	18.3	0.00e+00	0	35	0	2546991104	60	4198
2026-01-01 03:23:34.96	247.67	55.76	-47.5	-48.6	18.3	0.00e+00	0	35	0	2570059776	60	4265
2026-01-01 03:23:38.94	246.05	54.50	-47.4	-48.5	18.3	0.00e+00	0	34	0	2592079872	60	4195
2026-01-01 03:23:42.95	244.56	53.24	-47.3	-48.3	18.3	0.00e+00	0	35	0	2615148544	60	4119
2026-01-01 03:23:46.92	243.20	52.00	-47.3	-48.3	18.3	0.00e+00	0	35	0	2637168640	60	4138
2026-01-01 03:23:50.92	241.94	50.77	-47.3	-48.2	18.4	0.00e+00	0	35	0	2660237312	60	4097
2026-01-01 03:23:54.92	240.78	49.56	-47.6	-48.6	18.3	0.00e+00	0	35	0	2682257408	60	4270
2026-01-01 03:23:58.90	239.72	48.38	-47.0	-48.0	18.5	0.00e+00	0	35	0	2704277504	59	4200
2026-01-01 03:24:02.90	238.73	47.21	-47.0	-48.0	18.4	0.00e+00	0	35	0	2727346176	59	4222
2026-01-01 03:24:06.89	237.81	46.06	-47.3	-48.3	18.3	0.00e+00	0	35	0	2749366272	59	4361
2026-01-01 03:24:10.89	236.96	44.94	-47.1	-48.1	18.4	0.00e+00	0	35	0	2772434944	59	4244
2026-01-01 03:24:14.87	236.17	43.85	-46.7	-47.7	18.4	0.00e+00	0	35	0	2794455040	59	4095
2026-01-01 03:24:18.87	235.42	42.77	-46.7	-47.7	18.5	0.00e+00	0	35	0	2817523712	59	4064
2026-01-01 03:24:22.88	234.73	41.72	-46.9	-47.9	18.5	0.00e+00	0	34	0	2839543808	59	4189
2026-01-01 03:24:26.87	234.08	40.70	-46.6	-47.6	18.5	0.00e+00	0	34	0	2862612480	59	4031
2026-01-01 03:24:30.87	233.47	39.70	-46.3	-47.3	18.6	0.00e+00	0	35	0	2884632576	59	3877
2026-01-01 03:24:34.87	232.89	38.72	-46.4	-47.4	18.5	0.00e+00	0	35	0	2907701248	58	4190
2026-01-01 03:24:38.87	232.35	37.77	-46.4	-47.4	18.4	0.00e+00	0	34	0	2929721344	58	4183
2026-01-01 03:24:42.85	231.85	36.85	-46.8	-47.8	18.3	0.00e+00	0	35	0	2951741440	58	4352
2026-01-01 03:24:46.85	231.37	35.94	-46.8	-47.8	18.3	0.00e+00	0	35	0	2974810112	58	4390
2026-01-01 03:24:50.85	230.91	35.06	-47.0	-48.0	18.3	0.00e+00	0	35	0	2996830208	59	4221
2026-01-01 03:24:54.83	230.48	34.20	-47.0	-48.0	18.3	0.00e+00	0	34	0	3019898880	59	4240
2026-01-01 03:24:58.83	230.08	33.37	-46.6	-47.6	18.5	0.00e+00	0	35	0	3041918976	59	4010
2026-01-01 03:25:02.82	229.69	32.55	-46.7	-47.7	18.4	0.00e+00	0	35	0	3063939072	59	4075
2026-01-01 03:25:06.82	229.32	31.75	-46.7	-47.7	18.4	0.00e+00	0	35	0	3087007744	59	4081
2026-01-01 03:25:10.81	228.97	30.97	-46.8	-47.8	18.4	0.00e+00	0	35	0	3109027840	59	4120
2026-01-01 03:25:14.80	228.64	30.22	-46.7	-47.8	18.4	0.00e+00	0	35	0	3132096512	59	4102
2026-01-01 03:25:18.79	228.33	29.48	-46.7	-47.8	18.4	0.00e+00	0	35	0	3154116608	59	4099
2026-01-01 03:25:22.78	228.02	28.76	-46.8	-47.9	18.4	0.00e+00	0	35	0	3176136704	59	4146
2026-01-01 03:25:26.77	227.74	28.05	-46.8	-47.8	18.4	0.00e+00	0	35	0	3199205376	59	4134
2026-01-01 03:25:30.76	227.46	27.36	-47.1	-48.1	18.3	0.00e+00	0	35	0	3221225472	59	4252
2026-01-01 03:25:34.75	227.20	26.69	-47.1	-48.1	18.3	0.00e+00	0	35	0	3244294144	59	4278
2026-01-01 03:25:38.74	226.95	26.04	-47.2	-48.3	18.2	0.00e+00	0	35	0	3266314240	59	4359
2026-01-01 03:25:42.75	226.70	25.39	-47.1	-48.0	18.3	0.00e+00	0	35	0	3288334336	59	4239
2026-01-01 03:25:46.72	226.47	24.77	-47.2	-48.3	18.2	0.00e+00	0	35	0	3311403008	59	4342
2026-01-01 03:25:50.71	226.25	24.16	-47.1	-48.1	18.3	0.00e+00	0	35	0	3333423104	60	4038
2026-01-01 03:25:54.70	226.04	23.56	-47.4	-48.4	18.2	0.00e+00	0	35	0	3356491776	60	4190
2026-01-01 03:25:58.69	225.83	22.97	-47.5	-48.6	18.1	0.00e+00	0	34	0	3378511872	60	4262
2026-01-01 03:26:02.68	225.64	22.40	-47.2	-48.2	18.2	0.00e+00	0	35	0	3400531968	60	4097
2026-01-01 03:26:06.67	225.45	21.84	-47.2	-48.2	18.2	0.00e+00	0	35	0	3423600640	60	4095
2026-01-01 03:26:10.65	225.26	21.29	-47.3	-48.3	18.2	0.00e+00	0	35	0	3445620736	60	4130
2026-01-01 03:26:14.64	225.09	20.75	-47.4	-48.5	18.2	0.00e+00	0	34	0	3468689408	60	4197
2026-01-01 03:26:18.62	224.92	20.23	-47.6	-48.7	18.1	0.00e+00	0	35	0	3490709504	60	4303
2026-01-01 03:26:22.62	224.76	19.71	-47.8	-48.8	18.1	0.00e+00	0	35	0	3513778176	60	4385
2026-01-01 03:26:26.61	224.60	19.21	-47.9	-48.9	18.0	0.00e+00	0	34	0	3535798272	60	4433
2026-01-01 03:26:30.59	224.45	18.71	-47.9	-49.0	18.0	0.00e+00	0	35	0	3557818368	60	4446
2026-01-01 03:26:34.59	224.30	18.22	-48.0	-49.1	18.0	0.00e+00	0	35	0	3580887040	61	4257
2026-01-01 03:26:38.60	224.16	17.74	-48.2	-49.3	17.9	0.00e+00	0	35	0	3602907136	61	4344
2026-01-01 03:26:42.61	224.02	17.27	-48.3	-49.3	17.9	0.00e+00	0	35	0	3625975808	61	4389
2026-01-01 03:26:46.60	223.89	16.81	-48.5	-49.6	17.8	0.00e+00	0	35	0	3647995904	62	4252
2026-01-01 03:26:50.59	223.76	16.36	-48.6	-49.7	17.8	0.00e+00	0	35	0	3670016000	62	4312
2026-01-01 03:26:54.58	223.64	15.92	-48.7	-49.9	17.8	0.00e+00	0	35	0	3693084672	62	4398
2026-01-01 03:26:58.58	223.52	15.48	-48.9	-50.1	17.7	0.00e+00	0	35	0	3715104768	62	4500
2026-01-01 03:27:02.57	223.40	15.05	-49.0	-50.1	17.7	0.00e+00	0	34	0	3738173440	63	4266
2026-01-01 03:27:06.55	223.29	14.63	-49.0	-50.2	17.7	0.00e+00	0	34	0	3760193536	63	4293
2026-01-01 03:27:10.56	223.18	14.22	-49.2	-50.3	17.6	0.00e+00	0	35	0	3782213632	63	4374
2026-01-01 03:27:14.55	223.08	13.81	-49.3	-50.4	17.6	0.00e+00	0	34	0	3805282304	63	4440
2026-01-01 03:27:18.54	222.97	13.41	-49.4	-50.5	17.5	0.00e+00	0	34	0	3827302400	63	4489
2026-01-01 03:27:22.53	222.87	13.02	-49.3	-50.5	17.5	0.00e+00	0	34	0	3850371072	64	4224
2026-01-01 03:27:26.53	222.78	12.63	-49.3	-50.5	17.5	0.00e+00	0	35	0	3872391168	64	4215
2026-01-01 03:27:30.54	222.68	12.25	-49.3	-50.5	17.5	0.00e+00	0	35	0	3895459840	64	4225
2026-01-01 03:27:34.54	222.59	11.87	-49.3	-50.5	17.5	0.00e+00	0	35	0	3917479936	64	4202
2026-01-01 03:27:38.56	222.50	11.50	-49.4	-50.5	17.5	0.00e+00	0	34	0	3940548608	64	4228
2026-01-01 03:27:42.56	222.42	11.13	-49.6	-50.7	17.4	0.00e+00	0	35	0	3962568704	64	4326
2026-01-01 03:27:46.57	222.33	10.77	-49.5	-50.6	17.4	0.00e+00	0	35	0	3985637376	64	4275
2026-01-01 03:27:50.57	222.25	10.41	-49.6	-50.7	17.4	0.00e+00	0	35	0	4007657472	64	4330
2026-01-01 03:27:54.56	222.18	10.06	-49.6	-50.8	17.3	0.00e+00	0	35	0	4030726144	64	4367
2026-01-01 03:27:58.55	222.10	9.72	-49.9	-51.1	17.2	0.00e+00	0	35	0	4052746240	64	4526
2026-01-01 03:28:02.55	222.02	9.38	-50.0	-51.2	17.2	0.00e+00	0	35	0	4074766336	65	4303
2026-01-01 03:28:06.53	221.95	9.05	-50.0	-51.2	17.1	0.00e+00	0	35	0	4097835008	65	4309
2026-01-01 03:28:10.53	221.88	8.71	-50.1	-51.3	17.0	0.00e+00	0	35	0	4119855104	65	4387
2026-01-01 03:28:14.54	221.81	8.38	-50.4	-51.7	16.9	0.00e+00	0	35	0	4142923776	65	4562
2026-01-01 03:28:18.54	221.75	8.06	-50.4	-51.7	16.9	0.00e+00	0	35	0	4164943872	66	4329
2026-01-01 03:28:22.53	221.68	7.74	-50.5	-51.8	16.9	0.00e+00	0	35	0	4188012544	66	4367
2026-01-01 03:28:26.52	221.62	7.43	-50.6	-52.0	16.8	0.00e+00	0	35	0	4210032640	66	4442
2026-01-01 03:28:30.52	221.55	7.12	-50.7	-52.1	16.7	0.00e+00	0	35	0	4233101312	66	4506
2026-01-01 03:28:34.50	221.49	6.81	-50.8	-52.2	16.6	0.00e+00	0	35	0	4255121408	66	4563
2026-01-01 03:28:38.50	221.44	6.51	-50.9	-52.3	16.6	0.00e+00	0	35	0	4277141504	67	4350
2026-01-01 03:28:42.50	221.38	6.21	-51.0	-52.4	16.4	0.00e+00	0	35	0	4300210176	67	4419
2026-01-01 03:28:46.50	221.32	5.91	-51.1	-52.4	16.4	0.00e+00	0	35	0	4322230272	67	4438
2026-01-01 03:28:50.49	221.27	5.62	-51.1	-52.5	16.4	0.00e+00	0	35	0	4345298944	67	4476
2026-01-01 03:28:54.48	221.22	5.33	-51.6	-53.1	16.1	0.00e+00	0	35	0	4367319040	68	4498
2026-01-01 03:28:58.47	221.16	5.04	-51.5	-53.0	16.1	0.00e+00	0	35	0	4390387712	68	4466
2026-01-01 03:29:02.47	221.11	4.75	-61.3	-74.3	3.8	8.46e-01	0	35	104	4396679168	87	17396
2026-01-01 03:29:06.45	221.06	4.47	-61.7	-74.7	3.8	8.45e-01	0	35	104	4396679168	88	17206
2026-01-01 03:29:10.45	221.02	4.19	-61.9	-74.9	3.8	8.46e-01	0	35	104	4396679168	89	16663
2026-01-01 03:29:14.45	220.97	3.92	-62.0	-75.1	3.8	8.46e-01	0	35	104	4396679168	89	16950
2026-01-01 03:29:18.45	220.92	3.65	-62.1	-75.1	3.8	8.46e-01	0	35	104	4396679168	89	17067
2026-01-01 03:29:22.48	220.88	3.37	-62.1	-75.1	3.8	8.46e-01	0	35	104	4396679168	89	17013
2026-01-01 03:29:26.46	220.83	3.11	-62.0	-75.1	3.8	8.48e-01	0	35	104	4396679168	89	16898
2026-01-01 03:29:30.47	220.79	2.84	-62.0	-75.0	3.8	8.46e-01	0	35	104	4396679168	89	16823
2026-01-01 03:29:34.44	220.75	2.58	-61.9	-75.0	3.8	8.46e-01	0	35	104	4396679168	89	16733
2026-01-01 03:29:38.44	220.71	2.32	-61.9	-74.9	3.8	8.47e-01	0	35	104	4396679168	89	16668
2026-01-01 03:29:42.44	220.67	2.06	-61.9	-75.0	3.8	8.46e-01	0	35	104	4396679168	89	16695

#Closed at: 2026-01-01 03:29:44
#Recorded file [4396 MB]: D:/lorett/data/31004_260101_061523.dat