passes_logs/2026/01/01/R3.2S_Murmansk/R3.2S_Murmansk__20260101_000355_NOAA_21_JPSS-2_rec.log

#Pass ID: 20260101_000355_NOAA 21 (JPSS-2)
#Satellite: NOAA 21 (JPSS-2)
#Configuration: NOAA-21
#almurnet v.1.7.20251203
#Start time: 2026-01-01 00:03:55

#Version: 2.2.20231116
#Station: R3.2S_Murmansk
#Location: 33.079688 lon 68.888172 lat
#TLE: 1 54234U 22150A   25365.56321383  .00000202  00000+0  11656-3 0  9995
#TLE: 2 54234  98.7483 301.6387 0001318 355.6519   4.4646 14.19530385162769

#Time	Az	El	Level	Level2	SNR	BER	BlckErr	Temp	State	Recorded	gain1	gain2
2026-01-01 00:03:55.00	22.37	1.99	-60.0	-73.5	3.8	1.49e+00	0	33	0	0	86	16776
2026-01-01 00:03:59.00	22.45	2.24	-60.0	-73.3	3.8	1.49e+00	0	33	104	0	85	17432
2026-01-01 00:04:02.99	22.53	2.50	-60.0	-73.0	3.8	1.49e+00	0	34	104	0	85	16836
2026-01-01 00:04:07.00	22.62	2.76	-60.0	-72.8	3.8	1.49e+00	0	34	104	0	85	16482
2026-01-01 00:04:11.00	22.70	3.02	-59.9	-72.2	3.8	1.49e+00	0	34	104	0	85	15288
2026-01-01 00:04:14.99	22.79	3.28	-59.7	-70.3	3.9	1.46e+00	0	34	104	0	85	12281
2026-01-01 00:04:18.99	22.88	3.55	-59.6	-69.6	4.0	1.03e+00	0	34	104	0	85	11381
2026-01-01 00:04:22.97	22.97	3.81	-59.4	-67.5	5.4	5.74e-01	0	34	0	2097152	85	8948
2026-01-01 00:04:26.96	23.06	4.08	-57.8	-62.3	9.6	9.01e-03	0	34	0	14680064	82	5845
2026-01-01 00:04:30.95	23.15	4.35	-55.9	-58.7	12.8	1.14e-05	0	34	0	27262976	78	4855
2026-01-01 00:04:34.93	23.24	4.63	-55.2	-57.5	13.7	0.00e+00	0	34	0	39845888	76	4756
2026-01-01 00:04:38.93	23.34	4.91	-55.5	-58.0	13.4	7.00e-07	0	34	0	52428800	76	5009
2026-01-01 00:04:42.92	23.44	5.19	-56.5	-59.6	12.0	2.20e-06	0	34	0	65011712	78	5392
2026-01-01 00:04:46.91	23.53	5.47	-54.1	-56.0	14.8	2.82e-05	0	34	0	77594624	74	4475
2026-01-01 00:04:50.91	23.63	5.76	-53.6	-55.4	15.3	0.00e+00	0	34	0	89128960	73	4419
2026-01-01 00:04:54.90	23.73	6.05	-53.7	-55.5	15.2	0.00e+00	0	34	0	101711872	73	4468
2026-01-01 00:04:58.89	23.84	6.34	-53.5	-55.2	15.5	0.00e+00	0	34	0	114294784	73	4328
2026-01-01 00:05:02.88	23.94	6.64	-53.3	-55.0	15.6	0.00e+00	0	34	0	126877696	73	4230
2026-01-01 00:05:06.87	24.05	6.94	-53.2	-54.9	15.7	0.00e+00	0	35	0	139460608	73	4175
2026-01-01 00:05:10.87	24.16	7.24	-53.2	-54.9	15.7	0.00e+00	0	34	0	152043520	72	4411
2026-01-01 00:05:14.85	24.27	7.55	-53.0	-54.6	15.9	0.00e+00	0	35	0	164626432	72	4263
2026-01-01 00:05:18.84	24.38	7.86	-53.1	-54.8	15.8	0.00e+00	0	35	0	177209344	72	4346
2026-01-01 00:05:22.84	24.49	8.17	-52.7	-54.3	16.1	0.00e+00	0	35	0	189792256	72	4123
2026-01-01 00:05:26.82	24.61	8.49	-52.8	-54.3	16.2	0.00e+00	0	35	0	201326592	72	4141
2026-01-01 00:05:30.80	24.73	8.81	-52.6	-54.1	16.2	0.00e+00	0	35	0	213909504	71	4278
2026-01-01 00:05:34.78	24.85	9.13	-52.5	-53.9	16.4	0.00e+00	0	35	0	226492416	71	4188
2026-01-01 00:05:38.75	24.97	9.46	-52.3	-53.8	16.5	0.00e+00	0	35	0	239075328	71	4120
2026-01-01 00:05:42.76	25.09	9.80	-52.2	-53.7	16.5	0.00e+00	0	35	0	251658240	71	4053
2026-01-01 00:05:46.76	25.22	10.14	-52.2	-53.6	16.6	0.00e+00	0	35	0	264241152	70	4265
2026-01-01 00:05:50.75	25.35	10.48	-52.1	-53.5	16.7	0.00e+00	0	35	0	276824064	70	4231
2026-01-01 00:05:54.74	25.48	10.83	-52.0	-53.4	16.7	0.00e+00	0	35	0	289406976	70	4182
2026-01-01 00:05:58.75	25.62	11.19	-52.0	-53.4	16.7	0.00e+00	0	35	0	301989888	70	4160
2026-01-01 00:06:02.74	25.76	11.54	-51.8	-53.2	16.9	0.00e+00	0	35	0	313524224	70	4058
2026-01-01 00:06:06.75	25.90	11.91	-51.7	-53.0	16.9	0.00e+00	0	35	0	326107136	69	4229
2026-01-01 00:06:10.75	26.05	12.28	-51.6	-52.9	17.0	0.00e+00	0	35	0	338690048	69	4160
2026-01-01 00:06:14.72	26.19	12.65	-51.5	-52.8	17.1	0.00e+00	0	35	0	351272960	69	4129
2026-01-01 00:06:18.72	26.34	13.03	-51.5	-52.8	17.0	0.00e+00	0	35	0	363855872	69	4136
2026-01-01 00:06:22.71	26.50	13.42	-51.4	-52.7	17.1	0.00e+00	0	35	0	376438784	69	4086
2026-01-01 00:06:26.69	26.66	13.81	-51.3	-52.6	17.2	0.00e+00	0	35	0	389021696	69	4031
2026-01-01 00:06:30.66	26.82	14.21	-51.2	-52.4	17.3	0.00e+00	0	35	0	401604608	69	3958
2026-01-01 00:06:34.65	26.98	14.61	-51.2	-52.5	17.2	0.00e+00	0	35	0	414187520	68	4196
2026-01-01 00:06:38.63	27.15	15.02	-51.5	-52.8	17.1	0.00e+00	0	35	0	425721856	68	4352
2026-01-01 00:06:42.61	27.33	15.44	-51.4	-52.7	17.2	0.00e+00	0	35	0	438304768	68	4325
2026-01-01 00:06:46.61	27.51	15.87	-51.4	-52.7	17.2	0.00e+00	0	35	0	450887680	68	4303
2026-01-01 00:06:50.60	27.69	16.30	-51.4	-52.7	17.2	0.00e+00	0	35	0	463470592	68	4293
2026-01-01 00:06:54.59	27.88	16.74	-51.5	-52.7	17.2	0.00e+00	0	35	0	476053504	68	4340
2026-01-01 00:06:58.57	28.07	17.19	-51.6	-53.0	17.1	0.00e+00	0	35	0	488636416	68	4443
2026-01-01 00:07:02.55	28.27	17.64	-51.7	-53.0	17.1	0.00e+00	0	35	0	501219328	68	4460
2026-01-01 00:07:06.53	28.48	18.11	-51.6	-52.9	17.1	0.00e+00	0	35	0	513802240	68	4427
2026-01-01 00:07:10.52	28.69	18.58	-51.6	-52.9	17.1	0.00e+00	0	35	0	526385152	68	4430
2026-01-01 00:07:14.52	28.90	19.07	-51.6	-52.9	17.2	0.00e+00	0	35	0	537919488	68	4392
2026-01-01 00:07:18.51	29.13	19.56	-51.4	-52.7	17.3	0.00e+00	0	35	0	550502400	68	4302
2026-01-01 00:07:22.50	29.36	20.06	-51.2	-52.4	17.4	0.00e+00	0	35	0	563085312	68	4171
2026-01-01 00:07:26.47	29.59	20.57	-51.0	-52.2	17.4	0.00e+00	0	35	0	575668224	68	4088
2026-01-01 00:07:30.45	29.84	21.09	-50.6	-51.8	17.5	0.00e+00	0	35	0	588251136	67	4112
2026-01-01 00:07:34.43	30.09	21.62	-50.2	-51.4	17.7	0.00e+00	0	35	0	600834048	66	4148
2026-01-01 00:07:38.44	30.35	22.16	-50.2	-51.3	17.7	0.00e+00	0	35	0	613416960	66	4137
2026-01-01 00:07:42.43	30.62	22.72	-50.0	-51.1	17.8	0.00e+00	0	35	0	625999872	66	4042
2026-01-01 00:07:46.43	30.90	23.28	-49.9	-51.1	17.8	0.00e+00	0	35	0	637534208	66	4015
2026-01-01 00:07:50.43	31.18	23.86	-50.1	-51.2	17.8	0.00e+00	0	35	0	650117120	66	4096
2026-01-01 00:07:54.42	31.48	24.45	-50.1	-51.3	17.8	0.00e+00	0	35	0	662700032	66	4120
2026-01-01 00:07:58.42	31.79	25.06	-50.3	-51.5	17.7	0.00e+00	0	35	0	675282944	66	4212
2026-01-01 00:08:02.41	32.11	25.67	-50.4	-51.6	17.7	0.00e+00	0	35	0	687865856	66	4257
2026-01-01 00:08:06.43	32.45	26.31	-50.8	-52.1	17.5	0.00e+00	0	35	0	700448768	66	4503
2026-01-01 00:08:10.42	32.79	26.95	-51.2	-52.5	17.4	0.00e+00	0	35	0	713031680	67	4464
2026-01-01 00:08:14.43	33.15	27.61	-51.4	-52.7	17.3	0.00e+00	0	35	0	725614592	67	4563
2026-01-01 00:08:18.42	33.53	28.29	-51.6	-52.9	17.3	0.00e+00	0	35	0	738197504	68	4397
2026-01-01 00:08:22.43	33.92	28.98	-51.6	-52.9	17.3	0.00e+00	0	35	0	750780416	68	4403
2026-01-01 00:08:26.42	34.33	29.68	-51.5	-52.7	17.4	0.00e+00	0	35	0	763363328	68	4323
2026-01-01 00:08:30.42	34.75	30.41	-51.1	-52.4	17.5	0.00e+00	0	35	0	775946240	68	4157
2026-01-01 00:08:34.42	35.19	31.15	-50.8	-52.0	17.7	0.00e+00	0	35	0	788529152	68	3994
2026-01-01 00:08:38.41	35.66	31.90	-50.9	-52.1	17.7	0.00e+00	0	35	0	800063488	68	4015
2026-01-01 00:08:42.40	36.14	32.68	-51.6	-52.8	17.4	0.00e+00	0	35	0	812646400	68	4376
2026-01-01 00:08:46.40	36.65	33.47	-51.7	-52.9	17.3	0.00e+00	0	35	0	825229312	68	4428
2026-01-01 00:08:50.39	37.18	34.28	-51.7	-53.0	17.3	0.00e+00	0	35	0	837812224	68	4469
2026-01-01 00:08:54.39	37.74	35.11	-52.5	-53.8	16.9	0.00e+00	0	35	0	850395136	70	4379
2026-01-01 00:08:58.38	38.32	35.96	-52.9	-54.4	16.7	0.00e+00	0	35	0	862978048	71	4403
2026-01-01 00:09:02.38	38.94	36.83	-53.1	-54.6	16.6	0.00e+00	0	35	0	875560960	71	4514
2026-01-01 00:09:06.36	39.59	37.72	-53.6	-55.1	16.3	0.00e+00	0	35	0	888143872	72	4516
2026-01-01 00:09:10.34	40.28	38.63	-53.6	-55.2	16.3	0.00e+00	0	35	0	900726784	72	4571
2026-01-01 00:09:14.33	41.00	39.56	-53.2	-54.7	16.5	0.00e+00	0	35	0	912261120	72	4328
2026-01-01 00:09:18.32	41.77	40.51	-53.3	-54.7	16.6	0.00e+00	0	35	0	924844032	72	4326
2026-01-01 00:09:22.32	42.58	41.48	-53.4	-54.8	16.5	0.00e+00	0	35	0	937426944	72	4390
2026-01-01 00:09:26.31	43.45	42.47	-53.2	-54.7	16.6	0.00e+00	0	35	0	950009856	72	4318
2026-01-01 00:09:30.31	44.37	43.48	-53.8	-55.3	16.2	0.00e+00	0	35	0	962592768	72	4650
2026-01-01 00:09:34.29	45.34	44.50	-53.7	-55.2	16.3	0.00e+00	0	35	0	975175680	73	4320
2026-01-01 00:09:38.29	46.38	45.55	-53.1	-54.5	16.7	0.00e+00	0	35	0	987758592	72	4205
2026-01-01 00:09:42.28	47.49	46.61	-54.1	-55.8	16.1	0.00e+00	0	35	0	1000341504	73	4617
2026-01-01 00:09:46.27	48.68	47.69	-53.5	-55.1	16.4	0.00e+00	0	35	0	1012924416	73	4244
2026-01-01 00:09:50.28	49.96	48.79	-53.3	-54.8	16.6	0.00e+00	0	35	0	1025507328	72	4348
2026-01-01 00:09:54.27	51.33	49.89	-54.1	-55.7	16.0	0.00e+00	0	35	0	1038090240	73	4598
2026-01-01 00:09:58.26	52.79	51.00	-52.9	-54.3	16.9	0.00e+00	0	35	0	1049624576	72	4112
2026-01-01 00:10:02.24	54.37	52.12	-52.3	-53.6	17.2	0.00e+00	0	35	0	1062207488	70	4260
2026-01-01 00:10:06.23	56.07	53.24	-51.6	-52.9	17.5	0.00e+00	0	35	0	1074790400	69	4151
2026-01-01 00:10:10.21	57.90	54.35	-51.5	-52.8	17.5	0.00e+00	0	35	0	1087373312	68	4359
2026-01-01 00:10:14.18	59.88	55.46	-51.1	-52.3	17.7	0.00e+00	0	35	0	1099956224	68	4117
2026-01-01 00:10:18.17	62.02	56.55	-50.4	-51.6	17.9	0.00e+00	0	35	0	1112539136	66	4247
2026-01-01 00:10:22.18	64.35	57.64	-50.7	-51.8	17.7	0.00e+00	0	35	0	1125122048	66	4379
2026-01-01 00:10:26.17	66.86	58.69	-50.1	-51.2	18.0	0.00e+00	0	35	0	1137704960	66	4074
2026-01-01 00:10:30.15	69.56	59.70	-50.3	-51.4	17.9	0.00e+00	0	35	0	1150287872	66	4180
2026-01-01 00:10:34.14	72.48	60.67	-49.6	-50.6	18.1	0.00e+00	0	35	0	1161822208	65	4036
2026-01-01 00:10:38.12	75.62	61.58	-49.8	-50.9	18.1	0.00e+00	0	35	0	1174405120	65	4149
2026-01-01 00:10:42.10	78.99	62.43	-49.7	-50.8	18.0	0.00e+00	0	35	0	1186988032	65	4116
2026-01-01 00:10:46.10	82.61	63.19	-49.3	-50.3	18.2	0.00e+00	0	35	0	1199570944	65	3909
2026-01-01 00:10:50.07	86.42	63.86	-50.0	-51.2	18.0	0.00e+00	0	35	0	1212153856	65	4294
2026-01-01 00:10:54.08	90.49	64.44	-49.6	-50.7	18.1	0.00e+00	0	35	0	1224736768	65	4065
2026-01-01 00:10:58.08	94.73	64.90	-49.3	-50.3	18.3	0.00e+00	0	35	0	1237319680	65	3912
2026-01-01 00:11:02.08	99.12	65.23	-50.0	-51.2	18.0	0.00e+00	0	35	0	1249902592	65	4293
2026-01-01 00:11:06.07	103.61	65.43	-49.8	-50.9	18.1	0.00e+00	0	35	0	1262485504	65	4163
2026-01-01 00:11:10.07	108.16	65.49	-49.6	-50.7	18.1	0.00e+00	0	35	0	1274019840	65	4062
2026-01-01 00:11:14.05	112.69	65.42	-50.7	-51.9	17.8	0.00e+00	0	35	0	1286602752	66	4414
2026-01-01 00:11:18.05	117.18	65.20	-49.5	-50.5	18.2	0.00e+00	0	35	0	1299185664	65	4004
2026-01-01 00:11:22.05	121.56	64.86	-49.7	-50.8	18.1	0.00e+00	0	35	0	1311768576	65	4128
2026-01-01 00:11:26.04	125.78	64.39	-50.6	-51.7	17.8	0.00e+00	0	35	0	1324351488	66	4322
2026-01-01 00:11:30.04	129.82	63.81	-50.0	-51.1	18.0	0.00e+00	0	35	0	1336934400	66	4005
2026-01-01 00:11:34.05	133.65	63.12	-49.4	-50.5	18.2	0.00e+00	0	35	0	1349517312	65	3976
2026-01-01 00:11:38.05	137.25	62.35	-50.9	-52.1	17.7	0.00e+00	0	35	0	1362100224	66	4494
2026-01-01 00:11:42.03	140.61	61.49	-49.1	-50.1	18.3	0.00e+00	0	35	0	1374683136	64	4014
2026-01-01 00:11:46.03	143.74	60.57	-50.9	-52.1	17.7	0.00e+00	0	35	0	1387266048	67	4259
2026-01-01 00:11:50.02	146.65	59.59	-49.5	-50.6	18.2	0.00e+00	0	35	0	1398800384	65	4006
2026-01-01 00:11:54.02	149.34	58.57	-50.8	-51.9	17.7	0.00e+00	0	35	0	1411383296	68	3954
2026-01-01 00:11:58.03	151.84	57.51	-51.1	-52.3	17.6	0.00e+00	0	35	0	1423966208	67	4380
2026-01-01 00:12:02.03	154.15	56.42	-51.2	-52.4	17.5	0.00e+00	0	35	0	1436549120	69	3954
2026-01-01 00:12:06.03	156.28	55.32	-52.6	-54.0	16.7	0.00e+00	0	35	0	1449132032	70	4442
2026-01-01 00:12:10.03	158.26	54.20	-52.4	-53.7	16.7	0.00e+00	0	35	0	1461714944	71	4094
2026-01-01 00:12:14.03	160.08	53.07	-52.0	-53.2	17.4	0.00e+00	0	35	0	1474297856	70	4088
2026-01-01 00:12:18.03	161.77	51.95	-52.5	-53.9	16.4	0.00e+00	0	35	0	1486880768	70	4400
2026-01-01 00:12:22.03	163.34	50.82	-52.8	-54.2	16.9	0.00e+00	0	35	0	1499463680	70	4559
2026-01-01 00:12:26.02	164.80	49.71	-54.3	-56.0	16.0	0.00e+00	0	35	0	1512046592	73	4720
2026-01-01 00:12:30.02	166.16	48.60	-53.2	-54.6	16.7	0.00e+00	0	35	0	1524629504	72	4244
2026-01-01 00:12:34.03	167.42	47.50	-54.7	-56.5	15.7	0.00e+00	0	35	0	1537212416	74	4711
2026-01-01 00:12:38.01	168.60	46.43	-53.7	-55.2	16.4	0.00e+00	0	35	0	1549795328	73	4300
2026-01-01 00:12:41.99	169.70	45.37	-53.8	-55.3	16.3	0.00e+00	0	35	0	1561329664	73	4367
2026-01-01 00:12:46.01	170.74	44.31	-54.4	-56.1	15.9	0.00e+00	0	35	0	1573912576	73	4767
2026-01-01 00:12:49.99	171.70	43.29	-54.0	-55.6	16.1	0.00e+00	0	35	0	1586495488	74	4249
2026-01-01 00:12:53.98	172.61	42.28	-54.0	-55.6	16.2	0.00e+00	0	35	0	1599078400	73	4497
2026-01-01 00:12:57.96	173.47	41.29	-53.0	-54.5	16.8	0.00e+00	0	35	0	1611661312	72	4195
2026-01-01 00:13:01.95	174.27	40.32	-53.0	-54.5	16.8	0.00e+00	0	35	0	1624244224	72	4194
2026-01-01 00:13:05.95	175.04	39.37	-53.9	-55.5	16.2	0.00e+00	0	35	0	1636827136	73	4467
2026-01-01 00:13:09.94	175.75	38.44	-53.2	-54.7	16.6	0.00e+00	0	36	0	1649410048	73	4076
2026-01-01 00:13:13.92	176.43	37.54	-53.1	-54.6	16.5	0.00e+00	0	35	0	1661992960	72	4244
2026-01-01 00:13:17.92	177.08	36.64	-52.0	-53.3	17.3	0.00e+00	0	36	0	1673527296	70	4103
2026-01-01 00:13:21.92	177.70	35.77	-51.7	-53.0	17.4	0.00e+00	0	35	0	1686110208	70	3964
2026-01-01 00:13:25.90	178.28	34.93	-52.0	-53.2	17.2	0.00e+00	0	35	0	1698693120	70	4097
2026-01-01 00:13:29.91	178.83	34.09	-52.5	-53.9	17.0	0.00e+00	0	36	0	1711276032	70	4419
2026-01-01 00:13:33.90	179.36	33.28	-52.9	-54.4	16.7	0.00e+00	0	35	0	1723858944	71	4412
2026-01-01 00:13:37.87	179.86	32.49	-52.8	-54.2	16.8	0.00e+00	0	35	0	1736441856	71	4333
2026-01-01 00:13:41.86	180.34	31.72	-51.2	-52.4	17.6	0.00e+00	0	36	0	1749024768	68	4157
2026-01-01 00:13:45.85	180.80	30.96	-50.9	-52.1	17.7	0.00e+00	0	35	0	1761607680	68	4008
2026-01-01 00:13:49.84	181.24	30.23	-51.1	-52.2	17.6	0.00e+00	0	35	0	1774190592	68	4096
2026-01-01 00:13:53.82	181.66	29.51	-51.6	-52.8	17.4	0.00e+00	0	35	0	1785724928	68	4370
2026-01-01 00:13:57.80	182.06	28.80	-51.9	-53.3	17.2	0.00e+00	0	36	0	1798307840	69	4343
2026-01-01 00:14:01.79	182.45	28.11	-51.9	-53.3	17.2	0.00e+00	0	35	0	1810890752	69	4346
2026-01-01 00:14:05.79	182.82	27.44	-51.6	-52.9	17.4	0.00e+00	0	36	0	1823473664	69	4160
2026-01-01 00:14:09.78	183.17	26.78	-51.4	-52.6	17.5	0.00e+00	0	35	0	1836056576	69	4033
2026-01-01 00:14:13.77	183.52	26.13	-50.9	-52.0	17.7	0.00e+00	0	35	0	1848639488	68	3992
2026-01-01 00:14:17.75	183.85	25.51	-50.0	-51.1	18.0	0.00e+00	0	35	0	1861222400	66	4041
2026-01-01 00:14:21.74	184.16	24.89	-50.3	-51.4	17.9	0.00e+00	0	35	0	1873805312	66	4169
2026-01-01 00:14:25.73	184.47	24.29	-50.4	-51.6	17.8	0.00e+00	0	35	0	1885339648	66	4269
2026-01-01 00:14:29.73	184.77	23.69	-50.7	-51.8	17.7	0.00e+00	0	35	0	1897922560	66	4383
2026-01-01 00:14:33.72	185.05	23.12	-50.7	-51.9	17.7	0.00e+00	0	35	0	1910505472	66	4435
2026-01-01 00:14:37.71	185.33	22.55	-50.8	-52.0	17.7	0.00e+00	0	35	0	1923088384	67	4201
2026-01-01 00:14:41.69	185.59	22.00	-50.9	-52.2	17.6	0.00e+00	0	35	0	1935671296	67	4307
2026-01-01 00:14:45.67	185.85	21.46	-51.0	-52.2	17.6	0.00e+00	0	35	0	1948254208	67	4322
2026-01-01 00:14:49.67	186.10	20.92	-51.0	-52.3	17.6	0.00e+00	0	35	0	1960837120	67	4354
2026-01-01 00:14:53.66	186.34	20.40	-50.9	-52.1	17.6	0.00e+00	0	35	0	1973420032	67	4262
2026-01-01 00:14:57.64	186.58	19.89	-51.0	-52.2	17.6	0.00e+00	0	36	0	1986002944	67	4315
2026-01-01 00:15:01.62	186.80	19.39	-51.0	-52.2	17.5	0.00e+00	0	35	0	1997537280	67	4322
2026-01-01 00:15:05.62	187.03	18.90	-50.9	-52.1	17.6	0.00e+00	0	35	0	2010120192	67	4290
2026-01-01 00:15:09.62	187.24	18.41	-50.9	-52.1	17.6	0.00e+00	0	35	0	2022703104	67	4275
2026-01-01 00:15:13.62	187.45	17.94	-51.0	-52.2	17.5	0.00e+00	0	35	0	2035286016	67	4327
2026-01-01 00:15:17.62	187.65	17.47	-51.1	-52.4	17.4	0.00e+00	0	35	0	2047868928	67	4410
2026-01-01 00:15:21.61	187.85	17.02	-51.0	-52.3	17.5	0.00e+00	0	35	0	2060451840	67	4359
2026-01-01 00:15:25.62	188.04	16.56	-51.4	-52.7	17.3	0.00e+00	0	35	0	2073034752	67	4561
2026-01-01 00:15:29.61	188.23	16.12	-51.3	-52.6	17.4	0.00e+00	0	35	0	2085617664	68	4254
2026-01-01 00:15:33.60	188.41	15.69	-51.6	-52.8	17.3	0.00e+00	0	35	0	2098200576	68	4385
2026-01-01 00:15:37.61	188.58	15.26	-51.6	-52.9	17.3	0.00e+00	0	35	0	2110783488	68	4398
2026-01-01 00:15:41.60	188.76	14.84	-51.6	-52.9	17.3	0.00e+00	0	35	0	2123366400	68	4410
2026-01-01 00:15:45.59	188.92	14.43	-51.6	-53.0	17.3	0.00e+00	0	36	0	2134900736	68	4448
2026-01-01 00:15:49.58	189.09	14.03	-51.9	-53.2	17.1	0.00e+00	0	35	0	2147483648	68	4581
2026-01-01 00:15:53.58	189.25	13.63	-52.0	-53.4	17.0	0.00e+00	0	35	0	2160066560	69	4417
2026-01-01 00:15:57.60	189.40	13.23	-52.2	-53.6	16.9	0.00e+00	0	35	0	2172649472	69	4501
2026-01-01 00:16:01.59	189.56	12.85	-52.4	-53.8	16.8	0.00e+00	0	35	0	2185232384	69	4631
2026-01-01 00:16:05.59	189.70	12.46	-52.4	-53.8	16.8	0.00e+00	0	35	0	2197815296	70	4384
2026-01-01 00:16:09.60	189.85	12.09	-52.3	-53.7	16.9	0.00e+00	0	35	0	2210398208	70	4305
2026-01-01 00:16:13.60	189.99	11.72	-52.3	-53.7	16.8	0.00e+00	0	35	0	2222981120	70	4336
2026-01-01 00:16:17.61	190.13	11.35	-52.5	-53.9	16.7	0.00e+00	0	35	0	2235564032	70	4429
2026-01-01 00:16:21.61	190.27	10.99	-52.5	-54.0	16.7	0.00e+00	0	35	0	2248146944	70	4445
2026-01-01 00:16:25.59	190.40	10.64	-52.8	-54.3	16.5	0.00e+00	0	36	0	2260729856	70	4605
2026-01-01 00:16:29.58	190.53	10.29	-52.6	-54.0	16.6	0.00e+00	0	35	0	2273312768	70	4483
2026-01-01 00:16:33.59	190.66	9.95	-52.8	-54.3	16.4	0.00e+00	0	35	0	2285895680	70	4608
2026-01-01 00:16:37.58	190.78	9.61	-52.7	-54.2	16.5	0.00e+00	0	35	0	2297430016	70	4564
2026-01-01 00:16:41.57	190.90	9.27	-52.8	-54.4	16.4	0.00e+00	0	35	0	2310012928	70	4654
2026-01-01 00:16:45.57	191.02	8.94	-52.8	-54.3	16.4	0.00e+00	0	35	0	2322595840	70	4648
2026-01-01 00:16:49.55	191.14	8.62	-52.9	-54.5	16.2	0.00e+00	0	35	0	2335178752	71	4451
2026-01-01 00:16:53.54	191.26	8.29	-53.0	-54.6	16.2	0.00e+00	0	35	0	2347761664	71	4508
2026-01-01 00:16:57.53	191.37	7.98	-53.1	-54.8	16.1	0.00e+00	0	35	0	2360344576	71	4608
2026-01-01 00:17:01.51	191.48	7.66	-53.2	-54.8	16.0	0.00e+00	0	35	0	2372927488	71	4634
2026-01-01 00:17:05.50	191.59	7.35	-53.3	-55.0	15.9	0.00e+00	0	35	0	2385510400	71	4706
2026-01-01 00:17:09.48	191.70	7.05	-53.3	-55.0	15.9	0.00e+00	0	35	0	2397044736	71	4734
2026-01-01 00:17:13.46	191.80	6.74	-53.4	-55.1	15.7	0.00e+00	0	35	0	2409627648	72	4543
2026-01-01 00:17:17.35	191.90	6.45	-53.6	-55.3	15.6	0.00e+00	0	35	0	2422210560	72	4645
2026-01-01 00:17:21.28	192.00	6.16	-53.6	-55.4	15.5	0.00e+00	0	35	0	2434793472	72	4704
2026-01-01 00:17:25.28	192.10	5.86	-53.6	-55.5	15.4	0.00e+00	0	36	0	2447376384	72	4750
2026-01-01 00:17:29.27	192.20	5.57	-53.8	-55.7	15.3	0.00e+00	0	35	0	2459959296	72	4826
2026-01-01 00:17:33.25	192.29	5.29	-54.2	-56.2	14.8	0.00e+00	0	35	0	2472542208	73	4843
2026-01-01 00:17:37.21	192.39	5.01	-54.4	-56.4	14.8	0.00e+00	0	35	0	2484076544	73	4976
2026-01-01 00:17:41.21	192.48	4.73	-61.4	-75.2	3.8	1.49e+00	0	35	104	2486173696	87	19169
2026-01-01 00:17:45.20	192.57	4.45	-61.8	-75.5	3.8	1.49e+00	0	36	104	2486173696	88	18862
2026-01-01 00:17:49.17	192.66	4.17	-62.0	-75.8	3.8	1.49e+00	0	36	104	2486173696	89	18350
2026-01-01 00:17:53.15	192.75	3.90	-62.1	-75.9	3.8	1.49e+00	0	36	104	2486173696	89	18596
2026-01-01 00:17:57.16	192.84	3.63	-62.2	-75.9	3.8	1.49e+00	0	36	104	2486173696	89	18698
2026-01-01 00:18:01.18	192.93	3.36	-62.1	-75.9	3.8	1.49e+00	0	36	104	2486173696	89	18552
2026-01-01 00:18:05.18	193.01	3.10	-62.0	-75.8	3.8	1.49e+00	0	36	104	2486173696	89	18414
2026-01-01 00:18:09.20	193.09	2.83	-62.0	-75.8	3.8	1.49e+00	0	36	104	2486173696	89	18340
2026-01-01 00:18:13.18	193.18	2.57	-62.0	-75.8	3.8	1.49e+00	0	36	104	2486173696	89	18309
2026-01-01 00:18:17.17	193.26	2.31	-62.0	-75.7	3.8	1.49e+00	0	36	104	2486173696	89	18243
2026-01-01 00:18:21.16	193.34	2.06	-61.9	-75.7	3.8	1.49e+00	0	36	104	2486173696	89	18217

#Closed at: 2026-01-01 00:18:24
#Recorded file [2486 MB]: D:/lorett/data/31004_260101_030354.dat