passes_logs/2026/01/01/R3.2S_Murmansk/R3.2S_Murmansk__20260101_145646_FENGYUN_3D_rec.log

#Pass ID: 20260101_145646_FENGYUN 3D
#Satellite: FENGYUN 3D
#Configuration: FENGYUN 3D
#almurnet v.1.7.20251203
#Start time: 2026-01-01 14:56:46

#Version: 2.2.20231116
#Station: R3.2S_Murmansk
#Location: 33.079688 lon 68.888172 lat
#TLE: 1 43010U 17072A   26001.19005061  .00000535  00000+0  27473-3 0  9994
#TLE: 2 43010  98.9910 332.7942 0001852 133.6060 226.5269 14.19691635421296

#Time	Az	El	Level	Level2	SNR	BER	BlckErr	Temp	State	Recorded	gain1	gain2
2026-01-01 14:56:46.28	240.67	1.99	-59.3	-72.7	3.9	8.44e-01	0	31	0	0	84	17274
2026-01-01 14:56:49.32	240.96	2.13	-59.3	-72.6	3.9	8.43e-01	0	31	104	0	83	18065
2026-01-01 14:56:52.34	241.26	2.27	-59.2	-72.7	3.9	8.45e-01	0	32	104	0	83	18283
2026-01-01 14:56:55.37	241.57	2.40	-58.8	-72.5	3.9	8.41e-01	0	32	104	0	83	17804
2026-01-01 14:56:58.40	241.87	2.54	-60.0	-72.9	3.8	8.43e-01	0	32	104	0	85	16600
2026-01-01 14:57:01.42	242.18	2.68	-60.0	-73.0	3.8	8.46e-01	0	32	104	0	85	16800
2026-01-01 14:57:04.45	242.49	2.81	-60.0	-73.0	3.8	8.45e-01	0	32	104	0	85	16828
2026-01-01 14:57:07.46	242.80	2.95	-59.7	-72.8	3.9	8.46e-01	0	32	104	0	85	16421
2026-01-01 14:57:10.49	243.11	3.09	-59.7	-72.7	3.9	8.45e-01	0	32	104	0	85	16165
2026-01-01 14:57:13.51	243.43	3.22	-59.7	-72.8	3.8	8.45e-01	0	32	104	0	85	16317
2026-01-01 14:57:16.54	243.75	3.36	-59.6	-72.7	3.9	8.46e-01	0	32	104	0	85	16301
2026-01-01 14:57:19.57	244.08	3.49	-59.7	-72.8	3.8	8.43e-01	0	32	104	0	85	16459
2026-01-01 14:57:22.59	244.40	3.63	-59.8	-72.7	3.9	8.44e-01	0	32	104	0	85	16263
2026-01-01 14:57:25.62	244.73	3.77	-59.9	-72.6	3.8	8.45e-01	0	32	104	0	85	16123
2026-01-01 14:57:28.64	245.07	3.90	-59.9	-73.0	3.8	8.44e-01	0	32	104	0	85	16749
2026-01-01 14:57:31.66	245.40	4.04	-59.9	-72.9	3.8	8.45e-01	0	33	104	0	85	16533
2026-01-01 14:57:34.69	245.74	4.17	-59.9	-72.1	3.8	8.46e-01	0	33	104	0	85	15154
2026-01-01 14:57:37.71	246.08	4.31	-59.9	-72.4	3.8	8.47e-01	0	32	104	0	85	15648
2026-01-01 14:57:40.73	246.42	4.45	-59.8	-71.9	3.8	8.45e-01	0	33	104	0	85	14781
2026-01-01 14:57:43.76	246.77	4.58	-59.8	-72.8	3.8	8.47e-01	0	33	104	0	85	16389
2026-01-01 14:57:46.78	247.12	4.72	-59.5	-69.4	4.2	8.42e-01	0	33	0	0	85	11126
2026-01-01 14:57:49.81	247.48	4.85	-59.1	-66.6	5.4	7.42e-01	0	33	0	0	84	8503
2026-01-01 14:57:52.84	247.83	4.99	-56.9	-60.5	10.3	8.21e-03	0	33	0	15728640	80	5319
2026-01-01 14:57:55.86	248.19	5.12	-58.6	-64.9	6.6	1.72e-02	0	33	0	32505856	82	7815
2026-01-01 14:57:58.89	248.56	5.26	-52.1	-53.6	15.4	0.00e+00	0	33	0	49283072	69	4514
2026-01-01 14:58:01.92	248.93	5.39	-51.3	-52.7	15.8	0.00e+00	0	33	0	66060288	69	4087
2026-01-01 14:58:04.95	249.30	5.52	-51.2	-52.7	15.8	0.00e+00	0	33	0	83886080	68	4295
2026-01-01 14:58:07.97	249.67	5.66	-51.4	-52.8	15.7	0.00e+00	0	33	0	100663296	68	4380
2026-01-01 14:58:10.99	250.04	5.79	-51.4	-52.8	15.7	0.00e+00	0	33	0	117440512	68	4385
2026-01-01 14:58:14.02	250.42	5.92	-51.3	-52.7	15.8	0.00e+00	0	33	0	134217728	68	4326
2026-01-01 14:58:17.04	250.81	6.06	-50.8	-52.2	16.0	0.00e+00	0	33	0	152043520	68	4081
2026-01-01 14:58:20.07	251.19	6.19	-50.6	-51.9	16.1	0.00e+00	0	33	0	168820736	67	4191
2026-01-01 14:58:23.09	251.58	6.32	-50.6	-51.9	16.1	0.00e+00	0	33	0	185597952	67	4176
2026-01-01 14:58:26.12	251.98	6.45	-50.7	-52.1	16.1	0.00e+00	0	33	0	202375168	67	4243
2026-01-01 14:58:29.14	252.37	6.58	-50.7	-52.0	16.1	0.00e+00	0	33	0	220200960	67	4226
2026-01-01 14:58:32.16	252.77	6.71	-50.7	-52.1	16.1	0.00e+00	0	33	0	236978176	67	4244
2026-01-01 14:58:35.18	253.17	6.84	-50.6	-52.0	16.1	0.00e+00	0	33	0	253755392	67	4219
2026-01-01 14:58:38.21	253.58	6.97	-50.7	-52.1	16.1	0.00e+00	0	33	0	270532608	67	4277
2026-01-01 14:58:41.24	253.99	7.10	-50.7	-52.1	16.1	0.00e+00	0	33	0	287309824	67	4271
2026-01-01 14:58:44.26	254.41	7.23	-50.6	-51.9	16.2	0.00e+00	0	33	0	305135616	67	4188
2026-01-01 14:58:47.29	254.82	7.35	-50.4	-51.7	16.3	0.00e+00	0	33	0	321912832	67	4098
2026-01-01 14:58:50.31	255.24	7.48	-50.4	-51.7	16.3	0.00e+00	0	33	0	338690048	67	4080
2026-01-01 14:58:53.34	255.67	7.61	-50.3	-51.6	16.4	0.00e+00	0	33	0	355467264	67	4021
2026-01-01 14:58:56.36	256.10	7.73	-50.1	-51.4	16.4	0.00e+00	0	33	0	372244480	66	4164
2026-01-01 14:58:59.39	256.53	7.86	-50.3	-51.5	16.4	0.00e+00	0	33	0	390070272	66	4236
2026-01-01 14:59:02.41	256.96	7.98	-50.1	-51.3	16.5	0.00e+00	0	33	0	406847488	66	4132
2026-01-01 14:59:05.44	257.40	8.10	-50.1	-51.4	16.4	0.00e+00	0	33	0	423624704	66	4155
2026-01-01 14:59:08.47	257.84	8.23	-50.1	-51.4	16.4	0.00e+00	0	33	0	440401920	66	4155
2026-01-01 14:59:11.50	258.29	8.35	-49.9	-51.2	16.5	0.00e+00	0	33	0	458227712	66	4078
2026-01-01 14:59:14.52	258.74	8.47	-49.9	-51.2	16.5	0.00e+00	0	33	0	475004928	66	4065
2026-01-01 14:59:17.55	259.19	8.59	-49.9	-51.2	16.5	0.00e+00	0	33	0	491782144	66	4067
2026-01-01 14:59:20.58	259.65	8.71	-49.7	-50.9	16.6	0.00e+00	0	33	0	508559360	66	3953
2026-01-01 14:59:23.60	260.11	8.82	-49.7	-50.9	16.6	0.00e+00	0	33	0	526385152	66	3944
2026-01-01 14:59:26.62	260.57	8.94	-49.7	-51.0	16.6	0.00e+00	0	33	0	543162368	66	3964
2026-01-01 14:59:29.65	261.04	9.06	-49.8	-51.1	16.6	0.00e+00	0	33	0	559939584	66	4009
2026-01-01 14:59:32.66	261.51	9.17	-49.7	-51.0	16.6	0.00e+00	0	33	0	576716800	66	3967
2026-01-01 14:59:35.69	261.98	9.28	-49.6	-50.9	16.6	0.00e+00	0	33	0	594542592	65	4155
2026-01-01 14:59:38.72	262.46	9.39	-49.5	-50.8	16.7	0.00e+00	0	33	0	611319808	65	4099
2026-01-01 14:59:41.74	262.94	9.50	-49.5	-50.7	16.7	0.00e+00	0	33	0	628097024	65	4082
2026-01-01 14:59:44.77	263.42	9.61	-49.5	-50.8	16.7	0.00e+00	0	33	0	644874240	65	4108
2026-01-01 14:59:47.80	263.91	9.72	-49.6	-50.9	16.7	0.00e+00	0	33	0	661651456	65	4159
2026-01-01 14:59:50.83	264.41	9.83	-49.6	-50.9	16.7	0.00e+00	0	34	0	679477248	65	4150
2026-01-01 14:59:53.85	264.90	9.93	-49.7	-50.9	16.6	0.00e+00	0	34	0	696254464	65	4183
2026-01-01 14:59:56.88	265.40	10.04	-49.9	-51.1	16.6	0.00e+00	0	33	0	713031680	65	4275
2026-01-01 14:59:59.90	265.90	10.14	-49.6	-50.9	16.7	0.00e+00	0	34	0	729808896	65	4163
2026-01-01 15:00:02.92	266.40	10.24	-49.4	-50.6	16.8	0.00e+00	0	33	0	746586112	65	4048
2026-01-01 15:00:05.95	266.91	10.34	-49.8	-51.1	16.6	0.00e+00	0	33	0	764411904	65	4244
2026-01-01 15:00:08.97	267.42	10.44	-50.4	-51.7	16.3	0.00e+00	0	33	0	781189120	66	4309
2026-01-01 15:00:12.00	267.94	10.53	-50.4	-51.8	16.3	0.00e+00	0	33	0	797966336	66	4346
2026-01-01 15:00:15.02	268.46	10.63	-50.5	-51.9	16.2	0.00e+00	0	33	0	814743552	66	4397
2026-01-01 15:00:18.04	268.98	10.72	-49.7	-51.0	16.6	0.00e+00	0	33	0	832569344	66	3960
2026-01-01 15:00:21.06	269.50	10.81	-49.6	-50.9	16.6	0.00e+00	0	33	0	849346560	65	4152
2026-01-01 15:00:24.07	270.03	10.90	-49.9	-51.1	16.6	0.00e+00	0	34	0	866123776	65	4278
2026-01-01 15:00:27.10	270.56	10.99	-49.6	-50.9	16.7	0.00e+00	0	34	0	882900992	65	4159
2026-01-01 15:00:30.12	271.09	11.07	-49.2	-50.4	16.9	0.00e+00	0	33	0	899678208	65	3943
2026-01-01 15:00:33.15	271.63	11.16	-49.2	-50.4	16.9	0.00e+00	0	34	0	917504000	64	4151
2026-01-01 15:00:36.17	272.17	11.24	-49.4	-50.6	16.8	0.00e+00	0	34	0	934281216	64	4285
2026-01-01 15:00:39.19	272.71	11.32	-49.5	-50.7	16.8	0.00e+00	0	34	0	951058432	64	4315
2026-01-01 15:00:42.20	273.25	11.39	-49.4	-50.6	16.8	0.00e+00	0	34	0	967835648	64	4251
2026-01-01 15:00:45.23	273.80	11.47	-49.3	-50.5	16.9	0.00e+00	0	33	0	984612864	64	4237
2026-01-01 15:00:48.25	274.35	11.54	-49.5	-50.8	16.8	0.00e+00	0	34	0	1002438656	64	4349
2026-01-01 15:00:51.27	274.90	11.61	-49.5	-50.7	16.8	0.00e+00	0	34	0	1019215872	64	4329
2026-01-01 15:00:54.29	275.46	11.68	-49.3	-50.5	16.9	0.00e+00	0	34	0	1035993088	64	4203
2026-01-01 15:00:57.32	276.02	11.75	-49.2	-50.4	16.9	0.00e+00	0	34	0	1052770304	64	4173
2026-01-01 15:01:00.34	276.58	11.81	-49.0	-50.2	17.0	0.00e+00	0	34	0	1070596096	64	4072
2026-01-01 15:01:03.36	277.14	11.87	-49.0	-50.2	17.0	0.00e+00	0	34	0	1087373312	64	4066
2026-01-01 15:01:06.39	277.71	11.93	-49.1	-50.2	17.0	0.00e+00	0	34	0	1104150528	64	4098
2026-01-01 15:01:09.41	278.27	11.99	-49.1	-50.2	17.0	0.00e+00	0	34	0	1120927744	64	4077
2026-01-01 15:01:12.44	278.84	12.05	-49.0	-50.1	17.0	0.00e+00	0	34	0	1138753536	64	4051
2026-01-01 15:01:15.47	279.42	12.10	-48.9	-50.0	17.1	0.00e+00	0	34	0	1155530752	64	3996
2026-01-01 15:01:18.50	279.99	12.15	-49.1	-50.3	17.0	0.00e+00	0	34	0	1172307968	64	4103
2026-01-01 15:01:21.52	280.56	12.20	-49.3	-50.4	17.0	0.00e+00	0	34	0	1189085184	64	4186
2026-01-01 15:01:24.54	281.14	12.24	-49.4	-50.5	16.9	0.00e+00	0	34	0	1205862400	64	4228
2026-01-01 15:01:27.57	281.72	12.28	-49.5	-50.7	16.9	0.00e+00	0	34	0	1223688192	64	4300
2026-01-01 15:01:30.59	282.30	12.32	-49.3	-50.5	17.0	0.00e+00	0	34	0	1240465408	64	4215
2026-01-01 15:01:33.62	282.88	12.36	-49.3	-50.5	16.9	0.00e+00	0	34	0	1257242624	64	4231
2026-01-01 15:01:36.64	283.46	12.40	-49.5	-50.7	16.9	0.00e+00	0	34	0	1274019840	64	4308
2026-01-01 15:01:39.66	284.05	12.43	-49.6	-50.8	16.9	0.00e+00	0	34	0	1290797056	64	4341
2026-01-01 15:01:42.69	284.63	12.46	-49.4	-50.6	16.9	0.00e+00	0	34	0	1308622848	64	4266
2026-01-01 15:01:45.70	285.22	12.48	-49.4	-50.6	16.9	0.00e+00	0	34	0	1325400064	64	4283
2026-01-01 15:01:48.73	285.80	12.51	-49.4	-50.6	16.9	0.00e+00	0	34	0	1342177280	64	4255
2026-01-01 15:01:51.75	286.39	12.53	-49.3	-50.4	17.0	0.00e+00	0	34	0	1358954496	64	4188
2026-01-01 15:01:54.77	286.98	12.55	-49.5	-50.7	16.9	0.00e+00	0	34	0	1375731712	64	4313
2026-01-01 15:01:57.80	287.57	12.56	-49.5	-50.7	16.9	0.00e+00	0	34	0	1393557504	64	4327
2026-01-01 15:02:00.81	288.16	12.58	-49.5	-50.7	16.9	0.00e+00	0	34	0	1410334720	64	4315
2026-01-01 15:02:03.84	288.75	12.59	-49.4	-50.6	17.0	0.00e+00	0	34	0	1427111936	64	4244
2026-01-01 15:02:06.87	289.34	12.60	-49.5	-50.7	16.9	0.00e+00	0	34	0	1443889152	64	4322
2026-01-01 15:02:09.88	289.93	12.60	-49.5	-50.7	16.9	0.00e+00	0	34	0	1461714944	64	4313
2026-01-01 15:02:12.91	290.52	12.60	-49.5	-50.7	16.9	0.00e+00	0	34	0	1478492160	64	4300
2026-01-01 15:02:15.93	291.11	12.60	-49.5	-50.7	16.9	0.00e+00	0	34	0	1495269376	64	4325
2026-01-01 15:02:18.95	291.70	12.60	-49.4	-50.6	17.0	0.00e+00	0	34	0	1512046592	64	4274
2026-01-01 15:02:21.97	292.29	12.59	-49.6	-50.8	16.9	0.00e+00	0	34	0	1528823808	64	4343
2026-01-01 15:02:25.00	292.88	12.59	-49.8	-51.0	16.7	0.00e+00	0	34	0	1546649600	64	4484
2026-01-01 15:02:28.02	293.47	12.57	-49.5	-50.7	16.9	0.00e+00	0	34	0	1563426816	64	4314
2026-01-01 15:02:31.04	294.06	12.56	-49.6	-50.8	16.9	0.00e+00	0	34	0	1580204032	64	4358
2026-01-01 15:02:34.06	294.65	12.54	-49.6	-50.8	16.9	0.00e+00	0	34	0	1596981248	64	4347
2026-01-01 15:02:37.08	295.24	12.52	-49.6	-50.8	16.8	0.00e+00	0	34	0	1613758464	64	4358
2026-01-01 15:02:40.10	295.83	12.50	-49.6	-50.8	16.9	0.00e+00	0	34	0	1631584256	64	4346
2026-01-01 15:02:43.13	296.41	12.48	-49.5	-50.7	16.9	0.00e+00	0	34	0	1648361472	64	4312
2026-01-01 15:02:46.16	297.00	12.45	-49.7	-50.9	16.8	0.00e+00	0	34	0	1665138688	64	4437
2026-01-01 15:02:49.18	297.58	12.42	-49.6	-50.8	16.8	0.00e+00	0	34	0	1682964480	64	4376
2026-01-01 15:02:52.21	298.17	12.39	-49.5	-50.7	16.8	0.00e+00	0	34	0	1699741696	64	4322
2026-01-01 15:02:55.24	298.75	12.35	-49.5	-50.7	16.8	0.00e+00	0	34	0	1716518912	64	4326
2026-01-01 15:02:58.26	299.33	12.31	-49.5	-50.7	16.9	0.00e+00	0	34	0	1733296128	64	4332
2026-01-01 15:03:01.29	299.91	12.27	-49.3	-50.5	16.9	0.00e+00	0	34	0	1750073344	64	4225
2026-01-01 15:03:04.31	300.49	12.23	-49.4	-50.6	16.9	0.00e+00	0	34	0	1767899136	64	4253
2026-01-01 15:03:07.34	301.06	12.18	-49.5	-50.7	16.9	0.00e+00	0	34	0	1784676352	64	4340
2026-01-01 15:03:10.36	301.64	12.13	-49.5	-50.7	16.9	0.00e+00	0	34	0	1801453568	64	4324
2026-01-01 15:03:13.38	302.21	12.08	-49.5	-50.7	16.9	0.00e+00	0	34	0	1818230784	64	4308
2026-01-01 15:03:16.41	302.78	12.03	-49.5	-50.7	16.9	0.00e+00	0	34	0	1835008000	64	4332
2026-01-01 15:03:19.43	303.34	11.97	-49.6	-50.8	16.8	0.00e+00	0	34	0	1852833792	64	4388
2026-01-01 15:03:22.46	303.91	11.92	-49.7	-50.9	16.8	0.00e+00	0	34	0	1869611008	64	4406
2026-01-01 15:03:25.47	304.47	11.86	-49.7	-50.9	16.8	0.00e+00	0	34	0	1886388224	64	4402
2026-01-01 15:03:28.50	305.03	11.79	-49.6	-50.8	16.9	0.00e+00	0	34	0	1903165440	64	4383
2026-01-01 15:03:31.51	305.59	11.73	-49.8	-51.0	16.8	0.00e+00	0	34	0	1919942656	64	4480
2026-01-01 15:03:34.54	306.15	11.66	-49.9	-51.1	16.8	0.00e+00	0	34	0	1937768448	65	4276
2026-01-01 15:03:37.57	306.70	11.59	-49.5	-50.7	16.9	0.00e+00	0	34	0	1954545664	65	4090
2026-01-01 15:03:40.60	307.25	11.52	-49.7	-51.0	16.8	0.00e+00	0	34	0	1971322880	65	4196
2026-01-01 15:03:43.63	307.80	11.45	-49.6	-50.9	16.8	0.00e+00	0	34	0	1988100096	65	4148
2026-01-01 15:03:46.65	308.35	11.37	-49.6	-50.8	16.8	0.00e+00	0	34	0	2005925888	65	4135
2026-01-01 15:03:49.67	308.89	11.29	-49.7	-50.9	16.8	0.00e+00	0	34	0	2022703104	65	4166
2026-01-01 15:03:52.70	309.43	11.21	-49.6	-50.8	16.8	0.00e+00	0	34	0	2039480320	65	4137
2026-01-01 15:03:55.72	309.97	11.13	-49.7	-50.9	16.8	0.00e+00	0	34	0	2056257536	65	4163
2026-01-01 15:03:58.71	310.50	11.05	-49.9	-51.1	16.7	0.00e+00	0	34	0	2073034752	65	4275
2026-01-01 15:04:01.72	311.03	10.97	-50.0	-51.2	16.7	0.00e+00	0	34	0	2089811968	65	4338
2026-01-01 15:04:04.74	311.55	10.88	-49.8	-51.1	16.7	0.00e+00	0	34	0	2107637760	65	4247
2026-01-01 15:04:07.76	312.08	10.79	-50.0	-51.2	16.6	0.00e+00	0	34	0	2124414976	65	4326
2026-01-01 15:04:10.77	312.60	10.70	-49.9	-51.1	16.7	0.00e+00	0	34	0	2141192192	65	4259
2026-01-01 15:04:13.78	313.11	10.61	-49.6	-50.8	16.8	0.00e+00	0	34	0	2157969408	65	4138
2026-01-01 15:04:16.81	313.63	10.51	-49.6	-50.8	16.8	0.00e+00	0	34	0	2174746624	65	4137
2026-01-01 15:04:19.84	314.14	10.42	-49.8	-51.0	16.7	0.00e+00	0	34	0	2192572416	65	4232
2026-01-01 15:04:22.87	314.65	10.32	-49.8	-51.0	16.8	0.00e+00	0	34	0	2209349632	65	4224
2026-01-01 15:04:25.88	315.16	10.22	-49.9	-51.1	16.7	0.00e+00	0	34	0	2226126848	65	4286
2026-01-01 15:04:28.89	315.66	10.12	-50.0	-51.2	16.7	0.00e+00	0	34	0	2242904064	65	4332
2026-01-01 15:04:31.90	316.15	10.02	-49.9	-51.2	16.7	0.00e+00	0	34	0	2259681280	65	4316
2026-01-01 15:04:34.93	316.65	9.91	-49.9	-51.1	16.7	0.00e+00	0	34	0	2277507072	65	4283
2026-01-01 15:04:37.96	317.14	9.81	-49.8	-51.0	16.7	0.00e+00	0	34	0	2294284288	65	4217
2026-01-01 15:04:40.98	317.63	9.70	-50.1	-51.4	16.6	0.00e+00	0	34	0	2311061504	65	4425
2026-01-01 15:04:44.00	318.12	9.60	-50.3	-51.6	16.5	0.00e+00	0	34	0	2327838720	65	4499
2026-01-01 15:04:47.02	318.60	9.49	-50.1	-51.4	16.6	0.00e+00	0	34	0	2344615936	65	4431
2026-01-01 15:04:50.05	319.08	9.38	-50.0	-51.3	16.6	0.00e+00	0	34	0	2362441728	65	4372
2026-01-01 15:04:53.08	319.55	9.26	-50.1	-51.4	16.6	0.00e+00	0	34	0	2379218944	65	4411
2026-01-01 15:04:56.11	320.03	9.15	-50.1	-51.4	16.6	0.00e+00	0	34	0	2395996160	65	4409
2026-01-01 15:04:59.13	320.49	9.04	-50.1	-51.4	16.6	0.00e+00	0	34	0	2413821952	65	4405
2026-01-01 15:05:02.16	320.96	8.92	-50.0	-51.3	16.6	0.00e+00	0	34	0	2430599168	65	4376
2026-01-01 15:05:05.18	321.42	8.81	-50.0	-51.3	16.6	0.00e+00	0	34	0	2447376384	65	4363
2026-01-01 15:05:08.20	321.88	8.69	-50.0	-51.2	16.6	0.00e+00	0	34	0	2464153600	65	4333
2026-01-01 15:05:11.22	322.33	8.57	-50.2	-51.4	16.6	0.00e+00	0	34	0	2480930816	65	4440
2026-01-01 15:05:14.25	322.78	8.45	-50.5	-51.8	16.4	0.00e+00	0	34	0	2498756608	66	4391
2026-01-01 15:05:17.28	323.23	8.33	-50.6	-52.0	16.4	0.00e+00	0	34	0	2515533824	66	4452
2026-01-01 15:05:20.30	323.67	8.21	-50.6	-51.9	16.3	0.00e+00	0	34	0	2532311040	66	4417
2026-01-01 15:05:23.33	324.11	8.09	-50.5	-51.8	16.4	0.00e+00	0	34	0	2549088256	66	4367
2026-01-01 15:05:26.35	324.55	7.97	-50.4	-51.7	16.4	0.00e+00	0	34	0	2566914048	66	4338
2026-01-01 15:05:29.38	324.98	7.85	-50.7	-52.1	16.3	0.00e+00	0	34	0	2583691264	66	4508
2026-01-01 15:05:32.40	325.41	7.72	-50.5	-51.9	16.3	0.00e+00	0	34	0	2600468480	66	4413
2026-01-01 15:05:35.43	325.84	7.60	-50.6	-52.0	16.3	0.00e+00	0	34	0	2617245696	66	4452
2026-01-01 15:05:38.45	326.26	7.47	-50.5	-51.8	16.4	0.00e+00	0	34	0	2634022912	66	4370
2026-01-01 15:05:41.48	326.68	7.35	-50.4	-51.7	16.4	0.00e+00	0	34	0	2651848704	66	4334
2026-01-01 15:05:44.51	327.09	7.22	-50.2	-51.5	16.5	0.00e+00	0	34	0	2668625920	66	4241
2026-01-01 15:05:47.53	327.50	7.09	-50.4	-51.7	16.4	0.00e+00	0	34	0	2685403136	66	4304
2026-01-01 15:05:50.56	327.91	6.97	-50.6	-51.9	16.3	0.00e+00	0	34	0	2702180352	66	4428
2026-01-01 15:05:53.59	328.32	6.84	-50.9	-52.3	16.1	0.00e+00	0	34	0	2720006144	67	4371
2026-01-01 15:05:56.62	328.72	6.71	-50.7	-52.1	16.2	0.00e+00	0	34	0	2736783360	67	4267
2026-01-01 15:05:59.64	329.12	6.58	-50.7	-52.1	16.2	0.00e+00	0	34	0	2753560576	67	4283
2026-01-01 15:06:02.66	329.51	6.45	-50.8	-52.1	16.2	0.00e+00	0	34	0	2770337792	67	4282
2026-01-01 15:06:05.69	329.90	6.32	-50.7	-52.1	16.2	0.00e+00	0	34	0	2788163584	67	4269
2026-01-01 15:06:08.71	330.29	6.19	-50.9	-52.3	16.1	0.00e+00	0	34	0	2804940800	67	4371
2026-01-01 15:06:11.74	330.68	6.06	-51.1	-52.6	16.0	0.00e+00	0	34	0	2821718016	67	4517
2026-01-01 15:06:14.77	331.06	5.92	-51.2	-52.6	15.9	0.00e+00	0	34	0	2838495232	67	4543
2026-01-01 15:06:17.79	331.43	5.79	-51.2	-52.7	15.9	0.00e+00	0	34	0	2856321024	67	4558
2026-01-01 15:06:20.81	331.81	5.66	-51.4	-52.9	15.9	0.00e+00	0	34	0	2873098240	68	4399
2026-01-01 15:06:23.84	332.18	5.53	-51.2	-52.7	15.9	0.00e+00	0	34	0	2889875456	68	4298
2026-01-01 15:06:26.85	332.55	5.40	-51.2	-52.6	16.0	0.00e+00	0	34	0	2906652672	68	4278
2026-01-01 15:06:29.87	332.91	5.26	-51.3	-52.8	15.9	0.00e+00	0	34	0	2923429888	68	4342
2026-01-01 15:06:32.89	333.27	5.13	-51.4	-52.9	15.8	0.00e+00	0	34	0	2941255680	68	4425
2026-01-01 15:06:35.92	333.63	5.00	-58.3	-63.6	7.8	1.20e-02	0	34	0	2958032896	81	7203
2026-01-01 15:06:38.95	333.99	4.86	-61.3	-74.3	3.8	8.46e-01	0	34	104	2958032896	87	17440
2026-01-01 15:06:41.98	334.34	4.73	-61.8	-74.8	3.8	8.46e-01	0	34	104	2958032896	88	17443
2026-01-01 15:06:45.01	334.69	4.59	-62.1	-75.1	3.8	8.46e-01	0	34	104	2958032896	89	16973
2026-01-01 15:06:48.03	335.04	4.46	-62.2	-75.2	3.8	8.46e-01	0	34	104	2958032896	89	17221
2026-01-01 15:06:51.05	335.38	4.32	-62.3	-75.3	3.8	8.45e-01	0	34	104	2958032896	89	17416
2026-01-01 15:06:54.08	335.72	4.19	-62.3	-75.3	3.8	8.46e-01	0	34	104	2958032896	89	17475
2026-01-01 15:06:57.11	336.06	4.05	-62.3	-75.3	3.8	8.46e-01	0	34	104	2958032896	89	17456
2026-01-01 15:07:00.13	336.39	3.92	-62.2	-75.2	3.8	8.44e-01	0	34	104	2958032896	89	17277
2026-01-01 15:07:03.16	336.73	3.78	-62.1	-75.2	3.8	8.46e-01	0	34	104	2958032896	89	17111
2026-01-01 15:07:06.18	337.05	3.65	-62.1	-75.1	3.8	8.45e-01	0	34	104	2958032896	89	17007
2026-01-01 15:07:09.21	337.38	3.51	-62.0	-75.1	3.8	8.46e-01	0	34	104	2958032896	89	16952
2026-01-01 15:07:12.23	337.70	3.38	-62.0	-75.1	3.8	8.46e-01	0	34	104	2958032896	89	16929
2026-01-01 15:07:15.25	338.02	3.24	-62.0	-75.0	3.8	8.45e-01	0	34	104	2958032896	89	16872
2026-01-01 15:07:18.27	338.34	3.11	-62.0	-75.0	3.8	8.45e-01	0	34	104	2958032896	89	16773
2026-01-01 15:07:21.30	338.65	2.97	-62.0	-75.0	3.8	8.45e-01	0	34	104	2958032896	89	16807
2026-01-01 15:07:24.33	338.97	2.84	-62.0	-75.0	3.8	8.46e-01	0	34	104	2958032896	89	16791
2026-01-01 15:07:27.34	339.27	2.70	-61.9	-75.0	3.8	8.45e-01	0	34	104	2958032896	89	16721
2026-01-01 15:07:30.37	339.58	2.57	-61.9	-75.0	3.8	8.45e-01	0	34	104	2958032896	89	16762
2026-01-01 15:07:33.39	339.88	2.43	-61.9	-74.9	3.8	8.46e-01	0	34	104	2958032896	89	16667
2026-01-01 15:07:36.42	340.18	2.30	-61.8	-74.9	3.8	8.45e-01	0	34	104	2958032896	89	16544
2026-01-01 15:07:39.45	340.48	2.16	-61.8	-74.9	3.8	8.46e-01	0	34	104	2958032896	89	16593
2026-01-01 15:07:42.47	340.78	2.03	-61.8	-74.9	3.8	8.44e-01	0	34	104	2958032896	89	16602

#Closed at: 2026-01-01 15:07:45
#Recorded file [2958 MB]: D:/lorett/data/31004_260101_175646.dat