passes_logs/2026/01/01/R3.2S_Murmansk/R3.2S_Murmansk__20260101_113218_FENGYUN_3D_rec.log

#Pass ID: 20260101_113218_FENGYUN 3D
#Satellite: FENGYUN 3D
#Configuration: FENGYUN 3D
#almurnet v.1.7.20251203
#Start time: 2026-01-01 11:32:19

#Version: 2.2.20231116
#Station: R3.2S_Murmansk
#Location: 33.079688 lon 68.888172 lat
#TLE: 1 43010U 17072A   26001.19005061  .00000535  00000+0  27473-3 0  9994
#TLE: 2 43010  98.9910 332.7942 0001852 133.6060 226.5269 14.19691635421296

#Time	Az	El	Level	Level2	SNR	BER	BlckErr	Temp	State	Recorded	gain1	gain2
2026-01-01 11:32:19.17	151.61	2.04	-59.7	-72.7	3.8	8.45e-01	0	32	0	0	84	17187
2026-01-01 11:32:23.20	151.63	2.30	-59.7	-72.7	3.8	8.45e-01	0	32	104	0	84	17103
2026-01-01 11:32:27.23	151.64	2.57	-59.7	-72.6	3.8	8.45e-01	0	32	104	0	84	17006
2026-01-01 11:32:31.26	151.66	2.83	-59.7	-72.5	3.8	8.46e-01	0	32	104	0	84	16835
2026-01-01 11:32:35.29	151.67	3.10	-59.6	-71.9	3.8	8.46e-01	0	32	104	0	84	15707
2026-01-01 11:32:39.33	151.69	3.37	-59.3	-68.6	4.3	8.32e-01	0	32	0	0	84	10703
2026-01-01 11:32:43.37	151.70	3.64	-58.0	-63.6	7.3	1.26e-01	0	32	0	11534336	82	6783
2026-01-01 11:32:47.39	151.72	3.92	-56.7	-60.6	10.0	3.84e-03	0	33	0	33554432	80	5362
2026-01-01 11:32:51.42	151.73	4.20	-54.4	-56.8	13.0	2.20e-06	0	32	0	56623104	75	4621
2026-01-01 11:32:55.46	151.75	4.48	-52.4	-54.3	14.7	0.00e+00	0	32	0	78643200	71	4365
2026-01-01 11:32:59.49	151.76	4.77	-52.4	-54.2	14.7	0.00e+00	0	32	0	101711872	71	4338
2026-01-01 11:33:03.52	151.78	5.05	-52.6	-54.4	14.7	0.00e+00	0	33	0	124780544	71	4418
2026-01-01 11:33:07.56	151.79	5.34	-53.5	-55.6	14.0	0.00e+00	0	33	0	146800640	71	5074
2026-01-01 11:33:11.60	151.80	5.64	-51.1	-52.7	15.6	0.00e+00	0	33	0	169869312	68	4303
2026-01-01 11:33:15.62	151.82	5.94	-51.0	-52.5	15.7	0.00e+00	0	33	0	192937984	68	4233
2026-01-01 11:33:19.65	151.83	6.24	-50.8	-52.4	15.8	0.00e+00	0	33	0	214958080	68	4155
2026-01-01 11:33:23.70	151.85	6.54	-50.5	-52.0	15.9	0.00e+00	0	33	0	238026752	67	4240
2026-01-01 11:33:27.73	151.86	6.85	-50.4	-51.9	16.0	0.00e+00	0	33	0	260046848	67	4173
2026-01-01 11:33:31.76	151.88	7.16	-50.2	-51.7	16.1	0.00e+00	0	33	0	283115520	67	4057
2026-01-01 11:33:35.79	151.89	7.48	-50.2	-51.6	16.1	0.00e+00	0	33	0	306184192	66	4274
2026-01-01 11:33:39.83	151.91	7.80	-50.1	-51.5	16.2	0.00e+00	0	33	0	328204288	66	4238
2026-01-01 11:33:43.86	151.92	8.12	-50.0	-51.4	16.2	0.00e+00	0	33	0	351272960	66	4168
2026-01-01 11:33:47.90	151.94	8.45	-49.9	-51.3	16.3	0.00e+00	0	33	0	374341632	66	4118
2026-01-01 11:33:51.92	151.95	8.78	-50.0	-51.4	16.3	0.00e+00	0	33	0	396361728	66	4159
2026-01-01 11:33:55.95	151.97	9.12	-49.8	-51.2	16.4	0.00e+00	0	33	0	419430400	66	4069
2026-01-01 11:33:59.98	151.98	9.46	-49.9	-51.3	16.3	0.00e+00	0	33	0	441450496	66	4100
2026-01-01 11:34:04.01	152.00	9.81	-50.0	-51.3	16.3	0.00e+00	0	33	0	464519168	66	4143
2026-01-01 11:34:08.05	152.02	10.16	-49.8	-51.2	16.4	0.00e+00	0	33	0	487587840	66	4081
2026-01-01 11:34:12.08	152.03	10.51	-49.8	-51.1	16.4	0.00e+00	0	33	0	509607936	66	4050
2026-01-01 11:34:16.11	152.05	10.88	-49.8	-51.1	16.4	0.00e+00	0	33	0	532676608	65	4277
2026-01-01 11:34:20.14	152.06	11.24	-49.6	-51.0	16.5	0.00e+00	0	33	0	555745280	65	4194
2026-01-01 11:34:24.17	152.08	11.62	-49.5	-50.9	16.5	0.00e+00	0	33	0	577765376	65	4165
2026-01-01 11:34:28.20	152.09	11.99	-49.4	-50.7	16.5	0.00e+00	0	33	0	600834048	65	4098
2026-01-01 11:34:32.24	152.11	12.38	-49.3	-50.6	16.6	0.00e+00	0	33	0	622854144	65	4028
2026-01-01 11:34:36.27	152.12	12.77	-49.2	-50.5	16.6	0.00e+00	0	33	0	645922816	64	4225
2026-01-01 11:34:40.30	152.14	13.16	-49.0	-50.3	16.7	0.00e+00	0	34	0	668991488	64	4119
2026-01-01 11:34:44.33	152.15	13.57	-48.8	-50.1	16.8	0.00e+00	0	33	0	691011584	64	4047
2026-01-01 11:34:48.35	152.17	13.98	-48.7	-50.0	16.8	0.00e+00	0	33	0	714080256	64	3960
2026-01-01 11:34:52.38	152.19	14.39	-48.6	-49.9	16.8	0.00e+00	0	33	0	737148928	63	4186
2026-01-01 11:34:56.42	152.20	14.82	-48.6	-49.9	16.9	0.00e+00	0	34	0	759169024	63	4146
2026-01-01 11:35:00.45	152.22	15.25	-48.5	-49.7	16.9	0.00e+00	0	34	0	782237696	63	4091
2026-01-01 11:35:04.48	152.23	15.69	-48.5	-49.7	16.9	0.00e+00	0	34	0	805306368	63	4095
2026-01-01 11:35:08.52	152.25	16.14	-48.3	-49.6	16.9	0.00e+00	0	33	0	827326464	63	4025
2026-01-01 11:35:12.56	152.26	16.60	-48.3	-49.5	16.9	0.00e+00	0	33	0	850395136	63	4000
2026-01-01 11:35:16.58	152.28	17.06	-48.1	-49.3	17.0	0.00e+00	0	33	0	872415232	62	4140
2026-01-01 11:35:20.62	152.30	17.53	-47.9	-49.1	17.0	0.00e+00	0	34	0	895483904	62	4038
2026-01-01 11:35:24.65	152.31	18.02	-47.9	-49.1	17.1	0.00e+00	0	33	0	918552576	62	4040
2026-01-01 11:35:28.68	152.33	18.51	-47.5	-48.7	17.2	0.00e+00	0	33	0	940572672	61	4087
2026-01-01 11:35:32.72	152.34	19.01	-47.3	-48.5	17.2	0.00e+00	0	33	0	963641344	61	4003
2026-01-01 11:35:36.74	152.36	19.53	-47.3	-48.5	17.2	0.00e+00	0	33	0	986710016	61	3982
2026-01-01 11:35:40.78	152.38	20.05	-47.3	-48.5	17.2	0.00e+00	0	33	0	1008730112	61	3963
2026-01-01 11:35:44.82	152.39	20.59	-47.2	-48.4	17.2	0.00e+00	0	33	0	1031798784	60	4149
2026-01-01 11:35:48.85	152.41	21.14	-47.0	-48.1	17.3	0.00e+00	0	33	0	1053818880	60	4050
2026-01-01 11:35:52.88	152.43	21.70	-46.9	-48.1	17.3	0.00e+00	0	34	0	1076887552	60	4043
2026-01-01 11:35:56.91	152.44	22.27	-47.1	-48.3	17.2	0.00e+00	0	33	0	1099956224	60	4130
2026-01-01 11:36:00.95	152.46	22.85	-47.1	-48.3	17.3	0.00e+00	0	34	0	1121976320	60	4106
2026-01-01 11:36:04.98	152.48	23.45	-47.0	-48.2	17.3	0.00e+00	0	33	0	1145044992	60	4091
2026-01-01 11:36:09.01	152.49	24.07	-47.0	-48.2	17.3	0.00e+00	0	33	0	1168113664	60	4090
2026-01-01 11:36:13.05	152.51	24.69	-46.8	-48.0	17.4	0.00e+00	0	33	0	1190133760	60	3977
2026-01-01 11:36:17.08	152.53	25.34	-46.9	-48.1	17.3	0.00e+00	0	34	0	1213202432	59	4276
2026-01-01 11:36:21.11	152.54	26.00	-46.9	-48.1	17.3	0.00e+00	0	34	0	1236271104	59	4271
2026-01-01 11:36:25.14	152.56	26.67	-46.9	-48.1	17.4	0.00e+00	0	34	0	1258291200	59	4243
2026-01-01 11:36:29.17	152.58	27.37	-46.9	-48.0	17.4	0.00e+00	0	34	0	1281359872	59	4238
2026-01-01 11:36:33.19	152.60	28.07	-46.9	-48.1	17.4	0.00e+00	0	34	0	1303379968	59	4281
2026-01-01 11:36:37.21	152.61	28.80	-46.9	-48.1	17.4	0.00e+00	0	34	0	1326448640	59	4260
2026-01-01 11:36:41.25	152.63	29.55	-46.7	-47.9	17.4	0.00e+00	0	34	0	1349517312	59	4168
2026-01-01 11:36:45.28	152.65	30.32	-46.6	-47.8	17.4	0.00e+00	0	34	0	1371537408	59	4105
2026-01-01 11:36:49.31	152.67	31.11	-46.6	-47.7	17.4	0.00e+00	0	34	0	1394606080	59	4089
2026-01-01 11:36:53.33	152.69	31.92	-46.3	-47.4	17.5	0.00e+00	0	34	0	1416626176	59	3945
2026-01-01 11:36:57.36	152.70	32.76	-46.4	-47.6	17.5	0.00e+00	0	34	0	1439694848	58	4246
2026-01-01 11:37:01.39	152.72	33.62	-46.5	-47.7	17.4	0.00e+00	0	33	0	1462763520	58	4331
2026-01-01 11:37:05.42	152.74	34.50	-46.4	-47.6	17.5	0.00e+00	0	34	0	1484783616	58	4249
2026-01-01 11:37:09.46	152.76	35.41	-46.6	-47.8	17.4	0.00e+00	0	34	0	1507852288	58	4344
2026-01-01 11:37:13.50	152.78	36.35	-46.3	-47.4	17.5	0.00e+00	0	34	0	1530920960	58	4156
2026-01-01 11:37:17.53	152.80	37.32	-45.8	-46.9	17.6	0.00e+00	0	34	0	1552941056	58	3948
2026-01-01 11:37:21.57	152.82	38.31	-46.4	-47.4	17.6	0.00e+00	0	34	0	1576009728	58	4172
2026-01-01 11:37:25.59	152.84	39.33	-46.7	-47.8	17.5	0.00e+00	0	34	0	1598029824	58	4357
2026-01-01 11:37:29.62	152.86	40.39	-46.8	-47.8	17.5	0.00e+00	0	34	0	1621098496	58	4384
2026-01-01 11:37:33.65	152.88	41.48	-47.0	-48.0	17.6	0.00e+00	0	34	0	1644167168	59	4240
2026-01-01 11:37:37.68	152.90	42.60	-46.9	-47.9	17.6	0.00e+00	0	34	0	1666187264	59	4179
2026-01-01 11:37:41.72	152.92	43.75	-47.0	-48.0	17.6	0.00e+00	0	34	0	1689255936	59	4220
2026-01-01 11:37:45.76	152.94	44.95	-46.9	-48.0	17.6	0.00e+00	0	34	0	1712324608	59	4199
2026-01-01 11:37:49.79	152.97	46.18	-46.9	-47.9	17.6	0.00e+00	0	34	0	1734344704	59	4164
2026-01-01 11:37:53.82	152.99	47.44	-46.7	-47.8	17.6	0.00e+00	0	34	0	1757413376	59	4105
2026-01-01 11:37:57.86	153.01	48.75	-47.0	-48.0	17.6	0.00e+00	0	34	0	1779433472	59	4239
2026-01-01 11:38:01.88	153.04	50.09	-47.1	-48.2	17.5	0.00e+00	0	34	0	1802502144	59	4298
2026-01-01 11:38:05.91	153.06	51.47	-47.1	-48.1	17.5	0.00e+00	0	34	0	1825570816	60	4049
2026-01-01 11:38:09.95	153.09	52.90	-48.0	-49.1	17.4	0.00e+00	0	34	0	1847590912	61	4245
2026-01-01 11:38:13.99	153.12	54.37	-47.9	-48.9	17.4	0.00e+00	0	34	0	1870659584	61	4193
2026-01-01 11:38:18.02	153.15	55.89	-47.6	-48.6	17.5	0.00e+00	0	34	0	1893728256	61	4015
2026-01-01 11:38:22.06	153.18	57.44	-46.8	-47.8	17.6	0.00e+00	0	34	0	1915748352	60	3904
2026-01-01 11:38:26.10	153.21	59.04	-47.1	-48.1	17.6	0.00e+00	0	34	0	1938817024	60	4041
2026-01-01 11:38:30.13	153.25	60.68	-47.3	-48.4	17.5	0.00e+00	0	34	0	1961885696	59	4406
2026-01-01 11:38:34.16	153.28	62.37	-47.1	-48.1	17.6	0.00e+00	0	34	0	1983905792	59	4259
2026-01-01 11:38:38.18	153.32	64.09	-46.2	-47.2	17.8	0.00e+00	0	34	0	2006974464	58	4056
2026-01-01 11:38:42.22	153.37	65.86	-46.1	-47.1	17.8	0.00e+00	0	34	0	2030043136	58	4019
2026-01-01 11:38:46.25	153.42	67.67	-46.1	-47.1	17.8	0.00e+00	0	34	0	2052063232	58	4011
2026-01-01 11:38:50.28	153.48	69.51	-46.1	-47.2	17.7	0.00e+00	0	34	0	2075131904	57	4298
2026-01-01 11:38:54.31	153.55	71.39	-45.9	-46.9	17.8	0.00e+00	0	34	0	2098200576	57	4147
2026-01-01 11:38:58.34	153.62	73.31	-45.4	-46.4	17.9	0.00e+00	0	34	0	2120220672	57	3947
2026-01-01 11:39:02.37	153.72	75.26	-45.6	-46.6	17.9	0.00e+00	0	34	0	2143289344	57	4036
2026-01-01 11:39:06.41	153.84	77.24	-45.2	-46.1	17.9	0.00e+00	0	34	0	2165309440	56	4050
2026-01-01 11:39:10.44	154.01	79.24	-44.9	-45.9	18.0	0.00e+00	0	34	0	2188378112	56	3923
2026-01-01 11:39:14.48	154.24	81.27	-45.1	-46.1	17.9	0.00e+00	0	34	0	2211446784	56	4028
2026-01-01 11:39:18.51	154.61	83.32	-43.7	-44.6	18.0	0.00e+00	0	34	0	2233466880	53	4028
2026-01-01 11:39:22.53	155.29	85.37	-44.6	-45.5	17.8	0.00e+00	0	34	0	2256535552	54	4237
2026-01-01 11:39:26.57	157.06	87.44	-44.6	-45.6	17.8	0.00e+00	0	34	0	2279604224	54	4249
2026-01-01 11:39:30.60	173.02	89.49	-45.4	-46.4	17.9	0.00e+00	0	34	0	2301624320	57	3934
2026-01-01 11:39:34.64	326.92	88.40	-45.1	-46.1	17.9	0.00e+00	0	34	0	2324692992	56	4017
2026-01-01 11:39:38.67	330.47	86.33	-44.5	-45.5	17.9	0.00e+00	0	34	0	2346713088	55	3971
2026-01-01 11:39:42.70	331.47	84.27	-44.2	-45.2	18.1	0.00e+00	0	34	0	2369781760	55	3848
2026-01-01 11:39:46.74	331.95	82.22	-43.5	-44.4	18.0	0.00e+00	0	34	0	2392850432	53	3932
2026-01-01 11:39:50.78	332.23	80.18	-44.2	-45.2	17.9	0.00e+00	0	34	0	2414870528	53	4294
2026-01-01 11:39:54.81	332.42	78.17	-44.5	-45.5	17.9	0.00e+00	0	34	0	2437939200	54	4199
2026-01-01 11:39:58.85	332.56	76.17	-45.2	-46.2	17.8	0.00e+00	0	34	0	2461007872	55	4303
2026-01-01 11:40:02.89	332.67	74.21	-45.2	-46.2	17.8	0.00e+00	0	34	0	2483027968	55	4293
2026-01-01 11:40:06.92	332.76	72.28	-45.3	-46.3	17.8	0.00e+00	0	34	0	2506096640	55	4380
2026-01-01 11:40:10.95	332.83	70.38	-45.9	-46.9	17.8	0.00e+00	0	34	0	2528116736	57	4155
2026-01-01 11:40:14.98	332.89	68.52	-45.9	-46.9	17.8	0.00e+00	0	34	0	2551185408	57	4153
2026-01-01 11:40:19.01	332.94	66.70	-46.1	-47.1	17.7	0.00e+00	0	34	0	2574254080	57	4256
2026-01-01 11:40:23.04	332.99	64.92	-46.4	-47.4	17.7	0.00e+00	0	34	0	2596274176	58	4178
2026-01-01 11:40:27.08	333.03	63.18	-46.2	-47.2	17.8	0.00e+00	0	34	0	2619342848	58	4058
2026-01-01 11:40:31.11	333.07	61.48	-46.5	-47.5	17.7	0.00e+00	0	34	0	2642411520	58	4239
2026-01-01 11:40:35.14	333.11	59.82	-47.0	-48.0	17.6	0.00e+00	0	34	0	2664431616	59	4231
2026-01-01 11:40:39.17	333.14	58.21	-46.9	-48.0	17.6	0.00e+00	0	34	0	2687500288	59	4196
2026-01-01 11:40:43.20	333.18	56.63	-47.2	-48.2	17.6	0.00e+00	0	34	0	2709520384	60	4054
2026-01-01 11:40:47.23	333.21	55.11	-47.6	-48.6	17.5	0.00e+00	0	34	0	2732589056	60	4290
2026-01-01 11:40:51.27	333.24	53.62	-47.7	-48.7	17.5	0.00e+00	0	34	0	2755657728	60	4321
2026-01-01 11:40:55.30	333.26	52.18	-47.1	-48.1	17.6	0.00e+00	0	34	0	2777677824	60	4050
2026-01-01 11:40:59.33	333.29	50.78	-47.3	-48.3	17.5	0.00e+00	0	34	0	2800746496	59	4388
2026-01-01 11:41:03.34	333.32	49.42	-46.8	-47.8	17.7	0.00e+00	0	34	0	2823815168	59	4121
2026-01-01 11:41:07.37	333.34	48.10	-47.1	-48.1	17.6	0.00e+00	0	34	0	2845835264	59	4272
2026-01-01 11:41:11.40	333.37	46.82	-46.4	-47.4	17.8	0.00e+00	0	34	0	2868903936	59	3924
2026-01-01 11:41:15.44	333.39	45.58	-46.5	-47.6	17.7	0.00e+00	0	34	0	2890924032	59	4008
2026-01-01 11:41:19.47	333.41	44.37	-46.6	-47.7	17.7	0.00e+00	0	34	0	2913992704	59	4062
2026-01-01 11:41:23.50	333.44	43.20	-46.7	-47.7	17.7	0.00e+00	0	34	0	2937061376	59	4065
2026-01-01 11:41:27.53	333.46	42.07	-46.7	-47.7	17.7	0.00e+00	0	34	0	2959081472	59	4065
2026-01-01 11:41:31.56	333.48	40.97	-46.5	-47.5	17.7	0.00e+00	0	34	0	2982150144	59	3983
2026-01-01 11:41:35.60	333.50	39.90	-46.1	-47.1	17.8	0.00e+00	0	34	0	3005218816	58	4020
2026-01-01 11:41:39.62	333.52	38.86	-46.2	-47.2	17.7	0.00e+00	0	34	0	3027238912	58	4089
2026-01-01 11:41:43.66	333.54	37.86	-46.1	-47.1	17.8	0.00e+00	0	34	0	3050307584	58	4010
2026-01-01 11:41:47.69	333.56	36.88	-46.2	-47.2	17.7	0.00e+00	0	34	0	3072327680	58	4089
2026-01-01 11:41:51.71	333.58	35.94	-46.4	-47.5	17.7	0.00e+00	0	34	0	3095396352	58	4216
2026-01-01 11:41:55.73	333.60	35.02	-46.0	-47.0	17.8	0.00e+00	0	34	0	3118465024	58	3992
2026-01-01 11:41:59.77	333.62	34.12	-46.2	-47.2	17.7	0.00e+00	0	34	0	3140485120	58	4069
2026-01-01 11:42:03.80	333.64	33.25	-46.6	-47.6	17.6	0.00e+00	0	34	0	3163553792	58	4286
2026-01-01 11:42:07.84	333.66	32.40	-46.7	-47.8	17.6	0.00e+00	0	34	0	3186622464	58	4355
2026-01-01 11:42:11.86	333.68	31.59	-46.7	-47.7	17.6	0.00e+00	0	34	0	3208642560	58	4314
2026-01-01 11:42:15.89	333.70	30.79	-46.4	-47.4	17.7	0.00e+00	0	34	0	3231711232	58	4191
2026-01-01 11:42:19.93	333.72	30.01	-46.5	-47.4	17.7	0.00e+00	0	34	0	3253731328	58	4189
2026-01-01 11:42:23.96	333.74	29.25	-46.6	-47.6	17.7	0.00e+00	0	34	0	3276800000	58	4284
2026-01-01 11:42:27.98	333.76	28.51	-46.6	-47.6	17.6	0.00e+00	0	34	0	3299868672	58	4279
2026-01-01 11:42:32.01	333.78	27.80	-46.6	-47.7	17.6	0.00e+00	0	34	0	3321888768	58	4301
2026-01-01 11:42:36.04	333.80	27.10	-46.6	-47.6	17.7	0.00e+00	0	34	0	3344957440	58	4249
2026-01-01 11:42:40.07	333.81	26.41	-46.6	-47.6	17.6	0.00e+00	0	34	0	3368026112	58	4290
2026-01-01 11:42:44.11	333.83	25.75	-46.8	-47.8	17.6	0.00e+00	0	34	0	3390046208	58	4378
2026-01-01 11:42:48.15	333.85	25.10	-46.9	-47.9	17.5	0.00e+00	0	34	0	3413114880	58	4430
2026-01-01 11:42:52.18	333.87	24.46	-47.0	-48.0	17.6	0.00e+00	0	34	0	3435134976	59	4226
2026-01-01 11:42:56.21	333.89	23.84	-47.0	-48.1	17.6	0.00e+00	0	34	0	3458203648	59	4245
2026-01-01 11:43:00.24	333.91	23.24	-47.2	-48.2	17.5	0.00e+00	0	34	0	3481272320	59	4329
2026-01-01 11:43:04.27	333.93	22.65	-47.3	-48.4	17.5	0.00e+00	0	34	0	3503292416	59	4394
2026-01-01 11:43:08.31	333.94	22.07	-47.1	-48.2	17.5	0.00e+00	0	34	0	3526361088	60	4055
2026-01-01 11:43:12.35	333.96	21.50	-47.2	-48.3	17.5	0.00e+00	0	34	0	3549429760	60	4116
2026-01-01 11:43:16.38	333.98	20.95	-47.3	-48.3	17.5	0.00e+00	0	34	0	3571449856	60	4144
2026-01-01 11:43:20.41	334.00	20.41	-47.3	-48.4	17.5	0.00e+00	0	34	0	3594518528	60	4174
2026-01-01 11:43:24.45	334.02	19.88	-47.5	-48.6	17.4	0.00e+00	0	34	0	3616538624	60	4246
2026-01-01 11:43:28.47	334.03	19.37	-47.5	-48.6	17.4	0.00e+00	0	34	0	3639607296	60	4245
2026-01-01 11:43:32.50	334.05	18.86	-47.7	-48.7	17.4	0.00e+00	0	34	0	3662675968	60	4340
2026-01-01 11:43:36.54	334.07	18.36	-47.7	-48.8	17.3	0.00e+00	0	34	0	3684696064	60	4349
2026-01-01 11:43:40.57	334.09	17.88	-47.8	-48.9	17.3	0.00e+00	0	34	0	3707764736	60	4420
2026-01-01 11:43:44.61	334.11	17.40	-48.0	-49.1	17.3	0.00e+00	0	34	0	3730833408	61	4261
2026-01-01 11:43:48.64	334.12	16.93	-48.1	-49.2	17.2	0.00e+00	0	34	0	3752853504	61	4311
2026-01-01 11:43:52.67	334.14	16.47	-48.2	-49.3	17.2	0.00e+00	0	34	0	3775922176	61	4391
2026-01-01 11:43:56.70	334.16	16.02	-48.3	-49.4	17.1	0.00e+00	0	34	0	3797942272	61	4435
2026-01-01 11:44:00.74	334.18	15.57	-48.4	-49.5	17.2	0.00e+00	0	34	0	3821010944	62	4229
2026-01-01 11:44:04.77	334.20	15.14	-48.5	-49.6	17.1	0.00e+00	0	34	0	3844079616	62	4290
2026-01-01 11:44:08.81	334.21	14.71	-48.7	-49.8	17.0	0.00e+00	0	34	0	3866099712	62	4366
2026-01-01 11:44:12.85	334.23	14.29	-48.7	-49.8	17.0	0.00e+00	0	34	0	3889168384	62	4383
2026-01-01 11:44:16.89	334.25	13.88	-48.8	-49.9	17.0	0.00e+00	0	34	0	3912237056	62	4434
2026-01-01 11:44:20.93	334.27	13.47	-48.9	-50.0	17.0	0.00e+00	0	34	0	3935305728	63	4225
2026-01-01 11:44:24.95	334.28	13.07	-49.0	-50.1	17.0	0.00e+00	0	34	0	3957325824	63	4286
2026-01-01 11:44:28.98	334.30	12.68	-49.0	-50.2	16.9	0.00e+00	0	34	0	3980394496	63	4313
2026-01-01 11:44:33.02	334.32	12.29	-49.1	-50.2	16.9	0.00e+00	0	34	0	4002414592	63	4327
2026-01-01 11:44:37.05	334.34	11.91	-49.2	-50.3	16.9	0.00e+00	0	34	0	4025483264	63	4388
2026-01-01 11:44:41.08	334.35	11.54	-49.3	-50.5	16.8	0.00e+00	0	34	0	4048551936	63	4481
2026-01-01 11:44:45.12	334.37	11.17	-49.4	-50.6	16.8	0.00e+00	0	34	0	4070572032	64	4290
2026-01-01 11:44:49.15	334.39	10.81	-49.4	-50.6	16.8	0.00e+00	0	34	0	4093640704	64	4249
2026-01-01 11:44:53.18	334.41	10.45	-49.4	-50.6	16.7	0.00e+00	0	34	0	4116709376	64	4273
2026-01-01 11:44:57.21	334.43	10.10	-49.5	-50.8	16.7	0.00e+00	0	34	0	4138729472	64	4350
2026-01-01 11:45:01.24	334.44	9.75	-49.7	-50.9	16.6	0.00e+00	0	34	0	4161798144	64	4434
2026-01-01 11:45:05.28	334.46	9.40	-49.7	-50.9	16.5	0.00e+00	0	34	0	4183818240	64	4441
2026-01-01 11:45:09.31	334.48	9.07	-49.8	-51.0	16.5	0.00e+00	0	34	0	4206886912	64	4480
2026-01-01 11:45:13.33	334.50	8.73	-49.9	-51.2	16.5	0.00e+00	0	34	0	4229955584	65	4299
2026-01-01 11:45:17.36	334.51	8.40	-50.0	-51.3	16.4	0.00e+00	0	34	0	4251975680	65	4353
2026-01-01 11:45:21.40	334.53	8.08	-50.2	-51.5	16.3	0.00e+00	0	34	0	4275044352	65	4469
2026-01-01 11:45:25.44	334.55	7.75	-50.1	-51.3	16.4	0.00e+00	0	34	0	4298113024	65	4385
2026-01-01 11:45:29.48	334.57	7.44	-50.3	-51.6	16.3	0.00e+00	0	34	0	4320133120	65	4510
2026-01-01 11:45:33.51	334.59	7.12	-50.3	-51.6	16.3	0.00e+00	0	34	0	4343201792	66	4288
2026-01-01 11:45:37.54	334.60	6.81	-50.4	-51.7	16.2	0.00e+00	0	34	0	4365221888	66	4327
2026-01-01 11:45:41.57	334.62	6.51	-50.5	-51.8	16.2	0.00e+00	0	34	0	4388290560	66	4366
2026-01-01 11:45:45.60	334.64	6.21	-50.5	-51.9	16.1	0.00e+00	0	34	0	4411359232	66	4403
2026-01-01 11:45:49.64	334.66	5.91	-50.6	-52.0	16.0	0.00e+00	0	34	0	4433379328	66	4452
2026-01-01 11:45:53.68	334.67	5.61	-50.8	-52.3	15.9	0.00e+00	0	34	0	4456448000	66	4599
2026-01-01 11:45:57.71	334.69	5.32	-50.9	-52.4	15.7	0.00e+00	0	34	0	4479516672	67	4392
2026-01-01 11:46:01.75	334.71	5.03	-50.6	-52.1	15.6	0.00e+00	0	34	0	4501536768	66	4538
2026-01-01 11:46:05.79	334.73	4.74	-61.1	-74.2	3.8	8.46e-01	0	34	104	4508876800	87	17124
2026-01-01 11:46:09.83	334.74	4.46	-61.8	-74.8	3.8	8.46e-01	0	34	104	4508876800	88	17363
2026-01-01 11:46:13.86	334.76	4.18	-62.0	-75.1	3.8	8.46e-01	0	34	104	4508876800	89	16951
2026-01-01 11:46:17.89	334.78	3.90	-62.2	-75.2	3.8	8.45e-01	0	34	104	4508876800	89	17160
2026-01-01 11:46:21.92	334.80	3.63	-62.2	-75.3	3.8	8.45e-01	0	34	104	4508876800	89	17316
2026-01-01 11:46:25.95	334.82	3.36	-62.2	-75.2	3.8	8.47e-01	0	34	104	4508876800	89	17195
2026-01-01 11:46:29.98	334.83	3.09	-62.1	-75.2	3.8	8.46e-01	0	34	104	4508876800	89	17129
2026-01-01 11:46:34.02	334.85	2.82	-62.1	-75.1	3.8	8.45e-01	0	34	104	4508876800	89	17066
2026-01-01 11:46:38.05	334.87	2.56	-62.0	-75.1	3.8	8.47e-01	0	34	104	4508876800	89	16924
2026-01-01 11:46:42.07	334.89	2.30	-62.0	-75.1	3.8	8.46e-01	0	34	104	4508876800	89	16899
2026-01-01 11:46:46.11	334.90	2.04	-62.0	-75.0	3.8	8.46e-01	0	34	104	4508876800	89	16852

#Closed at: 2026-01-01 11:46:49
#Recorded file [4508 MB]: D:/lorett/data/31004_260101_143218.dat