passes_logs/2026/01/01/R3.2S_Murmansk/R3.2S_Murmansk__20260101_080203_AQUA_rec.log

#Pass ID: 20260101_080203_AQUA
#Satellite: AQUA
#Configuration: AQUA
#almurnet v.1.7.20251203
#Start time: 2026-01-01 08:02:03

#Version: 2.2.20231116
#Station: R3.2S_Murmansk
#Location: 33.079688 lon 68.888172 lat
#TLE: 1 27424U 02022A   25364.96158943  .00001951  00000+0  40088-3 0  9998
#TLE: 2 27424  98.4061 326.1389 0001917  95.3187 305.7939 14.61780362258696

#Time	Az	El	Level	Level2	SNR	BER	BlckErr	Temp	State	Recorded	gain1	gain2
2026-01-01 08:02:03.00	78.74	1.97	-59.2	-78.6	3.8	7.47e-01	0	32	0	0	87	32997
2026-01-01 08:02:05.98	78.52	2.14	-59.3	-78.6	3.8	7.44e-01	0	33	104	0	86	35032
2026-01-01 08:02:08.97	78.30	2.32	-59.3	-78.6	3.8	7.47e-01	0	33	104	0	86	35030
2026-01-01 08:02:11.95	78.07	2.49	-59.3	-78.6	3.8	7.47e-01	0	33	104	0	86	35135
2026-01-01 08:02:14.94	77.84	2.67	-59.3	-78.6	3.8	7.47e-01	0	33	104	0	86	35087
2026-01-01 08:02:17.93	77.60	2.84	-59.3	-78.5	3.8	7.46e-01	0	33	104	0	86	34538
2026-01-01 08:02:20.91	77.37	3.02	-59.3	-78.4	3.8	7.47e-01	0	33	104	0	86	34316
2026-01-01 08:02:23.90	77.12	3.20	-59.3	-78.4	3.8	7.46e-01	0	33	104	0	86	34197
2026-01-01 08:02:26.89	76.88	3.38	-59.3	-78.4	3.8	7.46e-01	0	33	104	0	86	34418
2026-01-01 08:02:29.86	76.63	3.56	-59.3	-78.5	3.8	7.47e-01	0	33	104	0	86	34737
2026-01-01 08:02:32.85	76.38	3.74	-59.3	-78.2	3.8	7.46e-01	0	33	104	0	86	33663
2026-01-01 08:02:35.84	76.13	3.92	-59.3	-78.5	3.8	7.45e-01	0	33	104	0	86	34505
2026-01-01 08:02:38.83	75.87	4.11	-59.2	-77.7	3.8	7.43e-01	0	33	104	0	86	31624
2026-01-01 08:02:41.81	75.61	4.29	-59.3	-78.6	3.8	7.43e-01	0	33	104	0	86	34940
2026-01-01 08:02:44.80	75.34	4.47	-59.2	-74.4	4.4	7.29e-01	0	33	104	0	86	21729
2026-01-01 08:02:47.78	75.08	4.66	-58.7	-68.5	8.4	6.40e-01	1	34	0	3145728	86	10959
2026-01-01 08:02:50.76	74.80	4.84	-57.5	-63.1	13.2	6.09e-01	0	34	0	8388608	84	6583
2026-01-01 08:02:53.75	74.53	5.03	-55.8	-59.5	15.4	6.03e-01	0	34	0	14155776	80	5513
2026-01-01 08:02:56.72	74.25	5.22	-55.8	-59.5	15.5	6.02e-01	0	34	0	19922944	80	5506
2026-01-01 08:02:59.71	73.96	5.41	-54.1	-56.7	16.8	6.02e-01	0	34	0	25165824	77	4742
2026-01-01 08:03:02.68	73.67	5.60	-53.2	-55.5	17.3	6.00e-01	0	34	0	30932992	75	4635
2026-01-01 08:03:05.64	73.38	5.79	-52.8	-54.9	17.5	6.04e-01	0	34	0	36700160	74	4598
2026-01-01 08:03:08.62	73.08	5.98	-52.5	-54.5	17.6	6.03e-01	0	34	0	41943040	74	4372
2026-01-01 08:03:11.59	72.78	6.17	-52.3	-54.3	17.7	6.03e-01	0	34	0	47710208	73	4511
2026-01-01 08:03:14.58	72.48	6.36	-52.4	-54.4	17.6	6.03e-01	0	34	0	53477376	73	4593
2026-01-01 08:03:17.57	72.16	6.56	-52.4	-54.3	17.7	6.03e-01	0	34	0	58720256	73	4544
2026-01-01 08:03:20.55	71.85	6.75	-52.2	-54.2	17.7	6.03e-01	0	34	0	64487424	73	4458
2026-01-01 08:03:23.52	71.53	6.95	-52.2	-54.2	17.7	6.01e-01	0	34	0	70254592	73	4445
2026-01-01 08:03:26.50	71.20	7.14	-52.1	-54.1	17.7	6.02e-01	0	34	0	75497472	73	4402
2026-01-01 08:03:29.49	70.87	7.34	-52.2	-54.1	17.8	6.04e-01	0	34	0	81264640	73	4422
2026-01-01 08:03:32.48	70.54	7.54	-52.1	-54.0	17.8	6.01e-01	0	34	0	87031808	73	4358
2026-01-01 08:03:35.46	70.20	7.74	-52.1	-54.1	17.8	6.01e-01	0	34	0	92274688	73	4401
2026-01-01 08:03:38.43	69.85	7.93	-52.2	-54.1	17.8	6.02e-01	0	34	0	98041856	73	4419
2026-01-01 08:03:41.43	69.50	8.14	-52.0	-53.9	17.8	6.01e-01	0	34	0	103809024	73	4318
2026-01-01 08:03:44.40	69.14	8.34	-52.2	-54.1	17.8	6.04e-01	0	34	0	109051904	73	4396
2026-01-01 08:03:47.39	68.78	8.54	-52.1	-54.1	17.9	6.03e-01	0	34	0	114819072	73	4392
2026-01-01 08:03:50.37	68.41	8.74	-52.0	-53.9	17.9	6.01e-01	0	34	0	120586240	73	4314
2026-01-01 08:03:53.36	68.04	8.95	-51.9	-53.7	17.9	6.01e-01	0	34	0	125829120	73	4241
2026-01-01 08:03:56.35	67.66	9.15	-51.8	-53.7	17.9	6.05e-01	0	34	0	131596288	72	4451
2026-01-01 08:03:59.33	67.27	9.36	-51.6	-53.4	18.0	6.03e-01	0	34	0	137363456	72	4319
2026-01-01 08:04:02.31	66.88	9.56	-51.6	-53.4	18.0	6.03e-01	0	34	0	142606336	72	4329
2026-01-01 08:04:05.28	66.49	9.77	-51.6	-53.4	18.0	6.03e-01	0	34	0	148373504	72	4329
2026-01-01 08:04:08.25	66.08	9.97	-51.6	-53.4	18.0	6.03e-01	0	34	0	154140672	72	4323
2026-01-01 08:04:11.21	65.68	10.18	-51.7	-53.4	18.0	6.04e-01	0	34	0	159383552	72	4339
2026-01-01 08:04:14.19	65.26	10.39	-51.7	-53.5	18.0	6.02e-01	0	34	0	165150720	72	4341
2026-01-01 08:04:17.16	64.84	10.59	-51.6	-53.4	18.0	6.02e-01	0	34	0	170393600	72	4328
2026-01-01 08:04:20.15	64.41	10.80	-51.4	-53.2	18.1	6.02e-01	0	34	0	176160768	71	4452
2026-01-01 08:04:23.12	63.97	11.01	-51.4	-53.2	18.1	6.03e-01	0	34	0	181927936	71	4463
2026-01-01 08:04:26.10	63.53	11.22	-51.2	-52.9	18.1	6.04e-01	0	34	0	187170816	71	4338
2026-01-01 08:04:29.09	63.08	11.43	-51.3	-53.0	18.2	6.06e-01	0	34	0	192937984	71	4347
2026-01-01 08:04:32.06	62.62	11.64	-51.4	-53.1	18.1	6.02e-01	0	34	0	198705152	71	4418
2026-01-01 08:04:35.05	62.16	11.85	-51.3	-53.0	18.2	6.02e-01	0	34	0	203948032	71	4343
2026-01-01 08:04:38.02	61.69	12.07	-51.1	-52.8	18.2	6.02e-01	0	34	0	209715200	71	4283
2026-01-01 08:04:41.01	61.21	12.28	-51.1	-52.8	18.2	6.02e-01	0	34	0	215482368	71	4244
2026-01-01 08:04:43.97	60.72	12.49	-51.3	-53.0	18.2	6.03e-01	0	34	0	220725248	71	4342
2026-01-01 08:04:46.96	60.23	12.70	-51.2	-52.9	18.2	6.04e-01	0	34	0	226492416	71	4326
2026-01-01 08:04:49.94	59.73	12.91	-51.4	-53.1	18.2	6.03e-01	0	34	0	232259584	71	4396
2026-01-01 08:04:52.93	59.21	13.12	-51.2	-52.9	18.2	6.03e-01	0	34	0	237502464	71	4321
2026-01-01 08:04:55.90	58.70	13.33	-51.0	-52.7	18.3	6.04e-01	0	34	0	243269632	71	4208
2026-01-01 08:04:58.86	58.17	13.54	-51.0	-52.6	18.3	6.04e-01	0	34	0	249036800	71	4175
2026-01-01 08:05:01.84	57.64	13.75	-51.1	-52.7	18.2	6.03e-01	0	34	0	254279680	71	4221
2026-01-01 08:05:04.83	57.10	13.96	-51.1	-52.8	18.3	6.00e-01	0	34	0	260046848	71	4253
2026-01-01 08:05:07.80	56.55	14.17	-50.9	-52.5	18.4	6.03e-01	0	34	0	265814016	70	4355
2026-01-01 08:05:10.78	55.99	14.38	-51.0	-52.6	18.3	6.01e-01	0	34	0	271056896	70	4423
2026-01-01 08:05:13.76	55.42	14.59	-51.0	-52.6	18.3	6.01e-01	0	34	0	276824064	70	4439
2026-01-01 08:05:16.73	54.84	14.80	-51.1	-52.8	18.2	6.02e-01	0	34	0	282066944	70	4504
2026-01-01 08:05:19.70	54.26	15.01	-51.0	-52.7	18.3	6.03e-01	0	34	0	287834112	70	4456
2026-01-01 08:05:22.66	53.67	15.21	-50.9	-52.5	18.3	6.02e-01	0	34	0	293601280	70	4373
2026-01-01 08:05:25.64	53.07	15.42	-51.0	-52.7	18.3	6.02e-01	0	34	0	298844160	70	4455
2026-01-01 08:05:28.62	52.45	15.62	-51.0	-52.7	18.3	6.03e-01	0	34	0	304611328	70	4448
2026-01-01 08:05:31.60	51.83	15.82	-51.0	-52.7	18.3	6.05e-01	0	34	0	310378496	70	4444
2026-01-01 08:05:34.59	51.20	16.02	-51.0	-52.6	18.3	6.01e-01	0	34	0	315621376	70	4433
2026-01-01 08:05:37.56	50.56	16.22	-51.0	-52.7	18.3	6.04e-01	0	34	0	321388544	70	4444
2026-01-01 08:05:40.55	49.91	16.42	-51.1	-52.7	18.3	6.02e-01	0	34	0	327155712	70	4476
2026-01-01 08:05:43.52	49.26	16.62	-51.0	-52.6	18.3	6.01e-01	0	34	0	332398592	70	4419
2026-01-01 08:05:46.50	48.59	16.81	-51.1	-52.7	18.3	6.05e-01	0	34	0	338165760	70	4478
2026-01-01 08:05:49.50	47.91	17.00	-51.0	-52.6	18.3	6.01e-01	0	34	0	343932928	70	4428
2026-01-01 08:05:52.48	47.22	17.19	-50.9	-52.5	18.3	6.01e-01	0	34	0	349175808	70	4350
2026-01-01 08:05:55.45	46.53	17.38	-51.2	-52.8	18.3	6.03e-01	0	34	0	354942976	70	4523
2026-01-01 08:05:58.43	45.83	17.56	-51.1	-52.7	18.3	6.02e-01	0	34	0	360710144	70	4481
2026-01-01 08:06:01.41	45.11	17.74	-51.1	-52.7	18.3	6.03e-01	0	34	0	365953024	70	4492
2026-01-01 08:06:04.39	44.39	17.92	-51.2	-52.9	18.3	6.02e-01	0	34	0	371720192	70	4549
2026-01-01 08:06:07.38	43.66	18.10	-51.1	-52.7	18.3	6.03e-01	0	34	0	377487360	70	4469
2026-01-01 08:06:10.35	42.92	18.27	-51.2	-52.8	18.3	6.03e-01	0	34	0	382730240	70	4522
2026-01-01 08:06:13.32	42.17	18.44	-51.1	-52.8	18.3	6.02e-01	0	34	0	388497408	70	4495
2026-01-01 08:06:16.30	41.42	18.60	-51.1	-52.8	18.3	6.02e-01	0	34	0	394264576	70	4506
2026-01-01 08:06:19.29	40.65	18.76	-51.1	-52.7	18.3	6.02e-01	0	34	0	399507456	70	4466
2026-01-01 08:06:22.25	39.88	18.92	-51.2	-52.8	18.3	6.04e-01	0	34	0	405274624	70	4544
2026-01-01 08:06:25.22	39.10	19.07	-51.2	-52.9	18.3	6.00e-01	0	34	0	410517504	70	4549
2026-01-01 08:06:28.19	38.31	19.22	-51.2	-52.9	18.3	6.04e-01	0	34	0	416284672	70	4556
2026-01-01 08:06:31.16	37.51	19.36	-51.2	-52.9	18.3	6.05e-01	0	34	0	422051840	70	4546
2026-01-01 08:06:34.15	36.70	19.50	-51.3	-52.9	18.3	6.03e-01	0	34	0	427294720	70	4572
2026-01-01 08:06:37.12	35.89	19.63	-51.3	-52.9	18.3	6.02e-01	0	34	0	433061888	70	4591
2026-01-01 08:06:40.09	35.07	19.76	-51.3	-52.9	18.3	6.06e-01	0	34	0	438829056	70	4596
2026-01-01 08:06:43.06	34.24	19.89	-51.3	-52.9	18.3	6.04e-01	0	34	0	444071936	70	4589
2026-01-01 08:06:46.03	33.41	20.00	-51.3	-53.0	18.3	6.04e-01	0	34	0	449839104	70	4606
2026-01-01 08:06:49.00	32.57	20.12	-51.4	-53.0	18.3	6.03e-01	0	34	0	455606272	70	4638
2026-01-01 08:06:51.97	31.72	20.22	-51.4	-53.0	18.2	6.02e-01	0	34	0	460849152	70	4646
2026-01-01 08:06:54.96	30.86	20.32	-51.4	-53.1	18.3	6.02e-01	0	34	0	466616320	70	4688
2026-01-01 08:06:57.93	30.00	20.42	-51.4	-53.1	18.3	6.01e-01	0	34	0	471859200	70	4699
2026-01-01 08:07:00.92	29.13	20.51	-51.5	-53.2	18.2	6.04e-01	0	34	0	477626368	70	4727
2026-01-01 08:07:03.89	28.26	20.59	-51.4	-53.1	18.3	6.03e-01	0	34	0	483393536	70	4667
2026-01-01 08:07:06.88	27.38	20.66	-51.5	-53.1	18.2	6.04e-01	0	34	0	488636416	70	4692
2026-01-01 08:07:09.86	26.50	20.73	-51.6	-53.3	18.3	6.04e-01	0	34	0	494403584	70	4773
2026-01-01 08:07:12.83	25.62	20.80	-51.6	-53.3	18.2	6.02e-01	0	34	0	500170752	70	4760
2026-01-01 08:07:15.81	24.73	20.85	-51.5	-53.1	18.2	6.04e-01	0	34	0	505413632	71	4438
2026-01-01 08:07:18.79	23.84	20.90	-51.5	-53.1	18.3	6.04e-01	0	34	0	511180800	71	4437
2026-01-01 08:07:21.76	22.94	20.94	-51.5	-53.1	18.3	6.00e-01	0	34	0	516947968	71	4437
2026-01-01 08:07:24.74	22.05	20.98	-51.6	-53.2	18.3	6.01e-01	0	34	0	522190848	71	4489
2026-01-01 08:07:27.71	21.15	21.00	-51.6	-53.3	18.2	6.03e-01	0	34	0	527958016	71	4512
2026-01-01 08:07:30.68	20.25	21.02	-51.7	-53.4	18.3	6.02e-01	0	34	0	533200896	71	4562
2026-01-01 08:07:33.66	19.35	21.04	-51.5	-53.2	18.3	6.02e-01	0	34	0	538968064	71	4478
2026-01-01 08:07:36.64	18.45	21.04	-51.5	-53.2	18.3	6.03e-01	0	34	0	544735232	71	4467
2026-01-01 08:07:39.62	17.55	21.04	-51.6	-53.3	18.2	6.03e-01	0	35	0	549978112	71	4517
2026-01-01 08:07:42.60	16.64	21.03	-51.6	-53.2	18.3	6.04e-01	0	34	0	555745280	71	4490
2026-01-01 08:07:45.56	15.75	21.02	-51.6	-53.3	18.3	6.02e-01	0	35	0	561512448	71	4535
2026-01-01 08:07:48.55	14.85	21.00	-51.6	-53.3	18.2	6.04e-01	0	34	0	566755328	71	4531
2026-01-01 08:07:51.52	13.95	20.97	-51.6	-53.3	18.3	6.02e-01	0	35	0	572522496	71	4501
2026-01-01 08:07:54.51	13.05	20.93	-51.7	-53.4	18.3	6.03e-01	0	34	0	578289664	71	4557
2026-01-01 08:07:57.49	12.16	20.88	-51.7	-53.4	18.3	6.02e-01	0	34	0	583532544	71	4566
2026-01-01 08:08:00.46	11.27	20.83	-51.7	-53.4	18.2	6.04e-01	0	34	0	589299712	71	4572
2026-01-01 08:08:03.44	10.38	20.78	-51.6	-53.2	18.3	6.02e-01	0	34	0	595066880	71	4483
2026-01-01 08:08:06.42	9.50	20.71	-51.6	-53.2	18.3	6.00e-01	0	34	0	600309760	71	4486
2026-01-01 08:08:09.41	8.62	20.64	-51.6	-53.2	18.3	6.01e-01	0	35	0	606076928	71	4481
2026-01-01 08:08:12.39	7.74	20.56	-51.7	-53.4	18.3	6.04e-01	0	34	0	611844096	71	4583
2026-01-01 08:08:15.37	6.87	20.48	-51.6	-53.3	18.3	6.03e-01	0	34	0	617086976	71	4520
2026-01-01 08:08:18.34	6.01	20.39	-51.8	-53.5	18.3	6.01e-01	0	34	0	622854144	71	4626
2026-01-01 08:08:21.30	5.15	20.29	-51.6	-53.3	18.3	6.01e-01	0	34	0	628621312	71	4495
2026-01-01 08:08:24.26	4.31	20.19	-51.7	-53.4	18.3	6.02e-01	0	34	0	633864192	71	4557
2026-01-01 08:08:27.24	3.46	20.08	-51.7	-53.3	18.3	6.03e-01	0	34	0	639631360	71	4544
2026-01-01 08:08:30.22	2.62	19.97	-51.5	-53.2	18.2	6.03e-01	0	34	0	644874240	71	4474
2026-01-01 08:08:33.20	1.78	19.85	-51.6	-53.3	18.3	6.03e-01	0	34	0	650641408	71	4524
2026-01-01 08:08:36.18	0.96	19.72	-51.6	-53.3	18.3	6.02e-01	0	34	0	656408576	71	4505
2026-01-01 08:08:39.16	0.14	19.59	-51.5	-53.2	18.3	6.05e-01	0	34	0	661651456	71	4459
2026-01-01 08:08:42.14	359.33	19.45	-51.5	-53.2	18.3	6.02e-01	0	34	0	667418624	71	4469
2026-01-01 08:08:45.12	358.52	19.31	-51.3	-53.0	18.4	6.04e-01	0	34	0	673185792	71	4356
2026-01-01 08:08:48.11	357.72	19.17	-51.4	-53.0	18.3	6.03e-01	0	35	0	678428672	71	4382
2026-01-01 08:08:51.08	356.94	19.02	-51.4	-53.1	18.3	6.03e-01	0	34	0	684195840	71	4392
2026-01-01 08:08:54.08	356.15	18.86	-51.2	-52.8	18.4	6.02e-01	0	35	0	689963008	71	4264
2026-01-01 08:08:57.05	355.38	18.71	-51.4	-53.0	18.3	6.02e-01	0	34	0	695205888	71	4372
2026-01-01 08:09:00.03	354.62	18.55	-51.5	-53.1	18.3	6.00e-01	0	34	0	700973056	71	4435
2026-01-01 08:09:03.01	353.87	18.38	-51.4	-53.0	18.3	6.02e-01	0	34	0	706740224	71	4382
2026-01-01 08:09:05.99	353.12	18.21	-51.2	-52.8	18.3	6.02e-01	0	34	0	711983104	71	4257
2026-01-01 08:09:08.99	352.38	18.04	-51.3	-53.0	18.3	6.04e-01	0	34	0	717750272	71	4363
2026-01-01 08:09:11.97	351.65	17.86	-51.1	-52.8	18.4	6.03e-01	0	34	0	723517440	71	4244
2026-01-01 08:09:14.94	350.94	17.68	-51.5	-53.2	18.3	6.03e-01	0	34	0	728760320	71	4484
2026-01-01 08:09:17.91	350.23	17.50	-51.8	-53.6	18.2	6.02e-01	0	34	0	734527488	71	4674
2026-01-01 08:09:20.87	349.54	17.32	-51.4	-53.1	18.3	6.02e-01	0	34	0	740294656	70	4704
2026-01-01 08:09:23.84	348.85	17.13	-51.8	-53.6	18.2	6.01e-01	0	34	0	745537536	71	4688
2026-01-01 08:09:26.81	348.17	16.94	-51.6	-53.3	18.3	6.03e-01	0	34	0	751304704	70	4788
2026-01-01 08:09:29.79	347.50	16.75	-52.0	-53.9	18.1	6.04e-01	0	34	0	757071872	71	4819
2026-01-01 08:09:32.78	346.83	16.55	-52.1	-54.0	18.2	6.04e-01	0	34	0	762314752	71	4882
2026-01-01 08:09:35.75	346.18	16.36	-52.1	-54.0	18.1	6.04e-01	0	34	0	768081920	71	4899
2026-01-01 08:09:38.74	345.53	16.16	-51.4	-53.1	18.3	6.03e-01	0	34	0	773324800	70	4671
2026-01-01 08:09:41.71	344.90	15.96	-51.9	-53.6	18.2	6.02e-01	0	34	0	779091968	71	4705
2026-01-01 08:09:44.70	344.27	15.76	-51.2	-52.8	18.4	6.02e-01	0	34	0	784859136	71	4274
2026-01-01 08:09:47.68	343.66	15.56	-51.7	-53.4	18.3	6.01e-01	0	34	0	790102016	71	4570
2026-01-01 08:09:50.66	343.05	15.35	-52.2	-54.1	18.1	6.02e-01	0	34	0	795869184	72	4652
2026-01-01 08:09:53.64	342.45	15.15	-51.2	-52.8	18.4	6.04e-01	0	34	0	801636352	71	4258
2026-01-01 08:09:56.62	341.86	14.94	-51.6	-53.4	18.2	6.05e-01	0	34	0	806879232	71	4597
2026-01-01 08:09:59.61	341.27	14.73	-52.1	-53.9	18.0	6.03e-01	0	34	0	812646400	72	4591
2026-01-01 08:10:02.60	340.70	14.52	-51.0	-52.5	18.4	6.03e-01	0	34	0	818413568	71	4141
2026-01-01 08:10:05.58	340.14	14.31	-51.3	-53.0	18.3	6.02e-01	0	34	0	823656448	71	4349
2026-01-01 08:10:08.56	339.58	14.11	-51.6	-53.3	18.3	6.03e-01	0	34	0	829423616	71	4501
2026-01-01 08:10:11.53	339.03	13.90	-52.1	-54.0	18.1	6.02e-01	0	34	0	835190784	71	4882
2026-01-01 08:10:14.52	338.49	13.69	-51.7	-53.5	18.2	6.01e-01	0	35	0	840433664	71	4609
2026-01-01 08:10:17.50	337.96	13.48	-51.9	-53.6	18.2	6.04e-01	0	34	0	846200832	72	4429
2026-01-01 08:10:20.48	337.44	13.26	-52.0	-53.8	18.2	6.02e-01	0	35	0	851968000	72	4504
2026-01-01 08:10:23.46	336.93	13.05	-51.8	-53.5	18.2	6.02e-01	0	34	0	857210880	72	4390
2026-01-01 08:10:26.43	336.42	12.84	-51.8	-53.6	18.2	6.03e-01	0	34	0	862978048	71	4673
2026-01-01 08:10:29.40	335.93	12.63	-51.3	-53.0	18.3	6.05e-01	0	34	0	868745216	71	4356
2026-01-01 08:10:32.37	335.44	12.42	-51.4	-53.1	18.3	6.04e-01	0	34	0	873988096	72	4146
2026-01-01 08:10:35.35	334.95	12.21	-52.0	-53.8	18.2	6.02e-01	0	34	0	879755264	72	4501
2026-01-01 08:10:38.32	334.48	12.00	-51.9	-53.6	18.2	6.02e-01	0	35	0	885522432	72	4434
2026-01-01 08:10:41.31	334.01	11.79	-52.0	-53.9	18.2	6.03e-01	0	34	0	890765312	72	4550
2026-01-01 08:10:44.28	333.55	11.58	-52.1	-53.9	18.1	6.04e-01	0	35	0	896532480	72	4594
2026-01-01 08:10:47.25	333.10	11.37	-52.3	-54.1	18.1	6.05e-01	0	34	0	902299648	72	4697
2026-01-01 08:10:50.24	332.65	11.16	-52.4	-54.2	18.0	6.03e-01	0	34	0	907542528	72	4757
2026-01-01 08:10:53.22	332.21	10.95	-52.1	-53.9	18.1	6.02e-01	0	34	0	913309696	72	4590
2026-01-01 08:10:56.22	331.78	10.74	-51.8	-53.6	18.2	6.03e-01	0	34	0	919076864	72	4404
2026-01-01 08:10:59.21	331.35	10.53	-51.9	-53.7	18.1	6.02e-01	0	35	0	924319744	72	4444
2026-01-01 08:11:02.19	330.93	10.32	-51.8	-53.6	18.1	6.02e-01	0	35	0	930086912	72	4422
2026-01-01 08:11:05.17	330.52	10.11	-52.1	-54.0	18.0	6.03e-01	0	34	0	935854080	72	4608
2026-01-01 08:11:08.14	330.11	9.91	-52.3	-54.3	18.0	6.02e-01	0	34	0	941096960	72	4777
2026-01-01 08:11:11.13	329.71	9.70	-52.3	-54.2	18.0	6.01e-01	0	35	0	946864128	72	4737
2026-01-01 08:11:14.11	329.32	9.50	-52.2	-54.0	18.1	6.03e-01	0	34	0	952631296	72	4636
2026-01-01 08:11:17.09	328.93	9.29	-52.3	-54.2	18.0	6.03e-01	0	35	0	957874176	72	4750
2026-01-01 08:11:20.06	328.55	9.09	-52.6	-54.5	17.9	6.03e-01	0	34	0	963641344	72	4912
2026-01-01 08:11:23.04	328.17	8.88	-52.0	-53.9	18.0	6.04e-01	0	34	0	968884224	72	4560
2026-01-01 08:11:26.01	327.80	8.68	-52.2	-54.1	18.0	6.05e-01	0	35	0	974651392	72	4702
2026-01-01 08:11:29.00	327.44	8.48	-52.6	-54.5	17.9	6.03e-01	0	34	0	980418560	72	4918
2026-01-01 08:11:31.98	327.08	8.28	-52.3	-54.2	18.0	6.03e-01	0	35	0	985661440	73	4473
2026-01-01 08:11:34.95	326.73	8.08	-52.5	-54.5	17.9	6.03e-01	0	35	0	991428608	73	4601
2026-01-01 08:11:37.94	326.38	7.88	-52.5	-54.5	18.0	6.02e-01	0	34	0	997195776	73	4608
2026-01-01 08:11:40.94	326.03	7.68	-52.5	-54.4	17.9	6.04e-01	0	34	0	1002438656	73	4580
2026-01-01 08:11:43.92	325.69	7.48	-52.4	-54.4	18.0	6.05e-01	0	34	0	1008205824	73	4571
2026-01-01 08:11:46.90	325.36	7.28	-52.7	-54.7	17.8	6.02e-01	0	35	0	1013972992	73	4712
2026-01-01 08:11:49.88	325.03	7.09	-52.7	-54.7	17.8	6.00e-01	0	34	0	1019215872	73	4728
2026-01-01 08:11:52.86	324.71	6.89	-52.7	-54.7	17.8	6.02e-01	0	34	0	1024983040	73	4716
2026-01-01 08:11:55.85	324.39	6.69	-52.7	-54.7	17.8	6.01e-01	0	34	0	1030750208	73	4732
2026-01-01 08:11:58.83	324.08	6.50	-53.2	-55.4	17.6	6.04e-01	0	34	0	1035993088	74	4821
2026-01-01 08:12:01.82	323.77	6.31	-52.9	-55.0	17.7	6.03e-01	0	34	0	1041760256	74	4651
2026-01-01 08:12:04.79	323.47	6.12	-52.9	-55.0	17.7	6.03e-01	0	34	0	1047527424	74	4646
2026-01-01 08:12:07.76	323.17	5.92	-52.9	-55.0	17.7	6.02e-01	0	34	0	1052770304	74	4627
2026-01-01 08:12:10.74	322.87	5.73	-53.0	-55.2	17.7	6.03e-01	0	34	0	1058537472	74	4731
2026-01-01 08:12:13.72	322.58	5.54	-53.3	-55.5	17.5	6.04e-01	0	34	0	1064304640	74	4926
2026-01-01 08:12:16.69	322.30	5.36	-53.1	-55.3	17.6	6.02e-01	0	34	0	1069547520	74	4773
2026-01-01 08:12:19.67	322.02	5.17	-53.3	-55.6	17.6	6.01e-01	0	34	0	1075314688	74	4928
2026-01-01 08:12:22.64	321.74	4.98	-56.8	-61.2	15.5	6.02e-01	0	34	0	1081081856	81	6311
2026-01-01 08:12:25.62	321.46	4.80	-60.7	-80.0	3.8	7.49e-01	0	35	104	1081606144	89	34656
2026-01-01 08:12:28.58	321.20	4.61	-61.2	-80.5	3.8	7.47e-01	0	35	104	1081606144	90	34833
2026-01-01 08:12:31.57	320.93	4.43	-61.5	-80.8	3.8	7.42e-01	0	35	104	1081606144	90	36085
2026-01-01 08:12:34.56	320.67	4.24	-61.7	-81.1	3.8	7.50e-01	0	35	104	1081606144	91	34932
2026-01-01 08:12:37.55	320.41	4.06	-61.8	-81.2	3.8	7.46e-01	0	35	104	1081606144	91	35287
2026-01-01 08:12:40.53	320.15	3.88	-61.9	-81.2	3.8	7.47e-01	0	35	104	1081606144	91	35563
2026-01-01 08:12:43.51	319.90	3.70	-61.8	-81.2	3.8	7.48e-01	0	34	104	1081606144	91	35412
2026-01-01 08:12:46.50	319.65	3.51	-61.7	-81.1	3.8	7.45e-01	0	35	104	1081606144	91	35068
2026-01-01 08:12:49.47	319.41	3.34	-61.7	-81.0	3.8	7.42e-01	0	35	104	1081606144	91	34787
2026-01-01 08:12:52.46	319.16	3.16	-61.7	-81.0	3.8	7.46e-01	0	35	104	1081606144	91	34773
2026-01-01 08:12:55.46	318.92	2.98	-61.7	-81.0	3.8	7.47e-01	0	35	104	1081606144	91	34631
2026-01-01 08:12:58.43	318.69	2.80	-61.6	-81.0	3.8	7.47e-01	0	35	104	1081606144	91	34566
2026-01-01 08:13:01.42	318.46	2.62	-61.6	-80.9	3.8	7.44e-01	0	35	104	1081606144	91	34437
2026-01-01 08:13:04.41	318.23	2.45	-61.6	-80.9	3.8	7.47e-01	0	35	104	1081606144	91	34330
2026-01-01 08:13:07.39	318.00	2.27	-61.6	-80.9	3.8	7.49e-01	0	35	104	1081606144	91	34331
2026-01-01 08:13:10.38	317.78	2.10	-61.6	-80.9	3.8	7.47e-01	0	35	104	1081606144	91	34324
2026-01-01 08:13:13.35	317.56	1.93	-61.5	-80.9	3.8	7.48e-01	0	35	104	1081606144	91	34236

#Closed at: 2026-01-01 08:13:13
#Recorded file [1081 MB]: D:/lorett/data/31004_260101_110202.dat