passes_logs/2026/01/01/R3.2S_Murmansk/R3.2S_Murmansk__20260101_041413_NOAA_20_JPSS-1_rec.log

#Pass ID: 20260101_041413_NOAA 20 (JPSS-1)
#Satellite: NOAA 20 (JPSS-1)
#Configuration: NOAA 20
#almurnet v.1.7.20251203
#Start time: 2026-01-01 04:14:13

#Version: 2.2.20231116
#Station: R3.2S_Murmansk
#Location: 33.079688 lon 68.888172 lat
#TLE: 1 43013U 17073A   25365.59858899  .00000178  00000+0  10524-3 0  9991
#TLE: 2 43013  98.7620 301.6911 0001952  60.2533 299.8837 14.19531732420695

#Time	Az	El	Level	Level2	SNR	BER	BlckErr	Temp	State	Recorded	gain1	gain2
2026-01-01 04:14:13.39	49.86	1.97	-59.6	-75.6	3.8	1.49e+00	0	32	0	0	85	22632
2026-01-01 04:14:17.39	49.61	2.20	-59.6	-75.6	3.8	1.49e+00	0	32	104	0	84	23996
2026-01-01 04:14:21.40	49.36	2.43	-59.6	-75.6	3.8	1.49e+00	0	32	104	0	84	23998
2026-01-01 04:14:25.39	49.11	2.66	-59.6	-75.6	3.8	1.49e+00	0	32	104	0	84	24004
2026-01-01 04:14:29.38	48.86	2.90	-59.6	-75.6	3.8	1.49e+00	0	32	104	0	84	23978
2026-01-01 04:14:33.38	48.59	3.13	-59.6	-75.6	3.8	1.49e+00	0	32	104	0	84	24021
2026-01-01 04:14:37.37	48.33	3.37	-59.6	-75.6	3.8	1.49e+00	0	32	104	0	84	23862
2026-01-01 04:14:41.37	48.06	3.61	-59.7	-75.6	3.8	1.49e+00	0	33	104	0	84	24021
2026-01-01 04:14:45.36	47.79	3.84	-59.7	-75.6	3.8	1.49e+00	0	32	104	0	84	23955
2026-01-01 04:14:49.36	47.51	4.09	-59.6	-75.6	3.8	1.49e+00	0	33	104	0	84	24039
2026-01-01 04:14:53.35	47.22	4.33	-59.6	-74.6	3.8	1.49e+00	0	33	104	0	84	21342
2026-01-01 04:14:57.33	46.93	4.57	-59.5	-72.4	4.1	1.46e+00	0	33	0	0	84	16669
2026-01-01 04:15:01.32	46.64	4.81	-59.1	-68.0	6.2	3.21e-01	0	33	0	5242880	84	10037
2026-01-01 04:15:05.30	46.34	5.06	-58.4	-65.2	8.5	5.02e-02	0	33	0	12582912	83	7647
2026-01-01 04:15:09.29	46.04	5.31	-58.5	-64.8	8.8	1.29e-01	0	33	0	19922944	83	7330
2026-01-01 04:15:13.25	45.73	5.55	-56.2	-59.4	13.6	0.00e+00	0	33	0	27262976	78	5257
2026-01-01 04:15:17.23	45.42	5.80	-55.9	-58.9	14.0	0.00e+00	0	33	0	34603008	78	4962
2026-01-01 04:15:21.22	45.10	6.06	-56.0	-59.0	13.9	0.00e+00	0	33	0	42991616	78	5029
2026-01-01 04:15:25.19	44.77	6.31	-56.1	-59.2	13.8	0.00e+00	0	33	0	50331648	78	5128
2026-01-01 04:15:29.20	44.44	6.57	-56.1	-59.1	14.0	0.00e+00	0	33	0	57671680	78	5060
2026-01-01 04:15:33.19	44.10	6.82	-56.1	-59.1	14.0	0.00e+00	0	33	0	65011712	78	5064
2026-01-01 04:15:37.20	43.75	7.08	-56.1	-59.1	14.0	0.00e+00	0	33	0	72351744	78	5095
2026-01-01 04:15:41.18	43.40	7.34	-56.0	-58.9	14.2	0.00e+00	0	33	0	79691776	78	4929
2026-01-01 04:15:45.20	43.04	7.61	-55.9	-58.8	14.3	0.00e+00	0	33	0	87031808	78	4878
2026-01-01 04:15:49.18	42.67	7.87	-55.8	-58.5	14.5	0.00e+00	0	33	0	95420416	78	4739
2026-01-01 04:15:53.19	42.30	8.14	-55.8	-58.6	14.4	0.00e+00	0	33	0	102760448	78	4774
2026-01-01 04:15:57.19	41.92	8.40	-55.8	-58.6	14.4	0.00e+00	0	33	0	110100480	78	4774
2026-01-01 04:16:01.16	41.53	8.67	-55.8	-58.5	14.5	0.00e+00	0	33	0	117440512	78	4727
2026-01-01 04:16:05.15	41.14	8.94	-55.9	-58.6	14.5	0.00e+00	0	33	0	124780544	78	4764
2026-01-01 04:16:09.15	40.74	9.21	-55.8	-58.4	14.6	0.00e+00	0	34	0	132120576	78	4671
2026-01-01 04:16:13.13	40.33	9.48	-55.8	-58.4	14.6	0.00e+00	0	33	0	139460608	77	4962
2026-01-01 04:16:17.13	39.91	9.76	-55.4	-57.8	15.0	0.00e+00	0	33	0	147849216	77	4632
2026-01-01 04:16:21.11	39.49	10.03	-55.4	-57.8	15.0	0.00e+00	0	34	0	155189248	77	4620
2026-01-01 04:16:25.11	39.05	10.31	-55.4	-57.8	15.0	0.00e+00	0	34	0	162529280	77	4644
2026-01-01 04:16:29.10	38.61	10.59	-55.3	-57.7	15.1	0.00e+00	0	34	0	169869312	77	4590
2026-01-01 04:16:33.09	38.16	10.87	-55.5	-57.9	15.0	0.00e+00	0	34	0	177209344	77	4681
2026-01-01 04:16:37.09	37.70	11.15	-55.5	-57.9	15.0	0.00e+00	0	34	0	184549376	77	4682
2026-01-01 04:16:41.08	37.23	11.44	-55.6	-58.1	14.9	0.00e+00	0	34	0	191889408	77	4811
2026-01-01 04:16:45.08	36.75	11.72	-55.6	-58.1	14.9	0.00e+00	0	33	0	200278016	77	4783
2026-01-01 04:16:49.07	36.26	12.01	-55.3	-57.7	15.1	0.00e+00	0	34	0	207618048	77	4548
2026-01-01 04:16:53.04	35.76	12.29	-55.3	-57.7	15.2	0.00e+00	0	33	0	214958080	77	4551
2026-01-01 04:16:57.02	35.25	12.58	-55.2	-57.5	15.3	0.00e+00	0	34	0	222298112	76	4740
2026-01-01 04:17:01.01	34.73	12.87	-55.0	-57.2	15.5	0.00e+00	0	33	0	229638144	76	4549
2026-01-01 04:17:04.99	34.21	13.16	-55.0	-57.2	15.5	0.00e+00	0	34	0	236978176	76	4550
2026-01-01 04:17:08.98	33.67	13.45	-55.0	-57.2	15.5	0.00e+00	0	34	0	244318208	76	4549
2026-01-01 04:17:12.96	33.12	13.74	-54.9	-57.1	15.5	0.00e+00	0	34	0	251658240	76	4494
2026-01-01 04:17:16.94	32.56	14.04	-54.8	-56.9	15.7	0.00e+00	0	34	0	258998272	76	4403
2026-01-01 04:17:20.93	31.98	14.33	-54.5	-56.6	15.8	0.00e+00	0	34	0	267386880	75	4511
2026-01-01 04:17:24.93	31.39	14.62	-54.4	-56.4	15.9	0.00e+00	0	34	0	274726912	75	4427
2026-01-01 04:17:28.93	30.80	14.92	-54.3	-56.3	15.9	0.00e+00	0	34	0	282066944	75	4381
2026-01-01 04:17:32.92	30.19	15.21	-54.6	-56.7	15.8	0.00e+00	0	34	0	289406976	75	4561
2026-01-01 04:17:36.92	29.56	15.51	-54.8	-56.9	15.6	0.00e+00	0	34	0	296747008	75	4677
2026-01-01 04:17:40.93	28.92	15.81	-54.8	-56.9	15.7	0.00e+00	0	34	0	304087040	75	4662
2026-01-01 04:17:44.93	28.27	16.10	-54.9	-57.0	15.6	0.00e+00	0	34	0	312475648	75	4741
2026-01-01 04:17:48.90	27.62	16.40	-54.9	-57.0	15.6	0.00e+00	0	34	0	319815680	75	4745
2026-01-01 04:17:52.91	26.94	16.69	-54.9	-57.1	15.6	0.00e+00	0	34	0	327155712	75	4772
2026-01-01 04:17:56.90	26.25	16.99	-55.0	-57.2	15.5	0.00e+00	0	34	0	334495744	75	4821
2026-01-01 04:18:00.90	25.55	17.28	-55.1	-57.3	15.5	0.00e+00	0	34	0	341835776	75	4878
2026-01-01 04:18:04.88	24.83	17.57	-55.1	-57.3	15.4	0.00e+00	0	34	0	349175808	75	4918
2026-01-01 04:18:08.88	24.10	17.86	-55.0	-57.2	15.6	0.00e+00	0	34	0	356515840	75	4853
2026-01-01 04:18:12.87	23.36	18.15	-55.0	-57.2	15.5	0.00e+00	0	34	0	364904448	75	4819
2026-01-01 04:18:16.87	22.60	18.44	-55.0	-57.2	15.6	0.00e+00	0	34	0	372244480	75	4826
2026-01-01 04:18:20.86	21.83	18.73	-54.8	-56.9	15.7	0.00e+00	0	34	0	379584512	75	4656
2026-01-01 04:18:24.86	21.04	19.01	-54.6	-56.7	15.8	0.00e+00	0	34	0	386924544	75	4558
2026-01-01 04:18:28.84	20.23	19.29	-54.4	-56.3	16.0	0.00e+00	0	34	0	394264576	75	4363
2026-01-01 04:18:32.84	19.41	19.57	-53.7	-55.5	16.4	0.00e+00	0	34	0	401604608	73	4445
2026-01-01 04:18:36.83	18.58	19.84	-53.3	-55.0	16.6	0.00e+00	0	34	0	408944640	73	4212
2026-01-01 04:18:40.84	17.73	20.11	-53.2	-54.9	16.6	0.00e+00	0	34	0	417333248	73	4166
2026-01-01 04:18:44.84	16.86	20.38	-53.2	-54.9	16.7	0.00e+00	0	34	0	424673280	72	4397
2026-01-01 04:18:48.84	15.98	20.64	-53.0	-54.7	16.7	0.00e+00	0	34	0	432013312	72	4303
2026-01-01 04:18:52.85	15.08	20.90	-53.0	-54.6	16.8	0.00e+00	0	34	0	439353344	72	4247
2026-01-01 04:18:56.85	14.17	21.16	-52.8	-54.4	16.8	0.00e+00	0	34	0	446693376	71	4396
2026-01-01 04:19:00.85	13.25	21.41	-52.8	-54.4	16.8	0.00e+00	0	34	0	454033408	71	4417
2026-01-01 04:19:04.85	12.31	21.65	-53.0	-54.6	16.7	0.00e+00	0	34	0	462422016	71	4538
2026-01-01 04:19:08.85	11.35	21.89	-53.0	-54.6	16.7	0.00e+00	0	34	0	469762048	71	4519
2026-01-01 04:19:12.86	10.38	22.12	-53.1	-54.7	16.7	0.00e+00	0	34	0	477102080	71	4573
2026-01-01 04:19:16.86	9.39	22.34	-52.9	-54.5	16.8	0.00e+00	0	34	0	484442112	71	4469
2026-01-01 04:19:20.85	8.39	22.55	-52.7	-54.2	16.9	0.00e+00	0	34	0	491782144	71	4333
2026-01-01 04:19:24.84	7.38	22.76	-52.7	-54.2	16.9	0.00e+00	0	34	0	499122176	71	4332
2026-01-01 04:19:28.84	6.36	22.96	-52.7	-54.2	16.9	0.00e+00	0	34	0	506462208	71	4312
2026-01-01 04:19:32.85	5.31	23.15	-52.4	-53.9	17.0	0.00e+00	0	34	0	514850816	71	4176
2026-01-01 04:19:36.84	4.26	23.34	-52.3	-53.8	17.1	0.00e+00	0	34	0	522190848	71	4125
2026-01-01 04:19:40.85	3.20	23.51	-52.7	-54.2	16.9	0.00e+00	0	34	0	529530880	71	4340
2026-01-01 04:19:44.84	2.12	23.67	-52.9	-54.5	16.8	0.00e+00	0	34	0	536870912	71	4443
2026-01-01 04:19:48.83	1.04	23.82	-53.0	-54.6	16.7	0.00e+00	0	34	0	544210944	71	4541
2026-01-01 04:19:52.85	359.93	23.97	-53.3	-55.0	16.6	0.00e+00	0	34	0	551550976	71	4708
2026-01-01 04:19:56.85	358.83	24.10	-53.9	-55.7	16.4	0.00e+00	0	33	0	558891008	73	4595
2026-01-01 04:20:00.85	357.71	24.22	-54.0	-55.8	16.4	0.00e+00	0	34	0	567279616	73	4623
2026-01-01 04:20:04.84	356.59	24.33	-54.2	-56.1	16.2	0.00e+00	0	34	0	574619648	73	4770
2026-01-01 04:20:08.84	355.46	24.43	-54.5	-56.4	16.1	0.00e+00	0	34	0	581959680	74	4671
2026-01-01 04:20:12.84	354.32	24.51	-54.5	-56.4	16.1	0.00e+00	0	34	0	589299712	74	4668
2026-01-01 04:20:16.84	353.17	24.59	-54.8	-56.8	15.9	0.00e+00	0	34	0	596639744	74	4900
2026-01-01 04:20:20.81	352.03	24.65	-54.4	-56.3	16.1	0.00e+00	0	34	0	603979776	74	4628
2026-01-01 04:20:24.80	350.88	24.69	-54.4	-56.3	16.1	0.00e+00	0	34	0	611319808	74	4605
2026-01-01 04:20:28.79	349.73	24.73	-54.5	-56.4	16.1	0.00e+00	0	34	0	619708416	74	4684
2026-01-01 04:20:32.80	348.56	24.75	-54.5	-56.4	16.1	0.00e+00	0	34	0	627048448	74	4688
2026-01-01 04:20:36.81	347.40	24.76	-54.0	-55.8	16.4	0.00e+00	0	34	0	634388480	74	4374
2026-01-01 04:20:40.81	346.24	24.76	-54.2	-56.0	16.3	0.00e+00	0	34	0	641728512	74	4474
2026-01-01 04:20:44.81	345.08	24.75	-53.7	-55.4	16.5	0.00e+00	0	34	0	649068544	73	4408
2026-01-01 04:20:48.81	343.92	24.72	-53.5	-55.2	16.7	0.00e+00	0	34	0	656408576	73	4302
2026-01-01 04:20:52.79	342.77	24.68	-53.1	-54.6	16.9	0.00e+00	0	34	0	664797184	72	4284
2026-01-01 04:20:56.79	341.62	24.63	-52.8	-54.3	16.9	0.00e+00	0	34	0	672137216	71	4379
2026-01-01 04:21:00.78	340.47	24.56	-52.6	-54.1	16.9	0.00e+00	0	34	0	679477248	71	4270
2026-01-01 04:21:04.77	339.33	24.48	-52.4	-53.8	17.1	0.00e+00	0	34	0	686817280	71	4143
2026-01-01 04:21:08.77	338.20	24.39	-52.3	-53.7	17.1	0.00e+00	0	34	0	694157312	70	4324
2026-01-01 04:21:12.75	337.07	24.29	-52.3	-53.8	17.2	0.00e+00	0	34	0	701497344	70	4356
2026-01-01 04:21:16.75	335.95	24.18	-52.5	-53.9	17.1	0.00e+00	0	34	0	708837376	70	4432
2026-01-01 04:21:20.75	334.84	24.05	-52.5	-54.0	17.0	0.00e+00	0	34	0	717225984	70	4490
2026-01-01 04:21:24.74	333.74	23.92	-52.9	-54.5	16.9	0.00e+00	0	34	0	724566016	71	4464
2026-01-01 04:21:28.75	332.64	23.77	-53.2	-54.9	16.7	0.00e+00	0	34	0	731906048	71	4653
2026-01-01 04:21:32.75	331.55	23.61	-53.3	-55.0	16.7	0.00e+00	0	34	0	739246080	72	4450
2026-01-01 04:21:36.74	330.49	23.45	-53.4	-55.1	16.7	0.00e+00	0	34	0	746586112	72	4518
2026-01-01 04:21:40.76	329.42	23.27	-53.9	-55.6	16.4	0.00e+00	0	34	0	753926144	72	4810
2026-01-01 04:21:44.76	328.37	23.09	-54.0	-55.8	16.4	0.00e+00	0	34	0	762314752	73	4638
2026-01-01 04:21:48.76	327.33	22.89	-54.0	-55.7	16.4	0.00e+00	0	34	0	769654784	73	4590
2026-01-01 04:21:52.74	326.32	22.69	-54.2	-56.1	16.3	0.00e+00	0	34	0	776994816	73	4776
2026-01-01 04:21:56.73	325.31	22.48	-54.5	-56.4	16.1	0.00e+00	0	34	0	784334848	74	4704
2026-01-01 04:22:00.75	324.31	22.26	-54.3	-56.2	16.2	0.00e+00	0	34	0	791674880	74	4548
2026-01-01 04:22:04.74	323.33	22.03	-54.6	-56.6	16.1	0.00e+00	0	34	0	799014912	74	4779
2026-01-01 04:22:08.74	322.37	21.80	-54.5	-56.4	16.2	0.00e+00	0	34	0	806354944	74	4682
2026-01-01 04:22:12.74	321.41	21.56	-54.3	-56.2	16.3	0.00e+00	0	34	0	814743552	74	4554
2026-01-01 04:22:16.74	320.48	21.32	-54.2	-56.0	16.3	0.00e+00	0	34	0	822083584	74	4486
2026-01-01 04:22:20.73	319.56	21.07	-53.9	-55.6	16.5	0.00e+00	0	34	0	829423616	74	4274
2026-01-01 04:22:24.74	318.65	20.81	-53.9	-55.6	16.5	0.00e+00	0	34	0	836763648	74	4289
2026-01-01 04:22:28.74	317.76	20.55	-53.8	-55.5	16.5	0.00e+00	0	34	0	844103680	74	4237
2026-01-01 04:22:32.74	316.88	20.29	-53.9	-55.7	16.4	0.00e+00	0	34	0	851443712	74	4326
2026-01-01 04:22:36.74	316.02	20.02	-53.7	-55.4	16.6	0.00e+00	0	34	0	858783744	74	4170
2026-01-01 04:22:40.74	315.18	19.74	-53.7	-55.4	16.5	0.00e+00	0	33	0	867172352	73	4430
2026-01-01 04:22:44.75	314.34	19.47	-53.8	-55.5	16.5	0.00e+00	0	34	0	874512384	73	4476
2026-01-01 04:22:48.74	313.53	19.19	-53.9	-55.7	16.4	0.00e+00	0	33	0	881852416	73	4558
2026-01-01 04:22:52.74	312.73	18.91	-53.8	-55.6	16.4	0.00e+00	0	34	0	889192448	73	4503
2026-01-01 04:22:56.74	311.95	18.62	-53.6	-55.3	16.6	0.00e+00	0	34	0	896532480	73	4388
2026-01-01 04:23:00.74	311.17	18.33	-53.6	-55.3	16.6	0.00e+00	0	33	0	903872512	73	4374
2026-01-01 04:23:04.74	310.42	18.05	-53.5	-55.2	16.6	0.00e+00	0	34	0	911212544	73	4339
2026-01-01 04:23:08.74	309.68	17.76	-53.5	-55.2	16.6	0.00e+00	0	34	0	919601152	73	4337
2026-01-01 04:23:12.72	308.95	17.46	-53.1	-54.7	16.8	0.00e+00	0	34	0	926941184	72	4327
2026-01-01 04:23:16.74	308.24	17.17	-53.1	-54.7	16.8	0.00e+00	0	34	0	934281216	72	4333
2026-01-01 04:23:20.72	307.54	16.88	-53.1	-54.7	16.8	0.00e+00	0	34	0	941621248	72	4329
2026-01-01 04:23:24.72	306.86	16.58	-52.9	-54.5	16.8	0.00e+00	0	34	0	948961280	72	4233
2026-01-01 04:23:28.72	306.19	16.29	-53.0	-54.6	16.9	0.00e+00	0	34	0	956301312	72	4264
2026-01-01 04:23:32.73	305.53	15.99	-53.1	-54.8	16.8	0.00e+00	0	34	0	964689920	72	4357
2026-01-01 04:23:36.74	304.88	15.69	-52.9	-54.5	16.8	0.00e+00	0	34	0	972029952	72	4233
2026-01-01 04:23:40.74	304.25	15.40	-52.9	-54.5	16.8	0.00e+00	0	34	0	979369984	72	4222
2026-01-01 04:23:44.74	303.63	15.10	-53.0	-54.7	16.8	0.00e+00	0	34	0	986710016	72	4294
2026-01-01 04:23:48.75	303.02	14.80	-53.2	-54.9	16.7	0.00e+00	0	34	0	994050048	72	4418
2026-01-01 04:23:52.74	302.42	14.51	-53.5	-55.2	16.5	0.00e+00	0	34	0	1001390080	72	4577
2026-01-01 04:23:56.73	301.84	14.22	-53.8	-55.6	16.3	0.00e+00	0	34	0	1008730112	72	4788
2026-01-01 04:24:00.74	301.27	13.92	-53.8	-55.6	16.3	0.00e+00	0	34	0	1017118720	73	4536
2026-01-01 04:24:04.75	300.71	13.63	-53.6	-55.4	16.4	0.00e+00	0	34	0	1024458752	73	4399
2026-01-01 04:24:08.74	300.16	13.33	-53.9	-55.8	16.3	0.00e+00	0	34	0	1031798784	73	4609
2026-01-01 04:24:12.74	299.62	13.04	-54.3	-56.2	16.0	0.00e+00	0	34	0	1039138816	73	4868
2026-01-01 04:24:16.74	299.10	12.75	-54.1	-56.0	16.1	0.00e+00	0	34	0	1046478848	73	4732
2026-01-01 04:24:20.72	298.58	12.46	-54.1	-56.0	16.1	0.00e+00	0	34	0	1053818880	73	4714
2026-01-01 04:24:24.72	298.07	12.18	-54.3	-56.2	16.0	0.00e+00	0	34	0	1062207488	73	4858
2026-01-01 04:24:28.70	297.58	11.89	-54.4	-56.3	16.0	0.00e+00	0	34	0	1069547520	74	4629
2026-01-01 04:24:32.71	297.09	11.60	-54.5	-56.5	15.9	0.00e+00	0	34	0	1076887552	74	4753
2026-01-01 04:24:36.70	296.62	11.32	-54.7	-56.8	15.8	0.00e+00	0	34	0	1084227584	74	4897
2026-01-01 04:24:40.69	296.15	11.04	-54.8	-57.0	15.6	0.00e+00	0	34	0	1091567616	74	4998
2026-01-01 04:24:44.69	295.69	10.75	-54.9	-57.0	15.6	0.00e+00	0	34	0	1098907648	75	4744
2026-01-01 04:24:48.68	295.24	10.47	-54.7	-56.8	15.7	0.00e+00	0	34	0	1106247680	75	4630
2026-01-01 04:24:52.66	294.80	10.20	-55.1	-57.2	15.5	0.00e+00	0	34	0	1114636288	75	4869
2026-01-01 04:24:56.64	294.37	9.92	-55.4	-57.7	15.3	0.00e+00	0	34	0	1121976320	75	5137
2026-01-01 04:25:00.63	293.95	9.64	-55.5	-57.8	15.3	0.00e+00	0	34	0	1129316352	76	4920
2026-01-01 04:25:04.64	293.53	9.37	-55.5	-57.9	15.2	0.00e+00	0	34	0	1136656384	76	4934
2026-01-01 04:25:08.64	293.13	9.10	-55.8	-58.4	14.9	0.00e+00	0	34	0	1143996416	76	5231
2026-01-01 04:25:12.63	292.73	8.82	-55.9	-58.5	14.8	0.00e+00	0	34	0	1151336448	77	4993
2026-01-01 04:25:16.60	292.34	8.56	-55.8	-58.4	14.9	0.00e+00	0	34	0	1158676480	77	4935
2026-01-01 04:25:20.57	291.95	8.29	-55.7	-58.2	15.0	0.00e+00	0	34	0	1166016512	77	4829
2026-01-01 04:25:24.56	291.58	8.02	-55.7	-58.3	14.8	0.00e+00	0	34	0	1174405120	77	4886
2026-01-01 04:25:28.53	291.21	7.76	-55.9	-58.6	14.7	0.00e+00	0	34	0	1181745152	77	5047
2026-01-01 04:25:32.54	290.84	7.50	-56.1	-58.8	14.5	0.00e+00	0	34	0	1189085184	77	5176
2026-01-01 04:25:36.53	290.49	7.24	-56.2	-59.0	14.3	0.00e+00	0	33	0	1196425216	77	5305
2026-01-01 04:25:40.53	290.14	6.98	-56.2	-59.1	14.2	0.00e+00	0	34	0	1203765248	77	5365
2026-01-01 04:25:44.52	289.79	6.72	-56.3	-59.3	14.1	0.00e+00	0	34	0	1211105280	77	5496
2026-01-01 04:25:48.51	289.46	6.46	-56.4	-59.5	14.0	0.00e+00	0	34	0	1218445312	78	5282
2026-01-01 04:25:52.49	289.13	6.21	-56.5	-59.6	13.9	0.00e+00	0	34	0	1225785344	78	5346
2026-01-01 04:25:56.47	288.80	5.95	-56.7	-60.0	13.5	0.00e+00	0	34	0	1234173952	78	5628
2026-01-01 04:26:00.48	288.48	5.70	-56.6	-59.9	13.5	7.00e-07	0	34	0	1241513984	78	5561
2026-01-01 04:26:04.47	288.17	5.45	-56.6	-59.9	13.5	0.00e+00	0	34	0	1248854016	78	5590
2026-01-01 04:26:08.47	287.86	5.20	-56.7	-60.1	13.4	0.00e+00	0	34	0	1256194048	78	5683
2026-01-01 04:26:12.46	287.55	4.95	-60.6	-76.5	3.8	1.46e+00	0	34	104	1262485504	86	23766
2026-01-01 04:26:16.45	287.26	4.71	-61.4	-77.4	3.8	1.49e+00	0	34	104	1262485504	87	24721
2026-01-01 04:26:20.43	286.96	4.46	-61.7	-77.8	3.8	1.49e+00	0	34	104	1262485504	88	24425
2026-01-01 04:26:24.43	286.68	4.22	-61.9	-77.9	3.8	1.49e+00	0	34	104	1262485504	88	24895
2026-01-01 04:26:28.43	286.39	3.98	-62.0	-78.1	3.8	1.49e+00	0	34	104	1262485504	89	23894
2026-01-01 04:26:32.42	286.12	3.74	-62.1	-78.1	3.8	1.49e+00	0	34	104	1262485504	89	23990
2026-01-01 04:26:36.43	285.84	3.50	-62.1	-78.1	3.8	1.49e+00	0	34	104	1262485504	89	23987
2026-01-01 04:26:40.44	285.57	3.26	-62.0	-78.1	3.8	1.49e+00	0	34	104	1262485504	89	23856
2026-01-01 04:26:44.46	285.31	3.03	-61.9	-77.9	3.8	1.49e+00	0	34	104	1262485504	89	23549
2026-01-01 04:26:48.45	285.05	2.79	-61.9	-77.9	3.8	1.49e+00	0	34	104	1262485504	89	23463
2026-01-01 04:26:52.46	284.79	2.56	-61.8	-77.9	3.8	1.49e+00	0	34	104	1262485504	89	23327
2026-01-01 04:26:56.46	284.54	2.33	-61.8	-77.8	3.8	1.49e+00	0	34	104	1262485504	89	23311
2026-01-01 04:27:00.46	284.29	2.10	-61.8	-77.8	3.8	1.49e+00	0	34	104	1262485504	89	23309

#Closed at: 2026-01-01 04:27:03
#Recorded file [1262 MB]: D:/lorett/data/31004_260101_071413.dat