passes_logs/2026/01/01/R3.2S_Murmansk/R3.2S_Murmansk__20260101_091124_NOAA_20_JPSS-1_rec.log

#Pass ID: 20260101_091124_NOAA 20 (JPSS-1)
#Satellite: NOAA 20 (JPSS-1)
#Configuration: NOAA 20
#almurnet v.1.7.20251203
#Start time: 2026-01-01 09:11:24

#Version: 2.2.20231116
#Station: R3.2S_Murmansk
#Location: 33.079688 lon 68.888172 lat
#TLE: 1 43013U 17073A   26001.09198674  .00000169  00000+0  10130-3 0  9995
#TLE: 2 43013  98.7621 302.1793 0001944  59.5293 300.6075 14.19531878420769

#Time	Az	El	Level	Level2	SNR	BER	BlckErr	Temp	State	Recorded	gain1	gain2
2026-01-01 09:11:24.00	143.78	2.00	-59.7	-75.7	3.8	1.49e+00	0	32	0	0	85	22932
2026-01-01 09:11:27.97	143.75	2.26	-59.7	-75.7	3.8	1.49e+00	0	32	104	0	84	24236
2026-01-01 09:11:31.95	143.73	2.52	-59.7	-75.7	3.8	1.49e+00	0	32	104	0	84	24255
2026-01-01 09:11:35.91	143.70	2.78	-59.7	-75.7	3.8	1.49e+00	0	32	104	0	84	24195
2026-01-01 09:11:39.91	143.68	3.04	-59.7	-75.5	3.8	1.49e+00	0	32	104	0	84	23702
2026-01-01 09:11:43.89	143.65	3.31	-59.7	-74.4	3.8	1.49e+00	0	32	104	0	84	20928
2026-01-01 09:11:47.86	143.63	3.58	-59.5	-71.7	4.4	1.34e+00	62	32	0	0	84	15246
2026-01-01 09:11:51.83	143.60	3.85	-59.2	-68.5	6.0	3.64e-01	0	32	0	7340032	84	10601
2026-01-01 09:11:55.81	143.57	4.12	-58.2	-64.4	9.3	1.97e-02	0	32	0	14680064	83	6991
2026-01-01 09:11:59.77	143.54	4.40	-57.1	-61.3	12.0	5.34e-05	0	33	0	22020096	80	5851
2026-01-01 09:12:03.76	143.51	4.68	-56.3	-59.8	13.2	7.00e-07	0	33	0	29360128	79	5169
2026-01-01 09:12:07.73	143.48	4.96	-56.8	-60.6	12.6	7.00e-07	0	33	0	36700160	79	5673
2026-01-01 09:12:11.71	143.45	5.24	-58.8	-66.7	7.6	7.00e-07	0	33	0	44040192	82	9697
2026-01-01 09:12:15.68	143.42	5.53	-56.1	-59.3	13.6	0.00e+00	0	33	0	51380224	78	5164
2026-01-01 09:12:19.65	143.38	5.82	-55.9	-58.9	13.9	0.00e+00	0	33	0	58720256	78	4979
2026-01-01 09:12:23.63	143.35	6.12	-55.9	-58.8	14.0	0.00e+00	0	33	0	66060288	78	4921
2026-01-01 09:12:27.60	143.31	6.42	-55.8	-58.7	14.2	0.00e+00	0	33	0	73400320	78	4821
2026-01-01 09:12:31.60	143.28	6.72	-55.9	-58.8	14.1	0.00e+00	0	33	0	80740352	78	4884
2026-01-01 09:12:35.58	143.24	7.03	-55.7	-58.5	14.4	0.00e+00	0	33	0	89128960	78	4731
2026-01-01 09:12:39.55	143.20	7.34	-55.7	-58.4	14.4	0.00e+00	0	33	0	96468992	77	4972
2026-01-01 09:12:43.52	143.16	7.65	-55.6	-58.2	14.6	0.00e+00	0	33	0	103809024	77	4837
2026-01-01 09:12:47.48	143.12	7.96	-55.4	-58.0	14.7	0.00e+00	0	33	0	111149056	77	4732
2026-01-01 09:12:51.46	143.08	8.29	-55.4	-58.0	14.7	0.00e+00	0	33	0	118489088	77	4708
2026-01-01 09:12:55.43	143.04	8.61	-55.4	-57.9	14.8	0.00e+00	0	33	0	125829120	77	4686
2026-01-01 09:12:59.40	142.99	8.94	-55.3	-57.7	14.9	0.00e+00	0	33	0	133169152	77	4587
2026-01-01 09:13:03.39	142.95	9.27	-55.2	-57.5	15.0	0.00e+00	0	33	0	140509184	76	4752
2026-01-01 09:13:07.38	142.90	9.61	-55.1	-57.5	15.1	0.00e+00	0	33	0	147849216	76	4721
2026-01-01 09:13:11.36	142.85	9.96	-55.1	-57.4	15.1	0.00e+00	0	33	0	156237824	76	4698
2026-01-01 09:13:15.33	142.80	10.30	-55.0	-57.3	15.2	0.00e+00	0	33	0	163577856	76	4643
2026-01-01 09:13:19.31	142.75	10.66	-54.9	-57.1	15.4	0.00e+00	0	33	0	170917888	76	4517
2026-01-01 09:13:23.27	142.70	11.01	-54.8	-57.0	15.4	0.00e+00	0	33	0	178257920	76	4486
2026-01-01 09:13:27.25	142.64	11.38	-54.8	-57.0	15.5	0.00e+00	0	33	0	185597952	76	4443
2026-01-01 09:13:31.23	142.58	11.75	-54.6	-56.7	15.6	0.00e+00	0	33	0	192937984	75	4572
2026-01-01 09:13:35.20	142.53	12.12	-54.4	-56.5	15.7	0.00e+00	0	33	0	200278016	75	4448
2026-01-01 09:13:39.17	142.47	12.50	-54.5	-56.5	15.7	0.00e+00	0	33	0	207618048	75	4487
2026-01-01 09:13:43.14	142.40	12.88	-54.3	-56.3	15.8	0.00e+00	0	33	0	214958080	75	4387
2026-01-01 09:13:47.11	142.34	13.27	-54.3	-56.3	15.8	0.00e+00	0	33	0	223346688	75	4346
2026-01-01 09:13:51.07	142.27	13.67	-54.1	-56.0	15.9	0.00e+00	0	33	0	230686720	74	4485
2026-01-01 09:13:55.05	142.21	14.08	-54.1	-56.0	16.0	0.00e+00	0	33	0	238026752	74	4448
2026-01-01 09:13:59.03	142.13	14.49	-54.0	-55.9	16.0	0.00e+00	0	33	0	245366784	74	4406
2026-01-01 09:14:02.98	142.06	14.90	-54.0	-55.8	16.1	0.00e+00	0	33	0	252706816	74	4376
2026-01-01 09:14:06.94	141.99	15.33	-53.9	-55.8	16.1	0.00e+00	0	34	0	260046848	74	4344
2026-01-01 09:14:10.93	141.91	15.76	-53.7	-55.5	16.2	0.00e+00	0	34	0	267386880	73	4461
2026-01-01 09:14:14.90	141.83	16.20	-53.6	-55.3	16.3	0.00e+00	0	33	0	274726912	73	4387
2026-01-01 09:14:18.88	141.74	16.65	-53.4	-55.2	16.3	0.00e+00	0	33	0	282066944	73	4305
2026-01-01 09:14:22.86	141.66	17.11	-53.3	-55.1	16.4	0.00e+00	0	34	0	290455552	73	4249
2026-01-01 09:14:26.82	141.57	17.58	-53.4	-55.1	16.4	0.00e+00	0	33	0	297795584	73	4252
2026-01-01 09:14:30.80	141.48	18.05	-53.1	-54.7	16.6	0.00e+00	0	33	0	305135616	72	4315
2026-01-01 09:14:34.77	141.38	18.54	-53.0	-54.6	16.6	0.00e+00	0	33	0	312475648	72	4263
2026-01-01 09:14:38.74	141.28	19.03	-52.9	-54.5	16.7	0.00e+00	0	33	0	319815680	72	4235
2026-01-01 09:14:42.71	141.18	19.53	-52.8	-54.3	16.8	0.00e+00	0	34	0	327155712	72	4132
2026-01-01 09:14:46.69	141.07	20.05	-52.8	-54.4	16.7	0.00e+00	0	34	0	334495744	71	4404
2026-01-01 09:14:50.67	140.96	20.57	-52.6	-54.2	16.8	0.00e+00	0	33	0	341835776	71	4317
2026-01-01 09:14:54.63	140.84	21.11	-52.6	-54.2	16.8	0.00e+00	0	34	0	349175808	71	4292
2026-01-01 09:14:58.61	140.72	21.65	-52.5	-54.1	16.8	0.00e+00	0	34	0	356515840	71	4257
2026-01-01 09:15:02.58	140.59	22.21	-52.5	-54.0	16.8	0.00e+00	0	34	0	363855872	71	4236
2026-01-01 09:15:06.55	140.46	22.78	-52.5	-54.1	16.8	0.00e+00	0	34	0	372244480	71	4250
2026-01-01 09:15:10.52	140.33	23.37	-52.6	-54.2	16.8	0.00e+00	0	33	0	379584512	71	4295
2026-01-01 09:15:14.48	140.19	23.96	-52.7	-54.3	16.8	0.00e+00	0	34	0	386924544	71	4360
2026-01-01 09:15:18.45	140.04	24.57	-52.9	-54.5	16.7	0.00e+00	0	33	0	394264576	71	4471
2026-01-01 09:15:22.42	139.88	25.20	-53.1	-54.7	16.6	0.00e+00	0	34	0	401604608	71	4576
2026-01-01 09:15:26.40	139.72	25.84	-53.2	-54.8	16.6	0.00e+00	0	34	0	408944640	71	4637
2026-01-01 09:15:30.38	139.55	26.49	-53.4	-55.0	16.5	0.00e+00	0	34	0	416284672	71	4740
2026-01-01 09:15:34.35	139.38	27.17	-53.6	-55.3	16.4	0.00e+00	0	34	0	423624704	72	4641
2026-01-01 09:15:38.34	139.19	27.86	-54.0	-55.8	16.2	0.00e+00	0	33	0	430964736	73	4643
2026-01-01 09:15:42.30	139.00	28.56	-54.6	-56.5	16.0	0.00e+00	0	33	0	439353344	74	4739
2026-01-01 09:15:46.27	138.80	29.28	-55.3	-57.5	15.5	0.00e+00	0	33	0	446693376	75	4994
2026-01-01 09:15:50.24	138.58	30.02	-55.8	-58.1	15.2	0.00e+00	0	33	0	454033408	76	5089
2026-01-01 09:15:54.20	138.36	30.78	-56.0	-58.4	15.1	0.00e+00	0	34	0	461373440	77	4928
2026-01-01 09:15:58.18	138.13	31.56	-56.2	-58.6	15.0	0.00e+00	0	33	0	468713472	77	5091
2026-01-01 09:16:02.15	137.88	32.37	-56.2	-58.7	15.0	0.00e+00	0	34	0	476053504	77	5112
2026-01-01 09:16:06.13	137.62	33.19	-56.3	-58.8	14.9	0.00e+00	0	33	0	483393536	77	5180
2026-01-01 09:16:10.12	137.34	34.04	-56.2	-58.7	15.0	0.00e+00	0	34	0	490733568	77	5120
2026-01-01 09:16:14.09	137.05	34.91	-55.8	-58.0	15.3	0.00e+00	0	34	0	498073600	77	4749
2026-01-01 09:16:18.09	136.74	35.80	-55.2	-57.3	15.7	0.00e+00	0	34	0	506462208	77	4372
2026-01-01 09:16:22.06	136.41	36.72	-54.8	-56.7	16.0	0.00e+00	0	33	0	513802240	76	4314
2026-01-01 09:16:26.03	136.07	37.66	-54.8	-56.8	16.0	0.00e+00	0	34	0	521142272	76	4349
2026-01-01 09:16:30.00	135.70	38.63	-54.8	-56.8	16.0	0.00e+00	0	33	0	528482304	75	4631
2026-01-01 09:16:33.98	135.31	39.62	-55.5	-57.6	15.6	0.00e+00	0	34	0	535822336	76	4785
2026-01-01 09:16:37.95	134.89	40.64	-55.9	-58.2	15.3	0.00e+00	0	34	0	543162368	76	5111
2026-01-01 09:16:41.93	134.45	41.69	-56.0	-58.3	15.3	0.00e+00	0	34	0	550502400	77	4894
2026-01-01 09:16:45.90	133.97	42.77	-56.2	-58.6	15.1	0.00e+00	0	34	0	557842432	77	5069
2026-01-01 09:16:49.90	133.45	43.88	-55.7	-57.9	15.5	0.00e+00	0	34	0	565182464	77	4664
2026-01-01 09:16:53.87	132.90	45.02	-55.8	-58.1	15.3	0.00e+00	0	34	0	573571072	77	4772
2026-01-01 09:16:57.84	132.31	46.19	-55.9	-58.1	15.4	0.00e+00	0	34	0	580911104	77	4800
2026-01-01 09:17:01.80	131.68	47.38	-56.2	-58.6	15.1	0.00e+00	0	34	0	588251136	78	4782
2026-01-01 09:17:05.78	130.98	48.61	-56.4	-58.8	15.0	0.00e+00	0	34	0	595591168	78	4902
2026-01-01 09:17:09.75	130.23	49.86	-55.5	-57.7	15.7	0.00e+00	0	34	0	602931200	77	4550
2026-01-01 09:17:13.73	129.41	51.15	-54.3	-56.1	16.3	0.00e+00	0	34	0	610271232	75	4259
2026-01-01 09:17:17.72	128.52	52.48	-53.0	-54.5	16.9	0.00e+00	0	33	0	617611264	72	4239
2026-01-01 09:17:21.70	127.53	53.82	-53.2	-54.7	16.8	0.00e+00	0	34	0	624951296	72	4321
2026-01-01 09:17:25.67	126.46	55.19	-54.1	-55.8	16.4	0.00e+00	0	34	0	632291328	73	4624
2026-01-01 09:17:29.64	125.27	56.59	-54.7	-56.5	16.1	0.00e+00	0	34	0	639631360	74	4756
2026-01-01 09:17:33.62	123.95	58.01	-55.9	-58.2	15.4	0.00e+00	0	34	0	648019968	77	4820
2026-01-01 09:17:37.60	122.48	59.44	-55.5	-57.6	15.7	0.00e+00	0	34	0	655360000	77	4525
2026-01-01 09:17:41.58	120.84	60.90	-53.5	-55.1	16.7	0.00e+00	0	34	0	662700032	73	4258
2026-01-01 09:17:45.55	118.99	62.35	-52.8	-54.2	17.0	0.00e+00	0	34	0	670040064	72	4096
2026-01-01 09:17:49.53	116.91	63.82	-53.3	-54.8	16.8	0.00e+00	0	34	0	677380096	72	4387
2026-01-01 09:17:53.50	114.55	65.27	-54.9	-56.8	16.1	0.00e+00	0	33	0	684720128	74	4884
2026-01-01 09:17:57.47	111.86	66.71	-56.1	-58.3	15.3	0.00e+00	0	33	0	692060160	77	4921
2026-01-01 09:18:01.46	108.76	68.12	-56.3	-58.6	15.2	0.00e+00	0	34	0	699400192	77	5075
2026-01-01 09:18:05.44	105.22	69.49	-55.8	-58.0	15.5	0.00e+00	0	34	0	706740224	77	4754
2026-01-01 09:18:09.43	101.13	70.79	-54.3	-56.0	16.4	0.00e+00	0	34	0	715128832	75	4239
2026-01-01 09:18:13.49	96.34	72.02	-54.1	-55.8	16.5	0.00e+00	0	34	0	721420288	74	4372
2026-01-01 09:18:17.48	90.95	73.11	-54.5	-56.2	16.3	0.00e+00	0	34	0	729808896	74	4595
2026-01-01 09:18:21.46	84.84	74.04	-56.2	-58.5	15.3	0.00e+00	0	34	0	737148928	77	5007
2026-01-01 09:18:25.43	78.05	74.78	-57.4	-60.3	14.3	0.00e+00	0	34	0	744488960	79	5468
2026-01-01 09:18:29.41	70.62	75.30	-57.7	-60.7	14.0	0.00e+00	0	34	0	751828992	81	5136
2026-01-01 09:18:33.38	62.80	75.57	-57.3	-60.0	14.4	0.00e+00	0	34	0	759169024	80	5027
2026-01-01 09:18:37.36	54.80	75.57	-56.6	-59.0	15.0	0.00e+00	0	34	0	766509056	79	4745
2026-01-01 09:18:41.34	46.96	75.29	-56.6	-59.1	15.0	0.00e+00	0	34	0	773849088	79	4774
2026-01-01 09:18:45.32	39.55	74.77	-57.3	-60.2	14.3	0.00e+00	0	34	0	781189120	80	5104
2026-01-01 09:18:49.30	32.76	74.02	-56.7	-59.2	15.0	0.00e+00	0	34	0	789577728	79	4843
2026-01-01 09:18:53.28	26.67	73.09	-55.8	-57.9	15.7	0.00e+00	0	34	0	796917760	78	4411
2026-01-01 09:18:57.27	21.30	72.00	-54.7	-56.5	16.3	0.00e+00	0	34	0	804257792	76	4229
2026-01-01 09:19:01.25	16.62	70.79	-55.6	-57.7	15.8	0.00e+00	0	34	0	811597824	76	4838
2026-01-01 09:19:05.22	12.55	69.50	-56.8	-59.4	14.9	0.00e+00	0	34	0	818937856	78	5233
2026-01-01 09:19:09.18	9.03	68.14	-56.9	-59.4	14.8	0.00e+00	0	34	0	826277888	78	5266
2026-01-01 09:19:13.16	5.94	66.73	-55.4	-57.4	15.9	0.00e+00	0	34	0	833617920	77	4427
2026-01-01 09:19:17.15	3.24	65.29	-53.7	-55.4	16.8	0.00e+00	0	34	0	840957952	74	4146
2026-01-01 09:19:21.13	0.87	63.83	-52.8	-54.3	17.1	0.00e+00	0	33	0	848297984	72	4123
2026-01-01 09:19:25.12	358.78	62.37	-52.1	-53.5	17.3	0.00e+00	0	34	0	856686592	70	4197
2026-01-01 09:19:29.10	356.94	60.91	-54.4	-56.2	16.4	0.00e+00	0	34	0	864026624	73	4815
2026-01-01 09:19:33.08	355.29	59.46	-57.3	-60.1	14.4	0.00e+00	0	34	0	871366656	79	5390
2026-01-01 09:19:37.07	353.82	58.02	-57.1	-59.7	14.6	0.00e+00	0	34	0	878706688	80	4866
2026-01-01 09:19:41.05	352.50	56.61	-57.2	-59.9	14.5	0.00e+00	0	34	0	886046720	80	4971
2026-01-01 09:19:45.02	351.32	55.22	-54.8	-56.7	16.3	0.00e+00	0	34	0	893386752	76	4303
2026-01-01 09:19:49.00	350.24	53.85	-53.8	-55.5	16.7	0.00e+00	0	34	0	900726784	74	4196
2026-01-01 09:19:52.97	349.26	52.51	-53.3	-54.9	16.9	0.00e+00	0	34	0	908066816	73	4151
2026-01-01 09:19:56.96	348.37	51.19	-54.5	-56.3	16.3	0.00e+00	0	34	0	915406848	74	4609
2026-01-01 09:20:00.95	347.55	49.90	-56.0	-58.3	15.4	0.00e+00	0	34	0	923795456	77	4894
2026-01-01 09:20:04.92	346.80	48.65	-56.3	-58.6	15.3	0.00e+00	0	34	0	931135488	77	5080
2026-01-01 09:20:08.90	346.11	47.42	-56.0	-58.1	15.5	0.00e+00	0	34	0	938475520	77	4812
2026-01-01 09:20:12.88	345.47	46.23	-56.5	-58.9	15.1	0.00e+00	0	34	0	945815552	78	4956
2026-01-01 09:20:16.85	344.88	45.06	-56.2	-58.5	15.3	0.00e+00	0	34	0	953155584	78	4746
2026-01-01 09:20:20.83	344.33	43.93	-56.2	-58.5	15.3	0.00e+00	0	34	0	960495616	78	4722
2026-01-01 09:20:24.80	343.82	42.83	-56.5	-58.9	15.1	0.00e+00	0	34	0	967835648	78	4936
2026-01-01 09:20:28.76	343.34	41.76	-56.7	-59.2	14.8	0.00e+00	0	34	0	975175680	78	5147
2026-01-01 09:20:32.74	342.90	40.71	-56.7	-59.3	14.8	0.00e+00	0	34	0	982515712	78	5194
2026-01-01 09:20:36.71	342.48	39.69	-56.8	-59.3	14.8	0.00e+00	0	34	0	990904320	79	4910
2026-01-01 09:20:40.67	342.09	38.70	-56.5	-58.9	15.0	0.00e+00	0	34	0	998244352	79	4703
2026-01-01 09:20:44.65	341.73	37.74	-55.6	-57.7	15.6	0.00e+00	0	34	0	1005584384	77	4586
2026-01-01 09:20:48.63	341.38	36.80	-55.5	-57.5	15.8	0.00e+00	0	34	0	1012924416	77	4483
2026-01-01 09:20:52.60	341.06	35.88	-55.9	-58.1	15.4	0.00e+00	0	34	0	1020264448	77	4795
2026-01-01 09:20:56.57	340.75	34.99	-56.3	-58.8	15.1	0.00e+00	0	34	0	1027604480	78	4875
2026-01-01 09:21:00.53	340.46	34.13	-55.7	-57.9	15.5	0.00e+00	0	34	0	1034944512	78	4416
2026-01-01 09:21:04.49	340.19	33.29	-55.6	-57.7	15.6	0.00e+00	0	34	0	1042284544	77	4596
2026-01-01 09:21:08.47	339.93	32.47	-55.9	-58.2	15.3	0.00e+00	0	34	0	1049624576	77	4848
2026-01-01 09:21:12.44	339.68	31.67	-56.1	-58.4	15.2	0.00e+00	0	34	0	1056964608	77	4980
2026-01-01 09:21:16.41	339.45	30.89	-56.6	-59.1	14.8	0.00e+00	0	34	0	1065353216	78	5088
2026-01-01 09:21:20.40	339.22	30.13	-56.6	-59.2	14.8	0.00e+00	0	34	0	1072693248	78	5118
2026-01-01 09:21:24.38	339.01	29.39	-56.5	-59.0	14.9	0.00e+00	0	34	0	1080033280	78	5025
2026-01-01 09:21:28.35	338.81	28.66	-55.9	-58.2	15.3	0.00e+00	0	34	0	1087373312	78	4584
2026-01-01 09:21:32.32	338.62	27.96	-55.6	-57.8	15.5	0.00e+00	0	34	0	1094713344	77	4613
2026-01-01 09:21:36.30	338.43	27.27	-55.5	-57.7	15.6	0.00e+00	0	34	0	1102053376	77	4557
2026-01-01 09:21:40.29	338.26	26.60	-55.5	-57.6	15.6	0.00e+00	0	34	0	1109393408	77	4516
2026-01-01 09:21:44.27	338.09	25.95	-55.4	-57.5	15.6	0.00e+00	0	34	0	1116733440	77	4479
2026-01-01 09:21:48.24	337.93	25.31	-54.9	-56.8	15.9	0.00e+00	0	34	0	1124073472	76	4391
2026-01-01 09:21:52.22	337.78	24.68	-54.8	-56.7	16.0	0.00e+00	0	34	0	1132462080	76	4311
2026-01-01 09:21:56.21	337.63	24.07	-54.7	-56.6	16.0	0.00e+00	0	34	0	1139802112	75	4525
2026-01-01 09:22:00.18	337.49	23.47	-54.8	-56.7	16.0	0.00e+00	0	34	0	1147142144	75	4596
2026-01-01 09:22:04.16	337.36	22.89	-54.8	-56.8	15.9	0.00e+00	0	34	0	1154482176	75	4634
2026-01-01 09:22:08.14	337.23	22.32	-54.9	-56.9	15.8	0.00e+00	0	34	0	1161822208	75	4704
2026-01-01 09:22:12.12	337.10	21.76	-54.6	-56.6	16.0	0.00e+00	0	34	0	1169162240	75	4519
2026-01-01 09:22:16.10	336.98	21.21	-54.7	-56.7	15.9	0.00e+00	0	34	0	1176502272	75	4577
2026-01-01 09:22:20.07	336.87	20.68	-55.0	-57.1	15.7	0.00e+00	0	34	0	1183842304	75	4771
2026-01-01 09:22:24.03	336.76	20.16	-55.0	-57.1	15.7	0.00e+00	0	34	0	1192230912	75	4810
2026-01-01 09:22:28.02	336.65	19.64	-55.2	-57.3	15.5	0.00e+00	0	34	0	1199570944	75	4912
2026-01-01 09:22:31.99	336.55	19.14	-55.2	-57.3	15.5	0.00e+00	0	34	0	1206910976	75	4926
2026-01-01 09:22:35.96	336.45	18.65	-55.2	-57.3	15.6	0.00e+00	0	34	0	1214251008	75	4911
2026-01-01 09:22:39.95	336.36	18.17	-55.3	-57.6	15.5	0.00e+00	0	34	0	1221591040	75	5043
2026-01-01 09:22:43.93	336.27	17.69	-55.5	-57.8	15.4	0.00e+00	0	34	0	1228931072	76	4892
2026-01-01 09:22:47.89	336.18	17.23	-55.8	-58.1	15.2	0.00e+00	0	34	0	1236271104	76	5083
2026-01-01 09:22:51.87	336.10	16.77	-55.9	-58.3	15.0	0.00e+00	0	34	0	1243611136	77	4921
2026-01-01 09:22:55.84	336.01	16.32	-56.1	-58.6	14.9	0.00e+00	0	34	0	1250951168	77	5070
2026-01-01 09:22:59.80	335.94	15.88	-56.1	-58.7	14.7	0.00e+00	0	34	0	1258291200	77	5145
2026-01-01 09:23:03.78	335.86	15.45	-56.3	-58.9	14.6	0.00e+00	0	34	0	1266679808	77	5265
2026-01-01 09:23:07.76	335.79	15.03	-56.1	-58.7	14.7	0.00e+00	0	34	0	1274019840	77	5146
2026-01-01 09:23:11.75	335.71	14.61	-56.0	-58.5	14.9	0.00e+00	0	34	0	1281359872	77	5027
2026-01-01 09:23:15.72	335.65	14.20	-55.9	-58.5	14.9	0.00e+00	0	34	0	1288699904	77	4991
2026-01-01 09:23:19.69	335.58	13.79	-55.9	-58.4	14.9	0.00e+00	0	34	0	1296039936	77	4949
2026-01-01 09:23:23.67	335.52	13.40	-55.9	-58.5	14.9	0.00e+00	0	34	0	1303379968	77	4998
2026-01-01 09:23:27.65	335.45	13.00	-55.8	-58.2	14.9	0.00e+00	0	34	0	1310720000	76	5138
2026-01-01 09:23:31.62	335.39	12.62	-55.8	-58.3	14.9	0.00e+00	0	34	0	1318060032	76	5196
2026-01-01 09:23:35.61	335.34	12.24	-55.8	-58.4	14.9	0.00e+00	0	34	0	1325400064	76	5222
2026-01-01 09:23:39.59	335.28	11.87	-55.8	-58.3	14.9	0.00e+00	0	34	0	1333788672	76	5196
2026-01-01 09:23:43.56	335.23	11.50	-55.9	-58.5	14.8	0.00e+00	0	34	0	1341128704	77	4995
2026-01-01 09:23:47.54	335.17	11.14	-56.0	-58.6	14.7	0.00e+00	0	34	0	1348468736	77	5067
2026-01-01 09:23:51.51	335.12	10.78	-56.0	-58.7	14.6	0.00e+00	0	34	0	1355808768	77	5111
2026-01-01 09:23:55.47	335.07	10.43	-56.1	-58.8	14.5	0.00e+00	0	34	0	1363148800	77	5199
2026-01-01 09:23:59.45	335.03	10.08	-56.2	-58.9	14.4	0.00e+00	0	34	0	1370488832	77	5270
2026-01-01 09:24:03.42	334.98	9.74	-56.1	-58.9	14.4	0.00e+00	0	34	0	1377828864	77	5223
2026-01-01 09:24:07.39	334.94	9.40	-56.0	-58.8	14.5	0.00e+00	0	34	0	1385168896	77	5174
2026-01-01 09:24:11.37	334.89	9.07	-56.1	-59.0	14.3	0.00e+00	0	34	0	1392508928	77	5282
2026-01-01 09:24:15.35	334.85	8.74	-56.1	-58.9	14.4	0.00e+00	0	34	0	1400897536	77	5224
2026-01-01 09:24:19.32	334.81	8.42	-56.2	-59.1	14.2	0.00e+00	0	34	0	1408237568	77	5389
2026-01-01 09:24:23.29	334.77	8.10	-56.2	-59.0	14.2	0.00e+00	0	34	0	1415577600	77	5332
2026-01-01 09:24:27.26	334.73	7.78	-56.1	-59.0	14.3	0.00e+00	0	34	0	1422917632	77	5300
2026-01-01 09:24:31.22	334.70	7.47	-56.1	-59.0	14.2	0.00e+00	0	34	0	1430257664	77	5313
2026-01-01 09:24:35.20	334.66	7.16	-56.0	-58.9	14.3	0.00e+00	0	34	0	1437597696	77	5220
2026-01-01 09:24:39.17	334.62	6.86	-56.0	-58.8	14.3	0.00e+00	0	34	0	1444937728	77	5190
2026-01-01 09:24:43.14	334.59	6.56	-56.0	-58.9	14.2	0.00e+00	0	34	0	1452277760	77	5269
2026-01-01 09:24:47.11	334.56	6.26	-56.0	-58.9	14.2	0.00e+00	0	34	0	1459617792	77	5259
2026-01-01 09:24:51.09	334.53	5.96	-56.0	-58.9	14.1	0.00e+00	0	34	0	1466957824	77	5246
2026-01-01 09:24:55.06	334.50	5.67	-56.2	-59.4	13.7	0.00e+00	0	34	0	1475346432	77	5543
2026-01-01 09:24:59.03	334.47	5.38	-56.0	-59.2	13.7	0.00e+00	0	34	0	1482686464	77	5421
2026-01-01 09:25:03.01	334.44	5.10	-55.8	-59.0	13.5	0.00e+00	0	34	0	1490026496	76	5636
2026-01-01 09:25:06.99	334.41	4.82	-60.9	-76.9	3.8	1.49e+00	0	34	104	1493172224	87	23529
2026-01-01 09:25:11.02	334.38	4.53	-61.6	-77.6	3.8	1.49e+00	0	34	104	1493172224	88	24100
2026-01-01 09:25:15.05	334.36	4.25	-62.0	-78.0	3.8	1.49e+00	0	34	104	1493172224	89	23726
2026-01-01 09:25:19.06	334.33	3.98	-62.1	-78.1	3.8	1.49e+00	0	34	104	1493172224	89	24111
2026-01-01 09:25:23.08	334.31	3.70	-62.2	-78.3	3.8	1.49e+00	0	34	104	1493172224	89	24446
2026-01-01 09:25:27.09	334.28	3.43	-62.2	-78.3	3.8	1.49e+00	0	34	104	1493172224	89	24424
2026-01-01 09:25:31.07	334.26	3.17	-62.2	-78.2	3.8	1.49e+00	0	34	104	1493172224	89	24268
2026-01-01 09:25:35.05	334.24	2.91	-62.1	-78.1	3.8	1.49e+00	0	34	104	1493172224	89	24122
2026-01-01 09:25:39.02	334.21	2.65	-62.1	-78.1	3.8	1.49e+00	0	34	104	1493172224	89	24018
2026-01-01 09:25:43.00	334.19	2.39	-62.0	-78.1	3.8	1.49e+00	0	34	104	1493172224	89	23877
2026-01-01 09:25:46.98	334.17	2.13	-62.0	-78.1	3.8	1.49e+00	0	34	104	1493172224	89	23858

#Closed at: 2026-01-01 09:25:50
#Recorded file [1493 MB]: D:/lorett/data/31004_260101_121123.dat