passes_logs/2026/01/01/R3.2S_Murmansk/R3.2S_Murmansk__20260101_053247_SUOMI_NPP_rec.log

#Pass ID: 20260101_053247_SUOMI NPP
#Satellite: SUOMI NPP
#Configuration: NPP
#almurnet v.1.7.20251203
#Start time: 2026-01-01 05:32:49

#Version: 2.2.20231116
#Station: R3.2S_Murmansk
#Location: 33.079688 lon 68.888172 lat
#TLE: 1 37849U 11061A   25364.87906317  .00000195  00000+0  11345-3 0  9992
#TLE: 2 37849  98.7794 302.0592 0002571  89.2401 270.9069 14.19520347734561

#Time	Az	El	Level	Level2	SNR	BER	BlckErr	Temp	State	Recorded	gain1	gain2
2026-01-01 05:32:49.09	66.96	2.07	-59.7	-75.7	3.9	1.49e+00	0	32	0	0	85	22899
2026-01-01 05:32:53.08	66.70	2.30	-59.7	-75.7	3.8	1.49e+00	0	32	104	0	84	24311
2026-01-01 05:32:57.07	66.44	2.52	-59.7	-75.7	3.8	1.49e+00	0	32	104	0	84	24258
2026-01-01 05:33:01.05	66.18	2.75	-59.7	-75.7	3.8	1.49e+00	0	33	104	0	84	24242
2026-01-01 05:33:05.04	65.91	2.98	-59.7	-75.7	3.8	1.49e+00	0	33	104	0	84	24250
2026-01-01 05:33:09.06	65.63	3.22	-59.7	-75.7	3.8	1.49e+00	0	33	104	0	84	24312
2026-01-01 05:33:13.07	65.36	3.45	-59.7	-75.7	3.8	1.49e+00	0	33	104	0	84	24176
2026-01-01 05:33:17.06	65.07	3.69	-59.7	-75.7	3.8	1.49e+00	0	33	104	0	84	24314
2026-01-01 05:33:21.05	64.78	3.93	-59.7	-75.7	3.8	1.49e+00	0	33	104	0	84	24270
2026-01-01 05:33:25.04	64.49	4.16	-59.7	-75.5	3.8	1.49e+00	0	33	104	0	84	23836
2026-01-01 05:33:29.02	64.20	4.40	-59.7	-73.9	3.8	1.49e+00	0	33	104	0	84	19646
2026-01-01 05:33:33.03	63.89	4.64	-59.5	-71.5	4.4	1.37e+00	71	33	0	0	84	14920
2026-01-01 05:33:37.04	63.58	4.89	-58.4	-65.4	8.4	4.65e-02	0	33	0	7340032	83	7821
2026-01-01 05:33:41.04	63.27	5.13	-56.7	-60.8	12.5	1.08e-03	0	34	0	14680064	80	5498
2026-01-01 05:33:45.04	62.95	5.38	-55.7	-59.0	13.9	0.00e+00	0	34	0	22020096	77	5293
2026-01-01 05:33:49.03	62.62	5.62	-55.4	-58.5	14.2	0.00e+00	0	34	0	29360128	77	5008
2026-01-01 05:33:53.01	62.29	5.87	-55.4	-58.5	14.2	0.00e+00	0	34	0	36700160	77	5021
2026-01-01 05:33:56.99	61.96	6.12	-55.4	-58.5	14.3	0.00e+00	0	34	0	45088768	77	4990
2026-01-01 05:34:00.97	61.62	6.37	-55.8	-59.1	13.9	0.00e+00	0	34	0	52428800	77	5372
2026-01-01 05:34:04.97	61.27	6.62	-55.8	-59.1	13.9	0.00e+00	0	34	0	59768832	77	5389
2026-01-01 05:34:08.97	60.91	6.87	-56.0	-59.5	13.7	0.00e+00	0	34	0	67108864	77	5618
2026-01-01 05:34:12.98	60.55	7.13	-55.9	-59.4	13.8	0.00e+00	0	34	0	74448896	77	5540
2026-01-01 05:34:16.96	60.18	7.39	-55.8	-59.1	14.0	0.00e+00	0	34	0	81788928	77	5365
2026-01-01 05:34:20.96	59.81	7.64	-55.8	-59.1	14.0	0.00e+00	0	34	0	89128960	77	5348
2026-01-01 05:34:24.93	59.43	7.90	-55.4	-58.4	14.5	0.00e+00	0	34	0	96468992	77	4964
2026-01-01 05:34:28.92	59.04	8.16	-55.3	-58.4	14.5	0.00e+00	0	34	0	104857600	77	4955
2026-01-01 05:34:32.92	58.64	8.43	-55.1	-57.9	14.8	0.00e+00	0	34	0	112197632	76	4983
2026-01-01 05:34:36.91	58.24	8.69	-55.1	-57.9	14.9	0.00e+00	0	34	0	119537664	76	4976
2026-01-01 05:34:40.92	57.83	8.96	-55.1	-58.0	14.9	0.00e+00	0	34	0	126877696	76	4986
2026-01-01 05:34:44.92	57.41	9.22	-55.1	-57.9	15.0	0.00e+00	0	34	0	134217728	76	4936
2026-01-01 05:34:48.92	56.98	9.49	-55.3	-58.1	14.8	0.00e+00	0	34	0	141557760	76	5052
2026-01-01 05:34:52.90	56.55	9.76	-55.6	-58.6	14.5	0.00e+00	0	34	0	148897792	76	5396
2026-01-01 05:34:56.89	56.10	10.03	-55.2	-57.9	14.9	0.00e+00	0	34	0	157286400	76	4983
2026-01-01 05:35:00.88	55.65	10.30	-55.6	-58.6	14.5	0.00e+00	0	34	0	164626432	76	5378
2026-01-01 05:35:04.87	55.19	10.57	-55.5	-58.4	14.7	0.00e+00	0	34	0	171966464	76	5220
2026-01-01 05:35:08.87	54.72	10.85	-55.3	-58.1	14.9	0.00e+00	0	34	0	179306496	76	5056
2026-01-01 05:35:12.86	54.24	11.12	-55.1	-57.7	15.0	0.00e+00	0	34	0	186646528	76	4869
2026-01-01 05:35:16.86	53.75	11.40	-54.9	-57.6	15.2	0.00e+00	0	34	0	193986560	76	4761
2026-01-01 05:35:20.86	53.26	11.67	-54.7	-57.2	15.4	0.00e+00	0	34	0	201326592	75	4849
2026-01-01 05:35:24.84	52.75	11.95	-54.6	-57.2	15.4	0.00e+00	0	34	0	209715200	75	4827
2026-01-01 05:35:28.85	52.23	12.23	-54.5	-56.9	15.6	0.00e+00	0	34	0	217055232	75	4683
2026-01-01 05:35:32.83	51.71	12.51	-54.3	-56.7	15.7	0.00e+00	0	34	0	224395264	75	4576
2026-01-01 05:35:36.84	51.17	12.79	-54.3	-56.7	15.8	0.00e+00	0	35	0	231735296	75	4548
2026-01-01 05:35:40.83	50.62	13.07	-54.4	-56.8	15.7	0.00e+00	0	34	0	239075328	75	4613
2026-01-01 05:35:44.82	50.06	13.35	-54.2	-56.6	15.7	0.00e+00	0	34	0	246415360	74	4812
2026-01-01 05:35:48.83	49.49	13.64	-54.3	-56.8	15.8	0.00e+00	0	35	0	253755392	74	4902
2026-01-01 05:35:52.81	48.91	13.92	-54.5	-57.2	15.4	0.00e+00	0	35	0	262144000	74	5148
2026-01-01 05:35:56.80	48.32	14.20	-54.6	-57.3	15.5	0.00e+00	0	34	0	269484032	74	5164
2026-01-01 05:36:00.79	47.71	14.48	-54.6	-57.2	15.5	0.00e+00	0	35	0	276824064	74	5148
2026-01-01 05:36:04.79	47.09	14.77	-54.4	-57.0	15.7	0.00e+00	0	35	0	284164096	74	5000
2026-01-01 05:36:08.75	46.47	15.05	-54.6	-57.3	15.5	0.00e+00	0	34	0	291504128	74	5170
2026-01-01 05:36:12.73	45.83	15.33	-54.9	-57.7	15.2	0.00e+00	0	34	0	298844160	75	5152
2026-01-01 05:36:16.72	45.18	15.61	-54.6	-57.4	15.4	0.00e+00	0	35	0	306184192	75	4928
2026-01-01 05:36:20.73	44.51	15.89	-54.6	-57.2	15.6	0.00e+00	0	35	0	313524224	75	4864
2026-01-01 05:36:24.73	43.83	16.17	-54.7	-57.3	15.4	0.00e+00	0	35	0	321912832	75	4909
2026-01-01 05:36:28.72	43.14	16.45	-54.6	-57.1	15.5	0.00e+00	0	35	0	329252864	75	4793
2026-01-01 05:36:32.72	42.44	16.73	-54.5	-57.0	15.5	0.00e+00	0	34	0	336592896	75	4725
2026-01-01 05:36:36.72	41.72	17.01	-54.9	-57.6	15.2	0.00e+00	0	35	0	343932928	75	5070
2026-01-01 05:36:40.73	40.99	17.29	-54.7	-57.3	15.3	0.00e+00	0	35	0	351272960	75	4924
2026-01-01 05:36:44.72	40.24	17.56	-54.4	-56.9	15.7	0.00e+00	0	34	0	358612992	75	4670
2026-01-01 05:36:48.72	39.48	17.83	-53.9	-56.2	16.0	0.00e+00	0	35	0	367001600	74	4567
2026-01-01 05:36:52.69	38.71	18.10	-54.0	-56.4	15.9	0.00e+00	0	35	0	374341632	74	4685
2026-01-01 05:36:56.69	37.93	18.37	-53.6	-55.9	16.1	0.00e+00	0	35	0	381681664	73	4665
2026-01-01 05:37:00.68	37.13	18.63	-53.1	-55.2	16.4	0.00e+00	0	35	0	389021696	72	4568
2026-01-01 05:37:04.65	36.32	18.89	-53.3	-55.5	16.2	0.00e+00	0	35	0	396361728	72	4730
2026-01-01 05:37:08.64	35.49	19.15	-53.1	-55.2	16.5	0.00e+00	0	35	0	403701760	72	4560
2026-01-01 05:37:12.66	34.64	19.40	-52.9	-54.9	16.6	0.00e+00	0	35	0	411041792	72	4421
2026-01-01 05:37:16.66	33.78	19.65	-53.2	-55.3	16.5	0.00e+00	0	35	0	419430400	72	4641
2026-01-01 05:37:20.65	32.91	19.90	-53.1	-55.2	16.5	0.00e+00	0	35	0	426770432	72	4557
2026-01-01 05:37:24.65	32.03	20.14	-52.8	-54.7	16.8	0.00e+00	0	35	0	434110464	72	4338
2026-01-01 05:37:28.66	31.12	20.37	-52.5	-54.4	16.9	0.00e+00	0	35	0	441450496	71	4395
2026-01-01 05:37:32.65	30.21	20.60	-52.6	-54.5	16.9	0.00e+00	0	35	0	448790528	71	4451
2026-01-01 05:37:36.64	29.29	20.83	-52.8	-54.7	16.8	0.00e+00	0	35	0	456130560	71	4582
2026-01-01 05:37:40.64	28.34	21.04	-52.5	-54.3	17.0	0.00e+00	0	35	0	463470592	71	4376
2026-01-01 05:37:44.64	27.39	21.25	-52.3	-54.1	17.1	0.00e+00	0	35	0	471859200	71	4247
2026-01-01 05:37:48.61	26.43	21.46	-52.5	-54.2	17.1	0.00e+00	0	35	0	479199232	70	4596
2026-01-01 05:37:52.60	25.45	21.66	-52.3	-53.9	17.1	0.00e+00	0	35	0	486539264	70	4430
2026-01-01 05:37:56.58	24.46	21.84	-52.8	-54.6	17.0	0.00e+00	0	35	0	493879296	70	4762
2026-01-01 05:38:00.56	23.46	22.03	-52.8	-54.5	16.9	0.00e+00	0	35	0	501219328	70	4753
2026-01-01 05:38:04.57	22.44	22.20	-52.4	-54.2	17.1	0.00e+00	0	35	0	508559360	71	4297
2026-01-01 05:38:08.57	21.42	22.36	-52.6	-54.2	17.1	0.00e+00	0	35	0	515899392	71	4339
2026-01-01 05:38:12.56	20.38	22.52	-52.3	-53.9	17.2	0.00e+00	0	35	0	523239424	70	4440
2026-01-01 05:38:16.56	19.33	22.67	-53.1	-54.9	16.8	0.00e+00	0	35	0	531628032	71	4664
2026-01-01 05:38:20.55	18.27	22.80	-54.4	-56.7	16.0	0.00e+00	0	35	0	538968064	74	4870
2026-01-01 05:38:24.54	17.21	22.93	-54.1	-56.2	16.2	0.00e+00	0	35	0	546308096	74	4584
2026-01-01 05:38:28.53	16.14	23.05	-53.8	-55.9	16.4	0.00e+00	0	35	0	553648128	74	4402
2026-01-01 05:38:32.54	15.05	23.15	-53.5	-55.5	16.6	0.00e+00	0	35	0	560988160	73	4460
2026-01-01 05:38:36.55	13.96	23.25	-53.7	-55.8	16.4	0.00e+00	0	35	0	568328192	73	4636
2026-01-01 05:38:40.54	12.86	23.34	-53.8	-55.9	16.4	0.00e+00	0	35	0	576716800	73	4676
2026-01-01 05:38:44.55	11.76	23.41	-54.3	-56.6	15.9	0.00e+00	0	35	0	584056832	73	5059
2026-01-01 05:38:48.54	10.65	23.47	-54.5	-56.9	15.8	0.00e+00	0	35	0	591396864	74	4978
2026-01-01 05:38:52.53	9.54	23.52	-54.7	-57.2	15.7	0.00e+00	0	35	0	598736896	74	5114
2026-01-01 05:38:56.52	8.43	23.56	-55.1	-57.9	15.3	0.00e+00	0	35	0	606076928	75	5260
2026-01-01 05:39:00.52	7.31	23.59	-54.3	-56.6	16.0	0.00e+00	0	35	0	613416960	75	4545
2026-01-01 05:39:04.49	6.20	23.60	-53.5	-55.7	16.4	0.00e+00	0	35	0	620756992	73	4554
2026-01-01 05:39:08.49	5.08	23.61	-53.8	-56.2	16.1	0.00e+00	0	35	0	629145600	73	4819
2026-01-01 05:39:12.49	3.96	23.60	-53.5	-55.6	16.4	0.00e+00	0	35	0	636485632	73	4541
2026-01-01 05:39:16.49	2.84	23.58	-53.3	-55.3	16.6	0.00e+00	0	35	0	643825664	73	4376
2026-01-01 05:39:20.48	1.73	23.55	-53.3	-55.2	16.6	0.00e+00	0	35	0	651165696	72	4597
2026-01-01 05:39:24.48	0.62	23.51	-53.0	-54.8	16.9	0.00e+00	0	35	0	658505728	72	4385
2026-01-01 05:39:28.48	359.50	23.45	-53.4	-55.3	16.8	0.00e+00	0	35	0	665845760	72	4635
2026-01-01 05:39:32.48	358.40	23.39	-52.8	-54.5	17.1	0.00e+00	0	35	0	673185792	72	4224
2026-01-01 05:39:36.47	357.30	23.31	-52.3	-54.0	17.3	0.00e+00	0	35	0	681574400	71	4199
2026-01-01 05:39:40.45	356.21	23.22	-52.1	-53.7	17.4	0.00e+00	0	35	0	688914432	70	4307
2026-01-01 05:39:44.43	355.13	23.12	-52.6	-54.3	17.2	0.00e+00	0	35	0	696254464	70	4603
2026-01-01 05:39:48.42	354.05	23.01	-53.0	-54.7	17.0	0.00e+00	0	35	0	703594496	71	4577
2026-01-01 05:39:52.39	352.98	22.89	-52.4	-54.0	17.3	0.00e+00	0	35	0	710934528	71	4230
2026-01-01 05:39:56.37	351.92	22.76	-53.2	-55.0	16.9	0.00e+00	0	35	0	718274560	71	4754
2026-01-01 05:40:00.37	350.87	22.62	-53.3	-55.1	16.8	0.00e+00	0	35	0	725614592	72	4508
2026-01-01 05:40:04.35	349.83	22.47	-53.0	-54.8	17.0	0.00e+00	0	35	0	732954624	72	4373
2026-01-01 05:40:08.33	348.80	22.32	-53.5	-55.4	16.7	0.00e+00	0	35	0	740294656	72	4705
2026-01-01 05:40:12.33	347.77	22.15	-54.5	-56.8	16.0	0.00e+00	0	35	0	748683264	74	4896
2026-01-01 05:40:16.32	346.76	21.97	-54.0	-56.1	16.3	0.00e+00	0	35	0	756023296	74	4536
2026-01-01 05:40:20.33	345.76	21.79	-53.7	-55.7	16.5	0.00e+00	0	35	0	763363328	73	4597
2026-01-01 05:40:24.31	344.78	21.60	-53.7	-55.8	16.4	0.00e+00	0	35	0	770703360	73	4650
2026-01-01 05:40:28.30	343.80	21.40	-53.6	-55.6	16.5	0.00e+00	0	35	0	778043392	73	4542
2026-01-01 05:40:32.29	342.84	21.19	-53.6	-55.6	16.6	0.00e+00	0	35	0	785383424	73	4530
2026-01-01 05:40:36.28	341.89	20.98	-54.3	-56.7	16.0	0.00e+00	0	35	0	792723456	73	5127
2026-01-01 05:40:40.28	340.96	20.76	-54.2	-56.6	16.1	0.00e+00	0	35	0	801112064	74	4763
2026-01-01 05:40:44.28	340.03	20.53	-54.6	-57.1	15.8	0.00e+00	0	35	0	808452096	74	5072
2026-01-01 05:40:48.27	339.13	20.30	-55.6	-58.8	14.7	0.00e+00	0	35	0	815792128	76	5519
2026-01-01 05:40:52.25	338.23	20.06	-54.6	-57.1	15.8	0.00e+00	0	35	0	823132160	75	4769
2026-01-01 05:40:56.25	337.35	19.82	-53.5	-55.6	16.6	0.00e+00	0	35	0	830472192	73	4523
2026-01-01 05:41:00.25	336.48	19.58	-53.0	-55.0	16.8	0.00e+00	0	35	0	837812224	72	4467
2026-01-01 05:41:04.23	335.64	19.33	-52.6	-54.5	17.1	0.00e+00	0	35	0	845152256	71	4447
2026-01-01 05:41:08.22	334.80	19.07	-52.4	-54.2	17.1	0.00e+00	0	35	0	853540864	71	4304
2026-01-01 05:41:12.20	333.98	18.81	-53.7	-55.9	16.3	0.00e+00	0	35	0	860880896	72	4935
2026-01-01 05:41:16.20	333.17	18.55	-54.7	-57.4	15.5	0.00e+00	0	35	0	868220928	74	5264
2026-01-01 05:41:20.20	332.37	18.29	-54.0	-56.3	16.1	0.00e+00	0	35	0	875560960	74	4622
2026-01-01 05:41:24.18	331.59	18.02	-53.5	-55.6	16.5	0.00e+00	0	35	0	882900992	73	4510
2026-01-01 05:41:28.18	330.82	17.75	-52.8	-54.7	16.9	0.00e+00	0	35	0	890241024	71	4569
2026-01-01 05:41:32.18	330.07	17.48	-53.6	-55.8	16.4	0.00e+00	0	35	0	897581056	72	4910
2026-01-01 05:41:36.19	329.32	17.20	-53.6	-55.8	16.4	0.00e+00	0	35	0	905969664	72	4879
2026-01-01 05:41:40.20	328.59	16.93	-53.8	-56.1	16.3	0.00e+00	0	35	0	913309696	72	5048
2026-01-01 05:41:44.21	327.88	16.65	-53.7	-55.9	16.4	0.00e+00	0	35	0	920649728	73	4680
2026-01-01 05:41:48.20	327.18	16.37	-53.5	-55.6	16.5	0.00e+00	0	35	0	927989760	73	4529
2026-01-01 05:41:52.19	326.49	16.09	-53.0	-54.9	16.9	0.00e+00	0	35	0	935329792	72	4395
2026-01-01 05:41:56.19	325.82	15.81	-53.5	-55.5	16.6	0.00e+00	0	35	0	942669824	72	4758
2026-01-01 05:42:00.19	325.16	15.53	-52.7	-54.5	17.1	0.00e+00	0	35	0	951058432	72	4202
2026-01-01 05:42:04.17	324.51	15.25	-52.6	-54.3	17.2	0.00e+00	0	35	0	958398464	71	4351
2026-01-01 05:42:08.17	323.87	14.96	-53.1	-54.9	16.9	0.00e+00	0	35	0	965738496	71	4671
2026-01-01 05:42:12.16	323.25	14.68	-53.4	-55.3	16.7	0.00e+00	0	35	0	973078528	72	4643
2026-01-01 05:42:16.16	322.64	14.40	-52.9	-54.6	17.0	0.00e+00	0	35	0	980418560	72	4285
2026-01-01 05:42:20.15	322.04	14.11	-52.9	-54.6	17.1	0.00e+00	0	35	0	987758592	71	4515
2026-01-01 05:42:24.16	321.44	13.83	-53.7	-55.7	16.5	0.00e+00	0	35	0	995098624	72	4847
2026-01-01 05:42:28.17	320.87	13.55	-53.9	-55.9	16.4	0.00e+00	0	35	0	1003487232	72	4961
2026-01-01 05:42:32.18	320.30	13.26	-53.7	-55.6	16.5	0.00e+00	0	35	0	1010827264	72	4808
2026-01-01 05:42:36.19	319.74	12.98	-53.1	-55.0	16.8	0.00e+00	0	35	0	1018167296	72	4452
2026-01-01 05:42:40.18	319.20	12.70	-53.2	-55.1	16.9	0.00e+00	0	35	0	1025507328	72	4496
2026-01-01 05:42:44.17	318.66	12.42	-54.3	-56.5	16.1	0.00e+00	0	35	0	1032847360	73	5012
2026-01-01 05:42:48.19	318.14	12.14	-54.5	-56.8	16.0	0.00e+00	0	35	0	1040187392	74	4887
2026-01-01 05:42:52.18	317.62	11.86	-53.5	-55.4	16.6	0.00e+00	0	35	0	1047527424	73	4439
2026-01-01 05:42:56.17	317.12	11.58	-53.7	-55.6	16.5	0.00e+00	0	35	0	1055916032	73	4543
2026-01-01 05:43:00.16	316.63	11.31	-53.7	-55.7	16.5	0.00e+00	0	35	0	1063256064	73	4566
2026-01-01 05:43:04.16	316.14	11.03	-54.0	-56.1	16.3	0.00e+00	0	35	0	1070596096	73	4774
2026-01-01 05:43:08.15	315.67	10.76	-54.3	-56.6	16.0	0.00e+00	0	35	0	1077936128	73	5054
2026-01-01 05:43:12.13	315.20	10.49	-54.4	-56.7	16.0	0.00e+00	0	35	0	1085276160	74	4857
2026-01-01 05:43:16.11	314.74	10.21	-54.5	-56.9	15.9	0.00e+00	0	35	0	1092616192	74	4946
2026-01-01 05:43:20.11	314.30	9.94	-55.1	-57.8	15.3	0.00e+00	0	35	0	1099956224	75	5179
2026-01-01 05:43:24.12	313.85	9.67	-55.1	-57.7	15.3	0.00e+00	0	35	0	1108344832	75	5157
2026-01-01 05:43:28.12	313.42	9.40	-54.5	-56.8	15.9	0.00e+00	0	35	0	1115684864	75	4632
2026-01-01 05:43:32.12	313.00	9.14	-54.2	-56.4	16.1	0.00e+00	0	35	0	1123024896	74	4688
2026-01-01 05:43:36.12	312.58	8.87	-54.3	-56.6	16.0	0.00e+00	0	35	0	1130364928	74	4768
2026-01-01 05:43:40.13	312.17	8.60	-54.7	-57.0	15.7	0.00e+00	0	35	0	1137704960	74	5041
2026-01-01 05:43:44.14	311.77	8.34	-54.7	-57.1	15.7	0.00e+00	0	35	0	1145044992	75	4774
2026-01-01 05:43:48.14	311.37	8.08	-54.5	-56.8	15.9	0.00e+00	0	35	0	1153433600	75	4641
2026-01-01 05:43:52.14	310.99	7.82	-54.4	-56.6	15.9	0.00e+00	0	35	0	1160773632	75	4545
2026-01-01 05:43:56.14	310.61	7.56	-54.7	-57.0	15.7	0.00e+00	0	35	0	1168113664	75	4758
2026-01-01 05:44:00.14	310.23	7.30	-55.2	-57.8	15.2	0.00e+00	0	35	0	1175453696	75	5193
2026-01-01 05:44:04.15	309.87	7.04	-55.5	-58.3	14.9	0.00e+00	0	35	0	1182793728	76	5197
2026-01-01 05:44:08.15	309.51	6.79	-55.9	-58.9	14.4	0.00e+00	0	35	0	1190133760	77	5279
2026-01-01 05:44:12.13	309.16	6.54	-56.1	-59.3	14.1	0.00e+00	0	35	0	1197473792	77	5526
2026-01-01 05:44:16.13	308.81	6.29	-56.3	-59.7	13.8	0.00e+00	0	35	0	1205862400	77	5758
2026-01-01 05:44:20.13	308.47	6.03	-56.1	-59.3	14.1	0.00e+00	0	35	0	1213202432	77	5493
2026-01-01 05:44:24.14	308.14	5.78	-56.2	-59.4	14.0	0.00e+00	0	36	0	1220542464	77	5580
2026-01-01 05:44:28.14	307.81	5.54	-56.4	-59.9	13.6	0.00e+00	0	35	0	1227882496	77	5879
2026-01-01 05:44:32.14	307.48	5.29	-56.5	-60.0	13.5	0.00e+00	0	35	0	1235222528	78	5626
2026-01-01 05:44:36.13	307.17	5.05	-56.5	-60.2	13.3	7.00e-07	0	35	0	1242562560	78	5767
2026-01-01 05:44:40.14	306.86	4.80	-61.2	-77.2	3.8	1.49e+00	0	35	104	1244659712	87	24265
2026-01-01 05:44:44.14	306.55	4.56	-61.8	-77.8	3.8	1.49e+00	0	35	104	1244659712	88	24624
2026-01-01 05:44:48.13	306.25	4.32	-62.2	-78.2	3.8	1.49e+00	0	35	104	1244659712	89	24258
2026-01-01 05:44:52.13	305.95	4.08	-62.4	-78.4	3.8	1.49e+00	0	35	104	1244659712	89	24755
2026-01-01 05:44:56.13	305.66	3.84	-62.4	-78.4	3.8	1.49e+00	0	35	104	1244659712	89	24857
2026-01-01 05:45:00.14	305.38	3.61	-62.4	-78.4	3.8	1.49e+00	0	35	104	1244659712	90	23484
2026-01-01 05:45:04.14	305.09	3.37	-62.3	-78.3	3.8	1.49e+00	0	36	104	1244659712	90	23143
2026-01-01 05:45:08.12	304.82	3.14	-62.2	-78.3	3.8	1.49e+00	0	36	104	1244659712	90	23062
2026-01-01 05:45:12.09	304.55	2.91	-62.2	-78.2	3.8	1.49e+00	0	35	104	1244659712	90	22897
2026-01-01 05:45:16.07	304.28	2.68	-62.2	-78.2	3.8	1.49e+00	0	35	104	1244659712	90	22895
2026-01-01 05:45:20.07	304.02	2.45	-62.1	-78.2	3.8	1.49e+00	0	35	104	1244659712	90	22799
2026-01-01 05:45:24.07	303.76	2.22	-62.1	-78.1	3.8	1.49e+00	0	36	104	1244659712	90	22685
2026-01-01 05:45:28.06	303.51	1.99	-62.1	-78.1	3.8	1.49e+00	0	35	104	1244659712	90	22690

#Closed at: 2026-01-01 05:45:30
#Recorded file [1244 MB]: D:/lorett/data/31004_260101_083248.dat