passes_logs/2026/01/01/R3.2S_Murmansk/R3.2S_Murmansk__20260101_125308_AQUA_rec.log

#Pass ID: 20260101_125308_AQUA
#Satellite: AQUA
#Configuration: AQUA
#almurnet v.1.7.20251203
#Start time: 2026-01-01 12:53:08

#Version: 2.2.20231116
#Station: R3.2S_Murmansk
#Location: 33.079688 lon 68.888172 lat
#TLE: 1 27424U 02022A   25365.92641127  .00002078  00000+0  42628-3 0  9999
#TLE: 2 27424  98.4058 327.1196 0001962  94.7781 340.6230 14.61783896258835

#Time	Az	El	Level	Level2	SNR	BER	BlckErr	Temp	State	Recorded	gain1	gain2
2026-01-01 12:53:08.36	194.85	1.99	-59.8	-78.8	3.8	7.45e-01	0	37	0	0	87	33930
2026-01-01 12:53:11.39	195.03	2.18	-59.8	-78.7	3.8	7.48e-01	0	37	104	0	87	33607
2026-01-01 12:53:14.42	195.21	2.36	-59.8	-78.4	3.8	7.48e-01	0	37	104	0	87	32450
2026-01-01 12:53:17.45	195.39	2.55	-59.8	-78.7	3.8	7.45e-01	0	37	104	0	87	33364
2026-01-01 12:53:20.47	195.57	2.74	-59.8	-78.9	3.8	7.46e-01	0	36	104	0	87	34141
2026-01-01 12:53:23.50	195.76	2.94	-59.7	-78.9	3.8	7.46e-01	0	36	104	0	87	34283
2026-01-01 12:53:26.53	195.95	3.13	-59.7	-78.6	3.8	7.46e-01	0	36	104	0	87	33165
2026-01-01 12:53:29.54	196.14	3.32	-59.7	-78.4	3.8	7.43e-01	0	36	104	0	87	32212
2026-01-01 12:53:32.57	196.34	3.52	-59.7	-78.0	3.8	7.46e-01	0	36	104	0	87	30943
2026-01-01 12:53:35.59	196.53	3.72	-59.7	-76.9	3.8	7.43e-01	0	36	104	0	87	27251
2026-01-01 12:53:38.62	196.73	3.91	-59.7	-77.8	3.8	7.44e-01	0	36	104	0	87	30126
2026-01-01 12:53:41.64	196.94	4.11	-59.7	-78.0	3.8	7.44e-01	0	36	104	0	87	30752
2026-01-01 12:53:44.66	197.14	4.31	-59.4	-70.7	6.8	6.64e-01	92	35	0	1572864	86	14194
2026-01-01 12:53:47.69	197.35	4.52	-59.1	-68.5	8.9	6.32e-01	0	35	0	7340032	86	10914
2026-01-01 12:53:50.71	197.56	4.72	-59.1	-68.6	8.8	6.31e-01	0	35	0	12582912	85	11716
2026-01-01 12:53:53.74	197.77	4.93	-58.6	-65.9	11.1	6.13e-01	0	35	0	18350080	85	8640
2026-01-01 12:53:56.76	197.99	5.13	-58.9	-67.1	10.4	6.19e-01	0	35	0	24117248	85	9915
2026-01-01 12:53:59.79	198.21	5.34	-54.5	-57.1	16.7	6.07e-01	0	35	0	27262976	78	4692
2026-01-01 12:54:02.80	198.44	5.55	-53.8	-56.1	17.5	6.06e-01	0	35	0	33030144	76	4654
2026-01-01 12:54:05.82	198.66	5.76	-53.6	-55.8	17.6	6.07e-01	0	35	0	38797312	76	4512
2026-01-01 12:54:08.84	198.89	5.97	-53.6	-55.9	17.6	6.05e-01	0	35	0	44564480	76	4550
2026-01-01 12:54:11.87	199.13	6.19	-53.6	-55.9	17.5	6.08e-01	0	35	0	50331648	76	4559
2026-01-01 12:54:14.89	199.37	6.40	-53.2	-55.4	17.6	6.08e-01	0	35	0	55574528	75	4553
2026-01-01 12:54:17.90	199.61	6.62	-53.0	-55.1	17.7	6.06e-01	0	35	0	61341696	75	4431
2026-01-01 12:54:20.93	199.85	6.84	-53.0	-55.1	17.7	6.07e-01	0	35	0	67108864	75	4418
2026-01-01 12:54:23.95	200.10	7.06	-53.1	-55.1	17.7	6.07e-01	0	35	0	72876032	74	4688
2026-01-01 12:54:26.97	200.35	7.28	-53.0	-55.0	17.7	6.05e-01	0	34	0	78643200	73	4914
2026-01-01 12:54:30.00	200.61	7.51	-53.0	-55.1	17.6	6.06e-01	0	35	0	83886080	74	4687
2026-01-01 12:54:33.03	200.87	7.74	-52.8	-54.8	17.8	6.07e-01	0	35	0	89653248	73	4778
2026-01-01 12:54:36.05	201.14	7.96	-52.6	-54.6	17.8	6.05e-01	0	34	0	95420416	73	4690
2026-01-01 12:54:39.08	201.41	8.19	-52.6	-54.6	17.8	6.09e-01	0	34	0	101187584	73	4678
2026-01-01 12:54:42.10	201.68	8.43	-52.7	-54.7	17.8	6.04e-01	0	34	0	106954752	73	4714
2026-01-01 12:54:45.13	201.96	8.66	-52.7	-54.6	17.8	6.04e-01	0	34	0	112721920	73	4700
2026-01-01 12:54:48.15	202.25	8.89	-52.6	-54.5	17.9	6.05e-01	0	34	0	117964800	73	4620
2026-01-01 12:54:51.18	202.54	9.13	-52.5	-54.4	17.8	6.07e-01	0	34	0	123731968	73	4565
2026-01-01 12:54:54.20	202.83	9.37	-52.5	-54.4	17.8	6.03e-01	0	34	0	129499136	73	4590
2026-01-01 12:54:57.23	203.13	9.61	-52.4	-54.2	17.9	6.05e-01	0	34	0	135266304	73	4489
2026-01-01 12:55:00.25	203.43	9.86	-52.2	-54.1	17.9	6.07e-01	0	34	0	141033472	73	4401
2026-01-01 12:55:03.28	203.74	10.10	-52.1	-54.0	18.0	6.07e-01	0	34	0	146276352	73	4352
2026-01-01 12:55:06.30	204.06	10.35	-52.1	-54.0	18.0	6.08e-01	0	34	0	152043520	73	4346
2026-01-01 12:55:09.32	204.38	10.60	-52.2	-54.1	17.9	6.07e-01	0	34	0	157810688	73	4394
2026-01-01 12:55:12.34	204.70	10.85	-52.2	-54.0	17.9	6.05e-01	0	34	0	163577856	73	4367
2026-01-01 12:55:15.36	205.03	11.10	-52.0	-53.8	18.0	6.06e-01	0	34	0	169345024	73	4269
2026-01-01 12:55:18.38	205.37	11.36	-51.9	-53.7	18.0	6.06e-01	0	34	0	174587904	73	4213
2026-01-01 12:55:21.40	205.71	11.62	-51.9	-53.6	18.0	6.05e-01	0	34	0	180355072	72	4440
2026-01-01 12:55:24.43	206.06	11.88	-51.8	-53.6	18.0	6.05e-01	0	34	0	186122240	72	4401
2026-01-01 12:55:27.45	206.42	12.14	-51.9	-53.6	18.0	6.05e-01	0	34	0	191889408	72	4429
2026-01-01 12:55:30.47	206.78	12.40	-51.8	-53.5	18.0	6.07e-01	0	34	0	197656576	72	4381
2026-01-01 12:55:33.50	207.15	12.67	-51.6	-53.3	18.0	6.07e-01	0	34	0	202899456	72	4285
2026-01-01 12:55:36.52	207.53	12.94	-51.6	-53.4	18.0	6.06e-01	0	34	0	208666624	72	4292
2026-01-01 12:55:39.54	207.91	13.21	-51.6	-53.3	18.0	6.04e-01	0	34	0	214433792	72	4266
2026-01-01 12:55:42.57	208.31	13.49	-51.5	-53.2	18.1	6.06e-01	0	34	0	220200960	72	4232
2026-01-01 12:55:45.59	208.71	13.76	-51.6	-53.3	18.0	6.07e-01	0	34	0	225968128	72	4276
2026-01-01 12:55:48.61	209.11	14.04	-51.6	-53.3	18.0	6.06e-01	0	34	0	231735296	72	4269
2026-01-01 12:55:51.64	209.53	14.32	-51.6	-53.2	18.1	6.08e-01	0	34	0	236978176	72	4238
2026-01-01 12:55:54.66	209.95	14.60	-51.5	-53.2	18.0	6.06e-01	0	34	0	242745344	72	4198
2026-01-01 12:55:57.68	210.38	14.89	-51.4	-53.1	18.0	6.06e-01	0	34	0	248512512	72	4161
2026-01-01 12:56:00.69	210.82	15.17	-51.4	-53.1	18.0	6.07e-01	0	34	0	254279680	71	4425
2026-01-01 12:56:03.71	211.27	15.46	-51.4	-53.0	18.0	6.08e-01	0	34	0	259522560	71	4379
2026-01-01 12:56:06.73	211.73	15.76	-51.4	-53.0	18.0	6.04e-01	0	34	0	265289728	71	4373
2026-01-01 12:56:09.75	212.19	16.05	-51.4	-53.1	18.0	6.06e-01	0	34	0	271056896	71	4418
2026-01-01 12:56:12.77	212.67	16.35	-51.4	-53.0	18.0	6.08e-01	0	34	0	276824064	71	4391
2026-01-01 12:56:15.79	213.16	16.64	-51.4	-53.0	18.0	6.05e-01	0	34	0	282591232	71	4384
2026-01-01 12:56:18.81	213.65	16.94	-51.3	-53.0	18.0	6.08e-01	0	34	0	288358400	71	4349
2026-01-01 12:56:21.83	214.16	17.25	-51.3	-52.9	18.0	6.05e-01	0	34	0	293601280	71	4335
2026-01-01 12:56:24.86	214.68	17.55	-51.5	-53.1	18.0	6.07e-01	0	34	0	299368448	71	4425
2026-01-01 12:56:27.88	215.21	17.86	-51.3	-52.9	18.0	6.05e-01	0	33	0	305135616	71	4331
2026-01-01 12:56:30.91	215.75	18.17	-51.2	-52.8	18.0	6.06e-01	0	34	0	310902784	71	4264
2026-01-01 12:56:33.93	216.30	18.48	-51.2	-52.8	18.0	6.07e-01	0	33	0	316669952	71	4282
2026-01-01 12:56:36.94	216.86	18.79	-51.2	-52.8	18.0	6.06e-01	0	34	0	321912832	71	4263
2026-01-01 12:56:39.96	217.44	19.10	-51.2	-52.8	18.0	6.06e-01	0	34	0	327680000	71	4267
2026-01-01 12:56:42.98	218.02	19.42	-51.3	-52.9	18.0	6.07e-01	0	33	0	333447168	71	4310
2026-01-01 12:56:46.01	218.62	19.74	-51.3	-52.9	18.0	6.07e-01	0	34	0	339214336	71	4306
2026-01-01 12:56:49.03	219.24	20.05	-51.2	-52.8	18.0	6.05e-01	0	33	0	344981504	71	4288
2026-01-01 12:56:52.05	219.86	20.37	-51.2	-52.8	18.0	6.05e-01	0	34	0	350224384	71	4268
2026-01-01 12:56:55.08	220.50	20.70	-51.3	-53.0	18.0	6.06e-01	0	34	0	355991552	71	4358
2026-01-01 12:56:58.10	221.16	21.02	-51.3	-53.0	18.0	6.06e-01	0	34	0	361758720	71	4343
2026-01-01 12:57:01.13	221.83	21.34	-51.3	-52.9	18.0	6.06e-01	0	34	0	367525888	71	4311
2026-01-01 12:57:04.15	222.51	21.67	-51.4	-53.1	18.0	6.08e-01	0	34	0	373293056	71	4409
2026-01-01 12:57:07.16	223.20	21.99	-51.4	-53.1	17.9	6.06e-01	0	33	0	379060224	71	4417
2026-01-01 12:57:10.18	223.91	22.31	-51.3	-52.9	17.9	6.03e-01	0	33	0	384303104	71	4305
2026-01-01 12:57:13.21	224.64	22.64	-51.5	-53.1	17.9	6.06e-01	0	34	0	390070272	71	4432
2026-01-01 12:57:16.23	225.39	22.96	-51.5	-53.2	17.9	6.07e-01	0	33	0	395837440	71	4455
2026-01-01 12:57:19.25	226.14	23.29	-51.4	-53.1	18.0	6.09e-01	0	34	0	401604608	71	4412
2026-01-01 12:57:22.26	226.92	23.61	-51.6	-53.2	17.9	6.06e-01	0	34	0	407371776	71	4478
2026-01-01 12:57:25.29	227.71	23.93	-51.5	-53.2	17.9	6.08e-01	0	34	0	412614656	71	4448
2026-01-01 12:57:28.30	228.52	24.25	-51.6	-53.3	17.9	6.04e-01	0	33	0	418381824	71	4518
2026-01-01 12:57:31.32	229.34	24.57	-51.7	-53.4	17.9	6.07e-01	0	34	0	424148992	71	4565
2026-01-01 12:57:34.34	230.18	24.89	-51.5	-53.1	17.9	6.07e-01	0	34	0	429916160	71	4425
2026-01-01 12:57:37.36	231.04	25.21	-51.6	-53.2	17.9	6.02e-01	0	34	0	435683328	71	4485
2026-01-01 12:57:40.38	231.92	25.52	-51.6	-53.2	17.9	6.06e-01	0	33	0	440926208	71	4481
2026-01-01 12:57:43.40	232.82	25.83	-51.5	-53.2	18.0	6.06e-01	0	33	0	446693376	71	4461
2026-01-01 12:57:46.42	233.73	26.14	-51.6	-53.3	17.9	6.06e-01	0	33	0	452460544	71	4505
2026-01-01 12:57:49.45	234.66	26.44	-51.6	-53.2	17.9	6.07e-01	0	33	0	458227712	71	4485
2026-01-01 12:57:52.47	235.61	26.74	-51.7	-53.4	17.8	6.05e-01	0	34	0	463994880	71	4566
2026-01-01 12:57:55.48	236.58	27.03	-51.8	-53.4	17.9	6.06e-01	0	33	0	469237760	71	4596
2026-01-01 12:57:58.51	237.56	27.32	-51.6	-53.3	17.9	6.07e-01	0	34	0	475004928	71	4512
2026-01-01 12:58:01.53	238.57	27.60	-51.5	-53.1	18.0	6.06e-01	0	33	0	480772096	71	4434
2026-01-01 12:58:04.56	239.59	27.88	-51.6	-53.2	17.9	6.04e-01	0	34	0	486539264	71	4488
2026-01-01 12:58:07.58	240.63	28.15	-51.5	-53.2	18.0	6.08e-01	0	34	0	492306432	71	4459
2026-01-01 12:58:10.61	241.69	28.42	-51.4	-53.0	18.0	6.07e-01	0	33	0	497549312	71	4389
2026-01-01 12:58:13.63	242.77	28.67	-51.5	-53.1	18.0	6.08e-01	0	33	0	503316480	71	4398
2026-01-01 12:58:16.66	243.86	28.92	-51.5	-53.1	17.9	6.06e-01	0	33	0	509083648	71	4422
2026-01-01 12:58:19.67	244.97	29.16	-51.5	-53.1	18.0	6.06e-01	0	33	0	514850816	71	4435
2026-01-01 12:58:22.70	246.10	29.39	-51.4	-53.0	17.9	6.07e-01	0	34	0	520617984	71	4389
2026-01-01 12:58:25.72	247.24	29.61	-51.4	-53.0	18.0	6.06e-01	0	34	0	525860864	71	4384
2026-01-01 12:58:28.74	248.40	29.81	-51.3	-52.9	18.0	6.07e-01	0	33	0	531628032	71	4295
2026-01-01 12:58:31.77	249.57	30.01	-51.3	-52.9	18.0	6.06e-01	0	33	0	537395200	71	4294
2026-01-01 12:58:34.79	250.76	30.20	-51.1	-52.7	18.0	6.06e-01	0	33	0	543162368	71	4215
2026-01-01 12:58:37.82	251.96	30.38	-51.2	-52.8	18.0	6.00e-01	0	33	0	548929536	71	4256
2026-01-01 12:58:40.85	253.18	30.54	-51.2	-52.8	18.0	6.02e-01	0	33	0	554172416	71	4283
2026-01-01 12:58:43.87	254.40	30.69	-51.1	-52.7	18.0	6.01e-01	0	33	0	559939584	71	4225
2026-01-01 12:58:46.89	255.64	30.82	-51.0	-52.6	18.0	6.03e-01	0	33	0	565706752	71	4150
2026-01-01 12:58:49.91	256.88	30.95	-51.0	-52.5	18.0	6.02e-01	0	33	0	571473920	70	4379
2026-01-01 12:58:52.93	258.14	31.06	-50.8	-52.4	18.1	6.03e-01	0	33	0	577241088	70	4296
2026-01-01 12:58:55.95	259.40	31.15	-50.8	-52.4	18.0	6.02e-01	0	33	0	582483968	70	4313
2026-01-01 12:58:58.98	260.67	31.23	-50.9	-52.4	18.1	6.00e-01	0	33	0	588251136	70	4333
2026-01-01 12:59:02.00	261.95	31.30	-50.8	-52.3	18.0	6.03e-01	0	33	0	594018304	70	4278
2026-01-01 12:59:05.03	263.23	31.35	-50.8	-52.4	18.1	6.02e-01	0	33	0	599785472	70	4313
2026-01-01 12:59:08.05	264.51	31.38	-50.8	-52.3	18.1	6.02e-01	0	33	0	605552640	70	4264
2026-01-01 12:59:11.07	265.80	31.40	-50.9	-52.4	18.1	6.04e-01	0	33	0	611319808	70	4314
2026-01-01 12:59:14.10	267.09	31.41	-50.9	-52.4	18.0	6.05e-01	0	33	0	616562688	70	4336
2026-01-01 12:59:17.11	268.37	31.40	-50.8	-52.4	18.1	6.02e-01	0	34	0	622329856	70	4296
2026-01-01 12:59:20.14	269.66	31.37	-50.7	-52.2	18.1	6.02e-01	0	33	0	628097024	70	4204
2026-01-01 12:59:23.16	270.94	31.33	-50.6	-52.1	18.1	6.03e-01	0	34	0	633864192	70	4171
2026-01-01 12:59:26.19	272.22	31.28	-50.6	-52.1	18.1	6.03e-01	0	33	0	639631360	70	4158
2026-01-01 12:59:29.21	273.49	31.21	-50.6	-52.0	18.1	6.03e-01	0	33	0	645398528	70	4144
2026-01-01 12:59:32.24	274.76	31.12	-50.6	-52.1	18.1	6.03e-01	0	34	0	650641408	70	4156
2026-01-01 12:59:35.26	276.02	31.02	-50.8	-52.3	18.0	6.04e-01	0	33	0	656408576	70	4251
2026-01-01 12:59:38.28	277.27	30.91	-50.7	-52.2	18.1	6.03e-01	0	33	0	662175744	70	4219
2026-01-01 12:59:41.30	278.51	30.78	-50.5	-52.0	18.1	6.03e-01	0	34	0	667942912	70	4100
2026-01-01 12:59:44.33	279.74	30.64	-50.6	-52.1	18.1	6.05e-01	0	34	0	673710080	70	4172
2026-01-01 12:59:47.35	280.96	30.48	-50.6	-52.1	18.1	6.02e-01	0	33	0	678952960	70	4157
2026-01-01 12:59:50.37	282.17	30.32	-50.5	-52.0	18.1	6.03e-01	0	33	0	684720128	70	4129
2026-01-01 12:59:53.39	283.36	30.14	-50.5	-52.0	18.1	6.02e-01	0	33	0	690487296	70	4133
2026-01-01 12:59:56.42	284.54	29.95	-50.5	-52.0	18.1	6.03e-01	0	33	0	696254464	70	4127
2026-01-01 12:59:59.45	285.71	29.74	-50.7	-52.2	18.1	6.03e-01	0	33	0	702021632	70	4195
2026-01-01 13:00:02.47	286.86	29.53	-50.6	-52.1	18.1	6.03e-01	0	33	0	707264512	70	4165
2026-01-01 13:00:05.50	288.00	29.31	-50.5	-52.0	18.1	6.03e-01	0	33	0	713031680	70	4142
2026-01-01 13:00:08.53	289.12	29.08	-50.6	-52.1	18.1	6.05e-01	0	33	0	718798848	70	4168
2026-01-01 13:00:11.55	290.22	28.84	-50.6	-52.1	18.0	6.00e-01	0	33	0	724566016	70	4190
2026-01-01 13:00:14.57	291.30	28.59	-50.6	-52.1	18.1	6.02e-01	0	33	0	730333184	70	4159
2026-01-01 13:00:17.59	292.37	28.33	-50.7	-52.2	18.0	6.04e-01	0	33	0	735576064	70	4231
2026-01-01 13:00:20.62	293.42	28.06	-50.8	-52.3	18.0	6.03e-01	0	33	0	741343232	70	4290
2026-01-01 13:00:23.64	294.45	27.79	-50.7	-52.2	18.0	6.03e-01	0	33	0	747110400	70	4242
2026-01-01 13:00:26.67	295.46	27.51	-51.0	-52.5	18.0	6.03e-01	0	33	0	752877568	70	4369
2026-01-01 13:00:29.69	296.46	27.23	-50.8	-52.4	18.0	6.01e-01	0	33	0	758644736	70	4299
2026-01-01 13:00:32.72	297.44	26.94	-51.0	-52.5	17.9	6.03e-01	0	33	0	764411904	70	4389
2026-01-01 13:00:35.73	298.39	26.65	-50.8	-52.3	18.0	6.01e-01	0	33	0	769654784	70	4278
2026-01-01 13:00:38.75	299.33	26.35	-51.0	-52.5	18.0	6.02e-01	0	33	0	775421952	70	4367
2026-01-01 13:00:41.77	300.25	26.05	-50.9	-52.5	18.0	6.03e-01	0	33	0	781189120	70	4369
2026-01-01 13:00:44.80	301.16	25.74	-51.0	-52.6	17.9	6.03e-01	0	33	0	786956288	70	4404
2026-01-01 13:00:47.82	302.05	25.43	-51.1	-52.7	17.9	6.03e-01	0	33	0	792723456	70	4477
2026-01-01 13:00:50.84	302.92	25.12	-51.0	-52.5	18.0	6.05e-01	0	33	0	797966336	70	4369
2026-01-01 13:00:53.86	303.77	24.80	-51.1	-52.6	17.9	6.02e-01	0	33	0	803733504	70	4426
2026-01-01 13:00:56.88	304.60	24.49	-51.2	-52.8	17.9	6.00e-01	0	34	0	809500672	70	4524
2026-01-01 13:00:59.90	305.42	24.17	-51.2	-52.8	17.9	6.00e-01	0	33	0	815267840	70	4494
2026-01-01 13:01:02.92	306.22	23.85	-51.1	-52.7	17.9	6.00e-01	0	33	0	821035008	70	4442
2026-01-01 13:01:05.94	307.00	23.53	-51.1	-52.7	17.9	6.04e-01	0	33	0	826277888	70	4481
2026-01-01 13:01:08.96	307.77	23.20	-50.9	-52.5	18.0	6.04e-01	0	33	0	832045056	70	4350
2026-01-01 13:01:11.98	308.52	22.88	-51.1	-52.7	17.9	6.02e-01	0	33	0	837812224	70	4444
2026-01-01 13:01:15.00	309.25	22.56	-50.9	-52.5	17.9	6.01e-01	0	33	0	843579392	70	4347
2026-01-01 13:01:18.01	309.97	22.24	-51.1	-52.7	17.9	6.02e-01	0	33	0	849346560	70	4447
2026-01-01 13:01:21.03	310.67	21.92	-51.1	-52.7	17.9	6.03e-01	0	33	0	854589440	70	4448
2026-01-01 13:01:24.05	311.36	21.59	-51.0	-52.5	18.0	6.04e-01	0	33	0	860356608	70	4373
2026-01-01 13:01:27.07	312.04	21.27	-51.0	-52.6	17.9	6.03e-01	0	34	0	866123776	70	4414
2026-01-01 13:01:30.10	312.70	20.95	-51.1	-52.7	17.9	6.01e-01	0	33	0	871890944	70	4444
2026-01-01 13:01:33.11	313.34	20.63	-50.9	-52.4	17.9	6.05e-01	0	33	0	877658112	70	4336
2026-01-01 13:01:36.13	313.98	20.31	-50.9	-52.5	17.9	6.03e-01	0	34	0	882900992	70	4363
2026-01-01 13:01:39.16	314.60	19.99	-50.9	-52.4	17.9	6.03e-01	0	33	0	888668160	70	4333
2026-01-01 13:01:42.18	315.21	19.68	-50.8	-52.3	18.0	6.04e-01	0	33	0	894435328	70	4286
2026-01-01 13:01:45.21	315.80	19.36	-50.8	-52.3	17.9	6.00e-01	0	33	0	900202496	70	4279
2026-01-01 13:01:48.24	316.38	19.05	-50.8	-52.4	17.9	6.01e-01	0	34	0	905969664	70	4318
2026-01-01 13:01:51.25	316.95	18.74	-50.8	-52.4	17.9	6.02e-01	0	34	0	911212544	70	4324
2026-01-01 13:01:54.28	317.51	18.43	-50.8	-52.3	17.9	6.05e-01	0	33	0	916979712	70	4273
2026-01-01 13:01:57.30	318.06	18.12	-50.9	-52.4	17.9	6.03e-01	0	33	0	922746880	70	4337
2026-01-01 13:02:00.32	318.59	17.81	-50.8	-52.4	17.9	6.02e-01	0	33	0	928514048	70	4317
2026-01-01 13:02:03.34	319.11	17.51	-50.8	-52.4	17.9	6.03e-01	0	33	0	934281216	70	4303
2026-01-01 13:02:06.37	319.63	17.21	-50.8	-52.3	17.9	6.03e-01	0	33	0	940048384	70	4275
2026-01-01 13:02:09.38	320.13	16.91	-50.6	-52.1	17.9	6.02e-01	0	33	0	945291264	70	4174
2026-01-01 13:02:12.41	320.62	16.61	-50.7	-52.2	17.9	6.02e-01	0	33	0	951058432	70	4242
2026-01-01 13:02:15.43	321.11	16.31	-50.9	-52.5	17.9	6.04e-01	0	33	0	956825600	70	4344
2026-01-01 13:02:18.45	321.58	16.02	-50.9	-52.5	17.8	6.03e-01	0	33	0	962592768	70	4346
2026-01-01 13:02:21.47	322.04	15.73	-50.7	-52.3	17.9	6.05e-01	0	33	0	968359936	70	4272
2026-01-01 13:02:24.50	322.50	15.44	-50.7	-52.3	17.9	6.03e-01	0	34	0	973602816	70	4247
2026-01-01 13:02:27.53	322.94	15.15	-50.7	-52.2	17.9	6.03e-01	0	34	0	979369984	70	4231
2026-01-01 13:02:30.56	323.38	14.87	-50.7	-52.3	17.9	6.01e-01	0	33	0	985137152	70	4271
2026-01-01 13:02:33.57	323.81	14.58	-50.8	-52.4	17.9	6.03e-01	0	33	0	990904320	70	4332
2026-01-01 13:02:36.59	324.23	14.30	-50.9	-52.5	17.9	6.03e-01	0	33	0	996671488	70	4349
2026-01-01 13:02:39.61	324.64	14.03	-50.8	-52.4	17.8	6.01e-01	0	34	0	1001914368	70	4296
2026-01-01 13:02:42.63	325.04	13.75	-50.7	-52.3	17.9	6.02e-01	0	33	0	1007681536	70	4244
2026-01-01 13:02:45.65	325.44	13.48	-50.8	-52.4	17.9	6.04e-01	0	33	0	1013448704	70	4319
2026-01-01 13:02:48.68	325.83	13.21	-51.0	-52.6	17.9	6.03e-01	0	33	0	1019215872	70	4438
2026-01-01 13:02:51.69	326.21	12.94	-51.0	-52.7	17.8	6.04e-01	0	33	0	1024983040	70	4464
2026-01-01 13:02:54.71	326.58	12.67	-51.0	-52.6	17.8	6.03e-01	0	33	0	1030225920	70	4440
2026-01-01 13:02:57.73	326.95	12.41	-51.1	-52.7	17.8	6.02e-01	0	34	0	1035993088	70	4476
2026-01-01 13:03:00.75	327.31	12.14	-51.1	-52.7	17.8	6.03e-01	0	33	0	1041760256	70	4467
2026-01-01 13:03:03.78	327.67	11.88	-51.0	-52.6	17.8	6.04e-01	0	33	0	1047527424	70	4435
2026-01-01 13:03:06.81	328.02	11.62	-51.1	-52.7	17.8	6.03e-01	0	33	0	1053294592	70	4474
2026-01-01 13:03:09.83	328.36	11.37	-51.1	-52.8	17.8	6.05e-01	0	33	0	1058537472	70	4516
2026-01-01 13:03:12.86	328.69	11.11	-51.2	-52.9	17.7	6.03e-01	0	33	0	1064304640	70	4567
2026-01-01 13:03:15.88	329.02	10.86	-51.2	-52.8	17.7	6.04e-01	0	34	0	1070071808	70	4540
2026-01-01 13:03:18.90	329.35	10.61	-51.3	-53.0	17.7	6.04e-01	0	33	0	1075838976	70	4601
2026-01-01 13:03:21.92	329.67	10.37	-51.3	-53.1	17.7	6.02e-01	0	33	0	1081606144	70	4652
2026-01-01 13:03:24.95	329.98	10.12	-51.5	-53.2	17.7	6.03e-01	0	34	0	1086849024	70	4741
2026-01-01 13:03:27.97	330.29	9.88	-51.7	-53.5	17.6	6.02e-01	0	33	0	1092616192	71	4607
2026-01-01 13:03:30.99	330.59	9.64	-51.6	-53.3	17.6	6.01e-01	0	33	0	1098383360	71	4525
2026-01-01 13:03:34.02	330.89	9.40	-51.6	-53.3	17.6	6.06e-01	0	33	0	1104150528	71	4534
2026-01-01 13:03:37.04	331.18	9.16	-51.7	-53.5	17.6	6.03e-01	0	33	0	1109917696	71	4627
2026-01-01 13:03:40.07	331.47	8.92	-51.6	-53.4	17.6	6.03e-01	0	33	0	1115684864	71	4589
2026-01-01 13:03:43.09	331.75	8.69	-51.8	-53.6	17.6	6.01e-01	0	34	0	1120927744	71	4655
2026-01-01 13:03:46.11	332.03	8.46	-51.7	-53.5	17.5	6.03e-01	0	34	0	1126694912	71	4621
2026-01-01 13:03:49.14	332.30	8.23	-51.7	-53.6	17.6	6.03e-01	0	34	0	1132462080	71	4658
2026-01-01 13:03:52.16	332.57	8.00	-51.7	-53.6	17.5	6.03e-01	0	33	0	1138229248	71	4661
2026-01-01 13:03:55.18	332.84	7.77	-51.8	-53.7	17.5	6.01e-01	0	33	0	1143996416	71	4726
2026-01-01 13:03:58.20	333.10	7.55	-51.8	-53.7	17.5	6.03e-01	0	33	0	1149239296	71	4725
2026-01-01 13:04:01.22	333.35	7.33	-51.9	-53.8	17.4	6.01e-01	0	33	0	1155006464	71	4795
2026-01-01 13:04:04.25	333.61	7.11	-52.0	-53.9	17.4	6.02e-01	0	33	0	1160773632	71	4862
2026-01-01 13:04:07.28	333.86	6.89	-52.1	-54.1	17.5	6.01e-01	0	33	0	1166540800	72	4655
2026-01-01 13:04:10.31	334.10	6.67	-52.1	-54.1	17.4	6.04e-01	0	34	0	1172307968	72	4672
2026-01-01 13:04:13.33	334.34	6.45	-52.2	-54.2	17.4	6.05e-01	0	33	0	1178075136	72	4732
2026-01-01 13:04:16.35	334.58	6.24	-52.4	-54.4	17.3	6.02e-01	0	33	0	1183318016	72	4828
2026-01-01 13:04:19.37	334.82	6.03	-52.4	-54.4	17.3	6.03e-01	0	33	0	1189085184	72	4837
2026-01-01 13:04:22.39	335.05	5.81	-52.5	-54.6	17.2	6.04e-01	0	33	0	1194852352	72	4933
2026-01-01 13:04:25.42	335.27	5.60	-52.5	-54.6	17.2	6.01e-01	0	34	0	1200619520	72	4948
2026-01-01 13:04:28.44	335.50	5.40	-52.5	-54.6	17.2	6.02e-01	0	33	0	1206386688	73	4680
2026-01-01 13:04:31.46	335.72	5.19	-52.5	-54.6	17.2	6.02e-01	0	33	0	1211629568	73	4666
2026-01-01 13:04:34.49	335.94	4.98	-53.7	-56.3	16.9	6.04e-01	0	33	0	1217396736	75	5057
2026-01-01 13:04:37.52	336.15	4.78	-60.7	-80.1	3.8	7.43e-01	0	33	104	1218969600	89	34882
2026-01-01 13:04:40.54	336.36	4.58	-61.3	-80.6	3.8	7.45e-01	0	33	104	1218969600	90	35154
2026-01-01 13:04:43.57	336.57	4.38	-61.6	-80.9	3.8	7.43e-01	0	34	104	1218969600	90	36311
2026-01-01 13:04:46.59	336.78	4.18	-61.7	-81.0	3.8	7.46e-01	0	34	104	1218969600	91	34747
2026-01-01 13:04:49.61	336.98	3.98	-61.7	-81.1	3.8	7.44e-01	0	34	104	1218969600	91	34982
2026-01-01 13:04:52.63	337.18	3.78	-61.8	-81.1	3.8	7.47e-01	0	34	104	1218969600	91	35158
2026-01-01 13:04:55.66	337.38	3.59	-61.8	-81.1	3.8	7.46e-01	0	34	104	1218969600	91	35283
2026-01-01 13:04:58.69	337.58	3.39	-61.7	-81.1	3.8	7.46e-01	0	34	104	1218969600	91	34887
2026-01-01 13:05:01.72	337.77	3.20	-61.7	-81.0	3.8	7.48e-01	0	34	104	1218969600	91	34719
2026-01-01 13:05:04.75	337.96	3.01	-61.7	-81.0	3.8	7.50e-01	0	34	104	1218969600	91	34626
2026-01-01 13:05:07.78	338.15	2.82	-61.6	-80.9	3.8	7.45e-01	0	34	104	1218969600	91	34454
2026-01-01 13:05:10.80	338.33	2.63	-61.6	-80.9	3.8	7.46e-01	0	34	104	1218969600	91	34425
2026-01-01 13:05:13.83	338.51	2.44	-61.6	-80.9	3.8	7.47e-01	0	34	104	1218969600	91	34292
2026-01-01 13:05:16.86	338.69	2.25	-61.5	-80.9	3.8	7.47e-01	0	34	104	1218969600	91	34133
2026-01-01 13:05:19.88	338.87	2.07	-61.5	-80.8	3.8	7.47e-01	0	34	104	1218969600	91	34045

#Closed at: 2026-01-01 13:05:22
#Recorded file [1218 MB]: D:/lorett/data/31004_260101_155308.dat