passes_logs/2026/01/01/R3.2S_Murmansk/R3.2S_Murmansk__20260101_021348_SUOMI_NPP_rec.log

#Pass ID: 20260101_021348_SUOMI NPP
#Satellite: SUOMI NPP
#Configuration: NPP
#almurnet v.1.7.20251203
#Start time: 2026-01-01 02:13:50

#Version: 2.2.20231116
#Station: R3.2S_Murmansk
#Location: 33.079688 lon 68.888172 lat
#TLE: 1 37849U 11061A   25364.87906317  .00000195  00000+0  11345-3 0  9992
#TLE: 2 37849  98.7794 302.0592 0002571  89.2401 270.9069 14.19520347734561

#Time	Az	El	Level	Level2	SNR	BER	BlckErr	Temp	State	Recorded	gain1	gain2
2026-01-01 02:13:50.78	31.67	2.14	-59.9	-75.9	3.8	1.49e+00	0	34	0	0	86	22103
2026-01-01 02:13:54.78	31.54	2.39	-59.9	-75.9	3.8	1.49e+00	0	34	104	0	85	23349
2026-01-01 02:13:58.77	31.41	2.64	-59.9	-75.9	3.8	1.49e+00	0	34	104	0	85	23327
2026-01-01 02:14:02.78	31.28	2.90	-59.9	-75.8	3.8	1.49e+00	0	34	104	0	85	23287
2026-01-01 02:14:06.77	31.15	3.15	-59.9	-75.8	3.8	1.49e+00	0	35	104	0	85	23300
2026-01-01 02:14:10.77	31.01	3.41	-59.9	-75.8	3.8	1.49e+00	0	34	104	0	85	23231
2026-01-01 02:14:14.77	30.87	3.67	-59.9	-75.3	3.8	1.49e+00	0	34	104	0	85	21762
2026-01-01 02:14:18.76	30.72	3.94	-59.9	-74.1	3.8	1.49e+00	0	35	104	0	85	19033
2026-01-01 02:14:22.74	30.58	4.20	-59.9	-74.6	3.8	1.49e+00	0	35	104	0	85	20132
2026-01-01 02:14:26.74	30.43	4.47	-59.9	-73.9	3.8	1.49e+00	0	35	104	0	85	18730
2026-01-01 02:14:30.72	30.27	4.74	-59.0	-66.5	7.8	9.57e-02	0	35	0	4194304	84	8402
2026-01-01 02:14:34.71	30.12	5.01	-57.5	-62.2	11.7	2.19e-04	0	35	0	11534336	81	6085
2026-01-01 02:14:38.70	29.96	5.29	-55.5	-58.4	14.7	2.36e-04	0	35	0	19922944	77	4954
2026-01-01 02:14:42.69	29.80	5.57	-55.2	-57.9	15.1	0.00e+00	0	35	0	27262976	76	4976
2026-01-01 02:14:46.69	29.63	5.85	-54.9	-57.5	15.5	0.00e+00	0	35	0	34603008	76	4733
2026-01-01 02:14:50.70	29.46	6.13	-55.1	-57.7	15.4	0.00e+00	0	35	0	41943040	76	4821
2026-01-01 02:14:54.68	29.29	6.42	-54.9	-57.4	15.6	0.00e+00	0	35	0	49283072	76	4679
2026-01-01 02:14:58.68	29.11	6.71	-54.9	-57.5	15.6	0.00e+00	0	35	0	56623104	76	4718
2026-01-01 02:15:02.67	28.93	7.00	-55.0	-57.5	15.6	0.00e+00	0	35	0	63963136	76	4710
2026-01-01 02:15:06.67	28.75	7.30	-54.8	-57.3	15.8	0.00e+00	0	35	0	72351744	76	4626
2026-01-01 02:15:10.66	28.56	7.60	-54.6	-57.0	15.9	0.00e+00	0	35	0	79691776	75	4739
2026-01-01 02:15:14.64	28.36	7.90	-54.7	-57.1	15.9	0.00e+00	0	35	0	87031808	75	4778
2026-01-01 02:15:18.62	28.17	8.20	-54.5	-56.9	16.0	0.00e+00	0	35	0	94371840	75	4671
2026-01-01 02:15:22.62	27.97	8.51	-54.7	-57.2	15.8	0.00e+00	0	35	0	101711872	75	4842
2026-01-01 02:15:26.59	27.76	8.82	-54.5	-56.8	16.1	0.00e+00	0	35	0	109051904	75	4635
2026-01-01 02:15:30.58	27.55	9.14	-54.5	-56.9	16.0	0.00e+00	0	35	0	116391936	75	4696
2026-01-01 02:15:34.57	27.33	9.46	-54.4	-56.6	16.2	0.00e+00	0	35	0	124780544	75	4534
2026-01-01 02:15:38.57	27.11	9.78	-54.4	-56.7	16.2	0.00e+00	0	35	0	132120576	75	4550
2026-01-01 02:15:42.57	26.88	10.11	-54.4	-56.6	16.2	0.00e+00	0	35	0	139460608	75	4544
2026-01-01 02:15:46.56	26.65	10.44	-54.3	-56.6	16.3	0.00e+00	0	35	0	146800640	75	4516
2026-01-01 02:15:50.56	26.41	10.78	-54.2	-56.4	16.3	0.00e+00	0	35	0	154140672	74	4652
2026-01-01 02:15:54.56	26.17	11.12	-54.0	-56.1	16.5	0.00e+00	0	35	0	161480704	74	4511
2026-01-01 02:15:58.56	25.91	11.46	-54.0	-56.1	16.5	0.00e+00	0	36	0	168820736	74	4539
2026-01-01 02:16:02.55	25.66	11.81	-53.9	-56.1	16.6	0.00e+00	0	35	0	177209344	74	4499
2026-01-01 02:16:06.54	25.39	12.16	-54.0	-56.2	16.5	0.00e+00	0	36	0	184549376	74	4571
2026-01-01 02:16:10.55	25.12	12.52	-54.0	-56.2	16.5	0.00e+00	0	36	0	191889408	74	4552
2026-01-01 02:16:14.53	24.85	12.88	-54.2	-56.3	16.4	0.00e+00	0	35	0	199229440	74	4651
2026-01-01 02:16:18.53	24.56	13.25	-54.1	-56.3	16.5	0.00e+00	0	36	0	206569472	74	4631
2026-01-01 02:16:22.52	24.27	13.62	-54.2	-56.4	16.4	0.00e+00	0	36	0	213909504	74	4698
2026-01-01 02:16:26.51	23.97	13.99	-54.0	-56.2	16.5	0.00e+00	0	36	0	221249536	74	4563
2026-01-01 02:16:30.50	23.66	14.37	-54.0	-56.2	16.6	0.00e+00	0	36	0	229638144	74	4546
2026-01-01 02:16:34.49	23.35	14.76	-53.8	-55.8	16.8	0.00e+00	0	36	0	236978176	74	4390
2026-01-01 02:16:38.48	23.02	15.15	-54.0	-56.1	16.7	0.00e+00	0	36	0	244318208	74	4538
2026-01-01 02:16:42.45	22.69	15.54	-54.1	-56.2	16.6	0.00e+00	0	36	0	251658240	74	4596
2026-01-01 02:16:46.45	22.35	15.94	-54.1	-56.1	16.7	0.00e+00	0	36	0	258998272	74	4541
2026-01-01 02:16:50.45	21.99	16.35	-54.0	-56.0	16.7	0.00e+00	0	36	0	266338304	74	4482
2026-01-01 02:16:54.43	21.63	16.76	-53.8	-55.9	16.8	0.00e+00	0	36	0	273678336	74	4403
2026-01-01 02:16:58.42	21.25	17.18	-53.8	-55.9	16.8	0.00e+00	0	36	0	281018368	73	4654
2026-01-01 02:17:02.41	20.87	17.61	-53.8	-55.9	16.8	0.00e+00	0	36	0	289406976	73	4675
2026-01-01 02:17:06.40	20.47	18.04	-54.3	-56.5	16.4	0.00e+00	0	36	0	296747008	73	5027
2026-01-01 02:17:10.40	20.06	18.48	-54.1	-56.2	16.7	0.00e+00	0	36	0	304087040	73	4867
2026-01-01 02:17:14.41	19.64	18.92	-54.5	-56.7	16.4	0.00e+00	0	36	0	311427072	74	4870
2026-01-01 02:17:18.40	19.21	19.37	-54.6	-56.8	16.4	0.00e+00	0	36	0	318767104	74	4881
2026-01-01 02:17:22.40	18.76	19.83	-54.9	-57.2	16.2	0.00e+00	0	36	0	326107136	74	5122
2026-01-01 02:17:26.39	18.30	20.29	-54.6	-56.8	16.5	0.00e+00	0	36	0	334495744	75	4621
2026-01-01 02:17:30.37	17.82	20.76	-54.6	-56.8	16.5	0.00e+00	0	36	0	341835776	75	4618
2026-01-01 02:17:34.35	17.33	21.23	-54.0	-56.0	16.9	0.00e+00	0	36	0	349175808	74	4455
2026-01-01 02:17:38.34	16.82	21.71	-54.4	-56.5	16.7	0.00e+00	0	36	0	356515840	74	4709
2026-01-01 02:17:42.32	16.30	22.20	-54.4	-56.5	16.6	0.00e+00	0	36	0	363855872	74	4737
2026-01-01 02:17:46.31	15.76	22.70	-54.7	-57.1	16.3	0.00e+00	0	36	0	371195904	74	5044
2026-01-01 02:17:50.30	15.20	23.20	-54.3	-56.5	16.6	0.00e+00	0	36	0	378535936	74	4725
2026-01-01 02:17:54.29	14.62	23.71	-54.9	-57.2	16.2	0.00e+00	0	36	0	385875968	74	5156
2026-01-01 02:17:58.27	14.03	24.22	-55.4	-57.9	15.8	0.00e+00	0	36	0	394264576	76	4952
2026-01-01 02:18:02.26	13.41	24.75	-55.0	-57.4	16.2	0.00e+00	0	36	0	401604608	76	4667
2026-01-01 02:18:06.25	12.77	25.28	-54.2	-56.4	16.5	0.00e+00	0	36	0	408944640	74	4696
2026-01-01 02:18:10.24	12.11	25.81	-54.7	-57.2	16.2	0.00e+00	0	36	0	416284672	74	5125
2026-01-01 02:18:14.23	11.42	26.35	-54.5	-56.8	16.4	0.00e+00	0	36	0	423624704	75	4626
2026-01-01 02:18:18.22	10.71	26.90	-54.2	-56.3	16.8	0.00e+00	0	36	0	430964736	74	4633
2026-01-01 02:18:22.21	9.98	27.46	-54.5	-56.7	16.5	0.00e+00	0	36	0	438304768	74	4829
2026-01-01 02:18:26.20	9.22	28.02	-55.1	-57.6	16.0	0.00e+00	0	36	0	445644800	75	5087
2026-01-01 02:18:30.19	8.43	28.59	-55.1	-57.6	16.0	0.00e+00	0	36	0	454033408	76	4803
2026-01-01 02:18:34.17	7.61	29.16	-55.6	-58.4	15.6	0.00e+00	0	36	0	461373440	76	5247
2026-01-01 02:18:38.16	6.76	29.73	-55.5	-58.1	15.9	0.00e+00	0	36	0	468713472	77	4763
2026-01-01 02:18:42.14	5.88	30.31	-55.8	-58.5	15.6	0.00e+00	0	36	0	476053504	77	5017
2026-01-01 02:18:46.13	4.97	30.90	-56.4	-59.5	14.9	0.00e+00	0	36	0	483393536	78	5291
2026-01-01 02:18:50.14	4.02	31.49	-56.4	-59.3	15.0	0.00e+00	0	36	0	490733568	78	5207
2026-01-01 02:18:54.13	3.04	32.08	-57.1	-60.8	13.9	0.00e+00	0	36	0	498073600	79	5820
2026-01-01 02:18:58.12	2.02	32.67	-56.6	-59.6	14.8	0.00e+00	0	36	0	506462208	79	5096
2026-01-01 02:19:02.11	0.96	33.27	-57.1	-60.5	14.3	0.00e+00	0	36	0	513802240	79	5598
2026-01-01 02:19:06.11	359.86	33.86	-57.2	-60.6	14.1	0.00e+00	0	36	0	521142272	80	5354
2026-01-01 02:19:10.08	358.72	34.45	-55.1	-57.3	16.4	0.00e+00	0	36	0	528482304	76	4630
2026-01-01 02:19:14.07	357.54	35.04	-54.0	-56.7	16.7	0.00e+00	0	36	0	535822336	74	4822
2026-01-01 02:19:18.07	356.31	35.63	-55.3	-57.9	16.0	0.00e+00	0	36	0	543162368	75	5231
2026-01-01 02:19:22.06	355.04	36.21	-55.7	-58.5	15.5	0.00e+00	0	36	0	550502400	77	5003
2026-01-01 02:19:26.05	353.72	36.78	-56.1	-58.9	15.5	0.00e+00	0	36	0	557842432	77	5259
2026-01-01 02:19:30.03	352.36	37.35	-56.3	-59.2	15.3	0.00e+00	0	36	0	566231040	77	5447
2026-01-01 02:19:34.02	350.95	37.91	-56.8	-60.5	14.2	0.00e+00	0	36	0	573571072	79	5628
2026-01-01 02:19:38.01	349.49	38.45	-55.9	-59.0	15.2	0.00e+00	0	36	0	580911104	78	5002
2026-01-01 02:19:42.01	347.97	38.99	-55.9	-58.7	15.4	0.00e+00	0	36	0	588251136	77	5148
2026-01-01 02:19:45.99	346.41	39.50	-54.7	-57.0	16.6	0.00e+00	0	36	0	595591168	76	4454
2026-01-01 02:19:49.99	344.80	40.01	-55.9	-58.7	15.6	0.00e+00	0	36	0	602931200	76	5445
2026-01-01 02:19:53.98	343.14	40.48	-54.1	-56.2	16.9	0.00e+00	0	36	0	610271232	74	4589
2026-01-01 02:19:57.98	341.42	40.94	-54.2	-56.4	16.8	0.00e+00	0	36	0	618659840	74	4692
2026-01-01 02:20:01.98	339.66	41.38	-53.3	-55.4	17.2	0.00e+00	0	36	0	625999872	72	4684
2026-01-01 02:20:05.97	337.85	41.78	-55.5	-58.7	15.2	0.00e+00	0	36	0	633339904	77	5136
2026-01-01 02:20:09.95	336.00	42.16	-53.8	-56.0	16.9	0.00e+00	0	36	0	640679936	73	4732
2026-01-01 02:20:13.95	334.10	42.51	-52.9	-54.8	17.5	0.00e+00	0	36	0	648019968	72	4342
2026-01-01 02:20:17.94	332.17	42.82	-55.2	-58.0	15.8	0.00e+00	0	36	0	655360000	75	5291
2026-01-01 02:20:21.95	330.19	43.10	-54.1	-56.2	17.0	0.00e+00	0	36	0	662700032	74	4582
2026-01-01 02:20:25.94	328.19	43.34	-54.9	-57.3	16.4	0.00e+00	0	36	0	671088640	76	4601
2026-01-01 02:20:29.92	326.17	43.54	-55.0	-57.6	16.2	0.00e+00	0	36	0	678428672	75	5069
2026-01-01 02:20:33.90	324.12	43.71	-54.7	-57.1	16.5	0.00e+00	0	36	0	685768704	76	4519
2026-01-01 02:20:37.88	322.05	43.83	-55.7	-58.6	15.5	0.00e+00	0	36	0	693108736	76	5376
2026-01-01 02:20:41.87	319.96	43.91	-55.6	-58.7	15.4	0.00e+00	0	36	0	700448768	76	5431
2026-01-01 02:20:45.87	317.87	43.95	-55.8	-58.9	15.2	0.00e+00	0	36	0	707788800	77	5244
2026-01-01 02:20:49.88	315.76	43.94	-55.8	-59.0	15.3	0.00e+00	0	36	0	715128832	77	5295
2026-01-01 02:20:53.86	313.67	43.89	-55.3	-58.1	15.8	0.00e+00	0	36	0	722468864	75	5388
2026-01-01 02:20:57.86	311.59	43.80	-56.0	-59.3	15.0	0.00e+00	0	36	0	730857472	77	5496
2026-01-01 02:21:01.85	309.52	43.67	-56.3	-60.0	14.5	0.00e+00	0	36	0	738197504	79	5285
2026-01-01 02:21:05.84	307.47	43.49	-56.2	-59.7	14.7	0.00e+00	0	36	0	745537536	78	5439
2026-01-01 02:21:09.83	305.45	43.28	-56.9	-61.2	13.4	7.00e-07	0	36	0	752877568	79	6120
2026-01-01 02:21:13.82	303.45	43.03	-56.4	-60.3	14.2	0.00e+00	0	36	0	760217600	78	5818
2026-01-01 02:21:17.81	301.49	42.74	-55.9	-59.5	14.8	0.00e+00	0	36	0	767557632	78	5313
2026-01-01 02:21:21.80	299.57	42.41	-53.7	-55.9	17.0	0.00e+00	0	36	0	774897664	73	4694
2026-01-01 02:21:25.81	297.67	42.06	-53.5	-55.6	17.2	0.00e+00	0	36	0	783286272	73	4534
2026-01-01 02:21:29.80	295.83	41.67	-53.3	-55.3	17.3	0.00e+00	0	36	0	790626304	72	4645
2026-01-01 02:21:33.78	294.04	41.25	-53.5	-55.6	17.2	0.00e+00	0	36	0	797966336	72	4768
2026-01-01 02:21:37.75	292.30	40.82	-53.3	-55.3	17.4	0.00e+00	0	36	0	805306368	73	4351
2026-01-01 02:21:41.73	290.61	40.35	-52.0	-53.6	18.2	0.00e+00	0	36	0	812646400	70	4253
2026-01-01 02:21:45.71	288.96	39.87	-53.1	-55.0	17.6	0.00e+00	0	36	0	819986432	72	4473
2026-01-01 02:21:49.70	287.36	39.36	-52.4	-54.1	18.0	0.00e+00	0	36	0	827326464	71	4250
2026-01-01 02:21:53.70	285.80	38.84	-53.5	-55.6	17.3	0.00e+00	0	36	0	834666496	72	4760
2026-01-01 02:21:57.69	284.30	38.30	-52.3	-53.8	18.2	0.00e+00	0	36	0	843055104	71	4123
2026-01-01 02:22:01.69	282.85	37.75	-54.3	-56.4	17.1	0.00e+00	0	36	0	850395136	73	4943
2026-01-01 02:22:05.68	281.44	37.19	-53.7	-55.5	17.5	0.00e+00	0	36	0	857735168	73	4480
2026-01-01 02:22:09.66	280.09	36.62	-54.2	-56.1	17.2	0.00e+00	0	36	0	865075200	74	4521
2026-01-01 02:22:13.66	278.78	36.04	-54.5	-56.5	17.0	0.00e+00	0	36	0	872415232	75	4453
2026-01-01 02:22:17.65	277.52	35.45	-54.6	-56.6	17.0	0.00e+00	0	36	0	879755264	75	4494
2026-01-01 02:22:21.66	276.30	34.86	-53.7	-55.5	17.5	0.00e+00	0	36	0	887095296	74	4210
2026-01-01 02:22:25.66	275.13	34.27	-55.4	-57.7	16.3	0.00e+00	0	36	0	895483904	76	4869
2026-01-01 02:22:29.66	273.99	33.67	-54.9	-57.1	16.6	0.00e+00	0	36	0	902823936	75	4772
2026-01-01 02:22:33.64	272.91	33.08	-56.7	-59.8	14.9	0.00e+00	0	36	0	910163968	78	5486
2026-01-01 02:22:37.64	271.85	32.48	-58.0	-62.2	12.9	4.80e-05	0	36	0	917504000	82	5786
2026-01-01 02:22:41.62	270.85	31.89	-56.6	-59.5	15.2	0.00e+00	0	36	0	924844032	78	5302
2026-01-01 02:22:45.62	269.87	31.30	-56.6	-59.5	15.1	0.00e+00	0	36	0	932184064	79	4984
2026-01-01 02:22:49.60	268.93	30.71	-55.7	-58.2	16.0	0.00e+00	0	36	0	939524096	77	4847
2026-01-01 02:22:53.59	268.03	30.12	-56.7	-59.7	15.0	0.00e+00	0	36	0	947912704	78	5439
2026-01-01 02:22:57.59	267.15	29.54	-55.5	-57.9	16.3	0.00e+00	0	36	0	955252736	77	4657
2026-01-01 02:23:01.57	266.31	28.97	-55.8	-58.3	15.9	0.00e+00	0	36	0	962592768	77	4890
2026-01-01 02:23:05.58	265.49	28.39	-55.0	-57.2	16.5	0.00e+00	0	36	0	969932800	76	4591
2026-01-01 02:23:09.56	264.71	27.83	-55.8	-58.3	15.9	0.00e+00	0	36	0	977272832	76	5198
2026-01-01 02:23:13.55	263.96	27.27	-55.7	-58.2	16.0	0.00e+00	0	36	0	984612864	76	5126
2026-01-01 02:23:17.56	263.22	26.71	-55.2	-57.4	16.4	0.00e+00	0	36	0	991952896	76	4701
2026-01-01 02:23:21.56	262.52	26.16	-54.7	-56.8	16.8	0.00e+00	0	36	0	1000341504	76	4365
2026-01-01 02:23:25.57	261.83	25.61	-54.5	-56.6	16.8	0.00e+00	0	36	0	1007681536	75	4501
2026-01-01 02:23:29.56	261.18	25.08	-55.1	-57.2	16.5	0.00e+00	0	36	0	1015021568	75	4862
2026-01-01 02:23:33.53	260.54	24.55	-54.8	-56.9	16.7	0.00e+00	0	36	0	1022361600	76	4393
2026-01-01 02:23:37.51	259.93	24.03	-53.9	-55.8	17.3	0.00e+00	0	36	0	1029701632	74	4374
2026-01-01 02:23:41.50	259.34	23.52	-55.6	-58.0	16.1	0.00e+00	0	36	0	1037041664	76	5018
2026-01-01 02:23:45.51	258.76	23.00	-56.0	-58.6	15.6	0.00e+00	0	36	0	1044381696	77	5067
2026-01-01 02:23:49.52	258.20	22.50	-55.8	-58.4	15.9	0.00e+00	0	36	0	1052770304	77	4956
2026-01-01 02:23:53.53	257.66	22.00	-56.2	-58.5	15.9	0.00e+00	0	36	0	1060110336	77	5021
2026-01-01 02:23:57.52	257.14	21.51	-55.5	-57.6	16.4	0.00e+00	0	36	0	1067450368	77	4507
2026-01-01 02:24:01.53	256.64	21.03	-54.9	-56.7	16.9	0.00e+00	0	36	0	1074790400	76	4339
2026-01-01 02:24:05.51	256.15	20.56	-54.3	-56.0	17.3	0.00e+00	0	36	0	1082130432	75	4230
2026-01-01 02:24:09.51	255.68	20.09	-54.7	-56.6	17.0	0.00e+00	0	36	0	1089470464	75	4526
2026-01-01 02:24:13.50	255.22	19.63	-55.4	-57.5	16.5	0.00e+00	0	36	0	1096810496	76	4730
2026-01-01 02:24:17.48	254.77	19.17	-55.2	-57.2	16.6	0.00e+00	0	36	0	1105199104	76	4564
2026-01-01 02:24:21.49	254.34	18.72	-54.7	-56.5	17.0	0.00e+00	0	36	0	1112539136	76	4242
2026-01-01 02:24:25.48	253.92	18.28	-55.3	-57.4	16.5	0.00e+00	0	36	0	1119879168	76	4671
2026-01-01 02:24:29.48	253.51	17.85	-55.9	-58.1	16.1	0.00e+00	0	36	0	1127219200	76	5090
2026-01-01 02:24:33.46	253.12	17.42	-56.0	-58.3	16.0	0.00e+00	0	36	0	1134559232	77	4903
2026-01-01 02:24:37.45	252.74	16.99	-56.0	-58.3	16.0	0.00e+00	0	36	0	1141899264	77	4906
2026-01-01 02:24:41.43	252.37	16.58	-55.1	-57.1	16.7	0.00e+00	0	36	0	1149239296	76	4502
2026-01-01 02:24:45.42	252.00	16.17	-54.4	-56.2	17.1	0.00e+00	0	36	0	1157627904	75	4329
2026-01-01 02:24:49.41	251.65	15.76	-54.8	-56.7	16.8	0.00e+00	0	36	0	1164967936	75	4569
2026-01-01 02:24:53.40	251.31	15.36	-55.2	-57.3	16.5	0.00e+00	0	36	0	1172307968	75	4924
2026-01-01 02:24:57.41	250.98	14.96	-55.1	-57.2	16.5	0.00e+00	0	36	0	1179648000	75	4838
2026-01-01 02:25:01.38	250.65	14.57	-55.1	-57.1	16.6	0.00e+00	0	36	0	1186988032	75	4786
2026-01-01 02:25:05.38	250.34	14.19	-55.3	-57.5	16.3	0.00e+00	0	36	0	1194328064	75	4995
2026-01-01 02:25:09.38	250.03	13.81	-56.1	-58.6	15.7	0.00e+00	0	36	0	1201668096	77	5060
2026-01-01 02:25:13.37	249.73	13.43	-56.3	-58.9	15.4	0.00e+00	0	36	0	1210056704	78	4957
2026-01-01 02:25:17.38	249.44	13.06	-56.4	-59.0	15.3	0.00e+00	0	36	0	1217396736	78	5015
2026-01-01 02:25:21.37	249.15	12.70	-56.2	-58.7	15.5	0.00e+00	0	36	0	1224736768	78	4846
2026-01-01 02:25:25.36	248.88	12.34	-56.0	-58.5	15.7	0.00e+00	0	36	0	1232076800	78	4729
2026-01-01 02:25:29.36	248.61	11.98	-56.1	-58.6	15.6	0.00e+00	0	36	0	1239416832	78	4811
2026-01-01 02:25:33.35	248.34	11.63	-56.2	-58.8	15.5	0.00e+00	0	36	0	1246756864	78	4871
2026-01-01 02:25:37.34	248.09	11.28	-56.3	-58.9	15.3	0.00e+00	0	36	0	1254096896	78	4955
2026-01-01 02:25:41.33	247.84	10.94	-56.1	-58.6	15.5	0.00e+00	0	36	0	1262485504	78	4769
2026-01-01 02:25:45.32	247.59	10.60	-56.0	-58.4	15.7	0.00e+00	0	36	0	1269825536	78	4690
2026-01-01 02:25:49.32	247.35	10.27	-55.9	-58.3	15.7	0.00e+00	0	36	0	1277165568	78	4623
2026-01-01 02:25:53.32	247.12	9.94	-56.0	-58.5	15.6	0.00e+00	0	36	0	1284505600	78	4709
2026-01-01 02:25:57.31	246.89	9.61	-55.9	-58.4	15.6	0.00e+00	0	36	0	1291845632	78	4669
2026-01-01 02:26:01.30	246.67	9.29	-56.1	-58.6	15.5	0.00e+00	0	36	0	1299185664	78	4776
2026-01-01 02:26:05.30	246.45	8.97	-56.2	-58.8	15.3	0.00e+00	0	36	0	1306525696	78	4894
2026-01-01 02:26:09.28	246.24	8.65	-56.2	-58.9	15.2	0.00e+00	0	36	0	1314914304	78	4931
2026-01-01 02:26:13.29	246.03	8.34	-56.5	-59.3	14.8	0.00e+00	0	36	0	1322254336	78	5212
2026-01-01 02:26:17.29	245.83	8.03	-56.9	-59.9	14.4	0.00e+00	0	36	0	1329594368	78	5578
2026-01-01 02:26:21.30	245.63	7.73	-56.8	-59.9	14.4	0.00e+00	0	36	0	1336934400	79	5266
2026-01-01 02:26:25.29	245.44	7.42	-56.9	-60.1	14.2	0.00e+00	0	36	0	1344274432	79	5364
2026-01-01 02:26:29.29	245.25	7.13	-56.8	-59.8	14.3	0.00e+00	0	36	0	1351614464	79	5217
2026-01-01 02:26:33.27	245.06	6.83	-56.8	-59.9	14.3	7.00e-07	0	36	0	1358954496	79	5229
2026-01-01 02:26:37.25	244.88	6.54	-56.5	-59.5	14.5	0.00e+00	0	36	0	1366294528	79	5006
2026-01-01 02:26:41.23	244.70	6.25	-56.4	-59.4	14.5	0.00e+00	0	36	0	1374683136	79	4974
2026-01-01 02:26:45.21	244.53	5.97	-56.4	-59.4	14.6	0.00e+00	0	36	0	1382023168	79	4966
2026-01-01 02:26:49.21	244.36	5.68	-56.6	-59.8	14.2	0.00e+00	0	36	0	1389363200	79	5200
2026-01-01 02:26:53.19	244.19	5.40	-56.8	-60.0	14.0	0.00e+00	0	36	0	1396703232	79	5334
2026-01-01 02:26:57.20	244.03	5.12	-56.9	-60.4	13.7	0.00e+00	0	37	0	1404043264	79	5588
2026-01-01 02:27:01.19	243.87	4.85	-61.4	-77.4	3.8	1.49e+00	0	36	104	1407188992	87	24726
2026-01-01 02:27:05.20	243.71	4.57	-61.9	-77.9	3.8	1.49e+00	0	36	104	1407188992	89	23495
2026-01-01 02:27:09.17	243.56	4.31	-62.2	-78.2	3.8	1.49e+00	0	36	104	1407188992	89	24354
2026-01-01 02:27:13.17	243.41	4.04	-62.3	-78.3	3.8	1.49e+00	0	36	104	1407188992	89	24566
2026-01-01 02:27:17.18	243.26	3.77	-62.3	-78.3	3.8	1.49e+00	0	36	104	1407188992	89	24636
2026-01-01 02:27:21.18	243.11	3.51	-62.3	-78.3	3.8	1.49e+00	0	36	104	1407188992	89	24562
2026-01-01 02:27:25.19	242.97	3.25	-62.2	-78.2	3.8	1.49e+00	0	36	104	1407188992	89	24367
2026-01-01 02:27:29.18	242.83	2.99	-62.2	-78.2	3.8	1.49e+00	0	36	104	1407188992	89	24180
2026-01-01 02:27:33.18	242.69	2.73	-62.2	-78.2	3.8	1.49e+00	0	36	104	1407188992	89	24201
2026-01-01 02:27:37.18	242.56	2.48	-62.1	-78.1	3.8	1.49e+00	0	37	104	1407188992	89	24012
2026-01-01 02:27:41.17	242.43	2.22	-62.1	-78.1	3.8	1.49e+00	0	36	104	1407188992	89	23986
2026-01-01 02:27:45.15	242.30	1.98	-62.1	-78.1	3.8	1.49e+00	0	37	104	1407188992	89	23912

#Closed at: 2026-01-01 02:27:47
#Recorded file [1407 MB]: D:/lorett/data/31004_260101_051350.dat