passes_logs/2026/01/01/R3.2S_Murmansk/R3.2S_Murmansk__20260101_003329_SUOMI_NPP_rec.log

#Pass ID: 20260101_003329_SUOMI NPP
#Satellite: SUOMI NPP
#Configuration: NPP
#almurnet v.1.7.20251203
#Start time: 2026-01-01 00:33:29

#Version: 2.2.20231116
#Station: R3.2S_Murmansk
#Location: 33.079688 lon 68.888172 lat
#TLE: 1 37849U 11061A   25364.87906317  .00000195  00000+0  11345-3 0  9992
#TLE: 2 37849  98.7794 302.0592 0002571  89.2401 270.9069 14.19520347734561

#Time	Az	El	Level	Level2	SNR	BER	BlckErr	Temp	State	Recorded	gain1	gain2
2026-01-01 00:33:29.10	23.82	1.96	-59.8	-75.8	3.8	1.49e+00	0	33	0	0	86	21798
2026-01-01 00:33:33.10	23.85	2.22	-59.8	-75.7	3.8	1.49e+00	0	33	104	0	84	24406
2026-01-01 00:33:37.08	23.89	2.47	-59.8	-75.6	3.8	1.49e+00	0	33	104	0	84	24098
2026-01-01 00:33:41.07	23.93	2.73	-59.8	-75.5	3.8	1.49e+00	0	33	104	0	84	23666
2026-01-01 00:33:45.06	23.97	2.99	-59.8	-74.6	3.8	1.49e+00	0	33	104	0	84	21441
2026-01-01 00:33:49.06	24.00	3.26	-59.7	-74.4	3.8	1.49e+00	0	33	104	0	84	20823
2026-01-01 00:33:53.07	24.04	3.53	-59.7	-72.8	4.1	1.48e+00	0	33	104	0	84	17380
2026-01-01 00:33:57.04	24.08	3.80	-59.2	-68.5	6.0	4.27e-01	0	33	0	5242880	84	10604
2026-01-01 00:34:01.03	24.12	4.07	-58.2	-64.4	9.4	1.40e-02	0	34	0	12582912	83	6997
2026-01-01 00:34:05.02	24.16	4.34	-57.6	-62.7	10.9	9.72e-04	0	34	0	19922944	81	6458
2026-01-01 00:34:09.00	24.20	4.62	-57.7	-63.0	10.7	8.19e-04	0	34	0	27262976	81	6653
2026-01-01 00:34:12.97	24.24	4.90	-58.3	-64.7	9.1	1.09e-02	0	34	0	34603008	81	8143
2026-01-01 00:34:16.95	24.28	5.18	-57.5	-62.2	11.6	9.00e-05	0	34	0	41943040	80	6477
2026-01-01 00:34:20.95	24.32	5.47	-56.2	-59.7	13.6	1.89e-03	0	34	0	49283072	78	5414
2026-01-01 00:34:24.94	24.36	5.76	-55.8	-59.1	14.1	0.00e+00	0	34	0	56623104	78	5082
2026-01-01 00:34:28.94	24.40	6.05	-55.8	-59.0	14.2	0.00e+00	0	34	0	65011712	78	4995
2026-01-01 00:34:32.91	24.45	6.35	-55.8	-58.9	14.3	0.00e+00	0	34	0	72351744	78	4980
2026-01-01 00:34:36.90	24.49	6.65	-55.7	-58.8	14.4	0.00e+00	0	34	0	79691776	77	5206
2026-01-01 00:34:40.89	24.53	6.95	-55.7	-58.8	14.5	0.00e+00	0	34	0	87031808	77	5177
2026-01-01 00:34:44.88	24.58	7.26	-55.6	-58.6	14.5	0.00e+00	0	34	0	94371840	77	5091
2026-01-01 00:34:48.89	24.62	7.57	-55.5	-58.5	14.6	0.00e+00	0	34	0	101711872	77	4990
2026-01-01 00:34:52.88	24.67	7.89	-55.5	-58.4	14.7	0.00e+00	0	34	0	109051904	77	4938
2026-01-01 00:34:56.89	24.71	8.21	-55.4	-58.2	14.9	0.00e+00	0	34	0	117440512	77	4834
2026-01-01 00:35:00.88	24.76	8.53	-55.1	-57.8	15.1	0.00e+00	0	34	0	124780544	76	4878
2026-01-01 00:35:04.87	24.81	8.86	-54.9	-57.5	15.3	0.00e+00	0	34	0	132120576	76	4732
2026-01-01 00:35:08.85	24.85	9.19	-54.8	-57.4	15.3	0.00e+00	0	34	0	139460608	76	4680
2026-01-01 00:35:12.82	24.90	9.52	-54.5	-57.0	15.6	0.00e+00	0	34	0	146800640	75	4711
2026-01-01 00:35:16.80	24.95	9.86	-54.6	-57.1	15.5	0.00e+00	0	35	0	154140672	75	4769
2026-01-01 00:35:20.79	25.00	10.21	-54.5	-56.9	15.6	0.00e+00	0	34	0	161480704	75	4685
2026-01-01 00:35:24.79	25.05	10.56	-54.3	-56.6	15.8	0.00e+00	0	34	0	168820736	75	4530
2026-01-01 00:35:28.77	25.10	10.91	-54.2	-56.5	15.9	0.00e+00	0	34	0	177209344	74	4741
2026-01-01 00:35:32.77	25.16	11.27	-54.1	-56.4	15.9	0.00e+00	0	34	0	184549376	74	4686
2026-01-01 00:35:36.77	25.21	11.64	-54.0	-56.2	16.1	0.00e+00	0	34	0	191889408	74	4578
2026-01-01 00:35:40.75	25.26	12.01	-53.9	-56.1	16.1	0.00e+00	0	34	0	199229440	74	4503
2026-01-01 00:35:44.74	25.32	12.39	-53.7	-55.8	16.3	0.00e+00	0	35	0	206569472	73	4620
2026-01-01 00:35:48.73	25.37	12.77	-53.8	-56.0	16.3	0.00e+00	0	34	0	213909504	73	4711
2026-01-01 00:35:52.72	25.43	13.16	-53.6	-55.6	16.4	0.00e+00	0	34	0	221249536	73	4523
2026-01-01 00:35:56.72	25.49	13.55	-53.4	-55.4	16.5	0.00e+00	0	35	0	229638144	73	4419
2026-01-01 00:36:00.71	25.55	13.96	-53.2	-55.2	16.6	0.00e+00	0	34	0	236978176	72	4582
2026-01-01 00:36:04.71	25.61	14.37	-53.5	-55.5	16.5	0.00e+00	0	35	0	244318208	72	4731
2026-01-01 00:36:08.70	25.67	14.78	-53.3	-55.3	16.6	0.00e+00	0	35	0	251658240	72	4614
2026-01-01 00:36:12.69	25.73	15.20	-53.3	-55.3	16.6	0.00e+00	0	35	0	258998272	72	4641
2026-01-01 00:36:16.68	25.80	15.63	-53.2	-55.2	16.6	0.00e+00	0	35	0	266338304	72	4575
2026-01-01 00:36:20.67	25.86	16.07	-52.9	-54.8	16.8	0.00e+00	0	34	0	273678336	72	4376
2026-01-01 00:36:24.65	25.93	16.52	-53.2	-55.1	16.7	0.00e+00	0	35	0	282066944	72	4539
2026-01-01 00:36:28.63	26.00	16.97	-53.2	-55.1	16.7	0.00e+00	0	34	0	289406976	72	4524
2026-01-01 00:36:32.63	26.07	17.43	-53.6	-55.5	16.6	0.00e+00	0	35	0	296747008	72	4748
2026-01-01 00:36:36.63	26.14	17.91	-53.4	-55.4	16.6	0.00e+00	0	34	0	304087040	72	4698
2026-01-01 00:36:40.62	26.21	18.39	-53.7	-55.8	16.4	0.00e+00	0	35	0	311427072	72	4889
2026-01-01 00:36:44.60	26.29	18.88	-53.8	-56.0	16.3	0.00e+00	0	35	0	318767104	73	4724
2026-01-01 00:36:48.61	26.37	19.38	-53.8	-56.0	16.3	0.00e+00	0	35	0	326107136	73	4747
2026-01-01 00:36:52.61	26.45	19.89	-54.0	-56.2	16.1	0.00e+00	0	35	0	334495744	73	4868
2026-01-01 00:36:56.62	26.53	20.42	-54.4	-56.9	15.8	0.00e+00	0	35	0	341835776	74	4974
2026-01-01 00:37:00.62	26.61	20.95	-54.5	-57.1	15.7	0.00e+00	0	35	0	349175808	74	5051
2026-01-01 00:37:04.63	26.70	21.50	-54.5	-57.0	15.8	0.00e+00	0	35	0	356515840	74	5037
2026-01-01 00:37:08.63	26.79	22.06	-54.6	-57.1	15.8	0.00e+00	0	35	0	363855872	74	5058
2026-01-01 00:37:12.60	26.88	22.62	-54.7	-57.2	15.8	0.00e+00	0	35	0	371195904	75	4825
2026-01-01 00:37:16.60	26.97	23.21	-54.9	-57.4	15.7	0.00e+00	0	35	0	379584512	75	4958
2026-01-01 00:37:20.60	27.07	23.80	-54.6	-57.0	15.9	0.00e+00	0	35	0	386924544	75	4747
2026-01-01 00:37:24.60	27.17	24.41	-54.5	-56.8	16.0	0.00e+00	0	35	0	394264576	75	4620
2026-01-01 00:37:28.59	27.27	25.04	-54.6	-56.9	16.0	0.00e+00	0	35	0	401604608	75	4680
2026-01-01 00:37:32.58	27.38	25.67	-54.2	-56.5	16.2	0.00e+00	0	34	0	408944640	75	4451
2026-01-01 00:37:36.58	27.49	26.33	-54.0	-56.2	16.4	0.00e+00	0	35	0	416284672	74	4563
2026-01-01 00:37:40.58	27.61	27.00	-54.5	-56.8	16.1	0.00e+00	0	35	0	423624704	74	4892
2026-01-01 00:37:44.57	27.72	27.69	-54.8	-57.2	15.9	0.00e+00	0	35	0	430964736	74	5129
2026-01-01 00:37:48.56	27.85	28.40	-54.4	-56.7	16.1	0.00e+00	0	35	0	439353344	74	4842
2026-01-01 00:37:52.57	27.98	29.12	-54.3	-56.5	16.3	0.00e+00	0	35	0	446693376	74	4737
2026-01-01 00:37:56.57	28.11	29.87	-54.9	-57.2	15.9	0.00e+00	0	35	0	454033408	75	4864
2026-01-01 00:38:00.56	28.25	30.63	-55.0	-57.3	15.9	0.00e+00	0	35	0	461373440	75	4926
2026-01-01 00:38:04.57	28.40	31.42	-55.4	-58.0	15.4	0.00e+00	0	35	0	468713472	76	5020
2026-01-01 00:38:08.57	28.55	32.22	-56.6	-60.2	14.0	0.00e+00	0	35	0	476053504	78	5767
2026-01-01 00:38:12.58	28.71	33.05	-56.7	-60.5	13.8	0.00e+00	0	35	0	484442112	79	5607
2026-01-01 00:38:16.57	28.87	33.90	-56.4	-59.9	14.1	0.00e+00	0	35	0	491782144	78	5591
2026-01-01 00:38:20.56	29.05	34.78	-55.0	-57.7	15.6	0.00e+00	0	35	0	499122176	76	4820
2026-01-01 00:38:24.57	29.23	35.68	-54.2	-56.6	16.1	0.00e+00	0	35	0	506462208	74	4761
2026-01-01 00:38:28.56	29.42	36.60	-53.4	-55.6	16.6	0.00e+00	0	35	0	513802240	73	4508
2026-01-01 00:38:32.57	29.63	37.56	-53.3	-55.6	16.5	0.00e+00	0	35	0	521142272	72	4787
2026-01-01 00:38:36.57	29.84	38.54	-53.0	-55.8	16.6	0.00e+00	0	35	0	528482304	72	4878
2026-01-01 00:38:40.56	30.07	39.55	-53.4	-55.5	16.8	0.00e+00	0	35	0	536870912	72	4744
2026-01-01 00:38:44.55	30.31	40.59	-53.7	-55.8	16.6	0.00e+00	0	35	0	544210944	73	4647
2026-01-01 00:38:48.55	30.57	41.66	-54.0	-56.5	16.1	0.00e+00	0	35	0	551550976	73	4987
2026-01-01 00:38:52.53	30.84	42.75	-53.3	-55.4	16.8	0.00e+00	0	35	0	558891008	73	4402
2026-01-01 00:38:56.53	31.13	43.89	-53.3	-55.4	16.8	0.00e+00	0	35	0	566231040	72	4660
2026-01-01 00:39:00.50	31.44	45.05	-54.4	-56.8	16.1	0.00e+00	0	35	0	573571072	73	5197
2026-01-01 00:39:04.51	31.77	46.26	-56.1	-59.5	14.6	0.00e+00	0	35	0	580911104	77	5608
2026-01-01 00:39:08.50	32.13	47.49	-56.2	-59.8	14.2	0.00e+00	0	35	0	589299712	78	5514
2026-01-01 00:39:12.49	32.52	48.76	-55.4	-58.6	15.0	0.00e+00	0	35	0	596639744	76	5398
2026-01-01 00:39:16.48	32.94	50.07	-53.0	-55.0	17.0	0.00e+00	0	35	0	603979776	72	4443
2026-01-01 00:39:20.46	33.40	51.41	-53.1	-55.2	16.9	0.00e+00	0	35	0	611319808	72	4560
2026-01-01 00:39:24.44	33.89	52.79	-52.3	-54.2	17.2	0.00e+00	0	35	0	618659840	70	4587
2026-01-01 00:39:28.43	34.44	54.21	-52.5	-54.3	17.3	0.00e+00	0	35	0	625999872	70	4644
2026-01-01 00:39:32.43	35.05	55.67	-51.2	-52.8	17.8	0.00e+00	0	35	0	633339904	68	4344
2026-01-01 00:39:36.42	35.72	57.16	-52.1	-53.9	17.4	0.00e+00	0	35	0	640679936	69	4689
2026-01-01 00:39:40.41	36.46	58.69	-51.4	-53.0	17.7	0.00e+00	0	35	0	649068544	69	4234
2026-01-01 00:39:44.40	37.30	60.26	-52.3	-54.1	17.3	0.00e+00	0	35	0	656408576	70	4531
2026-01-01 00:39:48.38	38.24	61.85	-51.1	-52.8	17.7	0.00e+00	0	35	0	663748608	68	4359
2026-01-01 00:39:52.39	39.32	63.49	-52.1	-54.0	17.4	0.00e+00	0	35	0	671088640	69	4727
2026-01-01 00:39:56.37	40.55	65.15	-52.8	-54.6	17.4	0.00e+00	0	35	0	678428672	71	4502
2026-01-01 00:40:00.37	41.99	66.83	-53.4	-55.2	17.1	0.00e+00	0	35	0	685768704	71	4853
2026-01-01 00:40:04.35	43.66	68.53	-55.5	-58.0	15.7	0.00e+00	0	35	0	693108736	77	4732
2026-01-01 00:40:08.34	45.65	70.25	-56.0	-58.7	15.3	0.00e+00	0	35	0	701497344	77	5138
2026-01-01 00:40:12.34	48.05	71.98	-56.0	-58.7	15.4	0.00e+00	0	35	0	708837376	78	4864
2026-01-01 00:40:16.32	50.97	73.68	-54.9	-57.2	16.2	0.00e+00	0	35	0	716177408	74	5155
2026-01-01 00:40:20.32	54.62	75.37	-55.9	-58.6	15.4	0.00e+00	0	35	0	723517440	77	5056
2026-01-01 00:40:24.28	59.19	77.00	-57.6	-61.7	13.1	7.60e-06	0	35	0	730857472	81	5769
2026-01-01 00:40:28.28	65.13	78.55	-57.4	-61.1	13.5	0.00e+00	0	35	0	738197504	80	5711
2026-01-01 00:40:32.27	72.85	79.96	-57.0	-60.2	14.3	0.00e+00	0	35	0	745537536	80	5129
2026-01-01 00:40:36.24	82.82	81.13	-55.9	-58.6	15.5	0.00e+00	0	35	0	752877568	77	5095
2026-01-01 00:40:40.24	95.48	81.98	-55.6	-58.2	15.6	0.00e+00	0	35	0	761266176	76	5128
2026-01-01 00:40:44.23	110.20	82.36	-54.8	-56.9	16.4	0.00e+00	0	35	0	768606208	76	4411
2026-01-01 00:40:48.23	125.44	82.22	-55.7	-58.0	15.8	0.00e+00	0	35	0	775946240	76	5029
2026-01-01 00:40:52.21	139.14	81.57	-55.8	-58.1	15.8	0.00e+00	0	35	0	783286272	78	4526
2026-01-01 00:40:56.22	150.43	80.53	-56.0	-58.7	15.3	0.00e+00	0	35	0	790626304	78	4827
2026-01-01 00:41:00.20	159.13	79.22	-55.8	-58.2	15.8	0.00e+00	0	35	0	797966336	78	4553
2026-01-01 00:41:04.19	165.82	77.73	-55.2	-57.5	16.1	0.00e+00	0	35	0	805306368	77	4448
2026-01-01 00:41:08.18	170.98	76.12	-55.4	-57.6	16.1	0.00e+00	0	35	0	813694976	77	4532
2026-01-01 00:41:12.14	175.00	74.47	-54.4	-56.4	16.7	0.00e+00	0	35	0	821035008	74	4682
2026-01-01 00:41:16.15	178.25	72.75	-55.5	-57.8	15.9	0.00e+00	0	35	0	828375040	77	4641
2026-01-01 00:41:20.12	180.86	71.04	-57.4	-60.9	14.0	2.20e-06	0	35	0	835715072	81	5225
2026-01-01 00:41:24.12	183.03	69.31	-58.8	-63.7	11.9	0.00e+00	0	35	0	843055104	82	6817
2026-01-01 00:41:28.12	184.84	67.60	-54.6	-56.6	16.6	0.00e+00	0	35	0	850395136	74	4813
2026-01-01 00:41:32.11	186.38	65.90	-52.7	-54.2	17.6	0.00e+00	0	35	0	857735168	72	4079
2026-01-01 00:41:36.12	187.71	64.22	-53.8	-55.8	16.8	0.00e+00	0	35	0	866123776	74	4378
2026-01-01 00:41:40.11	188.85	62.57	-54.8	-57.0	16.3	0.00e+00	0	35	0	873463808	75	4745
2026-01-01 00:41:44.11	189.85	60.95	-54.1	-56.4	16.5	0.00e+00	0	35	0	880803840	74	4678
2026-01-01 00:41:48.13	190.74	59.35	-54.3	-56.8	16.0	0.00e+00	0	35	0	888143872	75	4649
2026-01-01 00:41:52.13	191.52	57.80	-53.4	-55.4	16.8	0.00e+00	0	35	0	895483904	73	4418
2026-01-01 00:41:56.11	192.22	56.29	-52.7	-54.7	17.1	0.00e+00	0	35	0	902823936	71	4577
2026-01-01 00:42:00.10	192.86	54.81	-54.2	-56.7	16.2	0.00e+00	0	35	0	910163968	74	4846
2026-01-01 00:42:04.09	193.43	53.37	-56.8	-61.0	13.5	0.00e+00	0	35	0	918552576	78	6324
2026-01-01 00:42:08.07	193.94	51.98	-55.5	-58.6	15.4	0.00e+00	0	35	0	925892608	76	5360
2026-01-01 00:42:12.06	194.42	50.61	-55.1	-58.0	15.5	0.00e+00	0	35	0	933232640	76	4996
2026-01-01 00:42:16.05	194.86	49.28	-53.6	-55.7	16.8	0.00e+00	0	35	0	940572672	73	4553
2026-01-01 00:42:20.05	195.26	47.99	-57.0	-61.4	13.2	0.00e+00	0	35	0	947912704	79	6225
2026-01-01 00:42:24.03	195.63	46.74	-55.0	-57.7	15.6	0.00e+00	0	35	0	955252736	76	4866
2026-01-01 00:42:28.02	195.97	45.52	-54.8	-57.3	15.9	0.00e+00	0	35	0	962592768	74	5211
2026-01-01 00:42:32.01	196.29	44.34	-55.2	-57.8	15.6	0.00e+00	0	35	0	969932800	76	4915
2026-01-01 00:42:36.01	196.59	43.18	-52.6	-54.3	17.3	0.00e+00	0	35	0	978321408	71	4373
2026-01-01 00:42:40.01	196.87	42.07	-54.7	-57.3	15.9	0.00e+00	0	35	0	985661440	75	4884
2026-01-01 00:42:44.00	197.13	40.98	-55.6	-58.5	15.2	0.00e+00	0	35	0	993001472	77	4990
2026-01-01 00:42:47.99	197.38	39.93	-52.8	-54.7	17.1	0.00e+00	0	35	0	1000341504	72	4304
2026-01-01 00:42:51.99	197.61	38.90	-54.8	-57.6	15.6	0.00e+00	0	35	0	1007681536	74	5369
2026-01-01 00:42:55.97	197.83	37.91	-58.2	-66.1	8.9	9.95e-03	0	35	0	1015021568	81	9514
2026-01-01 00:42:59.99	198.04	36.94	-57.9	-64.3	10.6	2.58e-03	0	35	0	1022361600	82	7315
2026-01-01 00:43:03.99	198.23	36.00	-54.7	-57.2	15.9	0.00e+00	0	35	0	1030750208	75	4868
2026-01-01 00:43:08.00	198.42	35.08	-56.3	-60.1	14.1	0.00e+00	0	35	0	1038090240	77	6041
2026-01-01 00:43:12.00	198.60	34.19	-58.2	-65.2	9.8	2.73e-03	0	35	0	1045430272	81	8603
2026-01-01 00:43:16.00	198.77	33.33	-58.0	-63.4	11.4	1.29e-03	0	35	0	1052770304	82	6626
2026-01-01 00:43:19.98	198.93	32.49	-56.7	-60.3	13.9	0.00e+00	0	35	0	1060110336	79	5500
2026-01-01 00:43:23.98	199.08	31.67	-54.8	-57.2	16.0	0.00e+00	0	35	0	1067450368	76	4578
2026-01-01 00:43:27.97	199.23	30.88	-55.8	-58.7	14.9	0.00e+00	0	35	0	1075838976	76	5462
2026-01-01 00:43:31.96	199.37	30.11	-57.3	-61.6	13.0	7.00e-07	0	35	0	1083179008	79	6377
2026-01-01 00:43:35.95	199.50	29.35	-56.6	-60.2	14.1	0.00e+00	0	35	0	1090519040	79	5455
2026-01-01 00:43:39.95	199.63	28.62	-55.6	-58.4	15.2	0.00e+00	0	35	0	1097859072	77	4950
2026-01-01 00:43:43.95	199.76	27.90	-54.7	-57.0	16.1	0.00e+00	0	35	0	1105199104	76	4481
2026-01-01 00:43:47.94	199.88	27.20	-54.1	-56.2	16.6	0.00e+00	0	35	0	1112539136	74	4547
2026-01-01 00:43:51.95	199.99	26.52	-53.5	-55.4	16.9	0.00e+00	0	35	0	1119879168	73	4421
2026-01-01 00:43:55.95	200.10	25.86	-53.1	-55.0	17.1	0.00e+00	0	35	0	1128267776	72	4442
2026-01-01 00:43:59.95	200.21	25.21	-53.0	-54.8	17.2	0.00e+00	0	35	0	1135607808	72	4367
2026-01-01 00:44:03.96	200.31	24.57	-54.8	-57.1	16.0	0.00e+00	0	35	0	1142947840	76	4507
2026-01-01 00:44:07.97	200.41	23.95	-54.9	-57.3	16.0	0.00e+00	0	35	0	1150287872	75	4891
2026-01-01 00:44:11.96	200.51	23.35	-53.4	-55.3	16.9	0.00e+00	0	35	0	1157627904	73	4383
2026-01-01 00:44:15.95	200.60	22.76	-52.6	-54.3	17.4	0.00e+00	0	35	0	1164967936	71	4351
2026-01-01 00:44:19.95	200.70	22.19	-52.4	-54.1	17.5	0.00e+00	0	35	0	1172307968	70	4525
2026-01-01 00:44:23.94	200.78	21.62	-52.8	-54.6	17.2	0.00e+00	0	35	0	1180696576	70	4795
2026-01-01 00:44:27.92	200.87	21.07	-53.0	-54.8	17.1	0.00e+00	0	35	0	1188036608	71	4646
2026-01-01 00:44:31.92	200.95	20.53	-53.2	-55.2	16.9	0.00e+00	0	35	0	1195376640	71	4825
2026-01-01 00:44:35.92	201.03	20.00	-53.5	-55.5	16.8	0.00e+00	0	35	0	1202716672	72	4750
2026-01-01 00:44:39.92	201.11	19.49	-53.3	-55.3	16.9	0.00e+00	0	35	0	1210056704	72	4631
2026-01-01 00:44:43.92	201.19	18.98	-53.2	-55.2	16.9	0.00e+00	0	35	0	1217396736	72	4550
2026-01-01 00:44:47.92	201.26	18.48	-53.2	-55.1	16.9	0.00e+00	0	35	0	1224736768	72	4544
2026-01-01 00:44:51.90	201.33	18.00	-53.3	-55.4	16.9	0.00e+00	0	35	0	1233125376	72	4681
2026-01-01 00:44:55.88	201.40	17.52	-54.1	-55.9	16.8	0.00e+00	0	35	0	1240465408	73	4674
2026-01-01 00:44:59.88	201.47	17.05	-54.0	-55.8	16.8	0.00e+00	0	35	0	1247805440	73	4629
2026-01-01 00:45:03.85	201.54	16.59	-54.3	-56.2	16.6	0.00e+00	0	35	0	1255145472	73	4825
2026-01-01 00:45:07.84	201.61	16.14	-54.3	-56.2	16.6	0.00e+00	0	35	0	1262485504	73	4829
2026-01-01 00:45:11.83	201.67	15.70	-54.4	-56.3	16.6	0.00e+00	0	35	0	1269825536	74	4602
2026-01-01 00:45:15.82	201.73	15.27	-54.4	-56.3	16.6	0.00e+00	0	35	0	1277165568	74	4623
2026-01-01 00:45:19.79	201.79	14.84	-54.6	-56.5	16.4	0.00e+00	0	35	0	1284505600	74	4746
2026-01-01 00:45:23.77	201.85	14.42	-54.9	-57.0	16.2	0.00e+00	0	35	0	1292894208	75	4735
2026-01-01 00:45:27.74	201.91	14.01	-54.9	-56.9	16.2	0.00e+00	0	35	0	1300234240	75	4688
2026-01-01 00:45:31.73	201.97	13.61	-54.8	-56.9	16.2	0.00e+00	0	35	0	1307574272	75	4701
2026-01-01 00:45:35.73	202.03	13.21	-54.9	-57.0	16.1	0.00e+00	0	35	0	1314914304	75	4747
2026-01-01 00:45:39.69	202.08	12.82	-54.9	-57.1	16.1	0.00e+00	0	35	0	1322254336	75	4760
2026-01-01 00:45:43.69	202.14	12.43	-54.7	-56.8	16.2	0.00e+00	0	35	0	1329594368	75	4648
2026-01-01 00:45:47.69	202.19	12.05	-54.9	-57.1	16.1	0.00e+00	0	35	0	1336934400	75	4764
2026-01-01 00:45:51.68	202.24	11.68	-54.8	-57.0	16.1	0.00e+00	0	35	0	1344274432	75	4725
2026-01-01 00:45:55.66	202.29	11.31	-54.9	-57.1	16.0	0.00e+00	0	35	0	1352663040	75	4776
2026-01-01 00:45:59.65	202.34	10.94	-54.8	-57.0	16.1	0.00e+00	0	35	0	1360003072	75	4719
2026-01-01 00:46:03.64	202.39	10.59	-54.9	-57.1	16.0	0.00e+00	0	35	0	1367343104	75	4779
2026-01-01 00:46:07.63	202.44	10.23	-54.8	-57.0	16.0	0.00e+00	0	35	0	1374683136	75	4748
2026-01-01 00:46:11.62	202.49	9.88	-55.0	-57.2	15.9	0.00e+00	0	35	0	1382023168	75	4839
2026-01-01 00:46:15.61	202.54	9.54	-54.9	-57.1	16.0	0.00e+00	0	35	0	1389363200	75	4772
2026-01-01 00:46:19.60	202.58	9.20	-55.1	-57.4	15.7	0.00e+00	0	35	0	1396703232	75	4972
2026-01-01 00:46:23.58	202.63	8.87	-54.6	-56.8	16.1	0.00e+00	0	35	0	1405091840	75	4613
2026-01-01 00:46:27.55	202.67	8.54	-54.8	-57.0	15.9	0.00e+00	0	35	0	1412431872	75	4751
2026-01-01 00:46:31.52	202.72	8.22	-54.8	-57.0	15.9	0.00e+00	0	35	0	1419771904	75	4711
2026-01-01 00:46:35.49	202.76	7.90	-55.0	-57.2	15.7	0.00e+00	0	35	0	1427111936	75	4859
2026-01-01 00:46:39.48	202.80	7.58	-55.1	-57.4	15.6	0.00e+00	0	35	0	1434451968	75	4955
2026-01-01 00:46:43.47	202.84	7.27	-55.1	-57.4	15.6	0.00e+00	0	35	0	1441792000	75	4967
2026-01-01 00:46:47.47	202.89	6.96	-55.2	-57.6	15.4	0.00e+00	0	35	0	1449132032	75	5082
2026-01-01 00:46:51.46	202.93	6.65	-55.3	-57.8	15.4	0.00e+00	0	35	0	1456472064	75	5174
2026-01-01 00:46:55.45	202.97	6.35	-55.4	-57.9	15.3	0.00e+00	0	35	0	1464860672	76	4953
2026-01-01 00:46:59.46	203.01	6.05	-55.6	-58.2	15.0	0.00e+00	0	35	0	1472200704	76	5151
2026-01-01 00:47:03.46	203.05	5.75	-55.7	-58.4	14.9	0.00e+00	0	35	0	1479540736	76	5261
2026-01-01 00:47:07.46	203.09	5.46	-55.8	-58.7	14.6	0.00e+00	0	35	0	1486880768	77	5119
2026-01-01 00:47:11.46	203.12	5.17	-55.8	-58.6	14.6	0.00e+00	0	35	0	1494220800	77	5082
2026-01-01 00:47:15.46	203.16	4.89	-61.0	-77.0	3.8	1.49e+00	0	35	104	1498415104	87	23608
2026-01-01 00:47:19.49	203.20	4.60	-61.6	-77.5	3.8	1.49e+00	0	35	104	1498415104	88	23775
2026-01-01 00:47:23.47	203.24	4.32	-61.9	-77.8	3.8	1.49e+00	0	35	104	1498415104	88	24693
2026-01-01 00:47:27.46	203.27	4.04	-62.0	-78.0	3.8	1.49e+00	0	35	104	1498415104	89	23677
2026-01-01 00:47:31.45	203.31	3.77	-62.1	-78.1	3.8	1.49e+00	0	35	104	1498415104	89	23940
2026-01-01 00:47:35.45	203.34	3.50	-62.1	-78.1	3.8	1.49e+00	0	35	104	1498415104	89	24030
2026-01-01 00:47:39.45	203.38	3.23	-62.0	-78.0	3.8	1.49e+00	0	35	104	1498415104	89	23649
2026-01-01 00:47:43.46	203.41	2.96	-62.0	-78.0	3.8	1.49e+00	0	35	104	1498415104	89	23602
2026-01-01 00:47:47.45	203.45	2.70	-61.9	-77.9	3.8	1.49e+00	0	35	104	1498415104	89	23414
2026-01-01 00:47:51.45	203.48	2.44	-61.8	-77.9	3.8	1.49e+00	0	35	104	1498415104	89	23362
2026-01-01 00:47:55.44	203.52	2.18	-61.8	-77.8	3.8	1.49e+00	0	36	104	1498415104	89	23178

#Closed at: 2026-01-01 00:47:58
#Recorded file [1498 MB]: D:/lorett/data/31004_260101_033328.dat