passes_logs/2026/01/01/R3.2S_Murmansk/R3.2S_Murmansk__20260101_233645_KANOPUS-V_5_rec.log

#Pass ID: 20260101_233645_KANOPUS-V 5
#Satellite: KANOPUS-V 5
#Configuration: KANOPUS-V_8320
#almurnet v.1.7.20251203
#Start time: 2026-01-01 23:36:45

#Version: 2.2.20231116
#Station: R3.2S_Murmansk
#Location: 33.079688 lon 68.888172 lat
#TLE: 1 43876U 18111A   25365.78559900  .00000034  00000+0  43243-5 0  9991
#TLE: 2 43876  97.3689 269.5581 0001682  83.9573 276.1856 15.23322632389307

#Time	Az	El	Level	Level2	SNR	BER	BlckErr	Temp	State	Recorded	gain1	gain2
2026-01-01 23:36:45.65	22.25	2.01	-60.7	-70.5	3.8	7.47e-01	0	31	0	0	86	10554
2026-01-01 23:36:48.64	22.09	2.21	-60.7	-70.5	3.8	7.46e-01	0	32	104	0	86	10572
2026-01-01 23:36:51.62	21.92	2.41	-60.7	-70.5	3.8	7.45e-01	0	32	104	0	86	10548
2026-01-01 23:36:54.59	21.75	2.61	-60.7	-70.5	3.8	7.44e-01	0	32	104	0	86	10615
2026-01-01 23:36:57.57	21.58	2.82	-60.7	-70.5	3.8	7.45e-01	0	32	104	0	86	10571
2026-01-01 23:37:00.57	21.41	3.02	-60.7	-70.5	3.8	7.45e-01	0	32	104	0	86	10563
2026-01-01 23:37:03.56	21.23	3.23	-60.7	-70.5	3.8	7.44e-01	0	32	104	0	86	10546
2026-01-01 23:37:06.55	21.05	3.44	-60.7	-70.5	3.8	7.47e-01	0	32	104	0	86	10580
2026-01-01 23:37:09.54	20.86	3.66	-60.7	-70.4	3.8	7.44e-01	0	32	104	0	86	10518
2026-01-01 23:37:12.52	20.67	3.87	-60.7	-70.4	3.8	7.45e-01	0	32	104	0	86	10493
2026-01-01 23:37:15.51	20.48	4.09	-60.7	-70.4	3.8	7.46e-01	0	32	104	0	86	10530
2026-01-01 23:37:18.50	20.28	4.31	-60.7	-70.4	3.8	7.46e-01	0	32	104	0	86	10509
2026-01-01 23:37:21.50	20.08	4.53	-60.7	-70.4	3.8	7.45e-01	0	32	104	0	86	10501
2026-01-01 23:37:24.49	19.87	4.75	-60.7	-70.4	3.8	7.46e-01	0	32	104	0	86	10515
2026-01-01 23:37:27.49	19.66	4.98	-60.7	-70.4	3.8	7.44e-01	0	32	104	0	86	10513
2026-01-01 23:37:30.48	19.45	5.21	-60.8	-70.5	3.8	7.48e-01	0	32	104	0	86	10590
2026-01-01 23:37:33.49	19.23	5.44	-60.7	-70.5	3.8	7.47e-01	0	33	104	0	86	10557
2026-01-01 23:37:36.47	19.00	5.67	-60.8	-70.5	3.8	7.45e-01	0	33	104	0	86	10611
2026-01-01 23:37:39.48	18.77	5.91	-60.8	-70.5	3.8	7.45e-01	0	33	104	0	86	10632
2026-01-01 23:37:42.47	18.54	6.14	-60.8	-70.6	3.8	7.45e-01	0	33	104	0	86	10709
2026-01-01 23:37:45.46	18.30	6.38	-60.8	-70.5	3.8	7.45e-01	0	33	104	0	86	10607
2026-01-01 23:37:48.45	18.06	6.63	-60.9	-70.6	3.8	7.44e-01	0	33	104	0	86	10683
2026-01-01 23:37:51.42	17.81	6.87	-60.8	-70.6	3.8	7.46e-01	0	33	104	0	86	10691
2026-01-01 23:37:54.40	17.56	7.12	-60.9	-70.6	3.8	7.47e-01	0	33	104	0	86	10766
2026-01-01 23:37:57.40	17.29	7.37	-60.9	-70.6	3.8	7.45e-01	0	33	104	0	86	10730
2026-01-01 23:38:00.40	17.03	7.62	-61.0	-70.7	3.8	7.46e-01	0	33	104	0	86	10819
2026-01-01 23:38:03.40	16.75	7.88	-60.9	-70.7	3.8	7.46e-01	0	33	104	0	86	10802
2026-01-01 23:38:06.39	16.47	8.14	-61.0	-70.8	3.8	7.46e-01	0	33	104	0	86	10914
2026-01-01 23:38:09.37	16.19	8.40	-61.0	-70.7	3.8	7.46e-01	0	33	104	0	86	10847
2026-01-01 23:38:12.35	15.90	8.67	-61.1	-70.8	3.8	7.45e-01	0	33	104	0	86	10944
2026-01-01 23:38:15.33	15.60	8.94	-61.0	-70.8	3.8	7.46e-01	0	33	104	0	86	10919
2026-01-01 23:38:18.32	15.29	9.21	-61.1	-70.8	3.8	7.44e-01	0	33	104	0	86	11025
2026-01-01 23:38:21.31	14.98	9.48	-61.1	-70.8	3.8	7.46e-01	0	33	104	0	86	10959
2026-01-01 23:38:24.29	14.66	9.76	-61.2	-70.9	3.8	7.47e-01	0	33	104	0	86	11045
2026-01-01 23:38:27.28	14.33	10.04	-61.1	-70.8	3.8	7.43e-01	0	33	104	0	86	11027
2026-01-01 23:38:30.27	13.99	10.33	-61.2	-71.0	3.8	7.45e-01	0	33	104	0	86	11173
2026-01-01 23:38:33.27	13.64	10.62	-61.1	-70.9	3.8	7.46e-01	0	33	104	0	86	11097
2026-01-01 23:38:36.27	13.28	10.92	-61.2	-70.9	3.8	7.45e-01	0	33	104	0	86	11150
2026-01-01 23:38:39.27	12.92	11.21	-61.2	-71.0	3.8	7.46e-01	0	33	104	0	86	11173
2026-01-01 23:38:42.27	12.54	11.52	-61.3	-71.0	3.8	7.46e-01	0	33	104	0	86	11260
2026-01-01 23:38:45.24	12.16	11.82	-61.3	-71.0	3.8	7.46e-01	0	33	104	0	86	11206
2026-01-01 23:38:48.23	11.76	12.13	-61.3	-71.1	3.8	7.46e-01	0	33	104	0	86	11298
2026-01-01 23:38:51.21	11.36	12.44	-61.3	-71.0	3.8	7.44e-01	0	33	104	0	86	11259
2026-01-01 23:38:54.19	10.95	12.76	-61.4	-71.1	3.8	7.47e-01	0	33	104	0	86	11398
2026-01-01 23:38:57.18	10.52	13.08	-61.3	-71.1	3.8	7.45e-01	0	33	104	0	86	11294
2026-01-01 23:39:00.18	10.08	13.40	-61.4	-71.1	3.8	7.46e-01	0	33	104	0	86	11406
2026-01-01 23:39:03.16	9.63	13.73	-61.4	-71.1	3.8	7.45e-01	0	33	104	0	86	11376
2026-01-01 23:39:06.15	9.17	14.07	-61.5	-71.2	3.8	7.46e-01	0	33	104	0	86	11464
2026-01-01 23:39:09.13	8.69	14.40	-61.5	-71.2	3.8	7.46e-01	0	33	104	0	86	11490
2026-01-01 23:39:12.12	8.20	14.75	-61.5	-71.3	3.8	7.45e-01	0	33	104	0	86	11579
2026-01-01 23:39:15.10	7.70	15.09	-61.5	-71.2	3.8	7.47e-01	0	34	104	0	86	11460
2026-01-01 23:39:18.09	7.18	15.44	-61.6	-71.3	3.8	7.45e-01	0	33	104	0	86	11569
2026-01-01 23:39:21.06	6.65	15.80	-61.5	-71.2	3.8	7.46e-01	0	34	104	0	86	11495
2026-01-01 23:39:24.04	6.10	16.16	-61.6	-71.3	3.8	7.45e-01	0	33	104	0	86	11611
2026-01-01 23:39:27.03	5.54	16.52	-61.6	-71.3	3.8	7.46e-01	0	33	104	0	86	11619
2026-01-01 23:39:30.01	4.96	16.89	-61.6	-71.3	3.8	7.46e-01	0	33	104	0	86	11683
2026-01-01 23:39:32.99	4.36	17.27	-61.6	-71.3	3.8	7.45e-01	0	33	104	0	86	11620
2026-01-01 23:39:35.97	3.74	17.65	-61.7	-71.4	3.8	7.45e-01	0	33	104	0	86	11708
2026-01-01 23:39:38.97	3.10	18.03	-61.7	-71.4	3.8	7.46e-01	0	34	104	0	86	11726
2026-01-01 23:39:41.96	2.45	18.42	-61.7	-71.4	3.8	7.45e-01	0	34	104	0	86	11783
2026-01-01 23:39:44.96	1.77	18.81	-61.7	-71.4	3.8	7.45e-01	0	33	104	0	86	11736
2026-01-01 23:39:47.95	1.07	19.21	-61.7	-71.5	3.8	7.45e-01	0	33	104	0	86	11821
2026-01-01 23:39:50.94	0.35	19.61	-61.7	-71.4	3.8	7.47e-01	0	33	104	0	86	11803
2026-01-01 23:39:53.94	359.61	20.02	-61.8	-71.5	3.8	7.46e-01	0	34	104	0	86	11876
2026-01-01 23:39:56.92	358.85	20.42	-61.7	-71.4	3.8	7.45e-01	0	33	104	0	86	11788
2026-01-01 23:39:59.91	358.06	20.84	-61.8	-71.5	3.8	7.47e-01	0	34	104	0	86	11942
2026-01-01 23:40:02.89	357.25	21.25	-61.8	-71.5	3.8	7.46e-01	0	34	104	0	86	11886
2026-01-01 23:40:05.88	356.41	21.67	-61.9	-71.6	3.8	7.45e-01	0	34	104	0	86	12038
2026-01-01 23:40:08.86	355.55	22.09	-61.8	-71.5	3.8	7.46e-01	0	34	104	0	86	11876
2026-01-01 23:40:11.85	354.66	22.51	-61.9	-71.6	3.8	7.45e-01	0	34	104	0	86	12010
2026-01-01 23:40:14.84	353.74	22.94	-61.9	-71.6	3.8	7.45e-01	0	34	104	0	86	12005
2026-01-01 23:40:17.80	352.80	23.36	-61.9	-71.7	3.8	7.47e-01	0	34	104	0	87	11437
2026-01-01 23:40:20.77	351.82	23.78	-61.9	-71.6	3.8	7.45e-01	0	33	104	0	87	11393
2026-01-01 23:40:23.76	350.82	24.21	-62.0	-71.7	3.8	7.44e-01	0	34	104	0	87	11458
2026-01-01 23:40:26.76	349.77	24.64	-62.0	-71.7	3.8	7.45e-01	0	34	104	0	87	11469
2026-01-01 23:40:29.74	348.70	25.07	-62.0	-71.7	3.8	7.47e-01	0	34	104	0	87	11540
2026-01-01 23:40:32.71	347.60	25.49	-62.0	-71.7	3.8	7.45e-01	0	34	104	0	87	11485
2026-01-01 23:40:35.70	346.46	25.91	-62.1	-71.8	3.8	7.47e-01	0	34	104	0	87	11621
2026-01-01 23:40:38.70	345.28	26.33	-62.1	-71.8	3.8	7.44e-01	0	34	104	0	87	11628
2026-01-01 23:40:41.69	344.08	26.74	-62.1	-71.9	3.8	7.44e-01	0	34	104	0	87	11723
2026-01-01 23:40:44.69	342.83	27.15	-62.1	-71.8	3.8	7.46e-01	0	34	104	0	87	11621
2026-01-01 23:40:47.68	341.55	27.55	-62.2	-71.9	3.8	7.45e-01	0	34	104	0	87	11720
2026-01-01 23:40:50.66	340.24	27.94	-62.2	-71.9	3.8	7.45e-01	0	34	104	0	87	11786
2026-01-01 23:40:53.66	338.88	28.32	-62.2	-71.9	3.8	7.46e-01	0	34	104	0	87	11804
2026-01-01 23:40:56.63	337.51	28.69	-62.2	-71.9	3.8	7.47e-01	0	34	104	0	87	11789
2026-01-01 23:40:59.62	336.09	29.05	-62.3	-72.0	3.8	7.45e-01	0	34	104	0	87	11877
2026-01-01 23:41:02.61	334.63	29.40	-62.3	-72.0	3.8	7.45e-01	0	34	104	0	87	11881
2026-01-01 23:41:05.61	333.14	29.73	-62.3	-72.0	3.8	7.46e-01	0	34	104	0	87	11928
2026-01-01 23:41:08.60	331.61	30.05	-62.3	-72.0	3.8	7.45e-01	0	34	104	0	87	11873
2026-01-01 23:41:11.59	330.06	30.34	-62.3	-72.0	3.8	7.46e-01	0	34	104	0	87	11920
2026-01-01 23:41:14.56	328.48	30.62	-62.3	-72.1	3.8	7.46e-01	0	34	104	0	87	12004
2026-01-01 23:41:17.54	326.87	30.88	-62.3	-72.1	3.8	7.47e-01	0	34	104	0	87	12001
2026-01-01 23:41:20.51	325.24	31.11	-62.3	-72.0	3.8	7.46e-01	0	34	104	0	87	11939
2026-01-01 23:41:23.49	323.58	31.33	-62.4	-72.1	3.8	7.47e-01	0	34	104	0	87	12038
2026-01-01 23:41:26.48	321.89	31.52	-62.4	-72.1	3.8	7.46e-01	0	34	104	0	87	12022
2026-01-01 23:41:29.46	320.19	31.68	-62.4	-72.2	3.8	7.45e-01	0	34	104	0	88	11424
2026-01-01 23:41:32.45	318.46	31.82	-62.4	-72.1	3.8	7.46e-01	0	34	104	0	88	11410
2026-01-01 23:41:35.44	316.72	31.93	-62.4	-72.2	3.8	7.46e-01	0	34	104	0	88	11444
2026-01-01 23:41:38.43	314.97	32.01	-62.4	-72.2	3.8	7.45e-01	0	34	104	0	88	11437
2026-01-01 23:41:41.43	313.20	32.07	-62.4	-72.2	3.8	7.44e-01	0	34	104	0	88	11474
2026-01-01 23:41:44.43	311.43	32.10	-62.5	-72.2	3.8	7.45e-01	0	34	104	0	88	11482
2026-01-01 23:41:47.42	309.66	32.09	-62.5	-72.2	3.8	7.45e-01	0	34	104	0	88	11517
2026-01-01 23:41:50.42	307.89	32.06	-62.5	-72.2	3.8	7.47e-01	0	34	104	0	88	11512
2026-01-01 23:41:53.39	306.14	32.00	-62.5	-72.2	3.8	7.45e-01	0	34	104	0	88	11472
2026-01-01 23:41:56.38	304.39	31.91	-62.5	-72.2	3.8	7.46e-01	0	34	104	0	88	11546
2026-01-01 23:41:59.38	302.64	31.80	-62.6	-72.3	3.8	7.46e-01	0	34	104	0	88	11577
2026-01-01 23:42:02.37	300.92	31.65	-62.6	-72.3	3.8	7.45e-01	0	34	104	0	88	11650
2026-01-01 23:42:05.35	299.21	31.49	-62.5	-72.3	3.8	7.45e-01	0	34	104	0	88	11584
2026-01-01 23:42:08.34	297.53	31.29	-62.6	-72.3	3.8	7.47e-01	0	34	104	0	88	11676
2026-01-01 23:42:11.32	295.87	31.07	-62.6	-72.3	3.8	7.47e-01	0	34	104	0	88	11671
2026-01-01 23:42:14.30	294.23	30.83	-62.6	-72.3	3.8	7.46e-01	0	34	104	0	88	11610
2026-01-01 23:42:17.26	292.64	30.57	-62.5	-72.2	3.8	7.46e-01	0	34	104	0	88	11538
2026-01-01 23:42:20.25	291.06	30.29	-62.5	-72.2	3.8	7.47e-01	0	34	104	0	88	11496
2026-01-01 23:42:23.23	289.51	29.99	-62.5	-72.2	3.8	7.46e-01	0	34	104	0	88	11493
2026-01-01 23:42:26.22	287.99	29.67	-62.5	-72.2	3.8	7.46e-01	0	34	104	0	88	11485
2026-01-01 23:42:29.20	286.51	29.34	-62.4	-72.1	3.8	7.46e-01	0	34	104	0	88	11368
2026-01-01 23:42:32.18	285.06	28.99	-62.4	-72.2	3.8	7.45e-01	0	34	104	0	88	11426
2026-01-01 23:42:35.16	283.64	28.63	-62.4	-72.1	3.8	7.46e-01	0	34	104	0	88	11373
2026-01-01 23:42:38.14	282.26	28.25	-62.4	-72.1	3.8	7.45e-01	0	34	104	0	88	11381
2026-01-01 23:42:41.13	280.92	27.87	-62.3	-72.1	3.8	7.46e-01	0	34	104	0	88	11296
2026-01-01 23:42:44.12	279.60	27.47	-62.3	-72.1	3.8	7.45e-01	0	34	104	0	88	11322
2026-01-01 23:42:47.10	278.33	27.07	-62.3	-72.0	3.8	7.46e-01	0	34	104	0	88	11271
2026-01-01 23:42:50.10	277.09	26.66	-62.3	-72.0	3.8	7.46e-01	0	33	104	0	88	11239
2026-01-01 23:42:53.07	275.89	26.25	-62.3	-72.0	3.8	7.46e-01	0	34	104	0	88	11234
2026-01-01 23:42:56.08	274.71	25.83	-62.3	-72.0	3.8	7.47e-01	0	34	104	0	88	11246
2026-01-01 23:42:59.07	273.57	25.40	-62.2	-72.0	3.8	7.45e-01	0	34	104	0	88	11170
2026-01-01 23:43:02.07	272.46	24.98	-62.2	-71.9	3.8	7.44e-01	0	34	104	0	88	11112
2026-01-01 23:43:05.05	271.40	24.55	-62.2	-71.9	3.8	7.44e-01	0	34	104	0	88	11106
2026-01-01 23:43:08.03	270.36	24.12	-62.2	-71.9	3.8	7.46e-01	0	34	104	0	88	11145
2026-01-01 23:43:11.02	269.35	23.69	-62.2	-71.9	3.8	7.46e-01	0	34	104	0	88	11099
2026-01-01 23:43:14.00	268.38	23.27	-62.1	-71.9	3.8	7.46e-01	0	34	104	0	88	11051
2026-01-01 23:43:16.99	267.43	22.84	-62.1	-71.8	3.8	7.46e-01	0	34	104	0	88	11024
2026-01-01 23:43:19.97	266.52	22.41	-62.1	-71.9	3.8	7.46e-01	0	34	104	0	88	11043
2026-01-01 23:43:22.95	265.63	21.99	-62.1	-71.8	3.8	7.46e-01	0	34	104	0	88	10991
2026-01-01 23:43:25.94	264.76	21.57	-62.0	-71.8	3.8	7.45e-01	0	34	104	0	88	10926
2026-01-01 23:43:28.92	263.93	21.15	-62.0	-71.7	3.8	7.47e-01	0	34	104	0	88	10890
2026-01-01 23:43:31.92	263.12	20.73	-62.0	-71.8	3.8	7.44e-01	0	34	104	0	88	10927
2026-01-01 23:43:34.92	262.33	20.32	-62.0	-71.7	3.8	7.45e-01	0	34	104	0	88	10862
2026-01-01 23:43:37.92	261.56	19.91	-62.0	-71.7	3.8	7.46e-01	0	34	104	0	88	10820
2026-01-01 23:43:40.90	260.83	19.50	-61.9	-71.7	3.8	7.45e-01	0	34	104	0	88	10783
2026-01-01 23:43:43.90	260.11	19.10	-61.9	-71.7	3.8	7.44e-01	0	34	104	0	88	10819
2026-01-01 23:43:46.88	259.41	18.70	-61.9	-71.6	3.8	7.45e-01	0	34	104	0	88	10745
2026-01-01 23:43:49.88	258.74	18.31	-61.9	-71.6	3.8	7.46e-01	0	34	104	0	88	10680
2026-01-01 23:43:52.86	258.08	17.92	-61.8	-71.5	3.8	7.45e-01	0	34	104	0	88	10644
2026-01-01 23:43:55.85	257.45	17.53	-61.8	-71.5	3.8	7.46e-01	0	34	104	0	88	10632
2026-01-01 23:43:58.85	256.83	17.15	-61.8	-71.5	3.8	7.46e-01	0	34	104	0	88	10638
2026-01-01 23:44:01.84	256.23	16.78	-61.8	-71.5	3.8	7.45e-01	0	34	104	0	88	10564
2026-01-01 23:44:04.83	255.65	16.41	-61.8	-71.5	3.8	7.45e-01	0	34	104	0	88	10597
2026-01-01 23:44:07.82	255.08	16.04	-61.8	-71.5	3.8	7.45e-01	0	34	104	0	88	10566
2026-01-01 23:44:10.81	254.54	15.68	-61.7	-71.4	3.8	7.45e-01	0	34	104	0	88	10456
2026-01-01 23:44:13.80	254.00	15.32	-61.7	-71.4	3.8	7.44e-01	0	34	104	0	88	10495
2026-01-01 23:44:16.79	253.49	14.97	-61.7	-71.4	3.8	7.46e-01	0	34	104	0	87	11090
2026-01-01 23:44:19.77	252.98	14.62	-61.6	-71.4	3.8	7.45e-01	0	34	104	0	87	11033
2026-01-01 23:44:22.75	252.50	14.28	-61.6	-71.3	3.8	7.45e-01	0	34	104	0	87	11002
2026-01-01 23:44:25.72	252.02	13.94	-61.6	-71.3	3.8	7.44e-01	0	34	104	0	87	10990
2026-01-01 23:44:28.71	251.56	13.61	-61.6	-71.3	3.8	7.46e-01	0	34	104	0	87	10960
2026-01-01 23:44:31.70	251.11	13.28	-61.5	-71.3	3.8	7.46e-01	0	34	104	0	87	10925
2026-01-01 23:44:34.69	250.67	12.95	-61.5	-71.2	3.8	7.46e-01	0	34	104	0	87	10879
2026-01-01 23:44:37.68	250.24	12.63	-61.5	-71.2	3.8	7.44e-01	0	34	104	0	87	10841
2026-01-01 23:44:40.67	249.83	12.32	-61.5	-71.2	3.8	7.45e-01	0	34	104	0	87	10795
2026-01-01 23:44:43.65	249.42	12.00	-61.5	-71.2	3.8	7.47e-01	0	34	104	0	87	10798
2026-01-01 23:44:46.63	249.03	11.70	-61.4	-71.2	3.8	7.46e-01	0	34	104	0	87	10798
2026-01-01 23:44:49.63	248.65	11.39	-61.4	-71.1	3.8	7.47e-01	0	34	104	0	87	10776
2026-01-01 23:44:52.61	248.27	11.09	-61.4	-71.1	3.8	7.46e-01	0	34	104	0	87	10747
2026-01-01 23:44:55.59	247.91	10.79	-61.4	-71.1	3.8	7.45e-01	0	34	104	0	87	10702
2026-01-01 23:44:58.58	247.55	10.50	-61.4	-71.1	3.8	7.44e-01	0	34	104	0	87	10711
2026-01-01 23:45:01.57	247.21	10.21	-61.4	-71.1	3.8	7.44e-01	0	33	104	0	87	10686
2026-01-01 23:45:04.57	246.87	9.92	-61.3	-71.0	3.8	7.45e-01	0	34	104	0	87	10602
2026-01-01 23:45:07.55	246.54	9.64	-61.3	-71.0	3.8	7.45e-01	0	34	104	0	87	10555
2026-01-01 23:45:10.54	246.21	9.36	-61.2	-71.0	3.8	7.47e-01	0	34	104	0	87	10542
2026-01-01 23:45:13.52	245.90	9.09	-61.3	-71.0	3.8	7.45e-01	0	34	104	0	87	10550
2026-01-01 23:45:16.50	245.59	8.82	-61.2	-70.9	3.8	7.45e-01	0	34	104	0	87	10473
2026-01-01 23:45:19.47	245.30	8.55	-61.1	-70.8	3.8	7.44e-01	0	34	104	0	86	11004
2026-01-01 23:45:22.45	245.00	8.28	-61.1	-70.8	3.8	7.46e-01	0	34	104	0	86	10988
2026-01-01 23:45:25.44	244.72	8.02	-61.2	-70.9	3.8	7.44e-01	0	34	104	0	86	11069
2026-01-01 23:45:28.42	244.44	7.76	-61.1	-70.8	3.8	7.47e-01	0	34	104	0	86	10949
2026-01-01 23:45:31.41	244.17	7.50	-61.0	-70.7	3.8	7.45e-01	0	34	104	0	86	10895
2026-01-01 23:45:34.41	243.90	7.25	-61.0	-70.7	3.8	7.45e-01	0	34	104	0	86	10881
2026-01-01 23:45:37.40	243.64	7.00	-61.1	-70.7	3.8	7.44e-01	0	34	104	0	86	10901
2026-01-01 23:45:40.39	243.38	6.75	-61.0	-70.7	3.8	7.46e-01	0	34	104	0	86	10823
2026-01-01 23:45:43.41	243.13	6.50	-60.8	-70.6	3.8	7.45e-01	0	34	104	0	86	10665
2026-01-01 23:45:46.42	242.88	6.26	-60.8	-70.5	3.8	7.45e-01	0	34	104	0	86	10651
2026-01-01 23:45:49.41	242.64	6.02	-60.9	-70.6	3.8	7.47e-01	0	34	104	0	86	10680
2026-01-01 23:45:52.42	242.41	5.78	-60.7	-70.5	3.8	7.46e-01	0	34	104	0	86	10572
2026-01-01 23:45:55.41	242.18	5.54	-60.6	-70.3	3.8	7.46e-01	0	34	104	0	85	10976
2026-01-01 23:45:58.41	241.95	5.31	-60.6	-70.3	3.8	7.44e-01	0	34	104	0	85	11019
2026-01-01 23:46:01.41	241.73	5.08	-60.7	-70.4	3.8	7.45e-01	0	34	104	0	85	11085
2026-01-01 23:46:04.41	241.52	4.85	-61.7	-71.4	3.8	7.46e-01	0	34	104	0	86	11762
2026-01-01 23:46:07.41	241.30	4.62	-62.3	-72.0	3.8	7.47e-01	0	34	104	0	87	11903
2026-01-01 23:46:10.41	241.10	4.40	-62.7	-72.4	3.8	7.46e-01	0	34	104	0	88	11744
2026-01-01 23:46:13.41	240.89	4.18	-62.9	-72.7	3.8	7.46e-01	0	34	104	0	89	11437
2026-01-01 23:46:16.39	240.70	3.96	-63.1	-72.8	3.8	7.44e-01	0	34	104	0	89	11601
2026-01-01 23:46:19.38	240.50	3.74	-63.1	-72.8	3.8	7.46e-01	0	34	104	0	89	11674
2026-01-01 23:46:22.38	240.31	3.53	-63.1	-72.9	3.8	7.46e-01	0	34	104	0	89	11757
2026-01-01 23:46:25.37	240.12	3.31	-63.2	-72.9	3.8	7.46e-01	0	34	104	0	89	11759
2026-01-01 23:46:28.36	239.94	3.10	-63.1	-72.8	3.8	7.44e-01	0	34	104	0	89	11682
2026-01-01 23:46:31.36	239.76	2.89	-63.1	-72.8	3.8	7.46e-01	0	34	104	0	89	11578
2026-01-01 23:46:34.35	239.58	2.69	-63.0	-72.7	3.8	7.45e-01	0	34	104	0	89	11522
2026-01-01 23:46:37.36	239.41	2.48	-62.9	-72.7	3.8	7.47e-01	0	34	104	0	89	11464
2026-01-01 23:46:40.35	239.24	2.27	-62.9	-72.7	3.8	7.47e-01	0	34	104	0	89	11424
2026-01-01 23:46:43.36	239.07	2.07	-62.9	-72.6	3.8	7.46e-01	0	34	104	0	89	11390

#Closed at: 2026-01-01 23:46:44
#Recorded file [0 MB]: D:/lorett/data/31004_260102_023645.dat