passes_logs/2026/01/01/R3.2S_Murmansk/R3.2S_Murmansk__20260101_023433_NOAA_20_JPSS-1_rec.log

#Pass ID: 20260101_023433_NOAA 20 (JPSS-1)
#Satellite: NOAA 20 (JPSS-1)
#Configuration: NOAA 20
#almurnet v.1.7.20251203
#Start time: 2026-01-01 02:34:35

#Version: 2.2.20231116
#Station: R3.2S_Murmansk
#Location: 33.079688 lon 68.888172 lat
#TLE: 1 43013U 17073A   25365.59858899  .00000178  00000+0  10524-3 0  9991
#TLE: 2 43013  98.7620 301.6911 0001952  60.2533 299.8837 14.19531732420695

#Time	Az	El	Level	Level2	SNR	BER	BlckErr	Temp	State	Recorded	gain1	gain2
2026-01-01 02:34:35.54	34.39	2.12	-59.9	-75.9	3.8	1.49e+00	0	34	0	0	86	22082
2026-01-01 02:34:39.55	34.23	2.36	-59.9	-75.9	3.8	1.49e+00	0	34	104	0	85	23354
2026-01-01 02:34:43.54	34.06	2.61	-59.9	-75.9	3.8	1.49e+00	0	34	104	0	85	23313
2026-01-01 02:34:47.54	33.89	2.86	-59.9	-75.8	3.8	1.49e+00	0	34	104	0	85	23259
2026-01-01 02:34:51.52	33.73	3.11	-59.9	-75.8	3.8	1.49e+00	0	34	104	0	85	23128
2026-01-01 02:34:55.51	33.55	3.37	-59.9	-75.9	3.8	1.49e+00	0	34	104	0	85	23413
2026-01-01 02:34:59.50	33.38	3.62	-59.9	-75.8	3.8	1.49e+00	0	34	104	0	85	23201
2026-01-01 02:35:03.49	33.20	3.88	-59.9	-75.3	3.8	1.49e+00	0	35	104	0	85	21858
2026-01-01 02:35:07.49	33.01	4.14	-59.9	-74.5	3.8	1.49e+00	0	35	104	0	85	19937
2026-01-01 02:35:11.48	32.83	4.40	-59.9	-75.1	3.8	1.49e+00	0	35	104	0	85	21466
2026-01-01 02:35:15.48	32.64	4.67	-59.6	-70.4	4.9	8.68e-01	0	35	0	1048576	85	12472
2026-01-01 02:35:19.48	32.44	4.93	-58.4	-64.4	9.7	1.09e-02	0	35	0	8388608	83	6980
2026-01-01 02:35:23.48	32.24	5.20	-58.3	-64.1	9.8	9.51e-01	0	35	0	12582912	83	6747
2026-01-01 02:35:27.49	32.04	5.48	-56.0	-58.9	14.5	0.00e+00	0	35	0	20971520	78	4969
2026-01-01 02:35:31.49	31.83	5.75	-56.0	-58.8	14.6	0.00e+00	0	35	0	28311552	78	4900
2026-01-01 02:35:35.50	31.62	6.03	-55.7	-58.5	14.9	0.00e+00	0	35	0	35651584	78	4712
2026-01-01 02:35:39.50	31.41	6.31	-55.8	-58.5	14.9	0.00e+00	0	35	0	42991616	78	4738
2026-01-01 02:35:43.49	31.19	6.59	-55.9	-58.7	14.8	0.00e+00	0	35	0	50331648	78	4822
2026-01-01 02:35:47.47	30.97	6.87	-55.9	-58.5	15.0	0.00e+00	0	35	0	57671680	78	4753
2026-01-01 02:35:51.44	30.74	7.16	-55.6	-58.2	15.2	0.00e+00	0	35	0	65011712	77	4821
2026-01-01 02:35:55.42	30.51	7.45	-55.6	-58.1	15.3	0.00e+00	0	35	0	72351744	77	4798
2026-01-01 02:35:59.40	30.27	7.74	-55.6	-58.1	15.3	0.00e+00	0	35	0	80740352	77	4778
2026-01-01 02:36:03.38	30.02	8.04	-55.5	-57.9	15.5	0.00e+00	0	35	0	88080384	77	4686
2026-01-01 02:36:07.36	29.78	8.33	-55.4	-57.8	15.6	0.00e+00	0	35	0	95420416	77	4604
2026-01-01 02:36:11.35	29.52	8.63	-55.3	-57.6	15.7	0.00e+00	0	35	0	102760448	77	4535
2026-01-01 02:36:15.35	29.26	8.94	-55.2	-57.5	15.9	0.00e+00	0	35	0	110100480	76	4728
2026-01-01 02:36:19.34	29.00	9.25	-55.1	-57.3	15.9	0.00e+00	0	35	0	117440512	76	4651
2026-01-01 02:36:23.34	28.72	9.56	-55.1	-57.3	16.0	0.00e+00	0	35	0	124780544	76	4605
2026-01-01 02:36:27.32	28.45	9.87	-55.1	-57.3	16.0	0.00e+00	0	35	0	132120576	76	4611
2026-01-01 02:36:31.32	28.16	10.19	-55.1	-57.2	16.0	0.00e+00	0	35	0	140509184	76	4596
2026-01-01 02:36:35.31	27.87	10.51	-55.1	-57.2	16.1	0.00e+00	0	35	0	147849216	76	4592
2026-01-01 02:36:39.30	27.57	10.84	-55.1	-57.2	16.1	0.00e+00	0	35	0	155189248	76	4589
2026-01-01 02:36:43.31	27.27	11.17	-55.0	-57.2	16.1	0.00e+00	0	35	0	162529280	76	4554
2026-01-01 02:36:47.30	26.95	11.50	-55.0	-57.1	16.1	0.00e+00	0	35	0	169869312	76	4540
2026-01-01 02:36:51.30	26.63	11.83	-55.0	-57.2	16.2	0.00e+00	0	35	0	177209344	76	4561
2026-01-01 02:36:55.30	26.31	12.17	-55.1	-57.3	16.1	0.00e+00	0	35	0	185597952	76	4632
2026-01-01 02:36:59.28	25.97	12.51	-55.0	-57.1	16.2	0.00e+00	0	36	0	192937984	76	4514
2026-01-01 02:37:03.27	25.63	12.86	-54.7	-56.8	16.4	0.00e+00	0	35	0	200278016	76	4342
2026-01-01 02:37:07.27	25.27	13.21	-54.8	-56.9	16.4	0.00e+00	0	35	0	207618048	76	4395
2026-01-01 02:37:11.24	24.91	13.56	-54.8	-56.8	16.4	0.00e+00	0	35	0	214958080	76	4371
2026-01-01 02:37:15.24	24.54	13.92	-54.8	-56.9	16.4	0.00e+00	0	35	0	222298112	76	4392
2026-01-01 02:37:19.24	24.16	14.29	-54.6	-56.6	16.5	0.00e+00	0	36	0	229638144	75	4514
2026-01-01 02:37:23.23	23.77	14.65	-54.6	-56.6	16.5	0.00e+00	0	36	0	236978176	75	4545
2026-01-01 02:37:27.24	23.37	15.02	-54.6	-56.5	16.6	0.00e+00	0	35	0	245366784	75	4487
2026-01-01 02:37:31.25	22.96	15.40	-54.5	-56.5	16.6	0.00e+00	0	36	0	252706816	75	4467
2026-01-01 02:37:35.25	22.54	15.78	-54.4	-56.3	16.8	0.00e+00	0	36	0	260046848	75	4347
2026-01-01 02:37:39.25	22.10	16.16	-54.3	-56.2	16.8	0.00e+00	0	36	0	267386880	75	4309
2026-01-01 02:37:43.24	21.66	16.55	-54.3	-56.2	16.8	0.00e+00	0	36	0	274726912	75	4329
2026-01-01 02:37:47.23	21.20	16.94	-54.5	-56.4	16.7	0.00e+00	0	36	0	282066944	75	4414
2026-01-01 02:37:51.22	20.74	17.34	-54.5	-56.4	16.7	0.00e+00	0	36	0	290455552	75	4438
2026-01-01 02:37:55.22	20.25	17.74	-54.6	-56.6	16.6	0.00e+00	0	36	0	297795584	75	4504
2026-01-01 02:37:59.21	19.76	18.15	-54.4	-56.3	16.8	0.00e+00	0	35	0	305135616	75	4365
2026-01-01 02:38:03.20	19.25	18.56	-54.5	-56.4	16.8	0.00e+00	0	36	0	312475648	75	4424
2026-01-01 02:38:07.19	18.73	18.97	-54.3	-56.1	16.9	0.00e+00	0	36	0	319815680	75	4274
2026-01-01 02:38:11.20	18.19	19.39	-54.4	-56.3	16.8	0.00e+00	0	36	0	327155712	75	4344
2026-01-01 02:38:15.19	17.63	19.82	-54.6	-56.6	16.7	0.00e+00	0	36	0	334495744	75	4518
2026-01-01 02:38:19.21	17.06	20.25	-54.7	-56.7	16.7	0.00e+00	0	36	0	342884352	75	4561
2026-01-01 02:38:23.20	16.47	20.68	-54.8	-56.8	16.6	0.00e+00	0	36	0	350224384	75	4645
2026-01-01 02:38:27.19	15.87	21.11	-55.1	-57.1	16.4	0.00e+00	0	36	0	357564416	75	4807
2026-01-01 02:38:31.18	15.25	21.55	-55.1	-57.1	16.4	0.00e+00	0	36	0	364904448	75	4808
2026-01-01 02:38:35.16	14.61	21.99	-55.0	-57.1	16.5	0.00e+00	0	36	0	372244480	75	4781
2026-01-01 02:38:39.16	13.95	22.44	-54.9	-56.8	16.6	0.00e+00	0	36	0	379584512	75	4643
2026-01-01 02:38:43.15	13.28	22.89	-54.7	-56.6	16.8	0.00e+00	0	36	0	386924544	75	4521
2026-01-01 02:38:47.15	12.58	23.35	-54.6	-56.5	16.9	0.00e+00	0	36	0	395313152	75	4443
2026-01-01 02:38:51.14	11.86	23.81	-54.7	-56.6	16.8	0.00e+00	0	36	0	402653184	75	4544
2026-01-01 02:38:55.13	11.12	24.27	-54.8	-56.8	16.7	0.00e+00	0	36	0	409993216	75	4603
2026-01-01 02:38:59.11	10.35	24.73	-55.0	-56.9	16.6	0.00e+00	0	36	0	417333248	75	4697
2026-01-01 02:39:03.10	9.57	25.20	-55.0	-57.0	16.6	0.00e+00	0	36	0	424673280	75	4710
2026-01-01 02:39:07.09	8.76	25.66	-55.2	-57.2	16.4	0.00e+00	0	36	0	432013312	75	4858
2026-01-01 02:39:11.07	7.93	26.13	-56.0	-58.3	15.9	0.00e+00	0	36	0	439353344	77	4880
2026-01-01 02:39:15.08	7.06	26.61	-56.1	-58.4	15.8	0.00e+00	0	36	0	446693376	77	4981
2026-01-01 02:39:19.08	6.17	27.08	-56.5	-59.0	15.5	0.00e+00	0	36	0	455081984	78	4989
2026-01-01 02:39:23.08	5.25	27.55	-56.1	-58.4	15.9	0.00e+00	0	36	0	462422016	78	4672
2026-01-01 02:39:27.08	4.31	28.03	-56.2	-58.6	15.8	0.00e+00	0	36	0	469762048	78	4775
2026-01-01 02:39:31.07	3.34	28.50	-56.4	-58.8	15.6	0.00e+00	0	36	0	477102080	78	4907
2026-01-01 02:39:35.07	2.34	28.97	-56.3	-58.6	15.7	0.00e+00	0	36	0	484442112	78	4813
2026-01-01 02:39:39.07	1.31	29.44	-56.3	-58.6	15.8	0.00e+00	0	36	0	491782144	78	4808
2026-01-01 02:39:43.07	0.24	29.90	-56.2	-58.5	15.8	0.00e+00	0	36	0	500170752	78	4756
2026-01-01 02:39:47.06	359.15	30.36	-56.3	-58.7	15.7	0.00e+00	0	36	0	507510784	78	4844
2026-01-01 02:39:51.07	358.02	30.82	-55.8	-58.0	16.2	0.00e+00	0	35	0	514850816	78	4477
2026-01-01 02:39:55.07	356.86	31.27	-56.6	-59.1	15.5	0.00e+00	0	36	0	522190848	78	5090
2026-01-01 02:39:59.05	355.68	31.71	-57.2	-60.1	14.8	0.00e+00	0	36	0	529530880	79	5343
2026-01-01 02:40:03.02	354.46	32.14	-57.8	-61.0	14.1	0.00e+00	0	36	0	536870912	80	5639
2026-01-01 02:40:07.00	353.21	32.57	-57.9	-61.1	14.1	0.00e+00	0	36	0	544210944	81	5360
2026-01-01 02:40:11.00	351.92	32.98	-58.2	-61.6	13.7	0.00e+00	0	36	0	552599552	81	5703
2026-01-01 02:40:15.00	350.60	33.39	-58.8	-62.9	12.6	6.10e-06	0	36	0	559939584	82	6216
2026-01-01 02:40:19.00	349.24	33.78	-59.0	-63.4	12.3	2.51e-05	0	36	0	567279616	83	6210
2026-01-01 02:40:22.99	347.85	34.16	-58.1	-61.5	13.8	0.00e+00	0	36	0	574619648	82	5300
2026-01-01 02:40:26.98	346.44	34.52	-57.9	-61.1	14.2	0.00e+00	0	36	0	581959680	82	5043
2026-01-01 02:40:30.98	344.98	34.87	-57.2	-60.0	15.0	0.00e+00	0	36	0	589299712	81	4719
2026-01-01 02:40:35.00	343.49	35.20	-56.7	-59.1	15.6	0.00e+00	0	36	0	596639744	79	4813
2026-01-01 02:40:39.00	341.98	35.51	-55.6	-57.7	16.5	0.00e+00	0	36	0	605028352	77	4557
2026-01-01 02:40:42.99	340.44	35.80	-55.0	-56.9	16.9	0.00e+00	0	36	0	612368384	76	4413
2026-01-01 02:40:46.99	338.87	36.07	-55.1	-56.9	16.9	0.00e+00	0	36	0	619708416	76	4441
2026-01-01 02:40:50.97	337.28	36.31	-54.8	-56.6	17.1	0.00e+00	0	36	0	627048448	76	4279
2026-01-01 02:40:54.95	335.67	36.53	-54.5	-56.2	17.2	0.00e+00	0	36	0	634388480	75	4323
2026-01-01 02:40:58.94	334.04	36.73	-54.1	-55.7	17.5	0.00e+00	0	36	0	641728512	74	4318
2026-01-01 02:41:02.94	332.38	36.90	-54.0	-55.7	17.5	0.00e+00	0	36	0	649068544	74	4318
2026-01-01 02:41:06.93	330.71	37.04	-53.9	-55.5	17.6	0.00e+00	0	36	0	656408576	74	4209
2026-01-01 02:41:10.92	329.03	37.15	-53.3	-54.8	17.9	0.00e+00	0	36	0	664797184	73	4131
2026-01-01 02:41:14.90	327.34	37.24	-53.7	-55.3	17.7	0.00e+00	0	36	0	672137216	73	4365
2026-01-01 02:41:18.91	325.63	37.30	-54.3	-56.0	17.4	0.00e+00	0	36	0	679477248	74	4459
2026-01-01 02:41:22.90	323.93	37.33	-54.7	-56.5	17.1	0.00e+00	0	36	0	686817280	74	4734
2026-01-01 02:41:26.90	322.22	37.33	-55.1	-57.0	16.9	0.00e+00	0	36	0	694157312	75	4718
2026-01-01 02:41:30.89	320.51	37.30	-55.3	-57.2	16.8	0.00e+00	0	36	0	701497344	75	4833
2026-01-01 02:41:34.90	318.80	37.25	-55.1	-57.1	16.8	0.00e+00	0	36	0	709885952	75	4760
2026-01-01 02:41:38.89	317.11	37.16	-55.4	-57.3	16.8	0.00e+00	0	36	0	717225984	76	4629
2026-01-01 02:41:42.88	315.42	37.05	-56.1	-58.2	16.1	0.00e+00	0	36	0	724566016	77	4863
2026-01-01 02:41:46.87	313.75	36.90	-56.2	-58.4	16.1	0.00e+00	0	36	0	731906048	77	4935
2026-01-01 02:41:50.87	312.09	36.74	-56.4	-58.7	15.9	0.00e+00	0	36	0	739246080	78	4856
2026-01-01 02:41:54.85	310.46	36.54	-56.5	-58.8	15.8	0.00e+00	0	36	0	746586112	78	4912
2026-01-01 02:41:58.84	308.84	36.32	-56.8	-59.3	15.6	0.00e+00	0	36	0	753926144	78	5184
2026-01-01 02:42:02.83	307.25	36.08	-56.6	-58.9	15.8	0.00e+00	0	36	0	761266176	78	4940
2026-01-01 02:42:06.82	305.68	35.81	-56.2	-58.4	16.2	0.00e+00	0	36	0	769654784	78	4680
2026-01-01 02:42:10.81	304.14	35.52	-55.5	-57.5	16.7	0.00e+00	0	36	0	776994816	77	4447
2026-01-01 02:42:14.78	302.64	35.22	-55.5	-57.4	16.8	0.00e+00	0	36	0	784334848	77	4441
2026-01-01 02:42:18.77	301.15	34.89	-55.1	-56.9	17.1	0.00e+00	0	36	0	791674880	76	4421
2026-01-01 02:42:22.76	299.70	34.54	-55.5	-57.5	16.8	0.00e+00	0	36	0	799014912	76	4716
2026-01-01 02:42:26.75	298.28	34.18	-55.7	-57.6	16.6	0.00e+00	0	36	0	806354944	76	4814
2026-01-01 02:42:30.75	296.88	33.80	-56.3	-58.5	16.1	0.00e+00	0	36	0	813694976	77	5028
2026-01-01 02:42:34.73	295.53	33.41	-56.8	-59.2	15.7	0.00e+00	0	36	0	821035008	78	5126
2026-01-01 02:42:38.73	294.20	33.01	-56.0	-58.1	16.4	0.00e+00	0	36	0	829423616	78	4522
2026-01-01 02:42:42.72	292.91	32.59	-56.7	-59.1	15.7	0.00e+00	0	36	0	836763648	78	5083
2026-01-01 02:42:46.72	291.65	32.17	-56.4	-58.7	15.9	0.00e+00	0	36	0	844103680	78	4831
2026-01-01 02:42:50.73	290.42	31.73	-56.4	-58.7	15.9	0.00e+00	0	36	0	851443712	78	4870
2026-01-01 02:42:54.71	289.23	31.29	-56.5	-58.9	15.8	0.00e+00	0	36	0	858783744	78	4931
2026-01-01 02:42:58.69	288.07	30.84	-56.6	-59.0	15.8	0.00e+00	0	36	0	866123776	78	4986
2026-01-01 02:43:02.71	286.93	30.38	-56.9	-59.4	15.4	0.00e+00	0	36	0	874512384	78	5241
2026-01-01 02:43:06.69	285.84	29.92	-56.4	-58.7	15.9	0.00e+00	0	36	0	881852416	78	4835
2026-01-01 02:43:10.67	284.78	29.46	-56.1	-58.3	16.1	0.00e+00	0	36	0	889192448	78	4651
2026-01-01 02:43:14.66	283.75	28.99	-55.5	-57.5	16.6	0.00e+00	0	36	0	896532480	77	4492
2026-01-01 02:43:18.65	282.74	28.52	-55.3	-57.3	16.7	0.00e+00	0	36	0	903872512	77	4341
2026-01-01 02:43:22.65	281.76	28.05	-54.8	-56.6	17.1	0.00e+00	0	36	0	911212544	76	4259
2026-01-01 02:43:26.64	280.82	27.57	-54.4	-56.2	17.2	0.00e+00	0	36	0	918552576	75	4308
2026-01-01 02:43:30.64	279.90	27.10	-54.6	-56.4	17.1	0.00e+00	0	36	0	926941184	75	4407
2026-01-01 02:43:34.63	279.01	26.63	-54.0	-55.7	17.4	0.00e+00	0	36	0	934281216	74	4322
2026-01-01 02:43:38.62	278.14	26.15	-54.0	-55.7	17.4	0.00e+00	0	36	0	941621248	74	4299
2026-01-01 02:43:42.63	277.30	25.68	-53.7	-55.3	17.6	0.00e+00	0	36	0	948961280	73	4379
2026-01-01 02:43:46.63	276.48	25.21	-53.8	-55.5	17.5	0.00e+00	0	36	0	956301312	73	4454
2026-01-01 02:43:50.61	275.70	24.74	-54.1	-55.9	17.3	0.00e+00	0	36	0	963641344	73	4652
2026-01-01 02:43:54.61	274.93	24.28	-54.2	-55.9	17.3	0.00e+00	0	36	0	970981376	73	4686
2026-01-01 02:43:58.61	274.18	23.82	-54.5	-56.3	17.1	0.00e+00	0	36	0	978321408	74	4647
2026-01-01 02:44:02.59	273.46	23.36	-54.3	-56.1	17.3	0.00e+00	0	36	0	986710016	74	4501
2026-01-01 02:44:06.57	272.76	22.90	-54.5	-56.3	17.1	0.00e+00	0	36	0	994050048	74	4621
2026-01-01 02:44:10.57	272.08	22.45	-54.4	-56.2	17.2	0.00e+00	0	36	0	1001390080	74	4546
2026-01-01 02:44:14.56	271.42	22.00	-54.6	-56.4	17.0	0.00e+00	0	36	0	1008730112	74	4704
2026-01-01 02:44:18.55	270.78	21.56	-55.0	-56.9	16.8	0.00e+00	0	36	0	1016070144	75	4673
2026-01-01 02:44:22.56	270.15	21.11	-55.0	-56.9	16.8	0.00e+00	0	36	0	1023410176	75	4688
2026-01-01 02:44:26.57	269.54	20.67	-55.1	-57.1	16.7	0.00e+00	0	36	0	1030750208	75	4773
2026-01-01 02:44:30.57	268.95	20.24	-55.5	-57.6	16.4	0.00e+00	0	36	0	1039138816	76	4771
2026-01-01 02:44:34.57	268.38	19.81	-55.1	-57.0	16.7	0.00e+00	0	36	0	1046478848	76	4474
2026-01-01 02:44:38.56	267.82	19.39	-55.2	-57.2	16.7	0.00e+00	0	36	0	1053818880	76	4552
2026-01-01 02:44:42.54	267.28	18.97	-55.4	-57.5	16.5	0.00e+00	0	36	0	1061158912	76	4741
2026-01-01 02:44:46.52	266.76	18.55	-55.5	-57.6	16.3	0.00e+00	0	36	0	1068498944	76	4813
2026-01-01 02:44:50.51	266.25	18.14	-55.8	-58.0	16.2	0.00e+00	0	36	0	1075838976	76	5000
2026-01-01 02:44:54.50	265.75	17.74	-55.8	-58.0	16.1	0.00e+00	0	36	0	1083179008	77	4739
2026-01-01 02:44:58.50	265.27	17.33	-55.3	-57.4	16.4	0.00e+00	0	36	0	1091567616	77	4422
2026-01-01 02:45:02.50	264.79	16.94	-55.2	-57.3	16.5	0.00e+00	0	36	0	1098907648	77	4363
2026-01-01 02:45:06.48	264.34	16.54	-55.4	-57.4	16.4	0.00e+00	0	36	0	1106247680	77	4434
2026-01-01 02:45:10.46	263.89	16.16	-55.5	-57.7	16.2	0.00e+00	0	36	0	1113587712	77	4559
2026-01-01 02:45:14.46	263.45	15.77	-55.3	-57.4	16.4	0.00e+00	0	36	0	1120927744	77	4426
2026-01-01 02:45:18.46	263.03	15.39	-55.4	-57.6	16.3	0.00e+00	0	36	0	1128267776	77	4496
2026-01-01 02:45:22.46	262.62	15.01	-55.6	-57.9	16.1	0.00e+00	0	36	0	1135607808	77	4657
2026-01-01 02:45:26.45	262.21	14.64	-55.6	-57.7	16.2	0.00e+00	0	36	0	1143996416	77	4594
2026-01-01 02:45:30.42	261.82	14.28	-55.3	-57.3	16.4	0.00e+00	0	36	0	1151336448	77	4383
2026-01-01 02:45:34.40	261.44	13.91	-55.3	-57.4	16.4	0.00e+00	0	36	0	1158676480	76	4684
2026-01-01 02:45:38.40	261.07	13.55	-55.5	-57.7	16.1	0.00e+00	0	36	0	1166016512	76	4862
2026-01-01 02:45:42.38	260.71	13.20	-55.9	-58.2	15.9	0.00e+00	0	36	0	1173356544	76	5138
2026-01-01 02:45:46.38	260.35	12.85	-55.9	-58.2	15.8	0.00e+00	0	36	0	1180696576	77	4863
2026-01-01 02:45:50.39	260.00	12.50	-56.0	-58.4	15.7	0.00e+00	0	36	0	1188036608	77	4963
2026-01-01 02:45:54.39	259.66	12.16	-56.1	-58.5	15.7	0.00e+00	0	36	0	1196425216	77	5002
2026-01-01 02:45:58.37	259.33	11.82	-56.1	-58.6	15.5	0.00e+00	0	36	0	1203765248	77	5078
2026-01-01 02:46:02.37	259.01	11.48	-56.0	-58.4	15.7	0.00e+00	0	36	0	1211105280	77	4930
2026-01-01 02:46:06.35	258.70	11.15	-56.1	-58.5	15.6	0.00e+00	0	36	0	1218445312	77	5017
2026-01-01 02:46:10.34	258.39	10.82	-56.2	-58.7	15.4	0.00e+00	0	36	0	1225785344	77	5141
2026-01-01 02:46:14.32	258.09	10.50	-56.4	-59.1	15.2	0.00e+00	0	36	0	1233125376	78	5042
2026-01-01 02:46:18.31	257.80	10.17	-56.5	-59.2	15.1	0.00e+00	0	36	0	1240465408	78	5111
2026-01-01 02:46:22.31	257.51	9.85	-56.5	-59.2	15.1	0.00e+00	0	36	0	1247805440	78	5119
2026-01-01 02:46:26.31	257.23	9.54	-56.4	-59.0	15.2	0.00e+00	0	36	0	1256194048	78	5003
2026-01-01 02:46:30.31	256.95	9.23	-56.4	-59.1	15.1	0.00e+00	0	36	0	1263534080	78	5094
2026-01-01 02:46:34.30	256.69	8.92	-56.6	-59.4	14.9	0.00e+00	0	36	0	1270874112	78	5233
2026-01-01 02:46:38.30	256.42	8.61	-56.7	-59.6	14.7	0.00e+00	0	36	0	1278214144	78	5368
2026-01-01 02:46:42.29	256.17	8.31	-56.7	-59.7	14.6	0.00e+00	0	36	0	1285554176	78	5434
2026-01-01 02:46:46.30	255.91	8.01	-56.8	-59.8	14.5	0.00e+00	0	36	0	1292894208	78	5470
2026-01-01 02:46:50.30	255.67	7.71	-56.9	-60.0	14.3	0.00e+00	0	36	0	1301282816	79	5303
2026-01-01 02:46:54.30	255.43	7.42	-56.9	-60.0	14.3	0.00e+00	0	36	0	1308622848	79	5309
2026-01-01 02:46:58.30	255.19	7.13	-56.8	-59.9	14.3	0.00e+00	0	36	0	1315962880	79	5271
2026-01-01 02:47:02.28	254.96	6.84	-56.9	-60.1	14.1	0.00e+00	0	36	0	1323302912	79	5381
2026-01-01 02:47:06.27	254.73	6.56	-56.8	-59.9	14.3	0.00e+00	0	36	0	1330642944	79	5263
2026-01-01 02:47:10.25	254.51	6.27	-56.9	-60.2	14.0	0.00e+00	0	36	0	1337982976	79	5420
2026-01-01 02:47:14.22	254.30	6.00	-57.1	-60.6	13.7	7.00e-07	0	36	0	1345323008	79	5669
2026-01-01 02:47:18.22	254.08	5.72	-57.2	-60.7	13.5	0.00e+00	0	36	0	1352663040	79	5775
2026-01-01 02:47:22.22	253.88	5.44	-57.4	-61.2	13.0	6.10e-06	0	36	0	1361051648	80	5767
2026-01-01 02:47:26.22	253.67	5.17	-57.2	-60.9	13.2	1.50e-06	0	36	0	1368391680	80	5570
2026-01-01 02:47:30.22	253.47	4.90	-61.1	-77.0	3.8	1.49e+00	0	36	104	1372585984	87	23836
2026-01-01 02:47:34.23	253.27	4.63	-61.8	-77.8	3.8	1.49e+00	0	36	104	1372585984	88	24479
2026-01-01 02:47:38.22	253.08	4.37	-62.2	-78.1	3.8	1.49e+00	0	36	104	1372585984	89	24122
2026-01-01 02:47:42.18	252.89	4.11	-62.3	-78.3	3.8	1.49e+00	0	36	104	1372585984	89	24651
2026-01-01 02:47:46.19	252.71	3.84	-62.4	-78.4	3.8	1.49e+00	0	36	104	1372585984	89	24811
2026-01-01 02:47:50.19	252.52	3.59	-62.3	-78.3	3.8	1.49e+00	0	36	104	1372585984	89	24651
2026-01-01 02:47:54.20	252.34	3.33	-62.2	-78.2	3.8	1.49e+00	0	36	104	1372585984	89	24339
2026-01-01 02:47:58.20	252.17	3.07	-62.2	-78.2	3.8	1.49e+00	0	36	104	1372585984	89	24189
2026-01-01 02:48:02.20	252.00	2.82	-62.1	-78.1	3.8	1.49e+00	0	36	104	1372585984	89	24103
2026-01-01 02:48:06.18	251.83	2.57	-62.1	-78.1	3.8	1.49e+00	0	36	104	1372585984	89	24059
2026-01-01 02:48:10.17	251.66	2.32	-62.1	-78.0	3.8	1.49e+00	0	36	104	1372585984	89	23831
2026-01-01 02:48:14.17	251.50	2.08	-62.1	-78.0	3.8	1.49e+00	0	36	104	1372585984	89	23816

#Closed at: 2026-01-01 02:48:17
#Recorded file [1372 MB]: D:/lorett/data/31004_260101_053435.dat