passes_logs/2026/01/01/R3.2S_Murmansk/R3.2S_Murmansk__20260101_141553_ZKG05_rec.log

#Pass ID: 20260101_141553_ZKG05
#Satellite: ZKG05
#Configuration: ZKG05
#almurnet v.1.7.20251203
#Start time: 2026-01-01 14:15:55

#Version: 2.2.20231116
#Station: R3.2S_Murmansk
#Location: 33.079688 lon 68.888172 lat
#TLE: 1 65263U 25180E   25363.54303023  .00006586  00000-0  34273-3 0  9994
#TLE: 2 65263  97.4772 128.0191 0001674  87.3453 272.7971 15.16366041 20011

#Time	Az	El	Level	Level2	SNR	BER	BlckErr	Temp	State	Recorded	gain1	gain2
2026-01-01 14:15:55.51	22.71	2.11	-59.7	-62.9	6.2	0.00e+00	0	38	0	0	86	20018
2026-01-01 14:15:58.54	22.56	2.31	-59.7	-62.9	6.2	0.00e+00	0	38	104	0	86	20032
2026-01-01 14:16:01.56	22.41	2.52	-59.7	-62.9	6.2	0.00e+00	0	39	104	0	86	20104
2026-01-01 14:16:04.58	22.26	2.73	-59.7	-62.9	6.2	0.00e+00	0	39	104	0	86	20018
2026-01-01 14:16:07.61	22.10	2.94	-59.7	-62.9	6.2	0.00e+00	0	39	104	0	86	20027
2026-01-01 14:16:10.64	21.94	3.15	-59.8	-62.9	6.2	0.00e+00	0	39	104	0	86	20023
2026-01-01 14:16:13.66	21.77	3.36	-59.7	-62.9	6.2	0.00e+00	0	39	104	0	86	20038
2026-01-01 14:16:16.68	21.61	3.57	-59.7	-62.9	6.2	0.00e+00	0	40	104	0	86	20034
2026-01-01 14:16:19.70	21.44	3.79	-59.7	-62.9	6.2	0.00e+00	0	40	104	0	86	20021
2026-01-01 14:16:22.72	21.26	4.01	-59.8	-62.9	6.2	0.00e+00	0	40	104	0	86	20082
2026-01-01 14:16:25.74	21.09	4.23	-59.7	-62.9	6.2	0.00e+00	0	40	104	0	86	20046
2026-01-01 14:16:28.77	20.91	4.45	-59.8	-62.9	6.2	0.00e+00	0	40	104	0	86	20101
2026-01-01 14:16:31.79	20.72	4.68	-59.8	-62.9	6.2	0.00e+00	0	40	104	0	86	20012
2026-01-01 14:16:34.82	20.53	4.91	-59.8	-62.9	6.2	0.00e+00	0	40	104	0	86	20105
2026-01-01 14:16:37.84	20.34	5.14	-59.8	-62.9	6.2	0.00e+00	0	40	104	0	86	20142
2026-01-01 14:16:40.86	20.14	5.37	-59.9	-63.1	6.2	0.00e+00	0	40	104	0	86	20447
2026-01-01 14:16:43.88	19.94	5.60	-59.8	-62.9	6.2	0.00e+00	0	40	104	0	86	20135
2026-01-01 14:16:46.91	19.74	5.84	-59.9	-63.1	6.2	0.00e+00	0	40	104	0	86	20427
2026-01-01 14:16:49.94	19.53	6.08	-59.8	-63.0	6.2	0.00e+00	0	41	104	0	86	20200
2026-01-01 14:16:52.96	19.31	6.32	-59.9	-63.1	6.2	0.00e+00	0	41	104	0	86	20486
2026-01-01 14:16:55.98	19.10	6.57	-59.9	-63.0	6.2	0.00e+00	0	41	104	0	86	20304
2026-01-01 14:16:59.00	18.87	6.81	-60.0	-63.2	6.2	0.00e+00	0	41	104	0	86	20694
2026-01-01 14:17:02.03	18.64	7.07	-59.9	-63.1	6.2	0.00e+00	0	41	104	0	86	20422
2026-01-01 14:17:05.05	18.41	7.32	-60.0	-63.2	6.2	0.00e+00	0	41	104	0	86	20639
2026-01-01 14:17:08.07	18.17	7.57	-60.0	-63.1	6.2	0.00e+00	0	41	104	0	86	20489
2026-01-01 14:17:11.08	17.93	7.83	-60.1	-63.2	6.2	0.00e+00	0	41	104	0	86	20840
2026-01-01 14:17:14.10	17.68	8.09	-60.0	-63.1	6.2	0.00e+00	0	41	104	0	86	20611
2026-01-01 14:17:17.11	17.42	8.36	-60.1	-63.3	6.2	0.00e+00	0	41	104	0	86	20958
2026-01-01 14:17:20.14	17.16	8.63	-60.1	-63.2	6.2	0.00e+00	0	41	104	0	86	20793
2026-01-01 14:17:23.16	16.89	8.90	-60.2	-63.3	6.2	0.00e+00	0	41	104	0	86	21052
2026-01-01 14:17:26.18	16.61	9.17	-60.1	-63.2	6.2	0.00e+00	0	41	104	0	86	20839
2026-01-01 14:17:29.20	16.33	9.45	-60.2	-63.3	6.2	0.00e+00	0	41	104	0	86	21068
2026-01-01 14:17:32.21	16.04	9.73	-60.1	-63.3	6.2	0.00e+00	0	42	104	0	86	21025
2026-01-01 14:17:35.23	15.75	10.02	-60.3	-63.4	6.2	0.00e+00	0	41	104	0	86	21252
2026-01-01 14:17:38.25	15.45	10.31	-60.2	-63.3	6.2	0.00e+00	0	42	104	0	86	21048
2026-01-01 14:17:41.28	15.13	10.60	-60.3	-63.4	6.2	0.00e+00	0	42	104	0	86	21254
2026-01-01 14:17:44.31	14.81	10.90	-60.2	-63.4	6.2	0.00e+00	0	41	104	0	86	21178
2026-01-01 14:17:47.34	14.49	11.20	-60.3	-63.4	6.2	0.00e+00	0	42	104	0	86	21338
2026-01-01 14:17:50.36	14.15	11.51	-60.3	-63.4	6.2	0.00e+00	0	42	104	0	86	21259
2026-01-01 14:17:53.39	13.81	11.82	-60.3	-63.5	6.2	0.00e+00	0	42	104	0	86	21359
2026-01-01 14:17:56.41	13.45	12.13	-60.3	-63.4	6.2	0.00e+00	0	42	104	0	86	21342
2026-01-01 14:17:59.43	13.09	12.45	-60.4	-63.5	6.2	0.00e+00	0	42	104	0	86	21471
2026-01-01 14:18:02.46	12.71	12.77	-60.4	-63.5	6.2	0.00e+00	0	42	104	0	86	21514
2026-01-01 14:18:05.48	12.33	13.10	-60.4	-63.5	6.2	0.00e+00	0	42	104	0	86	21577
2026-01-01 14:18:08.51	11.94	13.43	-60.4	-63.6	6.2	0.00e+00	0	42	104	0	86	21638
2026-01-01 14:18:11.53	11.53	13.76	-60.4	-63.6	6.2	0.00e+00	0	42	104	0	86	21617
2026-01-01 14:18:14.56	11.12	14.11	-60.4	-63.6	6.2	0.00e+00	0	42	104	0	86	21752
2026-01-01 14:18:17.58	10.69	14.45	-60.4	-63.6	6.2	0.00e+00	0	42	104	0	86	21678
2026-01-01 14:18:20.60	10.25	14.80	-60.5	-63.6	6.2	0.00e+00	0	42	104	0	86	21782
2026-01-01 14:18:23.63	9.79	15.16	-60.5	-63.6	6.2	0.00e+00	0	42	104	0	86	21778
2026-01-01 14:18:26.65	9.33	15.52	-60.5	-63.7	6.2	0.00e+00	0	42	104	0	86	21922
2026-01-01 14:18:29.67	8.85	15.88	-60.5	-63.7	6.2	0.00e+00	0	42	104	0	86	21986
2026-01-01 14:18:32.70	8.35	16.25	-60.5	-63.7	6.2	0.00e+00	0	42	104	0	86	21974
2026-01-01 14:18:35.72	7.84	16.63	-60.6	-63.7	6.2	0.00e+00	0	42	104	0	86	22004
2026-01-01 14:18:38.74	7.32	17.01	-60.6	-63.8	6.2	0.00e+00	0	42	104	0	86	22183
2026-01-01 14:18:41.77	6.78	17.40	-60.6	-63.7	6.2	0.00e+00	0	42	104	0	86	22071
2026-01-01 14:18:44.79	6.22	17.79	-60.6	-63.8	6.2	0.00e+00	0	42	104	0	86	22155
2026-01-01 14:18:47.82	5.64	18.19	-60.6	-63.8	6.2	0.00e+00	0	42	104	0	86	22192
2026-01-01 14:18:50.84	5.05	18.59	-60.7	-63.8	6.2	0.00e+00	0	42	104	0	86	22327
2026-01-01 14:18:53.86	4.44	19.00	-60.7	-63.8	6.2	0.00e+00	0	42	104	0	86	22260
2026-01-01 14:18:56.89	3.81	19.42	-60.7	-63.9	6.2	0.00e+00	0	42	104	0	86	22491
2026-01-01 14:18:59.90	3.16	19.83	-60.7	-63.9	6.2	0.00e+00	0	42	104	0	86	22479
2026-01-01 14:19:02.92	2.49	20.26	-60.8	-63.9	6.2	0.00e+00	0	42	104	0	86	22608
2026-01-01 14:19:05.95	1.79	20.69	-60.8	-63.9	6.2	0.00e+00	0	42	104	0	86	22482
2026-01-01 14:19:08.98	1.07	21.12	-60.8	-63.9	6.2	0.00e+00	0	42	104	0	87	21318
2026-01-01 14:19:12.01	0.33	21.57	-60.8	-63.9	6.2	0.00e+00	0	42	104	0	87	21328
2026-01-01 14:19:15.03	359.57	22.01	-60.8	-64.0	6.2	0.00e+00	0	42	104	0	87	21505
2026-01-01 14:19:18.04	358.78	22.46	-60.8	-64.0	6.2	0.00e+00	0	42	104	0	87	21405
2026-01-01 14:19:21.06	357.97	22.91	-60.9	-64.0	6.2	0.00e+00	0	42	104	0	87	21553
2026-01-01 14:19:24.09	357.12	23.37	-60.9	-64.0	6.2	0.00e+00	0	42	104	0	87	21521
2026-01-01 14:19:27.12	356.24	23.83	-60.9	-64.1	6.2	0.00e+00	0	42	104	0	87	21677
2026-01-01 14:19:30.14	355.34	24.29	-60.9	-64.0	6.2	0.00e+00	0	42	104	0	87	21577
2026-01-01 14:19:33.16	354.41	24.76	-61.0	-64.1	6.2	0.00e+00	0	42	104	0	87	21759
2026-01-01 14:19:36.18	353.45	25.23	-61.0	-64.1	6.2	0.00e+00	0	42	104	0	87	21708
2026-01-01 14:19:39.21	352.45	25.70	-61.0	-64.2	6.2	0.00e+00	0	42	104	0	87	21873
2026-01-01 14:19:42.23	351.42	26.17	-61.0	-64.1	6.2	0.00e+00	0	42	104	0	87	21800
2026-01-01 14:19:45.25	350.36	26.64	-61.1	-64.2	6.2	0.00e+00	0	42	104	0	87	22033
2026-01-01 14:19:48.26	349.26	27.11	-61.1	-64.2	6.2	0.00e+00	0	42	104	0	87	21999
2026-01-01 14:19:51.28	348.13	27.58	-61.1	-64.3	6.2	0.00e+00	0	42	104	0	87	22122
2026-01-01 14:19:54.30	346.96	28.04	-61.1	-64.2	6.2	0.00e+00	0	42	104	0	87	22006
2026-01-01 14:19:57.33	345.74	28.51	-61.2	-64.3	6.2	0.00e+00	0	42	104	0	87	22262
2026-01-01 14:20:00.34	344.50	28.97	-61.2	-64.3	6.2	0.00e+00	0	42	104	0	87	22262
2026-01-01 14:20:03.37	343.21	29.42	-61.2	-64.4	6.2	0.00e+00	0	42	104	0	87	22376
2026-01-01 14:20:06.39	341.88	29.87	-61.2	-64.3	6.2	0.00e+00	0	42	104	0	87	22307
2026-01-01 14:20:09.43	340.50	30.30	-61.3	-64.4	6.2	0.00e+00	0	42	104	0	87	22619
2026-01-01 14:20:12.45	339.10	30.73	-61.3	-64.5	6.2	0.00e+00	0	42	104	0	87	22650
2026-01-01 14:20:15.48	337.64	31.15	-61.3	-64.4	6.2	0.00e+00	0	42	104	0	88	21355
2026-01-01 14:20:18.50	336.15	31.55	-61.3	-64.5	6.2	0.00e+00	0	42	104	0	88	21372
2026-01-01 14:20:21.52	334.63	31.94	-61.3	-64.5	6.2	0.00e+00	0	42	104	0	88	21374
2026-01-01 14:20:24.55	333.05	32.31	-61.4	-64.5	6.2	0.00e+00	0	42	104	0	88	21534
2026-01-01 14:20:27.57	331.45	32.66	-61.4	-64.5	6.2	0.00e+00	0	43	104	0	88	21514
2026-01-01 14:20:30.59	329.81	32.99	-61.4	-64.5	6.2	0.00e+00	0	42	104	0	88	21594
2026-01-01 14:20:33.62	328.12	33.30	-61.4	-64.5	6.2	0.00e+00	0	42	104	0	88	21596
2026-01-01 14:20:36.65	326.41	33.59	-61.5	-64.6	6.2	0.00e+00	0	42	104	0	88	21743
2026-01-01 14:20:39.67	324.66	33.85	-61.5	-64.6	6.2	0.00e+00	0	42	104	0	88	21743
2026-01-01 14:20:42.69	322.89	34.09	-61.5	-64.6	6.2	0.00e+00	0	42	104	0	88	21683
2026-01-01 14:20:45.72	321.09	34.29	-61.4	-64.6	6.2	0.00e+00	0	42	104	0	88	21695
2026-01-01 14:20:48.75	319.26	34.47	-61.5	-64.7	6.2	0.00e+00	0	43	104	0	88	21878
2026-01-01 14:20:51.77	317.42	34.62	-61.5	-64.7	6.2	0.00e+00	0	42	104	0	88	21889
2026-01-01 14:20:54.79	315.57	34.73	-61.5	-64.7	6.2	0.00e+00	0	43	104	0	88	21917
2026-01-01 14:20:57.81	313.70	34.82	-61.5	-64.7	6.2	0.00e+00	0	43	104	0	88	21862
2026-01-01 14:21:00.83	311.83	34.87	-61.5	-64.7	6.2	0.00e+00	0	42	104	0	88	21932
2026-01-01 14:21:03.86	309.94	34.88	-61.5	-64.7	6.2	0.00e+00	0	43	104	0	88	21985
2026-01-01 14:21:06.88	308.06	34.87	-61.6	-64.7	6.2	0.00e+00	0	42	104	0	88	22036
2026-01-01 14:21:09.91	306.18	34.82	-61.6	-64.7	6.2	0.00e+00	0	43	104	0	88	21958
2026-01-01 14:21:12.93	304.31	34.73	-61.7	-64.8	6.2	0.00e+00	0	42	104	0	88	22184
2026-01-01 14:21:15.96	302.44	34.62	-61.6	-64.8	6.2	0.00e+00	0	42	104	0	88	22128
2026-01-01 14:21:18.98	300.60	34.47	-61.6	-64.8	6.2	0.00e+00	0	43	104	0	88	22122
2026-01-01 14:21:22.00	298.78	34.29	-61.7	-64.8	6.2	0.00e+00	0	42	104	0	88	22175
2026-01-01 14:21:25.03	296.98	34.09	-61.6	-64.8	6.2	0.00e+00	0	43	104	0	88	22166
2026-01-01 14:21:28.05	295.20	33.85	-61.6	-64.8	6.2	0.00e+00	0	43	104	0	88	22114
2026-01-01 14:21:31.07	293.46	33.59	-61.6	-64.7	6.2	0.00e+00	0	42	104	0	88	22048
2026-01-01 14:21:34.09	291.74	33.30	-61.5	-64.7	6.2	0.00e+00	0	42	104	0	88	22018
2026-01-01 14:21:37.11	290.06	32.99	-61.5	-64.7	6.2	0.00e+00	0	43	104	0	88	21916
2026-01-01 14:21:40.14	288.41	32.66	-61.5	-64.6	6.2	0.00e+00	0	43	104	0	88	21796
2026-01-01 14:21:43.16	286.80	32.31	-61.5	-64.6	6.2	0.00e+00	0	43	104	0	88	21773
2026-01-01 14:21:46.18	285.23	31.94	-61.4	-64.6	6.2	0.00e+00	0	42	104	0	88	21632
2026-01-01 14:21:49.21	283.70	31.55	-61.4	-64.6	6.2	0.00e+00	0	42	104	0	88	21630
2026-01-01 14:21:52.24	282.20	31.14	-61.4	-64.6	6.2	0.00e+00	0	43	104	0	88	21661
2026-01-01 14:21:55.26	280.75	30.73	-61.4	-64.5	6.2	0.00e+00	0	43	104	0	88	21577
2026-01-01 14:21:58.28	279.33	30.30	-61.3	-64.5	6.2	0.00e+00	0	43	104	0	88	21417
2026-01-01 14:22:01.30	277.96	29.86	-61.3	-64.5	6.2	0.00e+00	0	42	104	0	88	21377
2026-01-01 14:22:04.33	276.63	29.41	-61.3	-64.5	6.2	0.00e+00	0	43	104	0	88	21462
2026-01-01 14:22:07.35	275.34	28.96	-61.3	-64.4	6.2	0.00e+00	0	43	104	0	88	21307
2026-01-01 14:22:10.38	274.08	28.50	-61.2	-64.3	6.2	0.00e+00	0	43	104	0	88	21104
2026-01-01 14:22:13.40	272.87	28.04	-61.3	-64.4	6.2	0.00e+00	0	42	104	0	88	21214
2026-01-01 14:22:16.42	271.69	27.57	-61.3	-64.4	6.2	0.00e+00	0	43	104	0	88	21247
2026-01-01 14:22:19.44	270.55	27.10	-61.3	-64.4	6.2	0.00e+00	0	43	104	0	88	21160
2026-01-01 14:22:22.47	269.45	26.62	-61.2	-64.3	6.2	0.00e+00	0	43	104	0	88	21063
2026-01-01 14:22:25.49	268.38	26.15	-61.2	-64.3	6.2	0.00e+00	0	43	104	0	88	21076
2026-01-01 14:22:28.52	267.35	25.68	-61.2	-64.3	6.2	0.00e+00	0	43	104	0	88	21030
2026-01-01 14:22:31.54	266.35	25.20	-61.2	-64.3	6.2	0.00e+00	0	42	104	0	88	21000
2026-01-01 14:22:34.55	265.39	24.74	-61.1	-64.3	6.2	0.00e+00	0	43	104	0	88	20969
2026-01-01 14:22:37.58	264.45	24.27	-61.1	-64.3	6.2	0.00e+00	0	43	104	0	88	20909
2026-01-01 14:22:40.60	263.54	23.80	-61.1	-64.3	6.2	0.00e+00	0	43	104	0	88	20979
2026-01-01 14:22:43.62	262.67	23.34	-61.1	-64.3	6.2	0.00e+00	0	42	104	0	88	20925
2026-01-01 14:22:46.64	261.82	22.88	-61.1	-64.2	6.2	0.00e+00	0	42	104	0	88	20816
2026-01-01 14:22:49.66	261.00	22.43	-61.1	-64.2	6.2	0.00e+00	0	42	104	0	88	20761
2026-01-01 14:22:52.69	260.21	21.97	-61.1	-64.2	6.2	0.00e+00	0	43	104	0	88	20734
2026-01-01 14:22:55.72	259.44	21.53	-61.0	-64.2	6.2	0.00e+00	0	43	104	0	88	20703
2026-01-01 14:22:58.74	258.70	21.09	-61.0	-64.1	6.2	0.00e+00	0	43	104	0	88	20543
2026-01-01 14:23:01.77	257.98	20.65	-61.0	-64.1	6.2	0.00e+00	0	43	104	0	88	20594
2026-01-01 14:23:04.79	257.28	20.22	-61.0	-64.1	6.2	0.00e+00	0	43	104	0	88	20571
2026-01-01 14:23:07.81	256.61	19.79	-61.0	-64.1	6.2	0.00e+00	0	43	104	0	88	20554
2026-01-01 14:23:10.84	255.95	19.37	-60.9	-64.1	6.2	0.00e+00	0	43	104	0	88	20408
2026-01-01 14:23:13.86	255.32	18.96	-60.9	-64.0	6.2	0.00e+00	0	43	104	0	88	20395
2026-01-01 14:23:16.88	254.71	18.55	-60.9	-64.0	6.2	0.00e+00	0	43	104	0	88	20358
2026-01-01 14:23:19.91	254.11	18.14	-60.9	-64.0	6.2	0.00e+00	0	43	104	0	88	20336
2026-01-01 14:23:22.93	253.53	17.74	-60.8	-64.0	6.2	0.00e+00	0	43	104	0	88	20273
2026-01-01 14:23:25.95	252.97	17.35	-60.8	-63.9	6.2	0.00e+00	0	43	104	0	88	20122
2026-01-01 14:23:28.98	252.43	16.96	-60.8	-63.9	6.2	0.00e+00	0	43	104	0	88	20088
2026-01-01 14:23:32.00	251.90	16.58	-60.8	-63.9	6.2	0.00e+00	0	43	104	0	88	20092
2026-01-01 14:23:35.03	251.39	16.20	-60.8	-63.9	6.2	0.00e+00	0	43	104	0	88	20029
2026-01-01 14:23:38.05	250.90	15.83	-60.7	-63.9	6.2	0.00e+00	0	43	104	0	88	19954
2026-01-01 14:23:41.08	250.41	15.46	-60.7	-63.9	6.2	0.00e+00	0	43	104	0	88	19935
2026-01-01 14:23:44.09	249.95	15.10	-60.7	-63.8	6.2	0.00e+00	0	43	104	0	88	19854
2026-01-01 14:23:47.11	249.49	14.74	-60.7	-63.8	6.2	0.00e+00	0	43	104	0	88	19803
2026-01-01 14:23:50.13	249.05	14.39	-60.6	-63.8	6.2	0.00e+00	0	43	104	0	88	19707
2026-01-01 14:23:53.16	248.62	14.04	-60.6	-63.8	6.2	0.00e+00	0	43	104	0	88	19719
2026-01-01 14:23:56.19	248.20	13.70	-60.6	-63.7	6.2	0.00e+00	0	43	104	0	88	19654
2026-01-01 14:23:59.21	247.79	13.36	-60.6	-63.7	6.2	0.00e+00	0	43	104	0	87	20799
2026-01-01 14:24:02.23	247.40	13.03	-60.6	-63.7	6.2	0.00e+00	0	43	104	0	87	20755
2026-01-01 14:24:05.26	247.01	12.70	-60.5	-63.7	6.2	0.00e+00	0	43	104	0	87	20713
2026-01-01 14:24:08.28	246.64	12.38	-60.5	-63.6	6.2	0.00e+00	0	43	104	0	87	20593
2026-01-01 14:24:11.31	246.27	12.06	-60.5	-63.6	6.2	0.00e+00	0	43	104	0	87	20601
2026-01-01 14:24:14.33	245.92	11.75	-60.5	-63.7	6.2	0.00e+00	0	43	104	0	87	20635
2026-01-01 14:24:17.35	245.57	11.44	-60.5	-63.6	6.2	0.00e+00	0	43	104	0	87	20587
2026-01-01 14:24:20.37	245.23	11.13	-60.4	-63.6	6.2	0.00e+00	0	43	104	0	87	20498
2026-01-01 14:24:23.40	244.90	10.83	-60.4	-63.6	6.2	0.00e+00	0	43	104	0	87	20409
2026-01-01 14:24:26.42	244.58	10.53	-60.4	-63.6	6.2	0.00e+00	0	43	104	0	87	20400
2026-01-01 14:24:29.45	244.27	10.24	-60.4	-63.5	6.2	0.00e+00	0	43	104	0	87	20319
2026-01-01 14:24:32.47	243.96	9.95	-60.3	-63.4	6.2	0.00e+00	0	43	104	0	87	20158
2026-01-01 14:24:35.49	243.67	9.66	-60.3	-63.4	6.2	0.00e+00	0	43	104	0	87	20144
2026-01-01 14:24:38.52	243.38	9.38	-60.3	-63.4	6.2	0.00e+00	0	43	104	0	87	20161
2026-01-01 14:24:41.55	243.09	9.10	-60.3	-63.4	6.2	0.00e+00	0	43	104	0	87	20077
2026-01-01 14:24:44.57	242.81	8.82	-60.2	-63.4	6.2	0.00e+00	0	43	104	0	87	19964
2026-01-01 14:24:47.59	242.54	8.55	-60.2	-63.3	6.2	0.00e+00	0	43	104	0	87	19888
2026-01-01 14:24:50.61	242.28	8.28	-60.2	-63.4	6.2	0.00e+00	0	43	104	0	87	19952
2026-01-01 14:24:53.64	242.02	8.01	-60.1	-63.3	6.2	0.00e+00	0	43	104	0	87	19777
2026-01-01 14:24:56.66	241.77	7.75	-60.1	-63.2	6.2	0.00e+00	0	43	104	0	86	20788
2026-01-01 14:24:59.69	241.52	7.49	-60.1	-63.2	6.2	0.00e+00	0	43	104	0	86	20720
2026-01-01 14:25:02.71	241.28	7.23	-60.1	-63.2	6.2	0.00e+00	0	43	104	0	86	20851
2026-01-01 14:25:05.72	241.05	6.98	-60.1	-63.2	6.2	0.00e+00	0	43	104	0	86	20708
2026-01-01 14:25:08.75	240.82	6.73	-59.9	-63.1	6.2	0.00e+00	0	43	104	0	86	20418
2026-01-01 14:25:11.78	240.59	6.48	-59.9	-63.0	6.2	0.00e+00	0	43	104	0	86	20371
2026-01-01 14:25:14.81	240.37	6.24	-60.0	-63.1	6.2	0.00e+00	0	43	104	0	86	20568
2026-01-01 14:25:17.82	240.16	5.99	-59.9	-63.1	6.2	0.00e+00	0	43	104	0	86	20398
2026-01-01 14:25:20.84	239.94	5.75	-59.7	-62.9	6.2	0.00e+00	0	43	104	0	86	19965
2026-01-01 14:25:23.86	239.74	5.52	-59.7	-62.8	6.2	0.00e+00	0	43	104	0	86	19777
2026-01-01 14:25:26.89	239.54	5.28	-59.8	-62.9	6.2	0.00e+00	0	43	104	0	86	20140
2026-01-01 14:25:29.91	239.34	5.05	-59.7	-62.9	6.2	0.00e+00	0	43	104	0	86	20003
2026-01-01 14:25:32.92	239.14	4.82	-60.8	-63.9	6.2	0.00e+00	0	43	104	0	87	21324
2026-01-01 14:25:35.95	238.95	4.59	-61.4	-64.5	6.2	0.00e+00	0	43	104	0	88	21456
2026-01-01 14:25:38.98	238.77	4.36	-61.7	-64.9	6.2	0.00e+00	0	43	104	0	88	22395
2026-01-01 14:25:42.01	238.58	4.14	-61.9	-65.0	6.2	0.00e+00	0	43	104	0	89	21461
2026-01-01 14:25:45.03	238.40	3.92	-62.0	-65.1	6.2	0.00e+00	0	43	104	0	89	21728
2026-01-01 14:25:48.06	238.23	3.70	-62.0	-65.1	6.2	0.00e+00	0	43	104	0	89	21829
2026-01-01 14:25:51.07	238.06	3.48	-62.1	-65.2	6.2	0.00e+00	0	43	104	0	89	21999
2026-01-01 14:25:54.09	237.89	3.27	-62.0	-65.2	6.2	0.00e+00	0	43	104	0	89	21857
2026-01-01 14:25:57.12	237.72	3.06	-62.0	-65.1	6.2	0.00e+00	0	43	104	0	89	21802
2026-01-01 14:26:00.14	237.56	2.84	-61.9	-65.1	6.2	0.00e+00	0	43	104	0	89	21665
2026-01-01 14:26:03.17	237.40	2.63	-61.9	-65.0	6.2	0.00e+00	0	43	104	0	89	21599
2026-01-01 14:26:06.20	237.24	2.43	-61.9	-65.0	6.2	0.00e+00	0	43	104	0	89	21530
2026-01-01 14:26:09.23	237.09	2.22	-61.9	-65.0	6.2	0.00e+00	0	43	104	0	89	21511
2026-01-01 14:26:12.25	236.94	2.02	-61.9	-65.0	6.2	0.00e+00	0	43	104	0	89	21414
2026-01-01 14:26:15.28	236.79	1.81	-61.8	-65.0	6.2	0.00e+00	0	43	104	0	89	21384

#Closed at: 2026-01-01 14:26:15
#Recorded file [0 MB]: D:/lorett/data/31004_260101_171555.dat