passes_logs/2026/01/01/R3.2S_Murmansk/R3.2S_Murmansk__20260101_055314_NOAA_20_JPSS-1_rec.log

#Pass ID: 20260101_055314_NOAA 20 (JPSS-1)
#Satellite: NOAA 20 (JPSS-1)
#Configuration: NOAA 20
#almurnet v.1.7.20251203
#Start time: 2026-01-01 05:53:15

#Version: 2.2.20231116
#Station: R3.2S_Murmansk
#Location: 33.079688 lon 68.888172 lat
#TLE: 1 43013U 17073A   25365.59858899  .00000178  00000+0  10524-3 0  9991
#TLE: 2 43013  98.7620 301.6911 0001952  60.2533 299.8837 14.19531732420695

#Time	Az	El	Level	Level2	SNR	BER	BlckErr	Temp	State	Recorded	gain1	gain2
2026-01-01 05:53:15.96	73.78	2.11	-59.8	-75.8	3.8	1.49e+00	0	34	0	0	86	21827
2026-01-01 05:53:19.95	73.53	2.34	-59.9	-75.8	3.8	1.49e+00	0	33	104	0	84	24567
2026-01-01 05:53:23.93	73.27	2.57	-59.9	-75.8	3.8	1.49e+00	0	34	104	0	84	24474
2026-01-01 05:53:27.93	73.01	2.80	-59.9	-75.8	3.8	1.49e+00	0	34	104	0	84	24572
2026-01-01 05:53:31.93	72.75	3.03	-59.8	-75.8	3.8	1.49e+00	0	34	104	0	84	24578
2026-01-01 05:53:35.93	72.48	3.27	-59.9	-75.8	3.8	1.49e+00	0	34	104	0	84	24555
2026-01-01 05:53:39.92	72.21	3.51	-59.8	-75.7	3.8	1.49e+00	0	34	104	0	84	24384
2026-01-01 05:53:43.93	71.93	3.74	-59.8	-75.8	3.8	1.49e+00	0	34	104	0	84	24614
2026-01-01 05:53:47.93	71.65	3.98	-59.8	-75.8	3.8	1.49e+00	0	34	104	0	84	24587
2026-01-01 05:53:51.94	71.36	4.23	-59.8	-75.2	3.8	1.49e+00	0	34	104	0	84	23012
2026-01-01 05:53:55.96	71.07	4.47	-59.8	-73.7	3.8	1.49e+00	0	34	104	0	84	19322
2026-01-01 05:53:59.95	70.77	4.71	-59.5	-69.7	5.3	7.08e-01	0	34	0	2097152	84	12179
2026-01-01 05:54:03.95	70.47	4.96	-58.3	-64.3	9.6	1.19e-02	0	35	0	9437184	83	6939
2026-01-01 05:54:07.96	70.16	5.21	-59.3	-69.7	5.2	7.95e-03	0	34	0	17825792	83	12942
2026-01-01 05:54:11.94	69.85	5.45	-56.4	-59.7	13.7	0.00e+00	0	35	0	25165824	79	5148
2026-01-01 05:54:15.95	69.53	5.70	-56.3	-59.4	14.1	0.00e+00	0	35	0	32505856	79	4943
2026-01-01 05:54:19.93	69.21	5.95	-56.3	-59.5	14.0	0.00e+00	0	35	0	39845888	79	5021
2026-01-01 05:54:23.90	68.88	6.20	-56.4	-59.5	14.0	0.00e+00	0	35	0	47185920	79	5020
2026-01-01 05:54:27.89	68.55	6.46	-56.2	-59.2	14.3	0.00e+00	0	35	0	54525952	78	5112
2026-01-01 05:54:31.88	68.21	6.71	-56.1	-59.1	14.4	0.00e+00	0	35	0	61865984	78	5064
2026-01-01 05:54:35.88	67.86	6.97	-56.1	-58.9	14.5	0.00e+00	0	35	0	69206016	78	4977
2026-01-01 05:54:39.89	67.50	7.23	-56.0	-58.9	14.6	0.00e+00	0	35	0	77594624	78	4946
2026-01-01 05:54:43.88	67.14	7.49	-56.2	-59.2	14.4	0.00e+00	0	35	0	84934656	78	5115
2026-01-01 05:54:47.88	66.77	7.75	-56.2	-59.0	14.5	0.00e+00	0	35	0	92274688	78	5036
2026-01-01 05:54:51.87	66.40	8.02	-56.2	-59.1	14.4	0.00e+00	0	35	0	99614720	78	5071
2026-01-01 05:54:55.85	66.02	8.28	-56.1	-59.0	14.5	0.00e+00	0	35	0	106954752	78	5003
2026-01-01 05:54:59.86	65.63	8.55	-56.0	-58.8	14.7	0.00e+00	0	35	0	114294784	78	4889
2026-01-01 05:55:03.85	65.23	8.82	-55.9	-58.6	14.9	0.00e+00	0	35	0	121634816	78	4763
2026-01-01 05:55:07.85	64.83	9.09	-55.8	-58.4	15.0	0.00e+00	0	35	0	130023424	78	4688
2026-01-01 05:55:11.84	64.42	9.36	-55.7	-58.3	15.1	0.00e+00	0	35	0	137363456	77	4896
2026-01-01 05:55:15.83	64.00	9.63	-55.7	-58.2	15.2	0.00e+00	0	35	0	144703488	77	4849
2026-01-01 05:55:19.83	63.57	9.90	-55.7	-58.2	15.2	0.00e+00	0	35	0	152043520	77	4859
2026-01-01 05:55:23.82	63.13	10.18	-55.7	-58.3	15.2	0.00e+00	0	35	0	159383552	77	4879
2026-01-01 05:55:27.81	62.69	10.46	-55.8	-58.4	15.1	0.00e+00	0	35	0	166723584	77	4946
2026-01-01 05:55:31.79	62.24	10.73	-55.9	-58.5	15.0	0.00e+00	0	35	0	174063616	77	5032
2026-01-01 05:55:35.79	61.77	11.01	-55.8	-58.4	15.2	0.00e+00	0	35	0	182452224	77	4937
2026-01-01 05:55:39.79	61.30	11.30	-55.6	-58.0	15.4	0.00e+00	0	35	0	189792256	77	4733
2026-01-01 05:55:43.80	60.82	11.58	-55.6	-58.1	15.4	0.00e+00	0	35	0	197132288	77	4779
2026-01-01 05:55:47.81	60.32	11.86	-55.4	-57.8	15.5	0.00e+00	0	35	0	204472320	77	4617
2026-01-01 05:55:51.79	59.83	12.15	-55.4	-57.7	15.6	0.00e+00	0	35	0	211812352	77	4593
2026-01-01 05:55:55.78	59.32	12.43	-55.2	-57.4	15.8	0.00e+00	0	35	0	219152384	77	4438
2026-01-01 05:55:59.78	58.79	12.72	-55.3	-57.6	15.7	0.00e+00	0	35	0	226492416	76	4778
2026-01-01 05:56:03.79	58.26	13.01	-55.2	-57.4	15.8	0.00e+00	0	35	0	234881024	76	4675
2026-01-01 05:56:07.79	57.72	13.30	-55.3	-57.5	15.8	0.00e+00	0	35	0	242221056	76	4735
2026-01-01 05:56:11.79	57.16	13.59	-54.9	-57.1	16.1	0.00e+00	0	35	0	249561088	76	4508
2026-01-01 05:56:15.79	56.60	13.88	-54.8	-56.8	16.2	0.00e+00	0	35	0	256901120	76	4388
2026-01-01 05:56:19.80	56.02	14.17	-54.7	-56.7	16.2	0.00e+00	0	35	0	264241152	75	4584
2026-01-01 05:56:23.76	55.44	14.46	-54.7	-56.7	16.3	0.00e+00	0	35	0	271581184	75	4595
2026-01-01 05:56:27.74	54.84	14.75	-54.9	-57.0	16.1	0.00e+00	0	35	0	278921216	75	4708
2026-01-01 05:56:31.72	54.23	15.04	-54.9	-57.1	16.1	0.00e+00	0	36	0	287309824	75	4762
2026-01-01 05:56:35.72	53.61	15.33	-54.9	-57.1	16.1	0.00e+00	0	36	0	294649856	75	4766
2026-01-01 05:56:39.72	52.97	15.63	-55.1	-57.3	16.0	0.00e+00	0	36	0	301989888	75	4910
2026-01-01 05:56:43.72	52.32	15.92	-55.2	-57.5	15.9	0.00e+00	0	36	0	309329920	75	4995
2026-01-01 05:56:47.73	51.66	16.21	-55.2	-57.4	15.9	0.00e+00	0	35	0	316669952	75	4977
2026-01-01 05:56:51.72	50.98	16.50	-55.2	-57.4	15.9	0.00e+00	0	35	0	324009984	75	4937
2026-01-01 05:56:55.71	50.30	16.79	-55.3	-57.5	15.9	0.00e+00	0	36	0	331350016	75	5018
2026-01-01 05:56:59.71	49.59	17.08	-55.3	-57.5	15.9	0.00e+00	0	36	0	339738624	75	5025
2026-01-01 05:57:03.71	48.88	17.37	-55.3	-57.5	15.9	0.00e+00	0	36	0	347078656	76	4748
2026-01-01 05:57:07.70	48.15	17.66	-55.3	-57.5	15.9	0.00e+00	0	36	0	354418688	76	4744
2026-01-01 05:57:11.69	47.41	17.94	-55.1	-57.3	16.1	0.00e+00	0	35	0	361758720	76	4623
2026-01-01 05:57:15.69	46.65	18.22	-55.0	-57.1	16.2	0.00e+00	0	36	0	369098752	76	4532
2026-01-01 05:57:19.69	45.87	18.51	-54.8	-56.7	16.4	0.00e+00	0	35	0	376438784	76	4337
2026-01-01 05:57:23.68	45.09	18.79	-54.3	-56.2	16.7	0.00e+00	0	36	0	383778816	75	4300
2026-01-01 05:57:27.66	44.29	19.06	-53.9	-55.7	17.0	0.00e+00	0	36	0	392167424	74	4329
2026-01-01 05:57:31.65	43.47	19.33	-53.5	-55.2	17.2	0.00e+00	0	36	0	399507456	73	4300
2026-01-01 05:57:35.63	42.64	19.60	-53.3	-54.9	17.3	0.00e+00	0	35	0	406847488	73	4180
2026-01-01 05:57:39.63	41.80	19.87	-53.3	-54.9	17.3	0.00e+00	0	35	0	414187520	73	4163
2026-01-01 05:57:43.62	40.94	20.13	-53.1	-54.7	17.4	0.00e+00	0	36	0	421527552	72	4297
2026-01-01 05:57:47.63	40.06	20.39	-53.0	-54.6	17.5	0.00e+00	0	35	0	428867584	72	4258
2026-01-01 05:57:51.63	39.17	20.65	-52.9	-54.4	17.5	0.00e+00	0	36	0	436207616	72	4175
2026-01-01 05:57:55.62	38.26	20.89	-52.9	-54.4	17.5	0.00e+00	0	36	0	444596224	72	4185
2026-01-01 05:57:59.58	37.35	21.14	-53.0	-54.6	17.5	0.00e+00	0	36	0	451936256	72	4266
2026-01-01 05:58:03.56	36.42	21.37	-53.0	-54.6	17.5	0.00e+00	0	36	0	459276288	72	4255
2026-01-01 05:58:07.56	35.47	21.61	-53.0	-54.6	17.5	0.00e+00	0	35	0	466616320	72	4262
2026-01-01 05:58:11.56	34.50	21.83	-53.2	-54.8	17.4	0.00e+00	0	36	0	473956352	72	4384
2026-01-01 05:58:15.57	33.52	22.05	-52.8	-54.4	17.6	0.00e+00	0	36	0	481296384	72	4157
2026-01-01 05:58:19.55	32.54	22.26	-52.7	-54.3	17.6	0.00e+00	0	35	0	488636416	71	4346
2026-01-01 05:58:23.53	31.54	22.46	-53.0	-54.5	17.6	0.00e+00	0	35	0	495976448	71	4490
2026-01-01 05:58:27.51	30.52	22.66	-52.6	-54.0	17.8	0.00e+00	0	36	0	504365056	71	4240
2026-01-01 05:58:31.50	29.49	22.85	-52.5	-53.9	17.8	0.00e+00	0	36	0	511705088	71	4184
2026-01-01 05:58:35.48	28.45	23.02	-52.6	-54.2	17.7	0.00e+00	0	36	0	519045120	71	4292
2026-01-01 05:58:39.47	27.40	23.19	-53.0	-54.6	17.5	0.00e+00	0	36	0	526385152	71	4502
2026-01-01 05:58:43.48	26.33	23.35	-53.0	-54.6	17.5	0.00e+00	0	36	0	533725184	71	4519
2026-01-01 05:58:47.48	25.25	23.50	-53.2	-54.7	17.4	0.00e+00	0	36	0	541065216	71	4596
2026-01-01 05:58:51.47	24.17	23.64	-53.9	-55.7	17.1	0.00e+00	0	35	0	548405248	73	4551
2026-01-01 05:58:55.46	23.08	23.77	-54.0	-55.8	17.0	0.00e+00	0	35	0	556793856	73	4607
2026-01-01 05:58:59.45	21.97	23.89	-54.2	-56.0	16.9	0.00e+00	0	35	0	564133888	74	4472
2026-01-01 05:59:03.45	20.86	24.00	-54.3	-56.1	16.9	0.00e+00	0	36	0	571473920	74	4525
2026-01-01 05:59:07.45	19.74	24.09	-54.6	-56.5	16.7	0.00e+00	0	35	0	578813952	74	4727
2026-01-01 05:59:11.44	18.61	24.18	-55.0	-57.0	16.4	0.00e+00	0	35	0	586153984	75	4753
2026-01-01 05:59:15.42	17.49	24.25	-54.7	-56.7	16.6	0.00e+00	0	36	0	593494016	75	4548
2026-01-01 05:59:19.42	16.35	24.31	-54.4	-56.3	16.8	0.00e+00	0	36	0	600834048	75	4352
2026-01-01 05:59:23.40	15.21	24.36	-54.7	-56.6	16.6	0.00e+00	0	36	0	609222656	75	4517
2026-01-01 05:59:27.38	14.07	24.39	-54.6	-56.5	16.7	0.00e+00	0	36	0	616562688	75	4461
2026-01-01 05:59:31.36	12.93	24.42	-54.3	-56.1	16.9	0.00e+00	0	36	0	623902720	75	4270
2026-01-01 05:59:35.33	11.79	24.43	-54.4	-56.2	16.9	0.00e+00	0	36	0	631242752	75	4317
2026-01-01 05:59:39.33	10.64	24.43	-53.9	-55.6	17.2	0.00e+00	0	36	0	638582784	74	4279
2026-01-01 05:59:43.33	9.50	24.41	-53.6	-55.3	17.3	0.00e+00	0	36	0	645922816	73	4376
2026-01-01 05:59:47.33	8.35	24.39	-53.5	-55.2	17.4	0.00e+00	0	36	0	653262848	73	4312
2026-01-01 05:59:51.32	7.21	24.35	-53.1	-54.6	17.6	0.00e+00	0	36	0	660602880	72	4289
2026-01-01 05:59:55.33	6.06	24.30	-52.7	-54.2	17.8	0.00e+00	0	36	0	668991488	71	4327
2026-01-01 05:59:59.34	4.92	24.23	-52.6	-54.0	17.8	0.00e+00	0	36	0	676331520	71	4233
2026-01-01 06:00:03.34	3.79	24.16	-52.3	-53.8	17.9	0.00e+00	0	36	0	683671552	70	4342
2026-01-01 06:00:07.34	2.67	24.07	-52.3	-53.7	18.0	0.00e+00	0	36	0	691011584	70	4333
2026-01-01 06:00:11.32	1.55	23.97	-52.3	-53.8	17.9	0.00e+00	0	35	0	698351616	70	4353
2026-01-01 06:00:15.33	0.44	23.86	-52.6	-54.1	17.8	0.00e+00	0	36	0	705691648	70	4527
2026-01-01 06:00:19.32	359.34	23.74	-52.7	-54.2	17.8	0.00e+00	0	36	0	714080256	70	4546
2026-01-01 06:00:23.30	358.25	23.61	-52.9	-54.5	17.7	0.00e+00	0	36	0	721420288	71	4443
2026-01-01 06:00:27.29	357.17	23.47	-53.4	-55.0	17.4	0.00e+00	0	36	0	728760320	72	4483
2026-01-01 06:00:31.27	356.10	23.31	-53.4	-55.0	17.4	0.00e+00	0	36	0	736100352	72	4491
2026-01-01 06:00:35.26	355.04	23.15	-53.6	-55.3	17.3	0.00e+00	0	36	0	743440384	72	4610
2026-01-01 06:00:39.24	353.99	22.98	-54.0	-55.8	17.1	0.00e+00	0	35	0	750780416	73	4600
2026-01-01 06:00:43.24	352.95	22.80	-54.1	-55.8	17.1	0.00e+00	0	36	0	758120448	73	4638
2026-01-01 06:00:47.23	351.93	22.61	-54.1	-55.9	17.1	0.00e+00	0	36	0	765460480	73	4653
2026-01-01 06:00:51.20	350.92	22.41	-54.4	-56.3	16.8	0.00e+00	0	36	0	773849088	74	4612
2026-01-01 06:00:55.20	349.92	22.21	-54.4	-56.3	16.8	0.00e+00	0	36	0	781189120	74	4620
2026-01-01 06:00:59.19	348.93	22.00	-54.3	-56.1	16.9	0.00e+00	0	36	0	788529152	74	4510
2026-01-01 06:01:03.19	347.96	21.78	-54.7	-56.6	16.7	0.00e+00	0	36	0	795869184	74	4804
2026-01-01 06:01:07.17	347.00	21.55	-54.4	-56.3	16.9	0.00e+00	0	36	0	803209216	74	4624
2026-01-01 06:01:11.16	346.06	21.32	-54.3	-56.2	16.9	0.00e+00	0	36	0	810549248	74	4550
2026-01-01 06:01:15.15	345.13	21.08	-54.2	-56.0	17.0	0.00e+00	0	36	0	817889280	74	4483
2026-01-01 06:01:19.14	344.22	20.83	-53.9	-55.7	17.1	0.00e+00	0	35	0	825229312	74	4304
2026-01-01 06:01:23.14	343.32	20.58	-53.9	-55.6	17.2	0.00e+00	0	36	0	833617920	74	4290
2026-01-01 06:01:27.12	342.43	20.33	-53.8	-55.6	17.2	0.00e+00	0	36	0	840957952	74	4248
2026-01-01 06:01:31.11	341.56	20.07	-53.9	-55.6	17.2	0.00e+00	0	36	0	848297984	74	4265
2026-01-01 06:01:35.09	340.71	19.81	-53.8	-55.5	17.2	0.00e+00	0	36	0	855638016	74	4200
2026-01-01 06:01:39.08	339.87	19.54	-53.9	-55.7	17.1	0.00e+00	0	36	0	862978048	74	4295
2026-01-01 06:01:43.07	339.04	19.27	-54.0	-55.7	17.1	0.00e+00	0	36	0	870318080	74	4333
2026-01-01 06:01:47.05	338.24	19.00	-54.2	-56.1	17.0	0.00e+00	0	36	0	877658112	74	4497
2026-01-01 06:01:51.05	337.44	18.72	-53.9	-55.7	17.1	0.00e+00	0	36	0	886046720	74	4294
2026-01-01 06:01:55.04	336.66	18.44	-53.7	-55.4	17.3	0.00e+00	0	36	0	893386752	74	4193
2026-01-01 06:01:59.03	335.89	18.16	-53.9	-55.7	17.2	0.00e+00	0	36	0	900726784	74	4292
2026-01-01 06:02:03.00	335.14	17.88	-53.5	-55.2	17.4	0.00e+00	0	36	0	908066816	73	4296
2026-01-01 06:02:06.99	334.40	17.59	-53.3	-55.0	17.4	0.00e+00	0	36	0	915406848	73	4214
2026-01-01 06:02:10.99	333.68	17.31	-53.3	-54.9	17.5	0.00e+00	0	36	0	922746880	72	4406
2026-01-01 06:02:14.97	332.97	17.02	-53.2	-54.9	17.5	0.00e+00	0	36	0	930086912	72	4398
2026-01-01 06:02:18.97	332.27	16.73	-53.1	-54.7	17.5	0.00e+00	0	35	0	937426944	72	4340
2026-01-01 06:02:22.96	331.59	16.44	-53.0	-54.6	17.6	0.00e+00	0	36	0	945815552	72	4265
2026-01-01 06:02:26.95	330.92	16.15	-53.0	-54.6	17.6	0.00e+00	0	36	0	953155584	72	4247
2026-01-01 06:02:30.93	330.26	15.86	-53.1	-54.7	17.5	0.00e+00	0	36	0	960495616	72	4314
2026-01-01 06:02:34.91	329.62	15.57	-53.0	-54.6	17.6	0.00e+00	0	36	0	967835648	72	4285
2026-01-01 06:02:38.92	328.98	15.27	-53.2	-54.8	17.5	0.00e+00	0	36	0	975175680	72	4348
2026-01-01 06:02:42.91	328.36	14.98	-53.3	-54.9	17.4	0.00e+00	0	36	0	982515712	72	4423
2026-01-01 06:02:46.91	327.76	14.69	-53.5	-55.2	17.3	0.00e+00	0	36	0	989855744	72	4560
2026-01-01 06:02:50.90	327.16	14.40	-53.9	-55.6	17.1	0.00e+00	0	36	0	998244352	72	4812
2026-01-01 06:02:54.87	326.58	14.11	-54.0	-55.8	16.9	0.00e+00	0	35	0	1005584384	73	4646
2026-01-01 06:02:58.87	326.01	13.82	-53.8	-55.5	17.1	0.00e+00	0	36	0	1012924416	73	4486
2026-01-01 06:03:02.86	325.45	13.53	-53.9	-55.7	17.1	0.00e+00	0	36	0	1020264448	73	4554
2026-01-01 06:03:06.86	324.90	13.24	-54.1	-56.0	16.9	0.00e+00	0	36	0	1027604480	73	4724
2026-01-01 06:03:10.85	324.36	12.95	-54.1	-56.0	16.8	0.00e+00	0	36	0	1034944512	73	4726
2026-01-01 06:03:14.84	323.83	12.67	-54.2	-56.1	16.8	0.00e+00	0	36	0	1042284544	73	4770
2026-01-01 06:03:18.85	323.31	12.38	-54.4	-56.3	16.7	0.00e+00	0	36	0	1050673152	73	4899
2026-01-01 06:03:22.83	322.81	12.10	-54.4	-56.4	16.7	0.00e+00	0	36	0	1058013184	74	4663
2026-01-01 06:03:26.82	322.31	11.81	-54.4	-56.4	16.6	0.00e+00	0	36	0	1065353216	74	4654
2026-01-01 06:03:30.81	321.82	11.53	-54.6	-56.7	16.4	0.00e+00	0	36	0	1072693248	74	4834
2026-01-01 06:03:34.78	321.35	11.25	-54.7	-56.7	16.5	0.00e+00	0	36	0	1080033280	74	4855
2026-01-01 06:03:38.76	320.88	10.97	-54.7	-56.8	16.4	0.00e+00	0	36	0	1087373312	74	4896
2026-01-01 06:03:42.75	320.42	10.69	-54.6	-56.7	16.4	0.00e+00	0	36	0	1094713344	74	4826
2026-01-01 06:03:46.75	319.97	10.41	-54.8	-56.9	16.3	0.00e+00	0	36	0	1102053376	74	4960
2026-01-01 06:03:50.74	319.53	10.14	-55.1	-57.3	16.0	0.00e+00	0	36	0	1110441984	75	4923
2026-01-01 06:03:54.73	319.09	9.86	-55.2	-57.5	15.9	0.00e+00	0	36	0	1117782016	75	5024
2026-01-01 06:03:58.73	318.67	9.59	-55.4	-57.7	15.7	0.00e+00	0	36	0	1125122048	75	5144
2026-01-01 06:04:02.73	318.25	9.32	-55.6	-58.0	15.6	0.00e+00	0	35	0	1132462080	76	5019
2026-01-01 06:04:06.74	317.84	9.04	-55.8	-58.3	15.4	0.00e+00	0	36	0	1139802112	76	5171
2026-01-01 06:04:10.72	317.44	8.78	-55.8	-58.3	15.4	0.00e+00	0	36	0	1147142144	76	5189
2026-01-01 06:04:14.72	317.04	8.51	-55.7	-58.2	15.4	0.00e+00	0	36	0	1154482176	76	5108
2026-01-01 06:04:18.72	316.66	8.24	-55.6	-58.1	15.5	0.00e+00	0	36	0	1162870784	76	5063
2026-01-01 06:04:22.72	316.28	7.98	-55.8	-58.3	15.3	0.00e+00	0	36	0	1170210816	76	5188
2026-01-01 06:04:26.68	315.91	7.72	-55.9	-58.6	15.1	0.00e+00	0	36	0	1177550848	77	5062
2026-01-01 06:04:30.68	315.54	7.45	-55.9	-58.6	15.0	0.00e+00	0	35	0	1184890880	77	5075
2026-01-01 06:04:34.66	315.18	7.20	-56.0	-58.6	15.0	0.00e+00	0	36	0	1192230912	77	5098
2026-01-01 06:04:38.65	314.83	6.94	-56.0	-58.8	14.8	0.00e+00	0	36	0	1199570944	77	5182
2026-01-01 06:04:42.64	314.49	6.68	-56.2	-59.1	14.6	0.00e+00	0	36	0	1206910976	77	5378
2026-01-01 06:04:46.61	314.15	6.43	-56.4	-59.5	14.3	0.00e+00	0	36	0	1215299584	78	5289
2026-01-01 06:04:50.61	313.81	6.17	-56.5	-59.6	14.2	0.00e+00	0	36	0	1222639616	78	5387
2026-01-01 06:04:54.61	313.49	5.92	-56.5	-59.7	14.1	0.00e+00	0	36	0	1229979648	78	5417
2026-01-01 06:04:58.60	313.16	5.67	-56.4	-59.5	14.3	0.00e+00	0	36	0	1237319680	78	5290
2026-01-01 06:05:02.60	312.85	5.42	-56.5	-59.6	14.1	0.00e+00	0	36	0	1244659712	78	5388
2026-01-01 06:05:06.58	312.54	5.17	-56.7	-60.0	13.8	0.00e+00	0	36	0	1251999744	78	5633
2026-01-01 06:05:10.60	312.23	4.93	-60.6	-76.5	3.8	1.49e+00	0	36	104	1258291200	86	23789
2026-01-01 06:05:14.61	311.93	4.68	-61.6	-77.6	3.8	1.49e+00	0	36	104	1258291200	88	23879
2026-01-01 06:05:18.61	311.64	4.44	-62.0	-78.0	3.8	1.49e+00	0	36	104	1258291200	89	23840
2026-01-01 06:05:22.61	311.35	4.20	-62.4	-78.3	3.8	1.49e+00	0	36	104	1258291200	89	24662
2026-01-01 06:05:26.62	311.06	3.95	-62.5	-78.5	3.8	1.49e+00	0	36	104	1258291200	90	23802
2026-01-01 06:05:30.62	310.78	3.72	-62.5	-78.5	3.8	1.49e+00	0	36	104	1258291200	90	23700
2026-01-01 06:05:34.62	310.51	3.48	-62.4	-78.4	3.8	1.49e+00	0	36	104	1258291200	90	23517
2026-01-01 06:05:38.61	310.24	3.24	-62.3	-78.4	3.8	1.49e+00	0	36	104	1258291200	90	23360
2026-01-01 06:05:42.61	309.97	3.01	-62.3	-78.3	3.8	1.49e+00	0	36	104	1258291200	90	23176
2026-01-01 06:05:46.61	309.71	2.77	-62.3	-78.3	3.8	1.49e+00	0	36	104	1258291200	90	23121
2026-01-01 06:05:50.60	309.45	2.54	-62.2	-78.2	3.8	1.49e+00	0	36	104	1258291200	90	22957
2026-01-01 06:05:54.59	309.20	2.31	-62.2	-78.2	3.8	1.49e+00	0	36	104	1258291200	90	22955
2026-01-01 06:05:58.60	308.95	2.08	-62.2	-78.2	3.8	1.49e+00	0	36	104	1258291200	90	22859

#Closed at: 2026-01-01 06:06:00
#Recorded file [1258 MB]: D:/lorett/data/31004_260101_085315.dat