passes_logs/2026/01/01/R3.2S_Murmansk/R3.2S_Murmansk__20260101_205058_TY-42_rec.log

#Pass ID: 20260101_205058_TY-42
#Satellite: TY-42
#Configuration: TY-42_900M
#almurnet v.1.7.20251203
#Start time: 2026-01-01 20:50:57

#Version: 2.2.20231116
#Station: R3.2S_Murmansk
#Location: 33.079688 lon 68.888172 lat
#TLE: 1 64048U 25103A   26001.16230324  .00008011  00000-0  38191-3 0 09998
#TLE: 2 64048 097.4120 076.8412 0001853 093.7312 056.4064 15.19175193 34719

#Time	Az	El	Level	Level2	SNR	BER	BlckErr	Temp	State	Recorded	gain1	gain2
2026-01-01 20:50:57.88	216.13	1.99	-59.6	-62.9	6.2	0.00e+00	0	38	0	0	86	20475
2026-01-01 20:51:00.89	216.44	2.17	-59.6	-62.9	6.2	0.00e+00	0	38	104	0	86	20414
2026-01-01 20:51:03.90	216.75	2.34	-59.6	-62.8	6.2	0.00e+00	0	38	104	0	86	20385
2026-01-01 20:51:06.92	217.07	2.52	-59.6	-62.9	6.2	0.00e+00	0	38	104	0	86	20462
2026-01-01 20:51:09.92	217.39	2.70	-59.6	-62.9	6.2	0.00e+00	0	39	104	0	86	20503
2026-01-01 20:51:12.91	217.71	2.88	-59.6	-62.9	6.2	0.00e+00	0	39	104	0	86	20499
2026-01-01 20:51:15.91	218.04	3.06	-59.6	-62.9	6.2	0.00e+00	0	39	104	0	86	20403
2026-01-01 20:51:18.93	218.38	3.24	-59.6	-62.9	6.2	0.00e+00	0	39	104	0	86	20476
2026-01-01 20:51:21.92	218.72	3.42	-59.6	-62.9	6.2	0.00e+00	0	39	104	0	86	20426
2026-01-01 20:51:24.92	219.06	3.60	-59.7	-62.9	6.2	0.00e+00	0	39	104	0	86	20484
2026-01-01 20:51:27.93	219.41	3.79	-59.6	-62.9	6.2	0.00e+00	0	40	104	0	86	20520
2026-01-01 20:51:30.93	219.77	3.97	-59.7	-62.9	6.2	0.00e+00	0	40	104	0	86	20476
2026-01-01 20:51:33.92	220.13	4.16	-59.6	-62.9	6.2	0.00e+00	0	40	104	0	86	20490
2026-01-01 20:51:36.93	220.50	4.34	-59.7	-62.9	6.2	0.00e+00	0	40	104	0	86	20466
2026-01-01 20:51:39.93	220.87	4.53	-59.7	-62.9	6.2	0.00e+00	0	40	104	0	86	20531
2026-01-01 20:51:42.93	221.25	4.72	-59.7	-62.9	6.2	0.00e+00	0	40	104	0	86	20494
2026-01-01 20:51:45.93	221.63	4.91	-59.7	-62.9	6.2	0.00e+00	0	40	104	0	86	20536
2026-01-01 20:51:48.95	222.02	5.10	-59.9	-63.1	6.2	0.00e+00	0	40	104	0	86	21055
2026-01-01 20:51:51.95	222.42	5.29	-59.7	-63.0	6.2	0.00e+00	0	40	104	0	86	20722
2026-01-01 20:51:54.96	222.82	5.48	-46.6	-47.0	11.3	0.00e+00	4545	41	104	0	60	14627
2026-01-01 20:51:57.96	223.23	5.67	-44.3	-44.6	13.5	1.21e-01	0	41	0	327155712	55	14838
2026-01-01 20:52:00.95	223.65	5.86	-44.4	-44.7	13.4	9.46e-03	0	42	0	662700032	55	14981
2026-01-01 20:52:03.97	224.07	6.06	-44.1	-44.4	13.6	9.04e-03	0	42	0	998244352	55	14495
2026-01-01 20:52:06.97	224.50	6.25	-43.9	-44.2	13.6	6.18e-03	0	42	0	1342177280	55	14210
2026-01-01 20:52:09.96	224.94	6.45	-43.9	-44.2	13.7	6.18e-03	0	42	0	1677721600	54	14961
2026-01-01 20:52:12.96	225.38	6.64	-43.7	-44.0	13.8	5.14e-03	0	42	0	2013265920	54	14721
2026-01-01 20:52:15.94	225.83	6.84	-43.8	-44.1	13.6	4.81e-03	0	43	0	2348810240	54	14911
2026-01-01 20:52:18.93	226.29	7.04	-43.7	-44.0	13.7	4.85e-03	0	43	0	2692743168	54	14687
2026-01-01 20:52:21.93	226.75	7.24	-43.7	-44.0	13.7	3.99e-03	0	43	0	3028287488	54	14691
2026-01-01 20:52:24.93	227.23	7.43	-43.5	-43.7	13.8	3.89e-03	0	43	0	3363831808	54	14266
2026-01-01 20:52:27.92	227.71	7.63	-43.5	-43.8	13.8	3.23e-03	0	43	0	3699376128	54	14347
2026-01-01 20:52:30.92	228.20	7.83	-43.1	-43.4	13.9	3.10e-03	0	43	0	4034920448	53	14491
2026-01-01 20:52:33.94	228.70	8.04	-43.0	-43.2	14.0	2.90e-03	0	43	0	4378853376	53	14244
2026-01-01 20:52:36.94	229.20	8.24	-43.0	-43.2	14.0	2.40e-03	0	43	0	4714397696	53	14267
2026-01-01 20:52:39.94	229.72	8.44	-42.9	-43.2	14.0	1.98e-03	0	43	0	5049942016	52	15034
2026-01-01 20:52:42.94	230.24	8.64	-42.6	-42.9	14.1	2.12e-03	0	43	0	5385486336	52	14533
2026-01-01 20:52:45.94	230.77	8.84	-42.6	-42.9	14.2	1.54e-03	0	44	0	5729419264	52	14466
2026-01-01 20:52:48.94	231.31	9.05	-42.6	-42.9	14.2	1.34e-03	0	44	0	6064963584	52	14465
2026-01-01 20:52:51.94	231.86	9.25	-42.5	-42.8	14.2	1.35e-03	0	44	0	6400507904	52	14315
2026-01-01 20:52:54.93	232.42	9.45	-42.5	-42.8	14.2	1.09e-03	0	44	0	6736052224	52	14302
2026-01-01 20:52:57.93	232.99	9.65	-42.2	-42.5	14.2	1.18e-03	0	44	0	7079985152	51	14683
2026-01-01 20:53:00.93	233.57	9.86	-42.2	-42.5	14.3	1.02e-03	0	44	0	7415529472	51	14613
2026-01-01 20:53:03.93	234.15	10.06	-42.1	-42.4	14.3	1.02e-03	0	44	0	7751073792	51	14526
2026-01-01 20:53:06.93	234.75	10.26	-42.1	-42.3	14.3	8.01e-04	0	44	0	8086618112	51	14417
2026-01-01 20:53:09.94	235.36	10.47	-42.0	-42.3	14.4	8.68e-04	0	44	0	8430551040	51	14279
2026-01-01 20:53:12.94	235.98	10.67	-41.9	-42.2	14.4	8.01e-04	0	44	0	8766095360	51	14193
2026-01-01 20:53:15.93	236.60	10.87	-41.9	-42.1	14.4	7.91e-04	0	44	0	9101639680	50	14908
2026-01-01 20:53:18.92	237.24	11.07	-41.9	-42.2	14.3	6.91e-04	0	44	0	9437184000	50	14982
2026-01-01 20:53:21.91	237.88	11.27	-41.7	-42.0	14.4	8.01e-04	0	44	0	9772728320	50	14657
2026-01-01 20:53:24.90	238.54	11.47	-41.7	-41.9	14.4	6.05e-04	0	44	0	10108272640	50	14579
2026-01-01 20:53:27.89	239.21	11.67	-41.6	-41.8	14.4	5.96e-04	0	44	0	10443816960	50	14423
2026-01-01 20:53:30.89	239.89	11.87	-41.6	-41.8	14.4	5.34e-04	0	44	0	10779361280	50	14412
2026-01-01 20:53:33.89	240.58	12.07	-41.5	-41.7	14.5	5.67e-04	0	45	0	11123294208	50	14235
2026-01-01 20:53:36.87	241.27	12.26	-41.6	-41.8	14.4	4.86e-04	0	44	0	11458838528	50	14438
2026-01-01 20:53:39.87	241.99	12.46	-41.3	-41.6	14.5	4.86e-04	0	44	0	11794382848	49	14815
2026-01-01 20:53:42.87	242.71	12.65	-41.4	-41.6	14.5	5.25e-04	0	44	0	12129927168	49	14929
2026-01-01 20:53:45.86	243.44	12.84	-41.2	-41.5	14.5	5.01e-04	0	44	0	12465471488	49	14694
2026-01-01 20:53:48.85	244.19	13.03	-41.2	-41.4	14.5	3.48e-04	0	45	0	12801015808	49	14605
2026-01-01 20:53:51.84	244.94	13.22	-41.2	-41.5	14.5	4.10e-04	0	44	0	13136560128	49	14611
2026-01-01 20:53:54.83	245.71	13.40	-41.2	-41.4	14.5	3.86e-04	0	45	0	13480493056	49	14589
2026-01-01 20:53:57.81	246.48	13.58	-41.1	-41.3	14.5	3.86e-04	0	45	0	13807648768	49	14398
2026-01-01 20:54:00.81	247.27	13.76	-41.0	-41.3	14.6	3.48e-04	0	45	0	14143193088	49	14312
2026-01-01 20:54:03.82	248.07	13.94	-40.8	-41.1	14.6	3.34e-04	0	45	0	14487126016	48	14850
2026-01-01 20:54:06.82	248.89	14.12	-40.8	-41.0	14.6	2.38e-04	0	45	0	14831058944	48	14774
2026-01-01 20:54:09.81	249.71	14.29	-40.7	-40.9	14.6	2.19e-04	0	45	0	15158214656	48	14599
2026-01-01 20:54:12.79	250.54	14.45	-40.5	-40.8	14.7	2.43e-04	0	45	0	15493758976	48	14280
2026-01-01 20:54:15.78	251.38	14.62	-39.6	-39.8	14.6	3.15e-04	0	45	0	15837691904	46	14419
2026-01-01 20:54:18.78	252.23	14.78	-39.6	-39.9	14.6	3.67e-04	0	45	0	16173236224	46	14443
2026-01-01 20:54:21.77	253.10	14.93	-39.6	-39.8	14.6	3.43e-04	0	45	0	16508780544	46	14394
2026-01-01 20:54:24.78	253.98	15.09	-39.5	-39.7	14.6	4.00e-04	0	45	0	16844324864	46	14258
2026-01-01 20:54:27.77	254.86	15.24	-39.5	-39.7	14.6	3.10e-04	0	45	0	17179869184	46	14213
2026-01-01 20:54:30.76	255.76	15.38	-39.5	-39.7	14.7	2.96e-04	0	45	0	17515413504	46	14240
2026-01-01 20:54:33.76	256.66	15.52	-39.4	-39.6	14.6	2.91e-04	0	45	0	17850957824	45	14877
2026-01-01 20:54:36.76	257.58	15.65	-39.3	-39.5	14.7	2.05e-04	0	45	0	18194890752	45	14759
2026-01-01 20:54:39.76	258.50	15.78	-39.2	-39.5	14.7	2.53e-04	0	45	0	18530435072	45	14656
2026-01-01 20:54:42.76	259.44	15.90	-39.3	-39.5	14.7	2.48e-04	0	45	0	18865979392	45	14751
2026-01-01 20:54:45.76	260.38	16.02	-39.3	-39.6	14.7	2.72e-04	0	45	0	19201523712	45	14807
2026-01-01 20:54:48.76	261.33	16.13	-39.3	-39.5	14.7	2.34e-04	0	45	0	19545456640	45	14757
2026-01-01 20:54:51.75	262.29	16.23	-39.4	-39.7	14.7	2.67e-04	0	45	0	19881000960	45	14978
2026-01-01 20:54:54.74	263.25	16.33	-39.3	-39.6	14.7	2.67e-04	0	45	0	20216545280	45	14810
2026-01-01 20:54:57.74	264.22	16.42	-39.3	-39.5	14.7	2.86e-04	0	45	0	20552089600	45	14776
2026-01-01 20:55:00.74	265.20	16.51	-39.3	-39.6	14.6	3.10e-04	0	45	0	20887633920	45	14845
2026-01-01 20:55:03.73	266.19	16.59	-39.4	-39.6	14.7	2.76e-04	0	45	0	21231566848	45	14865
2026-01-01 20:55:06.74	267.18	16.66	-39.3	-39.5	14.7	3.29e-04	0	45	0	21567111168	45	14773
2026-01-01 20:55:09.73	268.17	16.73	-39.3	-39.6	14.7	3.15e-04	0	45	0	21902655488	45	14839
2026-01-01 20:55:12.72	269.17	16.78	-39.4	-39.6	14.6	4.91e-04	0	45	0	22238199808	45	14920
2026-01-01 20:55:15.70	270.17	16.83	-39.3	-39.6	14.6	5.63e-04	0	45	0	22573744128	45	14822
2026-01-01 20:55:18.69	271.18	16.87	-39.4	-39.6	14.6	6.34e-04	0	45	0	22909288448	45	14926
2026-01-01 20:55:21.68	272.18	16.91	-39.4	-39.6	14.6	5.72e-04	0	45	0	23244832768	45	14916
2026-01-01 20:55:24.67	273.19	16.94	-39.4	-39.6	14.6	4.77e-04	0	45	0	23588765696	45	14901
2026-01-01 20:55:27.67	274.21	16.96	-39.4	-39.6	14.6	3.62e-04	0	45	0	23915921408	45	14906
2026-01-01 20:55:30.66	275.22	16.97	-39.5	-39.8	14.6	3.58e-04	0	45	0	24251465728	45	15161
2026-01-01 20:55:33.66	276.24	16.97	-39.4	-39.6	14.6	2.86e-04	0	45	0	24595398656	45	14881
2026-01-01 20:55:36.65	277.25	16.97	-39.5	-39.7	14.6	2.91e-04	0	45	0	24930942976	45	15037
2026-01-01 20:55:39.66	278.27	16.96	-39.5	-39.8	14.6	2.96e-04	0	45	0	25266487296	45	15197
2026-01-01 20:55:42.65	279.29	16.94	-39.7	-40.0	14.6	3.29e-04	0	45	0	25602031616	45	15483
2026-01-01 20:55:45.64	280.30	16.92	-39.6	-39.9	14.6	3.24e-04	0	45	0	25945964544	45	15347
2026-01-01 20:55:48.65	281.31	16.88	-39.7	-40.0	14.5	3.86e-04	0	45	0	26281508864	45	15507
2026-01-01 20:55:51.65	282.32	16.84	-39.8	-40.0	14.5	4.67e-04	0	45	0	26617053184	45	15642
2026-01-01 20:55:54.64	283.32	16.79	-39.8	-40.1	14.5	6.10e-04	0	45	0	26952597504	45	15678
2026-01-01 20:55:57.64	284.32	16.74	-39.8	-40.1	14.5	6.15e-04	0	45	0	27296530432	45	15710
2026-01-01 20:56:00.62	285.31	16.67	-39.9	-40.1	14.5	7.72e-04	0	45	0	27623686144	45	15736
2026-01-01 20:56:03.61	286.30	16.60	-39.9	-40.1	14.5	7.06e-04	0	45	0	27959230464	45	15785
2026-01-01 20:56:06.61	287.28	16.52	-39.9	-40.2	14.5	6.39e-04	0	45	0	28303163392	45	15868
2026-01-01 20:56:09.61	288.26	16.44	-39.9	-40.1	14.6	4.10e-04	0	45	0	28638707712	45	15755
2026-01-01 20:56:12.61	289.23	16.35	-40.0	-40.2	14.6	2.48e-04	0	45	0	28974252032	45	15909
2026-01-01 20:56:15.60	290.19	16.25	-40.0	-40.3	14.6	4.58e-04	0	45	0	29309796352	45	16018
2026-01-01 20:56:18.59	291.15	16.15	-40.0	-40.2	14.6	3.48e-04	0	45	0	29653729280	45	15918
2026-01-01 20:56:21.57	292.09	16.04	-40.0	-40.2	14.6	4.48e-04	0	45	0	29989273600	45	15976
2026-01-01 20:56:24.56	293.03	15.93	-40.0	-40.3	14.7	3.43e-04	0	45	0	30316429312	46	15148
2026-01-01 20:56:27.54	293.96	15.81	-40.0	-40.3	14.7	3.86e-04	0	45	0	30660362240	46	15164
2026-01-01 20:56:30.53	294.88	15.68	-40.3	-40.5	14.7	4.39e-04	0	45	0	30995906560	46	15610
2026-01-01 20:56:33.53	295.79	15.55	-40.2	-40.4	14.7	4.39e-04	0	45	0	31331450880	46	15390
2026-01-01 20:56:36.53	296.70	15.41	-40.1	-40.4	14.7	4.43e-04	0	45	0	31666995200	46	15297
2026-01-01 20:56:39.51	297.59	15.27	-40.2	-40.5	14.7	3.43e-04	0	45	0	32002539520	46	15518
2026-01-01 20:56:42.51	298.48	15.12	-40.2	-40.4	14.7	3.77e-04	0	45	0	32338083840	46	15409
2026-01-01 20:56:45.52	299.35	14.97	-40.2	-40.5	14.7	3.96e-04	0	45	0	32673628160	46	15477
2026-01-01 20:56:48.52	300.22	14.82	-40.3	-40.6	14.7	3.34e-04	0	45	0	33009172480	46	15688
2026-01-01 20:56:51.52	301.07	14.66	-40.4	-40.7	14.6	4.82e-04	0	45	0	33353105408	46	15839
2026-01-01 20:56:54.51	301.91	14.49	-40.3	-40.6	14.7	4.34e-04	0	45	0	33688649728	46	15672
2026-01-01 20:56:57.51	302.75	14.33	-40.4	-40.7	14.7	4.91e-04	0	45	0	34024194048	46	15868
2026-01-01 20:57:00.50	303.57	14.16	-40.4	-40.7	14.7	4.91e-04	0	45	0	34359738368	46	15840
2026-01-01 20:57:03.50	304.38	13.99	-40.5	-40.7	14.7	4.39e-04	0	45	0	34703671296	46	15945
2026-01-01 20:57:06.49	305.18	13.81	-40.5	-40.8	14.7	4.77e-04	0	45	0	35039215616	46	16068
2026-01-01 20:57:09.49	305.96	13.63	-40.5	-40.8	14.8	3.43e-04	0	45	0	35374759936	46	16058
2026-01-01 20:57:12.48	306.74	13.45	-40.6	-40.8	14.8	3.48e-04	0	45	0	35710304256	47	15270
2026-01-01 20:57:15.48	307.51	13.27	-40.8	-41.0	14.7	5.39e-04	0	45	0	36054237184	47	15601
2026-01-01 20:57:18.47	308.26	13.08	-40.8	-41.0	14.7	4.86e-04	0	45	0	36381392896	47	15578
2026-01-01 20:57:21.45	309.00	12.90	-40.8	-41.0	14.7	5.39e-04	0	45	0	36716937216	47	15650
2026-01-01 20:57:24.43	309.73	12.71	-40.9	-41.1	14.7	6.15e-04	0	45	0	37060870144	47	15758
2026-01-01 20:57:27.41	310.44	12.52	-41.1	-41.3	14.6	7.49e-04	0	45	0	37388025856	47	16090
2026-01-01 20:57:30.40	311.15	12.32	-41.8	-42.0	14.8	3.53e-04	0	45	0	37723570176	49	15594
2026-01-01 20:57:33.38	311.85	12.13	-41.8	-42.1	14.8	3.53e-04	0	45	0	38067503104	49	15686
2026-01-01 20:57:36.37	312.54	11.94	-41.9	-42.1	14.8	4.39e-04	0	45	0	38403047424	49	15803
2026-01-01 20:57:39.37	313.22	11.74	-41.9	-42.2	14.8	4.29e-04	0	45	0	38738591744	49	15866
2026-01-01 20:57:42.36	313.88	11.54	-42.1	-42.3	14.8	5.58e-04	0	45	0	39074136064	49	16152
2026-01-01 20:57:45.35	314.54	11.34	-42.0	-42.3	14.8	4.72e-04	0	46	0	39409680384	49	16027
2026-01-01 20:57:48.35	315.18	11.14	-42.1	-42.3	14.7	6.29e-04	0	45	0	39745224704	50	15268
2026-01-01 20:57:51.34	315.82	10.95	-42.1	-42.3	14.7	5.67e-04	0	45	0	40080769024	50	15285
2026-01-01 20:57:54.33	316.44	10.75	-42.0	-42.3	14.8	5.48e-04	0	45	0	40424701952	50	15177
2026-01-01 20:57:57.33	317.06	10.54	-42.2	-42.4	14.7	5.05e-04	0	45	0	40760246272	50	15431
2026-01-01 20:58:00.32	317.66	10.34	-42.0	-42.3	14.8	4.34e-04	0	45	0	41087401984	50	15184
2026-01-01 20:58:03.31	318.26	10.14	-42.1	-42.3	14.7	4.82e-04	0	45	0	41431334912	50	15289
2026-01-01 20:58:06.31	318.85	9.94	-42.2	-42.4	14.7	5.20e-04	0	45	0	41766879232	50	15416
2026-01-01 20:58:09.30	319.42	9.74	-42.4	-42.6	14.6	6.72e-04	0	45	0	42102423552	50	15805
2026-01-01 20:58:12.29	319.99	9.54	-42.3	-42.6	14.6	9.54e-04	0	45	0	42437967872	50	15736
2026-01-01 20:58:15.28	320.54	9.34	-42.4	-42.6	14.6	8.87e-04	0	46	0	42781900800	50	15832
2026-01-01 20:58:18.27	321.09	9.14	-42.4	-42.7	14.6	1.03e-03	0	45	0	43117445120	50	15899
2026-01-01 20:58:21.25	321.63	8.94	-42.5	-42.8	14.6	1.11e-03	0	45	0	43444600832	51	15172
2026-01-01 20:58:24.24	322.16	8.74	-42.8	-43.0	14.4	1.29e-03	0	45	0	43788533760	51	15595
2026-01-01 20:58:27.24	322.68	8.54	-42.9	-43.2	14.4	1.46e-03	0	45	0	44124078080	51	15929
2026-01-01 20:58:30.23	323.19	8.34	-42.9	-43.1	14.4	1.61e-03	0	45	0	44459622400	51	15822
2026-01-01 20:58:33.22	323.70	8.14	-42.8	-43.0	14.4	2.01e-03	0	45	0	44795166720	51	15606
2026-01-01 20:58:36.21	324.19	7.94	-42.9	-43.1	14.3	1.61e-03	0	45	0	45130711040	51	15813
2026-01-01 20:58:39.21	324.68	7.74	-43.0	-43.3	14.3	1.66e-03	0	45	0	45466255360	52	15148
2026-01-01 20:58:42.20	325.16	7.54	-43.2	-43.4	14.2	2.44e-03	0	46	0	45801799680	52	15432
2026-01-01 20:58:45.19	325.64	7.35	-43.1	-43.4	14.2	2.37e-03	0	45	0	46145732608	52	15412
2026-01-01 20:58:48.19	326.10	7.15	-43.0	-43.3	14.3	2.39e-03	0	45	0	46481276928	52	15179
2026-01-01 20:58:51.18	326.56	6.95	-43.2	-43.4	14.3	2.40e-03	0	46	0	46816821248	52	15414
2026-01-01 20:58:54.18	327.01	6.76	-43.0	-43.2	14.3	2.57e-03	0	45	0	47152365568	52	15015
2026-01-01 20:58:57.18	327.46	6.56	-59.9	-63.1	6.2	2.22e-03	0	45	104	47261417472	85	22310
2026-01-01 20:59:00.17	327.89	6.37	-59.9	-63.1	6.2	2.22e-03	0	45	104	47261417472	85	22240
2026-01-01 20:59:03.16	328.32	6.18	-59.8	-63.0	6.2	2.22e-03	0	44	104	47261417472	85	22066
2026-01-01 20:59:06.14	328.74	5.99	-59.7	-62.9	6.2	2.22e-03	0	44	104	47261417472	85	21851
2026-01-01 20:59:09.14	329.16	5.79	-59.8	-63.0	6.2	2.22e-03	0	44	104	47261417472	85	22008
2026-01-01 20:59:12.12	329.57	5.60	-59.6	-62.8	6.2	2.22e-03	0	44	104	47261417472	85	21440
2026-01-01 20:59:15.11	329.97	5.41	-59.6	-62.8	6.2	2.22e-03	0	44	104	47261417472	85	21553
2026-01-01 20:59:18.10	330.36	5.23	-59.5	-62.7	6.2	0.00e+00	0	44	104	47261417472	85	21285
2026-01-01 20:59:21.08	330.75	5.04	-59.6	-62.8	6.2	0.00e+00	0	44	104	47261417472	85	21561
2026-01-01 20:59:24.06	331.14	4.85	-60.9	-64.0	6.2	0.00e+00	0	44	104	47261417472	87	22106
2026-01-01 20:59:27.07	331.52	4.66	-61.6	-64.8	6.2	0.00e+00	0	44	104	47261417472	88	22771
2026-01-01 20:59:30.06	331.89	4.48	-61.9	-65.1	6.2	0.00e+00	0	44	104	47261417472	89	22356
2026-01-01 20:59:33.06	332.26	4.29	-62.1	-65.3	6.2	0.00e+00	0	44	104	47261417472	89	22748
2026-01-01 20:59:36.06	332.62	4.11	-62.2	-65.4	6.2	0.00e+00	0	43	104	47261417472	90	21693
2026-01-01 20:59:39.05	332.98	3.93	-62.2	-65.4	6.2	0.00e+00	0	43	104	47261417472	90	21726
2026-01-01 20:59:42.04	333.33	3.75	-62.2	-65.4	6.2	0.00e+00	0	43	104	47261417472	90	21803
2026-01-01 20:59:45.05	333.67	3.56	-62.1	-65.3	6.2	0.00e+00	0	44	104	47261417472	90	21605
2026-01-01 20:59:48.04	334.01	3.38	-62.1	-65.3	6.2	0.00e+00	0	43	104	47261417472	90	21438
2026-01-01 20:59:51.02	334.35	3.21	-62.0	-65.2	6.2	0.00e+00	0	43	104	47261417472	90	21338
2026-01-01 20:59:54.02	334.68	3.03	-62.0	-65.2	6.2	0.00e+00	0	43	104	47261417472	90	21274
2026-01-01 20:59:57.02	335.00	2.85	-62.0	-65.2	6.2	0.00e+00	0	43	104	47261417472	90	21232
2026-01-01 21:00:00.02	335.33	2.67	-61.9	-65.2	6.2	0.00e+00	0	43	104	47261417472	90	21121
2026-01-01 21:00:03.01	335.64	2.50	-61.9	-65.1	6.2	0.00e+00	0	43	104	47261417472	90	21070
2026-01-01 21:00:06.01	335.95	2.32	-61.9	-65.1	6.2	0.00e+00	0	43	104	47261417472	90	21034
2026-01-01 21:00:09.00	336.26	2.15	-61.9	-65.1	6.2	0.00e+00	0	43	104	47261417472	90	20964

#Closed at: 2026-01-01 21:00:11
#Recorded file [47261 MB]: D:/lorett/data/31004_260101_235057.dat