passes_logs/2026/01/01/R3.2S_Murmansk/R3.2S_Murmansk__20260101_013427_AQUA_rec.log

#Pass ID: 20260101_013427_AQUA
#Satellite: AQUA
#Configuration: AQUA
#almurnet v.1.7.20251203
#Start time: 2026-01-01 01:34:30

#Version: 2.2.20231116
#Station: R3.2S_Murmansk
#Location: 33.079688 lon 68.888172 lat
#TLE: 1 27424U 02022A   25364.96158943  .00001951  00000+0  40088-3 0  9998
#TLE: 2 27424  98.4061 326.1389 0001917  95.3187 305.7939 14.61780362258696

#Time	Az	El	Level	Level2	SNR	BER	BlckErr	Temp	State	Recorded	gain1	gain2
2026-01-01 01:34:30.08	22.09	2.15	-59.6	-78.8	3.8	7.44e-01	0	33	0	0	88	32034
2026-01-01 01:34:33.06	22.18	2.35	-59.6	-78.6	3.8	7.45e-01	0	34	104	0	87	33170
2026-01-01 01:34:36.05	22.26	2.54	-59.6	-78.5	3.8	7.47e-01	0	34	104	0	87	32681
2026-01-01 01:34:39.03	22.35	2.74	-59.6	-78.3	3.8	7.44e-01	0	34	104	0	87	32154
2026-01-01 01:34:42.03	22.44	2.94	-59.5	-78.3	3.8	7.48e-01	0	34	104	0	87	31994
2026-01-01 01:34:45.01	22.53	3.14	-59.5	-78.1	3.8	7.45e-01	0	34	104	0	87	31197
2026-01-01 01:34:47.99	22.62	3.35	-59.4	-77.3	3.8	7.48e-01	0	34	104	0	87	28416
2026-01-01 01:34:50.99	22.71	3.55	-59.2	-76.6	3.8	7.45e-01	0	34	104	0	87	26236
2026-01-01 01:34:54.00	22.80	3.76	-59.3	-76.8	3.8	7.47e-01	0	34	104	0	87	26824
2026-01-01 01:34:57.00	22.90	3.97	-59.0	-75.9	3.8	7.43e-01	0	34	104	0	87	24208
2026-01-01 01:35:00.00	22.99	4.18	-58.2	-73.2	3.8	7.44e-01	0	34	104	0	85	19997
2026-01-01 01:35:03.00	23.09	4.40	-56.9	-70.1	3.8	7.47e-01	0	34	104	0	82	16559
2026-01-01 01:35:06.01	23.19	4.61	-55.9	-68.3	3.8	7.46e-01	0	35	104	0	80	15120
2026-01-01 01:35:09.00	23.29	4.83	-55.7	-68.3	3.8	7.46e-01	0	34	104	0	80	15184
2026-01-01 01:35:11.99	23.39	5.05	-56.4	-69.5	3.8	7.47e-01	0	34	104	0	80	17316
2026-01-01 01:35:15.00	23.49	5.27	-59.3	-76.5	3.8	7.47e-01	0	35	104	0	86	27696
2026-01-01 01:35:17.99	23.60	5.49	-54.6	-66.7	3.8	7.44e-01	0	35	104	0	78	14146
2026-01-01 01:35:20.99	23.70	5.71	-53.9	-65.8	3.8	7.44e-01	0	34	104	0	77	13439
2026-01-01 01:35:23.99	23.81	5.94	-57.8	-72.7	3.8	7.44e-01	0	35	104	0	83	21061
2026-01-01 01:35:26.97	23.92	6.17	-54.7	-66.9	3.8	7.48e-01	0	35	104	0	78	14402
2026-01-01 01:35:29.95	24.03	6.40	-54.1	-66.0	3.8	7.45e-01	0	35	104	0	77	13783
2026-01-01 01:35:32.94	24.14	6.63	-59.4	-76.5	3.8	7.49e-01	0	35	104	0	86	27410
2026-01-01 01:35:35.93	24.25	6.87	-54.1	-66.0	3.9	7.45e-01	0	35	104	0	77	13772
2026-01-01 01:35:38.93	24.37	7.10	-53.5	-65.3	3.8	7.43e-01	0	35	104	0	76	13490
2026-01-01 01:35:41.92	24.49	7.34	-59.3	-75.8	3.8	7.46e-01	0	35	104	0	86	25390
2026-01-01 01:35:44.90	24.61	7.59	-53.9	-65.6	3.9	7.45e-01	0	35	104	0	76	13956
2026-01-01 01:35:47.90	24.73	7.83	-53.0	-64.6	3.8	7.44e-01	0	35	104	0	75	13147
2026-01-01 01:35:50.90	24.85	8.08	-57.8	-71.8	3.8	7.46e-01	0	35	104	0	83	19119
2026-01-01 01:35:53.91	24.98	8.33	-53.6	-65.3	3.9	7.47e-01	0	35	104	0	76	13459
2026-01-01 01:35:56.90	25.10	8.58	-53.1	-64.8	3.8	7.47e-01	0	35	104	0	75	13424
2026-01-01 01:35:59.90	25.23	8.84	-57.8	-71.7	3.9	7.50e-01	0	35	104	0	83	18869
2026-01-01 01:36:02.90	25.36	9.10	-54.2	-66.0	3.8	7.43e-01	0	35	104	0	77	13885
2026-01-01 01:36:05.89	25.50	9.36	-53.6	-65.3	3.8	7.44e-01	0	35	104	0	76	13418
2026-01-01 01:36:08.87	25.63	9.62	-58.1	-71.7	3.8	7.47e-01	0	35	104	0	83	18926
2026-01-01 01:36:11.87	25.77	9.89	-53.4	-65.1	3.9	7.46e-01	0	35	104	0	76	13129
2026-01-01 01:36:14.88	25.92	10.16	-52.7	-64.1	3.8	7.47e-01	0	35	104	0	74	13199
2026-01-01 01:36:17.88	26.06	10.44	-57.6	-71.2	3.8	7.47e-01	0	35	104	0	82	18820
2026-01-01 01:36:20.89	26.21	10.72	-53.1	-64.6	3.8	7.44e-01	0	35	104	0	75	13222
2026-01-01 01:36:23.89	26.36	11.00	-52.9	-64.4	3.8	7.44e-01	0	35	104	0	74	13594
2026-01-01 01:36:26.89	26.51	11.28	-59.6	-75.9	3.8	7.48e-01	0	35	104	0	86	25562
2026-01-01 01:36:29.89	26.66	11.57	-53.1	-64.6	3.8	7.42e-01	0	35	104	0	75	13175
2026-01-01 01:36:32.88	26.82	11.86	-52.3	-63.7	3.9	7.46e-01	0	35	104	0	73	13382
2026-01-01 01:36:35.87	26.98	12.16	-59.6	-75.6	3.8	7.48e-01	0	35	104	0	86	24857
2026-01-01 01:36:38.85	27.15	12.45	-53.0	-64.6	3.8	7.45e-01	0	35	104	0	75	13182
2026-01-01 01:36:41.85	27.32	12.76	-52.8	-64.3	3.8	7.43e-01	0	35	104	0	74	13526
2026-01-01 01:36:44.86	27.49	13.07	-57.4	-70.6	3.9	7.45e-01	0	35	104	0	82	17589
2026-01-01 01:36:47.84	27.66	13.38	-52.7	-64.2	3.8	7.45e-01	0	35	104	0	74	13275
2026-01-01 01:36:50.85	27.84	13.69	-52.2	-63.5	3.9	7.44e-01	0	35	104	0	73	13078
2026-01-01 01:36:53.84	28.02	14.01	-59.6	-75.6	3.8	7.46e-01	0	35	104	0	86	24854
2026-01-01 01:36:56.83	28.21	14.34	-52.6	-64.1	3.9	7.44e-01	0	36	104	0	74	13127
2026-01-01 01:36:59.84	28.40	14.67	-52.0	-63.4	3.8	7.41e-01	0	35	104	0	73	12843
2026-01-01 01:37:02.84	28.60	15.00	-57.3	-70.4	3.8	7.47e-01	0	35	104	0	82	17108
2026-01-01 01:37:05.83	28.80	15.34	-52.3	-63.7	3.9	7.50e-01	0	36	104	0	73	13369
2026-01-01 01:37:08.84	29.00	15.68	-52.0	-63.3	3.9	7.45e-01	0	36	104	0	73	12760
2026-01-01 01:37:11.85	29.21	16.04	-59.6	-75.8	3.8	7.48e-01	0	35	104	0	87	23868
2026-01-01 01:37:14.86	29.43	16.39	-52.4	-63.8	3.9	7.42e-01	0	35	104	0	74	12683
2026-01-01 01:37:17.87	29.65	16.75	-52.3	-63.7	3.8	7.44e-01	0	35	104	0	73	13278
2026-01-01 01:37:20.88	29.87	17.12	-57.4	-70.4	3.9	7.43e-01	0	35	104	0	82	17158
2026-01-01 01:37:23.87	30.10	17.49	-52.2	-63.6	3.9	7.42e-01	0	35	104	0	73	13151
2026-01-01 01:37:26.86	30.34	17.87	-52.0	-63.3	3.9	7.44e-01	0	35	104	0	73	12704
2026-01-01 01:37:29.85	30.58	18.25	-59.7	-75.5	3.8	7.45e-01	0	35	104	0	87	23204
2026-01-01 01:37:32.84	30.82	18.64	-52.6	-64.1	3.8	7.47e-01	0	35	104	0	74	13171
2026-01-01 01:37:35.84	31.08	19.03	-51.9	-63.2	3.8	7.46e-01	0	35	104	0	72	13261
2026-01-01 01:37:38.84	31.34	19.44	-59.7	-75.5	3.8	7.44e-01	0	36	104	0	87	23245
2026-01-01 01:37:41.82	31.61	19.84	-52.6	-64.0	3.8	7.45e-01	0	36	104	0	74	13007
2026-01-01 01:37:44.82	31.88	20.26	-52.4	-63.7	3.8	7.44e-01	0	36	104	0	73	13413
2026-01-01 01:37:47.81	32.16	20.68	-56.9	-69.5	3.8	7.45e-01	0	35	104	0	81	16353
2026-01-01 01:37:50.81	32.46	21.11	-52.3	-63.5	3.9	7.47e-01	0	35	104	0	73	13097
2026-01-01 01:37:53.82	32.76	21.55	-52.1	-63.4	3.8	7.46e-01	0	35	104	0	73	12951
2026-01-01 01:37:56.82	33.07	22.00	-57.1	-69.8	3.9	7.48e-01	0	36	104	0	81	16980
2026-01-01 01:37:59.81	33.38	22.45	-52.3	-63.5	3.9	7.43e-01	0	35	104	0	73	13080
2026-01-01 01:38:02.81	33.71	22.91	-52.2	-63.6	3.8	7.47e-01	0	36	104	0	73	13132
2026-01-01 01:38:05.82	34.05	23.38	-59.7	-75.2	3.8	7.46e-01	0	36	104	0	87	22519
2026-01-01 01:38:08.80	34.39	23.86	-52.7	-64.2	3.9	7.49e-01	0	36	104	0	74	13271
2026-01-01 01:38:11.80	34.75	24.35	-52.5	-63.8	3.8	7.42e-01	0	36	104	0	74	12783
2026-01-01 01:38:14.80	35.12	24.84	-59.8	-75.2	3.8	7.46e-01	0	35	104	0	87	22391
2026-01-01 01:38:17.81	35.50	25.35	-52.8	-64.1	3.8	7.46e-01	0	36	104	0	74	13211
2026-01-01 01:38:20.81	35.90	25.87	-52.6	-64.0	3.9	7.44e-01	0	36	104	0	74	13089
2026-01-01 01:38:23.81	36.30	26.39	-57.0	-69.5	3.9	7.48e-01	0	36	104	0	81	16473
2026-01-01 01:38:26.81	36.72	26.92	-52.4	-63.7	3.8	7.46e-01	0	36	104	0	74	12610
2026-01-01 01:38:29.80	37.16	27.47	-52.0	-63.2	3.8	7.43e-01	0	36	104	0	73	12627
2026-01-01 01:38:32.79	37.61	28.02	-57.0	-69.6	3.8	7.48e-01	0	36	104	0	81	16653
2026-01-01 01:38:35.79	38.08	28.58	-52.5	-63.8	3.8	7.46e-01	0	36	104	0	74	12678
2026-01-01 01:38:38.78	38.56	29.16	-52.2	-63.5	3.8	7.45e-01	0	36	104	0	73	13067
2026-01-01 01:38:41.77	39.06	29.74	-59.7	-73.7	3.8	7.44e-01	0	36	104	0	86	19877
2026-01-01 01:38:44.77	39.58	30.34	-52.4	-63.8	3.9	7.45e-01	0	36	104	0	74	12753
2026-01-01 01:38:47.76	40.12	30.95	-52.1	-63.4	3.8	7.44e-01	0	36	104	0	73	12818
2026-01-01 01:38:50.76	40.68	31.56	-59.4	-73.8	3.8	7.49e-01	0	36	104	0	86	20244
2026-01-01 01:38:53.77	41.27	32.20	-52.6	-63.9	3.8	7.44e-01	0	35	104	0	74	12933
2026-01-01 01:38:56.76	41.87	32.84	-52.5	-63.7	3.8	7.45e-01	0	35	104	0	74	12599
2026-01-01 01:38:59.76	42.51	33.49	-59.3	-73.8	3.8	7.44e-01	0	36	104	0	86	20134
2026-01-01 01:39:02.77	43.17	34.16	-52.9	-64.3	3.8	7.41e-01	0	36	104	0	75	12766
2026-01-01 01:39:05.76	43.85	34.83	-52.8	-64.2	3.8	7.43e-01	0	36	104	0	74	13278
2026-01-01 01:39:08.78	44.57	35.52	-60.1	-75.5	3.8	7.48e-01	0	36	104	0	87	23167
2026-01-01 01:39:11.78	45.32	36.22	-53.4	-64.9	3.9	7.44e-01	0	36	104	0	76	12844
2026-01-01 01:39:14.78	46.10	36.93	-53.5	-64.9	3.8	7.49e-01	0	36	104	0	76	12952
2026-01-01 01:39:17.78	46.91	37.65	-60.3	-76.2	3.8	7.48e-01	0	36	104	0	88	23766
2026-01-01 01:39:20.79	47.77	38.38	-53.5	-64.9	3.8	7.47e-01	0	36	104	0	76	12837
2026-01-01 01:39:23.76	48.65	39.11	-53.3	-64.6	3.8	7.44e-01	0	36	104	0	75	13236
2026-01-01 01:39:26.77	49.59	39.87	-59.7	-74.7	3.8	7.47e-01	0	36	104	0	87	21072
2026-01-01 01:39:29.77	50.57	40.62	-52.9	-64.3	3.8	7.49e-01	0	36	104	0	75	12677
2026-01-01 01:39:32.75	51.59	41.38	-52.8	-64.2	3.8	7.48e-01	0	36	104	0	74	13381
2026-01-01 01:39:35.74	52.66	42.15	-56.2	-68.6	3.9	7.43e-01	0	36	104	0	80	15699
2026-01-01 01:39:38.74	53.79	42.93	-52.3	-63.2	3.8	7.46e-01	0	36	104	0	73	12578
2026-01-01 01:39:41.73	54.97	43.71	-52.0	-63.2	3.8	7.44e-01	0	35	104	0	73	12581
2026-01-01 01:39:44.72	56.22	44.49	-59.1	-72.9	3.8	7.48e-01	0	36	104	0	85	19238
2026-01-01 01:39:47.72	57.52	45.28	-52.6	-63.9	3.8	7.45e-01	0	36	104	0	74	12920
2026-01-01 01:39:50.71	58.90	46.06	-51.8	-63.0	3.8	7.43e-01	0	36	104	0	72	13052
2026-01-01 01:39:53.70	60.34	46.84	-58.7	-71.7	3.8	7.48e-01	0	36	104	0	84	17796
2026-01-01 01:39:56.70	61.86	47.62	-51.9	-62.8	3.8	7.44e-01	0	36	104	0	72	12684
2026-01-01 01:39:59.70	63.45	48.39	-51.6	-62.8	3.8	7.44e-01	0	36	104	0	72	12674
2026-01-01 01:40:02.69	65.13	49.15	-58.1	-71.0	3.8	7.45e-01	0	36	104	0	83	17400
2026-01-01 01:40:05.69	66.89	49.90	-53.1	-64.5	3.8	7.44e-01	0	36	104	0	75	13100
2026-01-01 01:40:08.68	68.74	50.63	-52.2	-63.5	3.9	7.43e-01	0	36	104	0	73	13093
2026-01-01 01:40:11.67	70.68	51.33	-51.8	-53.4	19.2	6.04e-01	0	36	0	4194304	72	4330
2026-01-01 01:40:14.68	72.72	52.02	-51.5	-53.1	19.3	6.00e-01	0	36	0	9961472	72	4170
2026-01-01 01:40:17.67	74.84	52.68	-51.6	-53.2	19.3	6.02e-01	0	36	0	15728640	72	4217
2026-01-01 01:40:20.65	77.05	53.30	-51.7	-53.3	19.2	6.01e-01	0	36	0	21495808	72	4278
2026-01-01 01:40:23.66	79.38	53.89	-51.7	-53.2	19.2	6.02e-01	0	36	0	26738688	71	4490
2026-01-01 01:40:26.65	81.79	54.43	-51.8	-53.4	19.3	6.02e-01	0	35	0	32505856	71	4583
2026-01-01 01:40:29.63	84.28	54.93	-52.3	-53.9	19.1	6.05e-01	0	36	0	38273024	72	4585
2026-01-01 01:40:32.62	86.86	55.37	-52.5	-54.2	19.0	6.02e-01	0	36	0	43515904	73	4468
2026-01-01 01:40:35.60	89.51	55.77	-52.4	-54.1	19.1	6.02e-01	0	36	0	49283072	73	4405
2026-01-01 01:40:38.60	92.24	56.10	-52.7	-54.4	19.1	6.01e-01	0	36	0	55050240	73	4559
2026-01-01 01:40:41.59	95.04	56.38	-52.9	-54.7	19.0	6.02e-01	0	36	0	60817408	73	4728
2026-01-01 01:40:44.58	97.87	56.59	-53.3	-55.1	18.9	6.03e-01	0	36	0	66060288	74	4666
2026-01-01 01:40:47.56	100.74	56.73	-53.1	-54.9	18.9	6.02e-01	0	36	0	71827456	74	4548
2026-01-01 01:40:50.57	103.66	56.80	-53.0	-54.8	18.9	6.01e-01	0	36	0	77594624	74	4532
2026-01-01 01:40:53.55	106.56	56.81	-52.8	-54.6	19.0	6.01e-01	0	36	0	82837504	74	4419
2026-01-01 01:40:56.54	109.46	56.74	-53.0	-54.7	19.0	6.01e-01	0	36	0	88604672	74	4483
2026-01-01 01:40:59.53	112.34	56.61	-52.7	-54.4	19.1	6.00e-01	0	36	0	94371840	74	4332
2026-01-01 01:41:02.53	115.20	56.41	-53.0	-54.7	19.0	5.99e-01	0	36	0	99614720	74	4488
2026-01-01 01:41:05.52	118.00	56.14	-52.6	-54.2	19.1	6.02e-01	0	36	0	105381888	74	4238
2026-01-01 01:41:08.51	120.74	55.81	-52.2	-53.8	19.2	6.03e-01	0	36	0	111149056	73	4268
2026-01-01 01:41:11.51	123.41	55.42	-52.3	-54.0	19.1	5.99e-01	0	36	0	116391936	73	4348
2026-01-01 01:41:14.51	126.02	54.98	-52.6	-54.4	19.0	6.01e-01	0	36	0	122159104	73	4552
2026-01-01 01:41:17.49	128.52	54.49	-52.2	-53.9	19.2	6.02e-01	0	36	0	127926272	73	4318
2026-01-01 01:41:20.47	130.93	53.95	-52.0	-53.6	19.2	6.03e-01	0	36	0	133169152	72	4415
2026-01-01 01:41:23.46	133.26	53.37	-51.7	-53.3	19.3	6.01e-01	0	36	0	138936320	72	4246
2026-01-01 01:41:26.46	135.50	52.75	-52.2	-53.9	19.1	6.01e-01	0	36	0	144703488	72	4561
2026-01-01 01:41:29.45	137.64	52.09	-52.0	-53.6	19.2	6.02e-01	0	36	0	150470656	72	4419
2026-01-01 01:41:32.44	139.68	51.41	-52.7	-54.4	19.1	6.00e-01	0	36	0	155713536	73	4565
2026-01-01 01:41:35.41	141.62	50.71	-52.5	-54.2	19.0	6.03e-01	0	36	0	161480704	73	4483
2026-01-01 01:41:38.41	143.49	49.98	-52.7	-54.4	19.0	6.05e-01	0	36	0	167247872	73	4569
2026-01-01 01:41:41.41	145.26	49.23	-52.8	-54.6	19.0	6.01e-01	0	36	0	172490752	73	4670
2026-01-01 01:41:44.41	146.96	48.47	-52.6	-54.2	19.1	6.00e-01	0	36	0	178257920	73	4491
2026-01-01 01:41:47.41	148.57	47.70	-52.6	-54.4	19.1	6.02e-01	0	36	0	184025088	73	4559
2026-01-01 01:41:50.40	150.09	46.92	-52.5	-54.2	19.1	6.01e-01	0	36	0	189792256	73	4485
2026-01-01 01:41:53.41	151.56	46.13	-52.2	-53.8	19.1	6.01e-01	0	36	0	195035136	73	4269
2026-01-01 01:41:56.42	152.95	45.34	-52.5	-54.1	19.0	6.03e-01	0	36	0	200802304	73	4438
2026-01-01 01:41:59.42	154.27	44.55	-52.2	-53.9	19.1	6.02e-01	0	36	0	206569472	73	4298
2026-01-01 01:42:02.43	155.52	43.76	-52.2	-53.9	19.2	6.03e-01	0	36	0	212336640	73	4319
2026-01-01 01:42:05.42	156.71	42.98	-52.3	-53.9	19.1	6.02e-01	0	36	0	217579520	73	4339
2026-01-01 01:42:08.42	157.85	42.20	-52.5	-54.2	19.0	6.04e-01	0	36	0	223346688	73	4476
2026-01-01 01:42:11.41	158.93	41.43	-52.6	-54.3	19.1	6.04e-01	0	36	0	229113856	73	4503
2026-01-01 01:42:14.42	159.97	40.65	-52.8	-54.5	19.0	6.01e-01	0	36	0	234356736	73	4623
2026-01-01 01:42:17.42	160.95	39.89	-52.8	-54.5	19.0	6.01e-01	0	36	0	240123904	73	4639
2026-01-01 01:42:20.40	161.88	39.15	-52.7	-54.4	19.1	5.99e-01	0	36	0	245891072	73	4588
2026-01-01 01:42:23.39	162.78	38.40	-52.8	-54.6	19.0	6.03e-01	0	36	0	251658240	73	4698
2026-01-01 01:42:26.39	163.64	37.67	-52.4	-54.1	19.1	6.00e-01	0	36	0	256901120	73	4426
2026-01-01 01:42:29.38	164.45	36.95	-52.1	-53.7	19.2	6.01e-01	0	36	0	262668288	73	4235
2026-01-01 01:42:32.38	165.24	36.24	-52.0	-53.7	19.2	6.04e-01	0	36	0	268435456	73	4200
2026-01-01 01:42:35.36	165.99	35.54	-51.8	-53.4	19.3	6.02e-01	0	36	0	273678336	72	4328
2026-01-01 01:42:38.35	166.70	34.85	-51.6	-53.2	19.3	5.99e-01	0	36	0	279445504	72	4224
2026-01-01 01:42:41.35	167.39	34.17	-51.2	-52.7	19.4	5.99e-01	0	36	0	285212672	71	4229
2026-01-01 01:42:44.34	168.05	33.50	-51.0	-52.5	19.5	6.02e-01	0	36	0	290455552	71	4111
2026-01-01 01:42:47.33	168.69	32.85	-50.9	-52.4	19.5	6.03e-01	0	36	0	296222720	71	4082
2026-01-01 01:42:50.33	169.30	32.20	-50.9	-52.4	19.5	6.06e-01	0	36	0	301989888	70	4329
2026-01-01 01:42:53.33	169.89	31.57	-51.1	-52.6	19.4	6.03e-01	0	36	0	307757056	70	4411
2026-01-01 01:42:56.32	170.45	30.95	-50.9	-52.5	19.4	5.99e-01	0	36	0	312999936	70	4346
2026-01-01 01:42:59.32	170.99	30.34	-50.9	-52.4	19.5	6.02e-01	0	36	0	318767104	70	4294
2026-01-01 01:43:02.32	171.52	29.74	-51.0	-52.5	19.4	5.99e-01	0	36	0	324534272	70	4370
2026-01-01 01:43:05.31	172.02	29.15	-51.2	-52.8	19.4	6.03e-01	0	36	0	329777152	70	4495
2026-01-01 01:43:08.30	172.50	28.57	-51.2	-52.8	19.3	6.02e-01	0	36	0	335544320	70	4502
2026-01-01 01:43:11.30	172.97	28.00	-51.4	-52.9	19.4	5.99e-01	0	36	0	341311488	70	4584
2026-01-01 01:43:14.30	173.43	27.44	-51.2	-52.8	19.4	6.01e-01	0	36	0	347078656	70	4502
2026-01-01 01:43:17.29	173.86	26.90	-51.3	-52.8	19.3	6.02e-01	0	36	0	352321536	70	4543
2026-01-01 01:43:20.28	174.28	26.36	-51.5	-53.1	19.3	6.02e-01	0	36	0	358088704	70	4686
2026-01-01 01:43:23.27	174.69	25.84	-51.7	-53.3	19.3	6.03e-01	0	36	0	363855872	71	4526
2026-01-01 01:43:26.25	175.08	25.32	-51.7	-53.4	19.2	6.03e-01	0	36	0	369098752	71	4546
2026-01-01 01:43:29.24	175.47	24.82	-51.9	-53.6	19.1	6.02e-01	0	36	0	374865920	71	4657
2026-01-01 01:43:32.22	175.83	24.32	-52.0	-53.7	19.1	6.01e-01	0	36	0	380633088	71	4739
2026-01-01 01:43:35.22	176.19	23.83	-52.0	-53.7	19.2	6.02e-01	0	36	0	385875968	71	4709
2026-01-01 01:43:38.21	176.54	23.35	-51.9	-53.5	19.2	6.02e-01	0	36	0	391643136	71	4640
2026-01-01 01:43:41.19	176.88	22.88	-51.7	-53.3	19.3	6.02e-01	0	36	0	397410304	71	4526
2026-01-01 01:43:44.18	177.20	22.42	-51.6	-53.2	19.2	6.01e-01	0	36	0	403177472	71	4481
2026-01-01 01:43:47.17	177.52	21.96	-51.7	-53.3	19.2	6.00e-01	0	36	0	408420352	71	4519
2026-01-01 01:43:50.15	177.83	21.51	-51.7	-53.3	19.2	6.03e-01	0	36	0	414187520	71	4543
2026-01-01 01:43:53.15	178.13	21.07	-51.7	-53.3	19.2	6.05e-01	0	36	0	419954688	71	4533
2026-01-01 01:43:56.15	178.42	20.64	-51.7	-53.3	19.2	6.01e-01	0	36	0	425197568	71	4544
2026-01-01 01:43:59.13	178.70	20.22	-51.8	-53.4	19.1	6.01e-01	0	36	0	430964736	71	4583
2026-01-01 01:44:02.13	178.98	19.80	-51.6	-53.3	19.2	6.01e-01	0	36	0	436731904	71	4507
2026-01-01 01:44:05.13	179.25	19.39	-51.5	-53.2	19.2	6.03e-01	0	36	0	441974784	71	4449
2026-01-01 01:44:08.13	179.51	18.98	-51.7	-53.3	19.2	6.04e-01	0	36	0	447741952	71	4536
2026-01-01 01:44:11.12	179.76	18.58	-51.5	-53.1	19.2	6.03e-01	0	36	0	453509120	71	4437
2026-01-01 01:44:14.13	180.01	18.19	-51.4	-53.1	19.2	6.01e-01	0	36	0	459276288	71	4398
2026-01-01 01:44:17.14	180.25	17.80	-51.4	-53.0	19.3	6.02e-01	0	35	0	464519168	71	4373
2026-01-01 01:44:20.14	180.49	17.42	-51.4	-53.0	19.2	5.99e-01	0	36	0	470286336	71	4370
2026-01-01 01:44:23.16	180.72	17.05	-51.3	-52.8	19.3	6.02e-01	0	36	0	476053504	71	4288
2026-01-01 01:44:26.16	180.94	16.68	-51.3	-52.9	19.2	5.99e-01	0	36	0	481820672	71	4300
2026-01-01 01:44:29.15	181.16	16.32	-51.2	-52.8	19.3	6.01e-01	0	36	0	487063552	71	4288
2026-01-01 01:44:32.13	181.37	15.97	-51.3	-52.9	19.3	6.01e-01	0	36	0	492830720	71	4306
2026-01-01 01:44:35.13	181.58	15.61	-51.4	-53.0	19.2	6.00e-01	0	36	0	498597888	71	4369
2026-01-01 01:44:38.12	181.79	15.27	-51.4	-53.0	19.2	6.00e-01	0	36	0	503840768	71	4364
2026-01-01 01:44:41.10	181.98	14.93	-51.4	-53.1	19.2	6.00e-01	0	36	0	509607936	71	4402
2026-01-01 01:44:44.09	182.18	14.60	-51.3	-52.9	19.3	6.00e-01	0	36	0	515375104	71	4326
2026-01-01 01:44:47.08	182.37	14.27	-51.3	-52.9	19.3	6.01e-01	0	36	0	520617984	71	4322
2026-01-01 01:44:50.08	182.55	13.94	-51.4	-53.0	19.3	6.04e-01	0	36	0	526385152	71	4360
2026-01-01 01:44:53.06	182.74	13.62	-51.4	-53.1	19.3	6.02e-01	0	36	0	532152320	71	4393
2026-01-01 01:44:56.06	182.91	13.30	-51.4	-53.0	19.2	6.01e-01	0	36	0	537395200	71	4360
2026-01-01 01:44:59.06	183.09	12.99	-51.4	-53.1	19.2	6.01e-01	0	36	0	543162368	71	4394
2026-01-01 01:45:02.05	183.26	12.68	-51.5	-53.2	19.2	6.02e-01	0	36	0	548929536	71	4448
2026-01-01 01:45:05.05	183.43	12.37	-51.6	-53.3	19.2	6.02e-01	0	36	0	554696704	71	4534
2026-01-01 01:45:08.05	183.59	12.07	-51.7	-53.4	19.1	6.01e-01	0	36	0	559939584	71	4555
2026-01-01 01:45:11.03	183.75	11.78	-51.7	-53.4	19.2	6.02e-01	0	36	0	565706752	71	4552
2026-01-01 01:45:14.01	183.91	11.49	-51.8	-53.5	19.1	6.02e-01	0	36	0	571473920	71	4650
2026-01-01 01:45:17.00	184.06	11.20	-51.9	-53.6	19.1	6.00e-01	0	36	0	576716800	71	4671
2026-01-01 01:45:19.99	184.21	10.91	-51.8	-53.6	19.1	6.02e-01	0	36	0	582483968	71	4653
2026-01-01 01:45:22.99	184.36	10.63	-52.0	-53.7	19.0	6.02e-01	0	36	0	588251136	71	4743
2026-01-01 01:45:25.98	184.51	10.35	-52.0	-53.8	19.0	6.00e-01	0	36	0	594018304	71	4777
2026-01-01 01:45:28.99	184.65	10.07	-51.9	-53.6	19.1	6.03e-01	0	36	0	599261184	71	4694
2026-01-01 01:45:31.99	184.79	9.80	-52.0	-53.8	19.0	6.01e-01	0	36	0	605028352	71	4782
2026-01-01 01:45:34.99	184.93	9.53	-52.0	-53.7	19.0	6.02e-01	0	36	0	610795520	71	4755
2026-01-01 01:45:38.00	185.06	9.27	-52.1	-53.9	19.0	6.02e-01	0	36	0	616562688	71	4841
2026-01-01 01:45:41.00	185.20	9.00	-52.1	-53.9	18.9	6.03e-01	0	36	0	621805568	72	4596
2026-01-01 01:45:44.01	185.33	8.74	-52.3	-54.1	18.9	6.02e-01	0	36	0	627572736	72	4673
2026-01-01 01:45:47.01	185.46	8.48	-52.3	-54.1	18.9	6.01e-01	0	36	0	633339904	72	4683
2026-01-01 01:45:50.01	185.58	8.23	-52.4	-54.3	18.8	6.02e-01	0	36	0	638582784	72	4760
2026-01-01 01:45:53.00	185.71	7.98	-52.5	-54.4	18.8	6.01e-01	0	36	0	644349952	72	4830
2026-01-01 01:45:56.00	185.83	7.73	-52.5	-54.5	18.7	6.01e-01	0	36	0	650117120	72	4871
2026-01-01 01:45:59.00	185.95	7.48	-52.6	-54.5	18.8	6.02e-01	0	36	0	655884288	72	4888
2026-01-01 01:46:01.99	186.07	7.24	-52.7	-54.6	18.7	6.02e-01	0	36	0	661127168	73	4686
2026-01-01 01:46:04.99	186.18	7.00	-52.7	-54.7	18.7	6.03e-01	0	36	0	666894336	73	4717
2026-01-01 01:46:08.00	186.30	6.76	-52.6	-54.6	18.7	5.99e-01	0	36	0	672661504	73	4666
2026-01-01 01:46:11.00	186.41	6.52	-52.8	-54.8	18.6	5.99e-01	0	36	0	678428672	73	4811
2026-01-01 01:46:13.99	186.52	6.29	-52.9	-54.9	18.6	6.04e-01	0	36	0	683671552	73	4862
2026-01-01 01:46:16.99	186.63	6.05	-52.9	-55.0	18.5	6.01e-01	0	36	0	689438720	73	4880
2026-01-01 01:46:19.99	186.74	5.82	-53.1	-55.2	18.4	6.01e-01	0	36	0	695205888	73	4987
2026-01-01 01:46:22.98	186.84	5.60	-53.1	-55.2	18.4	6.03e-01	0	36	0	700448768	74	4728
2026-01-01 01:46:25.98	186.94	5.37	-53.1	-55.2	18.4	5.98e-01	0	36	0	706215936	74	4732
2026-01-01 01:46:28.96	187.05	5.15	-53.2	-55.4	18.3	6.02e-01	0	36	0	711983104	74	4835
2026-01-01 01:46:31.96	187.15	4.93	-60.5	-79.8	3.8	7.47e-01	0	36	104	715653120	88	36094
2026-01-01 01:46:34.96	187.25	4.71	-61.1	-80.5	3.9	7.46e-01	0	36	104	715653120	90	34603
2026-01-01 01:46:37.95	187.34	4.49	-61.4	-80.8	3.8	7.45e-01	0	36	104	715653120	90	35748
2026-01-01 01:46:40.94	187.44	4.28	-61.6	-81.0	3.8	7.42e-01	0	36	104	715653120	91	34798
2026-01-01 01:46:43.94	187.54	4.06	-61.7	-81.0	3.8	7.46e-01	0	36	104	715653120	91	34729
2026-01-01 01:46:46.93	187.63	3.85	-61.7	-81.1	3.8	7.48e-01	0	36	104	715653120	91	34980
2026-01-01 01:46:49.92	187.72	3.64	-61.8	-81.1	3.8	7.46e-01	0	36	104	715653120	91	34952
2026-01-01 01:46:52.92	187.81	3.43	-61.8	-81.1	3.8	7.47e-01	0	36	104	715653120	91	35061
2026-01-01 01:46:55.93	187.90	3.23	-61.7	-81.0	3.8	7.47e-01	0	36	104	715653120	91	34772
2026-01-01 01:46:58.93	187.99	3.02	-61.6	-81.0	3.8	7.48e-01	0	36	104	715653120	91	34550
2026-01-01 01:47:01.93	188.08	2.82	-61.6	-81.0	3.8	7.48e-01	0	36	104	715653120	91	34578
2026-01-01 01:47:04.94	188.17	2.61	-61.6	-80.9	3.8	7.47e-01	0	36	104	715653120	91	34410
2026-01-01 01:47:07.93	188.25	2.41	-61.6	-80.9	3.8	7.43e-01	0	36	104	715653120	91	34324
2026-01-01 01:47:10.93	188.34	2.22	-61.6	-80.9	3.8	7.44e-01	0	36	104	715653120	91	34352
2026-01-01 01:47:13.94	188.42	2.02	-61.6	-80.9	3.8	7.44e-01	0	36	104	715653120	91	34279

#Closed at: 2026-01-01 01:47:14
#Recorded file [715 MB]: D:/lorett/data/31004_260101_043429.dat