passes_logs/2026/01/01/R3.2S_Murmansk/R3.2S_Murmansk__20260101_045527_FENGYUN_3D_rec.log

#Pass ID: 20260101_045527_FENGYUN 3D
#Satellite: FENGYUN 3D
#Configuration: FENGYUN 3D
#almurnet v.1.7.20251203
#Start time: 2026-01-01 04:55:28

#Version: 2.2.20231116
#Station: R3.2S_Murmansk
#Location: 33.079688 lon 68.888172 lat
#TLE: 1 43010U 17072A   25365.62623336  .00000074  00000+0  56776-4 0  9992
#TLE: 2 43010  98.9911 332.2217 0001845 134.7096 225.4230 14.19689678421212

#Time	Az	El	Level	Level2	SNR	BER	BlckErr	Temp	State	Recorded	gain1	gain2
2026-01-01 04:55:28.54	37.30	2.05	-59.7	-72.7	3.8	8.47e-01	0	32	0	0	85	16273
2026-01-01 04:55:32.54	37.12	2.29	-59.7	-72.7	3.8	8.46e-01	0	32	104	0	84	17148
2026-01-01 04:55:36.54	36.94	2.54	-59.7	-72.7	3.8	8.46e-01	0	32	104	0	84	17092
2026-01-01 04:55:40.55	36.75	2.78	-59.7	-72.6	3.8	8.45e-01	0	32	104	0	84	17018
2026-01-01 04:55:44.56	36.57	3.03	-59.7	-72.6	3.8	8.46e-01	0	32	104	0	84	16897
2026-01-01 04:55:48.55	36.38	3.28	-59.7	-72.6	3.8	8.45e-01	0	33	104	0	84	16913
2026-01-01 04:55:52.57	36.18	3.54	-59.7	-72.7	3.8	8.45e-01	0	32	104	0	84	17169
2026-01-01 04:55:56.56	35.98	3.79	-59.7	-72.5	3.8	8.45e-01	0	33	104	0	84	16751
2026-01-01 04:56:00.56	35.78	4.05	-59.6	-71.2	3.8	8.46e-01	0	33	104	0	84	14378
2026-01-01 04:56:04.56	35.58	4.31	-59.5	-70.4	4.0	8.44e-01	0	33	104	0	84	13149
2026-01-01 04:56:08.57	35.37	4.57	-59.5	-69.9	4.0	8.43e-01	0	33	104	0	84	12473
2026-01-01 04:56:12.57	35.16	4.83	-56.9	-60.8	9.9	1.61e-02	0	33	0	12582912	80	5522
2026-01-01 04:56:16.55	34.94	5.09	-55.4	-58.2	12.2	1.10e-06	0	33	0	35651584	75	5431
2026-01-01 04:56:20.55	34.72	5.36	-55.0	-57.5	12.9	0.00e+00	0	33	0	57671680	74	5307
2026-01-01 04:56:24.55	34.49	5.63	-51.2	-52.6	15.9	0.00e+00	0	33	0	80740352	69	4033
2026-01-01 04:56:28.55	34.26	5.90	-51.3	-52.8	15.8	0.00e+00	0	33	0	102760448	68	4372
2026-01-01 04:56:32.56	34.03	6.18	-51.3	-52.8	15.8	0.00e+00	0	33	0	125829120	68	4365
2026-01-01 04:56:36.55	33.79	6.46	-51.1	-52.6	15.9	0.00e+00	0	33	0	147849216	68	4254
2026-01-01 04:56:40.54	33.54	6.73	-51.3	-52.7	15.9	0.00e+00	0	33	0	170917888	68	4332
2026-01-01 04:56:44.54	33.29	7.02	-51.0	-52.5	16.0	0.00e+00	0	33	0	192937984	68	4197
2026-01-01 04:56:48.55	33.04	7.30	-51.0	-52.5	16.1	0.00e+00	0	33	0	214958080	68	4197
2026-01-01 04:56:52.54	32.78	7.59	-50.9	-52.3	16.2	0.00e+00	0	33	0	238026752	68	4120
2026-01-01 04:56:56.53	32.51	7.88	-50.7	-52.1	16.3	0.00e+00	0	33	0	260046848	68	4019
2026-01-01 04:57:00.52	32.24	8.17	-50.4	-51.7	16.4	0.00e+00	0	33	0	283115520	67	4091
2026-01-01 04:57:04.50	31.96	8.46	-50.3	-51.6	16.4	0.00e+00	0	33	0	305135616	67	4033
2026-01-01 04:57:08.49	31.68	8.76	-50.2	-51.5	16.5	0.00e+00	0	33	0	328204288	66	4201
2026-01-01 04:57:12.46	31.39	9.06	-50.3	-51.6	16.4	0.00e+00	0	33	0	350224384	66	4287
2026-01-01 04:57:16.45	31.10	9.36	-50.3	-51.7	16.4	0.00e+00	0	33	0	372244480	66	4296
2026-01-01 04:57:20.44	30.80	9.67	-50.2	-51.5	16.5	0.00e+00	0	33	0	395313152	66	4195
2026-01-01 04:57:24.45	30.49	9.98	-50.2	-51.5	16.5	0.00e+00	0	33	0	417333248	66	4225
2026-01-01 04:57:28.45	30.17	10.29	-50.1	-51.3	16.6	0.00e+00	0	33	0	440401920	66	4135
2026-01-01 04:57:32.44	29.85	10.61	-50.0	-51.3	16.6	0.00e+00	0	33	0	462422016	66	4110
2026-01-01 04:57:36.44	29.52	10.93	-49.8	-51.0	16.7	0.00e+00	0	34	0	484442112	66	3981
2026-01-01 04:57:40.42	29.18	11.25	-49.8	-51.0	16.7	0.00e+00	0	33	0	507510784	66	3983
2026-01-01 04:57:44.42	28.83	11.57	-49.7	-50.9	16.8	0.00e+00	0	33	0	529530880	65	4161
2026-01-01 04:57:48.42	28.48	11.90	-49.5	-50.7	16.8	0.00e+00	0	33	0	552599552	65	4070
2026-01-01 04:57:52.43	28.11	12.23	-49.4	-50.6	16.9	0.00e+00	0	34	0	574619648	65	4044
2026-01-01 04:57:56.42	27.74	12.57	-49.2	-50.4	17.0	0.00e+00	0	33	0	596639744	65	3929
2026-01-01 04:58:00.42	27.36	12.91	-49.2	-50.4	16.9	0.00e+00	0	34	0	619708416	64	4185
2026-01-01 04:58:04.42	26.97	13.25	-49.1	-50.3	17.0	0.00e+00	0	34	0	641728512	64	4115
2026-01-01 04:58:08.39	26.58	13.59	-49.3	-50.5	16.9	0.00e+00	0	33	0	664797184	64	4232
2026-01-01 04:58:12.38	26.17	13.94	-49.2	-50.4	16.9	0.00e+00	0	33	0	686817280	64	4153
2026-01-01 04:58:16.37	25.75	14.29	-49.0	-50.2	17.0	0.00e+00	0	34	0	708837376	64	4080
2026-01-01 04:58:20.35	25.32	14.65	-49.0	-50.1	17.1	0.00e+00	0	34	0	731906048	64	4036
2026-01-01 04:58:24.35	24.88	15.01	-49.0	-50.1	17.1	0.00e+00	0	34	0	753926144	64	4038
2026-01-01 04:58:28.34	24.43	15.37	-48.7	-49.8	17.2	0.00e+00	0	33	0	776994816	64	3903
2026-01-01 04:58:32.33	23.97	15.74	-48.5	-49.7	17.3	0.00e+00	0	34	0	799014912	63	4059
2026-01-01 04:58:36.34	23.49	16.11	-48.5	-49.6	17.2	0.00e+00	0	34	0	822083584	63	4035
2026-01-01 04:58:40.33	23.01	16.48	-48.5	-49.6	17.2	0.00e+00	0	34	0	844103680	63	4025
2026-01-01 04:58:44.32	22.51	16.86	-48.6	-49.7	17.2	0.00e+00	0	33	0	866123776	63	4096
2026-01-01 04:58:48.30	22.00	17.24	-48.7	-49.9	17.2	0.00e+00	0	33	0	889192448	63	4155
2026-01-01 04:58:52.30	21.47	17.62	-48.5	-49.6	17.3	0.00e+00	0	34	0	911212544	63	4037
2026-01-01 04:58:56.31	20.93	18.01	-48.2	-49.3	17.3	0.00e+00	0	34	0	934281216	62	4125
2026-01-01 04:59:00.30	20.38	18.40	-48.2	-49.4	17.4	0.00e+00	0	34	0	956301312	62	4148
2026-01-01 04:59:04.30	19.81	18.80	-47.8	-48.9	17.5	0.00e+00	0	34	0	979369984	62	3924
2026-01-01 04:59:08.29	19.22	19.19	-47.8	-48.9	17.5	0.00e+00	0	34	0	1001390080	62	3955
2026-01-01 04:59:12.28	18.62	19.59	-47.9	-49.0	17.4	0.00e+00	0	34	0	1024458752	62	3973
2026-01-01 04:59:16.27	18.01	20.00	-47.7	-48.8	17.5	0.00e+00	0	34	0	1046478848	61	4113
2026-01-01 04:59:20.26	17.37	20.40	-47.6	-48.7	17.5	0.00e+00	0	34	0	1068498944	61	4085
2026-01-01 04:59:24.26	16.72	20.81	-47.4	-48.5	17.6	0.00e+00	0	34	0	1091567616	61	3986
2026-01-01 04:59:28.25	16.05	21.23	-47.6	-48.6	17.5	0.00e+00	0	34	0	1113587712	61	4042
2026-01-01 04:59:32.25	15.37	21.64	-47.2	-48.3	17.6	0.00e+00	0	34	0	1136656384	61	3872
2026-01-01 04:59:36.25	14.66	22.06	-47.2	-48.3	17.6	0.00e+00	0	34	0	1158676480	60	4112
2026-01-01 04:59:40.24	13.93	22.48	-47.3	-48.4	17.5	0.00e+00	0	34	0	1181745152	60	4175
2026-01-01 04:59:44.25	13.19	22.90	-47.2	-48.2	17.6	0.00e+00	0	33	0	1203765248	60	4087
2026-01-01 04:59:48.26	12.42	23.32	-47.1	-48.2	17.6	0.00e+00	0	34	0	1225785344	60	4063
2026-01-01 04:59:52.26	11.63	23.75	-47.1	-48.1	17.6	0.00e+00	0	34	0	1248854016	60	4032
2026-01-01 04:59:56.26	10.81	24.17	-47.0	-48.0	17.6	0.00e+00	0	34	0	1270874112	60	3987
2026-01-01 05:00:00.26	9.98	24.60	-47.1	-48.1	17.6	0.00e+00	0	34	0	1293942784	60	4041
2026-01-01 05:00:04.27	9.12	25.02	-47.1	-48.2	17.6	0.00e+00	0	34	0	1315962880	59	4293
2026-01-01 05:00:08.27	8.24	25.45	-47.1	-48.1	17.6	0.00e+00	0	34	0	1339031552	59	4274
2026-01-01 05:00:12.27	7.33	25.87	-47.0	-48.1	17.6	0.00e+00	0	34	0	1361051648	59	4248
2026-01-01 05:00:16.27	6.40	26.30	-46.7	-47.7	17.7	0.00e+00	0	34	0	1384120320	59	4068
2026-01-01 05:00:20.27	5.45	26.72	-46.8	-47.9	17.7	0.00e+00	0	33	0	1406140416	59	4167
2026-01-01 05:00:24.27	4.47	27.13	-46.7	-47.8	17.7	0.00e+00	0	34	0	1429209088	59	4114
2026-01-01 05:00:28.28	3.45	27.55	-46.6	-47.7	17.7	0.00e+00	0	34	0	1451229184	59	4059
2026-01-01 05:00:32.28	2.42	27.96	-46.7	-47.7	17.7	0.00e+00	0	34	0	1474297856	59	4098
2026-01-01 05:00:36.30	1.35	28.37	-46.9	-47.9	17.7	0.00e+00	0	34	0	1496317952	59	4167
2026-01-01 05:00:40.29	0.27	28.77	-46.7	-47.7	17.7	0.00e+00	0	34	0	1519386624	59	4096
2026-01-01 05:00:44.30	359.15	29.17	-46.7	-47.7	17.7	0.00e+00	0	34	0	1541406720	59	4095
2026-01-01 05:00:48.29	358.00	29.55	-46.6	-47.6	17.7	0.00e+00	0	34	0	1564475392	59	4029
2026-01-01 05:00:52.29	356.83	29.93	-46.3	-47.4	17.8	0.00e+00	0	34	0	1586495488	59	3920
2026-01-01 05:00:56.29	355.63	30.30	-46.5	-47.5	17.8	0.00e+00	0	34	0	1609564160	59	3992
2026-01-01 05:01:00.27	354.41	30.66	-46.5	-47.5	17.8	0.00e+00	0	34	0	1631584256	59	3980
2026-01-01 05:01:04.26	353.16	31.01	-46.3	-47.3	17.9	0.00e+00	0	34	0	1653604352	59	3904
2026-01-01 05:01:08.24	351.88	31.35	-46.3	-47.4	17.8	0.00e+00	0	34	0	1676673024	59	3915
2026-01-01 05:01:12.23	350.57	31.67	-46.2	-47.2	17.9	0.00e+00	0	34	0	1698693120	59	3850
2026-01-01 05:01:16.22	349.24	31.98	-46.2	-47.2	17.8	0.00e+00	0	34	0	1720713216	58	4090
2026-01-01 05:01:20.21	347.88	32.28	-46.2	-47.2	17.8	0.00e+00	0	34	0	1743781888	58	4054
2026-01-01 05:01:24.21	346.50	32.56	-46.4	-47.4	17.8	0.00e+00	0	33	0	1765801984	58	4160
2026-01-01 05:01:28.21	345.09	32.82	-46.3	-47.3	17.8	0.00e+00	0	34	0	1788870656	58	4130
2026-01-01 05:01:32.20	343.66	33.07	-46.5	-47.5	17.8	0.00e+00	0	34	0	1810890752	58	4221
2026-01-01 05:01:36.20	342.21	33.29	-46.2	-47.2	17.8	0.00e+00	0	34	0	1833959424	58	4075
2026-01-01 05:01:40.21	340.73	33.50	-45.9	-46.9	17.9	0.00e+00	0	34	0	1855979520	58	3935
2026-01-01 05:01:44.21	339.24	33.69	-45.8	-46.8	17.8	0.00e+00	0	34	0	1879048192	58	3909
2026-01-01 05:01:48.20	337.74	33.85	-46.3	-47.4	17.7	0.00e+00	0	34	0	1901068288	58	4155
2026-01-01 05:01:52.20	336.21	34.00	-46.1	-47.1	17.8	0.00e+00	0	34	0	1923088384	58	4044
2026-01-01 05:01:56.21	334.67	34.12	-46.0	-47.0	17.8	0.00e+00	0	33	0	1946157056	58	3991
2026-01-01 05:02:00.20	333.13	34.22	-46.4	-47.4	17.7	0.00e+00	0	34	0	1968177152	58	4188
2026-01-01 05:02:04.20	331.58	34.29	-46.3	-47.3	17.8	0.00e+00	0	34	0	1991245824	58	4109
2026-01-01 05:02:08.19	330.02	34.34	-46.0	-47.0	17.9	0.00e+00	0	34	0	2013265920	58	3987
2026-01-01 05:02:12.17	328.47	34.37	-46.1	-47.1	17.8	0.00e+00	0	34	0	2035286016	58	4041
2026-01-01 05:02:16.17	326.90	34.37	-46.3	-47.3	17.7	0.00e+00	0	34	0	2058354688	58	4129
2026-01-01 05:02:20.17	325.34	34.35	-46.2	-47.2	17.8	0.00e+00	0	33	0	2080374784	58	4065
2026-01-01 05:02:24.19	323.77	34.30	-46.0	-46.9	17.8	0.00e+00	0	34	0	2103443456	58	3957
2026-01-01 05:02:28.16	322.23	34.23	-46.3	-47.3	17.8	0.00e+00	0	34	0	2125463552	58	4116
2026-01-01 05:02:32.17	320.68	34.13	-46.2	-47.2	17.8	0.00e+00	0	34	0	2148532224	58	4086
2026-01-01 05:02:36.15	319.15	34.02	-45.9	-46.9	17.9	0.00e+00	0	34	0	2170552320	58	3939
2026-01-01 05:02:40.16	317.62	33.88	-46.0	-47.0	17.8	0.00e+00	0	34	0	2193620992	58	4002
2026-01-01 05:02:44.17	316.10	33.71	-46.3	-47.3	17.8	0.00e+00	0	34	0	2215641088	58	4106
2026-01-01 05:02:48.17	314.61	33.53	-46.1	-47.2	17.8	0.00e+00	0	34	0	2238709760	58	4052
2026-01-01 05:02:52.17	313.13	33.32	-46.2	-47.2	17.8	0.00e+00	0	34	0	2260729856	58	4079
2026-01-01 05:02:56.19	311.67	33.10	-46.1	-47.1	17.8	0.00e+00	0	34	0	2283798528	58	4036
2026-01-01 05:03:00.20	310.23	32.85	-46.2	-47.2	17.8	0.00e+00	0	34	0	2305818624	58	4058
2026-01-01 05:03:04.18	308.82	32.59	-46.5	-47.5	17.7	0.00e+00	0	34	0	2328887296	58	4213
2026-01-01 05:03:08.17	307.43	32.32	-46.5	-47.5	17.7	0.00e+00	0	34	0	2350907392	58	4241
2026-01-01 05:03:12.16	306.07	32.02	-46.2	-47.2	17.8	0.00e+00	0	34	0	2372927488	58	4094
2026-01-01 05:03:16.16	304.73	31.71	-46.3	-47.3	17.8	0.00e+00	0	34	0	2395996160	58	4101
2026-01-01 05:03:20.16	303.41	31.39	-46.4	-47.4	17.8	0.00e+00	0	34	0	2418016256	58	4181
2026-01-01 05:03:24.16	302.12	31.05	-46.9	-48.0	17.6	0.00e+00	0	34	0	2441084928	58	4446
2026-01-01 05:03:28.14	300.87	30.70	-46.6	-47.7	17.8	0.00e+00	0	34	0	2463105024	59	4056
2026-01-01 05:03:32.15	299.63	30.34	-46.8	-47.8	17.7	0.00e+00	0	34	0	2486173696	59	4117
2026-01-01 05:03:36.14	298.43	29.97	-46.8	-47.8	17.7	0.00e+00	0	34	0	2508193792	59	4113
2026-01-01 05:03:40.13	297.25	29.60	-46.9	-47.9	17.7	0.00e+00	0	34	0	2531262464	59	4187
2026-01-01 05:03:44.13	296.10	29.21	-46.7	-47.7	17.8	0.00e+00	0	34	0	2553282560	59	4096
2026-01-01 05:03:48.14	294.98	28.81	-46.8	-47.8	17.7	0.00e+00	0	34	0	2575302656	59	4129
2026-01-01 05:03:52.14	293.88	28.41	-46.7	-47.8	17.7	0.00e+00	0	34	0	2598371328	59	4100
2026-01-01 05:03:56.14	292.81	28.01	-47.0	-48.0	17.6	0.00e+00	0	34	0	2620391424	59	4207
2026-01-01 05:04:00.13	291.78	27.60	-47.1	-48.1	17.7	0.00e+00	0	34	0	2643460096	59	4279
2026-01-01 05:04:04.13	290.76	27.18	-47.1	-48.1	17.6	0.00e+00	0	34	0	2665480192	59	4284
2026-01-01 05:04:08.13	289.77	26.76	-47.2	-48.2	17.6	0.00e+00	0	34	0	2688548864	59	4312
2026-01-01 05:04:12.14	288.81	26.34	-47.1	-48.1	17.6	0.00e+00	0	34	0	2710568960	60	4051
2026-01-01 05:04:16.12	287.88	25.92	-47.0	-48.1	17.7	0.00e+00	0	34	0	2732589056	60	4017
2026-01-01 05:04:20.12	286.97	25.49	-47.0	-48.0	17.7	0.00e+00	0	34	0	2755657728	60	3991
2026-01-01 05:04:24.10	286.08	25.07	-47.2	-48.3	17.6	0.00e+00	0	34	0	2777677824	60	4099
2026-01-01 05:04:28.09	285.22	24.64	-47.0	-48.0	17.6	0.00e+00	0	34	0	2800746496	60	3994
2026-01-01 05:04:32.09	284.38	24.22	-47.0	-48.0	17.6	0.00e+00	0	33	0	2822766592	60	3986
2026-01-01 05:04:36.07	283.57	23.79	-47.2	-48.2	17.6	0.00e+00	0	33	0	2844786688	60	4090
2026-01-01 05:04:40.07	282.78	23.37	-47.4	-48.4	17.5	0.00e+00	0	34	0	2867855360	60	4161
2026-01-01 05:04:44.07	282.00	22.94	-47.3	-48.4	17.5	0.00e+00	0	34	0	2889875456	60	4166
2026-01-01 05:04:48.05	281.25	22.52	-47.4	-48.4	17.5	0.00e+00	0	34	0	2912944128	60	4190
2026-01-01 05:04:52.04	280.52	22.10	-47.2	-48.2	17.6	0.00e+00	0	34	0	2934964224	60	4097
2026-01-01 05:04:56.04	279.81	21.68	-47.3	-48.3	17.6	0.00e+00	0	34	0	2958032896	60	4140
2026-01-01 05:05:00.04	279.12	21.27	-47.1	-48.1	17.7	0.00e+00	0	34	0	2980052992	60	4014
2026-01-01 05:05:04.02	278.45	20.85	-47.2	-48.2	17.6	0.00e+00	0	34	0	3002073088	60	4085
2026-01-01 05:05:08.01	277.79	20.44	-47.3	-48.4	17.6	0.00e+00	0	34	0	3025141760	60	4154
2026-01-01 05:05:11.99	277.15	20.04	-47.5	-48.6	17.5	0.00e+00	0	34	0	3047161856	60	4246
2026-01-01 05:05:15.98	276.53	19.63	-47.5	-48.5	17.5	0.00e+00	0	34	0	3070230528	60	4242
2026-01-01 05:05:19.97	275.93	19.23	-47.6	-48.6	17.5	0.00e+00	0	34	0	3092250624	60	4272
2026-01-01 05:05:23.96	275.34	18.83	-47.9	-49.0	17.4	0.00e+00	0	34	0	3114270720	61	4200
2026-01-01 05:05:27.96	274.77	18.43	-47.8	-48.8	17.5	0.00e+00	0	34	0	3137339392	61	4144
2026-01-01 05:05:31.93	274.21	18.04	-48.2	-49.3	17.4	0.00e+00	0	34	0	3159359488	61	4343
2026-01-01 05:05:35.94	273.67	17.65	-48.2	-49.3	17.4	0.00e+00	0	34	0	3182428160	61	4343
2026-01-01 05:05:39.95	273.13	17.26	-48.2	-49.3	17.4	0.00e+00	0	34	0	3204448256	61	4345
2026-01-01 05:05:43.94	272.62	16.88	-48.3	-49.4	17.3	0.00e+00	0	34	0	3227516928	61	4434
2026-01-01 05:05:47.94	272.11	16.50	-48.6	-49.7	17.3	0.00e+00	0	34	0	3249537024	62	4321
2026-01-01 05:05:51.92	271.62	16.13	-48.6	-49.7	17.3	0.00e+00	0	34	0	3271557120	62	4333
2026-01-01 05:05:55.92	271.15	15.76	-48.9	-50.0	17.2	0.00e+00	0	34	0	3294625792	63	4216
2026-01-01 05:05:59.92	270.68	15.39	-49.1	-50.2	17.2	0.00e+00	0	34	0	3316645888	63	4332
2026-01-01 05:06:03.92	270.22	15.02	-49.0	-50.1	17.2	0.00e+00	0	34	0	3339714560	63	4286
2026-01-01 05:06:07.91	269.78	14.66	-49.1	-50.2	17.1	0.00e+00	0	34	0	3361734656	63	4324
2026-01-01 05:06:11.89	269.35	14.31	-49.3	-50.4	17.1	0.00e+00	0	34	0	3384803328	63	4425
2026-01-01 05:06:15.88	268.93	13.96	-49.3	-50.5	17.0	0.00e+00	0	34	0	3406823424	63	4456
2026-01-01 05:06:19.85	268.52	13.61	-49.3	-50.5	17.0	0.00e+00	0	34	0	3428843520	63	4460
2026-01-01 05:06:23.84	268.12	13.26	-49.4	-50.5	17.1	0.00e+00	0	34	0	3451912192	64	4239
2026-01-01 05:06:27.82	267.72	12.92	-49.4	-50.5	17.0	0.00e+00	0	34	0	3473932288	64	4240
2026-01-01 05:06:31.81	267.34	12.58	-49.4	-50.6	17.0	0.00e+00	0	34	0	3495952384	64	4255
2026-01-01 05:06:35.80	266.97	12.24	-49.6	-50.7	17.0	0.00e+00	0	34	0	3519021056	64	4336
2026-01-01 05:06:39.80	266.60	11.91	-49.6	-50.8	16.9	0.00e+00	0	34	0	3541041152	64	4377
2026-01-01 05:06:43.80	266.24	11.58	-49.6	-50.8	16.9	0.00e+00	0	34	0	3564109824	64	4369
2026-01-01 05:06:47.78	265.90	11.26	-49.8	-51.0	16.9	0.00e+00	0	34	0	3586129920	65	4228
2026-01-01 05:06:51.77	265.55	10.93	-49.9	-51.1	16.8	0.00e+00	0	34	0	3608150016	65	4251
2026-01-01 05:06:55.76	265.22	10.61	-49.9	-51.2	16.8	0.00e+00	0	34	0	3631218688	65	4292
2026-01-01 05:06:59.74	264.90	10.30	-50.0	-51.3	16.7	0.00e+00	0	34	0	3653238784	65	4342
2026-01-01 05:07:03.75	264.58	9.98	-50.0	-51.3	16.7	0.00e+00	0	34	0	3676307456	65	4356
2026-01-01 05:07:07.73	264.26	9.67	-50.0	-51.3	16.7	0.00e+00	0	34	0	3698327552	65	4371
2026-01-01 05:07:11.70	263.96	9.37	-50.0	-51.3	16.7	0.00e+00	0	34	0	3720347648	65	4364
2026-01-01 05:07:15.69	263.66	9.06	-50.2	-51.5	16.5	0.00e+00	0	34	0	3743416320	65	4478
2026-01-01 05:07:19.70	263.37	8.76	-50.2	-51.5	16.6	0.00e+00	0	34	0	3765436416	65	4478
2026-01-01 05:07:23.68	263.08	8.46	-50.2	-51.4	16.6	0.00e+00	0	34	0	3788505088	65	4438
2026-01-01 05:07:27.68	262.80	8.17	-50.2	-51.4	16.6	0.00e+00	0	34	0	3810525184	65	4439
2026-01-01 05:07:31.68	262.53	7.87	-50.4	-51.7	16.5	0.00e+00	0	34	0	3833593856	66	4328
2026-01-01 05:07:35.68	262.26	7.58	-50.5	-51.8	16.4	0.00e+00	0	34	0	3855613952	66	4359
2026-01-01 05:07:39.67	262.00	7.29	-50.6	-51.9	16.4	0.00e+00	0	34	0	3877634048	66	4425
2026-01-01 05:07:43.65	261.74	7.01	-50.6	-51.9	16.4	0.00e+00	0	34	0	3900702720	66	4425
2026-01-01 05:07:47.65	261.49	6.73	-50.7	-52.1	16.3	0.00e+00	0	34	0	3922722816	66	4514
2026-01-01 05:07:51.65	261.24	6.45	-50.7	-52.0	16.3	0.00e+00	0	34	0	3945791488	66	4479
2026-01-01 05:07:55.64	261.00	6.17	-50.9	-52.2	16.2	0.00e+00	0	34	0	3967811584	67	4337
2026-01-01 05:07:59.64	260.76	5.89	-50.9	-52.3	16.2	0.00e+00	0	34	0	3990880256	67	4380
2026-01-01 05:08:03.62	260.53	5.62	-51.1	-52.5	16.0	0.00e+00	0	34	0	4012900352	67	4460
2026-01-01 05:08:07.62	260.30	5.35	-51.1	-52.6	16.0	0.00e+00	0	34	0	4034920448	67	4507
2026-01-01 05:08:11.62	260.07	5.08	-50.9	-52.3	16.1	0.00e+00	0	34	0	4057989120	67	4366
2026-01-01 05:08:15.62	259.85	4.82	-61.1	-74.2	3.8	8.44e-01	0	34	104	4064280576	87	17090
2026-01-01 05:08:19.61	259.64	4.55	-61.6	-74.7	3.8	8.46e-01	0	34	104	4064280576	88	17118
2026-01-01 05:08:23.59	259.43	4.29	-62.0	-75.0	3.8	8.46e-01	0	34	104	4064280576	89	16817
2026-01-01 05:08:27.59	259.22	4.03	-62.2	-75.2	3.8	8.46e-01	0	34	104	4064280576	89	17189
2026-01-01 05:08:31.57	259.02	3.78	-62.2	-75.2	3.8	8.45e-01	0	34	104	4064280576	89	17175
2026-01-01 05:08:35.57	258.82	3.52	-62.1	-75.1	3.8	8.46e-01	0	34	104	4064280576	89	17061
2026-01-01 05:08:39.56	258.62	3.27	-62.0	-75.1	3.8	8.46e-01	0	34	104	4064280576	89	16992
2026-01-01 05:08:43.56	258.43	3.02	-62.0	-75.0	3.8	8.45e-01	0	34	104	4064280576	89	16873
2026-01-01 05:08:47.56	258.24	2.77	-61.9	-75.0	3.8	8.46e-01	0	34	104	4064280576	89	16729
2026-01-01 05:08:51.56	258.05	2.52	-61.9	-75.0	3.8	8.46e-01	0	34	104	4064280576	89	16698
2026-01-01 05:08:55.54	257.87	2.28	-61.9	-74.9	3.8	8.45e-01	0	34	104	4064280576	89	16641
2026-01-01 05:08:59.54	257.69	2.03	-61.9	-74.9	3.8	8.46e-01	0	34	104	4064280576	89	16636

#Closed at: 2026-01-01 05:09:00
#Recorded file [4064 MB]: D:/lorett/data/31004_260101_075528.dat