passes_logs/2026/01/01/R3.2S_Murmansk/R3.2S_Murmansk__20260101_194239_KANOPUS-V-IK_rec.log

#Pass ID: 20260101_194239_KANOPUS-V-IK
#Satellite: KANOPUS-V-IK
#Configuration: KANOPUS-V_8128
#almurnet v.1.7.20251203
#Start time: 2026-01-01 19:42:40

#Version: 2.2.20231116
#Station: R3.2S_Murmansk
#Location: 33.079688 lon 68.888172 lat
#TLE: 1 42825U 17042A   26001.21266440  .00005755  00000+0  24506-3 0  9990
#TLE: 2 42825  97.3692 269.9908 0001826  86.2004 273.9442 15.23363314469954

#Time	Az	El	Level	Level2	SNR	BER	BlckErr	Temp	State	Recorded	gain1	gain2
2026-01-01 19:42:40.43	26.62	2.06	-58.7	-69.5	3.8	7.46e-01	0	31	0	0	86	12384
2026-01-01 19:42:42.44	26.89	2.16	-58.7	-69.5	3.8	7.45e-01	0	31	104	0	85	13126
2026-01-01 19:42:44.46	27.15	2.26	-58.7	-69.4	3.8	7.44e-01	0	32	104	0	85	13091
2026-01-01 19:42:46.47	27.42	2.36	-58.7	-69.4	3.8	7.46e-01	0	32	104	0	85	13104
2026-01-01 19:42:48.48	27.69	2.46	-58.7	-69.4	3.8	7.44e-01	0	32	104	0	85	13091
2026-01-01 19:42:50.49	27.96	2.56	-58.7	-69.5	3.8	7.45e-01	0	32	104	0	85	13124
2026-01-01 19:42:52.50	28.23	2.66	-58.7	-69.4	3.8	7.47e-01	0	32	104	0	85	13101
2026-01-01 19:42:54.52	28.51	2.76	-58.7	-69.4	3.8	7.46e-01	0	32	104	0	85	13108
2026-01-01 19:42:56.53	28.79	2.86	-58.7	-69.4	3.8	7.44e-01	0	32	104	0	85	13108
2026-01-01 19:42:58.55	29.07	2.96	-58.7	-69.4	3.8	7.45e-01	0	32	104	0	85	13077
2026-01-01 19:43:00.56	29.35	3.06	-58.7	-69.5	3.8	7.45e-01	0	32	104	0	85	13124
2026-01-01 19:43:02.58	29.64	3.16	-58.7	-69.4	3.8	7.45e-01	0	32	104	0	85	13079
2026-01-01 19:43:04.60	29.93	3.26	-58.7	-69.4	3.8	7.45e-01	0	32	104	0	85	13102
2026-01-01 19:43:06.60	30.22	3.36	-58.7	-69.5	3.8	7.46e-01	0	32	104	0	85	13135
2026-01-01 19:43:08.60	30.51	3.46	-58.7	-69.4	3.8	7.46e-01	0	32	104	0	85	13088
2026-01-01 19:43:10.62	30.81	3.56	-58.7	-69.4	3.8	7.46e-01	0	32	104	0	85	13072
2026-01-01 19:43:12.63	31.10	3.66	-58.7	-69.4	3.8	7.47e-01	0	32	104	0	85	13080
2026-01-01 19:43:14.64	31.40	3.76	-58.7	-69.4	3.8	7.47e-01	0	32	104	0	85	13047
2026-01-01 19:43:16.65	31.71	3.86	-58.7	-69.4	3.8	7.47e-01	0	32	104	0	85	12999
2026-01-01 19:43:18.67	32.01	3.96	-58.7	-69.4	3.8	7.44e-01	0	32	104	0	85	13087
2026-01-01 19:43:20.68	32.32	4.06	-58.7	-69.4	3.8	7.44e-01	0	32	104	0	85	13072
2026-01-01 19:43:22.69	32.63	4.16	-58.7	-69.4	3.8	7.46e-01	0	32	104	0	85	13023
2026-01-01 19:43:24.70	32.95	4.26	-58.7	-69.4	3.8	7.47e-01	0	32	104	0	85	13063
2026-01-01 19:43:26.72	33.26	4.36	-58.7	-69.4	3.8	7.45e-01	0	33	104	0	85	13080
2026-01-01 19:43:28.73	33.58	4.46	-58.7	-69.4	3.8	7.48e-01	0	32	104	0	85	13060
2026-01-01 19:43:30.74	33.90	4.56	-58.7	-69.4	3.8	7.46e-01	0	32	104	0	85	13064
2026-01-01 19:43:32.75	34.23	4.66	-58.7	-69.4	3.8	7.46e-01	0	33	104	0	85	13096
2026-01-01 19:43:34.76	34.55	4.76	-58.7	-69.4	3.8	7.45e-01	0	33	104	0	85	13048
2026-01-01 19:43:36.78	34.89	4.86	-58.7	-69.4	3.8	7.46e-01	0	33	104	0	85	13091
2026-01-01 19:43:38.79	35.22	4.96	-58.7	-69.4	3.8	7.45e-01	0	33	104	0	85	13047
2026-01-01 19:43:40.80	35.55	5.06	-58.8	-69.5	3.8	7.46e-01	0	33	104	0	85	13213
2026-01-01 19:43:42.82	35.89	5.16	-58.7	-69.4	3.8	7.46e-01	0	33	104	0	85	13061
2026-01-01 19:43:44.83	36.23	5.26	-59.0	-69.7	3.8	7.46e-01	0	33	104	0	85	13470
2026-01-01 19:43:46.83	36.58	5.35	-58.8	-69.5	3.8	7.44e-01	0	33	104	0	85	13168
2026-01-01 19:43:48.83	36.92	5.45	-59.0	-69.7	3.8	7.45e-01	0	33	104	0	85	13448
2026-01-01 19:43:50.84	37.27	5.55	-58.8	-69.5	3.8	7.47e-01	0	33	104	0	85	13247
2026-01-01 19:43:52.85	37.62	5.65	-59.0	-69.7	3.8	7.45e-01	0	33	104	0	85	13538
2026-01-01 19:43:54.86	37.98	5.74	-58.9	-69.6	3.8	7.44e-01	0	33	104	0	86	12526
2026-01-01 19:43:56.87	38.34	5.84	-59.0	-69.8	3.8	7.45e-01	0	33	104	0	86	12834
2026-01-01 19:43:58.88	38.70	5.94	-58.9	-69.6	3.8	7.45e-01	0	33	104	0	86	12609
2026-01-01 19:44:00.89	39.06	6.03	-59.1	-69.8	3.8	7.46e-01	0	33	104	0	86	12857
2026-01-01 19:44:02.90	39.43	6.13	-58.9	-69.6	3.8	7.46e-01	0	33	104	0	86	12645
2026-01-01 19:44:04.91	39.80	6.23	-59.1	-69.8	3.8	7.45e-01	0	33	104	0	86	12870
2026-01-01 19:44:06.91	40.17	6.32	-58.9	-69.7	3.8	7.46e-01	0	33	104	0	86	12684
2026-01-01 19:44:08.91	40.54	6.41	-59.1	-69.8	3.8	7.47e-01	0	33	104	0	86	12879
2026-01-01 19:44:10.93	40.92	6.51	-59.0	-69.6	3.8	7.44e-01	0	33	104	0	86	12663
2026-01-01 19:44:12.95	41.31	6.60	-59.1	-69.8	3.8	7.47e-01	0	33	104	0	86	12890
2026-01-01 19:44:14.95	41.69	6.70	-59.0	-69.7	3.8	7.44e-01	0	33	104	0	86	12713
2026-01-01 19:44:16.96	42.08	6.79	-59.1	-69.8	3.8	7.47e-01	0	33	104	0	86	12929
2026-01-01 19:44:18.97	42.47	6.88	-59.0	-69.7	3.9	7.46e-01	0	33	104	0	86	12751
2026-01-01 19:44:20.98	42.86	6.97	-59.1	-69.9	3.8	7.46e-01	0	33	104	0	86	12961
2026-01-01 19:44:22.99	43.26	7.06	-59.0	-69.7	3.8	7.45e-01	0	33	104	0	86	12750
2026-01-01 19:44:25.00	43.66	7.16	-59.1	-69.8	3.8	7.47e-01	0	33	104	0	86	12937
2026-01-01 19:44:27.00	44.06	7.24	-59.0	-69.7	3.8	7.45e-01	0	33	104	0	86	12734
2026-01-01 19:44:29.01	44.47	7.33	-59.2	-69.8	3.8	7.46e-01	0	33	104	0	86	12945
2026-01-01 19:44:31.02	44.88	7.42	-59.0	-69.7	3.8	7.46e-01	0	33	104	0	86	12797
2026-01-01 19:44:33.03	45.29	7.51	-59.2	-69.9	3.8	7.45e-01	0	33	104	0	86	13041
2026-01-01 19:44:35.04	45.71	7.60	-59.1	-69.7	3.8	7.46e-01	0	33	104	0	86	12810
2026-01-01 19:44:37.05	46.13	7.69	-59.2	-69.9	3.8	7.45e-01	0	33	104	0	86	13061
2026-01-01 19:44:39.06	46.55	7.77	-59.1	-69.8	3.8	7.47e-01	0	33	104	0	86	12835
2026-01-01 19:44:41.07	46.97	7.86	-59.2	-69.9	3.8	7.47e-01	0	33	104	0	86	13091
2026-01-01 19:44:43.08	47.40	7.94	-59.1	-69.8	3.8	7.45e-01	0	33	104	0	86	12854
2026-01-01 19:44:45.09	47.83	8.03	-59.2	-69.9	3.8	7.47e-01	0	33	104	0	86	13017
2026-01-01 19:44:47.10	48.27	8.11	-59.1	-69.8	3.8	7.45e-01	0	33	104	0	86	12938
2026-01-01 19:44:49.10	48.70	8.19	-59.2	-70.0	3.8	7.44e-01	0	33	104	0	86	13149
2026-01-01 19:44:51.12	49.14	8.27	-59.1	-69.9	3.8	7.47e-01	0	33	104	0	86	13030
2026-01-01 19:44:53.12	49.59	8.35	-59.2	-70.0	3.8	7.43e-01	0	33	104	0	86	13136
2026-01-01 19:44:55.13	50.03	8.43	-59.2	-69.9	3.8	7.46e-01	0	33	104	0	86	13012
2026-01-01 19:44:57.15	50.48	8.51	-59.3	-70.0	3.8	7.47e-01	0	33	104	0	86	13160
2026-01-01 19:44:59.16	50.93	8.59	-59.2	-69.9	3.8	7.45e-01	0	33	104	0	86	12998
2026-01-01 19:45:01.17	51.39	8.67	-59.3	-70.0	3.8	7.44e-01	0	33	104	0	86	13170
2026-01-01 19:45:03.18	51.85	8.74	-59.2	-69.9	3.8	7.46e-01	0	33	104	0	86	13028
2026-01-01 19:45:05.19	52.31	8.82	-59.3	-70.0	3.8	7.46e-01	0	33	104	0	86	13181
2026-01-01 19:45:07.20	52.77	8.89	-59.2	-69.9	3.8	7.44e-01	0	33	104	0	86	13013
2026-01-01 19:45:09.21	53.24	8.96	-59.2	-70.0	3.8	7.46e-01	0	33	104	0	86	13161
2026-01-01 19:45:11.23	53.71	9.03	-59.2	-69.9	3.8	7.47e-01	0	33	104	0	86	13074
2026-01-01 19:45:13.24	54.18	9.10	-59.3	-70.0	3.8	7.46e-01	0	33	104	0	86	13229
2026-01-01 19:45:15.25	54.66	9.17	-59.2	-69.9	3.8	7.45e-01	0	33	104	0	86	13019
2026-01-01 19:45:17.26	55.13	9.24	-59.3	-70.0	3.8	7.46e-01	0	33	104	0	86	13208
2026-01-01 19:45:19.26	55.61	9.30	-59.2	-69.9	3.8	7.47e-01	0	33	104	0	86	13066
2026-01-01 19:45:21.26	56.09	9.37	-59.3	-70.0	3.8	7.47e-01	0	33	104	0	86	13186
2026-01-01 19:45:23.27	56.58	9.43	-59.3	-69.9	3.8	7.46e-01	0	33	104	0	86	13051
2026-01-01 19:45:25.28	57.07	9.50	-59.3	-70.0	3.8	7.46e-01	0	33	104	0	86	13251
2026-01-01 19:45:27.29	57.56	9.56	-59.3	-69.9	3.8	7.44e-01	0	33	104	0	86	13107
2026-01-01 19:45:29.30	58.05	9.62	-59.3	-70.0	3.8	7.47e-01	0	33	104	0	86	13235
2026-01-01 19:45:31.32	58.55	9.67	-59.3	-70.0	3.8	7.45e-01	0	33	104	0	86	13111
2026-01-01 19:45:33.33	59.05	9.73	-59.4	-70.1	3.8	7.46e-01	0	33	104	0	86	13293
2026-01-01 19:45:35.34	59.55	9.79	-59.3	-70.0	3.8	7.45e-01	0	33	104	0	86	13160
2026-01-01 19:45:37.35	60.05	9.84	-59.4	-70.1	3.8	7.45e-01	0	33	104	0	86	13274
2026-01-01 19:45:39.36	60.55	9.89	-59.3	-70.0	3.8	7.45e-01	0	33	104	0	86	13158
2026-01-01 19:45:41.37	61.06	9.94	-59.4	-70.1	3.8	7.46e-01	0	33	104	0	86	13272
2026-01-01 19:45:43.38	61.57	9.99	-59.3	-70.0	3.8	7.44e-01	0	33	104	0	86	13144
2026-01-01 19:45:45.40	62.08	10.04	-59.4	-70.1	3.8	7.45e-01	0	33	104	0	86	13279
2026-01-01 19:45:47.41	62.60	10.09	-59.3	-70.0	3.8	7.47e-01	0	33	104	0	86	13175
2026-01-01 19:45:49.41	63.11	10.13	-59.4	-70.1	3.8	7.47e-01	0	33	104	0	86	13306
2026-01-01 19:45:51.43	63.63	10.17	-59.3	-70.0	3.8	7.46e-01	0	33	104	0	86	13162
2026-01-01 19:45:53.43	64.14	10.21	-59.4	-70.1	3.8	7.46e-01	0	33	104	0	86	13325
2026-01-01 19:45:55.44	64.67	10.25	-59.3	-70.0	3.8	7.46e-01	0	33	104	0	86	13214
2026-01-01 19:45:57.45	65.19	10.29	-59.4	-70.1	3.8	7.47e-01	0	34	104	0	86	13323
2026-01-01 19:45:59.45	65.71	10.33	-59.3	-70.0	3.8	7.46e-01	0	33	104	0	86	13143
2026-01-01 19:46:01.47	66.24	10.36	-59.4	-70.1	3.8	7.47e-01	0	33	104	0	86	13386
2026-01-01 19:46:03.47	66.76	10.39	-59.3	-70.0	3.8	7.46e-01	0	33	104	0	86	13211
2026-01-01 19:46:05.49	67.29	10.42	-59.4	-70.1	3.8	7.45e-01	0	33	104	0	86	13325
2026-01-01 19:46:07.50	67.82	10.45	-59.3	-70.0	3.8	7.45e-01	0	33	104	0	86	13224
2026-01-01 19:46:09.51	68.35	10.48	-59.4	-70.1	3.8	7.45e-01	0	33	104	0	86	13399
2026-01-01 19:46:11.52	68.88	10.50	-59.4	-70.1	3.8	7.47e-01	0	33	104	0	86	13266
2026-01-01 19:46:13.53	69.42	10.53	-59.4	-70.2	3.8	7.46e-01	0	34	104	0	86	13421
2026-01-01 19:46:15.54	69.95	10.55	-59.4	-70.1	3.8	7.45e-01	0	33	104	0	86	13345
2026-01-01 19:46:17.54	70.48	10.57	-59.4	-70.1	3.8	7.45e-01	0	33	104	0	86	13350
2026-01-01 19:46:19.55	71.02	10.58	-59.4	-70.1	3.8	7.43e-01	0	33	104	0	86	13278
2026-01-01 19:46:21.55	71.55	10.60	-59.4	-70.1	3.8	7.45e-01	0	33	104	0	86	13411
2026-01-01 19:46:23.56	72.09	10.61	-59.4	-70.1	3.8	7.45e-01	0	33	104	0	86	13358
2026-01-01 19:46:25.58	72.63	10.63	-59.4	-70.2	3.8	7.47e-01	0	33	104	0	86	13446
2026-01-01 19:46:27.59	73.17	10.64	-59.4	-70.1	3.8	7.47e-01	0	33	104	0	86	13273
2026-01-01 19:46:29.60	73.71	10.64	-59.5	-70.2	3.8	7.46e-01	0	33	104	0	86	13444
2026-01-01 19:46:31.61	74.25	10.65	-59.4	-70.1	3.8	7.44e-01	0	34	104	0	86	13337
2026-01-01 19:46:33.62	74.78	10.65	-59.4	-70.1	3.8	7.46e-01	0	34	104	0	86	13359
2026-01-01 19:46:35.63	75.32	10.65	-59.4	-70.1	3.8	7.44e-01	0	33	104	0	86	13320
2026-01-01 19:46:37.63	75.86	10.65	-59.5	-70.2	3.8	7.45e-01	0	33	104	0	86	13453
2026-01-01 19:46:39.65	76.40	10.65	-59.4	-70.1	3.8	7.45e-01	0	33	104	0	86	13332
2026-01-01 19:46:41.66	76.94	10.65	-59.4	-70.1	3.8	7.45e-01	0	33	104	0	86	13401
2026-01-01 19:46:43.67	77.48	10.64	-59.4	-70.1	3.8	7.45e-01	0	33	104	0	86	13326
2026-01-01 19:46:45.67	78.02	10.64	-59.4	-70.1	3.8	7.44e-01	0	34	104	0	87	12641
2026-01-01 19:46:47.66	78.55	10.63	-59.4	-70.1	3.8	7.46e-01	0	34	104	0	87	12565
2026-01-01 19:46:49.65	79.08	10.61	-59.4	-70.1	3.8	7.45e-01	0	34	104	0	87	12644
2026-01-01 19:46:51.66	79.62	10.60	-59.4	-70.1	3.8	7.46e-01	0	33	104	0	87	12595
2026-01-01 19:46:53.64	80.15	10.59	-59.4	-70.2	3.8	7.44e-01	0	33	104	0	87	12668
2026-01-01 19:46:55.64	80.68	10.57	-59.4	-70.1	3.8	7.46e-01	0	33	104	0	87	12583
2026-01-01 19:46:57.64	81.22	10.55	-59.5	-70.1	3.8	7.48e-01	0	34	104	0	87	12638
2026-01-01 19:46:59.63	81.75	10.53	-59.4	-70.1	3.8	7.45e-01	0	33	104	0	87	12602
2026-01-01 19:47:01.64	82.28	10.51	-59.5	-70.1	3.8	7.46e-01	0	33	104	0	87	12654
2026-01-01 19:47:03.64	82.81	10.48	-59.4	-70.1	3.8	7.47e-01	0	33	104	0	87	12574
2026-01-01 19:47:05.63	83.34	10.46	-59.5	-70.1	3.8	7.45e-01	0	33	104	0	87	12658
2026-01-01 19:47:07.63	83.86	10.43	-59.4	-70.1	3.8	7.45e-01	0	34	104	0	87	12601
2026-01-01 19:47:09.63	84.39	10.40	-59.5	-70.2	3.8	7.46e-01	0	33	104	0	87	12694
2026-01-01 19:47:11.64	84.92	10.36	-59.4	-70.1	3.8	7.46e-01	0	33	104	0	87	12589
2026-01-01 19:47:13.66	85.45	10.33	-59.5	-70.1	3.8	7.47e-01	0	33	104	0	87	12635
2026-01-01 19:47:15.68	85.98	10.29	-59.4	-70.1	3.8	7.45e-01	0	33	104	0	87	12562
2026-01-01 19:47:17.70	86.50	10.26	-59.4	-70.2	3.8	7.45e-01	0	33	104	0	87	12679
2026-01-01 19:47:19.71	87.02	10.22	-59.4	-70.1	3.8	7.45e-01	0	33	104	0	87	12570
2026-01-01 19:47:21.72	87.54	10.18	-59.4	-70.1	3.8	7.46e-01	0	33	104	0	87	12616
2026-01-01 19:47:23.73	88.06	10.13	-59.4	-70.0	3.8	7.45e-01	0	33	104	0	87	12493
2026-01-01 19:47:25.75	88.58	10.09	-59.4	-70.1	3.8	7.47e-01	0	34	104	0	87	12622
2026-01-01 19:47:27.76	89.10	10.04	-59.4	-70.1	3.8	7.47e-01	0	34	104	0	87	12562
2026-01-01 19:47:29.77	89.61	10.00	-59.4	-70.1	3.8	7.47e-01	0	34	104	0	87	12633
2026-01-01 19:47:31.79	90.12	9.95	-59.4	-70.0	3.8	7.45e-01	0	34	104	0	87	12515
2026-01-01 19:47:33.81	90.63	9.90	-59.4	-70.1	3.8	7.45e-01	0	33	104	0	87	12621
2026-01-01 19:47:35.82	91.14	9.84	-59.4	-70.1	3.8	7.46e-01	0	33	104	0	87	12534
2026-01-01 19:47:37.84	91.65	9.79	-59.4	-70.1	3.8	7.46e-01	0	33	104	0	87	12555
2026-01-01 19:47:39.85	92.15	9.73	-59.3	-70.0	3.8	7.45e-01	0	34	104	0	87	12493
2026-01-01 19:47:41.87	92.65	9.68	-59.4	-70.1	3.8	7.44e-01	0	34	104	0	87	12539
2026-01-01 19:47:43.88	93.15	9.62	-59.3	-70.0	3.8	7.45e-01	0	33	104	0	87	12457
2026-01-01 19:47:45.90	93.65	9.56	-59.4	-70.1	3.8	7.47e-01	0	33	104	0	87	12549
2026-01-01 19:47:47.91	94.14	9.50	-59.3	-70.0	3.8	7.44e-01	0	34	104	0	87	12467
2026-01-01 19:47:49.93	94.63	9.43	-59.4	-70.0	3.8	7.44e-01	0	34	104	0	87	12507
2026-01-01 19:47:51.94	95.12	9.37	-59.3	-70.0	3.8	7.46e-01	0	34	104	0	87	12446
2026-01-01 19:47:53.95	95.60	9.31	-59.3	-70.0	3.8	7.45e-01	0	33	104	0	87	12504
2026-01-01 19:47:55.97	96.09	9.24	-59.3	-70.0	3.8	7.46e-01	0	33	104	0	87	12395
2026-01-01 19:47:57.99	96.57	9.17	-59.3	-70.0	3.8	7.46e-01	0	34	104	0	87	12498
2026-01-01 19:48:00.01	97.05	9.10	-59.3	-70.0	3.8	7.45e-01	0	34	104	0	87	12416
2026-01-01 19:48:02.01	97.52	9.03	-59.3	-70.0	3.8	7.45e-01	0	34	104	0	87	12450
2026-01-01 19:48:04.03	98.00	8.96	-59.3	-70.0	3.8	7.45e-01	0	34	104	0	87	12460
2026-01-01 19:48:06.05	98.47	8.89	-59.3	-70.0	3.8	7.47e-01	0	33	104	0	87	12427
2026-01-01 19:48:08.06	98.93	8.81	-59.3	-69.9	3.8	7.45e-01	0	34	104	0	87	12357
2026-01-01 19:48:10.08	99.40	8.74	-59.3	-70.0	3.8	7.44e-01	0	34	104	0	87	12474
2026-01-01 19:48:12.10	99.86	8.66	-59.3	-69.9	3.8	7.45e-01	0	33	104	0	87	12354
2026-01-01 19:48:14.12	100.32	8.58	-59.3	-70.0	3.8	7.45e-01	0	33	104	0	87	12489
2026-01-01 19:48:16.13	100.77	8.51	-59.3	-70.0	3.8	7.46e-01	0	33	104	0	87	12404
2026-01-01 19:48:18.15	101.23	8.43	-59.3	-70.0	3.8	7.45e-01	0	34	104	0	87	12454
2026-01-01 19:48:20.16	101.67	8.35	-59.3	-70.0	3.8	7.44e-01	0	34	104	0	87	12381
2026-01-01 19:48:22.18	102.12	8.27	-59.3	-70.1	3.8	7.46e-01	0	34	104	0	87	12539
2026-01-01 19:48:24.20	102.57	8.18	-59.3	-70.0	3.8	7.45e-01	0	34	104	0	87	12431
2026-01-01 19:48:26.21	103.01	8.10	-59.3	-70.0	3.8	7.45e-01	0	34	104	0	87	12487
2026-01-01 19:48:28.23	103.44	8.02	-59.3	-70.0	3.8	7.45e-01	0	33	104	0	87	12466
2026-01-01 19:48:30.24	103.88	7.93	-59.4	-70.1	3.8	7.47e-01	0	33	104	0	87	12548
2026-01-01 19:48:32.25	104.31	7.85	-59.3	-70.0	3.8	7.45e-01	0	33	104	0	87	12471
2026-01-01 19:48:34.27	104.74	7.76	-59.4	-70.1	3.8	7.45e-01	0	33	104	0	87	12525
2026-01-01 19:48:36.29	105.16	7.67	-59.3	-70.0	3.8	7.45e-01	0	33	104	0	87	12503
2026-01-01 19:48:38.30	105.58	7.59	-59.4	-70.1	3.8	7.45e-01	0	33	104	0	87	12567
2026-01-01 19:48:40.31	106.00	7.50	-59.3	-70.0	3.8	7.45e-01	0	34	104	0	87	12480
2026-01-01 19:48:42.33	106.42	7.41	-59.4	-70.1	3.8	7.45e-01	0	33	104	0	87	12544
2026-01-01 19:48:44.35	106.83	7.32	-59.4	-70.1	3.8	7.44e-01	0	34	104	0	87	12556
2026-01-01 19:48:46.36	107.24	7.23	-59.4	-70.1	3.8	7.45e-01	0	33	104	0	87	12613
2026-01-01 19:48:48.37	107.65	7.14	-59.4	-70.0	3.8	7.45e-01	0	34	104	0	87	12503
2026-01-01 19:48:50.38	108.05	7.05	-59.4	-70.1	3.8	7.45e-01	0	33	104	0	87	12580
2026-01-01 19:48:52.39	108.45	6.95	-59.4	-70.1	3.8	7.47e-01	0	34	104	0	87	12573
2026-01-01 19:48:54.41	108.84	6.86	-59.4	-70.1	3.8	7.47e-01	0	33	104	0	87	12610
2026-01-01 19:48:56.43	109.24	6.77	-59.4	-70.1	3.8	7.45e-01	0	34	104	0	87	12557
2026-01-01 19:48:58.44	109.63	6.67	-59.5	-70.2	3.8	7.47e-01	0	34	104	0	87	12701
2026-01-01 19:49:00.46	110.02	6.58	-59.4	-70.1	3.8	7.46e-01	0	34	104	0	87	12591
2026-01-01 19:49:02.47	110.40	6.48	-59.4	-70.1	3.8	7.46e-01	0	34	104	0	87	12642
2026-01-01 19:49:04.49	110.79	6.39	-59.4	-70.1	3.8	7.45e-01	0	34	104	0	87	12539
2026-01-01 19:49:06.50	111.16	6.29	-59.4	-70.1	3.8	7.46e-01	0	34	104	0	87	12577
2026-01-01 19:49:08.52	111.54	6.20	-59.3	-70.0	3.8	7.45e-01	0	34	104	0	87	12415
2026-01-01 19:49:10.54	111.91	6.10	-59.4	-70.1	3.8	7.46e-01	0	34	104	0	87	12577
2026-01-01 19:49:12.56	112.28	6.00	-59.3	-69.9	3.8	7.44e-01	0	33	104	0	87	12375
2026-01-01 19:49:14.57	112.65	5.91	-59.3	-70.0	3.8	7.46e-01	0	33	104	0	87	12431
2026-01-01 19:49:16.59	113.01	5.81	-59.2	-69.9	3.8	7.47e-01	0	34	104	0	87	12261
2026-01-01 19:49:18.61	113.38	5.71	-59.2	-69.9	3.8	7.47e-01	0	33	104	0	87	12284
2026-01-01 19:49:20.62	113.73	5.61	-59.3	-69.9	3.8	7.45e-01	0	34	104	0	87	12343
2026-01-01 19:49:22.63	114.09	5.51	-59.2	-69.9	3.8	7.45e-01	0	34	104	0	87	12340
2026-01-01 19:49:24.65	114.44	5.42	-59.3	-70.0	3.8	7.46e-01	0	34	104	0	87	12462
2026-01-01 19:49:26.67	114.79	5.32	-59.3	-70.0	3.8	7.45e-01	0	34	104	0	87	12407
2026-01-01 19:49:28.69	115.14	5.22	-59.4	-70.1	3.8	7.47e-01	0	33	104	0	87	12544
2026-01-01 19:49:30.69	115.48	5.12	-59.3	-70.0	3.8	7.45e-01	0	34	104	0	87	12446
2026-01-01 19:49:32.71	115.82	5.02	-59.3	-70.0	3.8	7.46e-01	0	34	104	0	87	12448
2026-01-01 19:49:34.73	116.16	4.92	-59.7	-70.4	3.8	7.46e-01	0	33	104	0	87	13029
2026-01-01 19:49:36.75	116.49	4.82	-60.2	-70.8	3.8	7.45e-01	0	34	104	0	88	12897
2026-01-01 19:49:38.77	116.82	4.72	-60.4	-71.1	3.8	7.45e-01	0	34	104	0	88	13392
2026-01-01 19:49:40.78	117.15	4.62	-60.6	-71.3	3.8	7.46e-01	0	33	104	0	89	12878
2026-01-01 19:49:42.80	117.48	4.52	-60.7	-71.4	3.8	7.47e-01	0	34	104	0	89	13082
2026-01-01 19:49:44.82	117.80	4.42	-60.9	-71.5	3.8	7.45e-01	0	34	104	0	89	13236
2026-01-01 19:49:46.84	118.12	4.31	-60.9	-71.6	3.8	7.45e-01	0	34	104	0	89	13316
2026-01-01 19:49:48.53	118.39	4.23	-61.0	-71.6	3.8	7.44e-01	0	33	104	0	89	13399
2026-01-01 19:49:50.56	118.71	4.13	-61.1	-71.7	3.8	7.45e-01	0	34	104	0	90	12787
2026-01-01 19:49:52.58	119.02	4.03	-61.1	-71.8	3.8	7.46e-01	0	33	104	0	90	12872
2026-01-01 19:49:54.60	119.33	3.93	-61.2	-71.8	3.8	7.45e-01	0	34	104	0	90	12958
2026-01-01 19:49:56.62	119.64	3.82	-61.2	-71.9	3.8	7.45e-01	0	34	104	0	90	13017
2026-01-01 19:49:58.64	119.95	3.72	-61.3	-71.9	3.8	7.44e-01	0	33	104	0	90	13079
2026-01-01 19:50:00.65	120.25	3.62	-61.3	-72.0	3.8	7.45e-01	0	33	104	0	90	13163
2026-01-01 19:50:02.67	120.55	3.52	-61.3	-72.0	3.8	7.45e-01	0	34	104	0	90	13156
2026-01-01 19:50:04.69	120.85	3.42	-61.3	-72.0	3.8	7.47e-01	0	34	104	0	90	13114
2026-01-01 19:50:06.70	121.14	3.32	-61.2	-71.9	3.8	7.46e-01	0	33	104	0	90	13018
2026-01-01 19:50:08.72	121.43	3.22	-61.3	-72.0	3.8	7.46e-01	0	33	104	0	90	13256
2026-01-01 19:50:10.75	121.73	3.11	-61.3	-72.0	3.8	7.47e-01	0	33	104	0	90	13194
2026-01-01 19:50:12.77	122.01	3.01	-61.3	-72.0	3.8	7.46e-01	0	33	104	0	90	13146
2026-01-01 19:50:14.78	122.30	2.91	-61.2	-71.9	3.8	7.45e-01	0	33	104	0	90	13046
2026-01-01 19:50:16.80	122.58	2.81	-61.2	-71.9	3.8	7.46e-01	0	33	104	0	90	13015
2026-01-01 19:50:18.82	122.86	2.71	-61.2	-71.9	3.8	7.46e-01	0	33	104	0	90	13066
2026-01-01 19:50:20.83	123.14	2.61	-61.2	-71.9	3.8	7.46e-01	0	34	104	0	90	13032
2026-01-01 19:50:22.85	123.41	2.50	-61.2	-71.9	3.8	7.45e-01	0	34	104	0	90	12988
2026-01-01 19:50:24.88	123.69	2.40	-61.2	-71.8	3.8	7.45e-01	0	34	104	0	90	12929
2026-01-01 19:50:26.89	123.96	2.30	-61.2	-71.8	3.8	7.45e-01	0	34	104	0	90	12882
2026-01-01 19:50:28.90	124.23	2.20	-61.1	-71.8	3.8	7.43e-01	0	33	104	0	90	12901
2026-01-01 19:50:30.92	124.49	2.10	-61.1	-71.8	3.8	7.47e-01	0	33	104	0	90	12907
2026-01-01 19:50:32.93	124.76	2.00	-61.1	-71.8	3.8	7.46e-01	0	33	104	0	90	12870

#Closed at: 2026-01-01 19:50:33
#Recorded file [0 MB]: D:/lorett/data/31004_260101_224240.dat