passes_logs/2026/01/01/R3.2S_Murmansk/R3.2S_Murmansk__20260101_082122_NOAA_21_JPSS-2_rec.log

#Pass ID: 20260101_082122_NOAA 21 (JPSS-2)
#Satellite: NOAA 21 (JPSS-2)
#Configuration: NOAA-21
#almurnet v.1.7.20251203
#Start time: 2026-01-01 08:21:23

#Version: 2.2.20231116
#Station: R3.2S_Murmansk
#Location: 33.079688 lon 68.888172 lat
#TLE: 1 54234U 22150A   25365.56321383  .00000202  00000+0  11656-3 0  9995
#TLE: 2 54234  98.7483 301.6387 0001318 355.6519   4.4646 14.19530385162769

#Time	Az	El	Level	Level2	SNR	BER	BlckErr	Temp	State	Recorded	gain1	gain2
2026-01-01 08:21:23.32	124.41	2.04	-59.4	-73.1	3.8	1.49e+00	0	33	0	0	85	17043
2026-01-01 08:21:27.30	124.31	2.29	-59.2	-73.0	3.8	1.49e+00	0	33	104	0	83	18818
2026-01-01 08:21:31.27	124.20	2.55	-59.2	-73.0	3.8	1.49e+00	0	33	104	0	83	18846
2026-01-01 08:21:35.25	124.09	2.81	-59.3	-72.9	3.8	1.49e+00	0	33	104	0	83	18704
2026-01-01 08:21:39.23	123.98	3.06	-59.2	-73.0	3.8	1.49e+00	0	33	104	0	83	18812
2026-01-01 08:21:43.20	123.87	3.32	-59.2	-72.7	3.8	1.49e+00	0	33	104	0	83	18265
2026-01-01 08:21:47.18	123.76	3.59	-59.2	-72.6	3.8	1.49e+00	0	33	104	0	83	17915
2026-01-01 08:21:51.15	123.64	3.85	-59.2	-72.4	3.8	1.49e+00	0	33	104	0	83	17602
2026-01-01 08:21:55.14	123.52	4.12	-58.8	-67.6	4.9	1.04e+00	0	33	104	0	83	10156
2026-01-01 08:21:59.11	123.40	4.39	-56.9	-61.2	10.0	5.98e-03	0	33	0	11534336	80	5726
2026-01-01 08:22:03.09	123.27	4.67	-54.1	-56.3	13.9	0.00e+00	0	33	0	24117248	74	4651
2026-01-01 08:22:07.06	123.15	4.94	-53.4	-55.4	14.5	0.00e+00	0	34	0	36700160	73	4420
2026-01-01 08:22:11.05	123.02	5.22	-57.0	-61.7	9.3	6.10e-05	0	34	0	49283072	79	6438
2026-01-01 08:22:15.01	122.88	5.50	-53.2	-55.1	14.9	0.00e+00	0	34	0	60817408	72	4518
2026-01-01 08:22:18.98	122.75	5.79	-53.2	-55.1	15.0	0.00e+00	0	34	0	73400320	72	4494
2026-01-01 08:22:22.97	122.61	6.08	-53.0	-54.7	15.2	0.00e+00	0	34	0	85983232	72	4329
2026-01-01 08:22:26.95	122.47	6.37	-53.0	-54.8	15.2	0.00e+00	0	34	0	98566144	72	4369
2026-01-01 08:22:30.92	122.32	6.66	-52.9	-54.6	15.3	0.00e+00	0	34	0	111149056	72	4291
2026-01-01 08:22:34.88	122.18	6.96	-52.7	-54.4	15.5	0.00e+00	0	34	0	123731968	71	4425
2026-01-01 08:22:38.85	122.03	7.26	-52.6	-54.3	15.6	0.00e+00	0	34	0	136314880	71	4347
2026-01-01 08:22:42.81	121.87	7.56	-52.6	-54.2	15.7	0.00e+00	0	34	0	147849216	71	4295
2026-01-01 08:22:46.78	121.72	7.86	-52.3	-53.9	15.9	0.00e+00	0	34	0	160432128	71	4161
2026-01-01 08:22:50.72	121.56	8.17	-52.4	-53.9	15.9	0.00e+00	0	34	0	173015040	71	4174
2026-01-01 08:22:54.70	121.39	8.49	-52.3	-53.8	16.0	0.00e+00	0	34	0	185597952	71	4124
2026-01-01 08:22:58.66	121.22	8.80	-52.1	-53.5	16.1	0.00e+00	0	34	0	198180864	70	4240
2026-01-01 08:23:02.62	121.05	9.12	-52.0	-53.5	16.2	0.00e+00	0	34	0	209715200	70	4206
2026-01-01 08:23:06.59	120.87	9.45	-51.8	-53.2	16.3	0.00e+00	0	34	0	222298112	70	4086
2026-01-01 08:23:10.56	120.69	9.78	-51.8	-53.2	16.3	0.00e+00	0	34	0	234881024	70	4086
2026-01-01 08:23:14.54	120.50	10.11	-51.5	-52.9	16.5	0.00e+00	0	34	0	247463936	69	4157
2026-01-01 08:23:18.51	120.31	10.45	-51.5	-52.8	16.5	0.00e+00	0	34	0	260046848	69	4122
2026-01-01 08:23:22.49	120.12	10.79	-51.4	-52.7	16.6	0.00e+00	0	34	0	272629760	69	4095
2026-01-01 08:23:26.47	119.92	11.14	-51.3	-52.6	16.7	0.00e+00	0	34	0	285212672	69	4029
2026-01-01 08:23:30.45	119.71	11.49	-51.3	-52.6	16.7	0.00e+00	0	34	0	296747008	69	4035
2026-01-01 08:23:34.43	119.50	11.84	-51.3	-52.6	16.7	0.00e+00	0	34	0	309329920	69	4029
2026-01-01 08:23:38.39	119.29	12.20	-51.3	-52.6	16.7	0.00e+00	0	34	0	321912832	69	4047
2026-01-01 08:23:42.36	119.06	12.57	-51.2	-52.5	16.7	0.00e+00	0	34	0	334495744	68	4233
2026-01-01 08:23:46.34	118.84	12.94	-51.2	-52.5	16.8	0.00e+00	0	34	0	347078656	68	4199
2026-01-01 08:23:50.32	118.60	13.32	-51.1	-52.4	16.8	0.00e+00	0	34	0	359661568	68	4167
2026-01-01 08:23:54.28	118.36	13.70	-51.1	-52.4	16.8	0.00e+00	0	34	0	371195904	68	4188
2026-01-01 08:23:58.25	118.12	14.08	-51.1	-52.3	16.9	0.00e+00	0	34	0	383778816	68	4144
2026-01-01 08:24:02.24	117.86	14.48	-51.2	-52.5	16.8	0.00e+00	0	34	0	396361728	68	4199
2026-01-01 08:24:06.23	117.60	14.88	-51.1	-52.4	16.8	0.00e+00	0	34	0	408944640	68	4175
2026-01-01 08:24:10.19	117.33	15.28	-51.3	-52.6	16.8	0.00e+00	0	34	0	421527552	68	4256
2026-01-01 08:24:14.15	117.06	15.69	-51.3	-52.6	16.8	0.00e+00	0	34	0	434110464	68	4248
2026-01-01 08:24:18.12	116.77	16.10	-51.4	-52.7	16.8	0.00e+00	0	34	0	445644800	68	4293
2026-01-01 08:24:22.10	116.48	16.53	-51.3	-52.6	16.8	0.00e+00	0	34	0	458227712	68	4278
2026-01-01 08:24:26.08	116.18	16.96	-51.4	-52.7	16.8	0.00e+00	0	34	0	470810624	68	4314
2026-01-01 08:24:30.05	115.87	17.39	-51.6	-52.9	16.7	0.00e+00	0	34	0	483393536	68	4413
2026-01-01 08:24:34.02	115.55	17.83	-51.5	-52.8	16.7	0.00e+00	0	34	0	495976448	68	4389
2026-01-01 08:24:37.98	115.22	18.28	-51.7	-53.0	16.6	0.00e+00	0	35	0	508559360	68	4490
2026-01-01 08:24:41.93	114.88	18.74	-51.6	-52.9	16.7	0.00e+00	0	34	0	520093696	68	4420
2026-01-01 08:24:45.91	114.53	19.20	-51.4	-52.7	16.8	0.00e+00	0	34	0	532676608	68	4316
2026-01-01 08:24:49.88	114.17	19.68	-51.2	-52.5	16.9	0.00e+00	0	34	0	545259520	68	4212
2026-01-01 08:24:53.84	113.79	20.15	-50.9	-52.1	17.0	0.00e+00	0	34	0	557842432	68	4041
2026-01-01 08:24:57.82	113.41	20.64	-50.5	-51.7	17.2	0.00e+00	0	34	0	570425344	67	4056
2026-01-01 08:25:01.81	113.01	21.14	-50.3	-51.5	17.2	0.00e+00	0	34	0	583008256	67	3989
2026-01-01 08:25:05.79	112.59	21.65	-50.2	-51.4	17.2	0.00e+00	0	35	0	595591168	67	3928
2026-01-01 08:25:09.75	112.17	22.16	-50.1	-51.3	17.3	0.00e+00	0	34	0	607125504	66	4111
2026-01-01 08:25:13.73	111.72	22.68	-49.9	-51.1	17.3	0.00e+00	0	34	0	619708416	66	4013
2026-01-01 08:25:17.72	111.26	23.22	-49.8	-51.0	17.4	0.00e+00	0	34	0	632291328	66	3968
2026-01-01 08:25:21.69	110.79	23.76	-50.0	-51.1	17.4	0.00e+00	0	34	0	644874240	66	4035
2026-01-01 08:25:25.65	110.30	24.30	-50.0	-51.2	17.4	0.00e+00	0	35	0	657457152	66	4054
2026-01-01 08:25:29.64	109.79	24.86	-50.2	-51.4	17.3	0.00e+00	0	35	0	670040064	66	4160
2026-01-01 08:25:33.61	109.26	25.43	-50.6	-51.8	17.1	0.00e+00	0	34	0	681574400	66	4350
2026-01-01 08:25:37.56	108.72	26.00	-50.7	-51.9	17.1	0.00e+00	0	34	0	694157312	66	4438
2026-01-01 08:25:41.53	108.15	26.59	-50.9	-52.1	17.0	0.00e+00	0	35	0	706740224	67	4280
2026-01-01 08:25:45.51	107.56	27.19	-51.0	-52.2	17.0	0.00e+00	0	34	0	719323136	67	4318
2026-01-01 08:25:49.46	106.95	27.79	-51.0	-52.2	17.0	0.00e+00	0	35	0	731906048	67	4319
2026-01-01 08:25:53.42	106.31	28.40	-51.0	-52.3	17.0	0.00e+00	0	35	0	744488960	67	4344
2026-01-01 08:25:57.40	105.65	29.03	-50.9	-52.2	17.0	0.00e+00	0	34	0	756023296	67	4304
2026-01-01 08:26:01.36	104.96	29.66	-51.0	-52.2	17.0	0.00e+00	0	35	0	768606208	67	4306
2026-01-01 08:26:05.35	104.24	30.31	-51.3	-52.5	16.9	0.00e+00	0	34	0	781189120	67	4490
2026-01-01 08:26:09.33	103.49	30.96	-51.2	-52.5	17.0	0.00e+00	0	34	0	793772032	68	4214
2026-01-01 08:26:13.31	102.71	31.63	-50.9	-52.1	17.2	0.00e+00	0	35	0	806354944	68	4025
2026-01-01 08:26:17.28	101.90	32.30	-50.8	-52.0	17.2	0.00e+00	0	35	0	818937856	68	3978
2026-01-01 08:26:21.26	101.05	32.98	-51.2	-52.5	17.0	0.00e+00	0	34	0	830472192	68	4201
2026-01-01 08:26:25.24	100.16	33.66	-51.7	-53.0	16.8	0.00e+00	0	35	0	843055104	68	4451
2026-01-01 08:26:29.20	99.24	34.36	-51.9	-53.3	16.7	0.00e+00	0	35	0	855638016	69	4354
2026-01-01 08:26:33.18	98.27	35.06	-52.4	-53.8	16.5	0.00e+00	0	35	0	868220928	69	4612
2026-01-01 08:26:37.14	97.27	35.76	-52.7	-54.2	16.3	0.00e+00	0	35	0	880803840	70	4558
2026-01-01 08:26:41.12	96.21	36.48	-52.9	-54.3	16.3	0.00e+00	0	35	0	893386752	71	4378
2026-01-01 08:26:45.08	95.12	37.19	-52.7	-54.1	16.3	0.00e+00	0	35	0	904921088	71	4287
2026-01-01 08:26:49.04	93.97	37.91	-52.1	-53.5	16.7	0.00e+00	0	35	0	917504000	70	4205
2026-01-01 08:26:53.00	92.78	38.62	-52.4	-53.8	16.5	0.00e+00	0	35	0	930086912	70	4365
2026-01-01 08:26:56.98	91.52	39.35	-52.4	-53.7	16.6	0.00e+00	0	35	0	942669824	70	4329
2026-01-01 08:27:00.95	90.20	40.06	-52.7	-54.1	16.4	0.00e+00	0	35	0	955252736	70	4540
2026-01-01 08:27:04.92	88.83	40.78	-52.7	-54.1	16.4	0.00e+00	0	35	0	967835648	70	4513
2026-01-01 08:27:08.89	87.40	41.49	-53.3	-54.8	16.1	0.00e+00	0	35	0	979369984	72	4345
2026-01-01 08:27:12.84	85.91	42.19	-53.6	-55.2	15.9	0.00e+00	0	35	0	991952896	72	4566
2026-01-01 08:27:16.81	84.34	42.88	-53.9	-55.6	15.7	0.00e+00	0	35	0	1004535808	73	4502
2026-01-01 08:27:20.77	82.71	43.55	-53.8	-55.4	15.7	0.00e+00	0	34	0	1017118720	73	4416
2026-01-01 08:27:24.76	81.00	44.22	-53.4	-54.9	16.1	0.00e+00	0	35	0	1029701632	73	4171
2026-01-01 08:27:28.72	79.23	44.86	-52.9	-54.3	16.4	0.00e+00	0	35	0	1042284544	72	4139
2026-01-01 08:27:32.71	77.37	45.49	-53.3	-54.8	16.1	0.00e+00	0	35	0	1053818880	72	4375
2026-01-01 08:27:36.67	75.45	46.08	-53.7	-55.2	15.9	0.00e+00	0	35	0	1066401792	72	4597
2026-01-01 08:27:40.63	73.46	46.65	-53.6	-55.2	15.9	0.00e+00	0	35	0	1078984704	73	4298
2026-01-01 08:27:44.58	71.41	47.18	-53.6	-55.1	15.9	0.00e+00	0	35	0	1091567616	73	4266
2026-01-01 08:27:48.55	69.28	47.68	-53.3	-54.7	16.2	0.00e+00	0	35	0	1104150528	73	4092
2026-01-01 08:27:52.51	67.08	48.14	-52.9	-54.4	16.3	0.00e+00	0	35	0	1115684864	72	4146
2026-01-01 08:27:56.48	64.81	48.56	-53.2	-54.7	16.2	0.00e+00	0	35	0	1128267776	72	4297
2026-01-01 08:28:00.44	62.50	48.93	-54.0	-55.6	15.6	0.00e+00	0	35	0	1140850688	73	4544
2026-01-01 08:28:04.42	60.11	49.26	-53.7	-55.3	15.9	0.00e+00	0	35	0	1153433600	73	4368
2026-01-01 08:28:08.39	57.69	49.53	-52.8	-54.2	16.5	0.00e+00	0	35	0	1166016512	72	4058
2026-01-01 08:28:12.37	55.22	49.74	-53.4	-55.0	16.0	0.00e+00	0	35	0	1177550848	72	4444
2026-01-01 08:28:16.34	52.73	49.90	-53.1	-54.5	16.3	0.00e+00	0	35	0	1190133760	72	4221
2026-01-01 08:28:20.31	50.21	50.00	-53.0	-54.5	16.3	0.00e+00	0	35	0	1202716672	72	4210
2026-01-01 08:28:24.28	47.69	50.04	-52.7	-54.1	16.5	0.00e+00	0	35	0	1215299584	71	4286
2026-01-01 08:28:28.25	45.16	50.03	-53.3	-54.8	16.2	0.00e+00	0	35	0	1227882496	71	4641
2026-01-01 08:28:32.23	42.63	49.95	-53.3	-54.9	16.1	0.00e+00	0	35	0	1240465408	71	4664
2026-01-01 08:28:36.20	40.13	49.81	-53.5	-55.0	16.1	0.00e+00	0	35	0	1253048320	72	4478
2026-01-01 08:28:40.17	37.65	49.62	-53.1	-54.6	16.2	0.00e+00	0	35	0	1264582656	72	4257
2026-01-01 08:28:44.16	35.20	49.37	-52.9	-54.4	16.4	0.00e+00	0	35	0	1277165568	72	4148
2026-01-01 08:28:48.11	32.82	49.07	-53.7	-55.3	15.9	0.00e+00	0	35	0	1289748480	72	4608
2026-01-01 08:28:52.08	30.48	48.72	-52.6	-54.0	16.5	0.00e+00	0	35	0	1302331392	71	4206
2026-01-01 08:28:56.05	28.19	48.32	-53.1	-54.5	16.3	0.00e+00	0	35	0	1314914304	71	4475
2026-01-01 08:29:00.03	25.96	47.88	-52.4	-53.8	16.7	0.00e+00	0	35	0	1327497216	70	4374
2026-01-01 08:29:04.00	23.80	47.39	-53.3	-54.8	16.1	0.00e+00	0	35	0	1339031552	72	4383
2026-01-01 08:29:07.97	21.71	46.87	-53.0	-54.5	16.3	0.00e+00	0	35	0	1351614464	71	4461
2026-01-01 08:29:11.95	19.68	46.31	-52.6	-54.0	16.5	0.00e+00	0	35	0	1364197376	71	4196
2026-01-01 08:29:15.93	17.73	45.73	-54.6	-56.4	15.2	0.00e+00	0	35	0	1376780288	74	4685
2026-01-01 08:29:19.90	15.86	45.12	-52.6	-53.9	16.5	0.00e+00	0	35	0	1389363200	71	4189
2026-01-01 08:29:23.88	14.05	44.48	-55.2	-57.2	14.8	0.00e+00	0	35	0	1401946112	75	4849
2026-01-01 08:29:27.86	12.32	43.82	-53.9	-55.4	15.8	0.00e+00	0	35	0	1413480448	74	4192
2026-01-01 08:29:31.83	10.66	43.15	-56.3	-58.7	13.9	0.00e+00	0	35	0	1426063360	77	5138
2026-01-01 08:29:35.79	9.08	42.47	-54.3	-56.0	15.5	0.00e+00	0	35	0	1438646272	75	4228
2026-01-01 08:29:39.77	7.56	41.77	-55.3	-57.3	14.6	0.00e+00	0	35	0	1451229184	75	4913
2026-01-01 08:29:43.74	6.10	41.07	-53.0	-54.5	16.2	0.00e+00	0	35	0	1463812096	72	4203
2026-01-01 08:29:47.70	4.71	40.36	-53.5	-55.1	16.0	0.00e+00	0	35	0	1476395008	72	4514
2026-01-01 08:29:51.66	3.38	39.65	-54.1	-55.8	15.6	0.00e+00	0	35	0	1487929344	74	4358
2026-01-01 08:29:55.63	2.11	38.93	-52.1	-53.4	16.8	0.00e+00	0	35	0	1500512256	70	4148
2026-01-01 08:29:59.58	0.89	38.21	-52.8	-54.2	16.5	0.00e+00	0	35	0	1513095168	71	4338
2026-01-01 08:30:03.56	359.72	37.50	-52.1	-53.5	16.8	0.00e+00	0	35	0	1525678080	70	4206
2026-01-01 08:30:07.51	358.61	36.78	-52.0	-53.3	16.8	0.00e+00	0	35	0	1538260992	70	4140
2026-01-01 08:30:11.50	357.54	36.07	-52.3	-53.6	16.7	0.00e+00	0	35	0	1550843904	70	4276
2026-01-01 08:30:15.46	356.52	35.37	-51.5	-52.7	17.1	0.00e+00	0	35	0	1562378240	69	4093
2026-01-01 08:30:19.43	355.55	34.67	-51.2	-52.4	17.2	0.00e+00	0	35	0	1574961152	68	4160
2026-01-01 08:30:23.40	354.61	33.97	-51.4	-52.7	17.1	0.00e+00	0	35	0	1587544064	68	4303
2026-01-01 08:30:27.37	353.71	33.28	-51.8	-53.1	16.8	0.00e+00	0	35	0	1600126976	68	4523
2026-01-01 08:30:31.36	352.85	32.60	-51.7	-53.0	17.0	0.00e+00	0	35	0	1612709888	68	4456
2026-01-01 08:30:35.33	352.03	31.93	-51.5	-52.7	17.0	0.00e+00	0	35	0	1625292800	68	4326
2026-01-01 08:30:39.31	351.23	31.26	-51.3	-52.6	17.1	0.00e+00	0	35	0	1636827136	68	4261
2026-01-01 08:30:43.28	350.48	30.61	-51.3	-52.6	17.1	0.00e+00	0	35	0	1649410048	68	4252
2026-01-01 08:30:47.25	349.75	29.97	-51.1	-52.4	17.2	0.00e+00	0	35	0	1661992960	68	4147
2026-01-01 08:30:51.21	349.05	29.33	-51.2	-52.5	17.1	0.00e+00	0	35	0	1674575872	68	4210
2026-01-01 08:30:55.18	348.38	28.71	-51.1	-52.4	17.2	0.00e+00	0	35	0	1687158784	68	4158
2026-01-01 08:30:59.15	347.74	28.09	-51.1	-52.3	17.2	0.00e+00	0	35	0	1699741696	68	4117
2026-01-01 08:31:03.13	347.11	27.48	-50.9	-52.1	17.3	0.00e+00	0	35	0	1711276032	68	4029
2026-01-01 08:31:07.11	346.52	26.88	-50.4	-51.6	17.4	0.00e+00	0	35	0	1723858944	67	4022
2026-01-01 08:31:11.10	345.94	26.29	-50.0	-51.2	17.5	0.00e+00	0	35	0	1736441856	66	4061
2026-01-01 08:31:15.07	345.39	25.71	-50.0	-51.2	17.5	0.00e+00	0	35	0	1749024768	66	4064
2026-01-01 08:31:19.04	344.85	25.14	-50.3	-51.4	17.4	0.00e+00	0	35	0	1761607680	66	4190
2026-01-01 08:31:23.01	344.34	24.58	-50.5	-51.7	17.3	0.00e+00	0	35	0	1774190592	66	4299
2026-01-01 08:31:26.99	343.84	24.03	-50.8	-52.0	17.2	0.00e+00	0	35	0	1786773504	66	4489
2026-01-01 08:31:30.96	343.36	23.49	-50.9	-52.2	17.1	0.00e+00	0	35	0	1798307840	67	4308
2026-01-01 08:31:34.93	342.90	22.96	-50.9	-52.2	17.1	0.00e+00	0	35	0	1810890752	67	4303
2026-01-01 08:31:38.90	342.46	22.43	-50.5	-51.7	17.3	0.00e+00	0	35	0	1823473664	67	4088
2026-01-01 08:31:42.88	342.02	21.92	-50.3	-51.5	17.4	0.00e+00	0	35	0	1836056576	67	3994
2026-01-01 08:31:46.84	341.61	21.41	-50.4	-51.6	17.3	0.00e+00	0	35	0	1848639488	67	4033
2026-01-01 08:31:50.81	341.21	20.92	-50.5	-51.7	17.3	0.00e+00	0	35	0	1861222400	67	4074
2026-01-01 08:31:54.77	340.82	20.43	-50.5	-51.7	17.2	0.00e+00	0	35	0	1872756736	67	4090
2026-01-01 08:31:58.72	340.44	19.95	-50.4	-51.6	17.3	0.00e+00	0	35	0	1885339648	67	4035
2026-01-01 08:32:02.70	340.08	19.47	-50.4	-51.6	17.3	0.00e+00	0	35	0	1897922560	67	4029
2026-01-01 08:32:06.67	339.72	19.01	-50.3	-51.4	17.3	0.00e+00	0	35	0	1910505472	67	3954
2026-01-01 08:32:10.63	339.38	18.55	-50.4	-51.6	17.3	0.00e+00	0	35	0	1923088384	67	4006
2026-01-01 08:32:14.61	339.05	18.10	-50.4	-51.6	17.3	0.00e+00	0	35	0	1934622720	67	4019
2026-01-01 08:32:18.60	338.73	17.65	-50.6	-51.8	17.2	0.00e+00	0	35	0	1947205632	67	4125
2026-01-01 08:32:22.56	338.42	17.21	-50.8	-52.0	17.2	0.00e+00	0	35	0	1959788544	67	4213
2026-01-01 08:32:26.54	338.11	16.78	-51.1	-52.4	17.0	0.00e+00	0	35	0	1972371456	67	4421
2026-01-01 08:32:30.51	337.82	16.36	-51.3	-52.6	16.9	0.00e+00	0	35	0	1984954368	67	4515
2026-01-01 08:32:34.49	337.53	15.94	-51.6	-52.9	16.9	0.00e+00	0	35	0	1997537280	68	4422
2026-01-01 08:32:38.45	337.26	15.53	-51.6	-52.9	16.8	0.00e+00	0	35	0	2010120192	68	4430
2026-01-01 08:32:42.43	336.99	15.12	-51.5	-52.8	16.9	0.00e+00	0	35	0	2021654528	68	4368
2026-01-01 08:32:46.41	336.72	14.72	-51.4	-52.7	16.9	0.00e+00	0	35	0	2034237440	68	4326
2026-01-01 08:32:50.37	336.47	14.33	-51.4	-52.7	16.9	0.00e+00	0	35	0	2046820352	68	4340
2026-01-01 08:32:54.34	336.22	13.94	-51.3	-52.6	16.9	0.00e+00	0	35	0	2059403264	68	4274
2026-01-01 08:32:58.30	335.98	13.56	-51.3	-52.6	16.9	0.00e+00	0	35	0	2071986176	68	4288
2026-01-01 08:33:02.26	335.75	13.19	-51.3	-52.6	16.9	0.00e+00	0	35	0	2083520512	68	4286
2026-01-01 08:33:06.24	335.52	12.81	-51.3	-52.6	16.9	0.00e+00	0	35	0	2096103424	68	4249
2026-01-01 08:33:10.22	335.30	12.45	-51.3	-52.6	16.9	0.00e+00	0	35	0	2108686336	68	4250
2026-01-01 08:33:14.18	335.08	12.09	-51.5	-52.8	16.8	0.00e+00	0	35	0	2121269248	68	4372
2026-01-01 08:33:18.16	334.87	11.73	-51.5	-52.9	16.7	0.00e+00	0	35	0	2133852160	68	4408
2026-01-01 08:33:22.13	334.67	11.38	-51.6	-52.9	16.7	0.00e+00	0	35	0	2146435072	68	4434
2026-01-01 08:33:26.09	334.47	11.03	-51.6	-53.0	16.7	0.00e+00	0	35	0	2159017984	68	4462
2026-01-01 08:33:30.05	334.27	10.69	-51.7	-53.1	16.6	0.00e+00	0	35	0	2170552320	68	4506
2026-01-01 08:33:34.04	334.08	10.35	-51.8	-53.2	16.5	0.00e+00	0	35	0	2183135232	68	4583
2026-01-01 08:33:38.00	333.90	10.02	-51.9	-53.3	16.5	0.00e+00	0	35	0	2195718144	69	4345
2026-01-01 08:33:41.96	333.71	9.69	-52.0	-53.4	16.5	0.00e+00	0	35	0	2208301056	69	4404
2026-01-01 08:33:45.92	333.54	9.36	-52.0	-53.4	16.4	0.00e+00	0	35	0	2220883968	69	4411
2026-01-01 08:33:49.89	333.37	9.04	-52.0	-53.4	16.5	0.00e+00	0	35	0	2232418304	69	4421
2026-01-01 08:33:53.85	333.20	8.72	-52.1	-53.6	16.3	0.00e+00	0	35	0	2245001216	69	4520
2026-01-01 08:33:57.82	333.03	8.41	-52.3	-53.9	16.2	0.00e+00	0	35	0	2257584128	69	4653
2026-01-01 08:34:01.78	332.87	8.10	-52.5	-54.1	16.1	0.00e+00	0	35	0	2270167040	70	4497
2026-01-01 08:34:05.76	332.72	7.79	-52.7	-54.3	16.0	0.00e+00	0	35	0	2282749952	70	4599
2026-01-01 08:34:09.72	332.56	7.49	-52.9	-54.6	15.8	0.00e+00	0	35	0	2295332864	71	4502
2026-01-01 08:34:13.68	332.41	7.19	-53.0	-54.7	15.7	0.00e+00	0	35	0	2306867200	71	4579
2026-01-01 08:34:17.66	332.27	6.89	-53.1	-54.9	15.5	0.00e+00	0	35	0	2319450112	71	4656
2026-01-01 08:34:21.65	332.12	6.59	-53.2	-55.0	15.5	0.00e+00	0	35	0	2332033024	71	4723
2026-01-01 08:34:25.61	331.98	6.30	-53.4	-55.2	15.3	0.00e+00	0	35	0	2344615936	72	4579
2026-01-01 08:34:29.58	331.85	6.02	-53.6	-55.5	15.2	0.00e+00	0	35	0	2357198848	72	4717
2026-01-01 08:34:33.55	331.71	5.73	-53.8	-55.7	15.0	0.00e+00	0	35	0	2369781760	73	4560
2026-01-01 08:34:37.50	331.58	5.45	-53.8	-55.8	14.9	0.00e+00	0	35	0	2381316096	73	4622
2026-01-01 08:34:41.49	331.45	5.17	-53.8	-55.8	14.8	0.00e+00	0	35	0	2393899008	72	4893
2026-01-01 08:34:45.49	331.33	4.89	-60.9	-74.6	3.8	1.49e+00	0	35	104	2402287616	86	19070
2026-01-01 08:34:49.46	331.20	4.62	-61.6	-75.4	3.8	1.49e+00	0	35	104	2402287616	88	18543
2026-01-01 08:34:53.43	331.08	4.35	-62.0	-75.8	3.8	1.49e+00	0	35	104	2402287616	89	18317
2026-01-01 08:34:57.40	330.97	4.08	-62.1	-75.9	3.8	1.49e+00	0	35	104	2402287616	89	18689
2026-01-01 08:35:01.38	330.85	3.81	-62.2	-76.0	3.8	1.49e+00	0	35	104	2402287616	89	18870
2026-01-01 08:35:05.35	330.74	3.55	-62.2	-75.8	3.8	1.49e+00	0	35	104	2402287616	89	18328
2026-01-01 08:35:09.33	330.63	3.29	-62.2	-75.9	3.8	1.49e+00	0	35	104	2402287616	89	18662
2026-01-01 08:35:13.32	330.52	3.03	-62.0	-75.5	3.8	1.49e+00	0	35	104	2402287616	89	17799
2026-01-01 08:35:17.30	330.41	2.77	-62.1	-75.9	3.8	1.49e+00	0	35	104	2402287616	89	18607
2026-01-01 08:35:21.29	330.31	2.51	-62.1	-75.8	3.8	1.49e+00	0	35	104	2402287616	89	18423
2026-01-01 08:35:25.27	330.20	2.26	-62.1	-75.8	3.8	1.49e+00	0	35	104	2402287616	89	18463
2026-01-01 08:35:29.24	330.10	2.01	-62.0	-75.8	3.8	1.49e+00	0	35	104	2402287616	89	18407

#Closed at: 2026-01-01 08:35:31
#Recorded file [2402 MB]: D:/lorett/data/31004_260101_112123.dat