passes_logs/2026/01/01/R3.2S_Murmansk/R3.2S_Murmansk__20260101_095652_TY-42_rec.log

#Pass ID: 20260101_095652_TY-42
#Satellite: TY-42
#Configuration: TY-42_900M
#almurnet v.1.7.20251203
#Start time: 2026-01-01 09:56:54

#Version: 2.2.20231116
#Station: R3.2S_Murmansk
#Location: 33.079688 lon 68.888172 lat
#TLE: 1 64048U 25103A   26001.16230324  .00008011  00000-0  38191-3 0 09998
#TLE: 2 64048 097.4120 076.8412 0001853 093.7312 056.4064 15.19175193 34719

#Time	Az	El	Level	Level2	SNR	BER	BlckErr	Temp	State	Recorded	gain1	gain2
2026-01-01 09:56:54.05	21.19	2.11	-59.6	-62.8	6.1	0.00e+00	0	39	0	0	86	20271
2026-01-01 09:56:57.03	21.13	2.31	-59.6	-62.8	6.2	0.00e+00	0	39	104	0	86	20296
2026-01-01 09:56:59.99	21.07	2.52	-59.6	-62.8	6.2	0.00e+00	0	39	104	0	86	20276
2026-01-01 09:57:02.98	21.01	2.73	-59.6	-62.8	6.2	0.00e+00	0	39	104	0	86	20358
2026-01-01 09:57:05.96	20.95	2.95	-59.6	-62.8	6.2	0.00e+00	0	39	104	0	86	20301
2026-01-01 09:57:08.94	20.88	3.16	-59.6	-62.8	6.2	0.00e+00	0	40	104	0	86	20265
2026-01-01 09:57:11.90	20.81	3.38	-59.6	-62.8	6.2	0.00e+00	0	40	104	0	86	20320
2026-01-01 09:57:14.88	20.75	3.60	-59.6	-62.8	6.2	0.00e+00	0	40	104	0	86	20268
2026-01-01 09:57:17.86	20.68	3.82	-59.6	-62.8	6.2	0.00e+00	0	40	104	0	86	20281
2026-01-01 09:57:20.85	20.60	4.05	-59.6	-62.8	6.2	0.00e+00	0	40	104	0	86	20294
2026-01-01 09:57:23.82	20.53	4.28	-59.6	-62.8	6.2	0.00e+00	0	40	104	0	86	20341
2026-01-01 09:57:26.80	20.46	4.51	-59.6	-62.8	6.2	0.00e+00	0	40	104	0	86	20310
2026-01-01 09:57:29.77	20.38	4.74	-59.6	-62.8	6.2	0.00e+00	0	40	104	0	86	20356
2026-01-01 09:57:32.74	20.30	4.97	-59.6	-62.8	6.2	0.00e+00	0	40	104	0	86	20342
2026-01-01 09:57:35.70	20.22	5.21	-59.7	-63.0	6.2	0.00e+00	0	41	104	0	86	20706
2026-01-01 09:57:38.68	20.14	5.45	-59.6	-62.9	6.2	0.00e+00	0	41	104	0	86	20452
2026-01-01 09:57:41.66	20.05	5.69	-59.7	-62.9	6.2	0.00e+00	0	41	104	0	86	20550
2026-01-01 09:57:44.63	19.97	5.94	-59.7	-62.9	6.2	0.00e+00	0	41	104	0	86	20526
2026-01-01 09:57:47.60	19.88	6.19	-59.8	-63.0	6.2	0.00e+00	0	41	104	0	86	20768
2026-01-01 09:57:50.58	19.79	6.44	-59.7	-62.9	6.2	0.00e+00	0	41	104	0	86	20610
2026-01-01 09:57:53.55	19.70	6.70	-59.8	-63.0	6.2	0.00e+00	0	41	104	0	86	20651
2026-01-01 09:57:56.52	19.60	6.96	-59.8	-63.0	6.2	0.00e+00	0	41	104	0	86	20835
2026-01-01 09:57:59.50	19.50	7.22	-59.8	-63.0	6.2	0.00e+00	0	41	104	0	86	20848
2026-01-01 09:58:02.47	19.40	7.48	-59.8	-63.1	6.2	0.00e+00	0	41	104	0	86	20902
2026-01-01 09:58:05.45	19.30	7.75	-59.8	-63.1	6.2	0.00e+00	0	42	104	0	86	20877
2026-01-01 09:58:08.42	19.19	8.03	-59.9	-63.1	6.2	0.00e+00	0	42	104	0	86	21039
2026-01-01 09:58:11.38	19.09	8.30	-59.9	-63.1	6.2	0.00e+00	0	42	104	0	86	20934
2026-01-01 09:58:14.36	18.98	8.58	-59.9	-63.2	6.2	0.00e+00	0	42	104	0	86	21183
2026-01-01 09:58:17.34	18.86	8.87	-47.9	-48.3	11.7	0.00e+00	0	43	0	150994944	63	14320
2026-01-01 09:58:20.31	18.74	9.16	-46.3	-46.7	12.5	1.56e-01	0	43	0	486539264	59	15010
2026-01-01 09:58:23.28	18.62	9.45	-45.3	-45.7	12.9	4.33e-02	0	43	0	822083584	57	14958
2026-01-01 09:58:26.24	18.50	9.75	-44.4	-44.7	13.3	4.33e-02	0	43	0	1157627904	56	14164
2026-01-01 09:58:29.22	18.37	10.05	-43.8	-44.1	13.6	2.46e-02	0	43	0	1493172224	54	14784
2026-01-01 09:58:32.19	18.24	10.36	-43.5	-43.8	13.7	1.12e-02	0	43	0	1820327936	54	14371
2026-01-01 09:58:35.16	18.11	10.67	-43.3	-43.6	13.8	8.76e-03	0	44	0	2164260864	53	14927
2026-01-01 09:58:38.13	17.97	10.99	-43.1	-43.4	13.9	7.47e-03	0	44	0	2491416576	53	14576
2026-01-01 09:58:41.12	17.83	11.32	-42.9	-43.2	13.9	6.17e-03	0	44	0	2826960896	52	15002
2026-01-01 09:58:44.09	17.68	11.65	-42.8	-43.1	13.9	5.08e-03	0	44	0	3170893824	52	14883
2026-01-01 09:58:47.06	17.53	11.98	-42.7	-42.9	14.1	4.16e-03	0	44	0	3498049536	52	14566
2026-01-01 09:58:50.04	17.37	12.32	-42.4	-42.7	14.2	3.35e-03	0	44	0	3833593856	52	14215
2026-01-01 09:58:53.01	17.21	12.67	-42.3	-42.6	14.2	2.58e-03	0	44	0	4169138176	51	14786
2026-01-01 09:58:55.99	17.05	13.02	-42.1	-42.4	14.3	2.21e-03	0	44	0	4504682496	51	14550
2026-01-01 09:58:58.96	16.88	13.38	-41.9	-42.1	14.3	1.91e-03	0	44	0	4840226816	50	14916
2026-01-01 09:59:01.93	16.70	13.75	-41.7	-42.0	14.5	1.29e-03	0	44	0	5167382528	50	14637
2026-01-01 09:59:04.91	16.52	14.12	-41.6	-41.9	14.5	1.04e-03	0	45	0	5511315456	50	14471
2026-01-01 09:59:07.89	16.33	14.50	-41.5	-41.8	14.5	9.11e-04	0	45	0	5846859776	50	14362
2026-01-01 09:59:10.87	16.14	14.89	-41.2	-41.5	14.6	8.39e-04	0	45	0	6174015488	49	14661
2026-01-01 09:59:13.85	15.94	15.29	-41.1	-41.4	14.7	5.91e-04	0	45	0	6517948416	49	14457
2026-01-01 09:59:16.83	15.73	15.70	-41.0	-41.3	14.7	4.58e-04	0	45	0	6845104128	49	14288
2026-01-01 09:59:19.80	15.52	16.11	-40.9	-41.1	14.7	4.67e-04	0	45	0	7180648448	48	14895
2026-01-01 09:59:22.77	15.30	16.53	-40.6	-40.9	14.8	3.81e-04	0	45	0	7516192768	48	14507
2026-01-01 09:59:25.75	15.07	16.96	-40.5	-40.7	14.8	2.67e-04	0	45	0	7851737088	48	14247
2026-01-01 09:59:28.71	14.83	17.40	-40.5	-40.7	14.9	2.86e-04	0	45	0	8187281408	48	14227
2026-01-01 09:59:31.69	14.58	17.85	-39.6	-39.8	14.6	4.39e-04	0	45	0	8514437120	46	14432
2026-01-01 09:59:34.67	14.33	18.31	-39.3	-39.5	14.6	6.39e-04	0	45	0	8849981440	45	14738
2026-01-01 09:59:37.64	14.06	18.78	-39.1	-39.3	14.7	5.72e-04	0	45	0	9193914368	45	14408
2026-01-01 09:59:40.62	13.79	19.27	-38.8	-39.0	14.8	3.96e-04	0	45	0	9521070080	44	14730
2026-01-01 09:59:43.60	13.50	19.76	-38.6	-38.9	14.8	3.34e-04	0	45	0	9865003008	44	14477
2026-01-01 09:59:46.58	13.20	20.27	-38.4	-38.7	15.0	2.34e-04	0	45	0	10192158720	44	14178
2026-01-01 09:59:49.53	12.89	20.78	-38.2	-38.5	15.1	1.33e-04	0	45	0	10527703040	43	14623
2026-01-01 09:59:52.51	12.57	21.31	-37.9	-38.1	15.1	7.62e-05	0	45	0	10863247360	42	14900
2026-01-01 09:59:55.49	12.24	21.86	-37.7	-38.0	15.2	6.19e-05	0	45	0	11190403072	42	14686
2026-01-01 09:59:58.46	11.89	22.42	-37.4	-37.6	15.2	5.24e-05	0	46	0	11534336000	42	14088
2026-01-01 10:00:01.44	11.52	22.99	-37.0	-37.2	15.3	2.86e-05	0	45	0	11861491712	41	14245
2026-01-01 10:00:04.41	11.14	23.58	-36.8	-37.1	15.3	1.43e-05	0	45	0	12197036032	40	14861
2026-01-01 10:00:07.38	10.75	24.18	-36.8	-37.1	15.4	1.43e-05	0	45	0	12532580352	40	14790
2026-01-01 10:00:10.35	10.33	24.79	-36.7	-36.9	15.4	1.43e-05	0	46	0	12868124672	40	14529
2026-01-01 10:00:13.32	9.90	25.43	-36.6	-36.8	15.4	9.50e-06	0	45	0	13203668992	40	14432
2026-01-01 10:00:16.29	9.44	26.08	-36.6	-36.8	15.5	4.70e-06	0	45	0	13530824704	40	14411
2026-01-01 10:00:19.26	8.97	26.75	-36.4	-36.6	15.5	0.00e+00	0	45	0	13874757632	39	14880
2026-01-01 10:00:22.23	8.47	27.43	-36.1	-36.4	15.5	9.50e-06	0	46	0	14201913344	39	14481
2026-01-01 10:00:25.20	7.94	28.14	-35.5	-35.7	15.5	9.50e-06	0	45	0	14537457664	38	14239
2026-01-01 10:00:28.18	7.39	28.87	-35.1	-35.3	15.6	0.00e+00	0	45	0	14873001984	37	14434
2026-01-01 10:00:31.16	6.81	29.61	-34.7	-34.9	15.7	0.00e+00	0	46	0	15208546304	36	14523
2026-01-01 10:00:34.14	6.20	30.38	-34.4	-34.6	15.7	0.00e+00	0	46	0	15544090624	36	14039
2026-01-01 10:00:37.11	5.55	31.17	-31.6	-31.9	15.6	0.00e+00	0	45	0	15879634944	30	14478
2026-01-01 10:00:40.10	4.87	31.98	-31.4	-31.6	15.6	0.00e+00	0	45	0	16215179264	30	14083
2026-01-01 10:00:43.09	4.15	32.82	-31.1	-31.3	15.7	0.00e+00	0	45	0	16550723584	29	14426
2026-01-01 10:00:46.06	3.39	33.67	-31.0	-31.3	15.7	0.00e+00	0	46	0	16886267904	29	14281
2026-01-01 10:00:49.03	2.58	34.55	-30.8	-31.1	15.7	0.00e+00	0	46	0	17221812224	28	14808
2026-01-01 10:00:52.00	1.73	35.44	-30.6	-30.8	15.8	0.00e+00	0	46	0	17557356544	28	14423
2026-01-01 10:00:54.98	0.82	36.37	-30.4	-30.6	15.8	0.00e+00	0	46	0	17884512256	27	14910
2026-01-01 10:00:57.96	359.85	37.31	-30.2	-30.4	15.9	0.00e+00	0	46	0	18228445184	27	14508
2026-01-01 10:01:00.93	358.83	38.28	-30.0	-30.3	15.9	0.00e+00	0	46	0	18555600896	27	14282
2026-01-01 10:01:03.89	357.74	39.26	-29.9	-30.1	16.0	0.00e+00	0	46	0	18891145216	27	14046
2026-01-01 10:01:06.85	356.58	40.27	-29.5	-29.7	15.9	0.00e+00	0	46	0	19226689536	26	14261
2026-01-01 10:01:09.83	355.33	41.30	-29.5	-29.7	15.9	0.00e+00	0	46	0	19562233856	26	14117
2026-01-01 10:01:12.81	353.99	42.34	-29.3	-29.5	15.9	0.00e+00	0	46	0	19897778176	25	14704
2026-01-01 10:01:15.78	352.56	43.40	-29.0	-29.2	15.9	0.00e+00	0	46	0	20224933888	25	14146
2026-01-01 10:01:18.75	351.03	44.48	-28.8	-29.0	15.9	0.00e+00	0	46	0	20568866816	24	14716
2026-01-01 10:01:21.73	349.38	45.56	-28.4	-28.6	16.0	0.00e+00	0	46	0	20896022528	24	14107
2026-01-01 10:01:24.71	347.61	46.65	-28.2	-28.4	15.9	0.00e+00	0	46	0	21231566848	23	14538
2026-01-01 10:01:27.68	345.72	47.74	-27.9	-28.1	16.0	0.00e+00	0	45	0	21567111168	23	14035
2026-01-01 10:01:30.65	343.68	48.82	-27.6	-27.8	16.0	0.00e+00	0	46	0	21902655488	22	14367
2026-01-01 10:01:33.62	341.49	49.89	-27.6	-27.8	16.0	0.00e+00	0	46	0	22238199808	22	14348
2026-01-01 10:01:36.59	339.13	50.94	-27.4	-27.6	16.0	0.00e+00	0	46	0	22573744128	22	14056
2026-01-01 10:01:39.58	336.59	51.97	-27.4	-27.6	16.0	0.00e+00	0	46	0	22909288448	22	14101
2026-01-01 10:01:42.56	333.87	52.96	-27.1	-27.3	16.0	0.00e+00	0	46	0	23244832768	21	14375
2026-01-01 10:01:45.52	330.98	53.89	-26.9	-27.1	16.0	0.00e+00	0	46	0	23571988480	21	14034
2026-01-01 10:01:48.50	327.87	54.77	-26.8	-27.0	15.9	0.00e+00	0	46	0	23915921408	20	14729
2026-01-01 10:01:51.48	324.58	55.58	-26.7	-26.9	15.9	0.00e+00	0	46	0	24243077120	20	14562
2026-01-01 10:01:54.47	321.08	56.30	-26.5	-26.7	15.9	0.00e+00	0	46	0	24578621440	20	14191
2026-01-01 10:01:57.44	317.43	56.92	-26.5	-26.7	15.9	0.00e+00	0	46	0	24922554368	20	14163
2026-01-01 10:02:00.41	313.62	57.43	-26.4	-26.6	15.9	0.00e+00	0	46	0	25249710080	19	14898
2026-01-01 10:02:03.39	309.67	57.82	-26.3	-26.5	15.9	0.00e+00	0	46	0	25585254400	19	14719
2026-01-01 10:02:06.36	305.63	58.09	-26.5	-26.7	16.0	0.00e+00	0	46	0	25920798720	19	15098
2026-01-01 10:02:09.34	301.52	58.22	-26.4	-26.6	16.0	0.00e+00	0	46	0	26256343040	19	14930
2026-01-01 10:02:12.32	297.38	58.21	-26.3	-26.6	16.1	0.00e+00	0	46	0	26591887360	19	14777
2026-01-01 10:02:15.30	293.27	58.07	-26.3	-26.5	16.2	0.00e+00	0	46	0	26927431680	19	14720
2026-01-01 10:02:18.28	289.23	57.79	-26.4	-26.6	16.2	0.00e+00	0	46	0	27254587392	19	14800
2026-01-01 10:02:21.25	285.30	57.39	-26.4	-26.6	16.2	0.00e+00	0	46	0	27598520320	19	14892
2026-01-01 10:02:24.21	281.51	56.87	-26.5	-26.7	16.2	0.00e+00	0	46	0	27925676032	19	15017
2026-01-01 10:02:27.19	277.86	56.24	-26.6	-26.8	16.2	0.00e+00	0	46	0	28269608960	19	15203
2026-01-01 10:02:30.18	274.38	55.51	-26.7	-26.9	16.2	0.00e+00	0	46	0	28596764672	19	15451
2026-01-01 10:02:33.15	271.10	54.70	-26.9	-27.1	16.1	0.00e+00	0	46	0	28932308992	19	15687
2026-01-01 10:02:36.13	268.01	53.81	-26.9	-27.1	16.1	0.00e+00	0	46	0	29267853312	19	15815
2026-01-01 10:02:39.10	265.12	52.87	-27.1	-27.3	16.1	0.00e+00	0	46	0	29603397632	20	15144
2026-01-01 10:02:42.08	262.41	51.88	-27.3	-27.5	16.1	0.00e+00	0	46	0	29938941952	20	15525
2026-01-01 10:02:45.06	259.89	50.85	-27.4	-27.6	16.1	0.00e+00	0	46	0	30274486272	20	15762
2026-01-01 10:02:48.04	257.53	49.79	-27.6	-27.8	16.1	0.00e+00	0	46	0	30610030592	21	15282
2026-01-01 10:02:51.01	255.35	48.71	-27.7	-27.9	16.1	0.00e+00	0	46	0	30945574912	21	15467
2026-01-01 10:02:53.98	253.32	47.63	-28.0	-28.2	16.1	0.00e+00	0	46	0	31272730624	21	15956
2026-01-01 10:02:56.96	251.43	46.53	-28.2	-28.5	16.1	0.00e+00	0	46	0	31616663552	22	15487
2026-01-01 10:02:59.93	249.67	45.44	-28.3	-28.5	16.1	0.00e+00	0	46	0	31943819264	22	15589
2026-01-01 10:03:02.92	248.03	44.35	-28.6	-28.8	16.1	0.00e+00	0	46	0	32279363584	23	15128
2026-01-01 10:03:05.89	246.51	43.28	-28.8	-29.0	16.1	0.00e+00	0	46	0	32623296512	23	15543
2026-01-01 10:03:08.88	245.08	42.21	-29.0	-29.2	16.1	0.00e+00	0	46	0	32950452224	23	15872
2026-01-01 10:03:11.87	243.74	41.15	-29.3	-29.5	16.1	0.00e+00	0	46	0	33285996544	24	15500
2026-01-01 10:03:14.85	242.50	40.12	-29.6	-29.8	16.0	0.00e+00	0	46	0	33629929472	24	16129
2026-01-01 10:03:17.84	241.33	39.11	-29.8	-30.1	16.0	0.00e+00	0	46	0	33957085184	25	15688
2026-01-01 10:03:20.81	240.24	38.12	-30.1	-30.3	16.0	0.00e+00	0	46	0	34292629504	25	16085
2026-01-01 10:03:23.78	239.22	37.15	-30.4	-30.6	15.9	0.00e+00	0	46	0	34628173824	26	15791
2026-01-01 10:03:26.75	238.26	36.21	-30.6	-30.8	15.9	0.00e+00	0	46	0	34963718144	27	15288
2026-01-01 10:03:29.72	237.36	35.29	-30.8	-31.0	15.9	0.00e+00	0	46	0	35299262464	27	15560
2026-01-01 10:03:32.70	236.51	34.39	-31.0	-31.2	15.8	0.00e+00	0	46	0	35634806784	27	15995
2026-01-01 10:03:35.68	235.71	33.51	-31.3	-31.5	15.8	0.00e+00	0	46	0	35970351104	28	15501
2026-01-01 10:03:38.67	234.95	32.65	-31.4	-31.6	15.7	0.00e+00	0	46	0	36305895424	28	15775
2026-01-01 10:03:41.64	234.23	31.82	-31.5	-31.7	15.7	0.00e+00	0	46	0	36633051136	28	15975
2026-01-01 10:03:44.61	233.55	31.01	-31.8	-32.0	15.7	0.00e+00	0	46	0	36976984064	29	15578
2026-01-01 10:03:47.58	232.91	30.23	-31.9	-32.1	15.7	0.00e+00	0	46	0	37304139776	29	15813
2026-01-01 10:03:50.57	232.30	29.45	-32.2	-32.5	15.7	0.00e+00	0	46	0	37639684096	30	15476
2026-01-01 10:03:53.54	231.72	28.71	-32.4	-32.7	15.7	0.00e+00	0	46	0	37975228416	30	15845
2026-01-01 10:03:56.52	231.17	27.98	-32.7	-32.9	15.6	0.00e+00	0	46	0	38310772736	31	15432
2026-01-01 10:03:59.50	230.65	27.27	-33.0	-33.2	15.6	0.00e+00	0	46	0	38646317056	31	15972
2026-01-01 10:04:02.47	230.15	26.59	-33.4	-33.6	15.5	0.00e+00	0	46	0	38981861376	32	15694
2026-01-01 10:04:05.44	229.67	25.92	-33.8	-34.0	15.5	1.43e-05	0	46	0	39317405696	33	15614
2026-01-01 10:04:08.41	229.22	25.27	-34.1	-34.3	15.4	0.00e+00	0	46	0	39652950016	33	16165
2026-01-01 10:04:11.38	228.79	24.64	-34.5	-34.7	15.3	1.90e-05	0	46	0	39980105728	34	15888
2026-01-01 10:04:14.36	228.37	24.02	-34.8	-35.0	15.3	2.86e-05	0	46	0	40324038656	35	15519
2026-01-01 10:04:17.32	227.98	23.42	-35.0	-35.3	15.3	7.15e-05	0	46	0	40651194368	35	16037
2026-01-01 10:04:20.30	227.60	22.83	-37.7	-37.9	15.4	2.86e-05	0	46	0	40986738688	41	15465
2026-01-01 10:04:23.29	227.23	22.25	-37.8	-38.0	15.4	2.38e-05	0	46	0	41322283008	41	15628
2026-01-01 10:04:26.24	226.89	21.70	-37.9	-38.1	15.4	1.43e-05	0	46	0	41657827328	41	15833
2026-01-01 10:04:29.23	226.55	21.16	-38.2	-38.4	15.4	2.86e-05	0	46	0	41993371648	42	15410
2026-01-01 10:04:32.21	226.23	20.62	-38.4	-38.6	15.4	4.29e-05	0	46	0	42328915968	42	15712
2026-01-01 10:04:35.19	225.92	20.11	-38.6	-38.9	15.3	1.00e-04	0	46	0	42664460288	42	16207
2026-01-01 10:04:38.16	225.62	19.60	-38.8	-39.0	15.2	7.62e-05	0	46	0	43000004608	43	15633
2026-01-01 10:04:41.13	225.34	19.11	-39.0	-39.2	15.3	6.19e-05	0	46	0	43327160320	43	15918
2026-01-01 10:04:44.11	225.06	18.62	-39.2	-39.4	15.2	2.14e-04	0	46	0	43671093248	44	15432
2026-01-01 10:04:47.08	224.80	18.15	-39.6	-39.8	15.1	2.10e-04	0	46	0	43998248960	44	16065
2026-01-01 10:04:50.07	224.54	17.69	-39.8	-40.0	15.1	2.72e-04	0	46	0	44333793280	45	15638
2026-01-01 10:04:53.04	224.29	17.24	-40.0	-40.3	15.0	3.96e-04	0	46	0	44669337600	45	16048
2026-01-01 10:04:56.02	224.06	16.80	-40.3	-40.5	15.0	5.15e-04	0	46	0	45004881920	46	15651
2026-01-01 10:04:58.98	223.83	16.37	-40.6	-40.9	14.9	5.53e-04	0	47	0	45340426240	47	15337
2026-01-01 10:05:01.95	223.61	15.95	-40.8	-41.1	14.8	9.68e-04	0	47	0	45675970560	47	15661
2026-01-01 10:05:04.92	223.39	15.54	-40.9	-41.1	14.8	1.03e-03	0	46	0	46003126272	47	15830
2026-01-01 10:05:07.88	223.18	15.14	-41.0	-41.3	14.8	1.38e-03	0	47	0	46338670592	47	16082
2026-01-01 10:05:10.84	222.99	14.74	-42.0	-42.3	14.9	1.15e-03	0	46	0	46674214912	49	16045
2026-01-01 10:05:13.83	222.79	14.35	-42.3	-42.5	14.8	9.77e-04	0	46	0	47009759232	50	15544
2026-01-01 10:05:16.80	222.60	13.97	-42.3	-42.6	14.8	1.23e-03	0	47	0	47345303552	50	15693
2026-01-01 10:05:19.77	222.42	13.60	-42.5	-42.7	14.8	1.25e-03	0	47	0	47680847872	50	15936
2026-01-01 10:05:22.75	222.24	13.23	-42.6	-42.8	14.7	1.56e-03	0	46	0	48016392192	51	15262
2026-01-01 10:05:25.72	222.07	12.87	-42.9	-43.1	14.6	1.68e-03	0	47	0	48343547904	51	15769
2026-01-01 10:05:28.68	221.91	12.52	-43.1	-43.3	14.6	2.61e-03	0	47	0	48679092224	51	16085
2026-01-01 10:05:31.66	221.75	12.17	-43.0	-43.3	14.5	2.67e-03	0	47	0	49014636544	52	15163
2026-01-01 10:05:34.65	221.59	11.83	-43.2	-43.5	14.5	3.22e-03	0	46	0	49350180864	52	15492
2026-01-01 10:05:37.62	221.44	11.49	-43.3	-43.5	14.4	3.63e-03	0	46	0	49685725184	52	15648
2026-01-01 10:05:40.58	221.29	11.17	-43.5	-43.7	14.4	3.63e-03	0	47	0	50021269504	52	15945
2026-01-01 10:05:43.56	221.15	10.84	-43.9	-44.1	14.3	4.46e-03	0	47	0	50356813824	53	15739
2026-01-01 10:05:46.55	221.01	10.52	-43.8	-44.1	14.3	5.45e-03	0	47	0	50692358144	53	15700
2026-01-01 10:05:49.53	220.87	10.21	-43.9	-44.2	14.2	6.58e-03	0	47	0	51027902464	53	15899
2026-01-01 10:05:52.49	220.74	9.90	-44.1	-44.4	14.1	6.53e-03	0	47	0	51363446784	53	16245
2026-01-01 10:05:55.46	220.61	9.60	-44.2	-44.5	14.1	8.22e-03	0	46	0	51690602496	54	15547
2026-01-01 10:05:58.42	220.49	9.30	-44.4	-44.7	14.0	8.90e-03	0	47	0	52026146816	54	15871
2026-01-01 10:06:01.39	220.37	9.01	-44.6	-44.9	13.9	9.67e-03	0	47	0	52353302528	54	16280
2026-01-01 10:06:04.37	220.25	8.72	-44.8	-45.0	13.8	1.41e-02	0	47	0	52697235456	55	15614
2026-01-01 10:06:07.32	220.13	8.43	-44.8	-45.1	13.8	1.45e-02	0	47	0	53024391168	55	15798
2026-01-01 10:06:10.28	220.02	8.15	-45.0	-45.3	13.7	1.45e-02	0	47	0	53359935488	55	16066
2026-01-01 10:06:13.27	219.91	7.88	-45.0	-45.3	13.7	1.63e-02	0	47	0	53695479808	55	16161
2026-01-01 10:06:16.24	219.80	7.60	-45.2	-45.5	13.7	1.96e-02	0	47	0	54031024128	56	15512
2026-01-01 10:06:19.22	219.70	7.33	-45.2	-45.5	13.6	1.96e-02	0	47	0	54366568448	56	15522
2026-01-01 10:06:22.20	219.60	7.07	-45.5	-45.8	13.5	2.68e-02	0	47	0	54702112768	56	16063
2026-01-01 10:06:25.18	219.50	6.80	-60.1	-63.3	6.2	2.68e-02	0	46	104	54920216576	85	22819
2026-01-01 10:06:28.15	219.40	6.54	-60.1	-63.3	6.2	2.68e-02	0	46	104	54920216576	85	22641
2026-01-01 10:06:31.13	219.31	6.29	-59.9	-63.1	6.2	1.89e-02	0	46	104	54920216576	85	22238
2026-01-01 10:06:34.10	219.22	6.04	-59.9	-63.1	6.2	1.89e-02	0	46	104	54920216576	85	22130
2026-01-01 10:06:37.07	219.13	5.79	-59.9	-63.1	6.2	1.89e-02	0	46	104	54920216576	85	22141
2026-01-01 10:06:40.05	219.04	5.54	-59.8	-63.1	6.2	1.89e-02	0	46	104	54920216576	85	22165
2026-01-01 10:06:43.03	218.95	5.30	-59.6	-62.8	6.2	0.00e+00	0	45	104	54920216576	85	21475
2026-01-01 10:06:46.00	218.87	5.06	-59.6	-62.8	6.2	0.00e+00	0	46	104	54920216576	85	21435
2026-01-01 10:06:49.00	218.79	4.82	-60.8	-64.0	6.2	0.00e+00	0	45	104	54920216576	87	22067
2026-01-01 10:06:52.03	218.71	4.58	-61.3	-64.5	6.2	0.00e+00	0	45	104	54920216576	88	21917
2026-01-01 10:06:55.04	218.63	4.34	-61.6	-64.7	6.2	0.00e+00	0	45	104	54920216576	88	22610
2026-01-01 10:06:58.06	218.55	4.11	-61.7	-64.9	6.2	0.00e+00	0	45	104	54920216576	89	21729
2026-01-01 10:07:01.05	218.48	3.88	-61.8	-65.0	6.2	0.00e+00	0	45	104	54920216576	89	21979
2026-01-01 10:07:04.04	218.40	3.66	-61.9	-65.1	6.2	0.00e+00	0	45	104	54920216576	89	22188
2026-01-01 10:07:07.02	218.33	3.43	-61.9	-65.1	6.2	0.00e+00	0	45	104	54920216576	89	22297
2026-01-01 10:07:10.00	218.26	3.21	-61.9	-65.1	6.2	0.00e+00	0	45	104	54920216576	89	22184
2026-01-01 10:07:12.98	218.19	3.00	-61.8	-65.0	6.2	0.00e+00	0	45	104	54920216576	89	22064
2026-01-01 10:07:15.95	218.12	2.78	-61.8	-65.0	6.2	0.00e+00	0	45	104	54920216576	89	21975
2026-01-01 10:07:18.93	218.06	2.57	-61.8	-64.9	6.2	0.00e+00	0	45	104	54920216576	89	21845
2026-01-01 10:07:21.91	217.99	2.35	-61.7	-64.9	6.2	0.00e+00	0	44	104	54920216576	89	21818
2026-01-01 10:07:24.88	217.93	2.15	-61.7	-64.9	6.2	0.00e+00	0	45	104	54920216576	89	21745
2026-01-01 10:07:27.87	217.87	1.94	-61.7	-64.9	6.2	0.00e+00	0	45	104	54920216576	89	21627

#Closed at: 2026-01-01 10:07:29
#Recorded file [54920 MB]: D:/lorett/data/31004_260101_125653.dat