passes_logs/2026/01/01/R3.2S_Murmansk/R3.2S_Murmansk__20260101_224959_KANOPUS-V-IK_rec.log

#Pass ID: 20260101_224959_KANOPUS-V-IK
#Satellite: KANOPUS-V-IK
#Configuration: KANOPUS-V_8128
#almurnet v.1.7.20251203
#Start time: 2026-01-01 22:50:01

#Version: 2.2.20231116
#Station: R3.2S_Murmansk
#Location: 33.079688 lon 68.888172 lat
#TLE: 1 42825U 17042A   26001.21266440  .00005755  00000+0  24506-3 0  9990
#TLE: 2 42825  97.3692 269.9908 0001826  86.2004 273.9442 15.23363314469954

#Time	Az	El	Level	Level2	SNR	BER	BlckErr	Temp	State	Recorded	gain1	gain2
2026-01-01 22:50:01.12	20.99	2.14	-59.0	-69.7	3.8	7.45e-01	0	32	0	0	86	12744
2026-01-01 22:50:04.10	20.92	2.35	-59.0	-69.7	3.8	7.45e-01	0	31	104	0	86	12720
2026-01-01 22:50:07.09	20.86	2.56	-59.0	-69.7	3.8	7.45e-01	0	32	104	0	86	12778
2026-01-01 22:50:10.07	20.79	2.77	-59.0	-69.7	3.8	7.43e-01	0	32	104	0	86	12724
2026-01-01 22:50:13.07	20.72	2.99	-59.0	-69.7	3.8	7.48e-01	0	32	104	0	86	12730
2026-01-01 22:50:16.08	20.65	3.21	-59.0	-69.7	3.8	7.46e-01	0	32	104	0	86	12752
2026-01-01 22:50:19.08	20.57	3.43	-59.0	-69.7	3.8	7.44e-01	0	32	104	0	86	12704
2026-01-01 22:50:22.04	20.50	3.65	-59.0	-69.7	3.8	7.45e-01	0	32	104	0	86	12735
2026-01-01 22:50:25.04	20.42	3.87	-59.0	-69.7	3.8	7.48e-01	0	32	104	0	86	12713
2026-01-01 22:50:28.05	20.35	4.10	-59.0	-69.6	3.8	7.47e-01	0	32	104	0	86	12606
2026-01-01 22:50:31.05	20.27	4.33	-59.0	-69.7	3.8	7.46e-01	0	32	104	0	86	12697
2026-01-01 22:50:34.05	20.18	4.57	-59.0	-69.7	3.8	7.46e-01	0	32	104	0	86	12728
2026-01-01 22:50:37.05	20.10	4.80	-59.0	-69.7	3.9	7.47e-01	0	32	104	0	86	12713
2026-01-01 22:50:40.04	20.02	5.04	-59.0	-69.7	3.8	7.45e-01	0	32	104	0	86	12691
2026-01-01 22:50:43.04	19.93	5.28	-58.9	-69.6	3.8	7.45e-01	0	33	104	0	86	12619
2026-01-01 22:50:46.03	19.84	5.53	-59.1	-69.9	3.8	7.46e-01	0	32	104	0	86	12983
2026-01-01 22:50:49.04	19.75	5.77	-59.0	-69.7	3.8	7.45e-01	0	32	104	0	86	12750
2026-01-01 22:50:52.04	19.65	6.02	-59.1	-69.8	3.8	7.45e-01	0	32	104	0	86	12952
2026-01-01 22:50:55.03	19.55	6.28	-59.0	-69.7	3.8	7.44e-01	0	33	104	0	86	12779
2026-01-01 22:50:58.03	19.46	6.53	-59.2	-69.9	3.8	7.46e-01	0	33	104	0	86	13078
2026-01-01 22:51:01.03	19.35	6.80	-59.1	-69.8	3.8	7.47e-01	0	33	104	0	86	12883
2026-01-01 22:51:04.02	19.25	7.06	-59.2	-69.9	3.8	7.45e-01	0	33	104	0	86	13070
2026-01-01 22:51:07.00	19.14	7.32	-59.1	-69.8	3.8	7.46e-01	0	33	104	0	86	12924
2026-01-01 22:51:09.99	19.03	7.59	-59.3	-70.0	3.8	7.46e-01	0	33	104	0	86	13215
2026-01-01 22:51:12.98	18.92	7.87	-59.2	-69.9	3.8	7.46e-01	0	33	104	0	86	13024
2026-01-01 22:51:15.98	18.81	8.15	-59.3	-70.0	3.8	7.46e-01	0	33	104	0	86	13174
2026-01-01 22:51:18.97	18.69	8.43	-59.2	-70.0	3.8	7.47e-01	0	33	104	0	86	13129
2026-01-01 22:51:21.97	18.56	8.72	-59.4	-70.1	3.8	7.46e-01	0	33	104	0	86	13301
2026-01-01 22:51:24.97	18.44	9.01	-59.3	-70.0	3.8	7.44e-01	0	33	104	0	86	13165
2026-01-01 22:51:27.97	18.31	9.31	-59.4	-70.1	3.8	7.45e-01	0	33	104	0	86	13281
2026-01-01 22:51:30.96	18.18	9.61	-59.3	-70.0	3.8	7.46e-01	0	33	104	0	86	13226
2026-01-01 22:51:33.96	18.04	9.91	-59.5	-70.1	3.8	7.46e-01	0	33	104	0	86	13408
2026-01-01 22:51:36.95	17.90	10.22	-59.4	-70.1	3.8	7.45e-01	0	33	104	0	86	13303
2026-01-01 22:51:39.95	17.76	10.54	-59.5	-70.2	3.8	7.46e-01	0	33	104	0	86	13430
2026-01-01 22:51:42.94	17.61	10.86	-59.4	-70.1	3.8	7.45e-01	0	33	104	0	87	12613
2026-01-01 22:51:45.94	17.46	11.19	-59.5	-70.2	3.8	7.44e-01	0	33	104	0	87	12747
2026-01-01 22:51:48.94	17.30	11.52	-59.5	-70.1	3.8	7.45e-01	0	33	104	0	87	12659
2026-01-01 22:51:51.93	17.14	11.86	-59.5	-70.3	3.8	7.46e-01	0	33	104	0	87	12830
2026-01-01 22:51:54.93	16.97	12.20	-59.5	-70.2	3.8	7.43e-01	0	33	104	0	87	12720
2026-01-01 22:51:57.93	16.80	12.55	-59.6	-70.3	3.8	7.45e-01	0	33	104	0	87	12853
2026-01-01 22:52:00.92	16.62	12.91	-59.5	-70.2	3.8	7.45e-01	0	33	104	0	87	12713
2026-01-01 22:52:03.90	16.44	13.27	-59.6	-70.3	3.8	7.46e-01	0	33	104	0	87	12858
2026-01-01 22:52:06.89	16.25	13.64	-59.6	-70.3	3.8	7.43e-01	0	33	104	0	87	12864
2026-01-01 22:52:09.88	16.05	14.02	-59.7	-70.3	3.8	7.46e-01	0	33	104	0	87	12937
2026-01-01 22:52:12.88	15.85	14.40	-59.6	-70.3	3.8	7.45e-01	0	33	104	0	87	12850
2026-01-01 22:52:15.87	15.64	14.80	-59.7	-70.3	3.8	7.44e-01	0	33	104	0	87	12958
2026-01-01 22:52:18.87	15.43	15.20	-59.7	-70.3	3.8	7.45e-01	0	33	104	0	87	12947
2026-01-01 22:52:21.86	15.20	15.61	-59.7	-70.4	3.8	7.45e-01	0	33	104	0	87	13043
2026-01-01 22:52:24.85	14.97	16.03	-59.7	-70.4	3.8	7.46e-01	0	33	104	0	87	12963
2026-01-01 22:52:27.86	14.73	16.46	-59.8	-70.4	3.8	7.46e-01	0	33	104	0	87	13054
2026-01-01 22:52:30.86	14.48	16.89	-59.7	-70.4	3.8	7.44e-01	0	33	104	0	87	13071
2026-01-01 22:52:33.86	14.22	17.34	-59.8	-70.5	3.8	7.45e-01	0	33	104	0	87	13153
2026-01-01 22:52:36.86	13.96	17.80	-59.8	-70.4	3.8	7.45e-01	0	33	104	0	87	13108
2026-01-01 22:52:39.85	13.68	18.27	-59.8	-70.5	3.8	7.44e-01	0	33	104	0	87	13206
2026-01-01 22:52:42.83	13.39	18.74	-59.8	-70.5	3.8	7.46e-01	0	33	104	0	87	13185
2026-01-01 22:52:45.83	13.10	19.24	-59.9	-70.6	3.8	7.46e-01	0	33	104	0	87	13305
2026-01-01 22:52:48.83	12.78	19.74	-59.9	-70.5	3.8	7.45e-01	0	33	104	0	87	13196
2026-01-01 22:52:51.82	12.46	20.25	-59.9	-70.6	3.8	7.45e-01	0	33	104	0	87	13332
2026-01-01 22:52:54.82	12.12	20.78	-59.9	-70.6	3.8	7.45e-01	0	33	104	0	87	13353
2026-01-01 22:52:57.83	11.77	21.32	-60.0	-70.7	3.8	7.47e-01	0	33	104	0	87	13427
2026-01-01 22:53:00.81	11.41	21.88	-60.0	-70.6	3.8	7.45e-01	0	33	104	0	87	13342
2026-01-01 22:53:03.81	11.03	22.45	-60.0	-70.7	3.8	7.44e-01	0	34	104	0	88	12709
2026-01-01 22:53:06.80	10.63	23.03	-60.0	-70.7	3.8	7.45e-01	0	33	104	0	88	12713
2026-01-01 22:53:09.80	10.21	23.63	-60.1	-70.7	3.8	7.45e-01	0	33	104	0	88	12795
2026-01-01 22:53:12.80	9.78	24.24	-60.1	-70.7	3.8	7.45e-01	0	33	104	0	88	12722
2026-01-01 22:53:15.80	9.32	24.88	-60.1	-70.8	3.8	7.47e-01	0	33	104	0	88	12858
2026-01-01 22:53:18.80	8.85	25.53	-60.1	-70.8	3.8	7.45e-01	0	33	104	0	88	12866
2026-01-01 22:53:21.79	8.35	26.19	-60.2	-70.9	3.8	7.47e-01	0	33	104	0	88	13010
2026-01-01 22:53:24.79	7.82	26.88	-60.2	-70.8	3.8	7.45e-01	0	33	104	0	88	12941
2026-01-01 22:53:27.79	7.27	27.58	-60.2	-70.9	3.8	7.48e-01	0	33	104	0	88	13068
2026-01-01 22:53:30.79	6.69	28.31	-60.2	-70.9	3.8	7.45e-01	0	33	104	0	88	13001
2026-01-01 22:53:33.79	6.08	29.05	-60.3	-71.0	3.8	7.45e-01	0	33	104	0	88	13134
2026-01-01 22:53:36.78	5.44	29.82	-60.3	-70.9	3.8	7.47e-01	0	33	104	0	88	13051
2026-01-01 22:53:39.78	4.76	30.60	-60.3	-71.0	3.8	7.44e-01	0	33	104	0	88	13192
2026-01-01 22:53:42.78	4.05	31.41	-60.3	-71.0	3.8	7.44e-01	0	33	104	0	88	13185
2026-01-01 22:53:45.77	3.30	32.24	-60.4	-71.1	3.8	7.47e-01	0	33	104	0	88	13333
2026-01-01 22:53:48.77	2.50	33.09	-60.4	-71.1	3.8	7.45e-01	0	33	104	0	88	13341
2026-01-01 22:53:51.77	1.65	33.97	-60.4	-71.1	3.8	7.48e-01	0	33	104	0	88	13370
2026-01-01 22:53:54.77	0.75	34.87	-60.4	-71.1	3.8	7.46e-01	0	33	104	0	88	13323
2026-01-01 22:53:57.77	359.79	35.79	-60.5	-71.2	3.8	7.46e-01	0	33	104	0	89	12738
2026-01-01 22:54:00.76	358.78	36.73	-60.5	-71.2	3.8	7.45e-01	0	33	104	0	89	12732
2026-01-01 22:54:03.76	357.70	37.69	-60.6	-71.2	3.8	7.45e-01	0	33	104	0	89	12767
2026-01-01 22:54:06.75	356.56	38.67	-60.6	-71.3	3.8	7.46e-01	0	33	104	0	89	12815
2026-01-01 22:54:09.73	355.34	39.67	-60.6	-71.3	3.8	7.45e-01	0	33	104	0	89	12872
2026-01-01 22:54:12.72	354.03	40.69	-60.7	-71.3	3.8	7.46e-01	0	33	104	0	89	12943
2026-01-01 22:54:15.70	352.64	41.72	-60.7	-71.3	3.8	7.46e-01	0	33	104	0	89	12922
2026-01-01 22:54:18.70	351.13	42.78	-60.7	-71.3	3.8	7.45e-01	0	33	104	0	89	12930
2026-01-01 22:54:21.70	349.53	43.84	-60.8	-71.4	3.8	7.46e-01	0	33	104	0	89	13085
2026-01-01 22:54:24.69	347.81	44.91	-60.8	-71.4	3.8	7.45e-01	0	33	104	0	89	13087
2026-01-01 22:54:27.69	345.96	45.98	-60.8	-71.5	3.8	7.46e-01	0	33	104	0	89	13133
2026-01-01 22:54:30.69	343.97	47.05	-60.8	-71.5	3.8	7.46e-01	0	33	104	0	89	13184
2026-01-01 22:54:33.67	341.86	48.11	-60.9	-71.6	3.8	7.47e-01	0	33	104	0	89	13266
2026-01-01 22:54:36.67	339.57	49.15	-60.9	-71.5	3.8	7.45e-01	0	33	104	0	89	13253
2026-01-01 22:54:39.65	337.14	50.17	-60.9	-71.6	3.8	7.45e-01	0	33	104	0	89	13330
2026-01-01 22:54:42.66	334.50	51.16	-60.9	-71.5	3.8	7.45e-01	0	33	104	0	89	13253
2026-01-01 22:54:45.65	331.71	52.10	-61.0	-71.6	3.8	7.44e-01	0	33	104	0	89	13354
2026-01-01 22:54:48.65	328.72	52.99	-61.0	-71.7	3.8	7.44e-01	0	33	104	0	89	13427
2026-01-01 22:54:51.65	325.55	53.81	-61.0	-71.7	3.8	7.45e-01	0	33	104	0	89	13427
2026-01-01 22:54:54.65	322.19	54.55	-61.0	-71.7	3.8	7.46e-01	0	33	104	0	90	12688
2026-01-01 22:54:57.64	318.68	55.20	-61.1	-71.7	3.8	7.46e-01	0	33	104	0	90	12759
2026-01-01 22:55:00.64	315.00	55.75	-61.1	-71.8	3.8	7.47e-01	0	33	104	0	90	12813
2026-01-01 22:55:03.64	311.18	56.19	-61.1	-71.7	3.8	7.46e-01	0	33	104	0	90	12802
2026-01-01 22:55:06.62	307.29	56.50	-61.1	-71.7	3.8	7.47e-01	0	33	104	0	90	12754
2026-01-01 22:55:09.61	303.31	56.68	-61.1	-71.8	3.8	7.46e-01	0	33	104	0	90	12892
2026-01-01 22:55:12.60	299.29	56.73	-61.1	-71.8	3.8	7.47e-01	0	33	104	0	90	12924
2026-01-01 22:55:15.59	295.28	56.65	-61.1	-71.8	3.8	7.46e-01	0	34	104	0	90	12849
2026-01-01 22:55:18.58	291.31	56.44	-61.1	-71.7	3.8	7.46e-01	0	33	104	0	90	12782
2026-01-01 22:55:21.57	287.42	56.09	-61.1	-71.7	3.8	7.45e-01	0	33	104	0	90	12795
2026-01-01 22:55:24.57	283.63	55.63	-61.1	-71.7	3.8	7.46e-01	0	34	104	0	90	12797
2026-01-01 22:55:27.57	279.98	55.06	-61.0	-71.7	3.8	7.47e-01	0	33	104	0	90	12735
2026-01-01 22:55:30.57	276.49	54.38	-61.0	-71.7	3.8	7.45e-01	0	33	104	0	90	12673
2026-01-01 22:55:33.57	273.18	53.62	-61.0	-71.7	3.8	7.46e-01	0	33	104	0	90	12684
2026-01-01 22:55:36.57	270.04	52.78	-61.0	-71.6	3.8	7.46e-01	0	34	104	0	90	12659
2026-01-01 22:55:39.56	267.11	51.87	-60.9	-71.6	3.8	7.45e-01	0	33	104	0	90	12608
2026-01-01 22:55:42.57	264.33	50.91	-60.9	-71.6	3.8	7.45e-01	0	33	104	0	90	12593
2026-01-01 22:55:45.56	261.75	49.92	-60.9	-71.6	3.8	7.46e-01	0	33	104	0	90	12559
2026-01-01 22:55:48.55	259.35	48.89	-60.9	-71.6	3.8	7.46e-01	0	34	104	0	90	12532
2026-01-01 22:55:51.56	257.09	47.83	-60.9	-71.6	3.8	7.45e-01	0	34	104	0	90	12520
2026-01-01 22:55:54.55	255.00	46.77	-60.8	-71.5	3.8	7.44e-01	0	33	104	0	90	12436
2026-01-01 22:55:57.55	253.04	45.69	-60.8	-71.5	3.8	7.47e-01	0	33	104	0	90	12420
2026-01-01 22:56:00.55	251.22	44.62	-60.8	-71.5	3.8	7.45e-01	0	33	104	0	90	12452
2026-01-01 22:56:03.54	249.53	43.55	-60.8	-71.4	3.8	7.45e-01	0	33	104	0	90	12340
2026-01-01 22:56:06.53	247.95	42.49	-60.7	-71.4	3.8	7.45e-01	0	33	104	0	90	12268
2026-01-01 22:56:09.51	246.48	41.44	-60.8	-71.4	3.8	7.45e-01	0	33	104	0	90	12299
2026-01-01 22:56:12.51	245.10	40.40	-60.7	-71.4	3.8	7.46e-01	0	33	104	0	90	12272
2026-01-01 22:56:15.50	243.81	39.38	-60.7	-71.3	3.8	7.45e-01	0	33	104	0	90	12174
2026-01-01 22:56:18.49	242.61	38.38	-60.7	-71.3	3.8	7.44e-01	0	33	104	0	90	12179
2026-01-01 22:56:21.48	241.48	37.40	-60.7	-71.3	3.8	7.43e-01	0	33	104	0	90	12164
2026-01-01 22:56:24.48	240.41	36.44	-60.6	-71.3	3.8	7.45e-01	0	33	104	0	90	12167
2026-01-01 22:56:27.48	239.41	35.50	-60.6	-71.3	3.8	7.45e-01	0	34	104	0	90	12110
2026-01-01 22:56:30.47	238.47	34.59	-60.6	-71.2	3.8	7.46e-01	0	33	104	0	90	12076
2026-01-01 22:56:33.47	237.58	33.69	-60.6	-71.2	3.8	7.44e-01	0	33	104	0	90	12093
2026-01-01 22:56:36.47	236.75	32.82	-60.5	-71.2	3.8	7.46e-01	0	33	104	0	89	12691
2026-01-01 22:56:39.47	235.96	31.97	-60.5	-71.1	3.8	7.44e-01	0	33	104	0	89	12643
2026-01-01 22:56:42.46	235.21	31.14	-60.5	-71.1	3.8	7.46e-01	0	33	104	0	89	12614
2026-01-01 22:56:45.46	234.50	30.34	-60.4	-71.1	3.8	7.45e-01	0	33	104	0	89	12576
2026-01-01 22:56:48.46	233.83	29.55	-60.4	-71.1	3.8	7.46e-01	0	33	104	0	89	12555
2026-01-01 22:56:51.46	233.20	28.79	-60.4	-71.0	3.8	7.44e-01	0	33	104	0	89	12463
2026-01-01 22:56:54.46	232.60	28.05	-60.3	-71.0	3.8	7.46e-01	0	34	104	0	89	12421
2026-01-01 22:56:57.46	232.02	27.33	-60.3	-71.0	3.8	7.44e-01	0	33	104	0	89	12453
2026-01-01 22:57:00.46	231.48	26.63	-60.3	-71.0	3.8	7.46e-01	0	33	104	0	89	12393
2026-01-01 22:57:03.46	230.96	25.94	-60.3	-70.9	3.8	7.46e-01	0	33	104	0	89	12340
2026-01-01 22:57:06.46	230.46	25.28	-60.2	-70.9	3.8	7.44e-01	0	33	104	0	89	12237
2026-01-01 22:57:09.45	229.99	24.63	-60.2	-70.9	3.8	7.46e-01	0	34	104	0	89	12310
2026-01-01 22:57:12.44	229.54	24.00	-60.2	-70.8	3.8	7.45e-01	0	33	104	0	89	12203
2026-01-01 22:57:15.43	229.11	23.39	-60.2	-70.8	3.8	7.46e-01	0	34	104	0	89	12228
2026-01-01 22:57:18.43	228.70	22.79	-60.1	-70.8	3.8	7.46e-01	0	33	104	0	89	12167
2026-01-01 22:57:21.41	228.30	22.22	-60.1	-70.8	3.8	7.45e-01	0	34	104	0	88	12904
2026-01-01 22:57:24.41	227.92	21.65	-60.1	-70.8	3.8	7.45e-01	0	33	104	0	88	12821
2026-01-01 22:57:27.41	227.56	21.09	-60.1	-70.7	3.8	7.47e-01	0	33	104	0	88	12805
2026-01-01 22:57:30.41	227.21	20.55	-60.1	-70.7	3.8	7.46e-01	0	33	104	0	88	12728
2026-01-01 22:57:33.41	226.88	20.03	-60.0	-70.7	3.8	7.46e-01	0	34	104	0	88	12766
2026-01-01 22:57:36.40	226.56	19.52	-60.0	-70.7	3.8	7.44e-01	0	33	104	0	88	12702
2026-01-01 22:57:39.39	226.25	19.02	-60.0	-70.7	3.8	7.45e-01	0	33	104	0	88	12672
2026-01-01 22:57:42.39	225.95	18.53	-60.0	-70.6	3.8	7.46e-01	0	33	104	0	88	12655
2026-01-01 22:57:45.39	225.67	18.05	-59.9	-70.6	3.8	7.45e-01	0	33	104	0	88	12588
2026-01-01 22:57:48.38	225.39	17.58	-59.9	-70.6	3.8	7.45e-01	0	33	104	0	88	12545
2026-01-01 22:57:51.37	225.13	17.13	-59.9	-70.5	3.8	7.45e-01	0	33	104	0	88	12517
2026-01-01 22:57:54.37	224.87	16.68	-59.9	-70.6	3.8	7.44e-01	0	33	104	0	88	12531
2026-01-01 22:57:57.37	224.62	16.25	-59.8	-70.5	3.8	7.46e-01	0	34	104	0	88	12435
2026-01-01 22:58:00.37	224.38	15.82	-59.8	-70.5	3.8	7.47e-01	0	33	104	0	88	12437
2026-01-01 22:58:03.36	224.15	15.40	-59.8	-70.5	3.8	7.46e-01	0	34	104	0	88	12392
2026-01-01 22:58:06.36	223.93	14.99	-59.8	-70.4	3.8	7.46e-01	0	34	104	0	88	12343
2026-01-01 22:58:09.37	223.71	14.59	-59.7	-70.4	3.8	7.45e-01	0	33	104	0	88	12298
2026-01-01 22:58:12.37	223.50	14.20	-59.7	-70.4	3.8	7.45e-01	0	34	104	0	88	12300
2026-01-01 22:58:15.35	223.30	13.81	-59.7	-70.4	3.8	7.47e-01	0	34	104	0	88	12334
2026-01-01 22:58:18.33	223.11	13.44	-59.7	-70.3	3.8	7.47e-01	0	34	104	0	88	12213
2026-01-01 22:58:21.32	222.92	13.07	-59.7	-70.3	3.8	7.46e-01	0	34	104	0	88	12155
2026-01-01 22:58:24.30	222.74	12.71	-59.6	-70.3	3.8	7.45e-01	0	33	104	0	88	12180
2026-01-01 22:58:27.31	222.56	12.35	-59.6	-70.3	3.8	7.46e-01	0	33	104	0	88	12154
2026-01-01 22:58:30.29	222.39	12.00	-59.6	-70.2	3.8	7.45e-01	0	33	104	0	88	12087
2026-01-01 22:58:33.30	222.22	11.66	-59.5	-70.2	3.8	7.45e-01	0	34	104	0	88	12055
2026-01-01 22:58:36.30	222.06	11.32	-59.5	-70.2	3.8	7.43e-01	0	33	104	0	88	11989
2026-01-01 22:58:39.29	221.90	10.99	-59.5	-70.2	3.8	7.46e-01	0	34	104	0	87	12699
2026-01-01 22:58:42.29	221.75	10.66	-59.5	-70.1	3.8	7.46e-01	0	34	104	0	87	12620
2026-01-01 22:58:45.27	221.60	10.35	-59.4	-70.1	3.8	7.46e-01	0	33	104	0	87	12606
2026-01-01 22:58:48.27	221.45	10.03	-59.4	-70.1	3.8	7.45e-01	0	33	104	0	87	12562
2026-01-01 22:58:51.26	221.31	9.72	-59.4	-70.1	3.8	7.47e-01	0	34	104	0	87	12602
2026-01-01 22:58:54.26	221.18	9.42	-59.3	-70.0	3.8	7.46e-01	0	34	104	0	87	12456
2026-01-01 22:58:57.26	221.04	9.11	-59.3	-70.0	3.8	7.43e-01	0	33	104	0	87	12449
2026-01-01 22:59:00.26	220.91	8.82	-59.3	-70.0	3.8	7.45e-01	0	34	104	0	87	12414
2026-01-01 22:59:03.25	220.79	8.53	-59.3	-70.0	3.8	7.47e-01	0	34	104	0	87	12441
2026-01-01 22:59:06.25	220.67	8.24	-59.2	-69.9	3.8	7.45e-01	0	33	104	0	87	12276
2026-01-01 22:59:09.23	220.55	7.96	-59.1	-69.8	3.8	7.46e-01	0	33	104	0	87	12234
2026-01-01 22:59:12.23	220.43	7.68	-59.2	-69.8	3.8	7.45e-01	0	33	104	0	87	12195
2026-01-01 22:59:15.22	220.32	7.41	-59.2	-69.8	3.8	7.46e-01	0	34	104	0	87	12213
2026-01-01 22:59:18.21	220.21	7.14	-59.0	-69.7	3.8	7.45e-01	0	33	104	0	87	12020
2026-01-01 22:59:21.22	220.10	6.87	-59.0	-69.7	3.9	7.45e-01	0	34	104	0	87	12016
2026-01-01 22:59:24.22	219.99	6.61	-59.0	-69.7	3.8	7.46e-01	0	34	104	0	87	12020
2026-01-01 22:59:27.22	219.89	6.35	-59.0	-69.7	3.8	7.47e-01	0	34	104	0	87	12052
2026-01-01 22:59:30.23	219.79	6.09	-58.9	-69.6	3.8	7.46e-01	0	33	104	0	87	11821
2026-01-01 22:59:33.24	219.69	5.83	-58.8	-69.5	3.8	7.47e-01	0	33	104	0	86	12460
2026-01-01 22:59:36.25	219.60	5.58	-58.8	-69.6	3.8	7.46e-01	0	34	104	0	86	12520
2026-01-01 22:59:39.25	219.50	5.34	-58.9	-69.5	3.8	7.46e-01	0	34	104	0	86	12469
2026-01-01 22:59:42.25	219.41	5.09	-58.7	-69.4	3.8	7.47e-01	0	33	104	0	86	12277
2026-01-01 22:59:45.25	219.32	4.85	-59.7	-70.4	3.8	7.46e-01	0	34	104	0	87	13034
2026-01-01 22:59:48.26	219.24	4.61	-60.4	-71.1	3.8	7.48e-01	0	34	104	0	88	13314
2026-01-01 22:59:51.26	219.15	4.38	-60.7	-71.4	3.8	7.45e-01	0	34	104	0	89	12993
2026-01-01 22:59:54.24	219.07	4.15	-60.9	-71.6	3.8	7.44e-01	0	34	104	0	89	13343
2026-01-01 22:59:57.24	218.99	3.92	-61.1	-71.8	3.8	7.46e-01	0	33	104	0	90	12859
2026-01-01 23:00:00.23	218.91	3.69	-61.2	-71.9	3.8	7.45e-01	0	33	104	0	90	12980
2026-01-01 23:00:03.23	218.83	3.46	-61.3	-71.9	3.8	7.46e-01	0	33	104	0	90	13093
2026-01-01 23:00:06.23	218.76	3.24	-61.3	-72.0	3.8	7.46e-01	0	34	104	0	90	13193
2026-01-01 23:00:09.23	218.68	3.02	-61.3	-71.9	3.8	7.47e-01	0	33	104	0	90	12993
2026-01-01 23:00:12.22	218.61	2.80	-61.2	-71.9	3.8	7.46e-01	0	34	104	0	90	12983
2026-01-01 23:00:15.22	218.54	2.59	-61.2	-71.8	3.8	7.44e-01	0	34	104	0	90	12951
2026-01-01 23:00:18.22	218.47	2.37	-61.1	-71.8	3.8	7.46e-01	0	33	104	0	90	12858
2026-01-01 23:00:21.21	218.40	2.16	-61.1	-71.8	3.8	7.45e-01	0	34	104	0	90	12863

#Closed at: 2026-01-01 23:00:23
#Recorded file [0 MB]: D:/lorett/data/31004_260102_015000.dat