passes_logs/2026/01/01/R3.2S_Murmansk/R3.2S_Murmansk__20260101_231317_KANOPUS-V_4_rec.log

#Pass ID: 20260101_231317_KANOPUS-V 4
#Satellite: KANOPUS-V 4
#Configuration: KANOPUS-V_8320
#almurnet v.1.7.20251203
#Start time: 2026-01-01 23:13:18

#Version: 2.2.20231116
#Station: R3.2S_Murmansk
#Location: 33.079688 lon 68.888172 lat
#TLE: 1 43181U 18014B   25365.57208584  .00000531  00000+0  25305-4 0  9998
#TLE: 2 43181  97.3700 269.4964 0001685  86.9371 273.2058 15.23323021439228

#Time	Az	El	Level	Level2	SNR	BER	BlckErr	Temp	State	Recorded	gain1	gain2
2026-01-01 23:13:18.33	21.47	2.06	-60.8	-70.5	3.8	7.45e-01	0	32	0	0	86	10649
2026-01-01 23:13:21.34	21.36	2.27	-60.8	-70.5	3.8	7.47e-01	0	32	104	0	86	10608
2026-01-01 23:13:24.35	21.24	2.47	-60.8	-70.5	3.8	7.46e-01	0	32	104	0	86	10622
2026-01-01 23:13:27.36	21.12	2.68	-60.8	-70.5	3.8	7.46e-01	0	32	104	0	86	10627
2026-01-01 23:13:30.34	21.00	2.90	-60.8	-70.5	3.8	7.45e-01	0	32	104	0	86	10619
2026-01-01 23:13:33.33	20.88	3.11	-60.8	-70.5	3.8	7.45e-01	0	32	104	0	86	10597
2026-01-01 23:13:36.33	20.75	3.33	-60.8	-70.5	3.8	7.46e-01	0	32	104	0	86	10610
2026-01-01 23:13:39.32	20.62	3.54	-60.8	-70.5	3.8	7.45e-01	0	32	104	0	86	10631
2026-01-01 23:13:42.32	20.49	3.76	-60.8	-70.5	3.8	7.45e-01	0	32	104	0	86	10613
2026-01-01 23:13:45.31	20.35	3.99	-60.8	-70.5	3.8	7.45e-01	0	33	104	0	86	10588
2026-01-01 23:13:48.31	20.22	4.21	-60.8	-70.5	3.9	7.45e-01	0	33	104	0	86	10636
2026-01-01 23:13:51.31	20.08	4.44	-60.8	-70.5	3.8	7.46e-01	0	33	104	0	86	10604
2026-01-01 23:13:54.31	19.93	4.67	-60.8	-70.5	3.8	7.46e-01	0	33	104	0	86	10551
2026-01-01 23:13:57.30	19.78	4.90	-60.8	-70.5	3.8	7.44e-01	0	33	104	0	86	10579
2026-01-01 23:14:00.30	19.63	5.14	-60.8	-70.5	3.8	7.45e-01	0	33	104	0	86	10652
2026-01-01 23:14:03.31	19.48	5.37	-60.9	-70.6	3.8	7.45e-01	0	33	104	0	86	10743
2026-01-01 23:14:06.31	19.32	5.62	-60.8	-70.5	3.8	7.46e-01	0	33	104	0	86	10592
2026-01-01 23:14:09.33	19.16	5.86	-60.9	-70.6	3.8	7.47e-01	0	33	104	0	86	10760
2026-01-01 23:14:12.31	19.00	6.10	-60.8	-70.5	3.8	7.46e-01	0	33	104	0	86	10652
2026-01-01 23:14:15.30	18.83	6.35	-60.9	-70.7	3.8	7.47e-01	0	33	104	0	86	10798
2026-01-01 23:14:18.29	18.66	6.60	-60.9	-70.6	3.8	7.46e-01	0	33	104	0	86	10684
2026-01-01 23:14:21.30	18.48	6.86	-61.0	-70.7	3.8	7.46e-01	0	33	104	0	86	10862
2026-01-01 23:14:24.28	18.30	7.12	-60.9	-70.6	3.8	7.45e-01	0	33	104	0	86	10762
2026-01-01 23:14:27.28	18.12	7.38	-61.0	-70.7	3.8	7.45e-01	0	33	104	0	86	10903
2026-01-01 23:14:30.29	17.93	7.65	-61.0	-70.7	3.8	7.46e-01	0	33	104	0	86	10805
2026-01-01 23:14:33.28	17.73	7.91	-61.1	-70.8	3.8	7.45e-01	0	33	104	0	86	10966
2026-01-01 23:14:36.28	17.53	8.19	-61.0	-70.7	3.8	7.46e-01	0	33	104	0	86	10856
2026-01-01 23:14:39.27	17.33	8.46	-61.1	-70.8	3.8	7.47e-01	0	33	104	0	86	11016
2026-01-01 23:14:42.25	17.12	8.74	-61.0	-70.8	3.8	7.46e-01	0	33	104	0	86	10920
2026-01-01 23:14:45.24	16.91	9.02	-61.1	-70.8	3.8	7.44e-01	0	33	104	0	86	11023
2026-01-01 23:14:48.23	16.69	9.31	-61.1	-70.8	3.8	7.45e-01	0	33	104	0	86	10985
2026-01-01 23:14:51.22	16.46	9.60	-61.2	-70.9	3.8	7.45e-01	0	33	104	0	86	11129
2026-01-01 23:14:54.22	16.23	9.90	-61.1	-70.8	3.8	7.46e-01	0	33	104	0	86	11019
2026-01-01 23:14:57.21	15.99	10.20	-61.2	-70.9	3.8	7.45e-01	0	33	104	0	86	11146
2026-01-01 23:15:00.21	15.75	10.50	-61.2	-70.9	3.8	7.45e-01	0	33	104	0	86	11101
2026-01-01 23:15:03.21	15.50	10.81	-61.3	-71.0	3.8	7.46e-01	0	33	104	0	86	11196
2026-01-01 23:15:06.21	15.24	11.13	-61.2	-70.9	3.8	7.45e-01	0	34	104	0	86	11125
2026-01-01 23:15:09.21	14.97	11.45	-61.3	-71.1	3.8	7.45e-01	0	34	104	0	86	11296
2026-01-01 23:15:12.20	14.70	11.77	-61.3	-71.0	3.8	7.47e-01	0	33	104	0	86	11243
2026-01-01 23:15:15.19	14.42	12.10	-61.4	-71.1	3.8	7.46e-01	0	34	104	0	86	11350
2026-01-01 23:15:18.19	14.13	12.43	-61.3	-71.0	3.8	7.45e-01	0	33	104	0	86	11252
2026-01-01 23:15:21.18	13.84	12.77	-61.4	-71.1	3.8	7.46e-01	0	33	104	0	86	11393
2026-01-01 23:15:24.19	13.53	13.12	-61.4	-71.0	3.8	7.46e-01	0	34	104	0	86	11268
2026-01-01 23:15:27.18	13.22	13.47	-61.4	-71.1	3.8	7.46e-01	0	34	104	0	86	11415
2026-01-01 23:15:30.18	12.89	13.83	-61.4	-71.1	3.8	7.47e-01	0	34	104	0	86	11363
2026-01-01 23:15:33.17	12.56	14.19	-61.5	-71.2	3.8	7.46e-01	0	33	104	0	86	11449
2026-01-01 23:15:36.17	12.21	14.56	-61.4	-71.1	3.8	7.47e-01	0	34	104	0	86	11411
2026-01-01 23:15:39.15	11.86	14.94	-61.5	-71.2	3.8	7.45e-01	0	34	104	0	86	11528
2026-01-01 23:15:42.13	11.49	15.32	-61.5	-71.2	3.8	7.45e-01	0	34	104	0	86	11475
2026-01-01 23:15:45.12	11.12	15.71	-61.6	-71.3	3.8	7.46e-01	0	34	104	0	86	11587
2026-01-01 23:15:48.10	10.73	16.11	-61.5	-71.2	3.8	7.47e-01	0	33	104	0	86	11453
2026-01-01 23:15:51.09	10.33	16.51	-61.6	-71.3	3.8	7.46e-01	0	34	104	0	86	11565
2026-01-01 23:15:54.08	9.91	16.92	-61.5	-71.3	3.8	7.46e-01	0	33	104	0	86	11595
2026-01-01 23:15:57.07	9.48	17.34	-61.6	-71.3	3.8	7.46e-01	0	33	104	0	86	11647
2026-01-01 23:16:00.05	9.04	17.77	-61.6	-71.3	3.8	7.47e-01	0	34	104	0	86	11571
2026-01-01 23:16:03.06	8.57	18.21	-61.7	-71.4	3.8	7.45e-01	0	34	104	0	86	11691
2026-01-01 23:16:06.04	8.10	18.65	-61.6	-71.4	3.8	7.45e-01	0	34	104	0	86	11696
2026-01-01 23:16:09.04	7.60	19.10	-61.7	-71.4	3.8	7.44e-01	0	34	104	0	86	11754
2026-01-01 23:16:12.04	7.09	19.57	-61.7	-71.4	3.8	7.45e-01	0	34	104	0	86	11742
2026-01-01 23:16:15.03	6.56	20.04	-61.8	-71.4	3.8	7.47e-01	0	33	104	0	86	11811
2026-01-01 23:16:18.03	6.01	20.52	-61.7	-71.4	3.8	7.45e-01	0	33	104	0	86	11790
2026-01-01 23:16:21.03	5.44	21.01	-61.8	-71.5	3.8	7.45e-01	0	33	104	0	86	11936
2026-01-01 23:16:24.03	4.84	21.51	-61.7	-71.5	3.8	7.45e-01	0	33	104	0	86	11827
2026-01-01 23:16:27.02	4.23	22.01	-61.8	-71.6	3.8	7.47e-01	0	34	104	0	86	11963
2026-01-01 23:16:30.02	3.59	22.53	-61.8	-71.5	3.9	7.46e-01	0	34	104	0	86	11918
2026-01-01 23:16:33.01	2.93	23.06	-61.9	-71.6	3.8	7.45e-01	0	34	104	0	86	12019
2026-01-01 23:16:36.00	2.24	23.59	-61.8	-71.6	3.8	7.44e-01	0	34	104	0	86	11966
2026-01-01 23:16:38.98	1.52	24.13	-61.9	-71.6	3.8	7.45e-01	0	34	104	0	87	11373
2026-01-01 23:16:41.96	0.78	24.69	-61.9	-71.6	3.8	7.45e-01	0	34	104	0	87	11342
2026-01-01 23:16:44.94	0.01	25.25	-62.0	-71.7	3.8	7.45e-01	0	34	104	0	87	11444
2026-01-01 23:16:47.92	359.20	25.82	-61.9	-71.7	3.8	7.47e-01	0	34	104	0	87	11459
2026-01-01 23:16:50.91	358.36	26.41	-62.0	-71.7	3.8	7.45e-01	0	34	104	0	87	11546
2026-01-01 23:16:53.91	357.48	27.00	-62.0	-71.7	3.8	7.46e-01	0	34	104	0	87	11513
2026-01-01 23:16:56.91	356.56	27.60	-62.1	-71.8	3.8	7.45e-01	0	34	104	0	87	11555
2026-01-01 23:16:59.90	355.61	28.21	-62.1	-71.7	3.8	7.45e-01	0	34	104	0	87	11540
2026-01-01 23:17:02.91	354.60	28.83	-62.1	-71.8	3.8	7.45e-01	0	33	104	0	87	11664
2026-01-01 23:17:05.90	353.56	29.46	-62.1	-71.8	3.8	7.46e-01	0	34	104	0	87	11654
2026-01-01 23:17:08.90	352.48	30.09	-62.2	-71.9	3.8	7.45e-01	0	34	104	0	87	11713
2026-01-01 23:17:11.91	351.34	30.73	-62.2	-71.9	3.8	7.44e-01	0	34	104	0	87	11687
2026-01-01 23:17:14.90	350.15	31.37	-62.2	-72.0	3.8	7.42e-01	0	34	104	0	87	11819
2026-01-01 23:17:17.90	348.91	32.01	-62.3	-72.0	3.8	7.47e-01	0	34	104	0	87	11827
2026-01-01 23:17:20.89	347.63	32.66	-62.3	-72.1	3.8	7.46e-01	0	34	104	0	87	11956
2026-01-01 23:17:23.89	346.28	33.31	-62.3	-72.0	3.8	7.45e-01	0	34	104	0	87	11918
2026-01-01 23:17:26.90	344.86	33.95	-62.4	-72.1	3.8	7.46e-01	0	34	104	0	87	11996
2026-01-01 23:17:29.89	343.40	34.59	-62.4	-72.1	3.8	7.46e-01	0	34	104	0	87	12031
2026-01-01 23:17:32.89	341.86	35.23	-62.4	-72.2	3.8	7.44e-01	0	34	104	0	87	12101
2026-01-01 23:17:35.89	340.26	35.86	-62.4	-72.1	3.8	7.46e-01	0	34	104	0	88	11376
2026-01-01 23:17:38.88	338.60	36.47	-62.5	-72.2	3.8	7.45e-01	0	34	104	0	88	11516
2026-01-01 23:17:41.88	336.87	37.08	-62.5	-72.2	3.8	7.45e-01	0	34	104	0	88	11534
2026-01-01 23:17:44.85	335.09	37.65	-62.5	-72.2	3.8	7.46e-01	0	34	104	0	88	11524
2026-01-01 23:17:47.85	333.22	38.22	-62.5	-72.2	3.8	7.44e-01	0	34	104	0	88	11463
2026-01-01 23:17:50.84	331.28	38.76	-62.6	-72.3	3.8	7.47e-01	0	34	104	0	88	11638
2026-01-01 23:17:53.83	329.28	39.27	-62.6	-72.3	3.8	7.45e-01	0	34	104	0	88	11623
2026-01-01 23:17:56.82	327.22	39.75	-62.6	-72.4	3.8	7.46e-01	0	34	104	0	88	11687
2026-01-01 23:17:59.82	325.08	40.20	-62.6	-72.3	3.8	7.44e-01	0	34	104	0	88	11635
2026-01-01 23:18:02.82	322.89	40.61	-62.7	-72.4	3.8	7.46e-01	0	34	104	0	88	11790
2026-01-01 23:18:05.82	320.64	40.98	-62.7	-72.4	3.8	7.45e-01	0	34	104	0	88	11757
2026-01-01 23:18:08.83	318.33	41.30	-62.7	-72.4	3.8	7.46e-01	0	34	104	0	88	11754
2026-01-01 23:18:11.83	315.98	41.57	-62.7	-72.4	3.8	7.46e-01	0	34	104	0	88	11735
2026-01-01 23:18:14.82	313.60	41.79	-62.7	-72.5	3.8	7.45e-01	0	34	104	0	88	11824
2026-01-01 23:18:17.82	311.18	41.96	-62.7	-72.5	3.8	7.45e-01	0	34	104	0	88	11820
2026-01-01 23:18:20.82	308.74	42.08	-62.7	-72.5	3.8	7.45e-01	0	34	104	0	88	11830
2026-01-01 23:18:23.82	306.29	42.13	-62.7	-72.4	3.8	7.45e-01	0	34	104	0	88	11796
2026-01-01 23:18:26.83	303.82	42.13	-62.8	-72.5	3.8	7.44e-01	0	34	104	0	88	11878
2026-01-01 23:18:29.84	301.36	42.08	-62.8	-72.5	3.8	7.46e-01	0	34	104	0	88	11919
2026-01-01 23:18:32.85	298.91	41.96	-62.8	-72.5	3.8	7.45e-01	0	34	104	0	88	11865
2026-01-01 23:18:35.83	296.51	41.79	-62.8	-72.5	3.8	7.45e-01	0	34	104	0	88	11832
2026-01-01 23:18:38.83	294.13	41.57	-62.8	-72.5	3.8	7.45e-01	0	34	104	0	88	11875
2026-01-01 23:18:41.82	291.78	41.30	-62.8	-72.5	3.8	7.47e-01	0	34	104	0	88	11913
2026-01-01 23:18:44.80	289.49	40.98	-62.8	-72.5	3.8	7.47e-01	0	34	104	0	88	11864
2026-01-01 23:18:47.79	287.25	40.61	-62.7	-72.4	3.8	7.44e-01	0	34	104	0	88	11757
2026-01-01 23:18:50.77	285.06	40.20	-62.7	-72.4	3.8	7.45e-01	0	34	104	0	88	11800
2026-01-01 23:18:53.78	282.92	39.75	-62.7	-72.4	3.8	7.46e-01	0	34	104	0	88	11766
2026-01-01 23:18:56.78	280.84	39.27	-62.7	-72.4	3.8	7.45e-01	0	34	104	0	88	11724
2026-01-01 23:18:59.78	278.83	38.75	-62.6	-72.4	3.8	7.46e-01	0	34	104	0	88	11690
2026-01-01 23:19:02.78	276.89	38.21	-62.6	-72.4	3.8	7.48e-01	0	34	104	0	88	11686
2026-01-01 23:19:05.77	275.02	37.65	-62.6	-72.3	3.8	7.47e-01	0	34	104	0	88	11626
2026-01-01 23:19:08.77	273.22	37.06	-62.6	-72.3	3.8	7.46e-01	0	34	104	0	88	11579
2026-01-01 23:19:11.77	271.48	36.46	-62.5	-72.2	3.8	7.44e-01	0	34	104	0	88	11542
2026-01-01 23:19:14.76	269.82	35.84	-62.6	-72.3	3.8	7.47e-01	0	34	104	0	88	11584
2026-01-01 23:19:17.74	268.23	35.21	-62.5	-72.2	3.8	7.45e-01	0	34	104	0	88	11508
2026-01-01 23:19:20.74	266.69	34.58	-62.5	-72.2	3.8	7.45e-01	0	34	104	0	88	11491
2026-01-01 23:19:23.73	265.22	33.93	-62.5	-72.2	3.8	7.47e-01	0	34	104	0	88	11491
2026-01-01 23:19:26.73	263.81	33.29	-62.5	-72.2	3.8	7.45e-01	0	34	104	0	88	11477
2026-01-01 23:19:29.73	262.45	32.64	-62.5	-72.2	3.8	7.44e-01	0	34	104	0	88	11458
2026-01-01 23:19:32.71	261.16	31.99	-62.4	-72.1	3.8	7.46e-01	0	34	104	0	88	11375
2026-01-01 23:19:35.70	259.93	31.34	-62.4	-72.1	3.8	7.45e-01	0	34	104	0	88	11368
2026-01-01 23:19:38.69	258.74	30.70	-62.4	-72.1	3.8	7.45e-01	0	34	104	0	88	11356
2026-01-01 23:19:41.69	257.60	30.06	-62.4	-72.1	3.8	7.47e-01	0	34	104	0	88	11354
2026-01-01 23:19:44.68	256.51	29.43	-62.3	-72.1	3.8	7.45e-01	0	34	104	0	88	11314
2026-01-01 23:19:47.67	255.47	28.80	-62.3	-72.0	3.8	7.45e-01	0	34	104	0	88	11232
2026-01-01 23:19:50.66	254.47	28.18	-62.3	-72.0	3.8	7.45e-01	0	34	104	0	88	11261
2026-01-01 23:19:53.65	253.51	27.57	-62.3	-72.0	3.8	7.45e-01	0	34	104	0	88	11203
2026-01-01 23:19:56.64	252.60	26.97	-62.2	-71.9	3.8	7.45e-01	0	34	104	0	88	11115
2026-01-01 23:19:59.63	251.71	26.37	-62.2	-71.9	3.8	7.45e-01	0	34	104	0	88	11101
2026-01-01 23:20:02.63	250.87	25.79	-62.2	-71.9	3.8	7.46e-01	0	34	104	0	88	11139
2026-01-01 23:20:05.62	250.06	25.21	-62.2	-71.9	3.8	7.47e-01	0	34	104	0	88	11078
2026-01-01 23:20:08.61	249.28	24.64	-62.1	-71.8	3.8	7.45e-01	0	34	104	0	88	11012
2026-01-01 23:20:11.62	248.52	24.08	-62.1	-71.8	3.8	7.46e-01	0	34	104	0	88	10990
2026-01-01 23:20:14.61	247.80	23.54	-62.1	-71.8	3.8	7.47e-01	0	34	104	0	88	10973
2026-01-01 23:20:17.61	247.11	23.00	-62.1	-71.8	3.8	7.46e-01	0	34	104	0	88	10955
2026-01-01 23:20:20.61	246.44	22.47	-62.0	-71.7	3.8	7.47e-01	0	34	104	0	88	10838
2026-01-01 23:20:23.61	245.80	21.95	-62.0	-71.7	3.8	7.46e-01	0	34	104	0	88	10819
2026-01-01 23:20:26.62	245.18	21.44	-62.0	-71.7	3.8	7.46e-01	0	34	104	0	88	10822
2026-01-01 23:20:29.61	244.59	20.94	-61.9	-71.7	3.8	7.45e-01	0	34	104	0	88	10793
2026-01-01 23:20:32.60	244.02	20.45	-61.9	-71.7	3.8	7.46e-01	0	34	104	0	88	10794
2026-01-01 23:20:35.60	243.46	19.97	-61.9	-71.6	3.8	7.44e-01	0	34	104	0	88	10743
2026-01-01 23:20:38.59	242.93	19.49	-61.9	-71.6	3.8	7.46e-01	0	34	104	0	88	10718
2026-01-01 23:20:41.59	242.42	19.03	-61.8	-71.6	3.8	7.47e-01	0	34	104	0	88	10661
2026-01-01 23:20:44.59	241.92	18.58	-61.8	-71.5	3.8	7.44e-01	0	34	104	0	88	10618
2026-01-01 23:20:47.58	241.44	18.13	-61.8	-71.5	3.8	7.45e-01	0	34	104	0	88	10605
2026-01-01 23:20:50.56	240.98	17.70	-61.8	-71.5	3.8	7.47e-01	0	34	104	0	88	10592
2026-01-01 23:20:53.55	240.54	17.27	-61.7	-71.5	3.8	7.46e-01	0	34	104	0	88	10574
2026-01-01 23:20:56.55	240.10	16.84	-61.7	-71.5	3.8	7.46e-01	0	34	104	0	88	10535
2026-01-01 23:20:59.54	239.69	16.43	-61.7	-71.4	3.8	7.44e-01	0	34	104	0	88	10496
2026-01-01 23:21:02.55	239.28	16.02	-61.7	-71.4	3.8	7.46e-01	0	34	104	0	87	11106
2026-01-01 23:21:05.54	238.89	15.62	-61.6	-71.3	3.8	7.47e-01	0	34	104	0	87	11020
2026-01-01 23:21:08.53	238.51	15.23	-61.6	-71.4	3.8	7.46e-01	0	34	104	0	87	11058
2026-01-01 23:21:11.53	238.14	14.85	-61.6	-71.3	3.8	7.44e-01	0	34	104	0	87	10993
2026-01-01 23:21:14.53	237.78	14.47	-61.6	-71.3	3.8	7.46e-01	0	34	104	0	87	10992
2026-01-01 23:21:17.52	237.44	14.10	-61.6	-71.3	3.8	7.44e-01	0	34	104	0	87	10943
2026-01-01 23:21:20.51	237.10	13.74	-61.5	-71.3	3.8	7.46e-01	0	34	104	0	87	10921
2026-01-01 23:21:23.51	236.78	13.38	-61.5	-71.2	3.8	7.47e-01	0	34	104	0	87	10898
2026-01-01 23:21:26.50	236.46	13.02	-61.5	-71.2	3.8	7.46e-01	0	34	104	0	87	10856
2026-01-01 23:21:29.49	236.15	12.68	-61.5	-71.2	3.8	7.45e-01	0	34	104	0	87	10846
2026-01-01 23:21:32.50	235.85	12.34	-61.5	-71.2	3.8	7.44e-01	0	34	104	0	87	10832
2026-01-01 23:21:35.49	235.57	12.00	-61.4	-71.2	3.8	7.45e-01	0	34	104	0	87	10794
2026-01-01 23:21:38.49	235.28	11.67	-61.4	-71.1	3.8	7.45e-01	0	34	104	0	87	10745
2026-01-01 23:21:41.49	235.01	11.34	-61.4	-71.1	3.8	7.48e-01	0	34	104	0	87	10661
2026-01-01 23:21:44.49	234.74	11.02	-61.4	-71.1	3.8	7.47e-01	0	34	104	0	87	10678
2026-01-01 23:21:47.49	234.48	10.71	-61.3	-71.1	3.8	7.44e-01	0	34	104	0	87	10739
2026-01-01 23:21:50.48	234.23	10.40	-61.3	-71.0	3.8	7.46e-01	0	34	104	0	87	10639
2026-01-01 23:21:53.45	233.99	10.10	-61.3	-71.0	3.8	7.45e-01	0	34	104	0	87	10559
2026-01-01 23:21:56.45	233.75	9.80	-61.3	-71.0	3.8	7.48e-01	0	34	104	0	87	10602
2026-01-01 23:21:59.45	233.52	9.50	-61.2	-70.9	3.8	7.45e-01	0	34	104	0	87	10485
2026-01-01 23:22:02.45	233.29	9.21	-61.2	-70.9	3.8	7.45e-01	0	34	104	0	86	11055
2026-01-01 23:22:05.45	233.07	8.92	-61.1	-70.8	3.8	7.46e-01	0	34	104	0	86	11010
2026-01-01 23:22:08.46	232.85	8.63	-61.2	-71.0	3.8	7.47e-01	0	34	104	0	86	11179
2026-01-01 23:22:11.46	232.64	8.35	-61.1	-70.8	3.8	7.46e-01	0	34	104	0	86	11004
2026-01-01 23:22:14.46	232.43	8.08	-61.0	-70.8	3.8	7.45e-01	0	34	104	0	86	10936
2026-01-01 23:22:17.46	232.23	7.80	-61.1	-70.8	3.8	7.46e-01	0	34	104	0	86	11028
2026-01-01 23:22:20.45	232.04	7.53	-61.1	-70.8	3.8	7.47e-01	0	34	104	0	86	11002
2026-01-01 23:22:23.45	231.85	7.27	-61.0	-70.7	3.8	7.47e-01	0	34	104	0	86	10895
2026-01-01 23:22:26.46	231.66	7.01	-60.9	-70.6	3.8	7.44e-01	0	34	104	0	86	10747
2026-01-01 23:22:29.45	231.48	6.75	-60.9	-70.7	3.8	7.45e-01	0	34	104	0	86	10782
2026-01-01 23:22:32.44	231.30	6.49	-60.9	-70.6	3.8	7.44e-01	0	34	104	0	86	10770
2026-01-01 23:22:35.44	231.13	6.24	-60.8	-70.5	3.8	7.45e-01	0	34	104	0	86	10638
2026-01-01 23:22:38.44	230.96	5.99	-60.7	-70.5	3.8	7.45e-01	0	34	104	0	86	10558
2026-01-01 23:22:41.43	230.79	5.74	-60.7	-70.4	3.8	7.46e-01	0	34	104	0	86	10501
2026-01-01 23:22:44.43	230.63	5.50	-60.7	-70.5	3.8	7.45e-01	0	34	104	0	85	11184
2026-01-01 23:22:47.41	230.47	5.26	-60.6	-70.3	3.8	7.44e-01	0	34	104	0	85	11017
2026-01-01 23:22:50.39	230.32	5.02	-60.5	-70.3	3.8	7.45e-01	0	34	104	0	85	10909
2026-01-01 23:22:53.39	230.17	4.79	-61.9	-71.6	3.8	7.44e-01	0	34	104	0	86	11999
2026-01-01 23:22:56.38	230.02	4.56	-62.4	-72.1	3.8	7.46e-01	0	34	104	0	87	12061
2026-01-01 23:22:59.37	229.87	4.33	-62.8	-72.5	3.8	7.46e-01	0	34	104	0	88	11882
2026-01-01 23:23:02.38	229.73	4.10	-62.9	-72.6	3.8	7.46e-01	0	34	104	0	89	11411
2026-01-01 23:23:05.38	229.59	3.87	-63.0	-72.7	3.8	7.44e-01	0	34	104	0	89	11525
2026-01-01 23:23:08.37	229.45	3.65	-63.1	-72.8	3.8	7.46e-01	0	34	104	0	89	11662
2026-01-01 23:23:11.39	229.32	3.43	-63.2	-73.0	3.8	7.45e-01	0	34	104	0	89	11841
2026-01-01 23:23:14.38	229.19	3.21	-63.2	-72.9	3.8	7.44e-01	0	34	104	0	89	11709
2026-01-01 23:23:17.38	229.06	2.99	-63.1	-72.8	3.8	7.47e-01	0	34	104	0	89	11657
2026-01-01 23:23:20.38	228.94	2.78	-63.0	-72.7	3.8	7.47e-01	0	34	104	0	89	11539
2026-01-01 23:23:23.39	228.81	2.57	-63.0	-72.7	3.8	7.45e-01	0	34	104	0	89	11494
2026-01-01 23:23:26.39	228.69	2.36	-62.9	-72.7	3.8	7.45e-01	0	34	104	0	89	11418
2026-01-01 23:23:29.39	228.57	2.15	-62.9	-72.6	3.8	7.46e-01	0	34	104	0	89	11386

#Closed at: 2026-01-01 23:23:32
#Recorded file [0 MB]: D:/lorett/data/31004_260102_021318.dat