passes_logs/2026/01/01/R3.2S_Murmansk/R3.2S_Murmansk__20260101_110733_ZKG05_rec.log

#Pass ID: 20260101_110733_ZKG05
#Satellite: ZKG05
#Configuration: ZKG05
#almurnet v.1.7.20251203
#Start time: 2026-01-01 11:07:33

#Version: 2.2.20231116
#Station: R3.2S_Murmansk
#Location: 33.079688 lon 68.888172 lat
#TLE: 1 65263U 25180E   25363.54303023  .00006586  00000-0  34273-3 0  9994
#TLE: 2 65263  97.4772 128.0191 0001674  87.3453 272.7971 15.16366041 20011

#Time	Az	El	Level	Level2	SNR	BER	BlckErr	Temp	State	Recorded	gain1	gain2
2026-01-01 11:07:33.51	22.87	1.97	-59.6	-62.8	6.2	0.00e+00	0	40	0	0	85	20889
2026-01-01 11:07:36.50	23.15	2.15	-59.6	-62.8	6.2	0.00e+00	0	40	104	0	85	20892
2026-01-01 11:07:39.47	23.43	2.33	-59.6	-62.8	6.2	0.00e+00	0	41	104	0	85	20922
2026-01-01 11:07:42.45	23.71	2.51	-59.6	-62.8	6.2	0.00e+00	0	41	104	0	85	20910
2026-01-01 11:07:45.43	24.00	2.69	-59.6	-62.8	6.2	0.00e+00	0	41	104	0	85	20948
2026-01-01 11:07:48.42	24.30	2.87	-59.6	-62.8	6.2	0.00e+00	0	41	104	0	85	20892
2026-01-01 11:07:51.40	24.59	3.05	-59.6	-62.8	6.2	0.00e+00	0	41	104	0	85	20887
2026-01-01 11:07:54.37	24.89	3.24	-59.6	-62.8	6.2	0.00e+00	0	41	104	0	85	20877
2026-01-01 11:07:57.36	25.20	3.42	-59.6	-62.8	6.2	0.00e+00	0	41	104	0	85	20908
2026-01-01 11:08:00.33	25.51	3.61	-59.6	-62.8	6.2	0.00e+00	0	41	104	0	85	20893
2026-01-01 11:08:03.32	25.83	3.80	-59.6	-62.8	6.2	0.00e+00	0	41	104	0	85	20903
2026-01-01 11:08:06.30	26.15	3.98	-59.6	-62.8	6.2	0.00e+00	0	41	104	0	85	20906
2026-01-01 11:08:09.27	26.48	4.17	-59.6	-62.8	6.2	0.00e+00	0	41	104	0	85	20953
2026-01-01 11:08:12.25	26.81	4.36	-59.6	-62.8	6.2	0.00e+00	0	41	104	0	85	20914
2026-01-01 11:08:15.23	27.14	4.55	-59.6	-62.7	6.2	0.00e+00	0	41	104	0	85	20822
2026-01-01 11:08:18.21	27.48	4.75	-59.6	-62.7	6.2	0.00e+00	0	41	104	0	85	20696
2026-01-01 11:08:21.19	27.83	4.94	-59.5	-62.6	6.2	0.00e+00	0	42	104	0	85	20629
2026-01-01 11:08:24.17	28.18	5.13	-59.6	-62.7	6.2	0.00e+00	0	42	104	0	85	20809
2026-01-01 11:08:27.15	28.54	5.33	-59.6	-62.6	6.2	0.00e+00	0	42	104	0	85	20508
2026-01-01 11:08:30.14	28.91	5.53	-59.8	-62.9	6.2	0.00e+00	0	42	104	0	85	21252
2026-01-01 11:08:33.11	29.28	5.72	-59.7	-62.8	6.2	0.00e+00	0	42	104	0	85	20963
2026-01-01 11:08:36.08	29.65	5.92	-59.7	-62.9	6.2	0.00e+00	0	42	104	0	85	21252
2026-01-01 11:08:39.07	30.03	6.12	-59.9	-63.0	6.2	0.00e+00	0	42	104	0	85	21582
2026-01-01 11:08:42.06	30.42	6.33	-60.0	-63.1	6.2	0.00e+00	0	42	104	0	85	21779
2026-01-01 11:08:45.05	30.82	6.53	-59.8	-62.9	6.2	0.00e+00	0	42	104	0	85	21306
2026-01-01 11:08:48.03	31.22	6.73	-59.8	-63.0	6.2	0.00e+00	0	42	104	0	85	21545
2026-01-01 11:08:51.01	31.63	6.94	-60.0	-63.2	6.2	0.00e+00	0	42	104	0	85	21919
2026-01-01 11:08:53.99	32.05	7.14	-60.1	-63.3	6.2	0.00e+00	0	42	104	0	85	22187
2026-01-01 11:08:56.96	32.47	7.35	-59.9	-63.1	6.2	0.00e+00	0	42	104	0	85	21642
2026-01-01 11:08:59.95	32.90	7.56	-59.9	-63.1	6.2	0.00e+00	0	42	104	0	85	21830
2026-01-01 11:09:02.92	33.33	7.77	-60.1	-63.2	6.2	0.00e+00	0	42	104	0	85	22063
2026-01-01 11:09:05.89	33.78	7.98	-60.2	-63.3	6.2	0.00e+00	0	42	104	0	85	22148
2026-01-01 11:09:08.89	34.23	8.19	-60.0	-63.2	6.2	0.00e+00	0	42	104	0	85	21938
2026-01-01 11:09:11.87	34.69	8.40	-60.0	-63.2	6.2	0.00e+00	0	42	104	0	85	22041
2026-01-01 11:09:14.86	35.16	8.61	-60.2	-63.3	6.2	0.00e+00	0	42	104	0	85	22323
2026-01-01 11:09:17.85	35.64	8.83	-60.2	-63.4	6.2	0.00e+00	0	42	104	0	85	22407
2026-01-01 11:09:20.83	36.13	9.04	-60.1	-63.2	6.2	0.00e+00	0	42	104	0	85	22065
2026-01-01 11:09:23.79	36.62	9.26	-60.1	-63.3	6.2	0.00e+00	0	42	104	0	85	22172
2026-01-01 11:09:26.77	37.12	9.47	-60.2	-63.4	6.2	0.00e+00	0	42	104	0	85	22430
2026-01-01 11:09:29.74	37.63	9.69	-60.3	-63.4	6.2	0.00e+00	0	42	104	0	85	22476
2026-01-01 11:09:32.72	38.15	9.91	-60.2	-63.3	6.2	0.00e+00	0	43	104	0	85	22328
2026-01-01 11:09:35.70	38.68	10.13	-60.2	-63.4	6.2	0.00e+00	0	42	104	0	85	22491
2026-01-01 11:09:38.69	39.22	10.35	-60.3	-63.5	6.2	0.00e+00	0	42	104	0	86	21464
2026-01-01 11:09:41.67	39.77	10.57	-60.3	-63.5	6.2	0.00e+00	0	42	104	0	86	21410
2026-01-01 11:09:44.66	40.33	10.79	-60.3	-63.4	6.2	0.00e+00	0	42	104	0	86	21260
2026-01-01 11:09:47.64	40.90	11.01	-60.3	-63.5	6.2	0.00e+00	0	42	104	0	86	21478
2026-01-01 11:09:50.62	41.48	11.23	-60.4	-63.5	6.2	0.00e+00	0	42	104	0	86	21556
2026-01-01 11:09:53.61	42.07	11.46	-60.4	-63.5	6.2	0.00e+00	0	43	104	0	86	21522
2026-01-01 11:09:56.60	42.67	11.68	-60.3	-63.5	6.2	0.00e+00	0	42	104	0	86	21423
2026-01-01 11:09:59.58	43.28	11.90	-60.4	-63.5	6.2	0.00e+00	0	42	104	0	86	21588
2026-01-01 11:10:02.56	43.90	12.12	-60.2	-63.4	6.2	0.00e+00	0	43	104	0	86	21125
2026-01-01 11:10:05.54	44.53	12.35	-59.2	-62.3	6.2	0.00e+00	0	43	104	0	84	20963
2026-01-01 11:10:08.53	45.18	12.57	-60.4	-63.5	6.2	0.00e+00	0	43	104	0	86	21567
2026-01-01 11:10:11.52	45.84	12.79	-60.3	-63.5	6.2	0.00e+00	0	43	104	0	86	21382
2026-01-01 11:10:14.51	46.51	13.02	-60.4	-63.6	6.2	0.00e+00	0	43	104	0	86	21633
2026-01-01 11:10:17.50	47.19	13.24	-60.5	-63.7	6.2	0.00e+00	0	43	104	0	86	21907
2026-01-01 11:10:20.49	47.88	13.46	-60.5	-63.6	6.2	0.00e+00	0	42	104	0	86	21807
2026-01-01 11:10:23.46	48.58	13.68	-60.5	-63.6	6.2	0.00e+00	0	42	104	0	86	21788
2026-01-01 11:10:26.44	49.30	13.89	-60.5	-63.7	6.2	0.00e+00	0	42	104	0	86	21877
2026-01-01 11:10:29.41	50.02	14.11	-60.6	-63.7	6.2	0.00e+00	0	43	104	0	86	22060
2026-01-01 11:10:32.39	50.76	14.33	-60.5	-63.7	6.2	0.00e+00	0	42	104	0	86	21916
2026-01-01 11:10:35.37	51.51	14.54	-60.5	-63.7	6.2	0.00e+00	0	43	104	0	86	21914
2026-01-01 11:10:38.35	52.28	14.75	-60.6	-63.7	6.2	0.00e+00	0	43	104	0	86	22007
2026-01-01 11:10:41.33	53.05	14.97	-60.6	-63.8	6.2	0.00e+00	0	43	104	0	86	22227
2026-01-01 11:10:44.32	53.85	15.17	-60.6	-63.7	6.2	0.00e+00	0	43	104	0	86	22042
2026-01-01 11:10:47.29	54.65	15.38	-60.6	-63.7	6.2	0.00e+00	0	42	104	0	86	22042
2026-01-01 11:10:50.27	55.46	15.58	-60.6	-63.8	6.2	0.00e+00	0	43	104	0	86	22168
2026-01-01 11:10:53.25	56.29	15.79	-60.7	-63.8	6.2	0.00e+00	0	42	104	0	86	22333
2026-01-01 11:10:56.24	57.14	15.98	-60.6	-63.7	6.2	0.00e+00	0	43	104	0	86	22074
2026-01-01 11:10:59.22	57.99	16.18	-60.6	-63.8	6.2	0.00e+00	0	43	104	0	86	22179
2026-01-01 11:11:02.20	58.86	16.37	-60.7	-63.8	6.2	0.00e+00	0	43	104	0	86	22304
2026-01-01 11:11:05.17	59.73	16.56	-60.7	-63.9	6.2	0.00e+00	0	43	104	0	86	22427
2026-01-01 11:11:08.17	60.63	16.74	-60.7	-63.8	6.2	0.00e+00	0	43	104	0	86	22255
2026-01-01 11:11:11.15	61.53	16.92	-60.7	-63.8	6.2	0.00e+00	0	42	104	0	86	22252
2026-01-01 11:11:14.14	62.45	17.10	-60.7	-63.9	6.2	0.00e+00	0	43	104	0	86	22410
2026-01-01 11:11:17.12	63.38	17.27	-60.8	-63.9	6.2	0.00e+00	0	43	104	0	86	22559
2026-01-01 11:11:20.09	64.32	17.43	-60.7	-63.8	6.2	0.00e+00	0	43	104	0	86	22339
2026-01-01 11:11:23.06	65.27	17.59	-60.7	-63.9	6.2	0.00e+00	0	42	104	0	86	22413
2026-01-01 11:11:26.03	66.23	17.74	-60.8	-63.9	6.2	0.00e+00	0	43	104	0	86	22505
2026-01-01 11:11:29.02	67.21	17.89	-60.8	-63.9	6.2	0.00e+00	0	43	104	0	86	22575
2026-01-01 11:11:31.99	68.19	18.03	-60.8	-63.9	6.2	0.00e+00	0	43	104	0	86	22425
2026-01-01 11:11:34.98	69.19	18.17	-60.8	-63.9	6.2	0.00e+00	0	43	104	0	87	21197
2026-01-01 11:11:37.96	70.19	18.29	-60.8	-63.9	6.2	0.00e+00	0	43	104	0	87	21261
2026-01-01 11:11:40.94	71.21	18.41	-60.8	-64.0	6.2	0.00e+00	0	43	104	0	87	21419
2026-01-01 11:11:43.93	72.23	18.53	-60.7	-63.9	6.2	0.00e+00	0	43	104	0	87	21249
2026-01-01 11:11:46.90	73.26	18.64	-60.8	-63.9	6.2	0.00e+00	0	43	104	0	87	21342
2026-01-01 11:11:49.89	74.30	18.73	-60.8	-64.0	6.2	0.00e+00	0	43	104	0	87	21416
2026-01-01 11:11:52.88	75.36	18.83	-60.9	-64.0	6.2	0.00e+00	0	43	104	0	87	21508
2026-01-01 11:11:55.87	76.41	18.91	-60.8	-63.9	6.2	0.00e+00	0	43	104	0	87	21251
2026-01-01 11:11:58.86	77.48	18.98	-60.8	-64.0	6.2	0.00e+00	0	42	104	0	87	21456
2026-01-01 11:12:01.82	78.54	19.05	-60.8	-64.0	6.2	0.00e+00	0	43	104	0	87	21414
2026-01-01 11:12:04.81	79.61	19.11	-60.9	-64.0	6.2	0.00e+00	0	43	104	0	87	21444
2026-01-01 11:12:07.81	80.69	19.15	-60.8	-63.9	6.2	0.00e+00	0	43	104	0	87	21314
2026-01-01 11:12:10.80	81.77	19.19	-60.8	-64.0	6.2	0.00e+00	0	43	104	0	87	21373
2026-01-01 11:12:13.79	82.86	19.22	-60.8	-64.0	6.2	0.00e+00	0	43	104	0	87	21400
2026-01-01 11:12:16.78	83.95	19.24	-60.9	-64.0	6.2	0.00e+00	0	43	104	0	87	21429
2026-01-01 11:12:19.77	85.04	19.26	-60.8	-63.9	6.2	0.00e+00	0	43	104	0	87	21309
2026-01-01 11:12:22.75	86.12	19.26	-60.8	-63.9	6.2	0.00e+00	0	43	104	0	87	21332
2026-01-01 11:12:25.73	87.21	19.25	-60.8	-64.0	6.2	0.00e+00	0	43	104	0	87	21404
2026-01-01 11:12:28.71	88.29	19.24	-60.9	-64.0	6.2	0.00e+00	0	43	104	0	87	21451
2026-01-01 11:12:31.69	89.38	19.21	-60.8	-63.9	6.2	0.00e+00	0	43	104	0	87	21300
2026-01-01 11:12:34.67	90.46	19.18	-60.8	-64.0	6.2	0.00e+00	0	43	104	0	87	21436
2026-01-01 11:12:37.65	91.54	19.14	-60.8	-63.9	6.2	0.00e+00	0	43	104	0	87	21353
2026-01-01 11:12:40.62	92.61	19.09	-60.9	-64.0	6.2	0.00e+00	0	43	104	0	87	21547
2026-01-01 11:12:43.60	93.68	19.03	-60.8	-63.9	6.2	0.00e+00	0	43	104	0	87	21307
2026-01-01 11:12:46.57	94.74	18.96	-60.9	-64.0	6.2	0.00e+00	0	43	104	0	87	21400
2026-01-01 11:12:49.55	95.80	18.88	-60.9	-64.0	6.2	0.00e+00	0	43	104	0	87	21419
2026-01-01 11:12:52.53	96.85	18.79	-60.9	-64.0	6.2	0.00e+00	0	43	104	0	87	21502
2026-01-01 11:12:55.52	97.91	18.70	-60.8	-63.9	6.2	0.00e+00	0	43	104	0	87	21326
2026-01-01 11:12:58.48	98.94	18.60	-60.9	-64.0	6.2	0.00e+00	0	43	104	0	87	21466
2026-01-01 11:13:01.46	99.97	18.49	-60.9	-64.0	6.2	0.00e+00	0	43	104	0	87	21454
2026-01-01 11:13:04.44	100.99	18.37	-60.8	-64.0	6.2	0.00e+00	0	43	104	0	87	21415
2026-01-01 11:13:07.41	102.00	18.25	-60.8	-63.9	6.2	0.00e+00	0	43	104	0	87	21298
2026-01-01 11:13:10.41	103.01	18.12	-60.8	-64.0	6.2	0.00e+00	0	43	104	0	87	21407
2026-01-01 11:13:13.37	104.00	17.98	-60.8	-64.0	6.2	0.00e+00	0	43	104	0	87	21426
2026-01-01 11:13:16.37	104.99	17.83	-60.8	-64.0	6.2	0.00e+00	0	43	104	0	87	21378
2026-01-01 11:13:19.35	105.97	17.68	-60.8	-64.0	6.2	0.00e+00	0	43	104	0	87	21379
2026-01-01 11:13:22.33	106.93	17.53	-60.8	-64.0	6.2	0.00e+00	0	43	104	0	87	21361
2026-01-01 11:13:25.30	107.88	17.37	-60.8	-64.0	6.2	0.00e+00	0	43	104	0	87	21480
2026-01-01 11:13:28.28	108.81	17.20	-60.8	-63.9	6.2	0.00e+00	0	43	104	0	87	21317
2026-01-01 11:13:31.26	109.74	17.03	-60.8	-64.0	6.2	0.00e+00	0	43	104	0	87	21378
2026-01-01 11:13:34.23	110.66	16.85	-60.8	-63.9	6.2	0.00e+00	0	43	104	0	87	21319
2026-01-01 11:13:37.19	111.55	16.67	-60.8	-63.9	6.2	0.00e+00	0	43	104	0	87	21341
2026-01-01 11:13:40.17	112.44	16.48	-60.8	-63.9	6.2	0.00e+00	0	43	104	0	87	21235
2026-01-01 11:13:43.15	113.32	16.29	-60.8	-63.9	6.2	0.00e+00	0	43	104	0	87	21299
2026-01-01 11:13:46.13	114.19	16.10	-60.7	-63.9	6.2	0.00e+00	0	43	104	0	87	21222
2026-01-01 11:13:49.13	115.05	15.90	-60.7	-63.9	6.2	0.00e+00	0	43	104	0	87	21202
2026-01-01 11:13:52.11	115.89	15.70	-60.7	-63.8	6.2	0.00e+00	0	43	104	0	87	21091
2026-01-01 11:13:55.10	116.72	15.50	-60.7	-63.9	6.2	0.00e+00	0	43	104	0	87	21119
2026-01-01 11:13:58.07	117.53	15.29	-60.7	-63.8	6.2	0.00e+00	0	43	104	0	87	20998
2026-01-01 11:14:01.06	118.33	15.08	-60.7	-63.8	6.2	0.00e+00	0	43	104	0	87	20995
2026-01-01 11:14:04.04	119.12	14.87	-60.6	-63.8	6.2	0.00e+00	0	43	104	0	87	20947
2026-01-01 11:14:07.02	119.90	14.66	-60.6	-63.8	6.2	0.00e+00	0	43	104	0	87	20971
2026-01-01 11:14:10.01	120.66	14.44	-60.5	-63.7	6.2	0.00e+00	0	43	104	0	87	20676
2026-01-01 11:14:12.99	121.42	14.23	-60.5	-63.7	6.2	0.00e+00	0	43	104	0	87	20692
2026-01-01 11:14:15.98	122.16	14.01	-60.5	-63.6	6.2	0.00e+00	0	43	104	0	87	20510
2026-01-01 11:14:18.96	122.88	13.79	-60.4	-63.6	6.2	0.00e+00	0	43	104	0	87	20496
2026-01-01 11:14:21.94	123.60	13.57	-60.4	-63.6	6.2	0.00e+00	0	43	104	0	87	20421
2026-01-01 11:14:24.92	124.30	13.35	-60.4	-63.6	6.2	0.00e+00	0	43	104	0	87	20489
2026-01-01 11:14:27.90	124.99	13.13	-60.3	-63.5	6.2	0.00e+00	0	43	104	0	87	20304
2026-01-01 11:14:30.87	125.66	12.90	-60.3	-63.5	6.2	0.00e+00	0	43	104	0	87	20215
2026-01-01 11:14:33.84	126.33	12.68	-60.3	-63.5	6.2	0.00e+00	0	43	104	0	87	20196
2026-01-01 11:14:36.82	126.98	12.46	-60.3	-63.5	6.2	0.00e+00	0	43	104	0	87	20227
2026-01-01 11:14:39.79	127.62	12.24	-60.3	-63.4	6.2	0.00e+00	0	43	104	0	87	20077
2026-01-01 11:14:42.77	128.25	12.01	-60.3	-63.4	6.2	0.00e+00	0	43	104	0	87	20023
2026-01-01 11:14:45.77	128.88	11.79	-60.2	-63.4	6.2	0.00e+00	0	43	104	0	87	19975
2026-01-01 11:14:48.75	129.49	11.56	-60.3	-63.4	6.2	0.00e+00	0	43	104	0	87	20048
2026-01-01 11:14:51.73	130.08	11.34	-60.2	-63.3	6.2	0.00e+00	0	43	104	0	87	19883
2026-01-01 11:14:54.71	130.67	11.11	-60.2	-63.3	6.2	0.00e+00	0	43	104	0	87	19812
2026-01-01 11:14:57.69	131.25	10.89	-60.1	-63.3	6.2	0.00e+00	0	43	104	0	87	19726
2026-01-01 11:15:00.66	131.82	10.67	-60.2	-63.3	6.2	0.00e+00	0	43	104	0	87	19794
2026-01-01 11:15:03.61	132.37	10.45	-60.1	-63.2	6.2	0.00e+00	0	43	104	0	87	19620
2026-01-01 11:15:06.58	132.91	10.23	-60.1	-63.3	6.2	0.00e+00	0	43	104	0	87	19706
2026-01-01 11:15:09.54	133.45	10.01	-60.1	-63.3	6.2	0.00e+00	0	43	104	0	86	20873
2026-01-01 11:15:12.50	133.97	9.79	-60.1	-63.2	6.2	0.00e+00	0	43	104	0	86	20785
2026-01-01 11:15:15.46	134.49	9.57	-60.0	-63.2	6.2	0.00e+00	0	43	104	0	86	20644
2026-01-01 11:15:18.41	134.99	9.36	-60.0	-63.2	6.2	0.00e+00	0	43	104	0	86	20726
2026-01-01 11:15:21.37	135.49	9.14	-60.0	-63.2	6.2	0.00e+00	0	43	104	0	86	20681
2026-01-01 11:15:24.33	135.98	8.92	-60.0	-63.1	6.2	0.00e+00	0	43	104	0	86	20487
2026-01-01 11:15:27.29	136.46	8.71	-59.9	-63.1	6.2	0.00e+00	0	43	104	0	86	20405
2026-01-01 11:15:30.26	136.94	8.49	-59.9	-63.0	6.2	0.00e+00	0	43	104	0	86	20386
2026-01-01 11:15:33.22	137.40	8.28	-59.9	-63.1	6.2	0.00e+00	0	43	104	0	86	20470
2026-01-01 11:15:36.18	137.86	8.07	-59.8	-62.9	6.2	0.00e+00	0	43	104	0	86	20141
2026-01-01 11:15:39.14	138.31	7.86	-59.8	-63.0	6.2	0.00e+00	0	43	104	0	86	20245
2026-01-01 11:15:42.11	138.75	7.65	-59.8	-62.9	6.2	0.00e+00	0	43	104	0	86	20073
2026-01-01 11:15:45.06	139.18	7.44	-59.9	-63.0	6.2	0.00e+00	0	43	104	0	86	20261
2026-01-01 11:15:48.03	139.61	7.23	-59.7	-62.8	6.2	0.00e+00	0	43	104	0	86	19799
2026-01-01 11:15:50.98	140.03	7.02	-59.7	-62.9	6.2	0.00e+00	0	43	104	0	86	19970
2026-01-01 11:15:53.96	140.44	6.82	-59.6	-62.8	6.2	0.00e+00	0	43	104	0	86	19759
2026-01-01 11:15:56.93	140.85	6.61	-59.7	-62.9	6.2	0.00e+00	0	43	104	0	86	20010
2026-01-01 11:15:59.91	141.25	6.41	-59.5	-62.6	6.2	0.00e+00	0	43	104	0	85	20615
2026-01-01 11:16:02.87	141.64	6.21	-59.6	-62.7	6.2	0.00e+00	0	43	104	0	85	20837
2026-01-01 11:16:05.84	142.03	6.00	-59.5	-62.6	6.2	0.00e+00	0	43	104	0	85	20587
2026-01-01 11:16:08.82	142.41	5.80	-59.6	-62.8	6.2	0.00e+00	0	43	104	0	85	20911
2026-01-01 11:16:11.79	142.78	5.60	-59.3	-62.4	6.2	0.00e+00	0	43	104	0	85	20158
2026-01-01 11:16:14.76	143.15	5.40	-59.4	-62.5	6.2	0.00e+00	0	43	104	0	85	20376
2026-01-01 11:16:17.73	143.51	5.21	-59.3	-62.5	6.2	0.00e+00	0	43	104	0	85	20174
2026-01-01 11:16:20.70	143.87	5.01	-59.3	-62.4	6.2	0.00e+00	0	43	104	0	85	20074
2026-01-01 11:16:23.67	144.22	4.82	-60.5	-63.6	6.2	0.00e+00	0	43	104	0	86	21667
2026-01-01 11:16:26.65	144.57	4.62	-61.1	-64.2	6.2	0.00e+00	0	43	104	0	87	22019
2026-01-01 11:16:29.63	144.91	4.43	-61.4	-64.6	6.2	0.00e+00	0	43	104	0	88	21702
2026-01-01 11:16:32.60	145.24	4.24	-61.7	-64.8	6.2	0.00e+00	0	43	104	0	88	22299
2026-01-01 11:16:35.59	145.57	4.04	-61.9	-65.0	6.2	0.00e+00	0	43	104	0	89	21509
2026-01-01 11:16:38.58	145.90	3.85	-62.0	-65.2	6.2	0.00e+00	0	43	104	0	89	21861
2026-01-01 11:16:41.57	146.22	3.66	-62.1	-65.2	6.2	0.00e+00	0	43	104	0	89	21991
2026-01-01 11:16:44.53	146.53	3.48	-62.0	-65.1	6.2	0.00e+00	0	43	104	0	89	21813
2026-01-01 11:16:47.49	146.84	3.29	-62.0	-65.1	6.2	0.00e+00	0	43	104	0	89	21758
2026-01-01 11:16:50.45	147.14	3.11	-61.9	-65.1	6.2	0.00e+00	0	43	104	0	89	21659
2026-01-01 11:16:53.43	147.44	2.92	-61.9	-65.0	6.2	0.00e+00	0	43	104	0	89	21592
2026-01-01 11:16:56.41	147.74	2.74	-61.9	-65.0	6.2	0.00e+00	0	43	104	0	89	21548
2026-01-01 11:16:59.38	148.03	2.56	-61.9	-65.0	6.2	0.00e+00	0	43	104	0	89	21469
2026-01-01 11:17:02.35	148.32	2.38	-61.9	-65.0	6.2	0.00e+00	0	43	104	0	89	21437
2026-01-01 11:17:05.31	148.60	2.20	-61.8	-65.0	6.2	0.00e+00	0	43	104	0	89	21389
2026-01-01 11:17:08.28	148.88	2.02	-61.8	-65.0	6.2	0.00e+00	0	43	104	0	89	21378

#Closed at: 2026-01-01 11:17:11
#Recorded file [0 MB]: D:/lorett/data/31004_260101_140733.dat