passes_logs/2026/01/01/R3.2S_Murmansk/R3.2S_Murmansk__20260101_071133_SUOMI_NPP_rec.log

#Pass ID: 20260101_071133_SUOMI NPP
#Satellite: SUOMI NPP
#Configuration: NPP
#almurnet v.1.7.20251203
#Start time: 2026-01-01 07:11:33

#Version: 2.2.20231116
#Station: R3.2S_Murmansk
#Location: 33.079688 lon 68.888172 lat
#TLE: 1 37849U 11061A   25364.87906317  .00000195  00000+0  11345-3 0  9992
#TLE: 2 37849  98.7794 302.0592 0002571  89.2401 270.9069 14.19520347734561

#Time	Az	El	Level	Level2	SNR	BER	BlckErr	Temp	State	Recorded	gain1	gain2
2026-01-01 07:11:33.73	97.48	2.04	-59.8	-75.7	3.8	1.49e+00	0	33	0	0	86	21731
2026-01-01 07:11:37.73	97.28	2.28	-59.8	-75.8	3.8	1.49e+00	0	33	104	0	84	24424
2026-01-01 07:11:41.73	97.08	2.53	-59.8	-75.8	3.8	1.49e+00	0	33	104	0	84	24470
2026-01-01 07:11:45.73	96.87	2.77	-59.8	-75.8	3.8	1.49e+00	0	33	104	0	84	24535
2026-01-01 07:11:49.72	96.67	3.02	-59.8	-75.8	3.8	1.49e+00	0	33	104	0	84	24441
2026-01-01 07:11:53.72	96.45	3.26	-59.8	-75.8	3.8	1.49e+00	0	33	104	0	84	24514
2026-01-01 07:11:57.72	96.24	3.51	-59.8	-75.7	3.8	1.49e+00	0	33	104	0	84	24237
2026-01-01 07:12:01.71	96.02	3.77	-59.8	-75.8	3.8	1.49e+00	0	33	104	0	84	24461
2026-01-01 07:12:05.71	95.80	4.02	-59.8	-75.2	3.8	1.49e+00	0	34	104	0	84	22852
2026-01-01 07:12:09.70	95.57	4.27	-59.7	-73.2	3.9	1.49e+00	0	34	104	0	84	18241
2026-01-01 07:12:13.70	95.34	4.53	-59.4	-69.5	5.4	6.02e-01	0	34	0	4194304	84	11831
2026-01-01 07:12:17.70	95.10	4.79	-58.9	-66.1	8.0	6.64e-02	0	34	0	11534336	84	8052
2026-01-01 07:12:21.71	94.86	5.05	-57.8	-62.5	11.3	1.26e-02	0	34	0	18874368	82	5948
2026-01-01 07:12:25.72	94.61	5.32	-56.8	-60.3	13.1	7.71e-02	0	34	0	26214400	80	5218
2026-01-01 07:12:29.71	94.36	5.58	-56.1	-59.1	14.1	0.00e+00	0	34	0	33554432	78	5045
2026-01-01 07:12:33.71	94.11	5.85	-55.9	-58.8	14.3	0.00e+00	0	34	0	41943040	78	4873
2026-01-01 07:12:37.71	93.85	6.12	-55.8	-58.6	14.5	0.00e+00	0	34	0	49283072	78	4784
2026-01-01 07:12:41.71	93.58	6.39	-55.8	-58.6	14.5	0.00e+00	0	34	0	56623104	78	4810
2026-01-01 07:12:45.70	93.31	6.67	-55.6	-58.2	14.7	0.00e+00	0	34	0	63963136	77	4847
2026-01-01 07:12:49.69	93.04	6.94	-55.7	-58.4	14.6	0.00e+00	0	34	0	71303168	77	4977
2026-01-01 07:12:53.69	92.76	7.22	-55.7	-58.3	14.7	0.00e+00	0	34	0	78643200	77	4926
2026-01-01 07:12:57.69	92.47	7.50	-55.7	-58.4	14.7	0.00e+00	0	34	0	85983232	77	4935
2026-01-01 07:13:01.67	92.18	7.79	-55.8	-58.6	14.5	0.00e+00	0	34	0	94371840	77	5062
2026-01-01 07:13:05.67	91.88	8.07	-55.6	-58.7	14.4	0.00e+00	0	34	0	101711872	77	5132
2026-01-01 07:13:09.67	91.57	8.36	-55.4	-58.4	14.6	0.00e+00	0	34	0	109051904	77	4954
2026-01-01 07:13:13.67	91.26	8.65	-55.4	-58.4	14.7	0.00e+00	0	34	0	116391936	77	4935
2026-01-01 07:13:17.67	90.94	8.95	-55.8	-58.8	14.4	0.00e+00	0	34	0	123731968	77	5209
2026-01-01 07:13:21.65	90.62	9.24	-55.0	-57.7	15.1	0.00e+00	0	34	0	131072000	76	4818
2026-01-01 07:13:25.64	90.29	9.54	-54.8	-57.4	15.3	0.00e+00	0	35	0	138412032	76	4687
2026-01-01 07:13:29.64	89.95	9.84	-55.1	-57.8	15.1	0.00e+00	0	34	0	146800640	76	4916
2026-01-01 07:13:33.65	89.60	10.15	-54.6	-57.1	15.4	0.00e+00	0	35	0	154140672	75	4797
2026-01-01 07:13:37.64	89.25	10.45	-54.4	-56.9	15.5	0.00e+00	0	34	0	161480704	75	4680
2026-01-01 07:13:41.64	88.89	10.76	-54.6	-57.2	15.4	0.00e+00	0	35	0	168820736	75	4846
2026-01-01 07:13:45.61	88.52	11.08	-54.5	-56.9	15.6	0.00e+00	0	35	0	176160768	75	4698
2026-01-01 07:13:49.59	88.14	11.39	-54.6	-57.1	15.5	0.00e+00	0	35	0	183500800	75	4784
2026-01-01 07:13:53.59	87.76	11.71	-54.5	-56.9	15.6	0.00e+00	0	35	0	190840832	75	4693
2026-01-01 07:13:57.59	87.36	12.03	-54.5	-56.9	15.6	0.00e+00	0	35	0	199229440	75	4701
2026-01-01 07:14:01.57	86.96	12.35	-54.5	-56.9	15.6	0.00e+00	0	35	0	206569472	75	4693
2026-01-01 07:14:05.56	86.55	12.68	-54.3	-56.5	15.9	0.00e+00	0	35	0	213909504	75	4492
2026-01-01 07:14:09.57	86.12	13.01	-54.5	-57.0	15.6	0.00e+00	0	34	0	221249536	75	4730
2026-01-01 07:14:13.55	85.69	13.34	-54.6	-57.1	15.6	0.00e+00	0	35	0	228589568	75	4766
2026-01-01 07:14:17.56	85.25	13.68	-54.4	-56.8	15.6	0.00e+00	0	35	0	235929600	75	4649
2026-01-01 07:14:21.56	84.79	14.02	-54.7	-57.3	15.4	0.00e+00	0	35	0	243269632	75	4897
2026-01-01 07:14:25.56	84.33	14.36	-54.6	-57.1	15.6	0.00e+00	0	35	0	251658240	75	4778
2026-01-01 07:14:29.56	83.85	14.70	-54.8	-57.3	15.5	0.00e+00	0	35	0	258998272	75	4892
2026-01-01 07:14:33.56	83.37	15.05	-54.3	-56.6	15.9	0.00e+00	0	35	0	266338304	75	4507
2026-01-01 07:14:37.56	82.87	15.40	-53.9	-56.1	16.2	0.00e+00	0	35	0	273678336	73	4785
2026-01-01 07:14:41.55	82.36	15.75	-54.4	-56.8	15.8	0.00e+00	0	35	0	281018368	74	4877
2026-01-01 07:14:45.56	81.83	16.11	-54.5	-56.9	15.8	0.00e+00	0	35	0	288358400	74	4940
2026-01-01 07:14:49.54	81.30	16.46	-54.9	-57.5	15.5	0.00e+00	0	35	0	296747008	75	4989
2026-01-01 07:14:53.55	80.75	16.82	-54.7	-57.1	15.6	0.00e+00	0	35	0	304087040	75	4797
2026-01-01 07:14:57.54	80.19	17.19	-54.8	-57.4	15.5	0.00e+00	0	35	0	311427072	75	4934
2026-01-01 07:15:01.51	79.61	17.55	-54.6	-57.1	15.7	0.00e+00	0	35	0	318767104	75	4779
2026-01-01 07:15:05.51	79.02	17.92	-54.3	-56.6	15.9	0.00e+00	0	35	0	326107136	75	4542
2026-01-01 07:15:09.49	78.42	18.29	-54.1	-56.4	16.1	0.00e+00	0	35	0	333447168	74	4654
2026-01-01 07:15:13.48	77.80	18.66	-54.0	-56.2	16.2	0.00e+00	0	35	0	340787200	74	4547
2026-01-01 07:15:17.46	77.16	19.03	-53.9	-56.0	16.3	0.00e+00	0	35	0	348127232	74	4481
2026-01-01 07:15:21.44	76.51	19.41	-54.3	-56.5	16.1	0.00e+00	0	35	0	356515840	74	4734
2026-01-01 07:15:25.42	75.85	19.78	-54.5	-56.9	15.8	0.00e+00	0	35	0	363855872	74	4953
2026-01-01 07:15:29.40	75.16	20.16	-54.0	-56.3	16.1	0.00e+00	0	35	0	371195904	74	4622
2026-01-01 07:15:33.41	74.46	20.54	-53.3	-55.3	16.6	0.00e+00	0	35	0	378535936	73	4359
2026-01-01 07:15:37.41	73.73	20.92	-53.4	-55.5	16.5	0.00e+00	0	35	0	385875968	73	4456
2026-01-01 07:15:41.41	72.99	21.31	-53.9	-56.0	16.3	0.00e+00	0	35	0	393216000	73	4723
2026-01-01 07:15:45.42	72.23	21.69	-54.2	-56.3	16.1	0.00e+00	0	35	0	400556032	73	4899
2026-01-01 07:15:49.40	71.46	22.07	-54.0	-56.1	16.3	0.00e+00	0	35	0	408944640	73	4766
2026-01-01 07:15:53.40	70.66	22.46	-53.7	-55.7	16.5	0.00e+00	0	35	0	416284672	73	4583
2026-01-01 07:15:57.40	69.84	22.84	-54.5	-56.7	16.0	0.00e+00	0	35	0	423624704	74	4845
2026-01-01 07:16:01.40	69.00	23.22	-54.1	-56.3	16.2	0.00e+00	0	35	0	430964736	74	4617
2026-01-01 07:16:05.42	68.14	23.60	-54.3	-56.5	16.2	0.00e+00	0	35	0	438304768	74	4715
2026-01-01 07:16:09.42	67.26	23.98	-54.8	-57.1	15.9	0.00e+00	0	35	0	445644800	75	4793
2026-01-01 07:16:13.42	66.35	24.36	-53.9	-55.8	16.5	0.00e+00	0	35	0	452984832	74	4386
2026-01-01 07:16:17.42	65.43	24.73	-53.3	-55.1	16.8	0.00e+00	0	35	0	461373440	73	4279
2026-01-01 07:16:21.41	64.48	25.11	-52.8	-54.6	16.9	0.00e+00	0	35	0	468713472	71	4514
2026-01-01 07:16:25.40	63.52	25.47	-53.0	-54.8	16.8	0.00e+00	0	35	0	476053504	71	4641
2026-01-01 07:16:29.40	62.52	25.84	-53.2	-55.2	16.7	0.00e+00	0	35	0	483393536	72	4556
2026-01-01 07:16:33.41	61.50	26.20	-53.8	-56.0	16.3	0.00e+00	0	35	0	490733568	73	4719
2026-01-01 07:16:37.39	60.47	26.55	-53.9	-55.9	16.4	0.00e+00	0	35	0	498073600	73	4691
2026-01-01 07:16:41.38	59.41	26.89	-54.1	-56.3	16.2	0.00e+00	0	35	0	505413632	73	4888
2026-01-01 07:16:45.38	58.32	27.23	-53.7	-55.7	16.5	0.00e+00	0	35	0	513802240	73	4586
2026-01-01 07:16:49.38	57.21	27.57	-53.9	-56.0	16.3	0.00e+00	0	35	0	521142272	73	4748
2026-01-01 07:16:53.38	56.08	27.89	-54.8	-57.2	15.7	0.00e+00	0	35	0	528482304	74	5130
2026-01-01 07:16:57.38	54.93	28.21	-54.8	-57.2	15.8	0.00e+00	0	35	0	535822336	75	4820
2026-01-01 07:17:01.38	53.75	28.51	-54.7	-56.9	15.9	0.00e+00	0	35	0	543162368	75	4702
2026-01-01 07:17:05.38	52.55	28.81	-54.2	-56.4	16.2	0.00e+00	0	35	0	550502400	74	4660
2026-01-01 07:17:09.38	51.32	29.09	-54.5	-56.8	15.9	0.00e+00	0	35	0	557842432	74	4924
2026-01-01 07:17:13.37	50.08	29.36	-54.5	-57.0	15.8	0.00e+00	0	35	0	566231040	74	4993
2026-01-01 07:17:17.36	48.82	29.62	-54.1	-56.3	16.2	0.00e+00	0	35	0	573571072	74	4644
2026-01-01 07:17:21.36	47.54	29.87	-53.7	-55.7	16.5	0.00e+00	0	35	0	580911104	73	4585
2026-01-01 07:17:25.35	46.24	30.10	-54.6	-57.0	15.8	0.00e+00	0	35	0	588251136	74	5012
2026-01-01 07:17:29.36	44.91	30.31	-54.0	-56.1	16.2	0.00e+00	0	35	0	595591168	74	4544
2026-01-01 07:17:33.37	43.57	30.51	-53.6	-55.7	16.5	0.00e+00	0	35	0	602931200	73	4563
2026-01-01 07:17:37.37	42.21	30.70	-53.8	-55.9	16.4	0.00e+00	0	35	0	611319808	73	4656
2026-01-01 07:17:41.38	40.84	30.86	-55.4	-58.2	15.2	0.00e+00	0	35	0	618659840	76	5128
2026-01-01 07:17:45.39	39.45	31.01	-54.8	-57.3	15.7	0.00e+00	0	35	0	625999872	76	4638
2026-01-01 07:17:49.40	38.05	31.14	-55.3	-57.9	15.3	0.00e+00	0	35	0	633339904	76	4970
2026-01-01 07:17:53.41	36.64	31.25	-53.9	-56.0	16.4	0.00e+00	0	35	0	640679936	74	4486
2026-01-01 07:17:57.39	35.23	31.34	-55.1	-57.8	15.4	0.00e+00	0	35	0	648019968	75	5200
2026-01-01 07:18:01.37	33.82	31.41	-54.8	-57.2	15.7	0.00e+00	0	35	0	655360000	75	4860
2026-01-01 07:18:05.45	32.36	31.47	-54.6	-57.0	15.8	0.00e+00	0	35	0	663748608	75	4752
2026-01-01 07:18:09.46	30.93	31.50	-54.4	-56.7	16.0	0.00e+00	0	35	0	671088640	74	4844
2026-01-01 07:18:13.45	29.50	31.51	-55.5	-58.2	15.2	0.00e+00	0	35	0	678428672	76	5120
2026-01-01 07:18:17.45	28.07	31.50	-54.6	-56.9	15.9	0.00e+00	0	35	0	685768704	75	4672
2026-01-01 07:18:21.44	26.64	31.47	-54.1	-56.2	16.3	0.00e+00	0	35	0	693108736	73	4836
2026-01-01 07:18:25.43	25.21	31.42	-55.1	-57.5	15.7	0.00e+00	0	35	0	700448768	76	4742
2026-01-01 07:18:29.42	23.79	31.35	-54.9	-57.2	15.9	0.00e+00	0	35	0	708837376	75	4842
2026-01-01 07:18:33.41	22.38	31.26	-54.7	-56.9	15.9	0.00e+00	0	35	0	716177408	75	4703
2026-01-01 07:18:37.42	20.97	31.16	-55.0	-57.5	15.7	0.00e+00	0	35	0	723517440	75	4996
2026-01-01 07:18:41.42	19.58	31.03	-54.7	-57.1	15.8	0.00e+00	0	35	0	730857472	75	4813
2026-01-01 07:18:45.42	18.19	30.88	-54.2	-56.5	16.1	0.00e+00	0	35	0	738197504	74	4744
2026-01-01 07:18:49.43	16.82	30.72	-54.2	-56.5	16.1	0.00e+00	0	35	0	745537536	74	4725
2026-01-01 07:18:53.41	15.47	30.54	-55.0	-57.5	15.7	0.00e+00	0	35	0	752877568	75	5012
2026-01-01 07:18:57.40	14.13	30.34	-54.8	-57.3	15.8	0.00e+00	0	35	0	761266176	75	4886
2026-01-01 07:19:01.38	12.81	30.13	-54.7	-57.1	15.9	0.00e+00	0	35	0	768606208	75	4764
2026-01-01 07:19:05.38	11.51	29.90	-54.5	-56.8	16.1	0.00e+00	0	35	0	775946240	75	4615
2026-01-01 07:19:09.38	10.22	29.66	-55.7	-58.4	15.2	0.00e+00	0	35	0	783286272	76	5232
2026-01-01 07:19:13.37	8.96	29.40	-56.2	-59.4	14.4	0.00e+00	0	35	0	790626304	77	5570
2026-01-01 07:19:17.36	7.72	29.13	-56.2	-59.4	14.5	0.00e+00	0	35	0	797966336	78	5243
2026-01-01 07:19:21.35	6.49	28.85	-56.2	-59.4	14.5	0.00e+00	0	35	0	805306368	77	5588
2026-01-01 07:19:25.34	5.30	28.56	-55.3	-57.9	15.5	0.00e+00	0	35	0	812646400	77	4701
2026-01-01 07:19:29.32	4.12	28.26	-53.1	-55.0	16.8	0.00e+00	0	35	0	821035008	72	4479
2026-01-01 07:19:33.31	2.97	27.95	-53.3	-55.2	16.7	0.00e+00	0	35	0	828375040	72	4589
2026-01-01 07:19:37.31	1.83	27.62	-54.5	-56.9	15.9	0.00e+00	0	35	0	835715072	74	4962
2026-01-01 07:19:41.32	0.72	27.29	-53.9	-55.9	16.5	0.00e+00	0	35	0	843055104	74	4429
2026-01-01 07:19:45.30	359.64	26.95	-56.2	-59.4	14.7	0.00e+00	0	35	0	850395136	77	5539
2026-01-01 07:19:49.28	358.58	26.61	-55.3	-57.7	15.7	0.00e+00	0	35	0	857735168	77	4563
2026-01-01 07:19:53.28	357.53	26.26	-54.3	-56.4	16.3	0.00e+00	0	35	0	865075200	75	4411
2026-01-01 07:19:57.27	356.52	25.90	-52.9	-54.6	17.0	0.00e+00	0	35	0	873463808	72	4274
2026-01-01 07:20:01.27	355.52	25.54	-53.0	-54.8	17.0	0.00e+00	0	35	0	880803840	72	4378
2026-01-01 07:20:05.26	354.55	25.17	-53.0	-54.8	17.0	0.00e+00	0	35	0	888143872	72	4350
2026-01-01 07:20:09.25	353.61	24.80	-53.7	-55.7	16.6	0.00e+00	0	35	0	895483904	72	4824
2026-01-01 07:20:13.23	352.69	24.43	-53.4	-55.3	16.8	0.00e+00	0	35	0	902823936	72	4625
2026-01-01 07:20:17.21	351.78	24.06	-53.2	-55.0	16.9	0.00e+00	0	35	0	910163968	72	4465
2026-01-01 07:20:21.20	350.90	23.68	-52.2	-53.8	17.3	0.00e+00	0	35	0	917504000	70	4348
2026-01-01 07:20:25.21	350.04	23.30	-51.8	-53.3	17.5	0.00e+00	0	35	0	925892608	69	4356
2026-01-01 07:20:29.20	349.20	22.92	-53.0	-54.8	17.0	0.00e+00	0	35	0	933232640	71	4632
2026-01-01 07:20:33.20	348.38	22.54	-52.6	-54.3	17.2	0.00e+00	0	35	0	940572672	71	4361
2026-01-01 07:20:37.20	347.58	22.15	-52.9	-54.6	17.1	0.00e+00	0	35	0	947912704	71	4516
2026-01-01 07:20:41.21	346.80	21.77	-52.9	-54.6	17.0	0.00e+00	0	35	0	955252736	71	4526
2026-01-01 07:20:45.20	346.04	21.39	-52.8	-54.6	17.1	0.00e+00	0	35	0	962592768	71	4495
2026-01-01 07:20:49.20	345.30	21.01	-52.5	-54.2	17.3	0.00e+00	0	35	0	969932800	71	4303
2026-01-01 07:20:53.19	344.57	20.63	-53.6	-55.4	16.7	0.00e+00	0	35	0	978321408	72	4701
2026-01-01 07:20:57.18	343.87	20.25	-53.5	-55.3	16.8	0.00e+00	0	35	0	985661440	72	4636
2026-01-01 07:21:01.18	343.18	19.87	-52.6	-54.3	17.2	0.00e+00	0	35	0	993001472	71	4355
2026-01-01 07:21:05.17	342.51	19.49	-53.2	-55.0	16.9	0.00e+00	0	35	0	1000341504	71	4735
2026-01-01 07:21:09.17	341.86	19.12	-54.3	-56.4	16.3	0.00e+00	0	35	0	1007681536	74	4701
2026-01-01 07:21:13.15	341.22	18.74	-53.9	-55.9	16.6	0.00e+00	0	35	0	1015021568	74	4415
2026-01-01 07:21:17.14	340.60	18.37	-53.4	-55.2	16.9	0.00e+00	0	35	0	1022361600	73	4312
2026-01-01 07:21:21.13	340.00	18.00	-54.0	-56.1	16.4	0.00e+00	0	35	0	1030750208	73	4762
2026-01-01 07:21:25.11	339.41	17.64	-53.8	-55.8	16.5	0.00e+00	0	35	0	1038090240	73	4628
2026-01-01 07:21:29.11	338.83	17.27	-53.2	-55.1	16.8	0.00e+00	0	35	0	1045430272	73	4243
2026-01-01 07:21:33.10	338.27	16.91	-53.2	-54.9	16.9	0.00e+00	0	35	0	1052770304	72	4439
2026-01-01 07:21:37.09	337.72	16.55	-53.5	-55.4	16.7	0.00e+00	0	35	0	1060110336	72	4656
2026-01-01 07:21:41.07	337.18	16.19	-53.7	-55.6	16.6	0.00e+00	0	35	0	1067450368	73	4512
2026-01-01 07:21:45.06	336.66	15.84	-53.3	-55.1	16.8	0.00e+00	0	35	0	1074790400	73	4278
2026-01-01 07:21:49.06	336.15	15.49	-54.0	-56.1	16.3	0.00e+00	0	35	0	1082130432	73	4772
2026-01-01 07:21:53.04	335.65	15.14	-55.4	-58.0	15.2	0.00e+00	0	35	0	1090519040	75	5301
2026-01-01 07:21:57.04	335.16	14.79	-54.9	-57.3	15.8	0.00e+00	0	35	0	1097859072	76	4613
2026-01-01 07:22:01.03	334.69	14.45	-53.5	-55.4	16.7	0.00e+00	0	35	0	1105199104	73	4410
2026-01-01 07:22:05.02	334.23	14.11	-53.5	-55.4	16.6	0.00e+00	0	35	0	1112539136	73	4424
2026-01-01 07:22:09.03	333.77	13.77	-54.5	-56.8	16.0	0.00e+00	0	35	0	1119879168	74	4871
2026-01-01 07:22:13.03	333.33	13.43	-55.2	-57.7	15.4	0.00e+00	0	35	0	1127219200	75	5153
2026-01-01 07:22:17.01	332.90	13.10	-54.9	-57.4	15.6	0.00e+00	0	35	0	1135607808	75	4941
2026-01-01 07:22:21.00	332.47	12.77	-54.9	-57.3	15.7	0.00e+00	0	35	0	1142947840	75	4897
2026-01-01 07:22:24.98	332.06	12.45	-55.1	-57.6	15.4	0.00e+00	0	35	0	1150287872	75	5066
2026-01-01 07:22:28.97	331.66	12.12	-55.2	-57.8	15.3	0.00e+00	0	35	0	1157627904	75	5210
2026-01-01 07:22:32.96	331.26	11.80	-55.4	-58.0	15.2	0.00e+00	0	35	0	1164967936	76	5009
2026-01-01 07:22:36.94	330.88	11.49	-55.3	-57.9	15.3	0.00e+00	0	35	0	1172307968	76	4935
2026-01-01 07:22:40.93	330.50	11.17	-54.3	-56.4	16.1	0.00e+00	0	35	0	1179648000	75	4432
2026-01-01 07:22:44.92	330.13	10.86	-53.9	-55.9	16.4	0.00e+00	0	35	0	1186988032	74	4432
2026-01-01 07:22:48.91	329.77	10.55	-54.3	-56.5	16.0	0.00e+00	0	35	0	1195376640	74	4732
2026-01-01 07:22:52.90	329.42	10.24	-55.2	-57.8	15.4	0.00e+00	0	35	0	1202716672	75	5186
2026-01-01 07:22:56.90	329.07	9.94	-55.8	-58.7	14.8	0.00e+00	0	35	0	1210056704	76	5430
2026-01-01 07:23:00.90	328.73	9.64	-56.0	-59.0	14.5	0.00e+00	0	35	0	1217396736	77	5331
2026-01-01 07:23:04.89	328.40	9.34	-56.0	-59.0	14.5	0.00e+00	0	35	0	1224736768	77	5287
2026-01-01 07:23:08.87	328.08	9.04	-55.6	-58.3	14.8	0.00e+00	0	35	0	1232076800	77	4917
2026-01-01 07:23:12.87	327.76	8.75	-55.5	-58.3	14.9	0.00e+00	0	35	0	1239416832	77	4890
2026-01-01 07:23:16.85	327.45	8.46	-55.1	-57.7	15.2	0.00e+00	0	35	0	1246756864	76	4842
2026-01-01 07:23:20.84	327.15	8.17	-55.0	-57.5	15.3	0.00e+00	0	35	0	1255145472	75	4994
2026-01-01 07:23:24.82	326.85	7.89	-55.2	-57.8	15.2	0.00e+00	0	35	0	1262485504	75	5206
2026-01-01 07:23:28.81	326.56	7.60	-55.8	-58.7	14.6	0.00e+00	0	35	0	1269825536	76	5461
2026-01-01 07:23:32.80	326.27	7.32	-56.2	-59.5	14.1	0.00e+00	0	35	0	1277165568	77	5623
2026-01-01 07:23:36.79	325.99	7.04	-56.5	-60.0	13.6	0.00e+00	0	35	0	1284505600	78	5621
2026-01-01 07:23:40.77	325.72	6.77	-56.5	-60.0	13.7	0.00e+00	0	35	0	1291845632	78	5643
2026-01-01 07:23:44.78	325.45	6.49	-56.3	-59.7	13.9	0.00e+00	0	35	0	1299185664	78	5417
2026-01-01 07:23:48.77	325.18	6.22	-56.3	-59.7	13.9	0.00e+00	0	35	0	1307574272	78	5410
2026-01-01 07:23:52.76	324.93	5.95	-56.4	-59.8	13.7	0.00e+00	0	35	0	1314914304	77	5822
2026-01-01 07:23:56.74	324.67	5.68	-56.6	-60.2	13.4	7.00e-07	0	35	0	1322254336	78	5741
2026-01-01 07:24:00.73	324.42	5.42	-56.8	-60.6	13.1	3.80e-06	0	35	0	1329594368	78	6015
2026-01-01 07:24:04.73	324.18	5.15	-56.8	-60.7	13.0	2.20e-06	0	35	0	1336934400	78	6087
2026-01-01 07:24:08.73	323.94	4.89	-60.6	-76.5	3.8	1.49e+00	0	35	104	1343225856	86	23621
2026-01-01 07:24:12.74	323.70	4.63	-61.5	-77.5	3.8	1.49e+00	0	35	104	1343225856	88	23758
2026-01-01 07:24:16.72	323.47	4.38	-62.0	-78.0	3.8	1.49e+00	0	35	104	1343225856	89	23632
2026-01-01 07:24:20.73	323.24	4.12	-62.2	-78.2	3.8	1.49e+00	0	35	104	1343225856	89	24384
2026-01-01 07:24:24.71	323.02	3.87	-62.3	-78.3	3.8	1.49e+00	0	35	104	1343225856	89	24664
2026-01-01 07:24:28.70	322.80	3.62	-62.4	-78.4	3.8	1.49e+00	0	35	104	1343225856	89	24882
2026-01-01 07:24:32.69	322.59	3.37	-62.3	-78.3	3.8	1.49e+00	0	35	104	1343225856	89	24529
2026-01-01 07:24:36.68	322.38	3.12	-62.2	-78.2	3.8	1.49e+00	0	35	104	1343225856	89	24388
2026-01-01 07:24:40.68	322.17	2.87	-62.2	-78.2	3.8	1.49e+00	0	35	104	1343225856	89	24346
2026-01-01 07:24:44.68	321.97	2.63	-62.1	-78.1	3.8	1.49e+00	0	35	104	1343225856	89	24125
2026-01-01 07:24:48.68	321.77	2.39	-62.1	-78.1	3.8	1.49e+00	0	35	104	1343225856	89	24100
2026-01-01 07:24:52.67	321.57	2.15	-62.1	-78.1	3.8	1.49e+00	0	35	104	1343225856	89	24049
2026-01-01 07:24:56.67	321.38	1.91	-62.1	-78.1	3.8	1.49e+00	0	35	104	1343225856	89	23950

#Closed at: 2026-01-01 07:24:56
#Recorded file [1343 MB]: D:/lorett/data/31004_260101_101133.dat