passes_logs/2026/01/01/R3.2S_Murmansk/R3.2S_Murmansk__20260101_131327_FENGYUN_3D_rec.log

#Pass ID: 20260101_131327_FENGYUN 3D
#Satellite: FENGYUN 3D
#Configuration: FENGYUN 3D
#almurnet v.1.7.20251203
#Start time: 2026-01-01 13:13:29

#Version: 2.2.20231116
#Station: R3.2S_Murmansk
#Location: 33.079688 lon 68.888172 lat
#TLE: 1 43010U 17072A   26001.19005061  .00000535  00000+0  27473-3 0  9994
#TLE: 2 43010  98.9910 332.7942 0001852 133.6060 226.5269 14.19691635421296

#Time	Az	El	Level	Level2	SNR	BER	BlckErr	Temp	State	Recorded	gain1	gain2
2026-01-01 13:13:29.05	193.55	2.08	-59.9	-72.8	3.8	8.47e-01	0	32	0	0	86	15412
2026-01-01 13:13:33.08	193.76	2.32	-59.9	-72.9	3.8	8.46e-01	0	32	104	0	85	16544
2026-01-01 13:13:37.12	193.97	2.57	-59.9	-72.8	3.8	8.46e-01	0	32	104	0	85	16440
2026-01-01 13:13:41.15	194.18	2.81	-59.9	-72.7	3.8	8.46e-01	0	32	104	0	85	16247
2026-01-01 13:13:45.18	194.40	3.06	-59.9	-72.5	3.8	8.46e-01	0	32	104	0	85	15825
2026-01-01 13:13:49.22	194.62	3.31	-59.9	-72.7	3.8	8.47e-01	0	32	104	0	85	16183
2026-01-01 13:13:53.25	194.85	3.56	-59.8	-72.0	3.8	8.45e-01	0	32	104	0	85	15044
2026-01-01 13:13:57.28	195.08	3.81	-59.9	-72.6	3.8	8.47e-01	0	32	104	0	85	16073
2026-01-01 13:14:01.32	195.31	4.07	-59.8	-71.0	3.8	8.46e-01	0	32	104	0	85	13378
2026-01-01 13:14:05.35	195.55	4.33	-59.2	-67.1	5.1	7.68e-01	0	32	0	0	85	8483
2026-01-01 13:14:09.38	195.79	4.59	-59.2	-66.9	5.2	7.33e-01	0	33	0	0	84	8768
2026-01-01 13:14:13.41	196.03	4.85	-58.0	-63.0	8.0	6.95e-02	0	33	0	16777216	82	6341
2026-01-01 13:14:17.45	196.28	5.11	-57.8	-62.5	8.7	1.48e-02	0	33	0	38797312	80	6686
2026-01-01 13:14:21.49	196.53	5.38	-51.5	-53.1	15.4	0.00e+00	0	33	0	52428800	69	4254
2026-01-01 13:14:25.52	196.79	5.65	-51.3	-52.9	15.6	0.00e+00	0	33	0	75497472	69	4149
2026-01-01 13:14:29.54	197.05	5.92	-50.9	-52.4	15.8	0.00e+00	0	33	0	98566144	68	4170
2026-01-01 13:14:33.58	197.32	6.19	-50.8	-52.2	15.9	0.00e+00	0	33	0	120586240	68	4095
2026-01-01 13:14:37.60	197.59	6.47	-50.6	-52.0	15.9	0.00e+00	0	33	0	143654912	67	4228
2026-01-01 13:14:41.64	197.87	6.74	-50.5	-51.9	16.0	0.00e+00	0	33	0	165675008	67	4177
2026-01-01 13:14:45.67	198.15	7.02	-50.5	-52.0	15.9	0.00e+00	0	33	0	188743680	67	4213
2026-01-01 13:14:49.71	198.43	7.31	-50.5	-51.9	16.0	0.00e+00	0	33	0	211812352	67	4181
2026-01-01 13:14:53.75	198.73	7.59	-50.6	-52.0	15.9	0.00e+00	0	33	0	234881024	67	4233
2026-01-01 13:14:57.78	199.02	7.88	-50.6	-52.1	15.9	0.00e+00	0	33	0	256901120	67	4250
2026-01-01 13:15:01.81	199.33	8.17	-50.5	-51.9	16.0	0.00e+00	0	33	0	279969792	67	4183
2026-01-01 13:15:05.85	199.64	8.47	-50.3	-51.7	16.1	0.00e+00	0	33	0	303038464	67	4073
2026-01-01 13:15:09.88	199.95	8.76	-50.2	-51.6	16.1	0.00e+00	0	33	0	325058560	66	4283
2026-01-01 13:15:13.91	200.27	9.06	-49.8	-51.2	16.4	0.00e+00	0	33	0	348127232	66	4061
2026-01-01 13:15:17.95	200.60	9.36	-49.9	-51.3	16.3	0.00e+00	0	33	0	370147328	66	4115
2026-01-01 13:15:21.98	200.93	9.67	-49.7	-51.0	16.4	0.00e+00	0	33	0	393216000	65	4241
2026-01-01 13:15:26.01	201.27	9.98	-49.4	-50.7	16.5	0.00e+00	0	33	0	416284672	65	4098
2026-01-01 13:15:30.03	201.62	10.29	-49.4	-50.7	16.5	0.00e+00	0	33	0	438304768	65	4079
2026-01-01 13:15:34.07	201.97	10.60	-49.4	-50.7	16.6	0.00e+00	0	33	0	461373440	65	4096
2026-01-01 13:15:38.10	202.33	10.92	-49.3	-50.5	16.8	0.00e+00	0	33	0	484442112	65	3986
2026-01-01 13:15:42.13	202.70	11.24	-49.2	-50.4	16.8	0.00e+00	0	33	0	506462208	65	3937
2026-01-01 13:15:46.15	203.08	11.56	-49.3	-50.5	16.8	0.00e+00	0	33	0	529530880	64	4201
2026-01-01 13:15:50.19	203.47	11.89	-49.1	-50.3	16.8	0.00e+00	0	33	0	551550976	64	4111
2026-01-01 13:15:54.23	203.86	12.22	-49.1	-50.2	16.8	0.00e+00	0	33	0	574619648	64	4086
2026-01-01 13:15:58.26	204.26	12.55	-49.0	-50.1	16.9	0.00e+00	0	33	0	597688320	64	4031
2026-01-01 13:16:02.29	204.67	12.89	-48.7	-49.9	17.0	0.00e+00	0	33	0	619708416	64	3924
2026-01-01 13:16:06.33	205.09	13.23	-48.8	-49.9	17.0	0.00e+00	0	33	0	642777088	64	3950
2026-01-01 13:16:10.36	205.52	13.57	-48.7	-49.9	17.0	0.00e+00	0	33	0	665845760	64	3927
2026-01-01 13:16:14.39	205.96	13.92	-48.6	-49.7	17.0	0.00e+00	0	33	0	687865856	63	4091
2026-01-01 13:16:18.42	206.41	14.26	-48.6	-49.7	17.0	0.00e+00	0	33	0	710934528	63	4084
2026-01-01 13:16:22.46	206.87	14.62	-48.7	-49.8	17.0	0.00e+00	0	33	0	734003200	63	4131
2026-01-01 13:16:26.48	207.34	14.97	-48.6	-49.7	17.1	0.00e+00	0	33	0	756023296	63	4083
2026-01-01 13:16:30.52	207.82	15.34	-48.4	-49.5	17.2	0.00e+00	0	33	0	779091968	63	3998
2026-01-01 13:16:34.56	208.31	15.70	-48.3	-49.4	17.2	0.00e+00	0	33	0	801112064	63	3928
2026-01-01 13:16:38.59	208.82	16.07	-48.4	-49.5	17.1	0.00e+00	0	33	0	824180736	63	3986
2026-01-01 13:16:42.63	209.33	16.44	-48.3	-49.5	17.2	0.00e+00	0	33	0	847249408	63	3961
2026-01-01 13:16:46.67	209.86	16.81	-48.4	-49.5	17.2	0.00e+00	0	33	0	869269504	63	3965
2026-01-01 13:16:50.70	210.40	17.19	-48.1	-49.2	17.2	0.00e+00	0	33	0	892338176	62	4075
2026-01-01 13:16:54.74	210.96	17.57	-48.1	-49.2	17.2	0.00e+00	0	34	0	915406848	62	4087
2026-01-01 13:16:58.77	211.53	17.96	-48.0	-49.1	17.3	0.00e+00	0	33	0	937426944	62	4015
2026-01-01 13:17:02.81	212.11	18.35	-48.0	-49.0	17.3	0.00e+00	0	33	0	960495616	62	4003
2026-01-01 13:17:06.83	212.71	18.74	-47.6	-48.7	17.3	0.00e+00	0	33	0	982515712	61	4074
2026-01-01 13:17:10.86	213.32	19.13	-47.6	-48.7	17.4	0.00e+00	0	34	0	1005584384	61	4072
2026-01-01 13:17:14.88	213.95	19.53	-47.6	-48.6	17.4	0.00e+00	0	33	0	1028653056	61	4046
2026-01-01 13:17:18.92	214.59	19.93	-47.7	-48.8	17.4	0.00e+00	0	34	0	1050673152	61	4113
2026-01-01 13:17:22.95	215.25	20.33	-47.6	-48.6	17.4	0.00e+00	0	33	0	1073741824	61	4036
2026-01-01 13:17:26.96	215.93	20.74	-47.4	-48.4	17.5	0.00e+00	0	34	0	1096810496	61	3939
2026-01-01 13:17:30.96	216.62	21.14	-47.3	-48.3	17.5	0.00e+00	0	34	0	1118830592	61	3912
2026-01-01 13:17:34.93	217.32	21.55	-47.3	-48.4	17.5	0.00e+00	0	34	0	1140850688	61	3923
2026-01-01 13:17:38.92	218.04	21.96	-47.0	-48.0	17.5	0.00e+00	0	34	0	1163919360	60	4003
2026-01-01 13:17:42.93	218.79	22.37	-46.9	-47.9	17.6	0.00e+00	0	34	0	1185939456	60	3949
2026-01-01 13:17:46.93	219.55	22.78	-46.9	-47.9	17.6	0.00e+00	0	34	0	1209008128	60	3943
2026-01-01 13:17:50.94	220.34	23.20	-47.2	-48.3	17.5	0.00e+00	0	34	0	1231028224	59	4365
2026-01-01 13:17:54.95	221.15	23.62	-47.2	-48.3	17.5	0.00e+00	0	34	0	1254096896	59	4366
2026-01-01 13:17:58.95	221.97	24.04	-47.0	-48.1	17.5	0.00e+00	0	33	0	1276116992	59	4253
2026-01-01 13:18:02.98	222.83	24.46	-46.9	-47.9	17.6	0.00e+00	0	34	0	1299185664	59	4174
2026-01-01 13:18:07.00	223.70	24.88	-46.9	-47.9	17.6	0.00e+00	0	34	0	1321205760	59	4168
2026-01-01 13:18:11.04	224.60	25.30	-46.9	-48.0	17.6	0.00e+00	0	34	0	1344274432	59	4197
2026-01-01 13:18:15.06	225.53	25.72	-47.0	-48.0	17.6	0.00e+00	0	34	0	1367343104	59	4238
2026-01-01 13:18:19.09	226.47	26.13	-47.0	-48.0	17.5	0.00e+00	0	33	0	1389363200	59	4239
2026-01-01 13:18:23.06	227.43	26.54	-46.6	-47.6	17.7	0.00e+00	0	34	0	1411383296	59	4029
2026-01-01 13:18:27.06	228.42	26.95	-46.6	-47.7	17.7	0.00e+00	0	34	0	1434451968	59	4058
2026-01-01 13:18:31.07	229.44	27.36	-46.4	-47.4	17.8	0.00e+00	0	34	0	1456472064	59	3923
2026-01-01 13:18:35.08	230.48	27.77	-46.6	-47.6	17.7	0.00e+00	0	34	0	1479540736	59	4033
2026-01-01 13:18:39.09	231.55	28.17	-46.4	-47.4	17.8	0.00e+00	0	34	0	1501560832	59	3930
2026-01-01 13:18:43.10	232.64	28.57	-46.4	-47.4	17.8	0.00e+00	0	34	0	1524629504	59	3917
2026-01-01 13:18:47.11	233.77	28.96	-46.3	-47.3	17.8	0.00e+00	0	34	0	1546649600	59	3873
2026-01-01 13:18:51.15	234.92	29.34	-46.3	-47.3	17.8	0.00e+00	0	34	0	1569718272	59	3875
2026-01-01 13:18:55.18	236.11	29.72	-46.1	-47.1	17.8	0.00e+00	0	34	0	1592786944	58	4032
2026-01-01 13:18:59.22	237.32	30.09	-46.6	-47.6	17.7	0.00e+00	0	34	0	1614807040	58	4272
2026-01-01 13:19:03.24	238.55	30.45	-46.2	-47.2	17.8	0.00e+00	0	34	0	1637875712	58	4075
2026-01-01 13:19:07.27	239.81	30.80	-46.6	-47.6	17.7	0.00e+00	0	34	0	1660944384	58	4266
2026-01-01 13:19:11.30	241.10	31.14	-46.4	-47.4	17.7	0.00e+00	0	34	0	1682964480	58	4151
2026-01-01 13:19:15.32	242.41	31.46	-46.5	-47.5	17.7	0.00e+00	0	34	0	1706033152	58	4233
2026-01-01 13:19:19.36	243.76	31.78	-46.3	-47.3	17.8	0.00e+00	0	34	0	1728053248	58	4108
2026-01-01 13:19:23.40	245.13	32.08	-46.3	-47.3	17.8	0.00e+00	0	34	0	1751121920	58	4117
2026-01-01 13:19:27.43	246.52	32.36	-46.3	-47.3	17.8	0.00e+00	0	34	0	1774190592	58	4137
2026-01-01 13:19:31.46	247.93	32.63	-46.5	-47.6	17.7	0.00e+00	0	34	0	1796210688	58	4250
2026-01-01 13:19:35.49	249.37	32.88	-46.3	-47.3	17.9	0.00e+00	0	34	0	1819279360	58	4113
2026-01-01 13:19:39.51	250.82	33.11	-46.2	-47.2	17.9	0.00e+00	0	34	0	1842348032	58	4095
2026-01-01 13:19:43.55	252.30	33.32	-46.5	-47.5	17.8	0.00e+00	0	34	0	1864368128	58	4230
2026-01-01 13:19:47.58	253.79	33.52	-46.2	-47.2	17.9	0.00e+00	0	34	0	1887436800	58	4094
2026-01-01 13:19:51.61	255.31	33.69	-46.5	-47.5	17.8	0.00e+00	0	34	0	1909456896	58	4216
2026-01-01 13:19:55.65	256.84	33.85	-46.3	-47.3	17.9	0.00e+00	0	34	0	1932525568	58	4111
2026-01-01 13:19:59.69	258.38	33.98	-46.4	-47.4	17.8	0.00e+00	0	34	0	1955594240	58	4192
2026-01-01 13:20:03.72	259.93	34.09	-46.4	-47.4	17.8	0.00e+00	0	34	0	1977614336	58	4192
2026-01-01 13:20:07.76	261.49	34.17	-46.3	-47.2	17.9	0.00e+00	0	34	0	2000683008	58	4097
2026-01-01 13:20:11.79	263.06	34.23	-46.2	-47.2	17.8	0.00e+00	0	34	0	2023751680	58	4070
2026-01-01 13:20:15.82	264.63	34.27	-46.4	-47.4	17.8	0.00e+00	0	34	0	2045771776	58	4192
2026-01-01 13:20:19.86	266.21	34.29	-46.4	-47.4	17.8	0.00e+00	0	34	0	2068840448	58	4182
2026-01-01 13:20:23.89	267.78	34.28	-46.4	-47.4	17.9	0.00e+00	0	34	0	2091909120	58	4154
2026-01-01 13:20:27.92	269.36	34.25	-46.4	-47.4	17.8	0.00e+00	0	34	0	2113929216	58	4156
2026-01-01 13:20:31.95	270.92	34.19	-46.4	-47.4	17.8	0.00e+00	0	34	0	2136997888	58	4192
2026-01-01 13:20:35.98	272.48	34.12	-46.5	-47.5	17.8	0.00e+00	0	34	0	2160066560	58	4220
2026-01-01 13:20:40.02	274.04	34.01	-46.5	-47.5	17.8	0.00e+00	0	34	0	2182086656	58	4216
2026-01-01 13:20:44.05	275.58	33.89	-46.5	-47.5	17.8	0.00e+00	0	34	0	2205155328	58	4230
2026-01-01 13:20:48.08	277.11	33.74	-46.6	-47.6	17.8	0.00e+00	0	34	0	2228224000	58	4261
2026-01-01 13:20:52.12	278.63	33.58	-46.7	-47.7	17.8	0.00e+00	0	34	0	2250244096	58	4305
2026-01-01 13:20:56.16	280.13	33.39	-46.9	-47.9	17.8	0.00e+00	0	34	0	2273312768	59	4191
2026-01-01 13:21:00.19	281.61	33.18	-46.9	-48.0	17.8	0.00e+00	0	34	0	2295332864	59	4202
2026-01-01 13:21:04.22	283.08	32.96	-46.6	-47.6	17.9	0.00e+00	0	34	0	2318401536	59	4021
2026-01-01 13:21:08.26	284.52	32.71	-46.7	-47.8	17.8	0.00e+00	0	34	0	2341470208	59	4104
2026-01-01 13:21:12.29	285.94	32.45	-46.8	-47.8	17.8	0.00e+00	0	34	0	2363490304	59	4139
2026-01-01 13:21:16.32	287.33	32.17	-47.1	-48.1	17.8	0.00e+00	0	34	0	2386558976	59	4261
2026-01-01 13:21:20.36	288.71	31.88	-47.1	-48.1	17.7	0.00e+00	0	34	0	2409627648	59	4279
2026-01-01 13:21:24.39	290.05	31.57	-47.1	-48.1	17.8	0.00e+00	0	34	0	2431647744	59	4280
2026-01-01 13:21:28.40	291.37	31.25	-47.2	-48.2	17.8	0.00e+00	0	34	0	2454716416	59	4318
2026-01-01 13:21:32.42	292.66	30.92	-47.1	-48.2	17.8	0.00e+00	0	34	0	2476736512	59	4297
2026-01-01 13:21:36.46	293.93	30.57	-47.2	-48.3	17.8	0.00e+00	0	34	0	2499805184	59	4343
2026-01-01 13:21:40.49	295.17	30.22	-47.0	-48.0	17.8	0.00e+00	0	34	0	2522873856	59	4198
2026-01-01 13:21:44.52	296.39	29.85	-47.3	-48.3	17.7	0.00e+00	0	34	0	2544893952	59	4383
2026-01-01 13:21:48.55	297.58	29.48	-46.9	-47.9	17.8	0.00e+00	0	34	0	2567962624	59	4181
2026-01-01 13:21:52.58	298.74	29.10	-47.3	-48.3	17.7	0.00e+00	0	34	0	2591031296	59	4379
2026-01-01 13:21:56.61	299.87	28.71	-47.0	-48.1	17.8	0.00e+00	0	34	0	2613051392	59	4249
2026-01-01 13:22:00.66	300.98	28.31	-47.4	-48.4	17.7	0.00e+00	0	34	0	2636120064	59	4434
2026-01-01 13:22:04.70	302.06	27.91	-47.1	-48.1	17.7	0.00e+00	0	34	0	2658140160	59	4256
2026-01-01 13:22:08.73	303.12	27.51	-47.1	-48.1	17.8	0.00e+00	0	34	0	2681208832	60	4038
2026-01-01 13:22:12.76	304.15	27.10	-47.0	-48.0	17.9	0.00e+00	0	34	0	2704277504	60	3978
2026-01-01 13:22:16.79	305.15	26.69	-46.9	-47.9	17.9	0.00e+00	0	34	0	2726297600	60	3931
2026-01-01 13:22:20.83	306.13	26.28	-46.9	-47.9	17.9	0.00e+00	0	34	0	2749366272	60	3946
2026-01-01 13:22:24.87	307.08	25.86	-46.8	-47.9	17.9	0.00e+00	0	34	0	2772434944	60	3917
2026-01-01 13:22:28.90	308.01	25.44	-47.0	-48.0	17.9	0.00e+00	0	34	0	2794455040	60	3982
2026-01-01 13:22:32.93	308.91	25.02	-47.0	-48.0	17.9	0.00e+00	0	34	0	2817523712	60	4001
2026-01-01 13:22:36.97	309.80	24.60	-46.9	-47.9	17.9	0.00e+00	0	34	0	2839543808	60	3953
2026-01-01 13:22:41.00	310.65	24.19	-46.9	-47.9	17.9	0.00e+00	0	34	0	2862612480	60	3951
2026-01-01 13:22:45.02	311.49	23.77	-47.0	-48.0	17.8	0.00e+00	0	34	0	2885681152	60	3999
2026-01-01 13:22:49.05	312.30	23.35	-47.1	-48.1	17.8	0.00e+00	0	34	0	2907701248	60	4039
2026-01-01 13:22:53.09	313.10	22.93	-47.2	-48.2	17.7	0.00e+00	0	34	0	2930769920	60	4071
2026-01-01 13:22:57.12	313.87	22.52	-47.5	-48.6	17.7	0.00e+00	0	34	0	2953838592	60	4253
2026-01-01 13:23:01.15	314.63	22.11	-47.6	-48.7	17.6	0.00e+00	0	34	0	2975858688	60	4302
2026-01-01 13:23:05.19	315.36	21.69	-47.8	-48.8	17.6	0.00e+00	0	34	0	2998927360	60	4386
2026-01-01 13:23:09.22	316.08	21.28	-47.8	-48.9	17.6	0.00e+00	0	34	0	3020947456	61	4168
2026-01-01 13:23:13.25	316.78	20.88	-47.7	-48.7	17.7	0.00e+00	0	34	0	3044016128	61	4076
2026-01-01 13:23:17.28	317.46	20.47	-47.7	-48.8	17.7	0.00e+00	0	34	0	3067084800	61	4117
2026-01-01 13:23:21.32	318.12	20.07	-47.9	-49.0	17.6	0.00e+00	0	34	0	3089104896	61	4222
2026-01-01 13:23:25.36	318.77	19.67	-48.1	-49.2	17.6	0.00e+00	0	34	0	3112173568	61	4297
2026-01-01 13:23:29.38	319.40	19.28	-48.3	-49.5	17.5	0.00e+00	0	34	0	3135242240	61	4442
2026-01-01 13:23:33.41	320.01	18.88	-48.3	-49.3	17.5	0.00e+00	0	34	0	3157262336	61	4386
2026-01-01 13:23:37.44	320.61	18.49	-48.2	-49.3	17.5	0.00e+00	0	34	0	3180331008	61	4343
2026-01-01 13:23:41.47	321.20	18.11	-48.4	-49.5	17.4	0.00e+00	0	34	0	3202351104	61	4475
2026-01-01 13:23:45.51	321.77	17.72	-48.7	-49.8	17.4	0.00e+00	0	34	0	3225419776	62	4384
2026-01-01 13:23:49.54	322.33	17.34	-48.8	-50.0	17.3	0.00e+00	0	34	0	3248488448	62	4444
2026-01-01 13:23:53.57	322.87	16.97	-48.7	-49.8	17.4	0.00e+00	0	34	0	3270508544	62	4370
2026-01-01 13:23:57.60	323.40	16.59	-48.8	-50.0	17.3	0.00e+00	0	34	0	3293577216	62	4459
2026-01-01 13:24:01.62	323.92	16.22	-48.8	-50.0	17.4	0.00e+00	0	34	0	3316645888	63	4200
2026-01-01 13:24:05.65	324.43	15.86	-48.7	-49.8	17.4	0.00e+00	0	34	0	3338665984	63	4142
2026-01-01 13:24:09.69	324.92	15.49	-48.6	-49.7	17.4	0.00e+00	0	34	0	3361734656	63	4062
2026-01-01 13:24:13.73	325.41	15.13	-48.7	-49.8	17.4	0.00e+00	0	34	0	3383754752	63	4127
2026-01-01 13:24:17.76	325.88	14.78	-48.9	-50.0	17.3	0.00e+00	0	34	0	3406823424	63	4223
2026-01-01 13:24:21.80	326.34	14.43	-49.0	-50.1	17.3	0.00e+00	0	34	0	3429892096	63	4271
2026-01-01 13:24:25.83	326.79	14.08	-49.2	-50.3	17.2	0.00e+00	0	34	0	3452960768	63	4380
2026-01-01 13:24:29.87	327.24	13.73	-49.2	-50.4	17.2	0.00e+00	0	34	0	3474980864	63	4393
2026-01-01 13:24:33.90	327.67	13.39	-49.4	-50.6	17.1	0.00e+00	0	34	0	3498049536	64	4249
2026-01-01 13:24:37.94	328.09	13.05	-49.4	-50.7	17.1	0.00e+00	0	34	0	3521118208	64	4294
2026-01-01 13:24:41.97	328.51	12.72	-49.6	-50.8	17.0	0.00e+00	0	34	0	3543138304	64	4358
2026-01-01 13:24:45.99	328.91	12.38	-49.5	-50.7	17.1	0.00e+00	0	34	0	3566206976	64	4326
2026-01-01 13:24:50.02	329.31	12.06	-49.6	-50.8	17.0	0.00e+00	0	34	0	3588227072	64	4347
2026-01-01 13:24:54.06	329.69	11.73	-49.7	-50.9	17.0	0.00e+00	0	34	0	3611295744	64	4402
2026-01-01 13:24:58.09	330.07	11.41	-49.8	-51.0	16.9	0.00e+00	0	34	0	3634364416	64	4490
2026-01-01 13:25:02.13	330.45	11.09	-49.8	-51.1	16.9	0.00e+00	0	34	0	3656384512	65	4248
2026-01-01 13:25:06.16	330.81	10.77	-50.0	-51.2	16.8	0.00e+00	0	35	0	3679453184	65	4321
2026-01-01 13:25:10.20	331.17	10.46	-50.0	-51.2	16.8	0.00e+00	0	34	0	3702521856	65	4328
2026-01-01 13:25:14.23	331.52	10.15	-50.0	-51.2	16.8	0.00e+00	0	34	0	3724541952	65	4336
2026-01-01 13:25:18.26	331.86	9.84	-50.1	-51.3	16.8	0.00e+00	0	34	0	3747610624	65	4368
2026-01-01 13:25:22.29	332.20	9.54	-50.1	-51.4	16.7	0.00e+00	0	35	0	3769630720	65	4414
2026-01-01 13:25:26.32	332.53	9.24	-50.2	-51.4	16.7	0.00e+00	0	34	0	3792699392	65	4438
2026-01-01 13:25:30.35	332.85	8.94	-50.2	-51.5	16.7	0.00e+00	0	34	0	3815768064	65	4460
2026-01-01 13:25:34.38	333.17	8.64	-50.3	-51.6	16.6	0.00e+00	0	34	0	3837788160	65	4500
2026-01-01 13:25:38.41	333.48	8.35	-50.3	-51.5	16.7	0.00e+00	0	34	0	3860856832	66	4231
2026-01-01 13:25:42.45	333.79	8.06	-50.3	-51.6	16.6	0.00e+00	0	34	0	3883925504	66	4258
2026-01-01 13:25:46.48	334.09	7.77	-50.4	-51.7	16.5	0.00e+00	0	34	0	3905945600	66	4309
2026-01-01 13:25:50.51	334.38	7.49	-50.4	-51.6	16.6	0.00e+00	0	34	0	3929014272	66	4282
2026-01-01 13:25:54.54	334.67	7.21	-50.4	-51.7	16.5	0.00e+00	0	34	0	3951034368	66	4326
2026-01-01 13:25:58.57	334.96	6.93	-50.6	-51.9	16.4	0.00e+00	0	34	0	3974103040	66	4437
2026-01-01 13:26:02.60	335.24	6.65	-50.5	-51.8	16.4	0.00e+00	0	34	0	3997171712	66	4387
2026-01-01 13:26:06.63	335.51	6.38	-50.6	-52.0	16.4	0.00e+00	0	34	0	4019191808	66	4444
2026-01-01 13:26:10.66	335.78	6.10	-50.8	-52.1	16.2	0.00e+00	0	34	0	4042260480	66	4545
2026-01-01 13:26:14.69	336.04	5.83	-51.0	-52.4	16.1	0.00e+00	0	34	0	4065329152	67	4407
2026-01-01 13:26:18.72	336.31	5.57	-50.9	-52.3	16.1	0.00e+00	0	34	0	4087349248	67	4388
2026-01-01 13:26:22.76	336.56	5.30	-51.1	-52.5	16.0	0.00e+00	0	34	0	4110417920	67	4491
2026-01-01 13:26:26.79	336.81	5.04	-51.3	-52.8	15.8	0.00e+00	0	34	0	4132438016	67	4611
2026-01-01 13:26:30.82	337.06	4.78	-61.3	-74.3	3.8	8.46e-01	0	34	104	4139778048	87	17472
2026-01-01 13:26:34.86	337.31	4.52	-62.0	-75.0	3.8	8.46e-01	0	34	104	4139778048	89	16781
2026-01-01 13:26:38.90	337.55	4.26	-62.2	-75.2	3.8	8.45e-01	0	34	104	4139778048	89	17198
2026-01-01 13:26:42.94	337.78	4.01	-62.3	-75.3	3.8	8.45e-01	0	34	104	4139778048	89	17435
2026-01-01 13:26:46.97	338.02	3.75	-62.4	-75.4	3.8	8.46e-01	0	34	104	4139778048	89	17559
2026-01-01 13:26:51.00	338.24	3.50	-62.3	-75.3	3.8	8.47e-01	0	35	104	4139778048	89	17464
2026-01-01 13:26:55.04	338.47	3.25	-62.3	-75.3	3.8	8.45e-01	0	34	104	4139778048	89	17379
2026-01-01 13:26:59.07	338.69	3.01	-62.2	-75.2	3.8	8.46e-01	0	34	104	4139778048	89	17206
2026-01-01 13:27:03.11	338.91	2.76	-62.1	-75.2	3.8	8.45e-01	0	34	104	4139778048	89	17205
2026-01-01 13:27:07.14	339.13	2.52	-62.1	-75.2	3.8	8.45e-01	0	34	104	4139778048	89	17134
2026-01-01 13:27:11.18	339.34	2.28	-62.1	-75.1	3.8	8.46e-01	0	34	104	4139778048	89	17076
2026-01-01 13:27:15.21	339.55	2.04	-62.0	-75.1	3.8	8.46e-01	0	35	104	4139778048	89	16996

#Closed at: 2026-01-01 13:27:16
#Recorded file [4139 MB]: D:/lorett/data/31004_260101_161328.dat