passes_logs/2026/01/01/R3.2S_Murmansk/R3.2S_Murmansk__20260101_202815_ZKG05_rec.log

#Pass ID: 20260101_202815_ZKG05
#Satellite: ZKG05
#Configuration: ZKG05
#almurnet v.1.7.20251203
#Start time: 2026-01-01 20:28:18

#Version: 2.2.20231116
#Station: R3.2S_Murmansk
#Location: 33.079688 lon 68.888172 lat
#TLE: 1 65263U 25180E   25363.54303023  .00006586  00000-0  34273-3 0  9994
#TLE: 2 65263  97.4772 128.0191 0001674  87.3453 272.7971 15.16366041 20011

#Time	Az	El	Level	Level2	SNR	BER	BlckErr	Temp	State	Recorded	gain1	gain2
2026-01-01 20:28:18.35	106.21	2.16	-59.4	-62.6	6.2	0.00e+00	0	38	0	0	85	20481
2026-01-01 20:28:21.35	105.98	2.35	-59.4	-62.6	6.2	0.00e+00	0	38	104	0	85	20499
2026-01-01 20:28:24.36	105.76	2.55	-59.4	-62.6	6.2	0.00e+00	0	38	104	0	85	20560
2026-01-01 20:28:27.36	105.53	2.74	-59.4	-62.6	6.2	0.00e+00	0	38	104	0	85	20529
2026-01-01 20:28:30.35	105.29	2.94	-59.4	-62.6	6.2	0.00e+00	0	38	104	0	85	20496
2026-01-01 20:28:33.35	105.06	3.14	-59.5	-62.6	6.2	0.00e+00	0	39	104	0	85	20526
2026-01-01 20:28:36.33	104.82	3.34	-59.4	-62.6	6.2	0.00e+00	0	39	104	0	85	20565
2026-01-01 20:28:39.32	104.57	3.54	-59.5	-62.6	6.2	0.00e+00	0	39	104	0	85	20610
2026-01-01 20:28:42.31	104.32	3.74	-59.5	-62.6	6.2	0.00e+00	0	39	104	0	85	20610
2026-01-01 20:28:45.31	104.06	3.95	-59.5	-62.6	6.2	0.00e+00	0	39	104	0	85	20581
2026-01-01 20:28:48.30	103.80	4.15	-59.5	-62.6	6.2	0.00e+00	0	39	104	0	85	20556
2026-01-01 20:28:51.29	103.54	4.36	-59.5	-62.6	6.2	0.00e+00	0	39	104	0	85	20596
2026-01-01 20:28:54.28	103.27	4.57	-59.5	-62.6	6.2	0.00e+00	0	40	104	0	85	20618
2026-01-01 20:28:57.28	102.99	4.78	-59.5	-62.6	6.2	0.00e+00	0	40	104	0	85	20620
2026-01-01 20:29:00.28	102.71	5.00	-59.5	-62.6	6.2	0.00e+00	0	40	104	0	85	20618
2026-01-01 20:29:03.28	102.43	5.21	-59.8	-62.9	6.2	0.00e+00	0	40	104	0	85	21252
2026-01-01 20:29:06.28	102.14	5.43	-59.7	-62.9	6.2	0.00e+00	0	40	104	0	85	21131
2026-01-01 20:29:09.27	101.84	5.65	-59.8	-63.0	6.2	0.00e+00	0	40	104	0	85	21367
2026-01-01 20:29:12.26	101.54	5.87	-59.8	-62.9	6.2	0.00e+00	0	40	104	0	85	21328
2026-01-01 20:29:15.25	101.23	6.09	-59.9	-63.1	6.2	0.00e+00	0	40	104	0	85	21753
2026-01-01 20:29:18.24	100.92	6.31	-59.8	-63.0	6.2	0.00e+00	0	40	104	0	85	21448
2026-01-01 20:29:21.24	100.60	6.54	-59.9	-63.1	6.2	0.00e+00	0	40	104	0	85	21719
2026-01-01 20:29:24.24	100.27	6.76	-59.9	-63.0	6.2	0.00e+00	0	40	104	0	85	21484
2026-01-01 20:29:27.24	99.93	6.99	-60.0	-63.2	6.2	0.00e+00	0	40	104	0	85	21859
2026-01-01 20:29:30.23	99.59	7.22	-59.9	-63.1	6.2	0.00e+00	0	41	104	0	85	21679
2026-01-01 20:29:33.22	99.25	7.46	-60.0	-63.1	6.2	0.00e+00	0	41	104	0	85	21728
2026-01-01 20:29:36.21	98.89	7.69	-59.9	-63.1	6.2	0.00e+00	0	41	104	0	85	21698
2026-01-01 20:29:39.19	98.53	7.93	-60.1	-63.2	6.2	0.00e+00	0	41	104	0	85	22030
2026-01-01 20:29:42.17	98.17	8.17	-60.0	-63.1	6.2	0.00e+00	0	41	104	0	85	21805
2026-01-01 20:29:45.16	97.79	8.41	-60.0	-63.2	6.2	0.00e+00	0	41	104	0	85	21945
2026-01-01 20:29:48.13	97.41	8.65	-60.0	-63.2	6.2	0.00e+00	0	41	104	0	85	21959
2026-01-01 20:29:51.13	97.02	8.89	-60.1	-63.3	6.2	0.00e+00	0	41	104	0	85	22151
2026-01-01 20:29:54.11	96.62	9.14	-60.0	-63.2	6.2	0.00e+00	0	41	104	0	85	21990
2026-01-01 20:29:57.10	96.21	9.39	-60.1	-63.3	6.2	0.00e+00	0	41	104	0	85	22178
2026-01-01 20:30:00.10	95.79	9.64	-60.1	-63.2	6.2	0.00e+00	0	41	104	0	85	22065
2026-01-01 20:30:03.10	95.36	9.89	-60.2	-63.3	6.2	0.00e+00	0	41	104	0	85	22259
2026-01-01 20:30:06.09	94.93	10.15	-60.1	-63.3	6.2	0.00e+00	0	41	104	0	85	22121
2026-01-01 20:30:09.08	94.48	10.40	-60.2	-63.3	6.2	0.00e+00	0	41	104	0	85	22237
2026-01-01 20:30:12.06	94.03	10.66	-60.1	-63.3	6.2	0.00e+00	0	41	104	0	85	22273
2026-01-01 20:30:15.06	93.56	10.92	-60.2	-63.4	6.2	0.00e+00	0	41	104	0	85	22382
2026-01-01 20:30:18.06	93.08	11.19	-60.2	-63.3	6.2	0.00e+00	0	41	104	0	85	22190
2026-01-01 20:30:21.05	92.60	11.45	-60.2	-63.4	6.2	0.00e+00	0	41	104	0	85	22401
2026-01-01 20:30:24.04	92.10	11.72	-60.2	-63.4	6.2	0.00e+00	0	41	104	0	85	22379
2026-01-01 20:30:27.03	91.59	11.99	-60.3	-63.4	6.2	0.00e+00	0	41	104	0	85	22552
2026-01-01 20:30:30.04	91.07	12.26	-60.2	-63.4	6.2	0.00e+00	0	41	104	0	85	22474
2026-01-01 20:30:33.03	90.53	12.53	-60.3	-63.4	6.2	0.00e+00	0	41	104	0	85	22533
2026-01-01 20:30:36.03	89.99	12.81	-60.3	-63.4	6.2	0.00e+00	0	41	104	0	85	22550
2026-01-01 20:30:39.01	89.43	13.08	-60.3	-63.5	6.2	0.00e+00	0	41	104	0	86	21466
2026-01-01 20:30:42.00	88.87	13.36	-60.3	-63.4	6.2	0.00e+00	0	41	104	0	86	21346
2026-01-01 20:30:44.98	88.29	13.64	-60.3	-63.5	6.2	0.00e+00	0	41	104	0	86	21454
2026-01-01 20:30:47.97	87.69	13.92	-60.3	-63.5	6.2	0.00e+00	0	42	104	0	86	21379
2026-01-01 20:30:50.98	87.08	14.21	-60.4	-63.5	6.2	0.00e+00	0	41	104	0	86	21544
2026-01-01 20:30:53.97	86.46	14.49	-60.3	-63.5	6.2	0.00e+00	0	41	104	0	86	21397
2026-01-01 20:30:56.97	85.82	14.77	-60.4	-63.5	6.2	0.00e+00	0	41	104	0	86	21505
2026-01-01 20:30:59.97	85.16	15.06	-60.4	-63.5	6.2	0.00e+00	0	41	104	0	86	21553
2026-01-01 20:31:02.96	84.50	15.35	-60.4	-63.6	6.2	0.00e+00	0	41	104	0	86	21631
2026-01-01 20:31:05.95	83.81	15.64	-60.4	-63.5	6.2	0.00e+00	0	41	104	0	86	21499
2026-01-01 20:31:08.96	83.11	15.93	-60.4	-63.6	6.2	0.00e+00	0	41	104	0	86	21618
2026-01-01 20:31:11.95	82.40	16.22	-60.4	-63.5	6.2	0.00e+00	0	41	104	0	86	21555
2026-01-01 20:31:14.95	81.66	16.51	-60.4	-63.6	6.2	0.00e+00	0	41	104	0	86	21684
2026-01-01 20:31:17.95	80.91	16.80	-60.4	-63.5	6.2	0.00e+00	0	42	104	0	86	21520
2026-01-01 20:31:20.94	80.15	17.08	-60.4	-63.6	6.2	0.00e+00	0	42	104	0	86	21621
2026-01-01 20:31:23.94	79.37	17.37	-60.4	-63.6	6.2	0.00e+00	0	42	104	0	86	21658
2026-01-01 20:31:26.93	78.57	17.66	-60.5	-63.6	6.2	0.00e+00	0	41	104	0	86	21698
2026-01-01 20:31:29.93	77.75	17.95	-60.4	-63.6	6.2	0.00e+00	0	42	104	0	86	21714
2026-01-01 20:31:32.93	76.91	18.24	-60.4	-63.6	6.2	0.00e+00	0	42	104	0	86	21631
2026-01-01 20:31:35.93	76.06	18.52	-60.4	-63.6	6.2	0.00e+00	0	42	104	0	86	21672
2026-01-01 20:31:38.93	75.18	18.80	-60.5	-63.6	6.2	0.00e+00	0	42	104	0	86	21665
2026-01-01 20:31:41.92	74.29	19.08	-60.4	-63.6	6.2	0.00e+00	0	42	104	0	86	21672
2026-01-01 20:31:44.90	73.39	19.36	-60.5	-63.6	6.2	0.00e+00	0	42	104	0	86	21793
2026-01-01 20:31:47.89	72.46	19.63	-60.5	-63.6	6.2	0.00e+00	0	42	104	0	86	21760
2026-01-01 20:31:50.88	71.51	19.90	-60.5	-63.6	6.2	0.00e+00	0	42	104	0	86	21798
2026-01-01 20:31:53.88	70.54	20.17	-60.5	-63.6	6.2	0.00e+00	0	42	104	0	86	21760
2026-01-01 20:31:56.87	69.56	20.43	-60.5	-63.6	6.2	0.00e+00	0	42	104	0	86	21789
2026-01-01 20:31:59.86	68.55	20.69	-60.5	-63.7	6.2	0.00e+00	0	42	104	0	86	21877
2026-01-01 20:32:02.87	67.52	20.95	-60.5	-63.7	6.2	0.00e+00	0	42	104	0	86	21904
2026-01-01 20:32:05.86	66.48	21.19	-60.5	-63.7	6.2	0.00e+00	0	42	104	0	86	21898
2026-01-01 20:32:08.86	65.41	21.43	-60.5	-63.7	6.2	0.00e+00	0	42	104	0	86	21900
2026-01-01 20:32:11.86	64.33	21.67	-60.5	-63.6	6.2	0.00e+00	0	41	104	0	86	21855
2026-01-01 20:32:14.84	63.24	21.89	-60.5	-63.7	6.2	0.00e+00	0	42	104	0	86	22004
2026-01-01 20:32:17.84	62.12	22.11	-60.5	-63.7	6.2	0.00e+00	0	42	104	0	86	21914
2026-01-01 20:32:20.84	60.98	22.32	-60.5	-63.7	6.2	0.00e+00	0	42	104	0	86	21938
2026-01-01 20:32:23.83	59.83	22.52	-60.6	-63.7	6.2	0.00e+00	0	42	104	0	86	22056
2026-01-01 20:32:26.82	58.66	22.71	-60.6	-63.7	6.2	0.00e+00	0	42	104	0	86	22061
2026-01-01 20:32:29.81	57.48	22.89	-60.5	-63.7	6.2	0.00e+00	0	41	104	0	86	21996
2026-01-01 20:32:32.81	56.28	23.06	-60.6	-63.7	6.2	0.00e+00	0	42	104	0	86	22089
2026-01-01 20:32:35.81	55.07	23.22	-60.6	-63.8	6.2	0.00e+00	0	42	104	0	86	22110
2026-01-01 20:32:38.80	53.84	23.36	-60.6	-63.7	6.2	0.00e+00	0	42	104	0	86	22036
2026-01-01 20:32:41.79	52.61	23.50	-60.6	-63.7	6.2	0.00e+00	0	41	104	0	86	22096
2026-01-01 20:32:44.78	51.36	23.62	-60.6	-63.8	6.2	0.00e+00	0	42	104	0	86	22112
2026-01-01 20:32:47.77	50.10	23.73	-60.6	-63.8	6.2	0.00e+00	0	42	104	0	86	22159
2026-01-01 20:32:50.75	48.84	23.83	-60.6	-63.8	6.2	0.00e+00	0	42	104	0	86	22180
2026-01-01 20:32:53.74	47.56	23.91	-60.6	-63.7	6.2	0.00e+00	0	42	104	0	86	22092
2026-01-01 20:32:56.73	46.28	23.98	-60.6	-63.8	6.2	0.00e+00	0	42	104	0	86	22202
2026-01-01 20:32:59.73	44.99	24.03	-60.6	-63.8	6.2	0.00e+00	0	42	104	0	86	22285
2026-01-01 20:33:02.72	43.70	24.07	-60.6	-63.8	6.2	0.00e+00	0	42	104	0	86	22236
2026-01-01 20:33:05.72	42.40	24.10	-60.6	-63.8	6.2	0.00e+00	0	42	104	0	86	22216
2026-01-01 20:33:08.72	41.10	24.11	-60.7	-63.8	6.2	0.00e+00	0	42	104	0	86	22248
2026-01-01 20:33:11.72	39.80	24.11	-60.7	-63.8	6.2	0.00e+00	0	42	104	0	86	22337
2026-01-01 20:33:14.72	38.50	24.09	-60.7	-63.8	6.2	0.00e+00	0	42	104	0	86	22281
2026-01-01 20:33:17.71	37.20	24.06	-60.7	-63.8	6.2	0.00e+00	0	42	104	0	86	22282
2026-01-01 20:33:20.70	35.92	24.01	-60.7	-63.8	6.2	0.00e+00	0	42	104	0	86	22286
2026-01-01 20:33:23.70	34.63	23.95	-60.7	-63.8	6.2	0.00e+00	0	42	104	0	86	22268
2026-01-01 20:33:26.68	33.35	23.88	-60.7	-63.8	6.2	0.00e+00	0	42	104	0	86	22287
2026-01-01 20:33:29.68	32.08	23.79	-60.7	-63.8	6.2	0.00e+00	0	42	104	0	86	22215
2026-01-01 20:33:32.68	30.81	23.69	-60.7	-63.8	6.2	0.00e+00	0	42	104	0	86	22260
2026-01-01 20:33:35.68	29.55	23.57	-60.7	-63.8	6.2	0.00e+00	0	42	104	0	86	22269
2026-01-01 20:33:38.68	28.31	23.44	-60.7	-63.8	6.2	0.00e+00	0	42	104	0	86	22267
2026-01-01 20:33:41.68	27.08	23.30	-60.7	-63.8	6.2	0.00e+00	0	42	104	0	86	22207
2026-01-01 20:33:44.68	25.86	23.15	-60.7	-63.8	6.2	0.00e+00	0	42	104	0	86	22266
2026-01-01 20:33:47.67	24.65	22.99	-60.7	-63.8	6.2	0.00e+00	0	42	104	0	86	22323
2026-01-01 20:33:50.66	23.46	22.81	-60.7	-63.8	6.2	0.00e+00	0	42	104	0	86	22360
2026-01-01 20:33:53.63	22.30	22.63	-60.7	-63.8	6.2	0.00e+00	0	42	104	0	86	22262
2026-01-01 20:33:56.61	21.15	22.44	-60.7	-63.8	6.2	0.00e+00	0	42	104	0	86	22296
2026-01-01 20:33:59.62	20.00	22.23	-60.7	-63.8	6.2	0.00e+00	0	42	104	0	86	22207
2026-01-01 20:34:02.62	18.87	22.02	-60.6	-63.8	6.2	0.00e+00	0	42	104	0	86	22124
2026-01-01 20:34:05.61	17.76	21.80	-60.6	-63.8	6.2	0.00e+00	0	42	104	0	86	22132
2026-01-01 20:34:08.60	16.68	21.57	-60.7	-63.8	6.2	0.00e+00	0	42	104	0	86	22220
2026-01-01 20:34:11.60	15.60	21.34	-60.6	-63.7	6.2	0.00e+00	0	42	104	0	86	22037
2026-01-01 20:34:14.61	14.55	21.09	-60.6	-63.7	6.2	0.00e+00	0	42	104	0	86	21966
2026-01-01 20:34:17.61	13.51	20.85	-60.6	-63.8	6.2	0.00e+00	0	42	104	0	86	22151
2026-01-01 20:34:20.61	12.49	20.59	-60.6	-63.7	6.2	0.00e+00	0	42	104	0	86	22092
2026-01-01 20:34:23.61	11.50	20.33	-60.6	-63.8	6.2	0.00e+00	0	42	104	0	86	22133
2026-01-01 20:34:26.61	10.52	20.07	-60.6	-63.8	6.2	0.00e+00	0	42	104	0	86	22139
2026-01-01 20:34:29.59	9.57	19.80	-60.6	-63.7	6.2	0.00e+00	0	42	104	0	86	22017
2026-01-01 20:34:32.59	8.63	19.53	-60.4	-63.4	6.2	0.00e+00	0	42	104	0	86	21137
2026-01-01 20:34:35.60	7.71	19.25	-60.1	-62.9	6.2	0.00e+00	0	42	104	0	86	20023
2026-01-01 20:34:38.61	6.80	18.97	-60.4	-63.5	6.2	0.00e+00	0	42	104	0	86	21464
2026-01-01 20:34:41.59	5.93	18.69	-60.1	-62.9	6.2	0.00e+00	0	42	104	0	86	20023
2026-01-01 20:34:44.57	5.07	18.41	-60.4	-63.4	6.2	0.00e+00	0	42	104	0	86	21289
2026-01-01 20:34:47.57	4.22	18.13	-58.0	-60.0	6.3	0.00e+00	0	42	104	0	82	17977
2026-01-01 20:34:50.55	3.40	17.84	-57.0	-58.7	6.3	0.00e+00	0	42	104	0	80	17467
2026-01-01 20:34:53.53	2.60	17.56	-58.2	-60.3	6.3	0.00e+00	0	42	104	0	81	19795
2026-01-01 20:34:56.52	1.81	17.27	-49.2	-50.2	6.4	0.00e+00	0	42	104	0	65	15542
2026-01-01 20:34:59.52	1.04	16.98	-42.8	-43.7	6.4	0.00e+00	0	42	104	0	52	15477
2026-01-01 20:35:02.52	0.28	16.69	-49.3	-50.4	6.4	0.00e+00	0	42	104	0	63	17767
2026-01-01 20:35:05.51	359.54	16.41	-44.9	-45.8	6.4	0.00e+00	0	42	104	0	56	15676
2026-01-01 20:35:08.51	358.82	16.12	-50.7	-51.7	6.4	0.00e+00	0	42	104	0	66	17419
2026-01-01 20:35:11.50	358.11	15.83	-47.1	-48.0	6.4	0.00e+00	0	42	104	0	61	15157
2026-01-01 20:35:14.50	357.42	15.54	-46.4	-47.3	6.4	0.00e+00	0	42	104	0	58	16700
2026-01-01 20:35:17.49	356.75	15.26	-52.6	-53.7	6.4	0.00e+00	0	42	104	0	70	17488
2026-01-01 20:35:20.48	356.09	14.97	-59.9	-62.7	6.2	0.00e+00	0	42	104	0	85	20657
2026-01-01 20:35:23.48	355.45	14.68	-60.1	-63.0	6.2	0.00e+00	0	42	104	0	85	21420
2026-01-01 20:35:26.48	354.82	14.40	-60.4	-63.6	6.2	0.00e+00	0	42	104	0	86	21631
2026-01-01 20:35:29.47	354.20	14.12	-60.2	-63.3	6.2	0.00e+00	0	42	104	0	85	22115
2026-01-01 20:35:32.46	353.60	13.84	-60.2	-63.2	6.2	0.00e+00	0	42	104	0	85	21983
2026-01-01 20:35:35.47	353.01	13.56	-60.2	-63.2	6.2	0.00e+00	0	42	104	0	85	21873
2026-01-01 20:35:38.46	352.44	13.28	-60.1	-63.1	6.2	0.00e+00	0	42	104	0	85	21786
2026-01-01 20:35:41.46	351.87	13.00	-60.3	-63.4	6.2	0.00e+00	0	42	104	0	86	21214
2026-01-01 20:35:44.46	351.32	12.73	-60.3	-63.4	6.2	0.00e+00	0	42	104	0	86	21300
2026-01-01 20:35:47.46	350.78	12.45	-60.2	-63.1	6.2	0.00e+00	0	42	104	0	86	20618
2026-01-01 20:35:50.44	350.26	12.18	-60.3	-63.4	6.2	0.00e+00	0	42	104	0	85	22400
2026-01-01 20:35:53.43	349.75	11.91	-60.2	-63.4	6.2	0.00e+00	0	42	104	0	85	22430
2026-01-01 20:35:56.41	349.25	11.65	-60.2	-63.2	6.2	0.00e+00	0	42	104	0	85	22099
2026-01-01 20:35:59.41	348.76	11.38	-60.2	-63.3	6.2	0.00e+00	0	42	104	0	85	22217
2026-01-01 20:36:02.40	348.28	11.12	-60.2	-63.4	6.2	0.00e+00	0	42	104	0	85	22415
2026-01-01 20:36:05.40	347.81	10.86	-60.2	-63.3	6.2	0.00e+00	0	42	104	0	85	22254
2026-01-01 20:36:08.41	347.34	10.60	-60.2	-63.3	6.2	0.00e+00	0	42	104	0	85	22162
2026-01-01 20:36:11.41	346.89	10.34	-60.2	-63.3	6.2	0.00e+00	0	42	104	0	85	22160
2026-01-01 20:36:14.42	346.45	10.08	-60.2	-63.3	6.2	0.00e+00	0	42	104	0	85	22185
2026-01-01 20:36:17.41	346.02	9.83	-60.1	-63.2	6.2	0.00e+00	0	42	104	0	85	22043
2026-01-01 20:36:20.42	345.60	9.57	-60.1	-63.2	6.2	0.00e+00	0	42	104	0	85	21976
2026-01-01 20:36:23.41	345.19	9.33	-60.1	-63.2	6.2	0.00e+00	0	42	104	0	85	21903
2026-01-01 20:36:26.40	344.78	9.08	-60.1	-63.2	6.2	0.00e+00	0	42	104	0	85	21901
2026-01-01 20:36:29.39	344.39	8.83	-59.9	-63.0	6.2	0.00e+00	0	42	104	0	85	21552
2026-01-01 20:36:32.38	344.00	8.59	-59.9	-63.0	6.2	0.00e+00	0	42	104	0	85	21451
2026-01-01 20:36:35.38	343.62	8.35	-59.9	-63.1	6.2	0.00e+00	0	42	104	0	85	21641
2026-01-01 20:36:38.38	343.25	8.11	-59.9	-63.1	6.2	0.00e+00	0	42	104	0	85	21700
2026-01-01 20:36:41.38	342.88	7.87	-59.9	-63.0	6.2	0.00e+00	0	42	104	0	85	21424
2026-01-01 20:36:44.38	342.53	7.64	-59.8	-62.9	6.2	0.00e+00	0	42	104	0	84	22561
2026-01-01 20:36:47.37	342.18	7.40	-59.8	-63.0	6.2	0.00e+00	0	42	104	0	85	21442
2026-01-01 20:36:50.37	341.84	7.17	-59.8	-62.9	6.2	0.00e+00	0	42	104	0	85	21282
2026-01-01 20:36:53.36	341.50	6.94	-59.8	-62.9	6.2	0.00e+00	0	42	104	0	85	21284
2026-01-01 20:36:56.34	341.17	6.71	-59.6	-62.6	6.2	0.00e+00	0	42	104	0	85	20616
2026-01-01 20:36:59.33	340.85	6.49	-59.6	-62.6	6.2	0.00e+00	0	42	104	0	85	20432
2026-01-01 20:37:02.32	340.54	6.27	-59.0	-61.8	6.2	0.00e+00	0	42	104	0	84	19741
2026-01-01 20:37:05.33	340.23	6.04	-58.4	-61.0	6.2	0.00e+00	0	42	104	0	83	19051
2026-01-01 20:37:08.32	339.92	5.82	-59.5	-62.5	6.2	0.00e+00	0	42	104	0	84	21507
2026-01-01 20:37:11.31	339.63	5.60	-59.4	-62.5	6.2	0.00e+00	0	42	104	0	84	21458
2026-01-01 20:37:14.32	339.33	5.39	-59.6	-62.7	6.2	0.00e+00	0	42	104	0	84	22030
2026-01-01 20:37:17.32	339.04	5.17	-59.4	-62.3	6.2	0.00e+00	0	42	104	0	84	21058
2026-01-01 20:37:20.31	338.76	4.96	-59.6	-62.5	6.2	0.00e+00	0	42	104	0	84	21476
2026-01-01 20:37:23.31	338.49	4.75	-61.0	-64.1	6.2	0.00e+00	0	42	104	0	87	21793
2026-01-01 20:37:26.32	338.22	4.53	-61.4	-64.6	6.2	0.00e+00	0	42	104	0	88	21642
2026-01-01 20:37:29.32	337.95	4.33	-61.8	-65.0	6.2	0.00e+00	0	42	104	0	89	21388
2026-01-01 20:37:32.31	337.69	4.12	-62.0	-65.1	6.2	0.00e+00	0	42	104	0	89	21834
2026-01-01 20:37:35.30	337.43	3.91	-62.1	-65.3	6.2	0.00e+00	0	42	104	0	89	22248
2026-01-01 20:37:38.29	337.18	3.71	-62.2	-65.3	6.2	0.00e+00	0	42	104	0	89	22363
2026-01-01 20:37:41.29	336.93	3.51	-62.2	-65.4	6.2	0.00e+00	0	42	104	0	89	22381
2026-01-01 20:37:44.28	336.69	3.31	-62.1	-65.3	6.2	0.00e+00	0	42	104	0	89	22133
2026-01-01 20:37:47.26	336.46	3.11	-62.1	-65.3	6.2	0.00e+00	0	42	104	0	89	22126
2026-01-01 20:37:50.27	336.22	2.91	-62.1	-65.2	6.2	0.00e+00	0	42	104	0	89	22009
2026-01-01 20:37:53.26	335.99	2.71	-62.1	-65.2	6.2	0.00e+00	0	42	104	0	89	21984
2026-01-01 20:37:56.24	335.77	2.52	-62.0	-65.2	6.2	0.00e+00	0	42	104	0	89	21908
2026-01-01 20:37:59.24	335.54	2.33	-62.0	-65.1	6.2	0.00e+00	0	42	104	0	89	21846
2026-01-01 20:38:02.23	335.33	2.13	-62.0	-65.1	6.2	0.00e+00	0	42	104	0	89	21727

#Closed at: 2026-01-01 20:38:05
#Recorded file [0 MB]: D:/lorett/data/31004_260101_232818.dat