passes_logs/2026/01/01/R3.2S_Murmansk/R3.2S_Murmansk__20260101_185549_ZKG05_rec.log

#Pass ID: 20260101_185549_ZKG05
#Satellite: ZKG05
#Configuration: ZKG05
#almurnet v.1.7.20251203
#Start time: 2026-01-01 18:55:50

#Version: 2.2.20231116
#Station: R3.2S_Murmansk
#Location: 33.079688 lon 68.888172 lat
#TLE: 1 65263U 25180E   25363.54303023  .00006586  00000-0  34273-3 0  9994
#TLE: 2 65263  97.4772 128.0191 0001674  87.3453 272.7971 15.16366041 20011

#Time	Az	El	Level	Level2	SNR	BER	BlckErr	Temp	State	Recorded	gain1	gain2
2026-01-01 18:55:50.62	70.41	2.08	-59.4	-62.6	6.2	0.00e+00	0	38	0	0	85	20496
2026-01-01 18:55:52.63	70.18	2.19	-59.4	-62.6	6.2	0.00e+00	0	38	104	0	85	20527
2026-01-01 18:55:54.65	69.96	2.31	-59.4	-62.6	6.2	0.00e+00	0	38	104	0	85	20588
2026-01-01 18:55:56.67	69.73	2.42	-59.4	-62.6	6.2	0.00e+00	0	39	104	0	85	20512
2026-01-01 18:55:58.68	69.50	2.53	-59.4	-62.6	6.2	0.00e+00	0	39	104	0	85	20528
2026-01-01 18:56:00.70	69.27	2.64	-59.4	-62.6	6.2	0.00e+00	0	38	104	0	85	20561
2026-01-01 18:56:02.72	69.03	2.76	-59.4	-62.6	6.2	0.00e+00	0	39	104	0	85	20537
2026-01-01 18:56:04.73	68.80	2.87	-59.4	-62.6	6.2	0.00e+00	0	39	104	0	85	20541
2026-01-01 18:56:06.75	68.55	2.98	-59.4	-62.6	6.2	0.00e+00	0	39	104	0	85	20468
2026-01-01 18:56:08.76	68.31	3.10	-59.4	-62.6	6.2	0.00e+00	0	39	104	0	85	20559
2026-01-01 18:56:10.77	68.07	3.21	-59.4	-62.6	6.2	0.00e+00	0	39	104	0	85	20553
2026-01-01 18:56:12.79	67.82	3.32	-59.4	-62.6	6.2	0.00e+00	0	39	104	0	85	20553
2026-01-01 18:56:14.80	67.57	3.44	-59.4	-62.6	6.2	0.00e+00	0	39	104	0	85	20538
2026-01-01 18:56:16.81	67.32	3.55	-59.5	-62.6	6.2	0.00e+00	0	39	104	0	85	20570
2026-01-01 18:56:18.83	67.07	3.67	-59.5	-62.6	6.2	0.00e+00	0	39	104	0	85	20572
2026-01-01 18:56:20.85	66.81	3.78	-59.5	-62.6	6.2	0.00e+00	0	40	104	0	85	20519
2026-01-01 18:56:22.86	66.55	3.90	-59.5	-62.6	6.2	0.00e+00	0	40	104	0	85	20545
2026-01-01 18:56:24.87	66.29	4.01	-59.5	-62.6	6.2	0.00e+00	0	40	104	0	85	20555
2026-01-01 18:56:26.88	66.02	4.13	-59.5	-62.6	6.2	0.00e+00	0	40	104	0	85	20542
2026-01-01 18:56:28.88	65.76	4.24	-59.5	-62.6	6.2	0.00e+00	0	40	104	0	85	20561
2026-01-01 18:56:30.89	65.49	4.36	-59.5	-62.6	6.2	0.00e+00	0	40	104	0	85	20596
2026-01-01 18:56:32.90	65.22	4.47	-59.5	-62.6	6.2	0.00e+00	0	40	104	0	85	20565
2026-01-01 18:56:34.92	64.94	4.59	-59.5	-62.6	6.2	0.00e+00	0	40	104	0	85	20594
2026-01-01 18:56:36.93	64.66	4.70	-59.5	-62.6	6.2	0.00e+00	0	40	104	0	85	20563
2026-01-01 18:56:38.94	64.38	4.82	-59.5	-62.7	6.2	0.00e+00	0	40	104	0	85	20647
2026-01-01 18:56:40.95	64.10	4.93	-59.5	-62.6	6.2	0.00e+00	0	40	104	0	85	20608
2026-01-01 18:56:42.97	63.81	5.05	-59.5	-62.6	6.2	0.00e+00	0	40	104	0	85	20547
2026-01-01 18:56:44.97	63.52	5.17	-59.5	-62.7	6.2	0.00e+00	0	40	104	0	85	20777
2026-01-01 18:56:46.99	63.23	5.28	-59.7	-62.8	6.2	0.00e+00	0	40	104	0	85	21010
2026-01-01 18:56:49.00	62.93	5.40	-59.6	-62.7	6.2	0.00e+00	0	40	104	0	85	20837
2026-01-01 18:56:51.01	62.64	5.52	-59.7	-62.9	6.2	0.00e+00	0	40	104	0	85	21155
2026-01-01 18:56:53.01	62.34	5.63	-59.6	-62.7	6.2	0.00e+00	0	40	104	0	85	20856
2026-01-01 18:56:55.02	62.03	5.75	-59.7	-62.9	6.2	0.00e+00	0	41	104	0	85	21186
2026-01-01 18:56:57.04	61.72	5.86	-59.6	-62.8	6.2	0.00e+00	0	41	104	0	85	20973
2026-01-01 18:56:59.05	61.41	5.98	-59.7	-62.9	6.2	0.00e+00	0	41	104	0	85	21210
2026-01-01 18:57:01.06	61.10	6.10	-59.6	-62.8	6.2	0.00e+00	0	41	104	0	85	21021
2026-01-01 18:57:03.07	60.78	6.21	-59.7	-62.9	6.2	0.00e+00	0	41	104	0	85	21227
2026-01-01 18:57:05.07	60.46	6.33	-59.7	-62.8	6.2	0.00e+00	0	41	104	0	85	21048
2026-01-01 18:57:07.08	60.14	6.45	-59.8	-62.9	6.2	0.00e+00	0	41	104	0	85	21321
2026-01-01 18:57:09.09	59.81	6.56	-59.7	-62.9	6.2	0.00e+00	0	41	104	0	85	21231
2026-01-01 18:57:11.11	59.48	6.68	-59.8	-63.0	6.2	0.00e+00	0	41	104	0	85	21374
2026-01-01 18:57:13.13	59.15	6.80	-59.7	-62.9	6.2	0.00e+00	0	41	104	0	85	21158
2026-01-01 18:57:15.14	58.81	6.91	-59.8	-62.9	6.2	0.00e+00	0	41	104	0	85	21313
2026-01-01 18:57:17.14	58.47	7.03	-59.7	-62.9	6.2	0.00e+00	0	41	104	0	85	21175
2026-01-01 18:57:19.15	58.13	7.14	-59.8	-63.0	6.2	0.00e+00	0	41	104	0	85	21420
2026-01-01 18:57:21.16	57.78	7.26	-59.8	-62.9	6.2	0.00e+00	0	41	104	0	85	21272
2026-01-01 18:57:23.17	57.43	7.38	-59.8	-63.0	6.2	0.00e+00	0	41	104	0	85	21418
2026-01-01 18:57:25.18	57.08	7.49	-59.8	-62.9	6.2	0.00e+00	0	41	104	0	85	21286
2026-01-01 18:57:27.19	56.72	7.61	-59.9	-63.0	6.2	0.00e+00	0	41	104	0	85	21483
2026-01-01 18:57:29.20	56.36	7.72	-59.8	-63.0	6.2	0.00e+00	0	41	104	0	85	21373
2026-01-01 18:57:31.21	56.00	7.84	-59.9	-63.0	6.2	0.00e+00	0	41	104	0	85	21491
2026-01-01 18:57:33.21	55.63	7.95	-59.8	-63.0	6.2	0.00e+00	0	41	104	0	85	21434
2026-01-01 18:57:35.23	55.26	8.06	-59.9	-63.0	6.2	0.00e+00	0	41	104	0	85	21482
2026-01-01 18:57:37.22	54.88	8.18	-59.8	-63.0	6.2	0.00e+00	0	41	104	0	85	21433
2026-01-01 18:57:39.23	54.51	8.29	-59.9	-63.0	6.2	0.00e+00	0	41	104	0	85	21578
2026-01-01 18:57:41.24	54.12	8.40	-59.9	-63.0	6.2	0.00e+00	0	41	104	0	85	21496
2026-01-01 18:57:43.26	53.73	8.52	-59.9	-63.1	6.2	0.00e+00	0	41	104	0	85	21674
2026-01-01 18:57:45.26	53.35	8.63	-59.9	-63.0	6.2	0.00e+00	0	41	104	0	85	21545
2026-01-01 18:57:47.26	52.95	8.74	-59.9	-63.1	6.2	0.00e+00	0	41	104	0	85	21648
2026-01-01 18:57:49.27	52.56	8.85	-59.9	-63.0	6.2	0.00e+00	0	41	104	0	85	21581
2026-01-01 18:57:51.28	52.16	8.96	-59.9	-63.1	6.2	0.00e+00	0	41	104	0	85	21743
2026-01-01 18:57:53.30	51.75	9.07	-59.9	-63.1	6.2	0.00e+00	0	41	104	0	85	21652
2026-01-01 18:57:55.31	51.34	9.18	-60.0	-63.1	6.2	0.00e+00	0	42	104	0	85	21765
2026-01-01 18:57:57.31	50.93	9.29	-59.9	-63.1	6.2	0.00e+00	0	42	104	0	85	21665
2026-01-01 18:57:59.33	50.51	9.40	-60.0	-63.1	6.2	0.00e+00	0	42	104	0	85	21750
2026-01-01 18:58:01.34	50.09	9.51	-60.0	-63.1	6.2	0.00e+00	0	42	104	0	85	21714
2026-01-01 18:58:03.35	49.67	9.62	-60.0	-63.1	6.2	0.00e+00	0	42	104	0	85	21811
2026-01-01 18:58:05.36	49.24	9.73	-60.0	-63.1	6.2	0.00e+00	0	42	104	0	85	21784
2026-01-01 18:58:07.37	48.81	9.83	-60.0	-63.2	6.2	0.00e+00	0	42	104	0	85	21860
2026-01-01 18:58:09.37	48.37	9.94	-60.0	-63.2	6.2	0.00e+00	0	42	104	0	85	21869
2026-01-01 18:58:11.39	47.93	10.04	-60.0	-63.2	6.2	0.00e+00	0	42	104	0	85	21910
2026-01-01 18:58:13.39	47.49	10.15	-60.0	-63.1	6.2	0.00e+00	0	42	104	0	85	21834
2026-01-01 18:58:15.40	47.04	10.25	-60.0	-63.2	6.2	0.00e+00	0	42	104	0	85	21961
2026-01-01 18:58:17.41	46.59	10.35	-60.0	-63.2	6.2	0.00e+00	0	42	104	0	85	21900
2026-01-01 18:58:19.40	46.14	10.45	-60.0	-63.2	6.2	0.00e+00	0	41	104	0	85	21940
2026-01-01 18:58:21.42	45.68	10.55	-60.0	-63.2	6.2	0.00e+00	0	42	104	0	85	21927
2026-01-01 18:58:23.43	45.22	10.65	-60.1	-63.2	6.2	0.00e+00	0	42	104	0	85	22046
2026-01-01 18:58:25.44	44.75	10.75	-60.1	-63.2	6.2	0.00e+00	0	42	104	0	85	22004
2026-01-01 18:58:27.45	44.28	10.84	-60.1	-63.2	6.2	0.00e+00	0	42	104	0	85	21996
2026-01-01 18:58:29.47	43.80	10.94	-60.1	-63.2	6.2	0.00e+00	0	42	104	0	85	22012
2026-01-01 18:58:31.48	43.33	11.04	-60.1	-63.2	6.2	0.00e+00	0	41	104	0	85	22026
2026-01-01 18:58:33.48	42.85	11.13	-60.1	-63.2	6.2	0.00e+00	0	42	104	0	85	22049
2026-01-01 18:58:35.49	42.36	11.22	-60.1	-63.2	6.2	0.00e+00	0	42	104	0	85	22079
2026-01-01 18:58:37.49	41.88	11.31	-60.1	-63.2	6.2	0.00e+00	0	42	104	0	85	22046
2026-01-01 18:58:39.50	41.38	11.40	-60.1	-63.3	6.2	0.00e+00	0	42	104	0	85	22126
2026-01-01 18:58:41.51	40.89	11.49	-60.1	-63.3	6.2	0.00e+00	0	42	104	0	85	22171
2026-01-01 18:58:43.51	40.39	11.58	-60.1	-63.3	6.2	0.00e+00	0	42	104	0	85	22115
2026-01-01 18:58:45.52	39.89	11.66	-60.1	-63.3	6.2	0.00e+00	0	42	104	0	85	22185
2026-01-01 18:58:47.54	39.38	11.75	-60.1	-63.3	6.2	0.00e+00	0	42	104	0	85	22172
2026-01-01 18:58:49.55	38.87	11.83	-60.1	-63.3	6.2	0.00e+00	0	42	104	0	85	22147
2026-01-01 18:58:51.56	38.35	11.91	-60.1	-63.3	6.2	0.00e+00	0	42	104	0	85	22251
2026-01-01 18:58:53.56	37.84	11.99	-60.1	-63.3	6.2	0.00e+00	0	42	104	0	85	22144
2026-01-01 18:58:55.57	37.32	12.07	-60.2	-63.3	6.2	0.00e+00	0	42	104	0	85	22271
2026-01-01 18:58:57.58	36.80	12.14	-60.2	-63.3	6.2	0.00e+00	0	42	104	0	85	22215
2026-01-01 18:58:59.59	36.27	12.22	-60.2	-63.3	6.2	0.00e+00	0	42	104	0	85	22230
2026-01-01 18:59:01.61	35.74	12.29	-60.2	-63.3	6.2	0.00e+00	0	42	104	0	85	22243
2026-01-01 18:59:03.62	35.20	12.36	-60.2	-63.3	6.2	0.00e+00	0	42	104	0	85	22200
2026-01-01 18:59:05.62	34.67	12.43	-60.2	-63.3	6.2	0.00e+00	0	42	104	0	85	22238
2026-01-01 18:59:07.63	34.13	12.49	-60.2	-63.3	6.2	0.00e+00	0	42	104	0	85	22234
2026-01-01 18:59:09.64	33.59	12.56	-60.2	-63.3	6.2	0.00e+00	0	42	104	0	85	22263
2026-01-01 18:59:11.65	33.04	12.62	-60.2	-63.3	6.2	0.00e+00	0	42	104	0	85	22249
2026-01-01 18:59:13.66	32.50	12.68	-60.2	-63.3	6.2	0.00e+00	0	42	104	0	85	22281
2026-01-01 18:59:15.67	31.95	12.74	-60.2	-63.3	6.2	0.00e+00	0	42	104	0	85	22301
2026-01-01 18:59:17.66	31.40	12.80	-60.2	-63.3	6.2	0.00e+00	0	42	104	0	85	22266
2026-01-01 18:59:19.68	30.84	12.85	-60.2	-63.3	6.2	0.00e+00	0	42	104	0	85	22325
2026-01-01 18:59:21.68	30.29	12.90	-60.2	-63.3	6.2	0.00e+00	0	42	104	0	85	22299
2026-01-01 18:59:23.68	29.73	12.95	-60.2	-63.3	6.2	0.00e+00	0	42	104	0	85	22311
2026-01-01 18:59:25.68	29.17	13.00	-60.2	-63.3	6.2	0.00e+00	0	42	104	0	85	22328
2026-01-01 18:59:27.69	28.60	13.05	-60.2	-63.3	6.2	0.00e+00	0	42	104	0	85	22339
2026-01-01 18:59:29.70	28.04	13.09	-60.2	-63.4	6.2	0.00e+00	0	42	104	0	85	22375
2026-01-01 18:59:31.71	27.47	13.13	-60.2	-63.4	6.2	0.00e+00	0	42	104	0	85	22373
2026-01-01 18:59:33.72	26.90	13.17	-60.2	-63.4	6.2	0.00e+00	0	42	104	0	85	22439
2026-01-01 18:59:35.74	26.32	13.21	-60.2	-63.3	6.2	0.00e+00	0	42	104	0	85	22339
2026-01-01 18:59:37.75	25.75	13.24	-60.2	-63.4	6.2	0.00e+00	0	42	104	0	85	22381
2026-01-01 18:59:39.76	25.18	13.27	-60.2	-63.3	6.2	0.00e+00	0	42	104	0	85	22318
2026-01-01 18:59:41.76	24.60	13.30	-60.2	-63.3	6.2	0.00e+00	0	42	104	0	85	22329
2026-01-01 18:59:43.76	24.03	13.33	-60.2	-63.3	6.2	0.00e+00	0	42	104	0	85	22364
2026-01-01 18:59:45.77	23.45	13.35	-60.2	-63.3	6.2	0.00e+00	0	42	104	0	85	22342
2026-01-01 18:59:47.78	22.87	13.38	-60.2	-63.3	6.2	0.00e+00	0	42	104	0	85	22356
2026-01-01 18:59:49.78	22.29	13.40	-60.2	-63.4	6.2	0.00e+00	0	42	104	0	85	22408
2026-01-01 18:59:51.79	21.71	13.41	-60.2	-63.4	6.2	0.00e+00	0	42	104	0	85	22402
2026-01-01 18:59:53.81	21.12	13.43	-60.2	-63.4	6.2	0.00e+00	0	42	104	0	85	22419
2026-01-01 18:59:55.81	20.54	13.44	-60.2	-63.4	6.2	0.00e+00	0	42	104	0	85	22511
2026-01-01 18:59:57.82	19.96	13.45	-60.3	-63.4	6.2	0.00e+00	0	42	104	0	85	22570
2026-01-01 18:59:59.83	19.37	13.45	-60.2	-63.4	6.2	0.00e+00	0	42	104	0	85	22432
2026-01-01 19:00:01.84	18.79	13.46	-60.2	-63.4	6.2	0.00e+00	0	42	104	0	85	22457
2026-01-01 19:00:03.85	18.21	13.46	-60.2	-63.4	6.2	0.00e+00	0	42	104	0	85	22516
2026-01-01 19:00:05.86	17.62	13.46	-60.2	-63.4	6.2	0.00e+00	0	42	104	0	85	22518
2026-01-01 19:00:07.87	17.04	13.46	-60.2	-63.4	6.2	0.00e+00	0	42	104	0	85	22443
2026-01-01 19:00:09.89	16.45	13.45	-60.3	-63.4	6.2	0.00e+00	0	42	104	0	85	22479
2026-01-01 19:00:11.90	15.87	13.44	-60.2	-63.4	6.2	0.00e+00	0	42	104	0	85	22438
2026-01-01 19:00:13.91	15.28	13.43	-60.2	-63.4	6.2	0.00e+00	0	42	104	0	85	22429
2026-01-01 19:00:15.92	14.70	13.42	-60.2	-63.4	6.2	0.00e+00	0	42	104	0	85	22414
2026-01-01 19:00:17.93	14.12	13.40	-60.2	-63.4	6.2	0.00e+00	0	42	104	0	85	22440
2026-01-01 19:00:19.94	13.54	13.38	-60.2	-63.4	6.2	0.00e+00	0	42	104	0	85	22488
2026-01-01 19:00:21.95	12.96	13.36	-60.2	-63.4	6.2	0.00e+00	0	42	104	0	85	22438
2026-01-01 19:00:23.97	12.38	13.34	-60.2	-63.4	6.2	0.00e+00	0	42	104	0	85	22450
2026-01-01 19:00:25.97	11.80	13.31	-60.2	-63.4	6.2	0.00e+00	0	42	104	0	85	22494
2026-01-01 19:00:27.98	11.22	13.28	-60.2	-63.4	6.2	0.00e+00	0	42	104	0	85	22397
2026-01-01 19:00:29.98	10.65	13.25	-60.3	-63.4	6.2	0.00e+00	0	42	104	0	85	22433
2026-01-01 19:00:31.99	10.08	13.22	-60.2	-63.4	6.2	0.00e+00	0	42	104	0	85	22484
2026-01-01 19:00:33.99	9.51	13.18	-60.2	-63.4	6.2	0.00e+00	0	42	104	0	85	22437
2026-01-01 19:00:36.01	8.94	13.14	-60.2	-63.4	6.2	0.00e+00	0	42	104	0	85	22370
2026-01-01 19:00:38.02	8.37	13.10	-60.2	-63.4	6.2	0.00e+00	0	42	104	0	85	22511
2026-01-01 19:00:40.03	7.80	13.06	-60.2	-63.3	6.2	0.00e+00	0	42	104	0	85	22364
2026-01-01 19:00:42.03	7.24	13.01	-60.2	-63.4	6.2	0.00e+00	0	42	104	0	85	22548
2026-01-01 19:00:44.05	6.67	12.97	-60.2	-63.4	6.2	0.00e+00	0	42	104	0	85	22397
2026-01-01 19:00:46.05	6.12	12.92	-60.2	-63.4	6.2	0.00e+00	0	42	104	0	85	22433
2026-01-01 19:00:48.07	5.56	12.87	-60.2	-63.4	6.2	0.00e+00	0	42	104	0	85	22425
2026-01-01 19:00:50.08	5.00	12.81	-60.3	-63.4	6.2	0.00e+00	0	42	104	0	85	22487
2026-01-01 19:00:52.09	4.45	12.75	-60.2	-63.4	6.2	0.00e+00	0	42	104	0	85	22375
2026-01-01 19:00:54.10	3.90	12.70	-60.2	-63.4	6.2	0.00e+00	0	42	104	0	85	22401
2026-01-01 19:00:56.11	3.35	12.64	-60.2	-63.4	6.2	0.00e+00	0	42	104	0	85	22401
2026-01-01 19:00:58.12	2.81	12.57	-60.2	-63.4	6.2	0.00e+00	0	42	104	0	85	22413
2026-01-01 19:01:00.13	2.26	12.51	-60.2	-63.3	6.2	0.00e+00	0	42	104	0	85	22351
2026-01-01 19:01:02.13	1.73	12.44	-60.2	-63.4	6.2	0.00e+00	0	42	104	0	85	22391
2026-01-01 19:01:04.14	1.19	12.38	-60.2	-63.3	6.2	0.00e+00	0	42	104	0	85	22332
2026-01-01 19:01:06.14	0.66	12.31	-60.2	-63.4	6.2	0.00e+00	0	42	104	0	85	22373
2026-01-01 19:01:08.14	0.13	12.23	-60.2	-63.3	6.2	0.00e+00	0	42	104	0	85	22322
2026-01-01 19:01:10.15	359.61	12.16	-60.2	-63.3	6.2	0.00e+00	0	42	104	0	85	22314
2026-01-01 19:01:12.16	359.08	12.09	-60.2	-63.3	6.2	0.00e+00	0	42	104	0	85	22337
2026-01-01 19:01:14.17	358.56	12.01	-60.2	-63.4	6.2	0.00e+00	0	42	104	0	85	22380
2026-01-01 19:01:16.18	358.04	11.93	-60.2	-63.3	6.2	0.00e+00	0	42	104	0	85	22289
2026-01-01 19:01:18.19	357.53	11.85	-60.2	-63.3	6.2	0.00e+00	0	42	104	0	85	22288
2026-01-01 19:01:20.20	357.02	11.77	-60.2	-63.3	6.2	0.00e+00	0	42	104	0	85	22196
2026-01-01 19:01:22.20	356.52	11.68	-60.2	-63.3	6.2	0.00e+00	0	42	104	0	85	22301
2026-01-01 19:01:24.20	356.01	11.60	-60.1	-63.3	6.2	0.00e+00	0	42	104	0	85	22185
2026-01-01 19:01:26.20	355.52	11.51	-60.2	-63.3	6.2	0.00e+00	0	42	104	0	85	22240
2026-01-01 19:01:28.20	355.02	11.43	-60.1	-63.3	6.2	0.00e+00	0	42	104	0	85	22129
2026-01-01 19:01:30.22	354.53	11.34	-60.2	-63.3	6.2	0.00e+00	0	42	104	0	85	22211
2026-01-01 19:01:32.23	354.04	11.25	-60.1	-63.3	6.2	0.00e+00	0	42	104	0	85	22139
2026-01-01 19:01:34.24	353.55	11.16	-60.1	-63.3	6.2	0.00e+00	0	42	104	0	85	22185
2026-01-01 19:01:36.24	353.07	11.06	-60.1	-63.3	6.2	0.00e+00	0	42	104	0	85	22178
2026-01-01 19:01:38.25	352.60	10.97	-60.1	-63.3	6.2	0.00e+00	0	42	104	0	85	22159
2026-01-01 19:01:40.25	352.12	10.87	-60.1	-63.2	6.2	0.00e+00	0	42	104	0	85	22022
2026-01-01 19:01:42.26	351.65	10.78	-60.1	-63.3	6.2	0.00e+00	0	42	104	0	85	22181
2026-01-01 19:01:44.27	351.19	10.68	-60.1	-63.2	6.2	0.00e+00	0	42	104	0	85	22009
2026-01-01 19:01:46.28	350.72	10.58	-60.1	-63.3	6.2	0.00e+00	0	42	104	0	85	22160
2026-01-01 19:01:48.29	350.27	10.48	-60.1	-63.2	6.2	0.00e+00	0	42	104	0	85	22027
2026-01-01 19:01:50.29	349.81	10.38	-60.1	-63.2	6.2	0.00e+00	0	42	104	0	85	22088
2026-01-01 19:01:52.30	349.36	10.28	-60.0	-63.2	6.2	0.00e+00	0	42	104	0	85	21972
2026-01-01 19:01:54.31	348.91	10.18	-60.1	-63.2	6.2	0.00e+00	0	42	104	0	85	22042
2026-01-01 19:01:56.31	348.47	10.07	-60.0	-63.2	6.2	0.00e+00	0	42	104	0	85	21941
2026-01-01 19:01:58.32	348.03	9.97	-60.1	-63.2	6.2	0.00e+00	0	42	104	0	85	21993
2026-01-01 19:02:00.33	347.60	9.86	-60.0	-63.2	6.2	0.00e+00	0	42	104	0	85	21900
2026-01-01 19:02:02.34	347.17	9.76	-60.1	-63.2	6.2	0.00e+00	0	42	104	0	85	22061
2026-01-01 19:02:04.35	346.74	9.65	-60.0	-63.2	6.2	0.00e+00	0	42	104	0	85	21866
2026-01-01 19:02:06.36	346.31	9.55	-60.0	-63.2	6.2	0.00e+00	0	42	104	0	85	22005
2026-01-01 19:02:08.37	345.89	9.44	-60.0	-63.1	6.2	0.00e+00	0	42	104	0	85	21822
2026-01-01 19:02:10.37	345.48	9.33	-60.0	-63.2	6.2	0.00e+00	0	42	104	0	85	21907
2026-01-01 19:02:12.37	345.07	9.22	-60.0	-63.1	6.2	0.00e+00	0	42	104	0	85	21837
2026-01-01 19:02:14.38	344.66	9.11	-60.0	-63.2	6.2	0.00e+00	0	42	104	0	85	21860
2026-01-01 19:02:16.38	344.25	9.00	-60.0	-63.1	6.2	0.00e+00	0	42	104	0	85	21757
2026-01-01 19:02:18.39	343.85	8.89	-60.0	-63.1	6.2	0.00e+00	0	42	104	0	85	21806
2026-01-01 19:02:20.39	343.46	8.78	-59.9	-63.1	6.2	0.00e+00	0	42	104	0	85	21648
2026-01-01 19:02:22.41	343.06	8.67	-60.0	-63.1	6.2	0.00e+00	0	42	104	0	85	21741
2026-01-01 19:02:24.42	342.67	8.56	-59.9	-63.0	6.2	0.00e+00	0	42	104	0	85	21597
2026-01-01 19:02:26.42	342.29	8.44	-59.9	-63.1	6.2	0.00e+00	0	42	104	0	85	21652
2026-01-01 19:02:28.43	341.90	8.33	-59.9	-63.0	6.2	0.00e+00	0	42	104	0	85	21552
2026-01-01 19:02:30.44	341.52	8.22	-59.9	-63.0	6.2	0.00e+00	0	42	104	0	85	21581
2026-01-01 19:02:32.44	341.15	8.10	-59.9	-63.0	6.2	0.00e+00	0	42	104	0	85	21517
2026-01-01 19:02:34.46	340.78	7.99	-59.9	-63.1	6.2	0.00e+00	0	42	104	0	85	21616
2026-01-01 19:02:36.46	340.41	7.88	-59.8	-63.0	6.2	0.00e+00	0	42	104	0	85	21428
2026-01-01 19:02:38.48	340.04	7.76	-59.9	-63.1	6.2	0.00e+00	0	42	104	0	85	21660
2026-01-01 19:02:40.48	339.69	7.65	-59.8	-63.0	6.2	0.00e+00	0	42	104	0	85	21450
2026-01-01 19:02:42.50	339.33	7.53	-59.9	-63.0	6.2	0.00e+00	0	42	104	0	85	21513
2026-01-01 19:02:44.51	338.97	7.42	-59.8	-62.9	6.2	0.00e+00	0	42	104	0	85	21336
2026-01-01 19:02:46.52	338.62	7.30	-59.8	-63.0	6.2	0.00e+00	0	42	104	0	85	21459
2026-01-01 19:02:48.53	338.27	7.19	-59.8	-62.9	6.2	0.00e+00	0	42	104	0	85	21202
2026-01-01 19:02:50.54	337.93	7.07	-59.8	-63.0	6.2	0.00e+00	0	42	104	0	85	21397
2026-01-01 19:02:52.55	337.59	6.95	-59.8	-62.9	6.2	0.00e+00	0	42	104	0	84	22486
2026-01-01 19:02:54.56	337.25	6.84	-59.8	-63.0	6.2	0.00e+00	0	42	104	0	85	21403
2026-01-01 19:02:56.56	336.92	6.72	-59.7	-62.8	6.2	0.00e+00	0	42	104	0	85	21111
2026-01-01 19:02:58.57	336.59	6.61	-59.8	-62.9	6.2	0.00e+00	0	42	104	0	84	22519
2026-01-01 19:03:00.59	336.26	6.49	-59.6	-62.8	6.2	0.00e+00	0	42	104	0	84	22165
2026-01-01 19:03:02.60	335.94	6.37	-59.7	-62.9	6.2	0.00e+00	0	42	104	0	84	22458
2026-01-01 19:03:04.60	335.62	6.26	-59.5	-62.7	6.2	0.00e+00	0	42	104	0	84	21896
2026-01-01 19:03:06.60	335.31	6.14	-59.7	-62.8	6.2	0.00e+00	0	42	104	0	84	22324
2026-01-01 19:03:08.62	334.99	6.03	-59.5	-62.7	6.2	0.00e+00	0	42	104	0	84	22061
2026-01-01 19:03:10.63	334.68	5.91	-59.7	-62.8	6.2	0.00e+00	0	42	104	0	84	22282
2026-01-01 19:03:12.64	334.37	5.79	-59.6	-62.7	6.2	0.00e+00	0	42	104	0	84	21980
2026-01-01 19:03:14.66	334.07	5.68	-59.7	-62.8	6.2	0.00e+00	0	42	104	0	84	22259
2026-01-01 19:03:16.66	333.77	5.56	-59.6	-62.7	6.2	0.00e+00	0	42	104	0	84	21989
2026-01-01 19:03:18.68	333.47	5.44	-59.7	-62.8	6.2	0.00e+00	0	42	104	0	84	22221
2026-01-01 19:03:20.68	333.17	5.33	-59.5	-62.7	6.2	0.00e+00	0	42	104	0	84	21883
2026-01-01 19:03:22.68	332.88	5.21	-59.6	-62.8	6.2	0.00e+00	0	42	104	0	84	22140
2026-01-01 19:03:24.68	332.60	5.10	-59.5	-62.6	6.2	0.00e+00	0	42	104	0	84	21782
2026-01-01 19:03:26.70	332.31	4.98	-59.6	-62.8	6.2	0.00e+00	0	42	104	0	84	22255
2026-01-01 19:03:28.70	332.03	4.87	-60.5	-63.7	6.2	0.00e+00	0	42	104	0	86	21919
2026-01-01 19:03:30.71	331.74	4.75	-61.1	-64.2	6.2	0.00e+00	0	42	104	0	87	21997
2026-01-01 19:03:32.73	331.47	4.63	-61.4	-64.6	6.2	0.00e+00	0	42	104	0	88	21630
2026-01-01 19:03:34.74	331.19	4.52	-61.7	-64.9	6.2	0.00e+00	0	42	104	0	88	22415
2026-01-01 19:03:36.76	330.92	4.40	-61.9	-65.0	6.2	0.00e+00	0	42	104	0	89	21582
2026-01-01 19:03:38.76	330.65	4.29	-62.0	-65.2	6.2	0.00e+00	0	42	104	0	89	21943
2026-01-01 19:03:40.78	330.38	4.17	-62.1	-65.3	6.2	0.00e+00	0	42	104	0	89	22131
2026-01-01 19:03:42.79	330.12	4.06	-62.2	-65.3	6.2	0.00e+00	0	42	104	0	89	22258
2026-01-01 19:03:44.80	329.85	3.94	-62.2	-65.3	6.2	0.00e+00	0	42	104	0	89	22327
2026-01-01 19:03:46.81	329.60	3.83	-62.2	-65.3	6.2	0.00e+00	0	42	104	0	89	22335
2026-01-01 19:03:48.83	329.34	3.71	-62.1	-65.2	6.2	0.00e+00	0	42	104	0	89	22098
2026-01-01 19:03:50.84	329.08	3.60	-62.0	-65.2	6.2	0.00e+00	0	42	104	0	89	21956
2026-01-01 19:03:52.86	328.83	3.49	-62.0	-65.2	6.2	0.00e+00	0	42	104	0	89	21949
2026-01-01 19:03:54.87	328.58	3.37	-62.0	-65.2	6.2	0.00e+00	0	42	104	0	89	21879
2026-01-01 19:03:56.89	328.34	3.26	-62.0	-65.1	6.2	0.00e+00	0	42	104	0	89	21834
2026-01-01 19:03:58.91	328.09	3.14	-62.0	-65.2	6.2	0.00e+00	0	42	104	0	89	21879
2026-01-01 19:04:00.92	327.85	3.03	-62.0	-65.1	6.2	0.00e+00	0	42	104	0	89	21738
2026-01-01 19:04:02.93	327.61	2.92	-61.9	-65.1	6.2	0.00e+00	0	42	104	0	89	21756
2026-01-01 19:04:04.95	327.37	2.80	-61.9	-65.1	6.2	0.00e+00	0	42	104	0	89	21689
2026-01-01 19:04:06.95	327.14	2.69	-61.9	-65.1	6.2	0.00e+00	0	42	104	0	89	21704
2026-01-01 19:04:08.96	326.91	2.58	-61.9	-65.1	6.2	0.00e+00	0	42	104	0	89	21641
2026-01-01 19:04:10.98	326.68	2.47	-61.9	-65.1	6.2	0.00e+00	0	42	104	0	89	21639
2026-01-01 19:04:12.99	326.45	2.36	-61.9	-65.0	6.2	0.00e+00	0	42	104	0	89	21521
2026-01-01 19:04:15.01	326.22	2.24	-61.9	-65.0	6.2	0.00e+00	0	42	104	0	89	21529
2026-01-01 19:04:17.02	326.00	2.13	-61.9	-65.0	6.2	0.00e+00	0	42	104	0	89	21530
2026-01-01 19:04:19.03	325.78	2.02	-61.9	-65.0	6.2	0.00e+00	0	42	104	0	89	21474
2026-01-01 19:04:21.05	325.56	1.91	-61.9	-65.0	6.2	0.00e+00	0	42	104	0	89	21496

#Closed at: 2026-01-01 19:04:22
#Recorded file [0 MB]: D:/lorett/data/31004_260101_215550.dat