passes_logs/2026/01/01/R3.2S_Murmansk/R3.2S_Murmansk__20260101_035338_SUOMI_NPP_rec.log

#Pass ID: 20260101_035338_SUOMI NPP
#Satellite: SUOMI NPP
#Configuration: NPP
#almurnet v.1.7.20251203
#Start time: 2026-01-01 03:53:40

#Version: 2.2.20231116
#Station: R3.2S_Murmansk
#Location: 33.079688 lon 68.888172 lat
#TLE: 1 37849U 11061A   25364.87906317  .00000195  00000+0  11345-3 0  9992
#TLE: 2 37849  98.7794 302.0592 0002571  89.2401 270.9069 14.19520347734561

#Time	Az	El	Level	Level2	SNR	BER	BlckErr	Temp	State	Recorded	gain1	gain2
2026-01-01 03:53:40.72	45.13	2.13	-59.7	-75.7	3.8	1.49e+00	0	31	0	0	86	21688
2026-01-01 03:53:44.71	44.90	2.36	-59.8	-75.7	3.8	1.49e+00	0	32	104	0	84	24277
2026-01-01 03:53:48.69	44.66	2.60	-59.8	-75.7	3.8	1.49e+00	0	32	104	0	84	24358
2026-01-01 03:53:52.68	44.42	2.83	-59.8	-75.7	3.8	1.49e+00	0	32	104	0	84	24404
2026-01-01 03:53:56.69	44.18	3.07	-59.8	-75.7	3.8	1.49e+00	0	32	104	0	84	24383
2026-01-01 03:54:00.69	43.93	3.31	-59.8	-75.7	3.8	1.49e+00	0	32	104	0	84	24171
2026-01-01 03:54:04.68	43.68	3.55	-59.8	-75.7	3.8	1.49e+00	0	32	104	0	84	24204
2026-01-01 03:54:08.68	43.42	3.80	-59.8	-75.7	3.8	1.49e+00	0	32	104	0	84	24361
2026-01-01 03:54:12.67	43.16	4.04	-59.8	-75.6	3.8	1.49e+00	0	32	104	0	84	24120
2026-01-01 03:54:16.67	42.89	4.29	-59.7	-74.7	3.8	1.49e+00	0	33	104	0	84	21509
2026-01-01 03:54:20.68	42.62	4.53	-59.7	-74.3	3.8	1.49e+00	0	33	104	0	84	20699
2026-01-01 03:54:24.68	42.34	4.78	-59.4	-70.1	5.0	8.47e-01	0	33	0	1048576	84	12668
2026-01-01 03:54:28.67	42.06	5.03	-57.9	-63.7	10.0	6.33e-03	0	33	0	8388608	82	6840
2026-01-01 03:54:32.66	41.77	5.29	-56.0	-59.5	13.4	1.08e-03	0	33	0	15728640	78	5307
2026-01-01 03:54:36.64	41.48	5.54	-56.2	-59.8	13.2	0.00e+00	0	33	0	23068672	78	5523
2026-01-01 03:54:40.64	41.19	5.80	-56.2	-59.8	13.3	7.00e-07	0	33	0	30408704	78	5502
2026-01-01 03:54:44.62	40.88	6.05	-55.9	-59.2	13.8	0.00e+00	0	33	0	37748736	78	5123
2026-01-01 03:54:48.62	40.58	6.31	-55.8	-59.0	14.0	0.00e+00	0	33	0	46137344	78	4990
2026-01-01 03:54:52.60	40.26	6.57	-56.0	-59.3	13.8	0.00e+00	0	33	0	53477376	78	5190
2026-01-01 03:54:56.60	39.94	6.84	-55.3	-58.2	14.5	0.00e+00	0	33	0	60817408	77	4862
2026-01-01 03:55:00.59	39.62	7.10	-55.2	-58.0	14.6	0.00e+00	0	33	0	68157440	76	5027
2026-01-01 03:55:04.57	39.28	7.37	-55.2	-58.2	14.5	0.00e+00	0	33	0	75497472	76	5104
2026-01-01 03:55:08.57	38.95	7.63	-55.3	-58.3	14.5	0.00e+00	0	33	0	82837504	76	5181
2026-01-01 03:55:12.57	38.60	7.90	-55.3	-58.2	14.5	0.00e+00	0	33	0	90177536	76	5140
2026-01-01 03:55:16.57	38.25	8.18	-55.3	-58.1	14.6	0.00e+00	0	33	0	98566144	76	5099
2026-01-01 03:55:20.57	37.89	8.45	-55.4	-58.3	14.5	0.00e+00	0	33	0	105906176	76	5209
2026-01-01 03:55:24.57	37.52	8.73	-55.4	-58.2	14.6	0.00e+00	0	33	0	113246208	76	5122
2026-01-01 03:55:28.59	37.14	9.01	-55.3	-58.2	14.5	0.00e+00	0	33	0	120586240	76	5108
2026-01-01 03:55:32.58	36.76	9.29	-55.2	-58.0	14.8	0.00e+00	0	33	0	127926272	76	5007
2026-01-01 03:55:36.57	36.37	9.57	-55.3	-58.2	14.6	0.00e+00	0	33	0	135266304	76	5107
2026-01-01 03:55:40.56	35.98	9.85	-55.5	-58.5	14.5	0.00e+00	0	33	0	142606336	76	5284
2026-01-01 03:55:44.53	35.58	10.13	-55.4	-58.4	14.5	0.00e+00	0	33	0	150994944	76	5264
2026-01-01 03:55:48.53	35.16	10.42	-55.1	-58.0	14.8	0.00e+00	0	33	0	158334976	76	4987
2026-01-01 03:55:52.53	34.74	10.71	-55.1	-58.0	14.8	0.00e+00	0	33	0	165675008	76	4995
2026-01-01 03:55:56.53	34.31	11.00	-55.2	-58.0	14.8	0.00e+00	0	33	0	173015040	76	5038
2026-01-01 03:56:00.53	33.87	11.30	-55.0	-57.7	14.9	0.00e+00	0	33	0	180355072	76	4869
2026-01-01 03:56:04.52	33.42	11.59	-55.0	-57.6	15.1	0.00e+00	0	33	0	187695104	76	4784
2026-01-01 03:56:08.52	32.96	11.89	-54.8	-57.3	15.2	0.00e+00	0	33	0	196083712	76	4639
2026-01-01 03:56:12.53	32.49	12.18	-54.5	-56.9	15.3	0.00e+00	0	33	0	203423744	75	4686
2026-01-01 03:56:16.52	32.02	12.48	-54.7	-57.1	15.3	0.00e+00	0	33	0	210763776	75	4792
2026-01-01 03:56:20.52	31.53	12.79	-55.2	-57.9	14.8	0.00e+00	0	33	0	218103808	75	5259
2026-01-01 03:56:24.52	31.03	13.09	-55.2	-57.8	14.9	0.00e+00	0	34	0	225443840	75	5211
2026-01-01 03:56:28.52	30.52	13.39	-55.0	-57.6	15.0	0.00e+00	0	33	0	232783872	75	5099
2026-01-01 03:56:32.53	30.00	13.70	-54.7	-57.1	15.3	0.00e+00	0	33	0	240123904	75	4780
2026-01-01 03:56:36.52	29.47	14.01	-54.5	-56.8	15.4	0.00e+00	0	33	0	248512512	75	4630
2026-01-01 03:56:40.52	28.93	14.32	-53.9	-56.0	15.9	0.00e+00	0	33	0	255852544	74	4458
2026-01-01 03:56:44.49	28.38	14.63	-54.0	-56.2	15.8	0.00e+00	0	33	0	263192576	74	4556
2026-01-01 03:56:48.49	27.81	14.94	-53.9	-56.1	15.8	0.00e+00	0	34	0	270532608	74	4519
2026-01-01 03:56:52.50	27.23	15.25	-54.1	-56.3	15.8	0.00e+00	0	33	0	277872640	74	4606
2026-01-01 03:56:56.49	26.64	15.56	-54.0	-56.1	15.9	0.00e+00	0	33	0	285212672	74	4525
2026-01-01 03:57:00.50	26.04	15.88	-54.0	-56.2	15.8	0.00e+00	0	33	0	292552704	74	4564
2026-01-01 03:57:04.49	25.42	16.19	-54.2	-56.5	15.6	0.00e+00	0	33	0	300941312	74	4724
2026-01-01 03:57:08.50	24.79	16.51	-53.9	-56.2	15.7	0.00e+00	0	34	0	308281344	74	4574
2026-01-01 03:57:12.50	24.15	16.83	-54.5	-57.0	15.4	0.00e+00	0	33	0	315621376	74	4997
2026-01-01 03:57:16.51	23.49	17.14	-54.7	-57.2	15.3	0.00e+00	0	34	0	322961408	74	5133
2026-01-01 03:57:20.51	22.82	17.46	-54.9	-57.6	15.1	0.00e+00	0	33	0	330301440	75	5048
2026-01-01 03:57:24.52	22.13	17.78	-54.7	-57.1	15.4	0.00e+00	0	34	0	337641472	75	4779
2026-01-01 03:57:28.52	21.43	18.09	-54.3	-56.5	15.7	0.00e+00	0	34	0	346030080	75	4490
2026-01-01 03:57:32.51	20.71	18.41	-54.3	-56.6	15.6	0.00e+00	0	34	0	353370112	75	4520
2026-01-01 03:57:36.51	19.98	18.72	-54.1	-56.4	15.7	0.00e+00	0	33	0	360710144	74	4682
2026-01-01 03:57:40.50	19.23	19.04	-54.4	-56.8	15.6	0.00e+00	0	34	0	368050176	74	4902
2026-01-01 03:57:44.49	18.47	19.35	-54.6	-57.1	15.4	0.00e+00	0	34	0	375390208	74	5053
2026-01-01 03:57:48.49	17.69	19.66	-53.6	-55.7	16.2	0.00e+00	0	33	0	382730240	73	4547
2026-01-01 03:57:52.47	16.90	19.97	-54.1	-56.3	15.9	0.00e+00	0	33	0	390070272	73	4893
2026-01-01 03:57:56.47	16.09	20.28	-54.5	-56.8	15.7	0.00e+00	0	34	0	398458880	74	4900
2026-01-01 03:58:00.48	15.26	20.58	-54.5	-56.8	15.6	0.00e+00	0	34	0	405798912	74	4898
2026-01-01 03:58:04.48	14.42	20.88	-53.5	-55.6	16.1	0.00e+00	0	33	0	413138944	73	4507
2026-01-01 03:58:08.47	13.56	21.18	-53.6	-55.8	16.0	0.00e+00	0	34	0	420478976	72	4873
2026-01-01 03:58:12.47	12.68	21.48	-53.3	-55.3	16.2	0.00e+00	0	34	0	427819008	72	4628
2026-01-01 03:58:16.49	11.78	21.77	-53.2	-55.2	16.3	0.00e+00	0	33	0	435159040	72	4554
2026-01-01 03:58:20.49	10.87	22.06	-52.7	-54.5	16.5	0.00e+00	0	34	0	442499072	71	4456
2026-01-01 03:58:24.49	9.94	22.34	-53.2	-55.1	16.3	0.00e+00	0	34	0	450887680	71	4798
2026-01-01 03:58:28.49	8.99	22.62	-52.6	-54.4	16.6	0.00e+00	0	34	0	458227712	71	4415
2026-01-01 03:58:32.50	8.02	22.89	-52.5	-54.4	16.6	0.00e+00	0	34	0	465567744	71	4411
2026-01-01 03:58:36.50	7.04	23.15	-52.6	-54.4	16.6	0.00e+00	0	34	0	472907776	71	4431
2026-01-01 03:58:40.49	6.05	23.41	-52.1	-53.8	16.8	0.00e+00	0	34	0	480247808	70	4345
2026-01-01 03:58:44.50	5.03	23.66	-53.1	-54.9	16.5	0.00e+00	0	34	0	487587840	71	4685
2026-01-01 03:58:48.48	4.00	23.91	-52.8	-54.6	16.6	0.00e+00	0	34	0	495976448	71	4508
2026-01-01 03:58:52.48	2.96	24.14	-52.8	-54.7	16.6	0.00e+00	0	34	0	503316480	71	4561
2026-01-01 03:58:56.47	1.90	24.37	-52.8	-54.6	16.6	0.00e+00	0	34	0	510656512	71	4520
2026-01-01 03:59:00.49	0.81	24.59	-52.8	-54.5	16.7	0.00e+00	0	34	0	517996544	71	4445
2026-01-01 03:59:04.49	359.72	24.80	-52.8	-54.5	16.6	0.00e+00	0	34	0	525336576	71	4472
2026-01-01 03:59:08.49	358.61	25.00	-52.6	-54.3	16.8	0.00e+00	0	34	0	532676608	71	4369
2026-01-01 03:59:12.48	357.50	25.19	-52.8	-54.6	16.6	0.00e+00	0	34	0	540016640	71	4529
2026-01-01 03:59:16.47	356.37	25.36	-52.5	-54.2	16.7	0.00e+00	0	34	0	548405248	71	4339
2026-01-01 03:59:20.48	355.22	25.53	-53.0	-54.8	16.6	0.00e+00	0	34	0	555745280	71	4619
2026-01-01 03:59:24.47	354.06	25.68	-54.0	-56.0	16.1	0.00e+00	0	34	0	563085312	73	4751
2026-01-01 03:59:28.48	352.89	25.83	-54.3	-56.5	15.9	0.00e+00	0	34	0	570425344	74	4706
2026-01-01 03:59:32.49	351.71	25.96	-54.1	-56.2	16.0	0.00e+00	0	34	0	577765376	74	4581
2026-01-01 03:59:36.49	350.52	26.07	-54.4	-56.7	15.7	0.00e+00	0	34	0	585105408	74	4822
2026-01-01 03:59:40.49	349.32	26.18	-54.5	-56.9	15.6	0.00e+00	0	34	0	593494016	74	4934
2026-01-01 03:59:44.48	348.12	26.27	-54.5	-57.0	15.6	0.00e+00	0	34	0	600834048	74	5001
2026-01-01 03:59:48.48	346.91	26.34	-54.2	-56.5	15.8	0.00e+00	0	34	0	608174080	75	4476
2026-01-01 03:59:52.46	345.70	26.41	-53.7	-55.8	16.1	0.00e+00	0	34	0	615514112	73	4647
2026-01-01 03:59:56.46	344.48	26.46	-54.4	-56.7	15.6	0.00e+00	0	34	0	622854144	74	4867
2026-01-01 04:00:00.45	343.25	26.49	-54.5	-56.8	15.7	0.00e+00	0	34	0	630194176	74	4903
2026-01-01 04:00:04.46	342.02	26.51	-54.1	-56.3	16.0	0.00e+00	0	34	0	637534208	74	4603
2026-01-01 04:00:08.44	340.80	26.51	-53.8	-55.9	16.2	0.00e+00	0	34	0	644874240	73	4676
2026-01-01 04:00:12.45	339.57	26.51	-54.8	-57.3	15.5	0.00e+00	0	34	0	653262848	74	5197
2026-01-01 04:00:16.47	338.34	26.48	-54.1	-56.3	16.0	0.00e+00	0	34	0	660602880	74	4619
2026-01-01 04:00:20.46	337.12	26.44	-53.6	-55.6	16.2	0.00e+00	0	34	0	667942912	73	4518
2026-01-01 04:00:24.47	335.90	26.39	-53.4	-55.3	16.4	0.00e+00	0	34	0	675282944	72	4632
2026-01-01 04:00:28.46	334.69	26.32	-53.0	-54.8	16.6	0.00e+00	0	34	0	682622976	72	4366
2026-01-01 04:00:32.46	333.48	26.24	-52.1	-53.7	17.0	0.00e+00	0	34	0	689963008	70	4299
2026-01-01 04:00:36.48	332.27	26.15	-52.1	-53.7	17.0	0.00e+00	0	34	0	698351616	70	4314
2026-01-01 04:00:40.48	331.07	26.04	-52.8	-54.5	16.6	0.00e+00	0	34	0	705691648	71	4487
2026-01-01 04:00:44.47	329.89	25.92	-53.1	-54.9	16.7	0.00e+00	0	34	0	713031680	71	4665
2026-01-01 04:00:48.48	328.71	25.79	-52.8	-54.4	16.8	0.00e+00	0	34	0	720371712	71	4425
2026-01-01 04:00:52.46	327.55	25.64	-53.6	-55.4	16.5	0.00e+00	0	34	0	727711744	72	4685
2026-01-01 04:00:56.45	326.39	25.48	-54.1	-56.1	16.2	0.00e+00	0	34	0	735051776	73	4769
2026-01-01 04:01:00.45	325.25	25.31	-53.4	-55.2	16.5	0.00e+00	0	34	0	742391808	72	4579
2026-01-01 04:01:04.45	324.12	25.13	-54.2	-56.2	16.1	0.00e+00	0	34	0	750780416	73	4860
2026-01-01 04:01:08.46	323.00	24.94	-54.5	-56.8	15.8	0.00e+00	0	34	0	758120448	74	4879
2026-01-01 04:01:12.45	321.90	24.74	-54.9	-57.4	15.5	0.00e+00	0	34	0	765460480	75	4934
2026-01-01 04:01:16.45	320.81	24.53	-54.0	-56.1	16.1	0.00e+00	0	34	0	772800512	74	4506
2026-01-01 04:01:20.45	319.73	24.30	-54.7	-57.0	15.7	0.00e+00	0	34	0	780140544	74	5010
2026-01-01 04:01:24.45	318.67	24.07	-54.0	-56.1	16.0	0.00e+00	0	34	0	787480576	74	4541
2026-01-01 04:01:28.44	317.63	23.84	-53.9	-56.0	16.1	0.00e+00	0	34	0	795869184	74	4446
2026-01-01 04:01:32.42	316.61	23.59	-54.7	-57.2	15.5	0.00e+00	0	34	0	803209216	74	5124
2026-01-01 04:01:36.41	315.60	23.34	-53.8	-56.0	16.0	0.00e+00	0	34	0	810549248	74	4466
2026-01-01 04:01:40.40	314.61	23.08	-54.7	-57.2	15.5	0.00e+00	0	34	0	817889280	74	5140
2026-01-01 04:01:44.37	313.64	22.81	-54.9	-57.5	15.3	0.00e+00	0	34	0	825229312	75	5040
2026-01-01 04:01:48.36	312.68	22.54	-53.8	-55.9	16.2	0.00e+00	0	34	0	832569344	74	4424
2026-01-01 04:01:52.35	311.74	22.26	-53.8	-55.9	16.1	0.00e+00	0	34	0	839909376	73	4660
2026-01-01 04:01:56.34	310.82	21.98	-54.3	-56.7	15.7	0.00e+00	0	34	0	847249408	74	4832
2026-01-01 04:02:00.35	309.91	21.69	-52.8	-54.7	16.6	0.00e+00	0	34	0	855638016	72	4300
2026-01-01 04:02:04.34	309.02	21.40	-52.4	-54.2	16.7	0.00e+00	0	34	0	862978048	70	4597
2026-01-01 04:02:08.34	308.14	21.10	-53.0	-54.9	16.5	0.00e+00	0	34	0	870318080	71	4684
2026-01-01 04:02:12.33	307.29	20.80	-53.2	-55.2	16.3	0.00e+00	0	34	0	877658112	71	4850
2026-01-01 04:02:16.32	306.45	20.50	-53.1	-55.1	16.3	0.00e+00	0	34	0	884998144	71	4777
2026-01-01 04:02:20.32	305.62	20.19	-53.4	-55.5	16.1	0.00e+00	0	34	0	892338176	72	4759
2026-01-01 04:02:24.33	304.81	19.89	-53.7	-55.9	16.1	0.00e+00	0	34	0	899678208	72	4966
2026-01-01 04:02:28.31	304.02	19.58	-53.4	-55.5	16.3	0.00e+00	0	34	0	908066816	73	4458
2026-01-01 04:02:32.30	303.25	19.27	-53.3	-55.3	16.3	0.00e+00	0	34	0	915406848	73	4357
2026-01-01 04:02:36.31	302.49	18.95	-53.1	-55.1	16.4	0.00e+00	0	34	0	922746880	72	4496
2026-01-01 04:02:40.30	301.74	18.64	-52.4	-54.1	16.8	0.00e+00	0	34	0	930086912	71	4282
2026-01-01 04:02:44.29	301.02	18.32	-52.5	-54.2	16.8	0.00e+00	0	34	0	937426944	71	4316
2026-01-01 04:02:48.28	300.30	18.01	-53.1	-54.9	16.5	0.00e+00	0	34	0	944766976	71	4682
2026-01-01 04:02:52.25	299.61	17.69	-52.7	-54.4	16.8	0.00e+00	0	34	0	952107008	71	4411
2026-01-01 04:02:56.24	298.93	17.38	-52.6	-54.3	16.8	0.00e+00	0	34	0	960495616	71	4366
2026-01-01 04:03:00.24	298.26	17.06	-53.0	-54.7	16.6	0.00e+00	0	34	0	967835648	71	4577
2026-01-01 04:03:04.23	297.60	16.74	-53.2	-55.0	16.5	0.00e+00	0	34	0	975175680	71	4712
2026-01-01 04:03:08.22	296.96	16.43	-52.4	-54.1	16.9	0.00e+00	0	33	0	982515712	71	4246
2026-01-01 04:03:12.21	296.34	16.11	-52.9	-54.6	16.7	0.00e+00	0	34	0	989855744	71	4517
2026-01-01 04:03:16.20	295.72	15.80	-53.7	-55.6	16.2	0.00e+00	0	34	0	997195776	72	4793
2026-01-01 04:03:20.20	295.12	15.48	-53.4	-55.2	16.4	0.00e+00	0	34	0	1004535808	72	4565
2026-01-01 04:03:24.17	294.54	15.17	-53.2	-55.1	16.5	0.00e+00	0	34	0	1012924416	72	4498
2026-01-01 04:03:28.18	293.96	14.86	-53.2	-55.0	16.5	0.00e+00	0	34	0	1020264448	72	4447
2026-01-01 04:03:32.17	293.40	14.55	-54.1	-56.1	16.0	0.00e+00	0	34	0	1027604480	73	4803
2026-01-01 04:03:36.19	292.84	14.23	-54.3	-56.4	15.9	0.00e+00	0	34	0	1034944512	74	4658
2026-01-01 04:03:40.18	292.30	13.93	-53.1	-54.9	16.5	0.00e+00	0	34	0	1042284544	72	4428
2026-01-01 04:03:44.19	291.77	13.62	-53.4	-55.3	16.4	0.00e+00	0	34	0	1049624576	72	4600
2026-01-01 04:03:48.18	291.25	13.31	-53.4	-55.3	16.3	0.00e+00	0	34	0	1056964608	72	4612
2026-01-01 04:03:52.19	290.74	13.01	-53.4	-55.3	16.3	0.00e+00	0	34	0	1065353216	72	4624
2026-01-01 04:03:56.18	290.25	12.70	-53.8	-55.8	16.1	0.00e+00	0	34	0	1072693248	72	4900
2026-01-01 04:04:00.16	289.76	12.40	-54.0	-56.1	16.0	0.00e+00	0	34	0	1080033280	73	4798
2026-01-01 04:04:04.16	289.29	12.10	-54.3	-56.5	15.7	0.00e+00	0	34	0	1087373312	73	4985
2026-01-01 04:04:08.16	288.82	11.80	-55.1	-57.6	15.1	0.00e+00	0	34	0	1094713344	75	5056
2026-01-01 04:04:12.14	288.36	11.51	-54.8	-57.2	15.4	0.00e+00	0	34	0	1102053376	75	4862
2026-01-01 04:04:16.13	287.92	11.22	-54.3	-56.4	15.8	0.00e+00	0	34	0	1109393408	75	4434
2026-01-01 04:04:20.13	287.48	10.92	-54.2	-56.3	15.8	0.00e+00	0	34	0	1117782016	74	4648
2026-01-01 04:04:24.11	287.05	10.63	-54.9	-57.3	15.3	0.00e+00	0	34	0	1125122048	74	5160
2026-01-01 04:04:28.09	286.63	10.35	-55.0	-57.4	15.2	0.00e+00	0	34	0	1132462080	75	4937
2026-01-01 04:04:32.10	286.22	10.06	-54.5	-56.7	15.6	0.00e+00	0	34	0	1139802112	75	4583
2026-01-01 04:04:36.09	285.81	9.77	-54.2	-56.4	15.8	0.00e+00	0	34	0	1147142144	75	4409
2026-01-01 04:04:40.08	285.42	9.49	-54.5	-56.7	15.6	0.00e+00	0	34	0	1154482176	74	4863
2026-01-01 04:04:44.08	285.03	9.21	-55.1	-57.7	15.0	0.00e+00	0	34	0	1161822208	75	5104
2026-01-01 04:04:48.07	284.65	8.93	-55.7	-58.5	14.6	0.00e+00	0	34	0	1170210816	76	5312
2026-01-01 04:04:52.08	284.27	8.65	-55.9	-58.9	14.3	0.00e+00	0	34	0	1177550848	77	5239
2026-01-01 04:04:56.07	283.91	8.37	-55.9	-58.8	14.3	0.00e+00	0	34	0	1184890880	77	5216
2026-01-01 04:05:00.06	283.55	8.10	-56.0	-59.0	14.2	0.00e+00	0	33	0	1192230912	77	5315
2026-01-01 04:05:04.06	283.20	7.83	-56.0	-58.9	14.3	0.00e+00	0	34	0	1199570944	77	5276
2026-01-01 04:05:08.04	282.85	7.56	-56.4	-59.6	13.9	0.00e+00	0	34	0	1206910976	77	5674
2026-01-01 04:05:12.04	282.51	7.29	-56.8	-60.4	13.2	0.00e+00	0	34	0	1214251008	78	5893
2026-01-01 04:05:16.04	282.18	7.02	-57.0	-60.7	13.0	2.20e-06	0	34	0	1222639616	79	5764
2026-01-01 04:05:20.04	281.86	6.76	-56.5	-59.9	13.6	0.00e+00	0	34	0	1229979648	79	5241
2026-01-01 04:05:24.05	281.53	6.50	-55.8	-58.7	14.4	0.00e+00	0	34	0	1237319680	78	4827
2026-01-01 04:05:28.03	281.22	6.24	-55.3	-57.9	14.9	0.00e+00	0	34	0	1244659712	77	4671
2026-01-01 04:05:32.02	280.91	5.98	-55.3	-57.9	14.7	0.00e+00	0	34	0	1251999744	76	4976
2026-01-01 04:05:36.02	280.61	5.72	-55.6	-58.4	14.5	0.00e+00	0	34	0	1259339776	76	5233
2026-01-01 04:05:40.02	280.31	5.46	-56.1	-59.2	13.8	0.00e+00	0	34	0	1266679808	77	5447
2026-01-01 04:05:44.02	280.02	5.21	-56.3	-59.7	13.5	0.00e+00	0	34	0	1275068416	78	5422
2026-01-01 04:05:48.01	279.73	4.96	-60.3	-75.3	3.8	3.50e-01	0	34	104	1281359872	85	21943
2026-01-01 04:05:51.99	279.45	4.71	-61.3	-77.3	3.8	1.49e+00	0	34	104	1281359872	87	24491
2026-01-01 04:05:55.99	279.18	4.46	-61.7	-77.7	3.8	1.49e+00	0	34	104	1281359872	88	24299
2026-01-01 04:05:59.98	278.91	4.21	-62.0	-78.0	3.8	1.49e+00	0	34	104	1281359872	89	23654
2026-01-01 04:06:03.99	278.64	3.96	-62.2	-78.2	3.8	1.49e+00	0	34	104	1281359872	89	24259
2026-01-01 04:06:07.99	278.38	3.72	-62.2	-78.2	3.8	1.49e+00	0	34	104	1281359872	89	24324
2026-01-01 04:06:11.99	278.12	3.48	-62.1	-78.2	3.8	1.49e+00	0	34	104	1281359872	89	24188
2026-01-01 04:06:15.99	277.86	3.24	-62.0	-78.1	3.8	1.49e+00	0	34	104	1281359872	89	23870
2026-01-01 04:06:20.00	277.61	3.00	-62.0	-78.0	3.8	1.49e+00	0	34	104	1281359872	89	23659
2026-01-01 04:06:23.99	277.37	2.76	-61.9	-77.9	3.8	1.49e+00	0	34	104	1281359872	89	23504
2026-01-01 04:06:27.97	277.13	2.52	-61.9	-77.9	3.8	1.49e+00	0	34	104	1281359872	89	23396
2026-01-01 04:06:31.99	276.89	2.29	-61.8	-77.9	3.8	1.49e+00	0	34	104	1281359872	89	23383
2026-01-01 04:06:35.98	276.66	2.05	-61.8	-77.9	3.8	1.49e+00	0	34	104	1281359872	89	23340

#Closed at: 2026-01-01 04:06:36
#Recorded file [1281 MB]: D:/lorett/data/31004_260101_065340.dat