passes_logs/2026/01/01/R3.2S_Murmansk/R3.2S_Murmansk__20260101_073200_NOAA_20_JPSS-1_rec.log

#Pass ID: 20260101_073200_NOAA 20 (JPSS-1)
#Satellite: NOAA 20 (JPSS-1)
#Configuration: NOAA 20
#almurnet v.1.7.20251203
#Start time: 2026-01-01 07:32:00

#Version: 2.2.20231116
#Station: R3.2S_Murmansk
#Location: 33.079688 lon 68.888172 lat
#TLE: 1 43013U 17073A   25365.59858899  .00000178  00000+0  10524-3 0  9991
#TLE: 2 43013  98.7620 301.6911 0001952  60.2533 299.8837 14.19531732420695

#Time	Az	El	Level	Level2	SNR	BER	BlckErr	Temp	State	Recorded	gain1	gain2
2026-01-01 07:32:00.15	106.19	2.01	-59.8	-75.8	3.8	1.49e+00	0	33	0	0	86	21835
2026-01-01 07:32:04.16	106.02	2.25	-59.8	-75.8	3.8	1.49e+00	0	33	104	0	84	24563
2026-01-01 07:32:08.15	105.84	2.50	-59.9	-75.7	3.8	1.49e+00	0	33	104	0	84	24407
2026-01-01 07:32:12.14	105.67	2.75	-59.8	-75.7	3.8	1.49e+00	0	33	104	0	84	24377
2026-01-01 07:32:16.15	105.49	3.00	-59.9	-75.8	3.8	1.49e+00	0	33	104	0	84	24421
2026-01-01 07:32:20.17	105.30	3.25	-59.9	-75.7	3.8	1.49e+00	0	33	104	0	84	24179
2026-01-01 07:32:24.16	105.12	3.51	-59.9	-75.5	3.8	1.49e+00	0	34	104	0	84	23622
2026-01-01 07:32:28.16	104.93	3.76	-59.9	-75.8	3.8	1.49e+00	0	33	104	0	84	24525
2026-01-01 07:32:32.14	104.73	4.02	-59.8	-74.3	3.8	1.49e+00	0	34	104	0	84	20675
2026-01-01 07:32:36.14	104.54	4.28	-59.6	-70.8	4.7	9.24e-01	0	34	0	1048576	84	13801
2026-01-01 07:32:40.14	104.33	4.55	-59.2	-67.4	6.9	1.76e-01	0	34	0	8388608	84	9311
2026-01-01 07:32:44.14	104.13	4.81	-58.7	-65.2	8.9	2.41e-02	0	34	0	15728640	84	7276
2026-01-01 07:32:48.15	103.92	5.08	-58.3	-64.2	9.6	1.05e-02	0	34	0	24117248	83	6876
2026-01-01 07:32:52.13	103.71	5.35	-57.2	-61.1	12.6	3.00e-06	0	34	0	31457280	79	5996
2026-01-01 07:32:56.13	103.49	5.62	-56.3	-59.3	14.0	0.00e+00	0	34	0	38797312	78	5216
2026-01-01 07:33:00.13	103.27	5.90	-56.0	-59.0	14.3	0.00e+00	0	34	0	46137344	78	4990
2026-01-01 07:33:04.13	103.04	6.18	-55.9	-58.7	14.5	0.00e+00	0	34	0	53477376	78	4826
2026-01-01 07:33:08.13	102.81	6.46	-55.7	-58.4	14.7	0.00e+00	0	34	0	60817408	77	4944
2026-01-01 07:33:12.13	102.57	6.74	-55.7	-58.4	14.7	0.00e+00	0	34	0	68157440	77	4960
2026-01-01 07:33:16.14	102.33	7.03	-55.6	-58.3	14.7	0.00e+00	0	34	0	76546048	77	4888
2026-01-01 07:33:20.14	102.09	7.31	-55.6	-58.2	14.8	0.00e+00	0	34	0	83886080	77	4863
2026-01-01 07:33:24.13	101.84	7.60	-55.5	-58.2	14.9	0.00e+00	0	34	0	91226112	77	4827
2026-01-01 07:33:28.14	101.58	7.90	-55.4	-58.0	15.0	0.00e+00	0	34	0	98566144	77	4713
2026-01-01 07:33:32.13	101.32	8.19	-55.4	-57.8	15.1	0.00e+00	0	34	0	105906176	77	4651
2026-01-01 07:33:36.13	101.05	8.49	-55.4	-57.9	15.1	0.00e+00	0	34	0	113246208	77	4676
2026-01-01 07:33:40.13	100.78	8.80	-55.4	-57.9	15.2	0.00e+00	0	34	0	120586240	77	4661
2026-01-01 07:33:44.15	100.50	9.10	-55.4	-57.8	15.2	0.00e+00	0	34	0	128974848	77	4635
2026-01-01 07:33:48.16	100.21	9.41	-55.3	-57.7	15.2	0.00e+00	0	34	0	136314880	77	4588
2026-01-01 07:33:52.17	99.92	9.72	-55.4	-57.9	15.2	0.00e+00	0	34	0	143654912	77	4670
2026-01-01 07:33:56.18	99.62	10.04	-55.3	-57.7	15.3	0.00e+00	0	34	0	150994944	77	4563
2026-01-01 07:34:00.19	99.31	10.36	-55.3	-57.7	15.3	0.00e+00	0	34	0	158334976	77	4595
2026-01-01 07:34:04.20	99.00	10.68	-55.2	-57.6	15.4	0.00e+00	0	34	0	166723584	77	4510
2026-01-01 07:34:08.20	98.68	11.01	-55.2	-57.5	15.5	0.00e+00	0	34	0	174063616	76	4728
2026-01-01 07:34:12.18	98.36	11.33	-55.0	-57.3	15.6	0.00e+00	0	34	0	181403648	76	4627
2026-01-01 07:34:16.17	98.02	11.66	-54.9	-57.2	15.7	0.00e+00	0	34	0	188743680	76	4549
2026-01-01 07:34:20.17	97.68	12.00	-54.8	-57.0	15.9	0.00e+00	0	34	0	196083712	76	4444
2026-01-01 07:34:24.15	97.33	12.34	-54.7	-56.8	15.9	0.00e+00	0	34	0	203423744	75	4614
2026-01-01 07:34:28.14	96.97	12.68	-54.7	-56.8	15.9	0.00e+00	0	35	0	210763776	75	4618
2026-01-01 07:34:32.10	96.61	13.02	-54.5	-56.6	16.0	0.00e+00	0	35	0	218103808	75	4531
2026-01-01 07:34:36.08	96.23	13.37	-54.6	-56.7	16.0	0.00e+00	0	34	0	226492416	75	4569
2026-01-01 07:34:40.07	95.85	13.72	-54.6	-56.6	16.0	0.00e+00	0	34	0	233832448	75	4545
2026-01-01 07:34:44.06	95.45	14.08	-54.5	-56.5	16.1	0.00e+00	0	34	0	241172480	75	4492
2026-01-01 07:34:48.03	95.05	14.44	-54.5	-56.5	16.2	0.00e+00	0	35	0	248512512	75	4464
2026-01-01 07:34:52.03	94.63	14.80	-54.3	-56.2	16.3	0.00e+00	0	35	0	255852544	75	4340
2026-01-01 07:34:56.02	94.21	15.17	-54.2	-56.2	16.3	0.00e+00	0	34	0	263192576	74	4554
2026-01-01 07:35:00.00	93.77	15.54	-54.2	-56.1	16.3	0.00e+00	0	35	0	270532608	74	4524
2026-01-01 07:35:03.98	93.32	15.91	-54.3	-56.3	16.3	0.00e+00	0	35	0	277872640	74	4629
2026-01-01 07:35:07.96	92.87	16.29	-54.4	-56.4	16.2	0.00e+00	0	35	0	286261248	74	4684
2026-01-01 07:35:11.95	92.39	16.68	-54.6	-56.6	16.1	0.00e+00	0	35	0	293601280	74	4786
2026-01-01 07:35:15.94	91.91	17.07	-54.6	-56.7	16.1	0.00e+00	0	35	0	300941312	74	4816
2026-01-01 07:35:19.92	91.41	17.46	-54.6	-56.6	16.1	0.00e+00	0	34	0	308281344	74	4787
2026-01-01 07:35:23.94	90.90	17.86	-54.6	-56.6	16.2	0.00e+00	0	35	0	315621376	74	4772
2026-01-01 07:35:27.91	90.38	18.25	-54.7	-56.8	16.0	0.00e+00	0	35	0	322961408	74	4903
2026-01-01 07:35:31.87	89.84	18.65	-54.9	-57.0	16.0	0.00e+00	0	35	0	330301440	75	4736
2026-01-01 07:35:35.86	89.29	19.06	-55.0	-57.1	15.9	0.00e+00	0	35	0	337641472	75	4794
2026-01-01 07:35:39.85	88.72	19.47	-54.8	-56.9	16.0	0.00e+00	0	35	0	346030080	75	4655
2026-01-01 07:35:43.85	88.13	19.89	-54.6	-56.6	16.2	0.00e+00	0	35	0	353370112	75	4542
2026-01-01 07:35:47.83	87.53	20.31	-54.5	-56.5	16.3	0.00e+00	0	35	0	360710144	75	4460
2026-01-01 07:35:51.82	86.91	20.73	-54.4	-56.4	16.3	0.00e+00	0	35	0	368050176	75	4402
2026-01-01 07:35:55.82	86.28	21.16	-54.5	-56.5	16.3	0.00e+00	0	35	0	375390208	75	4478
2026-01-01 07:35:59.82	85.62	21.59	-54.4	-56.3	16.4	0.00e+00	0	35	0	382730240	75	4390
2026-01-01 07:36:03.81	84.95	22.02	-54.4	-56.3	16.4	0.00e+00	0	35	0	390070272	75	4368
2026-01-01 07:36:07.80	84.25	22.46	-54.3	-56.2	16.5	0.00e+00	0	35	0	398458880	75	4295
2026-01-01 07:36:11.78	83.54	22.89	-54.4	-56.3	16.4	0.00e+00	0	35	0	405798912	75	4368
2026-01-01 07:36:15.77	82.81	23.34	-54.7	-56.8	16.2	0.00e+00	0	35	0	413138944	75	4612
2026-01-01 07:36:19.76	82.06	23.78	-55.1	-57.2	16.0	0.00e+00	0	35	0	420478976	75	4832
2026-01-01 07:36:23.76	81.28	24.23	-55.2	-57.4	15.9	0.00e+00	0	35	0	427819008	75	4942
2026-01-01 07:36:27.74	80.48	24.67	-55.3	-57.4	15.8	0.00e+00	0	35	0	435159040	75	4976
2026-01-01 07:36:31.73	79.66	25.12	-55.6	-57.8	15.7	0.00e+00	0	35	0	442499072	76	4909
2026-01-01 07:36:35.74	78.81	25.57	-55.5	-57.7	15.7	0.00e+00	0	35	0	450887680	76	4858
2026-01-01 07:36:39.74	77.94	26.02	-55.4	-57.6	15.8	0.00e+00	0	35	0	458227712	76	4781
2026-01-01 07:36:43.73	77.04	26.47	-55.3	-57.5	15.9	0.00e+00	0	35	0	465567744	76	4722
2026-01-01 07:36:47.73	76.11	26.92	-55.0	-57.1	16.2	0.00e+00	0	35	0	472907776	76	4514
2026-01-01 07:36:51.73	75.16	27.37	-55.2	-57.4	16.0	0.00e+00	0	35	0	480247808	76	4671
2026-01-01 07:36:55.72	74.19	27.82	-55.1	-57.2	16.1	0.00e+00	0	35	0	487587840	76	4579
2026-01-01 07:36:59.72	73.18	28.26	-55.0	-57.0	16.2	0.00e+00	0	35	0	494927872	76	4491
2026-01-01 07:37:03.71	72.15	28.70	-55.1	-57.1	16.1	0.00e+00	0	35	0	503316480	76	4515
2026-01-01 07:37:07.72	71.08	29.14	-55.4	-57.6	15.9	0.00e+00	0	35	0	510656512	76	4793
2026-01-01 07:37:11.71	69.99	29.57	-55.8	-58.1	15.6	0.00e+00	0	35	0	517996544	76	5074
2026-01-01 07:37:15.70	68.87	30.00	-56.8	-59.6	14.7	0.00e+00	0	35	0	525336576	78	5375
2026-01-01 07:37:19.70	67.72	30.42	-57.3	-60.3	14.1	0.00e+00	0	35	0	532676608	79	5527
2026-01-01 07:37:23.69	66.54	30.84	-57.4	-60.5	14.0	0.00e+00	0	35	0	540016640	80	5323
2026-01-01 07:37:27.69	65.32	31.24	-57.6	-60.9	13.8	0.00e+00	0	35	0	547356672	80	5529
2026-01-01 07:37:31.67	64.08	31.63	-58.1	-61.9	13.0	3.80e-06	0	35	0	555745280	81	5868
2026-01-01 07:37:35.67	62.81	32.02	-58.1	-61.8	13.1	2.20e-06	0	35	0	563085312	81	5790
2026-01-01 07:37:39.66	61.51	32.39	-57.5	-60.7	13.9	0.00e+00	0	35	0	570425344	81	5153
2026-01-01 07:37:43.66	60.17	32.75	-57.2	-60.1	14.3	0.00e+00	0	35	0	577765376	80	5087
2026-01-01 07:37:47.66	58.81	33.10	-56.9	-59.7	14.7	0.00e+00	0	35	0	585105408	80	4849
2026-01-01 07:37:51.66	57.41	33.43	-56.6	-59.2	15.0	0.00e+00	0	35	0	592445440	79	4859
2026-01-01 07:37:55.66	55.99	33.75	-55.6	-57.9	15.9	0.00e+00	0	35	0	599785472	77	4655
2026-01-01 07:37:59.66	54.54	34.05	-55.4	-57.5	16.0	0.00e+00	0	35	0	608174080	77	4481
2026-01-01 07:38:03.67	53.06	34.33	-55.3	-57.3	16.1	0.00e+00	0	35	0	615514112	77	4391
2026-01-01 07:38:07.67	51.56	34.59	-55.1	-57.2	16.2	0.00e+00	0	35	0	622854144	76	4547
2026-01-01 07:38:11.66	50.04	34.83	-54.8	-56.7	16.5	0.00e+00	0	35	0	630194176	76	4296
2026-01-01 07:38:15.66	48.50	35.05	-54.4	-56.2	16.7	0.00e+00	0	35	0	637534208	75	4318
2026-01-01 07:38:19.64	46.94	35.24	-53.9	-55.6	17.0	0.00e+00	0	35	0	644874240	74	4249
2026-01-01 07:38:23.64	45.36	35.41	-54.0	-55.7	16.9	0.00e+00	0	35	0	652214272	74	4306
2026-01-01 07:38:27.63	43.77	35.56	-53.8	-55.5	17.0	0.00e+00	0	35	0	660602880	74	4202
2026-01-01 07:38:31.62	42.16	35.68	-53.5	-55.1	17.1	0.00e+00	0	35	0	667942912	73	4267
2026-01-01 07:38:35.60	40.55	35.78	-54.1	-55.9	16.8	0.00e+00	0	35	0	675282944	73	4652
2026-01-01 07:38:39.58	38.92	35.85	-54.3	-56.2	16.7	0.00e+00	0	35	0	682622976	74	4547
2026-01-01 07:38:43.57	37.29	35.89	-54.3	-56.0	16.8	0.00e+00	0	35	0	689963008	74	4479
2026-01-01 07:38:47.57	35.65	35.91	-54.7	-56.6	16.5	0.00e+00	0	35	0	697303040	74	4802
2026-01-01 07:38:51.56	34.02	35.90	-54.4	-56.2	16.7	0.00e+00	0	35	0	704643072	74	4591
2026-01-01 07:38:55.54	32.39	35.86	-55.2	-57.3	16.2	0.00e+00	0	35	0	713031680	75	4876
2026-01-01 07:38:59.54	30.76	35.80	-55.1	-57.1	16.3	0.00e+00	0	35	0	720371712	75	4767
2026-01-01 07:39:03.53	29.14	35.71	-55.8	-58.0	15.7	0.00e+00	0	35	0	727711744	76	5034
2026-01-01 07:39:07.52	27.53	35.60	-56.2	-58.5	15.3	0.00e+00	0	35	0	735051776	77	5030
2026-01-01 07:39:11.53	25.93	35.46	-55.7	-57.9	15.9	0.00e+00	0	35	0	742391808	77	4691
2026-01-01 07:39:15.53	24.34	35.29	-56.3	-58.7	15.4	0.00e+00	0	35	0	749731840	77	5145
2026-01-01 07:39:19.54	22.77	35.11	-56.0	-58.3	15.6	0.00e+00	0	35	0	757071872	77	4886
2026-01-01 07:39:23.54	21.22	34.90	-56.2	-58.5	15.5	0.00e+00	0	35	0	765460480	77	5022
2026-01-01 07:39:27.54	19.69	34.66	-55.4	-57.4	16.2	0.00e+00	0	35	0	772800512	77	4413
2026-01-01 07:39:31.53	18.19	34.41	-55.3	-57.4	16.2	0.00e+00	0	35	0	780140544	76	4666
2026-01-01 07:39:35.53	16.71	34.14	-55.1	-57.1	16.3	0.00e+00	0	35	0	787480576	76	4533
2026-01-01 07:39:39.55	15.24	33.84	-55.3	-57.3	16.2	0.00e+00	0	35	0	794820608	76	4609
2026-01-01 07:39:43.53	13.82	33.53	-55.7	-57.9	15.9	0.00e+00	0	35	0	802160640	76	4960
2026-01-01 07:39:47.55	12.42	33.21	-56.0	-58.3	15.7	0.00e+00	0	35	0	810549248	77	4871
2026-01-01 07:39:51.55	11.04	32.86	-56.4	-58.9	15.3	0.00e+00	0	35	0	817889280	77	5253
2026-01-01 07:39:55.56	9.70	32.51	-56.5	-59.1	15.2	0.00e+00	0	35	0	825229312	78	5058
2026-01-01 07:39:59.56	8.39	32.14	-56.2	-58.6	15.5	0.00e+00	0	35	0	832569344	78	4796
2026-01-01 07:40:03.57	7.10	31.75	-56.3	-58.8	15.4	0.00e+00	0	35	0	839909376	78	4885
2026-01-01 07:40:07.56	5.85	31.36	-56.2	-58.5	15.5	0.00e+00	0	35	0	847249408	78	4752
2026-01-01 07:40:11.55	4.64	30.96	-56.1	-58.5	15.5	0.00e+00	0	35	0	854589440	78	4722
2026-01-01 07:40:15.57	3.44	30.55	-56.1	-58.5	15.5	0.00e+00	0	35	0	862978048	78	4713
2026-01-01 07:40:19.57	2.28	30.13	-56.1	-58.5	15.5	0.00e+00	0	35	0	870318080	78	4747
2026-01-01 07:40:23.58	1.15	29.70	-56.1	-58.4	15.6	0.00e+00	0	35	0	877658112	78	4678
2026-01-01 07:40:27.58	0.05	29.27	-55.8	-58.1	15.8	0.00e+00	0	35	0	884998144	78	4512
2026-01-01 07:40:31.58	358.98	28.84	-55.6	-57.7	15.9	0.00e+00	0	35	0	892338176	77	4589
2026-01-01 07:40:35.57	357.94	28.40	-54.9	-56.9	16.4	0.00e+00	0	35	0	899678208	76	4407
2026-01-01 07:40:39.57	356.93	27.96	-54.5	-56.4	16.6	0.00e+00	0	35	0	908066816	75	4400
2026-01-01 07:40:43.57	355.95	27.51	-54.0	-55.7	17.0	0.00e+00	0	35	0	915406848	74	4317
2026-01-01 07:40:47.54	355.00	27.07	-53.7	-55.3	17.1	0.00e+00	0	35	0	922746880	73	4391
2026-01-01 07:40:51.53	354.07	26.62	-53.8	-55.5	17.0	0.00e+00	0	35	0	930086912	73	4445
2026-01-01 07:40:55.51	353.17	26.17	-53.4	-55.1	17.2	0.00e+00	0	35	0	937426944	73	4246
2026-01-01 07:40:59.50	352.29	25.72	-53.4	-55.0	17.2	0.00e+00	0	35	0	944766976	73	4221
2026-01-01 07:41:03.49	351.44	25.27	-53.2	-54.8	17.3	0.00e+00	0	35	0	952107008	72	4351
2026-01-01 07:41:07.47	350.62	24.83	-53.3	-54.9	17.2	0.00e+00	0	35	0	959447040	72	4402
2026-01-01 07:41:11.45	349.82	24.38	-53.6	-55.3	17.0	0.00e+00	0	35	0	967835648	72	4617
2026-01-01 07:41:15.45	349.03	23.94	-53.7	-55.5	16.9	0.00e+00	0	35	0	975175680	72	4706
2026-01-01 07:41:19.45	348.27	23.49	-53.9	-55.6	16.9	0.00e+00	0	35	0	982515712	73	4512
2026-01-01 07:41:23.45	347.53	23.05	-53.8	-55.5	17.0	0.00e+00	0	35	0	989855744	73	4470
2026-01-01 07:41:27.45	346.82	22.61	-53.9	-55.6	16.9	0.00e+00	0	35	0	997195776	73	4510
2026-01-01 07:41:31.46	346.12	22.17	-53.9	-55.7	16.8	0.00e+00	0	35	0	1004535808	73	4556
2026-01-01 07:41:35.45	345.44	21.74	-54.0	-55.7	16.8	0.00e+00	0	35	0	1011875840	73	4595
2026-01-01 07:41:39.43	344.78	21.31	-54.1	-55.9	16.7	0.00e+00	0	35	0	1020264448	73	4684
2026-01-01 07:41:43.44	344.14	20.89	-54.5	-56.4	16.6	0.00e+00	0	35	0	1027604480	74	4654
2026-01-01 07:41:47.45	343.52	20.46	-54.7	-56.7	16.4	0.00e+00	0	35	0	1034944512	74	4843
2026-01-01 07:41:51.43	342.91	20.04	-54.8	-56.8	16.3	0.00e+00	0	35	0	1042284544	74	4899
2026-01-01 07:41:55.43	342.32	19.63	-54.6	-56.5	16.5	0.00e+00	0	35	0	1049624576	74	4759
2026-01-01 07:41:59.45	341.75	19.21	-54.6	-56.6	16.4	0.00e+00	0	35	0	1056964608	74	4769
2026-01-01 07:42:03.46	341.19	18.80	-54.8	-56.8	16.3	0.00e+00	0	35	0	1065353216	74	4904
2026-01-01 07:42:07.47	340.65	18.40	-55.0	-57.0	16.1	0.00e+00	0	35	0	1072693248	75	4742
2026-01-01 07:42:11.46	340.12	18.00	-54.9	-57.0	16.2	0.00e+00	0	35	0	1080033280	75	4716
2026-01-01 07:42:15.46	339.61	17.60	-54.7	-56.7	16.3	0.00e+00	0	35	0	1087373312	75	4592
2026-01-01 07:42:19.44	339.11	17.21	-54.7	-56.7	16.3	0.00e+00	0	35	0	1094713344	75	4557
2026-01-01 07:42:23.44	338.62	16.82	-54.7	-56.7	16.3	0.00e+00	0	35	0	1102053376	75	4549
2026-01-01 07:42:27.45	338.15	16.43	-54.6	-56.5	16.4	0.00e+00	0	35	0	1109393408	75	4486
2026-01-01 07:42:31.43	337.69	16.05	-54.8	-56.9	16.2	0.00e+00	0	35	0	1117782016	75	4654
2026-01-01 07:42:35.42	337.24	15.68	-55.1	-57.2	16.0	0.00e+00	0	35	0	1125122048	75	4837
2026-01-01 07:42:39.41	336.80	15.31	-55.0	-57.0	16.0	0.00e+00	0	35	0	1132462080	75	4751
2026-01-01 07:42:43.43	336.37	14.94	-54.9	-57.0	16.1	0.00e+00	0	35	0	1139802112	75	4727
2026-01-01 07:42:47.44	335.95	14.57	-54.7	-56.7	16.3	0.00e+00	0	35	0	1147142144	75	4590
2026-01-01 07:42:51.45	335.54	14.21	-54.8	-56.9	16.2	0.00e+00	0	35	0	1154482176	75	4654
2026-01-01 07:42:55.46	335.15	13.85	-54.9	-57.1	16.0	0.00e+00	0	35	0	1162870784	75	4763
2026-01-01 07:42:59.46	334.76	13.50	-55.2	-57.4	15.8	0.00e+00	0	35	0	1170210816	75	4972
2026-01-01 07:43:03.47	334.38	13.14	-55.4	-57.7	15.7	0.00e+00	0	35	0	1177550848	76	4834
2026-01-01 07:43:07.48	334.01	12.80	-55.4	-57.7	15.6	0.00e+00	0	35	0	1184890880	76	4865
2026-01-01 07:43:11.49	333.65	12.45	-55.6	-58.0	15.5	0.00e+00	0	35	0	1192230912	76	5003
2026-01-01 07:43:15.51	333.30	12.11	-55.5	-57.8	15.6	0.00e+00	0	35	0	1199570944	76	4895
2026-01-01 07:43:19.51	332.96	11.78	-55.5	-57.9	15.5	0.00e+00	0	35	0	1207959552	76	4947
2026-01-01 07:43:23.52	332.62	11.45	-55.6	-58.0	15.4	0.00e+00	0	35	0	1215299584	76	5040
2026-01-01 07:43:27.53	332.30	11.12	-55.8	-58.3	15.3	0.00e+00	0	35	0	1222639616	76	5164
2026-01-01 07:43:31.53	331.98	10.79	-56.0	-58.6	15.0	0.00e+00	0	35	0	1229979648	77	5055
2026-01-01 07:43:35.52	331.67	10.47	-56.1	-58.8	14.9	0.00e+00	0	35	0	1237319680	77	5177
2026-01-01 07:43:39.52	331.36	10.15	-56.0	-58.7	14.9	0.00e+00	0	35	0	1244659712	77	5127
2026-01-01 07:43:43.49	331.07	9.84	-55.9	-58.5	15.0	0.00e+00	0	35	0	1251999744	77	5029
2026-01-01 07:43:47.48	330.78	9.53	-56.0	-58.7	14.9	0.00e+00	0	35	0	1260388352	77	5110
2026-01-01 07:43:51.46	330.49	9.22	-56.1	-58.8	14.8	0.00e+00	0	35	0	1267728384	77	5198
2026-01-01 07:43:55.44	330.22	8.92	-56.3	-59.2	14.5	0.00e+00	0	35	0	1275068416	77	5423
2026-01-01 07:43:59.43	329.94	8.62	-56.4	-59.3	14.4	0.00e+00	0	35	0	1282408448	77	5497
2026-01-01 07:44:03.42	329.68	8.32	-56.4	-59.3	14.5	0.00e+00	0	35	0	1289748480	78	5172
2026-01-01 07:44:07.41	329.42	8.02	-56.3	-59.1	14.5	0.00e+00	0	35	0	1297088512	78	5090
2026-01-01 07:44:11.43	329.16	7.73	-56.4	-59.3	14.4	0.00e+00	0	35	0	1304428544	78	5195
2026-01-01 07:44:15.43	328.91	7.44	-56.5	-59.6	14.1	0.00e+00	0	35	0	1312817152	78	5381
2026-01-01 07:44:19.43	328.67	7.15	-56.6	-59.8	13.9	0.00e+00	0	35	0	1320157184	78	5515
2026-01-01 07:44:23.44	328.42	6.86	-56.6	-59.9	13.9	0.00e+00	0	35	0	1327497216	78	5535
2026-01-01 07:44:27.45	328.19	6.58	-56.8	-60.1	13.7	7.00e-07	0	35	0	1334837248	78	5685
2026-01-01 07:44:31.47	327.96	6.30	-56.9	-60.3	13.5	7.00e-07	0	35	0	1342177280	78	5797
2026-01-01 07:44:35.48	327.73	6.02	-56.9	-60.3	13.4	0.00e+00	0	35	0	1349517312	78	5832
2026-01-01 07:44:39.49	327.51	5.74	-56.9	-60.4	13.4	0.00e+00	0	35	0	1357905920	79	5534
2026-01-01 07:44:43.49	327.29	5.47	-56.9	-60.5	13.2	7.00e-07	0	35	0	1365245952	79	5640
2026-01-01 07:44:47.51	327.08	5.20	-56.9	-60.6	13.1	7.00e-07	0	35	0	1372585984	79	5676
2026-01-01 07:44:51.52	326.87	4.93	-60.5	-76.5	3.8	1.49e+00	0	35	104	1378877440	86	23642
2026-01-01 07:44:55.53	326.67	4.66	-61.5	-77.5	3.8	1.49e+00	0	35	104	1378877440	88	23762
2026-01-01 07:44:59.52	326.47	4.40	-62.0	-78.0	3.8	1.49e+00	0	35	104	1378877440	89	23678
2026-01-01 07:45:03.52	326.27	4.14	-62.2	-78.2	3.8	1.49e+00	0	35	104	1378877440	89	24253
2026-01-01 07:45:07.52	326.08	3.88	-62.3	-78.3	3.8	1.49e+00	0	35	104	1378877440	89	24547
2026-01-01 07:45:11.52	325.89	3.62	-62.4	-78.4	3.8	1.49e+00	0	35	104	1378877440	89	24745
2026-01-01 07:45:15.55	325.71	3.37	-62.2	-78.2	3.8	1.49e+00	0	35	104	1378877440	89	24386
2026-01-01 07:45:19.57	325.52	3.11	-62.2	-78.2	3.8	1.49e+00	0	35	104	1378877440	89	24287
2026-01-01 07:45:23.58	325.34	2.86	-62.2	-78.2	3.8	1.49e+00	0	35	104	1378877440	89	24175
2026-01-01 07:45:27.59	325.17	2.61	-62.1	-78.1	3.8	1.49e+00	0	35	104	1378877440	89	24050
2026-01-01 07:45:31.59	325.00	2.37	-62.1	-78.1	3.8	1.49e+00	0	35	104	1378877440	89	24033
2026-01-01 07:45:35.60	324.83	2.12	-62.1	-78.1	3.8	1.49e+00	0	35	104	1378877440	89	23956
2026-01-01 07:45:39.62	324.66	1.88	-62.0	-78.1	3.8	1.49e+00	0	35	104	1378877440	89	23902

#Closed at: 2026-01-01 07:45:40
#Recorded file [1378 MB]: D:/lorett/data/31004_260101_103159.dat