passes_logs/2026/01/01/R3.2S_Murmansk/R3.2S_Murmansk__20260101_093803_AQUA_rec.log

#Pass ID: 20260101_093803_AQUA
#Satellite: AQUA
#Configuration: AQUA
#almurnet v.1.7.20251203
#Start time: 2026-01-01 09:38:03

#Version: 2.2.20231116
#Station: R3.2S_Murmansk
#Location: 33.079688 lon 68.888172 lat
#TLE: 1 27424U 02022A   25365.92641127  .00002078  00000+0  42628-3 0  9999
#TLE: 2 27424  98.4058 327.1196 0001962  94.7781 340.6230 14.61783896258835

#Time	Az	El	Level	Level2	SNR	BER	BlckErr	Temp	State	Recorded	gain1	gain2
2026-01-01 09:38:03.61	113.05	2.03	-59.4	-78.8	3.8	7.45e-01	0	32	0	0	87	33716
2026-01-01 09:38:06.60	112.92	2.22	-59.4	-78.7	3.8	7.48e-01	0	32	104	0	86	35344
2026-01-01 09:38:09.58	112.78	2.42	-59.4	-78.5	3.8	7.45e-01	0	32	104	0	86	34650
2026-01-01 09:38:12.57	112.64	2.61	-59.4	-78.3	3.8	7.49e-01	0	32	104	0	86	33971
2026-01-01 09:38:15.56	112.50	2.80	-59.4	-78.6	3.8	7.44e-01	0	32	104	0	86	35273
2026-01-01 09:38:18.55	112.35	3.00	-59.4	-78.3	3.8	7.46e-01	0	32	104	0	86	34048
2026-01-01 09:38:21.53	112.21	3.20	-59.4	-77.4	3.8	7.48e-01	0	32	104	0	86	30465
2026-01-01 09:38:24.53	112.06	3.40	-59.4	-78.0	3.8	7.48e-01	0	32	104	0	86	32844
2026-01-01 09:38:27.52	111.91	3.60	-59.4	-78.0	3.8	7.43e-01	0	32	104	0	86	32667
2026-01-01 09:38:30.50	111.75	3.80	-59.4	-78.4	3.8	7.44e-01	0	32	104	0	86	34425
2026-01-01 09:38:33.48	111.60	4.00	-59.4	-76.6	3.9	7.42e-01	0	33	104	0	86	27910
2026-01-01 09:38:36.44	111.44	4.20	-59.0	-69.4	7.7	6.46e-01	79	33	0	2097152	86	12096
2026-01-01 09:38:39.42	111.28	4.41	-58.2	-65.1	11.5	6.13e-01	0	33	0	7864320	85	7869
2026-01-01 09:38:42.40	111.11	4.62	-57.0	-61.7	13.9	6.07e-01	0	33	0	13107200	83	5987
2026-01-01 09:38:45.40	110.95	4.83	-55.7	-59.1	15.4	6.06e-01	0	33	0	18874368	80	5274
2026-01-01 09:38:48.38	110.78	5.04	-54.2	-56.8	16.4	6.05e-01	0	33	0	24641536	77	4808
2026-01-01 09:38:51.38	110.60	5.25	-57.7	-63.1	12.5	6.09e-01	0	33	0	30408704	84	6625
2026-01-01 09:38:54.36	110.43	5.46	-52.9	-55.0	17.1	6.05e-01	0	33	0	35651584	74	4635
2026-01-01 09:38:57.34	110.25	5.68	-52.7	-54.8	17.1	6.06e-01	0	33	0	41418752	74	4503
2026-01-01 09:39:00.31	110.07	5.90	-52.9	-55.0	17.1	6.05e-01	0	33	0	46661632	74	4606
2026-01-01 09:39:03.29	109.89	6.11	-52.3	-54.3	17.3	6.09e-01	0	33	0	52428800	73	4496
2026-01-01 09:39:06.25	109.70	6.33	-52.4	-54.4	17.3	6.08e-01	0	33	0	58195968	73	4576
2026-01-01 09:39:09.23	109.51	6.56	-52.5	-54.5	17.2	6.04e-01	0	33	0	63438848	73	4643
2026-01-01 09:39:12.22	109.32	6.78	-52.4	-54.4	17.3	6.06e-01	0	33	0	69206016	73	4582
2026-01-01 09:39:15.19	109.12	7.01	-52.4	-54.4	17.3	6.07e-01	0	33	0	74973184	73	4552
2026-01-01 09:39:18.18	108.92	7.24	-52.4	-54.4	17.3	6.07e-01	0	33	0	80216064	73	4558
2026-01-01 09:39:21.16	108.71	7.47	-52.2	-54.2	17.4	6.05e-01	0	33	0	85983232	73	4442
2026-01-01 09:39:24.15	108.50	7.70	-52.1	-54.0	17.4	6.05e-01	0	33	0	91750400	73	4378
2026-01-01 09:39:27.12	108.29	7.93	-52.1	-54.0	17.4	6.07e-01	0	33	0	96993280	73	4344
2026-01-01 09:39:30.10	108.08	8.17	-51.9	-53.8	17.5	6.07e-01	0	33	0	102760448	72	4503
2026-01-01 09:39:33.09	107.86	8.41	-51.8	-53.6	17.5	6.07e-01	0	33	0	108527616	72	4436
2026-01-01 09:39:36.08	107.63	8.65	-51.7	-53.5	17.5	6.06e-01	0	33	0	113770496	72	4376
2026-01-01 09:39:39.06	107.40	8.89	-51.7	-53.5	17.5	6.06e-01	0	33	0	119537664	72	4349
2026-01-01 09:39:42.05	107.17	9.14	-51.5	-53.3	17.5	6.07e-01	0	33	0	125304832	72	4272
2026-01-01 09:39:45.03	106.93	9.38	-51.7	-53.5	17.5	6.05e-01	0	33	0	131072000	72	4348
2026-01-01 09:39:48.02	106.69	9.63	-51.5	-53.3	17.6	6.06e-01	0	33	0	136314880	72	4245
2026-01-01 09:39:51.00	106.44	9.89	-51.3	-53.1	17.7	6.06e-01	0	33	0	142082048	71	4400
2026-01-01 09:39:53.99	106.19	10.14	-51.5	-53.2	17.6	6.08e-01	0	33	0	147849216	71	4470
2026-01-01 09:39:56.96	105.94	10.40	-51.3	-53.1	17.6	6.05e-01	0	33	0	153092096	71	4403
2026-01-01 09:39:59.95	105.67	10.66	-51.4	-53.2	17.6	6.05e-01	0	33	0	158859264	71	4443
2026-01-01 09:40:02.94	105.41	10.92	-51.3	-53.0	17.7	6.06e-01	0	33	0	164626432	71	4388
2026-01-01 09:40:05.91	105.14	11.18	-51.3	-53.0	17.7	6.08e-01	0	33	0	169869312	71	4374
2026-01-01 09:40:08.90	104.86	11.45	-51.2	-52.8	17.7	6.06e-01	0	33	0	175636480	71	4288
2026-01-01 09:40:11.88	104.58	11.72	-51.1	-52.8	17.7	6.07e-01	0	33	0	181403648	71	4257
2026-01-01 09:40:14.86	104.29	11.99	-51.1	-52.8	17.7	6.06e-01	0	33	0	186646528	71	4267
2026-01-01 09:40:17.83	103.99	12.26	-51.1	-52.8	17.8	6.06e-01	0	33	0	192413696	71	4246
2026-01-01 09:40:20.80	103.69	12.54	-50.9	-52.5	17.8	6.05e-01	0	33	0	197656576	71	4145
2026-01-01 09:40:23.78	103.38	12.82	-50.9	-52.5	17.8	6.07e-01	0	33	0	203423744	71	4140
2026-01-01 09:40:26.76	103.07	13.10	-50.9	-52.6	17.8	6.06e-01	0	33	0	209190912	70	4396
2026-01-01 09:40:29.74	102.75	13.39	-50.8	-52.5	17.8	6.08e-01	0	33	0	214433792	70	4345
2026-01-01 09:40:32.72	102.42	13.67	-50.7	-52.3	17.8	6.05e-01	0	33	0	220200960	70	4283
2026-01-01 09:40:35.69	102.09	13.96	-50.7	-52.3	17.8	6.07e-01	0	33	0	225968128	70	4252
2026-01-01 09:40:38.67	101.75	14.26	-50.7	-52.3	17.8	6.08e-01	0	33	0	231211008	70	4246
2026-01-01 09:40:41.65	101.40	14.56	-50.6	-52.2	17.8	6.04e-01	0	33	0	236978176	70	4205
2026-01-01 09:40:44.63	101.04	14.86	-50.5	-52.1	17.9	6.06e-01	0	33	0	242745344	70	4185
2026-01-01 09:40:47.61	100.68	15.16	-50.3	-51.9	17.9	6.07e-01	0	33	0	247988224	69	4321
2026-01-01 09:40:50.59	100.30	15.46	-50.4	-52.0	17.8	6.05e-01	0	33	0	253755392	69	4351
2026-01-01 09:40:53.57	99.92	15.77	-50.4	-52.0	17.8	6.07e-01	0	33	0	259522560	69	4361
2026-01-01 09:40:56.55	99.53	16.09	-50.5	-52.1	17.8	6.05e-01	0	33	0	264765440	69	4398
2026-01-01 09:40:59.53	99.13	16.40	-50.5	-52.0	17.8	6.06e-01	0	33	0	270532608	69	4387
2026-01-01 09:41:02.51	98.72	16.72	-50.8	-62.1	3.8	7.48e-01	0	33	104	275775488	69	14004
2026-01-01 09:41:05.48	98.30	17.04	-50.8	-62.0	3.8	7.45e-01	0	34	104	275775488	69	13875
2026-01-01 09:41:08.46	97.88	17.37	-55.0	-66.9	4.0	7.42e-01	0	34	104	275775488	79	13689
2026-01-01 09:41:11.44	97.44	17.69	-51.6	-62.9	3.9	7.49e-01	0	34	104	275775488	72	12956
2026-01-01 09:41:14.43	96.99	18.03	-52.8	-64.2	3.8	7.41e-01	0	34	104	275775488	73	14150
2026-01-01 09:41:17.41	96.53	18.36	-56.6	-69.3	3.9	7.47e-01	0	34	104	275775488	82	15147
2026-01-01 09:41:20.39	96.06	18.70	-52.6	-63.9	3.9	7.37e-01	0	34	104	275775488	74	12820
2026-01-01 09:41:23.38	95.57	19.04	-50.8	-61.9	3.8	7.47e-01	0	34	104	275775488	70	12947
2026-01-01 09:41:26.36	95.08	19.38	-55.7	-67.9	3.9	7.47e-01	0	34	104	275775488	80	14486
2026-01-01 09:41:29.34	94.57	19.73	-51.5	-62.7	3.8	7.45e-01	0	33	104	275775488	72	12624
2026-01-01 09:41:32.30	94.06	20.08	-51.4	-62.7	3.8	7.44e-01	0	34	104	275775488	71	13289
2026-01-01 09:41:35.28	93.53	20.43	-56.2	-68.8	3.9	7.47e-01	0	34	104	275775488	81	15137
2026-01-01 09:41:38.26	92.98	20.78	-51.7	-63.0	3.8	7.45e-01	0	34	104	275775488	72	13065
2026-01-01 09:41:41.24	92.43	21.14	-51.6	-62.9	3.8	7.42e-01	0	34	104	275775488	72	12847
2026-01-01 09:41:44.22	91.85	21.50	-56.6	-69.4	3.8	7.46e-01	0	33	104	275775488	82	15229
2026-01-01 09:41:47.20	91.27	21.87	-51.7	-63.0	3.8	7.46e-01	0	34	104	275775488	72	13035
2026-01-01 09:41:50.19	90.67	22.23	-51.0	-62.2	3.8	7.45e-01	0	34	104	275775488	71	12617
2026-01-01 09:41:53.18	90.05	22.60	-56.8	-69.7	3.9	7.43e-01	0	34	104	275775488	82	15825
2026-01-01 09:41:56.15	89.42	22.97	-51.9	-63.1	3.8	7.46e-01	0	34	104	275775488	72	13236
2026-01-01 09:41:59.14	88.77	23.35	-51.9	-63.2	3.9	7.45e-01	0	34	104	275775488	72	13315
2026-01-01 09:42:02.12	88.10	23.72	-57.1	-70.2	3.9	7.45e-01	0	34	104	275775488	82	16736
2026-01-01 09:42:05.10	87.42	24.10	-51.9	-63.2	3.8	7.43e-01	0	34	104	275775488	72	13307
2026-01-01 09:42:08.08	86.72	24.48	-51.5	-62.8	3.8	7.45e-01	0	34	104	275775488	71	13489
2026-01-01 09:42:11.07	86.00	24.86	-57.5	-70.8	3.8	7.46e-01	0	34	104	275775488	83	16949
2026-01-01 09:42:14.04	85.27	25.24	-51.9	-63.2	3.8	7.44e-01	0	34	104	275775488	73	12591
2026-01-01 09:42:17.02	84.51	25.62	-50.9	-62.1	3.9	7.43e-01	0	34	104	275775488	71	12516
2026-01-01 09:42:20.00	83.74	26.00	-57.6	-70.8	3.8	7.46e-01	0	34	104	275775488	82	18060
2026-01-01 09:42:22.99	82.94	26.38	-51.8	-63.1	3.8	7.43e-01	0	34	104	275775488	72	13171
2026-01-01 09:42:25.98	82.13	26.77	-51.6	-62.9	3.8	7.44e-01	0	34	104	275775488	72	12839
2026-01-01 09:42:28.96	81.29	27.15	-57.6	-70.9	3.8	7.45e-01	0	34	104	275775488	82	18110
2026-01-01 09:42:31.94	80.44	27.53	-50.9	-62.1	3.8	7.43e-01	0	34	104	275775488	71	12391
2026-01-01 09:42:34.90	79.56	27.90	-50.7	-61.9	3.8	7.47e-01	0	34	104	275775488	70	12866
2026-01-01 09:42:37.89	78.66	28.28	-57.6	-71.1	3.8	7.46e-01	0	34	104	275775488	83	17681
2026-01-01 09:42:40.87	77.74	28.65	-50.7	-61.9	3.8	7.44e-01	0	34	104	275775488	70	12822
2026-01-01 09:42:43.86	76.79	29.03	-50.5	-61.6	3.8	7.48e-01	0	34	104	275775488	70	12390
2026-01-01 09:42:46.85	75.83	29.40	-57.6	-70.8	3.8	7.43e-01	0	34	104	275775488	82	18018
2026-01-01 09:42:49.83	74.84	29.76	-50.7	-61.8	3.9	7.43e-01	0	34	104	275775488	70	12799
2026-01-01 09:42:52.80	73.83	30.12	-50.3	-61.4	3.9	7.44e-01	0	34	104	275775488	69	12875
2026-01-01 09:42:55.79	72.79	30.47	-57.4	-70.5	3.8	7.44e-01	0	34	104	275775488	82	17311
2026-01-01 09:42:58.75	71.73	30.82	-51.4	-62.6	3.8	7.41e-01	0	34	104	275775488	72	12509
2026-01-01 09:43:01.73	70.65	31.16	-50.5	-61.6	3.9	7.46e-01	0	34	104	275775488	70	12516
2026-01-01 09:43:04.71	69.54	31.49	-57.4	-70.4	3.8	7.49e-01	0	34	104	275775488	82	17148
2026-01-01 09:43:07.69	68.41	31.82	-51.6	-62.8	3.9	7.43e-01	0	34	104	275775488	72	12760
2026-01-01 09:43:10.68	67.25	32.14	-50.8	-62.0	3.8	7.45e-01	0	34	104	275775488	70	12972
2026-01-01 09:43:13.65	66.08	32.44	-56.7	-69.5	3.8	7.46e-01	0	34	104	275775488	81	16416
2026-01-01 09:43:16.62	64.88	32.74	-52.0	-63.4	3.9	7.43e-01	0	34	104	275775488	73	12875
2026-01-01 09:43:19.62	63.65	33.02	-51.0	-62.2	3.9	7.45e-01	0	34	104	275775488	70	13285
2026-01-01 09:43:22.60	62.41	33.30	-56.5	-68.8	3.8	7.43e-01	0	34	104	275775488	80	16075
2026-01-01 09:43:25.58	61.14	33.56	-52.5	-63.9	3.9	7.46e-01	0	34	104	275775488	74	12901
2026-01-01 09:43:28.57	59.85	33.81	-51.2	-62.3	3.9	7.47e-01	0	34	104	275775488	71	12773
2026-01-01 09:43:31.57	58.54	34.04	-56.8	-69.5	3.8	7.45e-01	0	34	104	275775488	81	16414
2026-01-01 09:43:34.55	57.21	34.26	-52.6	-64.0	3.9	7.46e-01	0	34	104	275775488	74	13102
2026-01-01 09:43:37.51	55.88	34.46	-51.2	-62.4	3.8	7.45e-01	0	34	104	275775488	71	12847
2026-01-01 09:43:40.49	54.52	34.64	-55.3	-67.4	3.8	7.46e-01	0	34	104	275775488	78	15363
2026-01-01 09:43:43.46	53.15	34.81	-53.3	-64.9	3.9	7.44e-01	0	34	104	275775488	76	12867
2026-01-01 09:43:46.44	51.76	34.96	-51.3	-62.4	3.9	7.45e-01	0	34	104	275775488	71	12942
2026-01-01 09:43:49.43	50.36	35.10	-54.2	-65.7	3.8	7.45e-01	0	34	104	275775488	75	14939
2026-01-01 09:43:52.41	48.95	35.21	-54.4	-66.3	3.9	7.43e-01	0	34	104	275775488	78	13531
2026-01-01 09:43:55.39	47.53	35.31	-51.4	-62.6	3.8	7.47e-01	0	34	104	275775488	71	13201
2026-01-01 09:43:58.37	46.10	35.38	-53.4	-64.9	3.8	7.47e-01	0	34	104	275775488	74	14419
2026-01-01 09:44:01.36	44.66	35.44	-54.3	-66.3	3.9	7.44e-01	0	34	104	275775488	78	13432
2026-01-01 09:44:04.33	43.23	35.47	-51.5	-62.7	3.8	7.45e-01	0	34	104	275775488	72	12533
2026-01-01 09:44:07.30	41.79	35.49	-52.2	-63.4	3.9	7.47e-01	0	34	104	275775488	72	13664
2026-01-01 09:44:10.29	40.35	35.48	-55.1	-67.1	3.8	7.47e-01	0	34	104	275775488	79	13922
2026-01-01 09:44:13.26	38.91	35.46	-51.7	-63.0	3.8	7.43e-01	0	34	104	275775488	72	13104
2026-01-01 09:44:16.25	37.47	35.41	-52.0	-63.3	3.8	7.44e-01	0	34	104	275775488	72	13473
2026-01-01 09:44:19.22	36.05	35.35	-55.5	-67.6	3.9	7.44e-01	0	34	104	275775488	80	13979
2026-01-01 09:44:22.20	34.62	35.26	-51.6	-62.9	3.9	7.43e-01	0	34	104	275775488	72	12923
2026-01-01 09:44:25.19	33.20	35.16	-51.8	-63.0	3.9	7.43e-01	0	34	104	275775488	72	13039
2026-01-01 09:44:28.18	31.79	35.03	-55.7	-67.8	3.9	7.46e-01	0	34	104	275775488	80	14354
2026-01-01 09:44:31.16	30.40	34.89	-51.6	-62.8	3.8	7.45e-01	0	34	104	275775488	72	12796
2026-01-01 09:44:34.15	29.02	34.73	-51.7	-63.1	3.8	7.47e-01	0	34	104	275775488	72	13135
2026-01-01 09:44:37.14	27.65	34.55	-55.9	-68.1	3.8	7.45e-01	0	34	104	275775488	80	14719
2026-01-01 09:44:40.12	26.30	34.36	-51.8	-63.1	3.8	7.42e-01	0	34	104	275775488	72	13155
2026-01-01 09:44:43.09	24.97	34.15	-51.7	-63.0	3.8	7.44e-01	0	34	104	275775488	72	12968
2026-01-01 09:44:46.07	23.66	33.93	-55.9	-68.2	3.8	7.41e-01	0	34	104	275775488	80	14903
2026-01-01 09:44:49.03	22.37	33.69	-51.7	-62.9	3.9	7.46e-01	0	34	104	275775488	72	12866
2026-01-01 09:44:52.00	21.10	33.44	-51.6	-62.8	3.9	7.42e-01	0	34	104	275775488	72	12786
2026-01-01 09:44:54.98	19.85	33.17	-56.0	-68.2	3.8	7.48e-01	0	34	104	275775488	79	15781
2026-01-01 09:44:57.97	18.61	32.89	-51.7	-62.7	3.9	7.41e-01	0	34	104	275775488	72	12595
2026-01-01 09:45:00.96	17.40	32.60	-51.8	-63.0	3.8	7.43e-01	0	34	104	275775488	72	13039
2026-01-01 09:45:03.94	16.21	32.30	-55.7	-67.7	3.8	7.44e-01	0	34	104	275775488	79	14912
2026-01-01 09:45:06.93	15.04	31.99	-52.0	-63.4	3.9	7.42e-01	0	34	104	275775488	73	12867
2026-01-01 09:45:09.91	13.90	31.66	-51.7	-63.0	3.9	7.44e-01	0	34	104	275775488	72	13003
2026-01-01 09:45:12.89	12.78	31.34	-55.5	-67.4	3.8	7.45e-01	0	34	104	275775488	78	15291
2026-01-01 09:45:15.88	11.69	31.00	-51.7	-62.9	3.9	7.44e-01	0	34	104	275775488	72	12866
2026-01-01 09:45:18.85	10.62	30.66	-51.7	-62.8	3.9	7.43e-01	0	34	104	275775488	72	12726
2026-01-01 09:45:21.83	9.57	30.31	-54.9	-66.7	3.8	7.46e-01	0	34	104	275775488	77	14991
2026-01-01 09:45:24.81	8.55	29.95	-51.8	-63.0	3.9	7.43e-01	0	34	104	275775488	72	13109
2026-01-01 09:45:27.80	7.55	29.59	-51.7	-62.8	3.9	7.45e-01	0	34	104	275775488	72	12747
2026-01-01 09:45:30.78	6.57	29.22	-54.8	-66.9	3.8	7.44e-01	0	34	104	275775488	77	15277
2026-01-01 09:45:33.77	5.62	28.85	-51.7	-62.8	3.8	7.44e-01	0	34	104	275775488	72	12771
2026-01-01 09:45:36.73	4.69	28.48	-52.1	-63.4	3.8	7.45e-01	0	34	104	275775488	73	12923
2026-01-01 09:45:39.71	3.78	28.11	-54.3	-66.0	3.9	7.46e-01	0	34	104	275775488	76	14671
2026-01-01 09:45:42.69	2.90	27.73	-51.9	-63.3	3.8	7.44e-01	0	34	104	275775488	73	12679
2026-01-01 09:45:45.67	2.03	27.36	-52.1	-63.4	3.8	7.45e-01	0	34	104	275775488	73	12937
2026-01-01 09:45:48.65	1.19	26.98	-53.0	-64.0	3.8	7.45e-01	0	34	104	275775488	73	13829
2026-01-01 09:45:51.63	0.37	26.60	-52.0	-63.1	3.8	7.46e-01	0	34	104	275775488	73	12506
2026-01-01 09:45:54.61	359.56	26.22	-52.8	-64.0	3.9	7.47e-01	0	34	104	275775488	74	13084
2026-01-01 09:45:57.58	358.79	25.84	-52.6	-63.9	3.8	7.46e-01	0	34	104	275775488	73	13606
2026-01-01 09:46:00.55	358.03	25.46	-51.9	-63.1	3.8	7.45e-01	0	34	104	275775488	72	13227
2026-01-01 09:46:03.51	357.29	25.08	-52.6	-64.0	3.9	7.43e-01	0	34	104	275775488	74	13032
2026-01-01 09:46:06.50	356.56	24.70	-52.2	-63.4	3.8	7.46e-01	0	34	104	275775488	73	12940
2026-01-01 09:46:09.49	355.85	24.32	-52.4	-63.6	3.8	7.43e-01	0	34	104	275775488	73	13188
2026-01-01 09:46:12.47	355.16	23.95	-53.4	-64.8	3.8	7.44e-01	0	34	104	275775488	76	12762
2026-01-01 09:46:15.45	354.49	23.57	-52.3	-63.6	3.9	7.42e-01	0	34	104	275775488	73	13244
2026-01-01 09:46:18.43	353.83	23.20	-52.0	-63.5	3.8	7.44e-01	0	34	104	275775488	73	13086
2026-01-01 09:46:21.40	353.20	22.83	-52.7	-64.0	3.8	7.46e-01	0	34	104	275775488	74	13067
2026-01-01 09:46:24.37	352.58	22.46	-52.8	-63.9	3.9	7.46e-01	0	34	104	275775488	74	12893
2026-01-01 09:46:27.35	351.97	22.09	-51.9	-63.4	3.9	7.43e-01	0	34	104	275775488	73	12894
2026-01-01 09:46:30.32	351.38	21.73	-53.0	-64.4	3.8	7.44e-01	0	34	104	275775488	75	12915
2026-01-01 09:46:33.29	350.80	21.37	-54.1	-65.7	3.9	7.45e-01	0	34	104	275775488	77	13384
2026-01-01 09:46:36.26	350.24	21.01	-52.0	-63.4	3.8	7.48e-01	0	34	104	275775488	73	12882
2026-01-01 09:46:39.25	349.69	20.66	-52.9	-64.4	3.8	7.45e-01	0	34	104	275775488	74	13669
2026-01-01 09:46:42.23	349.15	20.30	-54.9	-67.1	3.8	7.49e-01	0	34	104	275775488	79	14018
2026-01-01 09:46:45.22	348.63	19.95	-51.8	-63.0	3.9	7.46e-01	0	34	104	275775488	72	13059
2026-01-01 09:46:48.20	348.12	19.61	-52.9	-64.3	3.8	7.46e-01	0	34	104	275775488	74	13507
2026-01-01 09:46:51.17	347.62	19.26	-55.6	-68.0	3.8	7.43e-01	0	34	104	275775488	80	14626
2026-01-01 09:46:54.14	347.14	18.92	-52.0	-63.3	3.8	7.45e-01	0	34	104	275775488	73	12738
2026-01-01 09:46:57.13	346.66	18.58	-53.2	-64.5	3.9	7.44e-01	0	34	104	275775488	74	13757
2026-01-01 09:47:00.11	346.20	18.25	-56.3	-69.5	3.9	7.42e-01	0	34	104	275775488	82	15530
2026-01-01 09:47:03.09	345.74	17.92	-51.7	-62.9	3.8	7.46e-01	0	34	104	275775488	72	12903
2026-01-01 09:47:06.07	345.30	17.59	-51.5	-53.1	17.8	6.03e-01	0	34	0	279445504	71	4440
2026-01-01 09:47:09.04	344.87	17.26	-51.3	-53.0	17.8	6.05e-01	0	34	0	284688384	71	4370
2026-01-01 09:47:12.02	344.45	16.94	-51.1	-52.8	17.8	6.03e-01	0	34	0	290455552	71	4259
2026-01-01 09:47:15.00	344.03	16.62	-51.2	-52.8	17.9	6.02e-01	0	34	0	296222720	71	4265
2026-01-01 09:47:17.98	343.63	16.30	-51.3	-52.9	17.9	6.02e-01	0	34	0	301465600	71	4331
2026-01-01 09:47:20.97	343.24	15.99	-51.4	-53.1	17.8	6.04e-01	0	34	0	307232768	71	4424
2026-01-01 09:47:23.95	342.85	15.68	-51.4	-53.1	17.8	6.02e-01	0	34	0	312999936	71	4441
2026-01-01 09:47:26.93	342.47	15.37	-51.2	-52.8	17.9	6.03e-01	0	34	0	318242816	71	4264
2026-01-01 09:47:29.91	342.11	15.07	-51.4	-53.0	17.8	6.05e-01	0	34	0	324009984	71	4376
2026-01-01 09:47:32.89	341.75	14.77	-51.6	-53.3	17.7	6.04e-01	0	34	0	329777152	71	4530
2026-01-01 09:47:35.86	341.40	14.47	-51.3	-53.0	17.8	6.04e-01	0	34	0	335020032	71	4356
2026-01-01 09:47:38.83	341.05	14.18	-51.3	-53.0	17.8	6.03e-01	0	34	0	340787200	71	4356
2026-01-01 09:47:41.81	340.72	13.88	-51.5	-53.2	17.8	6.05e-01	0	34	0	346030080	71	4492
2026-01-01 09:47:44.79	340.39	13.60	-51.6	-53.4	17.7	6.03e-01	0	34	0	351797248	71	4568
2026-01-01 09:47:47.76	340.06	13.31	-51.5	-53.3	17.7	6.04e-01	0	34	0	357564416	71	4498
2026-01-01 09:47:50.73	339.75	13.03	-51.6	-53.3	17.7	6.03e-01	0	34	0	362807296	71	4515
2026-01-01 09:47:53.70	339.44	12.75	-51.5	-53.3	17.7	6.04e-01	0	34	0	368574464	71	4512
2026-01-01 09:47:56.69	339.14	12.47	-51.7	-53.4	17.7	6.03e-01	0	34	0	374341632	71	4572
2026-01-01 09:47:59.66	338.84	12.19	-51.8	-53.5	17.7	6.05e-01	0	34	0	379584512	71	4649
2026-01-01 09:48:02.65	338.55	11.92	-51.9	-53.7	17.6	6.03e-01	0	34	0	385351680	71	4750
2026-01-01 09:48:05.63	338.26	11.65	-51.8	-53.6	17.6	6.05e-01	0	34	0	391118848	71	4654
2026-01-01 09:48:08.61	337.98	11.38	-51.7	-53.5	17.7	6.06e-01	0	34	0	396361728	71	4609
2026-01-01 09:48:11.28	337.74	11.15	-51.9	-53.7	17.6	6.03e-01	0	34	0	402128896	71	4736
2026-01-01 09:48:14.73	337.43	10.84	-51.9	-53.7	17.6	6.02e-01	0	34	0	408420352	71	4748
2026-01-01 09:48:17.44	337.19	10.61	-51.9	-53.7	17.6	6.04e-01	0	34	0	413663232	71	4710
2026-01-01 09:48:20.73	336.91	10.32	-51.8	-53.6	17.6	6.03e-01	0	34	0	419954688	71	4662
2026-01-01 09:48:23.45	336.68	10.09	-51.9	-53.7	17.6	6.04e-01	0	34	0	424673280	71	4751
2026-01-01 09:48:26.67	336.41	9.82	-52.1	-54.0	17.5	6.03e-01	0	34	0	430964736	72	4642
2026-01-01 09:48:29.50	336.18	9.58	-52.2	-54.1	17.5	6.05e-01	0	34	0	436207616	72	4685
2026-01-01 09:48:32.62	335.93	9.32	-52.1	-54.0	17.5	6.04e-01	0	34	0	441974784	72	4618
2026-01-01 09:48:35.47	335.71	9.09	-52.2	-54.0	17.5	6.05e-01	0	34	0	447217664	72	4646
2026-01-01 09:48:38.59	335.47	8.83	-52.0	-53.8	17.6	6.02e-01	0	34	0	453509120	72	4511
2026-01-01 09:48:41.43	335.25	8.60	-52.1	-54.0	17.6	6.03e-01	0	34	0	458752000	72	4612
2026-01-01 09:48:44.56	335.02	8.35	-52.2	-54.1	17.5	6.01e-01	0	34	0	464519168	72	4658
2026-01-01 09:48:47.39	334.81	8.13	-52.3	-54.2	17.4	6.03e-01	0	34	0	469762048	72	4749
2026-01-01 09:48:50.51	334.59	7.88	-52.4	-54.3	17.4	6.02e-01	0	34	0	475529216	72	4789
2026-01-01 09:48:53.35	334.39	7.66	-52.3	-54.2	17.5	6.02e-01	0	34	0	480772096	72	4745
2026-01-01 09:48:56.48	334.18	7.42	-52.5	-54.5	17.3	6.03e-01	0	34	0	487063552	72	4913
2026-01-01 09:48:59.31	333.99	7.20	-52.5	-54.5	17.4	6.03e-01	0	34	0	492306432	72	4895
2026-01-01 09:49:02.43	333.78	6.96	-52.7	-54.7	17.3	6.02e-01	0	34	0	498073600	73	4741
2026-01-01 09:49:05.27	333.59	6.75	-52.7	-54.8	17.3	6.03e-01	0	34	0	503316480	73	4772
2026-01-01 09:49:08.40	333.39	6.51	-52.7	-54.8	17.3	6.01e-01	0	34	0	509083648	73	4765
2026-01-01 09:49:11.25	333.21	6.30	-52.6	-54.7	17.3	6.04e-01	0	34	0	514326528	73	4743
2026-01-01 09:49:14.36	333.02	6.07	-52.9	-55.0	17.2	6.03e-01	0	34	0	520617984	73	4907
2026-01-01 09:49:17.20	332.85	5.87	-52.8	-55.0	17.2	6.03e-01	0	34	0	525860864	73	4876
2026-01-01 09:49:20.32	332.66	5.64	-52.9	-55.0	17.2	6.03e-01	0	34	0	531628032	73	4922
2026-01-01 09:49:23.15	332.50	5.44	-52.9	-55.0	17.2	6.02e-01	0	34	0	536870912	73	4915
2026-01-01 09:49:26.28	332.32	5.21	-52.9	-55.1	17.2	6.06e-01	0	34	0	542638080	73	4977
2026-01-01 09:49:29.11	332.16	5.01	-53.6	-56.0	17.0	6.05e-01	0	34	0	547880960	74	5197
2026-01-01 09:49:32.27	331.98	4.79	-60.6	-79.9	3.8	7.46e-01	0	34	104	548929536	88	36445
2026-01-01 09:49:35.15	331.82	4.59	-61.0	-80.4	3.8	7.47e-01	0	34	104	548929536	89	36286
2026-01-01 09:49:38.31	331.65	4.37	-61.3	-80.7	3.8	7.47e-01	0	34	104	548929536	90	35546
2026-01-01 09:49:41.18	331.50	4.17	-61.6	-80.9	3.8	7.43e-01	0	34	104	548929536	90	36430
2026-01-01 09:49:44.34	331.34	3.96	-61.6	-81.0	3.8	7.45e-01	0	34	104	548929536	91	34581
2026-01-01 09:49:47.19	331.19	3.77	-61.7	-81.0	3.8	7.49e-01	0	34	104	548929536	91	34682
2026-01-01 09:49:50.35	331.03	3.55	-61.7	-81.1	3.8	7.49e-01	0	34	104	548929536	91	35124
2026-01-01 09:49:53.19	330.89	3.37	-61.7	-81.0	3.8	7.47e-01	0	34	104	548929536	91	34804
2026-01-01 09:49:56.31	330.74	3.16	-61.6	-81.0	3.8	7.46e-01	0	34	104	548929536	91	34660
2026-01-01 09:49:59.15	330.60	2.97	-61.6	-80.9	3.8	7.46e-01	0	34	104	548929536	91	34390
2026-01-01 09:50:02.28	330.45	2.77	-61.6	-80.9	3.8	7.46e-01	0	34	104	548929536	91	34275
2026-01-01 09:50:05.12	330.32	2.58	-61.5	-80.9	3.8	7.48e-01	0	34	104	548929536	91	34113
2026-01-01 09:50:08.24	330.18	2.38	-61.5	-80.9	3.8	7.44e-01	0	34	104	548929536	91	34152
2026-01-01 09:50:11.08	330.05	2.20	-61.5	-80.8	3.8	7.44e-01	0	34	104	548929536	91	34078
2026-01-01 09:50:14.22	329.91	2.00	-61.5	-80.9	3.8	7.45e-01	0	34	104	548929536	91	34113

#Closed at: 2026-01-01 09:50:14
#Recorded file [548 MB]: D:/lorett/data/31004_260101_123803.dat