passes_logs/2026/01/01/R3.2S_Murmansk/R3.2S_Murmansk__20260101_064224_NOAA_21_JPSS-2_rec.log

#Pass ID: 20260101_064224_NOAA 21 (JPSS-2)
#Satellite: NOAA 21 (JPSS-2)
#Configuration: NOAA-21
#almurnet v.1.7.20251203
#Start time: 2026-01-01 06:42:26

#Version: 2.2.20231116
#Station: R3.2S_Murmansk
#Location: 33.079688 lon 68.888172 lat
#TLE: 1 54234U 22150A   25365.56321383  .00000202  00000+0  11656-3 0  9995
#TLE: 2 54234  98.7483 301.6387 0001318 355.6519   4.4646 14.19530385162769

#Time	Az	El	Level	Level2	SNR	BER	BlckErr	Temp	State	Recorded	gain1	gain2
2026-01-01 06:42:26.76	89.01	2.13	-59.8	-73.6	3.8	1.49e+00	0	33	0	0	86	16909
2026-01-01 06:42:30.75	88.79	2.37	-59.8	-73.5	3.8	1.49e+00	0	33	104	0	84	18910
2026-01-01 06:42:34.73	88.57	2.61	-59.8	-73.6	3.8	1.49e+00	0	33	104	0	84	18958
2026-01-01 06:42:38.73	88.34	2.85	-59.8	-73.6	3.8	1.49e+00	0	33	104	0	84	18959
2026-01-01 06:42:42.72	88.11	3.09	-59.8	-73.5	3.8	1.49e+00	0	33	104	0	84	18847
2026-01-01 06:42:46.72	87.87	3.33	-59.8	-73.5	3.8	1.49e+00	0	33	104	0	84	18781
2026-01-01 06:42:50.71	87.63	3.58	-59.8	-73.6	3.8	1.49e+00	0	34	104	0	84	18978
2026-01-01 06:42:54.72	87.38	3.82	-59.8	-73.5	3.8	1.49e+00	0	34	104	0	84	18862
2026-01-01 06:42:58.71	87.13	4.07	-59.8	-73.3	3.8	1.49e+00	0	34	104	0	84	18414
2026-01-01 06:43:02.71	86.88	4.32	-59.6	-71.3	3.9	1.49e+00	0	34	104	0	84	14604
2026-01-01 06:43:06.72	86.62	4.57	-59.2	-67.1	5.5	5.13e-01	0	34	0	2097152	84	8975
2026-01-01 06:43:10.72	86.35	4.83	-57.6	-62.0	9.6	9.65e-03	0	34	0	14680064	81	5984
2026-01-01 06:43:14.72	86.09	5.08	-57.1	-60.9	10.7	5.07e-04	0	34	0	27262976	80	5553
2026-01-01 06:43:18.71	85.81	5.34	-58.3	-64.0	8.0	2.20e-06	0	34	0	39845888	81	7538
2026-01-01 06:43:22.69	85.53	5.60	-54.1	-56.1	14.7	0.00e+00	0	34	0	52428800	74	4502
2026-01-01 06:43:26.68	85.25	5.86	-53.1	-54.8	15.5	0.00e+00	0	34	0	65011712	72	4352
2026-01-01 06:43:30.66	84.96	6.12	-53.1	-54.8	15.5	0.00e+00	0	34	0	77594624	72	4356
2026-01-01 06:43:34.64	84.67	6.38	-52.8	-54.5	15.8	0.00e+00	0	34	0	89128960	72	4197
2026-01-01 06:43:38.63	84.37	6.65	-52.8	-54.5	15.8	0.00e+00	0	35	0	101711872	72	4194
2026-01-01 06:43:42.62	84.06	6.92	-52.8	-54.5	15.7	0.00e+00	0	34	0	114294784	72	4204
2026-01-01 06:43:46.60	83.75	7.19	-53.1	-54.8	15.6	0.00e+00	0	35	0	126877696	72	4367
2026-01-01 06:43:50.60	83.44	7.46	-52.9	-54.5	15.8	0.00e+00	0	35	0	139460608	72	4232
2026-01-01 06:43:54.60	83.11	7.74	-52.7	-54.3	15.9	0.00e+00	0	35	0	152043520	71	4353
2026-01-01 06:43:58.58	82.78	8.01	-52.6	-54.2	16.0	0.00e+00	0	34	0	164626432	71	4314
2026-01-01 06:44:02.57	82.44	8.29	-52.5	-54.0	16.1	0.00e+00	0	35	0	177209344	71	4229
2026-01-01 06:44:06.58	82.10	8.57	-52.4	-53.9	16.2	0.00e+00	0	35	0	189792256	71	4174
2026-01-01 06:44:10.58	81.75	8.86	-52.4	-53.9	16.2	0.00e+00	0	35	0	201326592	71	4174
2026-01-01 06:44:14.57	81.39	9.14	-52.2	-53.7	16.3	0.00e+00	0	35	0	213909504	71	4083
2026-01-01 06:44:18.55	81.03	9.43	-52.3	-53.8	16.3	0.00e+00	0	35	0	226492416	70	4375
2026-01-01 06:44:22.55	80.65	9.72	-52.0	-53.5	16.4	0.00e+00	0	35	0	239075328	70	4212
2026-01-01 06:44:26.54	80.27	10.01	-52.0	-53.4	16.4	0.00e+00	0	35	0	251658240	70	4176
2026-01-01 06:44:30.51	79.89	10.30	-51.7	-53.1	16.6	0.00e+00	0	35	0	264241152	70	4025
2026-01-01 06:44:34.51	79.49	10.60	-51.7	-53.1	16.6	0.00e+00	0	35	0	276824064	69	4254
2026-01-01 06:44:38.51	79.08	10.90	-51.6	-53.0	16.7	0.00e+00	0	35	0	289406976	69	4232
2026-01-01 06:44:42.51	78.67	11.20	-51.4	-52.7	16.8	0.00e+00	0	35	0	301989888	69	4092
2026-01-01 06:44:46.50	78.25	11.50	-51.3	-52.6	16.9	0.00e+00	0	35	0	313524224	69	4028
2026-01-01 06:44:50.51	77.81	11.80	-51.1	-52.3	17.0	0.00e+00	0	35	0	327155712	68	4145
2026-01-01 06:44:54.52	77.37	12.11	-51.1	-52.4	17.0	0.00e+00	0	35	0	338690048	68	4163
2026-01-01 06:44:58.49	76.92	12.42	-51.0	-52.3	17.1	0.00e+00	0	35	0	351272960	68	4104
2026-01-01 06:45:02.50	76.46	12.73	-50.9	-52.1	17.1	0.00e+00	0	35	0	363855872	68	4039
2026-01-01 06:45:06.48	75.99	13.04	-50.8	-52.0	17.1	0.00e+00	0	35	0	376438784	68	4003
2026-01-01 06:45:10.48	75.51	13.36	-50.8	-52.1	17.2	0.00e+00	0	35	0	389021696	68	4015
2026-01-01 06:45:14.47	75.02	13.68	-51.0	-52.3	17.1	0.00e+00	0	35	0	401604608	68	4123
2026-01-01 06:45:18.46	74.52	14.00	-50.9	-52.1	17.2	0.00e+00	0	35	0	414187520	68	4046
2026-01-01 06:45:22.46	74.00	14.32	-50.9	-52.1	17.2	0.00e+00	0	35	0	426770432	68	4048
2026-01-01 06:45:26.43	73.48	14.64	-51.0	-52.3	17.1	0.00e+00	0	35	0	439353344	68	4114
2026-01-01 06:45:30.41	72.95	14.96	-51.2	-52.5	17.0	0.00e+00	0	35	0	450887680	68	4202
2026-01-01 06:45:34.40	72.40	15.29	-51.1	-52.4	17.1	0.00e+00	0	35	0	463470592	68	4172
2026-01-01 06:45:38.37	71.84	15.62	-51.0	-52.2	17.2	0.00e+00	0	35	0	476053504	68	4081
2026-01-01 06:45:42.36	71.27	15.95	-51.2	-52.5	17.0	0.00e+00	0	35	0	488636416	68	4207
2026-01-01 06:45:46.38	70.68	16.28	-51.1	-52.4	17.1	0.00e+00	0	35	0	501219328	68	4184
2026-01-01 06:45:50.37	70.08	16.61	-51.1	-52.4	17.2	0.00e+00	0	35	0	513802240	68	4147
2026-01-01 06:45:54.37	69.46	16.95	-51.1	-52.4	17.1	0.00e+00	0	35	0	526385152	68	4170
2026-01-01 06:45:58.38	68.83	17.28	-51.4	-52.7	17.0	0.00e+00	0	35	0	538968064	68	4306
2026-01-01 06:46:02.38	68.19	17.62	-51.3	-52.6	17.1	0.00e+00	0	35	0	551550976	68	4248
2026-01-01 06:46:06.38	67.53	17.96	-51.0	-52.3	17.2	0.00e+00	0	35	0	564133888	68	4127
2026-01-01 06:46:10.38	66.86	18.29	-51.1	-52.3	17.2	0.00e+00	0	35	0	575668224	68	4123
2026-01-01 06:46:14.38	66.17	18.63	-50.9	-52.1	17.3	0.00e+00	0	35	0	588251136	68	4051
2026-01-01 06:46:18.38	65.47	18.97	-50.5	-51.7	17.3	0.00e+00	0	35	0	600834048	67	4093
2026-01-01 06:46:22.37	64.75	19.31	-50.7	-51.9	17.3	0.00e+00	0	35	0	613416960	67	4174
2026-01-01 06:46:26.36	64.01	19.64	-50.4	-51.6	17.4	0.00e+00	0	35	0	625999872	67	4051
2026-01-01 06:46:30.35	63.26	19.98	-50.3	-51.5	17.5	0.00e+00	0	35	0	638582784	67	3981
2026-01-01 06:46:34.32	62.50	20.31	-50.4	-51.6	17.5	0.00e+00	0	35	0	651165696	67	4013
2026-01-01 06:46:38.31	61.71	20.65	-50.3	-51.5	17.5	0.00e+00	0	35	0	663748608	67	3969
2026-01-01 06:46:42.30	60.91	20.98	-50.1	-51.3	17.6	0.00e+00	0	35	0	676331520	66	4105
2026-01-01 06:46:46.29	60.09	21.31	-50.1	-51.3	17.5	0.00e+00	0	35	0	687865856	66	4126
2026-01-01 06:46:50.29	59.25	21.64	-50.1	-51.3	17.6	0.00e+00	0	35	0	700448768	66	4112
2026-01-01 06:46:54.28	58.40	21.97	-50.1	-51.2	17.6	0.00e+00	0	35	0	713031680	66	4091
2026-01-01 06:46:58.27	57.52	22.30	-50.1	-51.3	17.6	0.00e+00	0	35	0	725614592	66	4138
2026-01-01 06:47:02.26	56.63	22.62	-50.0	-51.1	17.6	0.00e+00	0	35	0	738197504	66	4046
2026-01-01 06:47:06.26	55.71	22.93	-50.2	-51.4	17.5	0.00e+00	0	35	0	750780416	66	4163
2026-01-01 06:47:10.24	54.79	23.25	-50.4	-51.6	17.5	0.00e+00	0	35	0	763363328	66	4269
2026-01-01 06:47:14.25	53.83	23.56	-50.6	-51.8	17.4	0.00e+00	0	35	0	775946240	66	4381
2026-01-01 06:47:18.25	52.86	23.86	-50.4	-51.6	17.5	0.00e+00	0	35	0	788529152	66	4250
2026-01-01 06:47:22.24	51.88	24.16	-50.4	-51.6	17.5	0.00e+00	0	35	0	801112064	66	4278
2026-01-01 06:47:26.23	50.87	24.45	-50.6	-51.8	17.4	0.00e+00	0	35	0	813694976	66	4384
2026-01-01 06:47:30.20	49.85	24.73	-50.7	-52.0	17.3	0.00e+00	0	35	0	825229312	66	4444
2026-01-01 06:47:34.19	48.81	25.01	-50.7	-51.9	17.4	0.00e+00	0	35	0	837812224	67	4186
2026-01-01 06:47:38.18	47.75	25.28	-50.6	-51.9	17.5	0.00e+00	0	35	0	850395136	67	4149
2026-01-01 06:47:42.19	46.66	25.54	-50.6	-51.8	17.4	0.00e+00	0	35	0	862978048	67	4144
2026-01-01 06:47:46.17	45.57	25.79	-50.6	-51.8	17.4	0.00e+00	0	35	0	875560960	67	4141
2026-01-01 06:47:50.16	44.45	26.04	-50.7	-51.9	17.4	0.00e+00	0	35	0	888143872	67	4185
2026-01-01 06:47:54.15	43.32	26.27	-50.7	-51.9	17.4	0.00e+00	0	35	0	900726784	67	4159
2026-01-01 06:47:58.17	42.16	26.49	-50.5	-51.7	17.5	0.00e+00	0	35	0	913309696	67	4085
2026-01-01 06:48:02.12	41.01	26.70	-50.3	-51.5	17.6	0.00e+00	0	35	0	925892608	67	3960
2026-01-01 06:48:06.13	39.83	26.90	-50.1	-51.3	17.7	0.00e+00	0	35	0	938475520	66	4119
2026-01-01 06:48:10.12	38.63	27.09	-50.4	-51.6	17.6	0.00e+00	0	35	0	950009856	66	4254
2026-01-01 06:48:14.11	37.43	27.27	-50.4	-51.6	17.6	0.00e+00	0	35	0	962592768	66	4247
2026-01-01 06:48:18.10	36.21	27.43	-50.3	-51.5	17.6	0.00e+00	0	35	0	975175680	66	4208
2026-01-01 06:48:22.11	34.97	27.58	-50.3	-51.5	17.6	0.00e+00	0	35	0	987758592	66	4221
2026-01-01 06:48:26.10	33.73	27.71	-50.3	-51.4	17.6	0.00e+00	0	35	0	1000341504	66	4178
2026-01-01 06:48:30.08	32.48	27.83	-50.3	-51.5	17.6	0.00e+00	0	35	0	1012924416	66	4210
2026-01-01 06:48:34.07	31.22	27.93	-50.4	-51.6	17.6	0.00e+00	0	35	0	1025507328	66	4282
2026-01-01 06:48:38.05	29.95	28.02	-50.5	-51.6	17.5	0.00e+00	0	35	0	1038090240	66	4288
2026-01-01 06:48:42.04	28.67	28.09	-50.6	-51.8	17.5	0.00e+00	0	35	0	1050673152	66	4361
2026-01-01 06:48:46.02	27.40	28.15	-50.3	-51.4	17.6	0.00e+00	0	35	0	1062207488	66	4187
2026-01-01 06:48:50.04	26.10	28.19	-50.4	-51.6	17.5	0.00e+00	0	35	0	1074790400	66	4258
2026-01-01 06:48:54.03	24.81	28.22	-50.3	-51.5	17.6	0.00e+00	0	35	0	1087373312	66	4225
2026-01-01 06:48:58.04	23.52	28.23	-50.2	-51.4	17.7	0.00e+00	0	35	0	1099956224	66	4147
2026-01-01 06:49:02.05	22.22	28.22	-50.3	-51.5	17.6	0.00e+00	0	35	0	1112539136	66	4227
2026-01-01 06:49:06.04	20.94	28.20	-50.2	-51.3	17.6	0.00e+00	0	35	0	1125122048	66	4124
2026-01-01 06:49:10.03	19.65	28.16	-50.0	-51.1	17.7	0.00e+00	0	35	0	1137704960	66	4038
2026-01-01 06:49:14.03	18.37	28.11	-50.3	-51.5	17.6	0.00e+00	0	35	0	1150287872	66	4210
2026-01-01 06:49:18.02	17.09	28.03	-50.2	-51.3	17.6	0.00e+00	0	35	0	1162870784	66	4129
2026-01-01 06:49:22.02	15.82	27.95	-50.5	-51.6	17.6	0.00e+00	0	35	0	1175453696	66	4291
2026-01-01 06:49:26.01	14.56	27.85	-50.3	-51.5	17.6	0.00e+00	0	35	0	1188036608	66	4217
2026-01-01 06:49:30.00	13.30	27.73	-50.4	-51.6	17.6	0.00e+00	0	35	0	1199570944	66	4282
2026-01-01 06:49:33.97	12.07	27.60	-50.3	-51.5	17.6	0.00e+00	0	35	0	1212153856	66	4226
2026-01-01 06:49:37.97	10.83	27.45	-50.7	-51.9	17.5	0.00e+00	0	35	0	1224736768	66	4394
2026-01-01 06:49:41.94	9.62	27.30	-50.6	-51.8	17.5	0.00e+00	0	35	0	1237319680	66	4370
2026-01-01 06:49:45.93	8.41	27.12	-51.0	-52.2	17.4	0.00e+00	0	35	0	1249902592	67	4322
2026-01-01 06:49:49.92	7.21	26.94	-51.0	-52.3	17.3	0.00e+00	0	35	0	1262485504	67	4358
2026-01-01 06:49:53.92	6.03	26.74	-50.9	-52.1	17.4	0.00e+00	0	35	0	1275068416	67	4277
2026-01-01 06:49:57.91	4.86	26.53	-50.9	-52.2	17.4	0.00e+00	0	35	0	1287651328	67	4302
2026-01-01 06:50:01.90	3.71	26.31	-50.7	-51.9	17.5	0.00e+00	0	35	0	1300234240	67	4190
2026-01-01 06:50:05.91	2.58	26.08	-50.5	-51.7	17.6	0.00e+00	0	35	0	1311768576	67	4061
2026-01-01 06:50:09.90	1.46	25.84	-50.3	-51.5	17.6	0.00e+00	0	35	0	1324351488	67	3959
2026-01-01 06:50:13.91	0.36	25.59	-50.1	-51.3	17.7	0.00e+00	0	35	0	1336934400	66	4100
2026-01-01 06:50:17.90	359.28	25.33	-50.3	-51.5	17.6	0.00e+00	0	35	0	1349517312	66	4198
2026-01-01 06:50:21.90	358.21	25.06	-49.9	-51.0	17.7	0.00e+00	0	35	0	1362100224	66	4001
2026-01-01 06:50:25.90	357.16	24.78	-50.4	-51.6	17.6	0.00e+00	0	35	0	1374683136	66	4248
2026-01-01 06:50:29.88	356.14	24.50	-50.2	-51.4	17.6	0.00e+00	0	35	0	1387266048	66	4168
2026-01-01 06:50:33.89	355.13	24.21	-50.3	-51.4	17.6	0.00e+00	0	35	0	1399848960	66	4185
2026-01-01 06:50:37.88	354.14	23.91	-50.4	-51.6	17.5	0.00e+00	0	35	0	1412431872	66	4278
2026-01-01 06:50:41.87	353.17	23.61	-50.0	-51.1	17.7	0.00e+00	0	35	0	1425014784	66	4034
2026-01-01 06:50:45.88	352.22	23.30	-50.3	-51.5	17.6	0.00e+00	0	35	0	1437597696	66	4230
2026-01-01 06:50:49.88	351.28	22.99	-50.3	-51.5	17.5	0.00e+00	0	35	0	1450180608	66	4223
2026-01-01 06:50:53.88	350.37	22.67	-50.5	-51.7	17.6	0.00e+00	0	35	0	1461714944	66	4299
2026-01-01 06:50:57.87	349.47	22.35	-50.7	-51.9	17.5	0.00e+00	0	35	0	1474297856	66	4416
2026-01-01 06:51:01.85	348.60	22.03	-50.3	-51.5	17.6	0.00e+00	0	35	0	1486880768	66	4206
2026-01-01 06:51:05.85	347.74	21.70	-50.3	-51.5	17.6	0.00e+00	0	35	0	1499463680	66	4196
2026-01-01 06:51:09.85	346.90	21.37	-50.4	-51.6	17.5	0.00e+00	0	35	0	1512046592	66	4268
2026-01-01 06:51:13.84	346.08	21.04	-50.5	-51.6	17.5	0.00e+00	0	35	0	1524629504	66	4285
2026-01-01 06:51:17.83	345.28	20.71	-50.8	-52.0	17.4	0.00e+00	0	35	0	1537212416	66	4453
2026-01-01 06:51:21.83	344.49	20.38	-50.6	-51.9	17.5	0.00e+00	0	35	0	1549795328	66	4392
2026-01-01 06:51:25.82	343.72	20.04	-50.4	-51.6	17.5	0.00e+00	0	35	0	1562378240	66	4276
2026-01-01 06:51:29.80	342.97	19.71	-50.4	-51.5	17.6	0.00e+00	0	35	0	1574961152	66	4240
2026-01-01 06:51:33.79	342.24	19.37	-50.1	-51.3	17.6	0.00e+00	0	35	0	1586495488	66	4122
2026-01-01 06:51:37.76	341.52	19.04	-50.2	-51.4	17.6	0.00e+00	0	35	0	1599078400	66	4159
2026-01-01 06:51:41.75	340.82	18.70	-50.4	-51.6	17.6	0.00e+00	0	35	0	1611661312	66	4261
2026-01-01 06:51:45.75	340.13	18.36	-50.6	-51.9	17.4	0.00e+00	0	35	0	1624244224	66	4399
2026-01-01 06:51:49.75	339.45	18.03	-50.9	-52.1	17.3	0.00e+00	0	35	0	1636827136	67	4271
2026-01-01 06:51:53.74	338.80	17.69	-50.8	-52.1	17.3	0.00e+00	0	35	0	1649410048	67	4255
2026-01-01 06:51:57.74	338.15	17.35	-50.9	-52.1	17.3	0.00e+00	0	35	0	1661992960	67	4287
2026-01-01 06:52:01.74	337.52	17.02	-51.1	-52.4	17.2	0.00e+00	0	35	0	1674575872	67	4428
2026-01-01 06:52:05.75	336.91	16.68	-51.0	-52.3	17.2	0.00e+00	0	35	0	1687158784	67	4380
2026-01-01 06:52:09.75	336.31	16.35	-50.6	-51.7	17.5	0.00e+00	0	35	0	1699741696	67	4097
2026-01-01 06:52:13.75	335.72	16.02	-50.9	-52.1	17.3	0.00e+00	0	35	0	1711276032	67	4262
2026-01-01 06:52:17.75	335.14	15.69	-51.3	-52.6	17.1	0.00e+00	0	35	0	1723858944	67	4525
2026-01-01 06:52:21.76	334.58	15.36	-50.9	-52.1	17.2	0.00e+00	0	35	0	1736441856	67	4268
2026-01-01 06:52:25.75	334.03	15.04	-50.7	-51.9	17.4	0.00e+00	0	35	0	1749024768	67	4179
2026-01-01 06:52:29.73	333.50	14.71	-50.9	-52.2	17.2	0.00e+00	0	36	0	1761607680	67	4313
2026-01-01 06:52:33.72	332.97	14.39	-51.2	-52.6	17.1	0.00e+00	0	35	0	1774190592	67	4495
2026-01-01 06:52:37.70	332.46	14.07	-51.2	-52.5	17.1	0.00e+00	0	35	0	1786773504	67	4479
2026-01-01 06:52:41.67	331.96	13.75	-50.7	-51.9	17.4	0.00e+00	0	35	0	1799356416	67	4168
2026-01-01 06:52:45.67	331.47	13.44	-50.6	-51.8	17.4	0.00e+00	0	35	0	1811939328	67	4106
2026-01-01 06:52:49.66	330.99	13.12	-51.0	-52.2	17.2	0.00e+00	0	36	0	1823473664	67	4335
2026-01-01 06:52:53.65	330.52	12.81	-51.7	-53.0	16.9	0.00e+00	0	35	0	1836056576	68	4486
2026-01-01 06:52:57.64	330.06	12.50	-51.6	-52.9	17.0	0.00e+00	0	35	0	1848639488	68	4427
2026-01-01 06:53:01.65	329.61	12.19	-51.0	-52.3	17.2	0.00e+00	0	35	0	1861222400	68	4108
2026-01-01 06:53:05.64	329.17	11.88	-51.1	-52.4	17.2	0.00e+00	0	35	0	1873805312	68	4161
2026-01-01 06:53:09.62	328.74	11.58	-51.7	-53.0	16.9	0.00e+00	0	35	0	1886388224	68	4483
2026-01-01 06:53:13.60	328.31	11.28	-52.2	-53.7	16.6	0.00e+00	0	35	0	1898971136	69	4547
2026-01-01 06:53:17.60	327.90	10.98	-52.2	-53.7	16.6	0.00e+00	0	35	0	1911554048	69	4560
2026-01-01 06:53:21.59	327.50	10.68	-52.0	-53.4	16.7	0.00e+00	0	36	0	1924136960	69	4420
2026-01-01 06:53:25.59	327.10	10.38	-51.9	-53.3	16.7	0.00e+00	0	36	0	1936719872	69	4376
2026-01-01 06:53:29.59	326.71	10.09	-52.1	-53.6	16.6	0.00e+00	0	36	0	1949302784	69	4509
2026-01-01 06:53:33.58	326.33	9.80	-52.4	-53.9	16.5	0.00e+00	0	36	0	1960837120	69	4668
2026-01-01 06:53:37.57	325.96	9.51	-52.7	-54.2	16.3	0.00e+00	0	36	0	1973420032	70	4562
2026-01-01 06:53:41.55	325.59	9.22	-52.8	-54.4	16.2	0.00e+00	0	36	0	1986002944	71	4425
2026-01-01 06:53:45.54	325.24	8.94	-52.8	-54.4	16.1	0.00e+00	0	36	0	1998585856	71	4420
2026-01-01 06:53:49.50	324.89	8.66	-52.8	-54.3	16.2	0.00e+00	0	36	0	2011168768	71	4388
2026-01-01 06:53:53.49	324.55	8.38	-52.6	-54.1	16.3	0.00e+00	0	36	0	2023751680	71	4271
2026-01-01 06:53:57.48	324.21	8.10	-52.8	-54.3	16.2	0.00e+00	0	36	0	2036334592	71	4380
2026-01-01 06:54:01.46	323.88	7.82	-53.0	-54.6	16.0	0.00e+00	0	36	0	2047868928	71	4526
2026-01-01 06:54:05.46	323.56	7.55	-53.2	-54.9	15.8	0.00e+00	0	36	0	2060451840	71	4695
2026-01-01 06:54:09.46	323.24	7.27	-53.3	-55.0	15.7	0.00e+00	0	36	0	2073034752	72	4493
2026-01-01 06:54:13.45	322.93	7.00	-53.3	-55.0	15.7	0.00e+00	0	36	0	2085617664	72	4457
2026-01-01 06:54:17.43	322.62	6.74	-53.1	-54.8	15.8	0.00e+00	0	35	0	2098200576	72	4376
2026-01-01 06:54:21.43	322.32	6.47	-53.1	-54.7	15.8	0.00e+00	0	36	0	2110783488	72	4321
2026-01-01 06:54:25.41	322.03	6.21	-53.0	-54.6	15.9	0.00e+00	0	35	0	2123366400	72	4266
2026-01-01 06:54:29.40	321.74	5.94	-53.1	-54.7	15.8	0.00e+00	0	35	0	2135949312	72	4337
2026-01-01 06:54:33.38	321.46	5.68	-53.4	-55.1	15.5	0.00e+00	0	36	0	2148532224	72	4520
2026-01-01 06:54:37.37	321.18	5.42	-53.5	-55.3	15.3	0.00e+00	0	35	0	2160066560	72	4640
2026-01-01 06:54:41.35	320.91	5.17	-53.7	-55.6	15.1	0.00e+00	0	36	0	2172649472	72	4769
2026-01-01 06:54:45.33	320.64	4.91	-60.8	-74.6	3.8	1.49e+00	0	35	104	2181038080	86	18999
2026-01-01 06:54:49.33	320.38	4.66	-61.7	-75.4	3.8	1.49e+00	0	35	104	2181038080	88	18680
2026-01-01 06:54:53.33	320.12	4.41	-62.1	-75.8	3.8	1.49e+00	0	36	104	2181038080	89	18447
2026-01-01 06:54:57.33	319.87	4.16	-62.3	-76.1	3.8	1.49e+00	0	35	104	2181038080	89	18990
2026-01-01 06:55:01.32	319.62	3.91	-62.1	-76.2	3.8	1.49e+00	0	36	104	2181038080	89	19170
2026-01-01 06:55:05.30	319.38	3.67	-62.3	-76.1	3.8	1.49e+00	0	36	104	2181038080	89	19018
2026-01-01 06:55:09.30	319.14	3.42	-62.3	-76.1	3.8	1.49e+00	0	36	104	2181038080	89	18949
2026-01-01 06:55:13.30	318.90	3.18	-62.2	-76.0	3.8	1.49e+00	0	36	104	2181038080	89	18880
2026-01-01 06:55:17.30	318.67	2.94	-62.2	-76.0	3.8	1.49e+00	0	36	104	2181038080	89	18761
2026-01-01 06:55:21.30	318.44	2.70	-62.2	-75.9	3.8	1.49e+00	0	36	104	2181038080	89	18659
2026-01-01 06:55:25.29	318.22	2.46	-62.1	-75.9	3.8	1.49e+00	0	36	104	2181038080	89	18603
2026-01-01 06:55:29.28	318.00	2.22	-62.1	-75.9	3.8	1.49e+00	0	36	104	2181038080	89	18561
2026-01-01 06:55:33.28	317.78	1.99	-62.1	-75.8	3.8	1.49e+00	0	36	104	2181038080	89	18517

#Closed at: 2026-01-01 06:55:35
#Recorded file [2181 MB]: D:/lorett/data/31004_260101_094226.dat