passes_logs/2026/01/01/R3.2S_Murmansk/R3.2S_Murmansk__20260101_220127_ZKG05_rec.log

#Pass ID: 20260101_220127_ZKG05
#Satellite: ZKG05
#Configuration: ZKG05
#almurnet v.1.7.20251203
#Start time: 2026-01-01 22:01:28

#Version: 2.2.20231116
#Station: R3.2S_Murmansk
#Location: 33.079688 lon 68.888172 lat
#TLE: 1 65263U 25180E   25363.54303023  .00006586  00000-0  34273-3 0  9994
#TLE: 2 65263  97.4772 128.0191 0001674  87.3453 272.7971 15.16366041 20011

#Time	Az	El	Level	Level2	SNR	BER	BlckErr	Temp	State	Recorded	gain1	gain2
2026-01-01 22:01:28.73	146.96	2.09	-58.8	-62.0	6.2	0.00e+00	0	38	0	0	84	20207
2026-01-01 22:01:31.74	146.92	2.30	-58.8	-62.0	6.2	0.00e+00	0	38	104	0	84	20276
2026-01-01 22:01:34.73	146.88	2.52	-58.8	-62.0	6.2	0.00e+00	0	38	104	0	84	20250
2026-01-01 22:01:37.72	146.84	2.73	-58.8	-62.0	6.2	0.00e+00	0	39	104	0	84	20249
2026-01-01 22:01:40.73	146.80	2.95	-58.8	-62.0	6.2	0.00e+00	0	39	104	0	84	20291
2026-01-01 22:01:43.75	146.76	3.17	-58.8	-62.0	6.2	0.00e+00	0	39	104	0	84	20322
2026-01-01 22:01:46.74	146.72	3.39	-58.9	-62.0	6.2	0.00e+00	0	39	104	0	84	20303
2026-01-01 22:01:49.74	146.68	3.61	-58.9	-62.0	6.2	0.00e+00	0	39	104	0	84	20305
2026-01-01 22:01:52.73	146.64	3.84	-58.8	-62.0	6.2	0.00e+00	0	39	104	0	84	20254
2026-01-01 22:01:55.71	146.59	4.07	-58.9	-62.0	6.2	0.00e+00	0	39	104	0	84	20298
2026-01-01 22:01:58.71	146.55	4.30	-58.8	-62.0	6.2	0.00e+00	0	40	104	0	84	20271
2026-01-01 22:02:01.70	146.50	4.53	-58.9	-62.0	6.2	0.00e+00	0	39	104	0	84	20366
2026-01-01 22:02:04.69	146.45	4.77	-58.9	-62.0	6.2	0.00e+00	0	40	104	0	84	20334
2026-01-01 22:02:07.69	146.40	5.01	-58.9	-62.0	6.2	0.00e+00	0	40	104	0	84	20315
2026-01-01 22:02:10.68	146.35	5.25	-59.1	-62.3	6.2	0.00e+00	0	40	104	0	84	21054
2026-01-01 22:02:13.67	146.30	5.49	-58.5	-61.6	6.2	0.00e+00	0	40	104	0	83	20555
2026-01-01 22:02:16.66	146.25	5.74	-57.9	-61.1	6.2	0.00e+00	0	40	104	0	82	20478
2026-01-01 22:02:19.66	146.19	5.99	-59.7	-62.8	6.2	0.00e+00	0	40	104	0	84	22341
2026-01-01 22:02:22.66	146.14	6.25	-59.4	-62.6	6.2	0.00e+00	0	40	104	0	84	21618
2026-01-01 22:02:25.67	146.08	6.51	-59.4	-62.6	6.2	0.00e+00	0	40	104	0	84	21645
2026-01-01 22:02:28.67	146.02	6.77	-59.7	-62.9	6.2	0.00e+00	0	41	104	0	84	22505
2026-01-01 22:02:31.67	145.96	7.03	-59.8	-62.9	6.2	0.00e+00	0	40	104	0	84	22594
2026-01-01 22:02:34.67	145.90	7.30	-59.7	-62.8	6.2	0.00e+00	0	40	104	0	84	22257
2026-01-01 22:02:37.67	145.84	7.57	-59.7	-62.9	6.2	0.00e+00	0	41	104	0	85	21121
2026-01-01 22:02:40.68	145.77	7.85	-59.7	-62.8	6.2	0.00e+00	0	41	104	0	85	21084
2026-01-01 22:02:43.67	145.70	8.13	-59.8	-63.0	6.2	0.00e+00	0	41	104	0	85	21419
2026-01-01 22:02:46.66	145.63	8.41	-59.7	-62.9	6.2	0.00e+00	0	41	104	0	85	21318
2026-01-01 22:02:49.64	145.56	8.70	-59.8	-62.9	6.2	0.00e+00	0	41	104	0	85	21324
2026-01-01 22:02:52.63	145.49	8.99	-59.8	-62.9	6.2	0.00e+00	0	41	104	0	85	21233
2026-01-01 22:02:55.63	145.42	9.29	-59.9	-63.1	6.2	0.00e+00	0	41	104	0	85	21630
2026-01-01 22:02:58.61	145.34	9.59	-59.8	-63.0	6.2	0.00e+00	0	41	104	0	85	21493
2026-01-01 22:03:01.61	145.26	9.89	-59.9	-63.0	6.2	0.00e+00	0	41	104	0	85	21597
2026-01-01 22:03:04.61	145.18	10.20	-59.9	-63.0	6.2	0.00e+00	0	41	104	0	85	21547
2026-01-01 22:03:07.62	145.10	10.52	-60.0	-63.1	6.2	0.00e+00	0	41	104	0	85	21773
2026-01-01 22:03:10.61	145.01	10.84	-59.9	-63.1	6.2	0.00e+00	0	41	104	0	85	21608
2026-01-01 22:03:13.61	144.92	11.17	-59.9	-63.1	6.2	0.00e+00	0	41	104	0	85	21704
2026-01-01 22:03:16.61	144.83	11.50	-59.9	-63.1	6.2	0.00e+00	0	41	104	0	85	21765
2026-01-01 22:03:19.62	144.73	11.85	-60.0	-63.2	6.2	0.00e+00	0	41	104	0	85	21915
2026-01-01 22:03:22.63	144.63	12.19	-60.0	-63.1	6.2	0.00e+00	0	41	104	0	85	21836
2026-01-01 22:03:25.64	144.53	12.55	-60.0	-63.2	6.2	0.00e+00	0	41	104	0	85	21930
2026-01-01 22:03:28.64	144.43	12.90	-60.0	-63.2	6.2	0.00e+00	0	41	104	0	85	22054
2026-01-01 22:03:31.64	144.32	13.27	-60.1	-63.3	6.2	0.00e+00	0	41	104	0	85	22205
2026-01-01 22:03:34.63	144.21	13.64	-60.1	-63.3	6.2	0.00e+00	0	41	104	0	85	22169
2026-01-01 22:03:37.64	144.10	14.02	-60.1	-63.3	6.2	0.00e+00	0	41	104	0	85	22317
2026-01-01 22:03:40.63	143.98	14.41	-60.1	-63.3	6.2	0.00e+00	0	41	104	0	85	22240
2026-01-01 22:03:43.62	143.86	14.80	-60.2	-63.3	6.2	0.00e+00	0	41	104	0	85	22319
2026-01-01 22:03:46.63	143.73	15.21	-60.2	-63.3	6.2	0.00e+00	0	41	104	0	85	22325
2026-01-01 22:03:49.62	143.60	15.62	-60.2	-63.3	6.2	0.00e+00	0	41	104	0	85	22316
2026-01-01 22:03:52.61	143.46	16.04	-60.2	-63.4	6.2	0.00e+00	0	41	104	0	85	22483
2026-01-01 22:03:55.60	143.32	16.47	-60.3	-63.5	6.2	0.00e+00	0	41	104	0	85	22653
2026-01-01 22:03:58.60	143.18	16.91	-60.3	-63.4	6.2	0.00e+00	0	42	104	0	86	21319
2026-01-01 22:04:01.59	143.03	17.36	-60.3	-63.5	6.2	0.00e+00	0	42	104	0	86	21365
2026-01-01 22:04:04.57	142.87	17.82	-60.3	-63.5	6.2	0.00e+00	0	41	104	0	86	21521
2026-01-01 22:04:07.56	142.71	18.29	-60.4	-63.5	6.2	0.00e+00	0	41	104	0	86	21558
2026-01-01 22:04:10.57	142.54	18.77	-60.4	-63.5	6.2	0.00e+00	0	42	104	0	86	21471
2026-01-01 22:04:13.57	142.36	19.26	-60.4	-63.6	6.2	0.00e+00	0	42	104	0	86	21652
2026-01-01 22:04:16.56	142.18	19.77	-60.4	-63.6	6.2	0.00e+00	0	41	104	0	86	21701
2026-01-01 22:04:19.57	141.99	20.29	-60.5	-63.6	6.2	0.00e+00	0	42	104	0	86	21821
2026-01-01 22:04:22.58	141.79	20.83	-60.5	-63.6	6.2	0.00e+00	0	42	104	0	86	21769
2026-01-01 22:04:25.57	141.58	21.37	-60.5	-63.6	6.2	0.00e+00	0	42	104	0	86	21712
2026-01-01 22:04:28.58	141.36	21.94	-60.5	-63.7	6.2	0.00e+00	0	42	104	0	86	21944
2026-01-01 22:04:31.58	141.14	22.52	-60.6	-63.7	6.2	0.00e+00	0	42	104	0	86	22005
2026-01-01 22:04:34.58	140.90	23.11	-60.5	-63.7	6.2	0.00e+00	0	42	104	0	86	22001
2026-01-01 22:04:37.57	140.66	23.72	-60.6	-63.7	6.2	0.00e+00	0	42	104	0	86	22037
2026-01-01 22:04:40.56	140.40	24.34	-60.6	-63.7	6.2	0.00e+00	0	42	104	0	86	22098
2026-01-01 22:04:43.56	140.13	24.99	-60.7	-63.8	6.2	0.00e+00	0	42	104	0	86	22287
2026-01-01 22:04:46.56	139.85	25.65	-60.7	-63.8	6.2	0.00e+00	0	42	104	0	86	22269
2026-01-01 22:04:49.55	139.55	26.33	-60.6	-63.8	6.2	0.00e+00	0	42	104	0	86	22199
2026-01-01 22:04:52.53	139.24	27.03	-60.7	-63.8	6.2	0.00e+00	0	42	104	0	86	22341
2026-01-01 22:04:55.52	138.91	27.75	-60.8	-63.9	6.2	0.00e+00	0	42	104	0	86	22506
2026-01-01 22:04:58.51	138.57	28.50	-60.7	-63.9	6.2	0.00e+00	0	42	104	0	86	22495
2026-01-01 22:05:01.49	138.21	29.27	-60.7	-63.9	6.2	0.00e+00	0	42	104	0	86	22450
2026-01-01 22:05:04.48	137.83	30.06	-60.8	-63.9	6.2	0.00e+00	0	42	104	0	87	21339
2026-01-01 22:05:07.48	137.42	30.88	-60.8	-64.0	6.2	0.00e+00	0	42	104	0	87	21420
2026-01-01 22:05:10.49	136.99	31.73	-60.8	-64.0	6.2	0.00e+00	0	42	104	0	87	21419
2026-01-01 22:05:13.47	136.54	32.60	-60.8	-64.0	6.2	0.00e+00	0	42	104	0	87	21405
2026-01-01 22:05:16.47	136.05	33.50	-60.9	-64.0	6.2	0.00e+00	0	42	104	0	87	21487
2026-01-01 22:05:19.46	135.54	34.43	-60.9	-64.1	6.2	0.00e+00	0	42	104	0	87	21629
2026-01-01 22:05:22.46	134.99	35.39	-60.9	-64.1	6.2	0.00e+00	0	42	104	0	87	21620
2026-01-01 22:05:25.46	134.41	36.38	-60.9	-64.0	6.2	0.00e+00	0	42	104	0	87	21492
2026-01-01 22:05:28.46	133.79	37.41	-61.0	-64.1	6.2	0.00e+00	0	42	104	0	87	21716
2026-01-01 22:05:31.45	133.12	38.46	-61.0	-64.1	6.2	0.00e+00	0	42	104	0	87	21751
2026-01-01 22:05:34.44	132.41	39.55	-61.0	-64.2	6.2	0.00e+00	0	42	104	0	87	21864
2026-01-01 22:05:37.45	131.64	40.68	-61.0	-64.1	6.2	0.00e+00	0	42	104	0	87	21800
2026-01-01 22:05:40.45	130.81	41.84	-61.0	-64.2	6.2	0.00e+00	0	42	104	0	87	21882
2026-01-01 22:05:43.46	129.91	43.05	-61.1	-64.2	6.2	0.00e+00	0	42	104	0	87	22056
2026-01-01 22:05:46.47	128.94	44.28	-61.1	-64.2	6.2	0.00e+00	0	42	104	0	87	22048
2026-01-01 22:05:49.46	127.89	45.55	-61.1	-64.2	6.2	0.00e+00	0	42	104	0	87	22073
2026-01-01 22:05:52.46	126.75	46.85	-61.1	-64.3	6.2	0.00e+00	0	42	104	0	87	22230
2026-01-01 22:05:55.46	125.50	48.18	-61.1	-64.3	6.2	0.00e+00	0	42	104	0	87	22240
2026-01-01 22:05:58.44	124.14	49.54	-61.2	-64.3	6.2	0.00e+00	0	42	104	0	87	22323
2026-01-01 22:06:01.43	122.65	50.93	-61.1	-64.3	6.2	0.00e+00	0	42	104	0	87	22251
2026-01-01 22:06:04.42	121.00	52.34	-61.2	-64.4	6.2	0.00e+00	0	42	104	0	87	22372
2026-01-01 22:06:07.40	119.19	53.76	-61.2	-64.4	6.2	0.00e+00	0	42	104	0	87	22483
2026-01-01 22:06:10.40	117.18	55.21	-61.3	-64.4	6.2	0.00e+00	0	42	104	0	87	22597
2026-01-01 22:06:13.40	114.94	56.66	-61.2	-64.4	6.2	0.00e+00	0	42	104	0	87	22455
2026-01-01 22:06:16.38	112.46	58.10	-61.3	-64.4	6.2	0.00e+00	0	42	104	0	88	21331
2026-01-01 22:06:19.38	109.69	59.53	-61.3	-64.5	6.2	0.00e+00	0	42	104	0	88	21462
2026-01-01 22:06:22.38	106.58	60.92	-61.3	-64.5	6.2	0.00e+00	0	42	104	0	88	21464
2026-01-01 22:06:25.37	103.13	62.26	-61.3	-64.4	6.2	0.00e+00	0	42	104	0	88	21288
2026-01-01 22:06:28.37	99.27	63.53	-61.4	-64.5	6.2	0.00e+00	0	42	104	0	88	21516
2026-01-01 22:06:31.37	94.98	64.71	-61.4	-64.5	6.2	0.00e+00	0	42	104	0	88	21517
2026-01-01 22:06:34.36	90.26	65.76	-61.4	-64.6	6.2	0.00e+00	0	42	104	0	88	21700
2026-01-01 22:06:37.36	85.08	66.67	-61.4	-64.5	6.2	0.00e+00	0	42	104	0	88	21542
2026-01-01 22:06:40.37	79.46	67.39	-61.4	-64.6	6.2	0.00e+00	0	42	104	0	88	21670
2026-01-01 22:06:43.37	73.51	67.91	-61.5	-64.7	6.2	0.00e+00	0	42	104	0	88	21929
2026-01-01 22:06:46.38	67.30	68.20	-61.6	-64.7	6.2	0.00e+00	0	42	104	0	88	21991
2026-01-01 22:06:49.38	61.00	68.26	-61.5	-64.6	6.2	0.00e+00	0	42	104	0	88	21839
2026-01-01 22:06:52.37	54.76	68.07	-61.6	-64.7	6.2	0.00e+00	0	42	104	0	88	21963
2026-01-01 22:06:55.37	48.69	67.65	-61.6	-64.7	6.2	0.00e+00	0	42	104	0	88	22047
2026-01-01 22:06:58.36	42.95	67.01	-61.6	-64.8	6.2	0.00e+00	0	42	104	0	88	22211
2026-01-01 22:07:01.34	37.61	66.19	-61.6	-64.7	6.2	0.00e+00	0	42	104	0	88	21999
2026-01-01 22:07:04.32	32.71	65.21	-61.6	-64.8	6.2	0.00e+00	0	42	104	0	88	22130
2026-01-01 22:07:07.32	28.22	64.09	-61.6	-64.8	6.2	0.00e+00	0	42	104	0	88	22207
2026-01-01 22:07:10.31	24.18	62.86	-61.6	-64.8	6.2	0.00e+00	0	42	104	0	88	22173
2026-01-01 22:07:13.29	20.57	61.56	-61.6	-64.7	6.2	0.00e+00	0	42	104	0	88	22006
2026-01-01 22:07:16.29	17.31	60.19	-61.6	-64.7	6.2	0.00e+00	0	42	104	0	88	22076
2026-01-01 22:07:19.29	14.39	58.78	-61.6	-64.8	6.2	0.00e+00	0	42	104	0	88	22134
2026-01-01 22:07:22.30	11.76	57.34	-61.6	-64.7	6.2	0.00e+00	0	42	104	0	88	22051
2026-01-01 22:07:25.30	9.42	55.89	-61.5	-64.6	6.2	0.00e+00	0	42	104	0	88	21844
2026-01-01 22:07:28.30	7.31	54.44	-61.5	-64.7	6.2	0.00e+00	0	42	104	0	88	21872
2026-01-01 22:07:31.29	5.41	53.01	-61.5	-64.7	6.2	0.00e+00	0	42	104	0	88	21978
2026-01-01 22:07:34.29	3.68	51.59	-61.5	-64.7	6.2	0.00e+00	0	42	104	0	88	21903
2026-01-01 22:07:37.27	2.13	50.20	-61.4	-64.6	6.2	0.00e+00	0	42	104	0	88	21742
2026-01-01 22:07:40.25	0.72	48.83	-61.5	-64.6	6.2	0.00e+00	0	42	104	0	88	21832
2026-01-01 22:07:43.25	359.42	47.49	-61.5	-64.6	6.2	0.00e+00	0	42	104	0	88	21820
2026-01-01 22:07:46.25	358.23	46.18	-61.5	-64.7	6.2	0.00e+00	0	42	104	0	88	21885
2026-01-01 22:07:49.24	357.14	44.90	-61.4	-64.6	6.2	0.00e+00	0	42	104	0	88	21624
2026-01-01 22:07:52.25	356.14	43.65	-61.5	-64.6	6.2	0.00e+00	0	42	104	0	88	21818
2026-01-01 22:07:55.23	355.22	42.45	-61.5	-64.6	6.2	0.00e+00	0	42	104	0	88	21775
2026-01-01 22:07:58.22	354.36	41.28	-61.4	-64.6	6.2	0.00e+00	0	42	104	0	88	21661
2026-01-01 22:08:01.22	353.57	40.14	-61.4	-64.5	6.2	0.00e+00	0	42	104	0	88	21526
2026-01-01 22:08:04.22	352.83	39.03	-61.4	-64.5	6.2	0.00e+00	0	42	104	0	88	21561
2026-01-01 22:08:07.21	352.14	37.97	-61.4	-64.6	6.2	0.00e+00	0	42	104	0	88	21627
2026-01-01 22:08:10.20	351.50	36.93	-61.4	-64.5	6.2	0.00e+00	0	42	104	0	88	21501
2026-01-01 22:08:13.19	350.90	35.93	-61.3	-64.5	6.2	0.00e+00	0	42	104	0	88	21467
2026-01-01 22:08:16.19	350.34	34.96	-61.3	-64.5	6.2	0.00e+00	0	42	104	0	88	21444
2026-01-01 22:08:19.18	349.81	34.02	-61.3	-64.4	6.2	0.00e+00	0	42	104	0	88	21326
2026-01-01 22:08:22.17	349.32	33.10	-61.3	-64.4	6.2	0.00e+00	0	42	104	0	88	21258
2026-01-01 22:08:25.18	348.85	32.22	-61.2	-64.4	6.2	0.00e+00	0	42	104	0	88	21154
2026-01-01 22:08:28.17	348.41	31.36	-61.2	-64.4	6.2	0.00e+00	0	42	104	0	88	21146
2026-01-01 22:08:31.16	348.00	30.54	-61.2	-64.3	6.2	0.00e+00	0	42	104	0	88	21114
2026-01-01 22:08:34.16	347.60	29.73	-61.1	-64.3	6.2	0.00e+00	0	42	104	0	88	20880
2026-01-01 22:08:37.15	347.23	28.95	-61.1	-64.3	6.2	0.00e+00	0	42	104	0	88	20876
2026-01-01 22:08:40.14	346.88	28.20	-61.1	-64.2	6.2	0.00e+00	0	42	104	0	88	20868
2026-01-01 22:08:43.14	346.54	27.47	-61.1	-64.2	6.2	0.00e+00	0	42	104	0	88	20867
2026-01-01 22:08:46.14	346.22	26.75	-61.0	-64.2	6.2	0.00e+00	0	42	104	0	88	20664
2026-01-01 22:08:49.14	345.92	26.06	-61.0	-64.1	6.2	0.00e+00	0	42	104	0	88	20622
2026-01-01 22:08:52.14	345.63	25.39	-61.0	-64.1	6.2	0.00e+00	0	42	104	0	88	20589
2026-01-01 22:08:55.14	345.36	24.74	-61.0	-64.1	6.2	0.00e+00	0	42	104	0	88	20525
2026-01-01 22:08:58.13	345.10	24.11	-60.9	-64.0	6.2	0.00e+00	0	42	104	0	88	20318
2026-01-01 22:09:01.12	344.85	23.49	-60.9	-64.0	6.2	0.00e+00	0	42	104	0	88	20396
2026-01-01 22:09:04.12	344.61	22.89	-60.9	-64.0	6.2	0.00e+00	0	42	104	0	88	20248
2026-01-01 22:09:07.12	344.38	22.31	-60.9	-64.0	6.2	0.00e+00	0	42	104	0	88	20285
2026-01-01 22:09:10.12	344.16	21.74	-60.8	-64.0	6.2	0.00e+00	0	42	104	0	88	20176
2026-01-01 22:09:13.11	343.95	21.19	-60.8	-63.9	6.2	0.00e+00	0	42	104	0	88	20144
2026-01-01 22:09:16.09	343.75	20.66	-60.8	-63.9	6.2	0.00e+00	0	42	104	0	88	20065
2026-01-01 22:09:19.10	343.56	20.13	-60.8	-63.9	6.2	0.00e+00	0	42	104	0	88	20130
2026-01-01 22:09:22.10	343.37	19.62	-60.7	-63.8	6.2	0.00e+00	0	42	104	0	88	19928
2026-01-01 22:09:25.11	343.19	19.12	-60.7	-63.8	6.2	0.00e+00	0	42	104	0	88	19933
2026-01-01 22:09:28.11	343.02	18.63	-60.7	-63.8	6.2	0.00e+00	0	42	104	0	88	19862
2026-01-01 22:09:31.10	342.85	18.15	-60.7	-63.8	6.2	0.00e+00	0	42	104	0	88	19829
2026-01-01 22:09:34.10	342.70	17.69	-60.6	-63.8	6.2	0.00e+00	0	42	104	0	88	19775
2026-01-01 22:09:37.10	342.54	17.23	-60.6	-63.8	6.2	0.00e+00	0	42	104	0	87	20907
2026-01-01 22:09:40.09	342.40	16.79	-60.6	-63.7	6.2	0.00e+00	0	42	104	0	87	20749
2026-01-01 22:09:43.08	342.25	16.36	-60.6	-63.7	6.2	0.00e+00	0	42	104	0	87	20748
2026-01-01 22:09:46.08	342.12	15.93	-60.5	-63.7	6.2	0.00e+00	0	42	104	0	87	20705
2026-01-01 22:09:49.08	341.99	15.52	-60.5	-63.6	6.2	0.00e+00	0	42	104	0	87	20631
2026-01-01 22:09:52.08	341.86	15.11	-60.5	-63.6	6.2	0.00e+00	0	42	104	0	87	20530
2026-01-01 22:09:55.08	341.73	14.71	-60.5	-63.6	6.2	0.00e+00	0	42	104	0	87	20526
2026-01-01 22:09:58.07	341.62	14.32	-60.4	-63.5	6.2	0.00e+00	0	42	104	0	87	20327
2026-01-01 22:10:01.05	341.50	13.94	-60.4	-63.6	6.2	0.00e+00	0	42	104	0	87	20423
2026-01-01 22:10:04.04	341.39	13.57	-60.4	-63.5	6.2	0.00e+00	0	42	104	0	87	20288
2026-01-01 22:10:07.05	341.28	13.20	-60.4	-63.5	6.2	0.00e+00	0	42	104	0	87	20228
2026-01-01 22:10:10.05	341.18	12.84	-60.3	-63.5	6.2	0.00e+00	0	42	104	0	87	20177
2026-01-01 22:10:13.04	341.08	12.49	-60.3	-63.5	6.2	0.00e+00	0	42	104	0	87	20213
2026-01-01 22:10:16.04	340.98	12.14	-60.3	-63.4	6.2	0.00e+00	0	42	104	0	86	21227
2026-01-01 22:10:19.04	340.88	11.80	-60.3	-63.4	6.2	0.00e+00	0	42	104	0	86	21193
2026-01-01 22:10:22.03	340.79	11.46	-60.2	-63.3	6.2	0.00e+00	0	42	104	0	86	21114
2026-01-01 22:10:25.02	340.70	11.13	-60.2	-63.4	6.2	0.00e+00	0	42	104	0	86	21217
2026-01-01 22:10:28.03	340.62	10.81	-60.2	-63.3	6.2	0.00e+00	0	42	104	0	86	21060
2026-01-01 22:10:31.03	340.53	10.49	-60.2	-63.3	6.2	0.00e+00	0	42	104	0	86	20970
2026-01-01 22:10:34.03	340.45	10.18	-60.1	-63.3	6.2	0.00e+00	0	42	104	0	86	20942
2026-01-01 22:10:37.03	340.37	9.87	-60.1	-63.3	6.2	0.00e+00	0	42	104	0	86	20943
2026-01-01 22:10:40.03	340.30	9.56	-60.0	-63.2	6.2	0.00e+00	0	42	104	0	86	20733
2026-01-01 22:10:43.03	340.22	9.26	-60.0	-63.2	6.2	0.00e+00	0	42	104	0	86	20692
2026-01-01 22:10:46.03	340.15	8.97	-60.0	-63.2	6.2	0.00e+00	0	42	104	0	86	20735
2026-01-01 22:10:49.04	340.08	8.68	-60.0	-63.2	6.2	0.00e+00	0	42	104	0	86	20707
2026-01-01 22:10:52.04	340.01	8.39	-59.9	-63.0	6.2	0.00e+00	0	42	104	0	86	20352
2026-01-01 22:10:55.04	339.94	8.11	-59.9	-63.0	6.2	0.00e+00	0	42	104	0	86	20384
2026-01-01 22:10:58.05	339.88	7.83	-59.9	-63.0	6.2	0.00e+00	0	42	104	0	86	20393
2026-01-01 22:11:01.04	339.82	7.56	-59.7	-63.0	6.2	0.00e+00	0	42	104	0	85	21566
2026-01-01 22:11:04.02	339.76	7.29	-59.8	-62.9	6.2	0.00e+00	0	42	104	0	84	22460
2026-01-01 22:11:07.01	339.70	7.03	-59.8	-62.9	6.2	0.00e+00	0	42	104	0	85	21176
2026-01-01 22:11:09.99	339.64	6.77	-59.8	-62.9	6.2	0.00e+00	0	42	104	0	85	21229
2026-01-01 22:11:12.97	339.58	6.51	-59.8	-62.9	6.2	0.00e+00	0	42	104	0	85	21303
2026-01-01 22:11:15.97	339.53	6.25	-59.6	-62.7	6.2	0.00e+00	0	42	104	0	84	22105
2026-01-01 22:11:18.96	339.48	6.00	-59.6	-62.8	6.2	0.00e+00	0	42	104	0	84	22110
2026-01-01 22:11:21.96	339.42	5.75	-59.6	-62.8	6.2	0.00e+00	0	42	104	0	84	22143
2026-01-01 22:11:24.97	339.37	5.51	-59.7	-62.9	6.2	0.00e+00	0	42	104	0	84	22371
2026-01-01 22:11:27.96	339.32	5.26	-59.5	-62.6	6.2	0.00e+00	0	42	104	0	84	21711
2026-01-01 22:11:30.96	339.28	5.02	-59.5	-62.6	6.2	0.00e+00	0	42	104	0	84	21698
2026-01-01 22:11:33.97	339.23	4.78	-60.7	-63.8	6.2	0.00e+00	0	42	104	0	86	22284
2026-01-01 22:11:36.96	339.18	4.55	-61.4	-64.5	6.2	0.00e+00	0	42	104	0	88	21520
2026-01-01 22:11:39.97	339.14	4.32	-61.8	-64.9	6.2	0.00e+00	0	42	104	0	88	22623
2026-01-01 22:11:42.98	339.09	4.09	-62.0	-65.1	6.2	0.00e+00	0	42	104	0	89	21804
2026-01-01 22:11:46.00	339.05	3.86	-62.1	-65.2	6.2	0.00e+00	0	42	104	0	89	22109
2026-01-01 22:11:48.99	339.01	3.63	-62.2	-65.4	6.2	0.00e+00	0	42	104	0	89	22402
2026-01-01 22:11:51.98	338.97	3.41	-62.2	-65.4	6.2	0.00e+00	0	42	104	0	89	22502
2026-01-01 22:11:54.98	338.93	3.19	-62.2	-65.3	6.2	0.00e+00	0	42	104	0	89	22310
2026-01-01 22:11:57.98	338.89	2.97	-62.1	-65.3	6.2	0.00e+00	0	42	104	0	89	22196
2026-01-01 22:12:00.97	338.86	2.76	-62.1	-65.3	6.2	0.00e+00	0	42	104	0	89	22136
2026-01-01 22:12:03.96	338.82	2.55	-62.0	-65.2	6.2	0.00e+00	0	42	104	0	89	21934
2026-01-01 22:12:06.96	338.78	2.33	-62.0	-65.2	6.2	0.00e+00	0	42	104	0	89	21946
2026-01-01 22:12:09.96	338.75	2.12	-62.0	-65.1	6.2	0.00e+00	0	42	104	0	89	21837

#Closed at: 2026-01-01 22:12:12
#Recorded file [0 MB]: D:/lorett/data/31004_260102_010128.dat