passes_logs/2026/01/01/R3.2S_Murmansk/R3.2S_Murmansk__20260101_222623_KANOPUS-V_3_rec.log

#Pass ID: 20260101_222623_KANOPUS-V 3
#Satellite: KANOPUS-V 3
#Configuration: KANOPUS-V_8128
#almurnet v.1.7.20251203
#Start time: 2026-01-01 22:26:23

#Version: 2.2.20231116
#Station: R3.2S_Murmansk
#Location: 33.079688 lon 68.888172 lat
#TLE: 1 43180U 18014A   25365.80198866  .00000174  00000+0  10241-4 0  9990
#TLE: 2 43180  97.3690 269.5835 0001690  87.9498 272.1932 15.23322034439244

#Time	Az	El	Level	Level2	SNR	BER	BlckErr	Temp	State	Recorded	gain1	gain2
2026-01-01 22:26:23.24	20.77	1.99	-59.0	-69.7	3.8	7.45e-01	0	31	0	0	86	12787
2026-01-01 22:26:26.24	20.76	2.20	-59.0	-69.7	3.8	7.45e-01	0	31	104	0	86	12774
2026-01-01 22:26:29.23	20.75	2.42	-59.0	-69.7	3.8	7.48e-01	0	31	104	0	86	12783
2026-01-01 22:26:32.23	20.74	2.63	-59.0	-69.7	3.8	7.45e-01	0	31	104	0	86	12727
2026-01-01 22:26:35.21	20.73	2.84	-59.0	-69.7	3.8	7.46e-01	0	32	104	0	86	12766
2026-01-01 22:26:38.20	20.72	3.06	-59.0	-69.7	3.8	7.46e-01	0	32	104	0	86	12726
2026-01-01 22:26:41.19	20.71	3.28	-59.0	-69.7	3.8	7.46e-01	0	32	104	0	86	12750
2026-01-01 22:26:44.19	20.69	3.51	-59.0	-69.7	3.8	7.45e-01	0	32	104	0	86	12770
2026-01-01 22:26:47.18	20.68	3.73	-59.0	-69.7	3.8	7.47e-01	0	32	104	0	86	12768
2026-01-01 22:26:50.20	20.66	3.96	-59.0	-69.7	3.8	7.46e-01	0	32	104	0	86	12744
2026-01-01 22:26:53.19	20.65	4.19	-59.0	-69.7	3.8	7.45e-01	0	32	104	0	86	12739
2026-01-01 22:26:56.21	20.64	4.43	-59.0	-69.7	3.8	7.47e-01	0	32	104	0	86	12739
2026-01-01 22:26:59.20	20.62	4.66	-59.0	-69.7	3.8	7.45e-01	0	32	104	0	86	12688
2026-01-01 22:27:02.21	20.60	4.90	-59.0	-69.7	3.8	7.46e-01	0	32	104	0	86	12760
2026-01-01 22:27:05.21	20.59	5.14	-59.1	-69.8	3.8	7.45e-01	0	32	104	0	86	12858
2026-01-01 22:27:08.20	20.57	5.39	-59.1	-69.8	3.8	7.45e-01	0	32	104	0	86	12931
2026-01-01 22:27:11.20	20.55	5.64	-59.1	-69.8	3.8	7.45e-01	0	32	104	0	86	12854
2026-01-01 22:27:14.20	20.53	5.89	-59.1	-69.8	3.8	7.47e-01	0	32	104	0	86	12826
2026-01-01 22:27:17.20	20.51	6.14	-59.0	-69.7	3.8	7.46e-01	0	32	104	0	86	12745
2026-01-01 22:27:20.19	20.49	6.40	-59.2	-69.9	3.8	7.44e-01	0	32	104	0	86	13044
2026-01-01 22:27:23.19	20.47	6.66	-59.1	-69.8	3.8	7.44e-01	0	33	104	0	86	12887
2026-01-01 22:27:26.17	20.45	6.92	-59.2	-69.9	3.8	7.44e-01	0	33	104	0	86	12999
2026-01-01 22:27:29.15	20.43	7.19	-59.1	-69.8	3.8	7.47e-01	0	33	104	0	86	12945
2026-01-01 22:27:32.14	20.40	7.46	-59.3	-70.0	3.8	7.44e-01	0	32	104	0	86	13185
2026-01-01 22:27:35.13	20.38	7.74	-59.2	-69.9	3.8	7.47e-01	0	33	104	0	86	13055
2026-01-01 22:27:38.12	20.35	8.02	-59.3	-69.9	3.8	7.48e-01	0	33	104	0	86	13074
2026-01-01 22:27:41.11	20.33	8.30	-59.2	-69.9	3.8	7.46e-01	0	33	104	0	86	13098
2026-01-01 22:27:44.10	20.30	8.59	-59.4	-70.1	3.8	7.45e-01	0	33	104	0	86	13372
2026-01-01 22:27:47.09	20.27	8.88	-59.3	-70.0	3.8	7.45e-01	0	33	104	0	86	13195
2026-01-01 22:27:50.11	20.24	9.19	-59.4	-70.0	3.8	7.45e-01	0	33	104	0	86	13193
2026-01-01 22:27:53.10	20.21	9.49	-59.3	-70.0	3.8	7.45e-01	0	33	104	0	86	13234
2026-01-01 22:27:56.10	20.18	9.80	-59.5	-70.2	3.8	7.45e-01	0	33	104	0	86	13481
2026-01-01 22:27:59.10	20.15	10.11	-59.4	-70.1	3.8	7.44e-01	0	33	104	0	86	13388
2026-01-01 22:28:02.11	20.11	10.43	-59.4	-70.1	3.8	7.45e-01	0	33	104	0	87	12597
2026-01-01 22:28:05.11	20.08	10.75	-59.4	-70.1	3.8	7.47e-01	0	33	104	0	87	12600
2026-01-01 22:28:08.11	20.04	11.09	-59.6	-70.2	3.8	7.47e-01	0	33	104	0	87	12783
2026-01-01 22:28:11.10	20.00	11.42	-59.5	-70.2	3.8	7.45e-01	0	33	104	0	87	12682
2026-01-01 22:28:14.10	19.97	11.76	-59.5	-70.2	3.8	7.46e-01	0	33	104	0	87	12739
2026-01-01 22:28:17.11	19.92	12.11	-59.5	-70.2	3.8	7.46e-01	0	33	104	0	87	12705
2026-01-01 22:28:20.11	19.88	12.47	-59.6	-70.3	3.8	7.46e-01	0	33	104	0	87	12930
2026-01-01 22:28:23.10	19.84	12.83	-59.5	-70.2	3.8	7.43e-01	0	33	104	0	87	12797
2026-01-01 22:28:26.09	19.79	13.20	-59.6	-70.3	3.8	7.46e-01	0	33	104	0	87	12835
2026-01-01 22:28:29.08	19.75	13.58	-59.6	-70.3	3.8	7.46e-01	0	33	104	0	87	12812
2026-01-01 22:28:32.07	19.70	13.96	-59.7	-70.4	3.8	7.45e-01	0	33	104	0	87	13033
2026-01-01 22:28:35.06	19.65	14.35	-59.6	-70.4	3.8	7.45e-01	0	33	104	0	87	12965
2026-01-01 22:28:38.06	19.59	14.76	-59.7	-70.4	3.8	7.47e-01	0	33	104	0	87	12960
2026-01-01 22:28:41.05	19.54	15.17	-59.7	-70.3	3.8	7.45e-01	0	33	104	0	87	12934
2026-01-01 22:28:44.04	19.48	15.59	-59.8	-70.4	3.8	7.45e-01	0	33	104	0	87	13095
2026-01-01 22:28:47.04	19.42	16.02	-59.7	-70.4	3.8	7.44e-01	0	33	104	0	87	12991
2026-01-01 22:28:50.04	19.36	16.46	-59.7	-70.4	3.8	7.47e-01	0	33	104	0	87	13072
2026-01-01 22:28:53.04	19.29	16.91	-59.7	-70.4	3.8	7.47e-01	0	33	104	0	87	13019
2026-01-01 22:28:56.05	19.22	17.37	-59.8	-70.5	3.8	7.46e-01	0	33	104	0	87	13258
2026-01-01 22:28:59.06	19.15	17.85	-59.8	-70.5	3.8	7.45e-01	0	33	104	0	87	13125
2026-01-01 22:29:02.06	19.08	18.33	-59.8	-70.5	3.8	7.44e-01	0	33	104	0	87	13173
2026-01-01 22:29:05.06	19.00	18.83	-59.8	-70.5	3.8	7.46e-01	0	33	104	0	87	13173
2026-01-01 22:29:08.05	18.92	19.34	-59.9	-70.6	3.8	7.46e-01	0	33	104	0	87	13312
2026-01-01 22:29:11.06	18.83	19.86	-59.9	-70.6	3.8	7.45e-01	0	33	104	0	87	13262
2026-01-01 22:29:14.06	18.74	20.40	-59.9	-70.6	3.8	7.43e-01	0	33	104	0	87	13280
2026-01-01 22:29:17.06	18.65	20.96	-59.9	-70.6	3.8	7.47e-01	0	33	104	0	87	13290
2026-01-01 22:29:20.08	18.55	21.53	-60.0	-70.7	3.8	7.45e-01	0	33	104	0	87	13493
2026-01-01 22:29:23.08	18.45	22.11	-60.0	-70.6	3.8	7.45e-01	0	33	104	0	87	13412
2026-01-01 22:29:26.08	18.34	22.72	-60.0	-70.7	3.8	7.47e-01	0	33	104	0	88	12718
2026-01-01 22:29:29.08	18.23	23.34	-60.0	-70.7	3.8	7.46e-01	0	33	104	0	88	12683
2026-01-01 22:29:32.08	18.11	23.98	-60.1	-70.8	3.8	7.47e-01	0	33	104	0	88	12857
2026-01-01 22:29:35.09	17.99	24.64	-60.1	-70.7	3.8	7.46e-01	0	33	104	0	88	12739
2026-01-01 22:29:38.08	17.86	25.32	-60.1	-70.8	3.8	7.48e-01	0	33	104	0	88	12833
2026-01-01 22:29:41.08	17.72	26.02	-60.1	-70.8	3.8	7.46e-01	0	33	104	0	88	12849
2026-01-01 22:29:44.07	17.57	26.75	-60.2	-70.9	3.8	7.46e-01	0	33	104	0	88	12976
2026-01-01 22:29:47.07	17.42	27.50	-60.1	-70.8	3.8	7.45e-01	0	33	104	0	88	12947
2026-01-01 22:29:50.08	17.25	28.27	-60.2	-70.8	3.8	7.44e-01	0	33	104	0	88	12951
2026-01-01 22:29:53.09	17.08	29.08	-60.2	-70.9	3.8	7.47e-01	0	33	104	0	88	13007
2026-01-01 22:29:56.08	16.90	29.91	-60.3	-71.0	3.8	7.46e-01	0	33	104	0	88	13111
2026-01-01 22:29:59.09	16.70	30.77	-60.3	-70.9	3.8	7.45e-01	0	33	104	0	88	13079
2026-01-01 22:30:02.10	16.49	31.66	-60.3	-71.0	3.8	7.47e-01	0	33	104	0	88	13121
2026-01-01 22:30:05.09	16.27	32.58	-60.3	-70.9	3.8	7.46e-01	0	33	104	0	88	13102
2026-01-01 22:30:08.10	16.04	33.54	-60.4	-71.0	3.8	7.45e-01	0	33	104	0	88	13234
2026-01-01 22:30:11.10	15.79	34.54	-60.4	-71.0	3.8	7.45e-01	0	33	104	0	88	13254
2026-01-01 22:30:14.11	15.51	35.57	-60.4	-71.1	3.8	7.45e-01	0	33	104	0	88	13296
2026-01-01 22:30:17.10	15.22	36.64	-60.4	-71.0	3.8	7.46e-01	0	33	104	0	88	13235
2026-01-01 22:30:20.09	14.91	37.75	-60.5	-71.1	3.8	7.44e-01	0	33	104	0	88	13396
2026-01-01 22:30:23.07	14.58	38.89	-60.5	-71.2	3.8	7.45e-01	0	33	104	0	88	13441
2026-01-01 22:30:26.08	14.21	40.10	-60.5	-71.2	3.8	7.46e-01	0	33	104	0	89	12727
2026-01-01 22:30:29.07	13.82	41.34	-60.5	-71.2	3.8	7.47e-01	0	33	104	0	89	12715
2026-01-01 22:30:32.05	13.39	42.63	-60.6	-71.2	3.8	7.46e-01	0	33	104	0	89	12809
2026-01-01 22:30:35.04	12.92	43.97	-60.6	-71.3	3.8	7.46e-01	0	33	104	0	89	12880
2026-01-01 22:30:38.03	12.41	45.36	-60.6	-71.3	3.8	7.46e-01	0	33	104	0	89	12844
2026-01-01 22:30:41.03	11.84	46.81	-60.6	-71.2	3.8	7.45e-01	0	33	104	0	89	12798
2026-01-01 22:30:44.02	11.22	48.32	-60.7	-71.3	3.8	7.46e-01	0	33	104	0	89	12924
2026-01-01 22:30:47.03	10.53	49.89	-60.7	-71.4	3.8	7.46e-01	0	33	104	0	89	13017
2026-01-01 22:30:50.03	9.75	51.51	-60.7	-71.4	3.8	7.47e-01	0	33	104	0	89	13026
2026-01-01 22:30:53.03	8.88	53.19	-60.7	-71.4	3.8	7.46e-01	0	33	104	0	89	13028
2026-01-01 22:30:56.03	7.90	54.92	-60.8	-71.5	3.8	7.46e-01	0	34	104	0	89	13160
2026-01-01 22:30:59.02	6.80	56.71	-60.9	-71.5	3.8	7.47e-01	0	33	104	0	89	13230
2026-01-01 22:31:02.02	5.52	58.55	-60.9	-71.5	3.8	7.46e-01	0	33	104	0	89	13208
2026-01-01 22:31:05.01	4.05	60.44	-60.9	-71.5	3.8	7.45e-01	0	33	104	0	89	13239
2026-01-01 22:31:08.01	2.34	62.37	-61.0	-71.6	3.8	7.45e-01	0	33	104	0	89	13318
2026-01-01 22:31:10.99	0.33	64.33	-61.0	-71.6	3.8	7.45e-01	0	33	104	0	89	13413
2026-01-01 22:31:13.98	357.93	66.32	-61.0	-71.7	3.8	7.45e-01	0	33	104	0	89	13418
2026-01-01 22:31:16.98	355.02	68.32	-61.0	-71.7	3.8	7.45e-01	0	33	104	0	90	12703
2026-01-01 22:31:19.97	351.48	70.30	-61.1	-71.7	3.8	7.47e-01	0	33	104	0	90	12736
2026-01-01 22:31:22.96	347.09	72.23	-61.1	-71.8	3.8	7.46e-01	0	33	104	0	90	12830
2026-01-01 22:31:25.95	341.58	74.08	-61.1	-71.8	3.8	7.47e-01	0	33	104	0	90	12853
2026-01-01 22:31:28.94	334.61	75.77	-61.1	-71.7	3.8	7.47e-01	0	34	104	0	90	12720
2026-01-01 22:31:31.93	325.84	77.23	-61.1	-71.8	3.8	7.46e-01	0	33	104	0	90	12852
2026-01-01 22:31:34.93	315.00	78.34	-61.2	-71.8	3.8	7.44e-01	0	33	104	0	90	12927
2026-01-01 22:31:37.93	302.38	78.97	-61.1	-71.8	3.8	7.44e-01	0	33	104	0	90	12856
2026-01-01 22:31:40.92	288.97	79.03	-61.1	-71.8	3.8	7.47e-01	0	33	104	0	90	12821
2026-01-01 22:31:43.90	276.15	78.52	-61.1	-71.8	3.8	7.44e-01	0	33	104	0	90	12904
2026-01-01 22:31:46.91	264.84	77.50	-61.2	-71.8	3.8	7.46e-01	0	33	104	0	90	12923
2026-01-01 22:31:49.90	255.64	76.11	-61.1	-71.8	3.8	7.46e-01	0	33	104	0	90	12852
2026-01-01 22:31:52.89	248.31	74.45	-61.1	-71.7	3.8	7.46e-01	0	33	104	0	90	12689
2026-01-01 22:31:55.88	242.52	72.63	-61.1	-71.8	3.8	7.46e-01	0	33	104	0	90	12915
2026-01-01 22:31:58.88	237.89	70.70	-61.1	-71.8	3.8	7.47e-01	0	33	104	0	90	12820
2026-01-01 22:32:01.88	234.18	68.72	-61.1	-71.7	3.8	7.45e-01	0	33	104	0	90	12805
2026-01-01 22:32:04.87	231.16	66.72	-61.0	-71.6	3.8	7.46e-01	0	33	104	0	90	12661
2026-01-01 22:32:07.87	228.66	64.72	-61.0	-71.7	3.8	7.45e-01	0	33	104	0	90	12736
2026-01-01 22:32:10.87	226.56	62.74	-61.1	-71.7	3.8	7.46e-01	0	34	104	0	90	12762
2026-01-01 22:32:13.86	224.80	60.80	-61.0	-71.7	3.8	7.44e-01	0	34	104	0	90	12670
2026-01-01 22:32:16.87	223.27	58.89	-60.9	-71.6	3.8	7.45e-01	0	33	104	0	90	12595
2026-01-01 22:32:19.87	221.96	57.03	-60.9	-71.6	3.8	7.45e-01	0	33	104	0	90	12625
2026-01-01 22:32:22.87	220.82	55.22	-60.9	-71.6	3.8	7.46e-01	0	33	104	0	90	12564
2026-01-01 22:32:25.87	219.82	53.47	-60.9	-71.5	3.8	7.46e-01	0	33	104	0	90	12491
2026-01-01 22:32:28.86	218.93	51.79	-60.8	-71.5	3.8	7.45e-01	0	33	104	0	90	12418
2026-01-01 22:32:31.85	218.14	50.15	-60.8	-71.5	3.8	7.47e-01	0	33	104	0	90	12476
2026-01-01 22:32:34.83	217.44	48.59	-60.8	-71.5	3.8	7.46e-01	0	33	104	0	90	12437
2026-01-01 22:32:37.84	216.80	47.06	-60.8	-71.4	3.8	7.45e-01	0	33	104	0	90	12332
2026-01-01 22:32:40.83	216.22	45.59	-60.7	-71.4	3.8	7.44e-01	0	33	104	0	90	12285
2026-01-01 22:32:43.82	215.70	44.19	-60.7	-71.4	3.8	7.45e-01	0	33	104	0	90	12270
2026-01-01 22:32:46.82	215.22	42.83	-60.7	-71.4	3.8	7.45e-01	0	33	104	0	90	12240
2026-01-01 22:32:49.82	214.78	41.52	-60.6	-71.3	3.8	7.47e-01	0	33	104	0	90	12157
2026-01-01 22:32:52.80	214.38	40.27	-60.6	-71.3	3.8	7.46e-01	0	33	104	0	90	12098
2026-01-01 22:32:55.80	214.01	39.05	-60.6	-71.3	3.8	7.46e-01	0	33	104	0	90	12141
2026-01-01 22:32:58.79	213.67	37.89	-60.6	-71.2	3.8	7.46e-01	0	33	104	0	90	12066
2026-01-01 22:33:01.79	213.35	36.77	-60.5	-71.2	3.8	7.46e-01	0	33	104	0	90	12035
2026-01-01 22:33:04.79	213.05	35.69	-60.5	-71.2	3.8	7.44e-01	0	33	104	0	90	12012
2026-01-01 22:33:07.78	212.78	34.65	-60.5	-71.1	3.8	7.47e-01	0	33	104	0	90	11945
2026-01-01 22:33:10.77	212.52	33.65	-60.5	-71.1	3.8	7.45e-01	0	33	104	0	90	11930
2026-01-01 22:33:13.77	212.28	32.68	-60.4	-71.1	3.8	7.47e-01	0	33	104	0	90	11829
2026-01-01 22:33:16.78	212.06	31.75	-60.4	-71.0	3.8	7.46e-01	0	34	104	0	90	11812
2026-01-01 22:33:19.79	211.85	30.85	-60.4	-71.1	3.8	7.46e-01	0	34	104	0	90	11836
2026-01-01 22:33:22.79	211.65	29.98	-60.4	-71.0	3.8	7.46e-01	0	33	104	0	90	11788
2026-01-01 22:33:25.78	211.46	29.14	-60.3	-71.0	3.8	7.45e-01	0	33	104	0	90	11697
2026-01-01 22:33:28.76	211.29	28.34	-60.3	-70.9	3.8	7.46e-01	0	33	104	0	90	11663
2026-01-01 22:33:31.76	211.12	27.56	-60.3	-70.9	3.8	7.47e-01	0	33	104	0	89	12355
2026-01-01 22:33:34.75	210.97	26.80	-60.2	-70.9	3.8	7.47e-01	0	34	104	0	89	12297
2026-01-01 22:33:37.74	210.82	26.07	-60.2	-70.9	3.8	7.46e-01	0	33	104	0	89	12235
2026-01-01 22:33:40.73	210.68	25.36	-60.2	-70.9	3.8	7.47e-01	0	34	104	0	89	12240
2026-01-01 22:33:43.70	210.55	24.68	-60.2	-70.9	3.8	7.45e-01	0	33	104	0	89	12237
2026-01-01 22:33:46.69	210.42	24.02	-60.1	-70.8	3.8	7.47e-01	0	33	104	0	89	12184
2026-01-01 22:33:49.69	210.30	23.37	-60.1	-70.8	3.8	7.46e-01	0	33	104	0	89	12100
2026-01-01 22:33:52.68	210.19	22.75	-60.1	-70.7	3.8	7.45e-01	0	33	104	0	89	12017
2026-01-01 22:33:55.68	210.08	22.14	-60.1	-70.7	3.8	7.46e-01	0	33	104	0	89	12026
2026-01-01 22:33:58.69	209.97	21.55	-60.0	-70.7	3.8	7.47e-01	0	33	104	0	89	12007
2026-01-01 22:34:01.69	209.87	20.97	-60.0	-70.6	3.8	7.44e-01	0	33	104	0	89	11893
2026-01-01 22:34:04.69	209.78	20.42	-60.0	-70.7	3.8	7.45e-01	0	33	104	0	89	11970
2026-01-01 22:34:07.69	209.69	19.87	-60.0	-70.6	3.8	7.44e-01	0	33	104	0	89	11911
2026-01-01 22:34:10.67	209.60	19.35	-59.9	-70.6	3.8	7.45e-01	0	33	104	0	89	11866
2026-01-01 22:34:13.68	209.52	18.83	-59.9	-70.6	3.8	7.45e-01	0	34	104	0	89	11820
2026-01-01 22:34:16.68	209.44	18.33	-59.9	-70.5	3.8	7.46e-01	0	33	104	0	89	11753
2026-01-01 22:34:19.69	209.36	17.84	-59.8	-70.5	3.8	7.46e-01	0	33	104	0	88	12477
2026-01-01 22:34:22.69	209.29	17.36	-59.8	-70.5	3.8	7.46e-01	0	33	104	0	88	12448
2026-01-01 22:34:25.69	209.22	16.90	-59.8	-70.5	3.8	7.44e-01	0	33	104	0	88	12429
2026-01-01 22:34:28.68	209.15	16.44	-59.8	-70.5	3.8	7.46e-01	0	34	104	0	88	12438
2026-01-01 22:34:31.68	209.09	16.00	-59.7	-70.4	3.8	7.46e-01	0	33	104	0	88	12338
2026-01-01 22:34:34.67	209.03	15.57	-59.7	-70.4	3.8	7.47e-01	0	34	104	0	88	12293
2026-01-01 22:34:37.68	208.97	15.14	-59.7	-70.4	3.9	7.47e-01	0	33	104	0	88	12296
2026-01-01 22:34:40.66	208.91	14.73	-59.7	-70.4	3.8	7.45e-01	0	33	104	0	88	12259
2026-01-01 22:34:43.65	208.85	14.33	-59.7	-70.3	3.8	7.44e-01	0	34	104	0	88	12225
2026-01-01 22:34:46.65	208.80	13.93	-59.6	-70.3	3.8	7.45e-01	0	33	104	0	88	12199
2026-01-01 22:34:49.65	208.75	13.54	-59.6	-70.3	3.8	7.45e-01	0	33	104	0	88	12183
2026-01-01 22:34:52.63	208.70	13.16	-59.6	-70.3	3.8	7.44e-01	0	33	104	0	88	12133
2026-01-01 22:34:55.63	208.65	12.79	-59.6	-70.3	3.8	7.46e-01	0	34	104	0	88	12103
2026-01-01 22:34:58.62	208.61	12.43	-59.5	-70.2	3.8	7.47e-01	0	33	104	0	88	11975
2026-01-01 22:35:01.62	208.56	12.07	-59.5	-70.2	3.8	7.46e-01	0	33	104	0	87	12695
2026-01-01 22:35:04.61	208.52	11.72	-59.5	-70.2	3.8	7.45e-01	0	33	104	0	87	12678
2026-01-01 22:35:07.61	208.48	11.37	-59.4	-70.1	3.8	7.46e-01	0	33	104	0	87	12618
2026-01-01 22:35:10.61	208.44	11.03	-59.4	-70.1	3.8	7.44e-01	0	33	104	0	87	12564
2026-01-01 22:35:13.60	208.40	10.70	-59.4	-70.1	3.8	7.45e-01	0	33	104	0	86	13330
2026-01-01 22:35:16.58	208.37	10.38	-59.4	-70.0	3.8	7.43e-01	0	33	104	0	86	13260
2026-01-01 22:35:19.58	208.33	10.06	-59.3	-70.0	3.8	7.46e-01	0	33	104	0	86	13185
2026-01-01 22:35:22.58	208.30	9.74	-59.3	-70.0	3.8	7.46e-01	0	33	104	0	86	13210
2026-01-01 22:35:25.59	208.26	9.43	-59.3	-70.0	3.8	7.45e-01	0	33	104	0	86	13184
2026-01-01 22:35:28.59	208.23	9.13	-59.3	-70.0	3.8	7.47e-01	0	34	104	0	86	13168
2026-01-01 22:35:31.59	208.20	8.83	-59.2	-69.9	3.8	7.45e-01	0	33	104	0	86	13009
2026-01-01 22:35:34.58	208.17	8.53	-59.2	-69.9	3.8	7.45e-01	0	33	104	0	86	12982
2026-01-01 22:35:37.58	208.14	8.24	-59.2	-69.8	3.8	7.47e-01	0	33	104	0	86	12935
2026-01-01 22:35:40.56	208.12	7.96	-59.2	-69.8	3.8	7.45e-01	0	33	104	0	86	12929
2026-01-01 22:35:43.55	208.09	7.67	-59.0	-69.7	3.8	7.45e-01	0	33	104	0	86	12786
2026-01-01 22:35:46.53	208.06	7.40	-59.0	-69.7	3.8	7.45e-01	0	33	104	0	86	12800
2026-01-01 22:35:49.53	208.04	7.12	-59.0	-69.8	3.8	7.45e-01	0	33	104	0	86	12829
2026-01-01 22:35:52.51	208.01	6.86	-59.0	-69.7	3.8	7.45e-01	0	33	104	0	86	12719
2026-01-01 22:35:55.50	207.99	6.59	-58.9	-69.5	3.8	7.46e-01	0	33	104	0	86	12497
2026-01-01 22:35:58.49	207.97	6.33	-58.9	-69.6	3.8	7.46e-01	0	33	104	0	86	12589
2026-01-01 22:36:01.49	207.94	6.07	-58.9	-69.6	3.8	7.46e-01	0	34	104	0	86	12582
2026-01-01 22:36:04.48	207.92	5.81	-58.8	-69.5	3.8	7.46e-01	0	34	104	0	86	12461
2026-01-01 22:36:07.47	207.90	5.56	-58.7	-69.4	3.8	7.44e-01	0	34	104	0	86	12253
2026-01-01 22:36:10.48	207.88	5.31	-58.7	-69.4	3.8	7.44e-01	0	33	104	0	86	12262
2026-01-01 22:36:13.47	207.86	5.07	-58.7	-69.4	3.8	7.46e-01	0	33	104	0	85	13001
2026-01-01 22:36:16.45	207.84	4.83	-59.7	-70.3	3.8	7.45e-01	0	33	104	0	87	12954
2026-01-01 22:36:19.45	207.83	4.59	-60.3	-71.0	3.8	7.45e-01	0	33	104	0	88	13173
2026-01-01 22:36:22.44	207.81	4.35	-60.6	-71.3	3.8	7.45e-01	0	33	104	0	89	12840
2026-01-01 22:36:25.44	207.79	4.11	-60.8	-71.5	3.8	7.46e-01	0	33	104	0	89	13196
2026-01-01 22:36:28.45	207.77	3.88	-61.0	-71.7	3.8	7.45e-01	0	33	104	0	89	13421
2026-01-01 22:36:31.45	207.76	3.65	-61.1	-71.8	3.8	7.44e-01	0	34	104	0	90	12864
2026-01-01 22:36:34.46	207.74	3.42	-61.3	-71.9	3.8	7.44e-01	0	33	104	0	90	13067
2026-01-01 22:36:37.45	207.73	3.20	-61.3	-72.0	3.8	7.47e-01	0	33	104	0	90	13181
2026-01-01 22:36:40.43	207.71	2.98	-61.3	-71.9	3.8	7.47e-01	0	33	104	0	90	13063
2026-01-01 22:36:43.42	207.70	2.76	-61.2	-71.9	3.8	7.45e-01	0	33	104	0	90	13034
2026-01-01 22:36:46.42	207.69	2.54	-61.2	-71.8	3.8	7.44e-01	0	34	104	0	90	12908
2026-01-01 22:36:49.41	207.67	2.33	-61.1	-71.8	3.8	7.45e-01	0	34	104	0	90	12868
2026-01-01 22:36:52.41	207.66	2.12	-61.1	-71.8	3.8	7.44e-01	0	33	104	0	90	12841

#Closed at: 2026-01-01 22:36:55
#Recorded file [0 MB]: D:/lorett/data/31004_260102_012623.dat