passes_logs/2026/01/01/R3.2S_Murmansk/R3.2S_Murmansk__20260101_213930_KANOPUS-V_4_rec.log

#Pass ID: 20260101_213930_KANOPUS-V 4
#Satellite: KANOPUS-V 4
#Configuration: KANOPUS-V_8320
#almurnet v.1.7.20251203
#Start time: 2026-01-01 21:39:31

#Version: 2.2.20231116
#Station: R3.2S_Murmansk
#Location: 33.079688 lon 68.888172 lat
#TLE: 1 43181U 18014B   25365.57208584  .00000531  00000+0  25305-4 0  9998
#TLE: 2 43181  97.3700 269.4964 0001685  86.9371 273.2058 15.23323021439228

#Time	Az	El	Level	Level2	SNR	BER	BlckErr	Temp	State	Recorded	gain1	gain2
2026-01-01 21:39:31.56	20.99	2.10	-60.9	-70.6	3.8	7.46e-01	0	32	0	0	86	10733
2026-01-01 21:39:34.56	21.09	2.31	-60.9	-70.6	3.8	7.45e-01	0	32	104	0	86	10687
2026-01-01 21:39:37.55	21.20	2.52	-60.9	-70.6	3.8	7.46e-01	0	32	104	0	86	10704
2026-01-01 21:39:40.55	21.31	2.73	-60.9	-70.6	3.8	7.47e-01	0	32	104	0	86	10714
2026-01-01 21:39:43.55	21.42	2.94	-60.9	-70.6	3.8	7.46e-01	0	32	104	0	86	10710
2026-01-01 21:39:46.55	21.53	3.16	-60.9	-70.6	3.8	7.45e-01	0	32	104	0	86	10690
2026-01-01 21:39:49.53	21.64	3.38	-60.9	-70.6	3.8	7.47e-01	0	32	104	0	86	10738
2026-01-01 21:39:52.54	21.76	3.60	-60.9	-70.6	3.8	7.46e-01	0	32	104	0	86	10700
2026-01-01 21:39:55.54	21.88	3.82	-60.9	-70.6	3.8	7.46e-01	0	32	104	0	86	10719
2026-01-01 21:39:58.55	22.00	4.04	-60.9	-70.6	3.8	7.45e-01	0	32	104	0	86	10672
2026-01-01 21:40:01.56	22.12	4.27	-60.8	-70.5	3.8	7.45e-01	0	32	104	0	86	10653
2026-01-01 21:40:04.56	22.25	4.50	-60.8	-70.6	3.8	7.46e-01	0	32	104	0	86	10676
2026-01-01 21:40:07.56	22.37	4.73	-60.8	-70.6	3.8	7.47e-01	0	32	104	0	86	10691
2026-01-01 21:40:10.56	22.50	4.97	-60.8	-70.6	3.8	7.46e-01	0	32	104	0	86	10717
2026-01-01 21:40:13.56	22.63	5.21	-60.9	-70.6	3.8	7.44e-01	0	32	104	0	86	10704
2026-01-01 21:40:16.56	22.77	5.45	-61.0	-70.7	3.8	7.43e-01	0	32	104	0	86	10831
2026-01-01 21:40:19.55	22.90	5.69	-60.9	-70.6	3.8	7.45e-01	0	32	104	0	86	10756
2026-01-01 21:40:22.53	23.04	5.93	-60.9	-70.6	3.8	7.48e-01	0	33	104	0	86	10677
2026-01-01 21:40:25.52	23.18	6.18	-61.0	-70.6	3.8	7.46e-01	0	33	104	0	86	10763
2026-01-01 21:40:28.51	23.33	6.43	-61.1	-70.8	3.8	7.46e-01	0	33	104	0	86	10945
2026-01-01 21:40:31.51	23.47	6.69	-61.0	-70.7	3.8	7.47e-01	0	33	104	0	86	10854
2026-01-01 21:40:34.51	23.63	6.95	-61.0	-70.7	3.8	7.46e-01	0	33	104	0	86	10822
2026-01-01 21:40:37.51	23.78	7.21	-61.0	-70.7	3.8	7.45e-01	0	33	104	0	86	10896
2026-01-01 21:40:40.48	23.93	7.47	-61.1	-70.9	3.8	7.46e-01	0	33	104	0	86	11047
2026-01-01 21:40:43.48	24.09	7.74	-61.1	-70.8	3.8	7.45e-01	0	33	104	0	86	10941
2026-01-01 21:40:46.49	24.26	8.02	-61.0	-70.8	3.8	7.44e-01	0	33	104	0	86	10934
2026-01-01 21:40:49.49	24.43	8.30	-61.1	-70.9	3.8	7.46e-01	0	33	104	0	86	11054
2026-01-01 21:40:52.49	24.60	8.58	-61.2	-70.9	3.8	7.45e-01	0	33	104	0	86	11126
2026-01-01 21:40:55.48	24.77	8.86	-61.1	-70.9	3.8	7.45e-01	0	33	104	0	86	11030
2026-01-01 21:40:58.48	24.95	9.15	-61.1	-70.9	3.8	7.46e-01	0	33	104	0	86	11056
2026-01-01 21:41:01.47	25.13	9.44	-61.2	-70.9	3.8	7.45e-01	0	33	104	0	86	11150
2026-01-01 21:41:04.48	25.32	9.74	-61.3	-71.0	3.8	7.45e-01	0	33	104	0	86	11165
2026-01-01 21:41:07.47	25.51	10.05	-61.2	-70.9	3.8	7.46e-01	0	33	104	0	86	11132
2026-01-01 21:41:10.47	25.71	10.35	-61.2	-70.9	3.8	7.45e-01	0	33	104	0	86	11149
2026-01-01 21:41:13.46	25.91	10.67	-61.3	-71.0	3.8	7.46e-01	0	33	104	0	86	11242
2026-01-01 21:41:16.46	26.12	10.98	-61.4	-71.0	3.8	7.45e-01	0	33	104	0	86	11281
2026-01-01 21:41:19.46	26.33	11.31	-61.3	-71.0	3.8	7.45e-01	0	33	104	0	86	11267
2026-01-01 21:41:22.45	26.54	11.64	-61.3	-71.0	3.8	7.46e-01	0	33	104	0	86	11244
2026-01-01 21:41:25.44	26.76	11.97	-61.4	-71.1	3.8	7.47e-01	0	33	104	0	86	11358
2026-01-01 21:41:28.44	26.99	12.31	-61.4	-71.1	3.8	7.45e-01	0	33	104	0	86	11371
2026-01-01 21:41:31.43	27.23	12.66	-61.4	-71.1	3.8	7.44e-01	0	33	104	0	86	11333
2026-01-01 21:41:34.43	27.47	13.01	-61.4	-71.1	3.8	7.44e-01	0	33	104	0	86	11362
2026-01-01 21:41:37.43	27.72	13.37	-61.5	-71.2	3.8	7.45e-01	0	33	104	0	86	11463
2026-01-01 21:41:40.41	27.97	13.73	-61.5	-71.2	3.8	7.46e-01	0	33	104	0	86	11508
2026-01-01 21:41:43.41	28.23	14.10	-61.4	-71.2	3.8	7.46e-01	0	33	104	0	86	11442
2026-01-01 21:41:46.41	28.50	14.49	-61.5	-71.2	3.8	7.46e-01	0	33	104	0	86	11426
2026-01-01 21:41:49.40	28.78	14.87	-61.5	-71.3	3.8	7.44e-01	0	33	104	0	86	11566
2026-01-01 21:41:52.41	29.07	15.27	-61.6	-71.3	3.8	7.45e-01	0	33	104	0	86	11593
2026-01-01 21:41:55.40	29.36	15.67	-61.5	-71.2	3.8	7.45e-01	0	33	104	0	86	11530
2026-01-01 21:41:58.40	29.66	16.08	-61.5	-71.2	3.8	7.46e-01	0	33	104	0	86	11545
2026-01-01 21:42:01.40	29.98	16.50	-61.6	-71.3	3.8	7.46e-01	0	33	104	0	86	11670
2026-01-01 21:42:04.39	30.30	16.93	-61.6	-71.4	3.8	7.45e-01	0	33	104	0	86	11686
2026-01-01 21:42:07.38	30.63	17.37	-61.6	-71.3	3.8	7.47e-01	0	33	104	0	86	11662
2026-01-01 21:42:10.39	30.98	17.82	-61.6	-71.3	3.8	7.45e-01	0	33	104	0	86	11656
2026-01-01 21:42:13.40	31.34	18.28	-61.7	-71.4	3.8	7.47e-01	0	33	104	0	86	11731
2026-01-01 21:42:16.39	31.71	18.74	-61.7	-71.4	3.8	7.46e-01	0	33	104	0	86	11815
2026-01-01 21:42:19.40	32.09	19.22	-61.7	-71.4	3.8	7.45e-01	0	33	104	0	86	11737
2026-01-01 21:42:22.38	32.49	19.71	-61.7	-71.4	3.8	7.44e-01	0	33	104	0	86	11753
2026-01-01 21:42:25.37	32.90	20.21	-61.8	-71.5	3.8	7.45e-01	0	33	104	0	86	11855
2026-01-01 21:42:28.35	33.32	20.72	-61.8	-71.5	3.8	7.45e-01	0	33	104	0	86	11882
2026-01-01 21:42:31.35	33.77	21.24	-61.8	-71.5	3.8	7.45e-01	0	33	104	0	86	11857
2026-01-01 21:42:34.34	34.22	21.78	-61.8	-71.5	3.8	7.46e-01	0	33	104	0	86	11876
2026-01-01 21:42:37.35	34.70	22.33	-61.8	-71.5	3.8	7.45e-01	0	33	104	0	86	11945
2026-01-01 21:42:40.35	35.20	22.89	-61.9	-71.6	3.8	7.46e-01	0	33	104	0	86	11995
2026-01-01 21:42:43.34	35.72	23.47	-61.8	-71.5	3.8	7.44e-01	0	33	104	0	86	11894
2026-01-01 21:42:46.34	36.26	24.06	-61.8	-71.5	3.8	7.47e-01	0	33	104	0	86	11938
2026-01-01 21:42:49.34	36.82	24.66	-61.9	-71.6	3.8	7.46e-01	0	33	104	0	87	11356
2026-01-01 21:42:52.33	37.40	25.28	-61.9	-71.6	3.8	7.46e-01	0	33	104	0	87	11372
2026-01-01 21:42:55.33	38.01	25.91	-61.9	-71.6	3.8	7.45e-01	0	33	104	0	87	11344
2026-01-01 21:42:58.33	38.65	26.57	-61.9	-71.6	3.8	7.47e-01	0	33	104	0	87	11375
2026-01-01 21:43:01.32	39.32	27.23	-62.0	-71.7	3.8	7.45e-01	0	33	104	0	87	11430
2026-01-01 21:43:04.31	40.02	27.91	-62.0	-71.7	3.8	7.45e-01	0	34	104	0	87	11492
2026-01-01 21:43:07.30	40.75	28.61	-62.0	-71.7	3.8	7.46e-01	0	34	104	0	87	11447
2026-01-01 21:43:10.29	41.51	29.32	-62.0	-71.7	3.8	7.47e-01	0	34	104	0	87	11483
2026-01-01 21:43:13.30	42.32	30.06	-62.1	-71.8	3.8	7.45e-01	0	33	104	0	87	11595
2026-01-01 21:43:16.30	43.17	30.81	-62.1	-71.8	3.8	7.46e-01	0	33	104	0	87	11622
2026-01-01 21:43:19.29	44.06	31.57	-62.0	-71.8	3.8	7.45e-01	0	34	104	0	87	11555
2026-01-01 21:43:22.28	44.99	32.35	-62.1	-71.8	3.8	7.45e-01	0	34	104	0	87	11581
2026-01-01 21:43:25.27	45.97	33.15	-62.1	-71.9	3.8	7.45e-01	0	33	104	0	87	11717
2026-01-01 21:43:28.25	47.00	33.96	-62.2	-71.9	3.8	7.47e-01	0	34	104	0	87	11710
2026-01-01 21:43:31.24	48.10	34.79	-62.1	-71.9	3.8	7.46e-01	0	33	104	0	87	11721
2026-01-01 21:43:34.25	49.26	35.64	-62.1	-71.9	3.8	7.45e-01	0	33	104	0	87	11711
2026-01-01 21:43:37.24	50.48	36.50	-62.2	-71.9	3.8	7.45e-01	0	34	104	0	87	11815
2026-01-01 21:43:40.25	51.77	37.37	-62.2	-72.0	3.8	7.45e-01	0	33	104	0	87	11833
2026-01-01 21:43:43.25	53.14	38.26	-62.2	-72.0	3.8	7.44e-01	0	34	104	0	87	11820
2026-01-01 21:43:46.25	54.59	39.15	-62.2	-71.9	3.8	7.44e-01	0	34	104	0	87	11762
2026-01-01 21:43:49.26	56.12	40.05	-62.3	-72.0	3.8	7.44e-01	0	33	104	0	87	11864
2026-01-01 21:43:52.28	57.76	40.96	-62.3	-72.0	3.8	7.45e-01	0	33	104	0	87	11933
2026-01-01 21:43:55.28	59.48	41.86	-62.3	-72.0	3.8	7.45e-01	0	33	104	0	87	11866
2026-01-01 21:43:58.29	61.31	42.76	-62.3	-72.0	3.8	7.45e-01	0	34	104	0	87	11862
2026-01-01 21:44:01.29	63.24	43.65	-62.3	-72.0	3.8	7.45e-01	0	33	104	0	87	11954
2026-01-01 21:44:04.27	65.28	44.52	-62.3	-72.1	3.8	7.47e-01	0	33	104	0	87	12001
2026-01-01 21:44:07.28	67.45	45.38	-62.3	-72.0	3.8	7.46e-01	0	33	104	0	87	11948
2026-01-01 21:44:10.28	69.73	46.21	-62.3	-72.0	3.8	7.46e-01	0	33	104	0	87	11926
2026-01-01 21:44:13.28	72.14	47.01	-62.4	-72.1	3.8	7.45e-01	0	34	104	0	87	12070
2026-01-01 21:44:16.28	74.68	47.76	-62.4	-72.2	3.8	7.45e-01	0	33	104	0	88	11437
2026-01-01 21:44:19.27	77.33	48.47	-62.4	-72.1	3.8	7.47e-01	0	33	104	0	88	11405
2026-01-01 21:44:22.28	80.13	49.13	-62.4	-72.1	3.8	7.45e-01	0	33	104	0	88	11310
2026-01-01 21:44:25.26	83.01	49.72	-62.4	-72.1	3.8	7.44e-01	0	34	104	0	88	11399
2026-01-01 21:44:28.25	86.02	50.24	-62.5	-72.2	3.8	7.45e-01	0	34	104	0	88	11486
2026-01-01 21:44:31.24	89.13	50.69	-62.5	-72.2	3.8	7.45e-01	0	33	104	0	88	11456
2026-01-01 21:44:34.24	92.33	51.05	-62.4	-72.1	3.8	7.46e-01	0	33	104	0	88	11410
2026-01-01 21:44:37.23	95.59	51.32	-62.5	-72.2	3.8	7.45e-01	0	33	104	0	88	11483
2026-01-01 21:44:40.22	98.90	51.49	-62.5	-72.2	3.8	7.45e-01	0	34	104	0	88	11521
2026-01-01 21:44:43.21	102.25	51.57	-62.5	-72.2	3.8	7.46e-01	0	34	104	0	88	11467
2026-01-01 21:44:46.21	105.61	51.55	-62.4	-72.2	3.8	7.46e-01	0	34	104	0	88	11469
2026-01-01 21:44:49.22	108.96	51.43	-62.5	-72.2	3.8	7.46e-01	0	33	104	0	88	11465
2026-01-01 21:44:52.22	112.27	51.22	-62.5	-72.2	3.8	7.44e-01	0	33	104	0	88	11529
2026-01-01 21:44:55.22	115.52	50.91	-62.5	-72.2	3.8	7.47e-01	0	33	104	0	88	11468
2026-01-01 21:44:58.23	118.70	50.51	-62.4	-72.2	3.8	7.48e-01	0	34	104	0	88	11423
2026-01-01 21:45:01.22	121.77	50.03	-62.5	-72.2	3.8	7.46e-01	0	34	104	0	88	11501
2026-01-01 21:45:04.22	124.74	49.47	-62.5	-72.2	3.8	7.45e-01	0	34	104	0	88	11467
2026-01-01 21:45:07.22	127.60	48.85	-62.4	-72.1	3.8	7.45e-01	0	34	104	0	88	11396
2026-01-01 21:45:10.22	130.34	48.17	-62.4	-72.1	3.8	7.45e-01	0	34	104	0	88	11339
2026-01-01 21:45:13.22	132.95	47.43	-62.4	-72.1	3.8	7.44e-01	0	34	104	0	88	11343
2026-01-01 21:45:16.23	135.45	46.65	-62.4	-72.1	3.8	7.44e-01	0	34	104	0	88	11401
2026-01-01 21:45:19.22	137.80	45.84	-62.4	-72.1	3.8	7.45e-01	0	34	104	0	88	11358
2026-01-01 21:45:22.22	140.03	44.99	-62.3	-72.1	3.8	7.46e-01	0	33	104	0	88	11301
2026-01-01 21:45:25.22	142.15	44.13	-62.4	-72.1	3.8	7.45e-01	0	34	104	0	88	11353
2026-01-01 21:45:28.21	144.14	43.24	-62.3	-72.1	3.8	7.46e-01	0	34	104	0	88	11292
2026-01-01 21:45:31.21	146.03	42.35	-62.3	-72.1	3.8	7.45e-01	0	34	104	0	88	11312
2026-01-01 21:45:34.20	147.81	41.45	-62.3	-72.0	3.8	7.47e-01	0	34	104	0	88	11230
2026-01-01 21:45:37.19	149.48	40.55	-62.3	-72.0	3.8	7.45e-01	0	34	104	0	88	11224
2026-01-01 21:45:40.19	151.07	39.64	-62.3	-72.0	3.8	7.46e-01	0	33	104	0	88	11227
2026-01-01 21:45:43.19	152.57	38.74	-62.3	-72.0	3.8	7.46e-01	0	33	104	0	88	11189
2026-01-01 21:45:46.18	153.98	37.85	-62.2	-71.9	3.8	7.46e-01	0	33	104	0	88	11154
2026-01-01 21:45:49.18	155.32	36.97	-62.2	-72.0	3.8	7.46e-01	0	34	104	0	88	11164
2026-01-01 21:45:52.18	156.59	36.10	-62.2	-71.9	3.8	7.44e-01	0	33	104	0	88	11074
2026-01-01 21:45:55.16	157.78	35.25	-62.2	-71.9	3.8	7.46e-01	0	33	104	0	88	11101
2026-01-01 21:45:58.16	158.91	34.40	-62.2	-71.9	3.8	7.44e-01	0	34	104	0	88	11045
2026-01-01 21:46:01.16	159.98	33.57	-62.2	-71.9	3.8	7.46e-01	0	34	104	0	88	11042
2026-01-01 21:46:04.15	161.00	32.76	-62.1	-71.8	3.8	7.45e-01	0	34	104	0	88	10994
2026-01-01 21:46:07.14	161.96	31.97	-62.1	-71.8	3.8	7.47e-01	0	33	104	0	88	11004
2026-01-01 21:46:10.15	162.88	31.18	-62.1	-71.8	3.8	7.45e-01	0	34	104	0	88	10957
2026-01-01 21:46:13.14	163.75	30.42	-62.0	-71.8	3.8	7.45e-01	0	34	104	0	88	10939
2026-01-01 21:46:16.13	164.58	29.68	-62.0	-71.7	3.8	7.46e-01	0	33	104	0	88	10870
2026-01-01 21:46:19.13	165.37	28.95	-62.0	-71.7	3.8	7.47e-01	0	34	104	0	88	10868
2026-01-01 21:46:22.13	166.13	28.24	-62.0	-71.7	3.8	7.47e-01	0	34	104	0	88	10850
2026-01-01 21:46:25.12	166.84	27.55	-62.0	-71.7	3.8	7.44e-01	0	34	104	0	88	10783
2026-01-01 21:46:28.11	167.53	26.87	-61.9	-71.6	3.8	7.44e-01	0	34	104	0	88	10743
2026-01-01 21:46:31.10	168.18	26.21	-61.9	-71.6	3.8	7.46e-01	0	34	104	0	88	10769
2026-01-01 21:46:34.10	168.81	25.56	-61.9	-71.6	3.8	7.46e-01	0	33	104	0	88	10681
2026-01-01 21:46:37.10	169.41	24.93	-61.8	-71.6	3.8	7.44e-01	0	34	104	0	88	10705
2026-01-01 21:46:40.10	169.99	24.31	-61.8	-71.6	3.8	7.45e-01	0	34	104	0	88	10684
2026-01-01 21:46:43.08	170.54	23.72	-61.8	-71.5	3.8	7.45e-01	0	34	104	0	88	10606
2026-01-01 21:46:46.08	171.07	23.13	-61.8	-71.5	3.8	7.45e-01	0	34	104	0	88	10587
2026-01-01 21:46:49.08	171.58	22.56	-61.8	-71.5	3.8	7.45e-01	0	34	104	0	88	10587
2026-01-01 21:46:52.08	172.07	22.00	-61.7	-71.5	3.8	7.47e-01	0	33	104	0	88	10542
2026-01-01 21:46:55.08	172.54	21.45	-61.7	-71.4	3.8	7.47e-01	0	33	104	0	88	10485
2026-01-01 21:46:58.08	172.99	20.92	-61.7	-71.4	3.8	7.46e-01	0	34	104	0	88	10485
2026-01-01 21:47:01.09	173.43	20.40	-61.7	-71.4	3.8	7.45e-01	0	34	104	0	87	11088
2026-01-01 21:47:04.10	173.85	19.88	-61.7	-71.4	3.8	7.46e-01	0	34	104	0	87	11106
2026-01-01 21:47:07.10	174.25	19.39	-61.6	-71.3	3.8	7.46e-01	0	34	104	0	87	10978
2026-01-01 21:47:10.10	174.64	18.90	-61.6	-71.3	3.8	7.45e-01	0	34	104	0	87	11018
2026-01-01 21:47:13.08	175.02	18.43	-61.6	-71.3	3.8	7.46e-01	0	34	104	0	87	11001
2026-01-01 21:47:16.10	175.38	17.96	-61.6	-71.3	3.8	7.45e-01	0	34	104	0	87	10925
2026-01-01 21:47:19.11	175.74	17.50	-61.5	-71.2	3.8	7.45e-01	0	34	104	0	87	10901
2026-01-01 21:47:22.11	176.08	17.06	-61.5	-71.2	3.8	7.46e-01	0	34	104	0	87	10833
2026-01-01 21:47:25.11	176.41	16.62	-61.5	-71.2	3.8	7.43e-01	0	34	104	0	87	10848
2026-01-01 21:47:28.11	176.73	16.20	-61.5	-71.2	3.8	7.46e-01	0	34	104	0	87	10862
2026-01-01 21:47:31.10	177.03	15.78	-61.4	-71.2	3.8	7.45e-01	0	34	104	0	87	10780
2026-01-01 21:47:34.08	177.33	15.37	-61.4	-71.1	3.8	7.45e-01	0	34	104	0	87	10770
2026-01-01 21:47:37.06	177.62	14.97	-61.4	-71.1	3.8	7.46e-01	0	33	104	0	87	10719
2026-01-01 21:47:40.05	177.90	14.58	-61.4	-71.1	3.8	7.47e-01	0	34	104	0	87	10706
2026-01-01 21:47:43.04	178.17	14.20	-61.4	-71.1	3.8	7.45e-01	0	34	104	0	87	10672
2026-01-01 21:47:46.02	178.44	13.82	-61.4	-71.1	3.8	7.46e-01	0	33	104	0	87	10721
2026-01-01 21:47:49.01	178.69	13.45	-61.3	-71.0	3.8	7.45e-01	0	33	104	0	87	10592
2026-01-01 21:47:52.01	178.95	13.09	-61.3	-71.0	3.8	7.46e-01	0	34	104	0	87	10636
2026-01-01 21:47:55.01	179.19	12.73	-61.2	-70.9	3.8	7.46e-01	0	33	104	0	87	10529
2026-01-01 21:47:58.01	179.43	12.38	-61.3	-70.9	3.8	7.47e-01	0	34	104	0	87	10531
2026-01-01 21:48:01.01	179.66	12.03	-61.2	-70.9	3.8	7.46e-01	0	34	104	0	87	10494
2026-01-01 21:48:04.00	179.88	11.70	-61.2	-70.9	3.8	7.46e-01	0	34	104	0	87	10502
2026-01-01 21:48:07.00	180.10	11.36	-61.1	-70.9	3.8	7.46e-01	0	34	104	0	86	11079
2026-01-01 21:48:10.00	180.31	11.04	-61.2	-70.9	3.8	7.46e-01	0	34	104	0	86	11082
2026-01-01 21:48:12.99	180.52	10.71	-61.1	-70.8	3.8	7.45e-01	0	34	104	0	86	10969
2026-01-01 21:48:15.99	180.73	10.40	-61.1	-70.8	3.8	7.46e-01	0	33	104	0	86	11017
2026-01-01 21:48:18.99	180.92	10.09	-61.0	-70.8	3.8	7.44e-01	0	34	104	0	86	10906
2026-01-01 21:48:21.98	181.12	9.78	-61.1	-70.8	3.8	7.45e-01	0	34	104	0	86	10961
2026-01-01 21:48:24.98	181.30	9.48	-61.0	-70.7	3.8	7.45e-01	0	34	104	0	86	10868
2026-01-01 21:48:27.98	181.49	9.18	-61.0	-70.7	3.8	7.46e-01	0	34	104	0	86	10866
2026-01-01 21:48:30.99	181.67	8.89	-60.9	-70.6	3.8	7.46e-01	0	34	104	0	86	10740
2026-01-01 21:48:33.97	181.84	8.60	-61.0	-70.7	3.8	7.46e-01	0	34	104	0	86	10787
2026-01-01 21:48:36.96	182.02	8.32	-60.9	-70.6	3.8	7.46e-01	0	34	104	0	86	10658
2026-01-01 21:48:39.96	182.18	8.04	-60.9	-70.6	3.8	7.45e-01	0	34	104	0	86	10754
2026-01-01 21:48:42.96	182.35	7.76	-60.8	-70.5	3.8	7.44e-01	0	34	104	0	86	10595
2026-01-01 21:48:45.94	182.51	7.49	-60.8	-70.6	3.8	7.46e-01	0	34	104	0	86	10662
2026-01-01 21:48:48.93	182.66	7.22	-60.7	-70.4	3.8	7.44e-01	0	34	104	0	86	10503
2026-01-01 21:48:51.93	182.82	6.96	-60.8	-70.5	3.8	7.47e-01	0	34	104	0	86	10570
2026-01-01 21:48:54.93	182.97	6.69	-60.6	-70.3	3.8	7.45e-01	0	33	104	0	85	10985
2026-01-01 21:48:57.93	183.12	6.44	-60.7	-70.4	3.8	7.45e-01	0	34	104	0	85	11101
2026-01-01 21:49:00.92	183.26	6.18	-60.5	-70.2	3.8	7.46e-01	0	34	104	0	85	10894
2026-01-01 21:49:03.91	183.40	5.93	-60.6	-70.3	3.8	7.45e-01	0	34	104	0	85	10969
2026-01-01 21:49:06.92	183.54	5.68	-60.4	-70.1	3.8	7.46e-01	0	34	104	0	85	10731
2026-01-01 21:49:09.93	183.68	5.44	-60.5	-70.2	3.8	7.45e-01	0	34	104	0	85	10862
2026-01-01 21:49:12.93	183.81	5.19	-60.3	-70.0	3.8	7.44e-01	0	34	104	0	85	10590
2026-01-01 21:49:15.92	183.94	4.95	-60.6	-70.3	3.8	7.47e-01	0	34	104	0	85	10966
2026-01-01 21:49:18.91	184.07	4.72	-61.8	-71.5	3.8	7.45e-01	0	34	104	0	86	11856
2026-01-01 21:49:21.91	184.20	4.48	-62.3	-72.0	3.8	7.46e-01	0	34	104	0	87	11896
2026-01-01 21:49:24.91	184.32	4.25	-62.6	-72.3	3.8	7.45e-01	0	34	104	0	88	11653
2026-01-01 21:49:27.91	184.44	4.02	-62.8	-72.5	3.8	7.45e-01	0	34	104	0	88	11889
2026-01-01 21:49:30.90	184.56	3.80	-62.9	-72.6	3.8	7.44e-01	0	34	104	0	88	12074
2026-01-01 21:49:33.89	184.68	3.57	-63.0	-72.7	3.8	7.45e-01	0	34	104	0	89	11514
2026-01-01 21:49:36.88	184.79	3.35	-63.0	-72.8	3.8	7.45e-01	0	34	104	0	89	11556
2026-01-01 21:49:39.88	184.91	3.13	-63.0	-72.7	3.8	7.46e-01	0	34	104	0	89	11449
2026-01-01 21:49:42.87	185.02	2.92	-62.9	-72.7	3.8	7.47e-01	0	34	104	0	89	11431
2026-01-01 21:49:45.88	185.13	2.70	-62.9	-72.6	3.8	7.46e-01	0	34	104	0	89	11416
2026-01-01 21:49:48.88	185.24	2.49	-62.9	-72.6	3.8	7.47e-01	0	34	104	0	89	11410
2026-01-01 21:49:51.88	185.34	2.28	-62.9	-72.6	3.8	7.46e-01	0	34	104	0	89	11365
2026-01-01 21:49:54.88	185.45	2.07	-62.8	-72.6	3.8	7.45e-01	0	34	104	0	89	11316

#Closed at: 2026-01-01 21:49:57
#Recorded file [0 MB]: D:/lorett/data/31004_260102_003931.dat