passes_logs/2026/01/01/R3.2S_Murmansk/R3.2S_Murmansk__20260101_143332_AQUA_rec.log

#Pass ID: 20260101_143332_AQUA
#Satellite: AQUA
#Configuration: AQUA
#almurnet v.1.7.20251203
#Start time: 2026-01-01 14:33:34

#Version: 2.2.20231116
#Station: R3.2S_Murmansk
#Location: 33.079688 lon 68.888172 lat
#TLE: 1 27424U 02022A   25365.92641127  .00002078  00000+0  42628-3 0  9999
#TLE: 2 27424  98.4058 327.1196 0001962  94.7781 340.6230 14.61783896258835

#Time	Az	El	Level	Level2	SNR	BER	BlckErr	Temp	State	Recorded	gain1	gain2
2026-01-01 14:33:34.04	243.62	2.06	-59.6	-78.8	3.8	7.46e-01	0	32	0	0	88	32105
2026-01-01 14:33:37.06	243.97	2.19	-59.6	-78.9	3.8	7.45e-01	0	32	104	0	86	36266
2026-01-01 14:33:40.08	244.32	2.33	-59.6	-78.9	3.8	7.44e-01	0	32	104	0	86	36227
2026-01-01 14:33:43.11	244.67	2.47	-59.6	-78.8	3.8	7.46e-01	0	32	104	0	86	36063
2026-01-01 14:33:46.14	245.03	2.60	-59.6	-78.8	3.8	7.46e-01	0	32	104	0	86	36099
2026-01-01 14:33:49.17	245.39	2.74	-59.6	-78.9	3.8	7.45e-01	0	32	104	0	86	36362
2026-01-01 14:33:52.19	245.75	2.87	-59.6	-78.8	3.8	7.44e-01	0	32	104	0	86	35956
2026-01-01 14:33:55.21	246.11	3.01	-59.5	-78.5	3.8	7.47e-01	0	32	104	0	86	34660
2026-01-01 14:33:58.23	246.48	3.14	-59.6	-78.7	3.8	7.49e-01	0	32	104	0	86	35618
2026-01-01 14:34:01.26	246.86	3.27	-59.6	-78.9	3.8	7.44e-01	0	32	104	0	86	36208
2026-01-01 14:34:04.29	247.24	3.41	-59.5	-78.5	3.8	7.45e-01	0	33	104	0	86	34611
2026-01-01 14:34:07.32	247.62	3.54	-59.5	-78.3	3.8	7.45e-01	0	32	104	0	86	33985
2026-01-01 14:34:10.34	248.00	3.68	-59.5	-78.4	3.8	7.45e-01	0	32	104	0	86	34261
2026-01-01 14:34:13.36	248.39	3.81	-59.5	-78.7	3.8	7.45e-01	0	32	104	0	86	35622
2026-01-01 14:34:16.39	248.78	3.94	-59.6	-78.3	3.8	7.47e-01	0	33	104	0	86	33925
2026-01-01 14:34:19.42	249.18	4.08	-59.5	-78.7	3.8	7.44e-01	0	33	104	0	86	35452
2026-01-01 14:34:22.45	249.58	4.21	-59.5	-78.5	3.8	7.44e-01	0	33	104	0	86	34525
2026-01-01 14:34:25.47	249.98	4.34	-59.5	-78.2	3.8	7.48e-01	0	33	104	0	86	33438
2026-01-01 14:34:28.49	250.39	4.47	-59.5	-78.0	3.9	7.46e-01	0	33	104	0	86	32870
2026-01-01 14:34:31.50	250.80	4.60	-59.5	-77.4	3.9	7.45e-01	0	33	104	0	86	30629
2026-01-01 14:34:34.53	251.21	4.73	-59.4	-74.2	4.3	7.23e-01	0	33	104	0	86	21232
2026-01-01 14:34:37.56	251.63	4.86	-59.1	-70.0	7.3	6.56e-01	92	33	0	4194304	86	12989
2026-01-01 14:34:40.59	252.06	4.99	-58.3	-65.2	11.5	6.12e-01	0	33	0	9961472	85	7914
2026-01-01 14:34:43.61	252.48	5.12	-57.1	-61.8	13.4	6.07e-01	0	33	0	15204352	83	6053
2026-01-01 14:34:46.64	252.91	5.25	-53.3	-55.5	16.8	6.06e-01	0	33	0	20447232	75	4612
2026-01-01 14:34:49.65	253.35	5.38	-53.2	-55.5	17.0	6.07e-01	0	33	0	25690112	75	4605
2026-01-01 14:34:52.66	253.78	5.51	-53.1	-55.3	17.0	6.08e-01	0	33	0	31457280	75	4509
2026-01-01 14:34:55.69	254.23	5.64	-53.0	-55.2	17.1	6.05e-01	0	33	0	37224448	75	4473
2026-01-01 14:34:58.72	254.67	5.76	-53.0	-55.1	17.1	6.07e-01	0	33	0	42991616	75	4439
2026-01-01 14:35:01.73	255.12	5.89	-53.0	-55.2	17.1	6.07e-01	0	33	0	48234496	75	4451
2026-01-01 14:35:04.75	255.58	6.01	-53.0	-55.1	17.1	6.07e-01	0	33	0	54001664	75	4435
2026-01-01 14:35:07.78	256.04	6.14	-53.0	-55.2	17.1	6.07e-01	0	33	0	59768832	74	4707
2026-01-01 14:35:10.79	256.50	6.26	-53.0	-55.1	17.1	6.07e-01	0	33	0	65536000	74	4688
2026-01-01 14:35:13.81	256.96	6.38	-52.9	-55.1	17.1	6.06e-01	0	33	0	71303168	74	4662
2026-01-01 14:35:16.83	257.43	6.50	-52.9	-55.1	17.1	6.07e-01	0	33	0	76546048	74	4654
2026-01-01 14:35:19.86	257.91	6.62	-52.8	-54.9	17.2	6.05e-01	0	33	0	82313216	74	4564
2026-01-01 14:35:22.88	258.39	6.74	-52.7	-54.7	17.3	6.08e-01	0	33	0	88080384	74	4459
2026-01-01 14:35:25.91	258.87	6.86	-52.8	-54.8	17.2	6.06e-01	0	33	0	93847552	74	4519
2026-01-01 14:35:28.93	259.36	6.98	-52.7	-54.7	17.2	6.05e-01	0	33	0	99614720	74	4468
2026-01-01 14:35:31.94	259.85	7.10	-52.6	-54.7	17.2	6.05e-01	0	33	0	105381888	74	4447
2026-01-01 14:35:34.96	260.35	7.21	-52.6	-54.6	17.2	6.06e-01	0	33	0	110624768	74	4427
2026-01-01 14:35:37.99	260.85	7.33	-52.3	-54.4	16.8	6.06e-01	0	33	0	116391936	73	4596
2026-01-01 14:35:41.01	261.35	7.44	-51.2	-54.3	14.4	6.07e-01	0	33	0	122159104	71	5093
2026-01-01 14:35:44.03	261.86	7.55	-52.3	-54.4	17.0	6.06e-01	0	33	0	127926272	72	4820
2026-01-01 14:35:47.05	262.37	7.66	-52.5	-54.5	17.2	6.06e-01	0	33	0	133693440	72	4891
2026-01-01 14:35:50.08	262.89	7.77	-52.4	-54.4	17.3	6.08e-01	0	33	0	138936320	72	4827
2026-01-01 14:35:53.11	263.41	7.88	-52.3	-54.3	17.3	6.08e-01	0	33	0	144703488	72	4779
2026-01-01 14:35:56.13	263.93	7.99	-52.4	-54.4	17.3	6.05e-01	0	33	0	150470656	72	4843
2026-01-01 14:35:59.15	264.46	8.09	-52.3	-54.2	17.4	6.06e-01	0	33	0	156237824	72	4722
2026-01-01 14:36:02.17	264.99	8.19	-52.4	-54.3	17.3	6.07e-01	0	33	0	162004992	72	4788
2026-01-01 14:36:05.20	265.53	8.30	-52.3	-54.2	17.4	6.07e-01	0	33	0	167772160	72	4712
2026-01-01 14:36:08.22	266.07	8.40	-52.2	-54.1	17.4	6.08e-01	0	33	0	173015040	72	4694
2026-01-01 14:36:11.23	266.61	8.49	-52.2	-54.1	17.3	6.06e-01	0	33	0	178782208	72	4680
2026-01-01 14:36:14.25	267.16	8.59	-53.7	-56.1	16.7	6.05e-01	0	33	0	184549376	75	4978
2026-01-01 14:36:17.27	267.71	8.69	-54.9	-58.2	15.7	6.06e-01	0	33	0	190316544	77	5637
2026-01-01 14:36:20.30	268.27	8.78	-55.6	-59.7	14.8	6.07e-01	0	33	0	196083712	78	6316
2026-01-01 14:36:23.32	268.83	8.87	-57.2	-64.6	11.0	6.14e-01	0	33	0	201326592	82	8819
2026-01-01 14:36:26.33	269.39	8.96	-56.1	-60.6	14.2	6.07e-01	0	33	0	207093760	81	5905
2026-01-01 14:36:29.35	269.95	9.05	-55.3	-58.8	15.5	6.07e-01	0	33	0	212860928	79	5369
2026-01-01 14:36:32.37	270.52	9.13	-53.8	-56.3	16.7	6.06e-01	0	33	0	218628096	76	4794
2026-01-01 14:36:35.39	271.10	9.22	-53.0	-55.1	17.2	6.06e-01	0	33	0	224395264	75	4430
2026-01-01 14:36:38.41	271.67	9.30	-51.9	-53.7	17.6	6.07e-01	0	33	0	229638144	73	4236
2026-01-01 14:36:41.43	272.25	9.38	-51.9	-53.8	17.5	6.06e-01	0	33	0	235405312	73	4253
2026-01-01 14:36:44.45	272.83	9.46	-52.0	-53.8	17.5	6.07e-01	0	33	0	241172480	72	4527
2026-01-01 14:36:47.48	273.42	9.53	-52.0	-53.8	17.5	6.06e-01	0	33	0	246939648	72	4519
2026-01-01 14:36:50.50	274.01	9.61	-52.0	-53.9	17.5	6.06e-01	0	33	0	252706816	72	4548
2026-01-01 14:36:53.52	274.60	9.68	-51.9	-53.7	17.5	6.05e-01	0	33	0	257949696	72	4487
2026-01-01 14:36:56.54	275.20	9.74	-52.0	-53.8	17.5	6.06e-01	0	33	0	263716864	72	4521
2026-01-01 14:36:59.56	275.80	9.81	-52.0	-53.9	17.5	6.06e-01	0	33	0	269484032	72	4565
2026-01-01 14:37:02.58	276.40	9.87	-52.0	-53.8	17.5	6.07e-01	0	33	0	275251200	72	4507
2026-01-01 14:37:05.61	277.00	9.94	-51.9	-53.7	17.5	6.07e-01	0	33	0	281018368	72	4468
2026-01-01 14:37:08.63	277.61	9.99	-51.9	-53.7	17.5	6.06e-01	0	33	0	286261248	72	4478
2026-01-01 14:37:11.65	278.22	10.05	-52.0	-53.8	17.5	6.03e-01	0	33	0	292028416	72	4519
2026-01-01 14:37:14.66	278.83	10.10	-51.9	-53.7	17.6	6.05e-01	0	33	0	297795584	72	4455
2026-01-01 14:37:17.68	279.44	10.15	-52.0	-53.8	17.6	6.05e-01	0	33	0	303562752	72	4501
2026-01-01 14:37:20.71	280.06	10.20	-51.9	-53.7	17.6	6.04e-01	0	33	0	309329920	72	4474
2026-01-01 14:37:23.72	280.67	10.25	-52.1	-53.9	17.5	6.05e-01	0	33	0	314572800	72	4563
2026-01-01 14:37:26.74	281.29	10.29	-52.1	-53.9	17.5	6.02e-01	0	33	0	320339968	72	4575
2026-01-01 14:37:29.75	281.91	10.33	-52.0	-53.8	17.6	6.04e-01	0	33	0	326107136	72	4534
2026-01-01 14:37:32.77	282.53	10.37	-52.1	-53.9	17.6	6.04e-01	0	33	0	331874304	72	4547
2026-01-01 14:37:35.80	283.16	10.40	-52.2	-54.1	17.5	6.04e-01	0	33	0	337641472	72	4660
2026-01-01 14:37:38.82	283.79	10.44	-52.1	-53.9	17.6	6.03e-01	0	33	0	342884352	72	4596
2026-01-01 14:37:41.85	284.41	10.46	-52.2	-54.0	17.5	6.06e-01	0	33	0	348651520	72	4648
2026-01-01 14:37:44.87	285.04	10.49	-52.1	-53.9	17.6	6.03e-01	0	33	0	354418688	72	4570
2026-01-01 14:37:47.89	285.67	10.51	-52.2	-54.0	17.5	6.03e-01	0	33	0	360185856	72	4636
2026-01-01 14:37:50.92	286.30	10.53	-52.2	-54.0	17.5	6.03e-01	0	33	0	365953024	72	4636
2026-01-01 14:37:53.95	286.94	10.55	-52.4	-54.2	17.5	6.02e-01	0	33	0	371195904	72	4718
2026-01-01 14:37:56.97	287.57	10.57	-52.3	-54.2	17.5	6.03e-01	0	33	0	376963072	72	4706
2026-01-01 14:37:59.98	288.20	10.58	-52.2	-54.0	17.6	6.04e-01	0	33	0	382730240	72	4649
2026-01-01 14:38:03.00	288.83	10.59	-52.2	-54.0	17.5	6.02e-01	0	33	0	388497408	72	4649
2026-01-01 14:38:06.01	289.46	10.59	-52.2	-54.0	17.5	6.02e-01	0	33	0	394264576	72	4630
2026-01-01 14:38:09.04	290.10	10.60	-52.2	-54.1	17.5	6.01e-01	0	33	0	399507456	72	4666
2026-01-01 14:38:12.06	290.73	10.60	-52.3	-54.2	17.5	5.99e-01	0	33	0	405274624	72	4712
2026-01-01 14:38:15.07	291.36	10.59	-52.2	-54.0	17.5	6.02e-01	0	33	0	411041792	72	4606
2026-01-01 14:38:18.09	292.00	10.59	-52.3	-54.1	17.5	6.02e-01	0	33	0	416808960	72	4676
2026-01-01 14:38:21.11	292.63	10.58	-52.2	-54.0	17.6	6.02e-01	0	33	0	422576128	72	4623
2026-01-01 14:38:24.14	293.26	10.57	-52.2	-53.9	17.6	6.04e-01	0	33	0	427819008	72	4597
2026-01-01 14:38:27.16	293.90	10.55	-52.1	-53.9	17.6	6.02e-01	0	33	0	433586176	72	4589
2026-01-01 14:38:30.17	294.52	10.53	-52.1	-53.9	17.5	6.04e-01	0	33	0	439353344	72	4583
2026-01-01 14:38:33.19	295.15	10.51	-52.1	-53.9	17.6	6.03e-01	0	33	0	445120512	72	4552
2026-01-01 14:38:36.22	295.78	10.49	-52.1	-53.9	17.6	6.04e-01	0	33	0	450887680	72	4547
2026-01-01 14:38:39.25	296.41	10.46	-52.2	-54.1	17.5	6.02e-01	0	33	0	456130560	72	4662
2026-01-01 14:38:42.27	297.04	10.44	-52.0	-53.8	17.6	6.05e-01	0	33	0	461897728	72	4499
2026-01-01 14:38:45.29	297.67	10.40	-52.0	-53.8	17.5	6.03e-01	0	33	0	467664896	72	4537
2026-01-01 14:38:48.32	298.29	10.37	-51.9	-53.7	17.6	6.03e-01	0	33	0	473432064	72	4446
2026-01-01 14:38:51.35	298.92	10.33	-52.0	-53.8	17.5	6.02e-01	0	33	0	479199232	72	4531
2026-01-01 14:38:54.37	299.54	10.29	-52.1	-53.9	17.5	6.04e-01	0	33	0	484442112	72	4565
2026-01-01 14:38:57.39	300.15	10.25	-52.0	-53.8	17.6	6.02e-01	0	33	0	490209280	72	4542
2026-01-01 14:39:00.42	300.77	10.20	-52.0	-53.9	17.5	6.03e-01	0	33	0	495976448	72	4553
2026-01-01 14:39:03.44	301.39	10.15	-52.1	-53.9	17.5	6.04e-01	0	33	0	501743616	72	4562
2026-01-01 14:39:06.46	302.00	10.10	-52.0	-54.0	17.5	6.04e-01	0	33	0	507510784	71	4901
2026-01-01 14:39:09.49	302.61	10.05	-51.0	-53.7	17.5	6.01e-01	0	33	0	512753664	71	4749
2026-01-01 14:39:12.51	303.22	9.99	-51.7	-53.9	17.5	6.04e-01	0	33	0	518520832	71	4845
2026-01-01 14:39:15.53	303.82	9.94	-51.7	-53.8	17.5	6.03e-01	0	33	0	524288000	71	4808
2026-01-01 14:39:18.56	304.42	9.87	-52.0	-53.8	17.5	5.99e-01	0	33	0	530055168	71	4779
2026-01-01 14:39:21.58	305.02	9.81	-51.9	-53.7	17.6	6.03e-01	0	33	0	535822336	72	4472
2026-01-01 14:39:24.60	305.62	9.74	-52.0	-53.8	17.6	6.05e-01	0	33	0	541589504	72	4530
2026-01-01 14:39:27.62	306.21	9.68	-51.9	-53.7	17.5	6.03e-01	0	33	0	546832384	72	4489
2026-01-01 14:39:30.63	306.80	9.61	-52.0	-53.9	17.5	6.01e-01	0	33	0	552599552	72	4553
2026-01-01 14:39:33.66	307.39	9.53	-51.9	-53.8	17.5	6.03e-01	0	33	0	558366720	72	4499
2026-01-01 14:39:36.68	307.98	9.46	-52.0	-53.9	17.4	6.04e-01	0	33	0	564133888	72	4550
2026-01-01 14:39:39.70	308.56	9.38	-51.9	-53.7	17.5	6.05e-01	0	33	0	569901056	72	4486
2026-01-01 14:39:42.73	309.14	9.30	-52.0	-53.8	17.5	6.03e-01	0	33	0	575143936	72	4533
2026-01-01 14:39:45.75	309.71	9.22	-51.9	-53.8	17.5	6.04e-01	0	34	0	580911104	72	4511
2026-01-01 14:39:48.77	310.28	9.14	-52.0	-53.8	17.5	6.06e-01	0	33	0	586678272	72	4529
2026-01-01 14:39:51.80	310.85	9.05	-52.0	-53.8	17.5	6.04e-01	0	33	0	592445440	72	4520
2026-01-01 14:39:54.83	311.42	8.96	-51.9	-53.7	17.5	6.04e-01	0	33	0	598212608	72	4475
2026-01-01 14:39:57.85	311.98	8.87	-52.1	-53.9	17.5	6.05e-01	0	33	0	603979776	72	4585
2026-01-01 14:40:00.87	312.53	8.78	-52.1	-53.9	17.5	6.04e-01	0	33	0	609222656	72	4585
2026-01-01 14:40:03.89	313.09	8.69	-52.0	-53.8	17.5	6.03e-01	0	33	0	614989824	72	4526
2026-01-01 14:40:06.91	313.64	8.60	-52.0	-53.9	17.4	6.04e-01	0	33	0	620756992	72	4556
2026-01-01 14:40:09.93	314.18	8.50	-52.0	-53.8	17.5	6.02e-01	0	33	0	626524160	72	4538
2026-01-01 14:40:12.95	314.72	8.40	-52.1	-53.9	17.5	6.04e-01	0	34	0	632291328	72	4596
2026-01-01 14:40:15.97	315.26	8.30	-52.1	-54.0	17.4	6.01e-01	0	33	0	637534208	72	4637
2026-01-01 14:40:18.99	315.80	8.20	-52.1	-54.0	17.4	6.04e-01	0	33	0	643301376	72	4635
2026-01-01 14:40:22.01	316.33	8.10	-52.1	-54.1	17.4	6.04e-01	0	33	0	649068544	72	4654
2026-01-01 14:40:25.03	316.85	7.99	-52.2	-54.1	17.3	6.03e-01	0	33	0	654835712	72	4687
2026-01-01 14:40:28.06	317.37	7.89	-52.2	-54.2	17.3	6.03e-01	0	33	0	660602880	72	4707
2026-01-01 14:40:31.07	317.89	7.78	-52.1	-54.1	17.3	6.04e-01	0	34	0	665845760	72	4667
2026-01-01 14:40:34.10	318.41	7.67	-52.0	-53.9	17.4	6.04e-01	0	34	0	671612928	72	4558
2026-01-01 14:40:37.11	318.91	7.56	-52.0	-54.0	17.4	6.03e-01	0	33	0	677380096	72	4600
2026-01-01 14:40:40.13	319.42	7.45	-52.3	-54.2	17.2	6.04e-01	0	33	0	683147264	72	4759
2026-01-01 14:40:43.15	319.92	7.34	-52.2	-54.2	17.3	6.04e-01	0	33	0	688914432	72	4723
2026-01-01 14:40:46.17	320.42	7.22	-52.2	-54.1	17.3	6.03e-01	0	33	0	694157312	72	4681
2026-01-01 14:40:49.20	320.91	7.11	-52.2	-54.1	17.3	6.03e-01	0	34	0	699924480	72	4696
2026-01-01 14:40:52.21	321.40	6.99	-52.3	-54.2	17.3	6.03e-01	0	33	0	705691648	72	4754
2026-01-01 14:40:55.24	321.89	6.88	-52.5	-54.5	17.3	6.03e-01	0	33	0	711458816	72	4891
2026-01-01 14:40:58.26	322.37	6.76	-52.3	-54.3	17.3	6.01e-01	0	34	0	717225984	72	4812
2026-01-01 14:41:01.27	322.85	6.64	-52.3	-54.3	17.3	6.02e-01	0	33	0	722468864	72	4767
2026-01-01 14:41:04.30	323.32	6.52	-52.3	-54.3	17.3	6.04e-01	0	34	0	728236032	72	4765
2026-01-01 14:41:07.33	323.79	6.40	-52.5	-54.5	17.2	6.04e-01	0	34	0	734003200	72	4924
2026-01-01 14:41:10.35	324.26	6.28	-52.5	-54.5	17.1	6.05e-01	0	33	0	739770368	73	4646
2026-01-01 14:41:13.37	324.72	6.16	-52.5	-54.5	17.2	6.04e-01	0	33	0	745537536	73	4650
2026-01-01 14:41:16.40	325.17	6.03	-52.5	-54.6	17.2	6.03e-01	0	33	0	750780416	73	4687
2026-01-01 14:41:19.42	325.63	5.91	-52.6	-54.7	17.2	6.03e-01	0	33	0	756547584	73	4722
2026-01-01 14:41:22.44	326.08	5.78	-52.6	-54.7	17.2	6.04e-01	0	33	0	762314752	73	4734
2026-01-01 14:41:25.45	326.52	5.66	-52.6	-54.7	17.2	6.03e-01	0	33	0	768081920	73	4713
2026-01-01 14:41:28.48	326.96	5.53	-52.7	-54.9	17.1	6.04e-01	0	33	0	773849088	73	4816
2026-01-01 14:41:31.49	327.40	5.41	-52.7	-54.9	17.1	6.02e-01	0	33	0	779091968	73	4820
2026-01-01 14:41:34.52	327.83	5.28	-52.7	-54.9	17.1	6.05e-01	0	33	0	784859136	73	4832
2026-01-01 14:41:37.54	328.26	5.15	-52.8	-55.0	17.1	6.03e-01	0	34	0	790626304	73	4886
2026-01-01 14:41:40.57	328.68	5.02	-52.7	-54.8	17.1	6.03e-01	0	33	0	796393472	73	4811
2026-01-01 14:41:43.60	329.11	4.89	-60.3	-79.5	3.8	7.48e-01	0	34	104	799539200	88	34714
2026-01-01 14:41:46.62	329.52	4.77	-61.0	-80.3	3.8	7.46e-01	0	34	104	799539200	89	35789
2026-01-01 14:41:49.64	329.94	4.64	-61.4	-80.8	3.8	7.46e-01	0	33	104	799539200	90	35802
2026-01-01 14:41:52.66	330.34	4.51	-61.6	-81.3	3.8	7.45e-01	0	33	104	799539200	91	35754
2026-01-01 14:41:55.68	330.75	4.37	-61.7	-81.0	3.8	7.46e-01	0	34	104	799539200	91	34753
2026-01-01 14:41:58.71	331.15	4.24	-61.8	-81.1	3.8	7.47e-01	0	34	104	799539200	91	34978
2026-01-01 14:42:01.73	331.55	4.11	-61.7	-81.1	3.9	7.48e-01	0	34	104	799539200	91	34988
2026-01-01 14:42:04.76	331.95	3.98	-61.6	-81.0	3.8	7.46e-01	0	34	104	799539200	91	34590
2026-01-01 14:42:07.79	332.34	3.85	-61.6	-80.9	3.8	7.46e-01	0	33	104	799539200	91	34464
2026-01-01 14:42:10.82	332.72	3.72	-61.5	-80.9	3.8	7.45e-01	0	34	104	799539200	91	34143
2026-01-01 14:42:13.83	333.11	3.58	-61.5	-80.9	3.8	7.45e-01	0	34	104	799539200	91	34088
2026-01-01 14:42:16.85	333.49	3.45	-61.5	-80.8	3.8	7.46e-01	0	34	104	799539200	91	33998
2026-01-01 14:42:19.87	333.86	3.32	-61.5	-80.8	3.8	7.45e-01	0	34	104	799539200	91	33840
2026-01-01 14:42:22.90	334.23	3.18	-61.4	-80.8	3.8	7.45e-01	0	34	104	799539200	91	33742
2026-01-01 14:42:25.93	334.60	3.05	-61.4	-80.8	3.8	7.43e-01	0	34	104	799539200	91	33813
2026-01-01 14:42:28.95	334.97	2.92	-61.4	-80.7	3.8	7.45e-01	0	34	104	799539200	91	33639
2026-01-01 14:42:31.97	335.33	2.78	-61.4	-80.7	3.8	7.45e-01	0	34	104	799539200	91	33637
2026-01-01 14:42:35.00	335.69	2.65	-61.4	-80.7	3.8	7.46e-01	0	34	104	799539200	91	33631
2026-01-01 14:42:38.02	336.04	2.52	-61.4	-80.7	3.8	7.47e-01	0	34	104	799539200	91	33548
2026-01-01 14:42:41.05	336.40	2.38	-61.4	-80.7	3.8	7.46e-01	0	34	104	799539200	91	33491
2026-01-01 14:42:44.07	336.75	2.25	-61.4	-80.7	3.8	7.44e-01	0	34	104	799539200	91	33453
2026-01-01 14:42:47.09	337.09	2.11	-61.3	-80.7	3.8	7.50e-01	0	34	104	799539200	91	33442
2026-01-01 14:42:50.12	337.43	1.98	-61.3	-80.7	3.8	7.48e-01	0	34	104	799539200	91	33394

#Closed at: 2026-01-01 14:42:50
#Recorded file [799 MB]: D:/lorett/data/31004_260101_173333.dat