passes_logs/2026/01/01/R3.2S_Murmansk/R3.2S_Murmansk__20260101_005420_NOAA_20_JPSS-1_rec.log

#Pass ID: 20260101_005420_NOAA 20 (JPSS-1)
#Satellite: NOAA 20 (JPSS-1)
#Configuration: NOAA 20
#almurnet v.1.7.20251203
#Start time: 2026-01-01 00:54:19

#Version: 2.2.20231116
#Station: R3.2S_Murmansk
#Location: 33.079688 lon 68.888172 lat
#TLE: 1 43013U 17073A   25365.59858899  .00000178  00000+0  10524-3 0  9991
#TLE: 2 43013  98.7620 301.6911 0001952  60.2533 299.8837 14.19531732420695

#Time	Az	El	Level	Level2	SNR	BER	BlckErr	Temp	State	Recorded	gain1	gain2
2026-01-01 00:54:19.92	25.38	1.96	-59.9	-75.9	3.8	1.49e+00	0	33	0	0	86	22101
2026-01-01 00:54:23.93	25.37	2.22	-59.9	-75.9	3.8	1.49e+00	0	33	104	0	85	23445
2026-01-01 00:54:27.93	25.36	2.48	-59.9	-75.9	3.8	1.49e+00	0	33	104	0	85	23394
2026-01-01 00:54:31.92	25.35	2.74	-59.9	-75.9	3.8	1.49e+00	0	33	104	0	85	23332
2026-01-01 00:54:35.92	25.34	3.00	-59.9	-75.8	3.8	1.49e+00	0	33	104	0	85	23250
2026-01-01 00:54:39.91	25.33	3.27	-59.9	-75.5	3.8	1.49e+00	0	33	104	0	85	22292
2026-01-01 00:54:43.89	25.32	3.54	-59.9	-75.2	3.8	1.49e+00	0	33	104	0	85	21589
2026-01-01 00:54:47.88	25.31	3.81	-59.9	-75.3	3.8	1.49e+00	0	34	104	0	85	21873
2026-01-01 00:54:51.89	25.30	4.08	-59.9	-75.5	3.8	1.49e+00	0	34	104	0	85	22379
2026-01-01 00:54:55.89	25.28	4.36	-59.6	-70.9	4.7	1.01e+00	0	34	0	1048576	85	13213
2026-01-01 00:54:59.88	25.27	4.63	-59.1	-66.6	7.6	1.09e-01	0	34	0	8388608	84	8534
2026-01-01 00:55:03.87	25.26	4.92	-58.5	-64.8	9.2	1.37e-02	0	34	0	15728640	83	7288
2026-01-01 00:55:07.87	25.24	5.20	-59.6	-69.2	5.7	1.29e+00	0	34	0	20971520	84	11438
2026-01-01 00:55:11.88	25.23	5.49	-57.3	-61.5	12.1	1.58e-01	0	34	0	28311552	81	5654
2026-01-01 00:55:15.87	25.21	5.78	-56.8	-60.4	13.2	2.20e-06	0	34	0	35651584	80	5240
2026-01-01 00:55:19.89	25.20	6.08	-56.6	-59.9	13.7	0.00e+00	0	34	0	42991616	79	5242
2026-01-01 00:55:23.90	25.18	6.38	-56.6	-59.9	13.6	0.00e+00	0	34	0	50331648	79	5278
2026-01-01 00:55:27.90	25.16	6.68	-56.5	-59.6	13.9	0.00e+00	0	34	0	57671680	79	5100
2026-01-01 00:55:31.86	25.14	6.98	-56.4	-59.5	14.0	0.00e+00	0	34	0	65011712	79	5030
2026-01-01 00:55:35.86	25.12	7.29	-56.4	-59.4	14.2	0.00e+00	0	34	0	73400320	79	4968
2026-01-01 00:55:39.86	25.10	7.60	-56.4	-59.3	14.3	0.00e+00	0	34	0	80740352	79	4907
2026-01-01 00:55:43.86	25.08	7.92	-56.4	-59.4	14.3	0.00e+00	0	34	0	88080384	79	4953
2026-01-01 00:55:47.85	25.06	8.24	-56.3	-59.2	14.3	0.00e+00	0	34	0	95420416	78	5155
2026-01-01 00:55:51.84	25.04	8.56	-56.2	-59.0	14.5	0.00e+00	0	35	0	102760448	78	5024
2026-01-01 00:55:55.84	25.01	8.89	-56.2	-59.1	14.5	0.00e+00	0	34	0	110100480	78	5048
2026-01-01 00:55:59.84	24.99	9.22	-56.2	-59.0	14.6	0.00e+00	0	34	0	118489088	78	5006
2026-01-01 00:56:03.84	24.96	9.56	-56.1	-58.8	14.7	0.00e+00	0	35	0	125829120	78	4898
2026-01-01 00:56:07.84	24.94	9.90	-56.0	-58.7	14.8	0.00e+00	0	34	0	133169152	78	4865
2026-01-01 00:56:11.83	24.91	10.25	-56.0	-58.6	14.9	0.00e+00	0	35	0	140509184	78	4788
2026-01-01 00:56:15.84	24.88	10.60	-55.9	-58.5	15.0	0.00e+00	0	34	0	147849216	78	4739
2026-01-01 00:56:19.84	24.85	10.96	-55.8	-58.4	15.1	0.00e+00	0	35	0	155189248	78	4674
2026-01-01 00:56:23.84	24.82	11.32	-55.8	-58.3	15.1	0.00e+00	0	35	0	162529280	78	4621
2026-01-01 00:56:27.82	24.79	11.69	-55.7	-58.1	15.2	0.00e+00	0	34	0	170917888	77	4798
2026-01-01 00:56:31.82	24.76	12.06	-55.7	-58.1	15.2	0.00e+00	0	35	0	178257920	77	4808
2026-01-01 00:56:35.81	24.72	12.44	-55.6	-58.0	15.4	0.00e+00	0	35	0	185597952	77	4722
2026-01-01 00:56:39.80	24.69	12.82	-55.6	-58.0	15.4	0.00e+00	0	34	0	192937984	77	4715
2026-01-01 00:56:43.81	24.65	13.22	-55.5	-57.8	15.5	0.00e+00	0	34	0	200278016	77	4643
2026-01-01 00:56:47.80	24.61	13.61	-55.4	-57.6	15.6	0.00e+00	0	35	0	207618048	77	4536
2026-01-01 00:56:51.80	24.57	14.02	-55.3	-57.5	15.8	0.00e+00	0	35	0	214958080	77	4476
2026-01-01 00:56:55.81	24.53	14.43	-55.3	-57.6	15.7	0.00e+00	0	34	0	223346688	77	4496
2026-01-01 00:56:59.82	24.48	14.85	-55.1	-57.2	15.9	0.00e+00	0	34	0	230686720	76	4592
2026-01-01 00:57:03.83	24.44	15.28	-55.1	-57.2	15.9	0.00e+00	0	34	0	238026752	76	4589
2026-01-01 00:57:07.83	24.39	15.71	-54.9	-56.9	16.1	0.00e+00	0	35	0	245366784	76	4426
2026-01-01 00:57:11.83	24.34	16.15	-54.8	-56.9	16.2	0.00e+00	0	34	0	252706816	76	4402
2026-01-01 00:57:15.84	24.29	16.60	-54.6	-56.6	16.3	0.00e+00	0	35	0	260046848	75	4510
2026-01-01 00:57:19.84	24.24	17.06	-54.5	-56.4	16.4	0.00e+00	0	34	0	268435456	75	4425
2026-01-01 00:57:23.83	24.18	17.52	-54.3	-56.2	16.5	0.00e+00	0	35	0	275775488	75	4308
2026-01-01 00:57:27.82	24.12	18.00	-54.4	-56.3	16.5	0.00e+00	0	35	0	283115520	75	4360
2026-01-01 00:57:31.82	24.06	18.48	-54.1	-55.9	16.6	0.00e+00	0	35	0	290455552	74	4439
2026-01-01 00:57:35.82	24.00	18.98	-54.0	-55.9	16.7	0.00e+00	0	35	0	297795584	74	4396
2026-01-01 00:57:39.82	23.94	19.48	-54.0	-55.8	16.7	0.00e+00	0	35	0	305135616	74	4385
2026-01-01 00:57:43.80	23.87	19.99	-53.9	-55.7	16.8	0.00e+00	0	35	0	312475648	74	4325
2026-01-01 00:57:47.80	23.80	20.52	-54.0	-55.8	16.7	0.00e+00	0	35	0	320864256	74	4371
2026-01-01 00:57:51.81	23.73	21.05	-53.7	-55.4	16.9	0.00e+00	0	35	0	328204288	74	4188
2026-01-01 00:57:55.80	23.65	21.60	-53.7	-55.5	16.9	0.00e+00	0	35	0	335544320	73	4454
2026-01-01 00:57:59.79	23.57	22.16	-53.7	-55.4	17.0	0.00e+00	0	35	0	342884352	73	4394
2026-01-01 00:58:03.77	23.48	22.73	-53.7	-55.5	16.9	0.00e+00	0	35	0	350224384	73	4448
2026-01-01 00:58:07.77	23.40	23.32	-53.7	-55.5	17.0	0.00e+00	0	35	0	357564416	73	4448
2026-01-01 00:58:11.75	23.31	23.91	-53.9	-55.6	16.9	0.00e+00	0	35	0	364904448	73	4535
2026-01-01 00:58:15.74	23.21	24.52	-54.0	-55.8	16.8	0.00e+00	0	35	0	373293056	73	4614
2026-01-01 00:58:19.73	23.11	25.15	-54.0	-55.8	16.8	0.00e+00	0	35	0	380633088	73	4625
2026-01-01 00:58:23.72	23.00	25.79	-54.2	-56.0	16.7	0.00e+00	0	35	0	387973120	73	4747
2026-01-01 00:58:27.70	22.89	26.45	-54.1	-55.9	16.7	0.00e+00	0	35	0	395313152	73	4680
2026-01-01 00:58:31.70	22.78	27.12	-54.4	-56.2	16.6	0.00e+00	0	35	0	402653184	74	4595
2026-01-01 00:58:35.67	22.66	27.81	-54.7	-56.6	16.5	0.00e+00	0	35	0	409993216	74	4777
2026-01-01 00:58:39.65	22.53	28.51	-55.2	-57.2	16.2	0.00e+00	0	34	0	417333248	75	4847
2026-01-01 00:58:43.64	22.40	29.24	-55.7	-57.9	15.8	0.00e+00	0	35	0	424673280	76	4940
2026-01-01 00:58:47.63	22.26	29.98	-56.1	-58.4	15.5	0.00e+00	0	35	0	433061888	77	4955
2026-01-01 00:58:51.62	22.11	30.75	-56.5	-59.1	15.2	0.00e+00	0	35	0	440401920	78	5064
2026-01-01 00:58:55.59	21.95	31.53	-56.6	-59.2	15.1	0.00e+00	0	35	0	447741952	78	5135
2026-01-01 00:58:59.59	21.79	32.34	-56.6	-59.2	15.0	0.00e+00	0	35	0	455081984	78	5141
2026-01-01 00:59:03.59	21.61	33.17	-56.5	-58.9	15.2	0.00e+00	0	35	0	462422016	78	4981
2026-01-01 00:59:07.58	21.43	34.02	-56.1	-58.5	15.6	0.00e+00	0	35	0	469762048	78	4736
2026-01-01 00:59:11.58	21.23	34.89	-55.6	-57.8	15.9	0.00e+00	0	35	0	477102080	77	4620
2026-01-01 00:59:15.57	21.03	35.79	-54.6	-56.5	16.6	0.00e+00	0	35	0	485490688	75	4443
2026-01-01 00:59:19.56	20.81	36.72	-53.9	-55.6	17.0	0.00e+00	0	35	0	492830720	74	4275
2026-01-01 00:59:23.56	20.57	37.67	-53.5	-55.1	17.2	0.00e+00	0	35	0	500170752	73	4290
2026-01-01 00:59:27.53	20.32	38.65	-53.5	-55.1	17.2	0.00e+00	0	35	0	507510784	73	4283
2026-01-01 00:59:31.53	20.06	39.66	-54.0	-55.7	17.0	0.00e+00	0	35	0	514850816	73	4567
2026-01-01 00:59:35.52	19.77	40.69	-54.5	-56.3	16.7	0.00e+00	0	35	0	522190848	74	4632
2026-01-01 00:59:39.51	19.47	41.76	-54.9	-56.9	16.5	0.00e+00	0	35	0	529530880	75	4672
2026-01-01 00:59:43.51	19.14	42.86	-54.8	-56.7	16.5	0.00e+00	0	35	0	536870912	75	4584
2026-01-01 00:59:47.50	18.79	43.99	-55.0	-56.9	16.5	0.00e+00	0	35	0	545259520	75	4690
2026-01-01 00:59:51.48	18.41	45.15	-55.9	-58.1	15.9	0.00e+00	0	35	0	552599552	76	5050
2026-01-01 00:59:55.48	18.01	46.35	-56.6	-59.1	15.3	0.00e+00	0	35	0	559939584	78	5067
2026-01-01 00:59:59.48	17.56	47.58	-57.3	-60.1	14.6	0.00e+00	0	35	0	567279616	79	5354
2026-01-01 01:00:03.47	17.08	48.84	-56.8	-59.3	15.1	0.00e+00	0	35	0	574619648	80	4628
2026-01-01 01:00:07.47	16.56	50.14	-55.1	-57.0	16.5	0.00e+00	0	35	0	581959680	76	4448
2026-01-01 01:00:11.45	15.98	51.47	-53.0	-54.4	17.6	0.00e+00	0	35	0	589299712	72	4189
2026-01-01 01:00:15.44	15.36	52.84	-52.8	-54.3	17.6	0.00e+00	0	35	0	597688320	72	4128
2026-01-01 01:00:19.44	14.66	54.25	-53.7	-55.3	17.2	0.00e+00	0	35	0	605028352	72	4606
2026-01-01 01:00:23.44	13.89	55.69	-54.4	-56.1	16.9	0.00e+00	0	35	0	612368384	73	4800
2026-01-01 01:00:27.44	13.04	57.16	-56.0	-58.2	15.9	0.00e+00	0	35	0	619708416	77	4822
2026-01-01 01:00:31.42	12.09	58.66	-56.7	-59.1	15.3	0.00e+00	0	35	0	627048448	78	5085
2026-01-01 01:00:35.42	11.02	60.20	-55.8	-57.9	16.1	0.00e+00	0	35	0	634388480	78	4425
2026-01-01 01:00:39.42	9.81	61.76	-53.7	-55.2	17.3	0.00e+00	0	35	0	642777088	73	4338
2026-01-01 01:00:43.41	8.43	63.34	-52.5	-53.9	17.8	0.00e+00	0	35	0	650117120	71	4164
2026-01-01 01:00:47.40	6.85	64.95	-53.7	-55.3	17.3	0.00e+00	0	35	0	657457152	72	4638
2026-01-01 01:00:51.38	5.04	66.56	-55.0	-56.9	16.6	0.00e+00	0	35	0	664797184	75	4668
2026-01-01 01:00:55.38	2.91	68.19	-54.5	-56.2	16.9	0.00e+00	0	35	0	672137216	75	4316
2026-01-01 01:00:59.37	0.40	69.82	-54.1	-55.8	17.1	0.00e+00	0	34	0	679477248	74	4366
2026-01-01 01:01:03.38	357.41	71.43	-54.0	-55.7	17.2	0.00e+00	0	35	0	686817280	74	4302
2026-01-01 01:01:07.38	353.83	73.01	-54.7	-56.5	16.8	0.00e+00	0	35	0	695205888	74	4748
2026-01-01 01:01:11.37	349.50	74.53	-57.1	-59.7	15.1	0.00e+00	0	35	0	702545920	79	5123
2026-01-01 01:01:15.37	344.19	75.96	-55.7	-57.6	16.3	0.00e+00	0	35	0	709885952	77	4541
2026-01-01 01:01:19.37	337.69	77.26	-55.8	-57.8	16.2	0.00e+00	0	35	0	717225984	77	4651
2026-01-01 01:01:23.37	329.79	78.38	-55.1	-56.9	16.7	0.00e+00	0	35	0	724566016	76	4411
2026-01-01 01:01:27.36	320.40	79.24	-54.8	-56.6	16.8	0.00e+00	0	35	0	731906048	76	4271
2026-01-01 01:01:31.36	309.66	79.78	-55.8	-57.9	16.2	0.00e+00	0	35	0	739246080	77	4666
2026-01-01 01:01:35.36	298.16	79.93	-54.2	-55.8	17.2	0.00e+00	0	35	0	746586112	74	4381
2026-01-01 01:01:39.35	286.79	79.68	-53.9	-55.5	17.4	0.00e+00	0	35	0	754974720	74	4195
2026-01-01 01:01:43.33	276.39	79.06	-54.5	-56.2	17.1	0.00e+00	0	35	0	762314752	74	4549
2026-01-01 01:01:47.31	267.38	78.14	-56.2	-58.3	16.0	0.00e+00	0	35	0	769654784	77	4903
2026-01-01 01:01:51.29	259.85	76.97	-58.6	-62.1	13.4	0.00e+00	0	35	0	776994816	82	5711
2026-01-01 01:01:55.29	253.65	75.63	-57.3	-60.0	15.0	0.00e+00	0	35	0	784334848	80	5002
2026-01-01 01:01:59.28	248.59	74.18	-55.7	-57.7	16.4	0.00e+00	0	35	0	791674880	78	4333
2026-01-01 01:02:03.27	244.45	72.64	-54.2	-55.8	17.2	0.00e+00	0	35	0	799014912	74	4371
2026-01-01 01:02:07.26	241.02	71.06	-53.9	-55.5	17.3	0.00e+00	0	35	0	807403520	73	4485
2026-01-01 01:02:11.25	238.16	69.45	-55.4	-57.3	16.5	0.00e+00	0	35	0	814743552	76	4627
2026-01-01 01:02:15.24	235.75	67.82	-57.3	-60.0	15.0	0.00e+00	0	35	0	822083584	79	5316
2026-01-01 01:02:19.24	233.69	66.19	-56.1	-58.2	16.0	0.00e+00	0	35	0	829423616	78	4565
2026-01-01 01:02:23.22	231.93	64.57	-53.6	-55.1	17.4	0.00e+00	0	35	0	836763648	73	4277
2026-01-01 01:02:27.22	230.40	62.97	-53.0	-54.5	17.6	0.00e+00	0	35	0	844103680	72	4227
2026-01-01 01:02:31.22	229.06	61.38	-53.9	-55.5	17.2	0.00e+00	0	35	0	851443712	73	4474
2026-01-01 01:02:35.22	227.88	59.82	-56.3	-58.5	15.8	0.00e+00	0	35	0	859832320	77	5027
2026-01-01 01:02:39.20	226.84	58.29	-57.3	-60.0	14.9	0.00e+00	0	35	0	867172352	79	5327
2026-01-01 01:02:43.18	225.92	56.80	-56.4	-58.7	15.7	0.00e+00	0	35	0	874512384	79	4568
2026-01-01 01:02:47.17	225.08	55.33	-54.9	-56.7	16.8	0.00e+00	0	35	0	881852416	76	4320
2026-01-01 01:02:51.15	224.34	53.90	-53.2	-54.7	17.5	0.00e+00	0	35	0	889192448	73	4094
2026-01-01 01:02:55.14	223.66	52.51	-53.9	-55.5	17.2	0.00e+00	0	35	0	896532480	72	4720
2026-01-01 01:02:59.12	223.04	51.15	-54.5	-56.3	16.9	0.00e+00	0	35	0	903872512	74	4605
2026-01-01 01:03:03.12	222.48	49.81	-56.3	-58.6	15.7	0.00e+00	0	35	0	911212544	77	5084
2026-01-01 01:03:07.12	221.96	48.52	-57.1	-59.7	15.0	0.00e+00	0	35	0	919601152	79	5128
2026-01-01 01:03:11.12	221.49	47.26	-57.4	-60.2	14.6	0.00e+00	0	35	0	926941184	80	5125
2026-01-01 01:03:15.12	221.05	46.03	-57.1	-59.8	15.0	0.00e+00	0	35	0	934281216	80	4873
2026-01-01 01:03:19.12	220.65	44.84	-56.5	-58.9	15.5	0.00e+00	0	35	0	941621248	79	4681
2026-01-01 01:03:23.12	220.27	43.68	-57.1	-59.8	14.9	0.00e+00	0	35	0	948961280	79	5207
2026-01-01 01:03:27.13	219.93	42.55	-57.3	-60.1	14.7	0.00e+00	0	35	0	956301312	80	5060
2026-01-01 01:03:31.13	219.60	41.45	-57.2	-59.9	14.9	0.00e+00	0	35	0	964689920	80	4954
2026-01-01 01:03:35.13	219.30	40.39	-57.3	-60.1	14.7	0.00e+00	0	35	0	972029952	80	5069
2026-01-01 01:03:39.13	219.02	39.35	-57.8	-60.9	14.1	0.00e+00	0	35	0	979369984	80	5550
2026-01-01 01:03:43.12	218.76	38.35	-57.1	-59.8	14.9	0.00e+00	0	35	0	986710016	80	4872
2026-01-01 01:03:47.13	218.51	37.37	-55.8	-58.0	16.0	0.00e+00	0	35	0	994050048	78	4449
2026-01-01 01:03:51.12	218.28	36.42	-55.9	-58.0	16.0	0.00e+00	0	35	0	1001390080	77	4749
2026-01-01 01:03:55.11	218.06	35.50	-56.2	-58.5	15.7	0.00e+00	0	35	0	1008730112	77	5015
2026-01-01 01:03:59.11	217.86	34.60	-56.1	-58.4	15.7	0.00e+00	0	35	0	1017118720	77	4940
2026-01-01 01:04:03.10	217.66	33.73	-55.9	-58.1	15.9	0.00e+00	0	35	0	1024458752	77	4767
2026-01-01 01:04:07.10	217.48	32.88	-56.1	-58.4	15.8	0.00e+00	0	35	0	1031798784	77	4930
2026-01-01 01:04:11.11	217.31	32.06	-56.6	-59.1	15.3	0.00e+00	0	35	0	1039138816	78	5062
2026-01-01 01:04:15.10	217.14	31.25	-57.2	-60.0	14.7	0.00e+00	0	35	0	1046478848	79	5314
2026-01-01 01:04:19.11	216.99	30.47	-57.2	-60.0	14.7	0.00e+00	0	34	0	1053818880	79	5290
2026-01-01 01:04:23.11	216.84	29.71	-56.8	-59.4	15.0	0.00e+00	0	35	0	1061158912	79	4965
2026-01-01 01:04:27.12	216.70	28.96	-56.1	-58.4	15.7	0.00e+00	0	35	0	1069547520	78	4696
2026-01-01 01:04:31.11	216.56	28.24	-55.8	-58.1	15.9	0.00e+00	0	35	0	1076887552	78	4498
2026-01-01 01:04:35.11	216.44	27.53	-56.0	-58.3	15.7	0.00e+00	0	35	0	1084227584	78	4599
2026-01-01 01:04:39.10	216.32	26.85	-55.8	-58.0	15.8	0.00e+00	0	35	0	1091567616	78	4492
2026-01-01 01:04:43.10	216.20	26.17	-55.6	-57.8	16.0	0.00e+00	0	35	0	1098907648	77	4619
2026-01-01 01:04:47.06	216.09	25.52	-55.2	-57.2	16.3	0.00e+00	0	35	0	1106247680	77	4337
2026-01-01 01:04:51.07	215.99	24.88	-55.0	-57.0	16.4	0.00e+00	0	35	0	1113587712	76	4472
2026-01-01 01:04:55.08	215.88	24.26	-54.9	-56.8	16.5	0.00e+00	0	35	0	1121976320	76	4367
2026-01-01 01:04:59.07	215.79	23.65	-55.1	-57.1	16.4	0.00e+00	0	35	0	1129316352	76	4504
2026-01-01 01:05:03.07	215.70	23.05	-55.3	-57.4	16.2	0.00e+00	0	35	0	1136656384	76	4667
2026-01-01 01:05:07.08	215.61	22.47	-55.4	-57.5	16.1	0.00e+00	0	35	0	1143996416	76	4750
2026-01-01 01:05:11.07	215.52	21.90	-55.1	-57.1	16.3	0.00e+00	0	35	0	1151336448	76	4538
2026-01-01 01:05:15.08	215.44	21.34	-55.0	-57.0	16.4	0.00e+00	0	35	0	1158676480	76	4466
2026-01-01 01:05:19.06	215.36	20.80	-55.0	-57.0	16.4	0.00e+00	0	35	0	1166016512	76	4452
2026-01-01 01:05:23.06	215.29	20.26	-55.4	-57.5	16.1	0.00e+00	0	35	0	1174405120	76	4727
2026-01-01 01:05:27.05	215.22	19.74	-55.5	-57.7	15.9	0.00e+00	0	35	0	1181745152	76	4853
2026-01-01 01:05:31.05	215.15	19.23	-55.7	-58.0	15.7	0.00e+00	0	35	0	1189085184	76	4993
2026-01-01 01:05:35.03	215.08	18.73	-55.8	-58.0	15.8	0.00e+00	0	35	0	1196425216	76	5018
2026-01-01 01:05:39.02	215.02	18.24	-55.7	-57.9	15.8	0.00e+00	0	35	0	1203765248	76	4971
2026-01-01 01:05:42.99	214.96	17.76	-55.6	-57.8	15.8	0.00e+00	0	35	0	1211105280	76	4922
2026-01-01 01:05:46.99	214.90	17.29	-55.7	-58.0	15.7	0.00e+00	0	35	0	1218445312	76	4997
2026-01-01 01:05:50.99	214.85	16.82	-55.9	-58.2	15.6	0.00e+00	0	35	0	1226833920	77	4839
2026-01-01 01:05:54.97	214.79	16.37	-56.0	-58.4	15.5	0.00e+00	0	35	0	1234173952	77	4935
2026-01-01 01:05:58.97	214.74	15.92	-56.1	-58.5	15.4	0.00e+00	0	35	0	1241513984	77	5037
2026-01-01 01:06:02.95	214.69	15.48	-56.3	-58.8	15.2	0.00e+00	0	35	0	1248854016	77	5176
2026-01-01 01:06:06.94	214.64	15.05	-56.2	-58.8	15.2	0.00e+00	0	35	0	1256194048	77	5178
2026-01-01 01:06:10.92	214.59	14.63	-56.4	-59.1	15.0	0.00e+00	0	35	0	1263534080	78	5053
2026-01-01 01:06:14.91	214.55	14.21	-56.3	-59.0	15.1	0.00e+00	0	35	0	1270874112	78	4984
2026-01-01 01:06:18.91	214.50	13.80	-56.2	-58.8	15.2	0.00e+00	0	35	0	1279262720	78	4879
2026-01-01 01:06:22.89	214.46	13.40	-56.1	-58.6	15.2	0.00e+00	0	35	0	1286602752	78	4810
2026-01-01 01:06:26.87	214.42	13.01	-55.8	-58.2	15.5	0.00e+00	0	35	0	1293942784	78	4582
2026-01-01 01:06:30.86	214.38	12.62	-55.8	-58.1	15.6	0.00e+00	0	35	0	1301282816	78	4534
2026-01-01 01:06:34.84	214.35	12.24	-55.7	-58.1	15.6	0.00e+00	0	35	0	1308622848	78	4496
2026-01-01 01:06:38.84	214.31	11.86	-55.7	-58.0	15.6	0.00e+00	0	35	0	1315962880	77	4758
2026-01-01 01:06:42.83	214.27	11.49	-55.8	-58.2	15.4	0.00e+00	0	35	0	1323302912	77	4854
2026-01-01 01:06:46.83	214.24	11.12	-55.9	-58.3	15.4	0.00e+00	0	35	0	1330642944	77	4913
2026-01-01 01:06:50.82	214.21	10.76	-55.9	-58.4	15.2	0.00e+00	0	35	0	1339031552	77	4982
2026-01-01 01:06:54.82	214.18	10.40	-56.1	-58.6	15.1	0.00e+00	0	35	0	1346371584	77	5089
2026-01-01 01:06:58.79	214.14	10.05	-56.2	-58.8	15.0	0.00e+00	0	35	0	1353711616	77	5202
2026-01-01 01:07:02.80	214.12	9.70	-56.2	-58.9	14.9	0.00e+00	0	35	0	1361051648	77	5230
2026-01-01 01:07:06.79	214.09	9.36	-56.3	-59.1	14.7	0.00e+00	0	35	0	1368391680	77	5384
2026-01-01 01:07:10.79	214.06	9.03	-56.4	-59.2	14.7	0.00e+00	0	35	0	1375731712	78	5126
2026-01-01 01:07:14.79	214.03	8.69	-56.5	-59.4	14.5	0.00e+00	0	35	0	1383071744	78	5269
2026-01-01 01:07:18.77	214.01	8.37	-56.6	-59.5	14.4	0.00e+00	0	35	0	1391460352	78	5322
2026-01-01 01:07:22.78	213.98	8.04	-56.5	-59.5	14.4	0.00e+00	0	35	0	1398800384	78	5286
2026-01-01 01:07:26.76	213.96	7.72	-56.6	-59.6	14.3	0.00e+00	0	35	0	1406140416	78	5398
2026-01-01 01:07:30.78	213.93	7.41	-56.7	-59.8	14.2	0.00e+00	0	35	0	1413480448	78	5466
2026-01-01 01:07:34.78	213.91	7.09	-56.6	-59.7	14.2	0.00e+00	0	35	0	1420820480	78	5417
2026-01-01 01:07:38.78	213.89	6.79	-56.7	-59.8	14.1	0.00e+00	0	35	0	1428160512	78	5499
2026-01-01 01:07:42.78	213.87	6.48	-56.8	-60.0	13.8	0.00e+00	0	35	0	1436549120	78	5647
2026-01-01 01:07:46.78	213.85	6.18	-56.7	-59.9	14.0	0.00e+00	0	35	0	1443889152	78	5533
2026-01-01 01:07:50.79	213.83	5.88	-56.6	-59.8	14.0	0.00e+00	0	35	0	1451229184	78	5517
2026-01-01 01:07:54.78	213.81	5.59	-56.5	-59.7	14.1	0.00e+00	0	35	0	1458569216	78	5408
2026-01-01 01:07:58.77	213.79	5.30	-56.6	-59.8	13.8	0.00e+00	0	35	0	1465909248	78	5528
2026-01-01 01:08:02.77	213.77	5.01	-60.3	-74.7	3.8	5.03e-01	0	35	104	1473249280	85	20371
2026-01-01 01:08:06.78	213.76	4.72	-61.5	-77.5	3.8	1.49e+00	0	35	104	1473249280	88	23629
2026-01-01 01:08:10.80	213.74	4.44	-61.8	-77.8	3.8	1.49e+00	0	35	104	1473249280	88	24575
2026-01-01 01:08:14.78	213.72	4.16	-62.0	-78.0	3.8	1.49e+00	0	35	104	1473249280	89	23648
2026-01-01 01:08:18.78	213.71	3.89	-62.1	-78.1	3.8	1.49e+00	0	35	104	1473249280	89	23898
2026-01-01 01:08:22.77	213.69	3.61	-62.1	-78.1	3.8	1.49e+00	0	35	104	1473249280	89	24066
2026-01-01 01:08:26.76	213.68	3.34	-62.1	-78.1	3.8	1.49e+00	0	35	104	1473249280	89	23978
2026-01-01 01:08:30.76	213.67	3.08	-62.0	-78.0	3.8	1.49e+00	0	35	104	1473249280	89	23812
2026-01-01 01:08:34.77	213.65	2.81	-62.0	-78.0	3.8	1.49e+00	0	35	104	1473249280	89	23641
2026-01-01 01:08:38.78	213.64	2.55	-61.9	-78.0	3.8	1.49e+00	0	35	104	1473249280	89	23589
2026-01-01 01:08:42.79	213.63	2.28	-61.9	-77.9	3.8	1.49e+00	0	35	104	1473249280	89	23564
2026-01-01 01:08:46.78	213.61	2.03	-61.9	-77.9	3.8	1.49e+00	0	35	104	1473249280	89	23531

#Closed at: 2026-01-01 01:08:49
#Recorded file [1473 MB]: D:/lorett/data/31004_260101_035419.dat