passes_logs/2026/01/01/R3.2S_Murmansk/R3.2S_Murmansk__20260101_103106_SUOMI_NPP_rec.log

#Pass ID: 20260101_103106_SUOMI NPP
#Satellite: SUOMI NPP
#Configuration: NPP
#almurnet v.1.7.20251203
#Start time: 2026-01-01 10:31:07

#Version: 2.2.20231116
#Station: R3.2S_Murmansk
#Location: 33.079688 lon 68.888172 lat
#TLE: 1 37849U 11061A   26001.07732418  .00000182  00000+0  10735-3 0  9990
#TLE: 2 37849  98.7795 303.2470 0002580  87.2016 272.9455 14.19520779734739

#Time	Az	El	Level	Level2	SNR	BER	BlckErr	Temp	State	Recorded	gain1	gain2
2026-01-01 10:31:07.89	174.34	2.08	-60.0	-75.9	3.8	1.49e+00	0	33	0	0	85	23377
2026-01-01 10:31:11.75	174.45	2.33	-60.0	-75.8	3.8	1.49e+00	0	33	104	0	85	23142
2026-01-01 10:31:15.62	174.57	2.57	-60.0	-75.9	3.8	1.49e+00	0	33	104	0	85	23411
2026-01-01 10:31:19.49	174.68	2.82	-60.0	-75.7	3.8	1.49e+00	0	33	104	0	85	23031
2026-01-01 10:31:23.36	174.80	3.07	-60.0	-75.9	3.8	1.49e+00	0	33	104	0	85	23574
2026-01-01 10:31:27.23	174.92	3.33	-59.9	-74.0	3.8	1.49e+00	0	33	104	0	85	18904
2026-01-01 10:31:31.09	175.04	3.58	-59.7	-70.8	4.8	9.36e-01	0	33	0	3145728	85	13051
2026-01-01 10:31:34.96	175.16	3.84	-59.5	-68.6	6.1	3.79e-01	0	33	0	10485760	84	10720
2026-01-01 10:31:38.83	175.29	4.10	-59.2	-67.3	7.1	1.60e-01	0	34	0	17825792	84	9212
2026-01-01 10:31:42.70	175.42	4.36	-58.7	-65.3	8.7	1.99e-02	0	33	0	25165824	83	7798
2026-01-01 10:31:46.56	175.55	4.63	-58.5	-64.6	9.4	8.62e-03	0	34	0	32505856	82	7581
2026-01-01 10:31:50.43	175.68	4.90	-58.9	-66.4	7.8	3.36e-02	0	34	0	39845888	83	8857
2026-01-01 10:31:54.29	175.81	5.17	-59.9	-75.1	3.8	1.49e+00	0	34	104	45088768	85	21495
2026-01-01 10:31:58.15	175.95	5.44	-56.3	-59.4	13.9	1.23e-04	0	34	0	51380224	79	4930
2026-01-01 10:32:02.02	176.08	5.71	-56.1	-59.0	14.2	0.00e+00	0	34	0	58720256	78	5038
2026-01-01 10:32:05.88	176.22	5.99	-55.9	-58.6	14.5	0.00e+00	0	34	0	65011712	78	4803
2026-01-01 10:32:09.74	176.37	6.27	-55.9	-58.6	14.6	0.00e+00	0	34	0	72351744	78	4774
2026-01-01 10:32:13.61	176.51	6.56	-55.8	-58.5	14.6	0.00e+00	0	34	0	79691776	77	4998
2026-01-01 10:32:17.48	176.66	6.84	-55.7	-58.3	14.8	0.00e+00	0	34	0	87031808	77	4883
2026-01-01 10:32:21.35	176.81	7.14	-55.6	-58.2	14.9	0.00e+00	0	34	0	94371840	77	4832
2026-01-01 10:32:25.22	176.96	7.43	-55.3	-57.8	15.2	0.00e+00	0	34	0	101711872	77	4600
2026-01-01 10:32:29.09	177.12	7.73	-55.2	-57.5	15.4	0.00e+00	0	34	0	109051904	77	4493
2026-01-01 10:32:32.96	177.28	8.03	-55.2	-57.5	15.4	0.00e+00	0	34	0	116391936	76	4724
2026-01-01 10:32:36.83	177.44	8.33	-55.0	-57.2	15.5	0.00e+00	0	34	0	123731968	76	4593
2026-01-01 10:32:40.69	177.61	8.64	-54.9	-57.1	15.6	0.00e+00	0	34	0	131072000	76	4528
2026-01-01 10:32:44.56	177.78	8.95	-54.8	-57.0	15.7	0.00e+00	0	34	0	138412032	76	4466
2026-01-01 10:32:48.43	177.95	9.26	-54.8	-57.0	15.7	0.00e+00	0	34	0	145752064	76	4463
2026-01-01 10:32:52.30	178.12	9.58	-54.8	-57.0	15.7	0.00e+00	0	34	0	152043520	75	4730
2026-01-01 10:32:56.17	178.30	9.91	-54.5	-56.5	16.0	0.00e+00	0	34	0	159383552	75	4468
2026-01-01 10:33:00.03	178.48	10.23	-54.6	-56.7	15.9	0.00e+00	0	34	0	166723584	75	4552
2026-01-01 10:33:03.90	178.67	10.56	-54.3	-56.3	16.2	0.00e+00	0	34	0	174063616	75	4345
2026-01-01 10:33:07.76	178.86	10.90	-54.2	-56.2	16.2	0.00e+00	0	34	0	181403648	74	4563
2026-01-01 10:33:11.62	179.06	11.24	-54.2	-56.1	16.2	0.00e+00	0	34	0	188743680	74	4538
2026-01-01 10:33:15.50	179.25	11.58	-54.3	-56.3	16.1	0.00e+00	0	34	0	196083712	74	4601
2026-01-01 10:33:19.36	179.46	11.93	-54.2	-56.1	16.3	0.00e+00	0	34	0	203423744	74	4534
2026-01-01 10:33:23.23	179.67	12.28	-54.1	-56.0	16.3	0.00e+00	0	34	0	210763776	74	4469
2026-01-01 10:33:27.10	179.88	12.64	-54.2	-56.1	16.3	0.00e+00	0	35	0	218103808	74	4541
2026-01-01 10:33:30.96	180.09	13.00	-54.3	-56.3	16.2	0.00e+00	0	34	0	225443840	74	4625
2026-01-01 10:33:34.83	180.32	13.37	-54.2	-56.1	16.3	0.00e+00	0	34	0	231735296	74	4507
2026-01-01 10:33:38.69	180.54	13.74	-54.3	-56.2	16.3	0.00e+00	0	34	0	239075328	74	4579
2026-01-01 10:33:42.56	180.78	14.12	-54.1	-56.0	16.4	0.00e+00	0	34	0	246415360	74	4457
2026-01-01 10:33:46.42	181.02	14.51	-54.2	-56.1	16.3	0.00e+00	0	34	0	253755392	74	4516
2026-01-01 10:33:50.28	181.26	14.90	-54.2	-56.1	16.4	0.00e+00	0	35	0	261095424	74	4525
2026-01-01 10:33:54.14	181.51	15.29	-54.2	-56.0	16.4	0.00e+00	0	34	0	268435456	74	4493
2026-01-01 10:33:58.01	181.77	15.69	-53.9	-55.7	16.5	0.00e+00	0	34	0	275775488	74	4331
2026-01-01 10:34:01.87	182.03	16.10	-53.8	-55.5	16.6	0.00e+00	0	34	0	283115520	73	4483
2026-01-01 10:34:05.73	182.30	16.51	-53.7	-55.4	16.6	0.00e+00	0	34	0	290455552	73	4423
2026-01-01 10:34:09.60	182.58	16.94	-53.9	-55.7	16.6	0.00e+00	0	35	0	297795584	73	4561
2026-01-01 10:34:13.47	182.86	17.36	-53.9	-55.7	16.6	0.00e+00	0	35	0	305135616	73	4551
2026-01-01 10:34:17.34	183.16	17.80	-53.7	-55.4	16.6	0.00e+00	0	35	0	312475648	73	4439
2026-01-01 10:34:21.20	183.46	18.24	-53.4	-55.0	16.9	0.00e+00	0	35	0	318767104	73	4232
2026-01-01 10:34:25.07	183.77	18.69	-53.1	-54.7	17.0	0.00e+00	0	35	0	326107136	72	4331
2026-01-01 10:34:28.93	184.09	19.15	-52.7	-54.2	17.2	0.00e+00	0	34	0	333447168	72	4087
2026-01-01 10:34:32.80	184.41	19.61	-52.6	-54.1	17.2	0.00e+00	0	35	0	340787200	71	4253
2026-01-01 10:34:36.67	184.75	20.09	-52.4	-53.9	17.3	0.00e+00	0	34	0	348127232	71	4148
2026-01-01 10:34:40.53	185.10	20.57	-52.8	-54.3	17.2	0.00e+00	0	34	0	355467264	71	4391
2026-01-01 10:34:44.40	185.46	21.06	-53.1	-54.7	17.0	0.00e+00	0	35	0	362807296	71	4563
2026-01-01 10:34:48.27	185.83	21.55	-53.2	-54.8	17.0	0.00e+00	0	35	0	370147328	71	4648
2026-01-01 10:34:52.14	186.21	22.06	-53.1	-54.7	17.0	0.00e+00	0	35	0	377487360	71	4560
2026-01-01 10:34:56.00	186.60	22.58	-53.0	-54.6	17.1	0.00e+00	0	35	0	384827392	71	4502
2026-01-01 10:34:59.86	187.01	23.10	-52.9	-54.5	17.1	0.00e+00	0	35	0	392167424	71	4450
2026-01-01 10:35:03.73	187.43	23.63	-52.7	-54.2	17.2	0.00e+00	0	35	0	398458880	71	4322
2026-01-01 10:35:07.59	187.86	24.18	-52.4	-53.9	17.3	0.00e+00	0	35	0	405798912	71	4164
2026-01-01 10:35:11.45	188.31	24.73	-52.1	-53.5	17.4	0.00e+00	0	35	0	413138944	70	4229
2026-01-01 10:35:15.31	188.77	25.29	-51.9	-53.3	17.5	0.00e+00	0	35	0	420478976	70	4119
2026-01-01 10:35:19.17	189.25	25.87	-52.3	-53.7	17.4	0.00e+00	0	34	0	427819008	70	4325
2026-01-01 10:35:23.05	189.75	26.45	-52.3	-53.8	17.4	0.00e+00	0	35	0	435159040	70	4348
2026-01-01 10:35:26.91	190.26	27.05	-52.7	-54.2	17.3	0.00e+00	0	35	0	442499072	70	4546
2026-01-01 10:35:30.78	190.80	27.65	-53.2	-54.9	17.0	0.00e+00	0	34	0	449839104	71	4656
2026-01-01 10:35:34.65	191.36	28.27	-53.5	-55.1	16.9	0.00e+00	0	34	0	457179136	72	4530
2026-01-01 10:35:38.51	191.93	28.90	-54.0	-55.8	16.7	0.00e+00	0	35	0	464519168	73	4616
2026-01-01 10:35:42.39	192.53	29.54	-54.6	-56.5	16.3	0.00e+00	0	35	0	471859200	74	4759
2026-01-01 10:35:46.26	193.15	30.19	-55.0	-57.0	16.1	0.00e+00	0	35	0	479199232	75	4747
2026-01-01 10:35:50.12	193.80	30.85	-56.3	-58.8	15.2	0.00e+00	0	34	0	485490688	78	4888
2026-01-01 10:35:53.99	194.47	31.52	-56.4	-59.0	15.1	0.00e+00	0	35	0	492830720	78	5009
2026-01-01 10:35:57.86	195.18	32.21	-55.5	-57.7	15.9	0.00e+00	0	35	0	500170752	77	4551
2026-01-01 10:36:01.73	195.91	32.90	-55.5	-57.6	15.9	0.00e+00	0	35	0	507510784	76	4791
2026-01-01 10:36:05.59	196.67	33.61	-54.9	-56.9	16.3	0.00e+00	0	35	0	514850816	76	4396
2026-01-01 10:36:09.46	197.47	34.33	-54.9	-56.8	16.3	0.00e+00	0	35	0	522190848	75	4624
2026-01-01 10:36:13.33	198.30	35.05	-55.3	-57.4	16.0	0.00e+00	0	35	0	529530880	76	4665
2026-01-01 10:36:17.21	199.17	35.80	-54.8	-56.6	16.4	0.00e+00	0	35	0	536870912	76	4281
2026-01-01 10:36:21.07	200.08	36.54	-54.1	-55.8	16.7	0.00e+00	0	35	0	544210944	74	4380
2026-01-01 10:36:24.94	201.03	37.30	-55.3	-57.4	16.0	0.00e+00	0	35	0	551550976	75	4945
2026-01-01 10:36:28.80	202.03	38.06	-55.0	-56.9	16.3	0.00e+00	0	35	0	558891008	76	4432
2026-01-01 10:36:32.67	203.07	38.84	-54.5	-56.4	16.5	0.00e+00	0	35	0	566231040	74	4658
2026-01-01 10:36:36.53	204.16	39.62	-53.6	-55.2	16.9	0.00e+00	0	35	0	572522496	73	4330
2026-01-01 10:36:40.39	205.30	40.40	-54.8	-56.7	16.3	0.00e+00	0	35	0	579862528	74	4838
2026-01-01 10:36:44.25	206.50	41.19	-54.1	-55.8	16.7	0.00e+00	0	35	0	587202560	74	4365
2026-01-01 10:36:48.11	207.76	41.98	-55.0	-57.0	16.2	0.00e+00	0	35	0	594542592	75	4717
2026-01-01 10:36:51.99	209.09	42.78	-55.6	-57.7	15.9	0.00e+00	0	35	0	601882624	76	4843
2026-01-01 10:36:55.85	210.47	43.57	-55.9	-58.1	15.7	0.00e+00	0	35	0	609222656	77	4814
2026-01-01 10:36:59.71	211.93	44.36	-55.8	-58.0	15.8	0.00e+00	0	35	0	616562688	77	4725
2026-01-01 10:37:03.58	213.46	45.14	-56.5	-59.0	15.1	0.00e+00	0	35	0	623902720	78	5023
2026-01-01 10:37:07.44	215.07	45.92	-56.2	-58.5	15.5	0.00e+00	0	35	0	631242752	78	4747
2026-01-01 10:37:11.30	216.75	46.69	-56.9	-59.4	15.0	0.00e+00	0	35	0	638582784	78	5276
2026-01-01 10:37:15.17	218.52	47.44	-55.7	-57.8	15.9	0.00e+00	0	35	0	644874240	78	4346
2026-01-01 10:37:19.03	220.37	48.17	-55.5	-57.6	16.1	0.00e+00	0	35	0	652214272	77	4497
2026-01-01 10:37:22.90	222.32	48.89	-55.2	-57.2	16.2	0.00e+00	0	35	0	659554304	75	4840
2026-01-01 10:37:26.76	224.35	49.58	-55.1	-57.0	16.3	0.00e+00	0	35	0	666894336	76	4458
2026-01-01 10:37:30.63	226.47	50.24	-54.2	-55.9	16.8	0.00e+00	0	35	0	674234368	74	4416
2026-01-01 10:37:34.50	228.69	50.86	-53.1	-54.6	17.2	0.00e+00	0	35	0	681574400	72	4291
2026-01-01 10:37:38.36	230.99	51.45	-53.5	-55.1	17.1	0.00e+00	0	35	0	688914432	72	4532
2026-01-01 10:37:42.23	233.39	52.00	-53.2	-54.7	17.2	0.00e+00	0	35	0	696254464	72	4338
2026-01-01 10:37:46.10	235.87	52.49	-52.7	-54.2	17.4	0.00e+00	0	35	0	703594496	71	4299
2026-01-01 10:37:49.97	238.43	52.94	-53.8	-55.5	16.9	0.00e+00	0	35	0	710934528	73	4444
2026-01-01 10:37:53.84	241.06	53.33	-52.7	-54.1	17.4	0.00e+00	0	35	0	718274560	71	4289
2026-01-01 10:37:57.71	243.76	53.67	-54.4	-56.3	16.6	0.00e+00	0	35	0	725614592	74	4608
2026-01-01 10:38:01.59	246.52	53.94	-53.9	-55.5	16.9	0.00e+00	0	35	0	732954624	73	4485
2026-01-01 10:38:05.45	249.32	54.14	-54.7	-56.5	16.5	0.00e+00	0	35	0	739246080	75	4489
2026-01-01 10:38:09.32	252.15	54.28	-54.6	-56.4	16.6	0.00e+00	0	35	0	746586112	74	4686
2026-01-01 10:38:13.18	255.00	54.34	-56.1	-58.3	15.6	0.00e+00	0	35	0	753926144	77	4903
2026-01-01 10:38:17.04	257.85	54.34	-54.7	-56.5	16.5	0.00e+00	0	35	0	761266176	75	4458
2026-01-01 10:38:20.91	260.70	54.26	-53.8	-55.4	17.0	0.00e+00	0	35	0	768606208	73	4427
2026-01-01 10:38:24.77	263.53	54.12	-54.4	-56.1	16.7	0.00e+00	0	35	0	775946240	74	4520
2026-01-01 10:38:28.64	266.32	53.91	-53.6	-55.1	17.1	0.00e+00	0	35	0	783286272	73	4284
2026-01-01 10:38:32.51	269.07	53.64	-54.3	-56.1	16.7	0.00e+00	0	35	0	790626304	73	4773
2026-01-01 10:38:36.38	271.76	53.30	-54.8	-56.6	16.5	0.00e+00	0	35	0	797966336	74	4771
2026-01-01 10:38:40.26	274.39	52.90	-55.0	-56.9	16.3	0.00e+00	0	35	0	805306368	75	4694
2026-01-01 10:38:44.12	276.94	52.45	-55.4	-57.4	16.2	0.00e+00	0	35	0	812646400	76	4694
2026-01-01 10:38:48.00	279.41	51.94	-54.2	-55.9	16.8	0.00e+00	0	35	0	819986432	75	4179
2026-01-01 10:38:51.86	281.79	51.40	-54.5	-56.3	16.6	0.00e+00	0	35	0	826277888	74	4623
2026-01-01 10:38:55.73	284.08	50.80	-53.5	-55.1	17.1	0.00e+00	0	35	0	833617920	73	4251
2026-01-01 10:38:59.59	286.28	50.18	-53.3	-54.8	17.2	0.00e+00	0	35	0	840957952	71	4645
2026-01-01 10:39:03.46	288.39	49.52	-54.0	-55.7	16.9	0.00e+00	0	35	0	848297984	74	4296
2026-01-01 10:39:07.32	290.41	48.83	-54.6	-56.5	16.6	0.00e+00	0	35	0	855638016	74	4718
2026-01-01 10:39:11.19	292.34	48.11	-55.1	-57.0	16.3	0.00e+00	0	35	0	862978048	75	4721
2026-01-01 10:39:15.06	294.19	47.38	-56.5	-58.9	15.4	0.00e+00	0	34	0	870318080	78	4933
2026-01-01 10:39:18.93	295.95	46.62	-57.1	-59.8	14.9	0.00e+00	0	35	0	877658112	79	5173
2026-01-01 10:39:22.80	297.63	45.86	-56.3	-58.6	15.5	0.00e+00	0	35	0	884998144	77	5081
2026-01-01 10:39:26.67	299.22	45.08	-57.5	-60.3	14.5	0.00e+00	0	35	0	892338176	80	5200
2026-01-01 10:39:30.54	300.75	44.30	-58.3	-61.8	13.3	7.00e-07	0	35	0	899678208	82	5485
2026-01-01 10:39:34.41	302.20	43.51	-60.1	-65.9	10.0	3.58e-05	0	35	0	905969664	85	7380
2026-01-01 10:39:38.27	303.57	42.72	-58.1	-61.3	13.7	2.89e-05	0	35	0	913309696	82	5199
2026-01-01 10:39:42.14	304.89	41.93	-58.6	-62.4	13.0	0.00e+00	0	35	0	920649728	82	5862
2026-01-01 10:39:46.01	306.14	41.14	-55.6	-57.5	16.1	0.00e+00	0	35	0	927989760	77	4487
2026-01-01 10:39:49.87	307.33	40.35	-57.6	-60.7	14.2	0.00e+00	0	35	0	935329792	80	5403
2026-01-01 10:39:53.74	308.47	39.57	-54.1	-55.8	16.8	0.00e+00	0	35	0	942669824	74	4355
2026-01-01 10:39:57.60	309.56	38.79	-57.0	-59.7	14.7	0.00e+00	0	35	0	950009856	80	4844
2026-01-01 10:40:01.47	310.59	38.02	-54.3	-56.0	16.8	0.00e+00	0	35	0	957349888	75	4222
2026-01-01 10:40:05.34	311.58	37.26	-56.5	-59.0	15.2	0.00e+00	0	35	0	964689920	78	5014
2026-01-01 10:40:09.20	312.53	36.51	-53.8	-55.4	17.0	0.00e+00	0	35	0	972029952	74	4164
2026-01-01 10:40:13.07	313.43	35.77	-55.4	-57.5	16.0	0.00e+00	0	35	0	979369984	75	5025
2026-01-01 10:40:16.93	314.29	35.03	-54.9	-56.8	16.4	0.00e+00	0	35	0	985661440	76	4356
2026-01-01 10:40:20.79	315.12	34.31	-55.6	-57.6	16.0	0.00e+00	0	34	0	993001472	76	4803
2026-01-01 10:40:24.66	315.91	33.60	-57.5	-60.5	14.3	0.00e+00	0	35	0	1000341504	80	5285
2026-01-01 10:40:28.52	316.67	32.90	-55.4	-57.4	16.0	0.00e+00	0	35	0	1007681536	77	4414
2026-01-01 10:40:32.39	317.40	32.20	-54.9	-56.7	16.3	0.00e+00	0	35	0	1015021568	74	4863
2026-01-01 10:40:36.25	318.10	31.52	-57.2	-60.0	14.5	0.00e+00	0	35	0	1022361600	79	5338
2026-01-01 10:40:40.12	318.77	30.86	-56.1	-58.4	15.5	0.00e+00	0	35	0	1029701632	78	4671
2026-01-01 10:40:43.99	319.41	30.20	-54.7	-56.6	16.5	0.00e+00	0	35	0	1037041664	76	4247
2026-01-01 10:40:47.86	320.03	29.55	-56.4	-58.9	15.2	0.00e+00	0	35	0	1044381696	78	4942
2026-01-01 10:40:51.73	320.63	28.91	-56.8	-59.4	15.0	0.00e+00	0	35	0	1051721728	78	5223
2026-01-01 10:40:55.60	321.21	28.29	-55.0	-57.0	16.3	0.00e+00	0	35	0	1059061760	76	4455
2026-01-01 10:40:59.46	321.76	27.68	-53.4	-55.1	17.0	0.00e+00	0	35	0	1066401792	73	4255
2026-01-01 10:41:03.33	322.29	27.07	-55.0	-57.0	16.2	0.00e+00	0	35	0	1072693248	75	4755
2026-01-01 10:41:07.19	322.80	26.48	-56.1	-58.5	15.4	0.00e+00	0	35	0	1080033280	77	4990
2026-01-01 10:41:11.06	323.30	25.90	-54.7	-56.6	16.4	0.00e+00	0	35	0	1087373312	76	4270
2026-01-01 10:41:14.93	323.78	25.33	-53.6	-55.2	17.0	0.00e+00	0	35	0	1094713344	73	4297
2026-01-01 10:41:18.80	324.24	24.77	-54.4	-56.1	16.6	0.00e+00	0	35	0	1102053376	74	4542
2026-01-01 10:41:22.66	324.69	24.22	-55.4	-57.5	15.9	0.00e+00	0	35	0	1109393408	76	4745
2026-01-01 10:41:26.53	325.12	23.68	-55.0	-57.1	16.2	0.00e+00	0	35	0	1116733440	76	4496
2026-01-01 10:41:30.40	325.54	23.15	-54.5	-56.4	16.5	0.00e+00	0	35	0	1124073472	75	4405
2026-01-01 10:41:34.27	325.95	22.62	-54.0	-55.7	16.7	0.00e+00	0	35	0	1131413504	74	4335
2026-01-01 10:41:38.14	326.34	22.11	-53.7	-55.4	16.8	0.00e+00	0	35	0	1138753536	73	4430
2026-01-01 10:41:42.00	326.72	21.61	-54.0	-55.8	16.6	0.00e+00	0	35	0	1146093568	73	4624
2026-01-01 10:41:45.87	327.09	21.11	-54.8	-56.8	16.2	0.00e+00	0	35	0	1153433600	74	4879
2026-01-01 10:41:49.74	327.45	20.62	-54.9	-57.0	16.0	0.00e+00	0	35	0	1159725056	75	4733
2026-01-01 10:41:53.60	327.80	20.15	-54.5	-56.4	16.4	0.00e+00	0	35	0	1167065088	75	4436
2026-01-01 10:41:57.47	328.14	19.68	-53.8	-55.5	16.8	0.00e+00	0	35	0	1174405120	73	4452
2026-01-01 10:42:01.33	328.46	19.22	-53.6	-55.3	16.8	0.00e+00	0	35	0	1181745152	73	4372
2026-01-01 10:42:05.20	328.78	18.76	-54.0	-55.8	16.6	0.00e+00	0	35	0	1189085184	73	4638
2026-01-01 10:42:09.07	329.09	18.31	-54.5	-56.4	16.3	0.00e+00	0	35	0	1196425216	74	4704
2026-01-01 10:42:12.94	329.40	17.87	-54.2	-56.0	16.5	0.00e+00	0	35	0	1203765248	74	4488
2026-01-01 10:42:16.81	329.69	17.44	-53.5	-55.2	16.8	0.00e+00	0	35	0	1211105280	73	4304
2026-01-01 10:42:20.67	329.98	17.01	-52.8	-54.3	17.1	0.00e+00	0	35	0	1218445312	72	4127
2026-01-01 10:42:24.54	330.25	16.59	-52.5	-54.0	17.2	0.00e+00	0	35	0	1225785344	71	4211
2026-01-01 10:42:28.41	330.53	16.18	-52.8	-54.4	17.1	0.00e+00	0	35	0	1233125376	71	4400
2026-01-01 10:42:32.28	330.79	15.77	-53.2	-54.8	16.8	0.00e+00	0	35	0	1240465408	71	4643
2026-01-01 10:42:36.14	331.05	15.38	-54.1	-55.9	16.4	0.00e+00	0	35	0	1246756864	73	4685
2026-01-01 10:42:40.01	331.30	14.98	-54.8	-56.9	16.0	0.00e+00	0	35	0	1254096896	74	4946
2026-01-01 10:42:43.88	331.55	14.59	-55.5	-57.8	15.5	0.00e+00	0	35	0	1261436928	76	4892
2026-01-01 10:42:47.75	331.79	14.21	-55.4	-57.7	15.5	0.00e+00	0	35	0	1268776960	76	4842
2026-01-01 10:42:51.62	332.02	13.83	-55.0	-57.2	15.8	0.00e+00	0	35	0	1276116992	76	4576
2026-01-01 10:42:55.48	332.25	13.46	-54.3	-56.2	16.2	0.00e+00	0	35	0	1283457024	75	4330
2026-01-01 10:42:59.35	332.47	13.09	-53.7	-55.5	16.6	0.00e+00	0	35	0	1290797056	74	4224
2026-01-01 10:43:03.23	332.69	12.73	-53.4	-55.1	16.8	0.00e+00	0	35	0	1298137088	73	4246
2026-01-01 10:43:07.11	332.91	12.37	-53.3	-54.9	16.8	0.00e+00	0	35	0	1305477120	73	4192
2026-01-01 10:43:10.99	333.12	12.02	-53.3	-55.0	16.7	0.00e+00	0	35	0	1312817152	72	4462
2026-01-01 10:43:14.91	333.33	11.67	-53.6	-55.3	16.6	0.00e+00	0	35	0	1320157184	72	4648
2026-01-01 10:43:18.85	333.53	11.32	-53.8	-55.7	16.4	0.00e+00	0	35	0	1327497216	73	4549
2026-01-01 10:43:22.84	333.73	10.97	-54.2	-56.1	16.2	0.00e+00	0	34	0	1334837248	73	4812
2026-01-01 10:43:26.80	333.93	10.63	-54.2	-56.2	16.2	3.80e-06	0	35	0	1342177280	73	4839
2026-01-01 10:43:30.75	334.12	10.30	-54.3	-56.3	16.0	0.00e+00	0	35	0	1349517312	73	4925
2026-01-01 10:43:34.69	334.31	9.97	-54.4	-56.5	16.0	0.00e+00	0	35	0	1356857344	74	4707
2026-01-01 10:43:38.62	334.49	9.64	-54.5	-56.5	15.9	0.00e+00	0	34	0	1364197376	74	4757
2026-01-01 10:43:42.57	334.67	9.32	-54.6	-56.7	15.8	0.00e+00	0	35	0	1371537408	74	4846
2026-01-01 10:43:46.51	334.85	9.00	-54.8	-57.0	15.6	7.00e-07	0	35	0	1378877440	74	5025
2026-01-01 10:43:50.47	335.02	8.68	-54.8	-57.1	15.5	0.00e+00	0	34	0	1386217472	74	5059
2026-01-01 10:43:54.43	335.19	8.37	-54.9	-57.1	15.4	0.00e+00	0	34	0	1393557504	75	4792
2026-01-01 10:43:58.37	335.36	8.06	-54.9	-57.2	15.5	3.80e-06	0	35	0	1400897536	75	4850
2026-01-01 10:44:02.33	335.52	7.76	-55.1	-57.4	15.4	0.00e+00	0	35	0	1409286144	75	4949
2026-01-01 10:44:06.29	335.69	7.46	-55.4	-57.9	15.0	0.00e+00	0	35	0	1416626176	75	5253
2026-01-01 10:44:10.22	335.84	7.16	-55.6	-58.1	15.0	0.00e+00	0	34	0	1423966208	76	5082
2026-01-01 10:44:14.16	336.00	6.87	-55.7	-58.4	14.7	0.00e+00	0	34	0	1431306240	76	5226
2026-01-01 10:44:18.10	336.15	6.58	-55.6	-58.3	14.8	0.00e+00	0	35	0	1438646272	76	5164
2026-01-01 10:44:22.05	336.30	6.29	-56.0	-58.8	14.4	0.00e+00	0	35	0	1445986304	77	5176
2026-01-01 10:44:26.01	336.45	6.00	-56.0	-58.9	14.3	0.00e+00	0	35	0	1453326336	77	5255
2026-01-01 10:44:29.95	336.59	5.72	-56.2	-59.3	14.0	0.00e+00	0	35	0	1460666368	77	5481
2026-01-01 10:44:33.92	336.74	5.44	-56.4	-59.6	13.7	0.00e+00	0	34	0	1468006400	77	5669
2026-01-01 10:44:37.86	336.88	5.16	-56.6	-60.0	13.4	0.00e+00	0	35	0	1475346432	78	5644
2026-01-01 10:44:41.84	337.02	4.89	-60.8	-76.8	3.8	1.49e+00	0	34	104	1481637888	86	24482
2026-01-01 10:44:45.82	337.15	4.61	-61.7	-77.7	3.8	1.49e+00	0	35	104	1481637888	88	24246
2026-01-01 10:44:49.78	337.29	4.35	-62.1	-78.1	3.8	1.49e+00	0	35	104	1481637888	89	24014
2026-01-01 10:44:53.75	337.42	4.08	-62.3	-78.3	3.8	1.49e+00	0	34	104	1481637888	89	24520
2026-01-01 10:44:57.70	337.55	3.82	-62.3	-78.3	3.8	1.49e+00	0	35	104	1481637888	89	24688
2026-01-01 10:45:01.72	337.68	3.55	-62.4	-78.4	3.8	1.49e+00	0	35	104	1481637888	89	24831
2026-01-01 10:45:05.73	337.80	3.29	-62.3	-78.3	3.8	1.49e+00	0	35	104	1481637888	89	24524
2026-01-01 10:45:09.72	337.93	3.03	-62.2	-78.3	3.8	1.49e+00	0	35	104	1481637888	89	24419
2026-01-01 10:45:13.71	338.05	2.77	-62.2	-78.2	3.8	1.49e+00	0	35	104	1481637888	89	24327
2026-01-01 10:45:17.72	338.17	2.52	-62.2	-78.2	3.8	1.49e+00	0	35	104	1481637888	89	24257
2026-01-01 10:45:21.71	338.29	2.26	-62.1	-78.2	3.8	1.49e+00	0	34	104	1481637888	89	24157
2026-01-01 10:45:25.70	338.41	2.02	-62.1	-78.1	3.8	1.49e+00	0	35	104	1481637888	89	24005

#Closed at: 2026-01-01 10:45:28
#Recorded file [1481 MB]: D:/lorett/data/31004_260101_133107.dat