passes_logs/2026/01/01/R3.2S_Murmansk/R3.2S_Murmansk__20260101_173442_TY-39_rec.log

#Pass ID: 20260101_173442_TY-39
#Satellite: TY-39
#Configuration: TY-39
#almurnet v.1.7.20251203
#Start time: 2026-01-01 17:34:43

#Version: 2.2.20231116
#Station: R3.2S_Murmansk
#Location: 33.079688 lon 68.888172 lat
#TLE: 1 51832U 22019J   25365.93277337  .00003620  00000-0  17324-3 0  9996
#TLE: 2 51832  97.3676  67.9649 0010380  94.1625 266.0796 15.19551037212399

#Time	Az	El	Level	Level2	SNR	BER	BlckErr	Temp	State	Recorded	gain1	gain2
2026-01-01 17:34:43.31	138.91	2.05	-59.2	-62.4	3.7	0.00e+00	0	37	0	0	85	20593
2026-01-01 17:34:46.32	138.83	2.26	-59.2	-62.4	3.7	0.00e+00	0	37	104	0	85	20487
2026-01-01 17:34:49.34	138.75	2.47	-59.2	-62.4	3.7	0.00e+00	0	37	104	0	85	20591
2026-01-01 17:34:52.36	138.67	2.69	-59.2	-62.4	3.7	0.00e+00	0	37	104	0	85	20559
2026-01-01 17:34:55.38	138.58	2.90	-59.2	-62.4	3.7	0.00e+00	0	37	104	0	85	20533
2026-01-01 17:34:58.41	138.50	3.12	-59.2	-62.4	3.7	0.00e+00	0	37	104	0	85	20522
2026-01-01 17:35:01.42	138.41	3.34	-59.2	-62.4	3.7	0.00e+00	0	38	104	0	85	20506
2026-01-01 17:35:04.45	138.31	3.57	-59.2	-62.4	3.7	0.00e+00	0	38	104	0	85	20550
2026-01-01 17:35:07.47	138.22	3.79	-59.2	-62.4	3.7	0.00e+00	0	38	104	0	85	20514
2026-01-01 17:35:10.49	138.13	4.02	-59.2	-62.4	3.7	0.00e+00	0	38	104	0	85	20591
2026-01-01 17:35:13.52	138.03	4.25	-59.2	-62.4	3.7	0.00e+00	0	38	104	0	85	20558
2026-01-01 17:35:16.53	137.93	4.49	-59.2	-62.4	3.7	0.00e+00	0	38	104	0	85	20559
2026-01-01 17:35:19.55	137.83	4.72	-59.2	-62.4	3.7	0.00e+00	0	38	104	0	85	20510
2026-01-01 17:35:22.55	137.72	4.96	-59.2	-62.4	3.7	0.00e+00	0	38	104	0	85	20538
2026-01-01 17:35:25.57	137.62	5.20	-59.4	-62.6	3.7	0.00e+00	0	38	104	0	85	21094
2026-01-01 17:35:28.58	137.51	5.45	-59.3	-62.5	3.7	0.00e+00	0	38	104	0	85	20852
2026-01-01 17:35:31.59	137.40	5.70	-59.4	-62.6	3.7	0.00e+00	0	38	104	0	85	20923
2026-01-01 17:35:34.61	137.28	5.95	-59.3	-62.5	3.7	0.00e+00	0	38	104	0	85	20822
2026-01-01 17:35:37.62	137.16	6.20	-59.3	-62.4	3.7	0.00e+00	0	38	104	0	85	20529
2026-01-01 17:35:40.64	137.05	6.46	-59.2	-62.3	3.7	0.00e+00	0	38	104	0	85	20245
2026-01-01 17:35:43.65	136.92	6.72	-45.9	-46.2	12.5	1.74e-03	0	39	0	50331648	59	14195
2026-01-01 17:35:46.65	136.80	6.98	-45.9	-46.2	12.5	2.08e-05	0	39	0	218103808	58	14995
2026-01-01 17:35:49.67	136.67	7.25	-45.6	-45.9	12.6	0.00e+00	0	39	0	444596224	58	14553
2026-01-01 17:35:52.69	136.54	7.52	-45.7	-46.0	12.6	6.90e-06	0	39	0	671088640	58	14646
2026-01-01 17:35:55.70	136.40	7.79	-45.6	-45.8	12.7	0.00e+00	0	39	0	897581056	58	14432
2026-01-01 17:35:58.71	136.26	8.07	-45.5	-45.8	12.8	6.90e-06	0	39	0	1124073472	58	14312
2026-01-01 17:36:01.72	136.12	8.35	-45.5	-45.8	12.8	0.00e+00	0	39	0	1350565888	58	14327
2026-01-01 17:36:04.73	135.97	8.64	-45.2	-45.5	12.9	0.00e+00	0	40	0	1577058304	57	14641
2026-01-01 17:36:07.74	135.82	8.93	-45.2	-45.5	13.0	0.00e+00	0	40	0	1795162112	57	14628
2026-01-01 17:36:10.75	135.67	9.23	-45.0	-45.3	13.1	0.00e+00	0	40	0	2021654528	57	14307
2026-01-01 17:36:13.76	135.51	9.53	-44.9	-45.1	13.1	0.00e+00	0	40	0	2256535552	56	14941
2026-01-01 17:36:16.78	135.35	9.83	-44.9	-45.2	13.2	0.00e+00	0	40	0	2474639360	56	14973
2026-01-01 17:36:19.78	135.18	10.14	-44.7	-45.0	13.3	0.00e+00	0	40	0	2701131776	56	14635
2026-01-01 17:36:22.80	135.01	10.45	-44.8	-45.1	13.3	0.00e+00	0	40	0	2927624192	56	14786
2026-01-01 17:36:25.80	134.84	10.77	-44.5	-44.8	13.4	0.00e+00	0	40	0	3154116608	56	14351
2026-01-01 17:36:28.81	134.65	11.10	-44.5	-44.8	13.4	0.00e+00	0	40	0	3380609024	55	15153
2026-01-01 17:36:31.81	134.47	11.43	-44.3	-44.6	13.5	0.00e+00	0	40	0	3607101440	55	14835
2026-01-01 17:36:34.84	134.27	11.76	-44.1	-44.4	13.5	0.00e+00	0	40	0	3833593856	55	14550
2026-01-01 17:36:37.85	134.08	12.11	-44.1	-44.4	13.6	0.00e+00	0	41	0	4060086272	55	14460
2026-01-01 17:36:40.87	133.87	12.45	-44.0	-44.2	13.6	0.00e+00	0	40	0	4286578688	55	14228
2026-01-01 17:36:43.88	133.66	12.81	-43.9	-44.1	13.7	0.00e+00	0	41	0	4513071104	54	14916
2026-01-01 17:36:46.89	133.44	13.17	-43.7	-44.0	13.7	0.00e+00	0	41	0	4731174912	54	14624
2026-01-01 17:36:49.90	133.22	13.54	-43.6	-43.9	13.8	0.00e+00	0	41	0	4957667328	54	14462
2026-01-01 17:36:52.92	132.99	13.91	-43.6	-43.8	13.8	0.00e+00	0	41	0	5192548352	54	14423
2026-01-01 17:36:55.94	132.75	14.30	-43.5	-43.8	13.9	0.00e+00	0	41	0	5410652160	54	14296
2026-01-01 17:36:58.96	132.50	14.69	-43.5	-43.7	13.9	0.00e+00	0	41	0	5645533184	53	15096
2026-01-01 17:37:01.97	132.25	15.08	-43.2	-43.4	14.0	0.00e+00	0	41	0	5863636992	53	14567
2026-01-01 17:37:04.98	131.99	15.49	-43.0	-43.2	14.0	0.00e+00	0	41	0	6090129408	53	14271
2026-01-01 17:37:07.98	131.72	15.90	-43.1	-43.4	14.0	0.00e+00	0	41	0	6316621824	53	14450
2026-01-01 17:37:10.99	131.44	16.32	-42.8	-43.0	14.1	0.00e+00	0	41	0	6543114240	52	14721
2026-01-01 17:37:14.00	131.15	16.76	-42.7	-42.9	14.2	0.00e+00	0	41	0	6769606656	52	14590
2026-01-01 17:37:17.01	130.84	17.20	-42.5	-42.8	14.2	0.00e+00	0	41	0	6996099072	52	14344
2026-01-01 17:37:20.03	130.53	17.65	-42.5	-42.7	14.3	0.00e+00	0	41	0	7222591488	52	14216
2026-01-01 17:37:23.04	130.21	18.11	-42.4	-42.6	14.3	0.00e+00	0	41	0	7449083904	51	14873
2026-01-01 17:37:26.07	129.87	18.58	-42.4	-42.7	14.3	0.00e+00	0	41	0	7675576320	51	14979
2026-01-01 17:37:29.07	129.52	19.06	-42.2	-42.4	14.3	0.00e+00	0	41	0	7902068736	51	14604
2026-01-01 17:37:32.09	129.16	19.55	-42.0	-42.2	14.4	0.00e+00	0	41	0	8128561152	51	14268
2026-01-01 17:37:35.09	128.79	20.06	-42.0	-42.2	14.4	0.00e+00	0	41	0	8346664960	51	14204
2026-01-01 17:37:38.11	128.40	20.57	-41.8	-42.1	14.5	0.00e+00	0	41	0	8573157376	50	14796
2026-01-01 17:37:41.11	127.99	21.10	-41.7	-42.0	14.5	0.00e+00	0	41	0	8799649792	50	14621
2026-01-01 17:37:44.12	127.57	21.64	-41.5	-41.7	14.6	0.00e+00	0	41	0	9026142208	50	14241
2026-01-01 17:37:47.14	127.13	22.19	-41.3	-41.6	14.6	0.00e+00	0	41	0	9252634624	49	14786
2026-01-01 17:37:50.14	126.67	22.76	-41.2	-41.5	14.6	0.00e+00	0	41	0	9479127040	49	14645
2026-01-01 17:37:53.15	126.19	23.34	-41.2	-41.4	14.6	0.00e+00	0	41	0	9705619456	49	14517
2026-01-01 17:37:56.14	125.69	23.93	-41.0	-41.2	14.7	0.00e+00	0	41	0	9932111872	49	14191
2026-01-01 17:37:59.15	125.17	24.54	-40.8	-41.0	14.7	0.00e+00	0	41	0	10150215680	48	14670
2026-01-01 17:38:02.16	124.63	25.17	-40.6	-40.9	14.8	0.00e+00	0	41	0	10385096704	48	14449
2026-01-01 17:38:05.17	124.06	25.81	-40.5	-40.8	14.8	0.00e+00	0	41	0	10603200512	48	14291
2026-01-01 17:38:08.19	123.46	26.47	-39.6	-39.9	14.7	0.00e+00	0	41	0	10829692928	46	14470
2026-01-01 17:38:11.20	122.83	27.14	-39.6	-39.8	14.7	0.00e+00	0	41	0	11056185344	46	14399
2026-01-01 17:38:14.21	122.17	27.83	-39.4	-39.7	14.7	0.00e+00	0	41	0	11282677760	46	14136
2026-01-01 17:38:17.23	121.48	28.54	-39.2	-39.4	14.8	0.00e+00	0	41	0	11509170176	45	14542
2026-01-01 17:38:20.25	120.76	29.27	-39.1	-39.3	14.8	0.00e+00	0	41	0	11735662592	45	14393
2026-01-01 17:38:23.26	120.00	30.01	-38.9	-39.1	14.9	0.00e+00	0	41	0	11962155008	45	14019
2026-01-01 17:38:26.26	119.20	30.77	-38.8	-39.0	14.8	0.00e+00	0	41	0	12188647424	44	14702
2026-01-01 17:38:29.28	118.35	31.55	-38.7	-38.9	14.9	0.00e+00	0	41	0	12415139840	44	14579
2026-01-01 17:38:32.28	117.46	32.34	-38.5	-38.8	14.9	0.00e+00	0	41	0	12641632256	44	14335
2026-01-01 17:38:35.29	116.53	33.16	-38.5	-38.8	14.9	0.00e+00	0	41	0	12868124672	44	14311
2026-01-01 17:38:38.30	115.53	33.99	-38.3	-38.5	15.0	0.00e+00	0	41	0	13086228480	43	14715
2026-01-01 17:38:41.30	114.49	34.83	-38.0	-38.2	15.0	0.00e+00	0	41	0	13312720896	43	14246
2026-01-01 17:38:44.32	113.38	35.70	-37.9	-38.1	15.0	0.00e+00	0	41	0	13547601920	43	14053
2026-01-01 17:38:47.33	112.21	36.58	-37.7	-38.0	15.0	0.00e+00	0	41	0	13765705728	42	14626
2026-01-01 17:38:50.34	110.96	37.47	-37.7	-37.9	15.1	0.00e+00	0	41	0	13992198144	42	14524
2026-01-01 17:38:53.35	109.65	38.38	-37.5	-37.8	15.1	0.00e+00	0	41	0	14218690560	42	14315
2026-01-01 17:38:56.37	108.24	39.29	-37.3	-37.5	15.1	0.00e+00	0	41	0	14445182976	41	14752
2026-01-01 17:38:59.38	106.76	40.22	-37.2	-37.4	15.1	0.00e+00	0	41	0	14671675392	41	14500
2026-01-01 17:39:02.39	105.18	41.14	-37.2	-37.4	15.1	0.00e+00	0	41	0	14898167808	41	14514
2026-01-01 17:39:05.41	103.50	42.08	-36.9	-37.1	15.2	0.00e+00	0	41	0	15124660224	41	14107
2026-01-01 17:39:08.42	101.73	43.01	-36.9	-37.1	15.1	0.00e+00	0	41	0	15351152640	40	14905
2026-01-01 17:39:11.42	99.84	43.92	-36.6	-36.9	15.2	0.00e+00	0	41	0	15577645056	40	14466
2026-01-01 17:39:14.43	97.84	44.84	-36.6	-36.8	15.2	0.00e+00	0	41	0	15804137472	40	14319
2026-01-01 17:39:17.44	95.71	45.73	-36.5	-36.7	15.2	0.00e+00	0	41	0	16030629888	40	14160
2026-01-01 17:39:20.46	93.45	46.60	-36.4	-36.6	15.2	0.00e+00	0	41	0	16248733696	40	14043
2026-01-01 17:39:23.47	91.07	47.44	-36.3	-36.6	15.2	0.00e+00	0	41	0	16483614720	39	14794
2026-01-01 17:39:26.49	88.54	48.24	-36.2	-36.4	15.3	0.00e+00	0	41	0	16701718528	39	14561
2026-01-01 17:39:29.50	85.89	49.00	-36.2	-36.4	15.2	0.00e+00	0	41	0	16928210944	39	14565
2026-01-01 17:39:32.52	83.10	49.70	-36.1	-36.3	15.2	0.00e+00	0	41	0	17163091968	39	14410
2026-01-01 17:39:35.53	80.19	50.34	-36.1	-36.3	15.3	0.00e+00	0	41	0	17381195776	39	14410
2026-01-01 17:39:38.54	77.15	50.91	-35.9	-36.2	15.3	0.00e+00	0	41	0	17607688192	39	14125
2026-01-01 17:39:41.56	74.00	51.39	-35.8	-36.1	15.3	0.00e+00	0	41	0	17834180608	38	14817
2026-01-01 17:39:44.58	70.74	51.79	-35.9	-36.1	15.3	0.00e+00	0	41	0	18060673024	38	14855
2026-01-01 17:39:47.58	67.43	52.10	-35.8	-36.0	15.3	0.00e+00	0	41	0	18287165440	38	14667
2026-01-01 17:39:50.59	64.05	52.31	-35.8	-36.1	15.3	0.00e+00	0	41	0	18513657856	38	14796
2026-01-01 17:39:53.60	60.63	52.42	-35.9	-36.1	15.2	0.00e+00	0	41	0	18740150272	38	14926
2026-01-01 17:39:56.62	57.19	52.42	-35.8	-36.0	15.3	0.00e+00	0	41	0	18966642688	38	14704
2026-01-01 17:39:59.64	53.76	52.32	-35.8	-36.0	15.3	0.00e+00	0	41	0	19193135104	38	14717
2026-01-01 17:40:02.64	50.39	52.11	-35.9	-36.1	15.3	0.00e+00	0	41	0	19419627520	38	14905
2026-01-01 17:40:05.66	47.05	51.81	-35.9	-36.1	15.3	0.00e+00	0	41	0	19637731328	38	14850
2026-01-01 17:40:08.67	43.81	51.42	-36.0	-36.2	15.2	0.00e+00	0	41	0	19872612352	38	15087
2026-01-01 17:40:11.68	40.66	50.94	-36.1	-36.3	15.2	0.00e+00	0	41	0	20099104768	38	15203
2026-01-01 17:40:14.71	37.60	50.37	-36.0	-36.3	15.3	0.00e+00	0	41	0	20325597184	38	15126
2026-01-01 17:40:17.73	34.67	49.73	-36.1	-36.3	15.3	0.00e+00	0	41	0	20552089600	38	15285
2026-01-01 17:40:20.75	31.88	49.04	-36.2	-36.4	15.3	0.00e+00	0	41	0	20770193408	38	15389
2026-01-01 17:40:23.76	29.22	48.28	-36.3	-36.5	15.3	0.00e+00	0	41	0	21005074432	38	15575
2026-01-01 17:40:26.77	26.70	47.49	-36.3	-36.5	15.2	0.00e+00	0	41	0	21231566848	38	15641
2026-01-01 17:40:29.78	24.31	46.65	-36.5	-36.8	15.2	0.00e+00	0	41	0	21449670656	38	16028
2026-01-01 17:40:32.80	22.05	45.78	-36.5	-36.8	15.2	0.00e+00	0	41	0	21676163072	39	15161
2026-01-01 17:40:35.81	19.92	44.89	-36.7	-37.0	15.2	0.00e+00	0	41	0	21902655488	39	15504
2026-01-01 17:40:38.82	17.91	43.98	-36.9	-37.1	15.2	0.00e+00	0	41	0	22129147904	39	15773
2026-01-01 17:40:41.84	16.02	43.06	-36.9	-37.1	15.1	0.00e+00	0	41	0	22355640320	39	15814
2026-01-01 17:40:44.86	14.23	42.13	-37.1	-37.3	15.2	0.00e+00	0	41	0	22582132736	40	15255
2026-01-01 17:40:47.86	12.56	41.21	-37.1	-37.3	15.1	0.00e+00	0	41	0	22808625152	40	15269
2026-01-01 17:40:50.87	10.98	40.28	-37.3	-37.5	15.1	0.00e+00	0	41	0	23035117568	40	15641
2026-01-01 17:40:53.87	9.50	39.36	-37.4	-37.6	15.1	0.00e+00	0	41	0	23261609984	40	15761
2026-01-01 17:40:56.89	8.10	38.45	-37.5	-37.7	15.1	0.00e+00	0	41	0	23488102400	40	15943
2026-01-01 17:40:59.91	6.77	37.54	-37.7	-37.9	15.1	0.00e+00	0	42	0	23706206208	41	15348
2026-01-01 17:41:02.92	5.53	36.65	-37.7	-38.0	15.1	0.00e+00	0	41	0	23941087232	41	15507
2026-01-01 17:41:05.92	4.36	35.78	-37.9	-38.1	15.0	0.00e+00	0	42	0	24159191040	41	15800
2026-01-01 17:41:08.93	3.25	34.91	-38.1	-38.4	15.0	0.00e+00	0	42	0	24385683456	42	15304
2026-01-01 17:41:11.94	2.20	34.07	-38.2	-38.5	15.0	0.00e+00	0	42	0	24612175872	42	15511
2026-01-01 17:41:14.95	1.21	33.24	-38.3	-38.6	15.0	0.00e+00	0	41	0	24838668288	42	15700
2026-01-01 17:41:17.96	0.27	32.42	-38.6	-38.8	15.0	0.00e+00	0	41	0	25065160704	42	16094
2026-01-01 17:41:20.96	359.38	31.63	-38.6	-38.8	14.9	0.00e+00	0	42	0	25291653120	43	15277
2026-01-01 17:41:23.97	358.54	30.86	-38.8	-39.0	14.9	0.00e+00	0	41	0	25518145536	43	15591
2026-01-01 17:41:26.98	357.73	30.10	-38.9	-39.1	14.9	0.00e+00	0	41	0	25744637952	43	15813
2026-01-01 17:41:29.98	356.98	29.36	-39.0	-39.2	14.8	0.00e+00	0	41	0	25971130368	43	16007
2026-01-01 17:41:32.99	356.25	28.63	-39.2	-39.4	14.8	0.00e+00	0	42	0	26189234176	44	15442
2026-01-01 17:41:36.01	355.56	27.92	-39.3	-39.6	14.8	0.00e+00	0	42	0	26415726592	44	15653
2026-01-01 17:41:39.01	354.90	27.24	-39.5	-39.7	14.8	0.00e+00	0	42	0	26642219008	44	15973
2026-01-01 17:41:42.01	354.28	26.56	-39.6	-39.8	14.7	0.00e+00	0	42	0	26868711424	44	16174
2026-01-01 17:41:45.03	353.68	25.91	-39.7	-40.0	14.8	0.00e+00	0	41	0	27095203840	45	15493
2026-01-01 17:41:48.04	353.11	25.27	-39.9	-40.1	14.7	0.00e+00	0	42	0	27321696256	45	15736
2026-01-01 17:41:51.04	352.56	24.64	-40.0	-40.2	14.6	0.00e+00	0	41	0	27548188672	45	15977
2026-01-01 17:41:54.05	352.04	24.03	-40.1	-40.3	14.6	0.00e+00	0	42	0	27774681088	45	16188
2026-01-01 17:41:57.06	351.54	23.44	-40.4	-40.6	14.6	0.00e+00	0	41	0	27992784896	46	15821
2026-01-01 17:42:00.07	351.06	22.86	-40.5	-40.8	14.5	0.00e+00	0	42	0	28227665920	46	16023
2026-01-01 17:42:03.08	350.60	22.29	-40.6	-40.9	14.5	0.00e+00	0	41	0	28454158336	47	15333
2026-01-01 17:42:06.10	350.16	21.74	-40.7	-41.0	14.5	0.00e+00	0	41	0	28672262144	47	15488
2026-01-01 17:42:09.11	349.74	21.20	-40.9	-41.2	14.4	0.00e+00	0	41	0	28907143168	47	15860
2026-01-01 17:42:12.13	349.33	20.67	-41.1	-41.3	14.4	0.00e+00	0	42	0	29125246976	47	16126
2026-01-01 17:42:15.14	348.94	20.15	-41.9	-42.1	14.5	0.00e+00	0	42	0	29351739392	49	15831
2026-01-01 17:42:18.15	348.57	19.65	-42.0	-42.3	14.5	0.00e+00	0	42	0	29578231808	49	16053
2026-01-01 17:42:21.17	348.21	19.15	-42.2	-42.4	14.5	0.00e+00	0	42	0	29804724224	50	15369
2026-01-01 17:42:24.18	347.86	18.67	-42.3	-42.5	14.5	0.00e+00	0	42	0	30031216640	50	15561
2026-01-01 17:42:27.18	347.52	18.21	-42.3	-42.5	14.4	0.00e+00	0	42	0	30257709056	50	15641
2026-01-01 17:42:30.19	347.20	17.75	-42.5	-42.7	14.3	0.00e+00	0	41	0	30484201472	50	15985
2026-01-01 17:42:33.19	346.89	17.30	-42.6	-42.9	14.3	0.00e+00	0	41	0	30710693888	51	15352
2026-01-01 17:42:36.21	346.59	16.86	-42.7	-42.9	14.3	0.00e+00	0	42	0	30937186304	51	15449
2026-01-01 17:42:39.23	346.30	16.42	-42.8	-43.1	14.2	0.00e+00	0	42	0	31163678720	51	15716
2026-01-01 17:42:42.23	346.02	16.00	-43.0	-43.2	14.2	0.00e+00	0	42	0	31390171136	51	15972
2026-01-01 17:42:45.24	345.75	15.59	-43.1	-43.3	14.1	0.00e+00	0	42	0	31608274944	51	16146
2026-01-01 17:42:48.23	345.49	15.19	-43.2	-43.5	14.1	0.00e+00	0	42	0	31834767360	52	15498
2026-01-01 17:42:51.24	345.24	14.79	-43.3	-43.5	14.1	0.00e+00	0	41	0	32061259776	52	15581
2026-01-01 17:42:54.25	344.99	14.40	-43.4	-43.6	14.0	0.00e+00	0	42	0	32287752192	52	15823
2026-01-01 17:42:57.27	344.75	14.02	-43.5	-43.8	14.0	0.00e+00	0	41	0	32514244608	52	16025
2026-01-01 17:43:00.28	344.52	13.64	-43.6	-43.8	13.9	0.00e+00	0	41	0	32740737024	52	16190
2026-01-01 17:43:03.29	344.30	13.28	-60.4	-63.6	3.7	0.00e+00	0	41	104	32883343360	86	22204
2026-01-01 17:43:06.29	344.08	12.92	-60.4	-63.6	3.7	0.00e+00	0	41	104	32883343360	86	22197
2026-01-01 17:43:09.31	343.87	12.56	-60.3	-63.5	3.7	0.00e+00	0	41	104	32883343360	86	22088
2026-01-01 17:43:12.31	343.67	12.21	-60.3	-63.5	3.7	0.00e+00	0	41	104	32883343360	86	21977
2026-01-01 17:43:15.32	343.47	11.87	-60.2	-63.4	3.7	0.00e+00	0	41	104	32883343360	86	21819
2026-01-01 17:43:18.35	343.28	11.53	-60.2	-63.4	3.7	0.00e+00	0	41	104	32883343360	86	21610
2026-01-01 17:43:21.36	343.10	11.20	-60.2	-63.4	3.7	0.00e+00	0	41	104	32883343360	86	21634
2026-01-01 17:43:24.37	342.92	10.88	-60.1	-63.3	3.7	0.00e+00	0	41	104	32883343360	86	21457
2026-01-01 17:43:27.39	342.74	10.56	-60.1	-63.3	3.7	0.00e+00	0	41	104	32883343360	86	21563
2026-01-01 17:43:30.40	342.57	10.24	-60.0	-63.3	3.7	0.00e+00	0	40	104	32883343360	86	21433
2026-01-01 17:43:33.41	342.40	9.94	-60.0	-63.3	3.7	0.00e+00	0	40	104	32883343360	86	21366
2026-01-01 17:43:36.42	342.24	9.63	-60.0	-63.2	3.7	0.00e+00	0	40	104	32883343360	86	21293
2026-01-01 17:43:39.45	342.08	9.33	-60.0	-63.2	3.7	0.00e+00	0	40	104	32883343360	86	21169
2026-01-01 17:43:42.47	341.93	9.03	-59.9	-63.1	3.7	0.00e+00	0	40	104	32883343360	86	21043
2026-01-01 17:43:45.49	341.78	8.74	-59.9	-63.1	3.7	0.00e+00	0	40	104	32883343360	86	20937
2026-01-01 17:43:48.52	341.64	8.45	-59.9	-63.1	3.7	0.00e+00	0	40	104	32883343360	86	20983
2026-01-01 17:43:51.54	341.49	8.17	-59.8	-63.0	3.7	0.00e+00	0	40	104	32883343360	86	20813
2026-01-01 17:43:54.56	341.36	7.89	-59.7	-63.0	3.7	0.00e+00	0	40	104	32883343360	86	20659
2026-01-01 17:43:57.58	341.22	7.62	-59.7	-62.9	3.7	0.00e+00	0	40	104	32883343360	86	20617
2026-01-01 17:44:00.60	341.09	7.35	-59.7	-63.0	3.7	0.00e+00	0	40	104	32883343360	86	20660
2026-01-01 17:44:03.62	340.96	7.08	-59.7	-62.9	3.7	0.00e+00	0	40	104	32883343360	86	20568
2026-01-01 17:44:06.65	340.84	6.81	-59.6	-62.8	3.7	0.00e+00	0	40	104	32883343360	86	20320
2026-01-01 17:44:09.67	340.72	6.55	-59.6	-62.8	3.7	0.00e+00	0	40	104	32883343360	86	20177
2026-01-01 17:44:12.69	340.60	6.30	-59.6	-62.8	3.7	0.00e+00	0	40	104	32883343360	86	20333
2026-01-01 17:44:15.71	340.48	6.04	-59.6	-62.8	3.7	0.00e+00	0	40	104	32883343360	86	20231
2026-01-01 17:44:18.74	340.37	5.79	-59.4	-62.6	3.7	0.00e+00	0	40	104	32883343360	86	19864
2026-01-01 17:44:21.77	340.26	5.54	-59.4	-62.6	3.7	0.00e+00	0	40	104	32883343360	86	19843
2026-01-01 17:44:24.79	340.15	5.30	-59.4	-62.6	3.7	0.00e+00	0	40	104	32883343360	85	21082
2026-01-01 17:44:27.82	340.05	5.05	-59.4	-62.6	3.7	0.00e+00	0	40	104	32883343360	85	20986
2026-01-01 17:44:30.82	339.94	4.82	-60.6	-63.8	3.7	0.00e+00	0	40	104	32883343360	86	22649
2026-01-01 17:44:33.85	339.84	4.58	-61.2	-64.4	3.7	0.00e+00	0	40	104	32883343360	88	21732
2026-01-01 17:44:36.87	339.75	4.35	-61.6	-64.8	3.7	0.00e+00	0	40	104	32883343360	88	22698
2026-01-01 17:44:39.89	339.65	4.12	-61.7	-65.0	3.7	0.00e+00	0	40	104	32883343360	89	21858
2026-01-01 17:44:42.91	339.56	3.89	-61.8	-65.0	3.7	0.00e+00	0	40	104	32883343360	89	22046
2026-01-01 17:44:45.94	339.46	3.66	-61.9	-65.2	3.7	0.00e+00	0	40	104	32883343360	89	22454
2026-01-01 17:44:48.96	339.37	3.44	-61.9	-65.2	3.7	0.00e+00	0	40	104	32883343360	89	22386
2026-01-01 17:44:51.99	339.29	3.21	-61.9	-65.1	3.7	0.00e+00	0	40	104	32883343360	89	22334
2026-01-01 17:44:55.02	339.20	2.99	-61.9	-65.1	3.7	0.00e+00	0	40	104	32883343360	89	22251
2026-01-01 17:44:58.04	339.12	2.78	-61.8	-65.0	3.7	0.00e+00	0	40	104	32883343360	89	22092
2026-01-01 17:45:01.07	339.03	2.56	-61.8	-65.0	3.7	0.00e+00	0	40	104	32883343360	89	22015
2026-01-01 17:45:04.10	338.95	2.35	-61.8	-65.0	3.7	0.00e+00	0	40	104	32883343360	89	21973
2026-01-01 17:45:07.12	338.87	2.14	-61.8	-65.0	3.7	0.00e+00	0	40	104	32883343360	89	22001

#Closed at: 2026-01-01 17:45:09
#Recorded file [32883 MB]: D:/lorett/data/31004_260101_203443.dat