passes_logs/2026/01/01/R3.2S_Murmansk/R3.2S_Murmansk__20260101_085042_SUOMI_NPP_rec.log

#Pass ID: 20260101_085042_SUOMI NPP
#Satellite: SUOMI NPP
#Configuration: NPP
#almurnet v.1.7.20251203
#Start time: 2026-01-01 08:50:42

#Version: 2.2.20231116
#Station: R3.2S_Murmansk
#Location: 33.079688 lon 68.888172 lat
#TLE: 1 37849U 11061A   26001.07732418  .00000182  00000+0  10735-3 0  9990
#TLE: 2 37849  98.7795 303.2470 0002580  87.2016 272.9455 14.19520779734739

#Time	Az	El	Level	Level2	SNR	BER	BlckErr	Temp	State	Recorded	gain1	gain2
2026-01-01 08:50:42.03	134.04	1.97	-59.6	-75.6	3.8	1.49e+00	0	32	0	0	85	22590
2026-01-01 08:50:46.00	133.97	2.22	-59.5	-75.6	3.8	1.49e+00	0	32	104	0	84	23956
2026-01-01 08:50:49.97	133.91	2.48	-59.6	-75.6	3.8	1.49e+00	0	33	104	0	84	24000
2026-01-01 08:50:53.94	133.84	2.74	-59.6	-75.5	3.8	1.49e+00	0	32	104	0	84	23814
2026-01-01 08:50:57.92	133.77	3.00	-59.6	-75.5	3.8	1.49e+00	0	33	104	0	84	23684
2026-01-01 08:51:01.90	133.70	3.26	-59.6	-75.4	3.8	1.49e+00	0	33	104	0	84	23357
2026-01-01 08:51:05.88	133.63	3.53	-59.6	-75.1	3.8	1.49e+00	0	33	104	0	84	22654
2026-01-01 08:51:09.85	133.55	3.80	-59.5	-73.0	4.0	1.49e+00	0	33	104	0	84	17758
2026-01-01 08:51:13.84	133.48	4.07	-58.8	-66.6	7.3	2.16e-01	0	33	0	4194304	84	8518
2026-01-01 08:51:17.80	133.40	4.34	-57.0	-61.2	12.0	8.62e-05	0	33	0	11534336	80	5768
2026-01-01 08:51:21.78	133.32	4.62	-55.3	-58.2	14.2	0.00e+00	0	33	0	19922944	77	4832
2026-01-01 08:51:25.75	133.24	4.90	-55.1	-57.8	14.5	0.00e+00	0	33	0	27262976	76	4902
2026-01-01 08:51:29.72	133.16	5.18	-56.6	-60.3	13.0	0.00e+00	0	33	0	34603008	78	5820
2026-01-01 08:51:33.69	133.08	5.46	-55.3	-58.1	14.3	3.18e-01	0	33	0	41943040	77	4791
2026-01-01 08:51:37.67	132.99	5.75	-54.8	-57.2	15.0	0.00e+00	0	33	0	49283072	76	4592
2026-01-01 08:51:41.65	132.91	6.05	-54.5	-56.8	15.2	0.00e+00	0	33	0	56623104	75	4614
2026-01-01 08:51:45.64	132.82	6.34	-54.5	-56.8	15.2	0.00e+00	0	33	0	63963136	75	4622
2026-01-01 08:51:49.61	132.72	6.64	-54.6	-56.9	15.3	0.00e+00	0	33	0	71303168	75	4674
2026-01-01 08:51:53.60	132.63	6.94	-54.4	-56.7	15.4	0.00e+00	0	33	0	78643200	75	4547
2026-01-01 08:51:57.57	132.53	7.25	-54.2	-56.3	15.6	0.00e+00	0	34	0	87031808	74	4650
2026-01-01 08:52:01.54	132.44	7.55	-54.1	-56.2	15.7	0.00e+00	0	34	0	94371840	74	4586
2026-01-01 08:52:05.52	132.34	7.87	-53.9	-55.9	15.9	0.00e+00	0	34	0	101711872	74	4409
2026-01-01 08:52:09.49	132.23	8.18	-53.7	-55.7	16.0	0.00e+00	0	34	0	109051904	74	4297
2026-01-01 08:52:13.46	132.13	8.50	-53.6	-55.6	16.0	0.00e+00	0	34	0	116391936	73	4496
2026-01-01 08:52:17.43	132.02	8.83	-53.7	-55.7	16.0	0.00e+00	0	34	0	123731968	73	4556
2026-01-01 08:52:21.40	131.91	9.15	-53.5	-55.4	16.1	0.00e+00	0	34	0	131072000	73	4396
2026-01-01 08:52:25.38	131.79	9.49	-53.4	-55.3	16.2	0.00e+00	0	33	0	138412032	73	4359
2026-01-01 08:52:29.35	131.68	9.82	-53.3	-55.1	16.3	0.00e+00	0	34	0	145752064	73	4261
2026-01-01 08:52:33.34	131.56	10.17	-53.2	-55.0	16.3	0.00e+00	0	34	0	154140672	73	4226
2026-01-01 08:52:37.32	131.43	10.51	-53.2	-55.0	16.4	0.00e+00	0	34	0	161480704	72	4452
2026-01-01 08:52:41.29	131.31	10.86	-53.2	-54.9	16.4	0.00e+00	0	34	0	168820736	72	4423
2026-01-01 08:52:45.27	131.18	11.22	-53.0	-54.7	16.5	0.00e+00	0	34	0	176160768	72	4311
2026-01-01 08:52:49.24	131.04	11.58	-53.2	-55.0	16.4	0.00e+00	0	34	0	183500800	72	4461
2026-01-01 08:52:53.20	130.91	11.95	-53.0	-54.8	16.4	0.00e+00	0	34	0	190840832	72	4343
2026-01-01 08:52:57.19	130.76	12.32	-52.9	-54.6	16.5	0.00e+00	0	34	0	198180864	72	4284
2026-01-01 08:53:01.15	130.62	12.69	-52.8	-54.7	16.4	0.00e+00	0	34	0	205520896	71	4563
2026-01-01 08:53:05.12	130.47	13.08	-52.8	-54.7	16.4	0.00e+00	0	34	0	212860928	71	4556
2026-01-01 08:53:09.08	130.32	13.46	-53.0	-54.9	16.3	0.00e+00	0	34	0	220200960	71	4675
2026-01-01 08:53:13.05	130.16	13.86	-52.8	-54.7	16.4	0.00e+00	0	34	0	228589568	71	4552
2026-01-01 08:53:17.01	130.00	14.26	-52.8	-54.6	16.5	0.00e+00	0	34	0	235929600	71	4531
2026-01-01 08:53:20.98	129.83	14.66	-52.8	-54.7	16.5	0.00e+00	0	34	0	243269632	71	4552
2026-01-01 08:53:24.94	129.66	15.08	-52.7	-54.6	16.5	0.00e+00	0	34	0	250609664	71	4494
2026-01-01 08:53:28.90	129.48	15.50	-52.5	-54.4	16.6	0.00e+00	0	34	0	257949696	71	4407
2026-01-01 08:53:32.88	129.30	15.92	-52.5	-54.3	16.7	0.00e+00	0	34	0	265289728	71	4350
2026-01-01 08:53:36.86	129.11	16.36	-52.4	-54.2	16.7	0.00e+00	0	34	0	272629760	71	4315
2026-01-01 08:53:40.82	128.92	16.80	-52.6	-54.4	16.6	0.00e+00	0	34	0	279969792	71	4426
2026-01-01 08:53:44.80	128.72	17.25	-52.6	-54.4	16.7	0.00e+00	0	34	0	287309824	71	4414
2026-01-01 08:53:48.77	128.51	17.71	-52.7	-54.5	16.6	0.00e+00	0	34	0	294649856	71	4450
2026-01-01 08:53:52.74	128.30	18.18	-52.8	-54.6	16.6	0.00e+00	0	34	0	303038464	71	4513
2026-01-01 08:53:56.70	128.08	18.65	-52.8	-54.5	16.7	0.00e+00	0	34	0	310378496	71	4477
2026-01-01 08:54:00.68	127.85	19.13	-52.6	-54.4	16.7	0.00e+00	0	34	0	317718528	71	4398
2026-01-01 08:54:04.66	127.61	19.63	-52.7	-54.4	16.7	0.00e+00	0	34	0	325058560	71	4419
2026-01-01 08:54:08.63	127.37	20.13	-52.7	-54.4	16.7	0.00e+00	0	34	0	332398592	71	4419
2026-01-01 08:54:12.60	127.11	20.64	-52.8	-54.5	16.7	0.00e+00	0	34	0	339738624	71	4487
2026-01-01 08:54:16.57	126.85	21.16	-53.2	-55.1	16.4	0.00e+00	0	34	0	347078656	71	4799
2026-01-01 08:54:20.56	126.58	21.70	-53.3	-55.2	16.4	0.00e+00	0	34	0	354418688	72	4591
2026-01-01 08:54:24.53	126.30	22.24	-53.5	-55.5	16.3	0.00e+00	0	34	0	361758720	72	4742
2026-01-01 08:54:28.51	126.00	22.80	-53.2	-55.1	16.4	0.00e+00	0	34	0	369098752	72	4536
2026-01-01 08:54:32.48	125.70	23.36	-53.2	-55.2	16.5	0.00e+00	0	34	0	377487360	72	4551
2026-01-01 08:54:36.45	125.38	23.94	-53.5	-55.5	16.3	0.00e+00	0	34	0	384827392	72	4723
2026-01-01 08:54:40.42	125.06	24.53	-54.1	-56.3	15.9	0.00e+00	0	34	0	392167424	73	4889
2026-01-01 08:54:44.39	124.72	25.13	-54.1	-56.2	16.0	0.00e+00	0	34	0	399507456	73	4857
2026-01-01 08:54:48.36	124.36	25.74	-54.3	-56.5	16.0	0.00e+00	0	34	0	406847488	74	4741
2026-01-01 08:54:52.33	123.99	26.37	-54.4	-56.7	15.9	0.00e+00	0	34	0	414187520	74	4824
2026-01-01 08:54:56.30	123.61	27.01	-54.1	-56.2	16.1	0.00e+00	0	34	0	421527552	74	4588
2026-01-01 08:55:00.28	123.20	27.67	-54.5	-56.7	15.9	0.00e+00	0	34	0	428867584	74	4867
2026-01-01 08:55:04.25	122.79	28.33	-54.5	-56.8	15.8	0.00e+00	0	34	0	436207616	74	4917
2026-01-01 08:55:08.23	122.35	29.02	-54.6	-56.9	15.7	0.00e+00	0	34	0	444596224	74	4982
2026-01-01 08:55:12.21	121.89	29.72	-55.6	-58.2	15.2	0.00e+00	0	34	0	451936256	76	5127
2026-01-01 08:55:16.19	121.41	30.43	-55.5	-57.9	15.3	0.00e+00	0	34	0	459276288	76	4971
2026-01-01 08:55:20.15	120.91	31.16	-55.7	-58.3	15.1	0.00e+00	0	34	0	466616320	77	4921
2026-01-01 08:55:24.12	120.39	31.91	-55.8	-58.6	14.9	0.00e+00	0	34	0	473956352	77	5045
2026-01-01 08:55:28.09	119.84	32.67	-55.0	-57.4	15.5	0.00e+00	0	34	0	481296384	76	4695
2026-01-01 08:55:32.06	119.26	33.44	-55.6	-58.3	15.1	0.00e+00	0	34	0	488636416	76	5174
2026-01-01 08:55:36.02	118.66	34.24	-55.4	-58.0	15.3	0.00e+00	0	34	0	495976448	77	4714
2026-01-01 08:55:40.01	118.01	35.05	-55.6	-58.2	15.1	0.00e+00	0	34	0	503316480	76	5155
2026-01-01 08:55:43.97	117.35	35.88	-56.3	-60.0	13.9	0.00e+00	0	34	0	510656512	78	5649
2026-01-01 08:55:47.95	116.64	36.72	-56.3	-60.7	13.5	0.00e+00	0	34	0	519045120	78	6068
2026-01-01 08:55:51.92	115.89	37.59	-56.7	-61.2	13.0	1.50e-06	0	34	0	526385152	78	6438
2026-01-01 08:55:55.89	115.11	38.46	-56.3	-60.3	13.8	0.00e+00	0	34	0	533725184	78	5814
2026-01-01 08:55:59.87	114.27	39.36	-54.2	-56.6	15.9	0.00e+00	0	34	0	541065216	75	4524
2026-01-01 08:56:03.83	113.39	40.27	-55.3	-58.2	15.2	0.00e+00	0	34	0	548405248	75	5411
2026-01-01 08:56:07.80	112.46	41.20	-55.0	-57.6	15.5	0.00e+00	0	34	0	555745280	76	4785
2026-01-01 08:56:11.79	111.47	42.14	-55.7	-58.9	14.8	0.00e+00	0	34	0	563085312	77	5230
2026-01-01 08:56:15.75	110.42	43.10	-56.3	-59.5	14.5	0.00e+00	0	34	0	570425344	78	5297
2026-01-01 08:56:19.73	109.31	44.07	-56.1	-59.0	14.8	0.00e+00	0	34	0	577765376	78	5005
2026-01-01 08:56:23.68	108.13	45.04	-55.6	-58.3	15.1	0.00e+00	0	34	0	585105408	77	4922
2026-01-01 08:56:27.65	106.87	46.03	-55.0	-57.6	15.5	0.00e+00	0	34	0	593494016	76	4793
2026-01-01 08:56:31.62	105.53	47.03	-54.5	-57.1	15.7	0.00e+00	0	34	0	600834048	74	5063
2026-01-01 08:56:35.59	104.09	48.03	-54.0	-56.5	16.1	0.00e+00	0	34	0	608174080	74	4739
2026-01-01 08:56:39.57	102.56	49.04	-55.3	-58.4	14.9	0.00e+00	0	34	0	615514112	75	5567
2026-01-01 08:56:43.53	100.93	50.04	-53.6	-56.2	15.9	0.00e+00	0	34	0	622854144	73	4833
2026-01-01 08:56:47.50	99.18	51.04	-53.1	-55.5	16.3	0.00e+00	0	34	0	630194176	72	4730
2026-01-01 08:56:51.46	97.32	52.02	-52.5	-54.5	16.7	0.00e+00	0	34	0	637534208	70	4729
2026-01-01 08:56:55.43	95.33	53.00	-53.8	-56.2	16.2	0.00e+00	0	34	0	644874240	72	5138
2026-01-01 08:56:59.43	93.18	53.96	-54.7	-57.8	15.3	0.00e+00	0	34	0	652214272	75	5217
2026-01-01 08:57:03.42	90.89	54.90	-53.3	-55.6	16.3	0.00e+00	0	34	0	659554304	71	5073
2026-01-01 08:57:07.39	88.46	55.79	-53.3	-55.4	16.4	0.00e+00	0	34	0	667942912	72	4684
2026-01-01 08:57:11.38	85.86	56.65	-53.4	-55.5	16.4	0.00e+00	0	34	0	675282944	72	4746
2026-01-01 08:57:15.36	83.10	57.47	-53.6	-55.9	16.2	0.00e+00	0	34	0	682622976	73	4660
2026-01-01 08:57:19.32	80.20	58.22	-53.4	-55.6	16.4	0.00e+00	0	34	0	689963008	72	4775
2026-01-01 08:57:23.29	77.12	58.91	-53.7	-56.3	16.0	0.00e+00	0	34	0	697303040	73	4877
2026-01-01 08:57:27.26	73.89	59.52	-53.0	-55.3	16.4	0.00e+00	0	34	0	704643072	72	4641
2026-01-01 08:57:31.22	70.52	60.05	-54.4	-57.3	15.5	0.00e+00	0	34	0	711983104	74	5212
2026-01-01 08:57:35.20	67.00	60.50	-54.6	-57.7	15.3	0.00e+00	0	34	0	719323136	74	5403
2026-01-01 08:57:39.16	63.39	60.84	-53.3	-55.5	16.4	0.00e+00	0	34	0	726663168	72	4745
2026-01-01 08:57:43.11	59.70	61.09	-52.1	-54.0	16.8	0.00e+00	0	34	0	734003200	70	4493
2026-01-01 08:57:47.09	55.93	61.23	-51.4	-53.1	17.2	0.00e+00	0	34	0	742391808	69	4283
2026-01-01 08:57:51.07	52.14	61.25	-52.9	-55.0	16.6	0.00e+00	0	34	0	749731840	71	4758
2026-01-01 08:57:55.05	48.35	61.17	-51.1	-52.8	17.3	0.00e+00	0	34	0	757071872	68	4345
2026-01-01 08:57:59.01	44.62	60.98	-52.8	-54.9	16.6	0.00e+00	0	34	0	764411904	71	4685
2026-01-01 08:58:02.98	40.95	60.69	-52.4	-54.3	16.8	0.00e+00	0	34	0	771751936	69	4885
2026-01-01 08:58:06.96	37.37	60.30	-52.6	-54.4	16.9	0.00e+00	0	34	0	779091968	71	4417
2026-01-01 08:58:10.94	33.92	59.81	-53.7	-55.9	16.3	0.00e+00	0	34	0	786432000	72	4971
2026-01-01 08:58:14.91	30.61	59.24	-52.4	-54.1	16.9	0.00e+00	0	34	0	793772032	71	4272
2026-01-01 08:58:18.88	27.46	58.59	-52.5	-54.1	17.0	0.00e+00	0	34	0	801112064	71	4256
2026-01-01 08:58:22.85	24.46	57.87	-54.1	-56.1	16.3	0.00e+00	0	34	0	808452096	74	4504
2026-01-01 08:58:26.82	21.63	57.09	-55.5	-58.2	15.4	0.00e+00	0	34	0	816840704	76	5123
2026-01-01 08:58:30.80	18.95	56.25	-55.2	-57.7	15.6	0.00e+00	0	34	0	824180736	76	4842
2026-01-01 08:58:34.77	16.45	55.38	-53.7	-55.7	16.3	0.00e+00	0	34	0	831520768	74	4326
2026-01-01 08:58:38.74	14.09	54.46	-52.6	-54.5	16.8	0.00e+00	0	34	0	838860800	71	4454
2026-01-01 08:58:42.72	11.88	53.52	-53.3	-55.3	16.4	0.00e+00	0	34	0	846200832	72	4599
2026-01-01 08:58:46.70	9.81	52.55	-52.4	-54.0	16.9	0.00e+00	0	34	0	853540864	71	4238
2026-01-01 08:58:50.69	7.87	51.57	-54.5	-56.9	15.8	0.00e+00	0	34	0	860880896	74	4937
2026-01-01 08:58:54.66	6.07	50.58	-52.6	-54.6	16.5	0.00e+00	0	34	0	868220928	71	4499
2026-01-01 08:58:58.63	4.38	49.58	-55.9	-59.4	14.2	0.00e+00	0	34	0	876609536	77	5530
2026-01-01 08:59:02.58	2.81	48.58	-53.4	-55.5	16.4	0.00e+00	0	34	0	883949568	72	4727
2026-01-01 08:59:06.56	1.32	47.58	-54.7	-57.1	15.7	0.00e+00	0	34	0	891289600	74	5075
2026-01-01 08:59:10.54	359.93	46.58	-55.0	-57.6	15.5	0.00e+00	0	34	0	898629632	75	5070
2026-01-01 08:59:14.51	358.63	45.59	-55.1	-57.8	15.3	0.00e+00	0	34	0	905969664	76	4908
2026-01-01 08:59:18.50	357.40	44.60	-54.6	-57.1	15.8	0.00e+00	0	34	0	913309696	74	5044
2026-01-01 08:59:22.48	356.25	43.62	-55.6	-58.6	15.1	0.00e+00	0	34	0	920649728	77	5049
2026-01-01 08:59:26.44	355.17	42.67	-54.5	-56.8	16.0	0.00e+00	0	34	0	927989760	75	4620
2026-01-01 08:59:30.40	354.16	41.72	-55.6	-58.2	15.3	0.00e+00	0	34	0	935329792	77	4837
2026-01-01 08:59:34.36	353.20	40.79	-55.9	-58.5	15.1	0.00e+00	0	34	0	942669824	78	4726
2026-01-01 08:59:38.32	352.30	39.88	-57.4	-61.1	13.5	3.00e-06	0	34	0	950009856	81	5388
2026-01-01 08:59:42.31	351.44	38.97	-56.8	-60.0	14.2	0.00e+00	0	34	0	958398464	80	5002
2026-01-01 08:59:46.28	350.63	38.09	-56.8	-60.1	14.1	0.00e+00	0	34	0	965738496	78	5681
2026-01-01 08:59:50.25	349.87	37.22	-56.7	-59.8	14.3	0.00e+00	0	34	0	973078528	79	5168
2026-01-01 08:59:54.19	349.15	36.38	-56.7	-60.1	14.3	0.00e+00	0	34	0	980418560	78	5657
2026-01-01 08:59:58.19	348.46	35.53	-57.2	-60.8	13.7	0.00e+00	0	34	0	987758592	79	5803
2026-01-01 09:00:02.17	347.80	34.71	-56.3	-59.3	14.4	0.00e+00	0	34	0	995098624	79	4919
2026-01-01 09:00:06.14	347.18	33.91	-56.4	-59.8	14.2	0.00e+00	0	34	0	1002438656	79	5200
2026-01-01 09:00:10.10	346.59	33.13	-55.0	-57.5	15.6	0.00e+00	0	34	0	1009778688	76	4731
2026-01-01 09:00:14.08	346.03	32.36	-55.6	-58.5	15.0	0.00e+00	0	34	0	1017118720	77	5013
2026-01-01 09:00:18.06	345.49	31.61	-55.9	-59.0	14.7	0.00e+00	0	34	0	1024458752	76	5593
2026-01-01 09:00:22.03	344.98	30.87	-55.3	-58.0	15.4	0.00e+00	0	34	0	1032847360	77	4707
2026-01-01 09:00:26.00	344.49	30.15	-53.5	-55.4	16.4	0.00e+00	0	34	0	1040187392	73	4430
2026-01-01 09:00:29.95	344.03	29.45	-54.6	-56.8	15.9	0.00e+00	0	34	0	1047527424	74	4875
2026-01-01 09:00:33.92	343.58	28.76	-55.1	-57.5	15.5	0.00e+00	0	34	0	1054867456	75	5022
2026-01-01 09:00:37.89	343.16	28.09	-57.3	-61.3	13.1	0.00e+00	0	34	0	1062207488	79	6198
2026-01-01 09:00:41.86	342.75	27.43	-56.2	-59.1	14.6	0.00e+00	0	34	0	1069547520	78	5076
2026-01-01 09:00:45.84	342.35	26.78	-54.9	-57.2	15.7	0.00e+00	0	34	0	1076887552	76	4589
2026-01-01 09:00:49.82	341.98	26.15	-54.8	-57.0	15.8	0.00e+00	0	34	0	1084227584	76	4455
2026-01-01 09:00:53.78	341.62	25.53	-55.1	-57.5	15.5	0.00e+00	0	34	0	1091567616	75	5033
2026-01-01 09:00:57.75	341.27	24.92	-55.9	-58.8	14.8	0.00e+00	0	34	0	1098907648	77	5165
2026-01-01 09:01:01.73	340.94	24.33	-55.3	-57.9	15.2	0.00e+00	0	34	0	1107296256	77	4672
2026-01-01 09:01:05.70	340.62	23.75	-55.9	-58.9	14.7	0.00e+00	0	34	0	1114636288	77	5251
2026-01-01 09:01:09.67	340.31	23.18	-56.6	-60.0	14.0	0.00e+00	0	34	0	1121976320	78	5656
2026-01-01 09:01:13.64	340.01	22.62	-55.8	-58.7	14.8	0.00e+00	0	34	0	1129316352	78	4822
2026-01-01 09:01:17.62	339.72	22.07	-54.6	-56.9	15.7	0.00e+00	0	34	0	1136656384	75	4665
2026-01-01 09:01:21.59	339.45	21.53	-54.0	-56.1	16.0	0.00e+00	0	34	0	1143996416	74	4509
2026-01-01 09:01:25.56	339.18	21.01	-53.7	-55.6	16.2	0.00e+00	0	34	0	1151336448	74	4291
2026-01-01 09:01:29.53	338.93	20.49	-53.9	-56.0	16.1	0.00e+00	0	34	0	1158676480	73	4725
2026-01-01 09:01:33.49	338.68	19.98	-54.3	-56.5	15.8	0.00e+00	0	34	0	1166016512	73	5008
2026-01-01 09:01:37.44	338.44	19.49	-54.5	-56.8	15.6	0.00e+00	0	34	0	1173356544	74	4889
2026-01-01 09:01:41.41	338.21	19.00	-54.3	-56.4	15.8	0.00e+00	0	34	0	1181745152	74	4686
2026-01-01 09:01:45.40	337.99	18.52	-54.5	-56.7	15.6	0.00e+00	0	34	0	1189085184	74	4837
2026-01-01 09:01:49.38	337.77	18.05	-55.0	-57.5	15.3	0.00e+00	0	34	0	1196425216	75	5014
2026-01-01 09:01:53.36	337.56	17.59	-55.4	-58.0	15.0	0.00e+00	0	34	0	1203765248	76	4985
2026-01-01 09:01:57.33	337.36	17.13	-55.3	-57.8	15.1	0.00e+00	0	34	0	1211105280	76	4907
2026-01-01 09:02:01.32	337.16	16.69	-54.2	-56.3	15.9	0.00e+00	0	34	0	1218445312	75	4388
2026-01-01 09:02:05.29	336.97	16.25	-53.7	-55.7	16.2	0.00e+00	0	34	0	1225785344	74	4305
2026-01-01 09:02:09.26	336.79	15.82	-53.6	-55.6	16.2	0.00e+00	0	34	0	1233125376	73	4504
2026-01-01 09:02:13.23	336.61	15.40	-54.2	-56.4	15.8	0.00e+00	0	34	0	1240465408	73	4952
2026-01-01 09:02:17.21	336.44	14.98	-54.8	-57.3	15.3	0.00e+00	0	34	0	1248854016	75	4896
2026-01-01 09:02:21.20	336.27	14.57	-54.9	-57.4	15.2	0.00e+00	0	34	0	1256194048	75	4976
2026-01-01 09:02:25.17	336.11	14.16	-54.9	-57.4	15.3	0.00e+00	0	34	0	1263534080	75	4956
2026-01-01 09:02:29.14	335.95	13.77	-54.8	-57.2	15.3	0.00e+00	0	34	0	1270874112	75	4859
2026-01-01 09:02:33.11	335.80	13.38	-54.7	-57.1	15.4	0.00e+00	0	34	0	1278214144	75	4808
2026-01-01 09:02:37.10	335.65	12.99	-54.7	-57.2	15.2	0.00e+00	0	34	0	1285554176	75	4839
2026-01-01 09:02:41.06	335.50	12.61	-55.0	-57.6	15.1	0.00e+00	0	34	0	1292894208	75	5076
2026-01-01 09:02:45.04	335.36	12.24	-55.2	-57.8	15.0	0.00e+00	0	34	0	1300234240	75	5202
2026-01-01 09:02:49.01	335.22	11.87	-55.3	-58.0	14.9	0.00e+00	0	34	0	1307574272	75	5298
2026-01-01 09:02:52.99	335.09	11.51	-55.1	-57.7	15.0	0.00e+00	0	34	0	1315962880	75	5159
2026-01-01 09:02:56.97	334.96	11.15	-55.0	-57.6	15.1	0.00e+00	0	34	0	1323302912	75	5073
2026-01-01 09:03:00.93	334.83	10.80	-55.0	-57.6	15.1	0.00e+00	0	34	0	1330642944	75	5050
2026-01-01 09:03:04.94	334.71	10.45	-55.1	-57.6	15.0	0.00e+00	0	34	0	1337982976	75	5095
2026-01-01 09:03:08.94	334.59	10.10	-54.9	-57.4	15.1	0.00e+00	0	34	0	1345323008	75	4942
2026-01-01 09:03:12.92	334.47	9.76	-55.0	-57.5	15.0	0.00e+00	0	34	0	1352663040	75	5032
2026-01-01 09:03:16.90	334.36	9.43	-55.3	-57.9	14.8	0.00e+00	0	34	0	1360003072	75	5268
2026-01-01 09:03:20.89	334.25	9.10	-55.3	-58.0	14.8	0.00e+00	0	34	0	1367343104	75	5287
2026-01-01 09:03:24.87	334.14	8.77	-55.6	-58.6	14.5	0.00e+00	0	34	0	1375731712	76	5354
2026-01-01 09:03:28.85	334.04	8.45	-55.6	-58.5	14.5	0.00e+00	0	34	0	1383071744	76	5284
2026-01-01 09:03:32.81	333.94	8.13	-55.9	-59.0	14.1	0.00e+00	0	34	0	1390411776	77	5286
2026-01-01 09:03:36.79	333.84	7.82	-56.1	-59.4	13.8	0.00e+00	0	34	0	1397751808	77	5556
2026-01-01 09:03:40.76	333.74	7.51	-56.1	-59.3	13.8	0.00e+00	0	34	0	1405091840	77	5519
2026-01-01 09:03:44.72	333.64	7.20	-56.3	-59.8	13.5	0.00e+00	0	34	0	1412431872	77	5791
2026-01-01 09:03:48.71	333.55	6.90	-56.4	-60.0	13.3	0.00e+00	0	34	0	1419771904	78	5615
2026-01-01 09:03:52.68	333.46	6.60	-56.4	-60.0	13.3	0.00e+00	0	34	0	1427111936	78	5622
2026-01-01 09:03:56.65	333.37	6.30	-53.1	-60.3	13.1	0.00e+00	0	34	0	1434451968	77	6155
2026-01-01 09:04:00.63	333.29	6.01	-56.5	-60.2	13.0	0.00e+00	0	34	0	1442840576	78	5785
2026-01-01 09:04:04.60	333.20	5.72	-56.4	-60.2	13.1	0.00e+00	0	34	0	1450180608	78	5742
2026-01-01 09:04:08.57	333.12	5.43	-56.5	-60.3	13.0	7.00e-07	0	34	0	1457520640	78	5837
2026-01-01 09:04:12.54	333.04	5.15	-56.4	-60.2	13.0	7.00e-07	0	34	0	1464860672	78	5747
2026-01-01 09:04:16.54	332.96	4.87	-60.8	-76.9	3.8	1.49e+00	0	34	104	1469054976	86	24699
2026-01-01 09:04:20.55	332.89	4.59	-61.5	-77.6	3.8	1.49e+00	0	34	104	1469054976	88	23951
2026-01-01 09:04:24.58	332.81	4.31	-62.0	-78.0	3.8	1.49e+00	0	34	104	1469054976	89	23632
2026-01-01 09:04:28.60	332.74	4.03	-62.1	-78.1	3.8	1.49e+00	0	34	104	1469054976	89	24019
2026-01-01 09:04:32.62	332.66	3.76	-62.2	-78.2	3.8	1.49e+00	0	34	104	1469054976	89	24321
2026-01-01 09:04:36.65	332.59	3.49	-62.2	-78.2	3.8	1.49e+00	0	34	104	1469054976	89	24404
2026-01-01 09:04:40.64	332.53	3.23	-62.2	-78.2	3.8	1.49e+00	0	34	104	1469054976	89	24219
2026-01-01 09:04:44.63	332.46	2.96	-62.1	-78.1	3.8	1.49e+00	0	34	104	1469054976	89	24057
2026-01-01 09:04:48.61	332.39	2.70	-62.1	-78.1	3.8	1.49e+00	0	34	104	1469054976	89	23981
2026-01-01 09:04:52.60	332.33	2.45	-62.0	-78.0	3.8	1.49e+00	0	34	104	1469054976	89	23853
2026-01-01 09:04:56.57	332.27	2.19	-62.0	-78.0	3.8	1.49e+00	0	34	104	1469054976	89	23834

#Closed at: 2026-01-01 09:04:59
#Recorded file [1469 MB]: D:/lorett/data/31004_260101_115041.dat