passes_logs/2026/01/01/R3.2S_Murmansk/R3.2S_Murmansk__20260101_211612_KANOPUS-V-IK_rec.log

#Pass ID: 20260101_211612_KANOPUS-V-IK
#Satellite: KANOPUS-V-IK
#Configuration: KANOPUS-V_8128
#almurnet v.1.7.20251203
#Start time: 2026-01-01 21:16:13

#Version: 2.2.20231116
#Station: R3.2S_Murmansk
#Location: 33.079688 lon 68.888172 lat
#TLE: 1 42825U 17042A   26001.21266440  .00005755  00000+0  24506-3 0  9990
#TLE: 2 42825  97.3692 269.9908 0001826  86.2004 273.9442 15.23363314469954

#Time	Az	El	Level	Level2	SNR	BER	BlckErr	Temp	State	Recorded	gain1	gain2
2026-01-01 21:16:13.46	21.43	2.10	-59.1	-69.8	3.8	7.44e-01	0	32	0	0	86	12865
2026-01-01 21:16:16.38	21.59	2.29	-59.1	-69.8	3.8	7.46e-01	0	32	104	0	86	12884
2026-01-01 21:16:19.30	21.75	2.49	-59.1	-69.8	3.8	7.44e-01	0	32	104	0	86	12813
2026-01-01 21:16:22.21	21.91	2.69	-59.1	-69.8	3.8	7.46e-01	0	32	104	0	86	12839
2026-01-01 21:16:25.13	22.08	2.89	-59.1	-69.7	3.8	7.46e-01	0	32	104	0	86	12804
2026-01-01 21:16:28.05	22.25	3.10	-59.1	-69.8	3.8	7.45e-01	0	32	104	0	86	12893
2026-01-01 21:16:30.97	22.42	3.30	-59.1	-69.7	3.8	7.46e-01	0	32	104	0	86	12797
2026-01-01 21:16:33.89	22.59	3.51	-59.1	-69.8	3.8	7.47e-01	0	32	104	0	86	12834
2026-01-01 21:16:36.82	22.77	3.72	-59.1	-69.8	3.8	7.44e-01	0	32	104	0	86	12838
2026-01-01 21:16:39.74	22.95	3.93	-59.0	-69.8	3.8	7.45e-01	0	32	104	0	86	12841
2026-01-01 21:16:42.64	23.13	4.14	-59.1	-69.7	3.8	7.46e-01	0	32	104	0	86	12800
2026-01-01 21:16:45.55	23.32	4.36	-59.1	-69.8	3.8	7.45e-01	0	32	104	0	86	12844
2026-01-01 21:16:48.46	23.50	4.57	-59.1	-69.7	3.8	7.45e-01	0	32	104	0	86	12789
2026-01-01 21:16:51.38	23.70	4.79	-59.1	-69.7	3.8	7.45e-01	0	33	104	0	86	12798
2026-01-01 21:16:54.30	23.89	5.01	-59.1	-69.7	3.8	7.46e-01	0	32	104	0	86	12807
2026-01-01 21:16:57.21	24.09	5.24	-59.0	-69.7	3.8	7.45e-01	0	32	104	0	86	12747
2026-01-01 21:17:00.12	24.30	5.46	-59.0	-69.7	3.8	7.46e-01	0	33	104	0	86	12769
2026-01-01 21:17:03.04	24.50	5.69	-59.2	-69.9	3.8	7.47e-01	0	33	104	0	86	13042
2026-01-01 21:17:05.96	24.72	5.92	-59.3	-70.0	3.8	7.45e-01	0	33	104	0	86	13153
2026-01-01 21:17:08.88	24.93	6.16	-59.1	-69.8	3.8	7.47e-01	0	33	104	0	86	12869
2026-01-01 21:17:11.79	25.15	6.39	-59.2	-69.9	3.8	7.46e-01	0	33	104	0	86	13007
2026-01-01 21:17:14.72	25.37	6.63	-59.3	-70.0	3.8	7.45e-01	0	33	104	0	86	13225
2026-01-01 21:17:17.64	25.60	6.87	-59.3	-70.0	3.8	7.44e-01	0	33	104	0	86	13137
2026-01-01 21:17:20.56	25.84	7.12	-59.2	-69.9	3.8	7.46e-01	0	33	104	0	86	13019
2026-01-01 21:17:23.48	26.07	7.37	-59.3	-70.0	3.8	7.46e-01	0	33	104	0	86	13235
2026-01-01 21:17:26.40	26.32	7.62	-59.4	-70.1	3.8	7.46e-01	0	33	104	0	86	13351
2026-01-01 21:17:29.32	26.56	7.87	-59.3	-70.0	3.8	7.44e-01	0	33	104	0	86	13189
2026-01-01 21:17:32.25	26.82	8.13	-59.3	-70.0	3.8	7.45e-01	0	33	104	0	86	13241
2026-01-01 21:17:35.18	27.08	8.39	-59.5	-70.1	3.8	7.45e-01	0	33	104	0	86	13406
2026-01-01 21:17:38.08	27.34	8.65	-59.5	-70.2	3.8	7.45e-01	0	33	104	0	86	13499
2026-01-01 21:17:41.00	27.61	8.91	-59.4	-70.1	3.8	7.45e-01	0	33	104	0	86	13281
2026-01-01 21:17:43.91	27.88	9.18	-59.2	-70.1	3.8	7.44e-01	0	33	104	0	86	13313
2026-01-01 21:17:46.83	28.16	9.46	-59.3	-70.2	3.8	7.45e-01	0	33	104	0	87	12713
2026-01-01 21:17:49.75	28.45	9.73	-59.5	-70.2	3.8	7.45e-01	0	33	104	0	87	12709
2026-01-01 21:17:52.68	28.75	10.01	-59.4	-70.1	3.8	7.47e-01	0	33	104	0	87	12603
2026-01-01 21:17:55.61	29.05	10.30	-59.5	-70.2	3.8	7.45e-01	0	33	104	0	87	12754
2026-01-01 21:17:58.52	29.35	10.59	-59.6	-70.3	3.8	7.44e-01	0	33	104	0	87	12908
2026-01-01 21:18:01.42	29.67	10.88	-59.5	-70.2	3.8	7.45e-01	0	33	104	0	87	12763
2026-01-01 21:18:04.35	29.99	11.17	-59.5	-70.2	3.8	7.45e-01	0	33	104	0	87	12790
2026-01-01 21:18:07.25	30.32	11.47	-59.6	-70.3	3.8	7.47e-01	0	33	104	0	87	12911
2026-01-01 21:18:10.15	30.66	11.77	-59.7	-70.4	3.8	7.45e-01	0	33	104	0	87	13013
2026-01-01 21:18:13.05	31.00	12.08	-59.6	-70.3	3.8	7.46e-01	0	33	104	0	87	12826
2026-01-01 21:18:15.96	31.35	12.39	-59.6	-70.3	3.8	7.46e-01	0	33	104	0	87	12952
2026-01-01 21:18:18.85	31.72	12.71	-59.7	-70.4	3.8	7.44e-01	0	33	104	0	87	13055
2026-01-01 21:18:21.75	32.09	13.03	-59.7	-70.4	3.8	7.46e-01	0	33	104	0	87	13021
2026-01-01 21:18:24.65	32.47	13.35	-59.7	-70.4	3.8	7.47e-01	0	33	104	0	87	12968
2026-01-01 21:18:27.55	32.86	13.68	-59.7	-70.4	3.8	7.45e-01	0	34	104	0	87	13081
2026-01-01 21:18:30.45	33.26	14.01	-59.8	-70.5	3.8	7.45e-01	0	33	104	0	87	13143
2026-01-01 21:18:33.35	33.67	14.35	-59.7	-70.4	3.8	7.45e-01	0	33	104	0	87	13047
2026-01-01 21:18:36.25	34.09	14.70	-59.7	-70.4	3.8	7.46e-01	0	34	104	0	87	13080
2026-01-01 21:18:39.14	34.53	15.05	-59.8	-70.5	3.8	7.45e-01	0	33	104	0	87	13181
2026-01-01 21:18:42.04	34.97	15.40	-59.8	-70.5	3.8	7.44e-01	0	33	104	0	87	13173
2026-01-01 21:18:44.94	35.43	15.76	-59.8	-70.5	3.8	7.45e-01	0	33	104	0	87	13123
2026-01-01 21:18:47.84	35.90	16.13	-59.8	-70.5	3.8	7.45e-01	0	34	104	0	87	13135
2026-01-01 21:18:50.74	36.39	16.50	-59.9	-70.6	3.8	7.46e-01	0	33	104	0	87	13303
2026-01-01 21:18:53.64	36.88	16.88	-59.9	-70.6	3.8	7.46e-01	0	34	104	0	87	13296
2026-01-01 21:18:56.54	37.40	17.26	-59.8	-70.5	3.8	7.45e-01	0	33	104	0	87	13247
2026-01-01 21:18:59.44	37.93	17.65	-59.9	-70.6	3.8	7.45e-01	0	33	104	0	87	13308
2026-01-01 21:19:02.34	38.47	18.04	-60.0	-70.6	3.8	7.46e-01	0	33	104	0	87	13351
2026-01-01 21:19:05.24	39.03	18.45	-59.9	-70.6	3.8	7.45e-01	0	34	104	0	87	13301
2026-01-01 21:19:08.14	39.61	18.85	-59.9	-70.6	3.8	7.46e-01	0	33	104	0	87	13358
2026-01-01 21:19:11.04	40.21	19.27	-60.0	-70.7	3.8	7.45e-01	0	33	104	0	87	13470
2026-01-01 21:19:13.94	40.82	19.69	-60.0	-70.7	3.8	7.47e-01	0	33	104	0	88	12748
2026-01-01 21:19:16.84	41.46	20.11	-60.0	-70.7	3.8	7.46e-01	0	34	104	0	88	12680
2026-01-01 21:19:19.74	42.11	20.54	-60.0	-70.7	3.8	7.44e-01	0	33	104	0	88	12770
2026-01-01 21:19:22.65	42.79	20.98	-60.1	-70.8	3.8	7.45e-01	0	33	104	0	88	12846
2026-01-01 21:19:25.55	43.48	21.43	-60.1	-70.8	3.8	7.45e-01	0	34	104	0	88	12871
2026-01-01 21:19:28.46	44.21	21.88	-60.0	-70.8	3.8	7.46e-01	0	34	104	0	88	12838
2026-01-01 21:19:31.35	44.95	22.33	-60.1	-70.8	3.8	7.46e-01	0	34	104	0	88	12859
2026-01-01 21:19:34.25	45.72	22.79	-60.1	-70.8	3.8	7.46e-01	0	33	104	0	88	12946
2026-01-01 21:19:37.15	46.51	23.26	-60.1	-70.8	3.8	7.45e-01	0	34	104	0	88	12821
2026-01-01 21:19:40.05	47.33	23.73	-60.1	-70.8	3.8	7.45e-01	0	34	104	0	88	12917
2026-01-01 21:19:42.95	48.18	24.21	-60.2	-70.9	3.8	7.46e-01	0	34	104	0	88	13031
2026-01-01 21:19:45.86	49.06	24.69	-60.2	-70.9	3.8	7.46e-01	0	34	104	0	88	13075
2026-01-01 21:19:48.76	49.97	25.18	-60.2	-70.9	3.8	7.46e-01	0	34	104	0	88	12987
2026-01-01 21:19:51.66	50.91	25.67	-60.2	-70.9	3.8	7.45e-01	0	34	104	0	88	13053
2026-01-01 21:19:54.56	51.88	26.16	-60.3	-71.0	3.8	7.45e-01	0	34	104	0	88	13167
2026-01-01 21:19:57.46	52.89	26.66	-60.3	-71.0	3.8	7.45e-01	0	33	104	0	88	13158
2026-01-01 21:20:00.36	53.93	27.16	-60.2	-70.9	3.8	7.45e-01	0	34	104	0	88	13108
2026-01-01 21:20:03.26	55.01	27.66	-60.3	-71.0	3.8	7.46e-01	0	34	104	0	88	13189
2026-01-01 21:20:06.16	56.12	28.16	-60.3	-71.0	3.8	7.45e-01	0	34	104	0	88	13228
2026-01-01 21:20:09.07	57.28	28.66	-60.3	-71.0	3.8	7.45e-01	0	34	104	0	88	13110
2026-01-01 21:20:11.97	58.47	29.16	-60.3	-71.1	3.8	7.45e-01	0	34	104	0	88	13283
2026-01-01 21:20:14.86	59.70	29.66	-60.4	-71.1	3.8	7.45e-01	0	34	104	0	88	13356
2026-01-01 21:20:17.77	60.98	30.16	-60.4	-71.1	3.8	7.45e-01	0	34	104	0	88	13323
2026-01-01 21:20:20.64	62.28	30.64	-60.4	-71.0	3.8	7.46e-01	0	34	104	0	88	13209
2026-01-01 21:20:23.54	63.64	31.13	-60.4	-71.1	3.8	7.46e-01	0	34	104	0	88	13334
2026-01-01 21:20:26.43	65.04	31.60	-60.5	-71.1	3.8	7.47e-01	0	34	104	0	88	13361
2026-01-01 21:20:29.33	66.49	32.07	-60.4	-71.1	3.8	7.45e-01	0	34	104	0	88	13369
2026-01-01 21:20:32.25	67.99	32.53	-60.4	-71.1	3.8	7.45e-01	0	34	104	0	88	13307
2026-01-01 21:20:35.16	69.53	32.97	-60.5	-71.1	3.8	7.45e-01	0	33	104	0	88	13371
2026-01-01 21:20:38.08	71.12	33.40	-60.5	-71.2	3.9	7.45e-01	0	34	104	0	88	13460
2026-01-01 21:20:40.99	72.76	33.82	-60.4	-71.1	3.8	7.46e-01	0	34	104	0	88	13327
2026-01-01 21:20:43.91	74.44	34.21	-60.5	-71.1	3.8	7.45e-01	0	34	104	0	88	13337
2026-01-01 21:20:46.83	76.16	34.59	-60.5	-71.2	3.8	7.46e-01	0	33	104	0	88	13496
2026-01-01 21:20:49.76	77.94	34.94	-60.5	-71.2	3.8	7.46e-01	0	34	104	0	89	12746
2026-01-01 21:20:52.68	79.74	35.27	-60.5	-71.1	3.8	7.45e-01	0	34	104	0	89	12628
2026-01-01 21:20:55.60	81.58	35.57	-60.5	-71.1	3.8	7.47e-01	0	34	104	0	89	12625
2026-01-01 21:20:58.51	83.46	35.84	-60.5	-71.2	3.8	7.45e-01	0	34	104	0	89	12729
2026-01-01 21:21:01.42	85.36	36.09	-60.5	-71.2	3.8	7.44e-01	0	34	104	0	89	12711
2026-01-01 21:21:04.35	87.30	36.30	-60.5	-71.1	3.8	7.46e-01	0	34	104	0	89	12606
2026-01-01 21:21:07.26	89.26	36.47	-60.5	-71.2	3.8	7.46e-01	0	33	104	0	89	12753
2026-01-01 21:21:10.18	91.24	36.61	-60.6	-71.3	3.8	7.47e-01	0	34	104	0	89	12822
2026-01-01 21:21:13.11	93.25	36.72	-60.5	-71.2	3.8	7.45e-01	0	34	104	0	89	12768
2026-01-01 21:21:16.02	95.25	36.79	-60.5	-71.2	3.8	7.46e-01	0	34	104	0	89	12756
2026-01-01 21:21:18.93	97.26	36.82	-60.6	-71.3	3.8	7.44e-01	0	34	104	0	89	12820
2026-01-01 21:21:21.85	99.28	36.81	-60.6	-71.2	3.8	7.45e-01	0	34	104	0	89	12784
2026-01-01 21:21:24.77	101.29	36.77	-60.5	-71.2	3.8	7.45e-01	0	34	104	0	89	12757
2026-01-01 21:21:27.69	103.30	36.69	-60.6	-71.2	3.8	7.45e-01	0	34	104	0	89	12793
2026-01-01 21:21:30.61	105.29	36.57	-60.6	-71.2	3.8	7.44e-01	0	34	104	0	89	12790
2026-01-01 21:21:33.53	107.27	36.42	-60.6	-71.2	3.8	7.46e-01	0	34	104	0	89	12743
2026-01-01 21:21:36.45	109.23	36.23	-60.5	-71.2	3.8	7.46e-01	0	34	104	0	89	12730
2026-01-01 21:21:39.38	111.16	36.01	-60.5	-71.2	3.8	7.45e-01	0	34	104	0	89	12771
2026-01-01 21:21:42.30	113.07	35.75	-60.6	-71.2	3.8	7.44e-01	0	34	104	0	89	12801
2026-01-01 21:21:45.22	114.94	35.47	-60.5	-71.2	3.8	7.46e-01	0	34	104	0	89	12693
2026-01-01 21:21:48.15	116.78	35.16	-60.5	-71.1	3.8	7.45e-01	0	34	104	0	89	12655
2026-01-01 21:21:51.06	118.56	34.82	-60.5	-71.2	3.8	7.44e-01	0	34	104	0	89	12672
2026-01-01 21:21:53.97	120.31	34.46	-60.5	-71.2	3.8	7.45e-01	0	34	104	0	89	12713
2026-01-01 21:21:56.89	122.03	34.08	-60.5	-71.2	3.8	7.45e-01	0	34	104	0	89	12697
2026-01-01 21:21:59.80	123.69	33.67	-60.5	-71.1	3.8	7.45e-01	0	34	104	0	89	12593
2026-01-01 21:22:02.71	125.32	33.25	-60.5	-71.2	3.8	7.44e-01	0	34	104	0	89	12668
2026-01-01 21:22:05.63	126.90	32.81	-60.4	-71.1	3.8	7.46e-01	0	34	104	0	89	12596
2026-01-01 21:22:08.56	128.44	32.36	-60.4	-71.1	3.8	7.45e-01	0	34	104	0	89	12571
2026-01-01 21:22:11.49	129.94	31.89	-60.4	-71.1	3.8	7.45e-01	0	34	104	0	89	12526
2026-01-01 21:22:14.41	131.38	31.42	-60.4	-71.0	3.8	7.45e-01	0	34	104	0	89	12501
2026-01-01 21:22:17.32	132.78	30.93	-60.3	-71.0	3.8	7.44e-01	0	34	104	0	89	12420
2026-01-01 21:22:20.24	134.14	30.44	-60.3	-71.0	3.8	7.45e-01	0	34	104	0	89	12423
2026-01-01 21:22:23.15	135.44	29.94	-60.3	-71.0	3.8	7.47e-01	0	34	104	0	89	12431
2026-01-01 21:22:26.05	136.71	29.45	-60.3	-70.9	3.8	7.45e-01	0	34	104	0	89	12370
2026-01-01 21:22:28.95	137.93	28.94	-60.3	-70.9	3.8	7.46e-01	0	34	104	0	89	12340
2026-01-01 21:22:31.84	139.10	28.44	-60.2	-70.9	3.8	7.45e-01	0	34	104	0	89	12336
2026-01-01 21:22:34.74	140.24	27.94	-60.2	-70.9	3.8	7.46e-01	0	34	104	0	89	12280
2026-01-01 21:22:37.63	141.34	27.44	-60.2	-70.9	3.8	7.46e-01	0	34	104	0	89	12269
2026-01-01 21:22:40.53	142.41	26.93	-60.2	-70.8	3.8	7.44e-01	0	34	104	0	89	12219
2026-01-01 21:22:43.43	143.44	26.43	-60.1	-70.8	3.8	7.46e-01	0	34	104	0	89	12194
2026-01-01 21:22:46.34	144.44	25.93	-60.1	-70.8	3.8	7.45e-01	0	34	104	0	89	12137
2026-01-01 21:22:49.24	145.40	25.44	-60.1	-70.7	3.8	7.45e-01	0	34	104	0	89	12065
2026-01-01 21:22:52.14	146.33	24.95	-60.1	-70.8	3.8	7.46e-01	0	34	104	0	89	12108
2026-01-01 21:22:55.04	147.23	24.46	-60.1	-70.7	3.8	7.45e-01	0	34	104	0	89	12084
2026-01-01 21:22:57.94	148.10	23.98	-60.0	-70.7	3.8	7.46e-01	0	34	104	0	89	12047
2026-01-01 21:23:00.84	148.94	23.50	-60.0	-70.7	3.8	7.44e-01	0	34	104	0	89	12027
2026-01-01 21:23:03.74	149.75	23.02	-60.0	-70.7	3.8	7.46e-01	0	34	104	0	89	12031
2026-01-01 21:23:06.64	150.54	22.56	-60.0	-70.7	3.8	7.47e-01	0	34	104	0	89	11975
2026-01-01 21:23:09.55	151.30	22.09	-60.0	-70.7	3.8	7.46e-01	0	34	104	0	89	11981
2026-01-01 21:23:12.44	152.04	21.64	-59.9	-70.6	3.8	7.45e-01	0	34	104	0	89	11905
2026-01-01 21:23:15.34	152.75	21.19	-59.9	-70.6	3.8	7.46e-01	0	34	104	0	89	11849
2026-01-01 21:23:18.25	153.44	20.74	-59.9	-70.6	3.8	7.44e-01	0	34	104	0	89	11863
2026-01-01 21:23:21.14	154.11	20.31	-59.9	-70.5	3.8	7.45e-01	0	33	104	0	89	11809
2026-01-01 21:23:24.04	154.76	19.88	-59.9	-70.6	3.8	7.45e-01	0	34	104	0	89	11842
2026-01-01 21:23:26.93	155.38	19.45	-59.9	-70.5	3.8	7.45e-01	0	34	104	0	89	11786
2026-01-01 21:23:29.83	155.99	19.03	-59.9	-70.5	3.8	7.47e-01	0	34	104	0	89	11817
2026-01-01 21:23:32.74	156.58	18.62	-59.8	-70.5	3.8	7.44e-01	0	34	104	0	89	11780
2026-01-01 21:23:35.64	157.16	18.21	-59.8	-70.5	3.8	7.44e-01	0	34	104	0	89	11735
2026-01-01 21:23:38.55	157.71	17.81	-59.8	-70.4	3.8	7.45e-01	0	34	104	0	88	12373
2026-01-01 21:23:41.45	158.25	17.42	-59.8	-70.5	3.8	7.44e-01	0	34	104	0	88	12410
2026-01-01 21:23:44.34	158.77	17.03	-59.8	-70.5	3.8	7.46e-01	0	34	104	0	88	12390
2026-01-01 21:23:47.25	159.29	16.64	-59.8	-70.4	3.8	7.46e-01	0	34	104	0	88	12371
2026-01-01 21:23:50.15	159.78	16.27	-59.8	-70.4	3.8	7.46e-01	0	34	104	0	88	12331
2026-01-01 21:23:53.05	160.26	15.90	-59.7	-70.4	3.8	7.46e-01	0	34	104	0	88	12294
2026-01-01 21:23:55.95	160.73	15.53	-59.7	-70.4	3.8	7.46e-01	0	34	104	0	88	12289
2026-01-01 21:23:58.85	161.18	15.17	-59.7	-70.3	3.8	7.45e-01	0	34	104	0	88	12223
2026-01-01 21:24:01.75	161.62	14.82	-59.7	-70.4	3.8	7.47e-01	0	34	104	0	88	12238
2026-01-01 21:24:04.66	162.05	14.46	-59.6	-70.3	3.8	7.45e-01	0	34	104	0	88	12175
2026-01-01 21:24:07.56	162.47	14.12	-59.6	-70.3	3.8	7.45e-01	0	34	104	0	88	12167
2026-01-01 21:24:10.45	162.88	13.78	-59.6	-70.3	3.8	7.45e-01	0	34	104	0	88	12141
2026-01-01 21:24:13.35	163.27	13.45	-59.6	-70.3	3.8	7.46e-01	0	34	104	0	88	12097
2026-01-01 21:24:16.24	163.66	13.12	-59.6	-70.3	3.8	7.47e-01	0	34	104	0	88	12110
2026-01-01 21:24:19.14	164.04	12.80	-59.5	-70.2	3.8	7.45e-01	0	34	104	0	88	12069
2026-01-01 21:24:22.04	164.40	12.48	-59.5	-70.2	3.8	7.46e-01	0	34	104	0	88	12069
2026-01-01 21:24:24.94	164.76	12.16	-59.5	-70.2	3.8	7.45e-01	0	34	104	0	88	11973
2026-01-01 21:24:27.84	165.11	11.85	-59.5	-70.2	3.8	7.45e-01	0	34	104	0	88	11985
2026-01-01 21:24:30.74	165.45	11.55	-59.4	-70.1	3.8	7.45e-01	0	34	104	0	88	11906
2026-01-01 21:24:33.65	165.79	11.24	-59.4	-70.1	3.8	7.45e-01	0	34	104	0	88	11955
2026-01-01 21:24:36.57	166.11	10.94	-59.4	-70.1	3.8	7.46e-01	0	34	104	0	88	11852
2026-01-01 21:24:39.48	166.43	10.65	-59.4	-70.1	3.8	7.46e-01	0	34	104	0	88	11869
2026-01-01 21:24:42.40	166.74	10.36	-59.4	-70.1	3.8	7.44e-01	0	34	104	0	88	11820
2026-01-01 21:24:45.36	167.05	10.07	-59.3	-70.0	3.8	7.45e-01	0	34	104	0	88	11777
2026-01-01 21:24:48.34	167.36	9.78	-59.3	-70.0	3.8	7.46e-01	0	34	104	0	88	11732
2026-01-01 21:24:51.31	167.65	9.49	-59.3	-70.0	3.8	7.45e-01	0	34	104	0	87	12403
2026-01-01 21:24:54.29	167.94	9.21	-59.3	-69.9	3.8	7.45e-01	0	34	104	0	87	12367
2026-01-01 21:24:57.25	168.22	8.93	-59.2	-69.9	3.8	7.45e-01	0	34	104	0	87	12287
2026-01-01 21:25:00.22	168.50	8.66	-59.2	-69.9	3.8	7.47e-01	0	34	104	0	87	12240
2026-01-01 21:25:03.19	168.77	8.39	-59.1	-69.8	3.8	7.47e-01	0	34	104	0	87	12132
2026-01-01 21:25:06.15	169.03	8.12	-59.2	-69.8	3.8	7.46e-01	0	34	104	0	87	12216
2026-01-01 21:25:09.14	169.29	7.86	-59.1	-69.8	3.8	7.45e-01	0	34	104	0	87	12098
2026-01-01 21:25:12.09	169.54	7.60	-59.1	-69.7	3.8	7.46e-01	0	34	104	0	87	12082
2026-01-01 21:25:15.06	169.79	7.34	-59.0	-69.7	3.8	7.47e-01	0	34	104	0	87	11979
2026-01-01 21:25:18.02	170.03	7.09	-59.1	-69.7	3.8	7.44e-01	0	34	104	0	87	12089
2026-01-01 21:25:20.98	170.27	6.84	-58.9	-69.6	3.8	7.45e-01	0	34	104	0	87	11855
2026-01-01 21:25:23.94	170.50	6.59	-59.0	-69.7	3.8	7.44e-01	0	33	104	0	87	11972
2026-01-01 21:25:26.91	170.73	6.35	-58.9	-69.5	3.8	7.46e-01	0	34	104	0	87	11814
2026-01-01 21:25:29.86	170.95	6.11	-59.0	-69.6	3.8	7.47e-01	0	34	104	0	85	13395
2026-01-01 21:25:32.84	171.17	5.87	-58.8	-69.5	3.8	7.45e-01	0	34	104	0	85	13124
2026-01-01 21:25:35.79	171.39	5.63	-58.8	-69.5	3.8	7.44e-01	0	34	104	0	85	13212
2026-01-01 21:25:38.76	171.60	5.40	-58.7	-69.4	3.8	7.45e-01	0	34	104	0	85	13050
2026-01-01 21:25:41.73	171.81	5.17	-58.8	-69.5	3.8	7.46e-01	0	34	104	0	85	13113
2026-01-01 21:25:44.71	172.01	4.94	-59.4	-70.0	3.8	7.45e-01	0	34	104	0	86	13253
2026-01-01 21:25:47.67	172.21	4.71	-60.2	-70.8	3.8	7.45e-01	0	34	104	0	88	12941
2026-01-01 21:25:50.62	172.40	4.49	-60.7	-71.3	3.8	7.46e-01	0	34	104	0	89	12938
2026-01-01 21:25:53.59	172.59	4.26	-61.0	-71.7	3.8	7.46e-01	0	34	104	0	89	13435
2026-01-01 21:25:56.55	172.78	4.04	-61.2	-71.9	3.8	7.46e-01	0	34	104	0	90	12998
2026-01-01 21:25:59.52	172.97	3.83	-61.3	-72.0	3.8	7.46e-01	0	34	104	0	90	13157
2026-01-01 21:26:02.47	173.15	3.61	-61.4	-72.1	3.8	7.46e-01	0	34	104	0	90	13268
2026-01-01 21:26:05.45	173.33	3.40	-61.4	-72.1	3.8	7.46e-01	0	34	104	0	90	13298
2026-01-01 21:26:08.42	173.50	3.19	-61.3	-72.0	3.8	7.46e-01	0	34	104	0	90	13191
2026-01-01 21:26:11.38	173.68	2.98	-61.3	-72.0	3.8	7.45e-01	0	34	104	0	90	13132
2026-01-01 21:26:14.34	173.85	2.77	-61.3	-71.9	3.8	7.44e-01	0	34	104	0	90	13090
2026-01-01 21:26:17.34	174.01	2.56	-61.2	-71.9	3.8	7.45e-01	0	34	104	0	90	13042
2026-01-01 21:26:20.34	174.18	2.35	-61.2	-71.9	3.8	7.47e-01	0	34	104	0	90	13044
2026-01-01 21:26:23.33	174.34	2.15	-61.2	-71.8	3.8	7.45e-01	0	34	104	0	90	12951
2026-01-01 21:26:26.33	174.50	1.95	-61.2	-71.8	3.8	7.47e-01	0	34	104	0	90	12957

#Closed at: 2026-01-01 21:26:27
#Recorded file [0 MB]: D:/lorett/data/31004_260102_001613.dat