passes_logs/2026/01/01/R3.2S_Murmansk/R3.2S_Murmansk__20260101_225459_NOAA_20_JPSS-1_rec.log

#Pass ID: 20260101_225459_NOAA 20 (JPSS-1)
#Satellite: NOAA 20 (JPSS-1)
#Configuration: NOAA 20
#almurnet v.1.7.20251203
#Start time: 2026-01-01 23:00:31

#Version: 2.2.20231116
#Station: R3.2S_Murmansk
#Location: 33.079688 lon 68.888172 lat
#TLE: 1 43013U 17073A   26001.09198674  .00000169  00000+0  10130-3 0  9995
#TLE: 2 43013  98.7621 302.1793 0001944  59.5293 300.6075 14.19531878420769

#Time	Az	El	Level	Level2	SNR	BER	BlckErr	Temp	State	Recorded	gain1	gain2
2026-01-01 23:00:31.13	63.56	28.95	-61.1	-71.8	3.8	7.44e-01	0	33	0	0	90	12841
2026-01-01 23:00:33.12	64.14	29.12	-62.1	-78.2	3.8	1.49e+00	0	33	104	0	89	24199
2026-01-01 23:00:35.13	64.74	29.29	-62.0	-78.1	3.8	1.49e+00	0	33	104	0	89	23893
2026-01-01 23:00:37.14	65.35	29.45	-61.9	-77.9	3.8	1.49e+00	0	33	104	0	89	23481
2026-01-01 23:00:39.15	65.96	29.61	-61.8	-77.8	3.8	1.49e+00	0	33	104	0	89	23191
2026-01-01 23:00:41.15	66.58	29.77	-61.7	-77.7	3.8	1.49e+00	0	33	104	0	89	22992
2026-01-01 23:00:43.14	67.19	29.92	-61.6	-77.6	3.8	1.49e+00	0	33	104	0	89	22724
2026-01-01 23:00:45.13	67.82	30.07	-61.5	-77.5	3.8	1.49e+00	0	33	104	0	89	22380
2026-01-01 23:00:47.13	68.45	30.22	-61.4	-77.4	3.8	1.49e+00	0	33	104	0	89	22240
2026-01-01 23:00:49.13	69.09	30.37	-61.4	-77.4	3.8	1.49e+00	0	33	104	0	89	22217
2026-01-01 23:00:51.12	69.73	30.51	-61.4	-77.4	3.8	1.49e+00	0	33	104	0	89	22139
2026-01-01 23:00:53.11	70.38	30.65	-61.4	-77.4	3.8	1.49e+00	0	33	104	0	89	22157
2026-01-01 23:00:55.11	71.03	30.79	-61.3	-77.4	3.8	1.49e+00	0	33	104	0	89	22078
2026-01-01 23:00:57.11	71.69	30.92	-61.3	-77.4	3.8	1.49e+00	0	33	104	0	89	22061
2026-01-01 23:00:59.10	72.35	31.05	-61.3	-77.4	3.8	1.49e+00	0	33	104	0	89	22024
2026-01-01 23:01:01.11	73.03	31.18	-61.3	-77.3	3.8	1.49e+00	0	33	104	0	89	21862
2026-01-01 23:01:03.12	73.71	31.30	-61.3	-77.3	3.8	1.49e+00	0	33	104	0	89	21882
2026-01-01 23:01:05.11	74.39	31.42	-61.3	-77.3	3.8	1.49e+00	0	33	104	0	89	21845
2026-01-01 23:01:07.11	75.07	31.53	-61.3	-77.3	3.8	1.49e+00	0	33	104	0	89	21844
2026-01-01 23:01:09.10	75.76	31.64	-61.2	-77.1	3.8	1.49e+00	0	33	104	0	89	21404
2026-01-01 23:01:11.10	76.45	31.75	-61.2	-76.9	3.8	1.49e+00	0	33	104	0	89	20977
2026-01-01 23:01:13.10	77.15	31.85	-61.2	-77.1	3.8	1.49e+00	0	33	104	0	89	21287
2026-01-01 23:01:15.09	77.85	31.95	-61.2	-76.0	3.8	1.49e+00	0	33	104	0	89	18750
2026-01-01 23:01:17.09	78.56	32.04	-61.1	-74.6	4.0	1.47e+00	0	33	104	0	88	16985
2026-01-01 23:01:19.09	79.27	32.13	-60.6	-69.1	6.6	3.34e-01	0	33	0	2097152	87	9536
2026-01-01 23:01:21.08	79.99	32.21	-59.6	-65.1	10.2	3.73e-02	0	33	0	5242880	85	6747
2026-01-01 23:01:23.07	80.70	32.29	-56.0	-58.3	15.0	0.00e+00	0	33	0	9437184	78	4645
2026-01-01 23:01:25.05	81.42	32.37	-57.7	-61.1	13.4	0.00e+00	0	33	0	13631488	80	5666
2026-01-01 23:01:27.04	82.14	32.44	-56.1	-58.4	15.0	0.00e+00	0	33	0	16777216	78	4691
2026-01-01 23:01:29.04	82.87	32.50	-58.6	-62.8	12.0	3.00e-06	0	33	0	20971520	82	6194
2026-01-01 23:01:31.04	83.60	32.56	-55.9	-58.2	15.1	2.17e-04	0	33	0	24117248	78	4565
2026-01-01 23:01:33.04	84.33	32.62	-56.3	-58.8	14.8	0.00e+00	0	33	0	28311552	78	4926
2026-01-01 23:01:35.04	85.07	32.67	-56.6	-59.2	14.6	0.00e+00	0	33	0	31457280	78	5156
2026-01-01 23:01:37.03	85.81	32.72	-56.5	-59.1	14.6	0.00e+00	0	33	0	35651584	78	5071
2026-01-01 23:01:39.03	86.55	32.76	-56.3	-58.7	14.8	0.00e+00	0	33	0	38797312	78	4870
2026-01-01 23:01:41.03	87.29	32.79	-55.8	-58.1	15.1	0.00e+00	0	33	0	42991616	78	4521
2026-01-01 23:01:43.03	88.03	32.82	-56.1	-58.5	15.0	0.00e+00	0	33	0	47185920	78	4708
2026-01-01 23:01:45.03	88.78	32.85	-56.0	-58.4	15.0	0.00e+00	0	33	0	50331648	78	4674
2026-01-01 23:01:47.03	89.53	32.86	-55.7	-58.0	15.2	0.00e+00	0	33	0	54525952	77	4709
2026-01-01 23:01:49.03	90.27	32.88	-55.5	-57.6	15.4	0.00e+00	0	33	0	57671680	77	4531
2026-01-01 23:01:51.03	91.02	32.89	-55.5	-57.7	15.4	0.00e+00	0	33	0	61865984	77	4580
2026-01-01 23:01:53.03	91.77	32.89	-56.2	-58.7	14.8	0.00e+00	0	33	0	66060288	77	5106
2026-01-01 23:01:55.02	92.51	32.89	-56.4	-59.0	14.7	0.00e+00	0	33	0	69206016	78	4993
2026-01-01 23:01:57.03	93.26	32.88	-55.8	-58.1	15.2	0.00e+00	0	33	0	73400320	78	4517
2026-01-01 23:01:59.02	94.01	32.87	-55.3	-57.4	15.5	0.00e+00	0	33	0	76546048	77	4428
2026-01-01 23:02:01.00	94.75	32.85	-54.9	-56.8	15.8	0.00e+00	0	33	0	80740352	76	4389
2026-01-01 23:02:03.00	95.49	32.83	-55.4	-57.5	15.4	0.00e+00	0	33	0	83886080	76	4745
2026-01-01 23:02:04.99	96.23	32.80	-56.2	-58.6	14.8	0.00e+00	0	33	0	88080384	77	5091
2026-01-01 23:02:06.99	96.98	32.77	-56.5	-59.2	14.5	0.00e+00	0	33	0	92274688	78	5105
2026-01-01 23:02:08.99	97.72	32.73	-56.7	-59.4	14.4	0.00e+00	0	33	0	95420416	78	5276
2026-01-01 23:02:10.99	98.46	32.69	-56.5	-59.2	14.5	0.00e+00	0	33	0	99614720	78	5108
2026-01-01 23:02:12.98	99.19	32.64	-56.4	-59.0	14.6	0.00e+00	0	33	0	102760448	78	4991
2026-01-01 23:02:14.98	99.93	32.58	-56.2	-58.7	14.7	0.00e+00	0	33	0	106954752	78	4857
2026-01-01 23:02:16.98	100.66	32.53	-56.2	-58.7	14.8	0.00e+00	0	33	0	110100480	78	4846
2026-01-01 23:02:18.97	101.39	32.46	-56.4	-58.9	14.6	0.00e+00	0	33	0	114294784	78	4956
2026-01-01 23:02:20.96	102.11	32.39	-56.7	-59.4	14.4	0.00e+00	0	33	0	117440512	78	5244
2026-01-01 23:02:22.96	102.84	32.32	-57.0	-59.9	14.1	0.00e+00	0	33	0	121634816	79	5237
2026-01-01 23:02:24.96	103.56	32.24	-57.2	-60.2	13.9	0.00e+00	0	33	0	125829120	79	5432
2026-01-01 23:02:26.94	104.27	32.16	-57.2	-60.3	13.8	0.00e+00	0	33	0	128974848	79	5527
2026-01-01 23:02:28.94	104.99	32.07	-56.6	-59.3	14.4	0.00e+00	0	33	0	133169152	79	4891
2026-01-01 23:02:30.94	105.70	31.98	-56.0	-58.4	15.0	0.00e+00	0	33	0	136314880	78	4680
2026-01-01 23:02:32.92	106.40	31.89	-55.4	-57.6	15.4	0.00e+00	0	33	0	140509184	77	4508
2026-01-01 23:02:34.93	107.10	31.78	-55.5	-57.7	15.3	0.00e+00	0	33	0	143654912	77	4577
2026-01-01 23:02:36.93	107.80	31.68	-55.7	-57.9	15.2	0.00e+00	0	33	0	147849216	77	4698
2026-01-01 23:02:38.92	108.49	31.57	-55.9	-58.3	15.0	0.00e+00	0	33	0	152043520	77	4884
2026-01-01 23:02:40.92	109.18	31.46	-56.1	-58.6	14.8	0.00e+00	0	33	0	155189248	77	5099
2026-01-01 23:02:42.91	109.86	31.34	-56.2	-58.7	14.7	0.00e+00	0	33	0	159383552	77	5142
2026-01-01 23:02:44.91	110.54	31.22	-56.0	-58.5	14.8	0.00e+00	0	33	0	162529280	77	5016
2026-01-01 23:02:46.91	111.21	31.09	-55.7	-58.0	15.1	0.00e+00	0	33	0	166723584	77	4726
2026-01-01 23:02:48.90	111.88	30.97	-55.4	-57.6	15.3	0.00e+00	0	33	0	169869312	77	4497
2026-01-01 23:02:50.90	112.54	30.83	-55.7	-58.0	15.2	0.00e+00	0	33	0	174063616	77	4720
2026-01-01 23:02:52.90	113.20	30.70	-56.1	-58.6	14.7	0.00e+00	0	33	0	178257920	77	5091
2026-01-01 23:02:54.91	113.85	30.56	-56.3	-58.8	14.6	0.00e+00	0	33	0	181403648	77	5189
2026-01-01 23:02:56.91	114.50	30.42	-55.9	-58.2	14.9	0.00e+00	0	33	0	185597952	77	4855
2026-01-01 23:02:58.91	115.14	30.27	-55.5	-57.7	15.2	0.00e+00	0	33	0	188743680	77	4567
2026-01-01 23:03:00.90	115.78	30.12	-55.4	-57.5	15.3	0.00e+00	0	33	0	192937984	77	4485
2026-01-01 23:03:02.90	116.41	29.97	-55.5	-57.7	15.2	0.00e+00	0	33	0	197132288	77	4589
2026-01-01 23:03:04.89	117.03	29.82	-55.7	-57.9	15.1	0.00e+00	0	33	0	200278016	77	4696
2026-01-01 23:03:06.89	117.65	29.66	-56.0	-58.5	14.8	0.00e+00	0	33	0	204472320	77	5017
2026-01-01 23:03:08.89	118.26	29.50	-56.6	-59.3	14.4	0.00e+00	0	33	0	207618048	78	5215
2026-01-01 23:03:10.89	118.87	29.34	-56.3	-58.9	14.6	0.00e+00	0	33	0	211812352	78	4954
2026-01-01 23:03:12.88	119.46	29.17	-56.4	-59.0	14.5	0.00e+00	0	33	0	214958080	78	5000
2026-01-01 23:03:14.89	120.06	29.01	-56.1	-58.6	14.8	0.00e+00	0	33	0	219152384	78	4792
2026-01-01 23:03:16.89	120.65	28.84	-55.2	-57.4	15.4	0.00e+00	0	33	0	223346688	77	4399
2026-01-01 23:03:18.88	121.23	28.67	-55.0	-57.1	15.5	0.00e+00	0	33	0	226492416	76	4507
2026-01-01 23:03:20.88	121.81	28.49	-55.4	-57.7	15.3	0.00e+00	0	33	0	230686720	76	4830
2026-01-01 23:03:22.86	122.37	28.32	-55.5	-57.8	15.1	0.00e+00	0	33	0	233832448	76	4904
2026-01-01 23:03:24.86	122.93	28.14	-55.6	-58.0	15.1	0.00e+00	0	33	0	238026752	76	4998
2026-01-01 23:03:26.85	123.49	27.96	-56.0	-58.6	14.7	0.00e+00	0	33	0	241172480	77	5056
2026-01-01 23:03:28.84	124.04	27.78	-55.8	-58.3	14.9	0.00e+00	0	33	0	245366784	77	4876
2026-01-01 23:03:30.83	124.58	27.60	-55.0	-57.1	15.5	0.00e+00	0	33	0	248512512	76	4494
2026-01-01 23:03:32.83	125.12	27.42	-54.3	-56.3	15.9	0.00e+00	0	33	0	252706816	75	4343
2026-01-01 23:03:34.82	125.65	27.23	-55.1	-57.2	15.4	0.00e+00	0	33	0	256901120	75	4859
2026-01-01 23:03:36.81	126.18	27.05	-54.6	-56.5	15.8	0.00e+00	0	33	0	260046848	75	4484
2026-01-01 23:03:38.81	126.70	26.86	-53.8	-55.6	16.1	0.00e+00	0	33	0	264241152	74	4264
2026-01-01 23:03:40.81	127.22	26.67	-54.5	-56.5	15.7	0.00e+00	0	33	0	267386880	74	4734
2026-01-01 23:03:42.80	127.72	26.48	-56.0	-58.5	14.8	0.00e+00	0	33	0	271581184	77	4998
2026-01-01 23:03:44.80	128.23	26.29	-55.8	-58.2	14.9	0.00e+00	0	33	0	274726912	77	4830
2026-01-01 23:03:46.80	128.73	26.10	-55.3	-57.5	15.3	0.00e+00	0	33	0	278921216	77	4478
2026-01-01 23:03:48.79	129.22	25.91	-55.3	-57.5	15.3	0.00e+00	0	33	0	283115520	76	4712
2026-01-01 23:03:50.79	129.70	25.71	-55.2	-57.4	15.4	0.00e+00	0	33	0	286261248	76	4681
2026-01-01 23:03:52.79	130.18	25.52	-54.5	-56.5	15.7	0.00e+00	0	33	0	290455552	75	4462
2026-01-01 23:03:54.79	130.66	25.32	-54.3	-56.3	15.8	0.00e+00	0	33	0	293601280	75	4343
2026-01-01 23:03:56.80	131.13	25.13	-55.3	-57.5	15.2	0.00e+00	0	33	0	297795584	75	5032
2026-01-01 23:03:58.79	131.59	24.93	-55.1	-57.3	15.4	0.00e+00	0	33	0	300941312	76	4641
2026-01-01 23:04:00.79	132.05	24.73	-54.1	-55.9	15.9	0.00e+00	0	33	0	305135616	74	4431
2026-01-01 23:04:02.78	132.50	24.54	-53.7	-55.5	16.1	0.00e+00	0	33	0	309329920	74	4205
2026-01-01 23:04:04.79	132.95	24.34	-54.3	-56.3	15.8	0.00e+00	0	33	0	312475648	74	4624
2026-01-01 23:04:06.78	133.39	24.14	-54.4	-56.4	15.7	0.00e+00	0	33	0	316669952	74	4696
2026-01-01 23:04:08.78	133.82	23.95	-53.9	-55.8	16.0	0.00e+00	0	33	0	319815680	74	4347
2026-01-01 23:04:10.78	134.25	23.75	-53.5	-55.3	16.2	0.00e+00	0	33	0	324009984	73	4343
2026-01-01 23:04:12.77	134.68	23.55	-54.1	-56.0	15.9	0.00e+00	0	33	0	327155712	73	4754
2026-01-01 23:04:14.76	135.10	23.35	-54.3	-56.2	15.8	0.00e+00	0	33	0	331350016	73	4855
2026-01-01 23:04:16.74	135.51	23.16	-53.7	-55.5	16.1	0.00e+00	0	33	0	335544320	73	4463
2026-01-01 23:04:18.73	135.92	22.96	-53.4	-55.1	16.2	0.00e+00	0	33	0	338690048	73	4281
2026-01-01 23:04:20.72	136.32	22.76	-53.4	-55.1	16.3	0.00e+00	0	33	0	342884352	73	4258
2026-01-01 23:04:22.70	136.72	22.57	-53.4	-55.1	16.3	0.00e+00	0	33	0	346030080	73	4262
2026-01-01 23:04:24.68	137.11	22.37	-53.0	-54.6	16.4	0.00e+00	0	33	0	350224384	72	4267
2026-01-01 23:04:26.67	137.50	22.18	-52.7	-54.2	16.5	0.00e+00	0	33	0	353370112	71	4339
2026-01-01 23:04:28.66	137.88	21.98	-52.4	-53.9	16.7	0.00e+00	0	33	0	357564416	71	4183
2026-01-01 23:04:30.66	138.26	21.78	-52.5	-54.1	16.6	0.00e+00	0	33	0	360710144	71	4246
2026-01-01 23:04:32.65	138.63	21.59	-52.6	-54.2	16.5	0.00e+00	0	33	0	364904448	71	4331
2026-01-01 23:04:34.65	139.01	21.39	-52.6	-54.2	16.6	0.00e+00	0	33	0	369098752	71	4310
2026-01-01 23:04:36.63	139.37	21.20	-52.4	-54.0	16.6	0.00e+00	0	33	0	372244480	71	4212
2026-01-01 23:04:38.64	139.73	21.00	-52.4	-54.0	16.6	0.00e+00	0	33	0	376438784	71	4203
2026-01-01 23:04:40.63	140.09	20.80	-52.4	-54.0	16.6	0.00e+00	0	33	0	379584512	71	4207
2026-01-01 23:04:42.63	140.45	20.61	-52.5	-54.1	16.6	0.00e+00	0	33	0	383778816	71	4243
2026-01-01 23:04:44.63	140.80	20.42	-52.4	-53.9	16.6	0.00e+00	0	33	0	386924544	71	4187
2026-01-01 23:04:46.63	141.14	20.22	-52.2	-53.7	16.7	0.00e+00	0	33	0	391118848	70	4325
2026-01-01 23:04:48.63	141.48	20.03	-52.1	-53.6	16.7	0.00e+00	0	33	0	395313152	70	4244
2026-01-01 23:04:50.63	141.82	19.83	-52.2	-53.7	16.6	0.00e+00	0	33	0	398458880	70	4324
2026-01-01 23:04:52.63	142.15	19.64	-52.6	-54.2	16.5	0.00e+00	0	33	0	402653184	70	4560
2026-01-01 23:04:54.62	142.48	19.45	-53.0	-54.7	16.3	0.00e+00	0	33	0	405798912	71	4587
2026-01-01 23:04:56.62	142.80	19.26	-53.2	-54.9	16.2	0.00e+00	0	33	0	409993216	71	4693
2026-01-01 23:04:58.62	143.13	19.07	-53.2	-54.9	16.2	0.00e+00	0	33	0	413138944	71	4674
2026-01-01 23:05:00.62	143.44	18.88	-53.0	-54.7	16.3	0.00e+00	0	33	0	417333248	71	4552
2026-01-01 23:05:02.62	143.76	18.69	-52.8	-54.5	16.4	0.00e+00	0	33	0	421527552	71	4457
2026-01-01 23:05:04.62	144.07	18.50	-53.0	-54.7	16.3	0.00e+00	0	33	0	424673280	71	4546
2026-01-01 23:05:06.62	144.37	18.31	-53.1	-54.9	16.2	0.00e+00	0	33	0	428867584	71	4657
2026-01-01 23:05:08.62	144.67	18.12	-53.1	-54.8	16.2	0.00e+00	0	33	0	432013312	71	4639
2026-01-01 23:05:10.61	144.97	17.94	-53.1	-54.8	16.3	0.00e+00	0	33	0	436207616	71	4626
2026-01-01 23:05:12.61	145.27	17.75	-53.1	-54.8	16.3	0.00e+00	0	33	0	439353344	71	4622
2026-01-01 23:05:14.61	145.56	17.57	-53.2	-55.0	16.2	0.00e+00	0	33	0	443547648	71	4712
2026-01-01 23:05:16.61	145.85	17.38	-53.4	-55.2	16.1	0.00e+00	0	33	0	447741952	72	4582
2026-01-01 23:05:18.60	146.13	17.20	-53.7	-55.5	16.0	0.00e+00	0	33	0	450887680	72	4755
2026-01-01 23:05:20.60	146.41	17.02	-53.7	-55.5	15.9	0.00e+00	0	33	0	455081984	72	4754
2026-01-01 23:05:22.59	146.69	16.83	-53.8	-55.7	15.9	0.00e+00	0	33	0	458227712	72	4864
2026-01-01 23:05:24.59	146.96	16.65	-54.1	-56.2	15.7	0.00e+00	0	33	0	462422016	73	4818
2026-01-01 23:05:26.57	147.23	16.47	-54.4	-56.5	15.5	0.00e+00	0	33	0	465567744	73	5021
2026-01-01 23:05:28.57	147.50	16.29	-54.6	-56.8	15.5	0.00e+00	0	33	0	469762048	74	4872
2026-01-01 23:05:30.56	147.77	16.11	-54.4	-56.5	15.6	0.00e+00	0	33	0	473956352	74	4708
2026-01-01 23:05:32.55	148.03	15.93	-54.1	-56.0	15.8	0.00e+00	0	33	0	477102080	74	4474
2026-01-01 23:05:34.54	148.29	15.76	-53.8	-55.7	15.9	0.00e+00	0	33	0	481296384	74	4330
2026-01-01 23:05:36.53	148.54	15.58	-53.8	-55.7	15.9	0.00e+00	0	33	0	484442112	74	4301
2026-01-01 23:05:38.53	148.80	15.40	-54.0	-55.9	15.8	0.00e+00	0	33	0	488636416	74	4417
2026-01-01 23:05:40.53	149.05	15.23	-54.3	-56.3	15.6	0.00e+00	0	33	0	491782144	74	4651
2026-01-01 23:05:42.53	149.29	15.05	-54.4	-56.4	15.5	0.00e+00	0	33	0	495976448	74	4693
2026-01-01 23:05:44.53	149.54	14.88	-54.3	-56.4	15.6	0.00e+00	0	33	0	499122176	74	4654
2026-01-01 23:05:46.52	149.78	14.71	-54.0	-56.0	15.8	0.00e+00	0	33	0	503316480	74	4457
2026-01-01 23:05:48.53	150.02	14.53	-53.9	-55.8	15.8	0.00e+00	0	34	0	507510784	74	4367
2026-01-01 23:05:50.53	150.26	14.36	-53.6	-55.5	16.0	0.00e+00	0	33	0	510656512	73	4461
2026-01-01 23:05:52.54	150.50	14.19	-53.9	-55.8	15.8	0.00e+00	0	33	0	514850816	73	4613
2026-01-01 23:05:54.53	150.73	14.02	-54.1	-56.1	15.7	0.00e+00	0	33	0	517996544	73	4783
2026-01-01 23:05:56.54	150.96	13.85	-54.3	-56.4	15.5	0.00e+00	0	33	0	522190848	73	4962
2026-01-01 23:05:58.54	151.18	13.68	-54.6	-56.8	15.3	0.00e+00	0	33	0	526385152	74	4887
2026-01-01 23:06:00.53	151.41	13.51	-54.5	-56.7	15.4	0.00e+00	0	33	0	529530880	74	4846
2026-01-01 23:06:02.51	151.63	13.35	-54.4	-56.5	15.5	0.00e+00	0	33	0	533725184	74	4723
2026-01-01 23:06:04.51	151.85	13.18	-53.9	-55.8	15.8	0.00e+00	0	33	0	536870912	74	4390
2026-01-01 23:06:06.51	152.07	13.01	-53.6	-55.5	16.0	0.00e+00	0	33	0	541065216	73	4446
2026-01-01 23:06:08.52	152.28	12.85	-53.5	-55.4	16.0	0.00e+00	0	33	0	544210944	73	4395
2026-01-01 23:06:10.52	152.49	12.68	-53.5	-55.4	16.0	0.00e+00	0	33	0	548405248	73	4404
2026-01-01 23:06:12.52	152.70	12.52	-53.6	-55.4	16.0	0.00e+00	0	33	0	552599552	73	4432
2026-01-01 23:06:14.51	152.91	12.36	-53.8	-55.8	15.8	0.00e+00	0	33	0	555745280	73	4610
2026-01-01 23:06:16.50	153.12	12.20	-54.0	-55.9	15.7	0.00e+00	0	33	0	559939584	73	4699
2026-01-01 23:06:18.50	153.32	12.03	-54.1	-56.2	15.5	0.00e+00	0	33	0	563085312	73	4818
2026-01-01 23:06:20.49	153.52	11.87	-54.1	-56.2	15.6	0.00e+00	0	33	0	567279616	73	4815
2026-01-01 23:06:22.49	153.72	11.72	-53.9	-55.9	15.7	0.00e+00	0	33	0	570425344	73	4705
2026-01-01 23:06:24.48	153.92	11.56	-53.9	-55.9	15.7	0.00e+00	0	33	0	574619648	73	4680
2026-01-01 23:06:26.47	154.11	11.40	-53.7	-55.6	15.8	0.00e+00	0	33	0	577765376	73	4542
2026-01-01 23:06:28.45	154.31	11.24	-53.6	-55.5	15.9	0.00e+00	0	33	0	581959680	73	4477
2026-01-01 23:06:30.45	154.50	11.09	-53.7	-55.6	15.9	0.00e+00	0	34	0	586153984	73	4506
2026-01-01 23:06:32.44	154.69	10.93	-53.7	-55.7	15.8	0.00e+00	0	33	0	589299712	73	4564
2026-01-01 23:06:34.44	154.87	10.78	-53.8	-55.7	15.8	0.00e+00	0	33	0	593494016	73	4590
2026-01-01 23:06:36.44	155.06	10.62	-53.9	-55.8	15.7	0.00e+00	0	33	0	596639744	73	4650
2026-01-01 23:06:38.44	155.24	10.47	-54.0	-56.0	15.6	0.00e+00	0	33	0	600834048	73	4722
2026-01-01 23:06:40.43	155.43	10.31	-54.1	-56.1	15.6	0.00e+00	0	33	0	603979776	73	4794
2026-01-01 23:06:42.44	155.61	10.16	-54.1	-56.1	15.6	0.00e+00	0	33	0	608174080	73	4794
2026-01-01 23:06:44.43	155.78	10.01	-54.0	-56.1	15.6	0.00e+00	0	33	0	612368384	73	4765
2026-01-01 23:06:46.42	155.96	9.86	-54.1	-56.2	15.6	0.00e+00	0	34	0	615514112	73	4815
2026-01-01 23:06:48.42	156.14	9.71	-54.2	-56.3	15.5	0.00e+00	0	33	0	619708416	73	4885
2026-01-01 23:06:50.42	156.31	9.56	-54.1	-56.2	15.5	0.00e+00	0	33	0	622854144	73	4857
2026-01-01 23:06:52.41	156.48	9.41	-54.3	-56.4	15.4	0.00e+00	0	33	0	627048448	73	4968
2026-01-01 23:06:54.41	156.65	9.26	-54.3	-56.5	15.4	0.00e+00	0	33	0	630194176	73	5004
2026-01-01 23:06:56.40	156.82	9.11	-54.5	-56.7	15.3	0.00e+00	0	34	0	634388480	74	4835
2026-01-01 23:06:58.39	156.98	8.97	-54.5	-56.7	15.3	0.00e+00	0	33	0	638582784	74	4833
2026-01-01 23:07:00.39	157.15	8.82	-54.5	-56.8	15.2	0.00e+00	0	33	0	641728512	74	4895
2026-01-01 23:07:02.40	157.31	8.67	-54.6	-57.0	15.1	0.00e+00	0	33	0	645922816	74	4985
2026-01-01 23:07:04.40	157.48	8.53	-54.7	-57.1	15.0	0.00e+00	0	33	0	649068544	74	5052
2026-01-01 23:07:06.39	157.64	8.39	-54.7	-57.1	15.0	0.00e+00	0	33	0	653262848	74	5060
2026-01-01 23:07:08.39	157.80	8.24	-54.7	-57.1	15.0	0.00e+00	0	33	0	656408576	74	5055
2026-01-01 23:07:10.40	157.96	8.10	-54.8	-57.2	14.9	0.00e+00	0	33	0	660602880	74	5149
2026-01-01 23:07:12.41	158.11	7.95	-54.9	-57.3	14.9	0.00e+00	0	33	0	664797184	74	5202
2026-01-01 23:07:14.41	158.27	7.81	-54.9	-57.3	14.9	0.00e+00	0	33	0	667942912	74	5197
2026-01-01 23:07:16.41	158.42	7.67	-54.9	-57.4	14.8	0.00e+00	0	33	0	672137216	75	4927
2026-01-01 23:07:18.40	158.57	7.53	-54.9	-57.3	14.8	0.00e+00	0	33	0	675282944	75	4924
2026-01-01 23:07:20.40	158.72	7.39	-55.0	-57.5	14.8	0.00e+00	0	33	0	679477248	75	5012
2026-01-01 23:07:22.40	158.87	7.25	-55.0	-57.6	14.7	0.00e+00	0	33	0	683671552	75	5062
2026-01-01 23:07:24.39	159.02	7.11	-55.2	-57.8	14.5	0.00e+00	0	33	0	686817280	75	5193
2026-01-01 23:07:26.39	159.17	6.97	-55.3	-58.1	14.3	0.00e+00	0	33	0	691011584	75	5356
2026-01-01 23:07:28.39	159.31	6.84	-55.4	-58.2	14.3	0.00e+00	0	33	0	694157312	75	5409
2026-01-01 23:07:30.38	159.45	6.70	-55.6	-58.4	14.2	0.00e+00	0	33	0	698351616	76	5231
2026-01-01 23:07:32.37	159.60	6.56	-55.7	-58.6	14.1	0.00e+00	0	34	0	701497344	76	5341
2026-01-01 23:07:34.37	159.74	6.43	-55.8	-58.7	13.9	0.00e+00	0	33	0	705691648	76	5463
2026-01-01 23:07:36.37	159.88	6.29	-55.8	-58.8	13.9	0.00e+00	0	33	0	708837376	76	5510
2026-01-01 23:07:38.37	160.02	6.16	-55.8	-58.9	13.8	0.00e+00	0	33	0	713031680	76	5543
2026-01-01 23:07:40.36	160.15	6.02	-55.9	-59.0	13.8	0.00e+00	0	33	0	717225984	77	5296
2026-01-01 23:07:42.37	160.29	5.89	-55.9	-58.9	13.8	0.00e+00	0	33	0	720371712	77	5271
2026-01-01 23:07:44.37	160.43	5.76	-55.9	-59.1	13.7	0.00e+00	0	33	0	724566016	77	5348
2026-01-01 23:07:46.36	160.56	5.62	-55.8	-58.9	13.8	0.00e+00	0	33	0	727711744	77	5227
2026-01-01 23:07:48.36	160.69	5.49	-55.8	-58.9	13.8	0.00e+00	0	34	0	731906048	77	5262
2026-01-01 23:07:50.35	160.83	5.36	-55.9	-59.0	13.7	0.00e+00	0	33	0	735051776	77	5308
2026-01-01 23:07:52.35	160.96	5.23	-55.9	-59.0	13.6	0.00e+00	0	33	0	739246080	77	5329
2026-01-01 23:07:54.35	161.09	5.10	-55.8	-59.0	13.7	0.00e+00	0	33	0	743440384	77	5293
2026-01-01 23:07:56.35	161.22	4.97	-60.0	-76.0	3.8	7.11e-01	0	33	104	745537536	85	23743
2026-01-01 23:07:58.35	161.34	4.84	-60.7	-76.8	3.8	1.49e+00	0	33	104	745537536	86	24439
2026-01-01 23:08:00.34	161.47	4.71	-61.1	-77.2	3.8	1.49e+00	0	34	104	745537536	87	24257
2026-01-01 23:08:02.35	161.60	4.58	-61.4	-77.5	3.8	1.49e+00	0	33	104	745537536	88	23600
2026-01-01 23:08:04.35	161.72	4.46	-61.7	-77.7	3.8	1.49e+00	0	33	104	745537536	88	24304
2026-01-01 23:08:06.35	161.84	4.33	-61.8	-77.9	3.8	1.49e+00	0	34	104	745537536	88	24820
2026-01-01 23:08:08.35	161.97	4.20	-62.0	-78.1	3.8	1.49e+00	0	34	104	745537536	89	23889
2026-01-01 23:08:10.35	162.09	4.08	-62.1	-78.2	3.8	1.49e+00	0	33	104	745537536	89	24191
2026-01-01 23:08:12.34	162.21	3.95	-62.2	-78.2	3.8	1.49e+00	0	33	104	745537536	89	24335
2026-01-01 23:08:14.34	162.33	3.82	-62.2	-78.3	3.8	1.49e+00	0	34	104	745537536	89	24432
2026-01-01 23:08:16.34	162.45	3.70	-62.2	-78.3	3.8	1.49e+00	0	34	104	745537536	89	24413
2026-01-01 23:08:18.33	162.56	3.58	-62.2	-78.2	3.8	1.49e+00	0	33	104	745537536	89	24375
2026-01-01 23:08:20.33	162.68	3.45	-62.1	-78.2	3.8	1.49e+00	0	34	104	745537536	89	24227
2026-01-01 23:08:22.33	162.80	3.33	-62.1	-78.1	3.8	1.49e+00	0	34	104	745537536	89	24128
2026-01-01 23:08:24.34	162.91	3.20	-62.1	-78.1	3.8	1.49e+00	0	33	104	745537536	89	24116
2026-01-01 23:08:26.35	163.03	3.08	-62.0	-78.1	3.8	1.49e+00	0	33	104	745537536	89	24066
2026-01-01 23:08:28.33	163.14	2.96	-62.0	-78.1	3.8	1.49e+00	0	34	104	745537536	89	23989
2026-01-01 23:08:30.32	163.25	2.84	-62.0	-78.1	3.8	1.49e+00	0	33	104	745537536	89	24021
2026-01-01 23:08:32.30	163.36	2.72	-62.0	-78.1	3.8	1.49e+00	0	34	104	745537536	89	23893
2026-01-01 23:08:34.30	163.47	2.60	-62.0	-78.0	3.8	1.49e+00	0	33	104	745537536	89	23847
2026-01-01 23:08:36.30	163.58	2.48	-62.0	-78.1	3.8	1.49e+00	0	34	104	745537536	89	23855
2026-01-01 23:08:38.29	163.69	2.36	-62.0	-78.0	3.8	1.49e+00	0	33	104	745537536	89	23836
2026-01-01 23:08:40.29	163.80	2.24	-61.9	-78.0	3.9	1.49e+00	0	34	104	745537536	89	23749
2026-01-01 23:08:42.29	163.91	2.12	-61.9	-78.0	3.8	1.49e+00	0	34	104	745537536	89	23787
2026-01-01 23:08:44.29	164.01	2.00	-61.9	-78.0	3.8	1.49e+00	0	34	104	745537536	89	23667

#Closed at: 2026-01-01 23:08:45
#Recorded file [745 MB]: D:/lorett/data/31004_260102_020030.dat