passes_logs/2026/01/01/R3.2S_Murmansk/R3.2S_Murmansk__20260101_105212_NOAA_20_JPSS-1_rec.log

#Pass ID: 20260101_105212_NOAA 20 (JPSS-1)
#Satellite: NOAA 20 (JPSS-1)
#Configuration: NOAA 20
#almurnet v.1.7.20251203
#Start time: 2026-01-01 10:52:13

#Version: 2.2.20231116
#Station: R3.2S_Murmansk
#Location: 33.079688 lon 68.888172 lat
#TLE: 1 43013U 17073A   26001.09198674  .00000169  00000+0  10130-3 0  9995
#TLE: 2 43013  98.7621 302.1793 0001944  59.5293 300.6075 14.19531878420769

#Time	Az	El	Level	Level2	SNR	BER	BlckErr	Temp	State	Recorded	gain1	gain2
2026-01-01 10:52:13.89	184.98	2.06	-59.8	-75.9	3.8	1.49e+00	0	32	0	0	84	24844
2026-01-01 10:52:17.88	185.15	2.31	-59.8	-75.8	3.8	1.49e+00	0	32	104	0	84	24437
2026-01-01 10:52:21.87	185.31	2.56	-59.8	-75.9	3.8	1.49e+00	0	32	104	0	84	24718
2026-01-01 10:52:25.84	185.48	2.81	-59.8	-75.9	3.8	1.49e+00	0	32	104	0	84	24805
2026-01-01 10:52:29.81	185.65	3.06	-59.8	-75.9	3.8	1.48e+00	0	33	104	0	84	24765
2026-01-01 10:52:33.81	185.83	3.32	-59.8	-75.9	3.8	1.49e+00	0	33	104	0	84	24902
2026-01-01 10:52:37.79	186.01	3.57	-59.7	-74.7	3.8	1.49e+00	0	33	104	0	84	21532
2026-01-01 10:52:41.77	186.19	3.83	-59.6	-72.5	4.2	1.42e+00	0	33	0	0	84	16714
2026-01-01 10:52:45.74	186.37	4.09	-59.6	-72.2	4.3	1.36e+00	0	33	0	0	84	16144
2026-01-01 10:52:49.74	186.56	4.35	-45.5	-65.9	4.9	6.78e-01	3	33	0	5242880	80	9936
2026-01-01 10:52:53.73	186.75	4.62	-59.0	-67.9	6.4	2.31e-01	0	33	0	10485760	83	10509
2026-01-01 10:52:57.70	186.94	4.89	-59.0	-68.1	6.3	1.93e-01	0	33	0	14680064	83	10705
2026-01-01 10:53:01.69	187.14	5.16	-59.3	-67.7	6.8	6.76e-02	0	33	0	19922944	83	10188
2026-01-01 10:53:05.71	187.34	5.43	-56.7	-60.1	13.4	0.00e+00	0	33	0	23068672	79	5366
2026-01-01 10:53:09.70	187.54	5.71	-56.3	-59.4	13.9	0.00e+00	0	33	0	30408704	78	5246
2026-01-01 10:53:13.68	187.75	5.99	-56.1	-59.1	14.1	0.00e+00	0	33	0	37748736	77	5344
2026-01-01 10:53:17.65	187.96	6.27	-56.0	-58.9	14.3	0.00e+00	0	33	0	45088768	77	5231
2026-01-01 10:53:21.63	188.17	6.55	-56.0	-58.7	14.4	0.00e+00	0	33	0	52428800	77	5159
2026-01-01 10:53:25.61	188.39	6.84	-56.0	-58.7	14.4	0.00e+00	0	33	0	59768832	77	5146
2026-01-01 10:53:29.58	188.61	7.13	-55.9	-58.6	14.6	0.00e+00	0	33	0	67108864	77	5074
2026-01-01 10:53:33.56	188.84	7.42	-55.8	-58.4	14.7	0.00e+00	0	34	0	74448896	77	4948
2026-01-01 10:53:37.53	189.07	7.71	-55.7	-58.2	14.8	0.00e+00	0	33	0	82837504	77	4868
2026-01-01 10:53:41.52	189.30	8.01	-55.6	-58.1	14.9	0.00e+00	0	34	0	90177536	76	5073
2026-01-01 10:53:45.50	189.54	8.31	-55.5	-58.0	15.0	0.00e+00	0	34	0	97517568	76	4985
2026-01-01 10:53:49.49	189.79	8.62	-55.5	-57.9	15.0	0.00e+00	0	34	0	104857600	76	4976
2026-01-01 10:53:53.48	190.04	8.93	-55.3	-57.7	15.2	0.00e+00	0	34	0	112197632	76	4821
2026-01-01 10:53:57.47	190.29	9.24	-55.2	-57.5	15.3	0.00e+00	0	34	0	119537664	76	4720
2026-01-01 10:54:01.45	190.55	9.55	-55.1	-57.3	15.4	0.00e+00	0	34	0	126877696	76	4623
2026-01-01 10:54:05.42	190.82	9.87	-55.0	-57.2	15.5	0.00e+00	0	34	0	134217728	76	4571
2026-01-01 10:54:09.42	191.09	10.20	-55.0	-57.2	15.5	0.00e+00	0	34	0	142606336	76	4584
2026-01-01 10:54:13.40	191.37	10.52	-55.0	-57.1	15.6	0.00e+00	0	34	0	149946368	76	4534
2026-01-01 10:54:17.38	191.65	10.85	-55.0	-57.2	15.5	0.00e+00	0	34	0	157286400	76	4560
2026-01-01 10:54:21.38	191.94	11.19	-54.7	-56.8	15.8	0.00e+00	0	34	0	164626432	76	4347
2026-01-01 10:54:25.37	192.23	11.52	-54.5	-56.5	15.8	0.00e+00	0	34	0	171966464	75	4489
2026-01-01 10:54:29.35	192.53	11.87	-54.4	-56.4	15.9	0.00e+00	0	34	0	179306496	75	4412
2026-01-01 10:54:33.34	192.84	12.21	-54.3	-56.3	16.0	0.00e+00	0	34	0	186646528	75	4363
2026-01-01 10:54:37.33	193.16	12.56	-54.4	-56.3	16.0	0.00e+00	0	34	0	195035136	75	4375
2026-01-01 10:54:41.33	193.48	12.92	-54.4	-56.3	16.0	0.00e+00	0	34	0	202375168	75	4387
2026-01-01 10:54:45.32	193.81	13.28	-54.2	-56.1	16.1	0.00e+00	0	34	0	209715200	75	4285
2026-01-01 10:54:49.33	194.15	13.64	-54.2	-56.1	16.1	0.00e+00	0	34	0	217055232	74	4525
2026-01-01 10:54:53.31	194.50	14.01	-54.1	-55.9	16.2	0.00e+00	0	34	0	224395264	74	4439
2026-01-01 10:54:57.30	194.85	14.39	-54.0	-55.8	16.2	0.00e+00	0	34	0	231735296	74	4358
2026-01-01 10:55:01.29	195.21	14.76	-53.9	-55.7	16.3	0.00e+00	0	34	0	239075328	74	4339
2026-01-01 10:55:05.27	195.58	15.15	-53.9	-55.7	16.3	0.00e+00	0	34	0	246415360	74	4336
2026-01-01 10:55:09.26	195.96	15.54	-54.0	-55.8	16.3	0.00e+00	0	34	0	254803968	74	4347
2026-01-01 10:55:13.24	196.35	15.93	-54.1	-55.9	16.3	0.00e+00	0	34	0	262144000	74	4412
2026-01-01 10:55:17.22	196.75	16.33	-54.3	-56.2	16.1	0.00e+00	0	34	0	269484032	74	4576
2026-01-01 10:55:21.23	197.17	16.73	-54.4	-56.3	16.1	0.00e+00	0	34	0	276824064	74	4602
2026-01-01 10:55:25.23	197.59	17.14	-54.5	-56.4	16.0	0.00e+00	0	34	0	284164096	74	4693
2026-01-01 10:55:29.22	198.02	17.56	-54.4	-56.3	16.1	0.00e+00	0	34	0	291504128	74	4649
2026-01-01 10:55:33.20	198.47	17.98	-54.5	-56.4	16.1	0.00e+00	0	34	0	298844160	74	4659
2026-01-01 10:55:37.15	198.92	18.40	-54.3	-56.1	16.2	0.00e+00	0	34	0	306184192	74	4542
2026-01-01 10:55:41.12	199.39	18.83	-54.2	-56.0	16.3	0.00e+00	0	34	0	314572800	74	4463
2026-01-01 10:55:45.08	199.87	19.26	-54.1	-55.9	16.3	0.00e+00	0	34	0	321912832	74	4417
2026-01-01 10:55:49.06	200.36	19.70	-54.1	-55.9	16.3	0.00e+00	0	34	0	329252864	74	4430
2026-01-01 10:55:53.03	200.87	20.15	-54.7	-56.6	16.0	0.00e+00	0	34	0	336592896	76	4270
2026-01-01 10:55:57.00	201.39	20.60	-54.4	-56.3	16.2	0.00e+00	0	34	0	343932928	75	4355
2026-01-01 10:56:00.96	201.93	21.06	-54.4	-56.3	16.2	0.00e+00	0	34	0	351272960	75	4359
2026-01-01 10:56:04.93	202.48	21.52	-54.6	-56.5	16.1	0.00e+00	0	34	0	358612992	75	4471
2026-01-01 10:56:08.90	203.05	21.99	-54.7	-56.7	16.0	0.00e+00	0	34	0	365953024	75	4549
2026-01-01 10:56:12.88	203.63	22.47	-54.7	-56.6	16.0	0.00e+00	0	34	0	373293056	75	4524
2026-01-01 10:56:16.85	204.24	22.95	-54.5	-56.4	16.1	0.00e+00	0	34	0	380633088	75	4440
2026-01-01 10:56:20.83	204.86	23.44	-54.4	-56.3	16.2	0.00e+00	0	34	0	389021696	75	4365
2026-01-01 10:56:24.81	205.51	23.94	-54.5	-56.4	16.2	0.00e+00	0	34	0	396361728	75	4413
2026-01-01 10:56:28.78	206.17	24.44	-54.7	-56.7	16.1	0.00e+00	0	34	0	403701760	75	4557
2026-01-01 10:56:32.74	206.85	24.94	-55.0	-57.0	15.9	0.00e+00	0	34	0	411041792	75	4757
2026-01-01 10:56:36.74	207.56	25.46	-55.1	-57.1	15.8	0.00e+00	0	34	0	418381824	75	4788
2026-01-01 10:56:40.71	208.28	25.97	-55.2	-57.2	15.8	0.00e+00	0	34	0	425721856	75	4858
2026-01-01 10:56:44.67	209.03	26.49	-55.0	-57.0	15.9	0.00e+00	0	34	0	433061888	75	4731
2026-01-01 10:56:48.67	209.81	27.02	-54.7	-56.6	16.1	0.00e+00	0	34	0	440401920	75	4507
2026-01-01 10:56:52.67	210.62	27.56	-55.0	-56.9	15.9	0.00e+00	0	34	0	447741952	75	4705
2026-01-01 10:56:56.63	211.45	28.09	-55.3	-57.4	15.7	0.00e+00	0	34	0	456130560	75	4934
2026-01-01 10:57:00.61	212.30	28.63	-55.4	-57.4	15.8	0.00e+00	0	34	0	463470592	76	4690
2026-01-01 10:57:04.58	213.18	29.18	-55.5	-57.6	15.7	0.00e+00	0	34	0	470810624	76	4772
2026-01-01 10:57:08.56	214.10	29.72	-55.5	-57.7	15.6	0.00e+00	0	34	0	478150656	76	4819
2026-01-01 10:57:12.54	215.05	30.27	-55.6	-57.8	15.6	0.00e+00	0	34	0	485490688	76	4880
2026-01-01 10:57:16.51	216.02	30.82	-56.1	-58.5	15.2	0.00e+00	0	34	0	492830720	77	4988
2026-01-01 10:57:20.47	217.03	31.37	-56.6	-59.1	14.9	0.00e+00	0	34	0	500170752	78	5064
2026-01-01 10:57:24.46	218.08	31.93	-56.6	-59.2	14.9	0.00e+00	0	34	0	507510784	78	5104
2026-01-01 10:57:28.43	219.15	32.48	-56.4	-58.8	15.1	0.00e+00	0	34	0	514850816	78	4891
2026-01-01 10:57:32.38	220.26	33.03	-56.3	-58.7	15.1	0.00e+00	0	34	0	523239424	78	4860
2026-01-01 10:57:36.36	221.42	33.58	-55.7	-57.9	15.6	0.00e+00	0	34	0	530579456	78	4395
2026-01-01 10:57:40.35	222.62	34.12	-56.3	-58.7	15.1	0.00e+00	0	34	0	537919488	78	4829
2026-01-01 10:57:44.32	223.85	34.66	-55.7	-57.8	15.6	0.00e+00	0	34	0	545259520	77	4635
2026-01-01 10:57:48.28	225.11	35.20	-55.4	-57.4	15.8	0.00e+00	0	34	0	552599552	77	4436
2026-01-01 10:57:52.27	226.43	35.73	-56.7	-59.2	14.8	0.00e+00	0	34	0	559939584	78	5153
2026-01-01 10:57:56.25	227.79	36.25	-56.1	-58.4	15.3	0.00e+00	0	34	0	567279616	78	4691
2026-01-01 10:58:00.22	229.19	36.76	-56.1	-58.5	15.3	0.00e+00	0	34	0	574619648	77	4992
2026-01-01 10:58:04.19	230.63	37.26	-56.9	-59.6	14.6	0.00e+00	0	34	0	581959680	79	5084
2026-01-01 10:58:08.17	232.12	37.74	-55.8	-58.0	15.5	0.00e+00	0	34	0	589299712	78	4464
2026-01-01 10:58:12.14	233.64	38.21	-56.7	-59.3	14.8	0.00e+00	0	34	0	597688320	78	5197
2026-01-01 10:58:16.11	235.21	38.67	-56.2	-58.4	15.3	0.00e+00	0	34	0	605028352	78	4704
2026-01-01 10:58:20.09	236.83	39.10	-56.3	-58.6	15.2	0.00e+00	0	34	0	612368384	77	5095
2026-01-01 10:58:24.07	238.49	39.52	-57.5	-60.6	14.0	0.00e+00	0	34	0	619708416	80	5348
2026-01-01 10:58:28.04	240.19	39.91	-57.1	-59.9	14.4	0.00e+00	0	34	0	627048448	80	4971
2026-01-01 10:58:32.02	241.93	40.28	-56.8	-59.3	14.8	0.00e+00	0	34	0	634388480	80	4647
2026-01-01 10:58:36.01	243.71	40.62	-56.3	-58.6	15.2	0.00e+00	0	34	0	641728512	79	4540
2026-01-01 10:58:39.98	245.52	40.93	-55.6	-57.7	15.7	0.00e+00	0	34	0	649068544	77	4551
2026-01-01 10:58:43.94	247.36	41.22	-55.9	-58.1	15.5	0.00e+00	0	34	0	656408576	77	4774
2026-01-01 10:58:47.93	249.24	41.47	-56.4	-58.9	15.1	0.00e+00	0	34	0	664797184	78	4931
2026-01-01 10:58:51.90	251.14	41.69	-56.9	-59.5	14.7	0.00e+00	0	34	0	672137216	78	5287
2026-01-01 10:58:55.87	253.06	41.88	-56.9	-59.5	14.7	0.00e+00	0	34	0	679477248	79	5023
2026-01-01 10:58:59.86	255.02	42.03	-56.5	-58.9	15.1	0.00e+00	0	34	0	686817280	79	4669
2026-01-01 10:59:03.85	256.99	42.15	-55.8	-58.0	15.6	0.00e+00	0	34	0	694157312	78	4445
2026-01-01 10:59:07.85	258.97	42.23	-56.3	-58.6	15.2	0.00e+00	0	34	0	701497344	77	5082
2026-01-01 10:59:11.84	260.96	42.27	-55.6	-57.7	15.7	0.00e+00	0	34	0	708837376	77	4577
2026-01-01 10:59:15.82	262.95	42.27	-56.2	-58.4	15.4	0.00e+00	0	34	0	716177408	78	4700
2026-01-01 10:59:19.79	264.93	42.24	-55.2	-57.1	16.0	0.00e+00	0	34	0	724566016	76	4516
2026-01-01 10:59:23.76	266.90	42.17	-54.2	-55.9	16.5	0.00e+00	0	34	0	731906048	74	4434
2026-01-01 10:59:27.71	268.85	42.06	-54.8	-56.7	16.2	0.00e+00	0	34	0	739246080	75	4567
2026-01-01 10:59:31.70	270.80	41.92	-56.2	-58.5	15.3	0.00e+00	0	34	0	746586112	77	5031
2026-01-01 10:59:35.69	272.74	41.74	-55.7	-57.8	15.7	0.00e+00	0	34	0	753926144	77	4608
2026-01-01 10:59:39.66	274.64	41.52	-55.9	-58.1	15.5	0.00e+00	0	34	0	761266176	77	4760
2026-01-01 10:59:43.64	276.53	41.28	-57.4	-60.4	14.1	0.00e+00	0	34	0	768606208	80	5235
2026-01-01 10:59:47.59	278.36	41.00	-56.5	-58.9	15.2	0.00e+00	0	34	0	775946240	79	4685
2026-01-01 10:59:51.56	280.18	40.69	-56.3	-58.6	15.3	0.00e+00	0	34	0	783286272	79	4517
2026-01-01 10:59:55.55	281.97	40.36	-56.4	-58.8	15.2	0.00e+00	0	34	0	791674880	78	4877
2026-01-01 10:59:59.51	283.70	40.00	-56.5	-58.9	15.1	0.00e+00	0	34	0	799014912	78	4948
2026-01-01 11:00:03.51	285.42	39.61	-54.8	-56.6	16.2	0.00e+00	0	34	0	806354944	76	4277
2026-01-01 11:00:07.48	287.08	39.20	-54.2	-55.9	16.5	0.00e+00	0	34	0	813694976	74	4432
2026-01-01 11:00:11.45	288.70	38.77	-54.3	-56.0	16.5	0.00e+00	0	34	0	821035008	74	4474
2026-01-01 11:00:15.44	290.28	38.32	-53.2	-54.8	16.9	0.00e+00	0	34	0	828375040	73	4110
2026-01-01 11:00:19.42	291.82	37.86	-53.3	-54.8	16.9	0.00e+00	0	34	0	835715072	73	4141
2026-01-01 11:00:23.40	293.31	37.37	-53.6	-55.2	16.8	0.00e+00	0	34	0	843055104	72	4563
2026-01-01 11:00:27.38	294.76	36.88	-53.3	-54.9	16.9	0.00e+00	0	34	0	850395136	73	4162
2026-01-01 11:00:31.36	296.17	36.37	-53.4	-54.9	16.9	0.00e+00	0	34	0	858783744	73	4169
2026-01-01 11:00:35.34	297.53	35.86	-53.5	-55.1	16.8	0.00e+00	0	34	0	866123776	72	4498
2026-01-01 11:00:39.31	298.85	35.33	-54.5	-56.3	16.3	0.00e+00	0	34	0	873463808	74	4649
2026-01-01 11:00:43.30	300.13	34.80	-54.7	-56.5	16.3	0.00e+00	0	34	0	880803840	75	4460
2026-01-01 11:00:47.27	301.37	34.26	-54.6	-56.4	16.3	0.00e+00	0	34	0	888143872	74	4687
2026-01-01 11:00:51.25	302.57	33.72	-54.1	-55.8	16.5	0.00e+00	0	34	0	895483904	74	4371
2026-01-01 11:00:55.23	303.73	33.17	-56.4	-58.8	15.1	0.00e+00	0	34	0	902823936	77	5188
2026-01-01 11:00:59.20	304.85	32.63	-55.9	-58.1	15.5	0.00e+00	0	34	0	910163968	77	4768
2026-01-01 11:01:03.17	305.93	32.08	-57.1	-59.9	14.4	0.00e+00	0	34	0	917504000	80	4928
2026-01-01 11:01:07.14	306.98	31.53	-55.6	-57.7	15.7	0.00e+00	0	34	0	925892608	77	4567
2026-01-01 11:01:11.11	307.99	30.98	-56.6	-59.1	14.9	0.00e+00	0	34	0	933232640	79	4793
2026-01-01 11:01:15.10	308.98	30.43	-54.5	-56.3	16.3	0.00e+00	0	34	0	940572672	75	4380
2026-01-01 11:01:19.08	309.93	29.88	-56.3	-58.7	15.1	0.00e+00	0	34	0	947912704	78	4852
2026-01-01 11:01:23.04	310.84	29.34	-54.0	-55.6	16.5	0.00e+00	0	34	0	955252736	74	4290
2026-01-01 11:01:27.01	311.73	28.80	-55.3	-57.5	15.7	0.00e+00	0	34	0	962592768	75	4989
2026-01-01 11:01:30.99	312.59	28.26	-53.7	-55.3	16.6	0.00e+00	0	34	0	969932800	73	4386
2026-01-01 11:01:34.97	313.43	27.73	-53.9	-55.6	16.5	0.00e+00	0	34	0	977272832	73	4526
2026-01-01 11:01:38.95	314.23	27.20	-54.2	-56.0	16.4	0.00e+00	0	34	0	984612864	75	4196
2026-01-01 11:01:42.92	315.01	26.67	-52.8	-54.3	17.0	0.00e+00	0	34	0	991952896	72	4132
2026-01-01 11:01:46.89	315.77	26.15	-54.0	-55.7	16.5	0.00e+00	0	34	0	1000341504	73	4563
2026-01-01 11:01:50.86	316.50	25.64	-52.6	-54.0	17.1	0.00e+00	0	34	0	1007681536	71	4237
2026-01-01 11:01:54.82	317.20	25.13	-52.6	-54.1	17.0	0.00e+00	0	34	0	1015021568	71	4278
2026-01-01 11:01:58.81	317.89	24.62	-53.3	-54.9	16.8	0.00e+00	0	34	0	1022361600	71	4666
2026-01-01 11:02:02.80	318.56	24.12	-52.6	-54.1	17.0	0.00e+00	0	34	0	1029701632	71	4273
2026-01-01 11:02:06.77	319.21	23.63	-53.0	-54.6	16.8	0.00e+00	0	34	0	1037041664	71	4513
2026-01-01 11:02:10.74	319.83	23.14	-53.1	-54.6	16.8	0.00e+00	0	34	0	1044381696	71	4514
2026-01-01 11:02:14.71	320.44	22.66	-53.2	-54.8	16.8	0.00e+00	0	34	0	1051721728	71	4634
2026-01-01 11:02:18.68	321.03	22.19	-53.5	-55.2	16.6	0.00e+00	0	34	0	1059061760	72	4562
2026-01-01 11:02:22.64	321.60	21.72	-53.3	-54.8	16.8	0.00e+00	0	34	0	1067450368	72	4386
2026-01-01 11:02:26.63	322.16	21.25	-53.7	-55.4	16.5	0.00e+00	0	34	0	1074790400	72	4666
2026-01-01 11:02:30.60	322.70	20.80	-54.7	-56.6	16.0	0.00e+00	0	34	0	1082130432	74	4804
2026-01-01 11:02:34.57	323.23	20.34	-54.4	-56.3	16.2	0.00e+00	0	34	0	1089470464	74	4620
2026-01-01 11:02:38.56	323.74	19.90	-54.0	-55.7	16.4	0.00e+00	0	34	0	1096810496	74	4323
2026-01-01 11:02:42.52	324.23	19.46	-54.1	-55.9	16.3	0.00e+00	0	34	0	1104150528	74	4411
2026-01-01 11:02:46.51	324.72	19.02	-54.5	-56.4	16.1	0.00e+00	0	34	0	1111490560	74	4681
2026-01-01 11:02:50.48	325.19	18.59	-54.1	-55.9	16.3	0.00e+00	0	34	0	1118830592	74	4422
2026-01-01 11:02:54.46	325.65	18.17	-53.9	-55.7	16.3	0.00e+00	0	34	0	1126170624	74	4311
2026-01-01 11:02:58.42	326.09	17.75	-53.8	-55.5	16.5	0.00e+00	0	34	0	1133510656	74	4202
2026-01-01 11:03:02.39	326.53	17.34	-54.1	-55.9	16.3	0.00e+00	0	34	0	1141899264	74	4420
2026-01-01 11:03:06.37	326.95	16.93	-54.2	-56.0	16.2	0.00e+00	0	34	0	1149239296	74	4478
2026-01-01 11:03:10.35	327.37	16.53	-54.1	-55.9	16.2	0.00e+00	0	34	0	1156579328	74	4433
2026-01-01 11:03:14.33	327.77	16.13	-54.1	-55.9	16.2	0.00e+00	0	34	0	1163919360	74	4438
2026-01-01 11:03:18.29	328.16	15.74	-54.4	-56.3	16.1	0.00e+00	0	34	0	1171259392	74	4610
2026-01-01 11:03:22.25	328.54	15.36	-54.7	-56.7	15.8	0.00e+00	0	34	0	1178599424	74	4832
2026-01-01 11:03:26.21	328.91	14.98	-54.6	-56.6	15.8	0.00e+00	0	34	0	1185939456	74	4807
2026-01-01 11:03:30.18	329.28	14.60	-54.5	-56.6	15.9	0.00e+00	0	34	0	1193279488	74	4762
2026-01-01 11:03:34.16	329.64	14.23	-54.3	-56.3	16.0	0.00e+00	0	34	0	1200619520	74	4603
2026-01-01 11:03:38.13	329.98	13.86	-54.2	-56.2	16.0	0.00e+00	0	34	0	1209008128	74	4548
2026-01-01 11:03:42.12	330.32	13.50	-54.4	-56.3	16.0	0.00e+00	0	34	0	1216348160	74	4626
2026-01-01 11:03:46.09	330.66	13.14	-54.6	-56.6	15.8	0.00e+00	0	34	0	1223688192	74	4796
2026-01-01 11:03:50.07	330.98	12.79	-54.7	-56.8	15.7	0.00e+00	0	34	0	1231028224	74	4917
2026-01-01 11:03:54.05	331.30	12.44	-54.8	-56.9	15.7	0.00e+00	0	34	0	1238368256	74	4940
2026-01-01 11:03:58.04	331.61	12.09	-54.9	-57.0	15.6	0.00e+00	0	34	0	1245708288	75	4737
2026-01-01 11:04:02.01	331.92	11.75	-54.9	-57.1	15.5	0.00e+00	0	34	0	1253048320	75	4783
2026-01-01 11:04:05.98	332.21	11.42	-54.9	-57.0	15.6	0.00e+00	0	34	0	1260388352	75	4732
2026-01-01 11:04:09.98	332.51	11.08	-55.0	-57.2	15.5	0.00e+00	0	34	0	1267728384	75	4828
2026-01-01 11:04:13.95	332.79	10.75	-55.1	-57.3	15.4	0.00e+00	0	34	0	1276116992	75	4914
2026-01-01 11:04:17.92	333.07	10.43	-55.4	-57.7	15.1	0.00e+00	0	34	0	1283457024	75	5155
2026-01-01 11:04:21.91	333.34	10.11	-55.7	-58.1	14.9	0.00e+00	0	34	0	1290797056	76	5090
2026-01-01 11:04:25.87	333.61	9.79	-55.7	-58.3	14.8	0.00e+00	0	34	0	1298137088	76	5175
2026-01-01 11:04:29.84	333.87	9.48	-55.7	-58.3	14.8	0.00e+00	0	34	0	1305477120	76	5164
2026-01-01 11:04:33.82	334.13	9.17	-55.6	-58.0	14.9	0.00e+00	0	34	0	1312817152	76	5033
2026-01-01 11:04:37.79	334.38	8.86	-55.4	-57.8	15.0	0.00e+00	0	34	0	1320157184	76	4879
2026-01-01 11:04:41.77	334.63	8.55	-55.3	-57.7	15.1	0.00e+00	0	34	0	1327497216	76	4845
2026-01-01 11:04:45.74	334.88	8.25	-55.4	-57.8	15.0	0.00e+00	0	34	0	1334837248	76	4907
2026-01-01 11:04:49.72	335.11	7.96	-55.5	-58.1	14.8	0.00e+00	0	34	0	1343225856	76	5046
2026-01-01 11:04:53.69	335.35	7.66	-55.8	-58.4	14.6	0.00e+00	0	34	0	1350565888	76	5274
2026-01-01 11:04:57.66	335.58	7.37	-56.1	-58.9	14.2	0.00e+00	0	34	0	1357905920	77	5232
2026-01-01 11:05:01.64	335.80	7.08	-56.4	-59.5	13.8	0.00e+00	0	34	0	1365245952	77	5622
2026-01-01 11:05:05.62	336.03	6.80	-56.6	-59.8	13.6	0.00e+00	0	34	0	1372585984	78	5480
2026-01-01 11:05:09.59	336.24	6.51	-56.7	-60.1	13.4	0.00e+00	0	34	0	1379926016	78	5699
2026-01-01 11:05:13.55	336.46	6.23	-56.7	-60.1	13.3	0.00e+00	0	34	0	1387266048	78	5719
2026-01-01 11:05:17.54	336.67	5.96	-56.8	-60.3	13.2	1.50e-06	0	34	0	1394606080	78	5845
2026-01-01 11:05:21.51	336.87	5.68	-56.8	-60.3	13.1	0.00e+00	0	34	0	1401946112	78	5801
2026-01-01 11:05:25.49	337.08	5.41	-56.7	-60.1	13.2	0.00e+00	0	34	0	1410334720	78	5704
2026-01-01 11:05:29.45	337.28	5.14	-56.5	-59.8	13.4	0.00e+00	0	34	0	1417674752	78	5528
2026-01-01 11:05:33.45	337.47	4.87	-60.9	-76.9	3.8	1.49e+00	0	34	104	1421869056	87	23511
2026-01-01 11:05:37.47	337.67	4.60	-61.7	-77.8	3.8	1.49e+00	0	34	104	1421869056	88	24428
2026-01-01 11:05:41.48	337.86	4.34	-62.1	-78.1	3.8	1.49e+00	0	34	104	1421869056	89	24003
2026-01-01 11:05:45.49	338.05	4.08	-62.2	-78.2	3.8	1.49e+00	0	34	104	1421869056	89	24385
2026-01-01 11:05:49.49	338.23	3.82	-62.3	-78.3	3.8	1.49e+00	0	34	104	1421869056	89	24579
2026-01-01 11:05:53.47	338.42	3.56	-62.3	-78.3	3.8	1.49e+00	0	34	104	1421869056	89	24692
2026-01-01 11:05:57.44	338.59	3.31	-62.2	-78.2	3.8	1.49e+00	0	34	104	1421869056	89	24359
2026-01-01 11:06:01.42	338.77	3.06	-62.1	-78.2	3.8	1.49e+00	0	34	104	1421869056	89	24244
2026-01-01 11:06:05.39	338.94	2.81	-62.1	-78.1	3.8	1.49e+00	0	34	104	1421869056	89	24056
2026-01-01 11:06:09.38	339.11	2.56	-62.1	-78.1	3.8	1.49e+00	0	34	104	1421869056	89	23993
2026-01-01 11:06:13.35	339.28	2.32	-62.0	-78.1	3.8	1.49e+00	0	34	104	1421869056	89	23900
2026-01-01 11:06:17.31	339.45	2.07	-62.0	-78.1	3.8	1.49e+00	0	34	104	1421869056	89	23904

#Closed at: 2026-01-01 11:06:19
#Recorded file [1421 MB]: D:/lorett/data/31004_260101_135213.dat