passes_logs/2026/01/01/R3.2S_Murmansk/R3.2S_Murmansk__20260101_124142_ZKG05_rec.log

#Pass ID: 20260101_124142_ZKG05
#Satellite: ZKG05
#Configuration: ZKG05
#almurnet v.1.7.20251203
#Start time: 2026-01-01 12:41:43

#Version: 2.2.20231116
#Station: R3.2S_Murmansk
#Location: 33.079688 lon 68.888172 lat
#TLE: 1 65263U 25180E   25363.54303023  .00006586  00000-0  34273-3 0  9994
#TLE: 2 65263  97.4772 128.0191 0001674  87.3453 272.7971 15.16366041 20011

#Time	Az	El	Level	Level2	SNR	BER	BlckErr	Temp	State	Recorded	gain1	gain2
2026-01-01 12:41:43.30	20.96	2.05	-59.7	-62.9	6.2	0.00e+00	0	38	0	0	86	19987
2026-01-01 12:41:46.33	21.01	2.26	-59.7	-62.9	6.2	0.00e+00	0	38	104	0	86	19993
2026-01-01 12:41:49.36	21.07	2.47	-59.7	-62.9	6.2	0.00e+00	0	39	104	0	86	19952
2026-01-01 12:41:52.39	21.13	2.69	-59.7	-62.9	6.2	0.00e+00	0	39	104	0	86	20038
2026-01-01 12:41:55.41	21.19	2.90	-59.7	-62.9	6.2	0.00e+00	0	39	104	0	86	20056
2026-01-01 12:41:58.44	21.25	3.12	-59.7	-62.9	6.2	0.00e+00	0	39	104	0	86	20039
2026-01-01 12:42:01.46	21.31	3.34	-59.7	-62.9	6.2	0.00e+00	0	39	104	0	86	20070
2026-01-01 12:42:04.48	21.37	3.56	-59.7	-62.9	6.2	0.00e+00	0	39	104	0	86	20068
2026-01-01 12:42:07.51	21.43	3.79	-59.7	-62.9	6.2	0.00e+00	0	39	104	0	86	20059
2026-01-01 12:42:10.53	21.49	4.02	-59.7	-62.9	6.2	0.00e+00	0	40	104	0	86	20061
2026-01-01 12:42:13.56	21.56	4.25	-59.8	-62.9	6.2	0.00e+00	0	40	104	0	86	20027
2026-01-01 12:42:16.58	21.62	4.48	-59.8	-62.9	6.2	0.00e+00	0	40	104	0	86	20125
2026-01-01 12:42:19.61	21.69	4.72	-59.8	-62.9	6.2	0.00e+00	0	40	104	0	86	20058
2026-01-01 12:42:22.63	21.76	4.95	-59.8	-62.9	6.2	0.00e+00	0	40	104	0	86	20012
2026-01-01 12:42:25.65	21.82	5.19	-59.7	-62.9	6.2	0.00e+00	0	40	104	0	86	20056
2026-01-01 12:42:28.68	21.89	5.44	-59.8	-62.9	6.2	0.00e+00	0	40	104	0	86	20129
2026-01-01 12:42:31.70	21.96	5.68	-60.0	-63.1	6.2	0.00e+00	0	40	104	0	86	20528
2026-01-01 12:42:34.72	22.04	5.93	-59.9	-63.1	6.2	0.00e+00	0	40	104	0	86	20421
2026-01-01 12:42:37.74	22.11	6.19	-59.7	-62.8	6.2	0.00e+00	0	41	104	0	86	19925
2026-01-01 12:42:40.76	22.18	6.44	-59.8	-62.9	6.2	0.00e+00	0	41	104	0	86	20108
2026-01-01 12:42:43.79	22.26	6.70	-60.0	-63.2	6.2	0.00e+00	0	41	104	0	86	20782
2026-01-01 12:42:46.81	22.34	6.96	-60.0	-63.1	6.2	0.00e+00	0	41	104	0	86	20612
2026-01-01 12:42:49.84	22.42	7.23	-59.9	-63.1	6.2	0.00e+00	0	41	104	0	86	20534
2026-01-01 12:42:52.86	22.50	7.50	-60.0	-63.1	6.2	0.00e+00	0	41	104	0	86	20612
2026-01-01 12:42:55.88	22.58	7.78	-60.1	-63.3	6.2	0.00e+00	0	41	104	0	86	20980
2026-01-01 12:42:58.91	22.66	8.05	-60.1	-63.2	6.2	0.00e+00	0	41	104	0	86	20783
2026-01-01 12:43:01.93	22.75	8.34	-60.0	-63.2	6.2	0.00e+00	0	41	104	0	86	20705
2026-01-01 12:43:04.96	22.83	8.62	-60.0	-63.2	6.2	0.00e+00	0	41	104	0	86	20845
2026-01-01 12:43:07.99	22.92	8.91	-60.2	-63.4	6.2	0.00e+00	0	41	104	0	86	21133
2026-01-01 12:43:11.01	23.01	9.21	-60.2	-63.3	6.2	0.00e+00	0	41	104	0	86	21039
2026-01-01 12:43:14.03	23.11	9.51	-60.1	-63.3	6.2	0.00e+00	0	41	104	0	86	20967
2026-01-01 12:43:17.06	23.20	9.81	-60.1	-63.3	6.2	0.00e+00	0	41	104	0	86	20998
2026-01-01 12:43:20.08	23.30	10.12	-60.3	-63.4	6.2	0.00e+00	0	41	104	0	86	21337
2026-01-01 12:43:23.10	23.40	10.44	-60.3	-63.4	6.2	0.00e+00	0	42	104	0	86	21220
2026-01-01 12:43:26.13	23.50	10.76	-60.2	-63.4	6.2	0.00e+00	0	41	104	0	86	21170
2026-01-01 12:43:29.15	23.60	11.08	-60.2	-63.4	6.2	0.00e+00	0	41	104	0	86	21177
2026-01-01 12:43:32.18	23.71	11.41	-60.4	-63.5	6.2	0.00e+00	0	41	104	0	86	21539
2026-01-01 12:43:35.20	23.82	11.75	-60.3	-63.5	6.2	0.00e+00	0	41	104	0	86	21461
2026-01-01 12:43:38.22	23.93	12.09	-60.3	-63.5	6.2	0.00e+00	0	42	104	0	86	21393
2026-01-01 12:43:41.25	24.04	12.44	-60.3	-63.5	6.2	0.00e+00	0	42	104	0	86	21415
2026-01-01 12:43:44.27	24.16	12.79	-60.4	-63.6	6.2	0.00e+00	0	42	104	0	86	21666
2026-01-01 12:43:47.29	24.28	13.16	-60.4	-63.6	6.2	0.00e+00	0	42	104	0	86	21646
2026-01-01 12:43:50.32	24.40	13.53	-60.4	-63.6	6.2	0.00e+00	0	42	104	0	86	21653
2026-01-01 12:43:53.35	24.53	13.90	-60.4	-63.6	6.2	0.00e+00	0	42	104	0	86	21638
2026-01-01 12:43:56.37	24.66	14.29	-60.5	-63.6	6.2	0.00e+00	0	42	104	0	86	21838
2026-01-01 12:43:59.38	24.79	14.68	-60.5	-63.7	6.2	0.00e+00	0	42	104	0	86	21934
2026-01-01 12:44:02.41	24.93	15.08	-60.5	-63.6	6.2	0.00e+00	0	42	104	0	86	21782
2026-01-01 12:44:05.43	25.07	15.49	-60.4	-63.6	6.2	0.00e+00	0	42	104	0	86	21774
2026-01-01 12:44:08.45	25.22	15.90	-60.5	-63.7	6.2	0.00e+00	0	42	104	0	86	21997
2026-01-01 12:44:11.47	25.37	16.33	-60.6	-63.8	6.2	0.00e+00	0	42	104	0	86	22114
2026-01-01 12:44:14.48	25.52	16.76	-60.6	-63.7	6.2	0.00e+00	0	42	104	0	86	21984
2026-01-01 12:44:17.50	25.68	17.21	-60.5	-63.7	6.2	0.00e+00	0	42	104	0	86	21961
2026-01-01 12:44:20.52	25.84	17.67	-60.6	-63.7	6.2	0.00e+00	0	42	104	0	86	22095
2026-01-01 12:44:23.54	26.01	18.13	-60.6	-63.8	6.2	0.00e+00	0	42	104	0	86	22224
2026-01-01 12:44:26.57	26.19	18.61	-60.6	-63.8	6.2	0.00e+00	0	42	104	0	86	22180
2026-01-01 12:44:29.59	26.37	19.10	-60.6	-63.8	6.2	0.00e+00	0	42	104	0	86	22151
2026-01-01 12:44:32.61	26.56	19.60	-60.7	-63.9	6.2	0.00e+00	0	42	104	0	86	22380
2026-01-01 12:44:35.63	26.75	20.12	-60.7	-63.9	6.2	0.00e+00	0	42	104	0	86	22514
2026-01-01 12:44:38.66	26.96	20.65	-60.7	-63.9	6.2	0.00e+00	0	42	104	0	86	22442
2026-01-01 12:44:41.68	27.17	21.19	-60.7	-63.9	6.2	0.00e+00	0	42	104	0	86	22382
2026-01-01 12:44:44.70	27.39	21.75	-60.8	-63.9	6.2	0.00e+00	0	42	104	0	86	22513
2026-01-01 12:44:47.73	27.61	22.32	-60.8	-64.0	6.2	0.00e+00	0	42	104	0	87	21433
2026-01-01 12:44:50.74	27.85	22.90	-60.8	-63.9	6.2	0.00e+00	0	42	104	0	87	21284
2026-01-01 12:44:53.76	28.09	23.51	-60.8	-63.9	6.2	0.00e+00	0	42	104	0	87	21300
2026-01-01 12:44:56.79	28.35	24.13	-60.8	-64.0	6.2	0.00e+00	0	42	104	0	87	21433
2026-01-01 12:44:59.81	28.61	24.77	-60.9	-64.0	6.2	0.00e+00	0	42	104	0	87	21598
2026-01-01 12:45:02.84	28.89	25.43	-60.9	-64.0	6.2	0.00e+00	0	42	104	0	87	21522
2026-01-01 12:45:05.86	29.18	26.11	-60.9	-64.0	6.2	0.00e+00	0	42	104	0	87	21515
2026-01-01 12:45:08.89	29.49	26.81	-60.9	-64.1	6.2	0.00e+00	0	42	104	0	87	21636
2026-01-01 12:45:11.91	29.81	27.52	-61.0	-64.1	6.2	0.00e+00	0	42	104	0	87	21789
2026-01-01 12:45:14.93	30.14	28.27	-61.0	-64.1	6.2	0.00e+00	0	42	104	0	87	21777
2026-01-01 12:45:17.95	30.49	29.03	-60.9	-64.1	6.2	0.00e+00	0	42	104	0	87	21643
2026-01-01 12:45:20.98	30.87	29.82	-61.0	-64.1	6.2	0.00e+00	0	42	104	0	87	21770
2026-01-01 12:45:24.00	31.25	30.64	-61.1	-64.2	6.2	0.00e+00	0	42	104	0	87	21998
2026-01-01 12:45:27.03	31.67	31.48	-61.0	-64.2	6.2	0.00e+00	0	42	104	0	87	21934
2026-01-01 12:45:30.05	32.10	32.35	-61.0	-64.2	6.2	0.00e+00	0	42	104	0	87	21924
2026-01-01 12:45:33.08	32.56	33.25	-61.0	-64.2	6.2	0.00e+00	0	42	104	0	87	21990
2026-01-01 12:45:36.10	33.05	34.18	-61.1	-64.3	6.2	0.00e+00	0	42	104	0	87	22211
2026-01-01 12:45:39.12	33.56	35.13	-61.1	-64.3	6.2	0.00e+00	0	42	104	0	87	22170
2026-01-01 12:45:42.15	34.12	36.13	-61.1	-64.2	6.2	0.00e+00	0	42	104	0	87	22053
2026-01-01 12:45:45.17	34.70	37.15	-61.1	-64.3	6.2	0.00e+00	0	42	104	0	87	22226
2026-01-01 12:45:48.19	35.33	38.21	-61.2	-64.4	6.2	0.00e+00	0	42	104	0	87	22410
2026-01-01 12:45:51.22	36.00	39.30	-61.2	-64.4	6.2	0.00e+00	0	42	104	0	87	22428
2026-01-01 12:45:54.24	36.72	40.43	-61.2	-64.3	6.2	0.00e+00	0	42	104	0	87	22354
2026-01-01 12:45:57.26	37.49	41.60	-61.2	-64.3	6.2	0.00e+00	0	42	104	0	87	22337
2026-01-01 12:46:00.28	38.32	42.80	-61.3	-64.4	6.2	0.00e+00	0	42	104	0	87	22587
2026-01-01 12:46:03.31	39.23	44.05	-61.3	-64.4	6.2	0.00e+00	0	42	104	0	87	22597
2026-01-01 12:46:06.34	40.21	45.33	-61.3	-64.5	6.2	0.00e+00	0	42	104	0	87	22661
2026-01-01 12:46:09.36	41.27	46.65	-61.3	-64.4	6.2	0.00e+00	0	42	104	0	88	21182
2026-01-01 12:46:12.39	42.43	48.01	-61.3	-64.5	6.2	0.00e+00	0	43	104	0	88	21400
2026-01-01 12:46:15.41	43.70	49.40	-61.4	-64.6	6.2	0.00e+00	0	42	104	0	88	21633
2026-01-01 12:46:18.43	45.09	50.82	-61.4	-64.5	6.2	0.00e+00	0	42	104	0	88	21581
2026-01-01 12:46:21.45	46.63	52.27	-61.4	-64.5	6.2	0.00e+00	0	42	104	0	88	21454
2026-01-01 12:46:24.48	48.33	53.75	-61.4	-64.5	6.2	0.00e+00	0	42	104	0	88	21556
2026-01-01 12:46:27.50	50.21	55.25	-61.5	-64.6	6.2	0.00e+00	0	42	104	0	88	21747
2026-01-01 12:46:30.52	52.31	56.76	-61.5	-64.6	6.2	0.00e+00	0	42	104	0	88	21715
2026-01-01 12:46:33.53	54.64	58.27	-61.5	-64.6	6.2	0.00e+00	0	42	104	0	88	21738
2026-01-01 12:46:36.56	57.28	59.79	-61.5	-64.6	6.2	0.00e+00	0	42	104	0	88	21805
2026-01-01 12:46:39.58	60.24	61.28	-61.6	-64.7	6.2	0.00e+00	0	42	104	0	88	21957
2026-01-01 12:46:42.61	63.58	62.73	-61.6	-64.7	6.2	0.00e+00	0	42	104	0	88	21997
2026-01-01 12:46:45.62	67.32	64.12	-61.6	-64.7	6.2	0.00e+00	0	42	104	0	88	21996
2026-01-01 12:46:48.65	71.55	65.44	-61.5	-64.7	6.2	0.00e+00	0	42	104	0	88	21944
2026-01-01 12:46:51.65	76.25	66.63	-61.6	-64.7	6.2	0.00e+00	0	42	104	0	88	22037
2026-01-01 12:46:54.68	81.53	67.69	-61.6	-64.8	6.2	0.00e+00	0	42	104	0	88	22152
2026-01-01 12:46:57.69	87.29	68.57	-61.6	-64.7	6.2	0.00e+00	0	42	104	0	88	22070
2026-01-01 12:47:00.72	93.57	69.24	-61.6	-64.8	6.2	0.00e+00	0	42	104	0	88	22150
2026-01-01 12:47:03.74	100.20	69.67	-61.7	-64.8	6.2	0.00e+00	0	43	104	0	88	22298
2026-01-01 12:47:06.76	107.04	69.84	-61.7	-64.8	6.2	0.00e+00	0	42	104	0	88	22198
2026-01-01 12:47:09.79	113.94	69.74	-61.6	-64.8	6.2	0.00e+00	0	43	104	0	88	22132
2026-01-01 12:47:12.81	120.64	69.38	-61.6	-64.8	6.2	0.00e+00	0	43	104	0	88	22178
2026-01-01 12:47:15.83	127.02	68.77	-61.7	-64.8	6.2	0.00e+00	0	42	104	0	88	22234
2026-01-01 12:47:18.85	132.94	67.95	-61.6	-64.8	6.2	0.00e+00	0	43	104	0	88	22187
2026-01-01 12:47:21.89	138.39	66.93	-61.6	-64.8	6.2	0.00e+00	0	42	104	0	88	22152
2026-01-01 12:47:24.91	143.26	65.76	-61.6	-64.7	6.2	0.00e+00	0	42	104	0	88	22024
2026-01-01 12:47:27.93	147.62	64.47	-61.6	-64.8	6.2	0.00e+00	0	42	104	0	88	22225
2026-01-01 12:47:30.94	151.48	63.10	-61.6	-64.7	6.2	0.00e+00	0	42	104	0	88	22109
2026-01-01 12:47:33.96	154.92	61.66	-61.6	-64.7	6.2	0.00e+00	0	43	104	0	88	22075
2026-01-01 12:47:36.99	157.98	60.17	-61.6	-64.7	6.2	0.00e+00	0	43	104	0	88	22075
2026-01-01 12:47:40.02	160.71	58.66	-61.6	-64.8	6.2	0.00e+00	0	43	104	0	88	22147
2026-01-01 12:47:43.04	163.12	57.14	-61.6	-64.8	6.2	0.00e+00	0	42	104	0	88	22175
2026-01-01 12:47:46.06	165.28	55.62	-61.6	-64.7	6.2	0.00e+00	0	43	104	0	88	22057
2026-01-01 12:47:49.09	167.23	54.11	-61.6	-64.7	6.2	0.00e+00	0	42	104	0	88	22018
2026-01-01 12:47:52.11	168.97	52.62	-61.6	-64.7	6.2	0.00e+00	0	43	104	0	88	22026
2026-01-01 12:47:55.14	170.55	51.15	-61.6	-64.7	6.2	0.00e+00	0	43	104	0	88	21975
2026-01-01 12:47:58.16	171.98	49.72	-61.5	-64.7	6.2	0.00e+00	0	43	104	0	88	21904
2026-01-01 12:48:01.17	173.27	48.32	-61.5	-64.6	6.2	0.00e+00	0	43	104	0	88	21854
2026-01-01 12:48:04.20	174.46	46.95	-61.5	-64.6	6.2	0.00e+00	0	43	104	0	88	21826
2026-01-01 12:48:07.23	175.55	45.62	-61.5	-64.6	6.2	0.00e+00	0	43	104	0	88	21805
2026-01-01 12:48:10.25	176.55	44.32	-61.5	-64.6	6.2	0.00e+00	0	43	104	0	88	21782
2026-01-01 12:48:13.28	177.47	43.06	-61.4	-64.6	6.2	0.00e+00	0	43	104	0	88	21645
2026-01-01 12:48:16.29	178.32	41.85	-61.4	-64.6	6.2	0.00e+00	0	43	104	0	88	21629
2026-01-01 12:48:19.31	179.11	40.67	-61.4	-64.6	6.2	0.00e+00	0	42	104	0	88	21661
2026-01-01 12:48:22.33	179.84	39.53	-61.4	-64.5	6.2	0.00e+00	0	43	104	0	88	21502
2026-01-01 12:48:25.35	180.53	38.42	-61.3	-64.5	6.2	0.00e+00	0	43	104	0	88	21372
2026-01-01 12:48:28.37	181.16	37.35	-61.3	-64.5	6.2	0.00e+00	0	42	104	0	88	21389
2026-01-01 12:48:31.39	181.76	36.32	-61.3	-64.5	6.2	0.00e+00	0	43	104	0	88	21405
2026-01-01 12:48:34.41	182.32	35.32	-61.3	-64.4	6.2	0.00e+00	0	42	104	0	88	21278
2026-01-01 12:48:37.43	182.84	34.35	-61.2	-64.4	6.2	0.00e+00	0	43	104	0	88	21124
2026-01-01 12:48:40.45	183.34	33.41	-61.2	-64.4	6.2	0.00e+00	0	42	104	0	88	21156
2026-01-01 12:48:43.48	183.80	32.50	-61.2	-64.4	6.2	0.00e+00	0	42	104	0	88	21187
2026-01-01 12:48:46.49	184.24	31.62	-61.2	-64.3	6.2	0.00e+00	0	42	104	0	88	21006
2026-01-01 12:48:49.51	184.66	30.77	-61.1	-64.3	6.2	0.00e+00	0	42	104	0	88	20987
2026-01-01 12:48:52.53	185.05	29.95	-61.1	-64.2	6.2	0.00e+00	0	42	104	0	88	20857
2026-01-01 12:48:55.55	185.43	29.15	-61.1	-64.3	6.2	0.00e+00	0	43	104	0	88	20929
2026-01-01 12:48:58.57	185.78	28.38	-61.1	-64.2	6.2	0.00e+00	0	43	104	0	88	20756
2026-01-01 12:49:01.60	186.12	27.62	-61.0	-64.2	6.2	0.00e+00	0	43	104	0	88	20733
2026-01-01 12:49:04.62	186.45	26.90	-61.1	-64.2	6.2	0.00e+00	0	43	104	0	88	20710
2026-01-01 12:49:07.64	186.75	26.19	-61.0	-64.2	6.2	0.00e+00	0	42	104	0	88	20693
2026-01-01 12:49:10.67	187.05	25.51	-61.0	-64.1	6.2	0.00e+00	0	43	104	0	88	20603
2026-01-01 12:49:13.70	187.33	24.84	-61.0	-64.1	6.2	0.00e+00	0	43	104	0	88	20494
2026-01-01 12:49:16.73	187.60	24.19	-61.0	-64.1	6.2	0.00e+00	0	43	104	0	88	20499
2026-01-01 12:49:19.74	187.86	23.57	-60.9	-64.1	6.2	0.00e+00	0	42	104	0	88	20517
2026-01-01 12:49:22.77	188.11	22.95	-60.9	-64.1	6.2	0.00e+00	0	43	104	0	88	20423
2026-01-01 12:49:25.79	188.34	22.36	-60.9	-64.0	6.2	0.00e+00	0	42	104	0	88	20303
2026-01-01 12:49:28.81	188.57	21.78	-60.9	-64.0	6.2	0.00e+00	0	43	104	0	88	20324
2026-01-01 12:49:31.83	188.79	21.22	-60.9	-64.0	6.2	0.00e+00	0	43	104	0	88	20248
2026-01-01 12:49:34.86	189.00	20.67	-60.8	-64.0	6.2	0.00e+00	0	43	104	0	88	20233
2026-01-01 12:49:37.88	189.20	20.14	-60.8	-63.9	6.2	0.00e+00	0	43	104	0	88	20095
2026-01-01 12:49:40.90	189.40	19.62	-60.8	-63.9	6.2	0.00e+00	0	43	104	0	88	20152
2026-01-01 12:49:43.92	189.59	19.12	-60.8	-63.9	6.2	0.00e+00	0	43	104	0	88	20114
2026-01-01 12:49:46.95	189.77	18.62	-60.8	-63.9	6.2	0.00e+00	0	43	104	0	88	20003
2026-01-01 12:49:49.97	189.95	18.14	-60.7	-63.9	6.2	0.00e+00	0	43	104	0	88	19949
2026-01-01 12:49:52.99	190.12	17.67	-60.7	-63.8	6.2	0.00e+00	0	42	104	0	88	19873
2026-01-01 12:49:56.01	190.28	17.21	-60.7	-63.8	6.2	0.00e+00	0	42	104	0	88	19874
2026-01-01 12:49:59.04	190.45	16.76	-60.7	-63.8	6.2	0.00e+00	0	43	104	0	88	19784
2026-01-01 12:50:02.06	190.60	16.32	-60.6	-63.8	6.2	0.00e+00	0	43	104	0	87	20923
2026-01-01 12:50:05.09	190.75	15.89	-60.6	-63.8	6.2	0.00e+00	0	42	104	0	87	20978
2026-01-01 12:50:08.11	190.90	15.47	-60.6	-63.7	6.2	0.00e+00	0	43	104	0	87	20797
2026-01-01 12:50:11.14	191.04	15.05	-60.6	-63.7	6.2	0.00e+00	0	43	104	0	87	20788
2026-01-01 12:50:14.16	191.18	14.65	-60.5	-63.7	6.2	0.00e+00	0	42	104	0	87	20755
2026-01-01 12:50:17.19	191.31	14.25	-60.5	-63.7	6.2	0.00e+00	0	43	104	0	87	20704
2026-01-01 12:50:20.20	191.44	13.87	-60.5	-63.7	6.2	0.00e+00	0	43	104	0	87	20690
2026-01-01 12:50:23.24	191.57	13.49	-60.5	-63.6	6.2	0.00e+00	0	43	104	0	87	20577
2026-01-01 12:50:26.25	191.69	13.12	-60.4	-63.6	6.2	0.00e+00	0	43	104	0	87	20481
2026-01-01 12:50:29.28	191.81	12.75	-60.4	-63.6	6.2	0.00e+00	0	43	104	0	87	20457
2026-01-01 12:50:32.30	191.92	12.40	-60.4	-63.6	6.2	0.00e+00	0	43	104	0	87	20457
2026-01-01 12:50:35.32	192.04	12.04	-60.4	-63.5	6.2	0.00e+00	0	42	104	0	87	20379
2026-01-01 12:50:38.34	192.15	11.70	-60.3	-63.5	6.2	0.00e+00	0	43	104	0	87	20240
2026-01-01 12:50:41.37	192.26	11.36	-60.3	-63.5	6.2	0.00e+00	0	42	104	0	87	20221
2026-01-01 12:50:44.39	192.36	11.03	-60.3	-63.4	6.2	0.00e+00	0	43	104	0	87	20162
2026-01-01 12:50:47.41	192.46	10.70	-60.3	-63.4	6.2	0.00e+00	0	43	104	0	87	20062
2026-01-01 12:50:50.43	192.56	10.38	-60.2	-63.4	6.2	0.00e+00	0	43	104	0	87	20014
2026-01-01 12:50:53.45	192.66	10.06	-60.2	-63.4	6.2	0.00e+00	0	43	104	0	86	21195
2026-01-01 12:50:56.47	192.76	9.75	-60.2	-63.3	6.2	0.00e+00	0	43	104	0	86	21111
2026-01-01 12:50:59.50	192.85	9.45	-59.9	-63.3	6.2	0.00e+00	0	43	104	0	86	20964
2026-01-01 12:51:02.52	192.94	9.15	-60.1	-63.3	6.2	0.00e+00	0	43	104	0	86	20898
2026-01-01 12:51:05.54	193.03	8.85	-60.1	-63.2	6.2	0.00e+00	0	43	104	0	86	20817
2026-01-01 12:51:08.56	193.12	8.56	-60.1	-63.2	6.2	0.00e+00	0	43	104	0	86	20825
2026-01-01 12:51:11.58	193.21	8.27	-60.0	-63.1	6.2	0.00e+00	0	43	104	0	86	20581
2026-01-01 12:51:14.60	193.29	7.99	-60.0	-63.1	6.2	0.00e+00	0	42	104	0	85	21821
2026-01-01 12:51:17.62	193.37	7.71	-59.9	-63.1	6.2	0.00e+00	0	43	104	0	85	21669
2026-01-01 12:51:20.65	193.45	7.43	-60.0	-63.1	6.2	0.00e+00	0	43	104	0	85	21721
2026-01-01 12:51:23.66	193.53	7.16	-59.8	-63.0	6.2	0.00e+00	0	43	104	0	85	21446
2026-01-01 12:51:26.68	193.61	6.89	-59.9	-63.0	6.2	0.00e+00	0	43	104	0	85	21528
2026-01-01 12:51:29.70	193.68	6.63	-59.8	-62.9	6.2	0.00e+00	0	43	104	0	85	21243
2026-01-01 12:51:32.73	193.76	6.37	-59.8	-63.0	6.2	0.00e+00	0	43	104	0	85	21370
2026-01-01 12:51:35.75	193.83	6.11	-59.6	-62.8	6.2	0.00e+00	0	43	104	0	85	20916
2026-01-01 12:51:38.77	193.90	5.86	-59.7	-62.8	6.2	0.00e+00	0	43	104	0	85	21030
2026-01-01 12:51:41.79	193.98	5.61	-59.6	-62.7	6.2	0.00e+00	0	43	104	0	85	20813
2026-01-01 12:51:44.81	194.04	5.36	-59.7	-62.8	6.2	0.00e+00	0	43	104	0	84	22276
2026-01-01 12:51:47.83	194.11	5.11	-59.4	-62.5	6.2	0.00e+00	0	43	104	0	84	21583
2026-01-01 12:51:50.85	194.18	4.87	-60.4	-63.5	6.2	0.00e+00	0	43	104	0	86	21500
2026-01-01 12:51:53.88	194.25	4.63	-61.1	-64.3	6.2	0.00e+00	0	43	104	0	87	22117
2026-01-01 12:51:56.90	194.31	4.40	-61.5	-64.6	6.2	0.00e+00	0	43	104	0	88	21667
2026-01-01 12:51:59.92	194.37	4.16	-61.7	-64.8	6.2	0.00e+00	0	43	104	0	88	22267
2026-01-01 12:52:02.95	194.44	3.93	-61.8	-64.9	6.2	0.00e+00	0	43	104	0	88	22603
2026-01-01 12:52:05.98	194.50	3.70	-61.9	-65.0	6.2	0.00e+00	0	43	104	0	89	21503
2026-01-01 12:52:09.00	194.56	3.48	-61.9	-65.1	6.2	0.00e+00	0	43	104	0	89	21712
2026-01-01 12:52:12.03	194.62	3.25	-62.0	-65.2	6.2	0.00e+00	0	43	104	0	89	21900
2026-01-01 12:52:15.04	194.68	3.03	-61.9	-65.0	6.2	0.00e+00	0	43	104	0	89	21578
2026-01-01 12:52:18.06	194.73	2.81	-61.9	-65.0	6.2	0.00e+00	0	43	104	0	89	21525
2026-01-01 12:52:21.09	194.79	2.59	-61.9	-65.0	6.2	0.00e+00	0	43	104	0	89	21501
2026-01-01 12:52:24.12	194.85	2.38	-61.8	-64.9	6.2	0.00e+00	0	42	104	0	89	21358
2026-01-01 12:52:27.15	194.90	2.17	-61.8	-64.9	6.2	0.00e+00	0	43	104	0	89	21341
2026-01-01 12:52:30.17	194.96	1.96	-61.8	-64.9	6.2	0.00e+00	0	43	104	0	89	21241

#Closed at: 2026-01-01 12:52:30
#Recorded file [0 MB]: D:/lorett/data/31004_260101_154143.dat