passes_logs/2026/01/01/R3.2S_Murmansk/R3.2S_Murmansk__20260101_121323_SUOMI_NPP_rec.log

#Pass ID: 20260101_121323_SUOMI NPP
#Satellite: SUOMI NPP
#Configuration: NPP
#almurnet v.1.7.20251203
#Start time: 2026-01-01 12:13:23

#Version: 2.2.20231116
#Station: R3.2S_Murmansk
#Location: 33.079688 lon 68.888172 lat
#TLE: 1 37849U 11061A   26001.07732418  .00000182  00000+0  10735-3 0  9990
#TLE: 2 37849  98.7795 303.2470 0002580  87.2016 272.9455 14.19520779734739

#Time	Az	El	Level	Level2	SNR	BER	BlckErr	Temp	State	Recorded	gain1	gain2
2026-01-01 12:13:23.76	218.73	2.03	-60.0	-76.0	3.8	1.49e+00	0	31	0	0	85	23693
2026-01-01 12:13:26.79	218.96	2.19	-60.0	-75.9	3.8	1.49e+00	0	31	104	0	85	23520
2026-01-01 12:13:29.80	219.20	2.35	-60.0	-75.9	3.8	1.49e+00	0	31	104	0	85	23518
2026-01-01 12:13:32.83	219.44	2.51	-60.0	-75.9	3.8	1.49e+00	0	32	104	0	85	23487
2026-01-01 12:13:35.85	219.68	2.68	-60.0	-76.0	3.8	1.49e+00	0	32	104	0	85	23630
2026-01-01 12:13:38.88	219.92	2.84	-60.0	-75.9	3.8	1.49e+00	0	32	104	0	85	23500
2026-01-01 12:13:41.90	220.17	3.00	-60.0	-75.7	3.8	1.49e+00	0	32	104	0	85	22974
2026-01-01 12:13:44.93	220.42	3.17	-60.0	-75.9	3.8	1.49e+00	0	32	104	0	85	23364
2026-01-01 12:13:47.96	220.67	3.33	-60.0	-76.0	3.8	1.49e+00	0	32	104	0	85	23657
2026-01-01 12:13:50.98	220.93	3.50	-60.0	-75.8	3.8	1.49e+00	0	32	104	0	85	23298
2026-01-01 12:13:54.01	221.19	3.67	-59.9	-75.5	3.8	1.49e+00	0	32	104	0	85	22516
2026-01-01 12:13:57.04	221.45	3.83	-59.9	-75.6	3.8	1.49e+00	0	32	104	0	85	22528
2026-01-01 12:14:00.06	221.71	4.00	-59.9	-75.5	3.8	1.49e+00	0	32	104	0	85	22274
2026-01-01 12:14:03.08	221.98	4.17	-59.9	-75.5	3.8	1.49e+00	0	32	104	0	85	22306
2026-01-01 12:14:06.11	222.25	4.34	-60.0	-75.9	3.8	1.49e+00	0	32	104	0	85	23544
2026-01-01 12:14:09.13	222.52	4.50	-59.9	-74.5	3.8	1.49e+00	0	32	104	0	85	20008
2026-01-01 12:14:12.16	222.79	4.67	-59.9	-74.2	3.8	1.49e+00	0	32	104	0	85	19344
2026-01-01 12:14:15.18	223.07	4.84	-59.9	-74.5	3.8	1.49e+00	0	32	104	0	85	19906
2026-01-01 12:14:18.20	223.35	5.01	-59.6	-69.8	5.1	7.85e-01	0	32	0	2097152	85	11672
2026-01-01 12:14:21.22	223.64	5.18	-57.3	-61.2	12.3	8.54e-02	0	32	0	4194304	80	5764
2026-01-01 12:14:24.24	223.92	5.36	-56.1	-59.1	13.8	0.00e+00	0	32	0	9437184	78	5057
2026-01-01 12:14:27.26	224.22	5.53	-55.5	-58.1	14.4	0.00e+00	0	33	0	15728640	77	4806
2026-01-01 12:14:30.28	224.51	5.70	-55.5	-58.1	14.5	0.00e+00	0	33	0	20971520	77	4767
2026-01-01 12:14:33.30	224.81	5.87	-55.5	-58.2	14.4	0.00e+00	0	33	0	26214400	77	4822
2026-01-01 12:14:36.31	225.11	6.05	-55.6	-58.2	14.4	0.00e+00	0	33	0	32505856	77	4844
2026-01-01 12:14:39.34	225.41	6.22	-55.5	-58.1	14.5	0.00e+00	0	33	0	37748736	77	4768
2026-01-01 12:14:42.35	225.72	6.39	-55.7	-58.4	14.3	0.00e+00	0	33	0	44040192	77	4951
2026-01-01 12:14:45.38	226.03	6.57	-55.8	-58.5	14.3	0.00e+00	0	33	0	49283072	77	5030
2026-01-01 12:14:48.39	226.34	6.74	-55.9	-58.6	14.2	0.00e+00	0	33	0	54525952	77	5079
2026-01-01 12:14:51.42	226.66	6.92	-55.9	-58.6	14.2	0.00e+00	0	33	0	60817408	77	5095
2026-01-01 12:14:54.44	226.99	7.10	-55.8	-58.5	14.3	0.00e+00	0	33	0	66060288	77	5009
2026-01-01 12:14:57.44	227.31	7.27	-55.6	-58.2	14.5	0.00e+00	0	33	0	72351744	77	4841
2026-01-01 12:15:00.47	227.64	7.45	-55.6	-58.2	14.5	0.00e+00	0	33	0	77594624	77	4829
2026-01-01 12:15:03.50	227.97	7.63	-55.6	-58.2	14.5	0.00e+00	0	33	0	82837504	77	4836
2026-01-01 12:15:06.52	228.31	7.81	-55.5	-58.0	14.6	0.00e+00	0	33	0	89128960	77	4726
2026-01-01 12:15:09.55	228.65	7.99	-55.4	-57.8	14.8	0.00e+00	0	33	0	94371840	77	4642
2026-01-01 12:15:12.57	229.00	8.17	-55.2	-57.6	14.9	0.00e+00	0	33	0	100663296	76	4768
2026-01-01 12:15:15.59	229.35	8.34	-54.8	-57.0	15.1	0.00e+00	0	33	0	105906176	76	4483
2026-01-01 12:15:18.61	229.70	8.52	-54.8	-57.0	15.2	0.00e+00	0	33	0	112197632	76	4474
2026-01-01 12:15:21.64	230.06	8.71	-54.8	-57.0	15.2	0.00e+00	0	33	0	117440512	76	4457
2026-01-01 12:15:24.65	230.42	8.88	-54.8	-56.9	15.2	0.00e+00	0	33	0	122683392	76	4441
2026-01-01 12:15:27.67	230.79	9.07	-54.9	-57.1	15.2	0.00e+00	0	33	0	128974848	76	4520
2026-01-01 12:15:30.70	231.16	9.25	-54.7	-56.9	15.2	0.00e+00	0	33	0	134217728	75	4696
2026-01-01 12:15:33.72	231.54	9.43	-54.7	-56.9	15.3	0.00e+00	0	33	0	140509184	75	4658
2026-01-01 12:15:36.74	231.92	9.61	-54.4	-56.5	15.4	0.00e+00	0	33	0	145752064	75	4490
2026-01-01 12:15:39.76	232.30	9.79	-54.5	-56.6	15.4	0.00e+00	0	33	0	150994944	75	4514
2026-01-01 12:15:42.78	232.69	9.97	-54.6	-56.7	15.3	0.00e+00	0	33	0	157286400	75	4574
2026-01-01 12:15:45.80	233.09	10.16	-54.5	-56.7	15.4	0.00e+00	0	33	0	162529280	75	4552
2026-01-01 12:15:48.83	233.49	10.34	-54.6	-56.7	15.3	0.00e+00	0	33	0	168820736	75	4597
2026-01-01 12:15:51.84	233.89	10.52	-54.5	-56.5	15.4	0.00e+00	0	33	0	174063616	75	4488
2026-01-01 12:15:54.87	234.30	10.70	-54.2	-56.2	15.6	0.00e+00	0	33	0	179306496	75	4330
2026-01-01 12:15:57.87	234.71	10.89	-54.2	-56.3	15.6	0.00e+00	0	33	0	185597952	74	4600
2026-01-01 12:16:00.89	235.13	11.07	-54.3	-56.4	15.5	0.00e+00	0	33	0	190840832	74	4653
2026-01-01 12:16:03.92	235.55	11.25	-54.3	-56.4	15.5	0.00e+00	0	33	0	197132288	74	4674
2026-01-01 12:16:06.93	235.98	11.43	-54.6	-56.7	15.4	0.00e+00	0	33	0	202375168	74	4838
2026-01-01 12:16:09.96	236.41	11.62	-54.7	-56.9	15.3	0.00e+00	0	33	0	207618048	74	4945
2026-01-01 12:16:12.97	236.85	11.80	-54.6	-56.7	15.4	0.00e+00	0	33	0	213909504	74	4867
2026-01-01 12:16:16.00	237.30	11.98	-54.4	-56.5	15.5	0.00e+00	0	33	0	219152384	74	4713
2026-01-01 12:16:19.02	237.74	12.16	-54.5	-56.6	15.4	0.00e+00	0	33	0	225443840	74	4787
2026-01-01 12:16:22.03	238.20	12.34	-54.4	-56.5	15.6	0.00e+00	0	33	0	230686720	74	4721
2026-01-01 12:16:25.06	238.66	12.53	-54.2	-56.1	15.7	0.00e+00	0	33	0	235929600	74	4520
2026-01-01 12:16:28.06	239.12	12.71	-53.9	-55.8	15.9	0.00e+00	0	33	0	242221056	74	4353
2026-01-01 12:16:31.09	239.59	12.89	-53.7	-55.6	15.9	0.00e+00	0	33	0	247463936	73	4516
2026-01-01 12:16:34.11	240.07	13.07	-53.9	-55.8	15.8	0.00e+00	0	33	0	253755392	73	4629
2026-01-01 12:16:37.14	240.56	13.25	-54.0	-55.9	15.8	0.00e+00	0	33	0	258998272	73	4684
2026-01-01 12:16:40.15	241.04	13.43	-54.1	-56.0	15.7	0.00e+00	0	33	0	264241152	73	4739
2026-01-01 12:16:43.17	241.54	13.61	-54.0	-55.9	15.8	0.00e+00	0	33	0	270532608	73	4669
2026-01-01 12:16:46.19	242.04	13.79	-54.1	-56.0	15.7	0.00e+00	0	33	0	275775488	73	4755
2026-01-01 12:16:49.22	242.54	13.96	-54.5	-56.5	15.6	0.00e+00	0	33	0	282066944	74	4734
2026-01-01 12:16:52.23	243.05	14.14	-54.3	-56.3	15.6	0.00e+00	0	33	0	287309824	74	4641
2026-01-01 12:16:55.26	243.57	14.32	-53.8	-55.6	15.9	0.00e+00	0	33	0	292552704	74	4284
2026-01-01 12:16:58.27	244.09	14.49	-53.9	-55.8	15.9	0.00e+00	0	33	0	298844160	73	4635
2026-01-01 12:17:01.29	244.62	14.66	-54.2	-56.1	15.7	0.00e+00	0	33	0	304087040	73	4793
2026-01-01 12:17:04.31	245.16	14.84	-54.0	-55.9	15.8	0.00e+00	0	33	0	310378496	73	4669
2026-01-01 12:17:07.33	245.70	15.01	-53.7	-55.5	16.0	0.00e+00	0	33	0	315621376	73	4453
2026-01-01 12:17:10.36	246.25	15.18	-53.6	-55.4	16.0	0.00e+00	0	33	0	320864256	73	4399
2026-01-01 12:17:13.38	246.80	15.35	-53.6	-55.4	16.0	0.00e+00	0	33	0	327155712	73	4417
2026-01-01 12:17:16.40	247.36	15.52	-53.5	-55.3	16.1	0.00e+00	0	33	0	332398592	73	4353
2026-01-01 12:17:19.43	247.93	15.69	-53.6	-55.4	16.0	0.00e+00	0	33	0	338690048	73	4401
2026-01-01 12:17:22.46	248.50	15.85	-53.8	-55.7	15.9	0.00e+00	0	33	0	343932928	73	4547
2026-01-01 12:17:25.49	249.08	16.02	-53.6	-55.4	16.1	0.00e+00	0	33	0	349175808	73	4407
2026-01-01 12:17:28.50	249.67	16.18	-53.6	-55.4	16.1	0.00e+00	0	33	0	355467264	73	4404
2026-01-01 12:17:31.52	250.26	16.34	-54.0	-55.9	15.8	0.00e+00	0	33	0	360710144	73	4674
2026-01-01 12:17:34.54	250.85	16.49	-54.0	-55.9	15.9	0.00e+00	0	33	0	367001600	73	4655
2026-01-01 12:17:37.55	251.45	16.65	-54.0	-55.8	15.9	0.00e+00	0	33	0	372244480	73	4635
2026-01-01 12:17:40.58	252.06	16.81	-54.4	-56.4	15.7	0.00e+00	0	33	0	377487360	74	4677
2026-01-01 12:17:43.60	252.68	16.96	-54.6	-56.6	15.6	0.00e+00	0	33	0	383778816	74	4801
2026-01-01 12:17:46.63	253.30	17.11	-54.6	-56.6	15.6	0.00e+00	0	33	0	389021696	74	4789
2026-01-01 12:17:49.65	253.93	17.26	-54.8	-56.9	15.5	0.00e+00	0	33	0	395313152	74	4942
2026-01-01 12:17:52.68	254.56	17.40	-54.9	-57.0	15.4	0.00e+00	0	33	0	400556032	75	4751
2026-01-01 12:17:55.70	255.20	17.54	-55.0	-57.2	15.3	0.00e+00	0	33	0	405798912	75	4850
2026-01-01 12:17:58.72	255.84	17.68	-55.2	-57.4	15.2	0.00e+00	0	33	0	412090368	75	4937
2026-01-01 12:18:01.75	256.50	17.82	-55.4	-57.7	15.1	0.00e+00	0	33	0	417333248	75	5101
2026-01-01 12:18:04.77	257.15	17.96	-55.6	-57.9	15.0	0.00e+00	0	33	0	423624704	76	4979
2026-01-01 12:18:07.79	257.81	18.09	-55.1	-57.2	15.4	0.00e+00	0	33	0	428867584	76	4578
2026-01-01 12:18:10.81	258.48	18.22	-54.5	-56.5	15.6	0.00e+00	0	33	0	434110464	75	4492
2026-01-01 12:18:13.82	259.15	18.34	-54.7	-56.7	15.5	0.00e+00	0	33	0	440401920	75	4592
2026-01-01 12:18:16.85	259.83	18.46	-54.1	-56.2	15.7	0.00e+00	0	33	0	445644800	74	4558
2026-01-01 12:18:19.87	260.51	18.58	-54.0	-56.5	15.6	0.00e+00	0	33	0	451936256	74	4709
2026-01-01 12:18:22.90	261.20	18.70	-53.5	-56.4	15.4	0.00e+00	0	33	0	457179136	73	4959
2026-01-01 12:18:25.93	261.90	18.81	-53.7	-55.7	16.0	0.00e+00	0	33	0	462422016	73	4559
2026-01-01 12:18:28.93	262.59	18.92	-54.0	-55.8	16.0	0.00e+00	0	33	0	468713472	73	4647
2026-01-01 12:18:31.96	263.29	19.02	-53.9	-55.7	16.0	0.00e+00	0	33	0	473956352	73	4566
2026-01-01 12:18:34.98	264.00	19.12	-53.6	-55.4	16.1	0.00e+00	0	33	0	480247808	73	4392
2026-01-01 12:18:37.99	264.71	19.22	-53.4	-55.1	16.2	0.00e+00	0	33	0	485490688	73	4272
2026-01-01 12:18:41.04	265.43	19.31	-53.1	-54.7	16.3	0.00e+00	0	33	0	490733568	72	4335
2026-01-01 12:18:44.06	266.15	19.40	-53.3	-55.0	16.2	0.00e+00	0	33	0	497025024	72	4455
2026-01-01 12:18:47.08	266.88	19.49	-53.5	-55.2	16.2	0.00e+00	0	33	0	502267904	72	4596
2026-01-01 12:18:50.10	267.60	19.57	-53.4	-55.1	16.2	0.00e+00	0	33	0	508559360	72	4518
2026-01-01 12:18:53.12	268.34	19.64	-53.9	-55.7	16.1	0.00e+00	0	33	0	513802240	73	4591
2026-01-01 12:18:56.14	269.07	19.72	-53.6	-55.3	16.2	0.00e+00	0	33	0	519045120	73	4364
2026-01-01 12:18:59.15	269.81	19.78	-53.9	-55.6	16.1	0.00e+00	0	33	0	525336576	73	4532
2026-01-01 12:19:02.18	270.55	19.85	-53.3	-54.9	16.3	0.00e+00	0	33	0	530579456	73	4183
2026-01-01 12:19:05.20	271.29	19.90	-53.5	-55.1	16.2	0.00e+00	0	33	0	536870912	72	4540
2026-01-01 12:19:08.22	272.04	19.96	-54.2	-56.0	15.9	0.00e+00	0	33	0	542113792	73	4746
2026-01-01 12:19:11.24	272.79	20.01	-54.3	-56.1	15.9	0.00e+00	0	33	0	547356672	73	4813
2026-01-01 12:19:14.25	273.54	20.05	-54.7	-56.7	15.6	0.00e+00	0	33	0	553648128	74	4834
2026-01-01 12:19:17.27	274.29	20.09	-54.3	-56.1	15.9	0.00e+00	0	33	0	558891008	74	4531
2026-01-01 12:19:20.30	275.05	20.13	-54.0	-55.7	16.0	0.00e+00	0	33	0	565182464	74	4338
2026-01-01 12:19:23.32	275.80	20.15	-54.0	-55.7	16.1	0.00e+00	0	33	0	570425344	74	4339
2026-01-01 12:19:26.34	276.56	20.18	-53.7	-55.4	16.2	0.00e+00	0	33	0	575668224	73	4417
2026-01-01 12:19:29.36	277.32	20.20	-54.5	-56.4	15.8	0.00e+00	0	33	0	581959680	74	4674
2026-01-01 12:19:32.39	278.08	20.21	-54.9	-56.9	15.6	0.00e+00	0	33	0	587202560	75	4669
2026-01-01 12:19:35.41	278.84	20.22	-54.8	-56.9	15.6	0.00e+00	0	33	0	593494016	75	4656
2026-01-01 12:19:38.43	279.60	20.23	-54.8	-56.7	15.7	0.00e+00	0	33	0	598736896	75	4593
2026-01-01 12:19:41.45	280.36	20.23	-54.7	-56.7	15.7	0.00e+00	0	33	0	603979776	75	4556
2026-01-01 12:19:44.47	281.12	20.22	-55.1	-57.2	15.5	0.00e+00	0	33	0	610271232	75	4835
2026-01-01 12:19:47.49	281.88	20.21	-54.6	-56.6	15.7	0.00e+00	0	33	0	615514112	75	4530
2026-01-01 12:19:50.52	282.64	20.20	-54.9	-56.9	15.5	0.00e+00	0	33	0	621805568	75	4705
2026-01-01 12:19:53.54	283.40	20.18	-55.0	-57.1	15.5	0.00e+00	0	33	0	627048448	75	4778
2026-01-01 12:19:56.56	284.16	20.15	-55.0	-57.1	15.5	0.00e+00	0	33	0	632291328	75	4791
2026-01-01 12:19:59.58	284.91	20.13	-55.1	-57.2	15.5	0.00e+00	0	33	0	638582784	75	4837
2026-01-01 12:20:02.59	285.66	20.09	-54.6	-56.6	15.8	0.00e+00	0	33	0	643825664	75	4496
2026-01-01 12:20:05.61	286.42	20.05	-54.0	-55.8	16.1	0.00e+00	0	33	0	650117120	74	4370
2026-01-01 12:20:08.63	287.17	20.01	-54.1	-55.9	16.0	0.00e+00	0	33	0	655360000	74	4400
2026-01-01 12:20:11.65	287.91	19.96	-54.6	-56.6	15.8	0.00e+00	0	33	0	660602880	74	4763
2026-01-01 12:20:14.67	288.66	19.90	-54.5	-56.4	15.8	0.00e+00	0	33	0	666894336	74	4653
2026-01-01 12:20:17.69	289.40	19.85	-54.4	-56.2	15.9	0.00e+00	0	33	0	672137216	74	4587
2026-01-01 12:20:20.71	290.14	19.78	-54.3	-56.1	15.9	0.00e+00	0	33	0	678428672	74	4518
2026-01-01 12:20:23.74	290.88	19.72	-54.4	-56.2	15.9	0.00e+00	0	33	0	683671552	74	4576
2026-01-01 12:20:26.75	291.61	19.65	-54.0	-55.7	16.1	0.00e+00	0	33	0	688914432	74	4336
2026-01-01 12:20:29.77	292.34	19.57	-54.2	-56.1	16.0	0.00e+00	0	33	0	695205888	74	4511
2026-01-01 12:20:32.79	293.07	19.49	-54.4	-56.2	15.9	0.00e+00	0	33	0	700448768	74	4591
2026-01-01 12:20:35.81	293.79	19.40	-54.4	-56.2	15.9	0.00e+00	0	33	0	706740224	74	4587
2026-01-01 12:20:38.84	294.51	19.32	-55.2	-57.3	15.4	0.00e+00	0	33	0	711983104	75	4912
2026-01-01 12:20:41.86	295.23	19.22	-54.7	-56.7	15.7	0.00e+00	0	33	0	717225984	75	4596
2026-01-01 12:20:44.89	295.94	19.13	-53.9	-55.6	16.1	0.00e+00	0	33	0	723517440	74	4275
2026-01-01 12:20:47.91	296.64	19.03	-54.2	-56.0	16.0	0.00e+00	0	33	0	728760320	74	4487
2026-01-01 12:20:50.93	297.35	18.92	-53.7	-55.4	16.2	0.00e+00	0	33	0	735051776	73	4405
2026-01-01 12:20:53.96	298.04	18.81	-53.3	-55.0	16.3	0.00e+00	0	33	0	740294656	72	4468
2026-01-01 12:20:56.98	298.73	18.70	-53.9	-55.7	16.1	0.00e+00	0	33	0	746586112	73	4591
2026-01-01 12:21:00.00	299.42	18.59	-53.5	-55.2	16.3	0.00e+00	0	33	0	751828992	73	4323
2026-01-01 12:21:03.02	300.10	18.47	-53.2	-54.8	16.4	0.00e+00	0	33	0	757071872	72	4371
2026-01-01 12:21:06.05	300.78	18.35	-53.5	-55.2	16.3	0.00e+00	0	33	0	763363328	72	4573
2026-01-01 12:21:09.08	301.45	18.22	-53.6	-55.3	16.2	0.00e+00	0	33	0	768606208	72	4631
2026-01-01 12:21:12.10	302.12	18.09	-53.6	-55.4	16.2	0.00e+00	0	33	0	774897664	72	4675
2026-01-01 12:21:15.13	302.78	17.96	-54.3	-56.2	15.9	0.00e+00	0	33	0	780140544	73	4847
2026-01-01 12:21:18.15	303.43	17.83	-54.1	-55.9	16.0	0.00e+00	0	33	0	785383424	73	4696
2026-01-01 12:21:21.17	304.08	17.69	-53.9	-55.8	16.0	0.00e+00	0	33	0	791674880	73	4608
2026-01-01 12:21:24.19	304.72	17.55	-53.9	-55.7	16.0	0.00e+00	0	34	0	796917760	73	4559
2026-01-01 12:21:27.21	305.36	17.41	-54.2	-56.1	15.9	0.00e+00	0	34	0	803209216	73	4788
2026-01-01 12:21:30.22	305.99	17.27	-54.9	-56.9	15.5	0.00e+00	0	33	0	808452096	74	4971
2026-01-01 12:21:33.24	306.61	17.12	-54.7	-56.7	15.7	0.00e+00	0	33	0	813694976	74	4818
2026-01-01 12:21:36.26	307.23	16.97	-54.9	-57.0	15.5	0.00e+00	0	34	0	819986432	74	5006
2026-01-01 12:21:39.29	307.84	16.82	-54.4	-56.3	15.8	0.00e+00	0	33	0	825229312	75	4369
2026-01-01 12:21:42.31	308.45	16.67	-54.1	-56.0	16.0	0.00e+00	0	33	0	831520768	74	4456
2026-01-01 12:21:45.33	309.05	16.51	-54.5	-56.5	15.7	0.00e+00	0	33	0	836763648	74	4715
2026-01-01 12:21:48.35	309.65	16.35	-55.1	-57.2	15.4	0.00e+00	0	33	0	842006528	75	4853
2026-01-01 12:21:51.38	310.24	16.19	-55.7	-58.0	15.0	0.00e+00	0	33	0	848297984	76	5018
2026-01-01 12:21:54.39	310.82	16.03	-55.3	-57.6	15.2	0.00e+00	0	33	0	853540864	76	4797
2026-01-01 12:21:57.41	311.39	15.87	-54.9	-57.0	15.6	0.00e+00	0	34	0	859832320	76	4472
2026-01-01 12:22:00.43	311.96	15.71	-54.4	-56.3	15.8	0.00e+00	0	33	0	865075200	75	4356
2026-01-01 12:22:03.45	312.53	15.54	-54.5	-56.5	15.7	0.00e+00	0	33	0	870318080	74	4720
2026-01-01 12:22:06.47	313.08	15.37	-55.3	-57.6	15.2	0.00e+00	0	33	0	876609536	75	5057
2026-01-01 12:22:09.50	313.64	15.20	-55.2	-57.4	15.4	0.00e+00	0	33	0	881852416	76	4657
2026-01-01 12:22:12.51	314.18	15.04	-55.1	-57.2	15.4	0.00e+00	0	34	0	888143872	76	4578
2026-01-01 12:22:15.54	314.72	14.86	-55.0	-57.2	15.4	0.00e+00	0	34	0	893386752	76	4552
2026-01-01 12:22:18.56	315.26	14.69	-54.7	-56.7	15.7	0.00e+00	0	34	0	898629632	76	4312
2026-01-01 12:22:21.59	315.79	14.52	-54.2	-56.1	15.8	0.00e+00	0	33	0	904921088	74	4516
2026-01-01 12:22:24.61	316.31	14.35	-54.4	-56.4	15.7	0.00e+00	0	33	0	910163968	74	4689
2026-01-01 12:22:27.63	316.82	14.17	-54.9	-57.1	15.4	0.00e+00	0	33	0	916455424	75	4767
2026-01-01 12:22:30.65	317.33	14.00	-54.7	-56.8	15.5	0.00e+00	0	33	0	921698304	75	4604
2026-01-01 12:22:33.67	317.84	13.82	-54.3	-56.3	15.8	0.00e+00	0	34	0	926941184	75	4349
2026-01-01 12:22:36.69	318.34	13.64	-54.4	-56.3	15.7	0.00e+00	0	34	0	933232640	74	4651
2026-01-01 12:22:39.71	318.83	13.46	-54.3	-56.3	15.7	0.00e+00	0	33	0	938475520	74	4625
2026-01-01 12:22:42.74	319.32	13.29	-54.4	-56.3	15.7	0.00e+00	0	34	0	944766976	74	4647
2026-01-01 12:22:45.75	319.80	13.11	-54.5	-56.6	15.6	0.00e+00	0	33	0	950009856	74	4770
2026-01-01 12:22:48.78	320.27	12.93	-54.5	-56.6	15.6	0.00e+00	0	34	0	955252736	74	4785
2026-01-01 12:22:51.80	320.74	12.75	-53.9	-55.7	16.0	0.00e+00	0	33	0	961544192	74	4336
2026-01-01 12:22:54.82	321.21	12.57	-53.4	-55.2	16.2	0.00e+00	0	33	0	966787072	73	4321
2026-01-01 12:22:57.84	321.67	12.39	-53.6	-55.4	16.0	0.00e+00	0	34	0	973078528	73	4439
2026-01-01 12:23:00.86	322.12	12.21	-54.0	-55.9	15.8	0.00e+00	0	33	0	978321408	73	4661
2026-01-01 12:23:03.89	322.57	12.03	-53.9	-55.8	15.9	0.00e+00	0	33	0	983564288	73	4645
2026-01-01 12:23:06.91	323.01	11.85	-53.9	-55.7	15.9	0.00e+00	0	33	0	989855744	73	4593
2026-01-01 12:23:09.94	323.45	11.66	-54.0	-56.0	15.8	0.00e+00	0	33	0	995098624	73	4710
2026-01-01 12:23:12.96	323.89	11.48	-54.3	-56.4	15.6	0.00e+00	0	34	0	1001390080	74	4663
2026-01-01 12:23:15.99	324.32	11.30	-54.3	-56.3	15.6	0.00e+00	0	34	0	1006632960	74	4634
2026-01-01 12:23:19.01	324.74	11.12	-53.8	-55.7	16.0	0.00e+00	0	34	0	1011875840	74	4299
2026-01-01 12:23:22.03	325.16	10.94	-54.0	-56.0	15.8	0.00e+00	0	34	0	1018167296	73	4726
2026-01-01 12:23:25.04	325.57	10.76	-54.7	-56.9	15.4	0.00e+00	0	34	0	1023410176	74	4940
2026-01-01 12:23:28.06	325.97	10.58	-55.1	-57.4	15.1	0.00e+00	0	33	0	1029701632	75	4968
2026-01-01 12:23:31.08	326.38	10.39	-54.9	-57.2	15.2	0.00e+00	0	33	0	1034944512	75	4825
2026-01-01 12:23:34.11	326.78	10.21	-54.6	-56.8	15.4	0.00e+00	0	34	0	1040187392	75	4632
2026-01-01 12:23:37.14	327.17	10.03	-54.7	-56.9	15.3	0.00e+00	0	34	0	1046478848	75	4693
2026-01-01 12:23:40.16	327.56	9.85	-54.8	-57.1	15.2	0.00e+00	0	34	0	1051721728	75	4785
2026-01-01 12:23:43.19	327.94	9.67	-54.5	-56.7	15.4	0.00e+00	0	33	0	1058013184	75	4555
2026-01-01 12:23:46.20	328.32	9.49	-54.5	-56.6	15.4	0.00e+00	0	34	0	1063256064	75	4529
2026-01-01 12:23:49.22	328.70	9.31	-54.7	-56.9	15.2	0.00e+00	0	33	0	1068498944	75	4705
2026-01-01 12:23:52.24	329.07	9.13	-55.0	-57.4	15.0	0.00e+00	0	34	0	1074790400	75	4946
2026-01-01 12:23:55.26	329.43	8.95	-54.7	-56.9	15.3	0.00e+00	0	34	0	1080033280	75	4694
2026-01-01 12:23:58.28	329.80	8.77	-54.3	-56.4	15.5	0.00e+00	0	34	0	1086324736	74	4683
2026-01-01 12:24:01.30	330.15	8.59	-54.3	-56.4	15.5	0.00e+00	0	34	0	1091567616	74	4692
2026-01-01 12:24:04.32	330.51	8.42	-54.6	-56.7	15.4	0.00e+00	0	33	0	1096810496	74	4861
2026-01-01 12:24:07.34	330.86	8.24	-54.9	-57.3	15.0	0.00e+00	0	34	0	1103101952	75	4885
2026-01-01 12:24:10.36	331.20	8.06	-55.0	-57.4	15.0	0.00e+00	0	34	0	1108344832	75	4948
2026-01-01 12:24:13.38	331.54	7.88	-54.5	-56.6	15.4	0.00e+00	0	34	0	1114636288	75	4542
2026-01-01 12:24:16.41	331.88	7.71	-54.3	-56.4	15.5	0.00e+00	0	34	0	1119879168	74	4669
2026-01-01 12:24:19.42	332.21	7.53	-54.4	-56.6	15.3	0.00e+00	0	34	0	1125122048	74	4789
2026-01-01 12:24:22.44	332.54	7.35	-54.9	-57.3	15.0	0.00e+00	0	34	0	1131413504	75	4900
2026-01-01 12:24:25.46	332.87	7.18	-55.2	-57.7	14.7	0.00e+00	0	34	0	1136656384	75	5156
2026-01-01 12:24:28.47	333.19	7.00	-55.3	-57.9	14.7	0.00e+00	0	33	0	1142947840	76	4930
2026-01-01 12:24:31.50	333.51	6.83	-55.5	-58.1	14.5	0.00e+00	0	34	0	1148190720	76	5073
2026-01-01 12:24:34.52	333.83	6.65	-55.8	-58.6	14.2	0.00e+00	0	34	0	1153433600	76	5392
2026-01-01 12:24:37.55	334.14	6.48	-56.3	-59.4	13.7	0.00e+00	0	34	0	1159725056	77	5562
2026-01-01 12:24:40.56	334.45	6.31	-56.5	-59.9	13.3	0.00e+00	0	34	0	1164967936	78	5552
2026-01-01 12:24:43.58	334.75	6.14	-56.3	-59.6	13.5	0.00e+00	0	34	0	1171259392	77	5664
2026-01-01 12:24:46.60	335.05	5.96	-56.0	-59.0	13.8	0.00e+00	0	34	0	1176502272	77	5326
2026-01-01 12:24:49.62	335.35	5.79	-55.7	-58.6	14.1	0.00e+00	0	34	0	1181745152	76	5351
2026-01-01 12:24:52.64	335.64	5.62	-55.8	-58.7	14.0	0.00e+00	0	33	0	1188036608	77	5142
2026-01-01 12:24:55.67	335.94	5.45	-55.8	-58.7	14.1	0.00e+00	0	34	0	1193279488	77	5134
2026-01-01 12:24:58.70	336.22	5.28	-56.2	-59.4	13.6	0.00e+00	0	34	0	1199570944	77	5565
2026-01-01 12:25:01.71	336.51	5.11	-56.3	-59.6	13.4	0.00e+00	0	34	0	1204813824	77	5659
2026-01-01 12:25:04.74	336.79	4.94	-60.6	-76.6	3.8	1.49e+00	0	34	104	1209008128	86	23919
2026-01-01 12:25:07.76	337.07	4.77	-61.5	-77.5	3.8	1.49e+00	0	34	104	1209008128	88	23723
2026-01-01 12:25:10.79	337.35	4.60	-61.9	-77.9	3.8	1.49e+00	0	34	104	1209008128	88	24859
2026-01-01 12:25:13.82	337.62	4.44	-62.1	-78.1	3.8	1.49e+00	0	34	104	1209008128	89	24068
2026-01-01 12:25:16.84	337.89	4.27	-62.2	-78.2	3.8	1.49e+00	0	34	104	1209008128	89	24294
2026-01-01 12:25:19.87	338.16	4.10	-62.2	-78.3	3.8	1.49e+00	0	34	104	1209008128	89	24496
2026-01-01 12:25:22.90	338.42	3.94	-62.3	-78.3	3.8	1.49e+00	0	34	104	1209008128	89	24574
2026-01-01 12:25:25.93	338.68	3.77	-62.3	-78.3	3.8	1.49e+00	0	34	104	1209008128	89	24682
2026-01-01 12:25:28.95	338.94	3.61	-62.2	-78.2	3.8	1.49e+00	0	34	104	1209008128	89	24299
2026-01-01 12:25:31.98	339.20	3.44	-62.1	-78.2	3.8	1.49e+00	0	34	104	1209008128	89	24272
2026-01-01 12:25:35.01	339.45	3.28	-62.1	-78.2	3.8	1.49e+00	0	34	104	1209008128	89	24155
2026-01-01 12:25:38.03	339.70	3.11	-62.1	-78.1	3.8	1.49e+00	0	34	104	1209008128	89	24012
2026-01-01 12:25:41.05	339.95	2.95	-62.1	-78.1	3.8	1.49e+00	0	34	104	1209008128	89	24062
2026-01-01 12:25:44.07	340.20	2.79	-62.0	-78.1	3.8	1.49e+00	0	34	104	1209008128	89	23991
2026-01-01 12:25:47.10	340.44	2.63	-62.0	-78.1	3.8	1.49e+00	0	34	104	1209008128	89	23880
2026-01-01 12:25:50.13	340.68	2.47	-62.0	-78.1	3.8	1.49e+00	0	34	104	1209008128	89	23861
2026-01-01 12:25:53.15	340.92	2.31	-62.0	-78.0	3.8	1.49e+00	0	34	104	1209008128	89	23844
2026-01-01 12:25:56.18	341.15	2.15	-62.0	-78.0	3.8	1.49e+00	0	34	104	1209008128	89	23751

#Closed at: 2026-01-01 12:25:58
#Recorded file [1209 MB]: D:/lorett/data/31004_260101_151323.dat