passes_logs/2026/01/01/R3.2S_Murmansk/R3.2S_Murmansk__20260101_172312_ZKG05_rec.log

#Pass ID: 20260101_172312_ZKG05
#Satellite: ZKG05
#Configuration: ZKG05
#almurnet v.1.7.20251203
#Start time: 2026-01-01 17:23:12

#Version: 2.2.20231116
#Station: R3.2S_Murmansk
#Location: 33.079688 lon 68.888172 lat
#TLE: 1 65263U 25180E   25363.54303023  .00006586  00000-0  34273-3 0  9994
#TLE: 2 65263  97.4772 128.0191 0001674  87.3453 272.7971 15.16366041 20011

#Time	Az	El	Level	Level2	SNR	BER	BlckErr	Temp	State	Recorded	gain1	gain2
2026-01-01 17:23:12.32	44.13	1.98	-59.4	-62.6	6.2	0.00e+00	0	38	0	0	85	20545
2026-01-01 17:23:14.33	43.89	2.09	-59.5	-62.6	6.2	0.00e+00	0	38	104	0	85	20510
2026-01-01 17:23:16.34	43.65	2.19	-59.5	-62.6	6.2	0.00e+00	0	38	104	0	85	20558
2026-01-01 17:23:18.36	43.40	2.30	-59.5	-62.6	6.2	0.00e+00	0	38	104	0	85	20560
2026-01-01 17:23:20.38	43.16	2.41	-59.5	-62.6	6.2	0.00e+00	0	39	104	0	85	20570
2026-01-01 17:23:22.40	42.91	2.51	-59.4	-62.6	6.2	0.00e+00	0	38	104	0	85	20555
2026-01-01 17:23:24.42	42.66	2.62	-59.5	-62.6	6.2	0.00e+00	0	39	104	0	85	20536
2026-01-01 17:23:26.44	42.41	2.73	-59.5	-62.6	6.2	0.00e+00	0	39	104	0	85	20555
2026-01-01 17:23:28.45	42.15	2.83	-59.4	-62.6	6.2	0.00e+00	0	39	104	0	85	20582
2026-01-01 17:23:30.47	41.89	2.94	-59.5	-62.6	6.2	0.00e+00	0	39	104	0	85	20584
2026-01-01 17:23:32.49	41.63	3.05	-59.5	-62.6	6.2	0.00e+00	0	39	104	0	85	20488
2026-01-01 17:23:34.50	41.37	3.15	-59.5	-62.6	6.2	0.00e+00	0	39	104	0	85	20543
2026-01-01 17:23:36.52	41.11	3.26	-59.5	-62.6	6.2	0.00e+00	0	39	104	0	85	20585
2026-01-01 17:23:38.54	40.84	3.37	-59.5	-62.6	6.2	0.00e+00	0	40	104	0	85	20549
2026-01-01 17:23:40.55	40.57	3.47	-59.5	-62.6	6.2	0.00e+00	0	39	104	0	85	20575
2026-01-01 17:23:42.57	40.30	3.58	-59.5	-62.6	6.2	0.00e+00	0	40	104	0	85	20580
2026-01-01 17:23:44.59	40.02	3.69	-59.5	-62.6	6.2	0.00e+00	0	40	104	0	85	20572
2026-01-01 17:23:46.61	39.74	3.80	-59.5	-62.6	6.2	0.00e+00	0	40	104	0	85	20625
2026-01-01 17:23:48.63	39.46	3.90	-59.5	-62.6	6.2	0.00e+00	0	40	104	0	85	20631
2026-01-01 17:23:50.64	39.18	4.01	-59.5	-62.6	6.2	0.00e+00	0	40	104	0	85	20569
2026-01-01 17:23:52.66	38.90	4.12	-59.5	-62.6	6.2	0.00e+00	0	40	104	0	85	20603
2026-01-01 17:23:54.68	38.61	4.22	-59.5	-62.7	6.2	0.00e+00	0	40	104	0	85	20650
2026-01-01 17:23:56.70	38.32	4.33	-59.5	-62.6	6.2	0.00e+00	0	40	104	0	85	20613
2026-01-01 17:23:58.71	38.02	4.44	-59.5	-62.7	6.2	0.00e+00	0	40	104	0	85	20634
2026-01-01 17:24:00.73	37.73	4.55	-59.5	-62.6	6.2	0.00e+00	0	40	104	0	85	20583
2026-01-01 17:24:02.75	37.43	4.65	-59.5	-62.6	6.2	0.00e+00	0	40	104	0	85	20620
2026-01-01 17:24:04.77	37.13	4.76	-59.5	-62.7	6.2	0.00e+00	0	40	104	0	85	20656
2026-01-01 17:24:06.79	36.82	4.87	-59.5	-62.6	6.2	0.00e+00	0	40	104	0	85	20542
2026-01-01 17:24:08.80	36.51	4.97	-59.5	-62.6	6.2	0.00e+00	0	40	104	0	85	20600
2026-01-01 17:24:10.83	36.20	5.08	-60.0	-63.1	6.2	0.00e+00	0	40	104	0	85	21770
2026-01-01 17:24:12.84	35.89	5.19	-59.5	-62.7	6.2	0.00e+00	0	41	104	0	85	20692
2026-01-01 17:24:14.86	35.57	5.30	-59.4	-62.6	6.2	0.00e+00	0	41	104	0	85	20416
2026-01-01 17:24:16.88	35.25	5.40	-59.5	-62.7	6.2	0.00e+00	0	41	104	0	85	20687
2026-01-01 17:24:18.89	34.93	5.51	-59.4	-62.6	6.2	0.00e+00	0	41	104	0	85	20539
2026-01-01 17:24:20.91	34.61	5.61	-59.5	-62.7	6.2	0.00e+00	0	41	104	0	85	20713
2026-01-01 17:24:22.92	34.28	5.72	-59.5	-62.6	6.2	0.00e+00	0	40	104	0	85	20605
2026-01-01 17:24:24.94	33.95	5.83	-59.5	-62.7	6.2	0.00e+00	0	41	104	0	85	20722
2026-01-01 17:24:26.94	33.61	5.93	-59.5	-62.7	6.2	0.00e+00	0	41	104	0	85	20713
2026-01-01 17:24:28.96	33.28	6.04	-59.6	-62.7	6.2	0.00e+00	0	41	104	0	85	20866
2026-01-01 17:24:30.98	32.94	6.14	-59.5	-62.7	6.2	0.00e+00	0	41	104	0	85	20693
2026-01-01 17:24:32.99	32.59	6.25	-59.6	-62.8	6.2	0.00e+00	0	41	104	0	85	20896
2026-01-01 17:24:35.01	32.25	6.35	-59.6	-62.7	6.2	0.00e+00	0	41	104	0	85	20784
2026-01-01 17:24:37.03	31.90	6.46	-59.7	-62.8	6.2	0.00e+00	0	41	104	0	85	20969
2026-01-01 17:24:39.04	31.54	6.56	-59.6	-62.8	6.2	0.00e+00	0	41	104	0	85	20894
2026-01-01 17:24:41.05	31.19	6.66	-59.7	-62.8	6.2	0.00e+00	0	41	104	0	85	21033
2026-01-01 17:24:43.05	30.83	6.77	-59.6	-62.8	6.2	0.00e+00	0	41	104	0	85	20969
2026-01-01 17:24:45.07	30.47	6.87	-59.7	-62.9	6.2	0.00e+00	0	41	104	0	85	21195
2026-01-01 17:24:47.08	30.10	6.97	-59.6	-62.8	6.2	0.00e+00	0	41	104	0	85	20992
2026-01-01 17:24:49.10	29.73	7.07	-59.7	-62.9	6.2	0.00e+00	0	41	104	0	85	21117
2026-01-01 17:24:51.11	29.36	7.18	-59.7	-62.8	6.2	0.00e+00	0	41	104	0	85	21110
2026-01-01 17:24:53.13	28.99	7.28	-59.7	-62.9	6.2	0.00e+00	0	41	104	0	85	21225
2026-01-01 17:24:55.15	28.61	7.38	-59.7	-62.9	6.2	0.00e+00	0	41	104	0	85	21218
2026-01-01 17:24:57.16	28.23	7.48	-59.8	-62.9	6.2	0.00e+00	0	41	104	0	85	21339
2026-01-01 17:24:59.18	27.84	7.58	-59.8	-62.9	6.2	0.00e+00	0	41	104	0	85	21243
2026-01-01 17:25:01.20	27.45	7.68	-59.8	-63.0	6.2	0.00e+00	0	41	104	0	85	21381
2026-01-01 17:25:03.21	27.06	7.78	-59.8	-62.9	6.2	0.00e+00	0	41	104	0	85	21289
2026-01-01 17:25:05.22	26.67	7.87	-59.8	-63.0	6.2	0.00e+00	0	41	104	0	85	21484
2026-01-01 17:25:07.24	26.27	7.97	-59.8	-63.0	6.2	0.00e+00	0	41	104	0	85	21403
2026-01-01 17:25:09.25	25.87	8.07	-59.9	-63.0	6.2	0.00e+00	0	41	104	0	85	21500
2026-01-01 17:25:11.27	25.46	8.16	-59.8	-63.0	6.2	0.00e+00	0	41	104	0	85	21437
2026-01-01 17:25:13.29	25.05	8.26	-59.9	-63.0	6.2	0.00e+00	0	41	104	0	85	21555
2026-01-01 17:25:15.30	24.64	8.36	-59.9	-63.0	6.2	0.00e+00	0	41	104	0	85	21437
2026-01-01 17:25:17.32	24.22	8.45	-59.9	-63.0	6.2	0.00e+00	0	42	104	0	85	21597
2026-01-01 17:25:19.33	23.81	8.54	-59.9	-63.0	6.2	0.00e+00	0	41	104	0	85	21540
2026-01-01 17:25:21.35	23.38	8.64	-59.9	-63.1	6.2	0.00e+00	0	41	104	0	85	21666
2026-01-01 17:25:23.37	22.96	8.73	-59.9	-63.1	6.2	0.00e+00	0	41	104	0	85	21620
2026-01-01 17:25:25.38	22.53	8.82	-60.0	-63.1	6.2	0.00e+00	0	41	104	0	85	21800
2026-01-01 17:25:27.40	22.10	8.91	-59.9	-63.1	6.2	0.00e+00	0	41	104	0	85	21650
2026-01-01 17:25:29.41	21.66	9.00	-60.0	-63.1	6.2	0.00e+00	0	42	104	0	85	21746
2026-01-01 17:25:31.42	21.23	9.08	-60.0	-63.1	6.2	0.00e+00	0	42	104	0	85	21731
2026-01-01 17:25:33.44	20.78	9.17	-60.0	-63.1	6.2	0.00e+00	0	42	104	0	85	21822
2026-01-01 17:25:35.46	20.34	9.26	-60.0	-63.1	6.2	0.00e+00	0	42	104	0	85	21672
2026-01-01 17:25:37.48	19.89	9.34	-60.0	-63.2	6.2	0.00e+00	0	41	104	0	85	21892
2026-01-01 17:25:39.49	19.44	9.43	-60.0	-63.1	6.2	0.00e+00	0	42	104	0	85	21813
2026-01-01 17:25:41.50	18.99	9.51	-60.0	-63.2	6.2	0.00e+00	0	42	104	0	85	21902
2026-01-01 17:25:43.52	18.53	9.59	-60.0	-63.1	6.2	0.00e+00	0	42	104	0	85	21840
2026-01-01 17:25:45.53	18.07	9.67	-60.1	-63.2	6.2	0.00e+00	0	42	104	0	85	21989
2026-01-01 17:25:47.55	17.60	9.75	-60.0	-63.2	6.2	0.00e+00	0	42	104	0	85	21894
2026-01-01 17:25:49.57	17.13	9.83	-60.1	-63.2	6.2	0.00e+00	0	42	104	0	85	21998
2026-01-01 17:25:51.59	16.66	9.91	-60.0	-63.2	6.2	0.00e+00	0	42	104	0	85	22024
2026-01-01 17:25:53.61	16.19	9.98	-60.1	-63.2	6.2	0.00e+00	0	42	104	0	85	22061
2026-01-01 17:25:55.62	15.71	10.06	-60.1	-63.2	6.2	0.00e+00	0	42	104	0	85	22007
2026-01-01 17:25:57.64	15.23	10.13	-60.1	-63.2	6.2	0.00e+00	0	42	104	0	85	22100
2026-01-01 17:25:59.64	14.76	10.20	-60.1	-63.2	6.2	0.00e+00	0	42	104	0	85	21976
2026-01-01 17:26:01.65	14.27	10.27	-60.1	-63.3	6.2	0.00e+00	0	42	104	0	85	22180
2026-01-01 17:26:03.66	13.79	10.34	-60.1	-63.2	6.2	0.00e+00	0	42	104	0	85	22055
2026-01-01 17:26:05.68	13.29	10.41	-60.1	-63.3	6.2	0.00e+00	0	42	104	0	85	22203
2026-01-01 17:26:07.70	12.80	10.48	-60.1	-63.2	6.2	0.00e+00	0	42	104	0	85	22076
2026-01-01 17:26:09.72	12.30	10.54	-60.2	-63.3	6.2	0.00e+00	0	42	104	0	85	22276
2026-01-01 17:26:11.74	11.80	10.60	-59.9	-62.9	6.2	0.00e+00	0	42	104	0	85	21174
2026-01-01 17:26:13.75	11.30	10.66	-60.1	-63.1	6.2	0.00e+00	0	42	104	0	85	21787
2026-01-01 17:26:15.76	10.80	10.72	-59.5	-62.3	6.2	0.00e+00	0	42	104	0	85	19819
2026-01-01 17:26:17.77	10.30	10.78	-59.9	-62.9	6.2	0.00e+00	0	42	104	0	85	21157
2026-01-01 17:26:19.79	9.79	10.84	-60.1	-63.3	6.2	0.00e+00	0	42	104	0	85	22117
2026-01-01 17:26:21.80	9.28	10.89	-60.2	-63.3	6.2	0.00e+00	0	42	104	0	85	22338
2026-01-01 17:26:23.81	8.77	10.94	-60.2	-63.3	6.2	0.00e+00	0	42	104	0	85	22334
2026-01-01 17:26:25.82	8.25	10.99	-60.2	-63.3	6.2	0.00e+00	0	42	104	0	85	22264
2026-01-01 17:26:27.83	7.74	11.04	-60.2	-63.3	6.2	0.00e+00	0	42	104	0	85	22268
2026-01-01 17:26:29.85	7.22	11.09	-60.2	-63.3	6.2	0.00e+00	0	42	104	0	85	22237
2026-01-01 17:26:31.86	6.70	11.14	-60.2	-63.3	6.2	0.00e+00	0	42	104	0	85	22286
2026-01-01 17:26:33.88	6.17	11.18	-60.2	-63.3	6.2	0.00e+00	0	42	104	0	85	22282
2026-01-01 17:26:35.90	5.64	11.22	-60.2	-63.3	6.2	0.00e+00	0	42	104	0	85	22310
2026-01-01 17:26:37.91	5.12	11.26	-60.2	-63.3	6.2	0.00e+00	0	42	104	0	85	22218
2026-01-01 17:26:39.93	4.59	11.30	-60.2	-63.3	6.2	0.00e+00	0	42	104	0	85	22314
2026-01-01 17:26:41.94	4.06	11.33	-60.2	-63.3	6.2	0.00e+00	0	42	104	0	85	22281
2026-01-01 17:26:43.96	3.53	11.37	-60.2	-63.3	6.2	0.00e+00	0	42	104	0	85	22322
2026-01-01 17:26:45.97	2.99	11.40	-60.2	-63.3	6.2	0.00e+00	0	42	104	0	85	22221
2026-01-01 17:26:47.99	2.46	11.43	-60.2	-63.3	6.2	0.00e+00	0	42	104	0	85	22333
2026-01-01 17:26:50.01	1.92	11.46	-60.2	-63.3	6.2	0.00e+00	0	42	104	0	85	22288
2026-01-01 17:26:52.03	1.38	11.48	-60.2	-63.3	6.2	0.00e+00	0	42	104	0	85	22276
2026-01-01 17:26:54.04	0.85	11.51	-60.2	-63.4	6.2	0.00e+00	0	42	104	0	85	22366
2026-01-01 17:26:56.06	0.31	11.53	-60.2	-63.3	6.2	0.00e+00	0	42	104	0	85	22354
2026-01-01 17:26:58.08	359.76	11.55	-60.2	-63.3	6.2	0.00e+00	0	42	104	0	85	22353
2026-01-01 17:27:00.09	359.22	11.57	-60.2	-63.3	6.2	0.00e+00	0	42	104	0	85	22365
2026-01-01 17:27:02.11	358.68	11.58	-60.2	-63.3	6.2	0.00e+00	0	42	104	0	85	22304
2026-01-01 17:27:04.12	358.14	11.59	-60.2	-63.4	6.2	0.00e+00	0	42	104	0	85	22415
2026-01-01 17:27:06.14	357.60	11.60	-60.2	-63.4	6.2	0.00e+00	0	42	104	0	85	22367
2026-01-01 17:27:08.15	357.06	11.61	-60.2	-63.4	6.2	0.00e+00	0	42	104	0	85	22375
2026-01-01 17:27:10.17	356.51	11.62	-60.2	-63.3	6.2	0.00e+00	0	42	104	0	85	22354
2026-01-01 17:27:12.19	355.97	11.62	-60.2	-63.4	6.2	0.00e+00	0	42	104	0	85	22377
2026-01-01 17:27:14.20	355.42	11.63	-60.2	-63.4	6.2	0.00e+00	0	42	104	0	85	22380
2026-01-01 17:27:16.22	354.88	11.63	-60.2	-63.3	6.2	0.00e+00	0	42	104	0	85	22363
2026-01-01 17:27:18.24	354.33	11.62	-60.2	-63.3	6.2	0.00e+00	0	42	104	0	85	22295
2026-01-01 17:27:20.25	353.79	11.62	-60.2	-63.4	6.2	0.00e+00	0	42	104	0	85	22385
2026-01-01 17:27:22.27	353.24	11.61	-60.2	-63.4	6.2	0.00e+00	0	42	104	0	85	22383
2026-01-01 17:27:24.28	352.70	11.60	-60.2	-63.3	6.2	0.00e+00	0	42	104	0	85	22346
2026-01-01 17:27:26.30	352.16	11.59	-60.2	-63.3	6.2	0.00e+00	0	42	104	0	85	22344
2026-01-01 17:27:28.31	351.62	11.58	-60.2	-63.3	6.2	0.00e+00	0	42	104	0	85	22336
2026-01-01 17:27:30.32	351.08	11.57	-60.2	-63.3	6.2	0.00e+00	0	42	104	0	85	22296
2026-01-01 17:27:32.33	350.54	11.55	-60.2	-63.4	6.2	0.00e+00	0	42	104	0	85	22460
2026-01-01 17:27:34.34	350.00	11.53	-60.2	-63.3	6.2	0.00e+00	0	42	104	0	85	22316
2026-01-01 17:27:36.36	349.46	11.51	-60.2	-63.4	6.2	0.00e+00	0	42	104	0	85	22403
2026-01-01 17:27:38.38	348.92	11.48	-60.2	-63.3	6.2	0.00e+00	0	42	104	0	85	22278
2026-01-01 17:27:40.39	348.38	11.46	-60.2	-63.4	6.2	0.00e+00	0	42	104	0	85	22389
2026-01-01 17:27:42.40	347.85	11.43	-60.2	-63.3	6.2	0.00e+00	0	42	104	0	85	22326
2026-01-01 17:27:44.41	347.31	11.40	-60.2	-63.4	6.2	0.00e+00	0	42	104	0	85	22392
2026-01-01 17:27:46.42	346.78	11.37	-60.2	-63.4	6.2	0.00e+00	0	42	104	0	85	22386
2026-01-01 17:27:48.44	346.25	11.34	-60.2	-63.4	6.2	0.00e+00	0	42	104	0	85	22452
2026-01-01 17:27:50.45	345.72	11.30	-60.2	-63.4	6.2	0.00e+00	0	42	104	0	85	22383
2026-01-01 17:27:52.47	345.19	11.26	-60.2	-63.4	6.2	0.00e+00	0	42	104	0	85	22512
2026-01-01 17:27:54.49	344.66	11.22	-60.2	-63.4	6.2	0.00e+00	0	42	104	0	85	22396
2026-01-01 17:27:56.50	344.14	11.18	-60.3	-63.4	6.2	0.00e+00	0	42	104	0	85	22511
2026-01-01 17:27:58.52	343.61	11.14	-60.2	-63.4	6.2	0.00e+00	0	42	104	0	85	22402
2026-01-01 17:28:00.54	343.09	11.09	-60.3	-63.4	6.2	0.00e+00	0	42	104	0	85	22451
2026-01-01 17:28:02.54	342.57	11.05	-60.2	-63.4	6.2	0.00e+00	0	42	104	0	85	22396
2026-01-01 17:28:04.56	342.06	11.00	-60.3	-63.4	6.2	0.00e+00	0	42	104	0	85	22468
2026-01-01 17:28:06.58	341.54	10.95	-60.2	-63.4	6.2	0.00e+00	0	42	104	0	85	22377
2026-01-01 17:28:08.60	341.03	10.89	-60.3	-63.4	6.2	0.00e+00	0	42	104	0	85	22553
2026-01-01 17:28:10.61	340.52	10.84	-60.2	-63.3	6.2	0.00e+00	0	42	104	0	85	22326
2026-01-01 17:28:12.63	340.01	10.78	-60.3	-63.4	6.2	0.00e+00	0	42	104	0	85	22495
2026-01-01 17:28:14.64	339.50	10.72	-60.2	-63.3	6.2	0.00e+00	0	42	104	0	85	22321
2026-01-01 17:28:16.66	339.00	10.66	-60.3	-63.4	6.2	0.00e+00	0	42	104	0	85	22430
2026-01-01 17:28:18.68	338.49	10.60	-60.2	-63.3	6.2	0.00e+00	0	42	104	0	85	22309
2026-01-01 17:28:20.69	338.00	10.54	-60.2	-63.4	6.2	0.00e+00	0	42	104	0	85	22427
2026-01-01 17:28:22.69	337.50	10.48	-60.2	-63.3	6.2	0.00e+00	0	42	104	0	85	22310
2026-01-01 17:28:24.70	337.01	10.41	-60.3	-63.5	6.2	0.00e+00	0	42	104	0	86	21391
2026-01-01 17:28:26.72	336.52	10.34	-60.2	-63.4	6.2	0.00e+00	0	42	104	0	86	21159
2026-01-01 17:28:28.72	336.04	10.28	-60.3	-63.4	6.2	0.00e+00	0	42	104	0	86	21316
2026-01-01 17:28:30.73	335.55	10.21	-60.2	-63.4	6.2	0.00e+00	0	42	104	0	86	21179
2026-01-01 17:28:32.75	335.07	10.13	-60.3	-63.5	6.2	0.00e+00	0	43	104	0	86	21370
2026-01-01 17:28:34.76	334.59	10.06	-60.2	-63.3	6.2	0.00e+00	0	42	104	0	86	21094
2026-01-01 17:28:36.77	334.12	9.99	-60.3	-63.4	6.2	0.00e+00	0	42	104	0	86	21311
2026-01-01 17:28:38.79	333.64	9.91	-60.2	-63.3	6.2	0.00e+00	0	42	104	0	86	21097
2026-01-01 17:28:40.81	333.17	9.83	-60.2	-63.4	6.2	0.00e+00	0	42	104	0	86	21211
2026-01-01 17:28:42.82	332.70	9.76	-60.2	-63.3	6.2	0.00e+00	0	43	104	0	86	20967
2026-01-01 17:28:44.83	332.24	9.68	-60.2	-63.4	6.2	0.00e+00	0	42	104	0	86	21231
2026-01-01 17:28:46.84	331.78	9.60	-60.2	-63.3	6.2	0.00e+00	0	42	104	0	86	20977
2026-01-01 17:28:48.86	331.32	9.51	-60.2	-63.4	6.2	0.00e+00	0	42	104	0	86	21125
2026-01-01 17:28:50.88	330.87	9.43	-60.1	-63.3	6.2	0.00e+00	0	42	104	0	86	20997
2026-01-01 17:28:52.90	330.41	9.35	-60.2	-63.4	6.2	0.00e+00	0	42	104	0	86	21160
2026-01-01 17:28:54.91	329.97	9.26	-60.1	-63.3	6.2	0.00e+00	0	42	104	0	86	20934
2026-01-01 17:28:56.93	329.52	9.18	-60.2	-63.4	6.2	0.00e+00	0	42	104	0	86	21125
2026-01-01 17:28:58.95	329.08	9.09	-60.1	-63.3	6.2	0.00e+00	0	42	104	0	86	20951
2026-01-01 17:29:00.96	328.64	9.00	-60.2	-63.3	6.2	0.00e+00	0	43	104	0	86	21073
2026-01-01 17:29:02.97	328.21	8.91	-60.1	-63.2	6.2	0.00e+00	0	43	104	0	86	20866
2026-01-01 17:29:04.99	327.77	8.82	-60.2	-63.3	6.2	0.00e+00	0	43	104	0	86	21029
2026-01-01 17:29:07.00	327.35	8.73	-60.1	-63.2	6.2	0.00e+00	0	42	104	0	86	20861
2026-01-01 17:29:09.02	326.92	8.64	-60.2	-63.3	6.2	0.00e+00	0	43	104	0	86	21018
2026-01-01 17:29:11.04	326.50	8.55	-60.1	-63.2	6.2	0.00e+00	0	42	104	0	86	20800
2026-01-01 17:29:13.06	326.08	8.45	-60.1	-63.3	6.2	0.00e+00	0	42	104	0	86	20905
2026-01-01 17:29:15.07	325.66	8.36	-60.0	-63.2	6.2	0.00e+00	0	43	104	0	86	20722
2026-01-01 17:29:17.09	325.25	8.26	-60.1	-63.3	6.2	0.00e+00	0	43	104	0	86	20913
2026-01-01 17:29:19.10	324.84	8.17	-60.0	-63.2	6.2	0.00e+00	0	43	104	0	86	20723
2026-01-01 17:29:21.12	324.44	8.07	-60.1	-63.2	6.2	0.00e+00	0	43	104	0	86	20852
2026-01-01 17:29:23.13	324.03	7.98	-60.0	-63.1	6.2	0.00e+00	0	43	104	0	86	20617
2026-01-01 17:29:25.15	323.63	7.88	-60.1	-63.2	6.2	0.00e+00	0	42	104	0	86	20870
2026-01-01 17:29:27.16	323.24	7.78	-60.0	-63.1	6.2	0.00e+00	0	43	104	0	86	20579
2026-01-01 17:29:29.17	322.85	7.68	-60.1	-63.2	6.2	0.00e+00	0	43	104	0	86	20796
2026-01-01 17:29:31.17	322.46	7.58	-60.0	-63.1	6.2	0.00e+00	0	43	104	0	86	20574
2026-01-01 17:29:33.18	322.08	7.48	-60.0	-63.2	6.2	0.00e+00	0	43	104	0	86	20761
2026-01-01 17:29:35.18	321.70	7.38	-59.9	-63.1	6.2	0.00e+00	0	43	104	0	86	20502
2026-01-01 17:29:37.18	321.32	7.28	-60.0	-63.2	6.2	0.00e+00	0	42	104	0	86	20745
2026-01-01 17:29:39.19	320.95	7.18	-59.9	-63.1	6.2	0.00e+00	0	42	104	0	86	20407
2026-01-01 17:29:41.20	320.58	7.08	-60.0	-63.1	6.2	0.00e+00	0	43	104	0	86	20615
2026-01-01 17:29:43.21	320.21	6.98	-59.9	-63.0	6.2	0.00e+00	0	43	104	0	86	20394
2026-01-01 17:29:45.22	319.84	6.88	-60.0	-63.1	6.2	0.00e+00	0	43	104	0	86	20552
2026-01-01 17:29:47.24	319.48	6.77	-59.9	-63.0	6.2	0.00e+00	0	43	104	0	86	20316
2026-01-01 17:29:49.25	319.12	6.67	-60.0	-63.1	6.2	0.00e+00	0	43	104	0	86	20517
2026-01-01 17:29:51.28	318.76	6.57	-59.8	-63.0	6.2	0.00e+00	0	43	104	0	86	20312
2026-01-01 17:29:53.30	318.41	6.46	-59.9	-63.0	6.2	0.00e+00	0	43	104	0	86	20370
2026-01-01 17:29:55.31	318.06	6.36	-59.8	-63.0	6.2	0.00e+00	0	43	104	0	86	20173
2026-01-01 17:29:57.33	317.71	6.25	-59.9	-63.0	6.2	0.00e+00	0	42	104	0	86	20300
2026-01-01 17:29:59.35	317.37	6.15	-59.8	-62.9	6.2	0.00e+00	0	43	104	0	86	20127
2026-01-01 17:30:01.37	317.03	6.04	-59.8	-63.0	6.2	0.00e+00	0	43	104	0	86	20259
2026-01-01 17:30:03.37	316.69	5.94	-59.8	-62.9	6.2	0.00e+00	0	43	104	0	86	20118
2026-01-01 17:30:05.39	316.36	5.83	-59.8	-63.0	6.2	0.00e+00	0	43	104	0	86	20230
2026-01-01 17:30:07.41	316.02	5.73	-59.7	-62.9	6.2	0.00e+00	0	43	104	0	86	20057
2026-01-01 17:30:09.42	315.70	5.62	-59.8	-62.9	6.2	0.00e+00	0	43	104	0	86	20095
2026-01-01 17:30:11.44	315.37	5.51	-59.7	-62.9	6.2	0.00e+00	0	43	104	0	86	19961
2026-01-01 17:30:13.46	315.05	5.41	-59.7	-62.9	6.2	0.00e+00	0	43	104	0	86	19963
2026-01-01 17:30:15.48	314.73	5.30	-59.7	-62.8	6.2	0.00e+00	0	43	104	0	86	19852
2026-01-01 17:30:17.49	314.41	5.19	-59.7	-62.8	6.2	0.00e+00	0	43	104	0	86	19843
2026-01-01 17:30:19.50	314.10	5.09	-59.6	-62.8	6.2	0.00e+00	0	43	104	0	85	20884
2026-01-01 17:30:21.52	313.79	4.98	-59.8	-62.9	6.2	0.00e+00	0	43	104	0	85	21337
2026-01-01 17:30:23.53	313.48	4.87	-60.5	-63.7	6.2	0.00e+00	0	43	104	0	86	21938
2026-01-01 17:30:25.55	313.17	4.77	-61.0	-64.2	6.2	0.00e+00	0	43	104	0	87	22004
2026-01-01 17:30:27.57	312.87	4.66	-61.4	-64.6	6.2	0.00e+00	0	43	104	0	88	21657
2026-01-01 17:30:29.58	312.57	4.55	-61.7	-64.8	6.2	0.00e+00	0	43	104	0	88	22306
2026-01-01 17:30:31.59	312.28	4.45	-61.9	-65.0	6.2	0.00e+00	0	43	104	0	89	21552
2026-01-01 17:30:33.61	311.98	4.34	-62.1	-65.2	6.2	0.00e+00	0	43	104	0	89	21980
2026-01-01 17:30:35.63	311.69	4.23	-62.1	-65.3	6.2	0.00e+00	0	43	104	0	89	22193
2026-01-01 17:30:37.65	311.40	4.12	-62.2	-65.4	6.2	0.00e+00	0	43	104	0	89	22385
2026-01-01 17:30:39.67	311.12	4.02	-62.3	-65.4	6.2	0.00e+00	0	43	104	0	89	22503
2026-01-01 17:30:41.68	310.83	3.91	-62.2	-65.4	6.2	0.00e+00	0	43	104	0	89	22384
2026-01-01 17:30:43.70	310.55	3.80	-62.2	-65.4	6.2	0.00e+00	0	43	104	0	89	22494
2026-01-01 17:30:45.71	310.28	3.70	-62.1	-65.3	6.2	0.00e+00	0	43	104	0	89	22238
2026-01-01 17:30:47.72	310.00	3.59	-62.1	-65.3	6.2	0.00e+00	0	43	104	0	89	22132
2026-01-01 17:30:49.74	309.73	3.48	-62.1	-65.2	6.2	0.00e+00	0	43	104	0	89	22013
2026-01-01 17:30:51.75	309.46	3.37	-62.0	-65.2	6.2	0.00e+00	0	43	104	0	89	21965
2026-01-01 17:30:53.77	309.19	3.27	-62.0	-65.2	6.2	0.00e+00	0	43	104	0	89	21889
2026-01-01 17:30:55.78	308.93	3.16	-62.0	-65.1	6.2	0.00e+00	0	43	104	0	89	21855
2026-01-01 17:30:57.80	308.66	3.05	-62.0	-65.1	6.2	0.00e+00	0	43	104	0	89	21788
2026-01-01 17:30:59.82	308.40	2.95	-62.0	-65.1	6.2	0.00e+00	0	43	104	0	89	21708
2026-01-01 17:31:01.84	308.15	2.84	-62.0	-65.1	6.2	0.00e+00	0	43	104	0	89	21734
2026-01-01 17:31:03.85	307.89	2.73	-61.9	-65.0	6.2	0.00e+00	0	43	104	0	89	21600
2026-01-01 17:31:05.87	307.64	2.63	-61.9	-65.1	6.2	0.00e+00	0	43	104	0	89	21644
2026-01-01 17:31:07.89	307.39	2.52	-61.9	-65.0	6.2	0.00e+00	0	43	104	0	89	21571
2026-01-01 17:31:09.90	307.14	2.41	-61.9	-65.0	6.2	0.00e+00	0	43	104	0	89	21453
2026-01-01 17:31:11.92	306.89	2.31	-61.9	-65.0	6.2	0.00e+00	0	43	104	0	89	21538
2026-01-01 17:31:13.94	306.65	2.20	-61.9	-65.0	6.2	0.00e+00	0	43	104	0	89	21487
2026-01-01 17:31:15.95	306.41	2.09	-61.8	-65.0	6.2	0.00e+00	0	43	104	0	89	21420
2026-01-01 17:31:17.97	306.17	1.99	-61.8	-65.0	6.2	0.00e+00	0	43	104	0	89	21471

#Closed at: 2026-01-01 17:31:19
#Recorded file [0 MB]: D:/lorett/data/31004_260101_202312.dat