passes_logs/2026/01/03/R2M6_AANII_01/R2M6_AANII_01__20260103_042809_FENGYUN_3E_rec.log

#Pass ID: 20260103_042809_FENGYUN 3E
#Satellite: FENGYUN 3E
#Configuration: FENGYUN 3E
#almurnet v.1.7.20240730
#Start time: 2026-01-03 04:31:37

#Version: 2.2.20231116
#Station: R2M6_AANII_01
#Location: 30.233357 lon 59.946436 lat
#TLE: 1 49008U 21062A   26002.32147302  .00000239  00000+0  13357-3 0  9999
#TLE: 2 49008  98.7477   7.5995 0001398 164.3382 195.7838 14.19884140233041

#Time	Az	El	Level	Level2	SNR	BER	BlckErr	Temp	State	Recorded	gain1	gain2
2026-01-03 04:31:37.68	23.53	32.47	-33.1	-44.3	3.8	8.46e-01	0	43	0	0	26	13017
2026-01-03 04:31:40.66	23.67	33.09	-33.7	-43.2	3.8	8.46e-01	0	43	104	0	27	10781
2026-01-03 04:31:43.67	23.81	33.73	-33.7	-43.3	3.8	8.47e-01	0	43	104	0	27	10819
2026-01-03 04:31:46.68	23.96	34.39	-33.7	-43.2	3.8	8.46e-01	0	43	104	0	27	10775
2026-01-03 04:31:49.69	24.12	35.05	-33.6	-43.1	3.8	8.46e-01	0	43	104	0	27	10729
2026-01-03 04:31:52.70	24.28	35.73	-33.7	-43.2	3.8	8.46e-01	0	43	104	0	27	10747
2026-01-03 04:31:55.70	24.45	36.42	-33.7	-43.2	3.8	8.45e-01	0	43	104	0	27	10774
2026-01-03 04:31:58.71	24.63	37.13	-33.6	-43.1	3.8	8.46e-01	0	43	104	0	27	10733
2026-01-03 04:32:01.70	24.81	37.85	-33.5	-42.8	3.8	8.47e-01	0	43	104	0	27	10476
2026-01-03 04:32:04.71	25.00	38.60	-33.3	-42.5	3.8	8.46e-01	0	43	104	0	26	10448
2026-01-03 04:32:07.72	25.20	39.35	-33.2	-42.4	3.8	8.46e-01	0	43	104	0	26	10316
2026-01-03 04:32:10.72	25.41	40.12	-33.3	-42.8	3.8	8.47e-01	0	43	104	0	26	10771
2026-01-03 04:32:13.71	25.63	40.91	-33.3	-42.6	3.8	8.47e-01	0	43	104	0	26	10580
2026-01-03 04:32:16.70	25.85	41.71	-32.7	-39.5	3.9	8.43e-01	0	43	104	0	25	7880
2026-01-03 04:32:19.71	26.09	42.54	-33.0	-41.1	3.8	8.44e-01	0	43	104	0	25	9127
2026-01-03 04:32:22.72	26.35	43.38	-33.2	-41.9	3.8	8.45e-01	0	43	104	0	26	9832
2026-01-03 04:32:25.72	26.61	44.24	-33.0	-40.5	3.8	8.46e-01	0	43	104	0	26	8551
2026-01-03 04:32:28.73	26.89	45.12	-31.4	-34.6	6.6	2.89e-01	0	43	0	4194304	23	5256
2026-01-03 04:32:31.72	27.18	46.02	-26.6	-27.0	14.0	4.50e-06	0	43	0	26214400	14	3774
2026-01-03 04:32:34.73	27.50	46.94	-26.7	-27.8	13.9	0.00e+00	0	43	0	47185920	13	4057
2026-01-03 04:32:37.74	27.83	47.88	-26.5	-27.3	14.1	1.10e-06	0	43	0	69206016	13	3942
2026-01-03 04:32:40.73	28.17	48.83	-24.9	-25.3	16.2	0.00e+00	0	43	0	91226112	10	3757
2026-01-03 04:32:43.74	28.55	49.81	-23.8	-24.0	17.3	0.00e+00	0	44	0	113246208	8	3663
2026-01-03 04:32:46.74	28.94	50.81	-23.7	-24.3	17.4	0.00e+00	0	44	0	134217728	7	3828
2026-01-03 04:32:49.73	29.36	51.82	-24.2	-24.8	16.9	0.00e+00	0	44	0	156237824	8	3851
2026-01-03 04:32:52.73	29.81	52.86	-23.8	-23.9	17.4	0.00e+00	0	44	0	178257920	8	3638
2026-01-03 04:32:55.73	30.30	53.92	-23.8	-23.4	17.0	0.00e+00	0	44	0	199229440	9	3430
2026-01-03 04:32:58.73	30.82	55.00	-23.8	-24.5	17.3	0.00e+00	0	43	0	221249536	7	3869
2026-01-03 04:33:01.70	31.37	56.09	-24.3	-24.9	17.0	0.00e+00	0	44	0	242221056	8	3874
2026-01-03 04:33:04.71	31.98	57.21	-24.0	-24.4	17.2	0.00e+00	0	44	0	264241152	8	3763
2026-01-03 04:33:07.71	32.64	58.35	-24.3	-24.5	16.9	0.00e+00	0	43	0	286261248	9	3675
2026-01-03 04:33:10.71	33.36	59.51	-23.6	-23.6	17.6	0.00e+00	0	43	0	307232768	8	3568
2026-01-03 04:33:13.72	34.14	60.69	-23.8	-24.4	17.4	0.00e+00	0	43	0	329252864	7	3859
2026-01-03 04:33:16.72	35.00	61.88	-23.6	-23.4	17.2	0.00e+00	0	44	0	351272960	8	3534
2026-01-03 04:33:19.73	35.94	63.09	-23.2	-23.1	18.2	0.00e+00	0	44	0	372244480	7	3560
2026-01-03 04:33:22.73	36.99	64.31	-22.7	-22.6	18.6	0.00e+00	0	44	0	394264576	6	3558
2026-01-03 04:33:25.71	38.14	65.53	-22.5	-22.7	18.9	0.00e+00	0	43	0	416284672	5	3677
2026-01-03 04:33:28.72	39.45	66.78	-22.5	-23.2	18.8	0.00e+00	0	43	0	437256192	4	3902
2026-01-03 04:33:31.72	40.91	68.03	-22.6	-22.8	18.8	0.00e+00	0	43	0	459276288	5	3703
2026-01-03 04:33:34.72	42.56	69.28	-22.8	-23.4	18.5	0.00e+00	0	44	0	481296384	5	3828
2026-01-03 04:33:37.72	44.43	70.54	-23.9	-24.8	17.2	0.00e+00	0	43	0	502267904	7	3970
2026-01-03 04:33:40.73	46.59	71.79	-22.9	-23.0	18.5	0.00e+00	0	43	0	524288000	6	3631
2026-01-03 04:33:43.73	49.08	73.02	-22.4	-22.5	19.0	0.00e+00	0	43	0	546308096	5	3635
2026-01-03 04:33:46.71	51.95	74.22	-22.2	-22.0	19.3	0.00e+00	0	44	0	567279616	5	3528
2026-01-03 04:33:49.69	55.31	75.39	-21.8	-21.8	19.6	0.00e+00	0	43	0	589299712	4	3581
2026-01-03 04:33:52.68	59.27	76.52	-21.8	-21.7	19.7	0.00e+00	0	43	0	610271232	4	3555
2026-01-03 04:33:55.69	64.00	77.59	-21.7	-22.1	19.8	0.00e+00	0	43	0	632291328	3	3750
2026-01-03 04:33:58.70	69.59	78.57	-21.7	-21.9	19.8	0.00e+00	0	44	0	654311424	3	3714
2026-01-03 04:34:01.69	76.13	79.42	-22.8	-23.2	18.7	0.00e+00	0	43	0	675282944	5	3788
2026-01-03 04:34:04.68	83.73	80.12	-21.5	-21.1	20.0	0.00e+00	0	43	0	697303040	4	3443
2026-01-03 04:34:07.67	92.33	80.63	-21.3	-21.6	20.3	0.00e+00	0	44	0	718274560	2	3756
2026-01-03 04:34:10.65	101.65	80.90	-22.1	-22.4	19.4	0.00e+00	0	43	0	740294656	4	3705
2026-01-03 04:34:13.65	111.37	80.93	-22.3	-22.7	19.3	0.00e+00	0	44	0	762314752	4	3787
2026-01-03 04:34:16.63	120.81	80.71	-21.4	-21.4	20.3	0.00e+00	0	44	0	783286272	3	3588
2026-01-03 04:34:19.63	129.65	80.25	-20.8	-20.6	20.6	0.00e+00	0	44	0	805306368	2	3514
2026-01-03 04:34:22.64	137.54	79.59	-21.5	-22.1	20.2	0.00e+00	0	44	0	827326464	2	3851
2026-01-03 04:34:25.63	144.32	78.77	-21.5	-21.6	20.1	0.00e+00	0	44	0	848297984	3	3643
2026-01-03 04:34:28.61	150.07	77.82	-21.7	-22.0	19.9	0.00e+00	0	44	0	870318080	3	3734
2026-01-03 04:34:31.63	155.00	76.77	-21.4	-21.4	20.0	0.00e+00	0	44	0	891289600	3	3605
2026-01-03 04:34:34.63	159.14	75.65	-21.7	-22.1	19.9	0.00e+00	0	43	0	913309696	3	3743
2026-01-03 04:34:37.63	162.64	74.48	-22.4	-23.0	19.1	0.00e+00	0	44	0	935329792	4	3843
2026-01-03 04:34:40.62	165.62	73.27	-23.2	-23.5	18.3	0.00e+00	0	44	0	956301312	6	3767
2026-01-03 04:34:43.61	168.18	72.05	-23.1	-23.5	18.4	0.00e+00	0	44	0	978321408	6	3758
2026-01-03 04:34:46.62	170.41	70.80	-22.6	-22.4	18.9	0.00e+00	0	44	0	999292928	6	3523
2026-01-03 04:34:49.64	172.36	69.53	-22.6	-22.4	18.9	0.00e+00	0	43	0	1021313024	6	3504
2026-01-03 04:34:52.64	174.05	68.28	-22.9	-23.0	18.5	0.00e+00	0	44	0	1043333120	6	3656
2026-01-03 04:34:55.64	175.55	67.02	-22.9	-22.9	18.6	0.00e+00	0	44	0	1065353216	6	3621
2026-01-03 04:34:58.62	176.87	65.78	-22.8	-22.8	18.6	0.00e+00	0	44	0	1086324736	6	3612
2026-01-03 04:35:01.62	178.06	64.54	-23.2	-23.6	18.2	0.00e+00	0	44	0	1108344832	6	3786
2026-01-03 04:35:04.62	179.13	63.32	-23.3	-23.8	18.1	0.00e+00	0	44	0	1129316352	6	3833
2026-01-03 04:35:07.62	180.10	62.10	-23.7	-24.3	17.6	0.00e+00	0	43	0	1151336448	7	3824
2026-01-03 04:35:10.61	180.97	60.91	-24.4	-24.7	16.9	0.00e+00	0	44	0	1173356544	9	3717
2026-01-03 04:35:13.60	181.76	59.73	-23.6	-23.5	17.8	0.00e+00	0	44	0	1194328064	8	3553
2026-01-03 04:35:16.61	182.50	58.56	-24.0	-24.4	17.3	0.00e+00	0	44	0	1216348160	8	3744
2026-01-03 04:35:19.61	183.16	57.41	-24.1	-24.6	17.2	0.00e+00	0	43	0	1238368256	8	3795
2026-01-03 04:35:22.59	183.78	56.29	-24.2	-24.7	17.0	0.00e+00	0	44	0	1259339776	8	3815
2026-01-03 04:35:25.58	184.35	55.19	-24.0	-24.8	17.3	0.00e+00	0	44	0	1281359872	7	3962
2026-01-03 04:35:28.57	184.87	54.11	-23.9	-24.2	14.6	0.00e+00	0	44	0	1302331392	8	3714
2026-01-03 04:35:31.57	185.36	53.04	-24.0	-24.4	17.3	0.00e+00	0	44	0	1324351488	8	3752
2026-01-03 04:35:34.58	185.82	51.99	-24.3	-24.9	17.0	0.00e+00	0	44	0	1346371584	8	3863
2026-01-03 04:35:37.59	186.25	50.96	-23.9	-24.1	17.4	3.17e-04	0	44	0	1368391680	8	3694
2026-01-03 04:35:40.58	186.65	49.96	-24.3	-25.1	16.9	4.47e-04	0	44	0	1389363200	8	3910
2026-01-03 04:35:43.57	187.03	48.98	-24.4	-25.2	16.7	5.64e-04	0	43	0	1411383296	8	3945
2026-01-03 04:35:46.56	187.38	48.01	-24.7	-25.4	16.4	0.00e+00	0	44	0	1432354816	9	3880
2026-01-03 04:35:49.56	187.71	47.07	-23.1	-23.5	18.1	0.00e+00	0	44	0	1454374912	6	3760
2026-01-03 04:35:52.56	188.03	46.14	-23.2	-23.7	18.0	5.96e-04	0	44	0	1476395008	6	3788
2026-01-03 04:35:55.57	188.33	45.23	-23.1	-23.5	18.1	6.73e-04	0	44	0	1497366528	6	3750
2026-01-03 04:35:58.59	188.61	44.34	-22.9	-23.1	18.2	7.08e-04	0	44	0	1519386624	6	3667
2026-01-03 04:36:01.58	188.87	43.48	-22.6	-22.9	18.6	8.65e-04	0	44	0	1541406720	5	3725
2026-01-03 04:36:04.59	189.13	42.63	-22.8	-23.4	18.3	0.00e+00	0	44	0	1562378240	5	3831
2026-01-03 04:36:07.59	189.37	41.80	-22.9	-23.0	18.2	6.11e-04	0	44	0	1584398336	6	3637
2026-01-03 04:36:10.58	189.60	40.99	-22.8	-23.4	18.4	8.82e-04	0	44	0	1606418432	5	3833
2026-01-03 04:36:13.59	189.82	40.19	-22.9	-23.5	18.3	8.86e-04	0	44	0	1627389952	5	3871
2026-01-03 04:36:16.60	190.03	39.41	-23.1	-23.9	18.1	0.00e+00	0	44	0	1649410048	5	3956
2026-01-03 04:36:19.61	190.23	38.64	-23.0	-23.3	18.0	0.00e+00	0	44	0	1671430144	6	3719
2026-01-03 04:36:22.62	190.42	37.90	-22.6	-23.0	18.6	0.00e+00	0	44	0	1692401664	5	3744
2026-01-03 04:36:25.64	190.61	37.16	-22.5	-22.7	18.7	0.00e+00	0	44	0	1714421760	5	3691
2026-01-03 04:36:28.65	190.78	36.45	-22.8	-23.4	18.3	0.00e+00	0	44	0	1736441856	5	3829
2026-01-03 04:36:31.67	190.95	35.74	-22.8	-23.3	18.4	0.00e+00	0	44	0	1758461952	5	3810
2026-01-03 04:36:34.69	191.12	35.06	-22.7	-23.1	18.5	0.00e+00	0	44	0	1780482048	5	3770
2026-01-03 04:36:37.71	191.27	34.38	-22.4	-22.5	17.9	2.67e-04	0	44	0	1801453568	5	3646
2026-01-03 04:36:40.73	191.43	33.72	-22.2	-22.7	18.9	0.00e+00	0	44	0	1823473664	4	3780
2026-01-03 04:36:43.74	191.57	33.08	-21.9	-22.0	19.2	2.20e-06	0	44	0	1845493760	4	3631
2026-01-03 04:36:46.76	191.71	32.45	-22.1	-22.4	19.0	2.20e-06	0	44	0	1867513856	4	3716
2026-01-03 04:36:49.78	191.85	31.83	-22.6	-23.3	18.6	1.96e-04	0	43	0	1888485376	4	3923
2026-01-03 04:36:52.79	191.98	31.22	-22.6	-22.9	18.5	1.76e-04	0	44	0	1910505472	5	3735
2026-01-03 04:36:55.82	192.10	30.62	-22.8	-23.3	18.3	1.70e-04	0	44	0	1932525568	5	3827
2026-01-03 04:36:58.84	192.23	30.04	-22.5	-22.7	18.6	1.51e-04	0	44	0	1954545664	5	3680
2026-01-03 04:37:01.85	192.35	29.47	-22.6	-22.9	18.4	6.98e-05	0	44	0	1976565760	5	3729
2026-01-03 04:37:04.87	192.46	28.91	-22.5	-22.7	18.5	9.38e-05	0	43	0	1997537280	5	3685
2026-01-03 04:37:07.89	192.57	28.36	-22.7	-23.0	18.4	1.43e-03	0	44	0	2019557376	5	3761
2026-01-03 04:37:10.91	192.68	27.82	-22.8	-23.2	18.3	0.00e+00	0	44	0	2041577472	5	3805
2026-01-03 04:37:13.92	192.78	27.30	-23.0	-23.8	18.0	0.00e+00	0	44	0	2063597568	5	3937
2026-01-03 04:37:16.95	192.89	26.78	-23.1	-23.9	17.9	0.00e+00	0	44	0	2085617664	5	3951
2026-01-03 04:37:19.96	192.98	26.27	-23.1	-23.6	17.8	1.58e-03	0	44	0	2106589184	6	3785
2026-01-03 04:37:22.98	193.08	25.77	-23.2	-23.7	17.8	1.54e-03	0	44	0	2128609280	6	3809
2026-01-03 04:37:26.00	193.17	25.28	-23.1	-23.6	17.8	1.42e-03	0	44	0	2150629376	6	3782
2026-01-03 04:37:29.02	193.27	24.80	-23.3	-23.8	17.7	0.00e+00	0	44	0	2171600896	6	3837
2026-01-03 04:37:32.04	193.35	24.32	-23.1	-23.4	17.9	0.00e+00	0	44	0	2193620992	6	3745
2026-01-03 04:37:35.06	193.44	23.86	-23.0	-23.7	18.0	1.30e-03	0	44	0	2215641088	5	3901
2026-01-03 04:37:38.08	193.52	23.40	-22.9	-23.5	18.1	1.36e-03	0	43	0	2237661184	5	3855
2026-01-03 04:37:41.08	193.61	22.96	-22.8	-23.4	18.1	0.00e+00	0	44	0	2259681280	5	3846
2026-01-03 04:37:44.11	193.69	22.51	-23.0	-23.7	18.0	0.00e+00	0	44	0	2280652800	5	3904
2026-01-03 04:37:47.12	193.76	22.08	-22.9	-23.6	18.0	0.00e+00	0	44	0	2302672896	5	3890
2026-01-03 04:37:50.14	193.84	21.66	-23.1	-23.9	17.8	0.00e+00	0	44	0	2324692992	5	3969
2026-01-03 04:37:53.15	193.91	21.24	-23.1	-23.5	17.7	0.00e+00	0	43	0	2346713088	6	3761
2026-01-03 04:37:56.18	193.99	20.82	-23.1	-23.5	17.8	0.00e+00	0	44	0	2367684608	6	3770
2026-01-03 04:37:59.19	194.06	20.42	-23.1	-23.4	17.8	0.00e+00	0	44	0	2389704704	6	3746
2026-01-03 04:38:02.21	194.13	20.02	-23.0	-23.2	17.9	0.00e+00	0	44	0	2411724800	6	3691
2026-01-03 04:38:05.23	194.19	19.63	-23.1	-23.5	17.7	0.00e+00	0	44	0	2433744896	6	3754
2026-01-03 04:38:08.25	194.26	19.24	-23.1	-23.6	17.7	0.00e+00	0	44	0	2455764992	6	3775
2026-01-03 04:38:11.27	194.33	18.86	-23.3	-23.9	17.5	0.00e+00	0	44	0	2476736512	6	3858
2026-01-03 04:38:14.28	194.39	18.48	-23.6	-24.0	17.2	0.00e+00	0	43	0	2498756608	7	3777
2026-01-03 04:38:17.28	194.45	18.12	-23.6	-24.5	17.2	0.00e+00	0	44	0	2520776704	6	3988
2026-01-03 04:38:20.30	194.51	17.75	-23.7	-24.1	17.1	5.49e-05	0	44	0	2542796800	7	3804
2026-01-03 04:38:23.32	194.57	17.39	-23.8	-24.5	16.9	1.94e-05	0	44	0	2563768320	7	3886
2026-01-03 04:38:26.33	194.63	17.04	-24.0	-24.9	16.6	1.83e-05	0	44	0	2585788416	7	3976
2026-01-03 04:38:29.35	194.69	16.69	-24.2	-24.7	16.5	2.97e-05	0	44	0	2607808512	8	3837
2026-01-03 04:38:32.36	194.74	16.35	-24.5	-25.4	16.1	9.72e-05	0	44	0	2629828608	8	4009
2026-01-03 04:38:35.38	194.80	16.01	-24.3	-24.5	16.3	2.20e-06	0	44	0	2651848704	9	3691
2026-01-03 04:38:38.41	194.85	15.67	-24.4	-25.2	16.3	8.00e-06	0	44	0	2672820224	8	3945
2026-01-03 04:38:41.43	194.91	15.34	-24.5	-25.5	16.1	1.79e-04	0	44	0	2694840320	8	4025
2026-01-03 04:38:44.45	194.96	15.02	-24.5	-25.4	16.1	1.99e-04	0	44	0	2716860416	8	4000
2026-01-03 04:38:47.47	195.01	14.70	-24.6	-25.2	16.0	1.97e-04	0	44	0	2738880512	9	3855
2026-01-03 04:38:50.48	195.06	14.38	-24.8	-25.7	15.7	0.00e+00	0	44	0	2760900608	9	3967
2026-01-03 04:38:53.50	195.11	14.07	-25.0	-26.0	15.5	0.00e+00	0	44	0	2781872128	9	4049
2026-01-03 04:38:56.52	195.16	13.76	-24.9	-25.9	15.5	1.22e-04	0	44	0	2803892224	9	4020
2026-01-03 04:38:59.54	195.21	13.45	-24.8	-25.5	15.7	1.14e-04	0	44	0	2825912320	9	3930
2026-01-03 04:39:02.56	195.26	13.15	-24.8	-25.6	15.6	0.00e+00	0	44	0	2846883840	9	3961
2026-01-03 04:39:05.58	195.30	12.85	-24.8	-25.7	15.6	0.00e+00	0	44	0	2868903936	9	3970
2026-01-03 04:39:08.60	195.35	12.56	-24.9	-25.8	15.5	0.00e+00	0	44	0	2890924032	9	4007
2026-01-03 04:39:11.63	195.39	12.27	-25.0	-26.1	15.4	0.00e+00	0	44	0	2912944128	9	4073
2026-01-03 04:39:14.65	195.44	11.98	-25.1	-26.2	15.3	0.00e+00	0	43	0	2934964224	9	4105
2026-01-03 04:39:17.67	195.48	11.70	-25.3	-26.2	15.0	0.00e+00	0	44	0	2955935744	10	4008
2026-01-03 04:39:20.70	195.53	11.42	-25.4	-26.4	14.9	0.00e+00	0	44	0	2977955840	10	4041
2026-01-03 04:39:23.72	195.57	11.14	-25.3	-26.2	15.0	0.00e+00	0	44	0	2999975936	10	4000
2026-01-03 04:39:26.74	195.61	10.86	-25.3	-26.2	15.0	0.00e+00	0	43	0	3021996032	10	3996
2026-01-03 04:39:29.75	195.65	10.59	-25.3	-26.3	14.9	0.00e+00	0	44	0	3044016128	10	4013
2026-01-03 04:39:32.77	195.69	10.33	-25.4	-26.3	14.9	0.00e+00	0	44	0	3064987648	10	4034
2026-01-03 04:39:35.79	195.73	10.06	-25.5	-26.6	14.7	0.00e+00	0	44	0	3087007744	10	4092
2026-01-03 04:39:38.82	195.77	9.80	-25.6	-26.3	14.6	0.00e+00	0	43	0	3109027840	11	3924
2026-01-03 04:39:41.85	195.81	9.54	-25.6	-26.5	14.5	0.00e+00	0	44	0	3131047936	11	3971
2026-01-03 04:39:44.86	195.85	9.28	-25.7	-26.6	14.4	1.10e-06	0	44	0	3153068032	11	4006
2026-01-03 04:39:47.88	195.89	9.03	-25.1	-26.3	14.2	1.10e-06	0	44	0	3174039552	11	4111
2026-01-03 04:39:50.90	195.92	8.77	-25.8	-26.9	14.2	1.25e-03	0	44	0	3196059648	11	4064
2026-01-03 04:39:53.92	195.96	8.52	-26.0	-27.3	13.9	2.20e-06	0	44	0	3218079744	11	4186
2026-01-03 04:39:56.93	196.00	8.28	-26.1	-27.0	13.7	5.70e-06	0	44	0	3240099840	12	4015
2026-01-03 04:39:59.95	196.03	8.03	-26.1	-27.0	13.7	1.51e-03	0	44	0	3262119936	12	4008
2026-01-03 04:40:02.96	196.07	7.79	-26.1	-27.0	13.7	1.54e-03	0	44	0	3283091456	12	4004
2026-01-03 04:40:05.98	196.10	7.55	-26.1	-27.1	13.6	1.59e-03	0	44	0	3305111552	12	4043
2026-01-03 04:40:09.00	196.14	7.31	-26.3	-27.6	13.3	1.48e-03	0	44	0	3327131648	12	4160
2026-01-03 04:40:12.02	196.17	7.08	-26.2	-27.3	13.5	1.60e-05	0	44	0	3349151744	12	4073
2026-01-03 04:40:15.04	196.21	6.85	-32.9	-42.6	3.8	8.45e-01	0	44	104	3351248896	25	11065

#Closed at: 2026-01-03 04:40:15
#Recorded file [3351 MB]: D:/data/31010_260103_073227.dat