passes_logs/2026/01/03/R2M6_AANII_01/R2M6_AANII_01__20260103_020056_NOAA_20_JPSS-1_rec.log

#Pass ID: 20260103_020056_NOAA 20 (JPSS-1)
#Satellite: NOAA 20 (JPSS-1)
#Configuration: NOAA 20
#almurnet v.1.7.20240730
#Start time: 2026-01-03 02:00:56

#Version: 2.2.20231116
#Station: R2M6_AANII_01
#Location: 30.233357 lon 59.946436 lat
#TLE: 1 43013U 17073A   26002.21975278  .00000202  00000+0  11669-3 0  9999
#TLE: 2 43013  98.7622 303.2950 0001915  57.9213 302.2149 14.19532512420923

#Time	Az	El	Level	Level2	SNR	BER	BlckErr	Temp	State	Recorded	gain1	gain2
2026-01-03 02:00:56.44	11.20	6.98	-31.7	-40.6	4.3	1.41e+00	0	40	0	0	23	10048
2026-01-03 02:00:59.45	10.96	7.18	-31.6	-39.7	5.8	3.85e-01	0	41	0	1048576	23	9134
2026-01-03 02:01:02.46	10.72	7.38	-31.6	-39.5	5.9	3.75e-01	0	41	0	7340032	23	8920
2026-01-03 02:01:05.48	10.47	7.58	-31.5	-38.9	6.3	2.14e-01	0	41	0	12582912	23	8397
2026-01-03 02:01:08.50	10.22	7.79	-31.1	-37.3	8.0	1.07e-01	0	41	0	18874368	22	7289
2026-01-03 02:01:11.51	9.96	8.00	-30.5	-35.3	9.8	1.66e-02	0	41	0	24117248	21	6258
2026-01-03 02:01:14.52	9.70	8.20	-30.5	-35.5	10.2	9.67e-03	0	41	0	29360128	20	6457
2026-01-03 02:01:17.53	9.44	8.41	-30.6	-35.4	9.9	1.05e-02	0	41	0	35651584	21	6295
2026-01-03 02:01:20.54	9.17	8.62	-30.4	-35.4	10.3	8.86e-03	0	41	0	40894464	20	6399
2026-01-03 02:01:23.56	8.90	8.83	-30.7	-36.0	9.5	1.93e-02	0	42	0	46137344	21	6588
2026-01-03 02:01:26.58	8.62	9.04	-30.2	-34.7	10.9	2.96e-03	0	41	0	52428800	20	6023
2026-01-03 02:01:29.60	8.34	9.26	-30.3	-34.7	10.8	2.36e-03	0	42	0	57671680	20	6034
2026-01-03 02:01:32.61	8.06	9.47	-30.2	-34.6	11.1	5.04e-03	0	42	0	63963136	20	5946
2026-01-03 02:01:35.63	7.77	9.69	-30.3	-34.9	10.8	4.72e-03	0	41	0	69206016	20	6089
2026-01-03 02:01:38.66	7.47	9.90	-30.2	-34.5	11.1	4.22e-03	0	42	0	74448896	20	5883
2026-01-03 02:01:41.67	7.18	10.12	-30.2	-34.4	11.3	1.65e-03	0	42	0	80740352	20	5823
2026-01-03 02:01:44.68	6.87	10.34	-30.2	-34.3	11.3	1.16e-03	0	42	0	85983232	20	5806
2026-01-03 02:01:47.70	6.57	10.56	-30.2	-34.3	11.3	9.75e-04	0	42	0	92274688	20	5789
2026-01-03 02:01:50.71	6.26	10.78	-30.4	-34.9	10.9	1.86e-03	0	42	0	97517568	20	6085
2026-01-03 02:01:53.73	5.94	11.00	-30.2	-34.5	11.2	1.82e-03	0	42	0	102760448	20	5892
2026-01-03 02:01:56.75	5.62	11.23	-30.1	-34.0	11.7	6.42e-04	0	42	0	109051904	20	5630
2026-01-03 02:01:59.76	5.29	11.45	-30.2	-34.4	10.7	1.25e-03	0	42	0	114294784	20	5820
2026-01-03 02:02:02.77	4.96	11.68	-30.2	-34.2	10.8	3.99e-03	0	42	0	120586240	20	5729
2026-01-03 02:02:05.79	4.62	11.90	-30.1	-34.0	11.7	7.92e-04	0	42	0	125829120	20	5622
2026-01-03 02:02:08.81	4.28	12.13	-30.2	-34.2	11.5	7.41e-04	0	42	0	131072000	20	5741
2026-01-03 02:02:11.82	3.93	12.36	-30.3	-34.5	11.4	1.29e-03	0	42	0	137363456	20	5855
2026-01-03 02:02:14.84	3.57	12.59	-30.2	-34.4	11.5	8.38e-04	0	42	0	142606336	20	5797
2026-01-03 02:02:17.84	3.22	12.82	-30.2	-34.1	11.7	6.75e-04	0	42	0	148897792	20	5672
2026-01-03 02:02:20.86	2.85	13.05	-30.2	-34.1	11.7	3.86e-03	0	42	0	154140672	20	5650
2026-01-03 02:02:23.88	2.48	13.29	-30.1	-33.8	11.9	3.32e-03	0	42	0	159383552	20	5551
2026-01-03 02:02:26.89	2.10	13.52	-30.1	-33.8	11.9	3.10e-03	0	43	0	165675008	20	5525
2026-01-03 02:02:29.91	1.72	13.76	-30.0	-33.6	12.1	3.48e-03	0	43	0	170917888	20	5453
2026-01-03 02:02:32.92	1.33	13.99	-30.1	-33.9	11.9	3.32e-03	0	43	0	176160768	20	5581
2026-01-03 02:02:35.94	0.93	14.23	-30.1	-33.8	12.1	3.17e-03	0	43	0	182452224	20	5500
2026-01-03 02:02:38.96	0.52	14.47	-30.0	-33.6	12.2	3.50e-03	0	42	0	187695104	20	5440
2026-01-03 02:02:41.98	0.11	14.71	-30.0	-33.6	12.2	3.25e-03	0	42	0	193986560	20	5414
2026-01-03 02:02:44.99	359.70	14.95	-29.9	-33.7	12.6	3.04e-03	0	43	0	199229440	19	5585
2026-01-03 02:02:48.00	359.28	15.19	-30.0	-33.4	12.4	3.12e-03	0	43	0	204472320	20	5349
2026-01-03 02:02:51.02	358.84	15.43	-29.8	-33.4	12.8	3.05e-03	0	43	0	210763776	19	5424
2026-01-03 02:02:54.04	358.40	15.67	-29.8	-33.4	12.9	6.33e-05	0	43	0	216006656	19	5415
2026-01-03 02:02:57.06	357.96	15.91	-29.8	-33.4	12.9	6.56e-05	0	43	0	222298112	19	5418
2026-01-03 02:03:00.08	357.51	16.16	-29.7	-33.1	13.0	2.28e-05	0	43	0	227540992	19	5320
2026-01-03 02:03:03.08	357.05	16.40	-29.7	-33.1	13.1	3.12e-05	0	43	0	232783872	19	5298
2026-01-03 02:03:06.10	356.58	16.64	-29.7	-32.9	13.2	2.13e-05	0	43	0	239075328	19	5242
2026-01-03 02:03:09.11	356.10	16.89	-29.7	-33.0	13.2	3.47e-03	0	43	0	244318208	19	5257
2026-01-03 02:03:12.13	355.62	17.13	-29.7	-32.9	13.2	2.89e-05	0	43	0	250609664	19	5250
2026-01-03 02:03:15.14	355.13	17.38	-29.7	-33.0	13.2	1.98e-05	0	43	0	255852544	19	5279
2026-01-03 02:03:18.15	354.63	17.62	-29.9	-33.2	12.7	6.25e-05	0	43	0	261095424	20	5252
2026-01-03 02:03:21.16	354.12	17.87	-29.7	-33.1	13.2	2.82e-05	0	43	0	267386880	19	5298
2026-01-03 02:03:24.18	353.60	18.12	-29.8	-33.4	13.0	3.43e-05	0	43	0	272629760	19	5409
2026-01-03 02:03:27.19	353.08	18.36	-29.9	-33.5	12.9	4.73e-05	0	43	0	278921216	19	5446
2026-01-03 02:03:30.22	352.54	18.61	-30.0	-33.3	12.7	8.46e-05	0	43	0	284164096	20	5271
2026-01-03 02:03:33.24	352.00	18.85	-30.1	-33.7	12.3	2.66e-04	0	43	0	289406976	20	5419
2026-01-03 02:03:36.26	351.44	19.10	-30.0	-33.3	12.7	4.29e-04	0	43	0	295698432	20	5272
2026-01-03 02:03:39.27	350.88	19.34	-30.0	-33.7	12.8	6.94e-05	0	43	0	300941312	19	5529
2026-01-03 02:03:42.29	350.31	19.59	-30.1	-33.5	12.5	6.02e-05	0	43	0	307232768	20	5375
2026-01-03 02:03:45.31	349.73	19.83	-29.9	-33.2	12.8	6.02e-05	0	43	0	312475648	20	5224
2026-01-03 02:03:48.32	349.14	20.08	-29.9	-33.4	13.0	2.67e-04	0	43	0	317718528	19	5412
2026-01-03 02:03:51.33	348.54	20.32	-29.9	-33.6	13.0	2.05e-04	0	43	0	324009984	19	5468
2026-01-03 02:03:54.34	347.94	20.56	-29.8	-33.1	13.3	1.12e-04	0	43	0	329252864	19	5287
2026-01-03 02:03:57.36	347.32	20.80	-29.6	-32.7	13.5	9.10e-06	0	43	0	334495744	19	5137
2026-01-03 02:04:00.38	346.69	21.04	-29.6	-32.6	13.6	8.30e-06	0	43	0	340787200	19	5075
2026-01-03 02:04:03.39	346.05	21.27	-29.5	-32.3	13.8	7.60e-06	0	43	0	346030080	19	4989
2026-01-03 02:04:06.39	345.41	21.51	-29.3	-31.8	14.1	1.50e-06	0	43	0	352321536	19	4805
2026-01-03 02:04:09.41	344.75	21.74	-29.1	-31.9	14.4	7.00e-07	0	43	0	357564416	18	4952
2026-01-03 02:04:12.43	344.08	21.97	-29.2	-32.1	14.3	1.50e-06	0	43	0	362807296	18	5013
2026-01-03 02:04:15.44	343.40	22.20	-29.2	-32.1	14.3	1.50e-06	0	43	0	369098752	18	5005
2026-01-03 02:04:18.46	342.71	22.43	-28.8	-31.4	14.9	0.00e+00	0	43	0	374341632	17	4902
2026-01-03 02:04:21.47	342.02	22.65	-28.8	-31.6	14.9	0.00e+00	0	43	0	380633088	17	4954
2026-01-03 02:04:24.49	341.31	22.88	-28.8	-31.6	14.9	0.00e+00	0	43	0	385875968	17	4957
2026-01-03 02:04:27.50	340.59	23.09	-29.0	-31.7	14.5	5.49e-05	0	43	0	391118848	18	4875
2026-01-03 02:04:30.50	339.86	23.31	-29.3	-32.2	14.2	2.14e-04	0	43	0	397410304	18	5051
2026-01-03 02:04:33.51	339.12	23.52	-29.0	-31.7	14.6	7.00e-07	0	43	0	402653184	18	4866
2026-01-03 02:04:36.53	338.37	23.73	-28.9	-31.3	14.8	1.97e-04	0	43	0	408944640	18	4746
2026-01-03 02:04:39.54	337.61	23.94	-28.8	-31.5	15.0	5.45e-04	0	43	0	414187520	17	4908
2026-01-03 02:04:42.56	336.84	24.14	-28.9	-31.9	14.7	1.67e-03	0	43	0	419430400	17	5063
2026-01-03 02:04:45.58	336.06	24.33	-28.9	-31.8	14.8	1.59e-03	0	43	0	425721856	17	5002
2026-01-03 02:04:48.58	335.28	24.53	-29.2	-32.1	14.3	1.27e-03	0	43	0	430964736	18	5019
2026-01-03 02:04:51.60	334.48	24.71	-29.1	-31.7	14.5	2.20e-06	0	43	0	437256192	18	4883
2026-01-03 02:04:54.62	333.67	24.90	-28.7	-31.4	15.1	0.00e+00	0	43	0	442499072	17	4865
2026-01-03 02:04:57.64	332.85	25.08	-28.9	-31.8	13.5	0.00e+00	0	43	0	447741952	17	5013
2026-01-03 02:05:00.66	332.02	25.25	-29.0	-31.6	14.6	1.15e-03	0	43	0	454033408	18	4854
2026-01-03 02:05:03.67	331.18	25.42	-29.1	-31.8	14.5	2.21e-03	0	43	0	459276288	18	4891
2026-01-03 02:05:06.69	330.34	25.58	-29.1	-31.8	14.6	3.54e-04	0	43	0	464519168	18	4901
2026-01-03 02:05:09.70	329.48	25.73	-28.5	-30.8	15.4	3.20e-04	0	43	0	470810624	17	4695
2026-01-03 02:05:12.72	328.62	25.88	-28.5	-31.2	15.5	0.00e+00	0	43	0	476053504	16	4911
2026-01-03 02:05:15.74	327.75	26.03	-28.6	-31.0	15.3	0.00e+00	0	43	0	482344960	17	4765
2026-01-03 02:05:18.74	326.87	26.16	-28.6	-31.1	15.3	1.35e-03	0	43	0	487587840	17	4767
2026-01-03 02:05:21.76	325.99	26.29	-28.9	-31.8	14.8	3.23e-04	0	43	0	492830720	17	5030
2026-01-03 02:05:24.78	325.09	26.42	-29.2	-32.0	14.4	1.59e-03	0	43	0	499122176	18	4975
2026-01-03 02:05:27.80	324.19	26.53	-29.6	-32.5	13.9	2.31e-03	0	43	0	504365056	19	5025
2026-01-03 02:05:30.82	323.28	26.64	-29.7	-32.9	13.5	2.77e-03	0	43	0	510656512	19	5204
2026-01-03 02:05:33.84	322.37	26.74	-29.8	-33.2	13.3	2.78e-03	0	43	0	515899392	19	5320
2026-01-03 02:05:36.86	321.45	26.83	-29.6	-32.7	13.7	3.80e-06	0	43	0	521142272	19	5101
2026-01-03 02:05:39.89	320.52	26.92	-29.7	-32.9	13.5	3.22e-03	0	43	0	527433728	19	5194
2026-01-03 02:05:42.89	319.60	27.00	-29.9	-33.3	13.2	3.33e-03	0	43	0	532676608	19	5365
2026-01-03 02:05:45.91	318.66	27.07	-30.1	-33.6	12.6	3.26e-03	0	43	0	538968064	20	5361
2026-01-03 02:05:48.93	317.72	27.13	-29.9	-33.5	13.1	3.12e-03	0	43	0	544210944	19	5412
2026-01-03 02:05:51.95	316.78	27.18	-30.2	-33.8	12.5	3.04e-03	0	43	0	549453824	20	5444
2026-01-03 02:05:54.97	315.84	27.22	-30.1	-33.4	12.8	1.03e-04	0	43	0	555745280	20	5266
2026-01-03 02:05:57.99	314.89	27.26	-30.0	-33.1	13.0	5.11e-05	0	43	0	560988160	20	5172
2026-01-03 02:06:01.00	313.95	27.28	-30.0	-33.4	12.8	4.04e-05	0	43	0	567279616	20	5276
2026-01-03 02:06:04.02	313.00	27.30	-30.4	-34.4	12.1	2.86e-04	0	43	0	572522496	20	5701
2026-01-03 02:06:07.02	312.05	27.31	-30.3	-34.1	12.4	1.36e-04	0	43	0	577765376	20	5550
2026-01-03 02:06:10.04	311.10	27.31	-30.1	-33.5	12.6	1.40e-04	0	43	0	584056832	20	5340
2026-01-03 02:06:13.05	310.15	27.30	-30.0	-33.6	13.1	2.97e-05	0	43	0	589299712	19	5452
2026-01-03 02:06:16.07	309.20	27.28	-29.5	-32.4	13.9	3.80e-06	0	43	0	595591168	19	4995
2026-01-03 02:06:19.09	308.25	27.26	-29.4	-32.5	14.1	2.20e-06	0	43	0	600834048	18	5145
2026-01-03 02:06:22.11	307.31	27.22	-29.5	-32.4	13.9	7.00e-07	0	43	0	606076928	19	4987
2026-01-03 02:06:25.13	306.36	27.18	-29.5	-32.4	13.8	2.20e-06	0	43	0	612368384	19	5010
2026-01-03 02:06:28.15	305.42	27.13	-29.4	-32.4	14.2	2.20e-06	0	43	0	617611264	18	5121
2026-01-03 02:06:31.17	304.48	27.07	-28.9	-31.8	14.8	0.00e+00	0	43	0	623902720	17	5031
2026-01-03 02:06:34.18	303.55	27.00	-28.7	-31.2	15.2	2.21e-03	0	43	0	629145600	17	4807
2026-01-03 02:06:37.20	302.62	26.93	-28.8	-31.5	15.0	2.07e-03	0	43	0	634388480	17	4910
2026-01-03 02:06:40.21	301.69	26.84	-28.6	-31.1	15.2	2.24e-03	0	43	0	640679936	17	4788
2026-01-03 02:06:43.23	300.77	26.75	-28.6	-31.0	15.3	0.00e+00	0	43	0	645922816	17	4761
2026-01-03 02:06:46.25	299.86	26.65	-28.3	-30.8	15.8	0.00e+00	0	43	0	652214272	16	4785
2026-01-03 02:06:49.27	298.95	26.54	-28.7	-31.2	15.2	0.00e+00	0	43	0	657457152	17	4798
2026-01-03 02:06:52.28	298.05	26.43	-28.9	-31.7	14.9	2.29e-03	0	43	0	662700032	17	4984
2026-01-03 02:06:55.30	297.15	26.30	-28.7	-31.2	15.2	2.18e-03	0	43	0	668991488	17	4808
2026-01-03 02:06:58.32	296.26	26.17	-28.7	-31.3	15.1	2.04e-03	0	43	0	674234368	17	4860
2026-01-03 02:07:01.34	295.38	26.04	-28.8	-31.5	15.0	2.22e-03	0	43	0	680525824	17	4920
2026-01-03 02:07:04.36	294.50	25.90	-29.1	-31.8	14.5	2.04e-03	0	43	0	685768704	18	4908
2026-01-03 02:07:07.39	293.64	25.75	-29.3	-32.3	14.2	1.86e-03	0	43	0	691011584	18	5070
2026-01-03 02:07:10.41	292.78	25.59	-29.5	-32.8	13.9	3.80e-06	0	43	0	697303040	18	5249
2026-01-03 02:07:13.43	291.93	25.43	-29.8	-33.0	13.4	1.60e-05	0	43	0	702545920	19	5244
2026-01-03 02:07:16.45	291.09	25.26	-30.0	-33.3	12.8	5.41e-05	0	43	0	708837376	20	5263
2026-01-03 02:07:19.46	290.26	25.09	-29.8	-33.1	13.3	2.35e-03	0	43	0	714080256	19	5273
2026-01-03 02:07:22.49	289.43	24.91	-29.6	-32.7	13.6	2.05e-03	0	43	0	719323136	19	5107
2026-01-03 02:07:25.51	288.62	24.72	-29.8	-33.2	13.3	2.53e-03	0	43	0	725614592	19	5318
2026-01-03 02:07:28.52	287.82	24.54	-29.8	-33.3	13.1	2.05e-05	0	43	0	730857472	19	5343
2026-01-03 02:07:31.54	287.03	24.34	-29.9	-33.0	12.9	3.35e-05	0	43	0	737148928	20	5162
2026-01-03 02:07:34.55	286.25	24.15	-30.0	-33.4	12.7	8.31e-05	0	43	0	742391808	20	5295
2026-01-03 02:07:37.57	285.47	23.94	-30.1	-33.6	12.6	7.55e-05	0	43	0	747634688	20	5371
2026-01-03 02:07:40.59	284.71	23.74	-30.2	-33.8	12.4	3.52e-04	0	43	0	753926144	20	5477
2026-01-03 02:07:43.61	283.95	23.53	-30.1	-33.5	12.6	2.24e-04	0	43	0	759169024	20	5354
2026-01-03 02:07:46.63	283.21	23.32	-29.9	-33.4	13.0	1.20e-04	0	43	0	764411904	19	5410
2026-01-03 02:07:49.64	282.48	23.10	-29.9	-33.0	12.9	1.01e-04	0	43	0	770703360	20	5138
2026-01-03 02:07:52.65	281.76	22.88	-29.7	-32.8	13.4	1.14e-05	0	43	0	775946240	19	5180
2026-01-03 02:07:55.67	281.05	22.66	-29.4	-32.6	13.9	1.70e-03	0	43	0	782237696	18	5212
2026-01-03 02:07:58.68	280.34	22.43	-29.2	-32.2	14.1	2.21e-03	0	43	0	787480576	18	5054
2026-01-03 02:08:01.70	279.65	22.21	-29.2	-32.0	14.3	2.32e-03	0	43	0	792723456	18	4973
2026-01-03 02:08:04.71	278.97	21.98	-29.1	-31.9	14.3	1.48e-03	0	43	0	799014912	18	4954
2026-01-03 02:08:07.73	278.30	21.74	-29.1	-31.9	14.3	4.45e-04	0	43	0	804257792	18	4943
2026-01-03 02:08:10.75	277.64	21.51	-29.5	-32.4	13.7	2.25e-04	0	43	0	810549248	19	5023
2026-01-03 02:08:13.77	276.99	21.27	-29.7	-33.0	13.3	2.51e-04	0	43	0	815792128	19	5244
2026-01-03 02:08:16.79	276.34	21.03	-29.6	-32.8	13.3	2.20e-04	0	43	0	821035008	19	5189
2026-01-03 02:08:19.80	275.71	20.80	-28.9	-31.3	14.6	5.41e-05	0	43	0	827326464	18	4753
2026-01-03 02:08:22.81	275.09	20.56	-28.9	-31.9	14.5	6.32e-04	0	43	0	832569344	17	5065
2026-01-03 02:08:25.83	274.48	20.31	-28.4	-31.2	15.3	8.57e-04	0	43	0	838860800	16	4939
2026-01-03 02:08:28.85	273.88	20.07	-28.3	-30.7	15.5	9.54e-04	0	43	0	844103680	16	4793
2026-01-03 02:08:31.86	273.29	19.83	-28.3	-30.9	15.5	1.00e-03	0	43	0	849346560	16	4829
2026-01-03 02:08:34.87	272.70	19.58	-28.3	-30.9	15.4	0.00e+00	0	43	0	855638016	16	4839
2026-01-03 02:08:37.88	272.13	19.34	-28.1	-30.2	15.8	0.00e+00	0	43	0	860880896	16	4626
2026-01-03 02:08:40.90	271.57	19.09	-27.9	-30.4	15.9	0.00e+00	0	43	0	867172352	15	4807
2026-01-03 02:08:43.92	271.01	18.85	-28.5	-30.8	15.2	0.00e+00	0	43	0	872415232	17	4696
2026-01-03 02:08:46.93	270.47	18.60	-28.6	-31.0	15.0	0.00e+00	0	43	0	877658112	17	4779
2026-01-03 02:08:49.95	269.93	18.35	-28.2	-30.7	15.5	0.00e+00	0	43	0	883949568	16	4779
2026-01-03 02:08:52.97	269.40	18.11	-28.2	-30.6	15.6	2.46e-03	0	43	0	889192448	16	4736
2026-01-03 02:08:55.99	268.88	17.86	-28.4	-31.1	15.2	0.00e+00	0	43	0	895483904	16	4913
2026-01-03 02:08:59.00	268.37	17.61	-28.8	-31.7	14.6	7.00e-07	0	43	0	900726784	17	5000
2026-01-03 02:09:02.02	267.86	17.37	-28.2	-30.7	15.5	0.00e+00	0	43	0	905969664	16	4781
2026-01-03 02:09:05.05	267.36	17.12	-28.4	-31.2	15.2	3.00e-06	0	43	0	912261120	16	4952
2026-01-03 02:09:08.06	266.88	16.87	-28.6	-31.2	14.8	3.00e-06	0	43	0	917504000	17	4836
2026-01-03 02:09:11.08	266.40	16.63	-27.6	-30.3	15.1	6.10e-06	0	43	0	922746880	16	4927
2026-01-03 02:09:14.09	265.93	16.38	-28.4	-31.2	12.8	5.30e-06	0	43	0	929038336	16	4975
2026-01-03 02:09:17.10	265.47	16.14	-28.8	-31.7	14.4	2.83e-03	0	43	0	934281216	17	5033
2026-01-03 02:09:20.12	265.01	15.89	-29.2	-32.2	13.8	4.59e-03	0	43	0	940572672	18	5093
2026-01-03 02:09:23.14	264.56	15.65	-29.1	-32.1	13.9	1.06e-05	0	43	0	945815552	18	5064
2026-01-03 02:09:26.16	264.12	15.41	-29.1	-32.0	13.9	6.80e-06	0	43	0	951058432	18	5012
2026-01-03 02:09:29.18	263.69	15.16	-29.1	-32.0	13.9	8.30e-06	0	43	0	957349888	18	5034
2026-01-03 02:09:32.20	263.26	14.92	-29.2	-32.3	13.7	1.14e-05	0	43	0	962592768	18	5137
2026-01-03 02:09:35.21	262.84	14.68	-29.3	-32.6	13.5	2.44e-03	0	43	0	968884224	18	5241
2026-01-03 02:09:38.22	262.43	14.44	-29.1	-32.1	13.8	3.28e-03	0	43	0	974127104	18	5053
2026-01-03 02:09:41.24	262.02	14.20	-29.2	-32.4	13.6	3.04e-03	0	43	0	979369984	18	5185
2026-01-03 02:09:44.25	261.62	13.97	-29.5	-32.6	13.1	3.44e-03	0	43	0	985661440	19	5150
2026-01-03 02:09:47.27	261.23	13.73	-29.4	-32.9	13.2	5.08e-03	0	43	0	990904320	18	5385
2026-01-03 02:09:50.28	260.84	13.49	-29.4	-32.8	13.2	2.33e-03	0	43	0	997195776	18	5352
2026-01-03 02:09:53.30	260.46	13.26	-29.4	-32.8	13.2	2.71e-03	0	43	0	1002438656	18	5362
2026-01-03 02:09:56.32	260.09	13.02	-29.7	-33.2	12.6	6.64e-03	0	43	0	1007681536	19	5402
2026-01-03 02:09:59.34	259.72	12.79	-29.6	-32.9	12.8	6.78e-03	0	43	0	1013972992	19	5285
2026-01-03 02:10:02.36	259.35	12.56	-29.6	-32.9	12.7	6.64e-03	0	43	0	1019215872	19	5291
2026-01-03 02:10:05.37	259.00	12.33	-29.7	-33.2	12.5	5.89e-03	0	43	0	1025507328	19	5395
2026-01-03 02:10:08.39	258.65	12.10	-29.7	-33.3	12.5	2.39e-03	0	43	0	1030750208	19	5460
2026-01-03 02:10:11.41	258.30	11.87	-29.7	-33.3	12.4	2.70e-03	0	43	0	1035993088	19	5470
2026-01-03 02:10:14.42	257.96	11.64	-29.8	-33.7	12.2	2.46e-04	0	43	0	1042284544	19	5613
2026-01-03 02:10:17.44	257.62	11.42	-29.8	-33.6	12.2	1.94e-04	0	43	0	1047527424	19	5581
2026-01-03 02:10:20.46	257.29	11.19	-29.8	-33.6	12.2	2.10e-04	0	43	0	1053818880	19	5575
2026-01-03 02:10:23.48	256.97	10.97	-29.8	-33.7	12.1	2.50e-04	0	43	0	1059061760	19	5630
2026-01-03 02:10:26.50	256.65	10.74	-29.9	-34.1	11.8	4.43e-04	0	43	0	1064304640	19	5827
2026-01-03 02:10:29.51	256.33	10.52	-30.2	-34.9	10.5	1.64e-03	0	43	0	1070596096	19	6205
2026-01-03 02:10:32.53	256.02	10.30	-30.3	-34.8	10.1	2.12e-03	0	43	0	1075838976	20	6078
2026-01-03 02:10:35.53	255.72	10.08	-30.3	-34.9	10.6	2.86e-03	0	43	0	1081081856	20	6126
2026-01-03 02:10:38.56	255.42	9.86	-30.3	-34.8	10.7	3.14e-03	0	43	0	1087373312	20	6071
2026-01-03 02:10:41.57	255.12	9.65	-30.2	-34.4	11.0	2.21e-03	0	43	0	1092616192	20	5881
2026-01-03 02:10:44.59	254.83	9.43	-29.9	-33.7	11.5	3.81e-03	0	43	0	1098907648	20	5585
2026-01-03 02:10:47.61	254.54	9.21	-30.1	-34.3	11.1	3.09e-03	0	43	0	1104150528	20	5823
2026-01-03 02:10:50.62	254.26	9.00	-30.1	-34.3	11.1	4.00e-03	0	43	0	1109393408	20	5815
2026-01-03 02:10:53.64	253.98	8.79	-30.0	-34.1	11.2	4.37e-03	0	43	0	1115684864	20	5765
2026-01-03 02:10:56.65	253.71	8.58	-30.1	-34.4	11.0	4.89e-03	0	43	0	1120927744	20	5871
2026-01-03 02:10:59.67	253.44	8.37	-30.2	-34.5	10.8	2.51e-03	0	43	0	1127219200	20	5963
2026-01-03 02:11:02.69	253.17	8.16	-30.2	-34.6	10.7	6.38e-03	0	43	0	1132462080	20	6003
2026-01-03 02:11:05.70	252.91	7.95	-30.3	-35.0	10.4	8.66e-03	0	43	0	1137704960	20	6220
2026-01-03 02:11:08.71	252.65	7.74	-30.3	-35.3	10.1	1.24e-02	0	43	0	1143996416	20	6381
2026-01-03 02:11:11.72	252.40	7.54	-30.4	-35.7	9.8	1.57e-02	0	43	0	1149239296	20	6580
2026-01-03 02:11:14.74	252.15	7.33	-30.7	-36.3	8.9	2.94e-02	0	43	0	1155530752	21	6829
2026-01-03 02:11:17.76	251.90	7.13	-30.4	-35.7	9.7	1.27e-02	0	43	0	1160773632	20	6628
2026-01-03 02:11:20.78	251.65	6.93	-32.8	-47.3	3.8	1.49e+00	0	43	104	1161822208	25	18998

#Closed at: 2026-01-03 02:11:21
#Recorded file [1161 MB]: D:/data/31010_260103_050058.dat