passes_logs/2026/01/03/R2M6_AANII_01/R2M6_AANII_01__20260103_123345_FENGYUN_3D_rec.log

#Pass ID: 20260103_123345_FENGYUN 3D
#Satellite: FENGYUN 3D
#Configuration: FENGYUN 3D
#almurnet v.1.7.20240730
#Start time: 2026-01-03 12:40:45

#Version: 2.2.20231116
#Station: R2M6_AANII_01
#Location: 30.233357 lon 59.946436 lat
#TLE: 1 43010U 17072A   26002.31768531  .00000715  00000+0  35975-3 0  9993
#TLE: 2 43010  98.9910 333.9388 0001871 131.0716 229.0622 14.19693418421454

#Time	Az	El	Level	Level2	SNR	BER	BlckErr	Temp	State	Recorded	gain1	gain2
2026-01-03 12:40:45.03	315.37	58.33	-33.8	-53.1	3.8	7.45e-01	0	43	0	0	28	33215
2026-01-03 12:40:47.03	316.16	57.63	-33.9	-44.4	3.8	8.46e-01	0	43	104	0	29	12044
2026-01-03 12:40:49.04	316.92	56.94	-34.0	-44.5	3.8	8.47e-01	0	43	104	0	29	12052
2026-01-03 12:40:51.04	317.64	56.25	-34.0	-44.5	3.8	8.46e-01	0	43	104	0	29	12035
2026-01-03 12:40:53.03	318.32	55.57	-34.0	-44.6	3.8	8.47e-01	0	43	104	0	29	12177
2026-01-03 12:40:55.04	318.97	54.88	-34.0	-44.6	3.8	8.45e-01	0	43	104	0	29	12125
2026-01-03 12:40:57.04	319.59	54.21	-34.0	-44.5	3.8	8.46e-01	0	43	104	0	29	12076
2026-01-03 12:40:59.04	320.19	53.54	-34.0	-44.6	3.8	8.46e-01	0	43	104	0	29	12165
2026-01-03 12:41:01.05	320.76	52.88	-34.0	-44.6	3.8	8.47e-01	0	43	104	0	29	12207
2026-01-03 12:41:03.04	321.30	52.23	-34.0	-44.6	3.8	8.47e-01	0	43	104	0	29	12166
2026-01-03 12:41:05.04	321.81	51.58	-34.0	-44.6	3.8	8.45e-01	0	43	104	0	29	12137
2026-01-03 12:41:07.03	322.31	50.94	-34.0	-44.6	3.8	8.46e-01	0	43	104	0	29	12200
2026-01-03 12:41:09.03	322.79	50.30	-34.0	-44.6	3.8	8.47e-01	0	43	104	0	29	12134
2026-01-03 12:41:11.04	323.25	49.67	-34.0	-44.3	3.8	8.45e-01	0	43	104	0	29	11813
2026-01-03 12:41:13.03	323.68	49.05	-33.9	-43.9	3.8	8.45e-01	0	43	104	0	29	11363
2026-01-03 12:41:15.04	324.11	48.43	-33.9	-44.3	3.8	8.46e-01	0	43	104	0	28	11917
2026-01-03 12:41:17.05	324.52	47.82	-33.8	-44.4	3.8	8.47e-01	0	43	104	0	28	12096
2026-01-03 12:41:19.05	324.91	47.22	-33.8	-44.5	3.8	8.47e-01	0	43	104	0	28	12223
2026-01-03 12:41:21.06	325.29	46.62	-33.8	-44.0	3.8	8.46e-01	0	43	104	0	28	11635
2026-01-03 12:41:23.07	325.65	46.03	-33.8	-43.7	3.8	8.46e-01	0	43	104	0	28	11305
2026-01-03 12:41:25.05	326.00	45.46	-33.4	-40.7	4.2	8.38e-01	0	43	104	0	28	8319
2026-01-03 12:41:27.06	326.34	44.88	-33.4	-40.8	4.2	8.36e-01	0	43	104	0	28	8473
2026-01-03 12:41:29.05	326.66	44.32	-33.7	-43.1	3.8	8.45e-01	0	43	104	0	28	10584
2026-01-03 12:41:31.04	326.98	43.76	-33.8	-43.9	3.8	8.47e-01	0	43	104	0	28	11551
2026-01-03 12:41:33.03	327.28	43.22	-33.8	-43.7	3.8	8.45e-01	0	43	104	0	28	11377
2026-01-03 12:41:35.03	327.58	42.67	-32.7	-37.9	5.8	7.59e-01	0	43	104	0	26	6536
2026-01-03 12:41:37.02	327.86	42.14	-30.1	-32.4	11.0	9.80e-03	0	43	0	9437184	21	4667
2026-01-03 12:41:39.03	328.14	41.61	-25.5	-26.2	17.1	0.00e+00	0	43	0	20971520	12	3890
2026-01-03 12:41:41.02	328.41	41.09	-26.2	-27.7	16.3	0.00e+00	0	43	0	32505856	12	4278
2026-01-03 12:41:43.02	328.67	40.57	-25.0	-25.5	17.8	0.00e+00	0	43	0	44040192	11	3848
2026-01-03 12:41:45.02	328.92	40.06	-23.9	-24.4	18.9	0.00e+00	0	43	0	54525952	9	3786
2026-01-03 12:41:47.02	329.16	39.56	-23.5	-24.0	19.3	0.00e+00	0	43	0	66060288	8	3811
2026-01-03 12:41:49.02	329.40	39.06	-23.6	-24.1	19.3	0.00e+00	0	43	0	77594624	8	3827
2026-01-03 12:41:51.01	329.63	38.57	-23.8	-24.5	19.0	0.00e+00	0	43	0	89128960	8	3930
2026-01-03 12:41:53.01	329.85	38.09	-23.1	-23.6	19.7	0.00e+00	0	43	0	99614720	7	3826
2026-01-03 12:41:55.01	330.07	37.61	-23.2	-23.9	19.5	0.00e+00	0	43	0	111149056	7	3903
2026-01-03 12:41:57.01	330.28	37.14	-23.2	-23.9	19.6	0.00e+00	0	44	0	122683392	7	3886
2026-01-03 12:41:59.01	330.49	36.68	-23.2	-23.9	19.6	0.00e+00	0	43	0	133169152	7	3876
2026-01-03 12:42:01.00	330.69	36.23	-23.0	-23.3	19.9	0.00e+00	0	43	0	144703488	7	3754
2026-01-03 12:42:02.99	330.88	35.78	-23.1	-23.6	19.7	0.00e+00	0	43	0	156237824	7	3815
2026-01-03 12:42:04.99	331.07	35.33	-22.8	-23.1	20.0	0.00e+00	0	43	0	167772160	7	3711
2026-01-03 12:42:06.99	331.26	34.89	-23.0	-23.4	19.8	0.00e+00	0	43	0	178257920	7	3768
2026-01-03 12:42:08.99	331.44	34.46	-23.0	-23.4	19.8	0.00e+00	0	43	0	189792256	7	3780
2026-01-03 12:42:10.99	331.61	34.03	-23.0	-23.4	19.8	0.00e+00	0	43	0	201326592	7	3767
2026-01-03 12:42:12.98	331.78	33.61	-23.0	-23.4	19.8	0.00e+00	0	43	0	212860928	7	3767
2026-01-03 12:42:14.99	331.95	33.19	-23.0	-23.4	19.8	0.00e+00	0	43	0	223346688	7	3777
2026-01-03 12:42:16.98	332.12	32.78	-23.1	-23.7	19.7	0.00e+00	0	43	0	234881024	7	3836
2026-01-03 12:42:18.98	332.28	32.37	-23.1	-23.6	19.7	0.00e+00	0	43	0	245366784	7	3822
2026-01-03 12:42:20.97	332.43	31.97	-23.2	-23.8	19.6	0.00e+00	0	43	0	256901120	7	3876
2026-01-03 12:42:22.96	332.58	31.58	-23.2	-23.9	19.5	0.00e+00	0	43	0	268435456	7	3906
2026-01-03 12:42:24.97	332.73	31.19	-23.2	-23.9	19.5	0.00e+00	0	43	0	279969792	7	3886
2026-01-03 12:42:26.98	332.88	30.80	-23.1	-23.7	19.6	0.00e+00	0	43	0	290455552	7	3847
2026-01-03 12:42:28.98	333.02	30.42	-23.1	-23.5	19.7	0.00e+00	0	43	0	301989888	7	3804
2026-01-03 12:42:31.00	333.16	30.04	-23.0	-23.3	19.8	0.00e+00	0	43	0	313524224	7	3752
2026-01-03 12:42:33.01	333.30	29.66	-22.9	-23.3	19.8	0.00e+00	0	43	0	325058560	7	3738
2026-01-03 12:42:35.02	333.43	29.30	-23.0	-23.4	19.7	0.00e+00	0	43	0	336592896	7	3770
2026-01-03 12:42:37.03	333.56	28.93	-23.1	-23.6	19.6	0.00e+00	0	43	0	347078656	7	3826
2026-01-03 12:42:39.05	333.69	28.57	-23.2	-23.8	19.5	0.00e+00	0	43	0	358612992	7	3857
2026-01-03 12:42:41.07	333.82	28.21	-23.1	-23.7	19.5	0.00e+00	0	43	0	370147328	7	3854
2026-01-03 12:42:43.08	333.94	27.86	-23.1	-23.6	19.6	0.00e+00	0	43	0	381681664	7	3820
2026-01-03 12:42:45.10	334.06	27.52	-23.1	-23.7	19.5	0.00e+00	0	43	0	393216000	7	3859
2026-01-03 12:42:47.10	334.18	27.17	-23.0	-23.5	19.6	0.00e+00	0	43	0	403701760	7	3802
2026-01-03 12:42:49.12	334.30	26.84	-23.1	-23.5	19.6	0.00e+00	0	43	0	415236096	7	3808
2026-01-03 12:42:51.12	334.41	26.50	-23.1	-23.6	19.6	0.00e+00	0	43	0	426770432	7	3813
2026-01-03 12:42:53.13	334.52	26.17	-23.1	-23.7	19.4	0.00e+00	0	43	0	438304768	7	3850
2026-01-03 12:42:55.14	334.63	25.85	-23.2	-23.9	19.3	0.00e+00	0	43	0	449839104	7	3900
2026-01-03 12:42:57.15	334.74	25.53	-23.6	-24.6	19.0	0.00e+00	0	43	0	460324864	7	4056
2026-01-03 12:42:59.16	334.85	25.21	-23.7	-24.9	18.9	0.00e+00	0	43	0	471859200	7	4123
2026-01-03 12:43:01.18	334.95	24.89	-23.7	-24.8	18.9	0.00e+00	0	43	0	483393536	7	4122
2026-01-03 12:43:03.19	335.05	24.58	-23.7	-25.0	18.8	0.00e+00	0	43	0	494927872	7	4161
2026-01-03 12:43:05.19	335.15	24.27	-23.8	-25.2	18.7	0.00e+00	0	43	0	506462208	7	4214
2026-01-03 12:43:07.20	335.25	23.97	-23.9	-25.3	18.7	0.00e+00	0	43	0	516947968	7	4230
2026-01-03 12:43:09.21	335.35	23.67	-23.9	-25.4	18.6	0.00e+00	0	43	0	528482304	7	4254
2026-01-03 12:43:11.23	335.44	23.37	-24.4	-25.9	18.1	0.00e+00	0	43	0	540016640	8	4286
2026-01-03 12:43:13.24	335.53	23.08	-24.0	-25.1	18.5	0.00e+00	0	43	0	551550976	8	4061
2026-01-03 12:43:15.25	335.62	22.79	-23.9	-24.8	18.6	0.00e+00	0	43	0	562036736	8	4000
2026-01-03 12:43:17.26	335.71	22.50	-24.0	-24.9	18.6	0.00e+00	0	43	0	573571072	8	4025
2026-01-03 12:43:19.28	335.80	22.22	-24.0	-24.9	18.6	0.00e+00	0	43	0	585105408	8	4034
2026-01-03 12:43:21.29	335.89	21.93	-24.0	-25.1	18.4	0.00e+00	0	43	0	596639744	8	4074
2026-01-03 12:43:23.30	335.98	21.66	-24.0	-25.1	18.4	0.00e+00	0	43	0	608174080	8	4077
2026-01-03 12:43:25.32	336.06	21.38	-24.2	-25.4	18.3	0.00e+00	0	43	0	618659840	8	4157
2026-01-03 12:43:27.33	336.14	21.11	-24.2	-25.4	18.3	0.00e+00	0	43	0	630194176	8	4159
2026-01-03 12:43:29.33	336.23	20.84	-24.2	-25.5	18.2	0.00e+00	0	43	0	641728512	8	4184
2026-01-03 12:43:31.35	336.31	20.57	-24.3	-25.6	18.2	0.00e+00	0	43	0	653262848	8	4203
2026-01-03 12:43:33.36	336.39	20.31	-24.3	-25.7	18.1	0.00e+00	0	43	0	664797184	8	4236
2026-01-03 12:43:35.36	336.46	20.05	-24.4	-25.8	18.0	0.00e+00	0	43	0	675282944	8	4255
2026-01-03 12:43:37.37	336.54	19.79	-24.3	-25.7	18.1	0.00e+00	0	44	0	686817280	8	4222
2026-01-03 12:43:39.39	336.62	19.53	-24.4	-25.9	18.0	0.00e+00	0	43	0	698351616	8	4279
2026-01-03 12:43:41.40	336.69	19.28	-24.5	-25.5	17.9	0.00e+00	0	43	0	709885952	9	4073
2026-01-03 12:43:43.41	336.76	19.03	-24.5	-25.7	17.8	0.00e+00	0	43	0	720371712	9	4102
2026-01-03 12:43:45.42	336.84	18.78	-24.5	-25.6	17.8	0.00e+00	0	43	0	731906048	9	4093
2026-01-03 12:43:47.42	336.91	18.54	-24.6	-25.8	17.7	0.00e+00	0	43	0	743440384	9	4141
2026-01-03 12:43:49.43	336.98	18.30	-24.7	-26.0	17.6	0.00e+00	0	43	0	754974720	9	4184
2026-01-03 12:43:51.45	337.05	18.05	-24.8	-26.2	17.5	0.00e+00	0	43	0	766509056	9	4229
2026-01-03 12:43:53.47	337.12	17.81	-24.8	-26.3	17.4	0.00e+00	0	43	0	776994816	9	4283
2026-01-03 12:43:55.48	337.18	17.58	-24.9	-26.5	17.3	0.00e+00	0	43	0	788529152	9	4337
2026-01-03 12:43:57.49	337.25	17.34	-25.0	-26.3	17.2	0.00e+00	0	43	0	800063488	10	4157
2026-01-03 12:43:59.51	337.32	17.11	-25.1	-26.5	17.1	0.00e+00	0	43	0	811597824	10	4205
2026-01-03 12:44:01.52	337.38	16.88	-25.2	-26.6	17.0	0.00e+00	0	43	0	823132160	10	4237
2026-01-03 12:44:03.53	337.45	16.65	-25.3	-26.7	16.9	0.00e+00	0	43	0	833617920	10	4271
2026-01-03 12:44:05.55	337.51	16.43	-25.4	-26.7	16.7	0.00e+00	0	43	0	845152256	11	4139
2026-01-03 12:44:07.56	337.57	16.20	-25.4	-26.4	16.8	0.00e+00	0	43	0	856686592	11	4084
2026-01-03 12:44:09.58	337.63	15.98	-25.4	-26.6	16.7	0.00e+00	0	43	0	868220928	11	4113
2026-01-03 12:44:11.59	337.69	15.76	-25.4	-26.6	16.7	0.00e+00	0	43	0	879755264	11	4126
2026-01-03 12:44:13.60	337.75	15.55	-25.6	-26.9	16.5	0.00e+00	0	43	0	890241024	11	4203
2026-01-03 12:44:15.61	337.81	15.33	-25.4	-26.6	16.7	0.00e+00	0	43	0	901775360	11	4118
2026-01-03 12:44:17.62	337.87	15.12	-25.4	-26.6	16.6	0.00e+00	0	43	0	913309696	11	4123
2026-01-03 12:44:19.64	337.93	14.90	-25.4	-26.6	16.6	0.00e+00	0	43	0	924844032	11	4124
2026-01-03 12:44:21.65	337.99	14.69	-25.4	-26.6	16.6	0.00e+00	0	43	0	936378368	11	4128
2026-01-03 12:44:23.66	338.04	14.49	-25.5	-26.7	16.6	0.00e+00	0	43	0	946864128	11	4149
2026-01-03 12:44:25.67	338.10	14.28	-25.6	-26.9	16.5	0.00e+00	0	43	0	958398464	11	4201
2026-01-03 12:44:27.69	338.16	14.07	-25.5	-26.7	16.5	0.00e+00	0	43	0	969932800	11	4151
2026-01-03 12:44:29.70	338.21	13.87	-25.5	-26.9	16.5	0.00e+00	0	43	0	981467136	11	4187
2026-01-03 12:44:31.70	338.26	13.67	-25.5	-26.8	16.5	0.00e+00	0	43	0	993001472	11	4173
2026-01-03 12:44:33.71	338.32	13.47	-25.6	-27.0	16.4	0.00e+00	0	43	0	1003487232	11	4226
2026-01-03 12:44:35.71	338.37	13.27	-25.6	-26.9	16.4	0.00e+00	0	43	0	1015021568	11	4208
2026-01-03 12:44:37.72	338.42	13.08	-25.7	-27.3	16.2	0.00e+00	0	43	0	1026555904	11	4309
2026-01-03 12:44:39.73	338.47	12.88	-25.7	-27.2	16.2	0.00e+00	0	43	0	1037041664	11	4267
2026-01-03 12:44:41.74	338.53	12.69	-25.7	-27.3	16.1	0.00e+00	0	43	0	1048576000	11	4319
2026-01-03 12:44:43.75	338.58	12.50	-25.9	-27.6	16.0	0.00e+00	0	43	0	1060110336	11	4391
2026-01-03 12:44:45.76	338.63	12.31	-25.9	-27.7	15.9	0.00e+00	0	44	0	1071644672	11	4421
2026-01-03 12:44:47.77	338.68	12.12	-26.1	-27.6	15.6	0.00e+00	0	43	0	1083179008	12	4292
2026-01-03 12:44:49.79	338.72	11.93	-26.2	-27.9	15.4	0.00e+00	0	43	0	1094713344	12	4378
2026-01-03 12:44:51.81	338.77	11.74	-26.1	-27.7	15.5	0.00e+00	0	44	0	1105199104	12	4310
2026-01-03 12:44:53.82	338.82	11.56	-26.2	-27.9	15.4	0.00e+00	0	43	0	1116733440	12	4363
2026-01-03 12:44:55.84	338.87	11.37	-26.4	-27.8	15.2	0.00e+00	0	43	0	1128267776	13	4243
2026-01-03 12:44:57.85	338.92	11.19	-26.1	-27.2	15.5	0.00e+00	0	43	0	1139802112	13	4080
2026-01-03 12:44:59.87	338.96	11.01	-26.1	-27.3	15.5	0.00e+00	0	43	0	1151336448	13	4095
2026-01-03 12:45:01.88	339.01	10.83	-26.2	-27.4	15.4	0.00e+00	0	43	0	1161822208	13	4129
2026-01-03 12:45:03.89	339.05	10.65	-26.3	-27.6	15.3	0.00e+00	0	43	0	1173356544	13	4174
2026-01-03 12:45:05.90	339.10	10.48	-26.4	-27.8	15.1	0.00e+00	0	43	0	1184890880	13	4236
2026-01-03 12:45:07.92	339.14	10.30	-26.4	-27.9	15.1	1.10e-06	0	43	0	1196425216	13	4258
2026-01-03 12:45:09.94	339.19	10.12	-26.5	-28.1	14.9	1.10e-06	0	43	0	1207959552	13	4314
2026-01-03 12:45:11.95	339.23	9.95	-26.4	-27.9	15.1	0.00e+00	0	43	0	1218445312	13	4254
2026-01-03 12:45:13.97	339.28	9.78	-26.5	-28.1	14.9	1.10e-06	0	43	0	1229979648	13	4313
2026-01-03 12:45:15.98	339.32	9.61	-26.5	-28.2	14.8	3.40e-06	0	43	0	1241513984	13	4349
2026-01-03 12:45:18.00	339.36	9.44	-26.6	-28.2	14.8	1.10e-06	0	43	0	1253048320	13	4361
2026-01-03 12:45:20.01	339.40	9.27	-26.7	-28.4	14.7	1.10e-06	0	43	0	1264582656	13	4417
2026-01-03 12:45:22.01	339.45	9.10	-26.7	-28.5	14.6	0.00e+00	0	43	0	1275068416	13	4429
2026-01-03 12:45:24.02	339.49	8.94	-26.7	-28.6	14.5	0.00e+00	0	43	0	1286602752	13	4468
2026-01-03 12:45:26.04	339.53	8.77	-26.8	-28.8	14.4	2.20e-06	0	43	0	1298137088	13	4516
2026-01-03 12:45:28.04	339.57	8.61	-26.8	-28.8	14.4	1.10e-06	0	43	0	1309671424	13	4518
2026-01-03 12:45:30.05	339.61	8.45	-26.8	-28.9	14.3	0.00e+00	0	43	0	1321205760	13	4551
2026-01-03 12:45:32.07	339.65	8.28	-26.9	-29.0	14.2	5.70e-06	0	43	0	1331691520	13	4588
2026-01-03 12:45:34.09	339.69	8.12	-27.0	-28.8	14.1	0.00e+00	0	43	0	1343225856	14	4416
2026-01-03 12:45:36.11	339.73	7.96	-27.1	-29.0	13.9	3.40e-06	0	43	0	1354760192	14	4474
2026-01-03 12:45:38.12	339.77	7.80	-27.1	-29.0	13.9	5.70e-06	0	43	0	1366294528	14	4476
2026-01-03 12:45:40.14	339.81	7.64	-27.3	-29.5	13.6	4.50e-06	0	43	0	1377828864	14	4637
2026-01-03 12:45:42.15	339.85	7.49	-27.0	-28.9	14.0	5.70e-06	0	43	0	1388314624	14	4444
2026-01-03 12:45:44.16	339.88	7.33	-27.1	-28.9	13.9	4.50e-06	0	43	0	1399848960	14	4459
2026-01-03 12:45:46.18	339.92	7.17	-27.2	-29.3	13.6	3.40e-06	0	43	0	1411383296	14	4579
2026-01-03 12:45:48.19	339.96	7.02	-33.2	-44.3	3.8	8.45e-01	0	43	104	1418723328	26	13019

#Closed at: 2026-01-03 12:45:49
#Recorded file [1418 MB]: D:/data/31010_260103_154135.dat