passes_logs/2026/01/03/R2M6_AANII_01/R2M6_AANII_01__20260103_113325_SUOMI_NPP_rec.log

#Pass ID: 20260103_113325_SUOMI NPP
#Satellite: SUOMI NPP
#Configuration: NPP
#almurnet v.1.7.20240730
#Start time: 2026-01-03 11:33:27

#Version: 2.2.20231116
#Station: R2M6_AANII_01
#Location: 30.233357 lon 59.946436 lat
#TLE: 1 37849U 11061A   26001.07732418  .00000182  00000+0  10735-3 0  9990
#TLE: 2 37849  98.7795 303.2470 0002580  87.2016 272.9455 14.19520779734739

#Time	Az	El	Level	Level2	SNR	BER	BlckErr	Temp	State	Recorded	gain1	gain2
2026-01-03 11:33:27.21	197.71	7.13	-31.3	-35.7	5.0	1.26e+00	0	41	0	0	23	5920
2026-01-03 11:33:30.22	197.93	7.34	-31.4	-35.2	7.8	9.53e-02	0	41	0	1048576	24	5589
2026-01-03 11:33:33.24	198.15	7.56	-30.7	-34.1	9.0	3.27e-02	0	41	0	7340032	22	5327
2026-01-03 11:33:36.26	198.37	7.77	-30.6	-34.3	8.6	3.34e-02	0	41	0	12582912	22	5471
2026-01-03 11:33:39.28	198.59	7.99	-30.3	-33.1	10.2	6.11e-03	0	41	0	18874368	21	4982
2026-01-03 11:33:42.30	198.82	8.21	-30.2	-32.7	10.7	3.69e-03	0	41	0	24117248	21	4788
2026-01-03 11:33:45.31	199.05	8.43	-30.3	-32.5	11.1	2.07e-03	0	41	0	29360128	21	4676
2026-01-03 11:33:48.33	199.29	8.65	-30.3	-32.7	11.0	1.89e-03	0	41	0	35651584	21	4725
2026-01-03 11:33:51.34	199.52	8.87	-30.4	-32.9	10.9	2.33e-03	0	41	0	40894464	21	4803
2026-01-03 11:33:54.36	199.76	9.10	-30.6	-33.4	10.5	3.23e-03	0	41	0	46137344	21	4987
2026-01-03 11:33:57.38	200.01	9.32	-30.5	-33.3	10.5	3.39e-03	0	41	0	52428800	21	4967
2026-01-03 11:34:00.38	200.26	9.55	-30.5	-33.3	10.6	4.02e-03	0	41	0	57671680	21	4938
2026-01-03 11:34:03.40	200.51	9.78	-30.3	-32.8	10.7	2.77e-03	0	41	0	63963136	21	4794
2026-01-03 11:34:06.42	200.77	10.01	-30.0	-31.8	11.3	1.32e-03	0	42	0	69206016	21	4451
2026-01-03 11:34:09.42	201.03	10.24	-29.9	-31.5	11.7	7.54e-04	0	42	0	74448896	21	4329
2026-01-03 11:34:12.44	201.29	10.48	-29.8	-31.1	12.0	4.29e-04	0	42	0	80740352	21	4168
2026-01-03 11:34:15.45	201.56	10.72	-29.9	-31.7	12.1	2.96e-04	0	42	0	85983232	20	4446
2026-01-03 11:34:18.48	201.83	10.96	-29.9	-31.9	12.1	2.29e-04	0	42	0	92274688	20	4487
2026-01-03 11:34:21.50	202.11	11.20	-29.9	-31.7	12.3	1.88e-04	0	42	0	97517568	20	4422
2026-01-03 11:34:24.51	202.39	11.44	-29.9	-31.7	12.3	2.27e-04	0	42	0	102760448	20	4422
2026-01-03 11:34:27.52	202.67	11.68	-30.2	-32.5	11.8	6.28e-04	0	42	0	109051904	20	4708
2026-01-03 11:34:30.53	202.96	11.92	-30.0	-31.9	12.3	2.58e-04	0	42	0	114294784	20	4493
2026-01-03 11:34:33.55	203.26	12.17	-30.1	-32.1	12.2	1.88e-04	0	42	0	120586240	20	4536
2026-01-03 11:34:36.57	203.56	12.42	-30.1	-32.2	12.2	2.02e-04	0	42	0	125829120	20	4564
2026-01-03 11:34:39.58	203.86	12.67	-30.2	-32.4	12.0	2.43e-04	0	42	0	131072000	20	4643
2026-01-03 11:34:42.60	204.17	12.93	-29.8	-31.3	12.8	6.10e-05	0	42	0	137363456	20	4269
2026-01-03 11:34:45.62	204.49	13.18	-30.0	-31.9	12.4	1.17e-04	0	42	0	142606336	20	4459
2026-01-03 11:34:48.64	204.81	13.44	-30.0	-31.9	12.4	1.69e-04	0	42	0	148897792	20	4462
2026-01-03 11:34:51.67	205.14	13.70	-29.6	-30.7	13.2	1.98e-05	0	42	0	154140672	20	4072
2026-01-03 11:34:54.68	205.47	13.96	-29.4	-30.1	13.6	1.06e-05	0	42	0	159383552	20	3896
2026-01-03 11:34:57.69	205.80	14.22	-29.5	-30.4	13.5	1.22e-05	0	42	0	165675008	20	3995
2026-01-03 11:35:00.70	206.15	14.48	-29.8	-31.2	13.0	3.28e-05	0	43	0	170917888	20	4222
2026-01-03 11:35:03.72	206.49	14.75	-29.8	-31.2	12.9	7.01e-05	0	42	0	177209344	20	4240
2026-01-03 11:35:06.73	206.85	15.02	-29.9	-31.4	12.9	4.73e-05	0	42	0	182452224	20	4299
2026-01-03 11:35:09.75	207.21	15.29	-29.8	-31.2	13.0	2.74e-05	0	42	0	187695104	20	4224
2026-01-03 11:35:12.77	207.58	15.56	-29.5	-30.2	13.7	9.90e-06	0	42	0	193986560	20	3930
2026-01-03 11:35:15.79	207.95	15.84	-29.6	-30.6	13.4	6.80e-06	0	43	0	199229440	20	4044
2026-01-03 11:35:18.81	208.33	16.11	-29.6	-30.6	13.4	1.83e-05	0	43	0	204472320	20	4049
2026-01-03 11:35:21.83	208.72	16.39	-29.7	-31.0	13.3	2.05e-05	0	43	0	210763776	20	4144
2026-01-03 11:35:24.85	209.12	16.67	-29.9	-31.4	13.0	3.58e-05	0	43	0	216006656	20	4267
2026-01-03 11:35:27.86	209.52	16.95	-30.0	-31.7	12.9	3.43e-05	0	43	0	222298112	20	4371
2026-01-03 11:35:30.87	209.93	17.24	-30.0	-31.7	12.8	8.08e-05	0	43	0	227540992	20	4385
2026-01-03 11:35:33.89	210.34	17.52	-29.8	-31.0	13.3	1.52e-05	0	43	0	232783872	20	4148
2026-01-03 11:35:36.91	210.77	17.81	-29.7	-30.9	13.3	1.67e-05	0	43	0	239075328	20	4134
2026-01-03 11:35:39.92	211.20	18.10	-30.0	-31.6	12.9	3.12e-05	0	43	0	244318208	20	4344
2026-01-03 11:35:42.94	211.64	18.39	-30.2	-32.1	12.6	5.79e-05	0	43	0	250609664	20	4499
2026-01-03 11:35:45.94	212.09	18.68	-30.0	-31.7	12.9	7.40e-05	0	43	0	255852544	20	4377
2026-01-03 11:35:48.96	212.54	18.98	-30.1	-31.9	12.8	7.17e-05	0	43	0	261095424	20	4432
2026-01-03 11:35:51.97	213.01	19.27	-30.4	-32.9	12.1	1.72e-04	0	43	0	267386880	20	4772
2026-01-03 11:35:54.99	213.48	19.57	-30.3	-32.4	12.4	1.50e-04	0	43	0	272629760	20	4607
2026-01-03 11:35:58.00	213.97	19.87	-30.2	-32.1	12.7	7.09e-05	0	43	0	278921216	20	4479
2026-01-03 11:36:01.02	214.46	20.17	-30.1	-31.9	12.8	6.02e-05	0	43	0	284164096	20	4420
2026-01-03 11:36:04.04	214.96	20.48	-30.2	-32.0	12.8	6.48e-05	0	43	0	289406976	20	4453
2026-01-03 11:36:07.05	215.48	20.78	-30.1	-31.8	12.9	3.73e-05	0	43	0	295698432	20	4371
2026-01-03 11:36:10.08	216.00	21.09	-30.0	-31.5	13.2	1.90e-05	0	43	0	300941312	20	4282
2026-01-03 11:36:13.09	216.53	21.40	-29.4	-29.9	14.2	4.50e-06	0	43	0	307232768	20	3807
2026-01-03 11:36:16.12	217.08	21.71	-29.2	-30.0	14.5	7.00e-07	0	43	0	312475648	19	3917
2026-01-03 11:36:19.12	217.63	22.02	-29.3	-30.3	14.3	2.20e-06	0	43	0	317718528	19	3997
2026-01-03 11:36:22.14	218.19	22.33	-29.3	-30.2	14.4	2.20e-06	0	43	0	324009984	19	3994
2026-01-03 11:36:25.17	218.77	22.64	-29.2	-29.9	14.6	1.50e-06	0	43	0	329252864	19	3891
2026-01-03 11:36:28.19	219.36	22.95	-28.9	-29.1	15.1	0.00e+00	0	43	0	335544320	19	3674
2026-01-03 11:36:31.21	219.96	23.27	-28.9	-29.2	15.1	0.00e+00	0	43	0	340787200	19	3694
2026-01-03 11:36:34.22	220.57	23.58	-28.8	-29.5	15.3	0.00e+00	0	43	0	346030080	18	3861
2026-01-03 11:36:37.24	221.19	23.90	-29.3	-30.6	14.6	0.00e+00	0	43	0	352321536	18	4175
2026-01-03 11:36:40.26	221.83	24.21	-29.3	-30.7	14.5	3.00e-06	0	43	0	357564416	18	4205
2026-01-03 11:36:43.28	222.48	24.53	-29.3	-30.5	14.6	0.00e+00	0	43	0	363855872	18	4163
2026-01-03 11:36:46.30	223.14	24.84	-29.1	-30.1	14.9	0.00e+00	0	43	0	369098752	18	4028
2026-01-03 11:36:49.32	223.81	25.16	-28.8	-29.3	15.3	0.00e+00	0	43	0	374341632	18	3821
2026-01-03 11:36:52.33	224.50	25.47	-29.2	-30.3	14.8	1.50e-06	0	43	0	380633088	18	4087
2026-01-03 11:36:55.35	225.20	25.79	-29.3	-30.1	14.6	0.00e+00	0	43	0	385875968	19	3949
2026-01-03 11:36:58.37	225.92	26.10	-29.2	-29.7	14.8	7.00e-07	0	43	0	392167424	19	3848
2026-01-03 11:37:01.39	226.64	26.41	-29.1	-29.5	15.0	0.00e+00	0	43	0	397410304	19	3785
2026-01-03 11:37:04.41	227.39	26.72	-29.2	-29.7	14.8	0.00e+00	0	43	0	402653184	19	3842
2026-01-03 11:37:07.42	228.14	27.03	-29.5	-30.5	14.4	0.00e+00	0	43	0	408944640	19	4050
2026-01-03 11:37:10.44	228.91	27.34	-29.1	-29.5	15.0	0.00e+00	0	43	0	414187520	19	3784
2026-01-03 11:37:13.45	229.70	27.64	-29.6	-30.9	14.1	7.00e-07	0	43	0	419430400	19	4177
2026-01-03 11:37:16.46	230.49	27.94	-29.8	-31.3	14.0	2.20e-06	0	43	0	425721856	19	4277
2026-01-03 11:37:19.48	231.31	28.24	-30.1	-31.8	13.2	1.83e-05	0	43	0	430964736	20	4348
2026-01-03 11:37:22.51	232.14	28.54	-30.2	-31.8	13.2	2.89e-05	0	43	0	437256192	20	4361
2026-01-03 11:37:25.53	232.99	28.84	-30.4	-32.7	12.7	5.72e-05	0	43	0	442499072	20	4642
2026-01-03 11:37:28.54	233.85	29.12	-31.0	-33.2	11.6	5.87e-04	0	43	0	447741952	22	4643
2026-01-03 11:37:31.56	234.72	29.41	-31.4	-34.4	10.8	1.46e-03	0	43	0	454033408	22	5088
2026-01-03 11:37:34.58	235.62	29.69	-31.3	-34.1	11.0	1.22e-03	0	43	0	459276288	22	4977
2026-01-03 11:37:37.59	236.52	29.97	-31.6	-34.5	10.3	3.47e-03	0	43	0	465567744	23	5047
2026-01-03 11:37:40.61	237.44	30.24	-31.7	-35.0	10.0	8.13e-03	0	43	0	470810624	23	5274
2026-01-03 11:37:43.63	238.38	30.50	-32.0	-35.7	9.1	2.38e-02	0	43	0	476053504	24	5468
2026-01-03 11:37:46.65	239.33	30.76	-32.0	-35.7	9.0	2.02e-02	0	43	0	482344960	24	5484
2026-01-03 11:37:49.68	240.30	31.02	-31.9	-35.3	9.4	1.64e-02	0	43	0	487587840	24	5292
2026-01-03 11:37:52.69	241.28	31.26	-31.9	-35.3	9.4	1.54e-02	0	43	0	493879296	24	5293
2026-01-03 11:37:55.71	242.27	31.50	-31.3	-33.1	11.0	4.42e-03	0	43	0	499122176	24	4427
2026-01-03 11:37:58.73	243.29	31.73	-31.1	-33.1	11.4	6.73e-04	0	43	0	504365056	23	4498
2026-01-03 11:38:01.74	244.31	31.96	-31.7	-34.9	10.2	5.68e-03	0	43	0	510656512	23	5187
2026-01-03 11:38:04.75	245.34	32.17	-31.3	-33.5	11.1	1.80e-03	0	43	0	515899392	23	4635
2026-01-03 11:38:07.77	246.39	32.38	-30.6	-32.0	12.6	8.01e-05	0	43	0	522190848	22	4209
2026-01-03 11:38:10.79	247.46	32.58	-31.9	-35.8	9.4	1.12e-02	0	43	0	527433728	23	5589
2026-01-03 11:38:13.80	248.53	32.76	-31.9	-35.1	9.6	1.59e-02	0	43	0	532676608	24	5198
2026-01-03 11:38:16.82	249.62	32.94	-31.5	-33.7	10.6	3.47e-03	0	43	0	538968064	24	4657
2026-01-03 11:38:19.84	250.72	33.11	-31.9	-35.0	9.7	7.00e-03	0	43	0	544210944	24	5142
2026-01-03 11:38:22.85	251.83	33.26	-32.7	-37.8	7.1	1.70e-01	0	43	0	550502400	25	6537
2026-01-03 11:38:25.85	252.94	33.41	-32.7	-38.1	6.9	1.01e-01	0	43	0	555745280	25	6660
2026-01-03 11:38:28.87	254.07	33.54	-32.8	-38.1	6.5	2.64e-01	0	43	0	560988160	26	6580
2026-01-03 11:38:31.88	255.20	33.66	-32.3	-36.0	8.5	3.10e-02	0	43	0	567279616	25	5547
2026-01-03 11:38:34.88	256.34	33.77	-32.6	-37.3	7.5	1.10e-01	0	43	0	572522496	25	6222
2026-01-03 11:38:37.91	257.50	33.87	-31.6	-34.1	10.5	4.49e-03	0	43	0	578813952	24	4776
2026-01-03 11:38:40.92	258.66	33.96	-31.3	-32.9	11.2	1.57e-03	0	43	0	584056832	24	4356
2026-01-03 11:38:43.94	259.82	34.03	-31.9	-35.7	9.6	1.15e-02	0	43	0	589299712	23	5537
2026-01-03 11:38:46.96	260.99	34.09	-32.1	-35.9	9.0	2.90e-02	0	43	0	595591168	24	5576
2026-01-03 11:38:49.98	262.17	34.13	-32.1	-35.7	9.1	2.35e-02	0	43	0	600834048	24	5485
2026-01-03 11:38:53.00	263.34	34.17	-32.0	-35.3	9.6	1.42e-02	0	43	0	607125504	24	5282
2026-01-03 11:38:56.02	264.52	34.19	-32.2	-36.1	8.9	2.14e-02	0	43	0	612368384	24	5635
2026-01-03 11:38:59.04	265.70	34.20	-32.6	-37.5	7.4	8.11e-02	0	43	0	617611264	25	6301
2026-01-03 11:39:02.06	266.88	34.19	-32.7	-37.7	7.3	1.06e-01	0	43	0	623902720	25	6455
2026-01-03 11:39:05.08	268.06	34.17	-31.9	-34.6	9.7	1.83e-02	0	43	0	629145600	25	4909
2026-01-03 11:39:08.09	269.23	34.14	-31.7	-34.3	10.3	2.61e-03	0	43	0	635437056	24	4856
2026-01-03 11:39:11.11	270.41	34.09	-32.2	-36.4	8.6	3.80e-02	0	43	0	640679936	24	5801
2026-01-03 11:39:14.12	271.57	34.03	-32.1	-35.8	9.0	2.35e-02	0	43	0	645922816	24	5529
2026-01-03 11:39:17.14	272.74	33.96	-31.4	-33.5	10.8	2.08e-03	0	43	0	652214272	24	4575
2026-01-03 11:39:20.16	273.90	33.88	-31.9	-35.0	9.7	6.79e-03	0	43	0	657457152	24	5154
2026-01-03 11:39:23.18	275.05	33.78	-32.0	-35.6	9.3	1.52e-02	0	43	0	663748608	24	5410
2026-01-03 11:39:26.20	276.20	33.67	-32.7	-37.8	7.2	1.27e-01	0	43	0	668991488	25	6475
2026-01-03 11:39:29.22	277.33	33.55	-32.2	-35.6	8.9	4.93e-02	0	43	0	674234368	25	5345
2026-01-03 11:39:32.24	278.46	33.42	-31.8	-34.5	10.1	7.95e-03	0	43	0	680525824	24	4949
2026-01-03 11:39:35.25	279.58	33.27	-31.8	-34.6	10.1	5.29e-03	0	43	0	685768704	24	4965
2026-01-03 11:39:38.27	280.69	33.12	-31.9	-35.0	9.7	1.17e-02	0	43	0	692060160	24	5138
2026-01-03 11:39:41.29	281.79	32.95	-31.5	-34.2	10.7	1.93e-03	0	43	0	697303040	23	4912
2026-01-03 11:39:44.31	282.87	32.78	-31.6	-34.2	10.4	6.16e-03	0	43	0	702545920	24	4812
2026-01-03 11:39:47.33	283.95	32.59	-30.7	-32.3	12.4	8.62e-05	0	43	0	708837376	22	4301
2026-01-03 11:39:50.34	285.01	32.40	-30.3	-31.8	13.1	3.35e-05	0	43	0	714080256	21	4239
2026-01-03 11:39:53.37	286.06	32.19	-30.3	-32.1	13.1	1.98e-05	0	43	0	720371712	20	4432
2026-01-03 11:39:56.39	287.10	31.98	-30.7	-32.7	12.5	1.20e-04	0	43	0	725614592	21	4524
2026-01-03 11:39:59.40	288.12	31.76	-30.3	-31.5	13.1	3.12e-05	0	43	0	730857472	21	4166
2026-01-03 11:40:02.41	289.12	31.53	-29.9	-30.6	13.8	1.14e-05	0	43	0	737148928	21	3896
2026-01-03 11:40:05.42	290.11	31.29	-29.7	-30.5	14.2	1.50e-06	0	43	0	742391808	20	3943
2026-01-03 11:40:08.43	291.09	31.04	-30.5	-32.2	12.7	1.54e-04	0	43	0	747634688	21	4371
2026-01-03 11:40:11.45	292.05	30.79	-29.7	-30.5	14.2	3.80e-06	0	43	0	753926144	20	3957
2026-01-03 11:40:14.47	293.00	30.54	-30.8	-33.1	12.1	1.61e-04	0	43	0	759169024	21	4691
2026-01-03 11:40:17.50	293.94	30.27	-29.5	-30.1	14.3	6.10e-06	0	43	0	765460480	20	3855
2026-01-03 11:40:20.51	294.86	30.00	-30.0	-31.4	13.6	5.30e-06	0	43	0	770703360	20	4206
2026-01-03 11:40:23.53	295.77	29.73	-30.0	-31.4	13.6	6.10e-06	0	43	0	775946240	20	4224
2026-01-03 11:40:26.55	296.65	29.45	-30.4	-32.4	13.0	1.37e-05	0	43	0	782237696	20	4521
2026-01-03 11:40:29.57	297.53	29.16	-30.3	-31.6	13.1	8.23e-05	0	43	0	787480576	21	4185
2026-01-03 11:40:32.58	298.39	28.88	-29.8	-30.9	13.9	1.50e-06	0	43	0	793772032	20	4058
2026-01-03 11:40:35.60	299.23	28.59	-30.2	-31.9	13.2	4.27e-05	0	43	0	799014912	20	4376
2026-01-03 11:40:38.62	300.06	28.29	-29.8	-30.7	14.0	7.00e-07	0	43	0	804257792	20	3994
2026-01-03 11:40:41.64	300.87	27.99	-31.1	-33.5	11.5	3.42e-04	0	43	0	810549248	22	4753
2026-01-03 11:40:44.65	301.67	27.69	-30.6	-32.1	12.5	3.00e-04	0	43	0	815792128	22	4259
2026-01-03 11:40:47.67	302.45	27.39	-30.7	-32.4	12.3	3.16e-04	0	43	0	822083584	22	4332
2026-01-03 11:40:50.69	303.22	27.09	-31.7	-34.9	10.1	6.54e-03	0	43	0	827326464	23	5195
2026-01-03 11:40:53.69	303.97	26.78	-31.0	-32.8	11.6	5.27e-04	0	43	0	832569344	23	4402
2026-01-03 11:40:56.70	304.71	26.47	-31.2	-33.7	11.3	6.68e-04	0	43	0	838860800	22	4824
2026-01-03 11:40:59.72	305.44	26.16	-31.0	-33.2	11.7	1.26e-03	0	43	0	844103680	22	4620
2026-01-03 11:41:02.73	306.15	25.85	-31.1	-33.3	11.6	1.49e-04	0	43	0	850395136	22	4683
2026-01-03 11:41:05.74	306.85	25.54	-32.0	-35.4	9.3	1.33e-02	0	43	0	855638016	24	5334
2026-01-03 11:41:08.76	307.54	25.23	-31.6	-34.0	10.3	5.37e-03	0	43	0	860880896	24	4760
2026-01-03 11:41:11.77	308.21	24.92	-31.6	-34.2	10.2	5.11e-03	0	43	0	867172352	24	4850
2026-01-03 11:41:14.80	308.87	24.60	-31.8	-34.7	9.8	1.14e-02	0	43	0	872415232	24	5028
2026-01-03 11:41:17.81	309.52	24.29	-31.0	-32.7	11.6	6.00e-04	0	43	0	877658112	23	4374
2026-01-03 11:41:20.83	310.15	23.98	-31.2	-33.2	11.3	8.94e-04	0	43	0	883949568	23	4539
2026-01-03 11:41:23.85	310.78	23.67	-31.0	-32.7	11.6	1.13e-03	0	43	0	889192448	23	4387
2026-01-03 11:41:26.88	311.39	23.35	-30.4	-32.0	12.7	3.35e-05	0	43	0	895483904	21	4334
2026-01-03 11:41:29.89	311.99	23.04	-31.2	-33.9	11.0	8.50e-04	0	43	0	900726784	22	4907
2026-01-03 11:41:32.91	312.57	22.73	-31.3	-33.5	10.9	3.94e-03	0	43	0	905969664	23	4686
2026-01-03 11:41:35.92	313.15	22.42	-30.4	-31.4	12.7	1.91e-04	0	43	0	912261120	22	4061
2026-01-03 11:41:38.94	313.71	22.11	-30.3	-31.7	12.9	7.17e-05	0	43	0	917504000	21	4222
2026-01-03 11:41:41.94	314.26	21.81	-29.7	-30.6	13.9	1.06e-05	0	43	0	923795456	20	3983
2026-01-03 11:41:44.96	314.81	21.50	-29.4	-30.2	14.5	7.00e-07	0	43	0	929038336	19	3958
2026-01-03 11:41:47.98	315.34	21.19	-30.0	-31.5	13.3	4.50e-06	0	43	0	934281216	20	4252
2026-01-03 11:41:51.01	315.86	20.89	-30.5	-32.3	12.4	1.46e-04	0	43	0	940572672	21	4450
2026-01-03 11:41:54.01	316.37	20.59	-30.4	-32.1	12.6	1.09e-04	0	43	0	945815552	21	4357
2026-01-03 11:41:57.02	316.88	20.28	-30.2	-31.4	13.0	2.51e-05	0	43	0	952107008	21	4159
2026-01-03 11:42:00.03	317.37	19.99	-29.9	-30.6	13.6	1.67e-05	0	43	0	957349888	21	3908
2026-01-03 11:42:03.04	317.85	19.69	-29.7	-30.6	13.8	6.10e-06	0	43	0	962592768	20	4012
2026-01-03 11:42:06.06	318.33	19.39	-29.7	-30.6	13.8	2.20e-06	0	43	0	968884224	20	4001
2026-01-03 11:42:09.06	318.79	19.10	-29.6	-30.4	13.9	2.20e-06	0	43	0	974127104	20	3950
2026-01-03 11:42:12.08	319.25	18.80	-29.7	-30.7	13.7	4.50e-06	0	43	0	980418560	20	4027
2026-01-03 11:42:15.10	319.70	18.51	-29.7	-30.6	13.7	7.60e-06	0	43	0	985661440	20	4017
2026-01-03 11:42:18.12	320.14	18.22	-30.0	-31.4	13.2	2.21e-05	0	43	0	990904320	20	4256
2026-01-03 11:42:21.14	320.57	17.93	-29.6	-30.5	13.8	8.30e-06	0	43	0	997195776	20	3968
2026-01-03 11:42:24.16	321.00	17.65	-28.7	-29.0	15.4	7.00e-07	0	43	0	1002438656	18	3753
2026-01-03 11:42:27.17	321.42	17.37	-28.8	-29.4	15.2	0.00e+00	0	43	0	1008730112	18	3845
2026-01-03 11:42:30.19	321.83	17.08	-29.6	-30.8	14.0	0.00e+00	0	43	0	1013972992	19	4155
2026-01-03 11:42:33.20	322.23	16.80	-30.0	-31.4	13.2	1.75e-05	0	43	0	1019215872	20	4247
2026-01-03 11:42:36.23	322.63	16.52	-29.9	-31.2	13.3	2.36e-05	0	43	0	1025507328	20	4179
2026-01-03 11:42:39.23	323.01	16.25	-30.1	-31.8	12.9	2.51e-05	0	43	0	1030750208	20	4371
2026-01-03 11:42:42.24	323.39	15.97	-30.2	-32.1	12.7	3.81e-05	0	43	0	1035993088	20	4462
2026-01-03 11:42:45.27	323.77	15.70	-30.4	-32.7	12.3	1.78e-04	0	43	0	1042284544	20	4693
2026-01-03 11:42:48.28	324.14	15.43	-30.3	-32.0	12.4	1.80e-04	0	43	0	1047527424	21	4354
2026-01-03 11:42:51.29	324.50	15.16	-30.7	-33.1	11.6	6.65e-04	0	43	0	1053818880	21	4732
2026-01-03 11:42:54.31	324.86	14.90	-30.6	-32.8	11.9	6.48e-04	0	43	0	1059061760	21	4627
2026-01-03 11:42:57.34	325.21	14.63	-30.5	-32.7	11.9	5.80e-04	0	43	0	1064304640	21	4592
2026-01-03 11:43:00.35	325.55	14.37	-30.6	-32.9	11.7	4.95e-04	0	43	0	1070596096	21	4663
2026-01-03 11:43:03.36	325.89	14.11	-30.6	-32.9	11.6	5.30e-04	0	43	0	1075838976	21	4697
2026-01-03 11:43:06.38	326.22	13.85	-30.4	-32.2	12.2	2.30e-04	0	43	0	1082130432	21	4424
2026-01-03 11:43:09.40	326.55	13.59	-30.1	-31.5	12.6	7.32e-05	0	43	0	1087373312	21	4219
2026-01-03 11:43:12.42	326.87	13.34	-29.9	-31.3	13.1	2.05e-05	0	43	0	1092616192	20	4232
2026-01-03 11:43:15.43	327.19	13.08	-29.8	-31.0	13.2	6.10e-06	0	43	0	1098907648	20	4145
2026-01-03 11:43:18.45	327.50	12.83	-29.8	-31.2	13.1	4.04e-05	0	43	0	1104150528	20	4194
2026-01-03 11:43:21.46	327.80	12.58	-30.1	-31.9	12.6	9.15e-05	0	43	0	1110441984	20	4448
2026-01-03 11:43:24.48	328.11	12.33	-30.4	-32.3	11.9	3.74e-04	0	43	0	1115684864	21	4490
2026-01-03 11:43:27.49	328.40	12.09	-30.5	-32.7	11.7	4.22e-04	0	43	0	1120927744	21	4624
2026-01-03 11:43:30.51	328.69	11.85	-30.4	-32.3	12.0	2.82e-04	0	43	0	1127219200	21	4502
2026-01-03 11:43:33.54	328.98	11.60	-30.3	-31.9	12.2	1.85e-04	0	43	0	1132462080	21	4356
2026-01-03 11:43:36.55	329.26	11.36	-30.3	-32.0	12.1	2.65e-04	0	43	0	1138753536	21	4372
2026-01-03 11:43:39.56	329.54	11.12	-30.3	-32.0	12.1	3.94e-04	0	43	0	1143996416	21	4411
2026-01-03 11:43:42.57	329.82	10.89	-30.4	-32.3	11.9	4.68e-04	0	43	0	1149239296	21	4492
2026-01-03 11:43:45.58	330.09	10.65	-30.5	-32.7	11.6	7.73e-04	0	43	0	1155530752	21	4627
2026-01-03 11:43:48.59	330.35	10.42	-30.5	-32.9	11.5	8.19e-04	0	43	0	1160773632	21	4702
2026-01-03 11:43:51.61	330.61	10.19	-30.6	-33.0	11.3	8.23e-04	0	43	0	1166016512	21	4756
2026-01-03 11:43:54.63	330.87	9.96	-30.5	-32.7	11.6	5.43e-04	0	43	0	1172307968	21	4632
2026-01-03 11:43:57.65	331.13	9.73	-30.2	-31.9	12.0	3.08e-04	0	43	0	1177550848	21	4382
2026-01-03 11:44:00.66	331.38	9.50	-30.1	-31.5	12.3	2.35e-04	0	43	0	1183842304	21	4243
2026-01-03 11:44:03.68	331.63	9.28	-29.8	-30.8	12.7	1.01e-04	0	43	0	1189085184	21	4044
2026-01-03 11:44:06.69	331.87	9.05	-30.0	-31.2	12.5	1.23e-04	0	43	0	1194328064	21	4143
2026-01-03 11:44:09.71	332.11	8.83	-30.0	-31.3	12.4	1.35e-04	0	43	0	1200619520	21	4186
2026-01-03 11:44:12.73	332.35	8.61	-30.1	-31.5	12.2	2.27e-04	0	43	0	1205862400	21	4266
2026-01-03 11:44:15.74	332.58	8.39	-30.3	-32.2	11.7	4.25e-04	0	43	0	1212153856	21	4489
2026-01-03 11:44:18.76	332.81	8.18	-30.2	-31.8	12.0	3.10e-04	0	43	0	1217396736	21	4369
2026-01-03 11:44:21.78	333.04	7.96	-30.1	-31.8	11.9	4.31e-04	0	43	0	1222639616	21	4372
2026-01-03 11:44:24.79	333.26	7.75	-30.1	-31.8	11.9	4.73e-04	0	43	0	1228931072	21	4368
2026-01-03 11:44:27.82	333.48	7.53	-30.2	-31.9	11.8	5.36e-04	0	43	0	1234173952	21	4412
2026-01-03 11:44:30.83	333.70	7.32	-30.3	-32.3	11.5	6.55e-04	0	43	0	1240465408	21	4546
2026-01-03 11:44:33.84	333.91	7.11	-30.5	-33.0	11.0	1.20e-03	0	43	0	1245708288	21	4810
2026-01-03 11:44:36.84	334.12	6.90	-33.5	-46.2	3.8	1.49e+00	0	43	104	1246756864	26	15625

#Closed at: 2026-01-03 11:44:37
#Recorded file [1246 MB]: D:/data/31010_260103_143329.dat