passes_logs/2026/01/03/R2M6_AANII_01/R2M6_AANII_01__20260103_025107_NOAA_21_JPSS-2_rec.log

#Pass ID: 20260103_025107_NOAA 21 (JPSS-2)
#Satellite: NOAA 21 (JPSS-2)
#Configuration: NOAA 21
#almurnet v.1.7.20240730
#Start time: 2026-01-03 02:58:04

#Version: 2.2.20231116
#Station: R2M6_AANII_01
#Location: 30.233357 lon 59.946436 lat
#TLE: 1 54234U 22150A   26002.25486487  .00000200  00000+0  11573-3 0  9993
#TLE: 2 54234  98.7485 303.3096 0001220 350.9074   9.2080 14.19531212163006

#Time	Az	El	Level	Level2	SNR	BER	BlckErr	Temp	State	Recorded	gain1	gain2
2026-01-03 02:58:04.51	290.63	12.28	-33.0	-43.0	3.8	8.46e-01	0	43	0	0	25	11351
2026-01-03 02:58:05.50	290.47	12.23	-33.7	-45.7	3.8	1.49e+00	0	44	104	0	27	14395
2026-01-03 02:58:06.49	290.31	12.18	-33.7	-45.8	3.8	1.49e+00	0	44	104	0	27	14459
2026-01-03 02:58:07.49	290.14	12.13	-33.8	-45.8	3.8	1.49e+00	0	43	104	0	27	14462
2026-01-03 02:58:08.49	289.98	12.07	-33.8	-45.9	3.8	1.49e+00	0	44	104	0	27	14559
2026-01-03 02:58:09.50	289.82	12.02	-33.8	-45.9	3.8	1.49e+00	0	43	104	0	27	14543
2026-01-03 02:58:10.49	289.66	11.97	-33.8	-45.9	3.8	1.49e+00	0	43	104	0	27	14539
2026-01-03 02:58:11.49	289.50	11.92	-33.8	-46.0	3.8	1.49e+00	0	43	104	0	27	14581
2026-01-03 02:58:12.49	289.34	11.87	-33.8	-45.9	3.8	1.49e+00	0	44	104	0	27	14580
2026-01-03 02:58:13.49	289.18	11.82	-33.8	-45.9	3.8	1.49e+00	0	43	104	0	27	14581
2026-01-03 02:58:14.49	289.03	11.76	-33.8	-45.9	3.8	1.49e+00	0	44	104	0	27	14557
2026-01-03 02:58:15.49	288.87	11.71	-33.8	-45.9	3.8	1.49e+00	0	44	104	0	27	14518
2026-01-03 02:58:16.48	288.71	11.66	-33.2	-45.2	3.8	1.49e+00	0	43	104	0	27	14314
2026-01-03 02:58:17.48	288.56	11.61	-33.8	-45.9	3.8	1.49e+00	0	44	104	0	27	14500
2026-01-03 02:58:18.49	288.40	11.56	-33.8	-45.9	3.8	1.49e+00	0	43	104	0	27	14521
2026-01-03 02:58:19.48	288.24	11.50	-33.8	-45.9	3.8	1.49e+00	0	43	104	0	27	14550
2026-01-03 02:58:20.48	288.09	11.45	-33.8	-45.9	3.8	1.49e+00	0	43	104	0	27	14507
2026-01-03 02:58:21.48	287.94	11.40	-33.7	-45.8	3.8	1.49e+00	0	43	104	0	27	14450
2026-01-03 02:58:22.47	287.78	11.35	-33.7	-45.8	3.8	1.49e+00	0	43	104	0	27	14465
2026-01-03 02:58:23.47	287.63	11.29	-33.7	-45.8	3.8	1.49e+00	0	43	104	0	27	14466
2026-01-03 02:58:24.47	287.48	11.24	-33.7	-45.7	3.8	1.49e+00	0	43	104	0	27	14357
2026-01-03 02:58:25.47	287.33	11.19	-33.6	-45.6	3.8	1.49e+00	0	43	104	0	27	14309
2026-01-03 02:58:26.47	287.17	11.13	-33.6	-45.5	3.8	1.49e+00	0	43	104	0	27	14216
2026-01-03 02:58:27.47	287.02	11.08	-33.6	-45.6	3.8	1.49e+00	0	43	104	0	27	14273
2026-01-03 02:58:28.47	286.87	11.03	-33.5	-45.4	3.8	1.49e+00	0	43	104	0	27	14163
2026-01-03 02:58:29.46	286.72	10.98	-33.5	-45.3	3.8	1.49e+00	0	44	104	0	27	14059
2026-01-03 02:58:30.47	286.57	10.92	-33.5	-45.8	3.8	1.49e+00	0	43	104	0	26	14874
2026-01-03 02:58:31.45	286.43	10.87	-33.4	-45.7	3.8	1.49e+00	0	43	104	0	26	14760
2026-01-03 02:58:32.46	286.28	10.81	-33.3	-45.4	3.8	1.49e+00	0	43	104	0	26	14489
2026-01-03 02:58:33.46	286.13	10.76	-33.1	-45.1	3.8	1.49e+00	0	43	104	0	26	14231
2026-01-03 02:58:34.46	285.98	10.71	-32.9	-44.8	3.8	1.49e+00	0	43	104	0	25	14115
2026-01-03 02:58:35.45	285.84	10.65	-32.7	-44.5	3.8	1.49e+00	0	43	104	0	25	13982
2026-01-03 02:58:36.46	285.69	10.60	-32.5	-44.6	3.8	1.49e+00	0	43	104	0	24	14541
2026-01-03 02:58:37.46	285.55	10.55	-32.5	-44.2	3.8	1.49e+00	0	44	104	0	25	13852
2026-01-03 02:58:38.46	285.40	10.49	-32.5	-44.3	3.8	1.49e+00	0	43	104	0	25	14038
2026-01-03 02:58:39.46	285.26	10.44	-32.5	-44.3	3.8	1.49e+00	0	43	104	0	25	14058
2026-01-03 02:58:40.45	285.11	10.38	-32.5	-44.3	3.8	1.49e+00	0	43	104	0	25	14041
2026-01-03 02:58:41.44	284.97	10.33	-32.5	-44.3	3.8	1.49e+00	0	43	104	0	25	13972
2026-01-03 02:58:42.43	284.83	10.28	-32.5	-44.7	3.8	1.49e+00	0	43	104	0	24	14678
2026-01-03 02:58:43.44	284.69	10.22	-32.5	-44.5	3.8	1.49e+00	0	44	104	0	24	14426
2026-01-03 02:58:44.43	284.55	10.17	-32.4	-44.3	3.8	1.49e+00	0	43	104	0	24	14090
2026-01-03 02:58:45.44	284.41	10.11	-32.4	-44.0	3.8	1.49e+00	0	43	104	0	24	13638
2026-01-03 02:58:46.44	284.26	10.06	-32.4	-43.6	3.8	1.49e+00	0	43	104	0	24	13058
2026-01-03 02:58:47.44	284.12	10.01	-32.3	-43.1	3.8	1.49e+00	0	43	104	0	24	12442
2026-01-03 02:58:48.44	283.99	9.95	-32.2	-42.4	3.9	1.49e+00	0	43	104	0	24	11668
2026-01-03 02:58:49.44	283.85	9.90	-32.1	-41.2	4.1	1.48e+00	0	43	104	0	24	10241
2026-01-03 02:58:50.45	283.71	9.84	-32.0	-41.0	3.9	1.48e+00	0	44	104	0	24	10103
2026-01-03 02:58:51.45	283.57	9.79	-32.0	-40.5	4.4	1.46e+00	0	43	104	0	23	9597
2026-01-03 02:58:52.46	283.43	9.73	-31.9	-40.7	4.0	1.47e+00	0	43	104	0	23	9863
2026-01-03 02:58:53.46	283.29	9.68	-31.9	-39.7	4.7	8.89e-01	0	44	104	0	23	8875
2026-01-03 02:58:54.47	283.16	9.62	-31.8	-39.9	4.0	1.46e+00	0	44	104	0	23	9147
2026-01-03 02:58:55.47	283.02	9.57	-31.6	-38.5	5.3	6.11e-01	0	43	0	0	23	7921
2026-01-03 02:58:56.48	282.88	9.51	-31.4	-37.4	5.8	4.20e-01	0	43	0	2097152	23	7161
2026-01-03 02:58:57.49	282.75	9.46	-31.0	-36.2	6.9	1.94e-01	0	44	0	5242880	22	6529
2026-01-03 02:58:58.50	282.61	9.40	-30.6	-35.0	8.0	1.01e-01	0	43	0	8388608	21	6008
2026-01-03 02:58:59.50	282.48	9.35	-30.2	-34.3	8.9	3.05e-02	0	43	0	11534336	20	5791
2026-01-03 02:59:00.50	282.34	9.29	-30.3	-34.7	8.6	3.67e-02	0	43	0	14680064	20	5987
2026-01-03 02:59:01.50	282.21	9.24	-30.3	-34.8	8.5	4.88e-02	0	43	0	17825792	20	6022
2026-01-03 02:59:02.51	282.08	9.18	-30.1	-34.0	9.0	2.66e-02	0	43	0	22020096	20	5675
2026-01-03 02:59:03.52	281.94	9.13	-29.9	-33.3	9.6	1.52e-02	0	43	0	24117248	20	5349
2026-01-03 02:59:04.53	281.81	9.07	-29.6	-33.1	10.1	9.63e-03	0	44	0	27262976	19	5359
2026-01-03 02:59:05.53	281.68	9.02	-29.6	-33.1	10.1	5.86e-03	0	43	0	30408704	19	5361
2026-01-03 02:59:06.54	281.55	8.96	-29.9	-33.9	9.6	1.05e-02	0	43	0	33554432	19	5692
2026-01-03 02:59:07.54	281.42	8.90	-29.8	-33.2	9.6	1.55e-02	0	43	0	36700160	20	5310
2026-01-03 02:59:08.55	281.29	8.85	-29.5	-32.6	10.4	5.30e-03	0	43	0	39845888	19	5168
2026-01-03 02:59:09.56	281.16	8.79	-29.1	-32.1	11.1	1.87e-03	0	43	0	44040192	18	5088
2026-01-03 02:59:10.56	281.03	8.74	-28.8	-31.7	11.7	2.40e-03	0	44	0	46137344	17	5035
2026-01-03 02:59:11.57	280.90	8.68	-28.5	-31.0	12.1	2.86e-04	0	43	0	49283072	17	4802
2026-01-03 02:59:12.58	280.77	8.63	-28.3	-31.0	12.5	1.52e-04	0	43	0	52428800	16	4918
2026-01-03 02:59:13.58	280.65	8.57	-28.3	-31.0	12.5	1.10e-04	0	43	0	55574528	16	4924
2026-01-03 02:59:14.59	280.52	8.52	-28.3	-31.0	12.4	1.35e-04	0	43	0	58720256	16	4904
2026-01-03 02:59:15.59	280.39	8.46	-28.2	-30.6	12.7	8.39e-05	0	43	0	61865984	16	4785
2026-01-03 02:59:16.59	280.27	8.41	-28.1	-30.5	12.8	4.30e-03	0	43	0	65011712	16	4755
2026-01-03 02:59:17.60	280.14	8.35	-28.1	-30.6	12.7	5.79e-05	0	43	0	68157440	16	4761
2026-01-03 02:59:18.61	280.02	8.29	-28.2	-30.6	12.7	7.78e-05	0	43	0	71303168	16	4788
2026-01-03 02:59:19.61	279.89	8.24	-28.2	-30.9	12.6	1.05e-04	0	43	0	74448896	16	4865
2026-01-03 02:59:20.62	279.77	8.18	-28.2	-30.8	12.6	1.04e-04	0	43	0	77594624	16	4836
2026-01-03 02:59:21.62	279.65	8.13	-28.3	-30.9	12.4	1.11e-04	0	43	0	80740352	16	4895
2026-01-03 02:59:22.63	279.52	8.07	-28.6	-31.2	11.9	2.27e-04	0	43	0	83886080	17	4876
2026-01-03 02:59:23.64	279.40	8.02	-28.6	-31.4	11.8	4.55e-04	0	43	0	87031808	17	4932
2026-01-03 02:59:24.65	279.28	7.96	-28.7	-31.5	11.8	4.04e-04	0	43	0	90177536	17	4965
2026-01-03 02:59:25.64	279.16	7.91	-29.0	-31.9	11.1	1.25e-03	0	43	0	93323264	18	5017
2026-01-03 02:59:26.65	279.03	7.85	-29.0	-31.9	11.1	1.75e-03	0	43	0	96468992	18	5033
2026-01-03 02:59:27.66	278.91	7.80	-28.9	-32.1	11.3	1.06e-03	0	43	0	99614720	17	5203
2026-01-03 02:59:28.67	278.79	7.74	-28.9	-32.2	11.3	1.24e-03	0	43	0	102760448	17	5245
2026-01-03 02:59:29.67	278.67	7.68	-29.0	-31.9	11.2	1.43e-03	0	43	0	105906176	18	5020
2026-01-03 02:59:30.68	278.55	7.63	-29.1	-32.0	11.1	1.59e-03	0	43	0	109051904	18	5066
2026-01-03 02:59:31.69	278.43	7.57	-29.0	-31.9	11.1	1.62e-03	0	43	0	112197632	18	5038
2026-01-03 02:59:32.69	278.32	7.52	-29.1	-32.1	11.0	1.78e-03	0	43	0	115343360	18	5105
2026-01-03 02:59:33.70	278.20	7.46	-29.3	-32.8	10.5	3.25e-03	0	43	0	118489088	18	5388
2026-01-03 02:59:34.70	278.08	7.41	-29.2	-32.5	10.7	4.27e-03	0	43	0	121634816	18	5247
2026-01-03 02:59:35.70	277.96	7.35	-28.9	-31.7	11.3	1.53e-03	0	43	0	124780544	18	4946
2026-01-03 02:59:36.69	277.85	7.30	-28.6	-31.5	11.8	6.27e-04	0	43	0	127926272	17	4973
2026-01-03 02:59:37.70	277.73	7.24	-28.5	-31.0	12.1	3.11e-04	0	43	0	131072000	17	4802
2026-01-03 02:59:38.71	277.62	7.19	-28.3	-31.1	12.3	1.66e-04	0	43	0	134217728	16	4937
2026-01-03 02:59:39.72	277.50	7.13	-28.1	-30.6	12.6	9.68e-05	0	43	0	137363456	16	4797
2026-01-03 02:59:40.72	277.39	7.07	-28.0	-30.4	12.8	9.23e-05	0	43	0	140509184	16	4709
2026-01-03 02:59:41.73	277.27	7.02	-32.4	-44.2	3.8	8.17e-01	0	43	104	142606336	24	14014
2026-01-03 02:59:42.74	277.16	6.96	-32.7	-44.8	3.8	1.49e+00	0	43	104	142606336	25	14488
2026-01-03 02:59:43.75	277.04	6.91	-33.1	-45.0	3.8	1.49e+00	0	43	104	142606336	26	14232

#Closed at: 2026-01-03 02:59:44
#Recorded file [142 MB]: D:/data/31010_260103_055855.dat