passes_logs/2026/01/03/R2M6_AANII_01/R2M6_AANII_01__20260103_095228_SUOMI_NPP_rec.log

#Pass ID: 20260103_095228_SUOMI NPP
#Satellite: SUOMI NPP
#Configuration: NPP
#almurnet v.1.7.20240730
#Start time: 2026-01-03 09:52:28

#Version: 2.2.20231116
#Station: R2M6_AANII_01
#Location: 30.233357 lon 59.946436 lat
#TLE: 1 37849U 11061A   26001.07732418  .00000182  00000+0  10735-3 0  9990
#TLE: 2 37849  98.7795 303.2470 0002580  87.2016 272.9455 14.19520779734739

#Time	Az	El	Level	Level2	SNR	BER	BlckErr	Temp	State	Recorded	gain1	gain2
2026-01-03 09:52:28.76	144.25	6.99	-30.4	-34.0	5.2	1.26e+00	0	40	0	0	22	5452
2026-01-03 09:52:31.77	144.18	7.22	-30.6	-34.4	8.6	3.57e-02	0	40	0	1048576	22	5535
2026-01-03 09:52:34.79	144.11	7.45	-30.3	-32.8	9.9	1.31e-02	0	41	0	7340032	22	4802
2026-01-03 09:52:37.81	144.03	7.69	-30.5	-33.9	9.5	8.70e-03	0	41	0	12582912	21	5308
2026-01-03 09:52:40.82	143.96	7.93	-30.6	-34.2	9.3	2.12e-02	0	41	0	18874368	21	5434
2026-01-03 09:52:43.84	143.88	8.17	-30.6	-34.1	9.4	1.36e-02	0	41	0	24117248	21	5404
2026-01-03 09:52:46.85	143.80	8.41	-30.0	-32.2	10.8	2.97e-03	0	41	0	29360128	21	4647
2026-01-03 09:52:49.86	143.73	8.66	-29.7	-32.0	11.4	1.10e-03	0	41	0	35651584	20	4679
2026-01-03 09:52:52.87	143.65	8.90	-29.4	-31.2	11.9	3.26e-04	0	41	0	40894464	20	4402
2026-01-03 09:52:55.90	143.56	9.15	-29.2	-31.1	12.4	2.20e-04	0	41	0	46137344	19	4442
2026-01-03 09:52:58.91	143.48	9.41	-29.5	-31.7	12.1	2.38e-04	0	41	0	52428800	19	4644
2026-01-03 09:53:01.92	143.40	9.66	-29.2	-30.8	12.7	9.76e-05	0	41	0	57671680	19	4335
2026-01-03 09:53:04.93	143.31	9.92	-29.1	-30.6	12.9	4.80e-05	0	41	0	63963136	19	4247
2026-01-03 09:53:07.94	143.22	10.18	-29.1	-30.2	13.2	3.81e-05	0	42	0	69206016	19	4123
2026-01-03 09:53:10.96	143.13	10.44	-29.1	-30.2	13.3	1.67e-05	0	42	0	74448896	19	4098
2026-01-03 09:53:13.97	143.04	10.71	-29.3	-30.8	13.0	4.27e-05	0	42	0	80740352	19	4266
2026-01-03 09:53:16.98	142.95	10.98	-29.4	-31.0	12.8	3.96e-05	0	41	0	85983232	19	4342
2026-01-03 09:53:20.00	142.85	11.25	-29.2	-30.6	13.1	3.05e-05	0	42	0	92274688	19	4216
2026-01-03 09:53:23.02	142.75	11.52	-29.2	-30.4	13.3	2.13e-05	0	42	0	97517568	19	4152
2026-01-03 09:53:26.04	142.65	11.80	-29.1	-30.1	13.5	9.90e-06	0	42	0	102760448	19	4049
2026-01-03 09:53:29.06	142.55	12.08	-29.1	-30.1	13.5	9.90e-06	0	42	0	109051904	19	4046
2026-01-03 09:53:32.07	142.45	12.37	-29.0	-30.0	13.6	9.10e-06	0	42	0	114294784	19	4016
2026-01-03 09:53:35.09	142.34	12.65	-28.9	-29.7	13.7	1.06e-05	0	42	0	120586240	19	3962
2026-01-03 09:53:38.11	142.23	12.94	-28.9	-29.8	13.7	4.50e-06	0	42	0	125829120	19	3979
2026-01-03 09:53:41.12	142.12	13.24	-29.3	-30.8	13.1	1.37e-05	0	42	0	131072000	19	4279
2026-01-03 09:53:44.13	142.01	13.53	-29.4	-30.9	13.1	1.90e-05	0	42	0	137363456	19	4288
2026-01-03 09:53:47.15	141.89	13.84	-29.4	-30.9	13.1	2.36e-05	0	42	0	142606336	19	4280
2026-01-03 09:53:50.16	141.78	14.14	-29.4	-30.7	13.2	1.98e-05	0	42	0	148897792	19	4214
2026-01-03 09:53:53.18	141.65	14.45	-29.1	-30.2	13.6	3.00e-06	0	42	0	154140672	19	4069
2026-01-03 09:53:56.18	141.53	14.76	-28.9	-29.6	14.0	7.00e-07	0	42	0	159383552	19	3914
2026-01-03 09:53:59.20	141.41	15.08	-29.0	-29.9	13.9	9.10e-06	0	42	0	165675008	19	3964
2026-01-03 09:54:02.21	141.28	15.39	-29.1	-29.8	14.0	3.00e-06	0	42	0	170917888	19	3942
2026-01-03 09:54:05.22	141.14	15.72	-29.1	-30.1	13.9	2.20e-06	0	42	0	176160768	19	4005
2026-01-03 09:54:08.24	141.01	16.05	-28.9	-29.5	14.2	3.00e-06	0	42	0	182452224	19	3866
2026-01-03 09:54:11.26	140.87	16.38	-28.9	-29.6	14.2	3.00e-06	0	42	0	187695104	19	3888
2026-01-03 09:54:14.27	140.73	16.72	-29.0	-29.7	14.2	0.00e+00	0	42	0	193986560	19	3905
2026-01-03 09:54:17.29	140.58	17.06	-29.3	-30.4	13.8	3.00e-06	0	42	0	199229440	19	4103
2026-01-03 09:54:20.30	140.44	17.40	-29.2	-30.0	14.2	0.00e+00	0	43	0	204472320	19	3956
2026-01-03 09:54:23.31	140.28	17.75	-29.0	-29.5	14.5	1.50e-06	0	42	0	210763776	19	3833
2026-01-03 09:54:26.32	140.13	18.11	-28.9	-29.4	14.6	0.00e+00	0	43	0	216006656	19	3807
2026-01-03 09:54:29.34	139.97	18.47	-29.3	-30.4	14.0	3.80e-06	0	43	0	222298112	19	4071
2026-01-03 09:54:32.36	139.80	18.84	-29.2	-30.0	14.3	1.50e-06	0	42	0	227540992	19	3975
2026-01-03 09:54:35.38	139.63	19.21	-29.4	-30.5	14.1	2.20e-06	0	42	0	232783872	19	4084
2026-01-03 09:54:38.40	139.46	19.59	-29.0	-29.4	14.7	0.00e+00	0	43	0	239075328	19	3794
2026-01-03 09:54:41.42	139.28	19.97	-28.7	-29.2	15.1	0.00e+00	0	43	0	244318208	18	3827
2026-01-03 09:54:44.44	139.10	20.36	-28.7	-29.2	15.1	0.00e+00	0	43	0	250609664	18	3843
2026-01-03 09:54:47.44	138.92	20.75	-28.9	-29.7	14.9	0.00e+00	0	43	0	255852544	18	3946
2026-01-03 09:54:50.46	138.72	21.15	-29.3	-30.8	14.3	0.00e+00	0	42	0	261095424	18	4249
2026-01-03 09:54:53.47	138.53	21.55	-29.4	-30.5	14.2	3.00e-06	0	43	0	267386880	19	4074
2026-01-03 09:54:56.49	138.32	21.96	-29.4	-30.6	14.1	7.00e-07	0	43	0	272629760	19	4114
2026-01-03 09:54:59.51	138.12	22.38	-29.5	-30.7	14.1	2.20e-06	0	43	0	277872640	19	4138
2026-01-03 09:55:02.53	137.90	22.81	-29.4	-30.6	14.1	0.00e+00	0	43	0	284164096	19	4103
2026-01-03 09:55:05.55	137.68	23.24	-29.3	-30.2	14.4	0.00e+00	0	43	0	289406976	19	3994
2026-01-03 09:55:08.56	137.45	23.68	-29.4	-30.4	14.3	0.00e+00	0	43	0	295698432	19	4045
2026-01-03 09:55:11.57	137.22	24.12	-29.6	-31.0	13.9	4.50e-06	0	43	0	300941312	19	4230
2026-01-03 09:55:14.59	136.98	24.57	-29.9	-31.2	13.3	3.80e-06	0	43	0	306184192	20	4227
2026-01-03 09:55:17.62	136.73	25.03	-29.9	-31.4	13.3	1.75e-05	0	43	0	312475648	20	4262
2026-01-03 09:55:20.64	136.47	25.50	-30.2	-32.1	12.9	2.74e-05	0	43	0	317718528	20	4480
2026-01-03 09:55:23.65	136.21	25.97	-30.3	-32.5	12.6	8.85e-05	0	43	0	324009984	20	4604
2026-01-03 09:55:26.67	135.94	26.46	-30.5	-32.5	12.3	3.64e-04	0	43	0	329252864	21	4546
2026-01-03 09:55:29.68	135.66	26.95	-30.4	-32.1	12.6	1.02e-04	0	43	0	334495744	21	4412
2026-01-03 09:55:32.70	135.37	27.45	-30.6	-32.9	12.0	2.75e-04	0	43	0	340787200	21	4677
2026-01-03 09:55:35.71	135.07	27.95	-31.1	-34.0	11.0	1.74e-03	0	43	0	346030080	22	5003
2026-01-03 09:55:38.72	134.76	28.47	-30.5	-31.9	12.4	3.46e-04	0	43	0	352321536	22	4222
2026-01-03 09:55:41.73	134.44	28.99	-30.7	-32.5	12.1	3.63e-04	0	43	0	357564416	22	4441
2026-01-03 09:55:44.75	134.11	29.52	-30.9	-33.0	11.7	7.19e-04	0	43	0	362807296	22	4604
2026-01-03 09:55:47.75	133.77	30.06	-31.0	-33.4	11.5	4.97e-04	0	43	0	369098752	22	4728
2026-01-03 09:55:50.77	133.41	30.61	-30.9	-33.1	11.7	1.07e-03	0	43	0	374341632	22	4621
2026-01-03 09:55:53.78	133.05	31.17	-30.9	-32.9	11.9	6.40e-04	0	43	0	380633088	22	4564
2026-01-03 09:55:56.81	132.67	31.75	-31.1	-33.8	11.2	7.26e-04	0	43	0	385875968	22	4875
2026-01-03 09:55:59.81	132.27	32.32	-31.3	-34.3	10.9	1.30e-03	0	43	0	391118848	22	5085
2026-01-03 09:56:02.82	131.87	32.91	-31.1	-33.6	11.5	2.30e-03	0	43	0	397410304	22	4775
2026-01-03 09:56:05.83	131.44	33.51	-31.9	-35.6	9.6	6.97e-03	0	43	0	402653184	23	5531
2026-01-03 09:56:08.85	131.00	34.12	-31.6	-34.0	10.5	9.16e-03	0	43	0	407896064	24	4751
2026-01-03 09:56:11.86	130.55	34.74	-31.6	-33.8	10.6	5.38e-03	0	43	0	414187520	24	4684
2026-01-03 09:56:14.88	130.07	35.37	-31.6	-34.1	10.5	4.54e-03	0	43	0	419430400	24	4769
2026-01-03 09:56:17.90	129.57	36.01	-31.8	-34.6	10.1	1.07e-02	0	43	0	425721856	24	4998
2026-01-03 09:56:20.92	129.06	36.66	-31.6	-33.9	10.7	4.21e-03	0	43	0	430964736	24	4693
2026-01-03 09:56:23.93	128.52	37.32	-31.6	-34.0	10.5	3.97e-03	0	43	0	436207616	24	4760
2026-01-03 09:56:26.94	127.96	37.99	-31.9	-35.0	9.9	9.11e-03	0	43	0	442499072	24	5144
2026-01-03 09:56:29.96	127.38	38.67	-31.0	-32.7	11.8	6.10e-04	0	43	0	447741952	23	4349
2026-01-03 09:56:32.97	126.77	39.36	-31.3	-33.4	11.4	1.21e-03	0	43	0	454033408	23	4601
2026-01-03 09:56:35.97	126.14	40.06	-30.3	-31.4	13.4	1.44e-05	0	43	0	459276288	21	4126
2026-01-03 09:56:38.99	125.47	40.77	-30.5	-32.2	12.9	1.14e-04	0	43	0	464519168	21	4359
2026-01-03 09:56:42.01	124.77	41.50	-30.7	-32.7	12.6	1.56e-04	0	43	0	470810624	21	4530
2026-01-03 09:56:45.02	124.05	42.23	-31.5	-34.2	10.9	1.12e-03	0	43	0	476053504	23	4893
2026-01-03 09:56:48.04	123.29	42.97	-31.6	-34.4	10.7	1.12e-03	0	43	0	482344960	23	4971
2026-01-03 09:56:51.06	122.49	43.71	-31.3	-33.4	11.4	2.03e-03	0	43	0	487587840	23	4576
2026-01-03 09:56:54.06	121.65	44.47	-31.5	-34.2	10.9	2.42e-03	0	43	0	492830720	23	4909
2026-01-03 09:56:57.08	120.77	45.23	-30.9	-32.3	12.1	3.11e-04	0	43	0	499122176	23	4216
2026-01-03 09:57:00.09	119.85	46.00	-31.3	-33.9	11.4	9.51e-04	0	43	0	504365056	22	4877
2026-01-03 09:57:03.11	118.88	46.78	-30.2	-31.2	13.6	6.80e-06	0	43	0	510656512	21	4049
2026-01-03 09:57:06.13	117.86	47.56	-30.5	-32.1	13.0	1.83e-05	0	43	0	515899392	21	4320
2026-01-03 09:57:09.15	116.79	48.35	-30.4	-31.7	13.3	1.14e-05	0	43	0	521142272	21	4193
2026-01-03 09:57:12.17	115.66	49.14	-30.8	-33.0	12.6	1.21e-04	0	43	0	527433728	21	4633
2026-01-03 09:57:15.18	114.48	49.92	-30.9	-32.8	12.3	4.02e-04	0	43	0	532676608	22	4440
2026-01-03 09:57:18.19	113.23	50.71	-30.2	-31.2	13.7	8.30e-06	0	43	0	538968064	21	4055
2026-01-03 09:57:21.19	111.92	51.49	-29.4	-30.2	15.0	0.00e+00	0	43	0	544210944	19	3926
2026-01-03 09:57:24.20	110.53	52.28	-28.3	-28.4	16.7	0.00e+00	0	43	0	549453824	17	3640
2026-01-03 09:57:27.22	109.06	53.05	-29.8	-31.2	14.4	0.00e+00	0	43	0	555745280	19	4222
2026-01-03 09:57:30.24	107.51	53.82	-30.7	-32.7	12.9	1.60e-05	0	43	0	560988160	21	4536
2026-01-03 09:57:33.26	105.88	54.58	-30.7	-32.1	12.9	1.60e-04	0	43	0	567279616	22	4226
2026-01-03 09:57:36.26	104.17	55.32	-29.3	-29.9	15.2	0.00e+00	0	43	0	572522496	19	3843
2026-01-03 09:57:39.28	102.36	56.05	-30.5	-32.1	13.2	1.98e-05	0	43	0	577765376	21	4301
2026-01-03 09:57:42.30	100.45	56.76	-29.3	-29.8	15.3	0.00e+00	0	43	0	584056832	19	3825
2026-01-03 09:57:45.33	98.44	57.44	-29.7	-31.0	14.6	7.00e-07	0	43	0	589299712	19	4139
2026-01-03 09:57:48.33	96.34	58.10	-29.6	-30.6	14.8	0.00e+00	0	43	0	594542592	19	4045
2026-01-03 09:57:51.35	94.13	58.72	-29.5	-29.9	14.9	0.00e+00	0	43	0	600834048	20	3761
2026-01-03 09:57:54.37	91.81	59.31	-30.6	-32.2	13.1	3.12e-05	0	43	0	606076928	21	4338
2026-01-03 09:57:57.39	89.39	59.86	-30.5	-31.9	13.3	9.90e-06	0	43	0	612368384	21	4255
2026-01-03 09:58:00.41	86.86	60.37	-30.5	-32.1	13.1	2.36e-05	0	43	0	617611264	21	4317
2026-01-03 09:58:03.42	84.25	60.82	-30.3	-31.4	13.6	2.20e-06	0	43	0	622854144	21	4107
2026-01-03 09:58:06.45	81.53	61.23	-30.7	-32.0	12.9	6.48e-05	0	43	0	629145600	22	4175
2026-01-03 09:58:09.46	78.75	61.58	-31.5	-33.9	11.2	9.34e-04	0	43	0	634388480	23	4730
2026-01-03 09:58:12.47	75.89	61.87	-31.8	-34.9	10.6	2.99e-03	0	43	0	640679936	23	5127
2026-01-03 09:58:15.50	72.95	62.10	-29.9	-30.4	14.3	3.73e-05	0	43	0	645922816	21	3802
2026-01-03 09:58:18.52	69.98	62.26	-29.4	-29.5	15.1	1.50e-06	0	43	0	651165696	20	3657
2026-01-03 09:58:21.53	66.98	62.36	-28.0	-27.8	17.0	0.00e+00	0	43	0	657457152	17	3507
2026-01-03 09:58:24.55	63.95	62.39	-29.1	-30.0	15.5	2.20e-06	0	43	0	662700032	18	3965
2026-01-03 09:58:27.55	60.95	62.36	-28.2	-28.7	16.8	0.00e+00	0	43	0	668991488	16	3825
2026-01-03 09:58:30.58	57.94	62.25	-29.0	-29.6	15.6	0.00e+00	0	43	0	674234368	18	3865
2026-01-03 09:58:33.59	54.98	62.08	-28.5	-28.8	16.5	0.00e+00	0	43	0	679477248	17	3750
2026-01-03 09:58:36.59	52.07	61.85	-29.9	-30.9	14.2	0.00e+00	0	43	0	685768704	20	4032
2026-01-03 09:58:39.62	49.20	61.55	-29.2	-29.6	15.4	0.00e+00	0	43	0	691011584	19	3781
2026-01-03 09:58:42.63	46.43	61.19	-28.0	-27.9	16.9	4.50e-06	0	43	0	697303040	17	3528
2026-01-03 09:58:45.65	43.73	60.78	-28.2	-28.2	16.7	7.00e-07	0	43	0	702545920	17	3606
2026-01-03 09:58:48.67	41.12	60.32	-28.1	-28.6	16.9	1.50e-06	0	43	0	707788800	16	3785
2026-01-03 09:58:51.67	38.63	59.82	-28.1	-28.1	16.8	0.00e+00	0	43	0	714080256	17	3578
2026-01-03 09:58:54.69	36.22	59.26	-30.5	-32.1	13.2	4.50e-06	0	43	0	719323136	21	4318
2026-01-03 09:58:57.70	33.92	58.67	-30.7	-32.0	13.0	3.73e-05	0	43	0	724566016	22	4210
2026-01-03 09:59:00.71	31.73	58.05	-30.8	-31.7	12.6	3.47e-04	0	43	0	730857472	23	4024
2026-01-03 09:59:03.72	29.64	57.39	-31.1	-33.1	12.1	2.85e-04	0	43	0	736100352	22	4545
2026-01-03 09:59:06.75	27.63	56.71	-30.5	-32.0	13.0	1.37e-05	0	43	0	742391808	21	4291
2026-01-03 09:59:09.76	25.74	56.00	-29.4	-29.6	14.9	0.00e+00	0	43	0	747634688	20	3694
2026-01-03 09:59:12.77	23.95	55.28	-29.2	-30.2	15.3	0.00e+00	0	43	0	752877568	18	4033
2026-01-03 09:59:15.79	22.24	54.53	-30.8	-32.8	12.6	2.97e-05	0	43	0	759169024	21	4565
2026-01-03 09:59:18.81	20.61	53.77	-29.2	-29.6	15.3	0.00e+00	0	43	0	764411904	19	3772
2026-01-03 09:59:21.82	19.08	53.01	-30.1	-31.5	13.8	3.80e-06	0	43	0	770703360	20	4234
2026-01-03 09:59:24.85	17.62	52.23	-29.8	-30.8	14.3	4.50e-06	0	43	0	775946240	20	4024
2026-01-03 09:59:27.87	16.23	51.45	-29.8	-31.3	14.3	2.20e-06	0	43	0	781189120	19	4233
2026-01-03 09:59:30.89	14.92	50.66	-30.0	-31.2	14.0	1.50e-06	0	43	0	787480576	20	4129
2026-01-03 09:59:33.90	13.68	49.88	-28.3	-28.0	16.5	0.00e+00	0	43	0	792723456	18	3461
2026-01-03 09:59:36.91	12.50	49.09	-29.8	-31.0	14.4	7.00e-07	0	43	0	799014912	19	4172
2026-01-03 09:59:39.93	11.38	48.31	-30.5	-32.2	13.0	3.05e-05	0	43	0	804257792	21	4346
2026-01-03 09:59:42.94	10.32	47.53	-31.5	-34.0	11.0	6.57e-04	0	43	0	809500672	23	4787
2026-01-03 09:59:45.96	9.31	46.75	-31.5	-34.1	11.0	3.19e-04	0	43	0	815792128	23	4840
2026-01-03 09:59:48.98	8.34	45.97	-30.6	-32.4	12.7	3.89e-05	0	43	0	821035008	21	4434
2026-01-03 09:59:51.99	7.43	45.21	-31.2	-33.7	11.6	9.13e-04	0	43	0	827326464	22	4790
2026-01-03 09:59:55.00	6.56	44.45	-31.1	-33.3	11.7	1.05e-03	0	43	0	832569344	22	4652
2026-01-03 09:59:58.02	5.73	43.69	-31.7	-34.6	10.5	1.98e-03	0	43	0	837812224	23	5043
2026-01-03 10:00:01.02	4.94	42.95	-30.9	-32.2	12.2	7.54e-04	0	43	0	844103680	23	4182
2026-01-03 10:00:04.04	4.18	42.22	-31.2	-33.7	11.5	5.76e-04	0	43	0	849346560	22	4787
2026-01-03 10:00:07.05	3.46	41.49	-31.7	-34.9	10.3	5.33e-03	0	43	0	855638016	23	5184
2026-01-03 10:00:10.07	2.77	40.77	-32.4	-37.1	8.3	4.98e-02	0	43	0	860880896	24	6153
2026-01-03 10:00:13.08	2.11	40.06	-32.6	-37.1	7.7	7.26e-02	0	43	0	866123776	25	6071
2026-01-03 10:00:16.10	1.48	39.37	-30.9	-32.2	12.1	5.14e-04	0	43	0	872415232	23	4197
2026-01-03 10:00:19.11	0.87	38.68	-31.7	-34.6	10.4	2.54e-03	0	43	0	877658112	23	5078
2026-01-03 10:00:22.12	0.29	38.00	-31.2	-33.3	11.4	1.51e-03	0	43	0	882900992	23	4552
2026-01-03 10:00:25.14	359.74	37.33	-32.2	-36.1	8.9	2.37e-02	0	43	0	889192448	24	5659
2026-01-03 10:00:28.16	359.20	36.67	-32.3	-36.4	8.8	4.45e-02	0	43	0	894435328	24	5773
2026-01-03 10:00:31.18	358.69	36.03	-31.6	-34.1	10.4	7.39e-03	0	43	0	900726784	24	4785
2026-01-03 10:00:34.19	358.20	35.39	-31.9	-35.1	9.6	4.27e-03	0	43	0	905969664	24	5186
2026-01-03 10:00:37.21	357.72	34.76	-31.0	-32.7	11.7	1.05e-03	0	43	0	911212544	23	4360
2026-01-03 10:00:40.23	357.27	34.15	-29.3	-29.9	14.9	0.00e+00	0	43	0	917504000	19	3871
2026-01-03 10:00:43.25	356.83	33.54	-30.6	-32.4	12.6	7.55e-05	0	43	0	922746880	21	4455
2026-01-03 10:00:46.27	356.41	32.94	-31.1	-32.9	11.5	1.23e-03	0	43	0	929038336	23	4430
2026-01-03 10:00:49.28	356.00	32.36	-31.1	-33.5	11.5	5.10e-04	0	43	0	934281216	22	4723
2026-01-03 10:00:52.30	355.61	31.78	-31.0	-33.1	11.7	8.35e-04	0	43	0	939524096	22	4584
2026-01-03 10:00:55.33	355.23	31.21	-30.3	-31.6	13.0	3.66e-05	0	43	0	945815552	21	4203
2026-01-03 10:00:58.34	354.87	30.65	-30.5	-32.3	12.6	8.31e-05	0	43	0	951058432	21	4414
2026-01-03 10:01:01.35	354.52	30.11	-30.7	-32.8	12.3	1.30e-04	0	43	0	957349888	21	4567
2026-01-03 10:01:04.36	354.18	29.57	-31.7	-35.0	9.9	4.32e-03	0	43	0	962592768	23	5255
2026-01-03 10:01:07.37	353.85	29.04	-32.6	-37.8	7.1	1.37e-01	0	43	0	967835648	25	6518
2026-01-03 10:01:10.39	353.54	28.52	-32.3	-36.2	8.2	7.20e-02	0	43	0	974127104	25	5658
2026-01-03 10:01:13.40	353.23	28.00	-31.9	-34.8	9.3	2.01e-02	0	43	0	979369984	25	5028
2026-01-03 10:01:16.43	352.93	27.50	-32.0	-35.0	9.2	3.08e-02	0	43	0	985661440	25	5110
2026-01-03 10:01:19.44	352.65	27.00	-31.7	-34.7	9.9	7.93e-03	0	43	0	990904320	24	5067
2026-01-03 10:01:22.46	352.37	26.51	-31.5	-33.8	10.5	6.33e-03	0	43	0	996147200	24	4686
2026-01-03 10:01:25.48	352.10	26.03	-31.7	-34.5	9.9	7.52e-03	0	43	0	1002438656	24	4975
2026-01-03 10:01:28.50	351.84	25.56	-31.9	-35.4	9.2	2.66e-02	0	43	0	1007681536	24	5366
2026-01-03 10:01:31.52	351.58	25.10	-32.0	-36.0	8.7	3.23e-02	0	43	0	1013972992	24	5653
2026-01-03 10:01:34.54	351.34	24.64	-32.2	-36.4	8.4	3.24e-02	0	43	0	1019215872	24	5860
2026-01-03 10:01:37.56	351.10	24.19	-32.0	-35.9	8.7	3.51e-02	0	43	0	1024458752	24	5621
2026-01-03 10:01:40.58	350.87	23.74	-32.2	-36.7	8.1	7.07e-02	0	43	0	1030750208	24	6022
2026-01-03 10:01:43.59	350.64	23.31	-31.8	-35.0	9.4	1.92e-02	0	43	0	1035993088	24	5207
2026-01-03 10:01:46.60	350.43	22.88	-31.8	-35.0	9.5	1.53e-02	0	43	0	1042284544	24	5211
2026-01-03 10:01:49.63	350.21	22.46	-30.9	-32.7	11.5	1.90e-03	0	43	0	1047527424	23	4389
2026-01-03 10:01:52.64	350.01	22.04	-30.2	-31.5	12.9	6.48e-05	0	43	0	1052770304	21	4185
2026-01-03 10:01:55.64	349.81	21.63	-30.1	-31.2	13.1	2.59e-05	0	43	0	1059061760	21	4097
2026-01-03 10:01:58.67	349.61	21.23	-30.2	-31.6	12.8	5.34e-05	0	43	0	1064304640	21	4211
2026-01-03 10:02:01.68	349.42	20.83	-30.5	-32.3	12.3	1.76e-04	0	43	0	1069547520	21	4460
2026-01-03 10:02:04.70	349.24	20.44	-30.8	-33.2	11.7	5.53e-04	0	43	0	1075838976	21	4772
2026-01-03 10:02:07.71	349.06	20.05	-30.7	-32.9	11.9	3.17e-04	0	43	0	1081081856	21	4651
2026-01-03 10:02:10.73	348.88	19.67	-30.3	-31.9	12.5	1.52e-04	0	43	0	1087373312	21	4316
2026-01-03 10:02:13.75	348.71	19.30	-30.1	-31.2	13.0	4.42e-05	0	43	0	1092616192	21	4097
2026-01-03 10:02:16.77	348.55	18.93	-30.1	-31.4	12.9	6.10e-05	0	43	0	1097859072	21	4159
2026-01-03 10:02:19.78	348.39	18.56	-30.2	-31.7	12.6	1.80e-04	0	43	0	1104150528	21	4263
2026-01-03 10:02:22.80	348.23	18.20	-30.4	-32.1	12.3	1.23e-04	0	43	0	1109393408	21	4392
2026-01-03 10:02:25.82	348.07	17.85	-30.1	-31.4	12.8	6.33e-05	0	43	0	1115684864	21	4175
2026-01-03 10:02:28.84	347.92	17.50	-30.0	-31.2	12.9	6.71e-05	0	43	0	1120927744	21	4101
2026-01-03 10:02:31.87	347.78	17.15	-30.0	-31.2	12.9	3.43e-05	0	43	0	1126170624	21	4113
2026-01-03 10:02:34.88	347.63	16.81	-30.4	-32.2	12.2	2.20e-04	0	43	0	1132462080	21	4443
2026-01-03 10:02:37.91	347.49	16.48	-30.7	-33.1	11.6	5.24e-04	0	43	0	1137704960	21	4742
2026-01-03 10:02:40.92	347.36	16.15	-30.8	-33.4	11.3	1.11e-03	0	43	0	1143996416	21	4886
2026-01-03 10:02:43.94	347.23	15.82	-30.8	-33.5	11.2	1.95e-03	0	43	0	1149239296	21	4914
2026-01-03 10:02:46.96	347.10	15.50	-30.5	-32.6	11.8	4.92e-04	0	43	0	1154482176	21	4578
2026-01-03 10:02:49.98	346.97	15.18	-30.7	-33.3	11.3	1.05e-03	0	43	0	1160773632	21	4862
2026-01-03 10:02:53.00	346.85	14.86	-30.5	-32.7	11.7	4.69e-04	0	43	0	1166016512	21	4638
2026-01-03 10:02:56.01	346.73	14.55	-31.0	-34.3	10.6	1.64e-03	0	43	0	1172307968	21	5241
2026-01-03 10:02:59.01	346.61	14.25	-31.2	-34.5	10.0	5.30e-03	0	43	0	1177550848	22	5248
2026-01-03 10:03:02.03	346.49	13.94	-31.2	-34.4	10.1	8.94e-03	0	43	0	1182793728	22	5223
2026-01-03 10:03:05.05	346.38	13.64	-31.4	-35.0	9.6	9.36e-03	0	43	0	1189085184	22	5502
2026-01-03 10:03:08.06	346.27	13.35	-31.1	-34.2	10.2	6.48e-03	0	43	0	1194328064	22	5153
2026-01-03 10:03:11.08	346.16	13.05	-31.1	-34.3	10.1	5.21e-03	0	43	0	1200619520	22	5168
2026-01-03 10:03:14.10	346.06	12.76	-30.9	-33.5	10.7	3.48e-03	0	43	0	1205862400	22	4860
2026-01-03 10:03:17.12	345.95	12.48	-30.8	-33.2	10.8	2.18e-03	0	43	0	1211105280	22	4758
2026-01-03 10:03:20.13	345.85	12.19	-30.5	-32.4	11.4	8.73e-04	0	43	0	1217396736	22	4455
2026-01-03 10:03:23.15	345.75	11.91	-30.4	-32.1	11.6	7.24e-04	0	43	0	1222639616	22	4347
2026-01-03 10:03:26.16	345.65	11.64	-30.5	-32.3	11.5	1.33e-03	0	43	0	1228931072	22	4412
2026-01-03 10:03:29.18	345.56	11.36	-30.1	-31.7	12.1	3.97e-04	0	43	0	1234173952	21	4330
2026-01-03 10:03:32.20	345.47	11.09	-30.2	-32.0	11.9	6.45e-04	0	43	0	1239416832	21	4425
2026-01-03 10:03:35.22	345.38	10.82	-30.2	-32.0	12.0	3.68e-04	0	43	0	1245708288	21	4398
2026-01-03 10:03:38.23	345.29	10.56	-30.5	-32.7	11.4	6.29e-04	0	43	0	1250951168	21	4682
2026-01-03 10:03:41.24	345.20	10.30	-30.6	-33.1	11.1	1.76e-03	0	43	0	1256194048	21	4820
2026-01-03 10:03:44.26	345.11	10.04	-30.8	-33.9	10.5	3.15e-03	0	43	0	1262485504	21	5149
2026-01-03 10:03:47.28	345.03	9.78	-30.8	-33.9	10.4	4.24e-03	0	43	0	1267728384	21	5161
2026-01-03 10:03:50.30	344.95	9.53	-30.7	-33.7	10.6	3.20e-03	0	43	0	1274019840	21	5049
2026-01-03 10:03:53.32	344.87	9.27	-30.8	-33.9	10.4	4.84e-03	0	43	0	1279262720	21	5174
2026-01-03 10:03:56.34	344.79	9.02	-30.9	-34.2	10.1	7.96e-03	0	43	0	1284505600	21	5280
2026-01-03 10:03:59.35	344.71	8.78	-30.9	-34.3	10.0	6.21e-03	0	43	0	1290797056	21	5321
2026-01-03 10:04:02.38	344.63	8.53	-31.0	-34.1	9.7	1.21e-02	0	43	0	1296039936	22	5179
2026-01-03 10:04:05.40	344.56	8.29	-31.0	-34.2	9.7	1.29e-02	0	43	0	1302331392	22	5222
2026-01-03 10:04:08.42	344.49	8.05	-31.1	-34.5	9.4	1.40e-02	0	43	0	1307574272	22	5355
2026-01-03 10:04:11.44	344.41	7.81	-31.0	-34.2	9.6	1.16e-02	0	43	0	1312817152	22	5241
2026-01-03 10:04:14.46	344.34	7.58	-31.0	-34.4	9.4	2.01e-02	0	43	0	1319108608	22	5312
2026-01-03 10:04:17.47	344.28	7.34	-31.1	-34.9	9.0	2.14e-02	0	43	0	1324351488	22	5557
2026-01-03 10:04:20.49	344.21	7.11	-31.4	-35.8	8.5	2.46e-02	0	43	0	1330642944	22	5992
2026-01-03 10:04:23.51	344.14	6.88	-33.5	-46.2	3.8	1.49e+00	0	43	104	1330642944	26	15644

#Closed at: 2026-01-03 10:04:24
#Recorded file [1330 MB]: D:/data/31010_260103_125230.dat