passes_logs/2026/01/03/R2M6_AANII_01/R2M6_AANII_01__20260103_060840_FENGYUN_3E_rec.log

#Pass ID: 20260103_060840_FENGYUN 3E
#Satellite: FENGYUN 3E
#Configuration: FENGYUN 3E
#almurnet v.1.7.20240730
#Start time: 2026-01-03 06:08:40

#Version: 2.2.20231116
#Station: R2M6_AANII_01
#Location: 30.233357 lon 59.946436 lat
#TLE: 1 49008U 21062A   26002.32147302  .00000239  00000+0  13357-3 0  9999
#TLE: 2 49008  98.7477   7.5995 0001398 164.3382 195.7838 14.19884140233041

#Time	Az	El	Level	Level2	SNR	BER	BlckErr	Temp	State	Recorded	gain1	gain2
2026-01-03 06:08:40.33	11.66	6.97	-31.3	-36.4	4.3	8.30e-01	0	40	0	0	22	6468
2026-01-03 06:08:43.34	11.44	7.18	-30.7	-34.6	6.4	2.52e-01	0	40	0	7340032	21	5628
2026-01-03 06:08:46.35	11.22	7.39	-30.7	-34.5	6.5	2.46e-01	0	41	0	28311552	21	5567
2026-01-03 06:08:49.37	10.99	7.60	-29.8	-32.6	8.4	5.52e-02	0	41	0	50331648	19	4972
2026-01-03 06:08:52.39	10.76	7.81	-27.8	-29.4	11.6	9.05e-04	0	41	0	72351744	15	4349
2026-01-03 06:08:55.41	10.52	8.02	-26.4	-27.7	13.5	2.05e-05	0	41	0	94371840	12	4179
2026-01-03 06:08:58.44	10.28	8.24	-26.1	-27.4	14.1	2.00e-03	0	41	0	116391936	11	4204
2026-01-03 06:09:01.45	10.04	8.45	-26.0	-27.2	14.2	1.87e-03	0	41	0	137363456	11	4145
2026-01-03 06:09:04.48	9.79	8.67	-26.1	-26.9	14.0	1.82e-03	0	41	0	159383552	12	3978
2026-01-03 06:09:07.50	9.54	8.88	-26.1	-27.0	14.0	2.07e-03	0	41	0	181403648	12	4004
2026-01-03 06:09:10.52	9.29	9.10	-26.2	-27.2	13.9	2.08e-03	0	41	0	203423744	12	4039
2026-01-03 06:09:13.53	9.03	9.32	-26.2	-27.2	13.9	2.06e-03	0	41	0	224395264	12	4053
2026-01-03 06:09:16.55	8.77	9.55	-26.1	-27.0	14.1	2.31e-03	0	41	0	246415360	12	3996
2026-01-03 06:09:19.55	8.50	9.77	-26.1	-27.0	14.1	0.00e+00	0	42	0	268435456	12	3980
2026-01-03 06:09:22.57	8.23	9.99	-26.0	-27.2	14.3	1.10e-06	0	42	0	289406976	11	4148
2026-01-03 06:09:25.60	7.95	10.22	-26.1	-26.9	14.1	0.00e+00	0	42	0	311427072	12	3968
2026-01-03 06:09:28.61	7.67	10.44	-26.1	-26.9	14.2	0.00e+00	0	42	0	333447168	12	3955
2026-01-03 06:09:31.63	7.39	10.67	-26.0	-27.2	14.4	0.00e+00	0	42	0	355467264	11	4135
2026-01-03 06:09:34.65	7.10	10.90	-26.1	-27.1	14.1	0.00e+00	0	42	0	377487360	12	4006
2026-01-03 06:09:37.67	6.80	11.13	-25.9	-27.0	14.5	0.00e+00	0	42	0	398458880	11	4077
2026-01-03 06:09:40.69	6.51	11.37	-25.8	-26.8	14.6	0.00e+00	0	42	0	420478976	11	4037
2026-01-03 06:09:43.72	6.20	11.60	-26.0	-27.2	14.5	0.00e+00	0	42	0	442499072	11	4124
2026-01-03 06:09:46.74	5.89	11.84	-25.9	-27.0	14.6	0.00e+00	0	42	0	464519168	11	4087
2026-01-03 06:09:49.75	5.58	12.08	-25.6	-26.4	14.9	0.00e+00	0	42	0	486539264	11	3925
2026-01-03 06:09:52.77	5.26	12.31	-25.7	-26.5	14.9	1.10e-06	0	42	0	507510784	11	3952
2026-01-03 06:09:55.79	4.93	12.55	-25.6	-26.3	15.0	0.00e+00	0	42	0	529530880	11	3910
2026-01-03 06:09:58.81	4.60	12.80	-25.5	-26.5	15.2	0.00e+00	0	42	0	551550976	10	4069
2026-01-03 06:10:01.83	4.27	13.04	-25.5	-26.5	15.1	0.00e+00	0	42	0	573571072	10	4068
2026-01-03 06:10:04.85	3.92	13.28	-25.4	-26.4	15.2	0.00e+00	0	42	0	595591168	10	4033
2026-01-03 06:10:07.86	3.58	13.53	-25.4	-26.3	14.3	0.00e+00	0	42	0	616562688	10	4000
2026-01-03 06:10:10.88	3.22	13.78	-25.4	-26.4	15.2	2.30e-04	0	42	0	638582784	10	4042
2026-01-03 06:10:13.90	2.86	14.02	-25.2	-25.8	15.6	0.00e+00	0	42	0	660602880	10	3898
2026-01-03 06:10:16.91	2.50	14.27	-24.9	-25.9	15.8	0.00e+00	0	42	0	682622976	9	4004
2026-01-03 06:10:19.92	2.13	14.52	-24.9	-25.9	15.8	0.00e+00	0	43	0	703594496	9	4009
2026-01-03 06:10:22.95	1.75	14.78	-24.9	-25.8	15.9	1.32e-04	0	43	0	725614592	9	3981
2026-01-03 06:10:25.97	1.36	15.03	-24.8	-25.6	16.0	8.01e-05	0	43	0	747634688	9	3946
2026-01-03 06:10:28.99	0.97	15.29	-24.8	-25.5	16.1	0.00e+00	0	43	0	769654784	9	3918
2026-01-03 06:10:32.01	0.57	15.54	-24.7	-25.4	16.1	0.00e+00	0	43	0	791674880	9	3880
2026-01-03 06:10:35.03	0.16	15.80	-24.6	-25.1	16.3	0.00e+00	0	43	0	813694976	9	3815
2026-01-03 06:10:38.05	359.74	16.06	-24.7	-25.3	16.2	1.66e-04	0	43	0	834666496	9	3861
2026-01-03 06:10:41.07	359.32	16.32	-24.9	-25.7	16.0	0.00e+00	0	43	0	856686592	9	3959
2026-01-03 06:10:44.09	358.89	16.58	-24.9	-25.7	16.0	0.00e+00	0	43	0	878706688	9	3969
2026-01-03 06:10:47.11	358.46	16.85	-24.7	-25.3	16.2	0.00e+00	0	43	0	900726784	9	3857
2026-01-03 06:10:50.12	358.01	17.11	-24.6	-25.0	16.4	0.00e+00	0	43	0	921698304	9	3806
2026-01-03 06:10:53.15	357.56	17.38	-24.5	-25.4	16.4	0.00e+00	0	43	0	943718400	8	4006
2026-01-03 06:10:56.17	357.10	17.64	-24.2	-24.7	16.8	0.00e+00	0	43	0	965738496	8	3832
2026-01-03 06:10:59.18	356.63	17.91	-24.1	-25.0	16.9	5.24e-04	0	43	0	987758592	7	3998
2026-01-03 06:11:02.20	356.15	18.18	-24.3	-24.9	16.7	6.10e-04	0	43	0	1008730112	8	3875
2026-01-03 06:11:05.21	355.66	18.44	-24.2	-24.8	16.7	5.70e-04	0	43	0	1030750208	8	3863
2026-01-03 06:11:08.23	355.17	18.71	-24.2	-24.7	16.8	0.00e+00	0	43	0	1052770304	8	3835
2026-01-03 06:11:11.24	354.67	18.98	-24.0	-24.8	17.0	6.14e-04	0	43	0	1074790400	7	3952
2026-01-03 06:11:14.26	354.15	19.25	-24.1	-24.5	17.0	5.18e-04	0	43	0	1095761920	8	3785
2026-01-03 06:11:17.28	353.63	19.52	-24.2	-24.7	16.9	4.18e-04	0	43	0	1117782016	8	3820
2026-01-03 06:11:20.29	353.10	19.79	-24.3	-25.1	16.7	0.00e+00	0	43	0	1139802112	8	3912
2026-01-03 06:11:23.31	352.55	20.06	-24.3	-25.0	16.7	0.00e+00	0	43	0	1161822208	8	3910
2026-01-03 06:11:26.33	352.00	20.34	-24.1	-24.6	16.8	3.58e-04	0	43	0	1182793728	8	3817
2026-01-03 06:11:29.34	351.44	20.61	-24.2	-24.8	16.9	1.76e-04	0	43	0	1204813824	8	3850
2026-01-03 06:11:32.35	350.87	20.88	-24.4	-25.2	16.7	1.05e-03	0	43	0	1226833920	8	3953
2026-01-03 06:11:35.37	350.29	21.15	-24.3	-25.0	16.8	1.02e-03	0	43	0	1248854016	8	3893
2026-01-03 06:11:38.38	349.69	21.42	-24.3	-25.0	16.8	1.08e-03	0	43	0	1270874112	8	3899
2026-01-03 06:11:41.41	349.09	21.69	-24.0	-24.4	17.1	1.02e-03	0	43	0	1291845632	8	3754
2026-01-03 06:11:44.43	348.47	21.96	-23.9	-24.6	17.2	8.56e-04	0	43	0	1313865728	7	3915
2026-01-03 06:11:47.45	347.85	22.23	-23.9	-24.7	17.2	4.54e-04	0	43	0	1335885824	7	3930
2026-01-03 06:11:50.46	347.21	22.50	-24.2	-24.8	16.9	0.00e+00	0	43	0	1357905920	8	3853
2026-01-03 06:11:53.47	346.57	22.77	-24.0	-24.3	17.2	0.00e+00	0	43	0	1378877440	8	3735
2026-01-03 06:11:56.49	345.91	23.03	-24.1	-24.5	17.1	0.00e+00	0	43	0	1400897536	8	3789
2026-01-03 06:11:59.50	345.24	23.30	-23.7	-24.2	17.5	0.00e+00	0	43	0	1422917632	7	3811
2026-01-03 06:12:02.51	344.56	23.56	-23.6	-23.9	17.6	0.00e+00	0	43	0	1444937728	7	3746
2026-01-03 06:12:05.53	343.86	23.82	-23.4	-23.5	17.8	0.00e+00	0	43	0	1465909248	7	3663
2026-01-03 06:12:08.56	343.15	24.08	-23.1	-23.4	18.2	0.00e+00	0	43	0	1487929344	6	3723
2026-01-03 06:12:11.57	342.44	24.34	-23.2	-23.6	18.0	0.00e+00	0	43	0	1509949440	6	3778
2026-01-03 06:12:14.58	341.71	24.59	-23.2	-23.7	18.0	0.00e+00	0	43	0	1531969536	6	3794
2026-01-03 06:12:17.59	340.97	24.84	-23.3	-23.8	18.0	0.00e+00	0	43	0	1553989632	6	3820
2026-01-03 06:12:20.62	340.21	25.09	-23.2	-23.6	18.0	0.00e+00	0	43	0	1574961152	6	3789
2026-01-03 06:12:23.63	339.45	25.34	-23.3	-23.7	18.0	0.00e+00	0	43	0	1596981248	6	3812
2026-01-03 06:12:26.65	338.67	25.58	-23.4	-24.1	17.8	0.00e+00	0	43	0	1619001344	6	3893
2026-01-03 06:12:29.66	337.88	25.82	-23.8	-24.3	17.5	0.00e+00	0	43	0	1641021440	7	3836
2026-01-03 06:12:32.67	337.08	26.05	-23.7	-24.3	17.5	0.00e+00	0	43	0	1661992960	7	3822
2026-01-03 06:12:35.68	336.27	26.28	-23.4	-24.1	17.8	0.00e+00	0	43	0	1684013056	6	3906
2026-01-03 06:12:38.69	335.45	26.51	-23.4	-24.1	17.8	0.00e+00	0	43	0	1706033152	6	3899
2026-01-03 06:12:41.70	334.61	26.73	-23.2	-23.7	18.1	0.00e+00	0	43	0	1727004672	6	3796
2026-01-03 06:12:44.72	333.76	26.94	-23.5	-24.3	17.8	0.00e+00	0	43	0	1749024768	6	3933
2026-01-03 06:12:47.74	332.90	27.15	-22.8	-23.4	18.4	8.65e-04	0	43	0	1771044864	5	3832
2026-01-03 06:12:50.76	332.03	27.36	-23.1	-23.5	18.1	2.16e-04	0	43	0	1793064960	6	3765
2026-01-03 06:12:53.77	331.15	27.56	-23.4	-24.1	17.8	2.17e-04	0	43	0	1814036480	6	3894
2026-01-03 06:12:56.80	330.25	27.75	-23.3	-23.9	18.0	7.86e-04	0	43	0	1836056576	6	3844
2026-01-03 06:12:59.82	329.34	27.94	-23.3	-23.8	18.0	1.27e-03	0	43	0	1858076672	6	3819
2026-01-03 06:13:02.84	328.42	28.11	-23.1	-23.5	18.2	3.34e-04	0	43	0	1880096768	6	3758
2026-01-03 06:13:05.85	327.50	28.29	-23.1	-23.5	18.2	0.00e+00	0	43	0	1902116864	6	3762
2026-01-03 06:13:08.86	326.57	28.45	-23.3	-23.9	18.0	1.34e-03	0	43	0	1923088384	6	3857
2026-01-03 06:13:11.88	325.62	28.61	-23.1	-23.8	18.2	1.48e-03	0	43	0	1945108480	5	3941
2026-01-03 06:13:14.91	324.66	28.76	-23.5	-23.8	17.8	2.06e-03	0	43	0	1967128576	7	3710
2026-01-03 06:13:17.93	323.70	28.90	-23.1	-23.5	18.2	0.00e+00	0	43	0	1989148672	6	3754
2026-01-03 06:13:20.95	322.72	29.03	-22.8	-23.3	18.6	0.00e+00	0	43	0	2011168768	5	3812
2026-01-03 06:13:23.96	321.75	29.15	-22.8	-23.3	18.5	0.00e+00	0	43	0	2032140288	5	3824
2026-01-03 06:13:26.99	320.76	29.27	-22.7	-23.1	18.6	0.00e+00	0	43	0	2054160384	5	3773
2026-01-03 06:13:30.00	319.76	29.37	-22.9	-23.4	18.5	0.00e+00	0	43	0	2076180480	5	3846
2026-01-03 06:13:33.02	318.76	29.47	-23.6	-24.0	17.7	0.00e+00	0	43	0	2098200576	7	3772
2026-01-03 06:13:36.04	317.76	29.56	-22.6	-22.9	18.8	0.00e+00	0	43	0	2120220672	5	3718
2026-01-03 06:13:39.06	316.74	29.63	-22.9	-23.5	18.5	0.00e+00	0	43	0	2141192192	5	3861
2026-01-03 06:13:42.07	315.73	29.70	-23.1	-23.5	18.2	0.00e+00	0	43	0	2163212288	6	3760
2026-01-03 06:13:45.09	314.71	29.76	-23.6	-24.4	17.8	1.10e-06	0	43	0	2185232384	6	3962
2026-01-03 06:13:48.10	313.69	29.81	-22.6	-23.0	18.7	0.00e+00	0	43	0	2207252480	5	3742
2026-01-03 06:13:51.12	312.66	29.84	-23.1	-23.9	18.2	0.00e+00	0	43	0	2228224000	5	3951
2026-01-03 06:13:54.14	311.63	29.87	-22.7	-23.1	18.6	0.00e+00	0	43	0	2250244096	5	3771
2026-01-03 06:13:57.16	310.60	29.88	-22.8	-23.2	18.6	0.00e+00	0	43	0	2272264192	5	3793
2026-01-03 06:14:00.16	309.58	29.89	-22.6	-22.8	18.8	0.00e+00	0	43	0	2294284288	5	3702
2026-01-03 06:14:03.19	308.54	29.89	-22.5	-22.6	18.9	0.00e+00	0	43	0	2316304384	5	3654
2026-01-03 06:14:06.20	307.51	29.87	-22.7	-23.1	18.7	0.00e+00	0	43	0	2337275904	5	3764
2026-01-03 06:14:09.22	306.48	29.85	-22.6	-23.0	18.7	1.40e-04	0	43	0	2359296000	5	3742
2026-01-03 06:14:12.25	305.45	29.81	-22.6	-22.8	18.8	1.79e-04	0	43	0	2381316096	5	3700
2026-01-03 06:14:15.25	304.43	29.76	-22.6	-23.0	18.7	0.00e+00	0	43	0	2403336192	5	3735
2026-01-03 06:14:18.28	303.41	29.71	-22.7	-23.1	18.7	1.02e-04	0	43	0	2424307712	5	3763
2026-01-03 06:14:21.30	302.39	29.64	-22.6	-22.9	18.8	1.04e-04	0	43	0	2446327808	5	3725
2026-01-03 06:14:24.33	301.37	29.56	-22.8	-23.2	18.6	8.35e-05	0	43	0	2468347904	5	3800
2026-01-03 06:14:27.35	300.36	29.48	-22.5	-22.8	18.8	0.00e+00	0	43	0	2490368000	5	3700
2026-01-03 06:14:30.35	299.37	29.38	-22.7	-23.1	18.6	0.00e+00	0	43	0	2511339520	5	3767
2026-01-03 06:14:33.37	298.37	29.28	-22.7	-23.1	18.7	0.00e+00	0	43	0	2533359616	5	3761
2026-01-03 06:14:36.39	297.38	29.16	-22.7	-23.1	18.6	0.00e+00	0	43	0	2555379712	5	3762
2026-01-03 06:14:39.41	296.39	29.04	-22.6	-23.4	18.7	0.00e+00	0	43	0	2577399808	4	3937
2026-01-03 06:14:42.43	295.42	28.91	-22.8	-23.3	18.5	0.00e+00	0	43	0	2599419904	5	3822
2026-01-03 06:14:45.45	294.45	28.77	-22.8	-23.2	18.6	0.00e+00	0	43	0	2620391424	5	3792
2026-01-03 06:14:48.47	293.49	28.62	-22.7	-23.1	18.5	0.00e+00	0	43	0	2642411520	5	3773
2026-01-03 06:14:51.49	292.54	28.46	-23.1	-23.9	18.2	0.00e+00	0	43	0	2664431616	5	3950
2026-01-03 06:14:54.50	291.61	28.30	-23.0	-23.2	18.3	0.00e+00	0	43	0	2686451712	6	3690
2026-01-03 06:14:57.52	290.68	28.13	-22.5	-22.7	18.8	0.00e+00	0	43	0	2707423232	5	3670
2026-01-03 06:15:00.52	289.76	27.95	-22.5	-22.7	18.8	0.00e+00	0	43	0	2729443328	5	3682
2026-01-03 06:15:03.55	288.85	27.76	-22.7	-23.0	18.6	0.00e+00	0	43	0	2751463424	5	3759
2026-01-03 06:15:06.56	287.95	27.57	-22.8	-23.2	18.5	0.00e+00	0	43	0	2773483520	5	3803
2026-01-03 06:15:09.58	287.07	27.37	-22.8	-23.4	18.5	0.00e+00	0	43	0	2795503616	5	3830
2026-01-03 06:15:12.60	286.19	27.17	-22.7	-23.2	18.5	1.10e-06	0	43	0	2816475136	5	3787
2026-01-03 06:15:15.62	285.32	26.96	-22.6	-23.0	18.6	0.00e+00	0	43	0	2838495232	5	3740
2026-01-03 06:15:18.64	284.47	26.74	-22.8	-23.3	13.2	0.00e+00	0	43	0	2860515328	5	3829
2026-01-03 06:15:21.65	283.63	26.52	-22.9	-23.6	18.3	0.00e+00	0	43	0	2882535424	5	3881
2026-01-03 06:15:24.67	282.80	26.29	-22.7	-23.1	18.6	0.00e+00	0	43	0	2903506944	5	3760
2026-01-03 06:15:27.69	281.98	26.06	-22.7	-23.2	18.5	8.98e-04	0	43	0	2925527040	5	3783
2026-01-03 06:15:30.71	281.18	25.83	-23.0	-23.7	18.2	3.74e-04	0	43	0	2947547136	5	3898
2026-01-03 06:15:33.73	280.38	25.59	-23.2	-23.7	18.0	0.00e+00	0	43	0	2969567232	6	3808
2026-01-03 06:15:36.75	279.60	25.35	-23.1	-23.3	18.2	6.04e-04	0	43	0	2991587328	6	3719
2026-01-03 06:15:39.76	278.83	25.10	-23.1	-23.4	18.1	9.34e-04	0	43	0	3012558848	6	3744
2026-01-03 06:15:42.78	278.07	24.85	-22.9	-23.1	18.3	1.51e-03	0	43	0	3034578944	6	3664
2026-01-03 06:15:45.80	277.33	24.60	-22.9	-23.4	18.3	1.59e-03	0	43	0	3056599040	5	3851
2026-01-03 06:15:48.82	276.59	24.34	-22.9	-23.6	18.2	1.50e-04	0	43	0	3078619136	5	3876
2026-01-03 06:15:51.84	275.87	24.08	-23.1	-23.4	18.1	2.99e-04	0	43	0	3100639232	6	3731
2026-01-03 06:15:54.85	275.16	23.82	-23.0	-23.2	18.2	3.18e-04	0	43	0	3121610752	6	3697
2026-01-03 06:15:57.86	274.47	23.56	-23.0	-23.8	18.1	0.00e+00	0	43	0	3143630848	5	3925
2026-01-03 06:16:00.87	273.78	23.30	-23.3	-23.9	17.8	1.94e-04	0	43	0	3164602368	6	3850
2026-01-03 06:16:03.89	273.11	23.03	-23.1	-23.5	18.0	4.67e-04	0	43	0	3186622464	6	3764
2026-01-03 06:16:06.91	272.44	22.77	-23.3	-23.8	17.8	9.73e-04	0	43	0	3208642560	6	3837
2026-01-03 06:16:09.94	271.79	22.50	-23.2	-23.7	17.9	0.00e+00	0	43	0	3230662656	6	3797
2026-01-03 06:16:12.95	271.15	22.23	-23.0	-23.3	18.1	0.00e+00	0	43	0	3252682752	6	3709
2026-01-03 06:16:15.97	270.52	21.96	-23.2	-23.6	17.9	3.50e-04	0	43	0	3273654272	6	3775
2026-01-03 06:16:18.99	269.90	21.69	-23.3	-23.9	17.7	0.00e+00	0	43	0	3295674368	6	3849
2026-01-03 06:16:22.00	269.29	21.41	-23.3	-24.0	17.7	0.00e+00	0	43	0	3317694464	6	3864
2026-01-03 06:16:25.02	268.70	21.14	-23.3	-23.9	17.8	0.00e+00	0	43	0	3339714560	6	3847
2026-01-03 06:16:28.04	268.11	20.87	-23.4	-24.2	17.6	0.00e+00	0	43	0	3361734656	6	3920
2026-01-03 06:16:31.06	267.53	20.60	-23.4	-24.1	17.6	0.00e+00	0	43	0	3382706176	6	3901
2026-01-03 06:16:34.07	266.97	20.32	-23.5	-24.3	17.5	0.00e+00	0	43	0	3404726272	6	3950
2026-01-03 06:16:37.10	266.41	20.05	-23.4	-24.0	16.0	0.00e+00	0	43	0	3426746368	6	3877
2026-01-03 06:16:40.12	265.86	19.78	-23.4	-24.1	17.6	1.72e-03	0	43	0	3448766464	6	3910
2026-01-03 06:16:43.14	265.33	19.50	-23.6	-24.4	17.4	0.00e+00	0	43	0	3470786560	6	3972
2026-01-03 06:16:46.15	264.80	19.23	-23.7	-24.3	17.2	0.00e+00	0	43	0	3491758080	7	3853
2026-01-03 06:16:49.17	264.28	18.96	-24.0	-24.8	17.0	0.00e+00	0	43	0	3513778176	7	3958
2026-01-03 06:16:52.19	263.78	18.69	-23.9	-24.7	17.0	1.34e-03	0	43	0	3535798272	7	3946
2026-01-03 06:16:55.21	263.28	18.42	-24.2	-24.9	16.7	1.24e-03	0	43	0	3557818368	8	3869
2026-01-03 06:16:58.23	262.79	18.15	-24.0	-24.4	16.9	1.15e-03	0	43	0	3578789888	8	3758
2026-01-03 06:17:01.24	262.31	17.88	-24.0	-24.9	16.9	0.00e+00	0	43	0	3600809984	7	3981
2026-01-03 06:17:04.26	261.83	17.61	-23.9	-24.6	17.0	0.00e+00	0	43	0	3622830080	7	3924
2026-01-03 06:17:07.27	261.37	17.35	-25.1	-25.9	16.2	1.28e-03	0	43	0	3644850176	9	3929
2026-01-03 06:17:10.30	260.91	17.08	-24.9	-25.7	15.9	0.00e+00	0	43	0	3666870272	9	3968
2026-01-03 06:17:13.32	260.46	16.82	-24.9	-25.9	15.8	0.00e+00	0	43	0	3687841792	9	4018
2026-01-03 06:17:16.32	260.02	16.55	-24.4	-24.8	16.4	0.00e+00	0	43	0	3709861888	9	3749
2026-01-03 06:17:19.32	259.59	16.29	-23.5	-24.4	16.0	0.00e+00	0	43	0	3731881984	8	3963
2026-01-03 06:17:22.33	259.17	16.03	-24.8	-25.5	16.0	1.03e-03	0	43	0	3753902080	9	3920
2026-01-03 06:17:25.35	258.75	15.77	-24.8	-25.6	15.9	0.00e+00	0	43	0	3774873600	9	3939
2026-01-03 06:17:28.37	258.34	15.51	-24.7	-25.4	16.0	0.00e+00	0	43	0	3796893696	9	3889
2026-01-03 06:17:31.39	257.94	15.25	-24.6	-25.2	16.1	1.05e-03	0	43	0	3818913792	9	3854
2026-01-03 06:17:34.39	257.55	15.00	-24.8	-25.5	15.9	1.25e-03	0	43	0	3839885312	9	3925
2026-01-03 06:17:37.41	257.16	14.74	-25.0	-26.0	15.7	1.57e-03	0	43	0	3861905408	9	4053
2026-01-03 06:17:40.43	256.77	14.49	-25.1	-25.8	15.5	1.58e-03	0	43	0	3883925504	10	3889
2026-01-03 06:17:43.44	256.40	14.24	-25.2	-25.9	15.4	0.00e+00	0	43	0	3905945600	10	3922
2026-01-03 06:17:46.45	256.03	13.99	-25.3	-26.1	15.3	1.37e-03	0	43	0	3926917120	10	3963
2026-01-03 06:17:49.47	255.67	13.74	-25.2	-26.0	15.3	1.08e-03	0	43	0	3948937216	10	3941
2026-01-03 06:17:52.47	255.31	13.49	-25.2	-26.1	15.3	5.74e-04	0	43	0	3970957312	10	3958
2026-01-03 06:17:55.50	254.96	13.24	-25.1	-25.7	15.4	0.00e+00	0	43	0	3992977408	10	3870
2026-01-03 06:17:58.51	254.61	13.00	-25.1	-25.7	15.5	0.00e+00	0	43	0	4013948928	10	3867
2026-01-03 06:18:01.52	254.28	12.75	-25.1	-26.2	15.5	0.00e+00	0	43	0	4035969024	9	4091
2026-01-03 06:18:04.53	253.94	12.51	-25.2	-26.0	15.3	2.05e-04	0	43	0	4057989120	10	3948
2026-01-03 06:18:07.54	253.61	12.27	-25.2	-25.9	15.4	0.00e+00	0	44	0	4080009216	10	3918
2026-01-03 06:18:10.55	253.29	12.03	-25.2	-25.9	15.3	0.00e+00	0	43	0	4100980736	10	3920
2026-01-03 06:18:13.57	252.98	11.79	-25.2	-26.0	15.3	0.00e+00	0	43	0	4123000832	10	3932
2026-01-03 06:18:16.59	252.66	11.56	-25.4	-26.4	15.0	9.50e-04	0	43	0	4145020928	10	4055
2026-01-03 06:18:19.60	252.36	11.32	-25.6	-26.8	14.8	1.15e-03	0	43	0	4167041024	10	4146
2026-01-03 06:18:22.62	252.05	11.09	-25.9	-27.0	14.3	1.14e-03	0	43	0	4188012544	11	4101
2026-01-03 06:18:25.64	251.76	10.86	-26.0	-27.3	14.1	0.00e+00	0	43	0	4210032640	11	4173
2026-01-03 06:18:28.65	251.46	10.63	-26.0	-27.3	14.2	0.00e+00	0	43	0	4232052736	11	4167
2026-01-03 06:18:31.67	251.18	10.40	-25.9	-27.0	14.3	4.73e-04	0	43	0	4254072832	11	4101
2026-01-03 06:18:34.69	250.89	10.17	-25.9	-27.0	14.3	0.00e+00	0	43	0	4276092928	11	4086
2026-01-03 06:18:37.71	250.61	9.94	-26.0	-27.4	14.1	0.00e+00	0	43	0	4297064448	11	4187
2026-01-03 06:18:40.72	250.34	9.72	-26.1	-27.4	14.1	3.40e-06	0	43	0	4319084544	11	4193
2026-01-03 06:18:43.74	250.07	9.49	-26.3	-27.4	13.7	4.50e-06	0	43	0	4341104640	12	4089
2026-01-03 06:18:46.76	249.80	9.27	-26.3	-27.5	13.6	9.10e-06	0	43	0	4363124736	12	4134
2026-01-03 06:18:49.78	249.54	9.05	-26.3	-27.6	13.5	1.37e-05	0	43	0	4385144832	12	4144
2026-01-03 06:18:52.80	249.28	8.83	-26.2	-27.2	13.7	3.40e-06	0	43	0	4406116352	12	4060
2026-01-03 06:18:55.82	249.03	8.61	-26.2	-27.3	13.7	4.50e-06	0	43	0	4428136448	12	4066
2026-01-03 06:18:58.84	248.78	8.39	-26.2	-27.2	13.7	3.40e-06	0	43	0	4450156544	12	4064
2026-01-03 06:19:01.85	248.53	8.18	-26.6	-27.7	13.1	2.28e-05	0	43	0	4471128064	13	4090
2026-01-03 06:19:04.86	248.29	7.96	-26.5	-27.9	13.2	2.17e-05	0	43	0	4493148160	12	4252
2026-01-03 06:19:07.88	248.05	7.75	-26.7	-28.0	12.9	3.20e-05	0	43	0	4515168256	13	4155
2026-01-03 06:19:10.91	247.82	7.54	-26.6	-27.8	13.0	2.51e-05	0	43	0	4537188352	13	4108
2026-01-03 06:19:13.93	247.59	7.33	-27.0	-28.7	12.4	6.63e-05	0	43	0	4559208448	13	4360
2026-01-03 06:19:16.95	247.36	7.12	-26.7	-27.9	12.8	4.23e-05	0	43	0	4580179968	13	4143
2026-01-03 06:19:19.96	247.13	6.91	-33.1	-42.6	3.8	8.46e-01	0	43	104	4583325696	26	10754

#Closed at: 2026-01-03 06:19:20
#Recorded file [4583 MB]: D:/data/31010_260103_090842.dat