passes_logs/2026/01/03/R2M6_AANII_01/R2M6_AANII_01__20260103_024819_FENGYUN_3E_rec.log

#Pass ID: 20260103_024819_FENGYUN 3E
#Satellite: FENGYUN 3E
#Configuration: FENGYUN 3E
#almurnet v.1.7.20240730
#Start time: 2026-01-03 02:53:11

#Version: 2.2.20231116
#Station: R2M6_AANII_01
#Location: 30.233357 lon 59.946436 lat
#TLE: 1 49008U 21062A   26002.32147302  .00000239  00000+0  13357-3 0  9999
#TLE: 2 49008  98.7477   7.5995 0001398 164.3382 195.7838 14.19884140233041

#Time	Az	El	Level	Level2	SNR	BER	BlckErr	Temp	State	Recorded	gain1	gain2
2026-01-03 02:53:11.56	86.44	20.42	-33.0	-44.1	3.8	8.47e-01	0	43	0	0	26	12933
2026-01-03 02:53:13.55	86.95	20.41	-33.6	-43.0	3.8	8.45e-01	0	43	104	0	27	10663
2026-01-03 02:53:15.56	87.46	20.41	-33.7	-43.3	3.8	8.47e-01	0	43	104	0	27	10821
2026-01-03 02:53:17.56	87.96	20.40	-33.7	-43.2	3.8	8.47e-01	0	43	104	0	27	10813
2026-01-03 02:53:19.57	88.47	20.39	-33.7	-43.2	3.8	8.46e-01	0	43	104	0	27	10778
2026-01-03 02:53:21.56	88.98	20.37	-33.7	-43.2	3.8	8.47e-01	0	43	104	0	27	10750
2026-01-03 02:53:23.56	89.48	20.36	-33.6	-43.1	3.8	8.46e-01	0	43	104	0	27	10691
2026-01-03 02:53:25.55	89.99	20.34	-33.6	-43.1	3.8	8.45e-01	0	43	104	0	27	10711
2026-01-03 02:53:27.56	90.49	20.32	-33.7	-43.2	3.8	8.45e-01	0	43	104	0	27	10752
2026-01-03 02:53:29.55	91.00	20.30	-33.7	-43.2	3.8	8.47e-01	0	43	104	0	27	10761
2026-01-03 02:53:31.54	91.50	20.28	-33.6	-43.1	3.8	8.47e-01	0	43	104	0	27	10708
2026-01-03 02:53:33.54	92.00	20.25	-33.7	-43.2	3.8	8.45e-01	0	43	104	0	27	10794
2026-01-03 02:53:35.54	92.50	20.22	-33.6	-43.1	3.8	8.45e-01	0	43	104	0	27	10696
2026-01-03 02:53:37.54	93.00	20.19	-33.5	-42.9	3.8	8.45e-01	0	43	104	0	27	10609
2026-01-03 02:53:39.55	93.51	20.16	-33.4	-42.6	3.8	8.45e-01	0	43	104	0	27	10382
2026-01-03 02:53:41.54	94.00	20.13	-33.2	-42.3	3.8	8.47e-01	0	43	104	0	27	10211
2026-01-03 02:53:43.54	94.50	20.09	-33.0	-42.0	3.8	8.45e-01	0	43	104	0	27	10064
2026-01-03 02:53:45.55	95.00	20.05	-33.0	-42.0	3.8	8.45e-01	0	43	104	0	26	10220
2026-01-03 02:53:47.57	95.50	20.01	-33.0	-42.1	3.8	8.46e-01	0	44	104	0	26	10229
2026-01-03 02:53:49.57	96.00	19.97	-33.0	-42.3	3.8	8.45e-01	0	43	104	0	26	10442
2026-01-03 02:53:51.55	96.49	19.92	-33.0	-42.2	3.8	8.45e-01	0	43	104	0	26	10361
2026-01-03 02:53:53.54	96.97	19.88	-32.9	-41.5	3.8	8.46e-01	0	44	104	0	26	9649
2026-01-03 02:53:55.55	97.47	19.83	-32.7	-40.2	3.8	8.45e-01	0	43	104	0	26	8508
2026-01-03 02:53:57.54	97.95	19.78	-32.6	-40.0	3.9	8.44e-01	0	43	104	0	25	8443
2026-01-03 02:53:59.54	98.44	19.73	-32.4	-38.5	4.2	8.38e-01	0	44	0	0	25	7320
2026-01-03 02:54:01.52	98.92	19.67	-30.3	-32.6	8.2	9.55e-02	0	43	0	6291456	21	4721
2026-01-03 02:54:03.51	99.40	19.62	-27.2	-27.9	13.0	6.52e-05	0	44	0	20971520	15	3908
2026-01-03 02:54:05.51	99.89	19.56	-26.3	-26.8	14.2	1.02e-05	0	44	0	34603008	13	3838
2026-01-03 02:54:07.50	100.36	19.50	-26.6	-27.6	13.7	9.10e-06	0	43	0	49283072	13	4021
2026-01-03 02:54:09.50	100.84	19.44	-26.6	-27.4	13.8	2.20e-06	0	44	0	63963136	13	3987
2026-01-03 02:54:11.49	101.32	19.37	-26.3	-26.8	14.2	0.00e+00	0	44	0	77594624	13	3833
2026-01-03 02:54:13.49	101.79	19.31	-26.1	-26.9	14.4	0.00e+00	0	44	0	92274688	12	3964
2026-01-03 02:54:15.48	102.26	19.24	-26.5	-27.3	13.9	8.00e-06	0	43	0	106954752	13	3945
2026-01-03 02:54:17.47	102.73	19.17	-25.3	-25.7	15.4	0.00e+00	0	44	0	121634816	11	3752
2026-01-03 02:54:19.48	103.20	19.10	-24.3	-24.5	16.5	0.00e+00	0	44	0	135266304	9	3689
2026-01-03 02:54:21.48	103.67	19.03	-23.8	-23.9	17.1	0.00e+00	0	44	0	149946368	8	3654
2026-01-03 02:54:23.48	104.13	18.96	-23.8	-23.9	17.1	0.00e+00	0	44	0	164626432	8	3650
2026-01-03 02:54:25.48	104.59	18.88	-23.9	-24.1	17.0	0.00e+00	0	44	0	179306496	8	3691
2026-01-03 02:54:27.47	105.05	18.80	-23.9	-24.6	17.0	0.00e+00	0	44	0	192937984	7	3917
2026-01-03 02:54:29.48	105.51	18.72	-24.0	-24.8	16.9	0.00e+00	0	43	0	207618048	7	3959
2026-01-03 02:54:31.48	105.97	18.64	-24.0	-25.0	16.8	1.48e-05	0	44	0	222298112	7	4006
2026-01-03 02:54:33.48	106.42	18.56	-24.5	-25.4	16.3	0.00e+00	0	44	0	236978176	8	3997
2026-01-03 02:54:35.48	106.87	18.48	-24.2	-24.8	16.7	1.10e-06	0	44	0	251658240	8	3848
2026-01-03 02:54:37.49	107.32	18.39	-24.1	-24.5	16.8	0.00e+00	0	43	0	265289728	8	3779
2026-01-03 02:54:39.48	107.76	18.31	-23.8	-23.9	17.1	0.00e+00	0	44	0	279969792	8	3652
2026-01-03 02:54:41.45	108.20	18.22	-23.9	-24.1	17.0	0.00e+00	0	44	0	293601280	8	3690
2026-01-03 02:54:43.47	108.65	18.13	-24.0	-24.3	16.9	0.00e+00	0	43	0	309329920	8	3742
2026-01-03 02:54:45.46	109.08	18.04	-24.2	-24.8	16.6	0.00e+00	0	44	0	322961408	8	3858
2026-01-03 02:54:47.47	109.52	17.95	-24.3	-25.0	16.5	0.00e+00	0	44	0	337641472	8	3901
2026-01-03 02:54:49.47	109.95	17.86	-24.3	-25.1	16.4	0.00e+00	0	43	0	352321536	8	3930
2026-01-03 02:54:51.46	110.38	17.77	-24.4	-25.3	16.3	0.00e+00	0	43	0	367001600	8	3992
2026-01-03 02:54:53.46	110.81	17.67	-24.5	-25.0	16.2	0.00e+00	0	44	0	380633088	9	3806
2026-01-03 02:54:55.47	111.24	17.58	-24.3	-24.4	16.5	0.00e+00	0	44	0	395313152	9	3664
2026-01-03 02:54:57.47	111.66	17.48	-24.4	-24.7	16.4	0.00e+00	0	44	0	409993216	9	3731
2026-01-03 02:54:59.47	112.08	17.38	-24.3	-24.5	16.4	0.00e+00	0	44	0	424673280	9	3688
2026-01-03 02:55:01.44	112.49	17.28	-24.3	-24.5	16.4	0.00e+00	0	44	0	438304768	9	3698
2026-01-03 02:55:03.44	112.91	17.18	-24.2	-24.3	16.5	0.00e+00	0	44	0	452984832	9	3649
2026-01-03 02:55:05.44	113.32	17.08	-24.1	-24.0	16.7	0.00e+00	0	44	0	467664896	9	3579
2026-01-03 02:55:07.43	113.73	16.98	-24.1	-24.0	16.7	0.00e+00	0	43	0	481296384	9	3584
2026-01-03 02:55:09.44	114.14	16.88	-24.3	-24.4	16.5	0.00e+00	0	44	0	495976448	9	3670
2026-01-03 02:55:11.43	114.54	16.77	-24.4	-24.8	16.3	0.00e+00	0	44	0	510656512	9	3751
2026-01-03 02:55:13.43	114.94	16.67	-24.6	-25.2	16.0	0.00e+00	0	44	0	525336576	9	3855
2026-01-03 02:55:15.43	115.34	16.56	-24.8	-25.5	15.9	0.00e+00	0	44	0	540016640	9	3934
2026-01-03 02:55:17.43	115.73	16.45	-24.8	-25.6	15.8	0.00e+00	0	43	0	553648128	9	3941
2026-01-03 02:55:19.42	116.13	16.35	-24.7	-25.4	15.9	0.00e+00	0	44	0	568328192	9	3892
2026-01-03 02:55:21.40	116.51	16.24	-24.7	-25.4	15.9	0.00e+00	0	44	0	581959680	9	3912
2026-01-03 02:55:23.39	116.90	16.13	-24.7	-25.3	15.9	0.00e+00	0	43	0	596639744	9	3885
2026-01-03 02:55:25.40	117.28	16.02	-24.8	-25.6	15.8	0.00e+00	0	44	0	611319808	9	3947
2026-01-03 02:55:27.39	117.67	15.91	-24.7	-25.4	15.9	0.00e+00	0	44	0	625999872	9	3895
2026-01-03 02:55:29.39	118.04	15.80	-24.7	-25.4	15.9	0.00e+00	0	44	0	640679936	9	3888
2026-01-03 02:55:31.41	118.43	15.69	-24.9	-25.7	15.7	0.00e+00	0	44	0	654311424	9	3978
2026-01-03 02:55:33.40	118.80	15.57	-25.0	-25.4	15.6	1.10e-06	0	44	0	668991488	10	3803
2026-01-03 02:55:35.40	119.17	15.46	-24.9	-25.4	15.7	0.00e+00	0	44	0	683671552	10	3796
2026-01-03 02:55:37.40	119.54	15.35	-24.9	-25.9	15.6	0.00e+00	0	44	0	698351616	9	4030
2026-01-03 02:55:39.41	119.91	15.23	-24.9	-25.8	15.6	0.00e+00	0	44	0	711983104	9	4011
2026-01-03 02:55:41.42	120.27	15.12	-25.1	-25.8	15.4	0.00e+00	0	44	0	726663168	10	3899
2026-01-03 02:55:43.42	120.63	15.00	-25.0	-25.6	15.6	0.00e+00	0	44	0	741343232	10	3840
2026-01-03 02:55:45.43	120.99	14.89	-24.9	-25.3	15.6	0.00e+00	0	44	0	756023296	10	3785
2026-01-03 02:55:47.45	121.35	14.77	-24.8	-25.1	15.8	0.00e+00	0	44	0	770703360	10	3721
2026-01-03 02:55:49.45	121.70	14.65	-24.7	-24.8	16.0	0.00e+00	0	44	0	785383424	10	3655
2026-01-03 02:55:51.46	122.05	14.53	-24.8	-25.0	15.8	0.00e+00	0	44	0	799014912	10	3709
2026-01-03 02:55:53.45	122.40	14.42	-25.0	-25.6	15.5	1.10e-06	0	44	0	813694976	10	3839
2026-01-03 02:55:55.46	122.74	14.30	-25.2	-25.9	15.3	0.00e+00	0	44	0	828375040	10	3928
2026-01-03 02:55:57.47	123.09	14.18	-25.2	-26.1	15.2	1.10e-06	0	44	0	843055104	10	3965
2026-01-03 02:55:59.48	123.43	14.06	-25.3	-26.3	15.1	0.00e+00	0	44	0	856686592	10	4027
2026-01-03 02:56:01.47	123.76	13.94	-25.3	-26.2	15.2	0.00e+00	0	43	0	871366656	10	3984
2026-01-03 02:56:03.46	124.10	13.82	-25.2	-25.9	15.3	0.00e+00	0	44	0	886046720	10	3929
2026-01-03 02:56:05.47	124.43	13.70	-24.9	-25.9	15.5	6.86e-04	0	44	0	900726784	9	4030
2026-01-03 02:56:07.47	124.76	13.58	-24.7	-25.4	15.8	6.00e-04	0	44	0	915406848	9	3899
2026-01-03 02:56:09.47	125.08	13.46	-24.8	-25.5	15.7	0.00e+00	0	44	0	929038336	9	3923
2026-01-03 02:56:11.47	125.41	13.34	-24.7	-25.5	15.7	0.00e+00	0	44	0	943718400	9	3924
2026-01-03 02:56:13.46	125.73	13.22	-24.7	-25.5	15.7	3.01e-04	0	44	0	958398464	9	3933
2026-01-03 02:56:15.47	126.05	13.10	-24.8	-25.7	15.6	0.00e+00	0	44	0	973078528	9	3966
2026-01-03 02:56:17.48	126.36	12.98	-25.0	-26.1	15.4	3.13e-04	0	44	0	986710016	9	4070
2026-01-03 02:56:19.48	126.68	12.86	-25.2	-26.1	15.1	0.00e+00	0	44	0	1001390080	10	3973
2026-01-03 02:56:21.47	126.99	12.74	-25.5	-26.6	14.8	0.00e+00	0	44	0	1016070144	10	4093
2026-01-03 02:56:23.48	127.30	12.61	-25.5	-26.6	14.8	1.10e-06	0	44	0	1030750208	10	4096
2026-01-03 02:56:25.47	127.60	12.49	-25.8	-26.7	14.5	0.00e+00	0	44	0	1044381696	11	4027
2026-01-03 02:56:27.47	127.90	12.37	-25.5	-26.2	14.7	0.00e+00	0	44	0	1059061760	11	3884
2026-01-03 02:56:29.46	128.20	12.25	-25.4	-26.0	14.8	1.10e-06	0	44	0	1073741824	11	3849
2026-01-03 02:56:31.44	128.50	12.13	-25.3	-25.8	14.9	0.00e+00	0	44	0	1088421888	11	3796
2026-01-03 02:56:33.44	128.80	12.01	-25.2	-25.5	15.1	0.00e+00	0	44	0	1102053376	11	3731
2026-01-03 02:56:35.45	129.09	11.88	-25.4	-25.9	14.9	0.00e+00	0	44	0	1116733440	11	3817
2026-01-03 02:56:37.45	129.38	11.76	-25.5	-26.2	14.7	2.20e-06	0	44	0	1131413504	11	3896
2026-01-03 02:56:39.45	129.67	11.64	-25.4	-26.0	14.8	0.00e+00	0	44	0	1146093568	11	3846
2026-01-03 02:56:41.44	129.96	11.52	-25.5	-26.2	14.7	0.00e+00	0	44	0	1160773632	11	3900
2026-01-03 02:56:43.44	130.24	11.39	-25.8	-26.8	14.3	1.10e-06	0	44	0	1174405120	11	4041
2026-01-03 02:56:45.43	130.52	11.27	-25.9	-27.1	14.1	4.50e-06	0	44	0	1189085184	11	4130
2026-01-03 02:56:47.43	130.80	11.15	-25.8	-26.8	14.3	0.00e+00	0	44	0	1203765248	11	4061
2026-01-03 02:56:49.42	131.08	11.03	-25.8	-26.8	14.3	3.42e-04	0	44	0	1217396736	11	4048
2026-01-03 02:56:51.40	131.35	10.91	-25.9	-27.0	14.1	0.00e+00	0	44	0	1232076800	11	4097
2026-01-03 02:56:53.41	131.63	10.78	-25.7	-26.5	14.4	2.20e-06	0	44	0	1246756864	11	3987
2026-01-03 02:56:55.39	131.90	10.66	-25.7	-26.6	14.4	1.10e-06	0	44	0	1261436928	11	4001
2026-01-03 02:56:57.40	132.17	10.54	-25.7	-26.5	14.4	1.10e-06	0	44	0	1275068416	11	3983
2026-01-03 02:56:59.39	132.43	10.42	-25.6	-26.4	14.5	2.82e-04	0	44	0	1289748480	11	3947
2026-01-03 02:57:01.38	132.70	10.30	-25.6	-26.4	14.5	0.00e+00	0	44	0	1304428544	11	3945
2026-01-03 02:57:03.37	132.96	10.18	-25.6	-26.3	14.4	0.00e+00	0	44	0	1318060032	11	3934
2026-01-03 02:57:05.36	133.22	10.05	-25.5	-26.7	14.5	0.00e+00	0	44	0	1332740096	10	4139
2026-01-03 02:57:07.37	133.48	9.93	-25.6	-26.9	14.4	6.55e-04	0	44	0	1347420160	10	4182
2026-01-03 02:57:09.37	133.73	9.81	-25.6	-26.5	14.3	1.10e-06	0	44	0	1362100224	11	3980
2026-01-03 02:57:11.37	133.99	9.69	-25.8	-26.8	14.1	2.20e-06	0	44	0	1375731712	11	4066
2026-01-03 02:57:13.36	134.24	9.57	-25.8	-27.0	14.0	2.20e-06	0	44	0	1390411776	11	4116
2026-01-03 02:57:15.36	134.49	9.45	-26.0	-27.3	13.8	5.70e-06	0	44	0	1405091840	11	4197
2026-01-03 02:57:17.34	134.74	9.33	-26.0	-27.0	13.6	8.00e-06	0	44	0	1419771904	12	4003
2026-01-03 02:57:19.35	134.98	9.20	-26.1	-27.0	13.6	1.25e-05	0	43	0	1433403392	12	4026
2026-01-03 02:57:21.33	135.23	9.08	-26.1	-27.0	13.5	1.25e-05	0	44	0	1448083456	12	4030
2026-01-03 02:57:23.34	135.47	8.96	-26.0	-27.0	13.6	1.25e-05	0	44	0	1462763520	12	4009
2026-01-03 02:57:25.33	135.71	8.84	-26.0	-26.9	13.6	1.02e-05	0	44	0	1477443584	12	4009
2026-01-03 02:57:27.32	135.95	8.72	-26.0	-26.8	13.7	1.48e-05	0	44	0	1491075072	12	3960
2026-01-03 02:57:29.32	136.18	8.60	-25.9	-26.7	13.7	5.70e-06	0	44	0	1505755136	12	3935
2026-01-03 02:57:31.30	136.41	8.48	-26.2	-27.4	13.3	1.71e-05	0	44	0	1520435200	12	4111
2026-01-03 02:57:33.30	136.65	8.36	-25.9	-26.7	13.7	2.20e-06	0	44	0	1535115264	12	3945
2026-01-03 02:57:35.30	136.88	8.24	-26.0	-27.5	13.5	1.14e-05	0	44	0	1548746752	11	4252
2026-01-03 02:57:37.29	137.11	8.12	-26.0	-26.9	13.5	5.70e-06	0	44	0	1563426816	12	4011
2026-01-03 02:57:39.30	137.34	8.00	-26.0	-27.0	13.4	1.71e-05	0	44	0	1578106880	12	4018
2026-01-03 02:57:41.29	137.56	7.89	-26.1	-27.1	13.4	1.37e-05	0	44	0	1592786944	12	4044
2026-01-03 02:57:43.29	137.78	7.77	-26.2	-27.4	13.1	1.83e-05	0	44	0	1606418432	12	4141
2026-01-03 02:57:45.29	138.01	7.65	-26.3	-27.5	13.1	3.89e-05	0	44	0	1621098496	12	4167
2026-01-03 02:57:47.30	138.23	7.53	-26.4	-27.9	12.8	4.92e-05	0	44	0	1635778560	12	4268
2026-01-03 02:57:49.29	138.45	7.41	-26.5	-28.0	12.8	5.03e-05	0	44	0	1650458624	12	4279
2026-01-03 02:57:51.29	138.66	7.29	-26.5	-27.7	12.7	7.09e-05	0	44	0	1664090112	13	4100
2026-01-03 02:57:53.30	138.88	7.17	-26.6	-27.8	12.6	1.36e-04	0	44	0	1678770176	13	4129
2026-01-03 02:57:55.30	139.09	7.05	-30.2	-33.4	8.1	1.45e-03	0	44	0	1693450240	19	5183
2026-01-03 02:57:57.31	139.31	6.94	-32.9	-42.6	3.8	8.45e-01	0	44	104	1693450240	25	11084

#Closed at: 2026-01-03 02:57:57
#Recorded file [1693 MB]: D:/data/31010_260103_055358.dat