passes_logs/2026/01/03/R2M6_AANII_01/R2M6_AANII_01__20260103_110323_NOAA_21_JPSS-2_rec.log

#Pass ID: 20260103_110323_NOAA 21 (JPSS-2)
#Satellite: NOAA 21 (JPSS-2)
#Configuration: NOAA 21
#almurnet v.1.7.20240730
#Start time: 2026-01-03 11:05:28

#Version: 2.2.20231116
#Station: R2M6_AANII_01
#Location: 30.233357 lon 59.946436 lat
#TLE: 1 54234U 22150A   26002.25486487  .00000200  00000+0  11573-3 0  9993
#TLE: 2 54234  98.7485 303.3096 0001220 350.9074   9.2080 14.19531212163006

#Time	Az	El	Level	Level2	SNR	BER	BlckErr	Temp	State	Recorded	gain1	gain2
2026-01-03 11:05:28.08	191.68	18.31	-33.5	-44.6	3.8	8.45e-01	0	43	0	0	27	12901
2026-01-03 11:05:31.09	191.97	18.65	-34.0	-45.3	3.8	1.49e+00	0	43	104	0	29	13283
2026-01-03 11:05:34.11	192.26	19.00	-34.0	-45.4	3.8	1.49e+00	0	43	104	0	29	13379
2026-01-03 11:05:37.14	192.57	19.35	-34.0	-45.4	3.8	1.49e+00	0	43	104	0	29	13317
2026-01-03 11:05:40.15	192.87	19.70	-34.0	-45.3	3.8	1.49e+00	0	43	104	0	29	13284
2026-01-03 11:05:43.16	193.19	20.06	-34.0	-45.4	3.8	1.49e+00	0	43	104	0	29	13356
2026-01-03 11:05:46.18	193.51	20.42	-34.0	-45.3	3.8	1.49e+00	0	43	104	0	29	13292
2026-01-03 11:05:49.20	193.85	20.79	-34.0	-45.3	3.8	1.49e+00	0	43	104	0	29	13301
2026-01-03 11:05:52.22	194.19	21.16	-33.9	-45.2	3.8	1.49e+00	0	43	104	0	29	13223
2026-01-03 11:05:55.24	194.53	21.54	-33.9	-45.1	3.8	1.49e+00	0	43	104	0	29	13119
2026-01-03 11:05:58.26	194.89	21.92	-33.6	-45.1	3.8	1.49e+00	0	43	104	0	28	13570
2026-01-03 11:06:01.29	195.25	22.31	-33.6	-45.0	3.8	1.49e+00	0	43	104	0	28	13413
2026-01-03 11:06:04.31	195.63	22.70	-33.1	-42.6	3.9	1.49e+00	0	43	104	0	27	10688
2026-01-03 11:06:07.31	196.01	23.09	-32.8	-40.8	4.0	1.48e+00	0	43	104	0	27	9019
2026-01-03 11:06:10.32	196.40	23.49	-32.4	-38.0	5.7	4.16e-01	0	43	0	5242880	26	6907
2026-01-03 11:06:13.34	196.80	23.89	-32.3	-37.8	5.8	4.23e-01	0	43	0	14680064	26	6752
2026-01-03 11:06:16.36	197.21	24.30	-29.4	-31.4	12.2	4.79e-04	0	44	0	24117248	20	4517
2026-01-03 11:06:19.36	197.63	24.72	-26.5	-27.4	16.1	0.00e+00	0	43	0	33554432	14	4019
2026-01-03 11:06:22.38	198.06	25.14	-27.4	-29.5	15.0	7.00e-07	0	43	0	42991616	14	4591
2026-01-03 11:06:25.41	198.51	25.56	-27.5	-29.2	14.9	0.00e+00	0	43	0	52428800	15	4371
2026-01-03 11:06:28.43	198.97	25.99	-26.8	-27.7	15.8	0.00e+00	0	43	0	61865984	15	3977
2026-01-03 11:06:31.45	199.44	26.43	-26.9	-28.3	15.7	0.00e+00	0	43	0	71303168	14	4246
2026-01-03 11:06:34.47	199.92	26.87	-27.1	-28.8	15.5	0.00e+00	0	43	0	80740352	14	4373
2026-01-03 11:06:37.49	200.41	27.32	-27.2	-29.0	15.4	0.00e+00	0	43	0	90177536	14	4433
2026-01-03 11:06:40.51	200.92	27.77	-27.0	-28.6	15.6	0.00e+00	0	43	0	99614720	14	4307
2026-01-03 11:06:43.53	201.44	28.22	-27.0	-28.6	15.6	0.00e+00	0	43	0	109051904	14	4324
2026-01-03 11:06:46.55	201.98	28.68	-27.2	-28.9	15.5	0.00e+00	0	43	0	118489088	14	4404
2026-01-03 11:06:49.57	202.53	29.15	-27.0	-28.6	15.6	7.00e-07	0	43	0	127926272	14	4317
2026-01-03 11:06:52.59	203.10	29.62	-27.1	-28.9	15.5	0.00e+00	0	43	0	137363456	14	4388
2026-01-03 11:06:55.61	203.69	30.09	-27.2	-29.1	15.4	0.00e+00	0	43	0	146800640	14	4449
2026-01-03 11:06:58.62	204.29	30.57	-27.3	-29.2	15.3	0.00e+00	0	43	0	156237824	14	4485
2026-01-03 11:07:01.63	204.91	31.05	-27.2	-29.1	15.4	0.00e+00	0	43	0	165675008	14	4449
2026-01-03 11:07:04.65	205.54	31.54	-27.1	-28.7	15.6	0.00e+00	0	43	0	175112192	14	4344
2026-01-03 11:07:07.68	206.20	32.04	-27.2	-29.0	15.5	0.00e+00	0	43	0	184549376	14	4417
2026-01-03 11:07:10.70	206.88	32.53	-27.3	-28.7	15.3	0.00e+00	0	43	0	193986560	15	4224
2026-01-03 11:07:13.73	207.58	33.04	-27.1	-28.2	15.7	0.00e+00	0	43	0	203423744	15	4088
2026-01-03 11:07:16.75	208.30	33.54	-27.1	-28.2	15.7	0.00e+00	0	43	0	212860928	15	4101
2026-01-03 11:07:19.77	209.05	34.05	-27.5	-29.1	15.2	0.00e+00	0	43	0	222298112	15	4328
2026-01-03 11:07:22.79	209.81	34.56	-27.5	-29.2	15.1	0.00e+00	0	43	0	231735296	15	4375
2026-01-03 11:07:25.81	210.60	35.07	-27.6	-29.3	15.0	0.00e+00	0	43	0	241172480	15	4402
2026-01-03 11:07:28.82	211.41	35.59	-28.2	-30.3	14.4	1.50e-06	0	43	0	250609664	16	4567
2026-01-03 11:07:31.84	212.25	36.11	-28.0	-29.8	14.7	7.00e-07	0	43	0	260046848	16	4427
2026-01-03 11:07:34.86	213.12	36.62	-28.5	-30.9	14.1	1.50e-06	0	43	0	269484032	16	4738
2026-01-03 11:07:37.88	214.01	37.14	-28.8	-31.1	13.7	6.80e-06	0	43	0	278921216	17	4717
2026-01-03 11:07:40.90	214.93	37.66	-28.9	-31.4	13.5	5.30e-06	0	43	0	288358400	17	4790
2026-01-03 11:07:43.92	215.89	38.18	-29.0	-31.1	13.4	1.60e-05	0	43	0	297795584	18	4585
2026-01-03 11:07:46.94	216.87	38.70	-29.2	-31.5	13.1	2.36e-05	0	43	0	307232768	18	4722
2026-01-03 11:07:49.96	217.88	39.22	-29.3	-31.8	13.0	3.89e-05	0	43	0	316669952	18	4801
2026-01-03 11:07:52.98	218.93	39.74	-29.5	-31.8	12.7	8.92e-05	0	43	0	326107136	19	4708
2026-01-03 11:07:55.99	220.00	40.24	-29.0	-30.7	13.3	1.14e-05	0	43	0	335544320	19	4373
2026-01-03 11:07:59.01	221.11	40.75	-29.4	-31.6	12.8	6.25e-05	0	43	0	344981504	19	4648
2026-01-03 11:08:02.03	222.26	41.25	-29.5	-31.8	12.6	8.85e-05	0	43	0	354418688	19	4704
2026-01-03 11:08:05.03	223.44	41.75	-29.5	-32.0	12.6	7.62e-05	0	43	0	363855872	19	4758
2026-01-03 11:08:08.05	224.65	42.24	-29.4	-31.6	12.8	8.39e-05	0	43	0	373293056	19	4651
2026-01-03 11:08:11.06	225.90	42.71	-29.2	-31.1	13.1	2.89e-05	0	43	0	382730240	19	4479
2026-01-03 11:08:14.08	227.20	43.19	-29.5	-31.9	12.6	9.46e-05	0	43	0	392167424	19	4741
2026-01-03 11:08:17.10	228.53	43.65	-29.6	-32.1	12.5	9.46e-05	0	43	0	401604608	19	4806
2026-01-03 11:08:20.12	229.89	44.09	-29.7	-32.3	12.4	1.80e-04	0	43	0	411041792	19	4860
2026-01-03 11:08:23.15	231.30	44.53	-29.3	-31.3	12.9	4.88e-05	0	43	0	420478976	19	4548
2026-01-03 11:08:26.17	232.75	44.95	-29.4	-31.5	12.9	6.17e-05	0	43	0	429916160	19	4618
2026-01-03 11:08:29.19	234.23	45.36	-29.4	-31.6	12.8	6.63e-05	0	43	0	439353344	19	4641
2026-01-03 11:08:32.21	235.74	45.74	-28.6	-30.1	14.1	7.00e-07	0	43	0	448790528	18	4279
2026-01-03 11:08:35.23	237.30	46.11	-28.8	-30.5	13.9	3.00e-06	0	43	0	458227712	18	4399
2026-01-03 11:08:38.25	238.89	46.46	-29.0	-31.0	13.6	8.30e-06	0	43	0	467664896	18	4540
2026-01-03 11:08:41.27	240.51	46.79	-29.0	-31.0	13.6	9.10e-06	0	43	0	477102080	18	4535
2026-01-03 11:08:44.28	242.16	47.09	-29.4	-32.0	12.9	5.34e-05	0	43	0	486539264	18	4856
2026-01-03 11:08:47.30	243.85	47.37	-29.4	-31.5	12.9	7.09e-05	0	43	0	495976448	19	4591
2026-01-03 11:08:50.33	245.57	47.63	-28.6	-30.0	14.2	2.20e-06	0	43	0	505413632	18	4238
2026-01-03 11:08:53.35	247.31	47.86	-29.2	-31.6	13.2	4.27e-05	0	43	0	514850816	18	4725
2026-01-03 11:08:56.38	249.08	48.06	-28.7	-30.2	14.0	1.50e-06	0	43	0	524288000	18	4305
2026-01-03 11:08:59.39	250.87	48.23	-28.8	-30.5	13.9	5.30e-06	0	43	0	533725184	18	4406
2026-01-03 11:09:02.40	252.67	48.38	-28.8	-30.6	13.7	4.50e-06	0	43	0	543162368	18	4438
2026-01-03 11:09:05.42	254.49	48.49	-29.1	-31.3	13.4	1.14e-05	0	43	0	552599552	18	4643
2026-01-03 11:09:08.44	256.32	48.57	-29.3	-31.8	13.2	3.58e-05	0	43	0	562036736	18	4784
2026-01-03 11:09:11.46	258.16	48.63	-29.2	-31.6	13.2	1.60e-05	0	43	0	571473920	18	4720
2026-01-03 11:09:14.48	260.00	48.65	-29.0	-31.0	13.6	3.80e-06	0	43	0	580911104	18	4528
2026-01-03 11:09:17.49	261.84	48.64	-29.3	-31.7	13.2	2.28e-05	0	43	0	590348288	18	4746
2026-01-03 11:09:20.50	263.67	48.60	-28.7	-30.4	14.0	4.50e-06	0	43	0	599785472	18	4362
2026-01-03 11:09:23.52	265.51	48.53	-28.6	-30.0	14.2	0.00e+00	0	43	0	609222656	18	4246
2026-01-03 11:09:26.54	267.33	48.42	-28.9	-30.9	13.6	3.80e-06	0	43	0	618659840	18	4518
2026-01-03 11:09:29.57	269.15	48.29	-29.1	-31.3	13.5	1.06e-05	0	43	0	628097024	18	4626
2026-01-03 11:09:32.59	270.94	48.13	-29.5	-32.2	12.9	3.73e-05	0	43	0	637534208	18	4943
2026-01-03 11:09:35.61	272.71	47.94	-29.4	-32.1	12.9	4.27e-05	0	43	0	646971392	18	4902
2026-01-03 11:09:38.63	274.46	47.72	-30.1	-32.8	11.8	4.16e-04	0	43	0	656408576	20	4938
2026-01-03 11:09:41.64	276.18	47.47	-29.9	-32.5	11.9	4.16e-04	0	43	0	665845760	20	4819
2026-01-03 11:09:44.65	277.87	47.20	-30.1	-32.9	11.7	3.25e-04	0	44	0	675282944	20	4967
2026-01-03 11:09:47.68	279.54	46.91	-29.9	-32.4	12.1	3.26e-04	0	43	0	683671552	20	4775
2026-01-03 11:09:50.69	281.16	46.59	-29.6	-31.6	12.6	1.35e-04	0	43	0	694157312	20	4509
2026-01-03 11:09:53.71	282.76	46.25	-29.7	-32.2	12.7	5.79e-05	0	43	0	703594496	19	4799
2026-01-03 11:09:56.72	284.32	45.89	-29.6	-31.5	12.7	1.68e-04	0	43	0	711983104	20	4493
2026-01-03 11:09:59.74	285.85	45.51	-28.6	-30.0	14.3	0.00e+00	0	43	0	722468864	18	4249
2026-01-03 11:10:02.75	287.34	45.11	-29.2	-31.4	13.5	1.06e-05	0	43	0	730857472	18	4656
2026-01-03 11:10:05.77	288.79	44.70	-28.7	-30.2	14.1	3.00e-06	0	43	0	740294656	18	4290
2026-01-03 11:10:08.79	290.21	44.27	-29.0	-31.1	13.6	1.06e-05	0	43	0	750780416	18	4577
2026-01-03 11:10:11.81	291.58	43.83	-29.3	-31.8	13.1	1.90e-05	0	43	0	759169024	18	4783
2026-01-03 11:10:14.84	292.93	43.38	-29.5	-31.8	12.9	4.95e-05	0	43	0	769654784	19	4666
2026-01-03 11:10:17.86	294.23	42.91	-29.8	-32.5	12.5	1.07e-04	0	43	0	778043392	19	4920
2026-01-03 11:10:20.88	295.50	42.44	-29.7	-31.8	12.5	1.14e-04	0	43	0	787480576	20	4573
2026-01-03 11:10:23.91	296.73	41.95	-29.5	-31.3	12.8	7.24e-05	0	43	0	797966336	20	4409
2026-01-03 11:10:26.93	297.92	41.46	-29.5	-31.7	12.9	3.96e-05	0	43	0	806354944	19	4639
2026-01-03 11:10:29.95	299.08	40.96	-29.5	-31.8	12.9	5.64e-05	0	43	0	816840704	19	4672
2026-01-03 11:10:32.97	300.20	40.46	-28.9	-30.2	13.9	7.60e-06	0	43	0	825229312	19	4183
2026-01-03 11:10:35.99	301.29	39.95	-29.1	-30.7	13.5	1.06e-05	0	43	0	835715072	19	4335
2026-01-03 11:10:39.01	302.34	39.44	-29.5	-31.8	12.8	6.10e-05	0	43	0	845152256	19	4675
2026-01-03 11:10:42.04	303.37	38.93	-29.5	-31.7	12.9	3.89e-05	0	43	0	854589440	19	4657
2026-01-03 11:10:45.05	304.35	38.41	-29.4	-31.5	13.0	4.19e-05	0	43	0	864026624	19	4600
2026-01-03 11:10:48.07	305.31	37.90	-28.9	-30.2	13.8	3.80e-06	0	43	0	872415232	19	4213
2026-01-03 11:10:51.09	306.24	37.38	-28.6	-30.0	14.2	1.50e-06	0	43	0	882900992	18	4254
2026-01-03 11:10:54.11	307.15	36.86	-28.3	-29.8	14.6	7.00e-07	0	44	0	892338176	17	4292
2026-01-03 11:10:57.12	308.02	36.35	-28.2	-29.7	14.6	1.50e-06	0	43	0	900726784	17	4271
2026-01-03 11:11:00.12	308.86	35.84	-28.0	-29.3	14.9	0.00e+00	0	43	0	910163968	17	4146
2026-01-03 11:11:03.14	309.68	35.32	-28.1	-29.4	14.8	0.00e+00	0	43	0	919601152	17	4196
2026-01-03 11:11:06.16	310.48	34.81	-28.1	-29.3	14.9	7.00e-07	0	43	0	929038336	17	4151
2026-01-03 11:11:09.19	311.25	34.30	-28.3	-29.8	14.6	0.00e+00	0	43	0	939524096	17	4297
2026-01-03 11:11:12.21	312.00	33.80	-28.5	-30.3	14.3	1.50e-06	0	43	0	947912704	17	4431
2026-01-03 11:11:15.22	312.73	33.30	-28.0	-29.3	14.9	1.50e-06	0	43	0	957349888	17	4153
2026-01-03 11:11:18.22	313.43	32.80	-28.2	-29.6	14.7	0.00e+00	0	43	0	966787072	17	4232
2026-01-03 11:11:21.23	314.11	32.31	-27.9	-28.9	15.1	0.00e+00	0	43	0	976224256	17	4053
2026-01-03 11:11:24.25	314.77	31.81	-27.7	-28.9	15.3	0.00e+00	0	43	0	985661440	16	4169
2026-01-03 11:11:27.26	315.42	31.33	-27.7	-29.0	15.3	0.00e+00	0	43	0	995098624	16	4178
2026-01-03 11:11:30.28	316.04	30.84	-27.5	-28.6	15.5	0.00e+00	0	43	0	1004535808	16	4070
2026-01-03 11:11:33.29	316.65	30.37	-27.4	-28.4	15.6	0.00e+00	0	43	0	1013972992	16	4036
2026-01-03 11:11:36.31	317.24	29.89	-27.4	-28.3	15.6	0.00e+00	0	43	0	1023410176	16	4003
2026-01-03 11:11:39.32	317.81	29.43	-27.6	-28.8	15.4	0.00e+00	0	43	0	1032847360	16	4137
2026-01-03 11:11:42.34	318.37	28.96	-27.5	-28.5	15.5	0.00e+00	0	43	0	1042284544	16	4047
2026-01-03 11:11:45.37	318.92	28.50	-27.4	-28.3	15.6	0.00e+00	0	43	0	1051721728	16	4012
2026-01-03 11:11:48.39	319.45	28.05	-27.4	-28.4	15.6	0.00e+00	0	43	0	1061158912	16	4025
2026-01-03 11:11:51.41	319.96	27.60	-27.3	-28.1	15.7	0.00e+00	0	43	0	1070596096	16	3953
2026-01-03 11:11:54.43	320.46	27.15	-27.0	-27.9	15.9	0.00e+00	0	43	0	1080033280	15	4023
2026-01-03 11:11:57.44	320.94	26.71	-26.8	-27.9	16.1	0.00e+00	0	43	0	1089470464	14	4127
2026-01-03 11:12:00.45	321.42	26.28	-27.0	-28.6	15.8	0.00e+00	0	43	0	1098907648	14	4296
2026-01-03 11:12:03.47	321.88	25.85	-27.1	-28.8	15.6	0.00e+00	0	43	0	1108344832	14	4369
2026-01-03 11:12:06.49	322.33	25.43	-27.2	-29.0	15.5	0.00e+00	0	43	0	1117782016	14	4427
2026-01-03 11:12:09.50	322.76	25.01	-26.6	-27.5	16.3	0.00e+00	0	43	0	1127219200	14	4022
2026-01-03 11:12:12.52	323.19	24.59	-26.5	-27.3	16.4	0.00e+00	0	43	0	1136656384	14	3959
2026-01-03 11:12:15.54	323.61	24.18	-26.7	-27.8	16.1	0.00e+00	0	43	0	1146093568	14	4105
2026-01-03 11:12:18.55	324.01	23.78	-26.9	-28.2	16.0	0.00e+00	0	43	0	1155530752	14	4197
2026-01-03 11:12:21.56	324.41	23.38	-26.8	-28.2	16.0	0.00e+00	0	43	0	1164967936	14	4189
2026-01-03 11:12:24.58	324.79	22.99	-26.7	-27.9	16.1	0.00e+00	0	43	0	1174405120	14	4111
2026-01-03 11:12:27.58	325.17	22.60	-26.9	-28.2	15.9	0.00e+00	0	43	0	1183842304	14	4205
2026-01-03 11:12:30.60	325.54	22.21	-27.0	-28.5	15.7	0.00e+00	0	43	0	1193279488	14	4265
2026-01-03 11:12:33.62	325.90	21.83	-27.0	-28.4	15.7	0.00e+00	0	43	0	1202716672	14	4265
2026-01-03 11:12:36.64	326.25	21.45	-27.1	-28.7	15.6	0.00e+00	0	43	0	1212153856	14	4342
2026-01-03 11:12:39.65	326.59	21.08	-27.2	-28.9	15.5	0.00e+00	0	43	0	1221591040	14	4391
2026-01-03 11:12:42.67	326.93	20.72	-27.3	-29.3	15.2	0.00e+00	0	43	0	1231028224	14	4513
2026-01-03 11:12:45.69	327.25	20.35	-28.0	-29.9	15.0	0.00e+00	0	43	0	1240465408	15	4479
2026-01-03 11:12:48.72	327.58	19.99	-27.4	-28.9	15.2	0.00e+00	0	43	0	1249902592	15	4285
2026-01-03 11:12:51.74	327.89	19.64	-27.1	-28.3	15.5	0.00e+00	0	43	0	1259339776	15	4137
2026-01-03 11:12:54.75	328.20	19.29	-27.0	-28.1	15.6	0.00e+00	0	43	0	1268776960	15	4070
2026-01-03 11:12:57.76	328.49	18.95	-27.0	-28.1	15.5	0.00e+00	0	44	0	1278214144	15	4074
2026-01-03 11:13:00.78	328.79	18.60	-27.1	-28.2	15.5	0.00e+00	0	43	0	1287651328	15	4104
2026-01-03 11:13:03.80	329.08	18.27	-27.0	-28.0	15.6	0.00e+00	0	43	0	1297088512	15	4035
2026-01-03 11:13:06.82	329.36	17.93	-26.9	-27.8	15.7	0.00e+00	0	44	0	1306525696	15	3996
2026-01-03 11:13:09.84	329.63	17.60	-27.1	-28.3	15.4	7.00e-07	0	43	0	1315962880	15	4136
2026-01-03 11:13:12.86	329.90	17.28	-27.3	-28.8	15.1	0.00e+00	0	43	0	1325400064	15	4256
2026-01-03 11:13:15.87	330.17	16.96	-27.4	-28.9	15.0	0.00e+00	0	44	0	1334837248	15	4288
2026-01-03 11:13:18.89	330.43	16.64	-27.5	-29.2	14.8	0.00e+00	0	44	0	1344274432	15	4386
2026-01-03 11:13:21.91	330.68	16.32	-27.8	-30.0	14.3	7.00e-07	0	43	0	1353711616	15	4622
2026-01-03 11:13:24.93	330.93	16.01	-28.2	-30.2	14.1	7.00e-07	0	44	0	1363148800	16	4568
2026-01-03 11:13:27.95	331.18	15.70	-28.3	-30.5	13.9	3.00e-06	0	43	0	1372585984	16	4667
2026-01-03 11:13:30.97	331.42	15.40	-28.1	-30.1	14.1	2.20e-06	0	44	0	1382023168	16	4532
2026-01-03 11:13:33.97	331.65	15.10	-28.1	-30.2	14.0	7.00e-07	0	43	0	1391460352	16	4547
2026-01-03 11:13:37.00	331.88	14.80	-27.9	-29.6	14.1	7.00e-07	0	43	0	1400897536	16	4382
2026-01-03 11:13:40.02	332.11	14.50	-28.0	-29.9	13.8	5.30e-06	0	43	0	1410334720	16	4469
2026-01-03 11:13:43.03	332.33	14.21	-28.1	-30.2	14.0	7.00e-07	0	44	0	1419771904	16	4553
2026-01-03 11:13:46.05	332.55	13.92	-28.1	-30.0	14.1	1.50e-06	0	43	0	1429209088	16	4510
2026-01-03 11:13:49.07	332.76	13.64	-28.1	-30.1	13.8	4.50e-06	0	43	0	1438646272	16	4550
2026-01-03 11:13:52.10	332.97	13.36	-27.9	-29.6	13.8	1.50e-06	0	43	0	1448083456	16	4388
2026-01-03 11:13:55.11	333.18	13.08	-28.0	-29.9	14.1	3.00e-06	0	43	0	1457520640	16	4474
2026-01-03 11:13:58.13	333.38	12.80	-28.0	-30.1	12.6	3.28e-05	0	43	0	1466957824	16	4566
2026-01-03 11:14:01.14	333.58	12.53	-28.1	-30.5	11.3	8.32e-04	0	43	0	1476395008	16	4716
2026-01-03 11:14:04.15	333.78	12.26	-28.2	-30.3	13.4	1.44e-05	0	44	0	1485832192	16	4620
2026-01-03 11:14:07.16	333.97	11.99	-28.2	-30.3	13.2	1.52e-05	0	43	0	1495269376	16	4606
2026-01-03 11:14:10.18	334.16	11.72	-28.2	-30.5	13.4	1.37e-05	0	43	0	1504706560	16	4672
2026-01-03 11:14:13.18	334.35	11.46	-28.3	-30.7	12.7	7.47e-05	0	43	0	1514143744	16	4745
2026-01-03 11:14:16.20	334.53	11.20	-28.4	-30.9	12.4	1.50e-04	0	43	0	1523580928	16	4828
2026-01-03 11:14:19.21	334.71	10.94	-28.4	-30.8	13.4	1.52e-05	0	43	0	1533018112	16	4770
2026-01-03 11:14:22.23	334.89	10.69	-28.2	-30.5	13.3	1.22e-05	0	43	0	1542455296	16	4691
2026-01-03 11:14:25.25	335.06	10.44	-28.4	-30.8	13.3	1.44e-05	0	43	0	1551892480	16	4783
2026-01-03 11:14:28.26	335.24	10.19	-28.4	-30.5	13.3	1.60e-05	0	43	0	1561329664	17	4572
2026-01-03 11:14:31.28	335.40	9.94	-28.5	-30.7	13.1	2.59e-05	0	43	0	1570766848	17	4618
2026-01-03 11:14:34.29	335.57	9.69	-28.6	-30.9	13.0	3.05e-05	0	43	0	1580204032	17	4690
2026-01-03 11:14:37.31	335.74	9.45	-28.6	-31.0	12.9	4.04e-05	0	43	0	1589641216	17	4718
2026-01-03 11:14:40.34	335.90	9.21	-28.7	-31.1	12.9	4.42e-05	0	43	0	1599078400	17	4756
2026-01-03 11:14:43.36	336.06	8.97	-28.6	-30.9	12.9	4.57e-05	0	43	0	1608515584	17	4711
2026-01-03 11:14:46.38	336.22	8.73	-28.7	-31.2	12.7	6.94e-05	0	43	0	1617952768	17	4801
2026-01-03 11:14:49.39	336.37	8.49	-28.7	-31.2	12.7	7.17e-05	0	43	0	1627389952	17	4811
2026-01-03 11:14:52.42	336.52	8.26	-28.9	-31.6	12.5	1.07e-04	0	43	0	1636827136	17	4920
2026-01-03 11:14:55.44	336.67	8.03	-28.9	-31.7	12.3	1.39e-04	0	44	0	1646264320	17	4990
2026-01-03 11:14:58.45	336.82	7.80	-28.9	-31.8	12.2	1.94e-04	0	43	0	1655701504	17	5029
2026-01-03 11:15:01.47	336.97	7.57	-29.0	-31.5	12.1	2.58e-04	0	43	0	1665138688	18	4783
2026-01-03 11:15:04.49	337.11	7.35	-29.1	-31.8	11.9	3.26e-04	0	44	0	1674575872	18	4890
2026-01-03 11:15:07.52	337.25	7.12	-29.1	-31.8	11.9	3.80e-04	0	43	0	1684013056	18	4904
2026-01-03 11:15:10.53	337.39	6.90	-33.5	-45.8	3.8	1.49e+00	0	43	104	1686110208	26	14861

#Closed at: 2026-01-03 11:15:11
#Recorded file [1686 MB]: D:/data/31010_260103_140608.dat