passes_logs/2026/01/03/R2M6_AANII_01/R2M6_AANII_01__20260103_092314_NOAA_21_JPSS-2_rec.log

#Pass ID: 20260103_092314_NOAA 21 (JPSS-2)
#Satellite: NOAA 21 (JPSS-2)
#Configuration: NOAA 21
#almurnet v.1.7.20240730
#Start time: 2026-01-03 09:23:14

#Version: 2.2.20231116
#Station: R2M6_AANII_01
#Location: 30.233357 lon 59.946436 lat
#TLE: 1 54234U 22150A   26002.25486487  .00000200  00000+0  11573-3 0  9993
#TLE: 2 54234  98.7485 303.3096 0001220 350.9074   9.2080 14.19531212163006

#Time	Az	El	Level	Level2	SNR	BER	BlckErr	Temp	State	Recorded	gain1	gain2
2026-01-03 09:23:14.32	131.48	6.99	-30.1	-34.3	4.7	1.39e+00	0	40	0	0	21	5812
2026-01-03 09:23:17.33	131.34	7.22	-30.3	-34.0	8.9	2.44e-02	0	40	0	3145728	21	5510
2026-01-03 09:23:20.33	131.20	7.45	-29.9	-32.9	9.7	1.37e-02	0	41	0	12582912	21	5064
2026-01-03 09:23:23.34	131.06	7.67	-29.8	-33.1	10.0	7.39e-03	0	41	0	22020096	20	5238
2026-01-03 09:23:26.37	130.92	7.91	-29.0	-31.3	11.6	9.76e-04	0	41	0	30408704	19	4667
2026-01-03 09:23:29.38	130.77	8.14	-28.7	-30.9	12.2	2.88e-04	0	41	0	40894464	18	4634
2026-01-03 09:23:32.38	130.62	8.37	-28.6	-30.7	12.4	1.54e-04	0	41	0	49283072	18	4575
2026-01-03 09:23:35.41	130.47	8.61	-28.6	-30.7	12.5	1.04e-04	0	41	0	58720256	18	4551
2026-01-03 09:23:38.43	130.32	8.85	-28.5	-30.3	12.7	9.23e-05	0	41	0	69206016	18	4432
2026-01-03 09:23:41.45	130.16	9.09	-28.3	-30.3	13.0	4.50e-05	0	41	0	77594624	17	4552
2026-01-03 09:23:44.47	130.00	9.33	-28.3	-30.4	13.0	3.73e-05	0	41	0	88080384	17	4590
2026-01-03 09:23:47.49	129.84	9.58	-28.2	-30.1	13.3	1.98e-05	0	41	0	96468992	17	4468
2026-01-03 09:23:50.51	129.67	9.83	-28.2	-30.2	13.2	2.44e-05	0	42	0	105906176	17	4499
2026-01-03 09:23:53.52	129.51	10.08	-28.1	-29.9	13.4	2.36e-05	0	42	0	115343360	17	4428
2026-01-03 09:23:56.54	129.34	10.33	-28.2	-30.1	13.3	2.59e-05	0	42	0	124780544	17	4477
2026-01-03 09:23:59.55	129.16	10.58	-28.2	-30.0	13.4	1.75e-05	0	42	0	134217728	17	4430
2026-01-03 09:24:02.57	128.98	10.84	-28.1	-29.7	13.6	1.14e-05	0	42	0	143654912	17	4322
2026-01-03 09:24:05.59	128.80	11.10	-27.9	-29.3	13.9	9.10e-06	0	42	0	153092096	17	4230
2026-01-03 09:24:08.60	128.62	11.36	-27.8	-29.1	14.0	4.65e-05	0	42	0	162529280	17	4156
2026-01-03 09:24:11.62	128.43	11.63	-27.7	-29.3	14.2	1.50e-06	0	42	0	171966464	16	4338
2026-01-03 09:24:14.63	128.24	11.89	-27.6	-29.1	14.4	0.00e+00	0	42	0	181403648	16	4266
2026-01-03 09:24:17.66	128.05	12.16	-27.6	-29.1	14.4	1.50e-06	0	42	0	190840832	16	4275
2026-01-03 09:24:20.67	127.85	12.44	-27.6	-29.0	14.5	7.00e-07	0	42	0	200278016	16	4227
2026-01-03 09:24:23.68	127.65	12.71	-27.6	-29.1	14.4	7.00e-07	0	42	0	209715200	16	4260
2026-01-03 09:24:26.69	127.44	12.99	-27.7	-29.2	14.4	0.00e+00	0	42	0	219152384	16	4286
2026-01-03 09:24:29.71	127.23	13.27	-27.6	-28.9	14.6	7.00e-07	0	42	0	228589568	16	4212
2026-01-03 09:24:32.73	127.02	13.55	-27.5	-28.8	14.7	0.00e+00	0	42	0	238026752	16	4171
2026-01-03 09:24:35.74	126.80	13.84	-27.6	-29.1	14.6	7.00e-07	0	42	0	247463936	16	4243
2026-01-03 09:24:38.76	126.57	14.13	-27.3	-28.4	15.0	0.00e+00	0	42	0	256901120	16	4046
2026-01-03 09:24:41.79	126.35	14.42	-27.4	-28.4	15.0	0.00e+00	0	42	0	266338304	16	4059
2026-01-03 09:24:44.80	126.11	14.72	-27.3	-28.3	15.0	0.00e+00	0	42	0	275775488	16	4048
2026-01-03 09:24:47.81	125.88	15.01	-27.4	-28.6	14.9	0.00e+00	0	42	0	285212672	16	4123
2026-01-03 09:24:50.83	125.63	15.31	-27.5	-28.7	14.9	0.00e+00	0	42	0	294649856	16	4148
2026-01-03 09:24:53.85	125.39	15.62	-27.6	-28.8	14.8	7.00e-07	0	42	0	304087040	16	4178
2026-01-03 09:24:56.87	125.13	15.93	-27.7	-29.1	14.7	7.00e-07	0	42	0	313524224	16	4244
2026-01-03 09:24:59.89	124.88	16.24	-27.6	-29.0	14.8	7.00e-07	0	42	0	322961408	16	4219
2026-01-03 09:25:02.91	124.61	16.56	-27.5	-28.8	14.9	0.00e+00	0	42	0	332398592	16	4155
2026-01-03 09:25:05.93	124.34	16.87	-27.8	-29.5	14.5	0.00e+00	0	42	0	341835776	16	4358
2026-01-03 09:25:08.94	124.07	17.20	-27.5	-28.8	15.0	0.00e+00	0	42	0	351272960	16	4151
2026-01-03 09:25:11.96	123.79	17.52	-27.6	-29.1	14.8	7.00e-07	0	42	0	360710144	16	4236
2026-01-03 09:25:14.97	123.50	17.85	-27.7	-29.2	14.7	1.50e-06	0	42	0	370147328	16	4290
2026-01-03 09:25:17.99	123.20	18.18	-27.9	-29.7	14.4	0.00e+00	0	43	0	379584512	16	4429
2026-01-03 09:25:21.01	122.90	18.52	-27.8	-29.4	14.6	7.00e-07	0	42	0	389021696	16	4343
2026-01-03 09:25:24.03	122.59	18.86	-27.8	-29.4	14.6	0.00e+00	0	42	0	398458880	16	4342
2026-01-03 09:25:27.05	122.28	19.20	-27.8	-29.3	14.7	0.00e+00	0	42	0	407896064	16	4309
2026-01-03 09:25:30.07	121.96	19.55	-27.7	-29.1	14.9	0.00e+00	0	43	0	417333248	16	4235
2026-01-03 09:25:33.09	121.62	19.90	-27.6	-28.9	15.0	0.00e+00	0	43	0	426770432	16	4197
2026-01-03 09:25:36.10	121.29	20.26	-27.3	-28.3	15.3	0.00e+00	0	43	0	436207616	16	4027
2026-01-03 09:25:39.13	120.94	20.62	-27.1	-28.3	15.5	0.00e+00	0	43	0	445644800	15	4122
2026-01-03 09:25:42.15	120.58	20.99	-27.0	-28.0	15.7	0.00e+00	0	43	0	455081984	15	4038
2026-01-03 09:25:45.16	120.22	21.35	-26.6	-27.7	16.1	0.00e+00	0	43	0	464519168	14	4066
2026-01-03 09:25:48.18	119.85	21.73	-26.4	-27.3	16.4	0.00e+00	0	43	0	473956352	14	3966
2026-01-03 09:25:51.19	119.47	22.10	-26.4	-27.3	16.3	0.00e+00	0	43	0	483393536	14	3968
2026-01-03 09:25:54.22	119.08	22.48	-26.3	-27.0	16.5	0.00e+00	0	43	0	492830720	14	3902
2026-01-03 09:25:57.23	118.68	22.87	-26.3	-27.6	16.5	0.00e+00	0	43	0	502267904	13	4144
2026-01-03 09:26:00.25	118.26	23.26	-26.4	-27.8	16.4	0.00e+00	0	43	0	511705088	13	4196
2026-01-03 09:26:03.26	117.84	23.65	-26.5	-27.9	16.3	0.00e+00	0	43	0	521142272	13	4246
2026-01-03 09:26:06.28	117.41	24.05	-26.6	-28.0	16.2	0.00e+00	0	43	0	530579456	13	4267
2026-01-03 09:26:09.30	116.96	24.45	-26.4	-27.6	16.5	0.00e+00	0	43	0	540016640	13	4148
2026-01-03 09:26:12.32	116.51	24.86	-26.3	-27.3	16.6	0.00e+00	0	43	0	549453824	13	4082
2026-01-03 09:26:15.34	116.04	25.27	-26.3	-27.5	16.6	0.00e+00	0	43	0	558891008	13	4113
2026-01-03 09:26:18.35	115.56	25.68	-26.5	-28.0	16.3	0.00e+00	0	43	0	568328192	13	4250
2026-01-03 09:26:21.36	115.07	26.10	-26.8	-28.5	16.1	0.00e+00	0	43	0	577765376	13	4387
2026-01-03 09:26:24.38	114.56	26.52	-27.0	-28.9	15.9	0.00e+00	0	43	0	587202560	13	4508
2026-01-03 09:26:27.40	114.04	26.95	-27.0	-28.5	15.8	0.00e+00	0	43	0	596639744	14	4272
2026-01-03 09:26:30.41	113.50	27.38	-27.1	-28.7	15.7	0.00e+00	0	43	0	606076928	14	4339
2026-01-03 09:26:33.43	112.95	27.81	-27.5	-29.1	15.3	0.00e+00	0	43	0	615514112	15	4327
2026-01-03 09:26:36.45	112.39	28.25	-27.5	-29.1	15.2	0.00e+00	0	43	0	624951296	15	4321
2026-01-03 09:26:39.46	111.81	28.69	-27.2	-28.4	15.7	0.00e+00	0	43	0	634388480	15	4140
2026-01-03 09:26:42.48	111.21	29.14	-27.4	-28.8	15.5	0.00e+00	0	43	0	643825664	15	4237
2026-01-03 09:26:45.49	110.60	29.59	-27.4	-29.0	15.3	0.00e+00	0	43	0	653262848	15	4299
2026-01-03 09:26:48.51	109.96	30.04	-27.3	-28.6	15.6	0.00e+00	0	43	0	662700032	15	4194
2026-01-03 09:26:51.53	109.31	30.50	-27.2	-28.3	15.7	0.00e+00	0	43	0	672137216	15	4117
2026-01-03 09:26:54.55	108.64	30.96	-27.2	-28.4	15.7	4.50e-06	0	43	0	681574400	15	4128
2026-01-03 09:26:57.57	107.95	31.42	-27.1	-28.1	15.8	4.50e-06	0	43	0	691011584	15	4070
2026-01-03 09:27:00.58	107.24	31.88	-27.1	-28.1	15.9	0.00e+00	0	43	0	700448768	15	4066
2026-01-03 09:27:03.59	106.51	32.35	-27.1	-28.2	15.8	7.00e-07	0	43	0	709885952	15	4082
2026-01-03 09:27:06.60	105.77	32.82	-27.1	-28.3	15.8	0.00e+00	0	43	0	719323136	15	4101
2026-01-03 09:27:09.61	104.99	33.29	-27.2	-28.4	15.7	0.00e+00	0	43	0	728760320	15	4128
2026-01-03 09:27:12.63	104.20	33.76	-27.3	-28.7	15.6	0.00e+00	0	43	0	738197504	15	4217
2026-01-03 09:27:15.65	103.38	34.23	-27.5	-29.2	15.3	0.00e+00	0	43	0	747634688	15	4343
2026-01-03 09:27:18.65	102.54	34.70	-27.9	-30.0	14.9	0.00e+00	0	43	0	757071872	15	4579
2026-01-03 09:27:21.67	101.67	35.17	-28.3	-30.4	14.5	0.00e+00	0	43	0	766509056	16	4576
2026-01-03 09:27:24.69	100.77	35.64	-28.2	-30.2	14.6	0.00e+00	0	43	0	775946240	16	4526
2026-01-03 09:27:27.70	99.85	36.11	-28.5	-30.5	14.2	3.00e-06	0	43	0	785383424	17	4489
2026-01-03 09:27:30.71	98.91	36.58	-28.9	-31.4	13.7	7.60e-06	0	43	0	794820608	17	4774
2026-01-03 09:27:33.72	97.93	37.04	-29.2	-31.6	13.2	1.90e-05	0	43	0	804257792	18	4743
2026-01-03 09:27:36.75	96.92	37.50	-29.3	-31.9	13.1	2.82e-05	0	43	0	813694976	18	4844
2026-01-03 09:27:39.77	95.89	37.96	-28.9	-30.8	13.7	1.06e-05	0	43	0	823132160	18	4495
2026-01-03 09:27:42.80	94.82	38.42	-28.7	-30.3	14.0	7.00e-07	0	43	0	832569344	18	4340
2026-01-03 09:27:45.82	93.73	38.86	-28.7	-30.3	14.1	7.00e-07	0	43	0	842006528	18	4320
2026-01-03 09:27:48.84	92.61	39.30	-28.6	-30.1	14.2	1.50e-06	0	43	0	851443712	18	4267
2026-01-03 09:27:51.86	91.45	39.74	-29.1	-31.2	13.4	1.14e-05	0	43	0	860880896	18	4606
2026-01-03 09:27:54.87	90.27	40.16	-29.3	-31.2	13.2	2.82e-05	0	43	0	870318080	19	4507
2026-01-03 09:27:57.89	89.06	40.58	-29.4	-31.6	13.0	4.80e-05	0	43	0	879755264	19	4631
2026-01-03 09:28:00.91	87.81	40.98	-29.1	-30.7	13.6	1.29e-05	0	43	0	889192448	19	4328
2026-01-03 09:28:03.93	86.53	41.38	-29.2	-31.0	13.4	1.98e-05	0	43	0	898629632	19	4420
2026-01-03 09:28:06.95	85.22	41.76	-29.2	-30.9	13.4	1.67e-05	0	43	0	908066816	19	4395
2026-01-03 09:28:09.97	83.88	42.13	-29.5	-31.7	12.9	2.44e-05	0	43	0	917504000	19	4636
2026-01-03 09:28:13.00	82.50	42.48	-29.3	-31.2	13.2	3.66e-05	0	43	0	926941184	19	4487
2026-01-03 09:28:16.01	81.11	42.82	-29.3	-31.1	13.3	1.83e-05	0	43	0	936378368	19	4470
2026-01-03 09:28:19.03	79.68	43.14	-29.3	-31.4	13.1	2.21e-05	0	43	0	945815552	19	4550
2026-01-03 09:28:22.05	78.22	43.44	-29.1	-30.8	13.5	6.80e-06	0	43	0	955252736	19	4386
2026-01-03 09:28:25.07	76.73	43.73	-29.3	-31.2	13.2	3.73e-05	0	43	0	964689920	19	4491
2026-01-03 09:28:28.09	75.22	43.99	-29.5	-31.9	12.9	6.02e-05	0	43	0	974127104	19	4698
2026-01-03 09:28:31.10	73.69	44.23	-29.6	-32.0	12.8	5.18e-05	0	43	0	983564288	19	4763
2026-01-03 09:28:34.11	72.14	44.45	-30.0	-32.6	12.0	4.12e-04	0	43	0	993001472	20	4853
2026-01-03 09:28:37.11	70.57	44.65	-29.2	-31.0	13.4	2.05e-05	0	43	0	1002438656	19	4438
2026-01-03 09:28:40.13	68.97	44.83	-29.0	-30.5	13.7	9.90e-06	0	43	0	1011875840	19	4292
2026-01-03 09:28:43.15	67.36	44.98	-28.9	-30.3	13.8	6.10e-06	0	43	0	1021313024	19	4206
2026-01-03 09:28:46.15	65.75	45.10	-28.6	-30.2	14.2	7.00e-07	0	43	0	1030750208	18	4283
2026-01-03 09:28:49.17	64.11	45.20	-29.0	-31.1	13.7	6.10e-06	0	43	0	1039138816	18	4581
2026-01-03 09:28:52.19	62.46	45.28	-29.4	-31.5	13.0	1.98e-05	0	43	0	1048576000	19	4597
2026-01-03 09:28:55.21	60.81	45.32	-29.4	-31.5	13.1	2.67e-05	0	43	0	1059061760	19	4596
2026-01-03 09:28:58.23	59.15	45.35	-29.5	-31.8	12.9	4.19e-05	0	43	0	1067450368	19	4675
2026-01-03 09:29:01.23	57.50	45.34	-29.5	-31.8	12.9	4.57e-05	0	43	0	1076887552	19	4670
2026-01-03 09:29:04.24	55.85	45.31	-29.2	-31.0	13.4	1.44e-05	0	43	0	1086324736	19	4425
2026-01-03 09:29:07.27	54.20	45.25	-29.3	-31.3	13.2	2.82e-05	0	43	0	1095761920	19	4510
2026-01-03 09:29:10.28	52.56	45.17	-29.2	-31.0	13.4	2.21e-05	0	43	0	1105199104	19	4422
2026-01-03 09:29:13.30	50.92	45.06	-29.3	-31.4	13.2	2.97e-05	0	43	0	1114636288	19	4537
2026-01-03 09:29:16.31	49.31	44.92	-29.1	-30.7	13.5	1.83e-05	0	43	0	1124073472	19	4355
2026-01-03 09:29:19.32	47.71	44.76	-29.6	-31.9	12.8	6.56e-05	0	43	0	1133510656	19	4713
2026-01-03 09:29:22.35	46.12	44.58	-29.3	-31.2	13.2	3.12e-05	0	43	0	1142947840	19	4498
2026-01-03 09:29:25.37	44.55	44.37	-29.2	-31.0	13.3	9.90e-06	0	43	0	1152385024	19	4435
2026-01-03 09:29:28.39	43.00	44.14	-29.3	-31.2	13.2	2.05e-05	0	43	0	1161822208	19	4499
2026-01-03 09:29:31.40	41.48	43.89	-29.9	-32.3	12.1	2.48e-04	0	43	0	1171259392	20	4764
2026-01-03 09:29:34.42	39.98	43.62	-28.7	-30.4	14.0	1.14e-05	0	43	0	1180696576	18	4349
2026-01-03 09:29:37.44	38.51	43.33	-29.6	-32.0	12.7	2.44e-05	0	43	0	1190133760	19	4755
2026-01-03 09:29:40.46	37.07	43.02	-30.4	-33.1	11.3	2.80e-03	0	43	0	1199570944	21	4912
2026-01-03 09:29:43.48	35.65	42.69	-28.8	-30.6	13.9	3.00e-06	0	43	0	1209008128	18	4428
2026-01-03 09:29:46.50	34.27	42.35	-29.9	-32.3	12.2	4.07e-04	0	43	0	1218445312	20	4749
2026-01-03 09:29:49.52	32.91	41.99	-28.6	-30.1	14.1	1.50e-06	0	43	0	1227882496	18	4270
2026-01-03 09:29:52.53	31.59	41.62	-29.7	-32.4	12.3	6.71e-05	0	43	0	1237319680	19	4912
2026-01-03 09:29:55.55	30.30	41.23	-28.9	-30.2	13.7	9.10e-06	0	43	0	1246756864	19	4210
2026-01-03 09:29:58.55	29.04	40.84	-28.9	-31.3	13.5	4.50e-06	0	43	0	1256194048	17	4760
2026-01-03 09:30:01.57	27.81	40.43	-31.0	-34.6	9.8	9.98e-03	0	43	0	1265631232	22	5417
2026-01-03 09:30:04.59	26.61	40.01	-29.5	-31.3	12.6	8.62e-05	0	43	0	1275068416	20	4441
2026-01-03 09:30:07.61	25.44	39.58	-29.9	-32.4	11.8	3.47e-04	0	43	0	1284505600	20	4804
2026-01-03 09:30:10.62	24.30	39.15	-30.3	-33.0	11.2	1.94e-03	0	43	0	1293942784	21	4889
2026-01-03 09:30:13.63	23.20	38.71	-30.3	-32.9	11.3	8.46e-04	0	43	0	1303379968	21	4867
2026-01-03 09:30:16.65	22.12	38.26	-31.8	-36.5	8.1	3.26e-02	0	43	0	1312817152	23	6155
2026-01-03 09:30:19.66	21.07	37.81	-30.4	-32.6	11.2	2.17e-03	0	43	0	1322254336	22	4641
2026-01-03 09:30:22.68	20.06	37.35	-29.0	-30.6	13.4	8.30e-06	0	43	0	1331691520	19	4319
2026-01-03 09:30:25.70	19.06	36.89	-29.6	-32.2	12.4	1.78e-04	0	43	0	1341128704	19	4818
2026-01-03 09:30:28.72	18.10	36.43	-28.6	-30.0	14.0	1.06e-05	0	43	0	1350565888	18	4261
2026-01-03 09:30:31.73	17.17	35.96	-27.6	-28.8	15.3	0.00e+00	0	43	0	1360003072	16	4128
2026-01-03 09:30:34.75	16.26	35.49	-28.4	-30.8	14.2	2.20e-06	0	43	0	1369440256	16	4707
2026-01-03 09:30:37.75	15.38	35.03	-27.8	-29.3	15.0	0.00e+00	0	43	0	1378877440	16	4256
2026-01-03 09:30:40.78	14.52	34.56	-27.9	-29.4	14.9	7.00e-07	0	43	0	1388314624	16	4297
2026-01-03 09:30:43.79	13.69	34.09	-28.3	-30.4	14.3	0.00e+00	0	43	0	1397751808	16	4598
2026-01-03 09:30:46.82	12.88	33.62	-28.1	-29.9	14.6	7.00e-07	0	43	0	1407188992	16	4442
2026-01-03 09:30:49.83	12.10	33.15	-27.1	-28.2	15.7	0.00e+00	0	43	0	1416626176	15	4101
2026-01-03 09:30:52.85	11.34	32.68	-27.4	-29.0	15.2	7.00e-07	0	43	0	1426063360	15	4303
2026-01-03 09:30:55.87	10.60	32.22	-28.1	-30.0	14.5	0.00e+00	0	43	0	1435500544	16	4490
2026-01-03 09:30:58.88	9.88	31.75	-28.0	-29.7	14.7	0.00e+00	0	43	0	1444937728	16	4382
2026-01-03 09:31:01.89	9.18	31.29	-27.5	-28.6	15.4	0.00e+00	0	43	0	1454374912	16	4075
2026-01-03 09:31:04.91	8.50	30.83	-27.6	-28.7	15.3	0.00e+00	0	43	0	1463812096	16	4123
2026-01-03 09:31:07.92	7.84	30.38	-27.6	-28.8	15.3	0.00e+00	0	43	0	1473249280	16	4133
2026-01-03 09:31:10.94	7.20	29.93	-27.0	-28.0	15.8	0.00e+00	0	43	0	1482686464	15	4050
2026-01-03 09:31:13.95	6.58	29.48	-27.1	-28.3	15.6	0.00e+00	0	43	0	1492123648	15	4116
2026-01-03 09:31:16.97	5.97	29.03	-27.1	-28.3	15.6	0.00e+00	0	43	0	1501560832	15	4120
2026-01-03 09:31:19.99	5.38	28.59	-27.0	-28.0	15.7	0.00e+00	0	43	0	1510998016	15	4042
2026-01-03 09:31:23.01	4.81	28.15	-26.9	-27.8	15.8	0.00e+00	0	43	0	1520435200	15	3989
2026-01-03 09:31:26.04	4.25	27.71	-26.9	-27.8	15.7	0.00e+00	0	43	0	1529872384	15	3995
2026-01-03 09:31:29.05	3.71	27.28	-27.1	-28.4	15.3	0.00e+00	0	43	0	1539309568	15	4147
2026-01-03 09:31:32.08	3.18	26.85	-27.2	-28.6	15.3	0.00e+00	0	43	0	1548746752	15	4212
2026-01-03 09:31:35.10	2.67	26.43	-27.0	-28.1	15.6	7.00e-07	0	43	0	1558183936	15	4085
2026-01-03 09:31:38.11	2.17	26.01	-27.0	-28.0	15.6	0.00e+00	0	43	0	1567621120	15	4056
2026-01-03 09:31:41.12	1.69	25.59	-27.2	-28.6	15.3	0.00e+00	0	43	0	1577058304	15	4211
2026-01-03 09:31:44.13	1.21	25.18	-26.6	-27.7	16.1	0.00e+00	0	43	0	1586495488	14	4063
2026-01-03 09:31:47.15	0.75	24.78	-26.7	-28.0	15.9	0.00e+00	0	43	0	1595932672	14	4146
2026-01-03 09:31:50.17	0.30	24.37	-26.6	-27.7	16.0	0.00e+00	0	43	0	1605369856	14	4067
2026-01-03 09:31:53.18	359.87	23.98	-26.9	-28.2	15.7	0.00e+00	0	43	0	1614807040	14	4221
2026-01-03 09:31:56.20	359.44	23.58	-26.7	-27.9	15.9	0.00e+00	0	43	0	1624244224	14	4126
2026-01-03 09:31:59.22	359.02	23.19	-26.8	-28.0	15.8	0.00e+00	0	43	0	1633681408	14	4152
2026-01-03 09:32:02.25	358.62	22.80	-26.8	-28.2	15.6	0.00e+00	0	43	0	1643118592	14	4209
2026-01-03 09:32:05.27	358.22	22.42	-26.7	-28.0	15.8	0.00e+00	0	43	0	1652555776	14	4149
2026-01-03 09:32:08.29	357.84	22.04	-26.6	-27.7	15.9	0.00e+00	0	43	0	1661992960	14	4088
2026-01-03 09:32:11.32	357.46	21.67	-26.5	-27.6	15.6	0.00e+00	0	43	0	1671430144	14	4044
2026-01-03 09:32:14.34	357.09	21.30	-26.4	-27.3	16.0	0.00e+00	0	43	0	1680867328	14	3977
2026-01-03 09:32:17.36	356.74	20.94	-26.5	-27.4	16.1	0.00e+00	0	43	0	1690304512	14	3993
2026-01-03 09:32:20.37	356.39	20.58	-26.8	-28.2	15.5	0.00e+00	0	43	0	1699741696	14	4206
2026-01-03 09:32:23.38	356.05	20.22	-26.9	-28.3	15.0	7.00e-07	0	43	0	1709178880	14	4247
2026-01-03 09:32:26.39	355.72	19.87	-26.8	-28.1	15.3	0.00e+00	0	43	0	1718616064	14	4183
2026-01-03 09:32:29.40	355.39	19.52	-26.6	-27.7	15.7	0.00e+00	0	43	0	1728053248	14	4079
2026-01-03 09:32:32.41	355.07	19.17	-26.7	-27.9	15.7	0.00e+00	0	43	0	1737490432	14	4143
2026-01-03 09:32:35.43	354.76	18.83	-26.7	-27.8	15.4	0.00e+00	0	43	0	1746927616	14	4126
2026-01-03 09:32:38.45	354.46	18.50	-26.8	-28.2	15.4	0.00e+00	0	43	0	1756364800	14	4219
2026-01-03 09:32:41.47	354.16	18.16	-27.1	-28.7	15.2	0.00e+00	0	43	0	1765801984	14	4368
2026-01-03 09:32:44.48	353.88	17.83	-27.2	-29.0	14.9	7.00e-07	0	43	0	1775239168	14	4456
2026-01-03 09:32:47.51	353.59	17.50	-27.3	-29.3	14.6	7.00e-07	0	43	0	1784676352	14	4546
2026-01-03 09:32:50.53	353.31	17.18	-27.4	-29.5	14.6	0.00e+00	0	43	0	1794113536	14	4581
2026-01-03 09:32:53.54	353.04	16.86	-27.4	-29.5	14.6	0.00e+00	0	43	0	1803550720	14	4589
2026-01-03 09:32:56.55	352.78	16.55	-27.5	-29.7	14.6	1.50e-06	0	43	0	1812987904	14	4644
2026-01-03 09:32:59.56	352.52	16.24	-27.7	-29.7	14.4	0.00e+00	0	43	0	1822425088	15	4525
2026-01-03 09:33:02.58	352.27	15.93	-27.2	-28.7	14.7	0.00e+00	0	43	0	1831862272	15	4246
2026-01-03 09:33:05.60	352.02	15.62	-27.2	-28.6	14.6	1.50e-06	0	43	0	1841299456	15	4229
2026-01-03 09:33:08.61	351.78	15.32	-27.2	-28.5	15.0	0.00e+00	0	43	0	1850736640	15	4208
2026-01-03 09:33:11.61	351.54	15.02	-27.3	-28.7	14.7	7.00e-07	0	43	0	1860173824	15	4256
2026-01-03 09:33:14.62	351.31	14.73	-27.5	-29.2	14.4	2.20e-06	0	43	0	1869611008	15	4399
2026-01-03 09:33:17.64	351.08	14.43	-27.6	-29.5	14.3	1.50e-06	0	43	0	1879048192	15	4497
2026-01-03 09:33:20.65	350.85	14.14	-27.6	-29.6	14.3	7.00e-07	0	43	0	1888485376	15	4529
2026-01-03 09:33:23.66	350.64	13.86	-27.8	-30.1	13.9	6.80e-06	0	43	0	1897922560	15	4683
2026-01-03 09:33:26.68	350.42	13.57	-28.0	-30.4	13.6	6.10e-06	0	43	0	1906311168	15	4783
2026-01-03 09:33:29.71	350.21	13.29	-28.2	-30.4	13.6	6.80e-06	0	43	0	1916796928	16	4642
2026-01-03 09:33:32.72	350.00	13.01	-28.3	-30.7	13.4	9.90e-06	0	43	0	1926234112	16	4756
2026-01-03 09:33:35.73	349.80	12.74	-27.9	-29.8	14.0	3.00e-06	0	43	0	1934622720	16	4468
2026-01-03 09:33:38.75	349.60	12.46	-27.9	-29.7	14.0	1.50e-06	0	43	0	1945108480	16	4441
2026-01-03 09:33:41.78	349.41	12.19	-28.0	-30.0	13.8	4.50e-06	0	43	0	1953497088	16	4516
2026-01-03 09:33:44.79	349.22	11.92	-27.9	-29.8	13.9	6.10e-06	0	43	0	1962934272	16	4473
2026-01-03 09:33:47.81	349.03	11.66	-27.9	-29.7	14.0	7.00e-07	0	43	0	1973420032	16	4428
2026-01-03 09:33:50.83	348.85	11.40	-27.9	-29.8	14.0	2.20e-06	0	43	0	1981808640	16	4457
2026-01-03 09:33:53.84	348.67	11.14	-27.9	-29.8	13.9	2.20e-06	0	43	0	1991245824	16	4458
2026-01-03 09:33:56.85	348.49	10.88	-27.9	-29.8	13.8	2.20e-06	0	43	0	2000683008	16	4474
2026-01-03 09:33:59.87	348.32	10.62	-28.0	-29.9	13.8	3.80e-06	0	43	0	2010120192	16	4503
2026-01-03 09:34:02.90	348.15	10.37	-28.1	-30.1	13.6	7.60e-06	0	43	0	2020605952	16	4576
2026-01-03 09:34:05.91	347.98	10.12	-28.2	-30.4	13.4	9.90e-06	0	43	0	2028994560	16	4663
2026-01-03 09:34:08.93	347.82	9.87	-28.2	-30.6	13.3	1.60e-05	0	43	0	2038431744	16	4719
2026-01-03 09:34:11.96	347.65	9.62	-28.2	-30.6	13.3	3.05e-05	0	43	0	2047868928	16	4728
2026-01-03 09:34:14.98	347.50	9.38	-28.3	-30.8	13.2	2.28e-05	0	43	0	2057306112	16	4793
2026-01-03 09:34:18.00	347.34	9.14	-28.3	-30.8	13.1	2.51e-05	0	43	0	2067791872	16	4802
2026-01-03 09:34:21.01	347.19	8.90	-28.4	-31.0	13.0	4.19e-05	0	43	0	2076180480	16	4877
2026-01-03 09:34:24.02	347.04	8.66	-28.5	-30.7	12.8	5.03e-05	0	43	0	2085617664	17	4666
2026-01-03 09:34:27.04	346.89	8.42	-28.6	-30.9	12.7	8.62e-05	0	43	0	2095054848	17	4735
2026-01-03 09:34:30.06	346.74	8.19	-28.6	-31.0	12.6	8.77e-05	0	43	0	2104492032	17	4760
2026-01-03 09:34:33.07	346.60	7.96	-28.7	-31.3	12.4	1.56e-04	0	43	0	2113929216	17	4873
2026-01-03 09:34:36.08	346.46	7.73	-28.8	-31.6	12.1	2.14e-04	0	43	0	2123366400	17	4980
2026-01-03 09:34:39.10	346.33	7.50	-28.8	-31.5	12.2	1.85e-04	0	43	0	2132803584	17	4940
2026-01-03 09:34:42.12	346.19	7.28	-28.9	-31.8	12.0	2.67e-04	0	43	0	2142240768	17	5030
2026-01-03 09:34:45.15	346.06	7.05	-32.6	-42.7	3.8	1.49e+00	0	43	104	2150629376	25	11444

#Closed at: 2026-01-03 09:34:45
#Recorded file [2150 MB]: D:/data/31010_260103_122316.dat