passes_logs/2026/01/03/R2M6_AANII_01/R2M6_AANII_01__20260103_124217_FENGYUN_3E_rec.log

#Pass ID: 20260103_124217_FENGYUN 3E
#Satellite: FENGYUN 3E
#Configuration: FENGYUN 3E
#almurnet v.1.7.20240730
#Start time: 2026-01-03 12:45:56

#Version: 2.2.20231116
#Station: R2M6_AANII_01
#Location: 30.233357 lon 59.946436 lat
#TLE: 1 49008U 21062A   26002.32147302  .00000239  00000+0  13357-3 0  9999
#TLE: 2 49008  98.7477   7.5995 0001398 164.3382 195.7838 14.19884140233041

#Time	Az	El	Level	Level2	SNR	BER	BlckErr	Temp	State	Recorded	gain1	gain2
2026-01-03 12:45:56.04	66.85	21.75	-33.5	-44.9	3.8	8.45e-01	0	43	0	0	26	13497
2026-01-03 12:45:58.05	66.35	21.85	-34.0	-43.3	3.8	8.47e-01	0	43	104	0	28	10532
2026-01-03 12:46:00.05	65.85	21.95	-34.0	-43.4	3.8	8.46e-01	0	43	104	0	28	10598
2026-01-03 12:46:02.07	65.35	22.05	-34.0	-43.5	3.8	8.45e-01	0	43	104	0	28	10647
2026-01-03 12:46:04.08	64.84	22.14	-34.1	-43.3	3.8	8.46e-01	0	43	104	0	28	10489
2026-01-03 12:46:06.08	64.33	22.24	-34.1	-43.5	3.8	8.47e-01	0	43	104	0	28	10671
2026-01-03 12:46:08.09	63.82	22.33	-34.1	-43.5	3.8	8.45e-01	0	43	104	0	28	10617
2026-01-03 12:46:10.11	63.30	22.42	-34.0	-43.4	3.8	8.47e-01	0	43	104	0	28	10612
2026-01-03 12:46:12.12	62.79	22.51	-34.1	-43.4	3.8	8.46e-01	0	43	104	0	28	10562
2026-01-03 12:46:14.12	62.27	22.59	-34.0	-43.5	3.8	8.46e-01	0	43	104	0	28	10670
2026-01-03 12:46:16.13	61.74	22.67	-34.1	-43.6	3.8	8.46e-01	0	43	104	0	28	10727
2026-01-03 12:46:18.14	61.22	22.76	-34.1	-43.5	3.8	8.47e-01	0	43	104	0	28	10680
2026-01-03 12:46:20.15	60.69	22.83	-34.0	-43.5	3.8	8.45e-01	0	43	104	0	28	10640
2026-01-03 12:46:22.17	60.15	22.91	-34.0	-43.4	3.8	8.45e-01	0	43	104	0	28	10605
2026-01-03 12:46:24.18	59.62	22.98	-33.9	-43.2	3.8	8.46e-01	0	43	104	0	28	10491
2026-01-03 12:46:26.20	59.08	23.06	-33.7	-42.4	3.8	8.45e-01	0	43	104	0	28	9808
2026-01-03 12:46:28.21	58.54	23.13	-33.7	-42.4	3.8	8.47e-01	0	43	104	0	28	9912
2026-01-03 12:46:30.22	58.00	23.19	-33.6	-42.1	3.8	8.45e-01	0	43	104	0	28	9620
2026-01-03 12:46:32.24	57.45	23.26	-33.5	-41.3	3.8	8.46e-01	0	44	104	0	28	8863
2026-01-03 12:46:34.26	56.90	23.32	-33.5	-41.0	3.9	8.46e-01	0	44	104	0	28	8570
2026-01-03 12:46:36.27	56.35	23.37	-33.5	-41.6	3.8	8.45e-01	0	44	104	0	28	9093
2026-01-03 12:46:38.28	55.80	23.43	-33.6	-42.3	3.8	8.46e-01	0	44	104	0	28	9727
2026-01-03 12:46:40.30	55.24	23.48	-33.6	-42.3	3.8	8.46e-01	0	44	104	0	28	9786
2026-01-03 12:46:42.30	54.69	23.53	-33.6	-42.5	3.8	8.47e-01	0	43	104	0	28	9959
2026-01-03 12:46:44.32	54.13	23.58	-33.6	-41.6	3.8	8.45e-01	0	43	104	0	28	9139
2026-01-03 12:46:46.34	53.57	23.62	-33.5	-41.5	3.8	8.45e-01	0	44	104	0	28	8999
2026-01-03 12:46:48.35	53.01	23.67	-30.1	-31.7	9.8	3.57e-02	0	44	104	0	21	4320
2026-01-03 12:46:50.36	52.45	23.70	-26.5	-26.7	14.8	0.00e+00	0	43	0	11534336	14	3668
2026-01-03 12:46:52.37	51.89	23.74	-26.5	-27.1	14.8	0.00e+00	0	44	0	25165824	13	3863
2026-01-03 12:46:54.37	51.33	23.77	-25.9	-25.8	15.5	0.00e+00	0	43	0	39845888	13	3564
2026-01-03 12:46:56.39	50.76	23.80	-26.4	-27.4	14.9	0.00e+00	0	44	0	54525952	12	4047
2026-01-03 12:46:58.40	50.20	23.83	-26.0	-26.0	15.4	0.00e+00	0	44	0	69206016	13	3623
2026-01-03 12:47:00.40	49.64	23.85	-25.0	-24.8	16.7	0.00e+00	0	44	0	83886080	11	3537
2026-01-03 12:47:02.41	49.07	23.87	-24.2	-24.1	17.5	0.00e+00	0	44	0	97517568	9	3583
2026-01-03 12:47:04.43	48.50	23.89	-24.0	-23.8	17.7	0.00e+00	0	44	0	112197632	9	3509
2026-01-03 12:47:06.44	47.93	23.91	-24.2	-24.2	17.5	0.00e+00	0	44	0	126877696	9	3611
2026-01-03 12:47:08.45	47.36	23.92	-24.3	-24.4	17.3	0.00e+00	0	44	0	141557760	9	3652
2026-01-03 12:47:10.46	46.79	23.93	-23.6	-23.5	18.1	0.00e+00	0	44	0	156237824	8	3547
2026-01-03 12:47:12.48	46.22	23.93	-23.6	-23.5	18.1	0.00e+00	0	44	0	170917888	8	3552
2026-01-03 12:47:14.50	45.65	23.93	-23.6	-23.4	18.2	0.00e+00	0	43	0	185597952	8	3520
2026-01-03 12:47:16.51	45.08	23.93	-23.7	-23.6	18.0	0.00e+00	0	44	0	200278016	8	3571
2026-01-03 12:47:18.52	44.51	23.93	-23.6	-23.5	18.1	0.00e+00	0	44	0	213909504	8	3551
2026-01-03 12:47:20.54	43.94	23.92	-23.6	-23.5	18.1	0.00e+00	0	44	0	228589568	8	3558
2026-01-03 12:47:22.55	43.37	23.91	-23.7	-23.6	18.1	0.00e+00	0	44	0	243269632	8	3560
2026-01-03 12:47:24.55	42.80	23.90	-23.6	-23.4	18.1	0.00e+00	0	44	0	257949696	8	3530
2026-01-03 12:47:26.57	42.23	23.88	-23.6	-23.5	18.1	0.00e+00	0	44	0	272629760	8	3539
2026-01-03 12:47:28.59	41.66	23.86	-23.6	-23.3	18.2	0.00e+00	0	44	0	286261248	8	3511
2026-01-03 12:47:30.59	41.10	23.84	-23.7	-23.7	18.0	0.00e+00	0	44	0	300941312	8	3582
2026-01-03 12:47:32.61	40.53	23.82	-23.6	-23.4	18.1	0.00e+00	0	44	0	315621376	8	3532
2026-01-03 12:47:34.62	39.97	23.79	-23.6	-23.4	18.1	0.00e+00	0	44	0	330301440	8	3525
2026-01-03 12:47:36.63	39.40	23.76	-23.5	-23.3	18.2	0.00e+00	0	43	0	344981504	8	3508
2026-01-03 12:47:38.65	38.84	23.72	-23.6	-23.4	18.1	0.00e+00	0	44	0	359661568	8	3523
2026-01-03 12:47:40.66	38.28	23.69	-23.4	-23.0	18.3	0.00e+00	0	43	0	374341632	8	3436
2026-01-03 12:47:42.68	37.72	23.65	-23.4	-23.4	18.3	0.00e+00	0	44	0	389021696	7	3631
2026-01-03 12:47:44.69	37.16	23.60	-23.4	-23.6	18.2	0.00e+00	0	44	0	402653184	7	3673
2026-01-03 12:47:46.71	36.60	23.56	-23.8	-24.4	17.8	0.00e+00	0	44	0	417333248	7	3860
2026-01-03 12:47:48.73	36.04	23.51	-23.8	-24.4	17.8	0.00e+00	0	43	0	432013312	7	3852
2026-01-03 12:47:50.74	35.49	23.46	-23.6	-23.9	18.1	0.00e+00	0	44	0	446693376	7	3733
2026-01-03 12:47:52.76	34.94	23.40	-23.5	-23.8	18.1	0.00e+00	0	43	0	461373440	7	3723
2026-01-03 12:47:54.77	34.39	23.35	-23.6	-23.9	18.1	0.00e+00	0	43	0	476053504	7	3728
2026-01-03 12:47:56.78	33.84	23.29	-23.3	-23.3	18.4	0.00e+00	0	44	0	490733568	7	3612
2026-01-03 12:47:58.79	33.30	23.23	-23.3	-23.4	18.4	0.00e+00	0	44	0	504365056	7	3618
2026-01-03 12:48:00.80	32.75	23.16	-23.6	-23.9	18.1	0.00e+00	0	43	0	520093696	7	3730
2026-01-03 12:48:02.81	32.21	23.09	-23.4	-23.5	18.3	0.00e+00	0	44	0	533725184	7	3648
2026-01-03 12:48:04.82	31.67	23.02	-23.5	-23.7	18.2	0.00e+00	0	44	0	548405248	7	3692
2026-01-03 12:48:06.84	31.14	22.95	-23.6	-23.9	18.1	0.00e+00	0	44	0	563085312	7	3730
2026-01-03 12:48:08.86	30.60	22.88	-23.7	-24.1	18.0	0.00e+00	0	44	0	577765376	7	3780
2026-01-03 12:48:10.87	30.07	22.80	-23.4	-23.6	18.2	0.00e+00	0	44	0	592445440	7	3663
2026-01-03 12:48:12.88	29.54	22.72	-23.5	-23.7	18.1	0.00e+00	0	44	0	606076928	7	3697
2026-01-03 12:48:14.88	29.02	22.64	-23.7	-24.1	18.0	0.00e+00	0	44	0	620756992	7	3786
2026-01-03 12:48:16.90	28.50	22.55	-23.8	-24.3	17.9	0.00e+00	0	44	0	635437056	7	3817
2026-01-03 12:48:18.90	27.98	22.47	-23.7	-24.2	17.9	0.00e+00	0	43	0	650117120	7	3795
2026-01-03 12:48:20.91	27.47	22.38	-23.6	-24.0	18.0	0.00e+00	0	44	0	664797184	7	3757
2026-01-03 12:48:22.92	26.95	22.29	-23.7	-24.1	17.9	0.00e+00	0	43	0	679477248	7	3772
2026-01-03 12:48:24.93	26.44	22.20	-23.9	-24.6	17.7	0.00e+00	0	44	0	693108736	7	3905
2026-01-03 12:48:26.94	25.94	22.10	-24.1	-24.4	17.5	0.00e+00	0	44	0	707788800	8	3754
2026-01-03 12:48:28.95	25.43	22.00	-24.3	-25.0	17.2	0.00e+00	0	43	0	722468864	8	3885
2026-01-03 12:48:30.97	24.93	21.90	-24.0	-24.3	17.6	0.00e+00	0	44	0	737148928	8	3732
2026-01-03 12:48:32.98	24.43	21.80	-24.1	-24.5	17.5	0.00e+00	0	44	0	751828992	8	3773
2026-01-03 12:48:34.99	23.94	21.70	-23.9	-24.1	17.7	0.00e+00	0	44	0	766509056	8	3677
2026-01-03 12:48:37.00	23.45	21.60	-23.9	-24.1	17.6	0.00e+00	0	44	0	781189120	8	3689
2026-01-03 12:48:39.02	22.96	21.49	-24.1	-24.4	17.5	0.00e+00	0	44	0	794820608	8	3758
2026-01-03 12:48:41.04	22.47	21.38	-23.8	-23.8	17.8	0.00e+00	0	44	0	809500672	8	3613
2026-01-03 12:48:43.04	22.00	21.27	-23.8	-23.8	17.8	0.00e+00	0	43	0	824180736	8	3625
2026-01-03 12:48:45.06	21.52	21.16	-23.7	-23.8	17.8	0.00e+00	0	44	0	838860800	8	3605
2026-01-03 12:48:47.06	21.05	21.05	-23.8	-23.9	17.7	0.00e+00	0	44	0	853540864	8	3646
2026-01-03 12:48:49.07	20.58	20.93	-23.8	-23.8	17.8	0.00e+00	0	44	0	868220928	8	3614
2026-01-03 12:48:51.09	20.11	20.81	-23.8	-23.9	17.7	0.00e+00	0	44	0	881852416	8	3637
2026-01-03 12:48:53.09	19.65	20.70	-23.9	-24.1	17.7	0.00e+00	0	44	0	896532480	8	3676
2026-01-03 12:48:55.10	19.19	20.58	-23.9	-24.0	17.7	0.00e+00	0	44	0	911212544	8	3661
2026-01-03 12:48:57.11	18.73	20.46	-24.2	-24.6	17.4	0.00e+00	0	44	0	925892608	8	3798
2026-01-03 12:48:59.11	18.28	20.34	-24.0	-24.3	17.6	0.00e+00	0	44	0	940572672	8	3719
2026-01-03 12:49:01.13	17.83	20.21	-24.0	-24.3	17.5	0.00e+00	0	44	0	955252736	8	3720
2026-01-03 12:49:03.15	17.39	20.09	-24.0	-24.4	17.5	0.00e+00	0	44	0	969932800	8	3738
2026-01-03 12:49:05.15	16.95	19.96	-24.0	-24.2	17.6	0.00e+00	0	44	0	984612864	8	3710
2026-01-03 12:49:07.17	16.51	19.84	-24.1	-24.5	17.4	0.00e+00	0	44	0	998244352	8	3764
2026-01-03 12:49:09.19	16.07	19.71	-24.0	-24.3	17.5	0.00e+00	0	43	0	1012924416	8	3727
2026-01-03 12:49:11.19	15.65	19.58	-24.1	-24.5	17.4	0.00e+00	0	44	0	1027604480	8	3770
2026-01-03 12:49:13.21	15.22	19.45	-24.1	-24.5	17.4	0.00e+00	0	44	0	1042284544	8	3780
2026-01-03 12:49:15.22	14.79	19.32	-24.4	-25.1	17.1	0.00e+00	0	43	0	1056964608	8	3900
2026-01-03 12:49:17.23	14.38	19.19	-24.3	-25.0	17.1	0.00e+00	0	44	0	1070596096	8	3875
2026-01-03 12:49:19.23	13.96	19.06	-24.2	-24.8	17.2	0.00e+00	0	43	0	1085276160	8	3833
2026-01-03 12:49:21.24	13.55	18.92	-24.2	-24.7	17.2	0.00e+00	0	44	0	1099956224	8	3826
2026-01-03 12:49:23.25	13.14	18.79	-24.4	-25.2	17.0	0.00e+00	0	44	0	1114636288	8	3939
2026-01-03 12:49:25.26	12.74	18.66	-24.4	-25.1	17.0	0.00e+00	0	44	0	1129316352	8	3920
2026-01-03 12:49:27.26	12.34	18.52	-24.4	-25.2	17.0	0.00e+00	0	44	0	1143996416	8	3934
2026-01-03 12:49:29.28	11.94	18.38	-24.6	-25.5	16.8	0.00e+00	0	44	0	1157627904	8	4013
2026-01-03 12:49:31.30	11.55	18.25	-24.5	-25.4	16.9	0.00e+00	0	43	0	1173356544	8	3986
2026-01-03 12:49:33.31	11.16	18.11	-24.4	-25.1	17.0	0.00e+00	0	44	0	1186988032	8	3918
2026-01-03 12:49:35.33	10.77	17.97	-24.3	-25.0	17.1	0.00e+00	0	44	0	1201668096	8	3884
2026-01-03 12:49:37.34	10.39	17.83	-24.3	-24.9	17.1	0.00e+00	0	44	0	1216348160	8	3857
2026-01-03 12:49:39.36	10.01	17.69	-24.4	-25.1	17.0	0.00e+00	0	43	0	1231028224	8	3911
2026-01-03 12:49:41.36	9.63	17.55	-24.7	-25.2	16.7	0.00e+00	0	43	0	1245708288	9	3830
2026-01-03 12:49:43.38	9.26	17.41	-25.1	-25.6	16.2	0.00e+00	0	43	0	1259339776	10	3834
2026-01-03 12:49:45.40	8.89	17.27	-24.7	-24.9	16.6	0.00e+00	0	43	0	1275068416	10	3657
2026-01-03 12:49:47.42	8.52	17.13	-24.8	-25.1	16.5	0.00e+00	0	43	0	1288699904	10	3695
2026-01-03 12:49:49.42	8.16	16.99	-25.0	-25.3	16.4	0.00e+00	0	44	0	1303379968	10	3760
2026-01-03 12:49:51.44	7.80	16.85	-25.1	-25.6	16.2	0.00e+00	0	44	0	1318060032	10	3832
2026-01-03 12:49:53.45	7.45	16.70	-25.0	-25.4	16.3	0.00e+00	0	44	0	1332740096	10	3783
2026-01-03 12:49:55.46	7.10	16.56	-25.0	-25.5	16.3	0.00e+00	0	44	0	1347420160	10	3786
2026-01-03 12:49:57.47	6.75	16.42	-24.9	-25.3	16.4	0.00e+00	0	44	0	1362100224	10	3742
2026-01-03 12:49:59.48	6.40	16.28	-25.0	-25.4	16.3	0.00e+00	0	44	0	1375731712	10	3783
2026-01-03 12:50:01.50	6.06	16.13	-25.1	-25.7	16.1	0.00e+00	0	44	0	1390411776	10	3844
2026-01-03 12:50:03.51	5.72	15.99	-25.1	-25.7	16.1	0.00e+00	0	44	0	1405091840	10	3845
2026-01-03 12:50:05.52	5.39	15.85	-25.1	-25.8	16.1	0.00e+00	0	44	0	1419771904	10	3862
2026-01-03 12:50:07.52	5.06	15.70	-25.1	-25.6	16.2	0.00e+00	0	43	0	1434451968	10	3823
2026-01-03 12:50:09.54	4.73	15.56	-25.1	-25.6	16.1	0.00e+00	0	44	0	1449132032	10	3832
2026-01-03 12:50:11.55	4.40	15.41	-25.2	-25.9	16.0	0.00e+00	0	44	0	1463812096	10	3882
2026-01-03 12:50:13.56	4.08	15.27	-25.3	-26.1	15.9	0.00e+00	0	44	0	1477443584	10	3942
2026-01-03 12:50:15.58	3.76	15.13	-25.4	-26.3	15.8	0.00e+00	0	44	0	1492123648	10	3992
2026-01-03 12:50:17.59	3.45	14.98	-25.5	-26.4	15.7	0.00e+00	0	44	0	1506803712	10	4030
2026-01-03 12:50:19.60	3.14	14.84	-25.6	-26.7	15.5	0.00e+00	0	44	0	1521483776	10	4079
2026-01-03 12:50:21.62	2.82	14.69	-25.5	-26.5	15.5	0.00e+00	0	44	0	1536163840	10	4055
2026-01-03 12:50:23.63	2.52	14.55	-25.6	-26.7	15.5	0.00e+00	0	44	0	1550843904	10	4085
2026-01-03 12:50:25.65	2.21	14.40	-25.8	-26.6	15.3	0.00e+00	0	44	0	1565523968	11	3956
2026-01-03 12:50:27.67	1.91	14.26	-25.5	-25.9	15.6	0.00e+00	0	43	0	1579155456	11	3798
2026-01-03 12:50:29.68	1.62	14.12	-25.5	-25.9	15.6	0.00e+00	0	44	0	1593835520	11	3805
2026-01-03 12:50:31.70	1.32	13.97	-25.6	-26.1	15.5	0.00e+00	0	44	0	1608515584	11	3853
2026-01-03 12:50:33.71	1.03	13.83	-25.7	-26.5	15.3	0.00e+00	0	44	0	1623195648	11	3938
2026-01-03 12:50:35.71	0.74	13.69	-25.8	-26.8	15.1	0.00e+00	0	44	0	1637875712	11	4011
2026-01-03 12:50:37.72	0.46	13.54	-26.0	-27.1	14.9	0.00e+00	0	43	0	1652555776	11	4091
2026-01-03 12:50:39.74	0.17	13.40	-26.2	-27.1	14.6	0.00e+00	0	44	0	1666187264	12	4002
2026-01-03 12:50:41.74	359.89	13.26	-26.4	-27.4	14.4	0.00e+00	0	44	0	1680867328	12	4078
2026-01-03 12:50:43.76	359.61	13.11	-25.8	-26.2	15.1	0.00e+00	0	44	0	1695547392	12	3773
2026-01-03 12:50:45.78	359.34	12.97	-25.8	-26.2	15.1	0.00e+00	0	44	0	1710227456	12	3756
2026-01-03 12:50:47.79	359.07	12.83	-25.6	-25.8	15.3	0.00e+00	0	43	0	1724907520	12	3671
2026-01-03 12:50:49.81	358.80	12.68	-25.7	-25.9	15.2	0.00e+00	0	44	0	1739587584	12	3710
2026-01-03 12:50:51.82	358.53	12.54	-25.9	-26.5	14.9	0.00e+00	0	44	0	1754267648	12	3836
2026-01-03 12:50:53.84	358.26	12.40	-26.2	-27.1	14.5	1.10e-06	0	44	0	1767899136	12	3999
2026-01-03 12:50:55.85	358.00	12.26	-26.3	-27.4	14.4	1.10e-06	0	44	0	1783627776	12	4062
2026-01-03 12:50:57.87	357.74	12.11	-26.0	-26.8	14.7	0.00e+00	0	44	0	1797259264	12	3906
2026-01-03 12:50:59.88	357.49	11.97	-26.1	-26.9	14.6	0.00e+00	0	44	0	1811939328	12	3951
2026-01-03 12:51:01.90	357.23	11.83	-26.0	-26.7	14.7	0.00e+00	0	44	0	1826619392	12	3899
2026-01-03 12:51:03.91	356.98	11.69	-26.0	-26.7	14.6	0.00e+00	0	43	0	1841299456	12	3905
2026-01-03 12:51:05.92	356.73	11.55	-26.0	-26.7	14.6	0.00e+00	0	44	0	1855979520	12	3897
2026-01-03 12:51:07.94	356.49	11.41	-26.1	-26.8	14.5	0.00e+00	0	44	0	1870659584	12	3926
2026-01-03 12:51:09.95	356.24	11.27	-25.8	-26.3	14.8	0.00e+00	0	44	0	1885339648	12	3806
2026-01-03 12:51:11.97	356.00	11.13	-25.9	-26.4	14.8	0.00e+00	0	44	0	1898971136	12	3815
2026-01-03 12:51:13.98	355.76	10.99	-25.9	-26.4	14.7	0.00e+00	0	44	0	1913651200	12	3826
2026-01-03 12:51:15.98	355.53	10.85	-25.9	-26.5	14.7	0.00e+00	0	44	0	1928331264	12	3858
2026-01-03 12:51:18.00	355.29	10.71	-26.1	-26.9	14.5	1.10e-06	0	44	0	1943011328	12	3936
2026-01-03 12:51:20.00	355.06	10.57	-26.2	-27.0	14.4	0.00e+00	0	44	0	1957691392	12	3983
2026-01-03 12:51:22.01	354.83	10.44	-26.3	-27.4	14.2	0.00e+00	0	43	0	1972371456	12	4073
2026-01-03 12:51:24.02	354.60	10.30	-26.3	-27.4	14.2	0.00e+00	0	44	0	1986002944	12	4084
2026-01-03 12:51:26.03	354.38	10.16	-26.4	-27.6	14.1	1.10e-06	0	44	0	2000683008	12	4114
2026-01-03 12:51:28.04	354.15	10.02	-26.6	-27.6	13.8	3.40e-06	0	44	0	2015363072	13	4020
2026-01-03 12:51:30.06	353.93	9.89	-26.4	-27.1	14.1	1.10e-06	0	44	0	2030043136	13	3904
2026-01-03 12:51:32.07	353.71	9.75	-26.7	-27.7	13.8	1.10e-06	0	44	0	2044723200	13	4043
2026-01-03 12:51:34.09	353.49	9.61	-26.6	-27.6	13.8	8.00e-06	0	44	0	2059403264	13	4018
2026-01-03 12:51:36.10	353.28	9.48	-26.6	-27.5	13.8	5.70e-06	0	44	0	2074083328	13	3987
2026-01-03 12:51:38.12	353.06	9.34	-26.5	-27.3	13.9	5.70e-06	0	44	0	2087714816	13	3945
2026-01-03 12:51:40.13	352.85	9.21	-26.6	-27.5	13.7	6.80e-06	0	44	0	2102394880	13	4009
2026-01-03 12:51:42.15	352.64	9.07	-26.3	-26.8	14.1	1.10e-06	0	44	0	2117074944	13	3831
2026-01-03 12:51:44.16	352.44	8.94	-26.3	-26.9	14.0	1.10e-06	0	44	0	2131755008	13	3860
2026-01-03 12:51:46.18	352.23	8.80	-26.4	-27.1	13.9	1.10e-06	0	44	0	2146435072	13	3896
2026-01-03 12:51:48.19	352.03	8.67	-26.4	-27.2	13.8	4.50e-06	0	44	0	2161115136	13	3916
2026-01-03 12:51:50.21	351.83	8.54	-26.6	-27.6	13.5	9.10e-06	0	44	0	2175795200	13	4036
2026-01-03 12:51:52.22	351.63	8.40	-26.8	-28.0	13.2	1.25e-05	0	44	0	2190475264	13	4149
2026-01-03 12:51:54.24	351.43	8.27	-27.0	-28.4	13.0	3.20e-05	0	44	0	2204106752	13	4254
2026-01-03 12:51:56.25	351.23	8.14	-27.0	-28.5	12.9	4.92e-05	0	44	0	2218786816	13	4271
2026-01-03 12:51:58.26	351.04	8.01	-27.1	-28.2	12.8	4.11e-05	0	44	0	2233466880	14	4078
2026-01-03 12:52:00.27	350.85	7.87	-27.2	-28.4	12.7	7.78e-05	0	44	0	2248146944	14	4133
2026-01-03 12:52:02.28	350.66	7.74	-27.2	-28.4	12.7	7.09e-05	0	44	0	2262827008	14	4142
2026-01-03 12:52:04.29	350.47	7.61	-27.3	-28.8	12.5	9.84e-05	0	44	0	2276458496	14	4241
2026-01-03 12:52:06.30	350.29	7.48	-27.3	-28.6	12.7	7.78e-05	0	44	0	2292187136	14	4186
2026-01-03 12:52:08.31	350.10	7.35	-27.2	-28.5	12.8	6.06e-05	0	44	0	2305818624	14	4169
2026-01-03 12:52:10.33	349.92	7.22	-27.2	-28.5	12.8	4.80e-05	0	44	0	2320498688	14	4172
2026-01-03 12:52:12.34	349.74	7.09	-29.2	-31.4	10.1	5.83e-05	0	44	0	2335178752	18	4595
2026-01-03 12:52:14.35	349.56	6.96	-33.4	-43.1	3.8	8.46e-01	0	44	104	2336227328	26	11030

#Closed at: 2026-01-03 12:52:15
#Recorded file [2336 MB]: D:/data/31010_260103_154648.dat