passes_logs/2026/01/03/R2M6_AANII_01/R2M6_AANII_01__20260103_142048_FENGYUN_3E_rec.log

#Pass ID: 20260103_142048_FENGYUN 3E
#Satellite: FENGYUN 3E
#Configuration: FENGYUN 3E
#almurnet v.1.7.20240730
#Start time: 2026-01-03 14:25:38

#Version: 2.2.20231116
#Station: R2M6_AANII_01
#Location: 30.233357 lon 59.946436 lat
#TLE: 1 49008U 21062A   26002.95568549 -.00000227  00000+0 -86494-4 0  9990
#TLE: 2 49008  98.7475   8.2258 0001442 163.3458 196.7766 14.19882681233131

#Time	Az	El	Level	Level2	SNR	BER	BlckErr	Temp	State	Recorded	gain1	gain2
2026-01-03 14:25:38.38	136.34	55.47	-33.5	-44.6	3.8	8.46e-01	0	43	0	0	27	12888
2026-01-03 14:25:40.37	135.78	56.18	-34.0	-43.3	3.8	8.46e-01	0	43	104	0	28	10541
2026-01-03 14:25:42.37	135.19	56.90	-34.0	-43.3	3.8	8.46e-01	0	43	104	0	28	10561
2026-01-03 14:25:44.37	134.57	57.62	-34.0	-43.4	3.8	8.46e-01	0	43	104	0	28	10613
2026-01-03 14:25:46.38	133.91	58.35	-34.0	-43.4	3.8	8.46e-01	0	43	104	0	28	10620
2026-01-03 14:25:48.38	133.21	59.08	-34.0	-43.4	3.8	8.45e-01	0	43	104	0	28	10539
2026-01-03 14:25:50.38	132.47	59.82	-34.0	-43.4	3.8	8.47e-01	0	43	104	0	28	10588
2026-01-03 14:25:52.38	131.69	60.56	-34.0	-43.3	3.8	8.46e-01	0	43	104	0	28	10543
2026-01-03 14:25:54.38	130.87	61.31	-34.0	-43.4	3.8	8.46e-01	0	43	104	0	28	10568
2026-01-03 14:25:56.38	129.99	62.06	-34.0	-43.4	3.8	8.47e-01	0	43	104	0	28	10616
2026-01-03 14:25:58.38	129.05	62.81	-34.1	-43.6	3.8	8.45e-01	0	43	104	0	28	10733
2026-01-03 14:26:00.39	128.05	63.57	-34.1	-43.5	3.8	8.45e-01	0	43	104	0	28	10635
2026-01-03 14:26:02.38	126.99	64.31	-34.0	-43.4	3.8	8.46e-01	0	43	104	0	28	10559
2026-01-03 14:26:04.40	125.85	65.07	-34.0	-43.4	3.8	8.46e-01	0	44	104	0	28	10596
2026-01-03 14:26:06.40	124.64	65.82	-34.0	-43.3	3.8	8.46e-01	0	43	104	0	28	10462
2026-01-03 14:26:08.40	123.33	66.57	-34.0	-43.4	3.8	8.45e-01	0	43	104	0	28	10568
2026-01-03 14:26:10.41	121.93	67.31	-34.0	-43.1	3.8	8.46e-01	0	43	104	0	28	10276
2026-01-03 14:26:12.42	120.43	68.05	-34.0	-43.4	3.8	8.45e-01	0	44	104	0	28	10579
2026-01-03 14:26:14.43	118.81	68.77	-34.0	-43.4	3.8	8.45e-01	0	43	104	0	28	10585
2026-01-03 14:26:16.43	117.08	69.49	-34.0	-43.4	3.8	8.46e-01	0	43	104	0	28	10565
2026-01-03 14:26:18.43	115.21	70.19	-34.0	-43.3	3.8	8.46e-01	0	44	104	0	28	10491
2026-01-03 14:26:20.44	113.19	70.87	-34.0	-43.0	3.8	8.46e-01	0	44	104	0	28	10141
2026-01-03 14:26:22.43	111.03	71.53	-34.0	-43.2	3.8	8.46e-01	0	44	104	0	28	10376
2026-01-03 14:26:24.44	108.68	72.18	-33.9	-42.9	3.8	8.46e-01	0	43	104	0	28	10039
2026-01-03 14:26:26.45	106.15	72.79	-33.9	-42.7	3.8	8.46e-01	0	44	104	0	28	9947
2026-01-03 14:26:28.46	103.42	73.38	-33.4	-39.6	4.0	8.42e-01	0	43	104	0	27	7324
2026-01-03 14:26:30.46	100.51	73.92	-33.5	-40.2	3.9	8.45e-01	0	43	104	0	27	7749
2026-01-03 14:26:32.47	97.37	74.43	-23.9	-23.5	18.1	0.00e+00	0	44	104	0	9	3451
2026-01-03 14:26:34.47	94.05	74.89	-23.5	-23.3	18.5	0.00e+00	0	44	0	10485760	8	3499
2026-01-03 14:26:36.49	90.48	75.30	-23.6	-23.5	18.4	0.00e+00	0	44	0	25165824	8	3547
2026-01-03 14:26:38.50	86.73	75.66	-23.3	-23.4	18.7	0.00e+00	0	44	0	39845888	7	3610
2026-01-03 14:26:40.49	82.84	75.95	-23.1	-22.9	19.0	0.00e+00	0	44	0	53477376	7	3507
2026-01-03 14:26:42.49	78.78	76.17	-22.9	-22.9	19.2	0.00e+00	0	43	0	68157440	6	3616
2026-01-03 14:26:44.49	74.61	76.33	-22.7	-22.5	19.4	0.00e+00	0	43	0	82837504	6	3522
2026-01-03 14:26:46.51	70.31	76.41	-22.4	-22.0	19.7	0.00e+00	0	43	0	97517568	6	3419
2026-01-03 14:26:48.52	66.01	76.42	-22.4	-22.5	19.6	0.00e+00	0	43	0	112197632	5	3618
2026-01-03 14:26:50.53	61.72	76.36	-22.1	-21.8	20.0	0.00e+00	0	44	0	126877696	5	3482
2026-01-03 14:26:52.53	57.52	76.22	-22.3	-22.1	19.8	0.00e+00	0	43	0	140509184	5	3547
2026-01-03 14:26:54.53	53.43	76.02	-22.7	-23.0	19.4	0.00e+00	0	43	0	155189248	5	3748
2026-01-03 14:26:56.53	49.47	75.74	-22.3	-22.2	19.8	0.00e+00	0	44	0	169869312	5	3559
2026-01-03 14:26:58.52	45.71	75.41	-23.0	-23.6	19.1	0.00e+00	0	43	0	184549376	5	3881
2026-01-03 14:27:00.51	42.14	75.02	-22.9	-23.4	19.2	0.00e+00	0	44	0	198180864	5	3826
2026-01-03 14:27:02.51	38.75	74.57	-23.1	-23.4	19.0	0.00e+00	0	44	0	212860928	6	3723
2026-01-03 14:27:04.51	35.57	74.08	-23.5	-24.1	18.6	0.00e+00	0	44	0	227540992	6	3884
2026-01-03 14:27:06.51	32.60	73.55	-23.4	-23.9	18.7	2.20e-06	0	44	0	241172480	6	3839
2026-01-03 14:27:08.51	29.83	72.98	-23.3	-23.8	18.7	0.00e+00	0	44	0	255852544	6	3805
2026-01-03 14:27:10.52	27.24	72.37	-23.6	-23.9	18.5	0.00e+00	0	43	0	270532608	7	3729
2026-01-03 14:27:12.51	24.87	71.74	-23.6	-23.9	18.4	0.00e+00	0	44	0	285212672	7	3727
2026-01-03 14:27:14.52	22.64	71.08	-23.3	-23.3	18.7	0.00e+00	0	43	0	299892736	7	3601
2026-01-03 14:27:16.51	20.59	70.41	-23.5	-23.8	18.5	0.00e+00	0	44	0	313524224	7	3718
2026-01-03 14:27:18.51	18.68	69.72	-23.3	-23.4	18.7	0.00e+00	0	44	0	328204288	7	3610
2026-01-03 14:27:20.53	16.89	69.00	-23.2	-23.0	18.8	0.00e+00	0	44	0	342884352	7	3540
2026-01-03 14:27:22.53	15.24	68.28	-23.5	-23.7	18.5	0.00e+00	0	44	0	357564416	7	3691
2026-01-03 14:27:24.51	13.72	67.56	-23.7	-24.0	18.3	0.00e+00	0	44	0	371195904	7	3752
2026-01-03 14:27:26.51	12.30	66.83	-23.3	-23.4	18.4	0.00e+00	0	44	0	385875968	7	3612
2026-01-03 14:27:28.50	10.98	66.09	-23.6	-24.0	18.3	0.00e+00	0	44	0	400556032	7	3760
2026-01-03 14:27:30.52	9.72	65.33	-23.6	-24.0	18.3	0.00e+00	0	44	0	415236096	7	3750
2026-01-03 14:27:32.51	8.57	64.59	-24.1	-24.5	17.8	0.00e+00	0	43	0	428867584	8	3777
2026-01-03 14:27:34.51	7.48	63.84	-24.7	-25.2	17.2	0.00e+00	0	43	0	443547648	9	3817
2026-01-03 14:27:36.50	6.47	63.09	-24.2	-24.1	17.8	0.00e+00	0	44	0	458227712	9	3574
2026-01-03 14:27:38.50	5.52	62.34	-24.0	-24.2	18.0	0.00e+00	0	44	0	472907776	8	3693
2026-01-03 14:27:40.50	4.62	61.60	-24.6	-25.0	17.3	0.00e+00	0	44	0	487587840	9	3775
2026-01-03 14:27:42.50	3.78	60.85	-24.5	-24.9	17.3	0.00e+00	0	44	0	501219328	9	3755
2026-01-03 14:27:44.51	2.98	60.11	-24.8	-25.5	17.0	0.00e+00	0	43	0	515899392	9	3903
2026-01-03 14:27:46.51	2.23	59.37	-25.3	-26.1	16.5	0.00e+00	0	44	0	530579456	10	3943
2026-01-03 14:27:48.50	1.52	58.64	-24.9	-25.1	16.9	0.00e+00	0	43	0	545259520	10	3692
2026-01-03 14:27:50.50	0.85	57.91	-25.2	-25.7	16.7	0.00e+00	0	44	0	558891008	10	3833
2026-01-03 14:27:52.48	0.22	57.19	-25.5	-26.0	16.2	0.00e+00	0	44	0	573571072	11	3808
2026-01-03 14:27:54.48	359.62	56.48	-25.3	-25.4	16.6	0.00e+00	0	44	0	588251136	11	3662
2026-01-03 14:27:56.49	359.05	55.76	-25.3	-25.6	16.4	0.00e+00	0	44	0	602931200	11	3697
2026-01-03 14:27:58.48	358.51	55.06	-24.8	-24.9	17.0	0.00e+00	0	44	0	616562688	10	3654
2026-01-03 14:28:00.49	357.99	54.36	-24.5	-24.3	17.4	0.00e+00	0	44	0	631242752	10	3513
2026-01-03 14:28:02.50	357.49	53.67	-24.8	-24.9	17.1	0.00e+00	0	44	0	645922816	10	3649
2026-01-03 14:28:04.49	357.03	52.99	-25.0	-25.4	16.7	0.00e+00	0	44	0	660602880	10	3763
2026-01-03 14:28:06.50	356.58	52.31	-24.6	-24.6	16.5	0.00e+00	0	44	0	675282944	10	3588
2026-01-03 14:28:08.50	356.15	51.64	-24.3	-24.4	17.6	0.00e+00	0	44	0	688914432	9	3636
2026-01-03 14:28:10.50	355.74	50.98	-24.4	-24.5	17.5	0.00e+00	0	43	0	703594496	9	3672
2026-01-03 14:28:12.49	355.36	50.33	-24.6	-24.9	17.3	0.00e+00	0	44	0	718274560	9	3759
2026-01-03 14:28:14.49	354.98	49.69	-24.6	-25.1	17.2	0.00e+00	0	44	0	732954624	9	3801
2026-01-03 14:28:16.48	354.63	49.06	-24.7	-25.2	17.1	0.00e+00	0	44	0	746586112	9	3822
2026-01-03 14:28:18.47	354.29	48.43	-24.4	-24.7	17.3	0.00e+00	0	44	0	761266176	9	3709
2026-01-03 14:28:20.47	353.96	47.81	-24.5	-24.9	17.3	0.00e+00	0	43	0	775946240	9	3752
2026-01-03 14:28:22.47	353.64	47.20	-24.0	-23.7	17.9	0.00e+00	0	43	0	789577728	9	3495
2026-01-03 14:28:24.47	353.34	46.59	-23.8	-23.9	18.0	0.00e+00	0	44	0	804257792	8	3635
2026-01-03 14:28:26.47	353.04	45.99	-23.9	-24.1	17.9	0.00e+00	0	44	0	818937856	8	3683
2026-01-03 14:28:28.46	352.77	45.41	-23.4	-23.0	18.4	0.00e+00	0	44	0	833617920	8	3439
2026-01-03 14:28:30.46	352.49	44.82	-23.1	-23.0	18.7	0.00e+00	0	44	0	847249408	7	3521
2026-01-03 14:28:32.44	352.24	44.26	-23.2	-23.0	18.6	0.00e+00	0	44	0	861929472	7	3545
2026-01-03 14:28:34.45	351.98	43.69	-23.4	-23.4	18.5	0.00e+00	0	44	0	876609536	7	3632
2026-01-03 14:28:36.45	351.74	43.13	-23.3	-23.2	18.5	0.00e+00	0	44	0	891289600	7	3580
2026-01-03 14:28:38.45	351.51	42.58	-23.3	-23.4	18.4	0.00e+00	0	44	0	904921088	7	3619
2026-01-03 14:28:40.45	351.28	42.03	-23.3	-23.4	18.4	0.00e+00	0	43	0	919601152	7	3625
2026-01-03 14:28:42.43	351.07	41.50	-23.3	-23.3	18.5	0.00e+00	0	44	0	934281216	7	3610
2026-01-03 14:28:44.42	350.86	40.97	-23.1	-22.9	18.7	0.00e+00	0	44	0	948961280	7	3522
2026-01-03 14:28:46.42	350.65	40.45	-23.2	-23.0	18.6	0.00e+00	0	44	0	962592768	7	3537
2026-01-03 14:28:48.42	350.46	39.94	-23.2	-23.0	18.5	0.00e+00	0	44	0	977272832	7	3540
2026-01-03 14:28:50.42	350.27	39.43	-23.4	-23.6	18.3	0.00e+00	0	44	0	991952896	7	3660
2026-01-03 14:28:52.40	350.08	38.93	-23.6	-24.0	18.1	0.00e+00	0	43	0	1006632960	7	3752
2026-01-03 14:28:54.40	349.90	38.44	-23.7	-24.2	18.1	0.00e+00	0	44	0	1020264448	7	3802
2026-01-03 14:28:56.41	349.73	37.95	-23.3	-23.2	18.5	0.00e+00	0	44	0	1034944512	7	3589
2026-01-03 14:28:58.41	349.56	37.47	-23.3	-23.2	18.5	0.00e+00	0	44	0	1049624576	7	3588
2026-01-03 14:29:00.41	349.40	37.00	-23.2	-23.1	18.6	0.00e+00	0	44	0	1064304640	7	3549
2026-01-03 14:29:02.41	349.24	36.53	-23.3	-23.3	18.5	0.00e+00	0	44	0	1077936128	7	3612
2026-01-03 14:29:04.42	349.09	36.07	-23.5	-23.7	18.3	0.00e+00	0	44	0	1092616192	7	3695
2026-01-03 14:29:06.42	348.94	35.61	-23.5	-23.8	18.2	0.00e+00	0	44	0	1107296256	7	3723
2026-01-03 14:29:08.42	348.79	35.16	-23.8	-24.4	17.8	0.00e+00	0	44	0	1121976320	7	3842
2026-01-03 14:29:10.41	348.65	34.72	-23.5	-23.8	18.2	0.00e+00	0	44	0	1135607808	7	3705
2026-01-03 14:29:12.41	348.51	34.29	-23.4	-23.5	18.3	0.00e+00	0	44	0	1150287872	7	3656
2026-01-03 14:29:14.41	348.38	33.86	-23.3	-23.2	18.5	0.00e+00	0	44	0	1164967936	7	3581
2026-01-03 14:29:16.40	348.25	33.43	-23.0	-22.7	18.7	0.00e+00	0	44	0	1179648000	7	3463
2026-01-03 14:29:18.40	348.13	33.01	-22.8	-22.8	18.9	0.00e+00	0	44	0	1193279488	6	3593
2026-01-03 14:29:20.39	348.00	32.60	-22.9	-23.0	18.8	0.00e+00	0	44	0	1207959552	6	3637
2026-01-03 14:29:22.39	347.89	32.19	-23.1	-23.3	18.6	0.00e+00	0	44	0	1222639616	6	3706
2026-01-03 14:29:24.38	347.77	31.79	-23.1	-23.4	18.6	0.00e+00	0	44	0	1237319680	6	3723
2026-01-03 14:29:26.39	347.66	31.39	-23.2	-23.6	18.5	0.00e+00	0	44	0	1251999744	6	3767
2026-01-03 14:29:28.39	347.55	31.00	-23.1	-23.3	18.6	0.00e+00	0	43	0	1265631232	6	3706
2026-01-03 14:29:30.40	347.44	30.61	-23.0	-23.3	18.6	0.00e+00	0	44	0	1280311296	6	3700
2026-01-03 14:29:32.40	347.33	30.23	-23.0	-23.3	18.6	0.00e+00	0	43	0	1294991360	6	3693
2026-01-03 14:29:34.41	347.23	29.85	-23.3	-23.7	18.4	0.00e+00	0	44	0	1309671424	6	3802
2026-01-03 14:29:36.41	347.13	29.48	-23.4	-23.9	18.3	0.00e+00	0	44	0	1323302912	6	3850
2026-01-03 14:29:38.43	347.03	29.11	-23.5	-24.2	18.1	0.00e+00	0	43	0	1339031552	6	3919
2026-01-03 14:29:40.42	346.94	28.75	-23.5	-23.8	18.1	0.00e+00	0	44	0	1352663040	7	3715
2026-01-03 14:29:42.40	346.85	28.39	-23.6	-24.0	18.0	0.00e+00	0	43	0	1367343104	7	3765
2026-01-03 14:29:44.40	346.76	28.04	-23.7	-24.1	17.9	0.00e+00	0	44	0	1380974592	7	3793
2026-01-03 14:29:46.39	346.67	27.69	-23.8	-24.3	17.8	0.00e+00	0	44	0	1395654656	7	3834
2026-01-03 14:29:48.40	346.58	27.34	-23.7	-24.1	17.9	0.00e+00	0	43	0	1410334720	7	3786
2026-01-03 14:29:50.40	346.50	27.00	-23.6	-24.0	17.9	0.00e+00	0	43	0	1425014784	7	3764
2026-01-03 14:29:52.39	346.42	26.67	-23.7	-24.2	17.9	0.00e+00	0	44	0	1439694848	7	3798
2026-01-03 14:29:54.38	346.34	26.34	-23.7	-24.2	17.9	0.00e+00	0	44	0	1453326336	7	3812
2026-01-03 14:29:56.38	346.26	26.01	-23.9	-24.5	17.6	0.00e+00	0	43	0	1468006400	7	3874
2026-01-03 14:29:58.37	346.18	25.69	-24.0	-24.9	17.5	0.00e+00	0	44	0	1482686464	7	3965
2026-01-03 14:30:00.37	346.11	25.37	-24.3	-25.0	17.2	0.00e+00	0	43	0	1496317952	8	3885
2026-01-03 14:30:02.39	346.03	25.04	-24.2	-24.2	17.3	0.00e+00	0	44	0	1510998016	9	3606
2026-01-03 14:30:04.41	345.96	24.73	-23.8	-24.0	17.7	0.00e+00	0	43	0	1525678080	8	3657
2026-01-03 14:30:06.42	345.89	24.42	-24.0	-24.3	17.6	0.00e+00	0	44	0	1540358144	8	3718
2026-01-03 14:30:08.43	345.82	24.11	-24.1	-24.5	17.4	0.00e+00	0	44	0	1555038208	8	3782
2026-01-03 14:30:10.44	345.75	23.81	-24.1	-24.5	17.4	0.00e+00	0	43	0	1569718272	8	3763
2026-01-03 14:30:12.45	345.69	23.50	-24.0	-24.3	17.5	0.00e+00	0	43	0	1584398336	8	3730
2026-01-03 14:30:14.47	345.62	23.21	-24.0	-24.3	17.5	0.00e+00	0	44	0	1598029824	8	3732
2026-01-03 14:30:16.48	345.56	22.91	-23.8	-23.9	17.7	0.00e+00	0	43	0	1612709888	8	3626
2026-01-03 14:30:18.49	345.49	22.62	-23.8	-23.8	17.7	0.00e+00	0	44	0	1627389952	8	3617
2026-01-03 14:30:20.51	345.43	22.33	-23.8	-23.9	17.6	0.00e+00	0	43	0	1642070016	8	3633
2026-01-03 14:30:22.51	345.37	22.05	-23.8	-23.8	17.7	0.00e+00	0	44	0	1656750080	8	3622
2026-01-03 14:30:24.52	345.32	21.77	-23.8	-23.9	17.7	0.00e+00	0	44	0	1671430144	8	3631
2026-01-03 14:30:26.53	345.26	21.49	-23.7	-23.8	17.7	0.00e+00	0	43	0	1686110208	8	3606
2026-01-03 14:30:28.55	345.20	21.22	-23.8	-23.9	17.7	0.00e+00	0	44	0	1699741696	8	3639
2026-01-03 14:30:30.56	345.15	20.94	-23.9	-24.0	17.6	0.00e+00	0	44	0	1714421760	8	3660
2026-01-03 14:30:32.57	345.09	20.67	-23.8	-24.0	17.6	0.00e+00	0	44	0	1729101824	8	3652
2026-01-03 14:30:34.58	345.04	20.41	-24.0	-24.2	17.5	0.00e+00	0	44	0	1743781888	8	3707
2026-01-03 14:30:36.59	344.99	20.14	-24.0	-24.3	17.5	0.00e+00	0	43	0	1758461952	8	3717
2026-01-03 14:30:38.61	344.94	19.88	-24.1	-24.6	17.3	0.00e+00	0	44	0	1773142016	8	3792
2026-01-03 14:30:40.61	344.89	19.63	-24.1	-24.5	17.3	0.00e+00	0	44	0	1786773504	8	3764
2026-01-03 14:30:42.61	344.84	19.37	-24.1	-24.6	17.1	0.00e+00	0	44	0	1801453568	8	3787
2026-01-03 14:30:44.62	344.79	19.12	-24.1	-24.5	17.2	0.00e+00	0	44	0	1816133632	8	3778
2026-01-03 14:30:46.63	344.75	18.87	-24.1	-24.6	17.2	0.00e+00	0	44	0	1830813696	8	3795
2026-01-03 14:30:48.64	344.70	18.62	-24.1	-24.6	17.2	0.00e+00	0	44	0	1845493760	8	3807
2026-01-03 14:30:50.66	344.65	18.37	-24.2	-24.8	17.1	0.00e+00	0	44	0	1860173824	8	3845
2026-01-03 14:30:52.67	344.61	18.13	-24.2	-24.8	17.1	0.00e+00	0	44	0	1874853888	8	3838
2026-01-03 14:30:54.69	344.57	17.89	-24.3	-25.0	17.0	0.00e+00	0	44	0	1888485376	8	3894
2026-01-03 14:30:56.70	344.52	17.65	-24.3	-25.0	17.0	0.00e+00	0	44	0	1903165440	8	3903
2026-01-03 14:30:58.71	344.48	17.41	-24.4	-25.1	16.9	0.00e+00	0	44	0	1917845504	8	3929
2026-01-03 14:31:00.72	344.44	17.18	-24.4	-25.1	16.9	0.00e+00	0	43	0	1932525568	8	3921
2026-01-03 14:31:02.73	344.40	16.95	-24.5	-25.3	16.8	0.00e+00	0	44	0	1947205632	8	3962
2026-01-03 14:31:04.75	344.36	16.72	-24.5	-25.4	16.7	0.00e+00	0	44	0	1961885696	8	3994
2026-01-03 14:31:06.76	344.32	16.49	-24.6	-25.1	16.6	0.00e+00	0	44	0	1975517184	9	3817
2026-01-03 14:31:08.76	344.28	16.27	-24.8	-25.4	16.4	0.00e+00	0	44	0	1990197248	9	3897
2026-01-03 14:31:10.77	344.25	16.04	-24.7	-25.3	16.5	0.00e+00	0	44	0	2004877312	9	3849
2026-01-03 14:31:12.78	344.21	15.82	-24.8	-25.5	16.4	0.00e+00	0	44	0	2019557376	9	3914
2026-01-03 14:31:14.79	344.17	15.60	-24.9	-25.8	16.2	0.00e+00	0	44	0	2034237440	9	3993
2026-01-03 14:31:16.80	344.14	15.39	-25.2	-25.8	15.9	0.00e+00	0	44	0	2048917504	10	3887
2026-01-03 14:31:18.81	344.10	15.17	-25.4	-26.4	15.6	0.00e+00	0	44	0	2062548992	10	4021
2026-01-03 14:31:20.82	344.07	14.96	-25.4	-26.4	15.6	0.00e+00	0	44	0	2077229056	10	4027
2026-01-03 14:31:22.84	344.04	14.74	-25.4	-26.2	15.7	0.00e+00	0	44	0	2091909120	10	3978
2026-01-03 14:31:24.86	344.00	14.53	-25.4	-26.4	15.6	0.00e+00	0	43	0	2106589184	10	4012
2026-01-03 14:31:26.87	343.97	14.33	-25.6	-26.3	15.3	0.00e+00	0	44	0	2121269248	11	3898
2026-01-03 14:31:28.88	343.94	14.12	-25.4	-25.9	15.6	0.00e+00	0	44	0	2135949312	11	3791
2026-01-03 14:31:30.89	343.91	13.91	-25.4	-25.9	15.6	0.00e+00	0	44	0	2150629376	11	3790
2026-01-03 14:31:32.90	343.88	13.71	-25.6	-26.4	15.3	0.00e+00	0	44	0	2164260864	11	3909
2026-01-03 14:31:34.92	343.85	13.51	-25.4	-25.8	15.5	0.00e+00	0	44	0	2178940928	11	3771
2026-01-03 14:31:36.92	343.82	13.31	-25.5	-25.9	15.5	0.00e+00	0	44	0	2193620992	11	3805
2026-01-03 14:31:38.93	343.79	13.11	-25.5	-26.0	15.4	0.00e+00	0	44	0	2208301056	11	3820
2026-01-03 14:31:40.94	343.76	12.92	-25.5	-26.1	15.4	0.00e+00	0	44	0	2222981120	11	3854
2026-01-03 14:31:42.96	343.73	12.72	-25.5	-26.0	15.4	0.00e+00	0	44	0	2237661184	11	3817
2026-01-03 14:31:44.97	343.70	12.53	-25.6	-26.2	15.3	0.00e+00	0	44	0	2251292672	11	3870
2026-01-03 14:31:46.99	343.67	12.34	-25.6	-26.3	15.3	0.00e+00	0	44	0	2265972736	11	3885
2026-01-03 14:31:49.00	343.65	12.15	-25.6	-26.3	15.3	0.00e+00	0	44	0	2280652800	11	3895
2026-01-03 14:31:51.02	343.62	11.96	-25.7	-26.4	15.2	0.00e+00	0	44	0	2295332864	11	3916
2026-01-03 14:31:53.03	343.59	11.77	-25.8	-26.8	15.0	0.00e+00	0	44	0	2310012928	11	4009
2026-01-03 14:31:55.03	343.57	11.58	-25.7	-26.5	15.1	0.00e+00	0	43	0	2324692992	11	3939
2026-01-03 14:31:57.04	343.54	11.40	-25.7	-26.5	15.1	0.00e+00	0	44	0	2339373056	11	3933
2026-01-03 14:31:59.05	343.52	11.22	-25.7	-26.6	15.1	0.00e+00	0	44	0	2353004544	11	3965
2026-01-03 14:32:01.02	343.50	11.04	-25.8	-26.7	15.0	0.00e+00	0	44	0	2367684608	11	3986
2026-01-03 14:32:03.03	343.47	10.86	-25.9	-26.9	14.9	0.00e+00	0	44	0	2382364672	11	4056
2026-01-03 14:32:05.05	343.45	10.68	-25.8	-26.7	15.0	0.00e+00	0	44	0	2397044736	11	4000
2026-01-03 14:32:07.06	343.42	10.50	-25.9	-27.0	14.8	0.00e+00	0	44	0	2410676224	11	4062
2026-01-03 14:32:09.07	343.40	10.32	-26.1	-26.9	14.4	1.10e-06	0	44	0	2425356288	12	3951
2026-01-03 14:32:11.08	343.38	10.15	-26.2	-27.1	14.3	0.00e+00	0	44	0	2440036352	12	4003
2026-01-03 14:32:13.09	343.36	9.97	-26.3	-27.4	14.2	2.20e-06	0	44	0	2454716416	12	4069
2026-01-03 14:32:15.10	343.34	9.80	-26.3	-27.4	14.1	1.10e-06	0	44	0	2469396480	12	4087
2026-01-03 14:32:17.11	343.31	9.63	-26.3	-27.4	14.1	3.40e-06	0	44	0	2484076544	12	4084
2026-01-03 14:32:19.12	343.29	9.46	-26.3	-27.3	14.2	0.00e+00	0	44	0	2498756608	12	4062
2026-01-03 14:32:21.14	343.27	9.29	-26.2	-27.2	14.2	2.20e-06	0	44	0	2513436672	12	4034
2026-01-03 14:32:23.15	343.25	9.12	-26.2	-27.1	14.3	2.20e-06	0	44	0	2527068160	12	3996
2026-01-03 14:32:25.16	343.23	8.95	-26.4	-27.7	13.9	3.40e-06	0	44	0	2541748224	12	4164
2026-01-03 14:32:27.17	343.21	8.79	-26.1	-27.0	14.3	0.00e+00	0	44	0	2556428288	12	3983
2026-01-03 14:32:29.18	343.19	8.62	-26.3	-27.3	14.1	4.50e-06	0	44	0	2571108352	12	4052
2026-01-03 14:32:31.19	343.17	8.46	-26.2	-27.3	14.1	1.10e-06	0	44	0	2585788416	12	4049
2026-01-03 14:32:33.19	343.16	8.30	-26.3	-27.4	14.0	2.20e-06	0	44	0	2600468480	12	4077
2026-01-03 14:32:35.20	343.14	8.14	-26.4	-27.6	13.9	3.40e-06	0	43	0	2614099968	12	4130
2026-01-03 14:32:37.21	343.12	7.97	-26.5	-27.8	13.8	8.00e-06	0	44	0	2628780032	12	4183
2026-01-03 14:32:39.23	343.10	7.81	-26.5	-27.8	13.7	6.80e-06	0	44	0	2643460096	12	4202
2026-01-03 14:32:41.24	343.08	7.66	-26.6	-27.6	13.6	1.48e-05	0	44	0	2658140160	13	4027
2026-01-03 14:32:43.25	343.07	7.50	-26.6	-27.5	13.6	6.80e-06	0	44	0	2672820224	13	4006
2026-01-03 14:32:45.27	343.05	7.34	-26.8	-28.0	13.3	1.71e-05	0	44	0	2686451712	13	4142
2026-01-03 14:32:47.28	343.03	7.18	-26.7	-27.9	13.3	1.83e-05	0	44	0	2702180352	13	4120
2026-01-03 14:32:49.29	343.02	7.03	-32.9	-41.7	3.8	7.93e-01	0	44	104	2713714688	25	9964
2026-01-03 14:32:51.30	343.00	6.88	-33.6	-43.5	3.8	8.45e-01	0	44	104	2713714688	26	11296

#Closed at: 2026-01-03 14:32:51
#Recorded file [2713 MB]: D:/data/31010_260103_172632.dat