passes_logs/2026/01/03/R2M6_AANII_01/R2M6_AANII_01__20260103_002022_NOAA_20_JPSS-1_rec.log

#Pass ID: 20260103_002022_NOAA 20 (JPSS-1)
#Satellite: NOAA 20 (JPSS-1)
#Configuration: NOAA 20
#almurnet v.1.7.20240730
#Start time: 2026-01-03 00:20:22

#Version: 2.2.20231116
#Station: R2M6_AANII_01
#Location: 30.233357 lon 59.946436 lat
#TLE: 1 43013U 17073A   26002.21975278  .00000202  00000+0  11669-3 0  9999
#TLE: 2 43013  98.7622 303.2950 0001915  57.9213 302.2149 14.19532512420923

#Time	Az	El	Level	Level2	SNR	BER	BlckErr	Temp	State	Recorded	gain1	gain2
2026-01-03 00:20:22.33	18.13	7.02	-31.4	-38.9	4.7	1.35e+00	0	41	0	0	22	8605
2026-01-03 00:20:25.34	18.15	7.25	-31.7	-40.1	5.6	4.34e-01	0	41	0	1048576	23	9488
2026-01-03 00:20:28.36	18.16	7.49	-31.5	-38.9	6.3	2.99e-01	0	41	0	7340032	23	8398
2026-01-03 00:20:31.38	18.17	7.72	-31.1	-37.6	8.0	7.95e-02	0	41	0	12582912	21	7630
2026-01-03 00:20:34.40	18.18	7.96	-30.9	-36.6	8.9	3.09e-02	0	41	0	18874368	21	6984
2026-01-03 00:20:37.41	18.19	8.21	-30.9	-36.7	8.9	2.57e-02	0	41	0	24117248	21	7012
2026-01-03 00:20:40.42	18.21	8.45	-31.1	-36.8	8.6	3.51e-02	0	41	0	29360128	22	6930
2026-01-03 00:20:43.43	18.22	8.69	-31.1	-36.8	8.6	3.69e-02	0	41	0	35651584	22	6944
2026-01-03 00:20:46.45	18.23	8.94	-31.0	-36.5	8.9	2.91e-02	0	41	0	40894464	22	6743
2026-01-03 00:20:49.47	18.24	9.20	-31.0	-36.8	9.0	2.48e-02	0	41	0	46137344	21	7017
2026-01-03 00:20:52.49	18.25	9.45	-31.0	-36.3	9.0	3.06e-02	0	42	0	52428800	22	6631
2026-01-03 00:20:55.50	18.27	9.71	-30.5	-34.8	10.5	5.59e-03	0	42	0	57671680	21	5956
2026-01-03 00:20:58.51	18.28	9.96	-30.3	-34.8	11.0	2.71e-03	0	42	0	63963136	20	6038
2026-01-03 00:21:01.53	18.29	10.23	-30.3	-34.7	11.1	2.24e-03	0	42	0	69206016	20	5986
2026-01-03 00:21:04.55	18.30	10.49	-30.2	-34.3	11.3	9.41e-04	0	42	0	74448896	20	5790
2026-01-03 00:21:07.57	18.31	10.76	-30.3	-34.8	11.0	1.43e-03	0	42	0	80740352	20	6025
2026-01-03 00:21:10.58	18.32	11.03	-30.1	-34.1	11.6	6.99e-04	0	42	0	85983232	20	5681
2026-01-03 00:21:13.60	18.34	11.30	-30.0	-33.7	11.9	1.33e-03	0	42	0	92274688	20	5513
2026-01-03 00:21:16.62	18.35	11.58	-30.0	-34.1	12.1	9.95e-04	0	42	0	97517568	19	5767
2026-01-03 00:21:19.64	18.36	11.86	-30.0	-33.6	12.0	1.42e-03	0	42	0	102760448	20	5468
2026-01-03 00:21:22.66	18.37	12.14	-30.0	-33.7	12.0	1.64e-03	0	42	0	109051904	20	5502
2026-01-03 00:21:25.67	18.38	12.43	-30.0	-34.0	12.1	1.09e-03	0	42	0	114294784	19	5739
2026-01-03 00:21:28.69	18.39	12.72	-30.0	-33.7	12.0	1.34e-03	0	42	0	120586240	20	5494
2026-01-03 00:21:31.71	18.40	13.01	-29.9	-33.4	12.2	4.08e-04	0	42	0	125829120	20	5394
2026-01-03 00:21:34.72	18.42	13.31	-29.9	-33.7	12.4	8.67e-04	0	42	0	131072000	19	5614
2026-01-03 00:21:37.73	18.43	13.61	-29.9	-33.4	12.2	1.32e-03	0	42	0	137363456	20	5378
2026-01-03 00:21:40.74	18.44	13.92	-29.8	-33.6	12.5	1.38e-03	0	42	0	142606336	19	5559
2026-01-03 00:21:43.76	18.45	14.22	-29.8	-33.4	12.6	1.44e-03	0	42	0	148897792	19	5464
2026-01-03 00:21:46.78	18.46	14.54	-29.8	-33.4	12.7	1.17e-03	0	42	0	154140672	19	5464
2026-01-03 00:21:49.80	18.47	14.85	-29.8	-33.5	12.6	1.23e-03	0	42	0	159383552	19	5523
2026-01-03 00:21:52.81	18.48	15.17	-29.8	-33.3	12.7	1.16e-03	0	42	0	165675008	19	5431
2026-01-03 00:21:55.83	18.50	15.50	-29.5	-32.6	13.3	1.52e-05	0	42	0	170917888	19	5126
2026-01-03 00:21:58.84	18.51	15.83	-29.5	-32.4	13.4	1.67e-05	0	42	0	177209344	19	5074
2026-01-03 00:22:01.86	18.52	16.16	-29.6	-32.8	13.2	1.37e-05	0	42	0	182452224	19	5197
2026-01-03 00:22:04.87	18.53	16.50	-29.6	-32.7	13.3	9.85e-04	0	43	0	187695104	19	5169
2026-01-03 00:22:07.89	18.54	16.84	-29.6	-32.7	13.3	1.04e-03	0	42	0	193986560	19	5152
2026-01-03 00:22:10.90	18.55	17.19	-29.7	-33.1	13.1	8.14e-04	0	42	0	199229440	19	5306
2026-01-03 00:22:13.92	18.56	17.54	-29.6	-32.8	13.3	6.79e-04	0	43	0	204472320	19	5190
2026-01-03 00:22:16.93	18.57	17.90	-29.6	-32.9	13.2	1.06e-05	0	42	0	210763776	19	5229
2026-01-03 00:22:19.95	18.58	18.27	-29.8	-33.3	13.0	3.43e-05	0	43	0	216006656	19	5382
2026-01-03 00:22:22.98	18.60	18.64	-29.4	-32.8	13.6	6.80e-06	0	42	0	222298112	18	5289
2026-01-03 00:22:25.98	18.61	19.01	-29.8	-33.3	12.1	2.97e-05	0	43	0	227540992	19	5382
2026-01-03 00:22:28.98	18.62	19.39	-29.4	-32.6	12.9	3.00e-06	0	43	0	232783872	18	5205
2026-01-03 00:22:31.99	18.63	19.77	-29.4	-32.6	13.8	2.46e-03	0	43	0	239075328	18	5224
2026-01-03 00:22:35.01	18.64	20.17	-29.2	-32.2	14.1	4.41e-04	0	43	0	244318208	18	5056
2026-01-03 00:22:38.02	18.65	20.56	-29.1	-31.9	14.3	5.68e-04	0	43	0	250609664	18	4941
2026-01-03 00:22:41.04	18.66	20.97	-29.0	-32.0	14.5	7.00e-07	0	43	0	255852544	17	5104
2026-01-03 00:22:44.05	18.67	21.38	-28.9	-31.9	14.6	1.50e-06	0	43	0	261095424	17	5062
2026-01-03 00:22:47.06	18.68	21.80	-28.9	-31.9	14.6	0.00e+00	0	43	0	267386880	17	5069
2026-01-03 00:22:50.08	18.69	22.23	-29.1	-31.8	14.4	2.32e-03	0	43	0	272629760	18	4912
2026-01-03 00:22:53.10	18.70	22.66	-29.2	-32.0	14.3	2.16e-03	0	43	0	278921216	18	4985
2026-01-03 00:22:56.11	18.71	23.10	-29.3	-32.3	14.2	2.04e-03	0	43	0	284164096	18	5087
2026-01-03 00:22:59.13	18.72	23.55	-29.3	-32.3	14.1	2.35e-03	0	43	0	289406976	18	5098
2026-01-03 00:23:02.14	18.73	24.00	-29.5	-32.7	13.9	2.21e-03	0	43	0	295698432	18	5252
2026-01-03 00:23:05.16	18.74	24.47	-29.9	-33.3	13.2	2.09e-03	0	43	0	300941312	19	5365
2026-01-03 00:23:08.19	18.75	24.94	-29.9	-33.4	13.1	2.41e-03	0	43	0	307232768	19	5405
2026-01-03 00:23:11.20	18.76	25.42	-29.9	-33.5	13.1	2.32e-03	0	43	0	312475648	19	5421
2026-01-03 00:23:14.22	18.77	25.91	-30.0	-33.1	13.0	2.25e-03	0	43	0	317718528	20	5185
2026-01-03 00:23:17.24	18.78	26.41	-30.3	-34.1	12.3	2.59e-03	0	43	0	324009984	20	5570
2026-01-03 00:23:20.25	18.79	26.92	-30.7	-34.8	11.5	3.05e-03	0	43	0	329252864	21	5786
2026-01-03 00:23:23.27	18.80	27.44	-31.0	-35.6	10.9	2.21e-03	0	43	0	334495744	21	6148
2026-01-03 00:23:26.28	18.81	27.97	-31.1	-35.6	10.6	3.39e-03	0	43	0	340787200	22	6062
2026-01-03 00:23:29.30	18.82	28.51	-30.8	-35.2	11.2	1.49e-03	0	43	0	346030080	21	5947
2026-01-03 00:23:32.32	18.83	29.06	-30.9	-35.3	11.2	1.40e-03	0	43	0	352321536	21	5981
2026-01-03 00:23:35.35	18.84	29.62	-30.9	-35.6	11.0	1.75e-03	0	43	0	357564416	21	6122
2026-01-03 00:23:38.36	18.85	30.20	-31.1	-35.5	10.8	2.93e-03	0	43	0	362807296	22	5953
2026-01-03 00:23:41.38	18.86	30.78	-31.1	-35.6	10.7	3.60e-03	0	43	0	369098752	22	6032
2026-01-03 00:23:44.40	18.87	31.38	-31.1	-35.3	10.8	2.51e-03	0	43	0	374341632	22	5890
2026-01-03 00:23:47.43	18.88	31.99	-31.1	-35.3	10.9	2.13e-03	0	43	0	380633088	22	5882
2026-01-03 00:23:50.44	18.89	32.61	-29.8	-34.1	11.4	9.29e-04	0	43	0	385875968	21	5894
2026-01-03 00:23:53.45	18.90	33.24	-30.9	-35.3	10.6	9.53e-04	0	43	0	391118848	21	6003
2026-01-03 00:23:56.47	18.91	33.89	-30.4	-34.4	12.1	3.04e-04	0	43	0	397410304	20	5661
2026-01-03 00:23:59.48	18.92	34.55	-29.8	-33.0	13.6	1.22e-05	0	43	0	402653184	19	5213
2026-01-03 00:24:02.49	18.93	35.23	-29.8	-32.9	13.7	2.18e-03	0	43	0	408944640	19	5180
2026-01-03 00:24:05.51	18.94	35.92	-29.3	-32.2	14.5	2.05e-03	0	43	0	414187520	18	5014
2026-01-03 00:24:08.52	18.94	36.62	-29.2	-31.9	14.6	0.00e+00	0	43	0	419430400	18	4911
2026-01-03 00:24:11.54	18.95	37.35	-29.0	-31.5	14.9	0.00e+00	0	43	0	425721856	18	4800
2026-01-03 00:24:14.56	18.96	38.09	-29.0	-31.3	15.0	0.00e+00	0	43	0	430964736	18	4727
2026-01-03 00:24:17.57	18.97	38.84	-28.8	-31.5	15.2	7.00e-07	0	43	0	437256192	17	4882
2026-01-03 00:24:20.58	18.98	39.61	-28.8	-31.5	15.2	1.89e-03	0	43	0	442499072	17	4885
2026-01-03 00:24:23.59	18.99	40.40	-28.3	-30.8	16.0	1.76e-03	0	43	0	447741952	16	4777
2026-01-03 00:24:26.60	18.99	41.20	-28.5	-30.8	15.6	1.75e-03	0	43	0	454033408	17	4660
2026-01-03 00:24:29.62	19.00	42.03	-29.0	-31.8	15.1	1.76e-03	0	43	0	459276288	17	4995
2026-01-03 00:24:32.63	19.01	42.87	-29.2	-31.9	14.7	1.72e-03	0	43	0	465567744	18	4919
2026-01-03 00:24:35.64	19.01	43.74	-29.3	-32.2	14.5	0.00e+00	0	43	0	470810624	18	5016
2026-01-03 00:24:38.66	19.02	44.62	-29.6	-32.5	14.0	1.82e-03	0	43	0	476053504	19	5005
2026-01-03 00:24:41.68	19.03	45.53	-30.2	-33.7	12.9	1.63e-03	0	43	0	482344960	20	5378
2026-01-03 00:24:44.69	19.03	46.45	-30.6	-34.3	12.2	1.83e-03	0	43	0	487587840	21	5505
2026-01-03 00:24:47.69	19.04	47.39	-30.6	-34.3	12.1	1.61e-03	0	43	0	493879296	21	5515
2026-01-03 00:24:50.70	19.04	48.36	-30.6	-34.2	12.2	1.64e-03	0	43	0	499122176	21	5459
2026-01-03 00:24:53.72	19.05	49.35	-30.7	-34.5	12.0	3.54e-04	0	43	0	504365056	21	5568
2026-01-03 00:24:56.73	19.05	50.36	-30.6	-34.3	12.1	2.63e-04	0	43	0	510656512	21	5515
2026-01-03 00:24:59.75	19.06	51.40	-28.8	-30.4	15.4	0.00e+00	0	43	0	515899392	19	4315
2026-01-03 00:25:02.76	19.06	52.46	-28.3	-30.8	16.1	0.00e+00	0	43	0	521142272	16	4755
2026-01-03 00:25:05.77	19.06	53.54	-28.4	-30.8	16.1	3.19e-04	0	43	0	527433728	16	4767
2026-01-03 00:25:08.78	19.07	54.64	-28.9	-31.7	15.3	3.53e-04	0	43	0	532676608	17	4936
2026-01-03 00:25:11.80	19.07	55.77	-29.1	-31.6	15.0	0.00e+00	0	43	0	538968064	18	4795
2026-01-03 00:25:14.82	19.07	56.93	-29.5	-32.0	14.3	7.00e-07	0	43	0	544210944	19	4840
2026-01-03 00:25:17.83	19.07	58.11	-29.6	-32.5	14.2	1.50e-06	0	43	0	549453824	19	4985
2026-01-03 00:25:20.83	19.07	59.30	-29.6	-32.3	14.2	7.00e-07	0	43	0	555745280	19	4937
2026-01-03 00:25:23.84	19.06	60.53	-29.0	-31.0	15.1	0.00e+00	0	43	0	560988160	19	4487
2026-01-03 00:25:26.86	19.06	61.78	-27.8	-28.9	16.9	0.00e+00	0	43	0	567279616	17	4089
2026-01-03 00:25:29.88	19.06	63.06	-26.8	-28.3	17.9	0.00e+00	0	43	0	572522496	14	4250
2026-01-03 00:25:32.90	19.05	64.36	-27.8	-29.9	16.7	0.00e+00	0	43	0	577765376	15	4613
2026-01-03 00:25:35.91	19.04	65.68	-29.3	-32.2	14.7	0.00e+00	0	43	0	584056832	18	4986
2026-01-03 00:25:38.91	19.03	67.01	-29.8	-32.9	13.9	2.20e-06	0	43	0	589299712	19	5122
2026-01-03 00:25:41.93	19.01	68.38	-30.1	-33.3	13.3	1.06e-05	0	43	0	595591168	20	5180
2026-01-03 00:25:44.96	18.99	69.77	-30.2	-33.4	13.3	1.98e-05	0	43	0	600834048	20	5220
2026-01-03 00:25:47.97	18.97	71.18	-29.9	-32.6	13.8	5.30e-06	0	43	0	606076928	20	4929
2026-01-03 00:25:50.99	18.93	72.61	-31.1	-35.2	11.4	7.39e-04	0	43	0	612368384	22	5744
2026-01-03 00:25:54.01	18.90	74.06	-31.2	-35.4	11.2	1.59e-03	0	43	0	617611264	22	5832
2026-01-03 00:25:57.02	18.85	75.52	-30.7	-34.4	12.3	1.53e-04	0	43	0	623902720	21	5504
2026-01-03 00:26:00.03	18.78	77.00	-30.7	-34.3	12.4	1.52e-04	0	43	0	629145600	21	5453
2026-01-03 00:26:03.05	18.70	78.49	-30.6	-33.7	12.4	2.78e-04	0	43	0	634388480	22	5101
2026-01-03 00:26:06.07	18.58	80.00	-30.3	-33.9	13.0	1.90e-05	0	43	0	640679936	20	5394
2026-01-03 00:26:09.08	18.43	81.52	-31.3	-35.8	11.1	5.25e-04	0	43	0	645922816	22	6005
2026-01-03 00:26:12.11	18.19	83.06	-31.8	-36.6	9.6	2.38e-02	0	43	0	651165696	24	6225
2026-01-03 00:26:15.12	17.82	84.59	-30.9	-34.0	11.9	3.67e-04	0	43	0	657457152	23	5145
2026-01-03 00:26:18.13	17.14	86.14	-31.3	-35.9	10.9	1.39e-03	0	43	0	662700032	22	6101
2026-01-03 00:26:21.15	15.52	87.69	-31.0	-34.3	11.7	1.78e-03	0	43	0	668991488	23	5271
2026-01-03 00:26:24.16	7.41	89.23	-28.6	-30.2	16.0	0.00e+00	0	43	0	674234368	18	4354
2026-01-03 00:26:27.18	211.14	89.18	-33.4	-45.1	4.1	4.47e-01	0	43	0	679477248	26	13819
2026-01-03 00:26:30.20	203.57	87.64	-33.6	-46.6	3.8	1.49e+00	0	43	104	679477248	27	16106
2026-01-03 00:26:33.22	202.00	86.09	-33.6	-47.7	3.8	1.49e+00	0	43	104	679477248	27	18268
2026-01-03 00:26:36.24	201.33	84.54	-33.6	-47.8	3.8	1.49e+00	0	43	104	679477248	27	18490
2026-01-03 00:26:39.25	200.97	83.01	-33.6	-47.8	3.8	1.49e+00	0	43	104	679477248	27	18463
2026-01-03 00:26:42.28	200.73	81.47	-33.6	-47.8	3.8	1.49e+00	0	43	104	679477248	27	18432
2026-01-03 00:26:45.29	200.58	79.95	-33.6	-47.8	3.8	1.49e+00	0	43	104	679477248	27	18392
2026-01-03 00:26:48.31	200.47	78.44	-33.6	-47.8	3.8	1.49e+00	0	43	104	679477248	27	18431
2026-01-03 00:26:51.33	200.38	76.94	-33.6	-47.7	3.8	1.49e+00	0	43	104	679477248	27	18382
2026-01-03 00:26:54.35	200.32	75.46	-33.6	-47.7	3.8	1.49e+00	0	43	104	679477248	27	18394
2026-01-03 00:26:57.37	200.27	73.99	-33.5	-47.7	3.8	1.49e+00	0	43	104	679477248	27	18448
2026-01-03 00:27:00.38	200.23	72.54	-33.5	-47.7	3.8	1.49e+00	0	43	104	679477248	27	18340
2026-01-03 00:27:03.40	200.20	71.11	-33.5	-47.7	3.8	1.49e+00	0	43	104	679477248	27	18304
2026-01-03 00:27:06.42	200.17	69.70	-33.5	-47.7	3.8	1.49e+00	0	43	104	679477248	27	18352
2026-01-03 00:27:09.45	200.15	68.30	-33.5	-47.7	3.8	1.49e+00	0	43	104	679477248	27	18390
2026-01-03 00:27:12.47	200.14	66.93	-33.6	-47.7	3.8	1.49e+00	0	43	104	679477248	27	18328
2026-01-03 00:27:15.47	200.13	65.59	-33.5	-47.7	3.8	1.49e+00	0	43	104	679477248	27	18324
2026-01-03 00:27:18.48	200.12	64.27	-33.5	-47.6	3.8	1.49e+00	0	43	104	679477248	27	18268
2026-01-03 00:27:21.49	200.11	62.97	-33.5	-47.7	3.8	1.49e+00	0	43	104	679477248	27	18293
2026-01-03 00:27:24.51	200.10	61.70	-33.5	-47.6	3.8	1.49e+00	0	43	104	679477248	27	18274
2026-01-03 00:27:27.53	200.10	60.44	-33.5	-47.7	3.8	1.49e+00	0	43	104	679477248	27	18299
2026-01-03 00:27:30.55	200.09	59.21	-33.5	-47.7	3.8	1.49e+00	0	43	104	679477248	27	18316
2026-01-03 00:27:33.57	200.09	58.00	-33.5	-47.6	3.8	1.49e+00	0	43	104	679477248	27	18288
2026-01-03 00:27:36.59	200.09	56.82	-33.5	-47.6	3.8	1.49e+00	0	43	104	679477248	27	18290
2026-01-03 00:27:39.61	200.09	55.66	-33.5	-47.6	3.8	1.49e+00	0	43	104	679477248	27	18239
2026-01-03 00:27:42.63	200.09	54.53	-33.5	-47.6	3.8	1.49e+00	0	43	104	679477248	27	18258
2026-01-03 00:27:45.65	200.09	53.42	-33.5	-47.6	3.8	1.49e+00	0	43	104	679477248	27	18254
2026-01-03 00:27:48.67	200.10	52.33	-33.5	-47.6	3.8	1.49e+00	0	43	104	679477248	27	18223
2026-01-03 00:27:51.69	200.10	51.27	-33.5	-47.6	3.8	1.49e+00	0	43	104	679477248	27	18253
2026-01-03 00:27:54.70	200.10	50.24	-33.5	-47.6	3.8	1.49e+00	0	43	104	679477248	27	18234
2026-01-03 00:27:57.72	200.11	49.22	-33.5	-47.6	3.8	1.49e+00	0	43	104	679477248	27	18227
2026-01-03 00:28:00.73	200.11	48.23	-33.5	-47.6	3.8	1.49e+00	0	44	104	679477248	27	18215
2026-01-03 00:28:03.74	200.12	47.26	-33.5	-47.6	3.8	1.49e+00	0	43	104	679477248	27	18192
2026-01-03 00:28:06.75	200.12	46.32	-33.5	-48.0	3.8	1.49e+00	0	43	104	679477248	26	19266
2026-01-03 00:28:09.77	200.13	45.39	-33.5	-48.0	3.8	1.49e+00	0	43	104	679477248	26	19215
2026-01-03 00:28:12.78	200.13	44.48	-33.5	-48.0	3.8	1.49e+00	0	43	104	679477248	26	19221
2026-01-03 00:28:15.79	200.14	43.60	-33.5	-48.0	3.8	1.49e+00	0	43	104	679477248	26	19239
2026-01-03 00:28:18.81	200.14	42.73	-33.5	-48.0	3.8	1.49e+00	0	43	104	679477248	26	19199
2026-01-03 00:28:21.82	200.15	41.89	-33.4	-47.9	3.8	1.49e+00	0	43	104	679477248	26	19158
2026-01-03 00:28:24.84	200.16	41.06	-33.4	-47.9	3.8	1.49e+00	0	43	104	679477248	26	19139
2026-01-03 00:28:27.87	200.16	40.25	-33.4	-47.9	3.8	1.49e+00	0	43	104	679477248	26	19169
2026-01-03 00:28:30.88	200.17	39.46	-33.4	-47.9	3.8	1.49e+00	0	43	104	679477248	26	19087
2026-01-03 00:28:33.90	200.18	38.68	-33.4	-47.9	3.8	1.49e+00	0	43	104	679477248	26	19072
2026-01-03 00:28:36.92	200.18	37.93	-33.4	-47.9	3.8	1.49e+00	0	43	104	679477248	26	19063
2026-01-03 00:28:39.94	200.19	37.19	-33.4	-47.8	3.8	1.49e+00	0	43	104	679477248	26	18989
2026-01-03 00:28:42.95	200.20	36.46	-33.4	-47.8	3.8	1.49e+00	0	43	104	679477248	26	19032
2026-01-03 00:28:45.97	200.21	35.76	-33.4	-47.8	3.8	1.49e+00	0	43	104	679477248	26	18993
2026-01-03 00:28:48.99	200.21	35.06	-33.3	-47.8	3.8	1.49e+00	0	43	104	679477248	26	18998
2026-01-03 00:28:52.01	200.22	34.38	-33.3	-47.7	3.8	1.49e+00	0	43	104	679477248	26	18916
2026-01-03 00:28:55.03	200.23	33.72	-33.3	-47.8	3.8	1.49e+00	0	43	104	679477248	26	18954
2026-01-03 00:28:58.05	200.24	33.07	-33.3	-47.7	3.8	1.49e+00	0	44	104	679477248	26	18871
2026-01-03 00:29:01.07	200.24	32.44	-33.3	-47.8	3.8	1.49e+00	0	43	104	679477248	26	18977
2026-01-03 00:29:04.07	200.25	31.82	-33.3	-47.7	3.8	1.49e+00	0	43	104	679477248	26	18951
2026-01-03 00:29:07.08	200.26	31.21	-33.3	-47.7	3.8	1.49e+00	0	43	104	679477248	26	18861
2026-01-03 00:29:10.09	200.27	30.61	-33.3	-47.7	3.8	1.49e+00	0	43	104	679477248	26	18835
2026-01-03 00:29:13.12	200.28	30.03	-33.3	-47.6	3.8	1.49e+00	0	43	104	679477248	26	18805
2026-01-03 00:29:16.14	200.28	29.45	-33.3	-47.6	3.8	1.49e+00	0	43	104	679477248	26	18792
2026-01-03 00:29:19.15	200.29	28.89	-33.2	-47.6	3.8	1.49e+00	0	43	104	679477248	26	18802
2026-01-03 00:29:22.17	200.30	28.34	-33.2	-47.6	3.8	1.49e+00	0	43	104	679477248	26	18784
2026-01-03 00:29:25.20	200.31	27.80	-33.2	-47.5	3.8	1.49e+00	0	43	104	679477248	26	18745
2026-01-03 00:29:28.20	200.32	27.27	-33.2	-47.5	3.8	1.49e+00	0	43	104	679477248	26	18742
2026-01-03 00:29:31.22	200.33	26.75	-33.2	-47.5	3.8	1.49e+00	0	43	104	679477248	26	18699
2026-01-03 00:29:34.24	200.33	26.24	-33.2	-47.5	3.8	1.49e+00	0	43	104	679477248	26	18695
2026-01-03 00:29:37.27	200.34	25.74	-33.2	-47.5	3.8	1.49e+00	0	43	104	679477248	26	18728
2026-01-03 00:29:40.29	200.35	25.25	-33.2	-47.5	3.8	1.49e+00	0	43	104	679477248	26	18649
2026-01-03 00:29:43.30	200.36	24.77	-33.2	-47.4	3.8	1.49e+00	0	43	104	679477248	26	18629
2026-01-03 00:29:46.33	200.37	24.29	-33.2	-47.5	3.8	1.49e+00	0	43	104	679477248	26	18650
2026-01-03 00:29:49.34	200.38	23.83	-33.2	-47.4	3.8	1.49e+00	0	43	104	679477248	26	18583
2026-01-03 00:29:52.36	200.39	23.37	-33.2	-47.4	3.8	1.49e+00	0	43	104	679477248	26	18547
2026-01-03 00:29:55.38	200.40	22.92	-33.1	-47.4	3.8	1.49e+00	0	43	104	679477248	26	18505
2026-01-03 00:29:58.40	200.40	22.48	-33.1	-47.3	3.8	1.49e+00	0	43	104	679477248	26	18468
2026-01-03 00:30:01.40	200.41	22.05	-33.1	-47.3	3.8	1.49e+00	0	43	104	679477248	26	18473
2026-01-03 00:30:04.43	200.42	21.62	-33.1	-47.3	3.8	1.49e+00	0	43	104	679477248	26	18431
2026-01-03 00:30:07.45	200.43	21.20	-33.1	-47.2	3.8	1.49e+00	0	43	104	679477248	26	18390
2026-01-03 00:30:10.48	200.44	20.78	-33.1	-47.2	3.8	1.49e+00	0	43	104	679477248	26	18349
2026-01-03 00:30:13.49	200.45	20.38	-33.0	-47.2	3.8	1.49e+00	0	43	104	679477248	26	18316
2026-01-03 00:30:16.50	200.46	19.98	-33.0	-47.2	3.8	1.49e+00	0	43	104	679477248	26	18306
2026-01-03 00:30:19.52	200.47	19.59	-33.0	-47.2	3.8	1.49e+00	0	43	104	679477248	26	18315
2026-01-03 00:30:22.53	200.48	19.20	-33.0	-47.1	3.8	1.49e+00	0	43	104	679477248	26	18259
2026-01-03 00:30:25.56	200.48	18.82	-33.0	-47.1	3.8	1.49e+00	0	43	104	679477248	26	18295
2026-01-03 00:30:28.57	200.49	18.44	-33.0	-47.1	3.8	1.49e+00	0	43	104	679477248	26	18286
2026-01-03 00:30:31.59	200.50	18.07	-33.0	-47.5	3.8	1.49e+00	0	43	104	679477248	25	19241
2026-01-03 00:30:34.60	200.51	17.71	-33.0	-47.5	3.8	1.49e+00	0	44	104	679477248	25	19257
2026-01-03 00:30:37.62	200.52	17.35	-33.0	-47.5	3.8	1.49e+00	0	43	104	679477248	25	19223
2026-01-03 00:30:40.64	200.53	17.00	-33.0	-47.5	3.8	1.49e+00	0	43	104	679477248	25	19168
2026-01-03 00:30:43.64	200.54	16.65	-32.9	-47.4	3.8	1.49e+00	0	43	104	679477248	25	19143
2026-01-03 00:30:46.66	200.55	16.31	-32.9	-47.4	3.8	1.49e+00	0	43	104	679477248	25	19132
2026-01-03 00:30:49.67	200.56	15.97	-32.9	-47.4	3.8	1.49e+00	0	43	104	679477248	25	19071
2026-01-03 00:30:52.69	200.56	15.63	-32.9	-47.3	3.8	1.49e+00	0	43	104	679477248	25	18994
2026-01-03 00:30:55.70	200.57	15.31	-32.8	-47.3	3.8	1.49e+00	0	43	104	679477248	25	18964
2026-01-03 00:30:58.72	200.58	14.98	-32.8	-47.2	3.8	1.49e+00	0	43	104	679477248	25	18909
2026-01-03 00:31:01.74	200.59	14.66	-32.8	-47.2	3.8	1.49e+00	0	43	104	679477248	25	18896
2026-01-03 00:31:04.76	200.60	14.34	-32.8	-47.2	3.8	1.49e+00	0	43	104	679477248	25	18826
2026-01-03 00:31:07.78	200.61	14.03	-32.8	-47.2	3.8	1.49e+00	0	43	104	679477248	25	18839
2026-01-03 00:31:10.80	200.62	13.72	-32.8	-47.1	3.8	1.49e+00	0	43	104	679477248	25	18796
2026-01-03 00:31:13.83	200.63	13.41	-32.8	-47.2	3.8	1.49e+00	0	43	104	679477248	25	18842
2026-01-03 00:31:16.85	200.64	13.11	-32.8	-47.1	3.8	1.49e+00	0	43	104	679477248	25	18785
2026-01-03 00:31:19.87	200.65	12.82	-32.8	-47.1	3.8	1.49e+00	0	43	104	679477248	25	18815
2026-01-03 00:31:22.88	200.65	12.52	-32.8	-47.1	3.8	1.49e+00	0	43	104	679477248	25	18733
2026-01-03 00:31:25.90	200.66	12.23	-32.7	-47.0	3.8	1.49e+00	0	43	104	679477248	25	18656
2026-01-03 00:31:28.93	200.67	11.94	-32.7	-47.0	3.8	1.49e+00	0	43	104	679477248	25	18699
2026-01-03 00:31:31.94	200.68	11.66	-32.7	-47.0	3.8	1.49e+00	0	43	104	679477248	25	18626
2026-01-03 00:31:34.96	200.69	11.38	-32.7	-47.0	3.8	1.49e+00	0	43	104	679477248	25	18609
2026-01-03 00:31:37.97	200.70	11.10	-32.7	-47.0	3.8	1.49e+00	0	43	104	679477248	25	18608
2026-01-03 00:31:40.99	200.71	10.83	-32.7	-46.9	3.8	1.49e+00	0	43	104	679477248	25	18465
2026-01-03 00:31:44.01	200.72	10.56	-32.6	-46.8	3.8	1.49e+00	0	43	104	679477248	25	18407
2026-01-03 00:31:47.03	200.73	10.29	-32.6	-46.7	3.8	1.49e+00	0	43	104	679477248	25	18330
2026-01-03 00:31:50.06	200.74	10.02	-32.6	-46.7	3.8	1.49e+00	0	43	104	679477248	25	18279
2026-01-03 00:31:53.08	200.75	9.76	-32.5	-46.6	3.8	1.49e+00	0	43	104	679477248	25	18269
2026-01-03 00:31:56.10	200.75	9.50	-32.5	-46.6	3.8	1.49e+00	0	43	104	679477248	25	18208
2026-01-03 00:31:59.12	200.76	9.24	-32.5	-46.6	3.8	1.49e+00	0	43	104	679477248	25	18198
2026-01-03 00:32:02.14	200.77	8.99	-32.5	-46.5	3.8	1.49e+00	0	43	104	679477248	25	18136
2026-01-03 00:32:05.16	200.78	8.74	-32.5	-47.0	3.8	1.49e+00	0	43	104	679477248	24	19213
2026-01-03 00:32:08.17	200.79	8.49	-32.5	-46.5	3.8	1.49e+00	0	43	104	679477248	25	18136
2026-01-03 00:32:11.20	200.80	8.24	-32.5	-47.0	3.8	1.49e+00	0	43	104	679477248	24	19201
2026-01-03 00:32:14.22	200.81	8.00	-32.5	-47.0	3.8	1.49e+00	0	43	104	679477248	24	19139
2026-01-03 00:32:17.23	200.82	7.76	-32.4	-46.9	3.8	1.49e+00	0	44	104	679477248	24	19099
2026-01-03 00:32:20.24	200.83	7.52	-32.4	-46.9	3.8	1.49e+00	0	43	104	679477248	24	19036
2026-01-03 00:32:23.27	200.83	7.28	-32.4	-46.8	3.8	1.49e+00	0	44	104	679477248	24	18926
2026-01-03 00:32:26.29	200.84	7.04	-32.6	-46.9	3.8	1.49e+00	0	43	104	679477248	25	18508

#Closed at: 2026-01-03 00:32:26
#Recorded file [679 MB]: D:/data/31010_260103_032024.dat