passes_logs/2026/01/03/R2M6_AANII_01/R2M6_AANII_01__20260103_011026_NOAA_21_JPSS-2_rec.log

#Pass ID: 20260103_011026_NOAA 21 (JPSS-2)
#Satellite: NOAA 21 (JPSS-2)
#Configuration: NOAA 21
#almurnet v.1.7.20240730
#Start time: 2026-01-03 01:11:52

#Version: 2.2.20231116
#Station: R2M6_AANII_01
#Location: 30.233357 lon 59.946436 lat
#TLE: 1 54234U 22150A   26002.25486487  .00000200  00000+0  11573-3 0  9993
#TLE: 2 54234  98.7485 303.3096 0001220 350.9074   9.2080 14.19531212163006

#Time	Az	El	Level	Level2	SNR	BER	BlckErr	Temp	State	Recorded	gain1	gain2
2026-01-03 01:11:52.26	9.74	14.31	-32.9	-44.4	3.8	8.46e-01	0	43	0	0	25	13567
2026-01-03 01:11:55.27	9.53	14.60	-33.6	-45.6	3.8	1.49e+00	0	43	104	0	27	14339
2026-01-03 01:11:58.29	9.32	14.90	-33.7	-45.8	3.8	1.49e+00	0	43	104	0	27	14426
2026-01-03 01:12:01.31	9.10	15.20	-33.7	-45.8	3.8	1.49e+00	0	43	104	0	27	14481
2026-01-03 01:12:04.33	8.88	15.51	-33.6	-45.5	3.8	1.49e+00	0	43	104	0	27	14180
2026-01-03 01:12:07.33	8.65	15.82	-33.7	-45.7	3.7	1.49e+00	0	43	104	0	27	14384
2026-01-03 01:12:10.33	8.42	16.13	-33.7	-45.8	3.8	1.49e+00	0	43	104	0	27	14398
2026-01-03 01:12:13.33	8.19	16.44	-33.7	-45.8	3.8	1.49e+00	0	43	104	0	27	14436
2026-01-03 01:12:16.33	7.94	16.76	-33.6	-45.7	3.8	1.49e+00	0	43	104	0	27	14373
2026-01-03 01:12:19.35	7.70	17.08	-33.6	-45.6	3.8	1.49e+00	0	43	104	0	27	14239
2026-01-03 01:12:22.34	7.45	17.40	-33.5	-45.8	3.8	1.49e+00	0	43	104	0	26	14848
2026-01-03 01:12:25.34	7.19	17.73	-33.0	-43.9	3.8	1.49e+00	0	43	104	0	26	12535
2026-01-03 01:12:28.34	6.92	18.06	-32.6	-41.4	3.9	1.48e+00	0	43	104	0	25	9955
2026-01-03 01:12:31.34	6.65	18.40	-32.6	-41.3	3.9	1.43e+00	0	43	104	0	25	9865
2026-01-03 01:12:34.34	6.38	18.74	-32.9	-43.5	3.9	1.48e+00	0	43	104	0	25	12182
2026-01-03 01:12:37.35	6.09	19.08	-32.9	-43.9	3.8	1.49e+00	0	43	104	0	25	12774
2026-01-03 01:12:40.35	5.80	19.43	-31.3	-35.6	7.8	1.09e-01	0	44	0	1048576	23	5910
2026-01-03 01:12:43.34	5.51	19.78	-29.8	-33.0	11.0	6.72e-03	0	43	0	10485760	19	5219
2026-01-03 01:12:46.34	5.21	20.14	-30.0	-33.5	10.7	6.68e-03	0	43	0	19922944	19	5411
2026-01-03 01:12:49.33	4.90	20.50	-29.8	-33.0	11.1	5.87e-03	0	43	0	29360128	19	5197
2026-01-03 01:12:52.33	4.58	20.86	-29.3	-32.2	12.0	3.39e-04	0	43	0	38797312	18	5005
2026-01-03 01:12:55.34	4.25	21.23	-29.6	-32.5	11.5	6.01e-03	0	43	0	48234496	19	5017
2026-01-03 01:12:58.34	3.91	21.61	-27.8	-29.4	14.3	3.96e-03	0	43	0	57671680	16	4329
2026-01-03 01:13:01.34	3.57	21.99	-26.3	-27.6	16.0	4.35e-03	0	43	0	67108864	13	4177
2026-01-03 01:13:04.34	3.22	22.37	-26.0	-27.5	16.3	4.24e-03	0	43	0	76546048	12	4244
2026-01-03 01:13:07.34	2.86	22.75	-26.0	-27.4	16.4	0.00e+00	0	43	0	85983232	12	4227
2026-01-03 01:13:10.33	2.49	23.15	-26.0	-27.4	16.4	4.26e-03	0	43	0	95420416	12	4218
2026-01-03 01:13:13.35	2.11	23.54	-26.0	-27.4	16.4	0.00e+00	0	43	0	104857600	12	4224
2026-01-03 01:13:16.34	1.72	23.94	-26.0	-27.3	16.5	0.00e+00	0	43	0	114294784	12	4199
2026-01-03 01:13:19.33	1.32	24.35	-26.2	-27.8	16.2	0.00e+00	0	43	0	123731968	12	4343
2026-01-03 01:13:22.32	0.91	24.76	-26.1	-27.6	16.3	0.00e+00	0	43	0	132120576	12	4282
2026-01-03 01:13:25.32	0.49	25.17	-26.2	-27.9	16.1	3.91e-03	0	43	0	141557760	12	4362
2026-01-03 01:13:28.32	0.05	25.59	-26.3	-28.2	16.0	0.00e+00	0	43	0	150994944	12	4431
2026-01-03 01:13:31.29	359.61	26.01	-26.6	-28.3	15.7	0.00e+00	0	43	0	160432128	13	4355
2026-01-03 01:13:34.30	359.15	26.45	-26.8	-28.7	15.5	0.00e+00	0	43	0	169869312	13	4470
2026-01-03 01:13:37.30	358.68	26.88	-27.0	-29.1	15.2	0.00e+00	0	43	0	179306496	13	4591
2026-01-03 01:13:40.29	358.19	27.32	-26.9	-28.9	15.4	1.50e-06	0	44	0	188743680	13	4530
2026-01-03 01:13:43.29	357.70	27.76	-26.7	-28.5	15.6	7.00e-07	0	43	0	198180864	13	4406
2026-01-03 01:13:46.30	357.18	28.21	-26.8	-28.8	15.5	7.00e-07	0	43	0	207618048	13	4492
2026-01-03 01:13:49.31	356.65	28.67	-26.7	-28.5	15.6	7.00e-07	0	43	0	217055232	13	4406
2026-01-03 01:13:52.31	356.11	29.13	-26.8	-28.7	15.5	0.00e+00	0	43	0	226492416	13	4489
2026-01-03 01:13:55.32	355.54	29.59	-26.7	-28.5	15.6	0.00e+00	0	43	0	235929600	13	4404
2026-01-03 01:13:58.31	354.97	30.06	-27.1	-28.7	15.2	0.00e+00	0	43	0	245366784	14	4360
2026-01-03 01:14:01.30	354.38	30.53	-27.1	-28.9	15.2	0.00e+00	0	43	0	254803968	14	4415
2026-01-03 01:14:04.29	353.77	31.00	-26.9	-28.5	15.4	2.20e-06	0	43	0	263192576	14	4288
2026-01-03 01:14:07.30	353.14	31.48	-26.9	-28.9	15.4	0.00e+00	0	43	0	272629760	13	4507
2026-01-03 01:14:10.29	352.49	31.96	-26.6	-28.2	15.8	0.00e+00	0	43	0	282066944	13	4334
2026-01-03 01:14:13.29	351.82	32.45	-26.7	-28.4	15.7	0.00e+00	0	43	0	291504128	13	4386
2026-01-03 01:14:16.28	351.13	32.94	-26.9	-28.9	15.4	0.00e+00	0	43	0	300941312	13	4513
2026-01-03 01:14:19.27	350.42	33.43	-27.1	-28.8	15.2	0.00e+00	0	43	0	310378496	14	4382
2026-01-03 01:14:22.26	349.69	33.93	-27.3	-29.2	15.0	0.00e+00	0	43	0	319815680	14	4502
2026-01-03 01:14:25.27	348.93	34.43	-27.6	-29.5	14.6	7.00e-07	0	43	0	329252864	15	4483
2026-01-03 01:14:28.26	348.15	34.93	-28.0	-30.3	14.2	2.20e-06	0	43	0	338690048	15	4718
2026-01-03 01:14:31.25	347.35	35.43	-27.8	-29.9	14.3	0.00e+00	0	43	0	348127232	15	4587
2026-01-03 01:14:34.25	346.52	35.93	-28.2	-30.3	14.0	2.20e-06	0	43	0	357564416	16	4595
2026-01-03 01:14:37.26	345.66	36.44	-27.8	-30.0	14.3	1.50e-06	0	43	0	367001600	15	4602
2026-01-03 01:14:40.26	344.77	36.94	-27.7	-29.8	14.5	1.50e-06	0	43	0	376438784	15	4545
2026-01-03 01:14:43.26	343.86	37.45	-28.0	-29.8	14.2	1.50e-06	0	43	0	385875968	16	4450
2026-01-03 01:14:46.26	342.92	37.95	-28.2	-30.3	14.0	2.20e-06	0	43	0	395313152	16	4596
2026-01-03 01:14:49.26	341.94	38.45	-27.7	-29.8	14.5	7.00e-07	0	43	0	403701760	15	4548
2026-01-03 01:14:52.25	340.94	38.95	-27.7	-29.7	14.5	0.00e+00	0	43	0	413138944	15	4517
2026-01-03 01:14:55.26	339.91	39.45	-27.6	-29.5	14.6	0.00e+00	0	43	0	422576128	15	4475
2026-01-03 01:14:58.25	338.84	39.94	-27.8	-30.0	14.3	0.00e+00	0	43	0	432013312	15	4614
2026-01-03 01:15:01.24	337.75	40.43	-28.0	-29.9	14.3	2.20e-06	0	43	0	441450496	16	4461
2026-01-03 01:15:04.23	336.62	40.91	-28.5	-31.0	13.7	7.40e-05	0	43	0	450887680	16	4803
2026-01-03 01:15:07.23	335.45	41.38	-28.9	-31.4	13.1	2.51e-05	0	43	0	460324864	17	4836
2026-01-03 01:15:10.22	334.25	41.85	-29.0	-31.3	12.9	9.15e-05	0	43	0	469762048	18	4667
2026-01-03 01:15:13.20	333.03	42.31	-29.0	-31.2	12.9	5.03e-05	0	43	0	479199232	18	4641
2026-01-03 01:15:16.20	331.75	42.75	-29.3	-32.1	12.4	1.11e-04	0	43	0	488636416	18	4936
2026-01-03 01:15:19.20	330.44	43.19	-29.1	-31.5	12.8	5.79e-05	0	43	0	498073600	18	4732
2026-01-03 01:15:22.20	329.10	43.62	-28.8	-30.8	13.2	3.81e-05	0	43	0	507510784	18	4520
2026-01-03 01:15:25.19	327.72	44.03	-29.3	-32.1	12.4	1.43e-04	0	43	0	516947968	18	4933
2026-01-03 01:15:28.20	326.30	44.43	-29.5	-31.9	12.2	2.52e-04	0	43	0	526385152	19	4774
2026-01-03 01:15:31.21	324.85	44.81	-29.1	-31.5	12.8	8.08e-05	0	43	0	534773760	18	4739
2026-01-03 01:15:34.21	323.36	45.17	-28.5	-30.9	13.8	7.32e-05	0	43	0	544210944	16	4778
2026-01-03 01:15:37.22	321.83	45.52	-28.4	-30.2	13.8	3.80e-06	0	43	0	553648128	17	4449
2026-01-03 01:15:40.22	320.28	45.84	-29.1	-31.5	12.7	4.65e-05	0	43	0	563085312	18	4743
2026-01-03 01:15:43.21	318.70	46.14	-29.2	-31.8	12.6	2.78e-04	0	43	0	572522496	18	4828
2026-01-03 01:15:46.20	317.09	46.42	-28.8	-30.7	13.3	1.94e-04	0	43	0	581959680	18	4471
2026-01-03 01:15:49.21	315.44	46.68	-28.8	-31.2	13.3	6.02e-05	0	43	0	591396864	17	4746
2026-01-03 01:15:52.20	313.78	46.91	-28.8	-31.2	13.2	3.28e-05	0	43	0	600834048	17	4763
2026-01-03 01:15:55.21	312.08	47.12	-28.4	-30.3	13.8	2.71e-04	0	43	0	610271232	17	4463
2026-01-03 01:15:58.21	310.37	47.30	-28.4	-30.8	13.8	4.50e-06	0	43	0	619708416	16	4754
2026-01-03 01:16:01.20	308.64	47.45	-28.3	-30.0	14.0	1.21e-04	0	43	0	629145600	17	4375
2026-01-03 01:16:04.22	306.88	47.57	-28.7	-30.9	13.4	9.90e-06	0	43	0	638582784	17	4671
2026-01-03 01:16:07.23	305.12	47.67	-28.6	-30.7	13.6	6.80e-06	0	43	0	648019968	17	4587
2026-01-03 01:16:10.23	303.35	47.73	-28.6	-30.8	13.4	1.75e-05	0	43	0	657457152	17	4638
2026-01-03 01:16:13.23	301.57	47.77	-28.8	-31.2	13.3	2.28e-05	0	43	0	666894336	17	4763
2026-01-03 01:16:16.22	299.80	47.77	-29.2	-31.7	12.7	9.91e-05	0	44	0	676331520	18	4829
2026-01-03 01:16:19.23	298.02	47.75	-29.3	-32.1	12.4	1.85e-04	0	43	0	685768704	18	4948
2026-01-03 01:16:22.22	296.25	47.69	-29.4	-32.4	12.3	1.81e-04	0	43	0	695205888	18	5053
2026-01-03 01:16:25.23	294.48	47.60	-28.4	-30.4	13.7	2.89e-04	0	43	0	704643072	17	4493
2026-01-03 01:16:28.22	292.74	47.49	-28.6	-30.8	13.4	1.37e-05	0	43	0	713031680	17	4633
2026-01-03 01:16:31.23	290.99	47.35	-28.7	-31.0	13.3	1.90e-05	0	43	0	722468864	17	4699
2026-01-03 01:16:34.24	289.27	47.18	-28.5	-30.4	13.8	5.30e-06	0	43	0	731906048	17	4512
2026-01-03 01:16:37.24	287.56	46.98	-29.2	-31.8	12.6	9.07e-05	0	43	0	741343232	18	4838
2026-01-03 01:16:40.23	285.89	46.75	-29.1	-31.4	12.8	7.01e-05	0	43	0	750780416	18	4729
2026-01-03 01:16:43.23	284.24	46.50	-29.0	-31.2	12.9	4.19e-05	0	43	0	760217600	18	4638
2026-01-03 01:16:46.24	282.61	46.23	-28.4	-29.8	13.8	6.10e-06	0	43	0	769654784	18	4236
2026-01-03 01:16:49.25	281.01	45.93	-28.9	-31.6	13.0	3.12e-05	0	43	0	779091968	17	4895
2026-01-03 01:16:52.25	279.44	45.61	-29.2	-31.7	12.7	2.09e-04	0	43	0	788529152	18	4813
2026-01-03 01:16:55.27	277.90	45.27	-28.9	-31.4	13.1	3.28e-05	0	43	0	797966336	17	4837
2026-01-03 01:16:58.27	276.40	44.91	-29.6	-32.2	12.0	4.01e-04	0	43	0	807403520	19	4881
2026-01-03 01:17:01.26	274.94	44.54	-28.4	-29.8	13.8	2.14e-04	0	43	0	816840704	18	4220
2026-01-03 01:17:04.27	273.50	44.14	-29.1	-31.4	12.8	4.68e-04	0	43	0	826277888	18	4719
2026-01-03 01:17:07.28	272.11	43.73	-28.6	-30.6	13.5	2.51e-04	0	43	0	835715072	17	4565
2026-01-03 01:17:10.28	270.75	43.31	-29.3	-31.9	12.5	4.32e-04	0	43	0	845152256	18	4891
2026-01-03 01:17:13.30	269.42	42.87	-30.0	-33.1	10.8	4.42e-03	0	43	0	854589440	20	5094
2026-01-03 01:17:16.32	268.12	42.42	-28.8	-31.2	13.0	2.59e-05	0	43	0	864026624	17	4744
2026-01-03 01:17:19.32	266.87	41.96	-29.7	-32.6	11.6	8.49e-04	0	43	0	873463808	19	5009
2026-01-03 01:17:22.35	265.65	41.49	-29.6	-32.2	11.8	4.68e-03	0	43	0	882900992	19	4879
2026-01-03 01:17:25.36	264.46	41.01	-28.8	-31.3	13.1	7.81e-04	0	43	0	892338176	17	4812
2026-01-03 01:17:28.37	263.31	40.53	-30.4	-34.2	10.2	1.08e-02	0	43	0	901775360	20	5546
2026-01-03 01:17:31.39	262.20	40.04	-28.7	-30.9	13.3	4.82e-03	0	43	0	911212544	17	4663
2026-01-03 01:17:34.40	261.12	39.54	-29.2	-31.7	12.5	3.90e-03	0	43	0	920649728	18	4821
2026-01-03 01:17:37.42	260.06	39.04	-31.0	-35.0	8.9	3.29e-02	0	43	0	930086912	22	5706
2026-01-03 01:17:40.45	259.04	38.54	-30.1	-33.2	10.8	6.85e-03	0	44	0	939524096	20	5131
2026-01-03 01:17:43.47	258.05	38.03	-30.0	-32.9	10.9	5.79e-03	0	43	0	948961280	20	5043
2026-01-03 01:17:46.49	257.10	37.52	-30.7	-34.4	9.6	1.38e-02	0	43	0	958398464	21	5520
2026-01-03 01:17:49.50	256.17	37.01	-28.9	-31.0	12.9	4.33e-03	0	43	0	967835648	18	4588
2026-01-03 01:17:52.51	255.28	36.50	-28.2	-30.3	13.8	3.00e-06	0	43	0	977272832	16	4600
2026-01-03 01:17:55.53	254.40	35.99	-28.9	-31.1	12.8	7.78e-05	0	43	0	986710016	18	4635
2026-01-03 01:17:58.54	253.56	35.49	-27.5	-29.2	14.6	0.00e+00	0	43	0	996147200	15	4396
2026-01-03 01:18:01.56	252.74	34.98	-27.1	-28.9	15.1	0.00e+00	0	43	0	1005584384	14	4411
2026-01-03 01:18:04.57	251.95	34.47	-27.6	-29.5	14.5	7.00e-07	0	43	0	1015021568	15	4472
2026-01-03 01:18:07.59	251.19	33.97	-27.8	-29.9	14.2	1.50e-06	0	43	0	1024458752	15	4607
2026-01-03 01:18:10.60	250.44	33.47	-27.1	-28.8	15.2	0.00e+00	0	43	0	1033895936	14	4376
2026-01-03 01:18:13.62	249.72	32.97	-26.7	-28.5	15.5	0.00e+00	0	43	0	1043333120	13	4413
2026-01-03 01:18:16.63	249.02	32.47	-27.6	-29.5	14.5	0.00e+00	0	43	0	1052770304	15	4484
2026-01-03 01:18:19.66	248.34	31.98	-27.2	-29.0	15.0	7.00e-07	0	43	0	1062207488	14	4447
2026-01-03 01:18:22.67	247.68	31.49	-26.7	-28.5	15.6	0.00e+00	0	43	0	1071644672	13	4404
2026-01-03 01:18:25.69	247.04	31.01	-26.8	-28.6	15.5	0.00e+00	0	44	0	1081081856	13	4440
2026-01-03 01:18:28.70	246.43	30.53	-26.9	-28.9	15.3	0.00e+00	0	43	0	1089470464	13	4539
2026-01-03 01:18:31.71	245.83	30.05	-26.9	-28.8	15.3	0.00e+00	0	43	0	1098907648	13	4515
2026-01-03 01:18:34.72	245.24	29.58	-26.7	-28.4	15.5	7.60e-06	0	43	0	1108344832	13	4405
2026-01-03 01:18:37.73	244.68	29.11	-26.7	-28.4	15.6	0.00e+00	0	43	0	1117782016	13	4395
2026-01-03 01:18:40.75	244.13	28.65	-26.3	-27.7	15.9	1.22e-05	0	43	0	1127219200	13	4188
2026-01-03 01:18:43.77	243.59	28.19	-26.3	-28.1	16.0	0.00e+00	0	43	0	1136656384	12	4418
2026-01-03 01:18:46.78	243.07	27.74	-26.1	-27.5	15.7	3.40e-03	0	43	0	1146093568	13	4276
2026-01-03 01:18:49.80	242.57	27.29	-26.6	-28.2	15.3	1.44e-05	0	43	0	1155530752	13	4333
2026-01-03 01:18:52.82	242.07	26.85	-26.8	-28.8	15.3	5.09e-04	0	43	0	1164967936	13	4502
2026-01-03 01:18:55.83	241.60	26.41	-26.7	-28.6	15.4	1.22e-05	0	43	0	1174405120	13	4441
2026-01-03 01:18:58.84	241.13	25.97	-26.7	-28.4	15.5	3.19e-03	0	43	0	1183842304	13	4390
2026-01-03 01:19:01.85	240.68	25.55	-26.5	-28.1	15.6	3.38e-03	0	43	0	1193279488	13	4307
2026-01-03 01:19:04.87	240.24	25.12	-25.9	-27.2	16.4	3.99e-03	0	43	0	1202716672	12	4176
2026-01-03 01:19:07.88	239.82	24.70	-26.2	-27.8	16.0	3.95e-03	0	43	0	1212153856	12	4338
2026-01-03 01:19:10.91	239.40	24.29	-26.1	-27.6	16.1	0.00e+00	0	43	0	1221591040	12	4290
2026-01-03 01:19:13.92	238.99	23.88	-26.3	-28.2	15.8	3.51e-03	0	43	0	1231028224	12	4455
2026-01-03 01:19:16.93	238.60	23.47	-26.4	-28.2	15.8	2.57e-03	0	43	0	1240465408	12	4462
2026-01-03 01:19:19.96	238.21	23.07	-26.7	-28.6	15.3	7.49e-03	0	43	0	1249902592	13	4449
2026-01-03 01:19:22.98	237.84	22.68	-26.8	-28.8	15.2	3.76e-03	0	43	0	1259339776	13	4516
2026-01-03 01:19:26.00	237.47	22.28	-26.8	-28.7	15.2	3.60e-03	0	43	0	1268776960	13	4502
2026-01-03 01:19:29.01	237.12	21.90	-26.2	-27.9	15.9	7.00e-07	0	43	0	1278214144	12	4376
2026-01-03 01:19:32.02	236.77	21.52	-26.2	-27.8	15.9	2.93e-03	0	43	0	1287651328	12	4349
2026-01-03 01:19:35.03	236.43	21.14	-26.2	-27.9	15.9	7.00e-07	0	43	0	1297088512	12	4363
2026-01-03 01:19:38.05	236.10	20.77	-26.0	-27.5	16.1	1.83e-03	0	43	0	1306525696	12	4261
2026-01-03 01:19:41.07	235.78	20.40	-25.9	-27.2	16.3	0.00e+00	0	43	0	1315962880	12	4171
2026-01-03 01:19:44.09	235.47	20.04	-25.9	-27.3	16.2	0.00e+00	0	43	0	1325400064	12	4197
2026-01-03 01:19:47.10	235.16	19.68	-26.4	-28.2	15.6	0.00e+00	0	43	0	1334837248	12	4473
2026-01-03 01:19:50.11	234.86	19.32	-26.7	-28.5	15.2	0.00e+00	0	43	0	1344274432	13	4446
2026-01-03 01:19:53.14	234.57	18.97	-26.5	-28.1	15.4	0.00e+00	0	43	0	1353711616	13	4320
2026-01-03 01:19:56.16	234.28	18.63	-26.7	-28.1	15.1	0.00e+00	0	43	0	1363148800	14	4217
2026-01-03 01:19:59.17	234.00	18.28	-26.6	-28.4	15.2	0.00e+00	0	43	0	1372585984	13	4413
2026-01-03 01:20:02.20	233.73	17.94	-26.4	-28.4	15.5	0.00e+00	0	44	0	1382023168	12	4519
2026-01-03 01:20:05.22	233.46	17.61	-26.4	-28.0	15.4	0.00e+00	0	43	0	1391460352	13	4284
2026-01-03 01:20:08.24	233.20	17.28	-26.5	-28.1	15.3	0.00e+00	0	43	0	1400897536	13	4337
2026-01-03 01:20:11.26	232.94	16.95	-26.5	-28.2	15.3	0.00e+00	0	43	0	1410334720	13	4348
2026-01-03 01:20:14.29	232.69	16.63	-26.7	-28.6	15.0	0.00e+00	0	43	0	1419771904	13	4478
2026-01-03 01:20:17.30	232.45	16.31	-27.0	-29.1	14.7	0.00e+00	0	43	0	1429209088	13	4630
2026-01-03 01:20:20.32	232.21	15.99	-27.2	-29.2	14.4	0.00e+00	0	43	0	1438646272	14	4522
2026-01-03 01:20:23.33	231.98	15.68	-27.2	-29.2	14.4	6.10e-06	0	43	0	1448083456	14	4528
2026-01-03 01:20:26.35	231.75	15.37	-27.3	-29.4	14.3	7.00e-07	0	43	0	1457520640	14	4589
2026-01-03 01:20:29.36	231.52	15.06	-27.2	-29.2	14.4	5.11e-05	0	43	0	1466957824	14	4529
2026-01-03 01:20:32.39	231.30	14.76	-27.2	-29.3	14.3	1.50e-06	0	43	0	1476395008	14	4576
2026-01-03 01:20:35.40	231.09	14.46	-27.2	-29.3	14.3	3.96e-05	0	43	0	1485832192	14	4575
2026-01-03 01:20:38.42	230.88	14.17	-27.3	-29.4	14.2	0.00e+00	0	43	0	1495269376	14	4603
2026-01-03 01:20:41.44	230.67	13.87	-27.1	-29.1	14.3	2.20e-06	0	43	0	1504706560	14	4531
2026-01-03 01:20:44.46	230.47	13.58	-27.2	-29.3	14.2	3.52e-04	0	43	0	1514143744	14	4590
2026-01-03 01:20:47.47	230.27	13.30	-27.2	-29.2	14.3	1.50e-06	0	43	0	1523580928	14	4544
2026-01-03 01:20:50.48	230.08	13.02	-27.1	-29.1	14.3	7.00e-07	0	43	0	1533018112	14	4509
2026-01-03 01:20:53.51	229.89	12.73	-27.2	-29.2	14.2	2.20e-06	0	43	0	1542455296	14	4551
2026-01-03 01:20:56.53	229.70	12.46	-27.3	-29.6	14.0	3.00e-06	0	43	0	1551892480	14	4675
2026-01-03 01:20:59.55	229.52	12.18	-27.5	-30.0	13.7	4.50e-06	0	43	0	1561329664	14	4791
2026-01-03 01:21:02.57	229.34	11.91	-27.5	-29.6	13.7	1.60e-05	0	43	0	1570766848	15	4559
2026-01-03 01:21:05.59	229.16	11.64	-27.7	-30.0	13.4	1.52e-05	0	43	0	1580204032	15	4707
2026-01-03 01:21:08.61	228.99	11.37	-28.0	-30.7	13.0	4.80e-05	0	43	0	1589641216	15	4911
2026-01-03 01:21:11.62	228.82	11.11	-28.1	-30.5	12.9	5.95e-05	0	43	0	1599078400	16	4739
2026-01-03 01:21:14.65	228.65	10.85	-28.2	-30.8	12.7	7.32e-05	0	43	0	1608515584	16	4822
2026-01-03 01:21:17.67	228.49	10.59	-28.2	-30.6	12.8	4.50e-05	0	43	0	1617952768	16	4763
2026-01-03 01:21:20.68	228.33	10.33	-28.2	-30.6	12.8	7.78e-05	0	43	0	1627389952	16	4791
2026-01-03 01:21:23.71	228.17	10.08	-28.2	-30.7	12.7	6.86e-05	0	43	0	1636827136	16	4804
2026-01-03 01:21:26.73	228.02	9.82	-28.3	-30.9	12.5	9.53e-05	0	43	0	1646264320	16	4889
2026-01-03 01:21:29.75	227.87	9.57	-28.1	-30.6	12.7	9.38e-05	0	43	0	1655701504	16	4783
2026-01-03 01:21:32.77	227.72	9.33	-28.0	-30.8	12.7	2.64e-03	0	43	0	1665138688	15	4965
2026-01-03 01:21:35.78	227.57	9.08	-28.1	-30.5	12.7	6.79e-05	0	43	0	1674575872	16	4767
2026-01-03 01:21:38.80	227.43	8.84	-28.1	-30.6	12.7	3.26e-03	0	43	0	1684013056	16	4780
2026-01-03 01:21:41.82	227.29	8.60	-28.2	-30.6	12.6	3.54e-03	0	43	0	1693450240	16	4792
2026-01-03 01:21:44.84	227.15	8.36	-28.1	-30.7	12.6	3.56e-03	0	43	0	1702887424	16	4804
2026-01-03 01:21:47.85	227.01	8.12	-28.4	-31.4	12.1	3.37e-03	0	43	0	1712324608	16	5052
2026-01-03 01:21:50.86	226.88	7.89	-28.2	-30.7	12.5	3.24e-03	0	43	0	1721761792	16	4819
2026-01-03 01:21:53.88	226.74	7.66	-28.2	-30.9	12.4	3.05e-03	0	43	0	1731198976	16	4870
2026-01-03 01:21:56.90	226.61	7.43	-28.3	-31.1	12.2	1.81e-04	0	43	0	1740636160	16	4951
2026-01-03 01:21:59.93	226.49	7.20	-28.4	-31.4	12.0	2.56e-03	0	43	0	1750073344	16	5086
2026-01-03 01:22:02.95	226.36	6.97	-32.7	-44.7	3.8	1.49e+00	0	43	104	1755316224	25	14399

#Closed at: 2026-01-03 01:22:03
#Recorded file [1755 MB]: D:/data/31010_260103_041239.dat