passes_logs/2026/01/03/R2M6_AANII_01/R2M6_AANII_01__20260103_011647_AQUA_rec.log

#Pass ID: 20260103_011647_AQUA
#Satellite: AQUA
#Configuration: AQUA
#almurnet v.1.7.20240730
#Start time: 2026-01-03 01:22:09

#Version: 2.2.20231116
#Station: R2M6_AANII_01
#Location: 30.233357 lon 59.946436 lat
#TLE: 1 27424U 02022A   25365.92641127  .00002078  00000+0  42628-3 0  9999
#TLE: 2 27424  98.4058 327.1196 0001962  94.7781 340.6230 14.61783896258835

#Time	Az	El	Level	Level2	SNR	BER	BlckErr	Temp	State	Recorded	gain1	gain2
2026-01-03 01:22:09.80	108.69	45.80	-32.8	-44.9	3.8	1.49e+00	0	43	0	0	25	14519
2026-01-03 01:22:11.79	110.00	45.68	-33.8	-53.2	3.8	7.46e-01	0	43	104	0	28	33577
2026-01-03 01:22:13.81	111.33	45.54	-33.9	-53.4	3.8	7.43e-01	0	43	104	0	28	33882
2026-01-03 01:22:15.81	112.63	45.39	-33.9	-53.4	3.8	7.45e-01	0	43	104	0	28	34011
2026-01-03 01:22:17.82	113.92	45.22	-33.9	-53.4	3.8	7.45e-01	0	43	104	0	28	34018
2026-01-03 01:22:19.81	115.19	45.04	-33.9	-53.4	3.8	7.47e-01	0	43	104	0	28	34029
2026-01-03 01:22:21.80	116.44	44.85	-33.9	-53.4	3.8	7.45e-01	0	43	104	0	28	33889
2026-01-03 01:22:23.80	117.68	44.64	-33.9	-53.3	3.8	7.47e-01	0	43	104	0	28	33784
2026-01-03 01:22:25.80	118.90	44.42	-33.9	-53.4	3.8	7.45e-01	0	43	104	0	28	33949
2026-01-03 01:22:27.80	120.11	44.18	-33.9	-53.4	3.8	7.43e-01	0	43	104	0	28	33953
2026-01-03 01:22:29.81	121.31	43.94	-33.8	-53.3	3.8	7.45e-01	0	43	104	0	28	33760
2026-01-03 01:22:31.81	122.48	43.68	-33.7	-53.1	3.8	7.46e-01	0	43	104	0	28	33432
2026-01-03 01:22:33.81	123.63	43.41	-33.7	-52.9	3.8	7.44e-01	0	43	104	0	28	33055
2026-01-03 01:22:35.81	124.76	43.13	-33.6	-52.7	3.8	7.48e-01	0	43	104	0	28	32567
2026-01-03 01:22:37.79	125.86	42.84	-33.6	-52.7	3.8	7.47e-01	0	43	104	0	28	32544
2026-01-03 01:22:39.79	126.95	42.55	-33.6	-52.7	3.8	7.47e-01	0	43	104	0	28	32786
2026-01-03 01:22:41.78	128.02	42.24	-33.6	-52.6	3.8	7.44e-01	0	43	104	0	28	32263
2026-01-03 01:22:43.77	129.06	41.93	-33.5	-52.4	3.8	7.47e-01	0	43	104	0	28	31371
2026-01-03 01:22:45.76	130.09	41.61	-33.5	-52.5	3.8	7.48e-01	0	43	104	0	28	31866
2026-01-03 01:22:47.75	131.09	41.28	-33.5	-51.8	3.8	7.47e-01	0	43	104	0	28	29520
2026-01-03 01:22:49.76	132.09	40.95	-33.5	-52.5	3.8	7.45e-01	0	43	104	0	28	32100
2026-01-03 01:22:51.77	133.06	40.61	-33.5	-52.1	3.8	7.46e-01	0	43	104	0	28	30582
2026-01-03 01:22:53.77	134.01	40.26	-33.5	-52.5	3.8	7.42e-01	0	43	104	0	28	31793
2026-01-03 01:22:55.78	134.94	39.91	-33.4	-48.1	4.0	7.36e-01	0	43	104	0	28	19658
2026-01-03 01:22:57.78	135.85	39.55	-33.3	-44.9	6.9	6.63e-01	0	43	0	524288	27	13714
2026-01-03 01:22:59.77	136.74	39.20	-33.2	-43.5	7.5	6.46e-01	0	43	104	1572864	27	11863
2026-01-03 01:23:01.77	137.61	38.84	-29.7	-32.2	19.0	6.04e-01	0	43	0	2097152	21	4829
2026-01-03 01:23:03.77	138.46	38.47	-30.9	-35.1	17.0	6.03e-01	0	43	0	5767168	22	5897
2026-01-03 01:23:05.77	139.29	38.10	-31.2	-35.2	16.1	6.01e-01	0	43	0	9437184	24	5707
2026-01-03 01:23:07.76	140.09	37.74	-31.0	-34.6	16.6	6.02e-01	0	43	0	13107200	24	5464
2026-01-03 01:23:09.78	140.89	37.36	-30.8	-34.4	17.0	6.02e-01	0	43	0	17301504	23	5461
2026-01-03 01:23:11.78	141.67	36.99	-31.0	-35.2	16.5	6.04e-01	0	43	0	20971520	23	5818
2026-01-03 01:23:13.79	142.43	36.62	-30.7	-34.1	17.2	6.03e-01	0	43	0	24641536	23	5314
2026-01-03 01:23:15.78	143.17	36.24	-30.8	-35.0	16.9	6.02e-01	0	43	0	28311552	22	5851
2026-01-03 01:23:17.79	143.90	35.87	-30.8	-34.3	17.1	6.02e-01	0	43	0	31981568	23	5423
2026-01-03 01:23:19.79	144.60	35.49	-29.7	-32.4	18.9	6.03e-01	0	43	0	35651584	21	4910
2026-01-03 01:23:21.79	145.29	35.12	-29.3	-32.2	19.7	6.03e-01	0	43	0	39321600	19	5049
2026-01-03 01:23:23.80	145.97	34.74	-28.7	-31.3	20.5	6.02e-01	0	43	0	43515904	18	4843
2026-01-03 01:23:25.81	146.63	34.37	-28.6	-31.1	20.6	6.02e-01	0	43	0	47185920	18	4799
2026-01-03 01:23:27.80	147.27	33.99	-28.7	-31.4	20.5	6.02e-01	0	43	0	50855936	18	4867
2026-01-03 01:23:29.80	147.90	33.62	-28.4	-31.1	20.9	6.03e-01	0	43	0	54525952	17	4895
2026-01-03 01:23:31.80	148.52	33.25	-28.3	-30.9	21.0	6.03e-01	0	43	0	58195968	17	4816
2026-01-03 01:23:33.80	149.12	32.88	-28.3	-30.8	21.1	6.03e-01	0	43	0	62390272	17	4799
2026-01-03 01:23:35.80	149.71	32.51	-28.3	-30.9	21.0	6.01e-01	0	43	0	66060288	17	4837
2026-01-03 01:23:37.80	150.28	32.15	-28.4	-31.1	20.9	6.02e-01	0	43	0	69730304	17	4891
2026-01-03 01:23:39.80	150.84	31.78	-28.4	-31.2	20.8	6.02e-01	0	43	0	73400320	17	4919
2026-01-03 01:23:41.80	151.39	31.42	-28.6	-31.1	20.6	6.03e-01	0	43	0	77070336	18	4782
2026-01-03 01:23:43.81	151.93	31.06	-27.9	-30.3	20.6	6.03e-01	0	43	0	80740352	18	4756
2026-01-03 01:23:45.80	152.45	30.70	-28.7	-31.3	20.4	6.03e-01	0	43	0	84410368	18	4864
2026-01-03 01:23:47.80	152.97	30.35	-28.7	-31.4	20.4	6.03e-01	0	43	0	88080384	18	4884
2026-01-03 01:23:49.81	153.47	29.99	-28.6	-31.5	18.4	6.00e-01	0	43	0	92274688	17	5036
2026-01-03 01:23:51.81	153.96	29.64	-28.6	-31.5	20.6	6.04e-01	0	43	0	95944704	17	5045
2026-01-03 01:23:53.81	154.44	29.29	-28.4	-31.1	19.5	6.05e-01	0	43	0	99614720	17	4900
2026-01-03 01:23:55.82	154.91	28.94	-28.7	-31.4	19.8	6.02e-01	0	43	0	103284736	18	4883
2026-01-03 01:23:57.82	155.37	28.60	-28.9	-31.7	20.2	6.01e-01	0	43	0	106954752	18	5010
2026-01-03 01:23:59.84	155.83	28.25	-29.0	-32.0	19.9	6.03e-01	0	43	0	111149056	18	5104
2026-01-03 01:24:01.83	156.27	27.92	-29.6	-32.7	19.8	6.02e-01	0	43	0	114819072	19	5127
2026-01-03 01:24:03.84	156.70	27.58	-28.7	-31.4	20.3	6.00e-01	0	43	0	118489088	18	4883
2026-01-03 01:24:05.84	157.12	27.25	-28.6	-31.1	20.4	6.03e-01	0	43	0	122159104	18	4811
2026-01-03 01:24:07.83	157.53	26.92	-28.7	-31.2	20.4	6.03e-01	0	43	0	125829120	18	4831
2026-01-03 01:24:09.82	157.93	26.59	-28.8	-31.6	20.1	6.02e-01	0	43	0	129499136	18	4981
2026-01-03 01:24:11.81	158.33	26.27	-28.9	-31.9	19.9	6.02e-01	0	43	0	133169152	18	5067
2026-01-03 01:24:13.81	158.72	25.95	-28.9	-31.9	20.0	6.04e-01	0	43	0	137363456	18	5087
2026-01-03 01:24:15.82	159.10	25.63	-28.9	-32.0	19.6	6.02e-01	0	43	0	141033472	18	5102
2026-01-03 01:24:17.81	159.47	25.31	-28.9	-32.0	19.4	6.03e-01	0	43	0	144703488	18	5103
2026-01-03 01:24:19.81	159.83	25.00	-29.0	-32.0	19.9	6.01e-01	0	43	0	148373504	18	5129
2026-01-03 01:24:21.81	160.19	24.69	-29.0	-32.1	19.4	6.01e-01	0	43	0	152043520	18	5168
2026-01-03 01:24:23.80	160.54	24.38	-29.0	-32.2	19.7	6.01e-01	0	43	0	155713536	18	5208
2026-01-03 01:24:25.80	160.88	24.08	-29.1	-32.3	19.7	6.04e-01	0	43	0	159383552	18	5238
2026-01-03 01:24:27.80	161.22	23.78	-29.5	-32.9	19.0	6.03e-01	0	43	0	163577856	19	5355
2026-01-03 01:24:29.81	161.55	23.48	-29.3	-32.5	19.3	6.03e-01	0	43	0	167247872	19	5180
2026-01-03 01:24:31.80	161.88	23.18	-29.3	-32.4	19.3	6.05e-01	0	43	0	170917888	19	5159
2026-01-03 01:24:33.79	162.19	22.89	-29.3	-32.5	18.9	6.03e-01	0	43	0	174587904	19	5179
2026-01-03 01:24:35.79	162.50	22.60	-29.3	-32.4	18.8	6.03e-01	0	43	0	178257920	19	5147
2026-01-03 01:24:37.81	162.81	22.31	-29.2	-32.2	19.4	6.00e-01	0	43	0	181927936	19	5091
2026-01-03 01:24:39.81	163.11	22.03	-29.1	-32.3	19.6	6.02e-01	0	43	0	186122240	18	5251
2026-01-03 01:24:41.82	163.41	21.74	-29.1	-32.4	19.5	6.04e-01	0	43	0	189792256	18	5273
2026-01-03 01:24:43.84	163.70	21.46	-28.9	-32.0	19.8	6.03e-01	0	43	0	193462272	18	5126
2026-01-03 01:24:45.85	163.99	21.18	-28.9	-32.0	19.8	6.01e-01	0	43	0	197132288	18	5141
2026-01-03 01:24:47.85	164.27	20.91	-29.1	-32.4	19.6	6.03e-01	0	43	0	200802304	18	5278
2026-01-03 01:24:49.87	164.55	20.63	-28.8	-31.7	19.9	6.02e-01	0	43	0	204996608	18	5033
2026-01-03 01:24:51.88	164.82	20.36	-28.9	-32.1	19.7	6.02e-01	0	43	0	208666624	18	5183
2026-01-03 01:24:53.90	165.08	20.09	-28.9	-32.1	19.7	6.01e-01	0	43	0	212336640	18	5185
2026-01-03 01:24:55.91	165.34	19.83	-29.0	-32.3	19.6	6.04e-01	0	43	0	216006656	18	5233
2026-01-03 01:24:57.93	165.60	19.56	-29.2	-32.1	19.4	6.03e-01	0	43	0	219676672	19	5062
2026-01-03 01:24:59.93	165.85	19.30	-29.2	-32.1	19.4	6.02e-01	0	43	0	223346688	19	5053
2026-01-03 01:25:01.94	166.10	19.05	-29.1	-32.1	19.4	6.05e-01	0	43	0	227540992	19	5036
2026-01-03 01:25:03.96	166.35	18.79	-29.2	-32.1	19.4	6.03e-01	0	43	0	231211008	19	5053
2026-01-03 01:25:05.96	166.58	18.54	-29.1	-31.9	19.4	6.04e-01	0	43	0	234881024	19	4971
2026-01-03 01:25:07.98	166.82	18.29	-29.0	-32.3	19.5	6.01e-01	0	43	0	238551040	18	5251
2026-01-03 01:25:09.99	167.05	18.04	-29.5	-33.0	18.8	6.04e-01	0	43	0	242221056	19	5415
2026-01-03 01:25:12.00	167.28	17.79	-29.1	-32.1	19.3	6.04e-01	0	43	0	246415360	19	5074
2026-01-03 01:25:14.01	167.50	17.55	-29.2	-32.2	19.3	6.02e-01	0	43	0	250085376	19	5104
2026-01-03 01:25:16.02	167.72	17.31	-29.2	-32.2	19.2	6.02e-01	0	43	0	253755392	19	5126
2026-01-03 01:25:18.03	167.94	17.07	-29.0	-32.2	19.5	6.02e-01	0	43	0	257425408	18	5223
2026-01-03 01:25:20.03	168.15	16.83	-29.3	-32.7	19.0	6.04e-01	0	43	0	261095424	19	5279
2026-01-03 01:25:22.01	168.36	16.60	-29.0	-32.2	19.5	6.03e-01	0	43	0	264765440	18	5212
2026-01-03 01:25:24.02	168.57	16.37	-29.2	-32.2	19.2	6.04e-01	0	43	0	268435456	19	5097
2026-01-03 01:25:26.03	168.77	16.14	-29.0	-32.4	19.3	6.04e-01	0	43	0	272105472	18	5292
2026-01-03 01:25:28.04	168.97	15.91	-29.2	-32.3	19.1	6.03e-01	0	43	0	275775488	19	5156
2026-01-03 01:25:30.06	169.17	15.68	-29.4	-32.9	18.7	6.02e-01	0	43	0	279445504	19	5391
2026-01-03 01:25:32.08	169.36	15.46	-29.0	-31.8	19.4	6.01e-01	0	43	0	283639808	19	4982
2026-01-03 01:25:34.08	169.55	15.23	-28.9	-32.2	19.4	6.03e-01	0	43	0	287309824	18	5239
2026-01-03 01:25:36.09	169.74	15.01	-28.7	-31.7	19.7	6.04e-01	0	43	0	290979840	18	5058
2026-01-03 01:25:38.10	169.93	14.80	-28.8	-31.8	19.7	6.05e-01	0	43	0	294649856	18	5087
2026-01-03 01:25:40.11	170.11	14.58	-28.8	-31.7	19.6	6.00e-01	0	43	0	298319872	18	5076
2026-01-03 01:25:42.13	170.29	14.36	-28.7	-31.6	19.7	6.02e-01	0	43	0	302514176	18	5038
2026-01-03 01:25:44.14	170.47	14.15	-28.9	-32.0	19.5	6.04e-01	0	43	0	306184192	18	5176
2026-01-03 01:25:46.15	170.64	13.94	-28.8	-32.0	19.5	6.03e-01	0	43	0	309854208	18	5156
2026-01-03 01:25:48.15	170.81	13.73	-28.8	-32.0	19.5	6.04e-01	0	43	0	313524224	18	5168
2026-01-03 01:25:50.16	170.98	13.52	-28.8	-31.9	19.6	6.03e-01	0	43	0	317194240	18	5130
2026-01-03 01:25:52.17	171.15	13.32	-28.9	-32.1	19.4	5.99e-01	0	43	0	320864256	18	5193
2026-01-03 01:25:54.19	171.32	13.11	-28.8	-31.8	19.6	6.03e-01	0	43	0	325058560	18	5095
2026-01-03 01:25:56.19	171.48	12.91	-28.8	-31.9	19.5	6.02e-01	0	43	0	328728576	18	5150
2026-01-03 01:25:58.20	171.64	12.71	-28.8	-31.9	19.5	6.03e-01	0	43	0	332398592	18	5140
2026-01-03 01:26:00.21	171.80	12.51	-29.1	-32.2	19.0	6.03e-01	0	43	0	336068608	19	5131
2026-01-03 01:26:02.22	171.95	12.31	-28.9	-32.0	19.4	6.02e-01	0	43	0	339738624	18	5186
2026-01-03 01:26:04.24	172.11	12.12	-28.9	-32.1	19.4	6.02e-01	0	43	0	343932928	18	5193
2026-01-03 01:26:06.25	172.26	11.92	-27.8	-31.1	19.3	6.03e-01	0	43	0	347602944	18	5292
2026-01-03 01:26:08.26	172.41	11.73	-28.9	-32.1	19.2	6.04e-01	0	43	0	351272960	18	5226
2026-01-03 01:26:10.27	172.56	11.54	-29.0	-32.5	19.0	6.02e-01	0	43	0	354942976	18	5359
2026-01-03 01:26:12.28	172.71	11.35	-29.1	-32.6	19.0	6.01e-01	0	43	0	358612992	18	5402
2026-01-03 01:26:14.29	172.85	11.16	-29.4	-32.9	18.5	5.99e-01	0	43	0	362283008	19	5409
2026-01-03 01:26:16.31	172.99	10.97	-29.1	-32.2	18.9	6.02e-01	0	43	0	366477312	19	5149
2026-01-03 01:26:18.32	173.13	10.79	-29.1	-32.3	18.9	6.03e-01	0	43	0	370147328	19	5167
2026-01-03 01:26:20.33	173.27	10.60	-29.1	-32.3	18.9	6.02e-01	0	43	0	373817344	19	5159
2026-01-03 01:26:22.35	173.41	10.42	-29.0	-32.5	19.0	6.02e-01	0	43	0	377487360	18	5360
2026-01-03 01:26:24.36	173.54	10.24	-29.2	-32.4	18.7	6.03e-01	0	43	0	381681664	19	5216
2026-01-03 01:26:26.37	173.68	10.06	-29.2	-32.6	18.6	6.03e-01	0	43	0	385351680	19	5281
2026-01-03 01:26:28.39	173.81	9.88	-29.3	-32.8	18.5	6.02e-01	0	43	0	389021696	19	5367
2026-01-03 01:26:30.41	173.94	9.70	-29.4	-32.9	18.3	6.03e-01	0	43	0	392691712	19	5429
2026-01-03 01:26:32.42	174.07	9.52	-29.5	-33.0	17.9	6.03e-01	0	43	0	396361728	20	5349
2026-01-03 01:26:34.43	174.19	9.35	-29.4	-33.0	18.2	6.02e-01	0	43	0	400556032	19	5465
2026-01-03 01:26:36.45	174.32	9.18	-29.4	-33.2	18.1	6.04e-01	0	43	0	404226048	19	5534
2026-01-03 01:26:38.46	174.44	9.00	-29.5	-33.3	18.0	6.03e-01	0	43	0	407896064	19	5608
2026-01-03 01:26:40.47	174.57	8.83	-29.6	-33.6	17.8	6.05e-01	0	43	0	411566080	19	5720
2026-01-03 01:26:42.49	174.69	8.66	-29.3	-32.8	18.3	6.04e-01	0	43	0	415236096	19	5403
2026-01-03 01:26:44.50	174.81	8.49	-29.3	-32.7	18.3	6.04e-01	0	43	0	418906112	19	5360
2026-01-03 01:26:46.50	174.92	8.33	-29.3	-32.8	18.3	6.02e-01	0	43	0	423100416	19	5417
2026-01-03 01:26:48.52	175.04	8.16	-29.3	-32.9	18.3	6.05e-01	0	43	0	426770432	19	5424
2026-01-03 01:26:50.53	175.16	7.99	-29.3	-33.0	18.1	6.03e-01	0	43	0	430440448	19	5469
2026-01-03 01:26:52.54	175.27	7.83	-29.4	-33.0	18.1	6.04e-01	0	43	0	434110464	19	5508
2026-01-03 01:26:54.55	175.38	7.67	-29.5	-33.4	17.8	6.03e-01	0	43	0	437780480	19	5668
2026-01-03 01:26:56.56	175.50	7.51	-29.5	-33.4	17.8	6.03e-01	0	43	0	441974784	19	5667
2026-01-03 01:26:58.58	175.61	7.34	-29.5	-33.5	17.7	6.03e-01	0	43	0	445644800	19	5718
2026-01-03 01:27:00.60	175.72	7.18	-28.6	-32.4	17.3	6.03e-01	0	43	0	449314816	20	5541
2026-01-03 01:27:02.61	175.82	7.03	-32.6	-52.0	3.8	7.46e-01	0	43	104	451411968	26	33608
2026-01-03 01:27:04.62	175.93	6.87	-33.2	-52.5	3.8	7.49e-01	0	43	104	451411968	27	32990

#Closed at: 2026-01-03 01:27:05
#Recorded file [451 MB]: D:/data/31010_260103_042300.dat