passes_logs/2026/01/03/R2M6_AANII_01/R2M6_AANII_01__20260103_115456_NOAA_20_JPSS-1_rec.log

#Pass ID: 20260103_115456_NOAA 20 (JPSS-1)
#Satellite: NOAA 20 (JPSS-1)
#Configuration: NOAA 20
#almurnet v.1.7.20240730
#Start time: 2026-01-03 11:54:58

#Version: 2.2.20231116
#Station: R2M6_AANII_01
#Location: 30.233357 lon 59.946436 lat
#TLE: 1 43013U 17073A   26002.21975278  .00000202  00000+0  11669-3 0  9999
#TLE: 2 43013  98.7622 303.2950 0001915  57.9213 302.2149 14.19532512420923

#Time	Az	El	Level	Level2	SNR	BER	BlckErr	Temp	State	Recorded	gain1	gain2
2026-01-03 11:54:58.20	212.68	7.11	-31.1	-36.5	5.2	1.19e+00	0	40	0	0	23	6655
2026-01-03 11:55:01.22	212.96	7.30	-31.5	-37.3	7.6	1.09e-01	0	40	0	1048576	24	7026
2026-01-03 11:55:04.22	213.25	7.49	-31.0	-35.5	9.5	2.51e-02	0	41	0	7340032	23	6056
2026-01-03 11:55:07.23	213.55	7.69	-30.8	-35.1	10.2	6.49e-03	0	41	0	12582912	22	5942
2026-01-03 11:55:10.25	213.85	7.88	-30.3	-33.6	11.4	1.75e-03	0	41	0	18874368	22	5258
2026-01-03 11:55:13.26	214.15	8.08	-30.2	-33.8	11.6	5.61e-04	0	41	0	24117248	21	5416
2026-01-03 11:55:16.28	214.45	8.27	-30.4	-34.3	11.2	9.76e-04	0	41	0	29360128	21	5666
2026-01-03 11:55:19.30	214.76	8.47	-30.3	-34.0	11.5	8.62e-04	0	41	0	35651584	21	5508
2026-01-03 11:55:22.32	215.08	8.67	-30.3	-33.9	11.6	7.71e-04	0	41	0	40894464	21	5455
2026-01-03 11:55:25.34	215.40	8.87	-30.2	-33.7	11.7	5.73e-04	0	41	0	46137344	21	5395
2026-01-03 11:55:28.36	215.72	9.07	-30.2	-33.7	11.7	5.81e-04	0	41	0	52428800	21	5391
2026-01-03 11:55:31.38	216.05	9.27	-30.2	-33.7	11.7	6.23e-04	0	42	0	57671680	21	5380
2026-01-03 11:55:34.40	216.38	9.47	-30.0	-33.1	12.2	2.16e-04	0	41	0	63963136	21	5144
2026-01-03 11:55:37.42	216.71	9.67	-30.0	-32.8	12.5	1.27e-04	0	42	0	69206016	21	5006
2026-01-03 11:55:40.43	217.05	9.87	-29.9	-32.6	12.6	5.87e-05	0	42	0	74448896	21	4924
2026-01-03 11:55:43.45	217.40	10.08	-29.9	-32.6	12.7	9.15e-05	0	42	0	80740352	21	4911
2026-01-03 11:55:46.46	217.75	10.28	-29.9	-32.5	12.7	8.31e-05	0	42	0	85983232	21	4892
2026-01-03 11:55:49.44	218.10	10.48	-29.9	-32.7	12.6	9.53e-05	0	42	0	92274688	21	4969
2026-01-03 11:55:52.46	218.46	10.69	-29.9	-32.7	12.6	1.04e-04	0	42	0	97517568	21	4957
2026-01-03 11:55:55.47	218.82	10.90	-30.0	-32.8	12.5	1.12e-04	0	42	0	102760448	21	5008
2026-01-03 11:55:58.47	219.19	11.10	-30.0	-32.8	12.6	1.04e-04	0	42	0	109051904	21	4983
2026-01-03 11:56:01.49	219.56	11.31	-30.0	-32.9	12.5	1.17e-04	0	42	0	114294784	21	5025
2026-01-03 11:56:04.51	219.94	11.52	-30.0	-32.9	12.5	1.31e-04	0	42	0	120586240	21	5016
2026-01-03 11:56:07.53	220.32	11.73	-29.9	-32.6	12.7	6.48e-05	0	42	0	125829120	21	4924
2026-01-03 11:56:10.55	220.71	11.94	-29.8	-32.4	12.9	5.26e-05	0	42	0	131072000	21	4827
2026-01-03 11:56:13.56	221.11	12.15	-29.9	-32.5	12.9	3.89e-05	0	42	0	137363456	21	4855
2026-01-03 11:56:16.57	221.51	12.36	-29.9	-32.5	12.8	7.09e-05	0	42	0	142606336	21	4870
2026-01-03 11:56:19.59	221.92	12.57	-29.7	-32.5	13.2	2.97e-05	0	42	0	148897792	20	4985
2026-01-03 11:56:22.60	222.33	12.79	-29.6	-32.3	13.4	1.29e-05	0	42	0	154140672	20	4880
2026-01-03 11:56:25.62	222.74	13.00	-29.6	-32.2	13.5	1.06e-05	0	42	0	159383552	20	4854
2026-01-03 11:56:28.64	223.17	13.21	-29.7	-32.5	13.4	2.05e-05	0	42	0	165675008	20	4938
2026-01-03 11:56:31.65	223.60	13.43	-29.8	-32.8	13.2	2.28e-05	0	42	0	170917888	20	5052
2026-01-03 11:56:34.67	224.03	13.64	-29.8	-32.7	13.2	3.58e-05	0	42	0	177209344	20	5042
2026-01-03 11:56:37.69	224.47	13.85	-29.8	-32.8	13.1	2.89e-05	0	42	0	182452224	20	5074
2026-01-03 11:56:40.71	224.92	14.07	-29.6	-32.2	13.5	1.52e-05	0	43	0	187695104	20	4842
2026-01-03 11:56:43.73	225.38	14.29	-29.7	-32.3	13.5	2.20e-06	0	43	0	193986560	20	4877
2026-01-03 11:56:46.75	225.84	14.50	-29.6	-32.2	13.6	3.80e-06	0	42	0	199229440	20	4833
2026-01-03 11:56:49.74	226.30	14.71	-29.6	-32.0	13.7	6.10e-06	0	43	0	204472320	20	4771
2026-01-03 11:56:52.76	226.78	14.93	-29.7	-32.3	13.6	5.30e-06	0	43	0	210763776	20	4875
2026-01-03 11:56:55.78	227.26	15.15	-29.8	-32.5	13.4	2.28e-05	0	43	0	216006656	20	4962
2026-01-03 11:56:58.79	227.74	15.36	-29.7	-32.3	13.6	6.10e-06	0	43	0	222298112	20	4851
2026-01-03 11:57:01.81	228.24	15.58	-29.5	-31.8	13.9	1.50e-06	0	43	0	227540992	20	4687
2026-01-03 11:57:04.83	228.74	15.79	-29.7	-32.4	13.5	7.60e-06	0	43	0	232783872	20	4890
2026-01-03 11:57:07.85	229.25	16.01	-29.5	-31.7	14.0	3.00e-06	0	43	0	239075328	20	4657
2026-01-03 11:57:10.86	229.76	16.22	-29.5	-31.8	14.0	5.30e-06	0	43	0	244318208	20	4694
2026-01-03 11:57:13.88	230.29	16.44	-29.5	-31.7	14.1	2.20e-06	0	43	0	250609664	20	4646
2026-01-03 11:57:16.90	230.82	16.65	-29.6	-32.0	13.8	4.50e-06	0	43	0	255852544	20	4760
2026-01-03 11:57:19.90	231.35	16.87	-29.6	-32.1	13.8	4.50e-06	0	43	0	261095424	20	4792
2026-01-03 11:57:22.92	231.90	17.08	-29.7	-32.3	13.7	3.80e-06	0	43	0	267386880	20	4873
2026-01-03 11:57:25.93	232.45	17.29	-29.8	-32.5	13.5	5.30e-06	0	43	0	272629760	20	4938
2026-01-03 11:57:28.94	233.00	17.51	-29.5	-31.7	14.1	1.50e-06	0	43	0	278921216	20	4646
2026-01-03 11:57:31.97	233.57	17.72	-29.3	-31.3	14.4	2.20e-06	0	43	0	284164096	20	4519
2026-01-03 11:57:34.99	234.15	17.93	-29.3	-31.3	14.4	7.00e-07	0	43	0	289406976	20	4515
2026-01-03 11:57:38.00	234.73	18.14	-29.3	-31.8	14.5	1.50e-06	0	43	0	295698432	19	4757
2026-01-03 11:57:41.02	235.32	18.35	-29.2	-31.5	14.7	0.00e+00	0	43	0	300941312	19	4657
2026-01-03 11:57:44.04	235.92	18.55	-29.2	-31.3	14.8	0.00e+00	0	43	0	307232768	19	4611
2026-01-03 11:57:47.06	236.53	18.76	-29.2	-31.3	14.8	0.00e+00	0	43	0	312475648	19	4607
2026-01-03 11:57:50.08	237.15	18.96	-29.3	-31.6	14.6	0.00e+00	0	43	0	317718528	19	4717
2026-01-03 11:57:53.10	237.77	19.17	-28.9	-30.6	15.2	0.00e+00	0	43	0	324009984	19	4396
2026-01-03 11:57:56.11	238.40	19.37	-29.0	-31.0	15.1	0.00e+00	0	43	0	329252864	19	4493
2026-01-03 11:57:59.13	239.04	19.57	-29.0	-31.0	15.1	0.00e+00	0	43	0	335544320	19	4495
2026-01-03 11:58:02.15	239.69	19.76	-29.1	-31.2	14.9	0.00e+00	0	43	0	340787200	19	4568
2026-01-03 11:58:05.17	240.34	19.96	-29.3	-31.7	14.6	0.00e+00	0	43	0	346030080	19	4735
2026-01-03 11:58:08.18	241.00	20.15	-29.5	-32.0	14.4	7.00e-07	0	43	0	352321536	19	4842
2026-01-03 11:58:11.19	241.67	20.34	-29.2	-31.3	14.9	0.00e+00	0	43	0	357564416	19	4606
2026-01-03 11:58:14.20	242.35	20.53	-29.4	-31.8	14.6	0.00e+00	0	43	0	363855872	19	4750
2026-01-03 11:58:17.22	243.04	20.71	-29.6	-32.5	14.2	0.00e+00	0	43	0	369098752	19	4991
2026-01-03 11:58:20.23	243.73	20.90	-29.8	-32.9	13.9	7.00e-07	0	43	0	374341632	19	5127
2026-01-03 11:58:23.26	244.44	21.08	-29.9	-33.1	13.8	3.00e-06	0	43	0	380633088	19	5213
2026-01-03 11:58:26.26	245.15	21.25	-30.0	-33.1	13.4	1.06e-05	0	43	0	385875968	20	5132
2026-01-03 11:58:29.28	245.87	21.43	-30.2	-33.6	13.1	3.96e-05	0	43	0	391118848	20	5297
2026-01-03 11:58:32.30	246.60	21.60	-30.2	-33.6	13.1	3.20e-05	0	43	0	397410304	20	5305
2026-01-03 11:58:35.31	247.33	21.76	-30.3	-33.7	13.0	4.73e-05	0	43	0	402653184	20	5361
2026-01-03 11:58:38.34	248.07	21.93	-29.9	-32.6	13.8	7.60e-06	0	43	0	408944640	20	4922
2026-01-03 11:58:41.35	248.82	22.08	-30.1	-33.1	13.4	1.52e-05	0	43	0	414187520	20	5128
2026-01-03 11:58:44.36	249.58	22.24	-29.7	-32.2	14.0	1.50e-06	0	43	0	419430400	20	4803
2026-01-03 11:58:47.38	250.34	22.39	-29.8	-32.5	13.9	2.20e-06	0	43	0	425721856	20	4904
2026-01-03 11:58:50.40	251.12	22.53	-29.9	-32.7	13.7	3.80e-06	0	43	0	430964736	20	4961
2026-01-03 11:58:53.42	251.90	22.68	-30.3	-33.9	13.0	3.73e-05	0	43	0	437256192	20	5422
2026-01-03 11:58:56.44	252.68	22.81	-30.5	-33.9	12.6	8.69e-05	0	43	0	442499072	21	5307
2026-01-03 11:58:59.45	253.47	22.95	-30.6	-34.1	12.5	8.46e-05	0	43	0	447741952	21	5405
2026-01-03 11:59:02.47	254.27	23.07	-30.2	-33.0	13.2	2.21e-05	0	43	0	454033408	21	4952
2026-01-03 11:59:05.48	255.08	23.19	-30.1	-32.7	13.4	1.52e-05	0	43	0	459276288	21	4874
2026-01-03 11:59:08.50	255.89	23.31	-30.2	-33.1	13.2	2.28e-05	0	43	0	465567744	21	4984
2026-01-03 11:59:11.51	256.70	23.42	-30.0	-32.5	13.6	8.30e-06	0	43	0	470810624	21	4774
2026-01-03 11:59:14.53	257.52	23.53	-30.1	-32.6	13.5	9.10e-06	0	43	0	476053504	21	4824
2026-01-03 11:59:17.55	258.35	23.63	-30.2	-33.1	13.2	2.82e-05	0	43	0	482344960	21	4987
2026-01-03 11:59:20.56	259.18	23.72	-30.4	-33.5	12.9	4.57e-05	0	43	0	487587840	21	5156
2026-01-03 11:59:23.57	260.02	23.81	-30.4	-33.6	12.9	2.74e-05	0	43	0	493879296	21	5177
2026-01-03 11:59:26.59	260.86	23.89	-30.5	-33.8	12.7	7.24e-05	0	43	0	499122176	21	5250
2026-01-03 11:59:29.61	261.71	23.97	-30.7	-34.3	12.4	7.40e-05	0	43	0	504365056	21	5445
2026-01-03 11:59:32.62	262.55	24.04	-30.7	-34.3	12.4	1.24e-04	0	43	0	510656512	21	5480
2026-01-03 11:59:35.63	263.41	24.10	-30.4	-33.4	13.0	4.88e-05	0	43	0	515899392	21	5123
2026-01-03 11:59:38.66	264.27	24.16	-30.3	-33.1	13.2	1.60e-05	0	43	0	522190848	21	5010
2026-01-03 11:59:41.68	265.13	24.21	-30.2	-32.9	13.3	1.67e-05	0	43	0	527433728	21	4937
2026-01-03 11:59:44.69	265.98	24.26	-30.2	-32.9	13.3	1.60e-05	0	43	0	532676608	21	4920
2026-01-03 11:59:47.71	266.85	24.29	-29.9	-32.1	13.9	1.14e-05	0	43	0	538968064	21	4637
2026-01-03 11:59:50.73	267.72	24.33	-29.7	-32.2	14.2	5.30e-06	0	43	0	544210944	20	4772
2026-01-03 11:59:53.75	268.58	24.35	-30.2	-33.4	13.3	7.60e-06	0	43	0	550502400	20	5197
2026-01-03 11:59:56.76	269.45	24.37	-30.2	-33.4	13.3	2.05e-05	0	43	0	555745280	20	5213
2026-01-03 11:59:59.78	270.32	24.38	-29.8	-32.4	14.0	2.20e-06	0	43	0	560988160	20	4840
2026-01-03 12:00:02.79	271.19	24.38	-29.8	-32.3	14.0	3.00e-06	0	43	0	567279616	20	4826
2026-01-03 12:00:05.81	272.06	24.38	-30.1	-33.2	13.4	1.06e-05	0	43	0	572522496	20	5156
2026-01-03 12:00:08.82	272.92	24.37	-30.1	-33.3	13.4	1.06e-05	0	43	0	578813952	20	5174
2026-01-03 12:00:11.83	273.79	24.35	-30.0	-33.0	13.6	4.50e-06	0	43	0	584056832	20	5053
2026-01-03 12:00:14.84	274.65	24.33	-30.2	-33.4	13.3	9.10e-06	0	43	0	589299712	20	5216
2026-01-03 12:00:17.86	275.52	24.30	-30.3	-33.3	13.1	4.34e-05	0	43	0	595591168	21	5054
2026-01-03 12:00:20.88	276.38	24.27	-29.8	-31.8	14.0	1.50e-06	0	43	0	600834048	21	4554
2026-01-03 12:00:23.89	277.24	24.22	-29.7	-32.0	14.2	1.50e-06	0	43	0	606076928	20	4722
2026-01-03 12:00:26.91	278.10	24.17	-29.7	-32.2	14.1	0.00e+00	0	43	0	612368384	20	4770
2026-01-03 12:00:29.92	278.95	24.12	-30.1	-33.2	13.5	8.30e-06	0	43	0	617611264	20	5121
2026-01-03 12:00:32.93	279.80	24.05	-30.2	-33.4	13.3	9.90e-06	0	43	0	623902720	20	5210
2026-01-03 12:00:35.94	280.65	23.99	-30.2	-33.4	13.4	2.36e-05	0	43	0	629145600	20	5207
2026-01-03 12:00:38.96	281.50	23.91	-30.0	-33.0	13.5	1.52e-05	0	43	0	634388480	20	5079
2026-01-03 12:00:41.97	282.34	23.83	-29.9	-32.8	13.7	2.20e-06	0	43	0	640679936	20	4991
2026-01-03 12:00:44.99	283.17	23.74	-30.1	-33.2	13.5	1.22e-05	0	43	0	645922816	20	5152
2026-01-03 12:00:48.01	284.01	23.65	-29.9	-32.6	13.8	5.30e-06	0	43	0	652214272	20	4937
2026-01-03 12:00:51.03	284.83	23.55	-29.8	-32.4	14.0	2.20e-06	0	43	0	657457152	20	4850
2026-01-03 12:00:54.06	285.66	23.45	-29.8	-32.3	14.0	1.50e-06	0	43	0	662700032	20	4813
2026-01-03 12:00:57.07	286.47	23.34	-29.4	-31.4	14.6	7.00e-07	0	43	0	668991488	20	4523
2026-01-03 12:01:00.08	287.28	23.22	-29.4	-31.4	14.6	0.00e+00	0	43	0	674234368	20	4514
2026-01-03 12:01:03.10	288.08	23.10	-29.4	-31.5	14.5	7.00e-07	0	43	0	680525824	20	4544
2026-01-03 12:01:06.10	288.88	22.98	-29.3	-31.4	14.9	7.00e-07	0	43	0	685768704	19	4632
2026-01-03 12:01:09.13	289.67	22.85	-29.3	-31.5	14.9	0.00e+00	0	43	0	691011584	19	4642
2026-01-03 12:01:12.14	290.45	22.71	-29.1	-31.1	15.1	0.00e+00	0	43	0	697303040	19	4516
2026-01-03 12:01:15.16	291.23	22.57	-29.1	-31.0	15.2	0.00e+00	0	43	0	702545920	19	4483
2026-01-03 12:01:18.17	292.00	22.43	-28.5	-30.1	16.0	0.00e+00	0	43	0	708837376	18	4319
2026-01-03 12:01:21.20	292.77	22.28	-28.5	-30.0	16.0	0.00e+00	0	43	0	714080256	18	4304
2026-01-03 12:01:24.22	293.53	22.12	-28.6	-30.3	15.8	0.00e+00	0	43	0	719323136	18	4386
2026-01-03 12:01:27.23	294.27	21.97	-28.6	-30.3	15.9	0.00e+00	0	43	0	725614592	18	4387
2026-01-03 12:01:30.25	295.02	21.81	-29.1	-31.6	15.1	0.00e+00	0	43	0	730857472	18	4798
2026-01-03 12:01:33.28	295.75	21.64	-29.4	-32.3	14.7	0.00e+00	0	43	0	737148928	18	5040
2026-01-03 12:01:36.30	296.48	21.47	-29.2	-31.7	15.0	0.00e+00	0	43	0	742391808	18	4839
2026-01-03 12:01:39.30	297.19	21.30	-28.9	-31.0	15.4	0.00e+00	0	43	0	747634688	18	4605
2026-01-03 12:01:42.32	297.90	21.13	-28.8	-30.8	15.6	0.00e+00	0	43	0	753926144	18	4545
2026-01-03 12:01:45.34	298.61	20.95	-29.2	-31.8	14.9	0.00e+00	0	43	0	759169024	18	4871
2026-01-03 12:01:48.36	299.30	20.77	-30.0	-33.4	13.7	5.30e-06	0	43	0	765460480	19	5316
2026-01-03 12:01:51.38	299.99	20.59	-30.1	-33.3	13.2	1.75e-05	0	43	0	770703360	20	5213
2026-01-03 12:01:54.39	300.67	20.40	-30.1	-33.4	13.2	1.44e-05	0	43	0	775946240	20	5231
2026-01-03 12:01:57.41	301.34	20.21	-29.6	-31.8	14.3	1.50e-06	0	43	0	782237696	20	4649
2026-01-03 12:02:00.42	302.00	20.02	-29.5	-31.6	14.4	0.00e+00	0	43	0	787480576	20	4583
2026-01-03 12:02:03.44	302.65	19.83	-29.8	-32.3	13.9	7.00e-07	0	43	0	792723456	20	4834
2026-01-03 12:02:06.45	303.30	19.63	-30.0	-33.0	13.5	8.30e-06	0	43	0	799014912	20	5067
2026-01-03 12:02:09.48	303.94	19.43	-30.0	-33.0	13.5	9.90e-06	0	43	0	804257792	20	5077
2026-01-03 12:02:12.50	304.57	19.24	-30.1	-33.1	13.4	2.59e-05	0	43	0	810549248	20	5139
2026-01-03 12:02:15.52	305.19	19.03	-29.7	-32.2	14.0	7.00e-07	0	43	0	815792128	20	4787
2026-01-03 12:02:18.54	305.80	18.83	-29.6	-32.0	14.0	2.20e-06	0	43	0	821035008	20	4738
2026-01-03 12:02:21.56	306.41	18.63	-29.8	-32.5	13.7	8.30e-06	0	43	0	827326464	20	4920
2026-01-03 12:02:24.57	307.01	18.42	-29.8	-32.5	13.7	8.30e-06	0	43	0	832569344	20	4913
2026-01-03 12:02:27.57	307.59	18.22	-29.6	-32.0	14.0	2.20e-06	0	43	0	838860800	20	4729
2026-01-03 12:02:30.60	308.18	18.01	-29.8	-32.6	13.7	4.50e-06	0	43	0	844103680	20	4940
2026-01-03 12:02:33.61	308.75	17.80	-29.9	-32.7	13.6	9.10e-06	0	43	0	849346560	20	4977
2026-01-03 12:02:36.63	309.32	17.59	-30.3	-33.8	12.8	4.65e-05	0	43	0	855638016	20	5387
2026-01-03 12:02:39.65	309.88	17.38	-30.3	-33.9	12.8	6.86e-05	0	43	0	860880896	20	5432
2026-01-03 12:02:42.66	310.43	17.17	-30.3	-34.0	12.7	5.72e-05	0	43	0	867172352	20	5484
2026-01-03 12:02:45.67	310.97	16.96	-30.5	-34.5	12.4	1.43e-04	0	43	0	872415232	20	5687
2026-01-03 12:02:48.68	311.51	16.75	-31.1	-35.2	11.1	1.31e-03	0	43	0	877658112	22	5822
2026-01-03 12:02:51.69	312.04	16.54	-31.0	-34.9	11.3	1.61e-03	0	43	0	883949568	22	5660
2026-01-03 12:02:54.71	312.56	16.32	-30.1	-32.8	13.1	3.43e-05	0	43	0	889192448	21	4924
2026-01-03 12:02:57.73	313.07	16.11	-30.4	-33.7	12.5	6.56e-05	0	43	0	895483904	21	5259
2026-01-03 12:03:00.74	313.58	15.90	-30.1	-33.0	13.0	6.10e-05	0	43	0	900726784	21	4995
2026-01-03 12:03:03.76	314.08	15.68	-29.9	-32.4	13.3	1.22e-05	0	43	0	905969664	21	4779
2026-01-03 12:03:06.78	314.58	15.47	-30.0	-32.7	13.1	2.97e-05	0	43	0	912261120	21	4894
2026-01-03 12:03:09.80	315.07	15.26	-30.5	-34.1	12.2	1.50e-04	0	43	0	917504000	21	5433
2026-01-03 12:03:12.81	315.54	15.04	-30.3	-33.4	12.7	7.93e-05	0	43	0	923795456	21	5137
2026-01-03 12:03:15.84	316.02	14.83	-30.4	-33.7	12.4	1.01e-04	0	43	0	929038336	21	5291
2026-01-03 12:03:18.85	316.49	14.61	-30.4	-33.9	12.3	1.28e-04	0	43	0	934281216	21	5346
2026-01-03 12:03:21.86	316.95	14.40	-30.8	-34.9	11.6	7.12e-04	0	43	0	940572672	21	5784
2026-01-03 12:03:24.87	317.40	14.19	-30.3	-33.6	12.5	1.32e-04	0	43	0	945815552	21	5251
2026-01-03 12:03:27.88	317.85	13.98	-30.2	-33.1	12.8	1.04e-04	0	43	0	951058432	21	5053
2026-01-03 12:03:30.89	318.29	13.76	-30.6	-34.4	12.0	1.92e-04	0	43	0	957349888	21	5562
2026-01-03 12:03:33.91	318.72	13.55	-30.5	-34.0	12.2	2.54e-04	0	43	0	962592768	21	5414
2026-01-03 12:03:36.93	319.15	13.34	-30.2	-33.4	12.5	1.15e-04	0	43	0	968884224	21	5221
2026-01-03 12:03:39.96	319.58	13.13	-30.2	-33.4	12.6	1.85e-04	0	43	0	974127104	21	5157
2026-01-03 12:03:42.97	320.00	12.92	-30.4	-34.0	12.1	2.58e-04	0	43	0	979369984	21	5442
2026-01-03 12:03:46.00	320.41	12.70	-30.6	-34.5	11.7	4.75e-04	0	43	0	985661440	21	5661
2026-01-03 12:03:49.02	320.82	12.49	-30.7	-34.7	11.6	1.01e-03	0	43	0	990904320	21	5706
2026-01-03 12:03:52.04	321.22	12.28	-30.2	-33.2	12.6	9.99e-05	0	43	0	997195776	21	5100
2026-01-03 12:03:55.06	321.62	12.08	-30.3	-33.5	12.4	1.37e-04	0	43	0	1002438656	21	5224
2026-01-03 12:03:58.07	322.01	11.87	-30.5	-34.3	11.8	4.14e-04	0	43	0	1007681536	21	5548
2026-01-03 12:04:01.08	322.39	11.66	-30.6	-34.6	11.6	7.05e-04	0	43	0	1013972992	21	5682
2026-01-03 12:04:04.09	322.77	11.45	-30.4	-33.8	12.1	2.62e-04	0	43	0	1019215872	21	5352
2026-01-03 12:04:07.10	323.14	11.25	-30.4	-33.9	12.1	3.30e-04	0	43	0	1025507328	21	5369
2026-01-03 12:04:10.11	323.51	11.04	-30.3	-33.7	12.2	3.00e-04	0	43	0	1030750208	21	5315
2026-01-03 12:04:13.12	323.87	10.84	-30.4	-33.9	12.0	3.27e-04	0	43	0	1035993088	21	5400
2026-01-03 12:04:16.15	324.24	10.63	-30.4	-33.8	12.1	2.94e-04	0	43	0	1042284544	21	5358
2026-01-03 12:04:19.17	324.59	10.43	-30.4	-34.0	11.9	3.01e-04	0	43	0	1047527424	21	5440
2026-01-03 12:04:22.19	324.94	10.23	-30.5	-34.4	11.7	6.27e-04	0	43	0	1053818880	21	5583
2026-01-03 12:04:25.21	325.29	10.03	-30.7	-34.8	11.3	1.17e-03	0	43	0	1059061760	21	5795
2026-01-03 12:04:28.23	325.63	9.82	-30.8	-35.3	10.9	1.77e-03	0	43	0	1064304640	21	6031
2026-01-03 12:04:31.25	325.97	9.62	-30.6	-34.7	11.4	1.39e-03	0	43	0	1070596096	21	5758
2026-01-03 12:04:34.27	326.30	9.42	-30.5	-34.2	11.7	6.88e-04	0	43	0	1075838976	21	5543
2026-01-03 12:04:37.28	326.63	9.23	-30.5	-34.2	11.7	5.92e-04	0	43	0	1082130432	21	5523
2026-01-03 12:04:40.30	326.95	9.03	-30.6	-34.8	11.3	8.20e-04	0	43	0	1087373312	21	5789
2026-01-03 12:04:43.32	327.27	8.83	-30.8	-35.4	10.8	2.16e-03	0	43	0	1092616192	21	6102
2026-01-03 12:04:46.34	327.59	8.63	-30.9	-35.7	10.6	3.55e-03	0	43	0	1098907648	21	6243
2026-01-03 12:04:49.35	327.90	8.44	-31.2	-36.2	9.9	7.48e-03	0	43	0	1104150528	22	6381
2026-01-03 12:04:52.37	328.21	8.24	-31.0	-35.7	10.2	6.80e-03	0	43	0	1110441984	22	6145
2026-01-03 12:04:55.39	328.51	8.05	-31.1	-35.9	10.0	7.60e-03	0	43	0	1115684864	22	6229
2026-01-03 12:04:58.39	328.81	7.86	-31.1	-36.1	9.8	1.04e-02	0	43	0	1120927744	22	6363
2026-01-03 12:05:01.40	329.10	7.67	-31.2	-36.2	9.7	1.03e-02	0	43	0	1127219200	22	6412
2026-01-03 12:05:04.42	329.40	7.47	-31.1	-36.0	9.9	8.45e-03	0	43	0	1132462080	22	6324
2026-01-03 12:05:07.43	329.68	7.28	-31.2	-36.5	9.4	1.04e-02	0	43	0	1137704960	22	6582
2026-01-03 12:05:10.46	329.97	7.09	-32.9	-46.5	3.8	2.76e-02	0	43	104	1143996416	25	17192
2026-01-03 12:05:13.48	330.25	6.90	-33.6	-47.8	3.8	1.49e+00	0	43	104	1143996416	27	18414

#Closed at: 2026-01-03 12:05:14
#Recorded file [1143 MB]: D:/data/31010_260103_145500.dat