passes_logs/2026/01/03/R2M6_AANII_01/R2M6_AANII_01__20260103_160215_FENGYUN_3E_rec.log

#Pass ID: 20260103_160215_FENGYUN 3E
#Satellite: FENGYUN 3E
#Configuration: FENGYUN 3E
#almurnet v.1.7.20240730
#Start time: 2026-01-03 16:02:16

#Version: 2.2.20231116
#Station: R2M6_AANII_01
#Location: 30.233357 lon 59.946436 lat
#TLE: 1 49008U 21062A   26002.95568549 -.00000227  00000+0 -86494-4 0  9990
#TLE: 2 49008  98.7475   8.2258 0001442 163.3458 196.7766 14.19882681233131

#Time	Az	El	Level	Level2	SNR	BER	BlckErr	Temp	State	Recorded	gain1	gain2
2026-01-03 16:02:16.58	206.99	7.10	-27.8	-29.4	5.6	7.50e-01	0	41	0	0	15	4348
2026-01-03 16:02:19.59	207.25	7.30	-29.3	-31.6	9.5	1.97e-02	0	41	0	7340032	18	4711
2026-01-03 16:02:22.60	207.51	7.50	-27.8	-29.0	11.8	6.44e-04	0	41	0	28311552	16	4100
2026-01-03 16:02:25.62	207.78	7.71	-26.7	-27.4	13.2	3.54e-05	0	41	0	50331648	14	3887
2026-01-03 16:02:28.63	208.05	7.91	-26.9	-27.7	13.0	3.77e-05	0	41	0	72351744	14	3975
2026-01-03 16:02:31.65	208.32	8.11	-26.8	-27.6	13.2	1.37e-05	0	42	0	94371840	14	3939
2026-01-03 16:02:34.68	208.60	8.32	-26.7	-27.3	13.3	2.05e-05	0	41	0	116391936	14	3875
2026-01-03 16:02:37.70	208.89	8.53	-26.5	-26.9	13.6	8.00e-06	0	42	0	137363456	14	3758
2026-01-03 16:02:40.72	209.17	8.74	-26.6	-27.1	13.5	6.80e-06	0	42	0	159383552	14	3814
2026-01-03 16:02:43.74	209.46	8.95	-26.5	-26.9	13.7	8.00e-06	0	42	0	181403648	14	3764
2026-01-03 16:02:46.76	209.76	9.16	-26.4	-26.6	13.8	8.00e-06	0	42	0	203423744	14	3683
2026-01-03 16:02:49.78	210.05	9.37	-26.6	-27.0	13.6	5.70e-06	0	42	0	224395264	14	3791
2026-01-03 16:02:52.79	210.35	9.58	-26.4	-27.1	13.8	9.10e-06	0	42	0	246415360	13	3906
2026-01-03 16:02:55.80	210.66	9.80	-26.3	-26.9	14.0	6.80e-06	0	42	0	268435456	13	3856
2026-01-03 16:02:58.83	210.97	10.01	-26.2	-26.6	14.2	2.20e-06	0	42	0	290455552	13	3791
2026-01-03 16:03:01.85	211.29	10.23	-26.2	-26.6	14.2	0.00e+00	0	42	0	312475648	13	3778
2026-01-03 16:03:04.87	211.61	10.45	-26.2	-26.6	14.2	1.10e-06	0	42	0	333447168	13	3778
2026-01-03 16:03:07.89	211.93	10.66	-26.0	-26.1	14.5	0.00e+00	0	42	0	355467264	13	3671
2026-01-03 16:03:10.90	212.26	10.88	-26.1	-26.4	14.4	0.00e+00	0	42	0	377487360	13	3727
2026-01-03 16:03:13.93	212.60	11.10	-26.0	-26.7	14.5	0.00e+00	0	42	0	399507456	12	3900
2026-01-03 16:03:16.95	212.94	11.33	-26.0	-26.8	14.4	0.00e+00	0	43	0	421527552	12	3938
2026-01-03 16:03:19.96	213.28	11.55	-26.1	-26.9	14.4	2.20e-06	0	42	0	442499072	12	3944
2026-01-03 16:03:22.98	213.63	11.77	-26.1	-27.0	14.3	1.10e-06	0	42	0	464519168	12	3988
2026-01-03 16:03:26.00	213.98	12.00	-25.9	-26.5	14.6	0.00e+00	0	43	0	486539264	12	3850
2026-01-03 16:03:29.02	214.34	12.23	-25.9	-26.4	14.7	0.00e+00	0	43	0	508559360	12	3837
2026-01-03 16:03:32.03	214.70	12.45	-25.9	-26.5	14.6	1.10e-06	0	43	0	530579456	12	3865
2026-01-03 16:03:35.04	215.07	12.68	-25.9	-26.5	14.7	3.40e-06	0	43	0	551550976	12	3851
2026-01-03 16:03:38.06	215.45	12.91	-26.0	-26.7	14.6	0.00e+00	0	43	0	573571072	12	3903
2026-01-03 16:03:41.07	215.83	13.14	-25.5	-25.5	15.3	0.00e+00	0	43	0	594542592	12	3616
2026-01-03 16:03:44.09	216.22	13.37	-25.5	-26.1	15.3	0.00e+00	0	43	0	616562688	11	3852
2026-01-03 16:03:47.12	216.61	13.61	-25.5	-26.2	15.3	0.00e+00	0	43	0	638582784	11	3876
2026-01-03 16:03:50.12	217.01	13.84	-25.6	-26.2	15.2	0.00e+00	0	43	0	660602880	11	3884
2026-01-03 16:03:53.13	217.41	14.07	-25.4	-25.8	15.5	0.00e+00	0	43	0	682622976	11	3787
2026-01-03 16:03:56.15	217.83	14.31	-25.5	-26.0	15.4	0.00e+00	0	43	0	703594496	11	3830
2026-01-03 16:03:59.16	218.24	14.55	-25.5	-26.2	15.3	0.00e+00	0	43	0	725614592	11	3872
2026-01-03 16:04:02.16	218.67	14.78	-25.6	-26.2	15.3	0.00e+00	0	43	0	747634688	11	3873
2026-01-03 16:04:05.18	219.10	15.02	-25.4	-25.9	15.5	0.00e+00	0	43	0	768606208	11	3812
2026-01-03 16:04:08.19	219.53	15.26	-25.0	-25.1	15.9	0.00e+00	0	43	0	790626304	11	3611
2026-01-03 16:04:11.22	219.98	15.50	-24.9	-25.3	16.1	0.00e+00	0	43	0	812646400	10	3752
2026-01-03 16:04:14.24	220.43	15.74	-24.9	-25.3	16.1	0.00e+00	0	43	0	834666496	10	3764
2026-01-03 16:04:17.25	220.89	15.98	-25.1	-25.7	16.0	0.00e+00	0	43	0	856686592	10	3843
2026-01-03 16:04:20.27	221.36	16.23	-25.0	-25.4	16.1	0.00e+00	0	43	0	877658112	10	3796
2026-01-03 16:04:23.29	221.83	16.47	-24.9	-25.2	16.2	0.00e+00	0	43	0	899678208	10	3730
2026-01-03 16:04:26.30	222.31	16.71	-24.6	-24.6	16.5	0.00e+00	0	43	0	921698304	10	3603
2026-01-03 16:04:29.31	222.80	16.95	-24.5	-24.5	16.6	0.00e+00	0	43	0	943718400	10	3568
2026-01-03 16:04:32.33	223.29	17.20	-24.5	-24.5	16.6	0.00e+00	0	43	0	965738496	10	3578
2026-01-03 16:04:35.34	223.80	17.44	-24.5	-24.4	16.7	0.00e+00	0	43	0	986710016	10	3567
2026-01-03 16:04:38.36	224.31	17.69	-24.6	-24.5	16.6	0.00e+00	0	43	0	1008730112	10	3590
2026-01-03 16:04:41.38	224.83	17.93	-24.6	-24.7	16.5	0.00e+00	0	43	0	1030750208	10	3618
2026-01-03 16:04:44.40	225.36	18.18	-24.8	-24.9	16.4	0.00e+00	0	43	0	1052770304	10	3670
2026-01-03 16:04:47.42	225.90	18.42	-24.4	-24.6	16.9	0.00e+00	0	43	0	1073741824	9	3694
2026-01-03 16:04:50.43	226.44	18.67	-24.2	-24.3	17.1	0.00e+00	0	43	0	1095761920	9	3621
2026-01-03 16:04:53.45	226.99	18.91	-24.0	-23.9	17.3	0.00e+00	0	43	0	1117782016	9	3543
2026-01-03 16:04:56.45	227.55	19.16	-24.1	-24.0	17.2	0.00e+00	0	43	0	1139802112	9	3557
2026-01-03 16:04:59.47	228.13	19.40	-24.2	-24.3	17.1	0.00e+00	0	43	0	1160773632	9	3638
2026-01-03 16:05:02.49	228.71	19.65	-24.3	-24.4	17.0	0.00e+00	0	43	0	1182793728	9	3647
2026-01-03 16:05:05.51	229.30	19.89	-24.0	-23.8	17.4	0.00e+00	0	43	0	1204813824	9	3525
2026-01-03 16:05:08.52	229.89	20.13	-24.1	-24.0	17.3	0.00e+00	0	43	0	1226833920	9	3560
2026-01-03 16:05:11.54	230.50	20.38	-23.9	-23.7	17.4	0.00e+00	0	43	0	1247805440	9	3496
2026-01-03 16:05:14.56	231.12	20.62	-23.8	-23.8	17.6	0.00e+00	0	43	0	1269825536	8	3611
2026-01-03 16:05:17.58	231.75	20.86	-23.8	-23.9	17.6	0.00e+00	0	43	0	1291845632	8	3637
2026-01-03 16:05:20.60	232.38	21.10	-23.7	-23.7	17.7	0.00e+00	0	43	0	1313865728	8	3603
2026-01-03 16:05:23.62	233.03	21.34	-23.8	-23.8	17.6	0.00e+00	0	43	0	1334837248	8	3620
2026-01-03 16:05:26.63	233.69	21.57	-23.8	-23.8	17.6	0.00e+00	0	43	0	1356857344	8	3622
2026-01-03 16:05:29.65	234.35	21.81	-23.6	-23.6	17.8	0.00e+00	0	43	0	1378877440	8	3573
2026-01-03 16:05:32.67	235.03	22.04	-23.5	-23.2	18.0	0.00e+00	0	43	0	1400897536	8	3488
2026-01-03 16:05:35.69	235.71	22.27	-23.6	-23.4	17.9	0.00e+00	0	43	0	1422917632	8	3534
2026-01-03 16:05:38.70	236.41	22.50	-23.7	-23.6	17.8	0.00e+00	0	43	0	1443889152	8	3578
2026-01-03 16:05:41.71	237.11	22.73	-23.5	-23.3	17.9	0.00e+00	0	43	0	1465909248	8	3506
2026-01-03 16:05:44.74	237.83	22.95	-23.7	-23.6	17.8	0.00e+00	0	43	0	1487929344	8	3578
2026-01-03 16:05:47.74	238.55	23.17	-23.9	-24.1	17.6	0.00e+00	0	43	0	1509949440	8	3687
2026-01-03 16:05:50.76	239.29	23.39	-23.6	-23.5	17.9	0.00e+00	0	43	0	1530920960	8	3554
2026-01-03 16:05:53.78	240.03	23.61	-23.5	-23.3	18.0	0.00e+00	0	43	0	1552941056	8	3516
2026-01-03 16:05:56.79	240.79	23.82	-23.4	-23.1	18.1	0.00e+00	0	43	0	1574961152	8	3474
2026-01-03 16:05:59.81	241.55	24.03	-23.2	-23.1	18.3	0.00e+00	0	43	0	1596981248	7	3565
2026-01-03 16:06:02.83	242.33	24.23	-23.2	-23.2	18.3	1.10e-06	0	44	0	1619001344	7	3589
2026-01-03 16:06:05.84	243.11	24.43	-23.3	-23.3	18.2	5.70e-06	0	44	0	1639972864	7	3597
2026-01-03 16:06:08.86	243.91	24.63	-23.2	-23.2	18.3	1.10e-06	0	44	0	1661992960	7	3585
2026-01-03 16:06:11.88	244.71	24.82	-23.3	-23.3	18.3	2.20e-06	0	43	0	1684013056	7	3598
2026-01-03 16:06:14.89	245.52	25.01	-23.4	-23.5	18.1	0.00e+00	0	43	0	1706033152	7	3660
2026-01-03 16:06:17.90	246.35	25.19	-23.5	-23.8	18.0	0.00e+00	0	43	0	1727004672	7	3706
2026-01-03 16:06:20.91	247.18	25.37	-23.6	-24.0	17.9	0.00e+00	0	43	0	1749024768	7	3752
2026-01-03 16:06:23.93	248.02	25.55	-23.3	-23.4	18.2	0.00e+00	0	43	0	1771044864	7	3621
2026-01-03 16:06:26.94	248.87	25.71	-23.5	-23.7	18.0	0.00e+00	0	44	0	1793064960	7	3695
2026-01-03 16:06:29.96	249.73	25.88	-23.3	-23.3	18.2	0.00e+00	0	44	0	1814036480	7	3612
2026-01-03 16:06:32.98	250.60	26.03	-23.2	-23.1	18.4	0.00e+00	0	43	0	1836056576	7	3557
2026-01-03 16:06:35.99	251.47	26.18	-23.1	-22.8	18.5	0.00e+00	0	44	0	1858076672	7	3502
2026-01-03 16:06:39.01	252.35	26.33	-23.0	-22.8	18.5	0.00e+00	0	43	0	1880096768	7	3491
2026-01-03 16:06:42.03	253.25	26.46	-23.0	-23.1	18.6	0.00e+00	0	44	0	1902116864	6	3659
2026-01-03 16:06:45.04	254.14	26.60	-23.2	-23.6	18.4	0.00e+00	0	44	0	1923088384	6	3768
2026-01-03 16:06:48.06	255.05	26.72	-23.3	-23.8	18.3	0.00e+00	0	43	0	1945108480	6	3809
2026-01-03 16:06:51.08	255.96	26.84	-23.4	-24.1	18.1	0.00e+00	0	43	0	1967128576	6	3894
2026-01-03 16:06:54.10	256.88	26.95	-23.3	-23.4	18.2	0.00e+00	0	44	0	1988100096	7	3635
2026-01-03 16:06:57.11	257.81	27.05	-23.2	-23.1	18.4	0.00e+00	0	43	0	2010120192	7	3556
2026-01-03 16:07:00.12	258.74	27.14	-23.3	-23.4	18.3	0.00e+00	0	43	0	2032140288	7	3627
2026-01-03 16:07:03.15	259.68	27.23	-23.5	-23.7	18.1	0.00e+00	0	43	0	2054160384	7	3688
2026-01-03 16:07:06.18	260.62	27.31	-23.4	-23.6	18.1	0.00e+00	0	43	0	2076180480	7	3674
2026-01-03 16:07:09.20	261.57	27.38	-23.2	-23.1	18.4	0.00e+00	0	44	0	2097152000	7	3554
2026-01-03 16:07:12.21	262.51	27.45	-23.2	-23.1	18.4	0.00e+00	0	43	0	2119172096	7	3556
2026-01-03 16:07:15.23	263.47	27.50	-23.1	-22.9	18.5	0.00e+00	0	43	0	2141192192	7	3520
2026-01-03 16:07:18.25	264.42	27.55	-22.8	-22.9	18.8	0.00e+00	0	43	0	2163212288	6	3612
2026-01-03 16:07:21.28	265.38	27.59	-23.4	-24.1	18.2	0.00e+00	0	43	0	2184183808	6	3881
2026-01-03 16:07:24.29	266.34	27.62	-23.4	-24.0	18.2	0.00e+00	0	44	0	2206203904	6	3873
2026-01-03 16:07:27.32	267.31	27.64	-23.3	-23.8	18.3	0.00e+00	0	44	0	2228224000	6	3819
2026-01-03 16:07:30.33	268.27	27.65	-23.0	-23.2	18.6	0.00e+00	0	43	0	2250244096	6	3676
2026-01-03 16:07:33.34	269.23	27.66	-23.4	-24.0	18.2	0.00e+00	0	44	0	2272264192	6	3861
2026-01-03 16:07:36.36	270.19	27.65	-23.3	-23.8	18.3	0.00e+00	0	43	0	2293235712	6	3810
2026-01-03 16:07:39.37	271.15	27.64	-23.1	-23.4	18.5	0.00e+00	0	43	0	2315255808	6	3735
2026-01-03 16:07:42.38	272.11	27.62	-23.0	-23.3	18.5	0.00e+00	0	44	0	2337275904	6	3701
2026-01-03 16:07:45.40	273.07	27.59	-22.9	-23.0	18.7	0.00e+00	0	44	0	2359296000	6	3633
2026-01-03 16:07:48.42	274.03	27.55	-23.1	-23.4	18.5	0.00e+00	0	43	0	2380267520	6	3730
2026-01-03 16:07:51.43	274.98	27.50	-23.2	-23.7	18.3	0.00e+00	0	44	0	2402287616	6	3798
2026-01-03 16:07:54.45	275.93	27.45	-23.5	-24.2	18.0	0.00e+00	0	44	0	2424307712	6	3922
2026-01-03 16:07:57.46	276.88	27.39	-23.1	-22.9	18.5	0.00e+00	0	44	0	2446327808	7	3519
2026-01-03 16:08:00.48	277.82	27.31	-23.2	-23.1	18.4	0.00e+00	0	43	0	2468347904	7	3559
2026-01-03 16:08:03.50	278.76	27.24	-23.1	-22.9	18.5	0.00e+00	0	43	0	2489319424	7	3527
2026-01-03 16:08:06.52	279.70	27.15	-23.2	-23.2	18.4	0.00e+00	0	44	0	2511339520	7	3575
2026-01-03 16:08:09.54	280.63	27.05	-23.3	-23.3	18.3	0.00e+00	0	43	0	2533359616	7	3591
2026-01-03 16:08:12.55	281.55	26.95	-23.2	-23.2	18.3	0.00e+00	0	44	0	2555379712	7	3583
2026-01-03 16:08:15.57	282.47	26.84	-23.2	-23.2	18.3	0.00e+00	0	44	0	2576351232	7	3580
2026-01-03 16:08:18.59	283.38	26.73	-23.1	-23.0	18.4	0.00e+00	0	44	0	2598371328	7	3541
2026-01-03 16:08:21.62	284.29	26.60	-23.2	-23.1	18.4	0.00e+00	0	44	0	2620391424	7	3561
2026-01-03 16:08:24.64	285.19	26.47	-23.3	-23.3	18.3	0.00e+00	0	44	0	2642411520	7	3599
2026-01-03 16:08:27.65	286.07	26.34	-23.4	-23.5	18.2	0.00e+00	0	44	0	2663383040	7	3656
2026-01-03 16:08:30.68	286.96	26.19	-23.4	-23.5	18.2	0.00e+00	0	44	0	2685403136	7	3656
2026-01-03 16:08:33.70	287.83	26.04	-23.1	-22.9	18.4	0.00e+00	0	43	0	2707423232	7	3530
2026-01-03 16:08:36.72	288.70	25.89	-23.2	-23.1	18.4	0.00e+00	0	43	0	2729443328	7	3556
2026-01-03 16:08:39.74	289.56	25.72	-23.4	-23.6	18.1	0.00e+00	0	44	0	2751463424	7	3671
2026-01-03 16:08:42.76	290.41	25.56	-23.4	-23.6	18.1	0.00e+00	0	44	0	2772434944	7	3676
2026-01-03 16:08:45.78	291.25	25.38	-23.6	-23.9	18.0	0.00e+00	0	44	0	2794455040	7	3737
2026-01-03 16:08:48.80	292.08	25.21	-23.5	-23.6	18.0	0.00e+00	0	44	0	2816475136	7	3679
2026-01-03 16:08:51.82	292.90	25.02	-23.1	-23.0	18.4	0.00e+00	0	43	0	2838495232	7	3539
2026-01-03 16:08:54.83	293.71	24.84	-23.4	-23.5	18.2	0.00e+00	0	44	0	2860515328	7	3647
2026-01-03 16:08:57.84	294.51	24.65	-23.5	-23.7	18.0	0.00e+00	0	44	0	2881486848	7	3688
2026-01-03 16:09:00.86	295.30	24.45	-23.6	-24.0	17.9	0.00e+00	0	44	0	2903506944	7	3766
2026-01-03 16:09:03.88	296.09	24.25	-23.7	-24.1	17.8	0.00e+00	0	44	0	2925527040	7	3781
2026-01-03 16:09:06.90	296.86	24.05	-23.7	-24.2	17.8	0.00e+00	0	44	0	2947547136	7	3800
2026-01-03 16:09:09.92	297.63	23.84	-23.7	-24.1	17.8	0.00e+00	0	44	0	2968518656	7	3788
2026-01-03 16:09:12.93	298.38	23.63	-23.5	-23.7	18.0	0.00e+00	0	44	0	2990538752	7	3691
2026-01-03 16:09:15.94	299.12	23.41	-23.8	-24.3	17.7	0.00e+00	0	44	0	3012558848	7	3828
2026-01-03 16:09:18.96	299.85	23.20	-23.9	-24.5	17.6	0.00e+00	0	44	0	3034578944	7	3884
2026-01-03 16:09:21.99	300.58	22.98	-24.0	-24.7	17.5	0.00e+00	0	44	0	3056599040	7	3927
2026-01-03 16:09:25.02	301.29	22.75	-23.9	-24.6	17.6	0.00e+00	0	44	0	3077570560	7	3888
2026-01-03 16:09:28.03	302.00	22.53	-24.0	-24.8	17.5	0.00e+00	0	44	0	3099590656	7	3957
2026-01-03 16:09:31.05	302.69	22.30	-24.4	-25.2	17.0	0.00e+00	0	44	0	3121610752	8	3933
2026-01-03 16:09:34.07	303.37	22.07	-24.0	-24.3	17.5	0.00e+00	0	44	0	3143630848	8	3726
2026-01-03 16:09:37.08	304.04	21.84	-24.0	-24.3	17.5	0.00e+00	0	44	0	3165650944	8	3724
2026-01-03 16:09:40.10	304.71	21.61	-24.0	-24.3	17.4	0.00e+00	0	44	0	3186622464	8	3732
2026-01-03 16:09:43.11	305.36	21.37	-24.4	-25.1	17.1	0.00e+00	0	44	0	3208642560	8	3904
2026-01-03 16:09:46.13	306.00	21.14	-24.4	-25.1	17.1	0.00e+00	0	44	0	3230662656	8	3901
2026-01-03 16:09:49.15	306.64	20.90	-24.4	-25.2	17.0	0.00e+00	0	44	0	3252682752	8	3944
2026-01-03 16:09:52.16	307.26	20.66	-24.3	-24.9	17.1	0.00e+00	0	44	0	3273654272	8	3875
2026-01-03 16:09:55.17	307.88	20.42	-24.2	-24.8	17.1	0.00e+00	0	44	0	3295674368	8	3843
2026-01-03 16:09:58.18	308.48	20.18	-24.4	-25.0	17.0	0.00e+00	0	44	0	3317694464	8	3896
2026-01-03 16:10:01.19	309.08	19.94	-24.5	-25.3	16.9	0.00e+00	0	43	0	3339714560	8	3956
2026-01-03 16:10:04.22	309.67	19.70	-24.8	-25.5	16.5	0.00e+00	0	44	0	3360686080	9	3895
2026-01-03 16:10:07.24	310.25	19.46	-25.0	-26.0	16.2	0.00e+00	0	44	0	3382706176	9	4037
2026-01-03 16:10:10.26	310.82	19.21	-24.8	-25.0	16.5	0.00e+00	0	44	0	3404726272	10	3689
2026-01-03 16:10:13.28	311.38	18.97	-24.6	-24.5	16.8	0.00e+00	0	44	0	3426746368	10	3573
2026-01-03 16:10:16.29	311.93	18.73	-24.6	-24.5	16.7	0.00e+00	0	44	0	3447717888	10	3581
2026-01-03 16:10:19.32	312.48	18.48	-24.6	-24.6	16.6	0.00e+00	0	44	0	3469737984	10	3602
2026-01-03 16:10:22.34	313.01	18.24	-25.0	-25.5	16.2	0.00e+00	0	44	0	3491758080	10	3795
2026-01-03 16:10:25.36	313.54	18.00	-25.4	-26.3	15.8	0.00e+00	0	44	0	3513778176	10	3992
2026-01-03 16:10:28.37	314.06	17.75	-25.2	-25.4	16.0	0.00e+00	0	43	0	3534749696	11	3689
2026-01-03 16:10:31.39	314.57	17.51	-25.1	-25.0	16.2	0.00e+00	0	44	0	3556769792	11	3597
2026-01-03 16:10:34.41	315.07	17.27	-24.8	-25.0	16.5	0.00e+00	0	43	0	3578789888	10	3677
2026-01-03 16:10:37.44	315.57	17.02	-24.7	-24.7	16.6	0.00e+00	0	44	0	3600809984	10	3618
2026-01-03 16:10:40.46	316.06	16.78	-24.7	-24.9	16.5	0.00e+00	0	44	0	3622830080	10	3655
2026-01-03 16:10:43.48	316.54	16.54	-25.0	-25.4	16.2	0.00e+00	0	44	0	3644850176	10	3776
2026-01-03 16:10:46.50	317.01	16.30	-25.5	-26.6	15.6	0.00e+00	0	44	0	3665821696	10	4062
2026-01-03 16:10:49.52	317.48	16.06	-25.7	-26.5	15.3	0.00e+00	0	44	0	3687841792	11	3937
2026-01-03 16:10:52.54	317.94	15.82	-25.9	-26.9	15.1	0.00e+00	0	44	0	3709861888	11	4033
2026-01-03 16:10:55.54	318.38	15.58	-25.6	-26.2	15.5	0.00e+00	0	44	0	3731881984	11	3879
2026-01-03 16:10:58.55	318.83	15.34	-25.5	-26.0	15.6	0.00e+00	0	44	0	3752853504	11	3821
2026-01-03 16:11:01.57	319.27	15.11	-25.1	-25.2	16.0	0.00e+00	0	44	0	3774873600	11	3628
2026-01-03 16:11:04.59	319.70	14.87	-25.3	-25.5	15.8	0.00e+00	0	43	0	3796893696	11	3702
2026-01-03 16:11:07.61	320.12	14.63	-25.4	-25.9	15.6	0.00e+00	0	44	0	3818913792	11	3790
2026-01-03 16:11:10.63	320.54	14.40	-25.7	-26.4	15.3	0.00e+00	0	44	0	3840933888	11	3926
2026-01-03 16:11:13.66	320.95	14.16	-25.8	-26.8	15.1	0.00e+00	0	44	0	3861905408	11	4011
2026-01-03 16:11:16.68	321.36	13.93	-26.0	-27.1	14.9	1.10e-06	0	44	0	3883925504	11	4095
2026-01-03 16:11:19.69	321.76	13.70	-25.8	-26.8	15.1	0.00e+00	0	44	0	3905945600	11	4019
2026-01-03 16:11:22.72	322.15	13.47	-25.9	-26.9	15.0	0.00e+00	0	44	0	3927965696	11	4035
2026-01-03 16:11:25.72	322.54	13.24	-25.8	-26.6	15.2	0.00e+00	0	44	0	3948937216	11	3975
2026-01-03 16:11:28.73	322.92	13.01	-25.9	-26.9	15.0	0.00e+00	0	44	0	3970957312	11	4044
2026-01-03 16:11:31.74	323.29	12.78	-25.8	-26.7	15.1	0.00e+00	0	44	0	3992977408	11	4001
2026-01-03 16:11:34.76	323.66	12.56	-26.0	-27.2	14.8	0.00e+00	0	44	0	4014997504	11	4109
2026-01-03 16:11:37.77	324.03	12.33	-25.8	-26.3	15.0	0.00e+00	0	44	0	4035969024	12	3787
2026-01-03 16:11:40.78	324.38	12.11	-25.9	-26.4	14.9	0.00e+00	0	44	0	4057989120	12	3833
2026-01-03 16:11:43.80	324.74	11.88	-25.9	-26.5	14.8	0.00e+00	0	43	0	4080009216	12	3853
2026-01-03 16:11:46.81	325.09	11.66	-26.0	-26.7	14.7	0.00e+00	0	44	0	4100980736	12	3907
2026-01-03 16:11:49.83	325.43	11.44	-26.1	-26.8	14.6	0.00e+00	0	44	0	4123000832	12	3935
2026-01-03 16:11:52.84	325.77	11.22	-26.2	-27.2	14.4	0.00e+00	0	44	0	4145020928	12	4016
2026-01-03 16:11:55.87	326.11	11.00	-26.3	-27.4	14.3	3.40e-06	0	44	0	4167041024	12	4066
2026-01-03 16:11:58.88	326.44	10.78	-26.5	-27.8	14.0	2.20e-06	0	44	0	4189061120	12	4185
2026-01-03 16:12:01.90	326.76	10.57	-26.6	-27.4	13.9	5.70e-06	0	44	0	4210032640	13	3977
2026-01-03 16:12:04.92	327.08	10.35	-26.7	-27.8	13.7	3.40e-06	0	44	0	4232052736	13	4071
2026-01-03 16:12:07.94	327.40	10.14	-26.9	-28.2	13.5	9.10e-06	0	44	0	4254072832	13	4181
2026-01-03 16:12:10.96	327.71	9.92	-26.8	-28.0	13.6	2.17e-05	0	44	0	4276092928	13	4124
2026-01-03 16:12:13.96	328.02	9.71	-26.7	-27.7	13.7	6.80e-06	0	44	0	4297064448	13	4049
2026-01-03 16:12:16.98	328.32	9.50	-26.7	-27.8	13.7	8.00e-06	0	44	0	4319084544	13	4071
2026-01-03 16:12:19.99	328.62	9.29	-26.6	-27.6	13.7	1.25e-05	0	44	0	4341104640	13	4027
2026-01-03 16:12:23.00	328.91	9.08	-26.6	-27.6	13.7	5.70e-06	0	44	0	4363124736	13	4028
2026-01-03 16:12:26.01	329.20	8.87	-26.9	-28.3	13.3	1.83e-05	0	44	0	4384096256	13	4202
2026-01-03 16:12:29.03	329.49	8.67	-26.9	-28.2	13.3	2.05e-05	0	44	0	4406116352	13	4190
2026-01-03 16:12:32.04	329.77	8.46	-26.9	-28.2	13.4	2.63e-05	0	44	0	4428136448	13	4177
2026-01-03 16:12:35.06	330.05	8.26	-26.7	-27.9	13.5	1.14e-05	0	44	0	4450156544	13	4103
2026-01-03 16:12:38.08	330.33	8.05	-26.7	-27.8	13.5	9.10e-06	0	44	0	4472176640	13	4095
2026-01-03 16:12:41.10	330.60	7.85	-26.8	-27.9	13.4	1.60e-05	0	44	0	4493148160	13	4119
2026-01-03 16:12:44.11	330.87	7.65	-26.6	-27.6	13.6	1.48e-05	0	44	0	4515168256	13	4037
2026-01-03 16:12:47.13	331.13	7.45	-26.6	-27.7	13.5	6.80e-06	0	44	0	4537188352	13	4067
2026-01-03 16:12:50.15	331.40	7.25	-26.8	-28.0	13.3	2.17e-05	0	44	0	4559208448	13	4141
2026-01-03 16:12:53.18	331.66	7.05	-33.1	-43.0	3.8	8.45e-01	0	44	104	4574937088	25	11239
2026-01-03 16:12:56.20	331.91	6.86	-33.7	-43.1	3.8	8.46e-01	0	44	104	4574937088	27	10704

#Closed at: 2026-01-03 16:12:57
#Recorded file [4574 MB]: D:/data/31010_260103_190218.dat