passes_logs/2026/01/03/R2M6_AANII_01/R2M6_AANII_01__20260103_024104_FENGYUN_3D_rec.log

#Pass ID: 20260103_024104_FENGYUN 3D
#Satellite: FENGYUN 3D
#Configuration: FENGYUN 3D
#almurnet v.1.7.20240730
#Start time: 2026-01-03 02:41:06

#Version: 2.2.20231116
#Station: R2M6_AANII_01
#Location: 30.233357 lon 59.946436 lat
#TLE: 1 43010U 17072A   26002.31768531  .00000715  00000+0  35975-3 0  9993
#TLE: 2 43010  98.9910 333.9388 0001871 131.0716 229.0622 14.19693418421454

#Time	Az	El	Level	Level2	SNR	BER	BlckErr	Temp	State	Recorded	gain1	gain2
2026-01-03 02:41:06.02	17.20	7.15	-29.5	-33.0	5.2	7.93e-01	0	41	0	0	19	5391
2026-01-03 02:41:09.03	17.17	7.38	-29.6	-33.0	9.1	2.38e-02	0	41	0	5242880	19	5350
2026-01-03 02:41:12.05	17.13	7.62	-28.4	-30.9	11.2	1.32e-03	0	41	0	22020096	17	4781
2026-01-03 02:41:15.08	17.10	7.86	-27.7	-30.2	12.2	1.51e-04	0	41	0	39845888	15	4794
2026-01-03 02:41:18.09	17.06	8.10	-27.2	-29.4	13.0	3.66e-05	0	41	0	56623104	14	4632
2026-01-03 02:41:21.10	17.02	8.34	-26.6	-28.4	13.9	3.40e-06	0	41	0	73400320	13	4440
2026-01-03 02:41:24.12	16.98	8.58	-26.5	-28.3	14.0	2.91e-04	0	41	0	90177536	13	4423
2026-01-03 02:41:27.14	16.95	8.83	-26.5	-28.3	14.0	3.00e-04	0	41	0	106954752	13	4407
2026-01-03 02:41:30.16	16.90	9.08	-26.5	-28.3	14.0	1.10e-06	0	42	0	123731968	13	4419
2026-01-03 02:41:33.19	16.86	9.33	-26.5	-28.2	14.2	3.09e-04	0	41	0	141557760	13	4375
2026-01-03 02:41:36.20	16.82	9.59	-26.2	-28.1	14.5	2.80e-04	0	42	0	158334976	12	4467
2026-01-03 02:41:39.21	16.78	9.84	-26.1	-27.8	14.7	1.10e-06	0	41	0	175112192	12	4381
2026-01-03 02:41:42.24	16.73	10.11	-26.4	-28.5	14.3	3.19e-04	0	41	0	191889408	12	4583
2026-01-03 02:41:45.25	16.69	10.37	-26.4	-28.6	14.2	2.79e-04	0	42	0	208666624	12	4607
2026-01-03 02:41:48.27	16.64	10.63	-25.8	-27.2	15.1	0.00e+00	0	42	0	225443840	12	4201
2026-01-03 02:41:51.29	16.60	10.90	-26.2	-27.9	14.6	0.00e+00	0	42	0	243269632	12	4418
2026-01-03 02:41:54.31	16.55	11.17	-26.4	-28.4	14.4	2.95e-04	0	42	0	260046848	12	4541
2026-01-03 02:41:57.33	16.50	11.45	-25.6	-27.2	15.4	0.00e+00	0	42	0	276824064	11	4321
2026-01-03 02:42:00.34	16.45	11.73	-25.6	-27.1	15.6	0.00e+00	0	42	0	293601280	11	4275
2026-01-03 02:42:03.36	16.40	12.01	-25.6	-27.1	15.6	0.00e+00	0	42	0	310378496	11	4278
2026-01-03 02:42:06.37	16.34	12.29	-25.9	-27.3	15.2	0.00e+00	0	42	0	328204288	12	4224
2026-01-03 02:42:09.38	16.29	12.58	-25.9	-27.8	15.2	0.00e+00	0	42	0	344981504	11	4467
2026-01-03 02:42:12.40	16.23	12.87	-26.0	-28.0	15.2	0.00e+00	0	42	0	361758720	11	4522
2026-01-03 02:42:15.43	16.18	13.16	-25.8	-27.1	15.3	0.00e+00	0	42	0	378535936	12	4175
2026-01-03 02:42:18.45	16.12	13.46	-25.3	-27.0	16.0	0.00e+00	0	42	0	395313152	10	4370
2026-01-03 02:42:21.47	16.06	13.76	-25.3	-26.9	16.0	0.00e+00	0	42	0	413138944	10	4336
2026-01-03 02:42:24.47	16.00	14.07	-25.3	-26.9	16.0	0.00e+00	0	42	0	429916160	10	4333
2026-01-03 02:42:27.47	15.94	14.37	-25.7	-27.3	15.5	0.00e+00	0	42	0	446693376	11	4349
2026-01-03 02:42:30.49	15.87	14.69	-25.5	-27.0	15.8	0.00e+00	0	42	0	463470592	11	4245
2026-01-03 02:42:33.51	15.81	15.00	-25.5	-26.9	12.4	0.00e+00	0	42	0	480247808	11	4233
2026-01-03 02:42:36.53	15.74	15.32	-24.9	-26.6	16.5	0.00e+00	0	42	0	498073600	9	4375
2026-01-03 02:42:39.54	15.67	15.65	-24.8	-26.3	16.7	1.54e-03	0	42	0	514850816	9	4290
2026-01-03 02:42:42.56	15.60	15.98	-24.8	-26.5	16.6	0.00e+00	0	43	0	531628032	9	4341
2026-01-03 02:42:45.57	15.52	16.31	-24.6	-25.9	17.0	1.66e-03	0	42	0	548405248	9	4175
2026-01-03 02:42:48.59	15.45	16.65	-24.4	-25.5	17.1	1.50e-03	0	42	0	565182464	9	4094
2026-01-03 02:42:51.61	15.37	17.00	-24.3	-25.8	17.3	1.51e-03	0	43	0	581959680	8	4276
2026-01-03 02:42:54.62	15.29	17.34	-24.2	-25.5	17.5	1.48e-03	0	43	0	599785472	8	4188
2026-01-03 02:42:57.65	15.21	17.70	-24.0	-25.1	17.7	1.56e-03	0	43	0	616562688	8	4085
2026-01-03 02:43:00.66	15.13	18.06	-24.1	-25.3	17.5	1.48e-03	0	43	0	633339904	8	4151
2026-01-03 02:43:03.67	15.04	18.42	-23.9	-25.3	17.9	0.00e+00	0	43	0	650117120	7	4257
2026-01-03 02:43:06.69	14.95	18.79	-23.8	-25.2	17.9	0.00e+00	0	43	0	666894336	7	4213
2026-01-03 02:43:09.71	14.86	19.16	-23.7	-25.0	18.0	1.31e-03	0	43	0	683671552	7	4181
2026-01-03 02:43:12.73	14.77	19.54	-23.8	-25.2	17.9	0.00e+00	0	43	0	701497344	7	4222
2026-01-03 02:43:15.74	14.68	19.93	-24.2	-25.6	17.5	0.00e+00	0	43	0	718274560	8	4213
2026-01-03 02:43:18.76	14.58	20.32	-24.8	-26.3	16.9	0.00e+00	0	43	0	735051776	9	4290
2026-01-03 02:43:21.77	14.48	20.72	-24.7	-26.1	17.0	3.16e-04	0	43	0	751828992	9	4241
2026-01-03 02:43:24.80	14.37	21.12	-24.3	-25.8	17.4	0.00e+00	0	43	0	768606208	8	4282
2026-01-03 02:43:27.82	14.26	21.54	-24.0	-25.1	17.8	3.46e-04	0	43	0	786432000	8	4086
2026-01-03 02:43:30.84	14.15	21.95	-23.8	-25.1	18.0	3.20e-04	0	43	0	803209216	7	4197
2026-01-03 02:43:33.85	14.04	22.38	-23.3	-24.5	18.6	3.54e-04	0	43	0	819986432	6	4168
2026-01-03 02:43:36.88	13.92	22.81	-23.2	-24.4	18.7	3.89e-04	0	43	0	836763648	6	4146
2026-01-03 02:43:39.88	13.80	23.25	-23.2	-24.4	18.7	3.80e-04	0	43	0	853540864	6	4142
2026-01-03 02:43:42.90	13.67	23.69	-23.0	-24.1	18.9	3.95e-04	0	43	0	870318080	6	4054
2026-01-03 02:43:45.93	13.54	24.15	-23.0	-24.0	18.9	0.00e+00	0	43	0	888143872	6	4043
2026-01-03 02:43:48.95	13.41	24.61	-23.0	-24.0	18.9	3.31e-04	0	43	0	904921088	6	4038
2026-01-03 02:43:51.96	13.27	25.08	-23.0	-24.0	17.4	3.43e-04	0	43	0	921698304	6	4027
2026-01-03 02:43:54.97	13.13	25.56	-22.9	-23.8	19.0	1.02e-03	0	43	0	938475520	6	3996
2026-01-03 02:43:57.99	12.98	26.05	-22.9	-23.8	19.0	1.37e-05	0	43	0	955252736	6	3989
2026-01-03 02:44:01.00	12.83	26.54	-22.7	-23.9	19.2	3.68e-04	0	43	0	973078528	5	4132
2026-01-03 02:44:04.02	12.67	27.05	-22.8	-24.0	19.2	9.94e-04	0	43	0	989855744	5	4162
2026-01-03 02:44:07.04	12.51	27.56	-23.1	-24.2	18.9	8.39e-04	0	43	0	1006632960	6	4079
2026-01-03 02:44:10.07	12.34	28.09	-23.2	-24.4	18.8	2.52e-04	0	43	0	1023410176	6	4150
2026-01-03 02:44:13.09	12.17	28.62	-22.8	-23.6	19.2	7.70e-04	0	43	0	1040187392	6	3935
2026-01-03 02:44:16.11	11.99	29.16	-22.7	-23.8	19.3	8.03e-04	0	43	0	1058013184	5	4107
2026-01-03 02:44:19.13	11.80	29.72	-22.6	-23.6	19.4	0.00e+00	0	43	0	1074790400	5	4053
2026-01-03 02:44:22.15	11.60	30.28	-22.7	-23.9	19.3	7.29e-04	0	43	0	1091567616	5	4118
2026-01-03 02:44:25.16	11.40	30.86	-22.8	-24.1	19.2	7.38e-04	0	43	0	1108344832	5	4188
2026-01-03 02:44:28.19	11.19	31.45	-22.4	-23.3	19.7	0.00e+00	0	43	0	1125122048	5	3968
2026-01-03 02:44:31.20	10.97	32.04	-22.3	-23.1	19.8	0.00e+00	0	43	0	1142947840	5	3918
2026-01-03 02:44:34.21	10.75	32.65	-22.0	-22.8	20.1	6.35e-04	0	43	0	1159725056	4	3977
2026-01-03 02:44:37.24	10.51	33.28	-22.0	-23.0	20.1	0.00e+00	0	43	0	1176502272	4	4005
2026-01-03 02:44:40.25	10.26	33.91	-22.3	-23.5	19.8	0.00e+00	0	43	0	1193279488	4	4147
2026-01-03 02:44:43.26	10.01	34.56	-22.1	-23.1	20.0	0.00e+00	0	43	0	1210056704	4	4033
2026-01-03 02:44:46.29	9.74	35.22	-21.8	-22.5	20.3	0.00e+00	0	43	0	1227882496	4	3888
2026-01-03 02:44:49.31	9.46	35.89	-21.8	-22.4	20.4	0.00e+00	0	43	0	1244659712	4	3879
2026-01-03 02:44:52.32	9.17	36.58	-22.0	-22.9	20.1	0.00e+00	0	43	0	1261436928	4	3987
2026-01-03 02:44:55.34	8.87	37.28	-22.0	-22.8	20.2	0.00e+00	0	43	0	1278214144	4	3970
2026-01-03 02:44:58.35	8.55	38.00	-22.0	-22.8	20.1	0.00e+00	0	43	0	1294991360	4	3977
2026-01-03 02:45:01.37	8.22	38.73	-22.3	-23.6	19.7	0.00e+00	0	43	0	1311768576	4	4163
2026-01-03 02:45:04.38	7.87	39.47	-22.5	-23.5	19.6	0.00e+00	0	43	0	1329594368	5	4022
2026-01-03 02:45:07.39	7.50	40.23	-22.2	-23.3	20.0	0.00e+00	0	43	0	1346371584	4	4072
2026-01-03 02:45:10.40	7.12	41.00	-22.6	-23.6	19.6	1.64e-04	0	43	0	1363148800	5	4047
2026-01-03 02:45:13.41	6.72	41.79	-22.7	-23.9	19.5	0.00e+00	0	43	0	1379926016	5	4136
2026-01-03 02:45:16.43	6.29	42.60	-22.7	-23.9	19.5	0.00e+00	0	43	0	1396703232	5	4117
2026-01-03 02:45:19.45	5.84	43.42	-22.5	-23.3	19.8	3.33e-04	0	43	0	1413480448	5	3981
2026-01-03 02:45:22.48	5.37	44.26	-22.7	-23.9	19.5	0.00e+00	0	43	0	1431306240	5	4115
2026-01-03 02:45:25.49	4.87	45.11	-22.6	-23.7	19.6	0.00e+00	0	43	0	1448083456	5	4078
2026-01-03 02:45:28.51	4.35	45.98	-22.8	-24.0	19.4	2.20e-06	0	43	0	1464860672	5	4160
2026-01-03 02:45:31.53	3.79	46.87	-22.5	-23.5	19.7	0.00e+00	0	43	0	1481637888	5	4029
2026-01-03 02:45:34.54	3.20	47.77	-22.5	-23.5	19.7	0.00e+00	0	43	0	1498415104	5	4021
2026-01-03 02:45:37.57	2.57	48.69	-22.6	-23.7	19.6	0.00e+00	0	43	0	1516240896	5	4066
2026-01-03 02:45:40.58	1.90	49.62	-23.0	-24.1	19.3	0.00e+00	0	43	0	1533018112	6	4047
2026-01-03 02:45:43.60	1.19	50.57	-23.3	-24.6	19.0	0.00e+00	0	43	0	1549795328	6	4175
2026-01-03 02:45:46.63	0.43	51.54	-23.9	-25.3	18.3	0.00e+00	0	43	0	1566572544	7	4255
2026-01-03 02:45:49.66	359.62	52.52	-23.5	-24.1	18.8	0.00e+00	0	43	0	1583349760	8	3834
2026-01-03 02:45:52.67	358.75	53.51	-23.9	-25.4	18.3	0.00e+00	0	43	0	1601175552	7	4278
2026-01-03 02:45:55.67	357.83	54.51	-23.8	-25.1	18.5	0.00e+00	0	43	0	1617952768	7	4184
2026-01-03 02:45:58.70	356.83	55.53	-23.9	-25.0	18.3	0.00e+00	0	43	0	1634729984	8	4043
2026-01-03 02:46:01.72	355.75	56.56	-23.4	-24.3	18.9	0.00e+00	0	43	0	1651507200	7	3979
2026-01-03 02:46:04.75	354.59	57.59	-23.1	-23.6	19.3	0.00e+00	0	43	0	1668284416	7	3830
2026-01-03 02:46:07.77	353.34	58.64	-22.6	-23.1	19.7	0.00e+00	0	43	0	1686110208	6	3825
2026-01-03 02:46:10.79	351.98	59.68	-22.8	-23.5	19.6	0.00e+00	0	43	0	1702887424	6	3903
2026-01-03 02:46:13.81	350.51	60.73	-23.2	-24.4	19.1	0.00e+00	0	43	0	1719664640	6	4138
2026-01-03 02:46:16.83	348.91	61.78	-22.8	-23.6	19.5	0.00e+00	0	43	0	1736441856	6	3928
2026-01-03 02:46:19.85	347.17	62.82	-22.8	-23.6	19.5	0.00e+00	0	43	0	1753219072	6	3938
2026-01-03 02:46:22.88	345.27	63.85	-23.5	-24.5	18.8	0.00e+00	0	43	0	1771044864	7	4051
2026-01-03 02:46:25.89	343.20	64.87	-22.1	-22.5	20.3	0.00e+00	0	43	0	1787822080	5	3796
2026-01-03 02:46:28.91	340.93	65.87	-21.6	-22.0	20.8	0.00e+00	0	43	0	1804599296	4	3775
2026-01-03 02:46:31.93	338.44	66.85	-21.4	-22.0	21.1	0.00e+00	0	43	0	1821376512	3	3892
2026-01-03 02:46:34.94	335.72	67.78	-21.6	-22.6	20.8	0.00e+00	0	43	0	1838153728	3	4042
2026-01-03 02:46:37.96	332.74	68.68	-21.3	-21.9	21.2	0.00e+00	0	43	0	1855979520	3	3869
2026-01-03 02:46:40.97	329.49	69.53	-21.6	-22.6	20.8	0.00e+00	0	43	0	1872756736	3	4032
2026-01-03 02:46:44.00	325.92	70.32	-21.8	-22.9	20.7	0.00e+00	0	43	0	1889533952	3	4106
2026-01-03 02:46:47.01	322.08	71.04	-21.7	-22.7	20.8	0.00e+00	0	43	0	1906311168	3	4049
2026-01-03 02:46:50.03	317.91	71.68	-21.4	-22.2	21.0	2.97e-05	0	43	0	1923088384	3	3929
2026-01-03 02:46:53.04	313.47	72.21	-21.8	-22.9	20.7	0.00e+00	0	43	0	1940914176	3	4089
2026-01-03 02:46:56.05	308.76	72.65	-21.2	-21.7	21.3	0.00e+00	0	43	0	1957691392	3	3811
2026-01-03 02:46:59.08	303.80	72.97	-21.6	-22.6	20.8	0.00e+00	0	43	0	1974468608	3	4033
2026-01-03 02:47:02.11	298.68	73.16	-21.4	-22.2	21.0	3.86e-04	0	43	0	1991245824	3	3931
2026-01-03 02:47:05.12	293.51	73.22	-21.6	-22.5	20.9	0.00e+00	0	43	0	2008023040	3	4008
2026-01-03 02:47:08.14	288.33	73.15	-21.4	-22.1	21.1	7.19e-04	0	43	0	2025848832	3	3913
2026-01-03 02:47:11.17	283.22	72.95	-21.4	-22.0	21.1	1.00e-03	0	43	0	2042626048	3	3892
2026-01-03 02:47:14.18	278.30	72.63	-21.4	-22.1	21.1	0.00e+00	0	43	0	2059403264	3	3905
2026-01-03 02:47:17.19	273.60	72.19	-21.2	-21.8	21.2	0.00e+00	0	43	0	2076180480	3	3831
2026-01-03 02:47:20.21	269.15	71.64	-21.4	-22.1	21.0	6.56e-04	0	43	0	2092957696	3	3913
2026-01-03 02:47:23.23	265.00	71.00	-21.3	-21.9	21.2	0.00e+00	0	43	0	2110783488	3	3858
2026-01-03 02:47:26.23	261.18	70.28	-21.4	-22.2	21.0	0.00e+00	0	43	0	2127560704	3	3938
2026-01-03 02:47:29.24	257.65	69.49	-21.5	-22.4	20.9	0.00e+00	0	43	0	2144337920	3	3976
2026-01-03 02:47:32.27	254.39	68.63	-21.1	-21.9	21.4	0.00e+00	0	43	0	2161115136	2	3977
2026-01-03 02:47:35.30	251.41	67.72	-21.5	-22.5	20.8	0.00e+00	0	43	0	2177892352	3	4000
2026-01-03 02:47:38.32	248.69	66.78	-21.3	-22.4	21.1	0.00e+00	0	43	0	2194669568	2	4104
2026-01-03 02:47:41.33	246.23	65.80	-21.5	-22.3	21.0	0.00e+00	0	43	0	2212495360	3	3952
2026-01-03 02:47:44.35	243.96	64.80	-21.5	-22.3	20.9	0.00e+00	0	43	0	2229272576	3	3962
2026-01-03 02:47:47.37	241.89	63.78	-21.8	-23.0	20.6	0.00e+00	0	43	0	2246049792	3	4114
2026-01-03 02:47:50.37	240.01	62.75	-21.8	-23.1	20.6	0.00e+00	0	43	0	2262827008	3	4135
2026-01-03 02:47:53.39	238.28	61.70	-22.0	-22.8	20.4	0.00e+00	0	43	0	2279604224	4	3956
2026-01-03 02:47:56.40	236.69	60.66	-22.3	-23.5	20.0	0.00e+00	0	43	0	2296381440	4	4143
2026-01-03 02:47:59.42	235.22	59.61	-22.6	-23.6	19.7	0.00e+00	0	43	0	2313158656	5	4044
2026-01-03 02:48:02.43	233.87	58.56	-22.4	-23.2	19.9	0.00e+00	0	43	0	2330984448	5	3944
2026-01-03 02:48:05.45	232.62	57.52	-22.4	-23.1	13.9	0.00e+00	0	43	0	2347761664	5	3926
2026-01-03 02:48:08.47	231.47	56.48	-22.8	-23.9	19.4	0.00e+00	0	43	0	2364538880	5	4125
2026-01-03 02:48:11.49	230.40	55.45	-23.1	-24.1	19.2	0.00e+00	0	43	0	2381316096	6	4064
2026-01-03 02:48:14.50	229.40	54.43	-23.2	-24.0	19.0	3.09e-04	0	43	0	2398093312	7	3916
2026-01-03 02:48:17.52	228.47	53.43	-23.0	-24.0	19.2	0.00e+00	0	43	0	2415919104	6	4046
2026-01-03 02:48:20.54	227.61	52.43	-23.0	-23.9	19.3	0.00e+00	0	43	0	2432696320	6	4010
2026-01-03 02:48:23.56	226.80	51.45	-22.7	-23.2	19.6	2.40e-04	0	43	0	2449473536	6	3847
2026-01-03 02:48:26.58	226.04	50.48	-22.5	-22.9	19.8	2.82e-04	0	43	0	2466250752	6	3768
2026-01-03 02:48:29.60	225.33	49.53	-22.5	-23.0	19.7	2.28e-05	0	43	0	2483027968	6	3803
2026-01-03 02:48:32.62	224.66	48.59	-22.2	-22.8	19.7	5.70e-06	0	43	0	2500853760	5	3862
2026-01-03 02:48:35.63	224.04	47.67	-22.3	-23.0	19.9	3.09e-04	0	43	0	2517630976	5	3917
2026-01-03 02:48:38.65	223.45	46.77	-22.2	-22.9	20.0	1.02e-05	0	43	0	2534408192	5	3878
2026-01-03 02:48:41.67	222.89	45.88	-22.4	-23.3	19.8	0.00e+00	0	43	0	2551185408	5	3968
2026-01-03 02:48:44.69	222.36	45.01	-22.4	-23.2	19.8	6.18e-04	0	43	0	2567962624	5	3954
2026-01-03 02:48:47.71	221.86	44.15	-22.1	-23.2	20.0	6.75e-05	0	43	0	2585788416	4	4064
2026-01-03 02:48:50.74	221.39	43.30	-22.2	-23.2	20.0	1.10e-06	0	43	0	2602565632	4	4071
2026-01-03 02:48:53.75	220.94	42.48	-22.1	-23.2	20.0	0.00e+00	0	43	0	2619342848	4	4061
2026-01-03 02:48:56.77	220.52	41.67	-22.2	-23.3	20.0	0.00e+00	0	43	0	2636120064	4	4084
2026-01-03 02:48:59.78	220.11	40.88	-21.7	-22.3	20.4	0.00e+00	0	43	0	2652897280	4	3852
2026-01-03 02:49:02.78	219.73	40.11	-21.7	-22.7	20.6	0.00e+00	0	43	0	2670723072	3	4048
2026-01-03 02:49:05.79	219.36	39.35	-21.7	-22.9	20.5	0.00e+00	0	43	0	2687500288	3	4095
2026-01-03 02:49:08.81	219.01	38.60	-21.8	-22.9	20.4	0.00e+00	0	43	0	2704277504	3	4105
2026-01-03 02:49:11.82	218.68	37.87	-21.8	-22.9	20.4	0.00e+00	0	43	0	2721054720	3	4104
2026-01-03 02:49:14.85	218.36	37.15	-21.7	-22.8	20.4	0.00e+00	0	43	0	2737831936	3	4086
2026-01-03 02:49:17.86	218.06	36.45	-21.7	-22.8	20.5	1.94e-05	0	43	0	2754609152	3	4079
2026-01-03 02:49:20.88	217.76	35.76	-21.9	-23.2	20.3	0.00e+00	0	43	0	2772434944	3	4183
2026-01-03 02:49:23.89	217.49	35.08	-22.2	-23.4	19.9	0.00e+00	0	43	0	2789212160	4	4110
2026-01-03 02:49:26.89	217.22	34.43	-22.2	-23.3	19.9	0.00e+00	0	43	0	2805989376	4	4097
2026-01-03 02:49:29.91	216.96	33.78	-22.4	-23.7	19.6	0.00e+00	0	43	0	2822766592	4	4175
2026-01-03 02:49:32.92	216.72	33.14	-22.2	-23.4	19.8	0.00e+00	0	43	0	2839543808	4	4108
2026-01-03 02:49:35.93	216.48	32.52	-22.2	-23.3	19.9	0.00e+00	0	43	0	2856321024	4	4086
2026-01-03 02:49:38.94	216.25	31.91	-22.2	-23.3	19.9	0.00e+00	0	43	0	2873098240	4	4087
2026-01-03 02:49:41.96	216.03	31.31	-22.4	-23.6	19.7	0.00e+00	0	43	0	2890924032	4	4176
2026-01-03 02:49:44.98	215.82	30.72	-22.4	-23.7	19.7	0.00e+00	0	43	0	2907701248	4	4179
2026-01-03 02:49:47.99	215.62	30.14	-22.3	-23.4	19.8	0.00e+00	0	43	0	2924478464	4	4119
2026-01-03 02:49:51.01	215.42	29.58	-22.5	-23.4	19.5	0.00e+00	0	43	0	2941255680	5	4008
2026-01-03 02:49:54.04	215.23	29.02	-22.2	-22.9	19.8	0.00e+00	0	43	0	2958032896	5	3873
2026-01-03 02:49:57.05	215.05	28.47	-22.4	-23.8	19.6	0.00e+00	0	43	0	2975858688	4	4205
2026-01-03 02:50:00.07	214.87	27.94	-22.3	-23.6	19.7	0.00e+00	0	43	0	2992635904	4	4175
2026-01-03 02:50:03.08	214.70	27.42	-22.4	-23.6	19.6	0.00e+00	0	43	0	3009413120	4	4174
2026-01-03 02:50:06.10	214.54	26.90	-22.4	-23.6	19.6	5.60e-05	0	43	0	3026190336	4	4167
2026-01-03 02:50:09.12	214.38	26.39	-22.2	-23.3	19.8	9.38e-05	0	43	0	3042967552	4	4097
2026-01-03 02:50:12.14	214.23	25.90	-22.4	-23.6	19.6	0.00e+00	0	43	0	3060793344	4	4172
2026-01-03 02:50:15.16	214.08	25.41	-21.8	-23.2	17.8	0.00e+00	0	44	0	3077570560	4	4230
2026-01-03 02:50:18.17	213.94	24.93	-22.8	-23.6	18.6	0.00e+00	0	43	0	3094347776	6	3949
2026-01-03 02:50:21.18	213.80	24.46	-22.7	-24.0	19.2	6.80e-06	0	43	0	3111124992	5	4141
2026-01-03 02:50:24.21	213.66	23.99	-22.8	-24.1	19.1	0.00e+00	0	43	0	3127902208	5	4179
2026-01-03 02:50:27.23	213.53	23.54	-22.8	-24.0	19.1	0.00e+00	0	43	0	3145728000	5	4154
2026-01-03 02:50:30.24	213.40	23.09	-22.7	-23.8	19.2	1.38e-04	0	43	0	3162505216	5	4107
2026-01-03 02:50:33.27	213.28	22.65	-22.8	-24.0	19.1	0.00e+00	0	43	0	3179282432	5	4158
2026-01-03 02:50:36.29	213.16	22.22	-22.8	-24.1	19.1	2.69e-04	0	43	0	3196059648	5	4185
2026-01-03 02:50:39.31	213.04	21.79	-22.9	-24.3	18.9	2.20e-04	0	43	0	3212836864	5	4240
2026-01-03 02:50:42.33	212.93	21.37	-23.0	-23.9	18.9	2.44e-04	0	43	0	3230662656	6	4029
2026-01-03 02:50:45.34	212.82	20.96	-23.1	-24.2	18.7	1.62e-04	0	43	0	3247439872	6	4100
2026-01-03 02:50:48.35	212.72	20.56	-23.3	-24.7	18.4	1.62e-04	0	43	0	3264217088	6	4224
2026-01-03 02:50:51.37	212.61	20.16	-23.7	-24.9	18.1	1.91e-04	0	43	0	3280994304	7	4141
2026-01-03 02:50:54.38	212.51	19.76	-23.8	-25.1	16.8	0.00e+00	0	43	0	3297771520	7	4210
2026-01-03 02:50:57.40	212.42	19.38	-23.7	-25.0	18.0	1.77e-04	0	43	0	3314548736	7	4189
2026-01-03 02:51:00.41	212.32	19.00	-23.8	-25.2	17.9	1.14e-04	0	43	0	3331325952	7	4231
2026-01-03 02:51:03.42	212.23	18.62	-24.1	-25.4	17.5	4.94e-04	0	43	0	3348103168	8	4167
2026-01-03 02:51:06.44	212.14	18.25	-24.0	-25.2	17.7	6.29e-05	0	43	0	3365928960	8	4110
2026-01-03 02:51:09.46	212.05	17.89	-24.2	-25.5	17.4	5.14e-05	0	43	0	3382706176	8	4205
2026-01-03 02:51:12.47	211.97	17.53	-24.1	-25.4	17.5	7.28e-04	0	43	0	3399483392	8	4173
2026-01-03 02:51:15.49	211.88	17.17	-24.2	-25.6	17.4	8.37e-04	0	43	0	3416260608	8	4236
2026-01-03 02:51:18.49	211.80	16.83	-24.3	-25.8	17.2	9.88e-04	0	43	0	3433037824	8	4285
2026-01-03 02:51:21.49	211.72	16.48	-24.7	-26.2	16.8	1.03e-03	0	43	0	3450863616	9	4265
2026-01-03 02:51:24.51	211.65	16.14	-24.5	-25.6	17.1	1.08e-03	0	43	0	3467640832	9	4117
2026-01-03 02:51:27.54	211.57	15.81	-24.5	-25.8	17.0	9.30e-04	0	43	0	3484418048	9	4161
2026-01-03 02:51:30.56	211.50	15.48	-24.6	-25.9	16.9	0.00e+00	0	43	0	3501195264	9	4191
2026-01-03 02:51:33.58	211.42	15.15	-24.7	-26.2	16.7	1.11e-03	0	43	0	3517972480	9	4257
2026-01-03 02:51:36.60	211.36	14.83	-24.8	-26.4	16.6	0.00e+00	0	43	0	3535798272	9	4340
2026-01-03 02:51:39.62	211.29	14.51	-24.8	-26.3	16.6	0.00e+00	0	43	0	3552575488	9	4299
2026-01-03 02:51:42.64	211.22	14.20	-24.8	-26.4	16.6	0.00e+00	0	43	0	3569352704	9	4314
2026-01-03 02:51:45.66	211.16	13.89	-24.8	-26.3	16.6	0.00e+00	0	43	0	3586129920	9	4307
2026-01-03 02:51:48.67	211.09	13.58	-24.8	-26.3	16.6	0.00e+00	0	43	0	3602907136	9	4294
2026-01-03 02:51:51.68	211.03	13.28	-24.8	-26.3	16.5	0.00e+00	0	43	0	3620732928	9	4309
2026-01-03 02:51:54.71	210.97	12.98	-24.9	-26.5	16.4	0.00e+00	0	43	0	3637510144	9	4346
2026-01-03 02:51:57.72	210.91	12.69	-24.8	-26.4	16.4	0.00e+00	0	43	0	3654287360	9	4333
2026-01-03 02:52:00.74	210.85	12.40	-25.0	-26.7	16.3	0.00e+00	0	43	0	3671064576	9	4404
2026-01-03 02:52:03.77	210.80	12.11	-24.9	-26.2	16.3	0.00e+00	0	44	0	3687841792	10	4144
2026-01-03 02:52:06.79	210.74	11.82	-25.0	-26.4	16.2	0.00e+00	0	43	0	3705667584	10	4199
2026-01-03 02:52:09.81	210.69	11.54	-25.2	-26.7	16.0	0.00e+00	0	43	0	3722444800	10	4286
2026-01-03 02:52:12.83	210.63	11.26	-25.2	-26.7	16.0	0.00e+00	0	43	0	3739222016	10	4294
2026-01-03 02:52:15.83	210.58	10.99	-25.3	-27.0	15.8	0.00e+00	0	43	0	3755999232	10	4361
2026-01-03 02:52:18.85	210.53	10.72	-25.2	-26.7	15.7	0.00e+00	0	43	0	3772776448	10	4293
2026-01-03 02:52:21.87	210.48	10.45	-25.6	-27.1	15.3	0.00e+00	0	43	0	3789553664	11	4279
2026-01-03 02:52:24.87	210.43	10.18	-25.6	-27.1	15.4	0.00e+00	0	43	0	3807379456	11	4296
2026-01-03 02:52:27.89	210.38	9.92	-25.6	-27.2	15.4	5.70e-04	0	43	0	3824156672	11	4315
2026-01-03 02:52:30.91	210.34	9.66	-25.8	-27.7	15.0	0.00e+00	0	43	0	3840933888	11	4462
2026-01-03 02:52:33.93	210.29	9.40	-25.7	-27.5	15.1	1.10e-06	0	43	0	3857711104	11	4396
2026-01-03 02:52:36.95	210.25	9.14	-25.8	-27.7	15.0	9.19e-04	0	43	0	3874488320	11	4466
2026-01-03 02:52:39.97	210.20	8.89	-25.9	-27.9	14.9	8.27e-04	0	43	0	3891265536	11	4507
2026-01-03 02:52:42.99	210.16	8.64	-25.9	-27.8	14.9	0.00e+00	0	43	0	3909091328	11	4477
2026-01-03 02:52:46.01	210.12	8.39	-25.9	-27.4	14.7	9.70e-04	0	43	0	3925868544	12	4277
2026-01-03 02:52:49.02	210.08	8.15	-26.0	-27.5	14.6	9.51e-04	0	43	0	3942645760	12	4315
2026-01-03 02:52:52.03	210.04	7.91	-26.1	-27.7	14.5	1.10e-06	0	43	0	3959422976	12	4369
2026-01-03 02:52:55.05	210.00	7.67	-26.2	-28.0	14.3	0.00e+00	0	43	0	3976200192	12	4452
2026-01-03 02:52:58.06	209.96	7.43	-26.1	-27.9	14.4	8.46e-04	0	43	0	3994025984	12	4418
2026-01-03 02:53:01.08	209.92	7.19	-26.2	-28.1	14.3	0.00e+00	0	43	0	4010803200	12	4477
2026-01-03 02:53:04.09	209.89	6.96	-32.8	-44.1	3.8	8.46e-01	0	43	104	4018143232	25	13293

#Closed at: 2026-01-03 02:53:04
#Recorded file [4018 MB]: D:/data/31010_260103_054107.dat