passes_logs/2026/01/03/R2M6_AANII_01/R2M6_AANII_01__20260103_123010_AQUA_rec.log

#Pass ID: 20260103_123010_AQUA
#Satellite: AQUA
#Configuration: AQUA
#almurnet v.1.7.20240730
#Start time: 2026-01-03 12:30:10

#Version: 2.2.20231116
#Station: R2M6_AANII_01
#Location: 30.233357 lon 59.946436 lat
#TLE: 1 27424U 02022A   25365.92641127  .00002078  00000+0  42628-3 0  9999
#TLE: 2 27424  98.4058 327.1196 0001962  94.7781 340.6230 14.61783896258835

#Time	Az	El	Level	Level2	SNR	BER	BlckErr	Temp	State	Recorded	gain1	gain2
2026-01-03 12:30:10.00	176.27	6.95	-30.6	-35.8	5.2	7.09e-01	0	40	0	0	22	6539
2026-01-03 12:30:13.02	176.39	7.19	-31.3	-36.9	14.3	6.07e-01	0	40	0	1572864	23	6913
2026-01-03 12:30:16.03	176.50	7.44	-31.0	-35.8	15.2	6.07e-01	0	41	0	7340032	23	6254
2026-01-03 12:30:19.05	176.62	7.69	-30.3	-33.9	17.0	6.08e-01	0	41	0	13107200	22	5451
2026-01-03 12:30:22.06	176.73	7.94	-30.1	-33.4	17.4	6.08e-01	0	41	0	18874368	22	5232
2026-01-03 12:30:25.08	176.85	8.19	-30.0	-33.2	17.6	6.05e-01	0	41	0	24117248	22	5158
2026-01-03 12:30:28.10	176.98	8.45	-29.9	-32.8	17.8	6.08e-01	0	41	0	29884416	22	5026
2026-01-03 12:30:31.12	177.10	8.71	-30.0	-33.1	17.7	6.08e-01	0	41	0	35651584	22	5112
2026-01-03 12:30:34.14	177.23	8.97	-30.2	-33.6	17.3	6.08e-01	0	41	0	41418752	22	5325
2026-01-03 12:30:37.15	177.36	9.24	-30.1	-33.3	17.5	6.07e-01	0	41	0	47185920	22	5204
2026-01-03 12:30:40.16	177.49	9.50	-30.0	-33.0	17.8	6.09e-01	0	41	0	52428800	22	5051
2026-01-03 12:30:43.18	177.62	9.78	-29.9	-32.6	18.1	6.05e-01	0	41	0	58195968	22	4908
2026-01-03 12:30:46.20	177.76	10.05	-29.8	-32.7	18.3	6.09e-01	0	41	0	63963136	21	5062
2026-01-03 12:30:49.22	177.90	10.33	-29.8	-32.8	18.3	6.07e-01	0	41	0	69730304	21	5083
2026-01-03 12:30:52.23	178.04	10.61	-29.8	-32.9	18.3	6.07e-01	0	41	0	74973184	21	5109
2026-01-03 12:30:55.25	178.18	10.90	-29.8	-32.6	18.5	6.06e-01	0	42	0	80740352	21	5015
2026-01-03 12:30:58.27	178.33	11.19	-29.8	-32.6	18.5	6.06e-01	0	42	0	86507520	21	5020
2026-01-03 12:31:01.28	178.48	11.48	-29.6	-32.3	18.7	6.07e-01	0	42	0	92274688	21	4892
2026-01-03 12:31:04.30	178.63	11.77	-29.6	-32.3	18.7	6.06e-01	0	42	0	98041856	21	4887
2026-01-03 12:31:07.30	178.79	12.07	-29.6	-32.3	18.7	6.07e-01	0	42	0	103284736	21	4881
2026-01-03 12:31:10.31	178.95	12.38	-29.7	-32.5	18.6	6.08e-01	0	42	0	109051904	21	4962
2026-01-03 12:31:13.32	179.11	12.68	-29.6	-32.2	18.8	6.07e-01	0	42	0	114819072	21	4862
2026-01-03 12:31:16.34	179.27	13.00	-29.7	-32.5	18.7	6.07e-01	0	42	0	120586240	21	4943
2026-01-03 12:31:19.36	179.44	13.31	-29.5	-32.0	19.0	6.07e-01	0	42	0	126353408	21	4788
2026-01-03 12:31:22.38	179.62	13.64	-29.7	-32.4	18.7	6.07e-01	0	42	0	131596288	21	4916
2026-01-03 12:31:25.40	179.80	13.96	-29.7	-32.5	18.7	6.05e-01	0	42	0	137363456	21	4958
2026-01-03 12:31:28.42	179.98	14.29	-29.7	-32.5	18.8	6.06e-01	0	42	0	143130624	21	4939
2026-01-03 12:31:31.44	180.16	14.63	-29.5	-31.8	19.2	6.05e-01	0	42	0	148897792	21	4702
2026-01-03 12:31:34.46	180.35	14.97	-29.5	-32.0	19.1	6.05e-01	0	42	0	154664960	21	4766
2026-01-03 12:31:37.48	180.55	15.31	-29.7	-32.3	18.9	6.07e-01	0	42	0	159907840	21	4897
2026-01-03 12:31:40.49	180.75	15.66	-29.5	-31.7	19.3	6.07e-01	0	42	0	165675008	21	4666
2026-01-03 12:31:43.51	180.95	16.02	-29.3	-31.9	19.5	6.04e-01	0	42	0	171442176	20	4823
2026-01-03 12:31:46.53	181.16	16.38	-29.3	-31.9	19.5	6.04e-01	0	42	0	177209344	20	4841
2026-01-03 12:31:49.55	181.38	16.75	-29.3	-31.9	19.5	6.07e-01	0	42	0	182976512	20	4822
2026-01-03 12:31:52.56	181.59	17.12	-29.3	-31.9	19.6	6.07e-01	0	42	0	188219392	20	4838
2026-01-03 12:31:55.58	181.82	17.50	-29.4	-32.0	19.5	6.06e-01	0	42	0	193986560	20	4877
2026-01-03 12:31:58.59	182.05	17.89	-29.3	-31.9	19.5	6.08e-01	0	42	0	199753728	20	4845
2026-01-03 12:32:01.58	182.28	18.27	-29.1	-31.3	19.9	6.05e-01	0	42	0	204996608	20	4657
2026-01-03 12:32:04.59	182.53	18.67	-29.1	-31.4	19.9	6.06e-01	0	42	0	210763776	20	4670
2026-01-03 12:32:07.61	182.78	19.08	-29.3	-31.9	19.6	6.04e-01	0	42	0	216530944	20	4852
2026-01-03 12:32:10.63	183.03	19.49	-29.3	-31.9	19.6	6.07e-01	0	42	0	222298112	20	4859
2026-01-03 12:32:13.64	183.30	19.91	-29.2	-31.5	19.8	6.06e-01	0	42	0	228065280	20	4708
2026-01-03 12:32:16.66	183.57	20.33	-29.1	-31.3	20.0	6.08e-01	0	42	0	233308160	20	4649
2026-01-03 12:32:19.68	183.85	20.77	-29.3	-32.0	19.6	6.07e-01	0	43	0	239075328	20	4869
2026-01-03 12:32:22.70	184.13	21.21	-29.4	-32.0	19.6	6.06e-01	0	42	0	244842496	20	4867
2026-01-03 12:32:25.71	184.43	21.65	-29.4	-32.0	19.6	6.08e-01	0	42	0	250609664	20	4874
2026-01-03 12:32:28.73	184.73	22.11	-29.4	-31.9	19.7	6.05e-01	0	42	0	256376832	20	4828
2026-01-03 12:32:31.74	185.05	22.58	-29.5	-32.2	19.6	6.06e-01	0	42	0	261619712	20	4923
2026-01-03 12:32:34.75	185.37	23.05	-29.6	-32.5	19.4	6.06e-01	0	43	0	267386880	20	5026
2026-01-03 12:32:37.77	185.70	23.53	-29.4	-32.0	19.7	6.09e-01	0	42	0	273154048	20	4847
2026-01-03 12:32:40.78	186.05	24.02	-29.6	-32.4	19.5	6.08e-01	0	42	0	278921216	20	4976
2026-01-03 12:32:43.81	186.40	24.53	-29.6	-32.4	19.5	6.09e-01	0	43	0	284688384	20	4975
2026-01-03 12:32:46.83	186.77	25.04	-29.5	-32.1	19.7	6.06e-01	0	42	0	289931264	20	4872
2026-01-03 12:32:49.84	187.15	25.55	-29.6	-32.3	19.6	6.07e-01	0	43	0	295698432	20	4949
2026-01-03 12:32:52.86	187.54	26.09	-29.5	-32.2	19.7	6.07e-01	0	43	0	301465600	20	4904
2026-01-03 12:32:55.89	187.95	26.63	-29.5	-32.0	19.8	6.06e-01	0	43	0	307232768	20	4846
2026-01-03 12:32:58.90	188.36	27.18	-29.5	-32.2	19.7	6.09e-01	0	42	0	312999936	20	4915
2026-01-03 12:33:01.92	188.80	27.74	-29.3	-31.7	20.0	6.08e-01	0	42	0	318242816	20	4737
2026-01-03 12:33:04.94	189.25	28.31	-29.2	-31.4	20.2	6.06e-01	0	43	0	324009984	20	4638
2026-01-03 12:33:07.94	189.72	28.89	-29.0	-30.9	20.5	6.04e-01	0	43	0	329777152	20	4482
2026-01-03 12:33:10.96	190.20	29.48	-29.2	-31.3	20.3	6.07e-01	0	43	0	335544320	20	4585
2026-01-03 12:33:13.98	190.70	30.09	-29.3	-31.6	20.1	6.07e-01	0	42	0	340787200	20	4676
2026-01-03 12:33:17.00	191.23	30.71	-29.3	-31.7	20.0	6.07e-01	0	43	0	346554368	20	4729
2026-01-03 12:33:20.02	191.77	31.34	-29.3	-31.5	20.2	6.07e-01	0	43	0	352321536	20	4659
2026-01-03 12:33:23.04	192.34	31.98	-29.4	-31.8	20.0	6.09e-01	0	43	0	358088704	20	4750
2026-01-03 12:33:26.05	192.92	32.63	-29.3	-31.5	20.2	6.08e-01	0	43	0	363855872	20	4657
2026-01-03 12:33:29.07	193.54	33.30	-29.5	-32.0	19.9	6.07e-01	0	42	0	369098752	20	4830
2026-01-03 12:33:32.09	194.18	33.97	-29.7	-32.6	19.6	6.08e-01	0	43	0	374865920	20	5030
2026-01-03 12:33:35.10	194.84	34.66	-29.9	-33.1	19.4	6.07e-01	0	43	0	380633088	20	5188
2026-01-03 12:33:38.10	195.53	35.36	-30.4	-33.8	18.6	6.07e-01	0	43	0	386400256	21	5350
2026-01-03 12:33:41.12	196.26	36.07	-30.5	-34.2	18.3	6.05e-01	0	43	0	391643136	21	5516
2026-01-03 12:33:44.14	197.02	36.80	-30.8	-34.4	17.8	6.07e-01	0	43	0	397410304	22	5485
2026-01-03 12:33:47.15	197.81	37.53	-31.0	-34.9	17.5	6.07e-01	0	43	0	403177472	22	5698
2026-01-03 12:33:50.17	198.64	38.28	-30.8	-34.5	17.8	6.06e-01	0	43	0	408944640	22	5525
2026-01-03 12:33:53.18	199.51	39.04	-30.3	-33.1	18.7	6.07e-01	0	43	0	414711808	22	4978
2026-01-03 12:33:56.20	200.43	39.81	-30.1	-32.6	19.0	6.07e-01	0	43	0	419954688	22	4806
2026-01-03 12:33:59.22	201.38	40.59	-29.7	-32.1	19.6	6.08e-01	0	43	0	425721856	21	4733
2026-01-03 12:34:02.24	202.39	41.38	-29.5	-31.6	20.0	6.06e-01	0	43	0	431489024	21	4563
2026-01-03 12:34:05.25	203.44	42.17	-29.5	-31.5	20.0	6.07e-01	0	43	0	437256192	21	4540
2026-01-03 12:34:08.27	204.55	42.98	-29.3	-31.4	20.4	6.07e-01	0	43	0	443023360	20	4619
2026-01-03 12:34:11.27	205.72	43.78	-29.2	-31.3	20.4	6.08e-01	0	43	0	448266240	20	4589
2026-01-03 12:34:14.29	206.94	44.59	-28.9	-31.1	21.0	6.06e-01	0	43	0	454033408	19	4613
2026-01-03 12:34:17.31	208.24	45.41	-29.0	-31.2	20.9	6.07e-01	0	43	0	459800576	19	4647
2026-01-03 12:34:20.33	209.60	46.23	-28.8	-30.9	21.1	6.04e-01	0	43	0	465567744	19	4549
2026-01-03 12:34:23.36	211.04	47.05	-28.9	-31.0	21.1	6.06e-01	0	43	0	471334912	19	4597
2026-01-03 12:34:26.37	212.55	47.86	-29.2	-31.8	20.6	6.06e-01	0	43	0	476577792	19	4823
2026-01-03 12:34:29.38	214.14	48.67	-29.0	-31.2	21.0	6.06e-01	0	43	0	482344960	19	4646
2026-01-03 12:34:32.40	215.82	49.46	-29.3	-32.0	20.5	6.06e-01	0	43	0	488112128	19	4919
2026-01-03 12:34:35.42	217.58	50.25	-29.2	-31.8	20.6	6.06e-01	0	43	0	493879296	19	4837
2026-01-03 12:34:38.42	219.43	51.02	-29.1	-31.3	20.9	6.06e-01	0	43	0	499122176	19	4680
2026-01-03 12:34:41.44	221.39	51.77	-29.4	-32.2	20.5	6.06e-01	0	43	0	504889344	19	4965
2026-01-03 12:34:44.46	223.45	52.49	-29.2	-31.7	20.7	6.06e-01	0	43	0	510656512	19	4805
2026-01-03 12:34:47.48	225.61	53.19	-29.3	-32.0	20.5	6.06e-01	0	43	0	516423680	19	4905
2026-01-03 12:34:50.50	227.87	53.86	-29.5	-32.5	20.3	6.07e-01	0	43	0	522190848	19	5072
2026-01-03 12:34:53.51	230.23	54.48	-29.4	-32.1	20.5	6.06e-01	0	43	0	527433728	19	4941
2026-01-03 12:34:56.53	232.70	55.07	-29.8	-32.7	19.8	6.07e-01	0	43	0	533200896	20	5033
2026-01-03 12:34:59.54	235.26	55.61	-29.8	-32.7	19.8	6.07e-01	0	43	0	538968064	20	5045
2026-01-03 12:35:02.57	237.93	56.09	-30.1	-32.9	19.5	6.07e-01	0	43	0	544735232	21	4967
2026-01-03 12:35:05.59	240.69	56.52	-30.5	-33.4	18.8	6.05e-01	0	43	0	550502400	22	5055
2026-01-03 12:35:08.61	243.52	56.89	-30.7	-33.9	18.5	6.07e-01	0	43	0	555745280	22	5246
2026-01-03 12:35:11.63	246.42	57.19	-30.4	-33.3	18.9	6.05e-01	0	43	0	561512448	22	5011
2026-01-03 12:35:14.64	249.37	57.42	-30.5	-33.5	18.8	6.08e-01	0	43	0	567279616	22	5093
2026-01-03 12:35:17.67	252.38	57.58	-30.5	-33.6	18.4	6.07e-01	0	43	0	573046784	22	5111
2026-01-03 12:35:20.69	255.41	57.67	-30.7	-34.1	18.1	6.06e-01	0	43	0	578813952	22	5333
2026-01-03 12:35:23.70	258.45	57.68	-30.5	-33.4	18.6	6.06e-01	0	43	0	584056832	22	5041
2026-01-03 12:35:26.72	261.48	57.62	-30.4	-33.3	18.5	6.08e-01	0	43	0	589824000	22	4999
2026-01-03 12:35:29.74	264.49	57.48	-30.4	-33.4	18.9	6.07e-01	0	43	0	595591168	22	5028
2026-01-03 12:35:32.77	267.48	57.27	-30.7	-34.0	18.3	6.07e-01	0	43	0	601358336	22	5291
2026-01-03 12:35:35.78	270.39	56.99	-30.5	-33.6	18.1	6.07e-01	0	43	0	607125504	22	5137
2026-01-03 12:35:38.80	273.24	56.65	-30.2	-32.7	18.9	6.07e-01	0	43	0	612368384	22	4806
2026-01-03 12:35:41.81	276.01	56.24	-30.1	-32.5	19.0	6.05e-01	0	43	0	618135552	22	4751
2026-01-03 12:35:44.84	278.71	55.77	-30.2	-32.8	18.8	6.06e-01	0	43	0	623902720	22	4832
2026-01-03 12:35:47.86	281.30	55.25	-30.4	-33.2	18.4	6.07e-01	0	43	0	629669888	22	4981
2026-01-03 12:35:50.88	283.80	54.68	-30.7	-34.2	18.0	6.07e-01	0	43	0	635437056	22	5375
2026-01-03 12:35:53.89	286.19	54.07	-30.2	-32.6	19.3	6.06e-01	0	43	0	640679936	22	4761
2026-01-03 12:35:56.91	288.48	53.42	-30.1	-32.4	19.5	6.06e-01	0	43	0	646447104	22	4681
2026-01-03 12:35:59.92	290.66	52.73	-30.3	-32.9	19.1	6.07e-01	0	43	0	652214272	22	4870
2026-01-03 12:36:02.94	292.75	52.02	-30.3	-33.0	18.4	6.06e-01	0	43	0	657981440	22	4896
2026-01-03 12:36:05.95	294.73	51.28	-30.5	-33.6	18.6	6.07e-01	0	43	0	663748608	22	5105
2026-01-03 12:36:08.97	296.62	50.52	-30.6	-33.8	17.9	6.06e-01	0	43	0	668991488	22	5209
2026-01-03 12:36:11.99	298.41	49.74	-30.8	-34.4	18.0	6.05e-01	0	43	0	674758656	22	5435
2026-01-03 12:36:15.02	300.12	48.94	-30.6	-33.8	18.5	6.06e-01	0	43	0	680525824	22	5189
2026-01-03 12:36:18.03	301.73	48.14	-30.6	-33.7	18.3	6.06e-01	0	43	0	686292992	22	5172
2026-01-03 12:36:21.05	303.27	47.34	-30.3	-33.1	19.0	6.06e-01	0	43	0	692060160	22	4929
2026-01-03 12:36:24.07	304.73	46.52	-30.4	-33.2	18.9	6.09e-01	0	43	0	697303040	22	4987
2026-01-03 12:36:27.09	306.11	45.71	-30.5	-33.6	18.7	6.06e-01	0	43	0	703070208	22	5110
2026-01-03 12:36:30.09	307.41	44.90	-30.4	-33.2	18.9	6.07e-01	0	43	0	708837376	22	4985
2026-01-03 12:36:33.10	308.66	44.09	-30.3	-33.0	19.1	6.06e-01	0	43	0	714604544	22	4896
2026-01-03 12:36:36.11	309.84	43.29	-30.3	-32.9	19.1	6.03e-01	0	43	0	719847424	22	4876
2026-01-03 12:36:39.13	310.96	42.48	-30.4	-33.1	19.0	6.06e-01	0	43	0	725614592	22	4953
2026-01-03 12:36:42.15	312.04	41.69	-30.3	-33.0	19.0	6.07e-01	0	43	0	731381760	22	4896
2026-01-03 12:36:45.16	313.05	40.90	-30.7	-34.0	18.4	6.08e-01	0	43	0	737148928	22	5294
2026-01-03 12:36:48.19	314.03	40.12	-30.4	-33.3	18.9	6.05e-01	0	43	0	742391808	22	5004
2026-01-03 12:36:51.21	314.96	39.35	-30.4	-33.2	18.9	6.07e-01	0	43	0	748158976	22	4984
2026-01-03 12:36:54.23	315.84	38.59	-30.5	-33.4	18.8	6.05e-01	0	43	0	753926144	22	5056
2026-01-03 12:36:57.24	316.68	37.84	-30.2	-32.7	19.2	6.06e-01	0	43	0	759693312	22	4811
2026-01-03 12:37:00.25	317.48	37.11	-30.4	-33.3	18.8	6.07e-01	0	43	0	765460480	22	5012
2026-01-03 12:37:03.27	318.25	36.38	-29.7	-32.0	19.9	6.08e-01	0	43	0	770703360	21	4694
2026-01-03 12:37:06.29	318.99	35.67	-29.9	-32.5	19.6	6.06e-01	0	43	0	776470528	21	4865
2026-01-03 12:37:09.30	319.69	34.97	-29.9	-32.4	19.7	6.03e-01	0	43	0	782237696	21	4811
2026-01-03 12:37:12.32	320.37	34.28	-29.5	-31.6	20.1	6.03e-01	0	43	0	788004864	21	4554
2026-01-03 12:37:15.33	321.02	33.60	-29.5	-31.5	20.1	6.06e-01	0	43	0	793772032	21	4529
2026-01-03 12:37:18.34	321.64	32.94	-29.2	-31.2	20.6	6.03e-01	0	43	0	799014912	20	4541
2026-01-03 12:37:21.36	322.23	32.28	-29.0	-30.7	20.9	6.04e-01	0	43	0	804782080	20	4393
2026-01-03 12:37:24.38	322.81	31.64	-28.9	-30.4	21.0	6.07e-01	0	43	0	810549248	20	4303
2026-01-03 12:37:27.40	323.36	31.01	-29.0	-30.9	20.8	6.06e-01	0	43	0	816316416	20	4441
2026-01-03 12:37:30.42	323.89	30.39	-29.1	-31.1	20.6	6.05e-01	0	43	0	822083584	20	4517
2026-01-03 12:37:33.43	324.39	29.79	-29.1	-31.1	20.7	6.06e-01	0	43	0	827326464	20	4494
2026-01-03 12:37:36.44	324.88	29.19	-29.4	-31.8	20.2	6.04e-01	0	43	0	833093632	20	4737
2026-01-03 12:37:39.45	325.36	28.61	-29.4	-31.8	20.2	6.05e-01	0	43	0	838860800	20	4731
2026-01-03 12:37:42.46	325.81	28.04	-29.3	-31.5	20.3	6.02e-01	0	43	0	844627968	20	4646
2026-01-03 12:37:45.49	326.25	27.48	-29.5	-32.0	20.0	6.02e-01	0	43	0	849870848	20	4810
2026-01-03 12:37:48.50	326.68	26.93	-29.6	-32.3	19.8	6.04e-01	0	43	0	855638016	20	4924
2026-01-03 12:37:51.52	327.09	26.39	-29.8	-32.7	19.6	6.06e-01	0	43	0	861405184	20	5067
2026-01-03 12:37:54.53	327.48	25.86	-29.6	-32.2	19.9	6.03e-01	0	43	0	867172352	20	4880
2026-01-03 12:37:57.55	327.87	25.33	-29.7	-32.5	19.7	6.05e-01	0	43	0	872939520	20	4989
2026-01-03 12:38:00.57	328.24	24.82	-29.7	-32.5	19.7	6.03e-01	0	43	0	878182400	20	4992
2026-01-03 12:38:03.59	328.60	24.32	-29.8	-32.9	19.4	6.02e-01	0	43	0	883949568	20	5125
2026-01-03 12:38:06.61	328.95	23.83	-29.9	-33.1	19.3	6.04e-01	0	43	0	889716736	20	5191
2026-01-03 12:38:09.62	329.29	23.34	-30.0	-33.2	19.2	6.05e-01	0	43	0	895483904	20	5250
2026-01-03 12:38:12.63	329.61	22.87	-29.7	-32.5	19.7	6.06e-01	0	43	0	900726784	20	4968
2026-01-03 12:38:15.64	329.93	22.41	-29.6	-32.4	19.7	6.04e-01	0	43	0	906493952	20	4954
2026-01-03 12:38:18.66	330.24	21.95	-29.7	-32.5	19.6	6.02e-01	0	43	0	912261120	20	4989
2026-01-03 12:38:21.69	330.54	21.50	-29.8	-32.8	19.4	6.05e-01	0	43	0	918028288	20	5105
2026-01-03 12:38:24.70	330.83	21.06	-29.5	-32.2	19.7	6.03e-01	0	43	0	923795456	20	4893
2026-01-03 12:38:27.72	331.11	20.62	-29.6	-32.4	19.6	6.02e-01	0	43	0	929038336	20	4946
2026-01-03 12:38:30.74	331.39	20.19	-29.6	-32.4	19.6	6.04e-01	0	43	0	934805504	20	4963
2026-01-03 12:38:33.76	331.65	19.77	-29.6	-32.3	19.6	6.04e-01	0	43	0	940572672	20	4937
2026-01-03 12:38:36.78	331.92	19.36	-29.5	-32.0	19.7	6.03e-01	0	43	0	946339840	20	4831
2026-01-03 12:38:39.79	332.17	18.96	-29.5	-32.1	19.7	6.01e-01	0	43	0	952107008	20	4843
2026-01-03 12:38:42.80	332.41	18.56	-29.5	-32.2	19.6	6.02e-01	0	43	0	957349888	20	4900
2026-01-03 12:38:45.81	332.65	18.17	-29.5	-32.1	19.7	6.04e-01	0	43	0	963117056	20	4855
2026-01-03 12:38:48.83	332.89	17.78	-29.6	-32.4	19.5	6.04e-01	0	43	0	968884224	20	4964
2026-01-03 12:38:51.84	333.12	17.40	-29.5	-32.1	19.6	6.04e-01	0	43	0	974651392	20	4881
2026-01-03 12:38:54.86	333.34	17.03	-29.4	-32.0	19.7	6.03e-01	0	43	0	980418560	20	4829
2026-01-03 12:38:57.88	333.56	16.66	-29.4	-32.0	19.7	6.05e-01	0	43	0	985661440	20	4828
2026-01-03 12:39:00.88	333.77	16.30	-29.4	-32.0	19.6	6.05e-01	0	43	0	991428608	20	4853
2026-01-03 12:39:03.89	333.97	15.95	-29.4	-32.0	19.7	6.03e-01	0	43	0	997195776	20	4834
2026-01-03 12:39:06.91	334.18	15.59	-29.4	-32.0	19.7	6.04e-01	0	43	0	1002962944	20	4826
2026-01-03 12:39:09.92	334.37	15.25	-29.4	-32.0	19.6	6.03e-01	0	43	0	1008205824	20	4850
2026-01-03 12:39:12.95	334.57	14.91	-29.5	-32.3	19.4	6.03e-01	0	43	0	1013972992	20	4948
2026-01-03 12:39:15.96	334.76	14.57	-29.7	-32.7	19.0	6.03e-01	0	43	0	1019740160	20	5119
2026-01-03 12:39:18.98	334.94	14.24	-29.5	-32.1	19.5	6.04e-01	0	43	0	1025507328	20	4897
2026-01-03 12:39:22.00	335.12	13.91	-29.5	-32.2	19.4	6.05e-01	0	43	0	1031274496	20	4913
2026-01-03 12:39:25.02	335.30	13.59	-29.4	-32.0	19.5	6.04e-01	0	43	0	1036517376	20	4844
2026-01-03 12:39:28.04	335.47	13.28	-29.4	-32.1	19.4	6.02e-01	0	43	0	1042284544	20	4888
2026-01-03 12:39:31.06	335.64	12.96	-29.5	-32.2	19.3	6.06e-01	0	43	0	1048051712	20	4937
2026-01-03 12:39:34.07	335.81	12.65	-29.6	-32.5	19.2	6.04e-01	0	43	0	1053818880	20	5037
2026-01-03 12:39:37.09	335.97	12.35	-29.6	-32.6	19.1	6.04e-01	0	43	0	1059061760	20	5079
2026-01-03 12:39:40.11	336.13	12.05	-29.8	-33.2	18.7	6.02e-01	0	43	0	1064828928	20	5294
2026-01-03 12:39:43.12	336.29	11.75	-29.8	-33.1	18.8	6.04e-01	0	43	0	1070596096	20	5273
2026-01-03 12:39:46.13	336.44	11.46	-29.8	-33.1	18.8	6.03e-01	0	43	0	1076363264	20	5258
2026-01-03 12:39:49.15	336.59	11.17	-29.9	-33.3	18.6	6.03e-01	0	43	0	1082130432	20	5361
2026-01-03 12:39:52.17	336.74	10.89	-30.0	-33.6	18.4	6.05e-01	0	43	0	1087373312	20	5470
2026-01-03 12:39:55.19	336.88	10.60	-29.8	-33.0	18.7	6.04e-01	0	43	0	1093140480	20	5237
2026-01-03 12:39:58.22	337.03	10.32	-29.8	-33.1	18.7	6.02e-01	0	43	0	1098907648	20	5285
2026-01-03 12:40:01.23	337.16	10.05	-29.8	-33.1	18.7	6.02e-01	0	43	0	1104674816	20	5284
2026-01-03 12:40:04.25	337.30	9.78	-29.8	-33.3	18.5	6.04e-01	0	43	0	1110441984	20	5342
2026-01-03 12:40:07.26	337.44	9.51	-29.9	-33.4	18.4	6.04e-01	0	43	0	1115684864	20	5412
2026-01-03 12:40:10.28	337.57	9.24	-29.9	-33.5	18.3	6.02e-01	0	43	0	1121452032	20	5461
2026-01-03 12:40:13.29	337.70	8.98	-30.0	-33.7	18.2	6.04e-01	0	43	0	1127219200	20	5511
2026-01-03 12:40:16.31	337.82	8.72	-30.0	-33.8	18.1	6.04e-01	0	43	0	1132986368	20	5569
2026-01-03 12:40:19.33	337.95	8.46	-30.0	-33.8	18.0	6.04e-01	0	43	0	1138753536	20	5600
2026-01-03 12:40:22.35	338.07	8.21	-30.2	-33.9	17.6	6.03e-01	0	43	0	1143996416	21	5500
2026-01-03 12:40:25.36	338.19	7.96	-30.3	-34.2	17.4	6.03e-01	0	43	0	1149763584	21	5658
2026-01-03 12:40:28.38	338.31	7.71	-30.2	-33.9	17.6	6.05e-01	0	43	0	1155530752	21	5516
2026-01-03 12:40:31.39	338.43	7.46	-30.3	-34.1	17.4	6.06e-01	0	43	0	1161297920	21	5610
2026-01-03 12:40:34.40	338.54	7.22	-30.3	-34.4	17.2	6.05e-01	0	43	0	1167065088	21	5744
2026-01-03 12:40:37.41	338.66	6.98	-33.6	-53.2	3.8	7.43e-01	0	43	104	1170735104	27	34256

#Closed at: 2026-01-03 12:40:38
#Recorded file [1170 MB]: D:/data/31010_260103_153011.dat