passes_logs/2026/01/03/R2M6_AANII_01/R2M6_AANII_01__20260103_234049_SUOMI_NPP_rec.log

#Pass ID: 20260103_234049_SUOMI NPP
#Satellite: SUOMI NPP
#Configuration: NPP
#almurnet v.1.7.20240730
#Start time: 2026-01-03 23:40:49

#Version: 2.2.20231116
#Station: R2M6_AANII_01
#Location: 30.233357 lon 59.946436 lat
#TLE: 1 37849U 11061A   26001.07732418  .00000182  00000+0  10735-3 0  9990
#TLE: 2 37849  98.7795 303.2470 0002580  87.2016 272.9455 14.19520779734739

#Time	Az	El	Level	Level2	SNR	BER	BlckErr	Temp	State	Recorded	gain1	gain2
2026-01-03 23:40:49.74	22.56	7.04	-31.1	-35.4	5.1	1.27e+00	0	40	0	0	22	5851
2026-01-03 23:40:52.75	22.70	7.27	-31.6	-36.7	7.1	1.28e-01	0	41	0	1048576	23	6493
2026-01-03 23:40:55.76	22.84	7.49	-31.6	-36.9	7.0	1.70e-01	0	41	0	7340032	23	6587
2026-01-03 23:40:58.78	22.98	7.72	-31.4	-35.6	8.1	6.79e-02	0	41	0	12582912	23	5826
2026-01-03 23:41:01.79	23.12	7.95	-31.3	-35.5	8.3	5.04e-02	0	41	0	18874368	22	5861
2026-01-03 23:41:04.81	23.27	8.18	-30.9	-34.7	9.5	1.41e-02	0	41	0	24117248	21	5563
2026-01-03 23:41:07.82	23.41	8.41	-31.0	-34.4	9.4	1.53e-02	0	41	0	29360128	22	5346
2026-01-03 23:41:10.82	23.56	8.65	-30.8	-34.0	10.0	9.32e-03	0	41	0	35651584	21	5251
2026-01-03 23:41:13.83	23.71	8.89	-30.8	-34.1	10.0	6.53e-03	0	41	0	40894464	21	5292
2026-01-03 23:41:16.85	23.86	9.13	-30.5	-33.1	10.7	4.37e-03	0	41	0	46137344	21	4875
2026-01-03 23:41:19.86	24.02	9.37	-30.5	-33.1	10.8	2.81e-03	0	41	0	52428800	21	4846
2026-01-03 23:41:22.88	24.18	9.61	-30.5	-33.0	10.9	1.99e-03	0	41	0	57671680	21	4807
2026-01-03 23:41:25.90	24.34	9.86	-30.4	-33.1	11.2	1.86e-03	0	42	0	63963136	20	4956
2026-01-03 23:41:28.91	24.50	10.11	-30.8	-34.0	10.2	3.58e-03	0	42	0	69206016	21	5234
2026-01-03 23:41:31.93	24.66	10.36	-30.8	-34.0	10.2	7.01e-03	0	42	0	74448896	21	5223
2026-01-03 23:41:34.95	24.83	10.61	-30.8	-33.9	10.4	5.39e-03	0	42	0	80740352	21	5159
2026-01-03 23:41:37.97	25.00	10.87	-30.6	-33.2	10.9	4.71e-03	0	42	0	85983232	21	4865
2026-01-03 23:41:41.00	25.18	11.13	-30.1	-32.3	11.9	1.83e-03	0	42	0	92274688	20	4636
2026-01-03 23:41:44.00	25.35	11.39	-30.1	-32.1	12.1	1.41e-03	0	42	0	97517568	20	4546
2026-01-03 23:41:47.01	25.53	11.65	-29.9	-31.7	12.4	9.00e-04	0	42	0	102760448	20	4410
2026-01-03 23:41:50.03	25.71	11.92	-29.8	-31.7	12.8	8.31e-05	0	42	0	109051904	19	4491
2026-01-03 23:41:53.05	25.90	12.19	-29.8	-31.9	12.6	3.89e-05	0	42	0	114294784	19	4547
2026-01-03 23:41:56.06	26.09	12.46	-29.8	-31.7	12.9	7.06e-04	0	42	0	120586240	19	4486
2026-01-03 23:41:59.08	26.28	12.73	-29.8	-31.7	12.8	7.85e-05	0	42	0	125829120	19	4495
2026-01-03 23:42:02.10	26.47	13.01	-29.9	-31.9	12.7	1.71e-04	0	42	0	131072000	19	4545
2026-01-03 23:42:05.12	26.67	13.29	-29.7	-31.5	13.0	7.24e-05	0	42	0	137363456	19	4426
2026-01-03 23:42:08.13	26.87	13.57	-29.7	-31.4	13.2	1.67e-05	0	42	0	142606336	19	4378
2026-01-03 23:42:11.13	27.08	13.86	-29.8	-31.7	12.9	5.11e-05	0	42	0	147849216	19	4476
2026-01-03 23:42:14.15	27.29	14.15	-29.5	-31.0	13.4	1.07e-03	0	42	0	154140672	19	4252
2026-01-03 23:42:17.14	27.50	14.44	-29.6	-31.2	13.3	8.83e-04	0	42	0	159383552	19	4304
2026-01-03 23:42:20.15	27.72	14.73	-29.5	-31.2	13.6	7.45e-04	0	42	0	165675008	18	4422
2026-01-03 23:42:23.16	27.94	15.03	-29.5	-31.3	13.6	6.80e-04	0	42	0	170917888	18	4431
2026-01-03 23:42:26.18	28.16	15.33	-29.4	-31.2	13.6	6.10e-06	0	42	0	176160768	18	4405
2026-01-03 23:42:29.19	28.39	15.64	-29.5	-30.8	13.6	8.30e-06	0	42	0	182452224	19	4185
2026-01-03 23:42:32.21	28.63	15.95	-29.2	-30.5	14.2	1.02e-03	0	43	0	187695104	18	4175
2026-01-03 23:42:35.22	28.87	16.26	-29.2	-30.6	14.0	1.00e-03	0	42	0	193986560	18	4229
2026-01-03 23:42:38.23	29.11	16.58	-29.3	-30.8	14.0	9.73e-04	0	42	0	199229440	18	4268
2026-01-03 23:42:41.24	29.36	16.90	-29.3	-30.7	14.0	1.11e-03	0	43	0	204472320	18	4246
2026-01-03 23:42:44.26	29.61	17.22	-29.4	-31.0	13.9	1.96e-03	0	42	0	210763776	18	4326
2026-01-03 23:42:47.28	29.87	17.55	-29.3	-30.7	14.1	4.74e-04	0	42	0	216006656	18	4231
2026-01-03 23:42:50.30	30.14	17.88	-29.3	-30.7	14.1	4.65e-05	0	42	0	222298112	18	4234
2026-01-03 23:42:53.31	30.41	18.22	-29.4	-30.5	14.0	2.13e-05	0	43	0	227540992	19	4077
2026-01-03 23:42:56.33	30.68	18.56	-29.7	-31.3	13.5	5.73e-04	0	43	0	232783872	19	4313
2026-01-03 23:42:59.34	30.96	18.90	-29.7	-31.3	13.4	6.62e-04	0	43	0	239075328	19	4330
2026-01-03 23:43:02.35	31.25	19.25	-30.0	-32.0	13.0	1.12e-03	0	43	0	244318208	19	4550
2026-01-03 23:43:05.37	31.55	19.60	-30.0	-31.5	12.9	4.06e-04	0	43	0	249561088	20	4314
2026-01-03 23:43:08.39	31.85	19.96	-29.5	-30.7	13.9	4.04e-04	0	43	0	255852544	19	4128
2026-01-03 23:43:11.40	32.15	20.32	-29.5	-30.7	13.9	4.55e-04	0	43	0	261095424	19	4151
2026-01-03 23:43:14.42	32.47	20.68	-29.6	-31.0	13.7	7.60e-06	0	43	0	267386880	19	4224
2026-01-03 23:43:17.43	32.79	21.05	-29.7	-31.3	13.5	9.90e-06	0	43	0	272629760	19	4328
2026-01-03 23:43:20.46	33.12	21.43	-29.8	-31.4	13.4	1.14e-05	0	43	0	277872640	19	4361
2026-01-03 23:43:23.48	33.46	21.81	-29.9	-31.7	13.3	1.37e-05	0	43	0	284164096	19	4444
2026-01-03 23:43:26.49	33.80	22.19	-29.7	-31.2	13.1	2.28e-04	0	42	0	289406976	19	4289
2026-01-03 23:43:29.51	34.16	22.58	-29.5	-31.1	13.9	9.07e-05	0	43	0	295698432	18	4354
2026-01-03 23:43:32.53	34.52	22.98	-29.5	-30.7	14.0	2.20e-06	0	43	0	300941312	19	4125
2026-01-03 23:43:35.56	34.90	23.38	-29.6	-30.9	13.9	2.20e-06	0	43	0	306184192	19	4180
2026-01-03 23:43:38.57	35.28	23.78	-29.6	-30.8	13.9	1.50e-06	0	43	0	312475648	19	4153
2026-01-03 23:43:41.58	35.67	24.19	-29.7	-31.3	13.7	1.50e-06	0	43	0	317718528	19	4301
2026-01-03 23:43:44.60	36.07	24.61	-29.4	-30.4	14.2	2.12e-04	0	43	0	324009984	19	4035
2026-01-03 23:43:47.62	36.48	25.03	-29.5	-31.0	14.1	2.57e-04	0	43	0	329252864	18	4309
2026-01-03 23:43:50.64	36.90	25.45	-29.5	-30.7	14.1	1.98e-04	0	43	0	334495744	19	4129
2026-01-03 23:43:53.64	37.33	25.88	-29.7	-31.2	13.7	1.36e-04	0	43	0	340787200	19	4283
2026-01-03 23:43:56.66	37.78	26.32	-30.1	-31.7	13.0	1.62e-04	0	43	0	346030080	20	4347
2026-01-03 23:43:59.67	38.23	26.76	-30.3	-32.3	12.6	6.10e-05	0	43	0	352321536	20	4548
2026-01-03 23:44:02.70	38.71	27.21	-30.3	-31.7	12.7	2.60e-04	0	43	0	357564416	21	4263
2026-01-03 23:44:05.71	39.19	27.66	-30.0	-31.6	13.1	2.23e-04	0	43	0	362807296	20	4291
2026-01-03 23:44:08.72	39.68	28.12	-30.1	-31.7	13.1	1.81e-04	0	43	0	369098752	20	4337
2026-01-03 23:44:11.74	40.19	28.58	-30.5	-32.4	12.3	1.58e-04	0	43	0	374341632	21	4492
2026-01-03 23:44:14.75	40.72	29.05	-30.7	-33.0	11.9	4.32e-04	0	43	0	380633088	21	4695
2026-01-03 23:44:17.78	41.26	29.52	-30.8	-33.3	11.7	4.62e-04	0	43	0	385875968	21	4795
2026-01-03 23:44:20.79	41.81	30.00	-31.0	-33.2	11.5	8.51e-04	0	43	0	391118848	22	4668
2026-01-03 23:44:23.81	42.39	30.49	-31.1	-33.6	11.2	9.70e-04	0	43	0	397410304	22	4798
2026-01-03 23:44:26.82	42.97	30.97	-30.9	-32.9	11.7	7.60e-04	0	43	0	402653184	22	4544
2026-01-03 23:44:29.83	43.58	31.47	-31.0	-33.4	11.4	7.29e-04	0	43	0	407896064	22	4717
2026-01-03 23:44:32.85	44.21	31.97	-31.2	-33.4	11.0	3.42e-03	0	43	0	414187520	23	4630
2026-01-03 23:44:35.88	44.85	32.47	-31.0	-32.7	11.5	9.80e-04	0	43	0	419430400	23	4387
2026-01-03 23:44:38.88	45.52	32.98	-30.5	-31.7	12.5	1.69e-04	0	43	0	425721856	22	4157
2026-01-03 23:44:41.90	46.20	33.49	-29.8	-30.8	13.7	3.00e-06	0	43	0	430964736	20	4043
2026-01-03 23:44:44.91	46.91	34.01	-30.0	-31.3	13.5	9.90e-06	0	43	0	436207616	20	4200
2026-01-03 23:44:47.92	47.64	34.53	-29.9	-31.1	13.7	1.75e-05	0	43	0	442499072	20	4132
2026-01-03 23:44:50.94	48.39	35.05	-29.7	-30.5	14.0	4.50e-06	0	43	0	447741952	20	3957
2026-01-03 23:44:53.95	49.17	35.58	-29.9	-31.0	13.7	3.80e-06	0	43	0	454033408	20	4110
2026-01-03 23:44:56.97	49.97	36.11	-29.9	-31.2	13.6	1.60e-05	0	43	0	459276288	20	4171
2026-01-03 23:44:59.98	50.80	36.65	-29.8	-30.8	13.9	2.20e-06	0	43	0	464519168	20	4032
2026-01-03 23:45:02.98	51.65	37.18	-29.6	-30.4	14.2	3.80e-06	0	43	0	470810624	20	3924
2026-01-03 23:45:06.00	52.53	37.72	-29.4	-30.2	14.6	0.00e+00	0	43	0	476053504	19	3949
2026-01-03 23:45:09.02	53.45	38.25	-29.5	-30.4	14.4	7.00e-07	0	43	0	482344960	19	4025
2026-01-03 23:45:12.03	54.39	38.79	-29.6	-30.4	14.2	0.00e+00	0	43	0	487587840	20	3925
2026-01-03 23:45:15.05	55.36	39.33	-29.6	-30.4	14.1	6.80e-06	0	43	0	492830720	20	3943
2026-01-03 23:45:18.07	56.37	39.87	-30.3	-32.2	13.0	3.73e-05	0	43	0	499122176	20	4474
2026-01-03 23:45:21.09	57.41	40.40	-30.8	-32.5	12.1	4.90e-04	0	43	0	504365056	22	4393
2026-01-03 23:45:24.11	58.49	40.94	-29.3	-29.5	14.7	5.34e-05	0	43	0	510656512	20	3691
2026-01-03 23:45:27.12	59.60	41.47	-30.1	-31.6	13.5	1.64e-04	0	43	0	515899392	20	4301
2026-01-03 23:45:30.14	60.75	41.99	-29.1	-29.5	15.1	2.17e-04	0	43	0	521142272	19	3763
2026-01-03 23:45:33.17	61.94	42.51	-29.7	-31.1	14.2	7.00e-07	0	43	0	527433728	19	4198
2026-01-03 23:45:36.19	63.16	43.03	-30.2	-31.9	13.3	2.67e-05	0	43	0	532676608	20	4355
2026-01-03 23:45:39.19	64.42	43.53	-30.3	-32.2	13.0	1.29e-05	0	43	0	538968064	20	4465
2026-01-03 23:45:42.20	65.72	44.03	-29.7	-30.4	14.2	1.50e-06	0	43	0	544210944	20	3938
2026-01-03 23:45:45.21	67.06	44.51	-30.2	-31.7	13.5	6.80e-06	0	43	0	549453824	20	4317
2026-01-03 23:45:48.22	68.43	44.98	-30.0	-31.3	13.7	8.30e-06	0	43	0	555745280	20	4190
2026-01-03 23:45:51.23	69.85	45.44	-30.5	-32.3	12.7	3.66e-05	0	43	0	560988160	21	4410
2026-01-03 23:45:54.23	71.31	45.89	-29.9	-31.0	13.9	5.30e-06	0	43	0	566231040	20	4087
2026-01-03 23:45:57.25	72.82	46.32	-31.4	-34.3	11.0	1.25e-03	0	43	0	572522496	22	5026
2026-01-03 23:46:00.27	74.37	46.73	-31.7	-34.7	10.4	2.95e-03	0	43	0	577765376	23	5123
2026-01-03 23:46:03.28	75.95	47.13	-31.4	-33.8	11.1	2.93e-03	0	43	0	584056832	23	4743
2026-01-03 23:46:06.30	77.58	47.50	-31.0	-32.6	11.9	4.74e-04	0	43	0	589299712	23	4324
2026-01-03 23:46:09.32	79.24	47.86	-31.9	-35.1	9.7	1.44e-02	0	43	0	594542592	24	5189
2026-01-03 23:46:12.34	80.95	48.19	-31.8	-34.7	10.0	1.00e-02	0	43	0	600834048	24	4995
2026-01-03 23:46:15.36	82.68	48.49	-31.2	-33.1	11.6	1.07e-03	0	43	0	606076928	23	4487
2026-01-03 23:46:18.38	84.45	48.77	-30.5	-31.7	12.9	1.56e-04	0	43	0	612368384	22	4130
2026-01-03 23:46:21.38	86.24	49.02	-28.9	-28.9	15.6	0.00e+00	0	43	0	617611264	19	3604
2026-01-03 23:46:24.39	88.07	49.24	-29.2	-30.2	15.2	0.00e+00	0	43	0	622854144	18	4034
2026-01-03 23:46:27.41	89.92	49.43	-28.4	-28.4	16.2	0.00e+00	0	43	0	629145600	18	3563
2026-01-03 23:46:30.42	91.79	49.59	-28.5	-29.1	15.8	0.00e+00	0	43	0	634388480	17	3838
2026-01-03 23:46:33.44	93.68	49.72	-28.5	-28.9	16.1	0.00e+00	0	43	0	640679936	17	3799
2026-01-03 23:46:36.46	95.59	49.81	-27.9	-27.6	16.9	0.00e+00	0	43	0	645922816	17	3469
2026-01-03 23:46:39.48	97.50	49.88	-29.4	-30.6	14.9	0.00e+00	0	43	0	651165696	18	4162
2026-01-03 23:46:42.50	99.43	49.90	-29.5	-30.3	14.8	0.00e+00	0	43	0	657457152	19	3980
2026-01-03 23:46:45.52	101.35	49.90	-28.8	-29.2	15.7	0.00e+00	0	43	0	662700032	18	3770
2026-01-03 23:46:48.53	103.27	49.86	-28.8	-29.1	15.8	2.20e-06	0	43	0	668991488	18	3746
2026-01-03 23:46:51.55	105.18	49.79	-29.4	-30.2	14.8	0.00e+00	0	43	0	674234368	19	3951
2026-01-03 23:46:54.57	107.09	49.69	-29.3	-30.3	15.1	0.00e+00	0	43	0	679477248	18	4072
2026-01-03 23:46:57.57	108.96	49.55	-29.6	-30.1	14.5	7.00e-07	0	43	0	685768704	20	3839
2026-01-03 23:47:00.59	110.84	49.38	-30.6	-32.4	12.7	2.89e-05	0	43	0	691011584	21	4440
2026-01-03 23:47:03.61	112.69	49.18	-31.1	-33.3	11.8	3.50e-04	0	43	0	697303040	22	4639
2026-01-03 23:47:06.63	114.51	48.95	-31.3	-33.4	11.4	1.62e-03	0	43	0	702545920	23	4581
2026-01-03 23:47:09.64	116.30	48.70	-31.2	-33.1	11.6	1.22e-03	0	43	0	707788800	23	4461
2026-01-03 23:47:12.66	118.06	48.41	-32.3	-36.6	8.6	1.64e-02	0	43	0	714080256	24	5905
2026-01-03 23:47:15.68	119.80	48.10	-32.2	-35.6	9.1	1.12e-02	0	43	0	719323136	25	5313
2026-01-03 23:47:18.70	121.49	47.76	-32.4	-36.4	8.4	6.38e-02	0	43	0	725614592	25	5687
2026-01-03 23:47:21.73	123.16	47.40	-33.3	-40.7	5.1	6.35e-01	0	43	0	730857472	26	8471
2026-01-03 23:47:24.74	124.77	47.02	-32.3	-35.7	8.9	4.16e-02	0	43	0	736100352	25	5376
2026-01-03 23:47:27.76	126.35	46.62	-31.9	-35.1	9.8	6.31e-03	0	43	0	742391808	24	5167
2026-01-03 23:47:30.78	127.89	46.20	-31.3	-33.4	11.4	9.54e-04	0	43	0	747634688	23	4590
2026-01-03 23:47:33.80	129.39	45.76	-31.7	-34.2	10.4	7.03e-03	0	43	0	753926144	24	4822
2026-01-03 23:47:36.81	130.84	45.31	-33.1	-39.2	6.0	1.43e-01	0	43	0	759169024	26	7284
2026-01-03 23:47:39.83	132.26	44.84	-31.5	-33.8	10.6	1.72e-02	0	43	0	764411904	24	4692
2026-01-03 23:47:42.85	133.64	44.36	-31.2	-33.2	11.5	1.86e-03	0	43	0	770703360	23	4552
2026-01-03 23:47:45.87	134.97	43.87	-30.6	-32.0	12.7	7.01e-05	0	43	0	775946240	22	4210
2026-01-03 23:47:48.89	136.27	43.37	-30.2	-31.3	13.5	3.12e-05	0	43	0	782237696	21	4078
2026-01-03 23:47:51.91	137.52	42.86	-29.8	-31.3	14.2	0.00e+00	0	43	0	787480576	19	4248
2026-01-03 23:47:54.93	138.74	42.34	-30.1	-31.5	13.6	6.10e-06	0	43	0	792723456	20	4249
2026-01-03 23:47:57.94	139.91	41.82	-29.8	-30.7	14.1	2.20e-06	0	43	0	799014912	20	4013
2026-01-03 23:48:00.96	141.05	41.29	-29.3	-29.9	15.0	1.50e-06	0	43	0	804257792	19	3876
2026-01-03 23:48:03.98	142.16	40.76	-29.7	-30.9	14.4	1.50e-06	0	43	0	809500672	19	4138
2026-01-03 23:48:07.00	143.22	40.22	-30.8	-33.0	12.2	1.46e-04	0	43	0	815792128	21	4631
2026-01-03 23:48:10.02	144.26	39.68	-30.7	-32.7	12.5	1.80e-04	0	43	0	821035008	21	4558
2026-01-03 23:48:13.02	145.25	39.14	-32.5	-37.4	7.8	1.97e-02	0	43	0	827326464	24	6371
2026-01-03 23:48:16.04	146.22	38.60	-30.8	-32.4	12.4	1.32e-03	0	43	0	832569344	22	4345
2026-01-03 23:48:19.04	147.15	38.06	-31.9	-35.4	9.8	2.51e-03	0	43	0	837812224	23	5432
2026-01-03 23:48:22.06	148.06	37.52	-31.0	-32.7	11.8	3.19e-03	0	43	0	844103680	23	4355
2026-01-03 23:48:25.08	148.94	36.98	-30.7	-32.8	12.4	8.39e-05	0	43	0	849346560	21	4574
2026-01-03 23:48:28.09	149.79	36.45	-32.0	-35.5	9.3	2.76e-02	0	43	0	855638016	24	5406
2026-01-03 23:48:31.11	150.61	35.91	-30.9	-32.8	12.1	3.23e-04	0	43	0	860880896	22	4468
2026-01-03 23:48:34.13	151.41	35.38	-32.1	-35.8	8.9	1.59e-02	0	43	0	866123776	24	5534
2026-01-03 23:48:37.15	152.18	34.85	-30.2	-31.2	13.3	5.49e-05	0	43	0	872415232	21	4084
2026-01-03 23:48:40.16	152.93	34.32	-30.0	-31.3	13.6	1.29e-05	0	43	0	877658112	20	4186
2026-01-03 23:48:43.18	153.65	33.80	-32.4	-37.0	8.1	3.99e-02	0	43	0	883949568	24	6159
2026-01-03 23:48:46.20	154.36	33.28	-31.4	-33.2	11.0	7.49e-03	0	43	0	889192448	24	4465
2026-01-03 23:48:49.22	155.04	32.76	-30.7	-32.3	12.4	1.36e-04	0	43	0	894435328	22	4323
2026-01-03 23:48:52.23	155.69	32.25	-32.2	-36.2	8.7	1.52e-02	0	43	0	900726784	24	5722
2026-01-03 23:48:55.24	156.33	31.75	-31.8	-35.0	9.6	2.19e-02	0	43	0	905969664	24	5165
2026-01-03 23:48:58.25	156.95	31.25	-31.2	-33.4	11.2	1.63e-03	0	43	0	912261120	23	4633
2026-01-03 23:49:01.28	157.56	30.75	-31.4	-34.3	10.9	1.44e-03	0	43	0	917504000	22	5073
2026-01-03 23:49:04.29	158.14	30.26	-32.4	-37.3	7.7	6.09e-02	0	43	0	922746880	24	6347
2026-01-03 23:49:07.30	158.71	29.78	-31.9	-35.8	9.3	3.04e-02	0	43	0	929038336	23	5618
2026-01-03 23:49:10.32	159.26	29.30	-31.0	-33.6	11.6	1.42e-03	0	43	0	934281216	21	4899
2026-01-03 23:49:13.34	159.80	28.82	-31.7	-35.0	9.9	2.57e-03	0	43	0	940572672	23	5285
2026-01-03 23:49:16.36	160.32	28.35	-31.8	-35.5	9.6	1.14e-02	0	43	0	945815552	23	5503
2026-01-03 23:49:19.38	160.82	27.89	-31.0	-33.3	11.4	1.54e-03	0	43	0	951058432	22	4694
2026-01-03 23:49:22.39	161.31	27.43	-29.9	-31.1	13.6	3.50e-05	0	43	0	957349888	20	4154
2026-01-03 23:49:25.41	161.79	26.98	-29.6	-30.8	14.2	2.25e-03	0	43	0	962592768	19	4148
2026-01-03 23:49:28.41	162.26	26.53	-29.9	-31.6	13.7	2.23e-03	0	43	0	967835648	19	4381
2026-01-03 23:49:31.43	162.71	26.09	-30.8	-33.2	11.8	2.43e-03	0	43	0	974127104	21	4784
2026-01-03 23:49:34.44	163.15	25.65	-31.1	-33.8	11.0	5.21e-03	0	43	0	979369984	22	4898
2026-01-03 23:49:37.46	163.58	25.22	-30.3	-31.9	12.7	2.43e-03	0	43	0	985661440	21	4314
2026-01-03 23:49:40.47	164.00	24.80	-29.6	-30.9	14.1	1.90e-03	0	43	0	990904320	19	4180
2026-01-03 23:49:43.48	164.40	24.38	-29.6	-30.8	14.1	1.81e-03	0	43	0	996147200	19	4147
2026-01-03 23:49:46.50	164.80	23.96	-30.1	-31.8	13.1	1.91e-03	0	43	0	1002438656	20	4373
2026-01-03 23:49:49.52	165.19	23.55	-30.6	-32.7	12.1	2.19e-03	0	43	0	1007681536	21	4594
2026-01-03 23:49:52.53	165.57	23.15	-30.5	-32.4	12.3	2.43e-03	0	43	0	1013972992	21	4483
2026-01-03 23:49:55.53	165.93	22.75	-29.8	-31.0	13.6	1.97e-03	0	43	0	1019215872	20	4125
2026-01-03 23:49:58.55	166.29	22.35	-29.5	-30.6	14.2	7.00e-07	0	43	0	1024458752	19	4100
2026-01-03 23:50:01.57	166.64	21.96	-29.6	-30.9	14.0	3.00e-06	0	43	0	1030750208	19	4180
2026-01-03 23:50:04.59	166.99	21.58	-29.8	-31.5	13.6	9.90e-06	0	43	0	1035993088	19	4356
2026-01-03 23:50:07.61	167.32	21.20	-30.2	-32.1	12.8	6.10e-05	0	43	0	1042284544	20	4470
2026-01-03 23:50:10.63	167.65	20.82	-30.4	-32.3	12.3	2.08e-03	0	43	0	1047527424	21	4442
2026-01-03 23:50:13.65	167.97	20.45	-30.6	-32.8	11.9	3.72e-04	0	43	0	1052770304	21	4627
2026-01-03 23:50:16.66	168.28	20.09	-30.2	-32.0	12.8	5.56e-05	0	43	0	1059061760	20	4453
2026-01-03 23:50:19.68	168.58	19.72	-29.7	-31.1	13.7	1.50e-06	0	43	0	1064304640	19	4256
2026-01-03 23:50:22.70	168.88	19.37	-29.4	-30.4	13.4	3.00e-06	0	43	0	1070596096	19	4048
2026-01-03 23:50:25.71	169.17	19.01	-29.7	-31.0	13.7	4.50e-06	0	43	0	1075838976	19	4227
2026-01-03 23:50:28.74	169.46	18.66	-29.9	-31.4	13.2	2.59e-05	0	43	0	1081081856	20	4251
2026-01-03 23:50:31.75	169.74	18.32	-29.9	-31.3	13.2	4.34e-05	0	43	0	1087373312	20	4241
2026-01-03 23:50:34.77	170.01	17.98	-29.8	-31.5	13.4	1.79e-03	0	43	0	1092616192	19	4380
2026-01-03 23:50:37.80	170.28	17.64	-29.4	-31.0	14.1	1.74e-03	0	43	0	1098907648	18	4305
2026-01-03 23:50:40.80	170.54	17.31	-29.3	-30.7	14.3	1.64e-03	0	43	0	1104150528	18	4221
2026-01-03 23:50:43.83	170.79	16.98	-29.1	-30.1	14.6	7.00e-07	0	43	0	1109393408	18	4058
2026-01-03 23:50:46.85	171.05	16.66	-29.3	-30.6	14.3	7.00e-07	0	43	0	1115684864	18	4198
2026-01-03 23:50:49.85	171.29	16.34	-29.6	-31.1	13.6	1.38e-03	0	43	0	1120927744	19	4263
2026-01-03 23:50:52.87	171.53	16.02	-29.9	-31.9	13.1	1.15e-03	0	43	0	1126170624	19	4535
2026-01-03 23:50:55.89	171.77	15.71	-30.2	-32.2	12.4	1.34e-03	0	43	0	1132462080	20	4565
2026-01-03 23:50:58.90	172.00	15.40	-30.4	-32.9	11.8	1.72e-03	0	43	0	1137704960	20	4815
2026-01-03 23:51:01.92	172.23	15.09	-30.7	-33.4	11.2	2.41e-03	0	43	0	1143996416	21	4894
2026-01-03 23:51:04.93	172.45	14.79	-30.8	-33.6	11.1	3.05e-03	0	43	0	1149239296	21	4968
2026-01-03 23:51:07.95	172.67	14.49	-30.5	-32.7	11.7	8.44e-04	0	43	0	1154482176	21	4651
2026-01-03 23:51:10.96	172.88	14.19	-30.5	-33.0	11.8	7.69e-04	0	43	0	1160773632	20	4850
2026-01-03 23:51:13.98	173.09	13.90	-30.5	-33.0	11.8	1.87e-03	0	43	0	1166016512	20	4844
2026-01-03 23:51:16.99	173.30	13.61	-29.7	-31.4	13.3	4.83e-04	0	43	0	1172307968	19	4367
2026-01-03 23:51:20.00	173.50	13.33	-29.8	-31.7	13.1	3.42e-04	0	43	0	1177550848	19	4460
2026-01-03 23:51:23.02	173.70	13.04	-29.9	-31.8	13.0	3.05e-05	0	43	0	1182793728	19	4481
2026-01-03 23:51:26.02	173.89	12.76	-30.4	-32.8	11.9	5.18e-04	0	43	0	1189085184	20	4779
2026-01-03 23:51:29.05	174.08	12.48	-30.0	-31.8	12.6	4.87e-04	0	43	0	1194328064	20	4417
2026-01-03 23:51:32.06	174.27	12.21	-30.2	-32.3	12.2	6.17e-04	0	43	0	1200619520	20	4583
2026-01-03 23:51:35.07	174.46	11.94	-30.2	-32.4	12.1	6.77e-04	0	43	0	1205862400	20	4633
2026-01-03 23:51:38.09	174.64	11.67	-30.4	-32.9	11.8	8.77e-04	0	43	0	1211105280	20	4796
2026-01-03 23:51:41.09	174.82	11.40	-30.3	-32.7	11.9	8.32e-04	0	43	0	1217396736	20	4727
2026-01-03 23:51:44.10	174.99	11.14	-30.2	-32.3	12.1	6.61e-04	0	43	0	1222639616	20	4615
2026-01-03 23:51:47.11	175.16	10.88	-30.1	-32.0	12.3	6.06e-04	0	43	0	1227882496	20	4503
2026-01-03 23:51:50.12	175.33	10.62	-29.8	-31.8	12.8	5.58e-04	0	43	0	1234173952	19	4506
2026-01-03 23:51:53.15	175.50	10.36	-29.8	-31.7	12.9	5.12e-04	0	43	0	1239416832	19	4472
2026-01-03 23:51:56.16	175.67	10.11	-29.9	-31.9	12.8	5.34e-04	0	43	0	1245708288	19	4536
2026-01-03 23:51:59.17	175.83	9.86	-29.8	-31.6	13.0	5.45e-04	0	43	0	1250951168	19	4449
2026-01-03 23:52:02.18	175.99	9.61	-29.9	-32.1	12.6	7.93e-05	0	43	0	1256194048	19	4627
2026-01-03 23:52:05.19	176.14	9.36	-30.2	-32.5	11.9	3.29e-04	0	43	0	1262485504	20	4695
2026-01-03 23:52:08.21	176.30	9.12	-30.2	-32.6	11.9	3.49e-04	0	43	0	1267728384	20	4706
2026-01-03 23:52:11.22	176.45	8.88	-30.4	-33.1	11.4	9.61e-04	0	43	0	1274019840	20	4909
2026-01-03 23:52:14.24	176.60	8.64	-30.6	-33.3	10.9	2.16e-03	0	43	0	1279262720	21	4925
2026-01-03 23:52:17.26	176.75	8.40	-30.8	-34.1	10.2	4.10e-03	0	43	0	1284505600	21	5251
2026-01-03 23:52:20.26	176.89	8.16	-30.8	-34.0	10.3	5.84e-03	0	43	0	1290797056	21	5212
2026-01-03 23:52:23.29	177.04	7.93	-30.7	-33.8	10.3	4.77e-03	0	43	0	1296039936	21	5156
2026-01-03 23:52:26.30	177.18	7.70	-30.6	-33.4	10.6	3.54e-03	0	43	0	1302331392	21	4986
2026-01-03 23:52:29.33	177.32	7.47	-30.7	-33.7	10.4	5.09e-03	0	43	0	1307574272	21	5096
2026-01-03 23:52:32.35	177.45	7.24	-30.9	-34.4	9.9	8.51e-03	0	43	0	1312817152	21	5403
2026-01-03 23:52:35.36	177.59	7.01	-32.9	-45.6	3.8	1.49e+00	0	43	104	1317011456	25	15517

#Closed at: 2026-01-03 23:52:36
#Recorded file [1317 MB]: D:/data/31010_260104_024051.dat