passes_logs/2026/01/03/R2M6_AANII_01/R2M6_AANII_01__20260103_222152_NOAA_20_JPSS-1_rec.log

#Pass ID: 20260103_222152_NOAA 20 (JPSS-1)
#Satellite: NOAA 20 (JPSS-1)
#Configuration: NOAA 20
#almurnet v.1.7.20240730
#Start time: 2026-01-03 22:21:51

#Version: 2.2.20231116
#Station: R2M6_AANII_01
#Location: 30.233357 lon 59.946436 lat
#TLE: 1 43013U 17073A   26003.41800368  .00000169  00000+0  10117-3 0  9998
#TLE: 2 43013  98.7624 304.4804 0001884  56.1176 304.0179 14.19532918421092

#Time	Az	El	Level	Level2	SNR	BER	BlckErr	Temp	State	Recorded	gain1	gain2
2026-01-03 22:21:51.53	34.49	6.96	-31.1	-35.9	5.4	1.13e+00	0	40	0	0	22	6319
2026-01-03 22:21:54.55	34.84	7.12	-32.0	-39.2	6.6	2.53e-01	0	40	0	1048576	24	8191
2026-01-03 22:21:57.57	35.19	7.28	-31.8	-38.2	7.3	1.27e-01	0	41	0	7340032	24	7488
2026-01-03 22:22:00.59	35.54	7.45	-31.4	-37.1	9.0	3.34e-02	0	41	0	12582912	22	6963
2026-01-03 22:22:03.60	35.90	7.61	-31.1	-36.0	9.9	1.48e-02	0	41	0	18874368	22	6319
2026-01-03 22:22:06.61	36.26	7.78	-30.9	-35.2	10.6	3.90e-03	0	41	0	24117248	22	5899
2026-01-03 22:22:09.63	36.62	7.94	-30.7	-35.0	11.1	1.90e-03	0	41	0	29360128	21	5900
2026-01-03 22:22:12.65	36.99	8.11	-30.4	-34.2	11.7	6.29e-04	0	41	0	35651584	21	5568
2026-01-03 22:22:15.68	37.37	8.27	-30.6	-34.6	11.4	7.35e-04	0	41	0	40894464	21	5746
2026-01-03 22:22:18.69	37.74	8.43	-30.5	-34.5	11.6	7.16e-04	0	41	0	47185920	21	5651
2026-01-03 22:22:21.71	38.12	8.60	-30.8	-35.2	11.0	1.68e-03	0	41	0	52428800	21	6013
2026-01-03 22:22:24.72	38.51	8.76	-30.7	-34.9	11.3	1.17e-03	0	41	0	57671680	21	5859
2026-01-03 22:22:27.74	38.90	8.93	-30.7	-34.8	11.4	9.38e-04	0	41	0	63963136	21	5808
2026-01-03 22:22:30.75	39.29	9.09	-30.8	-35.2	11.1	1.79e-03	0	42	0	69206016	21	5953
2026-01-03 22:22:33.77	39.69	9.26	-30.7	-34.7	11.5	7.29e-04	0	41	0	74448896	21	5744
2026-01-03 22:22:36.78	40.09	9.42	-30.6	-34.4	11.7	5.14e-04	0	41	0	80740352	21	5600
2026-01-03 22:22:39.80	40.49	9.59	-30.4	-34.0	12.0	3.62e-04	0	42	0	85983232	21	5429
2026-01-03 22:22:42.82	40.90	9.75	-30.6	-34.5	11.7	4.70e-04	0	41	0	92274688	21	5644
2026-01-03 22:22:45.84	41.32	9.92	-30.4	-33.8	12.2	2.20e-04	0	42	0	97517568	21	5339
2026-01-03 22:22:48.85	41.74	10.08	-30.3	-33.7	12.3	2.61e-04	0	42	0	102760448	21	5301
2026-01-03 22:22:51.87	42.16	10.24	-30.5	-34.1	12.0	4.84e-04	0	42	0	109051904	21	5456
2026-01-03 22:22:54.89	42.59	10.41	-30.5	-34.0	12.1	3.88e-04	0	42	0	114294784	21	5421
2026-01-03 22:22:57.90	43.02	10.57	-30.6	-34.4	11.8	3.96e-04	0	42	0	120586240	21	5572
2026-01-03 22:23:00.92	43.46	10.73	-30.4	-33.8	12.3	1.72e-04	0	42	0	125829120	21	5312
2026-01-03 22:23:03.95	43.91	10.89	-30.1	-33.0	12.8	9.68e-05	0	42	0	131072000	21	5007
2026-01-03 22:23:06.96	44.35	11.06	-30.0	-32.6	13.2	3.50e-05	0	42	0	137363456	21	4872
2026-01-03 22:23:09.98	44.81	11.22	-30.0	-33.2	13.1	7.93e-05	0	42	0	142606336	20	5205
2026-01-03 22:23:13.00	45.27	11.38	-30.1	-33.5	12.9	4.34e-05	0	42	0	148897792	20	5313
2026-01-03 22:23:16.02	45.73	11.54	-30.1	-33.4	12.9	4.88e-05	0	42	0	154140672	20	5278
2026-01-03 22:23:19.04	46.20	11.70	-30.2	-33.5	12.9	3.28e-05	0	42	0	159383552	20	5314
2026-01-03 22:23:22.06	46.67	11.86	-30.0	-33.1	13.2	2.89e-05	0	42	0	165675008	20	5153
2026-01-03 22:23:25.07	47.14	12.02	-30.0	-33.1	13.2	2.51e-05	0	42	0	170917888	20	5150
2026-01-03 22:23:28.10	47.63	12.17	-30.1	-33.5	12.9	3.50e-05	0	42	0	177209344	20	5301
2026-01-03 22:23:31.11	48.12	12.33	-30.2	-33.6	12.9	3.43e-05	0	42	0	182452224	20	5330
2026-01-03 22:23:34.13	48.61	12.49	-30.2	-33.6	12.9	6.20e-04	0	42	0	187695104	20	5338
2026-01-03 22:23:37.14	49.10	12.64	-30.4	-34.3	12.5	1.72e-04	0	42	0	193986560	20	5613
2026-01-03 22:23:40.16	49.61	12.80	-30.4	-34.2	12.5	1.16e-04	0	42	0	199229440	20	5571
2026-01-03 22:23:43.18	50.11	12.95	-30.5	-34.0	12.3	2.85e-04	0	42	0	205520896	21	5373
2026-01-03 22:23:46.19	50.63	13.10	-30.2	-33.6	12.9	4.88e-05	0	42	0	210763776	20	5347
2026-01-03 22:23:49.21	51.14	13.25	-30.4	-34.3	12.5	1.54e-04	0	42	0	216006656	20	5597
2026-01-03 22:23:52.23	51.67	13.40	-30.6	-34.3	12.1	3.58e-04	0	42	0	222298112	21	5518
2026-01-03 22:23:55.25	52.20	13.55	-30.6	-34.2	12.2	2.82e-04	0	42	0	227540992	21	5481
2026-01-03 22:23:58.26	52.73	13.70	-30.7	-34.5	12.1	5.52e-04	0	42	0	233832448	21	5583
2026-01-03 22:24:01.28	53.27	13.84	-30.8	-34.7	11.9	7.55e-04	0	42	0	239075328	21	5673
2026-01-03 22:24:04.30	53.81	13.99	-30.9	-35.0	11.7	5.58e-04	0	42	0	244318208	21	5821
2026-01-03 22:24:07.32	54.36	14.13	-31.0	-35.3	11.5	1.37e-03	0	42	0	250609664	21	5939
2026-01-03 22:24:10.33	54.91	14.27	-31.1	-35.3	11.2	1.79e-03	0	43	0	255852544	22	5839
2026-01-03 22:24:13.35	55.47	14.41	-31.0	-35.4	11.5	1.28e-03	0	42	0	262144000	21	5973
2026-01-03 22:24:16.37	56.04	14.55	-31.2	-35.5	11.1	1.77e-03	0	42	0	267386880	22	5917
2026-01-03 22:24:19.38	56.61	14.68	-31.2	-35.6	11.1	2.08e-03	0	42	0	272629760	22	5947
2026-01-03 22:24:22.40	57.18	14.82	-31.2	-35.7	11.0	2.10e-03	0	42	0	278921216	22	6005
2026-01-03 22:24:25.42	57.76	14.95	-31.3	-35.7	10.9	2.20e-03	0	42	0	284164096	22	6030
2026-01-03 22:24:28.44	58.34	15.08	-31.4	-36.0	10.7	2.57e-03	0	42	0	290455552	22	6152
2026-01-03 22:24:31.44	58.93	15.20	-31.3	-35.8	10.9	2.03e-03	0	43	0	295698432	22	6024
2026-01-03 22:24:34.45	59.52	15.33	-31.1	-35.1	11.4	1.06e-03	0	42	0	300941312	22	5733
2026-01-03 22:24:37.46	60.12	15.45	-31.2	-35.5	11.2	1.53e-03	0	43	0	307232768	22	5876
2026-01-03 22:24:40.48	60.73	15.57	-30.9	-34.6	11.8	6.03e-04	0	43	0	312475648	22	5491
2026-01-03 22:24:43.49	61.33	15.69	-31.0	-34.8	11.6	5.08e-04	0	43	0	317718528	22	5585
2026-01-03 22:24:46.51	61.95	15.81	-30.8	-34.7	12.0	4.58e-04	0	43	0	324009984	21	5663
2026-01-03 22:24:49.52	62.56	15.92	-30.3	-33.9	13.0	3.43e-05	0	43	0	329252864	20	5401
2026-01-03 22:24:52.54	63.19	16.03	-30.3	-33.8	13.1	2.74e-05	0	43	0	335544320	20	5362
2026-01-03 22:24:55.56	63.81	16.14	-30.1	-33.1	13.5	1.60e-05	0	43	0	340787200	20	5116
2026-01-03 22:24:58.58	64.45	16.25	-30.2	-33.5	13.3	2.36e-05	0	42	0	346030080	20	5266
2026-01-03 22:25:01.60	65.08	16.35	-30.1	-33.3	13.4	9.10e-06	0	43	0	352321536	20	5159
2026-01-03 22:25:04.63	65.73	16.45	-30.2	-33.6	13.3	1.90e-05	0	43	0	357564416	20	5273
2026-01-03 22:25:07.64	66.37	16.55	-30.4	-33.9	13.0	4.27e-05	0	43	0	363855872	20	5420
2026-01-03 22:25:10.66	67.02	16.64	-30.5	-34.3	12.8	4.88e-05	0	43	0	369098752	20	5556
2026-01-03 22:25:13.68	67.67	16.73	-30.5	-33.8	12.8	7.24e-05	0	43	0	374341632	21	5246
2026-01-03 22:25:16.70	68.33	16.82	-30.6	-34.1	12.6	1.07e-04	0	43	0	380633088	21	5377
2026-01-03 22:25:19.71	68.98	16.90	-30.7	-34.4	12.3	1.27e-04	0	43	0	385875968	21	5517
2026-01-03 22:25:22.73	69.65	16.98	-30.7	-34.4	12.4	1.94e-04	0	43	0	392167424	21	5511
2026-01-03 22:25:25.75	70.32	17.06	-30.6	-34.2	12.5	9.84e-05	0	43	0	397410304	21	5400
2026-01-03 22:25:28.77	70.99	17.14	-30.5	-33.9	12.7	9.00e-05	0	43	0	402653184	21	5301
2026-01-03 22:25:31.79	71.66	17.21	-30.6	-33.9	12.7	6.17e-05	0	43	0	408944640	21	5311
2026-01-03 22:25:34.81	72.34	17.27	-30.5	-33.8	12.8	6.33e-05	0	43	0	414187520	21	5261
2026-01-03 22:25:37.83	73.02	17.34	-30.6	-33.9	12.7	1.17e-04	0	43	0	420478976	21	5307
2026-01-03 22:25:40.85	73.70	17.39	-30.6	-34.1	12.6	1.04e-04	0	43	0	425721856	21	5384
2026-01-03 22:25:43.86	74.38	17.45	-30.6	-34.2	12.6	1.72e-04	0	43	0	430964736	21	5398
2026-01-03 22:25:46.88	75.07	17.50	-30.5	-33.9	12.8	5.95e-05	0	43	0	437256192	21	5287
2026-01-03 22:25:49.89	75.76	17.55	-30.6	-34.2	12.6	5.64e-05	0	43	0	442499072	21	5414
2026-01-03 22:25:52.90	76.45	17.59	-30.8	-34.5	12.3	2.07e-04	0	43	0	448790528	21	5563
2026-01-03 22:25:55.92	77.14	17.63	-30.7	-34.4	12.4	1.74e-04	0	43	0	454033408	21	5484
2026-01-03 22:25:58.94	77.84	17.67	-30.5	-33.8	12.8	6.63e-05	0	43	0	459276288	21	5240
2026-01-03 22:26:01.96	78.53	17.70	-30.4	-33.4	13.1	4.95e-05	0	43	0	465567744	21	5106
2026-01-03 22:26:04.98	79.23	17.73	-30.6	-34.1	12.7	7.17e-05	0	43	0	470810624	21	5351
2026-01-03 22:26:07.99	79.93	17.75	-30.7	-34.3	12.5	1.17e-04	0	43	0	477102080	21	5448
2026-01-03 22:26:11.01	80.63	17.77	-30.7	-34.3	12.5	1.71e-04	0	43	0	482344960	21	5472
2026-01-03 22:26:14.03	81.33	17.79	-30.9	-34.9	12.1	2.96e-04	0	43	0	487587840	21	5713
2026-01-03 22:26:17.05	82.03	17.80	-31.0	-34.8	11.8	3.46e-04	0	43	0	493879296	22	5563
2026-01-03 22:26:20.08	82.74	17.81	-30.9	-34.5	12.0	5.58e-04	0	43	0	499122176	22	5428
2026-01-03 22:26:23.10	83.44	17.81	-30.7	-33.8	12.5	1.08e-04	0	43	0	505413632	22	5153
2026-01-03 22:26:26.12	84.14	17.81	-30.5	-33.2	12.9	4.57e-05	0	43	0	510656512	22	4910
2026-01-03 22:26:29.13	84.84	17.81	-30.5	-33.2	12.9	4.65e-05	0	43	0	515899392	22	4913
2026-01-03 22:26:32.16	85.55	17.80	-30.6	-33.4	12.7	5.03e-05	0	43	0	522190848	22	4991
2026-01-03 22:26:35.17	86.25	17.78	-30.5	-33.1	13.0	4.57e-05	0	43	0	527433728	22	4880
2026-01-03 22:26:38.19	86.95	17.77	-30.7	-33.8	12.6	9.76e-05	0	43	0	533725184	22	5133
2026-01-03 22:26:41.20	87.65	17.75	-30.7	-33.9	12.4	1.43e-04	0	43	0	538968064	22	5186
2026-01-03 22:26:44.22	88.35	17.72	-30.6	-33.5	12.7	7.62e-05	0	43	0	544210944	22	5016
2026-01-03 22:26:47.23	89.05	17.69	-30.7	-33.8	12.5	1.12e-04	0	43	0	550502400	22	5132
2026-01-03 22:26:50.24	89.74	17.66	-30.7	-33.9	12.4	1.01e-04	0	43	0	555745280	22	5170
2026-01-03 22:26:53.25	90.43	17.62	-30.4	-33.0	13.0	5.64e-05	0	43	0	562036736	22	4840
2026-01-03 22:26:56.26	91.13	17.58	-30.3	-32.7	13.2	3.35e-05	0	43	0	567279616	22	4751
2026-01-03 22:26:59.27	91.82	17.53	-30.3	-33.2	13.2	1.98e-05	0	43	0	572522496	21	5041
2026-01-03 22:27:02.30	92.51	17.48	-30.1	-32.7	13.5	1.83e-05	0	43	0	578813952	21	4837
2026-01-03 22:27:05.32	93.20	17.43	-30.1	-32.5	13.6	1.14e-05	0	43	0	584056832	21	4780
2026-01-03 22:27:08.33	93.88	17.37	-30.0	-32.3	13.8	7.60e-06	0	43	0	590348288	21	4704
2026-01-03 22:27:11.35	94.56	17.31	-30.0	-32.3	13.8	5.30e-06	0	43	0	595591168	21	4707
2026-01-03 22:27:14.36	95.24	17.25	-30.1	-32.6	13.6	6.80e-06	0	42	0	600834048	21	4819
2026-01-03 22:27:17.38	95.92	17.18	-30.2	-32.9	13.3	7.60e-06	0	43	0	607125504	21	4911
2026-01-03 22:27:20.39	96.59	17.11	-29.9	-32.2	13.8	8.30e-06	0	43	0	612368384	21	4690
2026-01-03 22:27:23.41	97.26	17.03	-29.8	-32.4	14.0	2.20e-06	0	43	0	617611264	20	4833
2026-01-03 22:27:26.43	97.93	16.95	-29.8	-32.4	13.9	4.50e-06	0	43	0	623902720	20	4858
2026-01-03 22:27:29.45	98.59	16.87	-29.3	-31.1	14.8	0.00e+00	0	43	0	629145600	20	4411
2026-01-03 22:27:32.46	99.25	16.78	-29.5	-32.1	14.5	0.00e+00	0	43	0	635437056	19	4856
2026-01-03 22:27:35.48	99.91	16.69	-29.6	-32.4	14.4	7.00e-07	0	43	0	640679936	19	4951
2026-01-03 22:27:38.50	100.56	16.60	-29.7	-32.5	14.2	2.36e-05	0	43	0	645922816	19	4982
2026-01-03 22:27:41.50	101.20	16.51	-29.3	-31.5	14.9	2.17e-04	0	43	0	652214272	19	4641
2026-01-03 22:27:44.52	101.85	16.41	-29.2	-31.9	15.0	4.07e-04	0	43	0	657457152	18	4893
2026-01-03 22:27:47.54	102.49	16.31	-29.6	-32.2	14.4	7.78e-05	0	43	0	663748608	19	4902
2026-01-03 22:27:50.55	103.13	16.20	-29.8	-32.8	14.0	3.00e-06	0	43	0	668991488	19	5115
2026-01-03 22:27:53.56	103.76	16.10	-29.9	-33.1	13.9	1.15e-04	0	43	0	674234368	19	5200
2026-01-03 22:27:56.57	104.38	15.99	-29.8	-32.8	14.1	1.07e-04	0	43	0	680525824	19	5088
2026-01-03 22:27:59.59	105.01	15.87	-29.7	-32.7	14.1	4.11e-05	0	43	0	685768704	19	5067
2026-01-03 22:28:02.61	105.62	15.76	-29.6	-32.2	14.4	2.94e-04	0	43	0	692060160	19	4898
2026-01-03 22:28:05.62	106.24	15.64	-30.0	-33.0	13.5	2.39e-04	0	43	0	697303040	20	5070
2026-01-03 22:28:08.65	106.85	15.52	-30.5	-34.3	12.7	2.17e-04	0	43	0	702545920	20	5587
2026-01-03 22:28:11.66	107.45	15.40	-30.7	-34.5	12.1	2.72e-04	0	43	0	708837376	21	5581
2026-01-03 22:28:14.68	108.05	15.27	-30.7	-34.6	12.0	3.38e-04	0	43	0	714080256	21	5623
2026-01-03 22:28:17.69	108.64	15.14	-30.8	-34.7	12.0	3.31e-04	0	43	0	720371712	21	5637
2026-01-03 22:28:20.71	109.23	15.02	-30.3	-33.2	13.0	9.46e-05	0	43	0	725614592	21	5057
2026-01-03 22:28:23.72	109.82	14.88	-30.5	-33.8	12.6	9.53e-05	0	43	0	730857472	21	5274
2026-01-03 22:28:26.74	110.40	14.75	-30.7	-34.4	12.1	2.49e-04	0	43	0	737148928	21	5553
2026-01-03 22:28:29.75	110.97	14.61	-30.8	-34.7	12.0	3.11e-04	0	43	0	742391808	21	5640
2026-01-03 22:28:32.77	111.54	14.48	-30.8	-34.8	11.9	4.57e-04	0	43	0	747634688	21	5713
2026-01-03 22:28:35.80	112.11	14.34	-30.8	-34.9	11.8	4.77e-04	0	43	0	753926144	21	5742
2026-01-03 22:28:38.81	112.67	14.20	-30.9	-34.6	11.6	8.82e-04	0	43	0	759169024	22	5520
2026-01-03 22:28:41.82	113.22	14.05	-30.7	-34.5	12.0	3.49e-04	0	43	0	765460480	21	5595
2026-01-03 22:28:44.84	113.77	13.91	-30.6	-34.4	12.1	2.64e-04	0	43	0	770703360	21	5530
2026-01-03 22:28:47.86	114.31	13.76	-30.5	-34.0	12.3	2.82e-04	0	43	0	775946240	21	5393
2026-01-03 22:28:50.88	114.85	13.62	-30.7	-34.5	11.9	3.75e-04	0	43	0	782237696	21	5599
2026-01-03 22:28:53.88	115.38	13.47	-30.9	-34.8	11.4	1.36e-03	0	43	0	787480576	22	5617
2026-01-03 22:28:56.89	115.91	13.32	-31.0	-34.9	11.3	8.19e-04	0	43	0	793772032	22	5670
2026-01-03 22:28:59.91	116.43	13.17	-31.1	-35.6	10.8	2.45e-03	0	43	0	799014912	22	5994
2026-01-03 22:29:02.92	116.95	13.02	-31.0	-35.2	11.0	2.68e-03	0	43	0	804257792	22	5831
2026-01-03 22:29:05.94	117.46	12.86	-30.4	-33.3	12.4	2.07e-04	0	43	0	810549248	22	5009
2026-01-03 22:29:08.96	117.97	12.71	-30.1	-32.9	12.9	6.63e-05	0	43	0	815792128	21	4980
2026-01-03 22:29:11.98	118.47	12.55	-30.2	-33.1	12.8	8.46e-05	0	43	0	822083584	21	5042
2026-01-03 22:29:15.00	118.97	12.39	-30.2	-33.2	12.7	7.24e-05	0	43	0	827326464	21	5096
2026-01-03 22:29:18.02	119.46	12.24	-30.2	-33.2	12.7	5.95e-05	0	43	0	832569344	21	5103
2026-01-03 22:29:21.03	119.95	12.08	-30.3	-33.4	12.6	8.77e-05	0	43	0	838860800	21	5161
2026-01-03 22:29:24.05	120.43	11.92	-30.4	-33.9	12.2	1.54e-04	0	43	0	844103680	21	5347
2026-01-03 22:29:27.07	120.91	11.76	-30.3	-33.5	12.5	1.36e-04	0	43	0	850395136	21	5219
2026-01-03 22:29:30.09	121.38	11.60	-30.3	-33.9	12.5	9.23e-05	0	43	0	855638016	20	5486
2026-01-03 22:29:33.10	121.85	11.44	-30.4	-34.2	12.3	1.36e-04	0	43	0	860880896	20	5585
2026-01-03 22:29:36.12	122.31	11.27	-30.4	-33.8	12.3	2.66e-04	0	43	0	867172352	21	5311
2026-01-03 22:29:39.13	122.77	11.11	-30.1	-33.0	12.8	6.17e-05	0	43	0	872415232	21	5009
2026-01-03 22:29:42.14	123.22	10.95	-30.1	-33.0	12.8	6.02e-05	0	43	0	878706688	21	5008
2026-01-03 22:29:45.15	123.66	10.79	-30.2	-33.4	12.5	1.17e-04	0	43	0	883949568	21	5181
2026-01-03 22:29:48.16	124.10	10.62	-30.4	-34.0	12.0	3.48e-04	0	43	0	889192448	21	5418
2026-01-03 22:29:51.19	124.54	10.46	-30.4	-33.8	12.1	2.95e-04	0	43	0	895483904	21	5356
2026-01-03 22:29:54.20	124.98	10.29	-30.4	-34.0	12.0	2.27e-04	0	43	0	900726784	21	5439
2026-01-03 22:29:57.21	125.40	10.13	-30.5	-34.3	11.8	4.35e-04	0	43	0	905969664	21	5543
2026-01-03 22:30:00.23	125.83	9.96	-30.7	-34.9	11.3	8.42e-04	0	43	0	912261120	21	5856
2026-01-03 22:30:03.25	126.25	9.80	-30.5	-34.4	11.6	6.51e-04	0	43	0	917504000	21	5596
2026-01-03 22:30:06.27	126.66	9.63	-30.5	-34.3	11.7	4.95e-04	0	43	0	923795456	21	5582
2026-01-03 22:30:09.28	127.07	9.47	-30.8	-35.1	11.1	1.25e-03	0	43	0	929038336	21	5935
2026-01-03 22:30:12.29	127.48	9.30	-30.9	-35.5	10.8	2.53e-03	0	43	0	934281216	21	6146
2026-01-03 22:30:15.32	127.88	9.13	-30.9	-35.6	10.7	3.39e-03	0	43	0	940572672	21	6180
2026-01-03 22:30:18.34	128.28	8.97	-31.1	-35.8	10.1	6.42e-03	0	43	0	945815552	22	6206
2026-01-03 22:30:21.35	128.67	8.80	-31.2	-36.4	9.7	1.18e-02	0	43	0	952107008	22	6501
2026-01-03 22:30:24.36	129.05	8.63	-31.3	-36.8	9.4	1.58e-02	0	43	0	957349888	22	6729
2026-01-03 22:30:27.38	129.44	8.47	-31.1	-36.1	9.8	1.33e-02	0	43	0	962592768	22	6378
2026-01-03 22:30:30.38	129.82	8.30	-30.9	-35.2	10.6	3.85e-03	0	43	0	968884224	22	5896
2026-01-03 22:30:33.40	130.19	8.14	-30.9	-35.2	10.5	4.47e-03	0	43	0	974127104	22	5904
2026-01-03 22:30:36.42	130.56	7.97	-30.7	-34.8	10.7	2.78e-03	0	43	0	980418560	22	5757
2026-01-03 22:30:39.43	130.93	7.80	-30.9	-35.4	10.3	5.21e-03	0	43	0	985661440	22	6044
2026-01-03 22:30:42.44	131.29	7.64	-31.0	-35.8	9.9	9.77e-03	0	43	0	990904320	22	6270
2026-01-03 22:30:45.46	131.65	7.47	-31.0	-35.8	9.8	9.22e-03	0	43	0	997195776	22	6273
2026-01-03 22:30:48.48	132.01	7.31	-30.9	-35.5	10.1	6.63e-03	0	43	0	1002438656	22	6110
2026-01-03 22:30:51.50	132.36	7.14	-30.8	-35.3	10.2	6.13e-03	0	43	0	1008730112	22	6017
2026-01-03 22:30:54.51	132.71	6.97	-33.3	-47.6	3.8	1.49e+00	0	43	104	1011875840	26	18795

#Closed at: 2026-01-03 22:30:55
#Recorded file [1011 MB]: D:/data/31010_260104_012153.dat