passes_logs/2026/01/03/R2M6_AANII_01/R2M6_AANII_01__20260103_014003_SUOMI_NPP_rec.log

#Pass ID: 20260103_014003_SUOMI NPP
#Satellite: SUOMI NPP
#Configuration: NPP
#almurnet v.1.7.20240730
#Start time: 2026-01-03 01:40:04

#Version: 2.2.20231116
#Station: R2M6_AANII_01
#Location: 30.233357 lon 59.946436 lat
#TLE: 1 37849U 11061A   26001.07732418  .00000182  00000+0  10735-3 0  9990
#TLE: 2 37849  98.7795 303.2470 0002580  87.2016 272.9455 14.19520779734739

#Time	Az	El	Level	Level2	SNR	BER	BlckErr	Temp	State	Recorded	gain1	gain2
2026-01-03 01:40:04.71	12.62	7.08	-31.6	-38.2	4.4	1.40e+00	0	41	0	0	23	7722
2026-01-03 01:40:07.73	12.44	7.30	-30.1	-36.9	5.5	4.49e-01	0	41	0	1048576	22	7887
2026-01-03 01:40:10.75	12.25	7.52	-31.6	-37.8	5.8	3.51e-01	0	41	0	7340032	23	7359
2026-01-03 01:40:13.76	12.06	7.74	-31.6	-37.8	5.9	4.89e-01	0	41	0	12582912	23	7319
2026-01-03 01:40:16.77	11.86	7.96	-31.0	-35.4	8.1	1.03e-01	0	41	0	18874368	22	5924
2026-01-03 01:40:19.78	11.67	8.18	-30.5	-34.1	9.8	1.46e-02	0	41	0	24117248	20	5495
2026-01-03 01:40:22.79	11.47	8.40	-30.0	-32.7	10.9	2.94e-03	0	41	0	29360128	20	4894
2026-01-03 01:40:25.81	11.26	8.63	-30.0	-32.6	11.0	2.59e-03	0	41	0	35651584	20	4854
2026-01-03 01:40:28.83	11.06	8.86	-29.9	-32.2	11.3	4.97e-03	0	41	0	40894464	20	4694
2026-01-03 01:40:31.85	10.85	9.09	-30.0	-32.4	11.3	4.36e-03	0	42	0	46137344	20	4777
2026-01-03 01:40:34.86	10.63	9.32	-30.1	-32.8	11.0	4.65e-03	0	42	0	52428800	20	4908
2026-01-03 01:40:37.88	10.41	9.55	-30.1	-32.7	11.0	5.02e-03	0	42	0	57671680	20	4851
2026-01-03 01:40:40.90	10.19	9.79	-30.2	-33.0	10.9	3.07e-03	0	42	0	63963136	20	4966
2026-01-03 01:40:43.92	9.97	10.02	-30.0	-32.4	11.3	4.27e-03	0	42	0	69206016	20	4752
2026-01-03 01:40:46.93	9.74	10.26	-30.1	-32.8	11.1	4.82e-03	0	42	0	74448896	20	4885
2026-01-03 01:40:49.95	9.51	10.50	-29.9	-32.1	11.6	3.79e-03	0	42	0	80740352	20	4641
2026-01-03 01:40:52.98	9.27	10.74	-30.0	-32.3	11.5	3.59e-03	0	42	0	85983232	20	4702
2026-01-03 01:40:55.99	9.03	10.99	-30.0	-32.4	11.4	4.16e-03	0	42	0	92274688	20	4727
2026-01-03 01:40:59.00	8.78	11.23	-29.9	-32.6	11.7	3.27e-03	0	42	0	97517568	19	4899
2026-01-03 01:41:02.02	8.53	11.48	-30.0	-32.3	11.5	7.21e-04	0	42	0	102760448	20	4712
2026-01-03 01:41:05.03	8.28	11.73	-29.8	-32.1	12.1	3.86e-04	0	42	0	109051904	19	4704
2026-01-03 01:41:08.05	8.02	11.98	-29.7	-32.0	12.2	2.75e-04	0	42	0	114294784	19	4650
2026-01-03 01:41:11.07	7.76	12.23	-29.7	-31.9	12.3	1.59e-04	0	42	0	120586240	19	4625
2026-01-03 01:41:14.09	7.49	12.49	-29.7	-31.9	12.2	3.16e-03	0	42	0	125829120	19	4646
2026-01-03 01:41:17.11	7.21	12.75	-29.8	-32.0	12.2	3.83e-04	0	42	0	131072000	19	4667
2026-01-03 01:41:20.12	6.94	13.01	-29.8	-32.0	12.3	2.12e-04	0	42	0	137363456	19	4636
2026-01-03 01:41:23.14	6.65	13.27	-29.9	-32.0	11.8	2.10e-04	0	42	0	142606336	20	4575
2026-01-03 01:41:26.17	6.36	13.53	-29.4	-31.0	13.0	5.03e-05	0	42	0	148897792	19	4308
2026-01-03 01:41:29.18	6.07	13.80	-29.3	-31.2	12.6	3.35e-05	0	42	0	154140672	18	4454
2026-01-03 01:41:32.18	5.77	14.06	-29.4	-31.2	12.0	2.51e-05	0	42	0	159383552	18	4467
2026-01-03 01:41:35.20	5.46	14.34	-29.4	-31.3	13.1	2.82e-05	0	42	0	165675008	18	4504
2026-01-03 01:41:38.22	5.15	14.61	-29.7	-31.6	12.7	2.86e-03	0	42	0	170917888	19	4491
2026-01-03 01:41:41.24	4.84	14.88	-29.7	-31.8	12.6	2.90e-03	0	43	0	177209344	19	4555
2026-01-03 01:41:44.25	4.51	15.16	-30.0	-32.1	11.9	3.36e-04	0	43	0	182452224	20	4602
2026-01-03 01:41:47.27	4.18	15.44	-29.9	-32.4	12.2	1.87e-04	0	43	0	187695104	19	4763
2026-01-03 01:41:50.28	3.85	15.72	-29.9	-32.3	12.3	1.27e-04	0	43	0	193986560	19	4716
2026-01-03 01:41:53.30	3.51	16.00	-29.9	-31.7	12.2	2.39e-04	0	43	0	199229440	20	4441
2026-01-03 01:41:56.31	3.16	16.29	-29.9	-32.3	12.2	3.25e-03	0	43	0	204472320	19	4746
2026-01-03 01:41:59.32	2.80	16.58	-29.5	-31.2	13.1	2.72e-03	0	43	0	210763776	19	4338
2026-01-03 01:42:02.32	2.44	16.86	-29.2	-30.7	13.7	2.46e-03	0	43	0	216006656	18	4287
2026-01-03 01:42:05.35	2.07	17.16	-29.2	-30.6	13.8	2.62e-03	0	43	0	222298112	18	4244
2026-01-03 01:42:08.36	1.69	17.45	-29.1	-30.5	13.9	2.50e-03	0	43	0	227540992	18	4214
2026-01-03 01:42:11.38	1.30	17.75	-29.4	-31.1	13.4	2.48e-03	0	43	0	232783872	18	4411
2026-01-03 01:42:14.39	0.91	18.05	-29.6	-31.3	13.0	2.78e-03	0	43	0	239075328	19	4391
2026-01-03 01:42:17.40	0.51	18.35	-29.5	-30.9	13.3	2.63e-03	0	43	0	244318208	19	4254
2026-01-03 01:42:20.41	0.10	18.65	-29.3	-31.0	13.5	2.42e-03	0	43	0	250609664	18	4382
2026-01-03 01:42:23.42	359.68	18.96	-29.4	-31.2	13.4	2.61e-03	0	43	0	255852544	18	4443
2026-01-03 01:42:26.44	359.26	19.26	-29.6	-31.3	13.1	2.62e-03	0	43	0	261095424	19	4378
2026-01-03 01:42:29.45	358.82	19.57	-29.9	-31.7	12.3	7.09e-05	0	43	0	267386880	20	4436
2026-01-03 01:42:32.47	358.37	19.89	-29.9	-31.7	12.4	4.19e-04	0	43	0	272629760	20	4436
2026-01-03 01:42:35.47	357.92	20.20	-29.7	-31.2	12.7	6.79e-05	0	43	0	278921216	20	4266
2026-01-03 01:42:38.48	357.46	20.51	-29.9	-31.8	12.4	1.11e-04	0	43	0	284164096	20	4440
2026-01-03 01:42:41.50	356.98	20.83	-30.1	-32.2	12.1	2.38e-04	0	43	0	289406976	20	4597
2026-01-03 01:42:44.52	356.50	21.15	-30.1	-32.3	12.0	2.64e-03	0	43	0	295698432	20	4622
2026-01-03 01:42:47.54	356.00	21.48	-29.8	-31.9	12.7	9.99e-05	0	43	0	300941312	19	4557
2026-01-03 01:42:50.56	355.50	21.80	-29.8	-31.9	12.7	4.04e-05	0	43	0	306184192	19	4583
2026-01-03 01:42:53.57	354.98	22.12	-29.6	-31.2	13.1	3.73e-05	0	43	0	312475648	19	4345
2026-01-03 01:42:56.58	354.45	22.45	-29.8	-31.8	12.8	9.84e-05	0	43	0	317718528	19	4535
2026-01-03 01:42:59.59	353.92	22.78	-29.9	-32.0	12.6	7.09e-05	0	43	0	324009984	19	4609
2026-01-03 01:43:02.61	353.37	23.11	-30.0	-32.4	12.6	5.41e-05	0	43	0	329252864	19	4720
2026-01-03 01:43:05.62	352.80	23.44	-30.3	-32.8	11.8	3.17e-04	0	43	0	334495744	20	4800
2026-01-03 01:43:08.63	352.23	23.77	-30.7	-33.4	11.0	1.74e-03	0	43	0	340787200	21	4930
2026-01-03 01:43:11.64	351.64	24.10	-30.8	-33.8	10.8	2.82e-03	0	43	0	346030080	21	5081
2026-01-03 01:43:14.65	351.05	24.44	-30.5	-32.9	11.3	1.22e-03	0	43	0	352321536	21	4734
2026-01-03 01:43:17.66	350.43	24.77	-30.5	-32.9	11.4	9.61e-04	0	43	0	357564416	21	4743
2026-01-03 01:43:20.68	349.81	25.11	-30.7	-33.7	10.7	3.25e-03	0	43	0	362807296	21	5065
2026-01-03 01:43:23.70	349.16	25.44	-30.7	-33.7	10.7	2.69e-03	0	43	0	369098752	21	5079
2026-01-03 01:43:26.72	348.51	25.78	-30.4	-32.7	11.5	1.05e-03	0	43	0	374341632	21	4681
2026-01-03 01:43:29.74	347.84	26.12	-30.3	-32.1	11.9	9.04e-04	0	43	0	380633088	21	4458
2026-01-03 01:43:32.76	347.16	26.45	-30.4	-33.2	11.5	4.13e-04	0	43	0	385875968	20	4957
2026-01-03 01:43:35.78	346.46	26.79	-30.1	-31.8	12.2	3.46e-04	0	43	0	391118848	21	4349
2026-01-03 01:43:38.79	345.74	27.12	-30.1	-32.2	12.3	1.90e-04	0	43	0	397410304	20	4580
2026-01-03 01:43:41.81	345.02	27.46	-30.2	-32.4	12.2	2.12e-04	0	43	0	402653184	20	4632
2026-01-03 01:43:44.83	344.27	27.79	-30.2	-32.5	11.9	9.68e-04	0	43	0	408944640	20	4692
2026-01-03 01:43:47.85	343.51	28.12	-29.9	-32.0	12.8	1.14e-04	0	43	0	414187520	19	4579
2026-01-03 01:43:50.86	342.74	28.45	-30.1	-32.3	12.3	1.11e-04	0	43	0	419430400	20	4591
2026-01-03 01:43:53.88	341.94	28.78	-30.4	-33.1	11.7	4.91e-04	0	43	0	425721856	20	4910
2026-01-03 01:43:56.90	341.13	29.11	-30.2	-32.4	12.2	4.42e-04	0	43	0	430964736	20	4633
2026-01-03 01:43:59.92	340.31	29.43	-29.8	-31.6	13.1	3.05e-05	0	43	0	437256192	19	4437
2026-01-03 01:44:02.95	339.46	29.75	-30.0	-31.9	12.5	1.82e-03	0	43	0	442499072	20	4481
2026-01-03 01:44:05.95	338.60	30.06	-30.2	-32.6	11.9	1.05e-03	0	43	0	447741952	20	4739
2026-01-03 01:44:08.96	337.73	30.38	-30.7	-33.5	11.0	2.20e-03	0	43	0	454033408	21	4974
2026-01-03 01:44:11.98	336.84	30.68	-31.2	-35.0	9.5	1.19e-02	0	43	0	459276288	22	5516
2026-01-03 01:44:15.00	335.92	30.99	-30.9	-33.7	10.5	5.09e-03	0	43	0	464519168	22	4972
2026-01-03 01:44:18.01	335.00	31.28	-30.7	-33.5	10.9	3.69e-03	0	43	0	470810624	21	4958
2026-01-03 01:44:21.03	334.05	31.57	-31.1	-34.5	9.8	8.24e-03	0	43	0	476053504	22	5294
2026-01-03 01:44:24.05	333.09	31.86	-32.0	-37.4	7.3	6.94e-02	0	43	0	482344960	23	6748
2026-01-03 01:44:27.06	332.11	32.14	-31.4	-35.3	8.9	4.88e-02	0	43	0	487587840	23	5622
2026-01-03 01:44:30.09	331.11	32.41	-31.6	-36.2	8.2	4.44e-02	0	43	0	492830720	23	6119
2026-01-03 01:44:33.10	330.10	32.67	-31.9	-37.4	7.2	1.45e-01	0	43	0	499122176	23	6807
2026-01-03 01:44:36.11	329.07	32.93	-30.8	-34.0	10.6	7.78e-03	0	43	0	504365056	21	5218
2026-01-03 01:44:39.13	328.03	33.18	-30.9	-34.3	10.5	4.89e-03	0	43	0	510656512	21	5303
2026-01-03 01:44:42.15	326.96	33.42	-31.4	-35.2	9.0	2.75e-02	0	43	0	515899392	23	5535
2026-01-03 01:44:45.17	325.88	33.65	-30.9	-34.2	10.4	6.03e-03	0	43	0	521142272	21	5278
2026-01-03 01:44:48.19	324.79	33.86	-31.4	-35.9	8.7	2.88e-02	0	43	0	527433728	22	6025
2026-01-03 01:44:51.20	323.69	34.07	-31.3	-35.4	9.1	2.95e-02	0	43	0	532676608	22	5771
2026-01-03 01:44:54.20	322.57	34.27	-31.0	-34.1	10.1	9.51e-03	0	43	0	538968064	22	5164
2026-01-03 01:44:57.22	321.43	34.45	-30.6	-33.2	11.2	4.39e-03	0	43	0	544210944	21	4880
2026-01-03 01:45:00.24	320.29	34.63	-29.6	-31.1	13.4	2.48e-03	0	43	0	549453824	19	4290
2026-01-03 01:45:03.25	319.13	34.79	-29.7	-31.3	13.4	2.08e-03	0	43	0	555745280	19	4362
2026-01-03 01:45:06.27	317.96	34.94	-29.6	-31.3	13.3	2.32e-03	0	43	0	560988160	19	4349
2026-01-03 01:45:09.29	316.78	35.08	-30.5	-32.9	11.5	8.03e-04	0	44	0	567279616	21	4745
2026-01-03 01:45:12.31	315.58	35.20	-29.3	-30.3	14.0	1.06e-05	0	43	0	572522496	19	4044
2026-01-03 01:45:15.33	314.38	35.31	-29.5	-31.3	13.7	9.10e-06	0	43	0	577765376	18	4461
2026-01-03 01:45:18.34	313.18	35.40	-29.4	-31.1	13.8	3.00e-06	0	43	0	584056832	18	4367
2026-01-03 01:45:21.35	311.97	35.48	-29.4	-31.2	13.8	2.10e-03	0	43	0	589299712	18	4398
2026-01-03 01:45:24.36	310.75	35.55	-28.6	-29.4	15.1	0.00e+00	0	43	0	595591168	17	3986
2026-01-03 01:45:27.38	309.53	35.60	-29.5	-30.9	13.5	6.10e-06	0	43	0	600834048	19	4234
2026-01-03 01:45:30.40	308.30	35.63	-29.8	-31.6	13.4	1.37e-05	0	43	0	606076928	19	4430
2026-01-03 01:45:33.42	307.07	35.66	-29.9	-31.8	13.1	4.80e-05	0	43	0	612368384	19	4512
2026-01-03 01:45:36.43	305.84	35.66	-29.9	-31.9	13.0	6.10e-05	0	43	0	617611264	19	4550
2026-01-03 01:45:39.45	304.61	35.65	-29.6	-31.1	13.5	2.74e-05	0	43	0	623902720	19	4274
2026-01-03 01:45:42.47	303.38	35.63	-29.3	-30.6	14.2	7.32e-05	0	43	0	629145600	18	4221
2026-01-03 01:45:45.49	302.15	35.59	-30.2	-32.4	12.2	5.19e-04	0	44	0	634388480	20	4622
2026-01-03 01:45:48.50	300.93	35.54	-30.4	-33.0	11.8	2.95e-03	0	43	0	640679936	20	4871
2026-01-03 01:45:51.51	299.72	35.47	-30.3	-32.8	12.0	1.76e-03	0	43	0	645922816	20	4773
2026-01-03 01:45:54.53	298.50	35.39	-30.6	-33.1	11.4	4.53e-04	0	43	0	652214272	21	4810
2026-01-03 01:45:57.55	297.30	35.29	-31.6	-35.6	8.7	3.18e-02	0	43	0	657457152	23	5740
2026-01-03 01:46:00.56	296.10	35.18	-30.8	-33.9	10.8	6.30e-03	0	43	0	662700032	21	5122
2026-01-03 01:46:03.58	294.91	35.05	-30.7	-33.3	11.3	2.90e-03	0	43	0	668991488	21	4879
2026-01-03 01:46:06.59	293.73	34.92	-31.0	-34.3	10.5	5.95e-03	0	43	0	674234368	21	5309
2026-01-03 01:46:09.61	292.56	34.76	-31.0	-33.9	10.3	1.06e-02	0	43	0	680525824	22	5046
2026-01-03 01:46:12.63	291.40	34.60	-30.9	-34.2	10.6	6.76e-03	0	43	0	685768704	21	5230
2026-01-03 01:46:15.65	290.25	34.42	-30.4	-33.0	11.8	2.97e-03	0	43	0	691011584	20	4860
2026-01-03 01:46:18.67	289.12	34.24	-30.1	-32.4	12.1	2.97e-03	0	44	0	697303040	20	4662
2026-01-03 01:46:21.68	288.00	34.04	-29.6	-30.8	13.8	5.30e-06	0	44	0	702545920	19	4171
2026-01-03 01:46:24.70	286.89	33.83	-29.5	-30.6	13.9	2.93e-03	0	44	0	707788800	19	4112
2026-01-03 01:46:27.72	285.80	33.60	-30.7	-33.3	11.4	2.97e-03	0	43	0	714080256	21	4838
2026-01-03 01:46:30.74	284.72	33.37	-29.8	-30.9	13.4	2.10e-03	0	43	0	719323136	20	4107
2026-01-03 01:46:33.76	283.66	33.13	-30.4	-32.8	12.0	2.01e-03	0	44	0	725614592	20	4731
2026-01-03 01:46:36.78	282.61	32.88	-31.0	-33.7	10.7	1.18e-03	0	43	0	730857472	22	4914
2026-01-03 01:46:39.79	281.58	32.62	-31.7	-35.7	9.1	3.30e-02	0	44	0	736100352	23	5672
2026-01-03 01:46:42.82	280.56	32.36	-31.3	-34.5	10.2	8.61e-03	0	43	0	742391808	22	5246
2026-01-03 01:46:45.82	279.57	32.09	-31.4	-34.6	9.7	1.48e-02	0	43	0	747634688	23	5204
2026-01-03 01:46:48.84	278.59	31.80	-30.3	-32.1	12.2	4.71e-04	0	43	0	753926144	21	4421
2026-01-03 01:46:51.86	277.63	31.52	-30.0	-31.7	12.8	6.33e-05	0	43	0	759169024	20	4363
2026-01-03 01:46:54.88	276.68	31.22	-29.6	-30.9	13.7	6.10e-06	0	44	0	764411904	19	4212
2026-01-03 01:46:57.89	275.76	30.92	-30.9	-34.0	10.8	3.98e-04	0	43	0	770703360	21	5136
2026-01-03 01:47:00.91	274.85	30.62	-31.5	-34.9	9.3	3.11e-02	0	43	0	775946240	23	5323
2026-01-03 01:47:03.92	273.96	30.31	-30.6	-32.9	11.5	2.60e-04	0	43	0	782237696	21	4713
2026-01-03 01:47:06.94	273.08	30.00	-31.2	-34.4	10.0	4.08e-03	0	43	0	787480576	22	5185
2026-01-03 01:47:09.96	272.22	29.68	-31.8	-36.2	8.4	3.97e-02	0	43	0	792723456	23	5955
2026-01-03 01:47:12.97	271.38	29.36	-31.4	-34.6	9.5	2.54e-02	0	43	0	799014912	23	5217
2026-01-03 01:47:15.98	270.55	29.04	-31.3	-34.8	9.8	8.81e-03	0	43	0	804257792	22	5384
2026-01-03 01:47:19.00	269.75	28.71	-31.4	-35.3	9.4	1.37e-02	0	43	0	810549248	22	5600
2026-01-03 01:47:22.02	268.95	28.38	-31.0	-33.6	10.7	5.97e-03	0	43	0	815792128	22	4887
2026-01-03 01:47:25.03	268.18	28.05	-30.0	-31.7	12.8	1.31e-04	0	43	0	821035008	20	4390
2026-01-03 01:47:28.05	267.42	27.72	-30.1	-31.9	12.5	8.23e-05	0	43	0	827326464	20	4462
2026-01-03 01:47:31.06	266.67	27.38	-30.0	-31.6	12.7	1.50e-04	0	43	0	832569344	20	4353
2026-01-03 01:47:34.09	265.94	27.05	-29.5	-30.9	13.6	9.10e-06	0	44	0	838860800	19	4208
2026-01-03 01:47:37.09	265.23	26.71	-29.6	-31.0	13.5	1.06e-05	0	43	0	844103680	19	4252
2026-01-03 01:47:40.11	264.53	26.37	-29.6	-31.1	13.4	7.32e-05	0	43	0	849346560	19	4285
2026-01-03 01:47:43.13	263.85	26.04	-29.4	-30.6	13.7	3.00e-06	0	43	0	855638016	19	4133
2026-01-03 01:47:46.15	263.18	25.70	-28.9	-30.3	14.5	0.00e+00	0	43	0	860880896	17	4223
2026-01-03 01:47:49.15	262.53	25.36	-29.7	-31.4	13.2	2.74e-05	0	43	0	866123776	19	4372
2026-01-03 01:47:52.17	261.89	25.02	-29.4	-30.2	13.6	1.90e-05	0	43	0	872415232	20	3924
2026-01-03 01:47:55.19	261.26	24.69	-28.4	-29.2	15.2	0.00e+00	0	43	0	877658112	17	3910
2026-01-03 01:47:58.21	260.64	24.35	-28.7	-29.9	14.8	0.00e+00	0	43	0	883949568	17	4101
2026-01-03 01:48:01.21	260.05	24.02	-28.6	-29.5	14.9	0.00e+00	0	43	0	889192448	17	4008
2026-01-03 01:48:04.23	259.46	23.68	-28.5	-29.3	15.1	0.00e+00	0	43	0	894435328	17	3932
2026-01-03 01:48:07.25	258.88	23.35	-28.2	-29.0	15.6	0.00e+00	0	43	0	900726784	16	3955
2026-01-03 01:48:10.27	258.32	23.01	-28.4	-29.6	15.2	0.00e+00	0	43	0	905969664	16	4126
2026-01-03 01:48:13.29	257.77	22.68	-28.7	-29.8	14.8	0.00e+00	0	43	0	912261120	17	4076
2026-01-03 01:48:16.31	257.23	22.35	-28.5	-29.4	14.9	0.00e+00	0	43	0	917504000	17	3987
2026-01-03 01:48:19.33	256.70	22.02	-28.4	-30.1	13.6	6.10e-06	0	43	0	922746880	18	4364
2026-01-03 01:48:22.35	256.18	21.70	-29.7	-31.5	12.0	4.57e-05	0	43	0	929038336	19	4415
2026-01-03 01:48:25.37	255.67	21.37	-29.3	-30.8	13.8	1.12e-04	0	43	0	934281216	18	4284
2026-01-03 01:48:28.38	255.18	21.05	-29.7	-31.5	12.9	2.11e-03	0	43	0	940572672	19	4424
2026-01-03 01:48:31.39	254.69	20.73	-29.9	-32.0	12.6	1.27e-04	0	43	0	945815552	19	4589
2026-01-03 01:48:34.41	254.22	20.41	-29.7	-31.5	13.0	2.97e-05	0	43	0	951058432	19	4435
2026-01-03 01:48:37.43	253.75	20.09	-29.5	-31.0	13.2	1.06e-05	0	43	0	957349888	19	4270
2026-01-03 01:48:40.45	253.30	19.78	-29.6	-31.1	13.2	1.98e-05	0	43	0	962592768	19	4317
2026-01-03 01:48:43.47	252.85	19.47	-29.3	-31.1	13.5	3.25e-03	0	43	0	968884224	18	4385
2026-01-03 01:48:46.48	252.41	19.16	-29.0	-30.2	14.0	2.96e-03	0	43	0	974127104	18	4114
2026-01-03 01:48:49.49	251.99	18.85	-29.1	-30.5	13.8	3.40e-03	0	43	0	979369984	18	4210
2026-01-03 01:48:52.50	251.57	18.54	-29.2	-30.7	13.7	3.34e-03	0	43	0	985661440	18	4291
2026-01-03 01:48:55.52	251.16	18.24	-29.3	-30.9	13.6	2.71e-03	0	43	0	990904320	18	4330
2026-01-03 01:48:58.54	250.75	17.93	-29.0	-30.1	14.0	6.80e-06	0	43	0	997195776	18	4100
2026-01-03 01:49:01.56	250.36	17.63	-28.8	-30.1	14.4	2.57e-03	0	43	0	1002438656	17	4193
2026-01-03 01:49:04.57	249.97	17.34	-29.1	-30.5	13.8	2.54e-03	0	43	0	1007681536	18	4216
2026-01-03 01:49:07.59	249.59	17.04	-29.5	-31.5	13.2	3.04e-03	0	43	0	1013972992	18	4519
2026-01-03 01:49:10.62	249.22	16.75	-30.4	-33.1	11.3	4.15e-03	0	43	0	1019215872	20	4926
2026-01-03 01:49:13.63	248.85	16.46	-30.5	-33.2	10.8	6.45e-03	0	43	0	1025507328	21	4900
2026-01-03 01:49:16.65	248.50	16.17	-29.8	-31.4	12.4	2.49e-04	0	43	0	1030750208	20	4337
2026-01-03 01:49:19.66	248.15	15.88	-29.7	-31.6	12.6	7.93e-05	0	43	0	1035993088	19	4467
2026-01-03 01:49:22.68	247.80	15.60	-29.6	-31.4	12.8	6.79e-05	0	43	0	1042284544	19	4410
2026-01-03 01:49:25.69	247.47	15.32	-30.0	-32.1	11.9	3.91e-04	0	43	0	1047527424	20	4573
2026-01-03 01:49:28.70	247.14	15.04	-30.2	-32.8	11.4	1.04e-03	0	43	0	1052770304	20	4823
2026-01-03 01:49:31.71	246.81	14.76	-30.0	-32.4	12.0	3.25e-03	0	43	0	1059061760	19	4776
2026-01-03 01:49:34.73	246.49	14.49	-29.7	-31.3	12.3	2.89e-04	0	43	0	1064304640	20	4332
2026-01-03 01:49:37.74	246.18	14.21	-29.7	-31.8	12.4	1.84e-04	0	43	0	1070596096	19	4577
2026-01-03 01:49:40.75	245.88	13.94	-29.9	-32.2	12.1	2.81e-04	0	43	0	1075838976	19	4711
2026-01-03 01:49:43.78	245.57	13.67	-29.9	-32.3	12.0	3.39e-04	0	43	0	1081081856	19	4739
2026-01-03 01:49:46.80	245.28	13.41	-29.4	-31.7	11.6	6.11e-04	0	43	0	1087373312	20	4668
2026-01-03 01:49:49.80	244.99	13.15	-30.1	-32.8	10.6	7.70e-04	0	44	0	1092616192	19	4950
2026-01-03 01:49:52.82	244.70	12.88	-29.9	-32.1	11.7	7.74e-04	0	43	0	1098907648	20	4593
2026-01-03 01:49:55.84	244.42	12.62	-29.9	-32.3	11.9	3.37e-03	0	43	0	1104150528	19	4737
2026-01-03 01:49:58.85	244.15	12.37	-29.7	-31.7	12.3	5.66e-04	0	43	0	1109393408	19	4534
2026-01-03 01:50:01.86	243.88	12.11	-29.4	-31.3	12.9	5.87e-05	0	43	0	1115684864	18	4506
2026-01-03 01:50:04.87	243.62	11.86	-29.6	-31.6	12.4	2.17e-04	0	44	0	1120927744	19	4517
2026-01-03 01:50:07.89	243.36	11.60	-29.9	-32.6	11.7	3.63e-04	0	44	0	1127219200	19	4867
2026-01-03 01:50:10.91	243.10	11.35	-30.3	-33.3	10.7	2.65e-03	0	43	0	1132462080	20	5069
2026-01-03 01:50:13.92	242.85	11.11	-30.7	-34.1	9.7	1.22e-02	0	44	0	1137704960	21	5341
2026-01-03 01:50:16.94	242.60	10.86	-30.5	-33.6	10.0	1.25e-02	0	43	0	1143996416	21	5148
2026-01-03 01:50:19.96	242.36	10.62	-30.4	-33.6	10.3	7.74e-03	0	43	0	1149239296	20	5237
2026-01-03 01:50:22.98	242.12	10.37	-30.2	-33.0	10.8	6.08e-03	0	44	0	1155530752	20	4991
2026-01-03 01:50:26.01	241.88	10.13	-30.1	-32.7	11.0	5.25e-03	0	44	0	1160773632	20	4865
2026-01-03 01:50:29.02	241.65	9.89	-30.1	-32.7	10.9	1.90e-03	0	43	0	1166016512	20	4877
2026-01-03 01:50:32.02	241.43	9.66	-30.0	-32.6	11.0	2.23e-03	0	43	0	1172307968	20	4827
2026-01-03 01:50:35.04	241.20	9.42	-29.9	-32.6	11.4	3.59e-03	0	43	0	1177550848	19	4911
2026-01-03 01:50:38.05	240.99	9.19	-29.8	-32.3	11.7	3.51e-03	0	43	0	1182793728	19	4774
2026-01-03 01:50:41.07	240.77	8.96	-29.7	-32.1	11.8	3.66e-03	0	43	0	1189085184	19	4711
2026-01-03 01:50:44.08	240.56	8.73	-29.9	-32.3	11.2	4.91e-03	0	43	0	1194328064	20	4723
2026-01-03 01:50:47.10	240.35	8.50	-30.1	-32.9	10.7	2.92e-03	0	43	0	1200619520	20	4963
2026-01-03 01:50:50.11	240.14	8.28	-30.3	-33.5	10.2	5.35e-03	0	44	0	1205862400	20	5231
2026-01-03 01:50:53.12	239.94	8.05	-30.3	-33.5	10.1	8.75e-03	0	43	0	1211105280	20	5222
2026-01-03 01:50:56.13	239.74	7.83	-30.4	-33.8	9.9	9.03e-03	0	43	0	1217396736	20	5382
2026-01-03 01:50:59.15	239.55	7.61	-30.4	-33.8	9.8	1.12e-02	0	43	0	1222639616	20	5377
2026-01-03 01:51:02.16	239.35	7.39	-30.3	-33.7	9.9	1.31e-02	0	43	0	1228931072	20	5325
2026-01-03 01:51:05.17	239.16	7.17	-30.3	-33.7	9.9	1.09e-02	0	43	0	1234173952	20	5350
2026-01-03 01:51:08.19	238.98	6.96	-32.7	-45.2	3.8	1.49e+00	0	44	104	1236271104	25	15165

#Closed at: 2026-01-03 01:51:09
#Recorded file [1236 MB]: D:/data/31010_260103_044006.dat