passes_logs/2026/01/03/R2M6_AANII_01/R2M6_AANII_01__20260103_083421_NOAA_20_JPSS-1_rec.log

#Pass ID: 20260103_083421_NOAA 20 (JPSS-1)
#Satellite: NOAA 20 (JPSS-1)
#Configuration: NOAA 20
#almurnet v.1.7.20240730
#Start time: 2026-01-03 08:34:21

#Version: 2.2.20231116
#Station: R2M6_AANII_01
#Location: 30.233357 lon 59.946436 lat
#TLE: 1 43013U 17073A   26002.21975278  .00000202  00000+0  11669-3 0  9999
#TLE: 2 43013  98.7622 303.2950 0001915  57.9213 302.2149 14.19532512420923

#Time	Az	El	Level	Level2	SNR	BER	BlckErr	Temp	State	Recorded	gain1	gain2
2026-01-03 08:34:21.54	106.19	7.00	-32.0	-40.1	4.3	1.40e+00	0	40	0	0	25	9143
2026-01-03 08:34:24.56	105.93	7.20	-31.8	-38.8	6.1	3.09e-01	0	40	0	1048576	25	8028
2026-01-03 08:34:27.58	105.67	7.40	-31.9	-38.7	6.2	2.82e-01	0	40	0	7340032	25	7965
2026-01-03 08:34:30.60	105.41	7.60	-31.6	-37.6	7.4	1.71e-01	0	40	0	12582912	24	7205
2026-01-03 08:34:33.62	105.15	7.81	-31.0	-35.7	9.4	2.28e-02	0	41	0	18874368	23	6150
2026-01-03 08:34:36.65	104.87	8.01	-30.8	-35.1	10.2	6.02e-03	0	41	0	24117248	22	5932
2026-01-03 08:34:39.66	104.60	8.22	-30.8	-35.3	10.1	7.23e-03	0	41	0	29360128	22	6050
2026-01-03 08:34:42.68	104.32	8.42	-30.8	-35.2	10.3	6.15e-03	0	41	0	35651584	22	5972
2026-01-03 08:34:45.70	104.04	8.63	-30.8	-35.1	10.3	5.83e-03	0	41	0	40894464	22	5929
2026-01-03 08:34:48.71	103.76	8.84	-30.9	-35.3	10.2	5.32e-03	0	41	0	47185920	22	6000
2026-01-03 08:34:51.72	103.47	9.05	-30.8	-35.2	10.3	6.17e-03	0	41	0	52428800	22	5957
2026-01-03 08:34:54.74	103.17	9.26	-30.8	-35.1	10.5	4.07e-03	0	41	0	57671680	22	5878
2026-01-03 08:34:57.75	102.87	9.47	-30.7	-34.9	10.6	3.58e-03	0	41	0	63963136	22	5797
2026-01-03 08:35:00.76	102.57	9.69	-30.6	-34.4	11.0	2.06e-03	0	42	0	69206016	22	5542
2026-01-03 08:35:03.78	102.26	9.90	-30.5	-34.1	11.2	1.28e-03	0	41	0	74448896	22	5436
2026-01-03 08:35:06.79	101.95	10.11	-30.6	-34.2	11.1	1.69e-03	0	42	0	80740352	22	5485
2026-01-03 08:35:09.80	101.63	10.33	-30.6	-34.3	11.1	1.82e-03	0	42	0	85983232	22	5503
2026-01-03 08:35:12.81	101.31	10.55	-30.6	-34.4	11.1	1.40e-03	0	42	0	92274688	22	5569
2026-01-03 08:35:15.82	100.99	10.76	-30.7	-34.5	11.1	1.60e-03	0	42	0	97517568	22	5574
2026-01-03 08:35:18.85	100.65	10.98	-30.7	-34.6	11.0	1.81e-03	0	42	0	102760448	22	5616
2026-01-03 08:35:21.86	100.32	11.20	-30.7	-34.6	11.0	1.81e-03	0	42	0	109051904	22	5611
2026-01-03 08:35:24.88	99.97	11.43	-30.8	-34.8	10.8	2.25e-03	0	42	0	114294784	22	5726
2026-01-03 08:35:27.91	99.62	11.65	-30.6	-34.2	11.3	1.11e-03	0	42	0	120586240	22	5448
2026-01-03 08:35:30.93	99.27	11.87	-30.6	-34.0	11.4	1.01e-03	0	42	0	125829120	22	5375
2026-01-03 08:35:33.93	98.91	12.10	-30.6	-34.2	11.3	1.01e-03	0	42	0	131072000	22	5444
2026-01-03 08:35:36.95	98.55	12.32	-30.6	-34.1	11.4	1.14e-03	0	42	0	137363456	22	5413
2026-01-03 08:35:39.96	98.18	12.55	-30.6	-34.3	11.4	9.01e-04	0	42	0	142606336	22	5463
2026-01-03 08:35:42.98	97.80	12.77	-30.5	-33.8	11.7	6.24e-04	0	42	0	148897792	22	5277
2026-01-03 08:35:46.00	97.42	13.00	-30.4	-33.5	11.9	3.95e-04	0	42	0	154140672	22	5162
2026-01-03 08:35:49.01	97.03	13.23	-30.4	-33.4	12.0	3.32e-04	0	42	0	159383552	22	5088
2026-01-03 08:35:52.04	96.64	13.46	-30.3	-33.3	12.2	2.34e-04	0	42	0	165675008	22	5041
2026-01-03 08:35:55.06	96.24	13.69	-30.5	-33.8	11.8	3.96e-04	0	42	0	170917888	22	5247
2026-01-03 08:35:58.08	95.83	13.92	-30.4	-33.3	12.2	2.19e-04	0	42	0	177209344	22	5065
2026-01-03 08:36:01.10	95.42	14.15	-30.3	-33.2	12.3	1.69e-04	0	42	0	182452224	22	4994
2026-01-03 08:36:04.12	95.00	14.39	-30.2	-33.3	12.6	1.05e-04	0	42	0	187695104	21	5156
2026-01-03 08:36:07.14	94.57	14.62	-30.2	-33.4	12.5	1.40e-04	0	42	0	193986560	21	5172
2026-01-03 08:36:10.16	94.13	14.85	-30.1	-33.1	12.8	7.40e-05	0	42	0	199229440	21	5070
2026-01-03 08:36:13.18	93.69	15.09	-30.1	-33.0	12.9	5.56e-05	0	42	0	205520896	21	5016
2026-01-03 08:36:16.20	93.25	15.32	-30.1	-32.8	13.0	4.19e-05	0	42	0	210763776	21	4953
2026-01-03 08:36:19.21	92.79	15.56	-30.3	-33.5	12.6	6.17e-05	0	42	0	216006656	21	5199
2026-01-03 08:36:22.23	92.33	15.79	-30.3	-33.5	12.5	1.11e-04	0	43	0	222298112	21	5217
2026-01-03 08:36:25.25	91.86	16.03	-30.3	-33.5	12.6	1.03e-04	0	42	0	227540992	21	5203
2026-01-03 08:36:28.27	91.38	16.27	-30.4	-33.7	12.5	1.26e-04	0	42	0	233832448	21	5270
2026-01-03 08:36:31.29	90.90	16.50	-30.3	-33.4	12.7	7.78e-05	0	42	0	239075328	21	5178
2026-01-03 08:36:34.31	90.40	16.74	-30.5	-34.0	12.3	1.69e-04	0	42	0	244318208	21	5384
2026-01-03 08:36:37.33	89.90	16.98	-30.5	-34.2	12.2	1.91e-04	0	42	0	250609664	21	5474
2026-01-03 08:36:40.34	89.40	17.21	-30.4	-33.8	12.5	1.22e-04	0	42	0	255852544	21	5298
2026-01-03 08:36:43.37	88.88	17.45	-30.5	-34.0	12.3	1.35e-04	0	43	0	262144000	21	5409
2026-01-03 08:36:46.39	88.35	17.69	-30.7	-34.6	11.9	3.99e-04	0	42	0	267386880	21	5633
2026-01-03 08:36:49.40	87.82	17.92	-30.8	-34.8	11.8	4.18e-04	0	43	0	272629760	21	5753
2026-01-03 08:36:52.42	87.28	18.16	-30.6	-34.4	12.1	2.67e-04	0	43	0	278921216	21	5537
2026-01-03 08:36:55.45	86.72	18.40	-30.5	-34.0	12.4	1.65e-04	0	43	0	284164096	21	5365
2026-01-03 08:36:58.47	86.16	18.63	-30.5	-33.8	12.5	1.23e-04	0	43	0	290455552	21	5317
2026-01-03 08:37:01.49	85.60	18.87	-30.4	-33.6	12.7	7.62e-05	0	43	0	295698432	21	5203
2026-01-03 08:37:04.50	85.02	19.10	-30.6	-34.2	12.3	2.06e-04	0	43	0	300941312	21	5438
2026-01-03 08:37:07.52	84.44	19.33	-30.3	-33.4	12.9	5.49e-05	0	43	0	307232768	21	5128
2026-01-03 08:37:10.52	83.84	19.56	-30.3	-33.2	13.0	3.20e-05	0	43	0	312475648	21	5071
2026-01-03 08:37:13.54	83.24	19.79	-30.0	-32.6	13.3	1.06e-05	0	43	0	317718528	21	4836
2026-01-03 08:37:16.56	82.63	20.02	-29.9	-32.1	13.7	9.10e-06	0	43	0	324009984	21	4666
2026-01-03 08:37:19.57	82.01	20.25	-29.7	-32.2	14.0	3.80e-06	0	43	0	329252864	20	4791
2026-01-03 08:37:22.58	81.38	20.48	-29.5	-31.6	14.4	0.00e+00	0	43	0	335544320	20	4590
2026-01-03 08:37:25.60	80.73	20.70	-29.3	-31.2	14.7	0.00e+00	0	43	0	340787200	20	4468
2026-01-03 08:37:28.61	80.09	20.92	-29.4	-31.7	14.7	7.00e-07	0	43	0	346030080	19	4734
2026-01-03 08:37:31.63	79.42	21.14	-29.3	-31.6	14.8	0.00e+00	0	43	0	352321536	19	4700
2026-01-03 08:37:34.64	78.76	21.36	-29.2	-31.4	14.9	0.00e+00	0	43	0	357564416	19	4624
2026-01-03 08:37:37.66	78.08	21.58	-29.2	-31.3	15.0	0.00e+00	0	43	0	363855872	19	4582
2026-01-03 08:37:40.67	77.39	21.79	-29.1	-31.1	15.2	0.00e+00	0	43	0	369098752	19	4525
2026-01-03 08:37:43.69	76.69	22.00	-29.1	-30.9	15.3	0.00e+00	0	43	0	374341632	19	4472
2026-01-03 08:37:46.70	75.99	22.21	-29.1	-31.0	15.2	0.00e+00	0	43	0	380633088	19	4501
2026-01-03 08:37:49.71	75.27	22.41	-29.1	-31.1	15.2	0.00e+00	0	43	0	385875968	19	4505
2026-01-03 08:37:52.74	74.54	22.62	-29.3	-31.6	14.9	0.00e+00	0	43	0	392167424	19	4669
2026-01-03 08:37:55.75	73.81	22.81	-29.3	-31.6	14.9	0.00e+00	0	43	0	397410304	19	4688
2026-01-03 08:37:58.77	73.06	23.01	-29.4	-31.8	14.8	0.00e+00	0	43	0	402653184	19	4739
2026-01-03 08:38:01.79	72.31	23.20	-29.4	-31.7	14.9	0.00e+00	0	43	0	408944640	19	4690
2026-01-03 08:38:04.81	71.54	23.39	-29.1	-30.9	15.4	0.00e+00	0	43	0	414187520	19	4444
2026-01-03 08:38:07.83	70.77	23.57	-29.1	-30.9	15.4	0.00e+00	0	43	0	420478976	19	4447
2026-01-03 08:38:10.84	69.99	23.75	-29.1	-30.9	15.4	0.00e+00	0	43	0	425721856	19	4445
2026-01-03 08:38:13.86	69.20	23.92	-28.8	-30.7	15.8	0.00e+00	0	43	0	430964736	18	4488
2026-01-03 08:38:16.89	68.39	24.09	-28.9	-31.0	15.6	0.00e+00	0	43	0	437256192	18	4601
2026-01-03 08:38:19.91	67.59	24.25	-28.7	-30.6	15.9	0.00e+00	0	43	0	442499072	18	4452
2026-01-03 08:38:22.93	66.77	24.41	-28.9	-31.0	15.6	0.00e+00	0	43	0	448790528	18	4597
2026-01-03 08:38:25.94	65.95	24.56	-29.3	-32.0	15.0	0.00e+00	0	43	0	454033408	18	4913
2026-01-03 08:38:28.96	65.11	24.71	-29.3	-32.1	15.0	0.00e+00	0	43	0	459276288	18	4960
2026-01-03 08:38:31.98	64.27	24.85	-29.3	-31.6	15.0	0.00e+00	0	43	0	465567744	19	4669
2026-01-03 08:38:35.00	63.42	24.99	-29.6	-32.2	14.7	7.00e-07	0	43	0	470810624	19	4853
2026-01-03 08:38:38.02	62.57	25.12	-29.6	-32.2	14.6	0.00e+00	0	43	0	477102080	19	4864
2026-01-03 08:38:41.03	61.71	25.24	-29.7	-32.5	14.5	0.00e+00	0	43	0	482344960	19	4957
2026-01-03 08:38:44.06	60.84	25.36	-30.0	-32.8	13.8	6.10e-06	0	43	0	487587840	20	4992
2026-01-03 08:38:47.07	59.97	25.47	-30.1	-33.1	13.7	2.20e-06	0	43	0	493879296	20	5090
2026-01-03 08:38:50.09	59.09	25.57	-30.3	-33.5	13.4	1.60e-05	0	43	0	499122176	20	5253
2026-01-03 08:38:53.10	58.20	25.66	-30.6	-33.8	12.9	2.51e-05	0	43	0	505413632	21	5255
2026-01-03 08:38:56.11	57.31	25.75	-30.1	-32.6	13.6	8.30e-06	0	43	0	510656512	21	4805
2026-01-03 08:38:59.14	56.42	25.83	-30.1	-32.7	13.7	8.30e-06	0	43	0	515899392	21	4832
2026-01-03 08:39:02.16	55.52	25.90	-30.4	-33.3	13.3	2.36e-05	0	43	0	522190848	21	5047
2026-01-03 08:39:05.17	54.61	25.97	-30.5	-33.6	13.1	4.50e-05	0	43	0	527433728	21	5176
2026-01-03 08:39:08.18	53.71	26.03	-30.4	-33.4	13.2	2.89e-05	0	43	0	533725184	21	5083
2026-01-03 08:39:11.19	52.80	26.08	-30.6	-33.9	12.8	5.18e-05	0	43	0	538968064	21	5292
2026-01-03 08:39:14.21	51.89	26.12	-30.6	-33.9	12.9	4.88e-05	0	43	0	544210944	21	5273
2026-01-03 08:39:17.22	50.98	26.15	-30.3	-33.2	13.3	1.83e-05	0	43	0	550502400	21	5013
2026-01-03 08:39:20.24	50.06	26.18	-30.1	-32.7	13.6	4.50e-06	0	43	0	555745280	21	4830
2026-01-03 08:39:23.26	49.14	26.20	-30.1	-32.5	13.9	6.10e-06	0	43	0	562036736	21	4749
2026-01-03 08:39:26.28	48.22	26.21	-30.0	-32.4	13.8	6.10e-06	0	43	0	567279616	21	4736
2026-01-03 08:39:29.30	47.30	26.21	-29.7	-32.1	14.3	7.00e-07	0	43	0	572522496	20	4732
2026-01-03 08:39:32.33	46.38	26.20	-29.6	-31.9	14.5	7.00e-07	0	43	0	578813952	20	4652
2026-01-03 08:39:35.34	45.46	26.19	-29.4	-31.3	14.8	7.00e-07	0	43	0	584056832	20	4480
2026-01-03 08:39:38.37	44.54	26.17	-29.4	-31.3	14.9	7.00e-07	0	43	0	590348288	20	4464
2026-01-03 08:39:41.38	43.63	26.14	-29.3	-31.1	15.0	0.00e+00	0	43	0	595591168	20	4405
2026-01-03 08:39:44.40	42.72	26.10	-29.3	-31.5	15.0	0.00e+00	0	43	0	600834048	19	4628
2026-01-03 08:39:47.42	41.81	26.05	-29.3	-31.6	15.0	0.00e+00	0	43	0	607125504	19	4654
2026-01-03 08:39:50.43	40.90	26.00	-29.2	-31.4	15.2	0.00e+00	0	43	0	612368384	19	4590
2026-01-03 08:39:53.45	39.99	25.94	-29.2	-31.2	15.2	3.00e-06	0	43	0	618659840	19	4534
2026-01-03 08:39:56.47	39.09	25.87	-28.8	-30.8	15.8	0.00e+00	0	43	0	623902720	18	4512
2026-01-03 08:39:59.48	38.20	25.79	-29.1	-31.4	15.4	0.00e+00	0	43	0	629145600	18	4714
2026-01-03 08:40:02.50	37.31	25.71	-29.1	-31.5	15.3	0.00e+00	0	43	0	635437056	18	4743
2026-01-03 08:40:05.52	36.42	25.61	-29.1	-31.5	15.4	0.00e+00	0	43	0	640679936	18	4733
2026-01-03 08:40:08.53	35.54	25.51	-29.2	-31.8	15.2	0.00e+00	0	43	0	645922816	18	4845
2026-01-03 08:40:11.56	34.66	25.41	-29.2	-31.8	15.2	0.00e+00	0	43	0	652214272	18	4863
2026-01-03 08:40:14.58	33.79	25.30	-29.4	-32.3	14.8	0.00e+00	0	43	0	657457152	18	5024
2026-01-03 08:40:17.59	32.93	25.18	-29.6	-32.3	14.5	1.50e-06	0	43	0	663748608	19	4923
2026-01-03 08:40:20.61	32.07	25.05	-29.9	-33.1	14.0	3.80e-06	0	43	0	668991488	19	5198
2026-01-03 08:40:23.63	31.23	24.92	-30.0	-32.9	13.7	2.20e-06	0	43	0	674234368	20	5040
2026-01-03 08:40:26.65	30.38	24.78	-30.1	-33.3	13.5	1.37e-05	0	43	0	680525824	20	5185
2026-01-03 08:40:29.66	29.55	24.64	-30.0	-32.9	13.7	8.30e-06	0	43	0	685768704	20	5020
2026-01-03 08:40:32.68	28.72	24.49	-30.4	-33.9	13.1	2.05e-05	0	43	0	692060160	20	5403
2026-01-03 08:40:35.70	27.91	24.33	-30.3	-33.8	13.1	3.12e-05	0	43	0	697303040	20	5357
2026-01-03 08:40:38.71	27.10	24.17	-30.2	-33.3	13.4	9.10e-06	0	43	0	702545920	20	5168
2026-01-03 08:40:41.73	26.30	24.01	-30.0	-33.0	13.6	1.22e-05	0	43	0	708837376	20	5065
2026-01-03 08:40:44.74	25.51	23.84	-30.2	-33.4	13.4	2.13e-05	0	43	0	714080256	20	5203
2026-01-03 08:40:47.76	24.72	23.66	-30.2	-33.6	13.3	2.21e-05	0	43	0	720371712	20	5281
2026-01-03 08:40:50.78	23.95	23.48	-30.0	-32.9	13.7	3.80e-06	0	43	0	725614592	20	5040
2026-01-03 08:40:53.79	23.18	23.30	-30.0	-33.0	13.6	1.06e-05	0	43	0	730857472	20	5084
2026-01-03 08:40:56.81	22.42	23.11	-30.2	-33.5	13.2	1.29e-05	0	43	0	737148928	20	5269
2026-01-03 08:40:59.82	21.68	22.92	-29.9	-32.6	13.8	5.30e-06	0	43	0	742391808	20	4933
2026-01-03 08:41:02.85	20.94	22.72	-29.8	-32.4	13.9	1.50e-06	0	43	0	748683264	20	4878
2026-01-03 08:41:05.87	20.21	22.52	-29.8	-32.4	13.9	5.30e-06	0	43	0	753926144	20	4864
2026-01-03 08:41:08.88	19.49	22.32	-29.4	-31.3	14.6	7.00e-07	0	43	0	759169024	20	4486
2026-01-03 08:41:11.89	18.78	22.11	-29.3	-31.2	14.6	1.50e-06	0	43	0	765460480	20	4462
2026-01-03 08:41:14.91	18.08	21.90	-29.5	-31.6	14.4	7.00e-07	0	43	0	770703360	20	4570
2026-01-03 08:41:17.93	17.39	21.69	-29.3	-31.2	14.5	1.52e-05	0	43	0	776994816	20	4476
2026-01-03 08:41:20.95	16.71	21.48	-29.3	-31.5	14.8	7.00e-07	0	43	0	782237696	19	4656
2026-01-03 08:41:23.98	16.04	21.26	-29.5	-32.0	14.5	7.00e-07	0	43	0	787480576	19	4840
2026-01-03 08:41:26.99	15.38	21.04	-29.4	-31.8	14.6	7.00e-07	0	43	0	793772032	19	4746
2026-01-03 08:41:30.01	14.72	20.82	-29.2	-31.4	14.9	0.00e+00	0	43	0	799014912	19	4626
2026-01-03 08:41:33.04	14.08	20.60	-29.0	-30.7	15.2	0.00e+00	0	43	0	805306368	19	4419
2026-01-03 08:41:36.06	13.45	20.37	-28.8	-30.8	15.4	0.00e+00	0	43	0	810549248	18	4555
2026-01-03 08:41:39.06	12.83	20.15	-28.8	-30.8	15.4	4.50e-06	0	43	0	815792128	18	4543
2026-01-03 08:41:42.08	12.21	19.92	-28.6	-30.4	15.6	0.00e+00	0	43	0	822083584	18	4426
2026-01-03 08:41:45.09	11.61	19.69	-28.7	-30.7	15.5	0.00e+00	0	43	0	827326464	18	4515
2026-01-03 08:41:48.11	11.01	19.46	-28.5	-30.1	15.8	0.00e+00	0	43	0	833617920	18	4340
2026-01-03 08:41:51.13	10.42	19.23	-28.4	-29.8	16.0	0.00e+00	0	43	0	838860800	18	4247
2026-01-03 08:41:54.15	9.84	19.00	-28.5	-30.2	15.8	0.00e+00	0	43	0	844103680	18	4362
2026-01-03 08:41:57.16	9.28	18.76	-28.5	-30.0	15.9	0.00e+00	0	43	0	850395136	18	4319
2026-01-03 08:42:00.17	8.72	18.53	-28.5	-30.0	15.9	0.00e+00	0	43	0	855638016	18	4322
2026-01-03 08:42:03.19	8.17	18.29	-28.6	-30.4	15.7	0.00e+00	0	43	0	860880896	18	4430
2026-01-03 08:42:06.21	7.62	18.06	-28.7	-30.6	15.6	0.00e+00	0	43	0	867172352	18	4489
2026-01-03 08:42:09.22	7.09	17.83	-28.7	-30.7	15.5	0.00e+00	0	43	0	872415232	18	4528
2026-01-03 08:42:12.23	6.56	17.59	-28.7	-30.7	15.4	0.00e+00	0	43	0	878706688	18	4532
2026-01-03 08:42:15.25	6.05	17.35	-28.9	-31.2	15.1	0.00e+00	0	43	0	883949568	18	4681
2026-01-03 08:42:18.27	5.54	17.12	-29.1	-31.6	14.9	0.00e+00	0	43	0	889192448	18	4797
2026-01-03 08:42:21.28	5.04	16.88	-29.0	-31.4	15.0	0.00e+00	0	43	0	895483904	18	4753
2026-01-03 08:42:24.30	4.54	16.65	-29.2	-32.0	14.6	0.00e+00	0	43	0	900726784	18	4958
2026-01-03 08:42:27.32	4.06	16.41	-29.4	-32.5	14.2	0.00e+00	0	43	0	907018240	18	5137
2026-01-03 08:42:30.33	3.58	16.18	-29.5	-32.1	14.1	1.50e-06	0	43	0	912261120	19	4902
2026-01-03 08:42:33.35	3.11	15.94	-29.6	-32.4	14.0	4.50e-06	0	43	0	917504000	19	4992
2026-01-03 08:42:36.37	2.64	15.71	-29.6	-32.5	13.9	2.20e-06	0	43	0	923795456	19	5045
2026-01-03 08:42:39.39	2.19	15.47	-29.4	-32.1	14.2	0.00e+00	0	43	0	929038336	19	4871
2026-01-03 08:42:42.41	1.74	15.24	-29.6	-32.5	13.9	3.00e-06	0	43	0	935329792	19	5029
2026-01-03 08:42:45.42	1.30	15.00	-29.5	-32.4	13.9	2.20e-06	0	43	0	940572672	19	5005
2026-01-03 08:42:48.44	0.86	14.77	-29.8	-33.0	13.5	1.44e-05	0	43	0	945815552	19	5244
2026-01-03 08:42:51.45	0.44	14.54	-30.2	-33.7	12.6	1.18e-04	0	43	0	952107008	20	5401
2026-01-03 08:42:54.47	0.02	14.31	-29.8	-32.7	13.2	2.13e-05	0	43	0	957349888	20	5033
2026-01-03 08:42:57.48	359.60	14.08	-29.8	-32.6	13.3	1.44e-05	0	43	0	963641344	20	4995
2026-01-03 08:43:00.50	359.20	13.84	-29.8	-32.8	13.1	2.21e-05	0	43	0	968884224	20	5084
2026-01-03 08:43:03.52	358.80	13.61	-30.0	-33.2	12.9	4.80e-05	0	43	0	974127104	20	5220
2026-01-03 08:43:06.53	358.40	13.39	-29.9	-33.1	12.9	3.89e-05	0	43	0	980418560	20	5178
2026-01-03 08:43:09.55	358.01	13.16	-29.9	-33.1	12.9	3.43e-05	0	43	0	985661440	20	5181
2026-01-03 08:43:12.56	357.63	12.93	-30.1	-33.7	12.5	1.12e-04	0	43	0	991952896	20	5409
2026-01-03 08:43:15.58	357.26	12.70	-30.2	-33.8	12.4	1.38e-04	0	43	0	997195776	20	5469
2026-01-03 08:43:18.60	356.89	12.48	-30.3	-34.3	12.0	2.34e-04	0	43	0	1002438656	20	5694
2026-01-03 08:43:21.61	356.52	12.25	-30.4	-34.7	11.7	5.79e-04	0	43	0	1008730112	20	5858
2026-01-03 08:43:24.63	356.16	12.03	-30.6	-34.7	11.3	1.33e-03	0	43	0	1013972992	21	5790
2026-01-03 08:43:27.65	355.81	11.81	-30.5	-34.5	11.4	1.08e-03	0	43	0	1020264448	21	5689
2026-01-03 08:43:30.68	355.46	11.58	-30.6	-34.8	11.2	1.23e-03	0	43	0	1025507328	21	5819
2026-01-03 08:43:33.70	355.12	11.36	-30.4	-34.1	11.7	5.45e-04	0	43	0	1030750208	21	5489
2026-01-03 08:43:36.72	354.78	11.14	-30.4	-34.1	11.7	5.39e-04	0	43	0	1037041664	21	5501
2026-01-03 08:43:39.73	354.45	10.93	-30.4	-34.2	11.6	6.71e-04	0	43	0	1042284544	21	5551
2026-01-03 08:43:42.75	354.12	10.71	-30.5	-34.6	11.3	1.26e-03	0	43	0	1048576000	21	5760
2026-01-03 08:43:45.75	353.80	10.49	-30.6	-34.7	11.2	1.57e-03	0	43	0	1053818880	21	5800
2026-01-03 08:43:48.77	353.48	10.28	-30.5	-34.4	11.4	1.04e-03	0	43	0	1059061760	21	5656
2026-01-03 08:43:51.78	353.17	10.06	-30.4	-34.1	11.6	8.49e-04	0	43	0	1065353216	21	5525
2026-01-03 08:43:54.80	352.86	9.85	-30.4	-34.1	11.6	6.38e-04	0	43	0	1070596096	21	5510
2026-01-03 08:43:57.81	352.56	9.63	-30.0	-33.9	11.2	1.21e-02	0	43	0	1075838976	21	5618
2026-01-03 08:44:00.83	352.26	9.42	-30.0	-34.3	10.7	1.30e-02	0	43	0	1082130432	21	5899
2026-01-03 08:44:03.85	351.97	9.21	-30.3	-34.7	10.6	1.33e-02	0	43	0	1087373312	21	5950
2026-01-03 08:44:06.87	351.68	9.00	-30.4	-34.9	10.5	1.38e-02	0	43	0	1093664768	21	6050
2026-01-03 08:44:09.88	351.39	8.79	-30.4	-35.3	10.0	1.48e-02	0	43	0	1098907648	21	6355
2026-01-03 08:44:12.89	351.11	8.59	-30.3	-35.2	10.0	1.62e-02	0	43	0	1104150528	21	6336
2026-01-03 08:44:15.91	350.84	8.38	-30.3	-35.0	10.2	1.60e-02	0	43	0	1110441984	21	6239
2026-01-03 08:44:18.93	350.56	8.17	-30.8	-35.7	10.2	5.85e-03	0	43	0	1115684864	21	6315
2026-01-03 08:44:21.95	350.29	7.97	-30.7	-35.3	10.4	4.67e-03	0	43	0	1121976320	21	6125
2026-01-03 08:44:24.96	350.03	7.77	-30.5	-35.0	10.5	5.67e-03	0	43	0	1127219200	21	5991
2026-01-03 08:44:27.96	349.77	7.56	-30.5	-34.9	10.6	5.01e-03	0	43	0	1132462080	21	5942
2026-01-03 08:44:30.97	349.51	7.36	-30.5	-35.1	10.4	5.45e-03	0	43	0	1138753536	21	6073
2026-01-03 08:44:33.99	349.26	7.16	-30.6	-35.3	10.2	9.19e-03	0	43	0	1143996416	21	6194
2026-01-03 08:44:37.02	349.01	6.96	-32.8	-47.2	3.8	1.49e+00	0	43	104	1147142144	25	18845

#Closed at: 2026-01-03 08:44:37
#Recorded file [1147 MB]: D:/data/31010_260103_113423.dat