passes_logs/2026/01/03/R2M6_AANII_01/R2M6_AANII_01__20260103_081419_SUOMI_NPP_rec.log

#Pass ID: 20260103_081419_SUOMI NPP
#Satellite: SUOMI NPP
#Configuration: NPP
#almurnet v.1.7.20240730
#Start time: 2026-01-03 08:14:20

#Version: 2.2.20231116
#Station: R2M6_AANII_01
#Location: 30.233357 lon 59.946436 lat
#TLE: 1 37849U 11061A   26001.07732418  .00000182  00000+0  10735-3 0  9990
#TLE: 2 37849  98.7795 303.2470 0002580  87.2016 272.9455 14.19520779734739

#Time	Az	El	Level	Level2	SNR	BER	BlckErr	Temp	State	Recorded	gain1	gain2
2026-01-03 08:14:20.67	93.36	7.05	-31.1	-43.0	3.7	1.50e+00	0	40	0	0	23	14159
2026-01-03 08:14:23.69	93.06	7.23	-30.9	-42.5	3.8	1.49e+00	0	40	104	0	23	13672
2026-01-03 08:14:26.71	92.75	7.42	-31.0	-42.4	3.8	1.49e+00	0	41	104	0	23	13389
2026-01-03 08:14:29.74	92.43	7.60	-31.4	-41.0	3.9	1.49e+00	0	41	104	0	23	10882
2026-01-03 08:14:32.76	92.11	7.79	-31.5	-37.8	5.8	6.09e-01	0	41	0	2097152	23	7398
2026-01-03 08:14:35.78	91.79	7.97	-31.5	-36.4	7.1	1.49e-01	0	41	0	7340032	23	6385
2026-01-03 08:14:38.79	91.46	8.16	-31.6	-36.9	6.9	1.05e-01	0	41	0	13631488	23	6651
2026-01-03 08:14:41.80	91.13	8.34	-31.3	-35.2	8.2	5.75e-02	0	41	0	18874368	23	5680
2026-01-03 08:14:44.82	90.79	8.53	-30.9	-33.8	9.4	2.03e-02	0	41	0	24117248	23	5010
2026-01-03 08:14:47.84	90.45	8.72	-30.6	-33.2	10.4	5.20e-03	0	41	0	30408704	22	4817
2026-01-03 08:14:50.86	90.10	8.91	-30.6	-33.1	10.4	3.93e-03	0	41	0	35651584	22	4796
2026-01-03 08:14:53.88	89.75	9.09	-30.8	-33.6	10.1	6.55e-03	0	41	0	41943040	22	4971
2026-01-03 08:14:56.89	89.40	9.28	-30.7	-33.3	10.3	4.65e-03	0	42	0	47185920	22	4868
2026-01-03 08:14:59.90	89.04	9.47	-30.6	-32.8	10.8	2.62e-03	0	42	0	52428800	22	4654
2026-01-03 08:15:02.92	88.68	9.66	-30.8	-33.6	10.2	4.04e-03	0	42	0	58720256	22	4950
2026-01-03 08:15:05.93	88.31	9.85	-30.6	-32.7	10.9	2.57e-03	0	42	0	63963136	22	4614
2026-01-03 08:15:08.95	87.93	10.04	-30.8	-33.4	10.5	2.13e-03	0	42	0	70254592	22	4850
2026-01-03 08:15:11.97	87.55	10.23	-31.0	-34.0	10.2	4.93e-03	0	42	0	75497472	22	5096
2026-01-03 08:15:14.99	87.17	10.42	-30.9	-33.7	10.2	7.68e-03	0	42	0	80740352	22	4998
2026-01-03 08:15:18.01	86.78	10.61	-30.7	-33.2	10.7	3.75e-03	0	42	0	87031808	22	4767
2026-01-03 08:15:21.04	86.38	10.80	-30.7	-33.2	10.7	2.19e-03	0	42	0	92274688	22	4778
2026-01-03 08:15:24.05	85.99	10.99	-30.6	-32.5	11.2	1.39e-03	0	42	0	98566144	22	4519
2026-01-03 08:15:27.08	85.58	11.18	-30.4	-32.2	11.5	8.51e-04	0	42	0	103809024	22	4401
2026-01-03 08:15:30.09	85.17	11.37	-30.2	-32.3	11.6	5.97e-04	0	42	0	109051904	21	4579
2026-01-03 08:15:33.11	84.75	11.56	-30.3	-32.5	11.5	6.87e-04	0	42	0	115343360	21	4654
2026-01-03 08:15:36.13	84.33	11.76	-30.2	-32.3	11.6	5.97e-04	0	42	0	120586240	21	4569
2026-01-03 08:15:39.14	83.91	11.95	-30.2	-32.3	11.7	7.12e-04	0	42	0	126877696	21	4548
2026-01-03 08:15:42.17	83.47	12.14	-30.3	-32.5	11.6	8.48e-04	0	42	0	132120576	21	4630
2026-01-03 08:15:45.18	83.04	12.33	-30.4	-32.7	11.4	9.25e-04	0	42	0	137363456	21	4714
2026-01-03 08:15:48.20	82.59	12.52	-30.3	-32.5	11.6	7.54e-04	0	42	0	143654912	21	4620
2026-01-03 08:15:51.21	82.14	12.71	-30.3	-32.7	11.5	6.79e-04	0	42	0	148897792	21	4698
2026-01-03 08:15:54.23	81.69	12.90	-30.5	-33.0	11.2	1.38e-03	0	42	0	155189248	21	4835
2026-01-03 08:15:57.24	81.23	13.09	-30.6	-33.5	11.0	1.86e-03	0	42	0	160432128	21	5012
2026-01-03 08:16:00.25	80.76	13.28	-30.6	-33.5	10.8	2.85e-03	0	42	0	165675008	21	5034
2026-01-03 08:16:03.27	80.29	13.46	-30.6	-33.4	11.0	2.18e-03	0	42	0	171966464	21	4968
2026-01-03 08:16:06.28	79.81	13.65	-30.7	-33.8	10.7	2.39e-03	0	43	0	177209344	21	5124
2026-01-03 08:16:09.30	79.32	13.84	-30.4	-32.8	11.4	9.62e-04	0	42	0	183500800	21	4745
2026-01-03 08:16:12.32	78.83	14.03	-30.5	-33.0	11.3	8.15e-04	0	42	0	188743680	21	4810
2026-01-03 08:16:15.34	78.33	14.21	-30.7	-33.8	10.7	3.43e-03	0	42	0	193986560	21	5140
2026-01-03 08:16:18.36	77.82	14.40	-30.6	-33.5	11.0	1.78e-03	0	43	0	200278016	21	5000
2026-01-03 08:16:21.38	77.31	14.58	-30.5	-33.0	11.3	2.07e-03	0	42	0	205520896	21	4822
2026-01-03 08:16:24.39	76.79	14.77	-30.4	-32.7	11.6	5.88e-04	0	42	0	211812352	21	4684
2026-01-03 08:16:27.41	76.27	14.95	-30.1	-31.9	12.0	3.94e-04	0	42	0	217055232	21	4407
2026-01-03 08:16:30.43	75.74	15.13	-30.0	-31.6	12.4	2.20e-04	0	42	0	222298112	21	4310
2026-01-03 08:16:33.44	75.20	15.31	-29.8	-31.6	12.7	7.32e-05	0	43	0	228589568	20	4407
2026-01-03 08:16:36.45	74.66	15.49	-29.7	-31.3	12.9	2.97e-05	0	42	0	233832448	20	4311
2026-01-03 08:16:39.47	74.11	15.67	-29.6	-31.0	13.2	2.51e-05	0	43	0	239075328	20	4205
2026-01-03 08:16:42.48	73.55	15.84	-29.6	-30.9	13.2	1.37e-05	0	43	0	245366784	20	4154
2026-01-03 08:16:45.49	72.99	16.02	-29.4	-30.4	13.5	1.60e-05	0	43	0	250609664	20	4021
2026-01-03 08:16:48.51	72.42	16.19	-29.7	-31.1	13.1	2.51e-05	0	42	0	256901120	20	4238
2026-01-03 08:16:51.53	71.84	16.36	-29.7	-31.0	13.1	2.44e-05	0	43	0	262144000	20	4206
2026-01-03 08:16:54.55	71.26	16.53	-29.5	-30.7	13.3	1.98e-05	0	43	0	267386880	20	4117
2026-01-03 08:16:57.57	70.66	16.70	-29.3	-30.1	13.7	9.10e-06	0	43	0	273678336	20	3947
2026-01-03 08:17:00.58	70.07	16.87	-29.3	-30.3	14.0	7.00e-07	0	43	0	278921216	19	4082
2026-01-03 08:17:03.59	69.47	17.03	-29.5	-31.0	13.6	3.00e-06	0	43	0	285212672	19	4290
2026-01-03 08:17:06.61	68.86	17.19	-29.6	-31.3	13.5	1.98e-05	0	43	0	290455552	19	4355
2026-01-03 08:17:09.63	68.24	17.35	-29.7	-31.4	13.3	2.59e-05	0	43	0	295698432	19	4406
2026-01-03 08:17:12.65	67.61	17.51	-29.5	-31.1	13.6	8.30e-06	0	43	0	301989888	19	4291
2026-01-03 08:17:15.66	66.99	17.66	-29.3	-30.3	14.1	5.30e-06	0	43	0	307232768	19	4062
2026-01-03 08:17:18.69	66.35	17.82	-28.8	-29.6	14.9	0.00e+00	0	43	0	313524224	18	3935
2026-01-03 08:17:21.70	65.71	17.96	-28.6	-29.1	15.2	7.00e-07	0	43	0	318767104	18	3796
2026-01-03 08:17:24.72	65.06	18.11	-28.7	-29.3	15.1	0.00e+00	0	43	0	324009984	18	3847
2026-01-03 08:17:27.74	64.40	18.25	-28.8	-29.4	15.0	0.00e+00	0	43	0	330301440	18	3874
2026-01-03 08:17:30.76	63.74	18.39	-29.2	-30.5	14.4	0.00e+00	0	43	0	335544320	18	4175
2026-01-03 08:17:33.77	63.07	18.53	-29.3	-30.9	14.2	0.00e+00	0	43	0	341835776	18	4295
2026-01-03 08:17:36.78	62.40	18.66	-29.4	-30.6	14.0	6.10e-06	0	43	0	347078656	19	4130
2026-01-03 08:17:39.80	61.72	18.79	-29.2	-30.1	14.4	0.00e+00	0	43	0	352321536	19	3971
2026-01-03 08:17:42.81	61.04	18.92	-28.8	-29.1	15.0	0.00e+00	0	43	0	358612992	19	3717
2026-01-03 08:17:45.82	60.35	19.04	-28.5	-28.7	15.6	0.00e+00	0	43	0	363855872	18	3683
2026-01-03 08:17:48.82	59.65	19.16	-28.6	-28.9	15.4	0.00e+00	0	43	0	369098752	18	3728
2026-01-03 08:17:51.84	58.95	19.27	-28.5	-28.7	15.5	0.00e+00	0	43	0	375390208	18	3685
2026-01-03 08:17:54.86	58.24	19.39	-28.6	-29.1	15.4	0.00e+00	0	43	0	380633088	18	3777
2026-01-03 08:17:57.88	57.53	19.49	-29.1	-30.2	14.6	7.00e-07	0	43	0	386924544	18	4098
2026-01-03 08:18:00.90	56.81	19.60	-29.3	-30.7	14.3	2.20e-06	0	43	0	392167424	18	4245
2026-01-03 08:18:03.92	56.09	19.69	-30.0	-32.1	13.1	2.28e-05	0	43	0	397410304	19	4599
2026-01-03 08:18:06.93	55.37	19.79	-29.8	-31.1	13.4	2.28e-05	0	43	0	403701760	20	4189
2026-01-03 08:18:09.95	54.64	19.88	-30.0	-31.8	12.9	4.57e-05	0	43	0	408944640	20	4418
2026-01-03 08:18:12.97	53.90	19.96	-29.6	-30.6	13.6	6.80e-06	0	43	0	415236096	20	4049
2026-01-03 08:18:15.97	53.17	20.04	-29.4	-30.2	14.0	2.20e-06	0	43	0	420478976	20	3914
2026-01-03 08:18:18.99	52.42	20.12	-30.1	-31.9	12.8	1.60e-05	0	43	0	425721856	20	4453
2026-01-03 08:18:21.99	51.68	20.19	-29.9	-31.4	13.1	5.34e-05	0	43	0	432013312	20	4295
2026-01-03 08:18:25.00	50.93	20.25	-29.8	-31.3	13.3	1.52e-05	0	43	0	437256192	20	4249
2026-01-03 08:18:28.02	50.18	20.31	-30.0	-31.9	12.8	5.18e-05	0	43	0	443547648	20	4440
2026-01-03 08:18:31.02	49.43	20.37	-30.0	-31.9	12.8	3.66e-05	0	43	0	448790528	20	4455
2026-01-03 08:18:34.04	48.67	20.42	-29.7	-30.9	13.5	6.10e-06	0	43	0	454033408	20	4120
2026-01-03 08:18:37.06	47.91	20.47	-30.0	-31.8	12.8	2.97e-05	0	43	0	460324864	20	4427
2026-01-03 08:18:40.07	47.15	20.51	-30.2	-32.4	12.5	6.79e-05	0	43	0	465567744	20	4645
2026-01-03 08:18:43.09	46.38	20.54	-30.2	-32.3	12.6	1.68e-04	0	43	0	471859200	20	4588
2026-01-03 08:18:46.10	45.62	20.57	-30.2	-32.3	12.5	7.17e-05	0	43	0	477102080	20	4609
2026-01-03 08:18:49.12	44.85	20.59	-30.1	-32.0	12.7	8.31e-05	0	43	0	482344960	20	4507
2026-01-03 08:18:52.14	44.08	20.61	-29.8	-31.2	13.2	1.60e-05	0	43	0	488636416	20	4225
2026-01-03 08:18:55.16	43.31	20.63	-29.7	-30.9	13.5	1.06e-05	0	43	0	493879296	20	4150
2026-01-03 08:18:58.18	42.54	20.63	-29.4	-30.2	13.9	1.50e-06	0	43	0	500170752	20	3931
2026-01-03 08:19:01.20	41.77	20.64	-29.9	-31.4	13.1	1.90e-05	0	43	0	505413632	20	4283
2026-01-03 08:19:04.21	41.01	20.63	-30.0	-31.6	12.9	6.48e-05	0	43	0	510656512	20	4364
2026-01-03 08:19:07.24	40.23	20.62	-30.0	-31.8	12.8	4.42e-05	0	43	0	516947968	20	4426
2026-01-03 08:19:10.25	39.47	20.61	-29.4	-30.2	13.9	9.90e-06	0	43	0	522190848	20	3916
2026-01-03 08:19:13.26	38.70	20.59	-29.4	-30.5	14.1	0.00e+00	0	43	0	527433728	19	4077
2026-01-03 08:19:16.27	37.94	20.57	-29.5	-30.9	13.9	5.30e-06	0	43	0	533725184	19	4194
2026-01-03 08:19:19.29	37.17	20.54	-29.4	-30.4	14.2	1.50e-06	0	43	0	538968064	19	4054
2026-01-03 08:19:22.31	36.41	20.50	-29.4	-30.4	14.2	7.00e-07	0	43	0	545259520	19	4067
2026-01-03 08:19:25.33	35.65	20.46	-29.3	-30.3	14.2	0.00e+00	0	43	0	550502400	19	4037
2026-01-03 08:19:28.34	34.89	20.41	-28.7	-29.1	15.2	0.00e+00	0	43	0	555745280	18	3799
2026-01-03 08:19:31.35	34.13	20.36	-28.8	-29.4	15.1	0.00e+00	0	43	0	562036736	18	3863
2026-01-03 08:19:34.37	33.38	20.31	-28.8	-29.4	15.1	0.00e+00	0	43	0	567279616	18	3861
2026-01-03 08:19:37.38	32.63	20.24	-28.9	-29.6	14.9	0.00e+00	0	43	0	573571072	18	3930
2026-01-03 08:19:40.40	31.88	20.18	-28.7	-29.1	15.3	0.00e+00	0	43	0	578813952	18	3779
2026-01-03 08:19:43.41	31.14	20.11	-28.7	-29.2	15.1	0.00e+00	0	43	0	584056832	18	3824
2026-01-03 08:19:46.43	30.40	20.03	-28.7	-29.1	15.3	0.00e+00	0	43	0	590348288	18	3782
2026-01-03 08:19:49.44	29.66	19.95	-29.5	-30.8	13.9	2.20e-06	0	43	0	595591168	19	4176
2026-01-03 08:19:52.46	28.93	19.86	-29.8	-31.6	13.3	1.37e-05	0	43	0	601882624	19	4435
2026-01-03 08:19:55.47	28.20	19.77	-29.6	-31.1	13.7	3.00e-06	0	43	0	607125504	19	4254
2026-01-03 08:19:58.49	27.47	19.68	-29.8	-31.5	13.4	9.10e-06	0	43	0	612368384	19	4401
2026-01-03 08:20:01.51	26.75	19.58	-30.2	-32.4	12.4	1.06e-04	0	43	0	618659840	20	4620
2026-01-03 08:20:04.54	26.04	19.48	-30.6	-32.9	11.7	5.04e-04	0	43	0	623902720	21	4707
2026-01-03 08:20:07.55	25.33	19.37	-30.2	-31.7	12.5	1.46e-04	0	43	0	630194176	21	4284
2026-01-03 08:20:10.57	24.62	19.26	-29.7	-30.8	13.6	7.60e-06	0	43	0	635437056	20	4084
2026-01-03 08:20:13.58	23.93	19.14	-29.9	-31.4	13.0	1.37e-05	0	43	0	640679936	20	4299
2026-01-03 08:20:16.60	23.23	19.02	-29.6	-30.5	13.6	1.37e-05	0	43	0	646971392	20	4026
2026-01-03 08:20:19.61	22.54	18.90	-29.6	-30.5	13.6	8.30e-06	0	43	0	652214272	20	4021
2026-01-03 08:20:22.63	21.86	18.77	-29.3	-30.2	14.2	7.00e-07	0	43	0	658505728	19	3993
2026-01-03 08:20:25.63	21.19	18.64	-29.0	-29.6	14.5	0.00e+00	0	43	0	663748608	19	3847
2026-01-03 08:20:28.65	20.52	18.51	-29.0	-29.5	14.6	7.00e-07	0	43	0	668991488	19	3805
2026-01-03 08:20:31.67	19.85	18.37	-29.6	-31.0	13.6	3.00e-06	0	43	0	675282944	19	4252
2026-01-03 08:20:34.69	19.19	18.23	-30.2	-32.5	12.2	4.36e-04	0	43	0	680525824	20	4660
2026-01-03 08:20:37.71	18.54	18.09	-30.0	-31.8	12.6	6.71e-05	0	43	0	685768704	20	4441
2026-01-03 08:20:40.73	17.89	17.94	-30.3	-32.8	12.0	2.94e-04	0	43	0	692060160	20	4778
2026-01-03 08:20:43.75	17.25	17.79	-30.8	-33.8	10.9	2.25e-03	0	43	0	697303040	21	5071
2026-01-03 08:20:46.77	16.62	17.64	-30.6	-33.3	11.2	1.23e-03	0	43	0	703594496	21	4878
2026-01-03 08:20:49.78	15.99	17.49	-29.7	-30.9	13.2	6.25e-05	0	43	0	708837376	20	4155
2026-01-03 08:20:52.79	15.37	17.33	-29.7	-31.0	13.2	1.22e-05	0	43	0	714080256	20	4177
2026-01-03 08:20:55.82	14.76	17.17	-29.7	-30.9	13.3	2.44e-05	0	43	0	720371712	20	4135
2026-01-03 08:20:58.84	14.15	17.01	-30.1	-32.1	12.4	1.04e-04	0	43	0	725614592	20	4548
2026-01-03 08:21:01.85	13.55	16.85	-30.1	-32.3	12.3	1.39e-04	0	43	0	731906048	20	4593
2026-01-03 08:21:04.87	12.96	16.68	-29.5	-30.4	13.5	1.67e-05	0	43	0	737148928	20	3995
2026-01-03 08:21:07.88	12.37	16.51	-29.6	-30.9	13.1	1.67e-05	0	43	0	742391808	20	4159
2026-01-03 08:21:10.90	11.79	16.34	-30.5	-32.9	11.4	6.27e-04	0	43	0	748683264	21	4763
2026-01-03 08:21:13.91	11.22	16.17	-30.5	-32.9	11.4	8.60e-04	0	43	0	753926144	21	4757
2026-01-03 08:21:16.92	10.65	16.00	-30.0	-31.4	12.4	2.01e-04	0	43	0	760217600	21	4227
2026-01-03 08:21:19.94	10.09	15.82	-29.8	-31.2	12.8	5.11e-05	0	43	0	765460480	20	4253
2026-01-03 08:21:22.95	9.54	15.65	-29.7	-30.9	13.1	6.10e-05	0	43	0	770703360	20	4170
2026-01-03 08:21:25.96	8.99	15.47	-29.6	-30.8	13.2	2.21e-05	0	43	0	776994816	20	4128
2026-01-03 08:21:28.98	8.45	15.29	-29.8	-31.2	12.9	4.50e-05	0	43	0	782237696	20	4265
2026-01-03 08:21:31.99	7.92	15.11	-30.1	-32.3	12.2	2.25e-04	0	43	0	788529152	20	4624
2026-01-03 08:21:35.00	7.39	14.93	-30.0	-31.9	12.4	1.52e-04	0	43	0	793772032	20	4468
2026-01-03 08:21:38.02	6.87	14.75	-29.8	-31.4	12.7	9.23e-05	0	43	0	799014912	20	4318
2026-01-03 08:21:41.04	6.36	14.57	-29.8	-31.3	12.8	6.02e-05	0	43	0	805306368	20	4289
2026-01-03 08:21:44.05	5.85	14.38	-30.0	-31.9	12.4	1.38e-04	0	43	0	810549248	20	4489
2026-01-03 08:21:47.07	5.35	14.20	-30.0	-31.9	12.4	1.26e-04	0	43	0	815792128	20	4477
2026-01-03 08:21:50.09	4.85	14.01	-30.0	-31.9	12.4	1.02e-04	0	43	0	822083584	20	4479
2026-01-03 08:21:53.11	4.36	13.82	-29.6	-30.7	13.1	2.05e-05	0	43	0	827326464	20	4114
2026-01-03 08:21:56.13	3.88	13.64	-29.6	-30.8	13.1	3.28e-05	0	43	0	833617920	20	4119
2026-01-03 08:21:59.14	3.40	13.45	-29.1	-29.8	14.2	2.20e-06	0	43	0	838860800	19	3904
2026-01-03 08:22:02.16	2.93	13.26	-28.9	-29.3	14.4	0.00e+00	0	43	0	844103680	19	3783
2026-01-03 08:22:05.18	2.47	13.07	-29.3	-30.5	13.7	6.80e-06	0	43	0	850395136	19	4104
2026-01-03 08:22:08.20	2.01	12.88	-29.7	-31.5	13.0	2.28e-05	0	43	0	855638016	19	4430
2026-01-03 08:22:11.21	1.56	12.69	-29.8	-31.4	12.7	1.23e-04	0	43	0	861929472	20	4330
2026-01-03 08:22:14.22	1.11	12.51	-29.5	-30.6	13.2	2.05e-05	0	43	0	867172352	20	4053
2026-01-03 08:22:17.24	0.67	12.32	-29.1	-29.8	14.1	4.50e-06	0	43	0	872415232	19	3925
2026-01-03 08:22:20.27	0.24	12.12	-29.2	-30.0	14.0	1.50e-06	0	43	0	878706688	19	3980
2026-01-03 08:22:23.28	359.81	11.94	-29.4	-30.6	13.6	5.30e-06	0	43	0	883949568	19	4149
2026-01-03 08:22:26.29	359.39	11.75	-29.7	-31.4	13.0	3.12e-05	0	43	0	890241024	19	4409
2026-01-03 08:22:29.31	358.97	11.56	-29.8	-31.8	12.7	9.91e-05	0	43	0	895483904	19	4549
2026-01-03 08:22:32.34	358.55	11.36	-29.9	-32.2	12.5	9.91e-05	0	43	0	900726784	19	4658
2026-01-03 08:22:35.36	358.15	11.17	-29.6	-31.2	13.1	3.43e-05	0	43	0	907018240	19	4335
2026-01-03 08:22:38.38	357.74	10.98	-29.2	-30.1	13.8	1.06e-05	0	43	0	912261120	19	4007
2026-01-03 08:22:41.40	357.35	10.79	-28.9	-29.8	14.3	0.00e+00	0	43	0	918552576	18	4018
2026-01-03 08:22:44.42	356.96	10.60	-29.4	-31.3	13.4	8.30e-06	0	43	0	923795456	18	4471
2026-01-03 08:22:47.43	356.57	10.41	-30.0	-31.9	12.2	2.02e-04	0	43	0	929038336	20	4484
2026-01-03 08:22:50.45	356.19	10.22	-29.9	-31.7	12.3	2.34e-04	0	43	0	935329792	20	4431
2026-01-03 08:22:53.47	355.81	10.03	-30.0	-31.9	12.2	1.36e-04	0	43	0	940572672	20	4506
2026-01-03 08:22:56.48	355.44	9.85	-29.6	-31.0	12.8	8.31e-05	0	43	0	946864128	20	4198
2026-01-03 08:22:59.48	355.08	9.66	-29.7	-31.2	12.6	7.17e-05	0	43	0	952107008	20	4269
2026-01-03 08:23:02.47	354.72	9.47	-29.9	-31.8	12.2	1.66e-04	0	43	0	957349888	20	4479
2026-01-03 08:23:05.49	354.37	9.28	-29.9	-31.6	12.3	1.94e-04	0	43	0	963641344	20	4415
2026-01-03 08:23:08.51	354.02	9.10	-30.0	-32.2	11.8	4.09e-04	0	43	0	968884224	20	4618
2026-01-03 08:23:11.52	353.67	8.91	-30.2	-32.6	11.6	7.97e-04	0	43	0	975175680	20	4754
2026-01-03 08:23:14.54	353.33	8.72	-30.2	-32.9	11.3	1.17e-03	0	43	0	980418560	20	4878
2026-01-03 08:23:17.55	352.99	8.54	-30.0	-32.2	11.8	5.64e-04	0	43	0	985661440	20	4619
2026-01-03 08:23:20.58	352.66	8.35	-30.2	-32.8	11.3	7.21e-04	0	43	0	991952896	20	4868
2026-01-03 08:23:23.59	352.33	8.16	-30.5	-33.2	10.6	2.78e-03	0	43	0	997195776	21	4935
2026-01-03 08:23:26.62	352.00	7.98	-30.7	-33.9	10.1	7.44e-03	0	43	0	1003487232	21	5211
2026-01-03 08:23:29.64	351.68	7.79	-30.6	-33.5	10.4	6.35e-03	0	43	0	1008730112	21	5065
2026-01-03 08:23:32.65	351.36	7.61	-30.4	-33.0	10.8	3.47e-03	0	43	0	1013972992	21	4835
2026-01-03 08:23:35.67	351.05	7.42	-30.3	-32.5	11.1	1.36e-03	0	43	0	1020264448	21	4655
2026-01-03 08:23:38.68	350.74	7.24	-30.2	-32.3	11.2	1.68e-03	0	43	0	1025507328	21	4585
2026-01-03 08:23:41.69	350.44	7.06	-32.7	-44.3	3.7	1.22e-01	0	43	104	1030750208	25	13684

#Closed at: 2026-01-03 08:23:42
#Recorded file [1030 MB]: D:/data/31010_260103_111431.dat