passes_logs/2026/01/03/R2M6_AANII_01/R2M6_AANII_01__20260103_042138_FENGYUN_3D_rec.log

#Pass ID: 20260103_042138_FENGYUN 3D
#Satellite: FENGYUN 3D
#Configuration: FENGYUN 3D
#almurnet v.1.7.20240730
#Start time: 2026-01-03 04:21:38

#Version: 2.2.20231116
#Station: R2M6_AANII_01
#Location: 30.233357 lon 59.946436 lat
#TLE: 1 43010U 17072A   26002.31768531  .00000715  00000+0  35975-3 0  9993
#TLE: 2 43010  98.9910 333.9388 0001871 131.0716 229.0622 14.19693418421454

#Time	Az	El	Level	Level2	SNR	BER	BlckErr	Temp	State	Recorded	gain1	gain2
2026-01-03 04:21:38.68	10.92	6.99	-31.4	-37.4	4.3	8.33e-01	0	41	0	0	23	7261
2026-01-03 04:21:41.70	10.65	7.18	-30.6	-35.3	7.0	1.59e-01	0	40	0	5242880	21	6186
2026-01-03 04:21:44.72	10.37	7.37	-30.6	-35.3	7.0	1.50e-01	0	41	0	22020096	21	6185
2026-01-03 04:21:47.74	10.08	7.57	-29.6	-32.5	9.3	1.94e-02	0	41	0	39845888	20	5049
2026-01-03 04:21:50.74	9.80	7.76	-28.2	-30.2	11.9	4.36e-04	0	41	0	56623104	17	4552
2026-01-03 04:21:53.76	9.50	7.95	-27.1	-29.1	13.3	1.48e-05	0	41	0	73400320	14	4544
2026-01-03 04:21:56.79	9.21	8.15	-26.8	-28.8	13.8	6.80e-06	0	41	0	90177536	13	4553
2026-01-03 04:21:59.79	8.91	8.35	-26.5	-28.2	14.2	2.20e-06	0	41	0	106954752	13	4366
2026-01-03 04:22:02.80	8.60	8.54	-26.4	-28.5	14.3	0.00e+00	0	41	0	123731968	12	4576
2026-01-03 04:22:05.82	8.30	8.74	-26.4	-28.4	14.4	2.14e-04	0	41	0	140509184	12	4544
2026-01-03 04:22:08.85	7.98	8.94	-26.6	-28.5	14.1	1.10e-06	0	41	0	158334976	13	4459
2026-01-03 04:22:11.87	7.66	9.14	-26.2	-28.1	14.6	2.21e-04	0	42	0	175112192	12	4458
2026-01-03 04:22:14.89	7.34	9.34	-26.4	-28.3	14.5	1.90e-04	0	42	0	191889408	12	4530
2026-01-03 04:22:17.91	7.01	9.54	-26.3	-28.2	14.6	1.40e-04	0	42	0	208666624	12	4486
2026-01-03 04:22:20.92	6.68	9.74	-26.4	-28.6	14.4	1.38e-04	0	42	0	225443840	12	4589
2026-01-03 04:22:23.94	6.35	9.95	-26.6	-28.3	14.3	1.28e-04	0	42	0	243269632	13	4404
2026-01-03 04:22:26.95	6.01	10.15	-26.8	-28.9	13.9	2.31e-04	0	42	0	260046848	13	4589
2026-01-03 04:22:29.98	5.66	10.35	-26.5	-28.2	14.3	0.00e+00	0	42	0	276824064	13	4373
2026-01-03 04:22:32.99	5.31	10.56	-26.8	-28.8	14.1	3.00e-04	0	42	0	293601280	13	4536
2026-01-03 04:22:36.00	4.95	10.76	-26.3	-28.3	14.6	2.56e-04	0	42	0	310378496	12	4504
2026-01-03 04:22:39.03	4.59	10.97	-26.5	-28.2	14.4	0.00e+00	0	42	0	327155712	13	4366
2026-01-03 04:22:42.05	4.22	11.17	-26.3	-27.8	14.7	0.00e+00	0	42	0	344981504	13	4250
2026-01-03 04:22:45.07	3.85	11.38	-26.5	-28.6	14.5	0.00e+00	0	42	0	361758720	12	4589
2026-01-03 04:22:48.07	3.48	11.59	-26.2	-28.0	14.9	1.10e-06	0	42	0	378535936	12	4417
2026-01-03 04:22:51.09	3.09	11.79	-26.2	-28.0	14.9	0.00e+00	0	42	0	395313152	12	4403
2026-01-03 04:22:54.10	2.70	12.00	-25.9	-27.2	15.3	0.00e+00	0	42	0	412090368	12	4200
2026-01-03 04:22:57.12	2.31	12.21	-25.8	-27.4	15.6	2.17e-05	0	42	0	429916160	11	4369
2026-01-03 04:23:00.14	1.91	12.42	-25.7	-27.2	15.7	0.00e+00	0	42	0	446693376	11	4316
2026-01-03 04:23:03.16	1.50	12.63	-25.7	-27.4	15.6	6.17e-05	0	42	0	463470592	11	4363
2026-01-03 04:23:06.18	1.09	12.84	-25.8	-27.4	15.6	6.98e-05	0	42	0	480247808	11	4369
2026-01-03 04:23:09.20	0.67	13.05	-25.6	-27.1	15.8	2.71e-04	0	42	0	497025024	11	4287
2026-01-03 04:23:12.22	0.25	13.26	-25.5	-26.8	16.0	2.04e-04	0	42	0	514850816	11	4210
2026-01-03 04:23:15.23	359.82	13.47	-25.3	-26.9	16.2	2.51e-04	0	42	0	531628032	10	4347
2026-01-03 04:23:18.26	359.38	13.68	-24.6	-26.0	14.7	0.00e+00	0	42	0	548405248	10	4245
2026-01-03 04:23:21.27	358.94	13.89	-25.2	-26.8	16.2	0.00e+00	0	43	0	565182464	10	4300
2026-01-03 04:23:24.29	358.49	14.10	-25.3	-26.9	16.2	3.16e-04	0	43	0	581959680	10	4336
2026-01-03 04:23:27.32	358.03	14.32	-25.3	-27.0	16.2	1.37e-03	0	43	0	599785472	10	4353
2026-01-03 04:23:30.35	357.57	14.53	-25.4	-27.1	16.1	1.61e-03	0	43	0	616562688	10	4379
2026-01-03 04:23:33.36	357.10	14.74	-25.2	-26.7	16.4	0.00e+00	0	43	0	633339904	10	4272
2026-01-03 04:23:36.37	356.62	14.95	-25.2	-26.6	16.4	1.24e-03	0	43	0	650117120	10	4263
2026-01-03 04:23:39.38	356.14	15.16	-25.0	-26.3	16.6	1.24e-03	0	43	0	666894336	10	4182
2026-01-03 04:23:42.39	355.65	15.37	-24.9	-26.6	16.7	1.14e-03	0	43	0	684720128	9	4358
2026-01-03 04:23:45.42	355.15	15.58	-25.2	-26.6	16.4	1.08e-03	0	43	0	701497344	10	4261
2026-01-03 04:23:48.44	354.65	15.79	-24.9	-26.5	16.8	1.14e-03	0	43	0	718274560	9	4338
2026-01-03 04:23:51.45	354.13	16.00	-24.8	-26.4	16.8	0.00e+00	0	43	0	735051776	9	4309
2026-01-03 04:23:54.48	353.61	16.21	-24.8	-26.4	16.9	0.00e+00	0	43	0	751828992	9	4304
2026-01-03 04:23:57.50	353.09	16.41	-24.8	-26.3	16.9	8.44e-04	0	43	0	769654784	9	4284
2026-01-03 04:24:00.50	352.55	16.62	-25.0	-26.2	16.7	0.00e+00	0	43	0	786432000	10	4135
2026-01-03 04:24:03.51	352.01	16.83	-24.9	-26.1	16.8	0.00e+00	0	43	0	803209216	10	4108
2026-01-03 04:24:06.53	351.46	17.03	-24.7	-26.1	17.0	0.00e+00	0	43	0	819986432	9	4232
2026-01-03 04:24:09.55	350.91	17.23	-24.5	-25.6	16.1	0.00e+00	0	43	0	836763648	9	4113
2026-01-03 04:24:12.57	350.34	17.44	-24.7	-26.1	17.0	0.00e+00	0	43	0	853540864	9	4222
2026-01-03 04:24:15.59	349.77	17.64	-24.8	-26.3	17.0	0.00e+00	0	43	0	871366656	9	4276
2026-01-03 04:24:18.61	349.19	17.84	-24.2	-25.6	17.6	2.86e-04	0	43	0	888143872	8	4207
2026-01-03 04:24:21.62	348.60	18.04	-24.2	-25.6	17.6	0.00e+00	0	43	0	904921088	8	4216
2026-01-03 04:24:24.64	348.01	18.24	-24.3	-25.7	17.5	4.80e-05	0	43	0	921698304	8	4251
2026-01-03 04:24:27.66	347.40	18.43	-24.6	-25.9	17.2	0.00e+00	0	43	0	938475520	9	4185
2026-01-03 04:24:30.68	346.79	18.63	-24.3	-25.1	17.6	0.00e+00	0	43	0	955252736	9	3987
2026-01-03 04:24:33.70	346.17	18.82	-24.1	-24.8	17.8	4.50e-06	0	43	0	973078528	9	3913
2026-01-03 04:24:36.71	345.54	19.01	-24.1	-25.4	17.8	0.00e+00	0	43	0	989855744	8	4155
2026-01-03 04:24:39.73	344.91	19.20	-24.2	-25.5	17.5	0.00e+00	0	43	0	1006632960	8	4174
2026-01-03 04:24:42.75	344.26	19.38	-24.1	-25.3	17.8	4.50e-04	0	43	0	1023410176	8	4142
2026-01-03 04:24:45.77	343.61	19.57	-24.4	-25.9	17.5	0.00e+00	0	43	0	1040187392	8	4283
2026-01-03 04:24:48.78	342.95	19.75	-24.0	-25.0	17.9	0.00e+00	0	43	0	1058013184	8	4070
2026-01-03 04:24:51.80	342.28	19.92	-23.9	-24.9	18.0	1.51e-03	0	43	0	1074790400	8	4033
2026-01-03 04:24:54.82	341.61	20.10	-23.8	-25.3	18.1	1.53e-03	0	43	0	1091567616	7	4241
2026-01-03 04:24:57.83	340.93	20.27	-23.8	-25.1	18.2	0.00e+00	0	43	0	1108344832	7	4208
2026-01-03 04:25:00.84	340.24	20.44	-24.4	-25.9	17.5	1.78e-03	0	43	0	1125122048	8	4296
2026-01-03 04:25:03.87	339.54	20.60	-23.8	-24.7	18.1	1.49e-03	0	43	0	1142947840	8	3996
2026-01-03 04:25:06.89	338.83	20.76	-24.2	-25.5	17.8	0.00e+00	0	43	0	1159725056	8	4180
2026-01-03 04:25:09.91	338.12	20.92	-23.7	-25.0	18.3	1.44e-03	0	43	0	1176502272	7	4161
2026-01-03 04:25:12.93	337.39	21.08	-24.0	-25.2	18.0	1.54e-03	0	43	0	1193279488	8	4100
2026-01-03 04:25:15.93	336.67	21.23	-23.8	-25.1	18.2	0.00e+00	0	43	0	1210056704	7	4204
2026-01-03 04:25:18.96	335.93	21.37	-23.4	-24.4	18.6	0.00e+00	0	43	0	1227882496	7	4007
2026-01-03 04:25:21.98	335.19	21.52	-23.8	-25.1	18.2	1.37e-03	0	43	0	1244659712	7	4207
2026-01-03 04:25:24.99	334.44	21.65	-23.3	-24.5	18.8	0.00e+00	0	43	0	1261436928	6	4161
2026-01-03 04:25:28.01	333.69	21.79	-23.1	-24.3	18.9	0.00e+00	0	43	0	1278214144	6	4099
2026-01-03 04:25:31.03	332.92	21.92	-23.1	-24.1	19.0	0.00e+00	0	43	0	1294991360	6	4067
2026-01-03 04:25:34.05	332.15	22.04	-23.0	-24.0	19.0	0.00e+00	0	43	0	1312817152	6	4045
2026-01-03 04:25:37.05	331.38	22.16	-23.2	-24.5	18.8	0.00e+00	0	43	0	1329594368	6	4158
2026-01-03 04:25:40.05	330.61	22.27	-23.0	-24.1	19.0	0.00e+00	0	43	0	1346371584	6	4046
2026-01-03 04:25:43.07	329.82	22.38	-23.1	-24.2	19.0	0.00e+00	0	43	0	1363148800	6	4078
2026-01-03 04:25:46.08	329.03	22.48	-23.0	-23.9	19.1	0.00e+00	0	43	0	1379926016	6	4018
2026-01-03 04:25:49.10	328.23	22.58	-23.1	-24.3	18.9	0.00e+00	0	43	0	1396703232	6	4102
2026-01-03 04:25:52.12	327.43	22.67	-23.1	-24.2	19.0	0.00e+00	0	43	0	1413480448	6	4075
2026-01-03 04:25:55.13	326.63	22.76	-23.2	-24.3	18.9	0.00e+00	0	43	0	1431306240	6	4103
2026-01-03 04:25:58.15	325.82	22.84	-23.0	-24.0	19.1	0.00e+00	0	43	0	1448083456	6	4043
2026-01-03 04:26:01.16	325.00	22.91	-23.0	-24.0	19.0	0.00e+00	0	43	0	1464860672	6	4044
2026-01-03 04:26:04.18	324.18	22.98	-22.9	-23.8	19.2	0.00e+00	0	43	0	1481637888	6	3978
2026-01-03 04:26:07.20	323.36	23.04	-22.6	-23.7	16.5	0.00e+00	0	43	0	1498415104	5	4080
2026-01-03 04:26:10.23	322.53	23.10	-22.6	-23.6	19.5	0.00e+00	0	43	0	1516240896	5	4052
2026-01-03 04:26:13.25	321.70	23.15	-22.8	-24.0	19.3	0.00e+00	0	43	0	1533018112	5	4141
2026-01-03 04:26:16.26	320.87	23.19	-22.8	-24.1	19.3	5.94e-04	0	43	0	1549795328	5	4167
2026-01-03 04:26:19.28	320.04	23.23	-22.8	-24.0	19.3	0.00e+00	0	43	0	1566572544	5	4160
2026-01-03 04:26:22.29	319.21	23.26	-22.9	-24.2	19.2	0.00e+00	0	43	0	1583349760	5	4206
2026-01-03 04:26:25.30	318.37	23.28	-22.8	-24.0	19.3	3.52e-04	0	43	0	1600126976	5	4134
2026-01-03 04:26:28.32	317.53	23.30	-22.8	-24.0	19.3	4.34e-04	0	43	0	1617952768	5	4143
2026-01-03 04:26:31.34	316.69	23.31	-22.7	-23.8	19.4	0.00e+00	0	43	0	1634729984	5	4099
2026-01-03 04:26:34.35	315.86	23.31	-22.5	-23.5	19.6	3.12e-04	0	43	0	1651507200	5	4030
2026-01-03 04:26:37.38	315.02	23.31	-22.8	-24.0	19.3	2.31e-04	0	43	0	1668284416	5	4132
2026-01-03 04:26:40.40	314.18	23.30	-22.9	-23.9	19.2	0.00e+00	0	43	0	1685061632	6	3999
2026-01-03 04:26:43.41	313.34	23.28	-23.3	-24.5	18.8	0.00e+00	0	43	0	1702887424	6	4157
2026-01-03 04:26:46.42	312.51	23.26	-23.4	-24.2	18.8	0.00e+00	0	43	0	1719664640	7	3969
2026-01-03 04:26:49.44	311.67	23.23	-23.8	-25.2	18.2	0.00e+00	0	43	0	1736441856	7	4220
2026-01-03 04:26:52.46	310.83	23.20	-23.6	-24.2	18.5	0.00e+00	0	43	0	1753219072	8	3873
2026-01-03 04:26:55.48	310.00	23.15	-22.6	-23.1	19.6	0.00e+00	0	43	0	1769996288	6	3818
2026-01-03 04:26:58.50	309.17	23.11	-22.8	-24.1	19.2	0.00e+00	0	43	0	1787822080	5	4174
2026-01-03 04:27:01.53	308.34	23.05	-22.9	-24.2	19.2	0.00e+00	0	43	0	1804599296	5	4196
2026-01-03 04:27:04.55	307.52	22.99	-22.8	-24.1	19.2	0.00e+00	0	43	0	1821376512	5	4180
2026-01-03 04:27:07.57	306.70	22.92	-22.6	-23.6	19.5	0.00e+00	0	43	0	1838153728	5	4047
2026-01-03 04:27:10.59	305.88	22.85	-22.7	-23.9	19.3	0.00e+00	0	43	0	1854930944	5	4121
2026-01-03 04:27:13.62	305.06	22.77	-22.8	-24.0	19.3	0.00e+00	0	43	0	1872756736	5	4143
2026-01-03 04:27:16.63	304.26	22.68	-22.7	-23.9	19.3	0.00e+00	0	43	0	1889533952	5	4112
2026-01-03 04:27:19.64	303.45	22.59	-22.9	-24.3	19.1	0.00e+00	0	43	0	1906311168	5	4225
2026-01-03 04:27:22.65	302.66	22.50	-22.7	-23.9	19.3	0.00e+00	0	43	0	1923088384	5	4112
2026-01-03 04:27:25.66	301.86	22.39	-22.8	-23.5	19.3	0.00e+00	0	43	0	1939865600	6	3920
2026-01-03 04:27:28.68	301.08	22.29	-22.9	-24.3	19.1	0.00e+00	0	43	0	1957691392	5	4220
2026-01-03 04:27:31.70	300.29	22.17	-23.0	-24.4	19.0	9.38e-05	0	43	0	1974468608	5	4257
2026-01-03 04:27:34.71	299.52	22.06	-22.9	-23.7	19.2	3.07e-04	0	43	0	1991245824	6	3962
2026-01-03 04:27:37.73	298.74	21.93	-23.0	-24.4	19.1	1.40e-04	0	43	0	2008023040	5	4245
2026-01-03 04:27:40.75	297.98	21.81	-23.0	-23.9	19.1	1.80e-03	0	43	0	2024800256	6	4006
2026-01-03 04:27:43.77	297.22	21.67	-22.9	-23.8	19.1	1.66e-03	0	43	0	2042626048	6	3987
2026-01-03 04:27:46.79	296.47	21.53	-22.9	-23.8	19.1	1.68e-03	0	43	0	2059403264	6	3983
2026-01-03 04:27:49.81	295.72	21.39	-22.9	-23.8	19.1	1.47e-03	0	43	0	2076180480	6	3991
2026-01-03 04:27:52.83	294.98	21.25	-22.9	-23.9	19.1	1.28e-03	0	43	0	2092957696	6	4005
2026-01-03 04:27:55.86	294.25	21.10	-23.2	-24.4	18.8	0.00e+00	0	43	0	2109734912	6	4129
2026-01-03 04:27:58.87	293.53	20.94	-23.5	-24.6	18.4	1.23e-03	0	43	0	2127560704	7	4066
2026-01-03 04:28:01.89	292.81	20.78	-23.5	-24.4	18.5	1.11e-03	0	43	0	2144337920	7	4034
2026-01-03 04:28:04.90	292.10	20.62	-23.0	-24.0	19.0	0.00e+00	0	43	0	2161115136	6	4031
2026-01-03 04:28:07.92	291.40	20.46	-23.1	-24.3	18.8	0.00e+00	0	43	0	2177892352	6	4115
2026-01-03 04:28:10.93	290.71	20.29	-23.1	-24.3	18.8	9.85e-04	0	43	0	2194669568	6	4106
2026-01-03 04:28:13.96	290.02	20.12	-23.5	-25.0	18.4	0.00e+00	0	43	0	2211446784	6	4281
2026-01-03 04:28:16.98	289.34	19.94	-23.4	-24.7	18.6	0.00e+00	0	43	0	2229272576	6	4217
2026-01-03 04:28:20.00	288.66	19.76	-23.7	-25.0	18.2	0.00e+00	0	43	0	2246049792	7	4176
2026-01-03 04:28:23.02	288.00	19.58	-23.4	-24.3	18.5	0.00e+00	0	43	0	2262827008	7	4005
2026-01-03 04:28:26.04	287.35	19.40	-23.5	-24.6	18.4	0.00e+00	0	43	0	2279604224	7	4064
2026-01-03 04:28:29.05	286.70	19.22	-23.7	-24.9	18.2	0.00e+00	0	43	0	2296381440	7	4154
2026-01-03 04:28:32.08	286.06	19.03	-23.6	-24.8	18.2	0.00e+00	0	43	0	2314207232	7	4118
2026-01-03 04:28:35.10	285.43	18.84	-23.7	-25.1	18.1	0.00e+00	0	43	0	2330984448	7	4188
2026-01-03 04:28:38.12	284.80	18.64	-23.7	-25.0	18.1	0.00e+00	0	43	0	2347761664	7	4187
2026-01-03 04:28:41.14	284.19	18.45	-23.9	-25.4	17.9	0.00e+00	0	43	0	2364538880	7	4290
2026-01-03 04:28:44.16	283.58	18.25	-23.8	-25.2	17.9	0.00e+00	0	43	0	2381316096	7	4254
2026-01-03 04:28:47.17	282.98	18.06	-24.5	-25.7	16.8	0.00e+00	0	43	0	2399141888	9	4122
2026-01-03 04:28:50.20	282.39	17.85	-24.5	-25.6	17.2	0.00e+00	0	43	0	2415919104	9	4102
2026-01-03 04:28:53.20	281.80	17.65	-24.4	-26.0	17.3	1.14e-03	0	43	0	2432696320	8	4335
2026-01-03 04:28:56.22	281.23	17.45	-24.0	-25.1	17.8	3.51e-04	0	43	0	2449473536	8	4092
2026-01-03 04:28:59.24	280.66	17.25	-24.0	-25.0	17.8	0.00e+00	0	43	0	2466250752	8	4072
2026-01-03 04:29:02.26	280.10	17.04	-24.1	-25.3	17.6	2.51e-05	0	43	0	2483027968	8	4139
2026-01-03 04:29:05.27	279.55	16.84	-23.8	-25.1	18.0	1.36e-03	0	43	0	2500853760	7	4191
2026-01-03 04:29:08.29	279.00	16.63	-24.0	-25.6	17.7	1.19e-03	0	43	0	2517630976	7	4321
2026-01-03 04:29:11.31	278.46	16.42	-24.3	-25.9	17.3	1.48e-03	0	43	0	2534408192	8	4284
2026-01-03 04:29:14.33	277.93	16.21	-24.2	-25.6	17.5	1.02e-03	0	43	0	2551185408	8	4209
2026-01-03 04:29:17.36	277.41	16.00	-24.4	-25.6	17.2	1.38e-03	0	43	0	2567962624	9	4102
2026-01-03 04:29:20.37	276.89	15.80	-24.3	-25.8	17.4	0.00e+00	0	43	0	2585788416	8	4266
2026-01-03 04:29:23.39	276.38	15.59	-24.3	-25.8	17.4	1.35e-03	0	43	0	2602565632	8	4259
2026-01-03 04:29:26.42	275.88	15.37	-24.4	-26.0	17.2	0.00e+00	0	43	0	2619342848	8	4327
2026-01-03 04:29:29.42	275.39	15.16	-24.5	-25.7	17.1	0.00e+00	0	43	0	2636120064	9	4143
2026-01-03 04:29:32.44	274.90	14.95	-24.8	-26.2	16.8	0.00e+00	0	43	0	2652897280	9	4271
2026-01-03 04:29:35.45	274.42	14.74	-24.8	-26.5	16.7	0.00e+00	0	43	0	2669674496	9	4332
2026-01-03 04:29:38.46	273.95	14.53	-24.8	-26.4	16.7	2.20e-06	0	43	0	2687500288	9	4309
2026-01-03 04:29:41.49	273.48	14.32	-24.9	-26.6	16.6	1.10e-06	0	43	0	2704277504	9	4356
2026-01-03 04:29:44.52	273.02	14.10	-24.7	-26.2	16.8	0.00e+00	0	43	0	2721054720	9	4249
2026-01-03 04:29:47.54	272.57	13.89	-24.7	-26.1	16.8	1.10e-06	0	43	0	2737831936	9	4239
2026-01-03 04:29:50.57	272.12	13.68	-24.9	-26.6	16.6	3.40e-06	0	43	0	2754609152	9	4358
2026-01-03 04:29:53.59	271.68	13.47	-24.9	-26.6	16.6	0.00e+00	0	43	0	2772434944	9	4368
2026-01-03 04:29:56.61	271.24	13.26	-25.2	-26.7	16.2	0.00e+00	0	43	0	2789212160	10	4295
2026-01-03 04:29:59.62	270.82	13.05	-25.0	-26.3	16.4	0.00e+00	0	43	0	2805989376	10	4188
2026-01-03 04:30:02.63	270.40	12.84	-25.0	-26.3	16.4	0.00e+00	0	43	0	2822766592	10	4173
2026-01-03 04:30:05.65	269.98	12.62	-25.0	-26.3	16.4	0.00e+00	0	43	0	2839543808	10	4186
2026-01-03 04:30:08.68	269.57	12.41	-25.2	-26.6	16.3	0.00e+00	0	43	0	2857369600	10	4261
2026-01-03 04:30:11.70	269.16	12.20	-25.2	-26.8	16.1	0.00e+00	0	43	0	2874146816	10	4311
2026-01-03 04:30:14.70	268.77	12.00	-25.3	-26.9	16.0	0.00e+00	0	43	0	2890924032	10	4347
2026-01-03 04:30:17.71	268.38	11.79	-25.4	-27.2	15.9	2.40e-05	0	43	0	2907701248	10	4432
2026-01-03 04:30:20.73	267.99	11.58	-25.7	-27.4	15.5	2.92e-04	0	43	0	2924478464	11	4368
2026-01-03 04:30:23.75	267.61	11.37	-25.7	-27.3	15.5	0.00e+00	0	43	0	2942304256	11	4342
2026-01-03 04:30:26.78	267.23	11.16	-25.6	-27.0	15.6	8.85e-04	0	43	0	2959081472	11	4261
2026-01-03 04:30:29.79	266.86	10.96	-25.9	-27.7	15.2	9.41e-04	0	43	0	2975858688	11	4458
2026-01-03 04:30:32.82	266.50	10.75	-25.7	-27.3	15.4	0.00e+00	0	43	0	2992635904	11	4340
2026-01-03 04:30:35.84	266.14	10.54	-25.7	-27.3	15.4	9.69e-04	0	43	0	3009413120	11	4343
2026-01-03 04:30:38.86	265.78	10.34	-25.8	-27.6	15.3	4.94e-04	0	43	0	3027238912	11	4419
2026-01-03 04:30:41.88	265.43	10.13	-25.9	-27.8	15.1	0.00e+00	0	43	0	3044016128	11	4494
2026-01-03 04:30:44.89	265.09	9.93	-26.0	-27.5	15.0	0.00e+00	0	43	0	3060793344	12	4291
2026-01-03 04:30:47.91	264.75	9.73	-26.0	-27.5	14.9	7.13e-04	0	43	0	3077570560	12	4292
2026-01-03 04:30:50.93	264.41	9.52	-26.0	-27.6	14.8	0.00e+00	0	43	0	3095396352	12	4306
2026-01-03 04:30:53.94	264.09	9.32	-26.2	-28.0	14.6	0.00e+00	0	43	0	3112173568	12	4431
2026-01-03 04:30:56.96	263.76	9.12	-26.2	-28.1	14.5	0.00e+00	0	43	0	3128950784	12	4474
2026-01-03 04:30:59.99	263.44	8.92	-26.1	-27.9	14.6	0.00e+00	0	43	0	3145728000	12	4399
2026-01-03 04:31:02.98	263.12	8.72	-26.3	-28.2	14.4	0.00e+00	0	43	0	3162505216	12	4508
2026-01-03 04:31:06.00	262.81	8.52	-26.1	-27.9	14.5	0.00e+00	0	43	0	3179282432	12	4425
2026-01-03 04:31:09.01	262.50	8.33	-26.2	-28.0	14.5	0.00e+00	0	43	0	3196059648	12	4440
2026-01-03 04:31:12.03	262.20	8.13	-26.3	-28.4	14.2	0.00e+00	0	43	0	3213885440	12	4552
2026-01-03 04:31:15.05	261.90	7.93	-26.4	-28.5	14.2	0.00e+00	0	43	0	3230662656	12	4583
2026-01-03 04:31:18.08	261.60	7.74	-26.5	-28.4	13.9	1.10e-06	0	43	0	3247439872	13	4439
2026-01-03 04:31:21.10	261.31	7.54	-26.7	-28.8	13.6	4.50e-06	0	43	0	3264217088	13	4584
2026-01-03 04:31:24.11	261.03	7.35	-26.6	-28.6	13.7	0.00e+00	0	43	0	3280994304	13	4502
2026-01-03 04:31:27.13	260.74	7.15	-26.5	-28.7	11.3	0.00e+00	0	43	0	3298820096	12	4660
2026-01-03 04:31:30.14	260.46	6.96	-32.8	-44.2	3.8	8.46e-01	0	43	104	3305111552	25	13346

#Closed at: 2026-01-03 04:31:30
#Recorded file [3305 MB]: D:/data/31010_260103_072140.dat