passes_logs/2026/01/03/R2M6_AANII_01/R2M6_AANII_01__20260103_141618_FENGYUN_3D_rec.log

#Pass ID: 20260103_141618_FENGYUN 3D
#Satellite: FENGYUN 3D
#Configuration: FENGYUN 3D
#almurnet v.1.7.20240730
#Start time: 2026-01-03 14:16:18

#Version: 2.2.20231116
#Station: R2M6_AANII_01
#Location: 30.233357 lon 59.946436 lat
#TLE: 1 43010U 17072A   26002.95198047  .00000207  00000+0  11963-3 0  9999
#TLE: 2 43010  98.9912 334.5826 0001910 130.7105 229.4237 14.19692231421540

#Time	Az	El	Level	Level2	SNR	BER	BlckErr	Temp	State	Recorded	gain1	gain2
2026-01-03 14:16:18.47	224.85	7.01	-28.6	-30.6	5.6	7.56e-01	0	40	0	0	18	4535
2026-01-03 14:16:21.47	225.19	7.18	-28.3	-30.3	12.1	1.69e-04	0	41	0	5242880	17	4545
2026-01-03 14:16:24.49	225.53	7.35	-27.9	-29.4	12.6	7.78e-05	0	41	0	22020096	17	4281
2026-01-03 14:16:27.50	225.88	7.52	-27.8	-29.6	12.9	4.23e-05	0	41	0	38797312	16	4435
2026-01-03 14:16:30.52	226.23	7.69	-26.8	-28.2	14.1	0.00e+00	0	41	0	56623104	14	4260
2026-01-03 14:16:33.54	226.59	7.86	-26.6	-27.9	14.4	0.00e+00	0	41	0	73400320	14	4168
2026-01-03 14:16:36.55	226.95	8.03	-26.8	-28.4	14.1	0.00e+00	0	41	0	90177536	14	4302
2026-01-03 14:16:39.57	227.31	8.20	-26.6	-27.9	14.4	1.10e-06	0	41	0	106954752	14	4183
2026-01-03 14:16:42.58	227.68	8.37	-26.5	-27.6	14.5	0.00e+00	0	41	0	123731968	14	4096
2026-01-03 14:16:45.60	228.05	8.54	-26.3	-27.1	14.9	0.00e+00	0	41	0	140509184	14	3958
2026-01-03 14:16:48.61	228.43	8.71	-26.0	-27.0	15.2	1.10e-06	0	41	0	158334976	13	4046
2026-01-03 14:16:51.62	228.81	8.88	-26.2	-27.4	15.0	0.00e+00	0	42	0	175112192	13	4140
2026-01-03 14:16:54.65	229.20	9.05	-26.2	-27.3	15.0	0.00e+00	0	42	0	191889408	13	4128
2026-01-03 14:16:57.66	229.59	9.23	-26.4	-27.9	14.7	0.00e+00	0	42	0	208666624	13	4289
2026-01-03 14:17:00.67	229.98	9.40	-26.4	-27.9	14.8	1.10e-06	0	42	0	225443840	13	4284
2026-01-03 14:17:03.68	230.38	9.57	-26.4	-28.0	14.7	0.00e+00	0	42	0	243269632	13	4289
2026-01-03 14:17:06.69	230.78	9.74	-26.3	-27.6	14.9	0.00e+00	0	42	0	260046848	13	4209
2026-01-03 14:17:09.72	231.19	9.91	-26.3	-27.6	15.0	0.00e+00	0	42	0	276824064	13	4187
2026-01-03 14:17:12.74	231.60	10.08	-26.2	-27.5	15.1	0.00e+00	0	42	0	293601280	13	4166
2026-01-03 14:17:15.75	232.02	10.25	-26.1	-27.2	15.2	0.00e+00	0	42	0	310378496	13	4082
2026-01-03 14:17:18.76	232.44	10.42	-26.3	-27.6	15.0	0.00e+00	0	42	0	327155712	13	4174
2026-01-03 14:17:21.78	232.87	10.60	-26.1	-27.2	15.3	0.00e+00	0	42	0	344981504	13	4072
2026-01-03 14:17:24.79	233.30	10.77	-25.9	-26.8	15.5	0.00e+00	0	42	0	361758720	13	3982
2026-01-03 14:17:27.81	233.74	10.94	-25.7	-26.8	15.8	0.00e+00	0	42	0	378535936	12	4077
2026-01-03 14:17:30.83	234.18	11.11	-25.6	-26.6	15.9	0.00e+00	0	42	0	395313152	12	4037
2026-01-03 14:17:33.84	234.62	11.28	-25.8	-26.9	15.7	0.00e+00	0	42	0	412090368	12	4120
2026-01-03 14:17:36.87	235.08	11.45	-25.8	-27.0	15.7	0.00e+00	0	42	0	428867584	12	4124
2026-01-03 14:17:39.88	235.53	11.61	-25.7	-26.9	15.7	0.00e+00	0	42	0	446693376	12	4106
2026-01-03 14:17:42.90	235.99	11.78	-25.9	-27.2	15.6	0.00e+00	0	42	0	463470592	12	4196
2026-01-03 14:17:45.92	236.46	11.95	-26.2	-27.9	15.2	0.00e+00	0	42	0	480247808	12	4382
2026-01-03 14:17:48.94	236.93	12.12	-26.1	-27.6	15.3	0.00e+00	0	43	0	497025024	12	4298
2026-01-03 14:17:51.95	237.41	12.29	-25.9	-27.2	15.6	0.00e+00	0	43	0	513802240	12	4195
2026-01-03 14:17:54.97	237.89	12.45	-25.9	-27.3	15.6	0.00e+00	0	42	0	531628032	12	4209
2026-01-03 14:17:57.99	238.38	12.62	-25.5	-26.4	16.1	0.00e+00	0	43	0	548405248	12	3978
2026-01-03 14:18:01.01	238.87	12.78	-25.6	-26.5	16.1	0.00e+00	0	43	0	565182464	12	3994
2026-01-03 14:18:04.03	239.37	12.95	-25.6	-26.4	16.1	0.00e+00	0	43	0	581959680	12	3987
2026-01-03 14:18:07.06	239.88	13.11	-25.5	-26.3	16.2	0.00e+00	0	43	0	598736896	12	3946
2026-01-03 14:18:10.08	240.39	13.27	-25.5	-26.4	16.0	2.20e-06	0	43	0	616562688	12	3981
2026-01-03 14:18:13.09	240.90	13.43	-25.4	-26.2	16.2	2.20e-06	0	43	0	633339904	12	3935
2026-01-03 14:18:16.10	241.42	13.59	-25.2	-26.0	16.7	0.00e+00	0	43	0	650117120	11	3988
2026-01-03 14:18:19.12	241.95	13.75	-25.3	-26.3	16.5	0.00e+00	0	43	0	666894336	11	4063
2026-01-03 14:18:22.14	242.48	13.91	-25.3	-26.3	16.6	0.00e+00	0	43	0	683671552	11	4053
2026-01-03 14:18:25.15	243.01	14.06	-25.2	-26.1	16.7	0.00e+00	0	43	0	700448768	11	4010
2026-01-03 14:18:28.17	243.56	14.22	-25.2	-26.1	16.7	0.00e+00	0	43	0	718274560	11	3996
2026-01-03 14:18:31.19	244.10	14.37	-25.2	-26.0	16.7	0.00e+00	0	43	0	735051776	11	3987
2026-01-03 14:18:34.21	244.66	14.52	-25.1	-25.9	16.8	0.00e+00	0	43	0	751828992	11	3949
2026-01-03 14:18:37.22	245.22	14.67	-25.0	-25.6	17.0	0.00e+00	0	43	0	768606208	11	3882
2026-01-03 14:18:40.24	245.78	14.82	-25.0	-25.7	17.0	0.00e+00	0	43	0	785383424	11	3904
2026-01-03 14:18:43.26	246.35	14.97	-25.0	-25.8	16.9	0.00e+00	0	43	0	803209216	11	3925
2026-01-03 14:18:46.28	246.92	15.12	-25.1	-26.0	16.8	0.00e+00	0	43	0	819986432	11	3970
2026-01-03 14:18:49.30	247.51	15.26	-25.3	-26.4	16.6	0.00e+00	0	43	0	836763648	11	4076
2026-01-03 14:18:52.32	248.09	15.40	-25.3	-26.3	16.7	0.00e+00	0	43	0	853540864	11	4059
2026-01-03 14:18:55.33	248.68	15.54	-25.1	-26.0	16.8	0.00e+00	0	43	0	870318080	11	3972
2026-01-03 14:18:58.35	249.28	15.68	-25.4	-26.5	16.6	0.00e+00	0	43	0	888143872	11	4109
2026-01-03 14:19:01.35	249.88	15.81	-24.9	-25.5	17.1	0.00e+00	0	43	0	904921088	11	3859
2026-01-03 14:19:04.37	250.48	15.95	-24.8	-25.7	17.2	0.00e+00	0	43	0	921698304	10	4006
2026-01-03 14:19:07.39	251.10	16.08	-24.8	-25.8	17.2	0.00e+00	0	43	0	938475520	10	4024
2026-01-03 14:19:10.40	251.71	16.20	-24.9	-26.0	17.1	0.00e+00	0	43	0	955252736	10	4091
2026-01-03 14:19:13.43	252.34	16.33	-25.0	-26.2	17.0	0.00e+00	0	43	0	973078528	10	4133
2026-01-03 14:19:16.44	252.96	16.45	-25.2	-26.7	16.8	0.00e+00	0	43	0	989855744	10	4253
2026-01-03 14:19:19.45	253.59	16.57	-24.9	-26.1	17.1	0.00e+00	0	43	0	1006632960	10	4098
2026-01-03 14:19:22.46	254.23	16.69	-24.9	-26.0	17.2	0.00e+00	0	43	0	1023410176	10	4070
2026-01-03 14:19:25.47	254.87	16.81	-25.1	-26.3	17.0	0.00e+00	0	43	0	1040187392	10	4173
2026-01-03 14:19:28.49	255.52	16.92	-24.6	-25.4	17.5	0.00e+00	0	43	0	1056964608	10	3941
2026-01-03 14:19:31.51	256.17	17.03	-24.7	-25.5	17.4	0.00e+00	0	43	0	1073741824	10	3963
2026-01-03 14:19:34.52	256.82	17.13	-24.6	-25.2	17.6	0.00e+00	0	43	0	1091567616	10	3895
2026-01-03 14:19:37.54	257.48	17.23	-24.4	-25.0	17.7	0.00e+00	0	43	0	1108344832	10	3833
2026-01-03 14:19:40.54	258.14	17.33	-24.5	-25.0	17.7	0.00e+00	0	43	0	1125122048	10	3843
2026-01-03 14:19:43.56	258.81	17.43	-24.3	-24.8	17.8	0.00e+00	0	43	0	1141899264	10	3789
2026-01-03 14:19:46.57	259.48	17.52	-24.4	-24.8	17.8	0.00e+00	0	43	0	1158676480	10	3794
2026-01-03 14:19:49.60	260.16	17.61	-24.6	-25.3	17.6	0.00e+00	0	43	0	1175453696	10	3899
2026-01-03 14:19:52.63	260.84	17.70	-24.9	-25.9	17.2	0.00e+00	0	43	0	1193279488	10	4058
2026-01-03 14:19:55.63	261.52	17.78	-24.7	-25.7	17.4	0.00e+00	0	43	0	1210056704	10	3997
2026-01-03 14:19:58.64	262.21	17.86	-24.7	-25.5	17.4	0.00e+00	0	43	0	1226833920	10	3961
2026-01-03 14:20:01.65	262.90	17.93	-24.8	-25.9	17.3	0.00e+00	0	43	0	1243611136	10	4046
2026-01-03 14:20:04.68	263.60	18.00	-24.5	-25.2	17.6	0.00e+00	0	43	0	1260388352	10	3890
2026-01-03 14:20:07.69	264.29	18.07	-24.5	-25.1	17.7	0.00e+00	0	43	0	1278214144	10	3865
2026-01-03 14:20:10.71	264.99	18.13	-24.3	-25.3	17.9	0.00e+00	0	43	0	1294991360	9	4011
2026-01-03 14:20:13.73	265.70	18.19	-24.3	-25.2	17.9	0.00e+00	0	43	0	1311768576	9	3999
2026-01-03 14:20:16.76	266.40	18.25	-24.4	-25.4	17.8	0.00e+00	0	43	0	1328545792	9	4036
2026-01-03 14:20:19.78	267.11	18.30	-24.5	-25.7	17.6	0.00e+00	0	43	0	1345323008	9	4118
2026-01-03 14:20:22.80	267.82	18.34	-24.8	-26.3	17.3	0.00e+00	0	43	0	1363148800	9	4260
2026-01-03 14:20:25.80	268.53	18.39	-24.5	-25.5	17.7	0.00e+00	0	43	0	1379926016	9	4075
2026-01-03 14:20:28.82	269.24	18.43	-24.6	-25.9	17.5	0.00e+00	0	43	0	1396703232	9	4173
2026-01-03 14:20:31.84	269.96	18.46	-24.3	-25.1	18.0	0.00e+00	0	43	0	1413480448	9	3969
2026-01-03 14:20:34.86	270.68	18.49	-24.3	-25.1	17.9	0.00e+00	0	43	0	1430257664	9	3981
2026-01-03 14:20:37.88	271.40	18.51	-24.1	-24.7	18.2	0.00e+00	0	43	0	1448083456	9	3880
2026-01-03 14:20:40.90	272.11	18.54	-24.1	-24.7	18.2	0.00e+00	0	43	0	1464860672	9	3868
2026-01-03 14:20:43.92	272.84	18.55	-24.1	-24.7	18.1	0.00e+00	0	43	0	1481637888	9	3879
2026-01-03 14:20:46.95	273.56	18.56	-24.2	-25.0	18.0	0.00e+00	0	43	0	1498415104	9	3942
2026-01-03 14:20:49.96	274.28	18.57	-24.3	-25.1	17.9	0.00e+00	0	43	0	1515192320	9	3962
2026-01-03 14:20:52.98	275.00	18.58	-24.2	-25.0	18.0	0.00e+00	0	43	0	1533018112	9	3951
2026-01-03 14:20:56.00	275.72	18.57	-24.4	-25.3	17.8	0.00e+00	0	43	0	1549795328	9	4024
2026-01-03 14:20:59.02	276.44	18.57	-24.2	-25.1	17.9	0.00e+00	0	43	0	1566572544	9	3971
2026-01-03 14:21:02.03	277.16	18.56	-24.2	-25.0	18.0	0.00e+00	0	43	0	1583349760	9	3956
2026-01-03 14:21:05.05	277.88	18.55	-24.4	-25.5	17.7	0.00e+00	0	43	0	1600126976	9	4067
2026-01-03 14:21:08.08	278.60	18.53	-24.6	-25.9	17.5	0.00e+00	0	43	0	1617952768	9	4166
2026-01-03 14:21:11.10	279.32	18.50	-24.5	-25.6	17.7	0.00e+00	0	43	0	1634729984	9	4087
2026-01-03 14:21:14.12	280.04	18.48	-24.6	-25.9	17.5	0.00e+00	0	43	0	1651507200	9	4173
2026-01-03 14:21:17.13	280.75	18.44	-24.6	-25.8	17.5	0.00e+00	0	43	0	1668284416	9	4145
2026-01-03 14:21:20.15	281.47	18.41	-24.4	-25.4	17.8	0.00e+00	0	43	0	1685061632	9	4037
2026-01-03 14:21:23.17	282.18	18.37	-24.3	-25.1	17.9	0.00e+00	0	43	0	1701838848	9	3965
2026-01-03 14:21:26.18	282.89	18.32	-24.2	-24.9	18.0	0.00e+00	0	43	0	1719664640	9	3930
2026-01-03 14:21:29.20	283.59	18.28	-24.3	-25.3	17.8	0.00e+00	0	43	0	1736441856	9	4021
2026-01-03 14:21:32.21	284.30	18.22	-24.5	-25.6	17.6	0.00e+00	0	43	0	1753219072	9	4103
2026-01-03 14:21:35.22	285.00	18.17	-24.5	-25.5	17.7	0.00e+00	0	43	0	1769996288	9	4075
2026-01-03 14:21:38.23	285.70	18.11	-24.6	-25.9	17.5	0.00e+00	0	43	0	1786773504	9	4176
2026-01-03 14:21:41.26	286.40	18.04	-24.9	-26.4	17.2	0.00e+00	0	43	0	1803550720	9	4304
2026-01-03 14:21:44.28	287.09	17.97	-24.8	-26.3	17.3	0.00e+00	0	43	0	1821376512	9	4271
2026-01-03 14:21:47.30	287.78	17.90	-24.9	-26.0	17.2	0.00e+00	0	43	0	1838153728	10	4076
2026-01-03 14:21:50.31	288.47	17.83	-24.9	-25.9	17.2	0.00e+00	0	43	0	1854930944	10	4060
2026-01-03 14:21:53.32	289.15	17.75	-24.9	-26.0	17.2	0.00e+00	0	43	0	1871708160	10	4089
2026-01-03 14:21:56.34	289.83	17.66	-24.8	-25.8	17.3	0.00e+00	0	43	0	1888485376	10	4020
2026-01-03 14:21:59.35	290.51	17.58	-24.8	-25.8	17.3	0.00e+00	0	43	0	1906311168	10	4043
2026-01-03 14:22:02.36	291.18	17.49	-24.8	-25.9	17.2	0.00e+00	0	43	0	1923088384	10	4056
2026-01-03 14:22:05.39	291.85	17.39	-24.8	-25.7	17.3	0.00e+00	0	43	0	1939865600	10	4009
2026-01-03 14:22:08.41	292.52	17.29	-24.7	-25.6	17.4	0.00e+00	0	43	0	1956642816	10	3981
2026-01-03 14:22:11.43	293.18	17.19	-24.7	-25.5	17.5	0.00e+00	0	43	0	1973420032	10	3944
2026-01-03 14:22:14.45	293.84	17.09	-25.0	-26.1	17.1	0.00e+00	0	43	0	1991245824	10	4112
2026-01-03 14:22:17.47	294.49	16.98	-25.1	-26.4	17.0	0.00e+00	0	43	0	2008023040	10	4179
2026-01-03 14:22:20.49	295.14	16.87	-25.2	-26.6	16.8	0.00e+00	0	43	0	2024800256	10	4228
2026-01-03 14:22:23.51	295.78	16.76	-24.8	-25.8	17.3	0.00e+00	0	43	0	2041577472	10	4023
2026-01-03 14:22:26.52	296.41	16.65	-25.1	-26.4	16.9	0.00e+00	0	43	0	2058354688	10	4192
2026-01-03 14:22:29.54	297.05	16.53	-25.1	-26.4	16.9	0.00e+00	0	43	0	2076180480	10	4182
2026-01-03 14:22:32.56	297.68	16.41	-25.2	-26.6	16.8	0.00e+00	0	43	0	2092957696	10	4225
2026-01-03 14:22:35.58	298.30	16.28	-25.2	-26.7	16.7	0.00e+00	0	43	0	2109734912	10	4272
2026-01-03 14:22:38.60	298.92	16.16	-25.4	-27.0	16.6	0.00e+00	0	43	0	2126512128	10	4343
2026-01-03 14:22:41.62	299.53	16.03	-25.1	-26.3	17.0	0.00e+00	0	43	0	2143289344	10	4165
2026-01-03 14:22:44.64	300.14	15.90	-25.1	-26.5	16.8	0.00e+00	0	43	0	2161115136	10	4216
2026-01-03 14:22:47.65	300.74	15.76	-25.2	-26.7	16.8	0.00e+00	0	43	0	2177892352	10	4262
2026-01-03 14:22:50.67	301.34	15.63	-25.1	-26.5	16.8	0.00e+00	0	43	0	2194669568	10	4218
2026-01-03 14:22:53.69	301.93	15.49	-25.2	-26.7	16.7	0.00e+00	0	43	0	2211446784	10	4267
2026-01-03 14:22:56.71	302.52	15.35	-25.2	-26.7	16.8	0.00e+00	0	43	0	2228224000	10	4253
2026-01-03 14:22:59.73	303.10	15.21	-25.2	-26.7	16.7	0.00e+00	0	43	0	2246049792	10	4251
2026-01-03 14:23:02.75	303.67	15.07	-25.2	-26.6	16.7	0.00e+00	0	43	0	2262827008	10	4245
2026-01-03 14:23:05.77	304.24	14.92	-25.4	-27.1	16.5	0.00e+00	0	43	0	2279604224	10	4378
2026-01-03 14:23:08.78	304.81	14.78	-25.3	-26.9	16.6	0.00e+00	0	43	0	2296381440	10	4334
2026-01-03 14:23:11.80	305.37	14.63	-25.4	-27.1	16.4	0.00e+00	0	43	0	2313158656	10	4376
2026-01-03 14:23:14.82	305.92	14.48	-25.7	-27.2	16.1	0.00e+00	0	43	0	2329935872	11	4282
2026-01-03 14:23:17.84	306.47	14.33	-25.8	-27.6	15.9	0.00e+00	0	43	0	2347761664	11	4387
2026-01-03 14:23:20.86	307.01	14.17	-25.7	-27.2	16.1	0.00e+00	0	43	0	2364538880	11	4295
2026-01-03 14:23:23.87	307.55	14.02	-25.6	-27.1	16.2	0.00e+00	0	43	0	2381316096	11	4258
2026-01-03 14:23:26.89	308.08	13.86	-25.5	-26.8	16.4	0.00e+00	0	43	0	2398093312	11	4180
2026-01-03 14:23:29.92	308.61	13.71	-25.7	-27.2	16.1	0.00e+00	0	43	0	2415919104	11	4294
2026-01-03 14:23:32.94	309.13	13.55	-25.9	-27.7	15.8	0.00e+00	0	43	0	2432696320	11	4433
2026-01-03 14:23:35.95	309.65	13.39	-26.0	-27.5	15.6	0.00e+00	0	43	0	2449473536	12	4254
2026-01-03 14:23:38.96	310.16	13.23	-25.9	-27.1	15.8	0.00e+00	0	43	0	2466250752	12	4163
2026-01-03 14:23:41.98	310.66	13.07	-25.8	-27.0	15.9	0.00e+00	0	43	0	2483027968	12	4131
2026-01-03 14:23:44.99	311.16	12.91	-25.9	-27.1	15.8	0.00e+00	0	43	0	2499805184	12	4163
2026-01-03 14:23:48.02	311.66	12.74	-26.0	-27.4	15.6	0.00e+00	0	43	0	2517630976	12	4228
2026-01-03 14:23:51.03	312.14	12.58	-25.9	-27.2	15.7	0.00e+00	0	43	0	2534408192	12	4192
2026-01-03 14:23:54.04	312.63	12.42	-25.7	-26.8	15.9	0.00e+00	0	43	0	2551185408	12	4082
2026-01-03 14:23:57.07	313.11	12.25	-25.8	-26.9	15.9	0.00e+00	0	43	0	2567962624	12	4108
2026-01-03 14:24:00.09	313.58	12.09	-25.8	-27.1	15.7	0.00e+00	0	43	0	2584739840	12	4160
2026-01-03 14:24:03.11	314.05	11.92	-25.9	-27.3	15.6	0.00e+00	0	43	0	2601517056	12	4200
2026-01-03 14:24:06.13	314.51	11.75	-25.9	-27.2	15.7	0.00e+00	0	43	0	2619342848	12	4187
2026-01-03 14:24:09.15	314.97	11.59	-26.0	-27.4	15.6	0.00e+00	0	43	0	2636120064	12	4227
2026-01-03 14:24:12.17	315.43	11.42	-26.0	-27.4	15.6	0.00e+00	0	43	0	2652897280	12	4227
2026-01-03 14:24:15.18	315.87	11.25	-26.2	-27.9	15.3	0.00e+00	0	43	0	2669674496	12	4372
2026-01-03 14:24:18.20	316.32	11.08	-26.3	-28.1	15.1	0.00e+00	0	43	0	2686451712	12	4426
2026-01-03 14:24:21.21	316.75	10.91	-26.3	-28.0	15.2	0.00e+00	0	43	0	2703228928	12	4415
2026-01-03 14:24:24.22	317.18	10.75	-26.4	-28.3	15.0	0.00e+00	0	43	0	2721054720	12	4477
2026-01-03 14:24:27.23	317.61	10.58	-26.4	-28.2	15.0	0.00e+00	0	43	0	2737831936	12	4469
2026-01-03 14:24:30.25	318.04	10.41	-26.5	-28.5	14.9	0.00e+00	0	43	0	2754609152	12	4537
2026-01-03 14:24:33.27	318.46	10.24	-26.4	-28.3	15.0	0.00e+00	0	43	0	2771386368	12	4484
2026-01-03 14:24:36.29	318.87	10.07	-26.5	-28.5	14.8	0.00e+00	0	43	0	2788163584	12	4546
2026-01-03 14:24:39.30	319.28	9.90	-26.4	-27.9	14.9	0.00e+00	0	43	0	2805989376	13	4273
2026-01-03 14:24:42.32	319.68	9.73	-26.5	-28.2	14.8	0.00e+00	0	43	0	2822766592	13	4335
2026-01-03 14:24:45.34	320.09	9.56	-26.4	-27.8	14.9	0.00e+00	0	43	0	2839543808	13	4238
2026-01-03 14:24:48.36	320.48	9.39	-26.4	-27.9	14.8	0.00e+00	0	43	0	2856321024	13	4270
2026-01-03 14:24:51.37	320.87	9.22	-26.6	-28.2	14.6	0.00e+00	0	43	0	2873098240	13	4360
2026-01-03 14:24:54.40	321.26	9.05	-26.7	-28.5	14.5	0.00e+00	0	43	0	2890924032	13	4447
2026-01-03 14:24:57.41	321.64	8.88	-26.9	-29.0	14.2	1.10e-06	0	43	0	2907701248	13	4592
2026-01-03 14:25:00.43	322.02	8.71	-27.1	-28.9	14.0	3.40e-06	0	43	0	2924478464	14	4454
2026-01-03 14:25:03.45	322.40	8.54	-27.2	-29.1	13.8	4.50e-06	0	43	0	2941255680	14	4509
2026-01-03 14:25:06.48	322.77	8.37	-27.1	-28.9	13.9	4.50e-06	0	43	0	2958032896	14	4457
2026-01-03 14:25:09.50	323.14	8.20	-27.0	-28.7	14.1	0.00e+00	0	43	0	2975858688	14	4375
2026-01-03 14:25:12.52	323.50	8.03	-27.2	-29.2	13.7	6.80e-06	0	43	0	2992635904	14	4540
2026-01-03 14:25:15.53	323.86	7.86	-27.1	-28.9	13.9	0.00e+00	0	43	0	3009413120	14	4450
2026-01-03 14:25:18.55	324.21	7.69	-27.2	-29.2	13.7	2.20e-06	0	43	0	3026190336	14	4538
2026-01-03 14:25:21.56	324.56	7.52	-27.2	-29.2	13.7	2.20e-06	0	43	0	3042967552	14	4544
2026-01-03 14:25:24.58	324.91	7.36	-27.3	-29.4	13.6	5.70e-06	0	43	0	3060793344	14	4595
2026-01-03 14:25:27.58	325.25	7.19	-27.4	-29.8	13.3	9.10e-06	0	44	0	3077570560	14	4724
2026-01-03 14:25:30.58	325.58	7.02	-33.2	-44.5	3.8	8.46e-01	0	43	104	3087007744	26	13152

#Closed at: 2026-01-03 14:25:31
#Recorded file [3087 MB]: D:/data/31010_260103_171620.dat