passes_logs/2026/01/03/R2M6_AANII_01/R2M6_AANII_01__20260103_074540_NOAA_21_JPSS-2_rec.log

#Pass ID: 20260103_074540_NOAA 21 (JPSS-2)
#Satellite: NOAA 21 (JPSS-2)
#Configuration: NOAA 21
#almurnet v.1.7.20240730
#Start time: 2026-01-03 07:45:42

#Version: 2.2.20231116
#Station: R2M6_AANII_01
#Location: 30.233357 lon 59.946436 lat
#TLE: 1 54234U 22150A   26002.25486487  .00000200  00000+0  11573-3 0  9993
#TLE: 2 54234  98.7485 303.3096 0001220 350.9074   9.2080 14.19531212163006

#Time	Az	El	Level	Level2	SNR	BER	BlckErr	Temp	State	Recorded	gain1	gain2
2026-01-03 07:45:42.20	80.37	7.09	-31.2	-37.0	4.3	1.43e+00	0	40	0	0	23	7039
2026-01-03 07:45:44.20	80.13	7.20	-30.9	-34.9	7.6	1.18e-01	0	40	0	0	23	5761
2026-01-03 07:45:46.21	79.90	7.31	-30.8	-34.6	7.8	8.39e-02	0	41	0	6291456	23	5612
2026-01-03 07:45:48.22	79.66	7.41	-31.0	-35.8	7.3	1.16e-01	0	41	0	12582912	22	6278
2026-01-03 07:45:50.24	79.42	7.52	-30.2	-33.8	9.1	2.73e-02	0	41	0	18874368	21	5408
2026-01-03 07:45:52.26	79.17	7.63	-29.4	-31.9	10.9	2.93e-03	0	41	0	25165824	20	4765
2026-01-03 07:45:54.27	78.93	7.74	-28.7	-30.9	12.3	3.59e-04	0	41	0	31457280	18	4623
2026-01-03 07:45:56.28	78.68	7.85	-28.4	-30.1	12.8	7.01e-05	0	41	0	37748736	18	4361
2026-01-03 07:45:58.29	78.43	7.96	-28.3	-30.4	12.9	3.96e-05	0	41	0	44040192	17	4561
2026-01-03 07:46:00.30	78.18	8.07	-28.3	-30.4	12.9	4.27e-05	0	41	0	50331648	17	4581
2026-01-03 07:46:02.31	77.93	8.17	-28.2	-30.0	13.2	2.51e-05	0	41	0	56623104	17	4462
2026-01-03 07:46:04.32	77.68	8.28	-28.2	-30.2	13.1	4.11e-05	0	41	0	62914560	17	4501
2026-01-03 07:46:06.33	77.42	8.39	-28.3	-30.3	13.1	2.59e-05	0	41	0	69206016	17	4527
2026-01-03 07:46:08.35	77.16	8.50	-28.1	-29.8	13.3	1.60e-05	0	41	0	75497472	17	4397
2026-01-03 07:46:10.37	76.90	8.61	-28.1	-29.8	13.4	1.44e-05	0	41	0	81788928	17	4363
2026-01-03 07:46:12.37	76.64	8.71	-28.1	-29.7	13.4	1.14e-05	0	41	0	88080384	17	4361
2026-01-03 07:46:14.38	76.38	8.82	-28.1	-29.7	13.5	1.60e-05	0	41	0	94371840	17	4354
2026-01-03 07:46:16.39	76.11	8.93	-28.1	-29.9	13.4	1.44e-05	0	42	0	99614720	17	4407
2026-01-03 07:46:18.41	75.84	9.04	-28.1	-29.7	13.5	1.44e-05	0	42	0	106954752	17	4360
2026-01-03 07:46:20.42	75.57	9.15	-28.1	-29.9	13.4	1.60e-05	0	42	0	113246208	17	4410
2026-01-03 07:46:22.44	75.30	9.25	-28.0	-29.5	13.6	7.60e-06	0	42	0	118489088	17	4296
2026-01-03 07:46:24.44	75.03	9.36	-28.0	-29.6	13.6	9.90e-06	0	42	0	124780544	17	4316
2026-01-03 07:46:26.45	74.75	9.47	-28.0	-29.6	13.6	1.29e-05	0	41	0	132120576	17	4325
2026-01-03 07:46:28.47	74.47	9.57	-28.1	-29.8	13.5	1.67e-05	0	42	0	138412032	17	4382
2026-01-03 07:46:30.48	74.19	9.68	-28.0	-29.6	13.6	8.30e-06	0	42	0	143654912	17	4330
2026-01-03 07:46:32.50	73.91	9.79	-28.0	-29.5	13.7	9.10e-06	0	42	0	149946368	17	4286
2026-01-03 07:46:34.51	73.63	9.89	-28.2	-30.0	13.4	1.60e-05	0	42	0	157286400	17	4424
2026-01-03 07:46:36.52	73.34	10.00	-28.2	-30.2	13.3	1.60e-05	0	42	0	163577856	17	4483
2026-01-03 07:46:38.53	73.05	10.10	-28.3	-30.2	13.2	2.82e-05	0	42	0	168820736	17	4511
2026-01-03 07:46:40.55	72.76	10.21	-28.4	-30.5	13.1	2.51e-05	0	42	0	176160768	17	4578
2026-01-03 07:46:42.57	72.47	10.31	-28.4	-30.4	13.2	1.90e-05	0	42	0	182452224	17	4557
2026-01-03 07:46:44.58	72.17	10.42	-28.4	-30.5	13.1	3.12e-05	0	42	0	188743680	17	4585
2026-01-03 07:46:46.60	71.87	10.52	-28.4	-30.5	13.1	5.26e-05	0	42	0	195035136	17	4590
2026-01-03 07:46:48.61	71.58	10.63	-28.4	-30.5	13.2	1.98e-05	0	42	0	201326592	17	4565
2026-01-03 07:46:50.63	71.27	10.73	-28.4	-30.5	13.2	2.89e-05	0	42	0	207618048	17	4568
2026-01-03 07:46:52.64	70.97	10.84	-28.3	-30.3	13.3	2.44e-05	0	42	0	213909504	17	4503
2026-01-03 07:46:54.66	70.66	10.94	-28.2	-30.0	13.5	1.14e-05	0	42	0	220200960	17	4419
2026-01-03 07:46:56.67	70.35	11.04	-28.2	-29.9	13.6	7.60e-06	0	42	0	226492416	17	4396
2026-01-03 07:46:58.69	70.04	11.15	-28.2	-30.0	13.5	1.22e-05	0	42	0	232783872	17	4427
2026-01-03 07:47:00.70	69.73	11.25	-28.1	-29.8	13.6	1.14e-05	0	42	0	239075328	17	4355
2026-01-03 07:47:02.71	69.42	11.35	-28.2	-29.9	13.6	8.30e-06	0	42	0	245366784	17	4393
2026-01-03 07:47:04.72	69.10	11.45	-28.0	-29.4	13.9	1.50e-06	0	42	0	251658240	17	4257
2026-01-03 07:47:06.74	68.78	11.55	-28.0	-29.6	13.8	8.30e-06	0	42	0	257949696	17	4296
2026-01-03 07:47:08.75	68.46	11.65	-28.1	-29.8	13.6	5.30e-06	0	42	0	264241152	17	4380
2026-01-03 07:47:10.76	68.14	11.75	-28.1	-29.8	13.6	6.10e-06	0	42	0	270532608	17	4362
2026-01-03 07:47:12.77	67.81	11.85	-28.2	-30.0	13.5	1.37e-05	0	42	0	276824064	17	4428
2026-01-03 07:47:14.78	67.48	11.95	-28.2	-29.9	13.6	3.80e-06	0	42	0	283115520	17	4387
2026-01-03 07:47:16.79	67.15	12.05	-28.1	-29.8	13.7	6.10e-06	0	42	0	288358400	17	4366
2026-01-03 07:47:18.80	66.82	12.14	-28.1	-29.7	13.8	7.60e-06	0	42	0	295698432	17	4327
2026-01-03 07:47:20.82	66.49	12.24	-28.0	-29.4	13.9	2.20e-06	0	42	0	301989888	17	4235
2026-01-03 07:47:22.84	66.15	12.34	-28.0	-29.4	13.9	3.00e-06	0	42	0	308281344	17	4241
2026-01-03 07:47:24.85	65.81	12.44	-28.0	-29.6	13.9	2.20e-06	0	42	0	314572800	17	4286
2026-01-03 07:47:26.87	65.47	12.53	-28.0	-29.4	14.0	2.20e-06	0	42	0	320864256	17	4228
2026-01-03 07:47:28.87	65.13	12.63	-27.9	-29.2	14.1	3.00e-06	0	42	0	327155712	17	4184
2026-01-03 07:47:30.89	64.78	12.72	-27.9	-29.6	14.1	1.50e-06	0	43	0	332398592	16	4412
2026-01-03 07:47:32.91	64.43	12.81	-27.7	-29.2	14.4	2.20e-06	0	42	0	339738624	16	4274
2026-01-03 07:47:34.91	64.08	12.91	-27.7	-29.3	14.3	7.00e-07	0	42	0	346030080	16	4313
2026-01-03 07:47:36.93	63.73	13.00	-27.7	-29.2	14.4	1.50e-06	0	42	0	352321536	16	4293
2026-01-03 07:47:38.95	63.37	13.09	-27.8	-29.4	14.3	7.00e-07	0	42	0	357564416	16	4330
2026-01-03 07:47:40.96	63.02	13.18	-27.8	-29.4	14.3	1.50e-06	0	43	0	364904448	16	4351
2026-01-03 07:47:42.97	62.66	13.27	-27.9	-29.6	14.1	1.50e-06	0	42	0	371195904	16	4415
2026-01-03 07:47:44.97	62.30	13.36	-27.9	-29.7	14.1	2.20e-06	0	42	0	377487360	16	4425
2026-01-03 07:47:46.98	61.94	13.45	-28.1	-30.2	13.8	3.00e-06	0	42	0	382730240	16	4587
2026-01-03 07:47:48.98	61.57	13.53	-27.9	-29.6	14.2	1.50e-06	0	42	0	389021696	16	4411
2026-01-03 07:47:50.98	61.21	13.62	-27.9	-29.6	14.2	1.50e-06	0	42	0	395313152	16	4409
2026-01-03 07:47:53.00	60.84	13.71	-27.9	-29.6	14.2	2.20e-06	0	42	0	402653184	16	4410
2026-01-03 07:47:54.99	60.47	13.79	-27.8	-29.5	14.2	2.20e-06	0	42	0	407896064	16	4370
2026-01-03 07:47:57.01	60.09	13.87	-27.7	-29.2	14.4	7.00e-07	0	43	0	414187520	16	4294
2026-01-03 07:47:59.01	59.72	13.96	-27.7	-29.1	14.5	0.00e+00	0	42	0	420478976	16	4261
2026-01-03 07:48:01.03	59.34	14.04	-27.8	-29.3	14.4	1.50e-06	0	42	0	426770432	16	4324
2026-01-03 07:48:03.04	58.96	14.12	-27.8	-29.6	14.3	1.50e-06	0	43	0	433061888	16	4396
2026-01-03 07:48:05.05	58.58	14.20	-27.7	-29.3	14.4	7.00e-07	0	43	0	439353344	16	4313
2026-01-03 07:48:07.06	58.19	14.28	-27.8	-29.4	14.3	7.00e-07	0	43	0	445644800	16	4347
2026-01-03 07:48:09.07	57.81	14.36	-27.8	-29.5	14.3	7.00e-07	0	42	0	451936256	16	4369
2026-01-03 07:48:11.09	57.42	14.43	-27.8	-29.6	14.2	0.00e+00	0	43	0	458227712	16	4382
2026-01-03 07:48:13.11	57.02	14.51	-27.9	-29.6	14.2	7.00e-07	0	43	0	464519168	16	4409
2026-01-03 07:48:15.12	56.63	14.58	-27.9	-29.6	14.2	7.00e-07	0	42	0	470810624	16	4403
2026-01-03 07:48:17.13	56.24	14.66	-27.7	-29.2	14.5	0.00e+00	0	43	0	477102080	16	4291
2026-01-03 07:48:19.13	55.84	14.73	-27.7	-29.2	14.5	7.00e-07	0	43	0	483393536	16	4294
2026-01-03 07:48:21.15	55.44	14.80	-27.7	-29.3	14.4	2.20e-06	0	43	0	489684992	16	4306
2026-01-03 07:48:23.16	55.04	14.87	-27.6	-29.1	14.6	0.00e+00	0	43	0	495976448	16	4241
2026-01-03 07:48:25.17	54.64	14.94	-27.6	-29.0	14.7	0.00e+00	0	43	0	502267904	16	4217
2026-01-03 07:48:27.18	54.24	15.01	-27.6	-28.9	14.7	0.00e+00	0	43	0	508559360	16	4201
2026-01-03 07:48:29.20	53.83	15.07	-27.7	-29.2	14.5	0.00e+00	0	43	0	514850816	16	4273
2026-01-03 07:48:31.21	53.42	15.14	-27.7	-29.2	14.5	7.00e-07	0	43	0	521142272	16	4286
2026-01-03 07:48:33.22	53.01	15.20	-27.5	-28.8	14.8	0.00e+00	0	43	0	527433728	16	4161
2026-01-03 07:48:35.22	52.61	15.26	-27.5	-28.6	14.9	1.50e-06	0	43	0	533725184	16	4124
2026-01-03 07:48:37.23	52.19	15.32	-27.6	-28.9	14.7	0.00e+00	0	43	0	540016640	16	4186
2026-01-03 07:48:39.24	51.78	15.38	-27.6	-29.0	14.7	0.00e+00	0	43	0	546308096	16	4211
2026-01-03 07:48:41.24	51.37	15.44	-27.6	-28.9	14.7	0.00e+00	0	43	0	552599552	16	4191
2026-01-03 07:48:43.27	50.94	15.50	-27.6	-29.0	14.6	1.50e-06	0	43	0	558891008	16	4235
2026-01-03 07:48:45.27	50.53	15.55	-27.5	-28.7	14.8	0.00e+00	0	43	0	565182464	16	4136
2026-01-03 07:48:47.29	50.10	15.61	-27.4	-28.5	14.9	0.00e+00	0	43	0	571473920	16	4094
2026-01-03 07:48:49.30	49.68	15.66	-27.6	-28.9	14.7	0.00e+00	0	43	0	577765376	16	4192
2026-01-03 07:48:51.32	49.26	15.71	-27.4	-28.4	15.0	0.00e+00	0	43	0	584056832	16	4051
2026-01-03 07:48:53.34	48.83	15.76	-27.5	-28.6	14.9	0.00e+00	0	43	0	590348288	16	4120
2026-01-03 07:48:55.34	48.41	15.81	-27.4	-28.5	14.9	0.00e+00	0	43	0	596639744	16	4092
2026-01-03 07:48:57.36	47.98	15.86	-27.5	-28.6	14.9	0.00e+00	0	43	0	602931200	16	4121
2026-01-03 07:48:59.37	47.55	15.90	-27.6	-29.0	14.7	7.00e-07	0	43	0	609222656	16	4231
2026-01-03 07:49:01.38	47.12	15.95	-27.4	-28.6	14.9	7.00e-07	0	43	0	615514112	16	4098
2026-01-03 07:49:03.39	46.69	15.99	-27.6	-28.9	14.8	7.00e-07	0	43	0	621805568	16	4186
2026-01-03 07:49:05.40	46.25	16.03	-27.5	-28.7	14.8	0.00e+00	0	43	0	628097024	16	4141
2026-01-03 07:49:07.41	45.82	16.07	-27.5	-28.7	14.9	1.50e-06	0	43	0	634388480	16	4124
2026-01-03 07:49:09.41	45.39	16.10	-27.5	-28.7	14.8	7.00e-07	0	43	0	640679936	16	4147
2026-01-03 07:49:11.42	44.95	16.14	-27.5	-28.7	14.8	0.00e+00	0	43	0	646971392	16	4140
2026-01-03 07:49:13.43	44.51	16.17	-27.6	-28.9	14.8	0.00e+00	0	43	0	653262848	16	4185
2026-01-03 07:49:15.44	44.08	16.21	-27.4	-28.5	15.0	0.00e+00	0	43	0	659554304	16	4072
2026-01-03 07:49:17.44	43.64	16.24	-27.4	-28.5	15.0	0.00e+00	0	43	0	665845760	16	4074
2026-01-03 07:49:19.45	43.20	16.26	-27.2	-28.7	15.0	7.00e-07	0	43	0	672137216	15	4239
2026-01-03 07:49:21.46	42.76	16.29	-27.2	-28.6	15.0	0.00e+00	0	43	0	678428672	15	4229
2026-01-03 07:49:23.48	42.31	16.32	-27.3	-28.9	14.8	0.00e+00	0	43	0	684720128	15	4301
2026-01-03 07:49:25.49	41.87	16.34	-27.5	-29.2	14.6	7.00e-07	0	43	0	691011584	15	4390
2026-01-03 07:49:27.50	41.43	16.36	-27.5	-29.2	14.6	7.00e-07	0	43	0	697303040	15	4406
2026-01-03 07:49:29.52	40.98	16.38	-27.3	-28.9	14.8	0.00e+00	0	43	0	703594496	15	4314
2026-01-03 07:49:31.53	40.54	16.40	-27.4	-29.0	14.7	0.00e+00	0	43	0	709885952	15	4346
2026-01-03 07:49:33.54	40.10	16.42	-27.5	-29.2	14.6	0.00e+00	0	43	0	716177408	15	4397
2026-01-03 07:49:35.55	39.65	16.43	-27.6	-29.5	14.5	0.00e+00	0	43	0	722468864	15	4483
2026-01-03 07:49:37.56	39.21	16.45	-27.6	-29.5	14.5	7.00e-07	0	43	0	728760320	15	4474
2026-01-03 07:49:39.57	38.76	16.46	-27.4	-29.1	14.8	7.00e-07	0	43	0	735051776	15	4353
2026-01-03 07:49:41.57	38.32	16.47	-27.4	-29.1	14.7	7.00e-07	0	43	0	741343232	15	4371
2026-01-03 07:49:43.59	37.87	16.48	-27.2	-28.7	14.9	0.00e+00	0	43	0	747634688	15	4242
2026-01-03 07:49:45.59	37.42	16.48	-27.4	-29.0	14.8	1.50e-06	0	43	0	753926144	15	4328
2026-01-03 07:49:47.60	36.98	16.49	-27.5	-29.3	14.6	0.00e+00	0	43	0	760217600	15	4424
2026-01-03 07:49:49.61	36.53	16.49	-27.4	-29.2	14.6	0.00e+00	0	43	0	766509056	15	4381
2026-01-03 07:49:51.62	36.08	16.49	-27.7	-29.7	14.3	0.00e+00	0	43	0	772800512	15	4544
2026-01-03 07:49:53.64	35.64	16.49	-27.4	-29.1	14.6	0.00e+00	0	43	0	779091968	15	4369
2026-01-03 07:49:55.64	35.19	16.49	-27.3	-28.7	14.9	0.00e+00	0	43	0	785383424	15	4249
2026-01-03 07:49:57.66	34.74	16.49	-27.2	-28.7	14.9	0.00e+00	0	43	0	791674880	15	4239
2026-01-03 07:49:59.66	34.30	16.48	-27.2	-28.7	14.9	0.00e+00	0	43	0	797966336	15	4238
2026-01-03 07:50:01.68	33.85	16.47	-27.1	-28.2	15.2	0.00e+00	0	43	0	804257792	15	4127
2026-01-03 07:50:03.69	33.40	16.46	-27.1	-28.3	15.2	0.00e+00	0	43	0	810549248	15	4141
2026-01-03 07:50:05.70	32.96	16.45	-27.0	-28.2	15.2	0.00e+00	0	43	0	816840704	15	4111
2026-01-03 07:50:07.72	32.51	16.44	-27.1	-28.3	15.1	7.00e-07	0	43	0	823132160	15	4132
2026-01-03 07:50:09.74	32.06	16.42	-27.1	-28.4	15.0	0.00e+00	0	43	0	829423616	15	4179
2026-01-03 07:50:11.75	31.62	16.41	-27.3	-28.8	14.9	0.00e+00	0	43	0	835715072	15	4274
2026-01-03 07:50:13.76	31.18	16.39	-27.1	-28.4	15.0	0.00e+00	0	43	0	842006528	15	4170
2026-01-03 07:50:15.78	30.73	16.37	-27.0	-28.1	15.2	0.00e+00	0	43	0	848297984	15	4099
2026-01-03 07:50:17.79	30.29	16.35	-27.0	-28.2	15.2	0.00e+00	0	43	0	854589440	15	4117
2026-01-03 07:50:19.80	29.85	16.32	-27.1	-28.4	15.1	0.00e+00	0	43	0	860880896	15	4175
2026-01-03 07:50:21.81	29.41	16.30	-27.2	-28.7	14.9	0.00e+00	0	43	0	867172352	15	4246
2026-01-03 07:50:23.82	28.96	16.27	-27.3	-28.8	14.8	0.00e+00	0	43	0	873463808	15	4283
2026-01-03 07:50:25.84	28.52	16.24	-27.3	-28.8	14.7	0.00e+00	0	43	0	879755264	15	4275
2026-01-03 07:50:27.85	28.08	16.21	-27.3	-28.8	14.8	0.00e+00	0	43	0	886046720	15	4295
2026-01-03 07:50:29.86	27.65	16.18	-27.5	-29.3	14.3	1.50e-06	0	43	0	892338176	15	4432
2026-01-03 07:50:31.87	27.21	16.15	-27.4	-29.1	14.2	2.20e-06	0	43	0	898629632	15	4368
2026-01-03 07:50:33.88	26.77	16.11	-27.6	-29.4	13.9	0.00e+00	0	43	0	904921088	15	4468
2026-01-03 07:50:35.89	26.34	16.08	-27.7	-29.9	13.6	6.80e-06	0	43	0	911212544	15	4620
2026-01-03 07:50:37.90	25.91	16.04	-27.4	-29.2	14.0	2.20e-06	0	43	0	917504000	15	4395
2026-01-03 07:50:39.90	25.48	16.00	-27.3	-28.7	14.4	7.00e-07	0	43	0	923795456	15	4274
2026-01-03 07:50:41.92	25.04	15.96	-27.3	-28.8	14.6	7.00e-07	0	43	0	930086912	15	4291
2026-01-03 07:50:43.93	24.61	15.91	-27.3	-28.7	14.5	0.00e+00	0	43	0	936378368	15	4271
2026-01-03 07:50:45.93	24.19	15.87	-27.1	-28.5	13.4	6.10e-06	0	43	0	942669824	15	4225
2026-01-03 07:50:47.95	23.76	15.82	-27.1	-28.5	12.9	1.90e-05	0	43	0	948961280	15	4244
2026-01-03 07:50:49.96	23.33	15.77	-27.2	-28.7	13.6	9.90e-06	0	43	0	955252736	15	4284
2026-01-03 07:50:51.97	22.91	15.72	-27.3	-29.0	14.0	3.80e-06	0	43	0	961544192	15	4339
2026-01-03 07:50:53.99	22.48	15.67	-27.0	-28.2	14.3	1.50e-06	0	43	0	967835648	15	4139
2026-01-03 07:50:56.00	22.06	15.62	-27.0	-28.2	14.3	7.00e-07	0	43	0	974127104	15	4124
2026-01-03 07:50:58.01	21.64	15.57	-26.9	-28.1	14.1	7.00e-07	0	43	0	980418560	15	4120
2026-01-03 07:51:00.02	21.22	15.51	-27.1	-28.5	14.3	2.20e-06	0	43	0	986710016	15	4207
2026-01-03 07:51:02.04	20.80	15.46	-27.2	-28.6	14.5	0.00e+00	0	43	0	993001472	15	4224
2026-01-03 07:51:04.05	20.39	15.40	-27.1	-28.3	14.4	7.00e-07	0	43	0	999292928	15	4168
2026-01-03 07:51:06.07	19.97	15.34	-27.1	-28.4	14.8	0.00e+00	0	43	0	1005584384	15	4184
2026-01-03 07:51:08.07	19.56	15.28	-27.2	-28.6	14.9	0.00e+00	0	43	0	1011875840	15	4226
2026-01-03 07:51:10.08	19.15	15.22	-27.2	-28.6	14.7	7.00e-07	0	43	0	1018167296	15	4238
2026-01-03 07:51:12.10	18.74	15.15	-27.2	-28.6	14.5	7.00e-07	0	43	0	1024458752	15	4231
2026-01-03 07:51:14.11	18.34	15.09	-27.2	-28.6	14.3	0.00e+00	0	43	0	1030750208	15	4236
2026-01-03 07:51:16.12	17.93	15.02	-27.1	-28.4	14.4	0.00e+00	0	43	0	1037041664	15	4184
2026-01-03 07:51:18.14	17.53	14.95	-27.1	-28.3	14.6	0.00e+00	0	43	0	1043333120	15	4166
2026-01-03 07:51:20.15	17.12	14.89	-27.2	-28.7	14.7	7.00e-07	0	43	0	1049624576	15	4263
2026-01-03 07:51:22.16	16.73	14.82	-27.2	-28.5	14.8	0.00e+00	0	43	0	1055916032	15	4206
2026-01-03 07:51:24.18	16.33	14.75	-27.2	-28.6	14.8	0.00e+00	0	43	0	1062207488	15	4240
2026-01-03 07:51:26.19	15.93	14.67	-27.4	-29.0	14.6	7.00e-07	0	43	0	1068498944	15	4348
2026-01-03 07:51:28.21	15.54	14.60	-27.3	-28.8	14.8	7.00e-07	0	43	0	1074790400	15	4278
2026-01-03 07:51:30.21	15.15	14.53	-27.4	-29.0	14.6	0.00e+00	0	43	0	1081081856	15	4333
2026-01-03 07:51:32.22	14.76	14.45	-27.3	-28.9	14.6	7.00e-07	0	43	0	1087373312	15	4325
2026-01-03 07:51:34.24	14.37	14.37	-27.4	-29.0	14.6	0.00e+00	0	43	0	1093664768	15	4336
2026-01-03 07:51:36.25	13.98	14.30	-27.4	-29.1	14.5	0.00e+00	0	43	0	1099956224	15	4381
2026-01-03 07:51:38.27	13.60	14.22	-27.4	-29.1	14.5	7.00e-07	0	43	0	1106247680	15	4377
2026-01-03 07:51:40.28	13.22	14.14	-27.3	-28.8	14.7	0.00e+00	0	43	0	1112539136	15	4290
2026-01-03 07:51:42.28	12.84	14.06	-27.1	-28.5	14.9	0.00e+00	0	43	0	1118830592	15	4198
2026-01-03 07:51:44.30	12.46	13.98	-27.3	-28.9	14.6	0.00e+00	0	43	0	1125122048	15	4315
2026-01-03 07:51:46.31	12.08	13.89	-27.4	-29.0	14.6	3.00e-06	0	43	0	1131413504	15	4341
2026-01-03 07:51:48.32	11.71	13.81	-27.2	-28.6	14.7	7.00e-07	0	43	0	1137704960	15	4245
2026-01-03 07:51:50.33	11.34	13.73	-27.2	-28.6	14.8	0.00e+00	0	43	0	1143996416	15	4224
2026-01-03 07:51:52.35	10.97	13.64	-27.2	-28.5	14.8	0.00e+00	0	43	0	1150287872	15	4207
2026-01-03 07:51:54.35	10.61	13.56	-27.1	-28.4	14.9	0.00e+00	0	43	0	1156579328	15	4173
2026-01-03 07:51:56.37	10.24	13.47	-27.2	-28.7	14.7	0.00e+00	0	43	0	1162870784	15	4250
2026-01-03 07:51:58.38	9.88	13.38	-27.3	-28.9	14.6	0.00e+00	0	43	0	1169162240	15	4318
2026-01-03 07:52:00.39	9.52	13.29	-27.4	-29.0	14.5	1.50e-06	0	43	0	1175453696	15	4345
2026-01-03 07:52:02.41	9.16	13.20	-27.5	-29.2	14.4	3.00e-06	0	43	0	1181745152	15	4419
2026-01-03 07:52:04.42	8.80	13.11	-27.4	-29.0	14.5	0.00e+00	0	43	0	1188036608	15	4358
2026-01-03 07:52:06.43	8.45	13.02	-27.4	-29.2	14.4	7.00e-07	0	43	0	1194328064	15	4401
2026-01-03 07:52:08.45	8.10	12.93	-27.6	-29.5	14.2	0.00e+00	0	43	0	1200619520	15	4495
2026-01-03 07:52:10.46	7.75	12.84	-27.8	-30.0	13.9	3.00e-06	0	43	0	1206910976	15	4652
2026-01-03 07:52:12.48	7.40	12.74	-27.9	-30.2	13.8	3.80e-06	0	43	0	1213202432	15	4726
2026-01-03 07:52:14.49	7.06	12.65	-27.9	-30.3	13.7	4.50e-06	0	43	0	1219493888	15	4731
2026-01-03 07:52:16.50	6.71	12.56	-27.7	-29.8	14.0	3.00e-06	0	43	0	1225785344	15	4598
2026-01-03 07:52:18.51	6.37	12.46	-27.6	-29.6	14.1	1.50e-06	0	43	0	1232076800	15	4521
2026-01-03 07:52:20.51	6.04	12.37	-27.5	-29.3	14.3	7.00e-07	0	43	0	1238368256	15	4451
2026-01-03 07:52:22.52	5.70	12.27	-27.4	-29.2	14.4	0.00e+00	0	43	0	1244659712	15	4414
2026-01-03 07:52:24.54	5.37	12.17	-27.6	-29.5	14.2	1.50e-06	0	43	0	1250951168	15	4509
2026-01-03 07:52:26.56	5.04	12.08	-27.6	-29.5	14.2	7.00e-07	0	43	0	1257242624	15	4492
2026-01-03 07:52:28.57	4.71	11.98	-27.6	-29.6	14.1	2.20e-06	0	43	0	1263534080	15	4525
2026-01-03 07:52:30.59	4.38	11.88	-27.7	-29.8	14.0	3.00e-06	0	43	0	1269825536	15	4587
2026-01-03 07:52:32.59	4.06	11.78	-27.9	-30.2	13.7	6.80e-06	0	43	0	1276116992	15	4726
2026-01-03 07:52:34.62	3.73	11.68	-27.9	-30.4	13.6	5.30e-06	0	43	0	1282408448	15	4777
2026-01-03 07:52:36.63	3.41	11.58	-28.0	-30.0	13.7	7.60e-06	0	43	0	1288699904	16	4533
2026-01-03 07:52:38.64	3.09	11.48	-28.0	-30.0	13.7	9.10e-06	0	43	0	1294991360	16	4525
2026-01-03 07:52:40.65	2.78	11.38	-28.0	-29.9	13.8	3.80e-06	0	43	0	1301282816	16	4494
2026-01-03 07:52:42.66	2.47	11.28	-28.0	-30.0	13.7	6.10e-06	0	43	0	1307574272	16	4532
2026-01-03 07:52:44.67	2.15	11.18	-28.0	-30.0	13.7	9.10e-06	0	43	0	1313865728	16	4541
2026-01-03 07:52:46.69	1.84	11.07	-28.1	-30.2	13.6	5.30e-06	0	43	0	1320157184	16	4605
2026-01-03 07:52:48.69	1.54	10.97	-28.2	-30.4	13.5	1.22e-05	0	43	0	1326448640	16	4642
2026-01-03 07:52:50.70	1.24	10.87	-28.1	-30.3	13.5	1.22e-05	0	43	0	1332740096	16	4640
2026-01-03 07:52:52.72	0.93	10.77	-28.2	-30.4	13.5	1.75e-05	0	43	0	1339031552	16	4660
2026-01-03 07:52:54.72	0.63	10.66	-28.2	-30.5	13.4	1.14e-05	0	43	0	1345323008	16	4679
2026-01-03 07:52:56.74	0.33	10.56	-28.2	-30.5	13.4	2.13e-05	0	43	0	1351614464	16	4682
2026-01-03 07:52:58.75	0.04	10.46	-28.3	-30.6	13.2	1.98e-05	0	43	0	1357905920	16	4735
2026-01-03 07:53:00.76	359.74	10.35	-28.3	-30.6	13.3	2.21e-05	0	43	0	1364197376	16	4733
2026-01-03 07:53:02.77	359.45	10.25	-28.2	-30.6	13.3	1.29e-05	0	43	0	1370488832	16	4717
2026-01-03 07:53:04.78	359.16	10.14	-28.1	-30.4	13.4	8.30e-06	0	43	0	1376780288	16	4658
2026-01-03 07:53:06.79	358.88	10.04	-28.0	-30.1	13.5	9.90e-06	0	43	0	1383071744	16	4581
2026-01-03 07:53:08.81	358.59	9.93	-28.0	-30.0	13.6	6.80e-06	0	43	0	1389363200	16	4549
2026-01-03 07:53:10.83	358.31	9.82	-28.0	-30.1	13.6	7.60e-06	0	43	0	1395654656	16	4578
2026-01-03 07:53:12.84	358.03	9.72	-28.0	-30.1	13.5	8.30e-06	0	43	0	1401946112	16	4584
2026-01-03 07:53:14.86	357.75	9.61	-28.1	-30.3	13.5	1.06e-05	0	43	0	1408237568	16	4621
2026-01-03 07:53:16.87	357.47	9.51	-28.2	-30.5	13.3	1.98e-05	0	43	0	1414529024	16	4688
2026-01-03 07:53:18.88	357.19	9.40	-28.1	-30.3	13.4	1.22e-05	0	43	0	1420820480	16	4641
2026-01-03 07:53:20.90	356.92	9.29	-28.1	-30.4	13.4	1.83e-05	0	43	0	1427111936	16	4647
2026-01-03 07:53:22.91	356.65	9.19	-28.3	-30.7	13.2	2.13e-05	0	43	0	1433403392	16	4761
2026-01-03 07:53:24.92	356.38	9.08	-28.1	-30.4	13.3	1.44e-05	0	43	0	1439694848	16	4668
2026-01-03 07:53:26.93	356.12	8.97	-28.1	-30.3	13.4	1.52e-05	0	43	0	1445986304	16	4643
2026-01-03 07:53:28.94	355.85	8.86	-28.2	-30.4	13.3	2.13e-05	0	43	0	1452277760	16	4682
2026-01-03 07:53:30.95	355.59	8.76	-28.4	-31.0	12.9	3.35e-05	0	43	0	1458569216	16	4856
2026-01-03 07:53:32.97	355.33	8.65	-28.5	-31.3	12.8	6.02e-05	0	43	0	1464860672	16	4958
2026-01-03 07:53:34.98	355.07	8.54	-28.6	-31.0	12.6	8.39e-05	0	43	0	1471152128	17	4765
2026-01-03 07:53:36.99	354.81	8.43	-28.5	-30.8	12.7	8.23e-05	0	43	0	1477443584	17	4694
2026-01-03 07:53:39.01	354.56	8.33	-28.5	-30.8	12.7	9.23e-05	0	43	0	1483735040	17	4693
2026-01-03 07:53:41.02	354.30	8.22	-28.5	-30.9	12.6	9.99e-05	0	43	0	1490026496	17	4743
2026-01-03 07:53:43.04	354.05	8.11	-28.4	-30.5	12.9	6.17e-05	0	43	0	1496317952	17	4585
2026-01-03 07:53:45.05	353.80	8.00	-28.4	-30.6	12.8	6.17e-05	0	43	0	1502609408	17	4623
2026-01-03 07:53:47.06	353.56	7.89	-28.5	-30.9	12.6	1.04e-04	0	43	0	1508900864	17	4724
2026-01-03 07:53:49.07	353.31	7.78	-28.5	-30.9	12.6	9.68e-05	0	43	0	1515192320	17	4745
2026-01-03 07:53:51.08	353.07	7.68	-28.6	-31.0	12.5	9.99e-05	0	43	0	1521483776	17	4755
2026-01-03 07:53:53.09	352.83	7.57	-28.6	-31.2	12.4	1.35e-04	0	43	0	1527775232	17	4828
2026-01-03 07:53:55.11	352.59	7.46	-28.6	-31.2	12.3	1.97e-04	0	43	0	1534066688	17	4831
2026-01-03 07:53:57.12	352.35	7.35	-28.7	-31.3	12.3	1.93e-04	0	43	0	1540358144	17	4859
2026-01-03 07:53:59.13	352.11	7.24	-28.7	-31.4	12.2	1.94e-04	0	43	0	1546649600	17	4909
2026-01-03 07:54:01.15	351.88	7.14	-28.8	-31.6	12.1	3.14e-04	0	43	0	1552941056	17	4972
2026-01-03 07:54:03.16	351.64	7.03	-32.9	-45.1	3.8	1.49e+00	0	43	104	1556086784	25	14710

#Closed at: 2026-01-03 07:54:04
#Recorded file [1556 MB]: D:/data/31010_260103_104544.dat