passes_logs/2026/01/03/R2M6_AANII_01/R2M6_AANII_01__20260103_105318_AQUA_rec.log

#Pass ID: 20260103_105318_AQUA
#Satellite: AQUA
#Configuration: AQUA
#almurnet v.1.7.20240730
#Start time: 2026-01-03 10:53:18

#Version: 2.2.20231116
#Station: R2M6_AANII_01
#Location: 30.233357 lon 59.946436 lat
#TLE: 1 27424U 02022A   25365.92641127  .00002078  00000+0  42628-3 0  9999
#TLE: 2 27424  98.4058 327.1196 0001962  94.7781 340.6230 14.61783896258835

#Time	Az	El	Level	Level2	SNR	BER	BlckErr	Temp	State	Recorded	gain1	gain2
2026-01-03 10:53:18.45	122.46	7.02	-31.8	-41.3	4.8	7.16e-01	0	40	0	0	25	10680
2026-01-03 10:53:21.47	122.24	7.25	-31.6	-38.3	12.3	6.14e-01	0	40	0	1572864	25	7807
2026-01-03 10:53:24.49	122.02	7.48	-31.8	-38.4	12.5	6.10e-01	0	40	0	7340032	25	7714
2026-01-03 10:53:27.51	121.79	7.71	-31.7	-37.7	13.1	6.11e-01	0	41	0	13107200	25	7157
2026-01-03 10:53:30.52	121.55	7.95	-30.8	-35.2	15.9	6.07e-01	0	41	0	18874368	23	5956
2026-01-03 10:53:33.54	121.32	8.18	-30.2	-33.6	17.4	6.09e-01	0	41	0	24117248	22	5331
2026-01-03 10:53:36.56	121.08	8.42	-30.1	-33.2	17.7	6.08e-01	0	41	0	29884416	22	5162
2026-01-03 10:53:39.58	120.83	8.66	-30.1	-33.1	17.8	6.05e-01	0	41	0	35651584	22	5105
2026-01-03 10:53:42.60	120.58	8.91	-30.2	-33.3	17.7	6.06e-01	0	41	0	41418752	22	5178
2026-01-03 10:53:45.61	120.32	9.15	-30.1	-33.1	17.9	6.05e-01	0	41	0	47185920	22	5087
2026-01-03 10:53:48.63	120.06	9.40	-30.1	-33.0	18.0	6.06e-01	0	41	0	52428800	22	5060
2026-01-03 10:53:51.64	119.80	9.65	-30.2	-33.3	17.8	6.06e-01	0	41	0	58195968	22	5167
2026-01-03 10:53:54.65	119.53	9.90	-30.0	-32.9	18.1	6.05e-01	0	41	0	63963136	22	5014
2026-01-03 10:53:57.67	119.25	10.15	-30.2	-33.5	17.7	6.07e-01	0	41	0	69730304	22	5254
2026-01-03 10:54:00.69	118.97	10.41	-30.1	-33.0	18.1	6.09e-01	0	42	0	74973184	22	5044
2026-01-03 10:54:03.71	118.68	10.67	-30.1	-33.0	18.1	6.07e-01	0	42	0	80740352	22	5050
2026-01-03 10:54:06.73	118.39	10.93	-30.2	-33.4	17.8	6.06e-01	0	41	0	86507520	22	5186
2026-01-03 10:54:09.75	118.09	11.19	-30.0	-32.7	18.2	6.07e-01	0	42	0	92274688	22	4943
2026-01-03 10:54:12.77	117.79	11.45	-30.0	-32.8	18.2	6.06e-01	0	42	0	98041856	22	4963
2026-01-03 10:54:15.79	117.48	11.72	-30.0	-32.9	18.3	6.07e-01	0	42	0	103284736	22	4975
2026-01-03 10:54:18.80	117.16	11.99	-30.0	-32.7	18.4	6.07e-01	0	42	0	109051904	22	4930
2026-01-03 10:54:21.83	116.84	12.27	-29.9	-32.4	18.6	6.08e-01	0	42	0	114819072	22	4797
2026-01-03 10:54:24.84	116.51	12.54	-29.8	-32.7	18.7	6.06e-01	0	42	0	120586240	21	5023
2026-01-03 10:54:27.86	116.17	12.82	-29.8	-32.7	18.8	6.08e-01	0	42	0	126353408	21	5021
2026-01-03 10:54:30.87	115.83	13.10	-29.6	-32.1	19.1	6.05e-01	0	42	0	131596288	21	4830
2026-01-03 10:54:33.88	115.48	13.38	-29.7	-32.3	19.0	6.08e-01	0	42	0	137363456	21	4880
2026-01-03 10:54:36.90	115.12	13.67	-29.6	-32.0	19.2	6.07e-01	0	42	0	143130624	21	4781
2026-01-03 10:54:39.92	114.75	13.96	-29.7	-32.3	19.1	6.08e-01	0	42	0	148897792	21	4867
2026-01-03 10:54:42.93	114.38	14.25	-29.6	-32.0	19.3	6.06e-01	0	42	0	154664960	21	4773
2026-01-03 10:54:45.94	114.00	14.54	-29.6	-32.0	19.3	6.06e-01	0	42	0	159907840	21	4758
2026-01-03 10:54:48.96	113.61	14.84	-29.6	-32.1	19.3	6.07e-01	0	42	0	165675008	21	4772
2026-01-03 10:54:51.98	113.21	15.14	-29.7	-32.2	19.2	6.07e-01	0	42	0	171442176	21	4824
2026-01-03 10:54:54.99	112.80	15.44	-29.7	-32.2	19.3	6.06e-01	0	42	0	177209344	21	4820
2026-01-03 10:54:57.99	112.39	15.74	-29.6	-31.9	19.5	6.07e-01	0	42	0	182452224	21	4721
2026-01-03 10:55:01.00	111.96	16.05	-29.5	-31.6	19.7	6.08e-01	0	42	0	188219392	21	4594
2026-01-03 10:55:04.02	111.53	16.36	-29.5	-31.6	19.7	6.08e-01	0	42	0	193986560	21	4584
2026-01-03 10:55:07.04	111.08	16.67	-29.3	-31.7	19.9	6.09e-01	0	42	0	199753728	20	4756
2026-01-03 10:55:10.06	110.63	16.99	-29.4	-31.9	19.8	6.06e-01	0	42	0	205520896	20	4799
2026-01-03 10:55:13.08	110.16	17.31	-29.5	-32.1	19.7	6.04e-01	0	42	0	210763776	20	4870
2026-01-03 10:55:16.10	109.68	17.63	-29.5	-32.1	19.7	6.07e-01	0	43	0	216530944	20	4888
2026-01-03 10:55:19.11	109.20	17.95	-29.6	-32.4	19.5	6.06e-01	0	42	0	222298112	20	4977
2026-01-03 10:55:22.13	108.70	18.28	-29.7	-32.6	19.5	6.05e-01	0	43	0	228065280	20	5027
2026-01-03 10:55:25.15	108.18	18.61	-29.5	-32.2	19.7	6.06e-01	0	42	0	233308160	20	4895
2026-01-03 10:55:28.17	107.66	18.94	-29.6	-32.4	19.6	6.08e-01	0	43	0	239075328	20	4977
2026-01-03 10:55:31.19	107.13	19.28	-29.6	-32.4	19.6	6.06e-01	0	43	0	244842496	20	4982
2026-01-03 10:55:34.20	106.58	19.61	-29.7	-32.5	19.5	6.08e-01	0	42	0	250609664	20	5016
2026-01-03 10:55:37.22	106.02	19.95	-29.7	-32.7	19.5	6.07e-01	0	43	0	256376832	20	5054
2026-01-03 10:55:40.24	105.44	20.29	-29.6	-32.4	19.7	6.07e-01	0	42	0	261619712	20	4968
2026-01-03 10:55:43.25	104.86	20.64	-29.8	-32.9	19.4	6.07e-01	0	43	0	267386880	20	5141
2026-01-03 10:55:46.26	104.25	20.98	-29.8	-32.9	19.4	6.06e-01	0	43	0	273154048	20	5156
2026-01-03 10:55:49.44	103.60	21.35	-29.8	-33.0	19.3	6.08e-01	0	43	0	279969792	20	5178
2026-01-03 10:55:52.19	103.03	21.66	-29.6	-32.4	19.7	6.07e-01	0	43	0	285212672	20	4975
2026-01-03 10:55:55.97	102.22	22.10	-29.9	-33.2	19.3	6.06e-01	0	43	0	292028416	20	5236
2026-01-03 10:55:58.72	101.61	22.42	-29.8	-33.0	19.4	6.07e-01	0	42	0	297271296	20	5170
2026-01-03 10:56:02.49	100.76	22.87	-29.8	-32.9	19.5	6.07e-01	0	43	0	304087040	20	5138
2026-01-03 10:56:05.25	100.11	23.19	-30.0	-33.0	19.1	6.06e-01	0	43	0	309329920	21	5050
2026-01-03 10:56:08.90	99.25	23.62	-29.7	-32.1	19.6	6.07e-01	0	43	0	316145664	21	4752
2026-01-03 10:56:11.62	98.58	23.94	-29.7	-32.0	19.8	6.07e-01	0	42	0	321388544	21	4690
2026-01-03 10:56:14.93	97.75	24.33	-29.9	-32.5	19.5	6.08e-01	0	43	0	327680000	21	4864
2026-01-03 10:56:17.66	97.05	24.65	-29.9	-32.6	19.4	6.05e-01	0	43	0	332922880	21	4908
2026-01-03 10:56:20.96	96.19	25.04	-29.6	-31.8	19.9	6.06e-01	0	43	0	339214336	21	4642
2026-01-03 10:56:23.70	95.45	25.36	-29.7	-32.2	19.7	6.07e-01	0	43	0	343932928	21	4749
2026-01-03 10:56:26.99	94.55	25.75	-29.7	-32.0	19.8	6.08e-01	0	43	0	350224384	21	4712
2026-01-03 10:56:29.75	93.77	26.07	-29.7	-32.0	19.8	6.06e-01	0	43	0	355467264	21	4698
2026-01-03 10:56:33.06	92.82	26.45	-29.5	-31.5	20.1	6.06e-01	0	43	0	361758720	21	4542
2026-01-03 10:56:35.78	92.01	26.77	-29.5	-31.4	20.2	6.06e-01	0	43	0	367001600	21	4506
2026-01-03 10:56:39.08	91.02	27.14	-29.7	-32.1	19.8	6.07e-01	0	43	0	372768768	21	4727
2026-01-03 10:56:41.81	90.18	27.45	-29.4	-31.3	20.3	6.08e-01	0	43	0	378011648	21	4476
2026-01-03 10:56:45.12	89.13	27.82	-29.2	-31.3	20.5	6.04e-01	0	43	0	384303104	20	4585
2026-01-03 10:56:47.85	88.25	28.12	-29.3	-31.4	20.5	6.07e-01	0	43	0	389545984	20	4609
2026-01-03 10:56:51.14	87.17	28.48	-29.4	-31.8	20.3	6.06e-01	0	43	0	395313152	20	4733
2026-01-03 10:56:53.91	86.24	28.78	-29.5	-31.9	20.2	6.08e-01	0	43	0	400556032	20	4782
2026-01-03 10:56:57.22	85.10	29.13	-29.2	-31.4	20.5	6.04e-01	0	43	0	406847488	20	4613
2026-01-03 10:56:59.95	84.15	29.41	-29.4	-31.7	20.3	6.08e-01	0	43	0	412090368	20	4719
2026-01-03 10:57:03.26	82.97	29.74	-29.0	-30.9	20.8	6.09e-01	0	43	0	418381824	20	4445
2026-01-03 10:57:06.00	81.97	30.01	-29.1	-31.0	20.7	6.05e-01	0	43	0	423624704	20	4475
2026-01-03 10:57:09.30	80.74	30.32	-28.9	-30.5	21.0	6.06e-01	0	43	0	429391872	20	4343
2026-01-03 10:57:12.02	79.72	30.57	-29.0	-30.8	20.9	6.07e-01	0	43	0	434634752	20	4418
2026-01-03 10:57:15.33	78.44	30.86	-29.1	-31.0	20.8	6.08e-01	0	43	0	440926208	20	4474
2026-01-03 10:57:18.06	77.38	31.10	-29.5	-41.5	3.8	7.44e-01	0	43	104	444071936	20	14266
2026-01-03 10:57:21.36	76.06	31.36	-30.1	-42.4	3.8	7.44e-01	0	43	104	444071936	21	14770
2026-01-03 10:57:24.09	74.96	31.58	-31.3	-44.5	3.8	7.44e-01	0	43	104	444071936	23	16427
2026-01-03 10:57:27.39	73.61	31.82	-32.4	-46.8	3.8	7.46e-01	0	43	104	444071936	25	18838
2026-01-03 10:57:30.13	72.48	32.01	-33.1	-48.6	3.8	7.44e-01	0	43	104	444071936	27	21342
2026-01-03 10:57:33.43	71.09	32.22	-33.6	-50.4	3.8	7.47e-01	0	43	104	444071936	28	24795
2026-01-03 10:57:36.16	69.93	32.38	-33.6	-50.3	3.8	7.42e-01	0	43	104	444071936	28	24676
2026-01-03 10:57:39.47	68.51	32.56	-33.4	-49.2	3.8	7.43e-01	0	43	104	444071936	28	22301
2026-01-03 10:57:42.20	67.32	32.70	-33.4	-49.0	3.8	7.44e-01	0	43	104	444071936	28	21882
2026-01-03 10:57:45.51	65.87	32.84	-33.3	-48.9	3.8	7.45e-01	0	43	104	444071936	28	21837
2026-01-03 10:57:48.23	64.67	32.95	-33.2	-48.4	3.8	7.44e-01	0	43	104	444071936	28	20873
2026-01-03 10:57:51.55	63.20	33.06	-33.1	-48.0	3.8	7.45e-01	0	43	104	444071936	28	19971
2026-01-03 10:57:54.28	61.98	33.13	-32.5	-46.3	3.8	7.46e-01	0	43	104	444071936	27	17533
2026-01-03 10:57:57.59	60.49	33.20	-31.5	-44.0	3.8	7.41e-01	0	43	104	444071936	25	15188
2026-01-03 10:58:00.33	59.25	33.25	-31.5	-44.0	3.8	7.46e-01	0	43	104	444071936	25	15167
2026-01-03 10:58:03.64	57.76	33.28	-31.6	-44.2	3.8	7.47e-01	0	43	104	444071936	25	15332
2026-01-03 10:58:06.37	56.52	33.29	-30.7	-42.7	3.8	7.40e-01	0	43	104	444071936	23	14390
2026-01-03 10:58:09.67	55.03	33.28	-31.0	-43.5	3.8	7.44e-01	0	43	104	444071936	23	15216
2026-01-03 10:58:12.40	53.80	33.26	-32.3	-46.5	3.8	7.44e-01	0	43	104	444071936	25	18388
2026-01-03 10:58:15.71	52.31	33.22	-33.6	-50.4	3.8	7.46e-01	0	43	104	444071936	28	24653
2026-01-03 10:58:18.44	51.08	33.16	-33.7	-51.0	3.8	7.48e-01	0	43	104	444071936	28	26194
2026-01-03 10:58:21.74	49.60	33.08	-33.7	-50.6	3.8	7.44e-01	0	43	104	444071936	28	25197
2026-01-03 10:58:24.48	48.38	32.99	-33.5	-49.9	3.8	7.40e-01	0	43	104	444071936	28	23617
2026-01-03 10:58:27.78	46.93	32.87	-33.1	-47.8	3.8	7.48e-01	0	43	104	444071936	28	19687
2026-01-03 10:58:30.52	45.72	32.75	-33.3	-48.8	3.8	7.46e-01	0	43	104	444071936	28	21472
2026-01-03 10:58:33.83	44.29	32.59	-33.4	-49.2	3.8	7.46e-01	0	43	104	444071936	28	22124
2026-01-03 10:58:36.55	43.11	32.45	-33.4	-49.1	3.8	7.46e-01	0	43	104	444071936	28	22025
2026-01-03 10:58:39.87	41.70	32.26	-33.4	-49.1	3.8	7.47e-01	0	43	104	444071936	28	22133
2026-01-03 10:58:42.61	40.55	32.09	-32.9	-47.3	3.8	7.45e-01	0	43	104	444071936	28	18795
2026-01-03 10:58:45.92	39.17	31.86	-31.7	-44.5	3.8	7.48e-01	0	43	104	444071936	25	15770
2026-01-03 10:58:48.65	38.05	31.67	-31.6	-44.4	3.8	7.45e-01	0	43	104	444071936	25	15639
2026-01-03 10:58:51.95	36.72	31.42	-32.4	-46.7	3.8	7.49e-01	0	43	104	444071936	25	18636
2026-01-03 10:58:54.69	35.63	31.20	-32.2	-45.6	3.8	7.45e-01	0	43	104	444071936	26	16855
2026-01-03 10:58:57.99	34.33	30.92	-31.9	-45.0	3.8	7.45e-01	0	43	104	444071936	25	16416
2026-01-03 10:59:00.72	33.28	30.68	-32.9	-48.0	3.8	7.47e-01	0	43	104	444071936	26	20513
2026-01-03 10:59:04.02	32.03	30.38	-33.8	-51.8	3.8	7.43e-01	0	43	104	444071936	28	28337
2026-01-03 10:59:06.75	31.02	30.13	-33.7	-51.1	3.8	7.43e-01	0	43	104	444071936	28	26661
2026-01-03 10:59:10.05	29.81	29.81	-33.5	-50.0	3.8	7.41e-01	0	43	104	444071936	28	24011
2026-01-03 10:59:12.78	28.83	29.54	-33.4	-49.4	3.8	7.44e-01	0	43	104	444071936	28	22828
2026-01-03 10:59:16.10	27.67	29.20	-33.0	-47.7	3.8	7.43e-01	0	43	104	444071936	28	19552
2026-01-03 10:59:18.83	26.73	28.91	-33.1	-48.4	3.8	7.45e-01	0	43	104	444071936	27	21000
2026-01-03 10:59:22.14	25.61	28.56	-33.5	-50.3	3.8	7.46e-01	0	43	104	444071936	27	24913
2026-01-03 10:59:24.87	24.71	28.27	-33.4	-50.1	3.8	7.46e-01	0	43	104	444071936	27	24405
2026-01-03 10:59:28.18	23.64	27.91	-33.4	-49.7	3.8	7.43e-01	0	43	104	444071936	27	23745
2026-01-03 10:59:30.91	22.78	27.60	-33.3	-49.5	3.8	7.46e-01	0	43	104	444071936	27	23313
2026-01-03 10:59:34.22	21.75	27.23	-32.5	-46.4	3.8	7.46e-01	0	43	104	444071936	27	17826
2026-01-03 10:59:36.95	20.93	26.92	-31.8	-44.8	3.8	7.40e-01	0	43	104	444071936	25	16123
2026-01-03 10:59:40.26	19.95	26.54	-32.7	-47.6	3.8	7.44e-01	0	43	104	444071936	26	20023
2026-01-03 10:59:42.99	19.16	26.23	-33.1	-48.6	3.8	7.45e-01	0	43	104	444071936	27	21397
2026-01-03 10:59:46.30	18.23	25.84	-33.0	-48.3	3.8	7.46e-01	0	43	104	444071936	27	20987
2026-01-03 10:59:49.03	17.47	25.53	-33.1	-48.7	3.8	7.48e-01	0	43	104	444071936	27	21678
2026-01-03 10:59:52.35	16.58	25.14	-33.7	-51.6	3.8	7.45e-01	0	43	104	444071936	28	28197
2026-01-03 10:59:55.08	15.86	24.82	-33.5	-50.1	3.8	7.44e-01	0	43	104	444071936	28	24467
2026-01-03 10:59:58.39	15.01	24.43	-33.2	-49.1	3.8	7.44e-01	0	43	104	444071936	28	22224
2026-01-03 11:00:01.12	14.33	24.11	-33.2	-48.8	3.8	7.46e-01	0	43	104	444071936	28	21879
2026-01-03 11:00:04.42	13.52	23.72	-32.9	-48.0	3.8	7.45e-01	0	43	104	444071936	28	20345
2026-01-03 11:00:07.16	12.86	23.40	-32.5	-46.4	3.8	7.47e-01	0	43	104	444071936	27	17875
2026-01-03 11:00:10.47	12.09	23.01	-33.1	-49.1	3.8	7.45e-01	0	43	104	444071936	27	22670
2026-01-03 11:00:13.20	11.47	22.70	-33.4	-50.2	3.8	7.48e-01	0	43	104	444071936	27	24994
2026-01-03 11:00:16.51	10.73	22.31	-33.1	-49.1	3.8	7.47e-01	0	43	104	444071936	27	22659
2026-01-03 11:00:19.24	10.14	21.99	-33.2	-49.6	3.8	7.46e-01	0	43	104	444071936	27	23819
2026-01-03 11:00:22.55	9.43	21.61	-33.0	-48.6	3.8	7.49e-01	0	43	104	444071936	27	21669
2026-01-03 11:00:25.28	8.87	21.30	-32.5	-46.6	3.8	7.45e-01	0	43	104	444071936	27	18223
2026-01-03 11:00:28.60	8.20	20.92	-32.6	-47.7	3.8	7.45e-01	0	43	104	444071936	26	20459
2026-01-03 11:00:31.33	7.66	20.61	-33.2	-49.7	3.8	7.42e-01	0	43	104	444071936	27	23931
2026-01-03 11:00:34.63	7.02	20.24	-33.4	-50.6	3.8	7.46e-01	0	43	104	444071936	27	25944
2026-01-03 11:00:37.37	6.51	19.93	-33.6	-51.6	3.8	7.44e-01	0	43	104	444071936	27	28808
2026-01-03 11:00:40.67	5.90	19.56	-33.5	-51.4	3.8	7.44e-01	0	43	104	444071936	28	28275
2026-01-03 11:00:43.41	5.41	19.26	-33.2	-49.7	3.8	7.43e-01	0	43	104	444071936	28	24046
2026-01-03 11:00:46.72	4.83	18.89	-32.8	-47.8	3.8	7.46e-01	0	43	104	444071936	27	20271
2026-01-03 11:00:49.45	4.36	18.59	-32.9	-48.4	3.8	7.45e-01	0	43	104	444071936	27	21590
2026-01-03 11:00:52.76	3.81	18.23	-32.8	-48.0	3.8	7.44e-01	0	43	104	444071936	27	20613
2026-01-03 11:00:55.49	3.36	17.94	-32.3	-46.7	3.8	7.46e-01	0	43	104	444071936	26	18911
2026-01-03 11:00:58.79	2.83	17.59	-32.2	-46.4	3.8	7.48e-01	0	43	104	444071936	26	18337
2026-01-03 11:01:01.51	2.41	17.30	-32.9	-48.9	3.8	7.43e-01	0	43	104	444071936	26	22773
2026-01-03 11:01:04.80	1.91	16.96	-32.8	-48.9	3.8	7.46e-01	0	43	104	444071936	26	22991
2026-01-03 11:01:07.53	1.50	16.67	-33.0	-49.5	3.8	7.42e-01	0	43	104	444071936	26	24136
2026-01-03 11:01:10.85	1.01	16.33	-33.1	-49.7	3.8	7.45e-01	0	43	104	444071936	27	24337
2026-01-03 11:01:13.58	0.63	16.05	-32.8	-48.6	3.8	7.44e-01	0	43	104	444071936	27	22012
2026-01-03 11:01:16.90	0.16	15.72	-32.7	-47.8	3.8	7.45e-01	0	43	104	444071936	27	20491
2026-01-03 11:01:19.63	359.79	15.44	-33.0	-49.2	3.8	7.45e-01	0	43	104	444071936	27	23244
2026-01-03 11:01:22.94	359.35	15.11	-33.1	-49.6	3.8	7.47e-01	0	43	104	444071936	27	24193
2026-01-03 11:01:25.68	358.99	14.84	-33.3	-50.9	3.8	7.46e-01	0	43	104	444071936	27	27332
2026-01-03 11:01:28.99	358.57	14.52	-33.3	-51.2	3.8	7.47e-01	0	43	104	444071936	27	28321
2026-01-03 11:01:31.72	358.23	14.25	-33.0	-49.3	3.8	7.41e-01	0	43	104	444071936	27	23593
2026-01-03 11:01:35.04	357.82	13.94	-32.1	-46.1	3.8	7.43e-01	0	43	104	444071936	26	18053
2026-01-03 11:01:37.77	357.49	13.68	-32.0	-46.4	3.8	7.47e-01	0	43	104	444071936	25	18930
2026-01-03 11:01:41.08	357.11	13.36	-32.4	-48.0	3.8	7.43e-01	0	43	104	444071936	25	21672
2026-01-03 11:01:43.81	356.79	13.11	-32.1	-47.0	3.8	7.45e-01	0	43	104	444071936	25	19912
2026-01-03 11:01:47.11	356.42	12.80	-31.7	-45.7	3.8	7.43e-01	0	43	104	444071936	25	17954
2026-01-03 11:01:49.85	356.12	12.55	-32.3	-47.9	3.8	7.46e-01	0	43	104	444071936	25	21514
2026-01-03 11:01:53.15	355.77	12.25	-32.8	-49.4	3.8	7.49e-01	0	43	104	444071936	26	24350
2026-01-03 11:01:55.88	355.48	12.01	-32.9	-49.7	3.8	7.44e-01	0	43	104	444071936	26	24976
2026-01-03 11:01:59.19	355.14	11.71	-33.0	-50.3	3.8	7.45e-01	0	43	104	444071936	26	26405
2026-01-03 11:02:01.92	354.86	11.47	-32.9	-50.1	3.8	7.45e-01	0	43	104	444071936	26	26079
2026-01-03 11:02:05.23	354.53	11.18	-32.8	-49.5	3.8	7.47e-01	0	43	104	444071936	26	24601
2026-01-03 11:02:07.95	354.27	10.95	-32.9	-49.9	3.8	7.47e-01	0	43	104	444071936	26	25547
2026-01-03 11:02:11.27	353.95	10.66	-32.9	-50.1	3.8	7.46e-01	0	43	104	444071936	26	26045
2026-01-03 11:02:14.00	353.69	10.43	-32.9	-50.1	3.8	7.46e-01	0	43	104	444071936	26	26044
2026-01-03 11:02:17.31	353.39	10.15	-33.0	-50.8	3.8	7.46e-01	0	43	104	444071936	26	27983
2026-01-03 11:02:20.04	353.14	9.92	-32.8	-49.8	3.8	7.45e-01	0	43	104	444071936	26	25322
2026-01-03 11:02:23.34	352.85	9.65	-32.1	-46.5	3.8	7.45e-01	0	43	104	444071936	26	18907
2026-01-03 11:02:26.06	352.62	9.43	-31.5	-44.7	3.8	7.45e-01	0	43	104	444071936	25	16556
2026-01-03 11:02:29.37	352.34	9.16	-31.8	-46.2	3.8	7.46e-01	0	43	104	444071936	25	18773
2026-01-03 11:02:32.10	352.11	8.94	-32.1	-47.5	3.8	7.45e-01	0	43	104	444071936	25	21016
2026-01-03 11:02:35.41	351.84	8.67	-31.8	-46.5	3.8	7.45e-01	0	43	104	444071936	25	19407
2026-01-03 11:02:38.14	351.62	8.46	-32.3	-48.2	3.8	7.43e-01	0	43	104	444071936	25	22637
2026-01-03 11:02:41.45	351.36	8.20	-32.7	-49.8	3.8	7.45e-01	0	43	104	444071936	26	25684
2026-01-03 11:02:44.18	351.15	7.98	-32.7	-50.0	3.8	7.43e-01	0	43	104	444071936	26	26321
2026-01-03 11:02:47.49	350.90	7.73	-32.8	-50.4	3.8	7.43e-01	0	43	104	444071936	26	27492
2026-01-03 11:02:50.23	350.69	7.52	-32.8	-50.8	3.8	7.44e-01	0	43	104	444071936	26	28590
2026-01-03 11:02:53.54	350.45	7.27	-32.7	-50.1	3.8	7.46e-01	0	43	104	444071936	26	26639
2026-01-03 11:02:56.27	350.25	7.06	-33.1	-52.2	3.8	7.46e-01	0	43	104	444071936	27	32484

#Closed at: 2026-01-03 11:02:58
#Recorded file [444 MB]: D:/data/31010_260103_135320.dat