passes_logs/2026/01/03/R2M6_AANII_01/R2M6_AANII_01__20260103_101308_NOAA_20_JPSS-1_rec.log

#Pass ID: 20260103_101308_NOAA 20 (JPSS-1)
#Satellite: NOAA 20 (JPSS-1)
#Configuration: NOAA 20
#almurnet v.1.7.20240730
#Start time: 2026-01-03 10:13:08

#Version: 2.2.20231116
#Station: R2M6_AANII_01
#Location: 30.233357 lon 59.946436 lat
#TLE: 1 43013U 17073A   26002.21975278  .00000202  00000+0  11669-3 0  9999
#TLE: 2 43013  98.7622 303.2950 0001915  57.9213 302.2149 14.19532512420923

#Time	Az	El	Level	Level2	SNR	BER	BlckErr	Temp	State	Recorded	gain1	gain2
2026-01-03 10:13:08.73	157.07	7.04	-30.8	-37.5	5.0	1.28e+00	0	40	0	0	22	7742
2026-01-03 10:13:11.74	157.07	7.28	-31.1	-38.5	6.6	2.03e-01	0	41	0	1048576	23	8392
2026-01-03 10:13:14.76	157.06	7.52	-31.0	-36.7	8.1	8.42e-02	0	41	0	7340032	23	6963
2026-01-03 10:13:17.78	157.06	7.76	-30.7	-35.9	9.3	2.00e-02	0	41	0	12582912	22	6529
2026-01-03 10:13:20.80	157.06	8.00	-30.7	-35.9	9.3	2.25e-02	0	41	0	18874368	22	6530
2026-01-03 10:13:23.80	157.06	8.24	-30.5	-35.2	9.8	1.13e-02	0	41	0	24117248	22	6215
2026-01-03 10:13:26.81	157.05	8.49	-30.5	-35.1	9.9	1.02e-02	0	41	0	29360128	22	6133
2026-01-03 10:13:29.84	157.05	8.74	-30.4	-34.7	10.4	4.67e-03	0	41	0	35651584	22	5861
2026-01-03 10:13:32.85	157.04	8.99	-30.6	-35.0	10.2	6.55e-03	0	41	0	40894464	22	5976
2026-01-03 10:13:35.86	157.04	9.24	-30.7	-35.2	10.1	6.85e-03	0	42	0	46137344	22	6045
2026-01-03 10:13:38.89	157.04	9.50	-30.9	-35.6	10.0	7.75e-03	0	41	0	52428800	22	6188
2026-01-03 10:13:41.90	157.03	9.76	-30.8	-35.0	10.5	4.28e-03	0	42	0	57671680	22	5845
2026-01-03 10:13:44.93	157.03	10.03	-30.8	-35.0	10.5	4.51e-03	0	42	0	63963136	22	5858
2026-01-03 10:13:47.95	157.02	10.29	-30.7	-34.6	10.7	2.95e-03	0	42	0	69206016	22	5700
2026-01-03 10:13:50.96	157.02	10.56	-30.7	-34.9	10.6	3.55e-03	0	42	0	74448896	22	5804
2026-01-03 10:13:53.98	157.01	10.83	-30.7	-35.0	10.6	4.73e-03	0	42	0	80740352	22	5840
2026-01-03 10:13:56.99	157.01	11.10	-30.7	-34.6	10.9	2.25e-03	0	42	0	85983232	22	5659
2026-01-03 10:14:00.00	157.00	11.38	-30.7	-34.9	10.7	2.46e-03	0	42	0	92274688	22	5781
2026-01-03 10:14:03.02	156.99	11.66	-30.7	-34.6	10.9	2.31e-03	0	42	0	97517568	22	5655
2026-01-03 10:14:06.03	156.99	11.94	-30.6	-34.3	11.2	1.30e-03	0	42	0	102760448	22	5511
2026-01-03 10:14:09.05	156.98	12.23	-30.7	-34.6	11.0	1.91e-03	0	42	0	109051904	22	5655
2026-01-03 10:14:12.07	156.97	12.52	-30.4	-33.9	11.5	8.40e-04	0	42	0	114294784	22	5358
2026-01-03 10:14:15.09	156.97	12.82	-30.4	-33.9	11.5	8.27e-04	0	42	0	120586240	22	5366
2026-01-03 10:14:18.09	156.96	13.11	-30.3	-33.6	11.7	5.48e-04	0	42	0	125829120	22	5235
2026-01-03 10:14:21.10	156.95	13.41	-30.4	-33.9	11.5	6.57e-04	0	42	0	131072000	22	5352
2026-01-03 10:14:24.12	156.94	13.72	-30.4	-33.7	11.8	5.61e-04	0	42	0	137363456	22	5248
2026-01-03 10:14:27.14	156.93	14.03	-30.4	-33.5	11.9	3.68e-04	0	42	0	142606336	22	5158
2026-01-03 10:14:30.15	156.92	14.34	-30.5	-33.7	11.8	4.26e-04	0	42	0	148897792	22	5246
2026-01-03 10:14:33.17	156.91	14.66	-30.2	-33.5	12.3	2.31e-04	0	42	0	154140672	21	5272
2026-01-03 10:14:36.18	156.90	14.98	-30.2	-33.4	12.4	1.62e-04	0	42	0	159383552	21	5221
2026-01-03 10:14:39.20	156.89	15.30	-30.2	-33.5	12.4	1.62e-04	0	42	0	165675008	21	5227
2026-01-03 10:14:42.22	156.88	15.63	-30.3	-33.6	12.3	1.61e-04	0	42	0	170917888	21	5260
2026-01-03 10:14:45.24	156.87	15.97	-30.1	-33.1	12.7	7.62e-05	0	43	0	177209344	21	5078
2026-01-03 10:14:48.25	156.86	16.31	-30.1	-33.0	12.8	5.72e-05	0	43	0	182452224	21	5032
2026-01-03 10:14:51.27	156.85	16.65	-30.0	-32.7	13.0	3.35e-05	0	42	0	187695104	21	4918
2026-01-03 10:14:54.29	156.83	17.00	-30.0	-32.6	13.1	1.98e-05	0	43	0	193986560	21	4860
2026-01-03 10:14:57.30	156.82	17.35	-30.0	-32.7	13.0	3.96e-05	0	43	0	199229440	21	4922
2026-01-03 10:15:00.32	156.81	17.71	-30.1	-32.9	12.9	4.27e-05	0	43	0	204472320	21	5017
2026-01-03 10:15:03.34	156.79	18.08	-30.1	-33.0	12.9	8.69e-05	0	43	0	210763776	21	5021
2026-01-03 10:15:06.36	156.78	18.45	-29.8	-32.2	13.4	1.67e-05	0	43	0	216006656	21	4745
2026-01-03 10:15:09.37	156.76	18.82	-29.7	-32.4	13.6	1.06e-05	0	43	0	222298112	20	4914
2026-01-03 10:15:12.38	156.75	19.20	-29.9	-32.7	13.5	9.10e-06	0	43	0	227540992	20	4998
2026-01-03 10:15:15.40	156.73	19.59	-29.7	-32.3	13.8	6.80e-06	0	43	0	232783872	20	4854
2026-01-03 10:15:18.42	156.71	19.99	-29.7	-32.1	13.9	7.00e-07	0	43	0	239075328	20	4784
2026-01-03 10:15:21.44	156.69	20.39	-29.6	-31.9	14.0	2.20e-06	0	43	0	244318208	20	4711
2026-01-03 10:15:24.45	156.67	20.79	-29.7	-32.3	13.8	3.00e-06	0	43	0	250609664	20	4846
2026-01-03 10:15:27.47	156.65	21.20	-29.7	-32.3	13.8	5.30e-06	0	43	0	255852544	20	4860
2026-01-03 10:15:30.49	156.63	21.62	-29.9	-32.8	13.6	5.30e-06	0	43	0	261095424	20	4998
2026-01-03 10:15:33.50	156.61	22.05	-29.7	-32.1	14.0	1.50e-06	0	43	0	267386880	20	4777
2026-01-03 10:15:36.53	156.59	22.49	-29.8	-32.4	13.9	6.10e-06	0	43	0	272629760	20	4867
2026-01-03 10:15:39.54	156.57	22.93	-29.9	-32.8	13.6	1.06e-05	0	43	0	278921216	20	5025
2026-01-03 10:15:42.56	156.54	23.38	-29.9	-32.9	13.6	7.60e-06	0	43	0	284164096	20	5044
2026-01-03 10:15:45.58	156.52	23.84	-29.7	-32.3	14.0	6.10e-06	0	43	0	289406976	20	4838
2026-01-03 10:15:48.59	156.49	24.30	-30.0	-33.0	13.6	7.60e-06	0	43	0	295698432	20	5089
2026-01-03 10:15:51.61	156.47	24.77	-30.1	-33.1	13.5	8.30e-06	0	43	0	300941312	20	5110
2026-01-03 10:15:54.63	156.44	25.26	-29.9	-32.6	13.8	5.30e-06	0	43	0	307232768	20	4946
2026-01-03 10:15:57.65	156.41	25.75	-29.9	-32.7	13.8	6.80e-06	0	43	0	312475648	20	4964
2026-01-03 10:16:00.66	156.38	26.25	-29.8	-32.5	13.9	6.10e-06	0	43	0	317718528	20	4915
2026-01-03 10:16:03.68	156.34	26.76	-30.0	-33.0	13.6	3.80e-06	0	43	0	324009984	20	5078
2026-01-03 10:16:06.70	156.31	27.28	-30.4	-33.9	13.0	2.67e-05	0	43	0	329252864	20	5415
2026-01-03 10:16:09.71	156.28	27.81	-30.7	-34.5	12.4	1.30e-04	0	43	0	335544320	21	5536
2026-01-03 10:16:12.73	156.24	28.35	-30.9	-35.1	12.0	4.27e-04	0	43	0	340787200	21	5786
2026-01-03 10:16:15.75	156.20	28.90	-31.1	-35.0	11.7	4.73e-04	0	43	0	346030080	22	5638
2026-01-03 10:16:18.76	156.16	29.46	-31.3	-35.7	11.2	1.15e-03	0	43	0	352321536	22	5948
2026-01-03 10:16:21.78	156.12	30.04	-31.7	-36.6	10.2	4.09e-03	0	43	0	357564416	23	6292
2026-01-03 10:16:24.79	156.08	30.62	-31.8	-36.6	10.2	9.24e-03	0	43	0	363855872	23	6295
2026-01-03 10:16:27.82	156.03	31.22	-31.6	-36.0	10.7	2.82e-03	0	43	0	369098752	23	6002
2026-01-03 10:16:30.83	155.99	31.83	-31.8	-36.6	10.3	6.62e-03	0	43	0	374341632	23	6275
2026-01-03 10:16:33.85	155.94	32.45	-31.7	-36.3	10.4	4.05e-03	0	43	0	380633088	23	6148
2026-01-03 10:16:36.87	155.89	33.09	-31.6	-36.1	10.6	4.22e-03	0	43	0	385875968	23	6051
2026-01-03 10:16:39.89	155.83	33.74	-31.4	-35.4	11.2	1.84e-03	0	43	0	392167424	23	5684
2026-01-03 10:16:42.91	155.77	34.40	-31.2	-34.6	11.8	7.70e-04	0	43	0	397410304	23	5331
2026-01-03 10:16:45.92	155.71	35.08	-30.9	-33.7	12.4	1.79e-04	0	43	0	402653184	23	4977
2026-01-03 10:16:48.93	155.65	35.77	-30.0	-32.3	14.0	6.80e-06	0	43	0	408944640	21	4695
2026-01-03 10:16:51.95	155.59	36.48	-29.9	-32.0	14.2	7.00e-07	0	43	0	414187520	21	4595
2026-01-03 10:16:54.97	155.52	37.20	-29.7	-31.9	14.6	1.50e-06	0	43	0	420478976	20	4661
2026-01-03 10:16:57.98	155.44	37.94	-29.5	-31.5	14.9	0.00e+00	0	43	0	425721856	20	4517
2026-01-03 10:17:01.00	155.37	38.70	-29.3	-31.1	15.1	0.00e+00	0	43	0	430964736	20	4400
2026-01-03 10:17:04.01	155.29	39.47	-29.5	-31.9	15.0	0.00e+00	0	43	0	437256192	19	4765
2026-01-03 10:17:07.01	155.20	40.26	-29.6	-32.3	14.7	0.00e+00	0	43	0	442499072	19	4901
2026-01-03 10:17:10.02	155.11	41.06	-29.9	-32.9	14.4	1.50e-06	0	43	0	447741952	19	5085
2026-01-03 10:17:13.05	155.02	41.89	-30.0	-32.9	14.1	7.00e-07	0	43	0	454033408	20	4988
2026-01-03 10:17:16.06	154.92	42.74	-30.0	-32.8	14.0	1.50e-06	0	43	0	459276288	20	4968
2026-01-03 10:17:19.09	154.81	43.61	-30.1	-32.9	14.0	4.50e-06	0	43	0	465567744	20	4996
2026-01-03 10:17:22.11	154.70	44.49	-30.2	-33.4	13.7	7.00e-07	0	43	0	470810624	20	5187
2026-01-03 10:17:25.13	154.58	45.40	-30.9	-34.8	12.5	9.23e-05	0	43	0	477102080	21	5641
2026-01-03 10:17:28.15	154.45	46.32	-31.4	-35.9	11.5	7.13e-04	0	43	0	482344960	22	5989
2026-01-03 10:17:31.17	154.31	47.27	-32.0	-36.7	10.0	6.21e-03	0	43	0	487587840	24	6218
2026-01-03 10:17:34.18	154.17	48.24	-31.7	-35.6	11.0	1.97e-03	0	43	0	493879296	24	5632
2026-01-03 10:17:37.20	154.01	49.23	-31.4	-34.7	11.5	1.05e-03	0	43	0	499122176	24	5264
2026-01-03 10:17:40.21	153.84	50.24	-30.7	-33.6	13.0	7.47e-05	0	43	0	504365056	22	5046
2026-01-03 10:17:43.23	153.66	51.28	-30.1	-32.6	14.0	3.80e-06	0	43	0	510656512	21	4787
2026-01-03 10:17:46.25	153.47	52.33	-29.3	-30.8	15.4	0.00e+00	0	43	0	515899392	20	4316
2026-01-03 10:17:49.26	153.26	53.41	-29.4	-31.8	15.2	0.00e+00	0	43	0	522190848	19	4708
2026-01-03 10:17:52.27	153.04	54.51	-29.5	-31.8	15.1	0.00e+00	0	43	0	527433728	19	4730
2026-01-03 10:17:55.29	152.79	55.64	-29.6	-32.2	14.9	0.00e+00	0	43	0	532676608	19	4848
2026-01-03 10:17:58.30	152.52	56.79	-30.9	-34.7	12.6	1.90e-05	0	43	0	538968064	21	5593
2026-01-03 10:18:01.33	152.23	57.97	-32.1	-36.9	10.0	3.36e-03	0	43	0	544210944	24	6285
2026-01-03 10:18:04.35	151.91	59.17	-31.7	-35.8	10.9	5.09e-03	0	43	0	550502400	24	5716
2026-01-03 10:18:07.36	151.56	60.38	-31.3	-34.7	12.0	3.45e-04	0	43	0	555745280	23	5345
2026-01-03 10:18:10.38	151.18	61.63	-29.9	-32.0	14.5	2.20e-06	0	43	0	560988160	21	4564
2026-01-03 10:18:13.39	150.75	62.89	-29.3	-30.9	15.4	0.00e+00	0	43	0	567279616	20	4327
2026-01-03 10:18:16.42	150.27	64.18	-29.5	-31.9	15.2	0.00e+00	0	43	0	572522496	19	4748
2026-01-03 10:18:19.43	149.73	65.48	-30.3	-33.6	13.8	2.20e-06	0	43	0	578813952	20	5224
2026-01-03 10:18:22.46	149.12	66.82	-30.4	-33.1	13.8	5.30e-06	0	43	0	584056832	21	4925
2026-01-03 10:18:25.47	148.44	68.16	-30.9	-34.2	12.7	8.01e-05	0	43	0	589299712	22	5224
2026-01-03 10:18:28.49	147.65	69.52	-30.6	-33.2	13.4	1.06e-05	0	43	0	595591168	22	4867
2026-01-03 10:18:31.51	146.73	70.90	-30.5	-32.8	13.7	1.22e-05	0	43	0	600834048	22	4721
2026-01-03 10:18:34.52	145.67	72.29	-30.6	-33.3	13.3	1.90e-05	0	43	0	607125504	22	4907
2026-01-03 10:18:37.54	144.40	73.69	-31.2	-35.1	12.1	9.91e-05	0	43	0	612368384	22	5588
2026-01-03 10:18:40.56	142.88	75.10	-31.3	-35.2	12.1	3.49e-04	0	43	0	617611264	22	5678
2026-01-03 10:18:43.58	141.03	76.52	-31.1	-34.5	12.6	6.02e-05	0	43	0	623902720	22	5369
2026-01-03 10:18:46.60	138.73	77.93	-31.4	-35.0	12.0	3.29e-04	0	43	0	629145600	23	5432
2026-01-03 10:18:49.61	135.81	79.32	-30.4	-32.7	13.8	2.59e-05	0	43	0	635437056	22	4673
2026-01-03 10:18:52.62	132.01	80.69	-30.0	-32.7	14.5	3.00e-06	0	43	0	640679936	20	4883
2026-01-03 10:18:55.63	126.90	82.01	-31.0	-34.3	12.7	7.85e-05	0	43	0	645922816	22	5262
2026-01-03 10:18:58.64	119.81	83.25	-29.3	-30.9	15.5	0.00e+00	0	43	0	652214272	20	4299
2026-01-03 10:19:01.66	109.69	84.35	-29.7	-32.2	15.2	0.00e+00	0	43	0	657457152	19	4812
2026-01-03 10:19:04.67	95.41	85.20	-30.1	-32.8	14.4	0.00e+00	0	43	0	662700032	20	4922
2026-01-03 10:19:07.70	76.60	85.65	-31.7	-35.7	11.6	4.19e-04	0	43	0	668991488	23	5718
2026-01-03 10:19:10.72	56.26	85.56	-32.3	-37.3	10.2	9.38e-03	0	43	0	674234368	24	6395
2026-01-03 10:19:13.73	38.80	84.97	-31.5	-34.8	11.8	8.42e-04	0	43	0	680525824	24	5241
2026-01-03 10:19:16.75	25.88	84.03	-31.6	-35.5	11.6	2.88e-04	0	43	0	685768704	23	5638
2026-01-03 10:19:19.77	16.83	82.88	-32.3	-37.5	9.8	5.94e-03	0	43	0	691011584	24	6520
2026-01-03 10:19:22.79	10.43	81.61	-32.2	-36.4	10.2	7.89e-03	0	43	0	697303040	25	5892
2026-01-03 10:19:25.81	5.77	80.26	-32.0	-36.0	10.5	6.62e-03	0	43	0	702545920	25	5689
2026-01-03 10:19:28.84	2.26	78.88	-30.5	-32.9	13.7	9.90e-06	0	43	0	708837376	22	4746
2026-01-03 10:19:31.85	359.57	77.48	-31.5	-35.7	11.8	2.97e-04	0	43	0	714080256	22	5849
2026-01-03 10:19:34.87	357.43	76.07	-31.5	-34.6	11.8	8.26e-04	0	43	0	719323136	24	5192
2026-01-03 10:19:37.89	355.70	74.66	-32.1	-37.0	10.0	1.24e-03	0	43	0	725614592	24	6289
2026-01-03 10:19:40.90	354.28	73.26	-31.0	-33.9	12.5	3.36e-04	0	43	0	730857472	23	5036
2026-01-03 10:19:43.92	353.08	71.86	-30.8	-33.7	13.0	5.72e-05	0	43	0	737148928	22	5041
2026-01-03 10:19:46.94	352.06	70.47	-31.1	-34.7	12.4	4.11e-05	0	43	0	742391808	22	5441
2026-01-03 10:19:49.96	351.19	69.10	-31.2	-34.5	12.2	3.99e-04	0	43	0	747634688	23	5249
2026-01-03 10:19:52.97	350.44	67.75	-32.0	-36.9	10.4	2.60e-03	0	43	0	753926144	23	6376
2026-01-03 10:19:55.98	349.78	66.42	-31.4	-34.5	11.7	1.08e-03	0	43	0	759169024	24	5160
2026-01-03 10:19:59.00	349.20	65.10	-30.5	-33.0	13.5	1.67e-05	0	43	0	765460480	22	4781
2026-01-03 10:20:02.01	348.68	63.81	-28.9	-30.4	16.1	0.00e+00	0	43	0	770703360	19	4261
2026-01-03 10:20:05.03	348.22	62.53	-29.0	-30.5	15.9	0.00e+00	0	43	0	775946240	19	4314
2026-01-03 10:20:08.05	347.81	61.27	-29.0	-31.0	16.0	0.00e+00	0	43	0	782237696	18	4556
2026-01-03 10:20:11.07	347.43	60.04	-31.2	-35.1	12.1	1.01e-04	0	43	0	787480576	22	5622
2026-01-03 10:20:14.09	347.09	58.83	-30.9	-34.1	12.7	5.64e-05	0	43	0	793772032	22	5206
2026-01-03 10:20:17.11	346.78	57.64	-32.0	-36.8	10.1	2.65e-03	0	43	0	799014912	24	6230
2026-01-03 10:20:20.12	346.50	56.48	-30.1	-32.5	14.0	2.28e-05	0	43	0	804257792	21	4744
2026-01-03 10:20:23.13	346.24	55.35	-29.4	-31.5	15.3	0.00e+00	0	43	0	810549248	19	4605
2026-01-03 10:20:26.14	346.01	54.23	-29.3	-31.3	15.4	0.00e+00	0	43	0	815792128	19	4560
2026-01-03 10:20:29.17	345.79	53.14	-28.8	-30.2	16.0	0.00e+00	0	43	0	822083584	19	4231
2026-01-03 10:20:32.19	345.58	52.06	-30.3	-33.4	13.7	2.20e-06	0	43	0	827326464	20	5186
2026-01-03 10:20:35.21	345.39	51.02	-30.8	-34.5	12.7	7.01e-05	0	43	0	832569344	21	5491
2026-01-03 10:20:38.22	345.22	49.99	-31.6	-35.9	11.1	6.18e-04	0	43	0	838860800	23	5888
2026-01-03 10:20:41.24	345.06	48.99	-32.2	-37.3	9.6	5.00e-03	0	43	0	844103680	24	6506
2026-01-03 10:20:44.25	344.90	48.01	-32.5	-38.3	8.4	9.15e-02	0	44	0	850395136	25	6972
2026-01-03 10:20:47.27	344.76	47.05	-31.4	-34.7	11.6	6.81e-04	0	43	0	855638016	24	5244
2026-01-03 10:20:50.27	344.63	46.12	-32.0	-36.7	10.0	4.27e-03	0	43	0	860880896	24	6209
2026-01-03 10:20:53.29	344.50	45.21	-32.5	-38.2	8.4	4.47e-02	0	43	0	867172352	25	6965
2026-01-03 10:20:56.31	344.39	44.31	-31.1	-34.3	12.0	5.29e-04	0	43	0	872415232	23	5205
2026-01-03 10:20:59.32	344.28	43.43	-30.7	-33.5	12.9	3.58e-05	0	43	0	877658112	22	5002
2026-01-03 10:21:02.35	344.17	42.57	-31.5	-35.7	11.1	9.50e-04	0	43	0	883949568	23	5796
2026-01-03 10:21:05.37	344.07	41.74	-32.5	-38.4	8.2	5.30e-02	0	43	0	889192448	25	7083
2026-01-03 10:21:08.39	343.98	40.92	-31.8	-35.7	10.3	6.94e-03	0	43	0	895483904	25	5609
2026-01-03 10:21:11.41	343.89	40.12	-31.8	-35.9	10.5	2.45e-03	0	43	0	900726784	24	5822
2026-01-03 10:21:14.43	343.81	39.33	-32.4	-38.2	8.8	2.18e-02	0	43	0	905969664	24	7053
2026-01-03 10:21:17.44	343.73	38.57	-32.9	-40.5	6.6	1.66e-01	0	43	0	912261120	25	8623
2026-01-03 10:21:20.45	343.66	37.82	-33.2	-41.3	5.8	4.26e-01	0	43	0	917504000	26	9216
2026-01-03 10:21:23.46	343.59	37.09	-32.4	-37.3	8.6	4.91e-02	0	43	0	923795456	26	6371
2026-01-03 10:21:26.48	343.52	36.38	-31.7	-35.8	10.5	4.89e-03	0	43	0	929038336	24	5760
2026-01-03 10:21:29.49	343.46	35.68	-31.5	-35.2	11.0	1.90e-03	0	43	0	934281216	24	5505
2026-01-03 10:21:32.50	343.40	34.99	-31.8	-36.0	10.4	4.09e-03	0	43	0	940572672	24	5887
2026-01-03 10:21:35.50	343.34	34.32	-32.4	-38.5	8.5	4.03e-02	0	43	0	945815552	24	7258
2026-01-03 10:21:38.52	343.29	33.67	-32.6	-38.8	7.8	7.96e-02	0	43	0	952107008	25	7400
2026-01-03 10:21:41.54	343.23	33.02	-32.3	-37.7	8.6	4.44e-02	0	43	0	957349888	25	6668
2026-01-03 10:21:44.57	343.18	32.39	-32.1	-36.6	9.5	1.56e-02	0	43	0	962592768	25	6089
2026-01-03 10:21:47.58	343.14	31.78	-31.8	-35.7	10.2	6.98e-03	0	43	0	968884224	25	5644
2026-01-03 10:21:50.59	343.09	31.17	-32.1	-36.8	9.4	1.89e-02	0	43	0	974127104	25	6165
2026-01-03 10:21:53.60	343.05	30.58	-32.4	-38.1	8.3	3.54e-02	0	43	0	980418560	25	6913
2026-01-03 10:21:56.62	343.01	30.00	-32.7	-39.4	7.3	1.26e-01	0	43	0	985661440	25	7823
2026-01-03 10:21:59.63	342.97	29.44	-32.3	-37.7	8.6	4.17e-02	0	43	0	990904320	25	6689
2026-01-03 10:22:02.65	342.93	28.88	-31.7	-36.0	10.2	6.52e-03	0	43	0	997195776	24	5897
2026-01-03 10:22:05.66	342.90	28.33	-31.5	-35.4	10.7	2.43e-03	0	43	0	1002438656	24	5634
2026-01-03 10:22:08.68	342.86	27.80	-30.6	-33.5	12.7	9.38e-05	0	43	0	1008730112	22	5021
2026-01-03 10:22:11.70	342.83	27.27	-30.0	-32.4	13.8	6.10e-06	0	43	0	1013972992	21	4727
2026-01-03 10:22:14.70	342.80	26.76	-30.0	-32.2	13.9	3.00e-06	0	43	0	1019215872	21	4682
2026-01-03 10:22:17.72	342.77	26.25	-29.9	-32.4	13.7	2.20e-06	0	43	0	1025507328	21	4764
2026-01-03 10:22:20.74	342.74	25.75	-28.8	-32.1	13.8	6.80e-06	0	43	0	1030750208	19	5290
2026-01-03 10:22:23.76	342.71	25.27	-29.6	-32.9	13.9	1.50e-06	0	43	0	1035993088	19	5244
2026-01-03 10:22:26.77	342.68	24.79	-29.9	-33.1	13.9	4.50e-06	0	43	0	1042284544	19	5230
2026-01-03 10:22:29.78	342.66	24.32	-30.5	-33.9	13.6	5.30e-06	0	43	0	1047527424	20	5341
2026-01-03 10:22:32.80	342.64	23.86	-30.0	-33.0	13.6	1.22e-05	0	43	0	1053818880	20	5060
2026-01-03 10:22:35.82	342.61	23.40	-29.7	-32.1	14.2	1.50e-06	0	43	0	1059061760	20	4742
2026-01-03 10:22:38.83	342.59	22.96	-30.1	-33.2	13.4	8.30e-06	0	43	0	1064304640	20	5139
2026-01-03 10:22:41.84	342.57	22.52	-29.8	-32.4	13.9	3.80e-06	0	43	0	1070596096	20	4857
2026-01-03 10:22:44.85	342.55	22.09	-29.7	-32.2	14.1	7.00e-07	0	43	0	1075838976	20	4794
2026-01-03 10:22:47.87	342.53	21.67	-29.8	-32.5	13.9	1.52e-05	0	43	0	1082130432	20	4889
2026-01-03 10:22:50.88	342.51	21.25	-29.3	-31.1	14.7	7.00e-07	0	43	0	1087373312	20	4419
2026-01-03 10:22:53.91	342.49	20.84	-29.4	-31.8	14.7	0.00e+00	0	43	0	1092616192	19	4764
2026-01-03 10:22:56.92	342.48	20.44	-29.6	-32.3	14.4	0.00e+00	0	43	0	1098907648	19	4914
2026-01-03 10:22:59.94	342.46	20.04	-29.7	-32.6	14.1	1.50e-06	0	43	0	1104150528	19	5034
2026-01-03 10:23:02.95	342.45	19.65	-29.8	-32.9	13.9	5.30e-06	0	43	0	1110441984	19	5137
2026-01-03 10:23:05.96	342.43	19.27	-30.1	-33.3	13.2	1.83e-05	0	43	0	1115684864	20	5205
2026-01-03 10:23:08.98	342.42	18.89	-30.1	-33.4	13.2	2.59e-05	0	43	0	1120927744	20	5235
2026-01-03 10:23:12.01	342.40	18.51	-30.0	-32.9	13.4	1.29e-05	0	43	0	1127219200	20	5062
2026-01-03 10:23:15.01	342.39	18.15	-30.0	-33.2	13.3	2.44e-05	0	43	0	1132462080	20	5150
2026-01-03 10:23:18.03	342.38	17.79	-29.8	-32.4	13.8	6.80e-06	0	43	0	1137704960	20	4882
2026-01-03 10:23:21.04	342.37	17.43	-30.0	-33.0	13.4	8.30e-06	0	43	0	1143996416	20	5089
2026-01-03 10:23:24.06	342.36	17.08	-30.1	-33.4	13.1	2.21e-05	0	43	0	1149239296	20	5256
2026-01-03 10:23:27.08	342.34	16.73	-30.2	-33.7	12.9	4.04e-05	0	43	0	1155530752	20	5366
2026-01-03 10:23:30.11	342.33	16.39	-30.3	-34.0	12.6	6.48e-05	0	43	0	1160773632	20	5484
2026-01-03 10:23:33.12	342.33	16.05	-30.2	-33.5	12.9	4.34e-05	0	43	0	1166016512	20	5310
2026-01-03 10:23:36.14	342.32	15.72	-30.2	-33.6	12.9	6.17e-05	0	43	0	1172307968	20	5328
2026-01-03 10:23:39.16	342.31	15.39	-30.1	-33.4	13.0	3.12e-05	0	43	0	1177550848	20	5247
2026-01-03 10:23:42.18	342.30	15.07	-30.1	-33.3	13.1	3.05e-05	0	43	0	1183842304	20	5235
2026-01-03 10:23:45.19	342.29	14.75	-30.1	-33.4	13.0	3.66e-05	0	43	0	1189085184	20	5249
2026-01-03 10:23:48.21	342.28	14.43	-30.1	-33.5	12.9	4.73e-05	0	43	0	1194328064	20	5316
2026-01-03 10:23:51.22	342.28	14.12	-30.2	-33.6	12.8	7.17e-05	0	43	0	1200619520	20	5350
2026-01-03 10:23:54.23	342.27	13.82	-30.3	-33.9	12.6	1.50e-04	0	43	0	1205862400	20	5465
2026-01-03 10:23:57.24	342.27	13.51	-30.4	-34.4	12.1	2.06e-04	0	43	0	1212153856	20	5721
2026-01-03 10:24:00.26	342.26	13.21	-30.4	-34.4	12.1	2.05e-04	0	43	0	1217396736	20	5715
2026-01-03 10:24:03.28	342.25	12.92	-30.5	-34.2	11.9	3.55e-04	0	43	0	1222639616	21	5517
2026-01-03 10:24:06.30	342.25	12.62	-30.7	-34.8	11.5	7.93e-04	0	43	0	1228931072	21	5768
2026-01-03 10:24:09.32	342.25	12.34	-30.6	-34.4	11.8	4.32e-04	0	43	0	1234173952	21	5579
2026-01-03 10:24:12.34	342.24	12.05	-30.6	-34.5	11.6	6.89e-04	0	43	0	1240465408	21	5641
2026-01-03 10:24:15.36	342.24	11.77	-30.4	-34.0	12.0	4.31e-04	0	43	0	1245708288	21	5443
2026-01-03 10:24:18.37	342.23	11.49	-30.5	-34.2	11.8	5.05e-04	0	43	0	1250951168	21	5525
2026-01-03 10:24:21.39	342.23	11.21	-30.5	-34.2	11.8	5.00e-04	0	43	0	1257242624	21	5512
2026-01-03 10:24:24.41	342.23	10.94	-30.6	-34.6	11.5	7.21e-04	0	43	0	1262485504	21	5688
2026-01-03 10:24:27.42	342.22	10.67	-30.7	-34.9	11.2	1.09e-03	0	44	0	1268776960	21	5860
2026-01-03 10:24:30.44	342.22	10.40	-30.8	-35.1	11.1	1.77e-03	0	43	0	1274019840	21	5945
2026-01-03 10:24:33.47	342.22	10.14	-30.6	-34.7	11.3	1.28e-03	0	43	0	1279262720	21	5757
2026-01-03 10:24:36.47	342.22	9.88	-30.5	-34.5	11.5	7.20e-04	0	43	0	1285554176	21	5658
2026-01-03 10:24:39.49	342.22	9.62	-30.4	-34.1	11.7	5.77e-04	0	43	0	1290797056	21	5508
2026-01-03 10:24:42.50	342.21	9.37	-30.5	-34.3	11.6	6.42e-04	0	43	0	1297088512	21	5571
2026-01-03 10:24:45.52	342.21	9.11	-30.5	-34.5	11.4	1.04e-03	0	43	0	1302331392	21	5697
2026-01-03 10:24:48.55	342.21	8.86	-30.4	-34.2	11.5	8.87e-04	0	43	0	1307574272	21	5561
2026-01-03 10:24:51.57	342.21	8.61	-30.4	-34.1	11.6	8.09e-04	0	43	0	1313865728	21	5521
2026-01-03 10:24:54.59	342.21	8.37	-30.4	-34.1	11.6	6.03e-04	0	43	0	1319108608	21	5524
2026-01-03 10:24:57.60	342.21	8.12	-30.6	-34.8	11.1	1.42e-03	0	43	0	1325400064	21	5831
2026-01-03 10:25:00.62	342.21	7.88	-30.5	-34.6	11.2	1.20e-03	0	43	0	1330642944	21	5763
2026-01-03 10:25:03.64	342.21	7.64	-30.4	-34.3	11.3	1.24e-03	0	43	0	1335885824	21	5641
2026-01-03 10:25:06.65	342.21	7.41	-30.4	-34.1	11.4	9.67e-04	0	43	0	1342177280	21	5562
2026-01-03 10:25:09.66	342.21	7.17	-30.4	-34.2	11.3	1.15e-03	0	43	0	1347420160	21	5610
2026-01-03 10:25:12.68	342.21	6.94	-33.4	-48.0	3.8	1.49e+00	0	43	104	1348468736	26	19133

#Closed at: 2026-01-03 10:25:13
#Recorded file [1348 MB]: D:/data/31010_260103_131310.dat