passes_logs/2026/01/03/R2M6_AANII_01/R2M6_AANII_01__20260103_231121_NOAA_21_JPSS-2_rec.log

#Pass ID: 20260103_231121_NOAA 21 (JPSS-2)
#Satellite: NOAA 21 (JPSS-2)
#Configuration: NOAA 21
#almurnet v.1.7.20240730
#Start time: 2026-01-03 23:11:20

#Version: 2.2.20231116
#Station: R2M6_AANII_01
#Location: 30.233357 lon 59.946436 lat
#TLE: 1 54234U 22150A   26003.45311712  .00000198  00000+0  11468-3 0  9993
#TLE: 2 54234  98.7487 304.4932 0001159 347.5017  12.6130 14.19531745163172

#Time	Az	El	Level	Level2	SNR	BER	BlckErr	Temp	State	Recorded	gain1	gain2
2026-01-03 23:11:20.37	25.51	6.95	-29.8	-34.0	4.9	1.33e+00	0	40	0	0	19	5812
2026-01-03 23:11:23.38	25.71	7.16	-31.1	-35.8	7.8	9.75e-02	0	40	0	3145728	22	6167
2026-01-03 23:11:26.40	25.92	7.38	-30.9	-34.8	8.6	4.93e-02	0	41	0	12582912	22	5644
2026-01-03 23:11:29.41	26.13	7.59	-30.0	-33.1	10.5	4.53e-03	0	41	0	22020096	20	5160
2026-01-03 23:11:32.42	26.35	7.80	-29.9	-33.2	10.9	1.85e-03	0	41	0	31457280	19	5285
2026-01-03 23:11:35.44	26.56	8.02	-29.5	-32.2	11.6	7.80e-04	0	41	0	40894464	19	4925
2026-01-03 23:11:38.46	26.78	8.24	-29.3	-32.2	11.9	4.58e-04	0	41	0	49283072	18	5026
2026-01-03 23:11:41.47	27.01	8.46	-29.1	-31.7	12.3	1.57e-04	0	41	0	59768832	18	4826
2026-01-03 23:11:44.49	27.23	8.68	-29.1	-31.7	12.3	1.85e-04	0	41	0	69206016	18	4844
2026-01-03 23:11:47.51	27.46	8.90	-29.2	-32.0	12.1	2.36e-04	0	41	0	77594624	18	4926
2026-01-03 23:11:50.52	27.70	9.12	-29.1	-31.5	12.5	1.43e-04	0	41	0	88080384	18	4768
2026-01-03 23:11:53.53	27.93	9.35	-28.8	-31.2	13.0	4.19e-05	0	41	0	96468992	17	4791
2026-01-03 23:11:56.55	28.17	9.58	-29.0	-31.8	12.6	6.33e-05	0	41	0	105906176	17	4981
2026-01-03 23:11:59.56	28.42	9.81	-28.8	-31.4	12.8	5.03e-05	0	41	0	115343360	17	4856
2026-01-03 23:12:02.57	28.66	10.04	-29.0	-31.7	12.7	7.62e-05	0	41	0	124780544	17	4956
2026-01-03 23:12:05.59	28.91	10.27	-29.0	-31.2	12.7	7.47e-05	0	42	0	134217728	18	4674
2026-01-03 23:12:08.60	29.17	10.50	-28.8	-31.4	13.0	3.12e-05	0	42	0	143654912	17	4827
2026-01-03 23:12:11.63	29.43	10.74	-28.5	-30.6	13.5	1.06e-05	0	42	0	153092096	17	4580
2026-01-03 23:12:14.64	29.69	10.98	-28.5	-30.5	13.5	1.75e-05	0	42	0	162529280	17	4540
2026-01-03 23:12:17.65	29.95	11.22	-28.6	-30.8	13.4	1.29e-05	0	42	0	171966464	17	4624
2026-01-03 23:12:20.67	30.23	11.46	-28.8	-31.4	13.0	3.05e-05	0	42	0	181403648	17	4832
2026-01-03 23:12:23.69	30.50	11.70	-28.7	-30.5	13.3	2.44e-05	0	42	0	190840832	18	4436
2026-01-03 23:12:26.70	30.78	11.95	-28.5	-30.6	13.5	1.22e-05	0	42	0	200278016	17	4588
2026-01-03 23:12:29.71	31.06	12.19	-28.6	-30.8	13.5	9.10e-06	0	42	0	209715200	17	4622
2026-01-03 23:12:32.72	31.35	12.44	-28.3	-30.6	13.9	2.20e-06	0	42	0	219152384	16	4674
2026-01-03 23:12:35.73	31.64	12.69	-28.7	-30.9	13.3	1.29e-05	0	42	0	228589568	17	4680
2026-01-03 23:12:38.75	31.94	12.94	-28.3	-30.0	13.9	2.20e-06	0	42	0	238026752	17	4393
2026-01-03 23:12:41.77	32.24	13.20	-28.5	-31.0	13.7	8.30e-06	0	42	0	247463936	16	4792
2026-01-03 23:12:44.78	32.55	13.46	-28.3	-30.7	13.9	2.20e-06	0	42	0	256901120	16	4695
2026-01-03 23:12:47.79	32.86	13.71	-28.1	-30.0	14.3	0.00e+00	0	42	0	266338304	16	4507
2026-01-03 23:12:50.80	33.18	13.98	-27.8	-29.8	14.5	0.00e+00	0	42	0	275775488	15	4554
2026-01-03 23:12:53.82	33.50	14.24	-27.8	-29.9	14.5	0.00e+00	0	42	0	285212672	15	4569
2026-01-03 23:12:56.84	33.83	14.50	-27.9	-30.0	14.4	7.00e-07	0	42	0	294649856	15	4608
2026-01-03 23:12:59.86	34.17	14.77	-27.9	-30.0	14.5	0.00e+00	0	42	0	304087040	15	4624
2026-01-03 23:13:02.87	34.51	15.04	-27.8	-29.9	14.6	6.47e-04	0	42	0	313524224	15	4566
2026-01-03 23:13:05.89	34.86	15.31	-27.9	-30.2	14.4	7.00e-07	0	42	0	322961408	15	4655
2026-01-03 23:13:08.91	35.21	15.58	-28.2	-30.4	14.2	7.00e-07	0	42	0	332398592	16	4591
2026-01-03 23:13:11.93	35.57	15.86	-28.1	-30.1	14.4	3.97e-04	0	42	0	341835776	16	4515
2026-01-03 23:13:14.95	35.94	16.14	-28.1	-30.1	14.4	2.56e-04	0	42	0	351272960	16	4503
2026-01-03 23:13:17.96	36.31	16.42	-28.0	-29.7	14.7	2.43e-04	0	43	0	360710144	16	4380
2026-01-03 23:13:20.99	36.69	16.70	-28.0	-29.8	14.6	7.00e-07	0	42	0	370147328	16	4432
2026-01-03 23:13:24.01	37.07	16.98	-28.0	-29.7	14.6	3.27e-04	0	42	0	379584512	16	4405
2026-01-03 23:13:27.03	37.47	17.27	-28.1	-29.9	14.6	0.00e+00	0	42	0	389021696	16	4447
2026-01-03 23:13:30.04	37.87	17.56	-27.9	-29.5	14.8	1.91e-04	0	43	0	398458880	16	4337
2026-01-03 23:13:33.06	38.27	17.85	-28.1	-29.9	14.6	7.00e-07	0	43	0	407896064	16	4453
2026-01-03 23:13:36.06	38.69	18.14	-28.1	-30.1	14.5	0.00e+00	0	42	0	417333248	16	4505
2026-01-03 23:13:39.08	39.11	18.43	-27.9	-29.5	14.8	0.00e+00	0	43	0	426770432	16	4332
2026-01-03 23:13:42.10	39.54	18.73	-27.9	-29.4	14.9	0.00e+00	0	43	0	436207616	16	4305
2026-01-03 23:13:45.12	39.98	19.03	-27.9	-29.6	14.8	0.00e+00	0	42	0	445644800	16	4353
2026-01-03 23:13:48.14	40.43	19.33	-28.1	-30.0	14.6	0.00e+00	0	43	0	455081984	16	4472
2026-01-03 23:13:51.16	40.89	19.63	-27.9	-29.6	14.8	0.00e+00	0	43	0	464519168	16	4350
2026-01-03 23:13:54.17	41.35	19.94	-27.8	-29.3	15.0	0.00e+00	0	43	0	473956352	16	4256
2026-01-03 23:13:57.18	41.83	20.24	-27.7	-29.1	15.1	0.00e+00	0	43	0	483393536	16	4215
2026-01-03 23:14:00.20	42.31	20.55	-27.6	-28.8	15.3	0.00e+00	0	43	0	492830720	16	4130
2026-01-03 23:14:03.21	42.80	20.86	-27.4	-28.3	15.6	0.00e+00	0	43	0	502267904	16	4011
2026-01-03 23:14:06.22	43.30	21.17	-27.3	-28.2	15.7	0.00e+00	0	43	0	511705088	16	3969
2026-01-03 23:14:09.23	43.82	21.48	-27.1	-28.2	15.8	0.00e+00	0	43	0	521142272	15	4086
2026-01-03 23:14:12.24	44.34	21.80	-27.1	-28.3	15.8	0.00e+00	0	43	0	530579456	15	4101
2026-01-03 23:14:15.26	44.87	22.11	-26.9	-27.7	16.1	0.00e+00	0	43	0	540016640	15	3960
2026-01-03 23:14:18.28	45.42	22.43	-26.9	-27.8	16.0	0.00e+00	0	43	0	549453824	15	3990
2026-01-03 23:14:21.29	45.97	22.75	-26.9	-27.7	16.1	0.00e+00	0	43	0	558891008	15	3958
2026-01-03 23:14:24.30	46.54	23.07	-26.8	-27.6	16.2	0.00e+00	0	43	0	568328192	15	3922
2026-01-03 23:14:27.32	47.12	23.39	-26.8	-27.6	16.2	0.00e+00	0	43	0	577765376	15	3918
2026-01-03 23:14:30.34	47.71	23.72	-26.9	-27.6	16.2	0.00e+00	0	43	0	587202560	15	3938
2026-01-03 23:14:33.35	48.31	24.04	-26.8	-28.0	16.2	0.00e+00	0	43	0	596639744	14	4145
2026-01-03 23:14:36.36	48.92	24.36	-26.9	-28.2	16.2	0.00e+00	0	43	0	606076928	14	4182
2026-01-03 23:14:39.38	49.55	24.69	-26.9	-28.2	16.2	0.00e+00	0	43	0	615514112	14	4192
2026-01-03 23:14:42.40	50.19	25.01	-27.0	-28.4	16.1	0.00e+00	0	43	0	624951296	14	4237
2026-01-03 23:14:45.42	50.84	25.34	-27.1	-28.8	15.9	0.00e+00	0	43	0	634388480	14	4337
2026-01-03 23:14:48.43	51.50	25.66	-27.4	-29.3	15.6	0.00e+00	0	43	0	643825664	14	4486
2026-01-03 23:14:51.44	52.18	25.99	-27.5	-29.2	15.4	0.00e+00	0	43	0	653262848	15	4346
2026-01-03 23:14:54.46	52.88	26.32	-27.5	-29.1	15.4	0.00e+00	0	43	0	662700032	15	4323
2026-01-03 23:14:57.48	53.58	26.64	-27.4	-28.8	15.6	0.00e+00	0	43	0	672137216	15	4234
2026-01-03 23:15:00.50	54.31	26.97	-27.6	-29.2	15.4	0.00e+00	0	43	0	681574400	15	4354
2026-01-03 23:15:03.51	55.04	27.29	-27.6	-29.3	15.4	0.00e+00	0	43	0	691011584	15	4369
2026-01-03 23:15:06.52	55.79	27.61	-27.7	-29.5	15.2	0.00e+00	0	43	0	700448768	15	4430
2026-01-03 23:15:09.53	56.55	27.93	-27.8	-29.7	15.2	7.00e-07	0	43	0	709885952	15	4487
2026-01-03 23:15:12.54	57.33	28.25	-27.6	-29.3	15.4	0.00e+00	0	43	0	719323136	15	4369
2026-01-03 23:15:15.56	58.13	28.57	-27.7	-29.6	15.2	0.00e+00	0	43	0	728760320	15	4444
2026-01-03 23:15:18.58	58.94	28.88	-27.7	-29.6	15.3	0.00e+00	0	43	0	738197504	15	4446
2026-01-03 23:15:21.60	59.77	29.19	-27.7	-29.5	15.3	0.00e+00	0	43	0	747634688	15	4438
2026-01-03 23:15:24.62	60.61	29.50	-27.5	-29.1	15.5	0.00e+00	0	43	0	757071872	15	4328
2026-01-03 23:15:27.64	61.47	29.81	-27.6	-29.4	15.4	0.00e+00	0	43	0	766509056	15	4399
2026-01-03 23:15:30.66	62.35	30.11	-27.7	-29.5	15.3	0.00e+00	0	43	0	775946240	15	4437
2026-01-03 23:15:33.67	63.24	30.41	-27.8	-29.8	15.1	0.00e+00	0	43	0	785383424	15	4520
2026-01-03 23:15:36.69	64.15	30.70	-27.9	-30.0	15.1	0.00e+00	0	43	0	794820608	15	4578
2026-01-03 23:15:39.71	65.08	30.99	-27.5	-28.9	15.6	0.00e+00	0	43	0	803209216	15	4273
2026-01-03 23:15:42.73	66.02	31.27	-27.6	-29.3	15.5	0.00e+00	0	43	0	813694976	15	4368
2026-01-03 23:15:45.75	66.97	31.55	-28.0	-29.6	15.2	0.00e+00	0	43	0	823132160	16	4338
2026-01-03 23:15:48.78	67.95	31.82	-28.0	-29.5	15.2	0.00e+00	0	43	0	832569344	16	4318
2026-01-03 23:15:51.80	68.94	32.08	-27.9	-29.4	15.3	0.00e+00	0	43	0	842006528	16	4264
2026-01-03 23:15:54.82	69.95	32.34	-28.4	-30.5	14.7	0.00e+00	0	43	0	851443712	16	4604
2026-01-03 23:15:57.83	70.97	32.59	-28.4	-30.1	14.6	0.00e+00	0	43	0	860880896	17	4378
2026-01-03 23:16:00.85	72.00	32.83	-28.4	-30.1	14.6	0.00e+00	0	43	0	870318080	17	4374
2026-01-03 23:16:03.87	73.05	33.06	-28.6	-30.4	14.5	0.00e+00	0	43	0	879755264	17	4466
2026-01-03 23:16:06.87	74.11	33.29	-28.3	-29.9	14.7	0.00e+00	0	43	0	889192448	17	4296
2026-01-03 23:16:09.89	75.19	33.50	-28.5	-30.2	14.6	0.00e+00	0	43	0	897581056	17	4404
2026-01-03 23:16:12.91	76.29	33.71	-28.4	-29.9	14.7	0.00e+00	0	43	0	907018240	17	4322
2026-01-03 23:16:15.94	77.40	33.90	-28.4	-29.9	14.8	0.00e+00	0	43	0	917504000	17	4325
2026-01-03 23:16:18.95	78.52	34.09	-28.3	-29.8	14.8	0.00e+00	0	43	0	925892608	17	4265
2026-01-03 23:16:21.97	79.65	34.26	-28.5	-30.2	14.6	0.00e+00	0	43	0	936378368	17	4394
2026-01-03 23:16:24.99	80.80	34.42	-28.5	-30.4	14.5	0.00e+00	0	43	0	944766976	17	4452
2026-01-03 23:16:28.01	81.95	34.57	-28.5	-30.2	14.6	7.00e-07	0	43	0	954204160	17	4398
2026-01-03 23:16:31.03	83.12	34.71	-28.5	-30.3	14.5	0.00e+00	0	43	0	964689920	17	4415
2026-01-03 23:16:34.05	84.29	34.83	-28.5	-30.2	14.6	7.00e-07	0	43	0	973078528	17	4405
2026-01-03 23:16:37.07	85.48	34.95	-28.7	-30.8	14.3	0.00e+00	0	43	0	983564288	17	4573
2026-01-03 23:16:40.09	86.67	35.05	-29.2	-31.3	13.7	1.22e-05	0	43	0	991952896	18	4618
2026-01-03 23:16:43.10	87.87	35.13	-28.8	-30.5	14.2	7.00e-07	0	43	0	1001390080	18	4363
2026-01-03 23:16:46.12	89.07	35.20	-28.7	-30.3	14.3	0.00e+00	0	43	0	1011875840	18	4303
2026-01-03 23:16:49.13	90.27	35.26	-28.5	-29.8	14.6	7.00e-07	0	43	0	1020264448	18	4174
2026-01-03 23:16:52.15	91.49	35.31	-28.3	-29.8	14.8	7.00e-07	0	43	0	1029701632	17	4277
2026-01-03 23:16:55.17	92.70	35.34	-28.5	-30.2	14.6	0.00e+00	0	43	0	1039138816	17	4398
2026-01-03 23:16:58.18	93.92	35.35	-28.5	-30.3	14.5	0.00e+00	0	43	0	1048576000	17	4411
2026-01-03 23:17:01.20	95.14	35.35	-28.5	-30.2	14.7	7.00e-07	0	43	0	1058013184	17	4381
2026-01-03 23:17:04.20	96.35	35.34	-28.4	-29.9	14.8	0.00e+00	0	43	0	1067450368	17	4307
2026-01-03 23:17:07.21	97.56	35.32	-28.4	-29.9	14.8	0.00e+00	0	43	0	1076887552	17	4309
2026-01-03 23:17:10.23	98.77	35.28	-28.4	-30.0	14.7	0.00e+00	0	43	0	1086324736	17	4341
2026-01-03 23:17:13.26	99.99	35.22	-28.2	-29.7	14.9	0.00e+00	0	43	0	1095761920	17	4237
2026-01-03 23:17:16.27	101.19	35.15	-28.5	-30.2	14.6	7.00e-07	0	43	0	1105199104	17	4401
2026-01-03 23:17:19.29	102.39	35.07	-28.6	-30.6	14.4	7.00e-07	0	43	0	1114636288	17	4505
2026-01-03 23:17:22.31	103.59	34.97	-28.9	-30.7	14.1	2.20e-06	0	43	0	1124073472	18	4416
2026-01-03 23:17:25.32	104.77	34.87	-28.8	-30.4	14.2	7.00e-07	0	43	0	1133510656	18	4346
2026-01-03 23:17:28.34	105.95	34.74	-28.8	-30.5	14.1	3.80e-06	0	43	0	1142947840	18	4383
2026-01-03 23:17:31.36	107.12	34.61	-28.7	-30.1	14.4	2.20e-06	0	43	0	1152385024	18	4268
2026-01-03 23:17:34.38	108.28	34.46	-28.8	-30.4	14.2	0.00e+00	0	43	0	1161822208	18	4340
2026-01-03 23:17:37.38	109.43	34.30	-28.5	-29.8	14.5	0.00e+00	0	43	0	1171259392	18	4177
2026-01-03 23:17:40.39	110.56	34.13	-28.5	-29.8	14.5	7.00e-07	0	43	0	1180696576	18	4172
2026-01-03 23:17:43.41	111.69	33.95	-28.6	-30.1	14.4	0.00e+00	0	43	0	1190133760	18	4259
2026-01-03 23:17:46.43	112.80	33.76	-28.4	-29.6	14.6	0.00e+00	0	43	0	1199570944	18	4122
2026-01-03 23:17:49.44	113.90	33.56	-28.4	-29.7	14.6	0.00e+00	0	43	0	1209008128	18	4138
2026-01-03 23:17:52.46	114.99	33.34	-28.6	-30.0	14.4	1.50e-06	0	43	0	1218445312	18	4239
2026-01-03 23:17:55.49	116.07	33.12	-28.4	-29.7	14.6	0.00e+00	0	43	0	1227882496	18	4137
2026-01-03 23:17:58.51	117.12	32.89	-28.3	-29.9	14.7	0.00e+00	0	43	0	1237319680	17	4327
2026-01-03 23:18:01.53	118.17	32.65	-28.5	-30.3	14.4	0.00e+00	0	43	0	1246756864	17	4434
2026-01-03 23:18:04.54	119.19	32.40	-28.0	-29.2	15.1	0.00e+00	0	43	0	1256194048	17	4119
2026-01-03 23:18:07.56	120.21	32.15	-28.1	-29.5	14.9	0.00e+00	0	43	0	1265631232	17	4195
2026-01-03 23:18:10.58	121.20	31.88	-27.9	-29.0	15.2	0.00e+00	0	43	0	1275068416	17	4062
2026-01-03 23:18:13.60	122.18	31.61	-28.0	-29.2	15.0	0.00e+00	0	43	0	1284505600	17	4131
2026-01-03 23:18:16.61	123.15	31.33	-27.6	-28.7	15.6	0.00e+00	0	43	0	1293942784	16	4084
2026-01-03 23:18:19.63	124.09	31.05	-27.5	-28.5	15.8	0.00e+00	0	43	0	1303379968	16	4035
2026-01-03 23:18:22.63	125.02	30.77	-27.8	-29.3	15.3	0.00e+00	0	43	0	1312817152	16	4260
2026-01-03 23:18:25.65	125.94	30.47	-27.8	-29.1	15.4	0.00e+00	0	43	0	1322254336	16	4198
2026-01-03 23:18:28.67	126.84	30.17	-27.9	-29.5	15.1	0.00e+00	0	43	0	1331691520	16	4309
2026-01-03 23:18:31.69	127.72	29.87	-28.1	-29.9	14.9	0.00e+00	0	43	0	1341128704	16	4434
2026-01-03 23:18:34.70	128.59	29.57	-27.6	-28.7	15.6	7.00e-07	0	43	0	1350565888	16	4091
2026-01-03 23:18:37.72	129.44	29.26	-27.4	-28.2	15.8	0.00e+00	0	43	0	1360003072	16	3964
2026-01-03 23:18:40.74	130.27	28.94	-27.3	-28.1	15.8	0.00e+00	0	43	0	1369440256	16	3946
2026-01-03 23:18:43.77	131.10	28.62	-26.9	-27.6	16.2	0.00e+00	0	43	0	1378877440	15	3936
2026-01-03 23:18:46.78	131.90	28.31	-27.1	-28.2	15.9	0.00e+00	0	43	0	1388314624	15	4091
2026-01-03 23:18:49.79	132.68	27.99	-27.6	-29.3	15.3	0.00e+00	0	43	0	1397751808	15	4378
2026-01-03 23:18:52.80	133.45	27.67	-27.5	-29.2	15.4	0.00e+00	0	43	0	1407188992	15	4336
2026-01-03 23:18:55.82	134.21	27.34	-27.3	-28.6	15.6	0.00e+00	0	43	0	1416626176	15	4203
2026-01-03 23:18:58.84	134.96	27.02	-27.2	-28.4	15.8	0.00e+00	0	43	0	1426063360	15	4130
2026-01-03 23:19:01.86	135.68	26.69	-27.0	-28.0	16.0	8.30e-06	0	43	0	1435500544	15	4023
2026-01-03 23:19:04.88	136.40	26.36	-27.0	-27.9	16.0	1.06e-05	0	43	0	1444937728	15	4001
2026-01-03 23:19:07.88	137.09	26.04	-27.2	-28.4	15.7	5.18e-05	0	43	0	1454374912	15	4145
2026-01-03 23:19:10.91	137.78	25.71	-27.2	-28.5	15.7	3.80e-06	0	43	0	1463812096	15	4158
2026-01-03 23:19:13.93	138.45	25.38	-27.0	-28.1	15.9	0.00e+00	0	43	0	1473249280	15	4054
2026-01-03 23:19:16.95	139.11	25.05	-26.8	-27.5	16.1	9.10e-06	0	43	0	1482686464	15	3922
2026-01-03 23:19:19.97	139.76	24.72	-26.8	-28.0	16.1	0.00e+00	0	43	0	1492123648	14	4148
2026-01-03 23:19:22.98	140.39	24.39	-26.9	-28.3	15.9	0.00e+00	0	43	0	1501560832	14	4231
2026-01-03 23:19:26.00	141.01	24.07	-27.0	-28.6	15.8	0.00e+00	0	43	0	1510998016	14	4300
2026-01-03 23:19:29.02	141.61	23.74	-27.0	-28.5	15.8	0.00e+00	0	43	0	1520435200	14	4290
2026-01-03 23:19:32.05	142.21	23.41	-27.0	-28.5	15.8	0.00e+00	0	43	0	1529872384	14	4267
2026-01-03 23:19:35.06	142.79	23.09	-27.1	-28.6	15.7	0.00e+00	0	43	0	1539309568	14	4319
2026-01-03 23:19:38.08	143.36	22.77	-27.1	-28.8	15.6	0.00e+00	0	43	0	1548746752	14	4372
2026-01-03 23:19:41.10	143.92	22.44	-27.4	-29.5	15.2	0.00e+00	0	43	0	1558183936	14	4577
2026-01-03 23:19:44.11	144.47	22.12	-27.3	-29.3	15.3	0.00e+00	0	43	0	1567621120	14	4518
2026-01-03 23:19:47.13	145.01	21.81	-27.4	-29.5	15.2	0.00e+00	0	43	0	1577058304	14	4567
2026-01-03 23:19:50.15	145.54	21.49	-27.3	-29.1	15.4	0.00e+00	0	43	0	1586495488	14	4447
2026-01-03 23:19:53.16	146.05	21.17	-27.4	-29.3	15.2	0.00e+00	0	43	0	1595932672	14	4517
2026-01-03 23:19:56.18	146.56	20.86	-27.7	-29.6	14.8	7.00e-07	0	43	0	1605369856	15	4472
2026-01-03 23:19:59.21	147.06	20.54	-27.6	-29.3	14.9	0.00e+00	0	43	0	1614807040	15	4394
2026-01-03 23:20:02.22	147.54	20.23	-27.6	-29.3	14.9	7.00e-07	0	43	0	1624244224	15	4407
2026-01-03 23:20:05.25	148.02	19.92	-27.7	-29.6	14.7	7.00e-07	0	43	0	1633681408	15	4506
2026-01-03 23:20:08.26	148.49	19.62	-27.9	-30.0	14.4	0.00e+00	0	43	0	1643118592	15	4627
2026-01-03 23:20:11.28	148.95	19.31	-27.1	-28.3	15.4	0.00e+00	0	43	0	1652555776	15	4133
2026-01-03 23:20:14.30	149.40	19.01	-27.1	-28.4	15.4	0.00e+00	0	43	0	1661992960	15	4143
2026-01-03 23:20:17.32	149.84	18.71	-27.0	-28.2	15.5	0.00e+00	0	43	0	1671430144	15	4091
2026-01-03 23:20:20.34	150.28	18.41	-27.1	-28.2	15.5	0.00e+00	0	43	0	1680867328	15	4098
2026-01-03 23:20:23.35	150.70	18.11	-27.2	-28.6	15.2	0.00e+00	0	43	0	1690304512	15	4211
2026-01-03 23:20:26.37	151.12	17.82	-27.4	-29.1	14.9	0.00e+00	0	43	0	1699741696	15	4346
2026-01-03 23:20:29.37	151.52	17.52	-27.7	-29.6	14.6	1.50e-06	0	43	0	1709178880	15	4490
2026-01-03 23:20:32.38	151.93	17.23	-27.6	-29.5	14.6	0.00e+00	0	43	0	1718616064	15	4470
2026-01-03 23:20:35.39	152.32	16.95	-27.8	-29.9	14.3	0.00e+00	0	43	0	1728053248	15	4595
2026-01-03 23:20:38.41	152.71	16.66	-27.6	-29.5	14.6	7.00e-07	0	43	0	1737490432	15	4478
2026-01-03 23:20:41.43	153.09	16.38	-27.8	-30.0	14.2	1.50e-06	0	43	0	1746927616	15	4630
2026-01-03 23:20:44.45	153.46	16.09	-27.7	-29.8	14.3	0.00e+00	0	43	0	1756364800	15	4580
2026-01-03 23:20:47.48	153.83	15.81	-27.8	-29.9	14.3	2.20e-06	0	43	0	1765801984	15	4598
2026-01-03 23:20:50.49	154.19	15.53	-27.8	-30.0	14.2	7.00e-07	0	43	0	1775239168	15	4635
2026-01-03 23:20:53.51	154.54	15.26	-28.2	-30.3	13.8	1.50e-06	0	43	0	1784676352	16	4611
2026-01-03 23:20:56.53	154.89	14.98	-28.2	-30.2	13.9	2.20e-06	0	43	0	1794113536	16	4571
2026-01-03 23:20:59.55	155.23	14.71	-28.2	-30.3	13.8	3.80e-06	0	43	0	1803550720	16	4610
2026-01-03 23:21:02.58	155.57	14.44	-28.4	-30.9	13.5	6.80e-06	0	43	0	1812987904	16	4785
2026-01-03 23:21:05.59	155.90	14.18	-28.1	-29.7	13.9	3.00e-06	0	43	0	1822425088	17	4313
2026-01-03 23:21:08.60	156.22	13.91	-28.2	-29.9	13.8	5.30e-06	0	43	0	1831862272	17	4385
2026-01-03 23:21:11.61	156.54	13.65	-28.2	-29.8	13.8	6.10e-06	0	43	0	1841299456	17	4355
2026-01-03 23:21:14.62	156.85	13.39	-28.3	-30.3	13.6	7.60e-06	0	43	0	1850736640	17	4489
2026-01-03 23:21:17.64	157.16	13.13	-28.5	-30.6	13.3	2.13e-05	0	43	0	1860173824	17	4611
2026-01-03 23:21:20.66	157.46	12.87	-28.5	-30.7	13.3	1.67e-05	0	43	0	1869611008	17	4614
2026-01-03 23:21:23.67	157.76	12.62	-28.6	-31.0	13.1	3.28e-05	0	43	0	1879048192	17	4724
2026-01-03 23:21:26.69	158.06	12.36	-28.3	-30.2	13.5	1.29e-05	0	43	0	1888485376	17	4474
2026-01-03 23:21:29.72	158.34	12.11	-28.4	-30.5	13.3	1.37e-05	0	43	0	1897922560	17	4570
2026-01-03 23:21:32.74	158.63	11.86	-28.4	-30.4	13.4	1.67e-05	0	43	0	1907359744	17	4517
2026-01-03 23:21:35.77	158.91	11.61	-28.4	-30.4	13.3	2.59e-05	0	43	0	1916796928	17	4548
2026-01-03 23:21:38.78	159.18	11.37	-28.5	-30.7	13.2	2.28e-05	0	43	0	1926234112	17	4625
2026-01-03 23:21:41.80	159.45	11.12	-28.4	-30.5	13.2	2.21e-05	0	43	0	1935671296	17	4574
2026-01-03 23:21:44.83	159.72	10.88	-28.4	-30.4	13.2	1.98e-05	0	43	0	1945108480	17	4566
2026-01-03 23:21:47.85	159.98	10.64	-28.4	-30.6	13.2	2.21e-05	0	43	0	1954545664	17	4606
2026-01-03 23:21:50.87	160.24	10.40	-28.5	-30.8	13.0	3.73e-05	0	43	0	1963982848	17	4699
2026-01-03 23:21:53.88	160.49	10.17	-28.8	-31.4	12.6	1.02e-04	0	43	0	1973420032	17	4900
2026-01-03 23:21:56.90	160.74	9.93	-28.9	-31.9	12.3	5.54e-04	0	43	0	1982857216	17	5074
2026-01-03 23:21:59.91	160.99	9.70	-28.9	-31.9	12.2	2.24e-04	0	43	0	1992294400	17	5102
2026-01-03 23:22:02.94	161.23	9.47	-29.0	-32.2	12.0	5.00e-04	0	43	0	2001731584	17	5194
2026-01-03 23:22:05.96	161.47	9.24	-29.0	-31.7	12.0	4.58e-04	0	43	0	2011168768	18	4907
2026-01-03 23:22:08.98	161.71	9.01	-29.0	-31.7	12.1	5.26e-04	0	43	0	2020605952	18	4882
2026-01-03 23:22:12.00	161.94	8.78	-29.0	-31.5	12.2	5.23e-04	0	43	0	2030043136	18	4797
2026-01-03 23:22:15.02	162.17	8.56	-28.9	-31.3	12.3	5.13e-04	0	43	0	2039480320	18	4730
2026-01-03 23:22:18.04	162.39	8.34	-28.9	-31.4	12.2	7.16e-04	0	43	0	2048917504	18	4760
2026-01-03 23:22:21.06	162.62	8.12	-29.0	-32.0	12.0	3.00e-04	0	43	0	2058354688	17	5103
2026-01-03 23:22:24.09	162.84	7.90	-28.9	-32.0	12.0	1.27e-03	0	43	0	2067791872	17	5114
2026-01-03 23:22:27.10	163.05	7.68	-29.1	-31.8	11.8	4.88e-04	0	43	0	2077229056	18	4925
2026-01-03 23:22:30.11	163.26	7.46	-29.0	-31.8	11.7	6.13e-04	0	43	0	2086666240	18	4965
2026-01-03 23:22:33.11	163.47	7.25	-29.3	-32.4	11.3	1.13e-03	0	43	0	2095054848	18	5184
2026-01-03 23:22:36.13	163.68	7.03	-32.9	-45.2	3.8	1.49e+00	0	43	104	2102394880	25	14816

#Closed at: 2026-01-03 23:22:37
#Recorded file [2102 MB]: D:/data/31010_260104_021122.dat