passes_logs/2025/01/08/X_MFTI_01/X_MFTI_01__20250108_181049_TERRA_rec.log

#Pass ID: 20250108_181049_TERRA
#Satellite: TERRA
#Configuration: TERRA
#Start time: 2025-01-08 18:10:45

#Version: 1.5.20200625
#Station: X_MFTI_01
#Location: 37.5186 lon 55.9291 lat
#TLE: 1 25994U 99068A   23362.45014226  .00000817  00000+0  18168-3 0  9993
#TLE: 2 25994  98.0729  65.8244 0002317 146.5078 343.6211 14.59509299278111

#Time	Az	El	Level	Level2	SNR	BER	Gain	Gain2
2025-01-08 18:10:45.11	130.50	68.04	-77.7	-102.4	3.3	14907295	99	61744
2025-01-08 18:10:45.32	130.33	68.14	-77.7	-102.4	3.3	14909355	99	62105
2025-01-08 18:10:45.52	130.17	68.24	-77.8	-102.6	3.3	14909355	99	62070
2025-01-08 18:10:45.73	129.99	68.33	-77.8	-102.7	3.3	14908561	99	63222
2025-01-08 18:10:45.94	129.82	68.43	-77.9	-102.8	3.2	14908561	99	63229
2025-01-08 18:10:46.15	129.64	68.53	-77.8	-102.7	3.3	14908561	99	63213
2025-01-08 18:10:46.36	129.47	68.63	-77.7	-102.5	3.4	14892433	99	62163
2025-01-08 18:10:46.57	129.29	68.73	-77.7	-102.5	3.6	14892433	99	62261
2025-01-08 18:10:46.78	129.11	68.82	-77.8	-102.7	3.2	14872657	99	63238
2025-01-08 18:10:46.99	128.93	68.92	-77.7	-102.6	3.2	14872657	99	63192
2025-01-08 18:10:47.19	128.75	69.02	-77.9	-102.8	3.2	14903686	99	63166
2025-01-08 18:10:47.40	128.56	69.11	-77.8	-102.7	3.2	14903686	99	63178
2025-01-08 18:10:47.61	128.38	69.21	-77.8	-102.7	3.2	14903686	99	63213
2025-01-08 18:10:47.82	128.19	69.31	-77.8	-102.5	3.4	14914894	99	62279
2025-01-08 18:10:48.03	127.99	69.41	-77.7	-102.5	3.3	14914894	99	62361
2025-01-08 18:10:48.24	127.80	69.50	-77.9	-102.7	3.3	14873443	99	62305
2025-01-08 18:10:48.45	127.60	69.60	-77.9	-102.8	3.2	14873443	99	63212
2025-01-08 18:10:48.66	127.41	69.70	-77.9	-102.8	3.2	14896026	99	63155
2025-01-08 18:10:48.87	127.21	69.79	-77.9	-102.8	3.2	14896026	99	63100
2025-01-08 18:10:49.07	127.01	69.89	-77.9	-102.8	3.2	14896026	99	63103
2025-01-08 18:10:49.28	126.81	69.98	-77.9	-102.5	3.5	14896942	99	60695
2025-01-08 18:10:49.49	126.60	70.08	-77.8	-102.4	3.4	14896942	99	61343
2025-01-08 18:10:49.70	126.40	70.18	-77.8	-102.4	3.3	14887672	99	61388
2025-01-08 18:10:49.91	126.19	70.27	-77.9	-102.6	3.2	14887672	99	62133
2025-01-08 18:10:50.12	125.97	70.37	-77.9	-102.6	3.3	14902427	99	61995
2025-01-08 18:10:50.32	125.77	70.46	-77.9	-102.6	3.2	14902427	99	62025
2025-01-08 18:10:50.53	125.55	70.56	-77.9	-102.6	3.3	14902427	99	62113
2025-01-08 18:10:50.74	125.33	70.65	-77.6	-102.3	3.2	14893112	99	61890
2025-01-08 18:10:50.95	125.11	70.75	-77.7	-102.5	3.3	14893112	99	62491
2025-01-08 18:10:51.16	124.89	70.84	-77.7	-102.5	3.3	14882728	99	62542
2025-01-08 18:10:51.37	124.66	70.94	-77.8	-102.6	3.3	14882728	99	62449
2025-01-08 18:10:51.57	124.44	71.03	-77.9	-102.6	3.2	14882728	99	62145
2025-01-08 18:10:51.78	124.21	71.12	-77.9	-102.6	3.3	14888008	99	61870
2025-01-08 18:10:51.99	123.98	71.22	-77.9	-102.6	3.3	14888008	99	62014
2025-01-08 18:10:52.20	123.74	71.31	-77.8	-102.5	3.2	14912406	99	61990
2025-01-08 18:10:52.41	123.50	71.40	-77.7	-102.4	3.3	14912406	99	61737
2025-01-08 18:10:52.62	123.26	71.50	-77.7	-102.5	3.3	14876930	99	62440
2025-01-08 18:10:52.83	123.02	71.59	-77.7	-102.5	3.3	14876930	99	62520
2025-01-08 18:10:53.04	122.77	71.69	-77.7	-102.5	3.2	14876930	99	62087
2025-01-08 18:10:53.25	122.52	71.78	-77.8	-102.6	3.3	14882286	99	62049
2025-01-08 18:10:53.45	122.28	71.87	-77.9	-102.6	3.2	14882286	99	62114
2025-01-08 18:10:53.66	122.03	71.96	-77.7	-102.5	3.2	14906227	99	62014
2025-01-08 18:10:53.87	121.77	72.05	-77.7	-102.4	3.4	14906227	99	61687
2025-01-08 18:10:54.08	121.51	72.14	-77.7	-102.5	3.3	14906227	99	62383
2025-01-08 18:10:54.29	121.25	72.24	-77.7	-102.5	3.3	14896415	99	62487
2025-01-08 18:10:54.49	120.99	72.32	-77.7	-102.5	3.3	14896415	99	62480
2025-01-08 18:10:54.70	120.72	72.41	-77.9	-102.6	3.2	14878608	99	62079
2025-01-08 18:10:54.91	120.45	72.51	-77.7	-102.5	3.3	14878608	99	61976
2025-01-08 18:10:55.12	120.18	72.60	-77.9	-102.6	3.2	14902107	99	62101
2025-01-08 18:10:55.33	119.90	72.69	-77.9	-102.7	3.3	14902107	99	62174
2025-01-08 18:10:55.54	119.62	72.78	-77.9	-102.7	3.3	14902107	99	62322
2025-01-08 18:10:55.74	119.35	72.86	-77.7	-102.5	3.3	14892723	99	62425
2025-01-08 18:10:55.95	119.06	72.95	-77.7	-102.5	3.3	14892723	99	62441
2025-01-08 18:10:56.16	118.77	73.04	-77.9	-102.6	3.2	14864631	99	62106
2025-01-08 18:10:56.37	118.48	73.13	-77.7	-102.4	3.3	14864631	99	62164
2025-01-08 18:10:56.58	118.18	73.22	-77.7	-102.4	3.2	14864631	99	62151
2025-01-08 18:10:56.79	117.88	73.30	-77.7	-102.5	3.3	14901977	99	62198
2025-01-08 18:10:57.00	117.58	73.39	-77.7	-102.4	3.3	14901977	99	62115
2025-01-08 18:10:57.21	117.27	73.48	-77.7	-102.5	3.3	14899803	99	62443
2025-01-08 18:10:57.41	116.98	73.56	-77.7	-102.5	3.3	14899803	99	62380
2025-01-08 18:10:57.62	116.66	73.65	-77.7	-102.4	3.3	14869140	99	61986
2025-01-08 18:10:57.83	116.35	73.73	-77.7	-102.5	3.2	14869140	99	62211
2025-01-08 18:10:58.04	116.03	73.82	-77.9	-102.6	3.2	14869140	99	62159
2025-01-08 18:10:58.25	115.70	73.91	-77.9	-102.6	3.3	14903892	99	62113
2025-01-08 18:10:58.46	115.38	73.99	-77.7	-102.5	3.3	14903892	99	62115
2025-01-08 18:10:58.67	115.04	74.07	-77.9	-102.7	3.3	14901855	99	62363
2025-01-08 18:10:58.88	114.71	74.16	-77.9	-102.7	3.2	14901855	99	62456
2025-01-08 18:10:59.08	114.39	74.24	-77.7	-102.5	3.3	14901855	99	62369
2025-01-08 18:10:59.29	114.05	74.32	-77.7	-102.5	3.3	14872932	99	62123
2025-01-08 18:10:59.50	113.70	74.40	-77.9	-102.6	3.3	14872932	99	62138
2025-01-08 18:10:59.71	113.35	74.49	-77.9	-102.6	3.2	14901557	99	62101
2025-01-08 18:10:59.92	113.00	74.57	-77.7	-102.4	3.2	14901557	99	61918
2025-01-08 18:11:00.13	112.64	74.65	-77.9	-102.6	3.2	14924659	99	61669
2025-01-08 18:11:00.34	112.28	74.73	-77.9	-102.7	3.3	14924659	99	62376
2025-01-08 18:11:00.55	111.91	74.81	-77.9	-102.7	3.3	14924659	99	62495
2025-01-08 18:11:00.76	111.54	74.89	-77.9	-102.8	3.3	14881935	99	63301
2025-01-08 18:11:00.97	111.17	74.97	-77.9	-102.8	3.2	14881935	99	63075
2025-01-08 18:11:01.17	110.81	75.04	-77.9	-102.8	3.3	14903686	99	63177
2025-01-08 18:11:01.38	110.43	75.12	-77.9	-102.7	3.2	14903686	99	63170
2025-01-08 18:11:01.59	110.04	75.19	-77.9	-102.7	3.2	14903686	99	63054
2025-01-08 18:11:01.80	109.65	75.27	-77.8	-102.6	3.3	14906745	99	62760
2025-01-08 18:11:02.00	109.28	75.34	-77.8	-102.5	3.2	14906745	99	61659
2025-01-08 18:11:02.21	108.88	75.42	-77.9	-102.6	3.3	14897331	99	61687
2025-01-08 18:11:02.42	108.48	75.49	-77.8	-102.5	3.3	14897331	99	62087
2025-01-08 18:11:02.63	108.07	75.57	-77.8	-102.5	3.2	14895927	99	62138
2025-01-08 18:11:02.84	107.66	75.64	-77.9	-102.7	3.3	14895927	99	62061
2025-01-08 18:11:03.05	107.25	75.71	-77.9	-102.6	3.2	14895927	99	62053
2025-01-08 18:11:03.26	106.83	75.78	-77.7	-102.4	3.2	14915344	99	61726
2025-01-08 18:11:03.47	106.40	75.86	-77.9	-102.8	3.3	14915344	99	63587
2025-01-08 18:11:03.68	105.98	75.93	-77.9	-102.8	3.3	14901573	99	63559
2025-01-08 18:11:03.88	105.56	75.99	-77.8	-102.7	3.3	14901573	99	63191
2025-01-08 18:11:04.09	105.13	76.06	-77.6	-102.4	3.3	14901573	99	63028
2025-01-08 18:11:04.30	104.68	76.13	-77.8	-102.7	3.2	14888511	99	63149
2025-01-08 18:11:04.51	104.24	76.20	-77.9	-102.8	3.3	14888511	99	63094
2025-01-08 18:11:04.72	103.79	76.26	-77.9	-102.8	3.2	14903991	99	63293
2025-01-08 18:11:04.93	103.33	76.33	-77.9	-102.7	3.5	14903991	99	62449
2025-01-08 18:11:05.13	102.90	76.39	-77.8	-102.5	3.4	14886085	99	62229
2025-01-08 18:11:05.34	102.43	76.46	-77.8	-102.5	3.5	14886085	99	62369
2025-01-08 18:11:05.55	101.96	76.52	-77.8	-102.7	3.2	14886085	99	63255
2025-01-08 18:11:05.76	101.49	76.58	-77.8	-102.7	3.2	14890502	99	63197
2025-01-08 18:11:05.97	101.01	76.64	-77.7	-102.6	3.3	14890502	99	63181
2025-01-08 18:11:06.18	100.53	76.70	-77.9	-102.8	3.3	14898719	99	63043
2025-01-08 18:11:06.39	100.04	76.76	-77.9	-102.8	3.3	14898719	99	62805
2025-01-08 18:11:06.60	99.55	76.82	-77.9	-102.8	3.3	14898719	99	62826
2025-01-08 18:11:06.80	99.08	76.88	-77.7	-102.6	3.2	14886840	99	62638
2025-01-08 18:11:07.01	98.58	76.93	-77.6	-102.5	3.2	14886840	99	63223
2025-01-08 18:11:07.22	98.08	76.99	-77.8	-102.7	3.3	14894233	99	63331
2025-01-08 18:11:07.43	97.57	77.05	-77.8	-102.7	3.3	14894233	99	63251
2025-01-08 18:11:07.64	97.06	77.10	-77.7	-102.6	3.3	14903396	99	63279
2025-01-08 18:11:07.85	96.54	77.15	-77.8	-102.7	3.3	14903396	99	63277
2025-01-08 18:11:08.05	96.04	77.20	-77.7	-102.5	3.4	14903396	99	62244
2025-01-08 18:11:08.26	95.51	77.25	-77.7	-102.5	3.5	14896301	99	62346
2025-01-08 18:11:08.47	94.98	77.30	-77.7	-102.7	3.3	14896301	99	63308
2025-01-08 18:11:08.68	94.45	77.35	-77.8	-102.7	3.3	14886070	99	63329
2025-01-08 18:11:08.89	93.91	77.40	-77.8	-102.7	3.3	14886070	99	63428
2025-01-08 18:11:09.10	93.37	77.45	-77.8	-102.7	3.3	14886070	99	63297
2025-01-08 18:11:09.31	92.82	77.49	-77.7	-102.5	3.3	14905227	99	62182
2025-01-08 18:11:09.52	92.27	77.54	-77.9	-102.7	3.2	14905227	99	62327
2025-01-08 18:11:09.72	91.74	77.58	-77.9	-102.7	3.2	14901931	99	62349
2025-01-08 18:11:09.93	91.18	77.62	-77.9	-102.7	3.3	14901931	99	62325
2025-01-08 18:11:10.14	90.62	77.66	-77.7	-102.5	3.2	14904464	99	62229
2025-01-08 18:11:10.35	90.05	77.71	-77.7	-102.5	3.3	14904464	99	62235
2025-01-08 18:11:10.56	89.48	77.74	-77.8	-102.6	3.3	14904464	99	62167
2025-01-08 18:11:10.77	88.90	77.78	-77.7	-102.5	3.2	14911727	99	62151
2025-01-08 18:11:10.98	88.33	77.82	-77.7	-102.5	3.4	14911727	99	61995
2025-01-08 18:11:11.19	87.74	77.85	-77.8	-102.6	3.3	14900779	99	62452
2025-01-08 18:11:11.39	87.19	77.89	-77.7	-102.5	3.3	14900779	99	62464
2025-01-08 18:11:11.60	86.60	77.92	-77.7	-102.5	3.3	14900779	99	62231
2025-01-08 18:11:11.81	86.01	77.95	-77.7	-102.5	3.3	14885902	99	62198
2025-01-08 18:11:12.02	85.41	77.98	-77.7	-102.5	3.2	14885902	99	62226
2025-01-08 18:11:12.23	84.82	78.01	-77.7	-102.5	3.3	14919250	99	62055
2025-01-08 18:11:12.44	84.21	78.04	-77.9	-102.6	3.3	14919250	99	62030
2025-01-08 18:11:12.65	83.61	78.07	-77.9	-102.7	3.3	14901336	99	62584
2025-01-08 18:11:12.86	83.00	78.09	-77.9	-102.6	3.3	14901336	99	62468
2025-01-08 18:11:13.06	82.43	78.12	-77.7	-102.5	3.3	14901336	99	62506
2025-01-08 18:11:13.27	81.81	78.14	-77.9	-102.6	3.3	14874877	99	62147
2025-01-08 18:11:13.48	81.20	78.16	-77.9	-102.7	3.2	14874877	99	62190
2025-01-08 18:11:13.69	80.58	78.18	-77.7	-102.6	3.2	14905151	99	63268
2025-01-08 18:11:13.90	79.97	78.20	-77.7	-102.6	3.2	14905151	99	63230
2025-01-08 18:11:14.11	79.35	78.22	-77.9	-102.7	3.3	14905151	99	62981
2025-01-08 18:11:14.32	78.73	78.23	-77.7	-102.5	3.3	14894348	99	62274
2025-01-08 18:11:14.52	78.13	78.25	-77.7	-102.5	3.3	14894348	99	62462
2025-01-08 18:11:14.73	77.51	78.26	-77.7	-102.5	3.2	14864356	99	62208
2025-01-08 18:11:14.94	76.88	78.27	-77.7	-102.5	3.2	14864356	99	62207
2025-01-08 18:11:15.15	76.25	78.28	-77.7	-102.5	3.2	14903266	99	62161
2025-01-08 18:11:15.36	75.62	78.29	-77.7	-102.5	3.3	14903266	99	62054
2025-01-08 18:11:15.57	75.00	78.30	-77.7	-102.5	3.3	14903266	99	62173
2025-01-08 18:11:15.77	74.40	78.31	-77.9	-102.7	3.3	14907325	99	62491
2025-01-08 18:11:15.98	73.76	78.31	-77.9	-102.7	3.3	14907325	99	62547
2025-01-08 18:11:16.19	73.13	78.32	-77.9	-102.7	3.4	14872001	99	62552
2025-01-08 18:11:16.40	72.50	78.32	-77.7	-102.5	3.2	14872001	99	62275
2025-01-08 18:11:16.61	71.87	78.32	-77.7	-102.5	3.3	14872001	99	62217
2025-01-08 18:11:16.82	71.24	78.32	-77.9	-102.6	3.3	14896766	99	62217
2025-01-08 18:11:17.02	70.63	78.32	-77.9	-102.8	3.3	14896766	99	63233
2025-01-08 18:11:17.23	70.00	78.32	-77.9	-102.8	3.3	14910903	99	63702
2025-01-08 18:11:17.44	69.37	78.31	-77.7	-102.6	3.2	14910903	99	63251
2025-01-08 18:11:17.65	68.74	78.31	-77.9	-102.8	3.3	14889457	99	63595
2025-01-08 18:11:17.86	68.11	78.30	-77.9	-102.8	3.3	14889457	99	63322
2025-01-08 18:11:18.07	67.48	78.29	-77.9	-102.8	3.3	14889457	99	63259
2025-01-08 18:11:18.27	66.88	78.28	-77.8	-102.7	3.2	14901756	99	63329
2025-01-08 18:11:18.48	66.26	78.27	-77.8	-102.7	3.2	14901756	99	63194
2025-01-08 18:11:18.69	65.63	78.26	-77.9	-102.8	3.2	14904129	99	63274
2025-01-08 18:11:18.90	65.01	78.24	-77.9	-102.9	3.3	14904129	99	64110
2025-01-08 18:11:19.11	64.38	78.23	-77.8	-102.9	3.2	14904129	99	64147
2025-01-08 18:11:19.32	63.76	78.21	-77.9	-102.8	3.3	14909919	99	63303
2025-01-08 18:11:19.53	63.14	78.19	-77.9	-102.8	3.3	14909919	99	63315
2025-01-08 18:11:19.73	62.55	78.18	-77.9	-102.8	3.2	14899436	99	63318
2025-01-08 18:11:19.94	61.94	78.16	-77.9	-102.8	3.3	14899436	99	63358
2025-01-08 18:11:20.15	61.33	78.13	-77.9	-102.8	3.3	14904006	99	63260
2025-01-08 18:11:20.36	60.72	78.11	-77.9	-102.7	3.5	14904006	99	62550
2025-01-08 18:11:20.57	60.11	78.09	-77.8	-102.6	3.3	14904006	99	62438
2025-01-08 18:11:20.78	59.50	78.06	-77.9	-102.7	3.3	14876609	99	62390
2025-01-08 18:11:20.99	58.90	78.03	-77.9	-102.8	3.3	14876609	99	63336
2025-01-08 18:11:21.20	58.30	78.00	-77.5	-102.4	3.2	14887771	99	63169
2025-01-08 18:11:21.40	57.73	77.98	-77.8	-102.7	3.3	14887771	99	63403
2025-01-08 18:11:21.61	57.14	77.95	-77.8	-102.7	3.2	14887771	99	63259
2025-01-08 18:11:21.82	56.55	77.91	-77.8	-102.5	3.4	14898880	99	61942
2025-01-08 18:11:22.03	55.96	77.88	-77.8	-102.6	3.3	14898880	99	62466
2025-01-08 18:11:22.24	55.38	77.85	-77.9	-102.7	3.3	14895484	99	62450
2025-01-08 18:11:22.45	54.80	77.81	-77.8	-102.7	3.3	14895484	99	63326
2025-01-08 18:11:22.66	54.22	77.77	-77.8	-102.7	3.3	14877426	99	63307
2025-01-08 18:11:22.86	53.67	77.74	-77.8	-102.7	3.3	14877426	99	63199
2025-01-08 18:11:23.07	53.10	77.70	-77.8	-102.7	3.3	14877426	99	63186
2025-01-08 18:11:23.28	52.54	77.66	-77.8	-102.7	3.2	14907928	99	63180
2025-01-08 18:11:23.49	51.97	77.62	-77.9	-102.7	3.4	14907928	99	62426
2025-01-08 18:11:23.70	51.42	77.57	-77.9	-102.7	3.6	14901634	99	62396
2025-01-08 18:11:23.90	50.89	77.53	-77.9	-102.7	3.3	14901634	99	62310
2025-01-08 18:11:24.11	50.34	77.49	-77.7	-102.7	3.3	14901634	99	63394
2025-01-08 18:11:24.32	49.79	77.44	-77.9	-102.6	3.3	14885780	99	62136
2025-01-08 18:11:24.53	49.25	77.39	-77.9	-102.6	3.2	14885780	99	62095
2025-01-08 18:11:24.74	48.71	77.34	-77.7	-102.5	3.2	14906555	99	62140
2025-01-08 18:11:24.95	48.18	77.30	-77.7	-102.4	3.3	14906555	99	62007
2025-01-08 18:11:25.15	47.67	77.25	-77.7	-102.5	3.3	14888214	99	62446
2025-01-08 18:11:25.36	47.15	77.20	-77.7	-102.5	3.3	14888214	99	62567
2025-01-08 18:11:25.57	46.63	77.14	-77.7	-102.5	3.3	14888214	99	62153
2025-01-08 18:11:25.78	46.11	77.09	-77.9	-102.6	3.3	14871765	99	62220
2025-01-08 18:11:25.99	45.60	77.04	-77.7	-102.5	3.2	14871765	99	62098
2025-01-08 18:11:26.20	45.09	76.98	-77.7	-102.5	3.2	14901329	99	62131
2025-01-08 18:11:26.40	44.61	76.93	-77.7	-102.5	3.2	14901329	99	62181
2025-01-08 18:11:26.61	44.11	76.87	-77.7	-102.5	3.3	14901329	99	62529
2025-01-08 18:11:26.82	43.62	76.81	-77.9	-102.7	3.3	14899810	99	62525
2025-01-08 18:11:27.03	43.13	76.75	-77.9	-102.7	3.3	14899810	99	62646
2025-01-08 18:11:27.24	42.64	76.69	-77.9	-102.7	3.2	14875839	99	62216
2025-01-08 18:11:27.45	42.16	76.63	-77.8	-102.6	3.2	14875839	99	62214
2025-01-08 18:11:27.66	41.69	76.57	-77.7	-102.4	3.3	14904693	99	61913
2025-01-08 18:11:27.87	41.22	76.51	-77.7	-102.5	3.3	14904693	99	62229
2025-01-08 18:11:28.07	40.77	76.45	-77.7	-102.5	3.3	14900268	99	62527
2025-01-08 18:11:28.28	40.31	76.38	-77.7	-102.5	3.3	14900268	99	62512
2025-01-08 18:11:28.49	39.85	76.32	-77.8	-102.6	3.3	14900268	99	62450
2025-01-08 18:11:28.70	39.40	76.25	-77.7	-102.5	3.3	14863304	99	62291
2025-01-08 18:11:28.91	38.95	76.18	-77.7	-102.5	3.3	14863304	99	62193
2025-01-08 18:11:29.12	38.50	76.12	-77.9	-102.6	3.3	14893241	99	62283
2025-01-08 18:11:29.33	38.06	76.05	-77.7	-102.6	3.3	14893241	99	63273
2025-01-08 18:11:29.53	37.65	75.98	-77.7	-102.7	3.3	14893241	99	63367
2025-01-08 18:11:29.74	37.21	75.91	-77.9	-102.9	3.3	14908264	99	63624
2025-01-08 18:11:29.95	36.79	75.84	-77.9	-102.8	3.3	14908264	99	63639
2025-01-08 18:11:30.16	36.36	75.77	-77.9	-102.8	3.3	14893547	99	63638
2025-01-08 18:11:30.37	35.95	75.70	-77.9	-102.8	3.2	14893547	99	63347
2025-01-08 18:11:30.58	35.53	75.63	-77.9	-102.8	3.3	14895492	99	63340
2025-01-08 18:11:30.79	35.12	75.55	-77.6	-102.5	3.3	14895492	99	63029
2025-01-08 18:11:31.00	34.72	75.48	-77.6	-102.5	3.3	14895492	99	63309
2025-01-08 18:11:31.20	34.34	75.41	-77.8	-102.6	3.4	14907066	99	62381
2025-01-08 18:11:31.41	33.94	75.33	-77.9	-102.7	3.4	14907066	99	62510
2025-01-08 18:11:31.62	33.55	75.26	-77.8	-102.6	3.4	14889038	99	62494
2025-01-08 18:11:31.83	33.16	75.18	-77.8	-102.7	3.2	14889038	99	63188
2025-01-08 18:11:32.04	32.77	75.11	-77.9	-102.8	3.3	14889038	99	63278
2025-01-08 18:11:32.25	32.39	75.03	-77.8	-102.7	3.3	14902084	99	63349
2025-01-08 18:11:32.46	32.02	74.95	-77.8	-102.7	3.3	14902084	99	63334
2025-01-08 18:11:32.67	31.64	74.87	-77.8	-102.5	3.7	14909141	99	61918
2025-01-08 18:11:32.87	31.29	74.80	-77.8	-102.6	3.3	14909141	99	62399
2025-01-08 18:11:33.08	30.93	74.72	-77.7	-102.5	3.3	14891647	99	62433
2025-01-08 18:11:33.29	30.57	74.64	-77.9	-102.7	3.2	14891647	99	62837
2025-01-08 18:11:33.50	30.21	74.55	-77.9	-102.6	3.3	14891647	99	62220
2025-01-08 18:11:33.71	29.86	74.47	-77.7	-102.5	3.2	14892471	99	62175
2025-01-08 18:11:33.92	29.51	74.39	-77.9	-102.4	3.4	14892471	99	60658
2025-01-08 18:11:34.12	29.18	74.31	-77.8	-102.6	3.2	14896682	99	62113
2025-01-08 18:11:34.33	28.84	74.23	-77.8	-102.6	3.3	14896682	99	62595
2025-01-08 18:11:34.54	28.50	74.15	-77.9	-102.7	3.4	14896682	99	62624
2025-01-08 18:11:34.75	28.17	74.06	-77.9	-102.7	3.4	14888557	99	62552
2025-01-08 18:11:34.96	27.84	73.98	-77.9	-102.6	3.3	14888557	99	62220
2025-01-08 18:11:35.17	27.51	73.89	-77.9	-102.6	3.2	14884643	99	62226
2025-01-08 18:11:35.38	27.19	73.81	-77.8	-102.6	3.3	14884643	99	62188
2025-01-08 18:11:35.58	26.89	73.73	-77.8	-102.6	3.3	14900108	99	62152
2025-01-08 18:11:35.79	26.57	73.64	-77.7	-102.4	3.3	14900108	99	61917
2025-01-08 18:11:36.00	26.26	73.55	-77.7	-102.5	3.3	14900108	99	62562
2025-01-08 18:11:36.21	25.95	73.47	-77.9	-102.7	3.3	14884857	99	62608
2025-01-08 18:11:36.42	25.64	73.38	-77.7	-102.4	3.3	14884857	99	62215
2025-01-08 18:11:36.63	25.34	73.29	-77.7	-102.4	3.2	14876213	99	62161
2025-01-08 18:11:36.84	25.04	73.21	-77.9	-102.7	3.2	14876213	99	62243
2025-01-08 18:11:37.04	24.76	73.12	-77.7	-102.5	3.2	14876213	99	62122
2025-01-08 18:11:37.25	24.47	73.03	-77.7	-102.5	3.2	14908386	99	62092
2025-01-08 18:11:37.46	24.18	72.94	-77.9	-102.6	3.3	14908386	99	61734
2025-01-08 18:11:37.67	23.89	72.85	-77.8	-102.5	3.4	14890914	99	61715
2025-01-08 18:11:37.88	23.61	72.77	-77.7	-102.4	3.3	14890914	99	61789
2025-01-08 18:11:38.09	23.33	72.68	-77.9	-102.6	3.2	14886894	99	62244
2025-01-08 18:11:38.29	23.07	72.59	-77.7	-102.4	3.2	14886894	99	62240
2025-01-08 18:11:38.50	22.79	72.50	-77.9	-102.6	3.2	14886894	99	62177
2025-01-08 18:11:38.71	22.52	72.41	-77.7	-102.5	3.2	14909065	99	62119
2025-01-08 18:11:38.92	22.25	72.32	-77.7	-102.5	3.4	14909065	99	62552
2025-01-08 18:11:39.13	21.99	72.23	-77.8	-102.6	3.3	14893226	99	62578
2025-01-08 18:11:39.34	21.73	72.13	-77.8	-102.6	3.3	14893226	99	62537
2025-01-08 18:11:39.54	21.48	72.05	-77.8	-102.5	3.2	14893226	99	62262
2025-01-08 18:11:39.75	21.22	71.95	-77.9	-102.7	3.2	14874923	99	62198
2025-01-08 18:11:39.96	20.97	71.86	-77.8	-102.5	3.2	14874923	99	62116
2025-01-08 18:11:40.17	20.72	71.77	-77.9	-102.7	3.2	14915512	99	62190
2025-01-08 18:11:40.38	20.47	71.68	-77.7	-102.5	3.2	14915512	99	62198
2025-01-08 18:11:40.59	20.22	71.58	-77.7	-102.5	3.3	14895889	99	62509
2025-01-08 18:11:40.79	19.99	71.49	-77.2	-101.9	3.3	14895889	99	62184
2025-01-08 18:11:41.00	19.75	71.40	-77.9	-102.7	3.4	14895889	99	62550
2025-01-08 18:11:41.21	19.51	71.31	-77.9	-102.7	3.2	14870841	99	62219
2025-01-08 18:11:41.42	19.28	71.21	-77.9	-102.6	3.3	14870841	99	62261
2025-01-08 18:11:41.63	19.04	71.12	-77.9	-102.6	3.3	14899116	99	62345
2025-01-08 18:11:41.84	18.81	71.02	-77.9	-102.7	3.2	14899116	99	62348
2025-01-08 18:11:42.05	18.58	70.93	-77.7	-102.5	3.2	14899116	99	62641
2025-01-08 18:11:42.25	18.37	70.84	-77.7	-102.5	3.3	14910102	99	62563
2025-01-08 18:11:42.46	18.15	70.74	-77.9	-102.7	3.3	14910102	99	62635
2025-01-08 18:11:42.67	17.92	70.65	-77.7	-102.5	3.2	14871025	99	62321
2025-01-08 18:11:42.88	17.71	70.55	-77.7	-102.5	3.3	14871025	99	62278
2025-01-08 18:11:43.09	17.49	70.46	-77.9	-102.7	3.3	14895408	99	62271
2025-01-08 18:11:43.30	17.28	70.36	-77.5	-102.2	3.3	14895408	99	62251
2025-01-08 18:11:43.50	17.07	70.27	-77.7	-102.5	3.3	14895408	99	62235
2025-01-08 18:11:43.71	16.86	70.17	-77.7	-102.4	3.5	14911598	99	61782

#Closed at: 2025-01-08 18:11:43