passes_logs/2025/01/08/X_MFTI_01/X_MFTI_01__20250108_005921_FENGYUN_3D_rec.log

#Pass ID: 20250108_005921_FENGYUN 3D
#Satellite: FENGYUN 3D
#Configuration: FENGYUN 3D
#Start time: 2025-01-08 00:59:16

#Version: 1.5.20200625
#Station: X_MFTI_01
#Location: 37.5186 lon 55.9291 lat
#TLE: 1 43010U 17072A   23362.50642187  .00000183  00000+0  10870-3 0  9994
#TLE: 2 43010  98.8887 311.3857 0002475  98.0400 262.1057 14.19259665317063

#Time	Az	El	Level	Level2	SNR	BER	Gain	Gain2
2025-01-08 00:59:16.39	40.96	68.29	-74.7	-95.7	3.8	8455558	99	40286
2025-01-08 00:59:16.80	41.18	68.46	-74.8	-95.8	3.8	8455101	99	39987
2025-01-08 00:59:17.20	41.41	68.62	-74.7	-95.6	3.8	8449665	99	39976
2025-01-08 00:59:17.62	41.65	68.80	-74.8	-95.4	3.8	8461601	99	38686
2025-01-08 00:59:18.04	41.89	68.97	-74.7	-95.6	3.8	8465881	99	39988
2025-01-08 00:59:18.44	42.13	69.14	-74.8	-95.7	3.8	8457618	99	40046
2025-01-08 00:59:18.84	42.37	69.30	-74.8	-95.7	3.8	8445854	99	39996
2025-01-08 00:59:19.25	42.62	69.47	-74.8	-95.6	3.8	8455696	99	39277
2025-01-08 00:59:19.65	42.87	69.64	-74.8	-95.7	3.8	8447021	99	40049
2025-01-08 00:59:20.05	43.13	69.80	-74.7	-95.6	3.8	8459838	99	39989
2025-01-08 00:59:20.45	43.39	69.97	-74.9	-95.8	3.8	8452789	99	40006
2025-01-08 00:59:20.86	43.66	70.14	-74.7	-95.4	3.8	8459850	99	38640
2025-01-08 00:59:21.26	43.92	70.31	-74.8	-95.7	3.8	8452835	99	39962
2025-01-08 00:59:21.67	44.20	70.47	-74.8	-95.6	3.8	8461017	99	39736
2025-01-08 00:59:22.08	44.49	70.64	-74.7	-95.7	3.8	8460903	99	39991
2025-01-08 00:59:22.49	44.78	70.81	-74.8	-95.5	3.8	8453945	99	39153
2025-01-08 00:59:22.90	45.07	70.98	-74.8	-95.7	3.8	8439846	99	40011
2025-01-08 00:59:23.31	45.38	71.15	-74.7	-95.7	3.8	8463603	99	40353
2025-01-08 00:59:23.72	45.68	71.32	-74.8	-95.7	3.8	8462997	99	39781
2025-01-08 00:59:24.12	45.99	71.48	-74.7	-95.5	3.8	8464553	99	39750
2025-01-08 00:59:24.54	46.31	71.66	-74.8	-95.8	3.8	8453338	99	40399
2025-01-08 00:59:24.94	46.63	71.82	-74.7	-95.8	3.8	8460525	99	40498
2025-01-08 00:59:25.34	46.96	71.98	-74.7	-95.6	3.8	8460342	99	39910
2025-01-08 00:59:25.74	47.28	72.15	-74.7	-95.6	3.9	8453361	99	39752
2025-01-08 00:59:26.15	47.63	72.31	-74.8	-95.8	3.8	8458385	99	40356
2025-01-08 00:59:26.56	47.98	72.48	-74.8	-95.8	3.8	8461864	99	40248
2025-01-08 00:59:26.97	48.34	72.65	-74.7	-95.6	3.8	8443004	99	40170
2025-01-08 00:59:27.37	48.70	72.81	-74.7	-95.7	3.8	8462528	99	40301
2025-01-08 00:59:27.77	49.06	72.97	-74.7	-95.7	3.8	8458831	99	40214
2025-01-08 00:59:28.17	49.43	73.13	-74.7	-95.7	3.8	8454620	99	40294
2025-01-08 00:59:28.58	49.82	73.29	-74.7	-95.3	3.8	8451461	99	38765
2025-01-08 00:59:28.98	50.21	73.45	-74.7	-95.7	3.8	8475769	99	40141
2025-01-08 00:59:29.38	50.60	73.61	-74.7	-95.6	3.8	8460720	99	40186
2025-01-08 00:59:29.78	51.00	73.77	-74.6	-95.5	3.7	8458168	99	40112
2025-01-08 00:59:30.18	51.41	73.93	-74.6	-95.5	3.8	8460685	99	39575
2025-01-08 00:59:30.59	51.84	74.09	-74.7	-95.6	3.8	8480827	99	40166
2025-01-08 00:59:31.00	52.28	74.25	-74.7	-95.6	3.8	8464920	99	40188
2025-01-08 00:59:31.42	52.74	74.42	-74.7	-95.6	3.7	8455192	99	39675
2025-01-08 00:59:31.82	53.19	74.57	-74.7	-95.6	3.8	8448326	99	39769
2025-01-08 00:59:32.24	53.67	74.74	-74.7	-95.7	3.8	8471958	99	40378
2025-01-08 00:59:32.66	54.16	74.90	-74.7	-95.7	3.8	8459999	99	40391
2025-01-08 00:59:33.08	54.66	75.06	-74.7	-95.3	3.8	8468616	99	38992
2025-01-08 00:59:33.49	55.16	75.22	-74.7	-95.4	3.8	8468627	99	39049
2025-01-08 00:59:33.89	55.66	75.37	-74.7	-95.7	3.8	8456222	99	40436
2025-01-08 00:59:34.30	56.18	75.52	-74.7	-95.7	3.7	8457504	99	40449
2025-01-08 00:59:34.70	56.70	75.67	-74.7	-95.6	3.8	8463478	99	39822
2025-01-08 00:59:35.12	57.26	75.83	-74.7	-95.7	3.8	8460330	99	40456
2025-01-08 00:59:35.52	57.80	75.98	-74.7	-95.7	3.8	8460720	99	40434
2025-01-08 00:59:35.92	58.36	76.12	-74.7	-95.6	3.8	8454402	99	40234
2025-01-08 00:59:36.34	58.95	76.28	-74.7	-95.6	3.8	8472335	99	40109
2025-01-08 00:59:36.74	59.54	76.42	-74.8	-95.8	3.8	8457756	99	40466
2025-01-08 00:59:37.14	60.13	76.56	-74.7	-95.7	3.9	8447696	99	40453
2025-01-08 00:59:37.56	60.77	76.71	-74.8	-95.8	3.8	8460880	99	40344
2025-01-08 00:59:37.96	61.39	76.85	-74.8	-95.5	3.8	8457332	99	39317
2025-01-08 00:59:38.38	62.06	77.00	-74.7	-95.7	3.8	8457984	99	40383
2025-01-08 00:59:38.81	62.76	77.14	-74.7	-95.7	3.8	8449470	99	40381
2025-01-08 00:59:39.21	63.42	77.28	-74.7	-95.6	3.9	8452812	99	39924
2025-01-08 00:59:39.63	64.13	77.42	-74.7	-95.5	3.8	8454368	99	39517
2025-01-08 00:59:40.05	64.86	77.56	-74.7	-95.6	3.8	8459712	99	40001
2025-01-08 00:59:40.45	65.58	77.69	-74.7	-95.6	3.8	8459106	99	39877
2025-01-08 00:59:40.85	66.30	77.82	-74.8	-95.8	3.8	8451942	99	40286
2025-01-08 00:59:41.25	67.05	77.95	-74.7	-95.7	3.8	8458740	99	40137
2025-01-08 00:59:41.65	67.80	78.07	-74.8	-95.8	3.8	8465457	99	40129
2025-01-08 00:59:42.06	68.60	78.20	-74.6	-95.4	3.8	8458454	99	39230
2025-01-08 00:59:42.46	69.39	78.32	-74.8	-95.7	3.8	8458522	99	40064
2025-01-08 00:59:42.86	70.20	78.44	-74.8	-95.7	3.8	8455593	99	39975
2025-01-08 00:59:43.28	71.07	78.56	-74.7	-95.6	3.8	8457229	99	39964
2025-01-08 00:59:43.69	71.93	78.68	-74.7	-95.6	3.7	8448577	99	40075
2025-01-08 00:59:44.09	72.80	78.79	-74.6	-95.1	3.8	8458831	99	37983
2025-01-08 00:59:44.51	73.72	78.90	-74.8	-95.7	3.8	8465927	99	40080
2025-01-08 00:59:44.91	74.62	79.01	-74.8	-95.7	3.8	8463672	99	40025
2025-01-08 00:59:45.33	75.58	79.12	-74.7	-95.6	3.8	8456531	99	39987
2025-01-08 00:59:45.73	76.51	79.22	-74.8	-95.6	3.8	8456211	99	39546
2025-01-08 00:59:46.15	77.51	79.32	-74.5	-95.3	3.8	8455638	99	39622
2025-01-08 00:59:46.57	78.53	79.42	-74.8	-95.7	3.8	8454025	99	39996
2025-01-08 00:59:46.97	79.52	79.52	-74.8	-95.6	3.8	8457790	99	39547
2025-01-08 00:59:47.37	80.53	79.61	-74.8	-95.6	3.8	8462814	99	39556
2025-01-08 00:59:47.79	81.60	79.70	-74.9	-95.8	3.8	8460960	99	40231
2025-01-08 00:59:48.21	82.70	79.78	-74.7	-95.6	3.8	8461006	99	40042
2025-01-08 00:59:48.61	83.76	79.86	-74.7	-95.4	3.8	8448177	99	39022
2025-01-08 00:59:49.02	84.86	79.94	-74.7	-95.4	3.8	8463420	99	39029
2025-01-08 00:59:49.43	85.98	80.01	-74.8	-95.6	3.8	8448841	99	39829
2025-01-08 00:59:49.83	87.09	80.08	-74.8	-95.7	3.8	8450157	99	40014
2025-01-08 00:59:50.25	88.28	80.15	-74.8	-95.4	3.8	8460285	99	38757
2025-01-08 00:59:50.65	89.42	80.21	-74.7	-95.6	3.8	8449436	99	39991
2025-01-08 00:59:51.07	90.63	80.27	-74.8	-95.8	3.8	8442787	99	40014
2025-01-08 00:59:51.47	91.80	80.32	-74.7	-95.6	3.8	8460868	99	40080
2025-01-08 00:59:51.87	92.98	80.37	-74.7	-95.7	3.8	8448051	99	40459
2025-01-08 00:59:52.29	94.23	80.42	-74.7	-95.7	3.8	8457252	99	40418
2025-01-08 00:59:52.69	95.43	80.46	-74.7	-95.7	3.8	8458511	99	40415
2025-01-08 00:59:53.09	96.65	80.50	-74.7	-95.5	3.7	8453762	99	39793
2025-01-08 00:59:53.51	97.93	80.53	-74.7	-95.6	3.8	8457492	99	39809
2025-01-08 00:59:53.91	99.16	80.56	-74.7	-95.7	3.8	8469543	99	40307
2025-01-08 00:59:54.31	100.40	80.58	-74.7	-95.6	3.8	8454368	99	40264
2025-01-08 00:59:54.72	101.68	80.60	-74.7	-95.6	3.9	8452972	99	39880
2025-01-08 00:59:55.12	102.92	80.62	-74.7	-95.6	3.8	8463867	99	39964
2025-01-08 00:59:55.52	104.18	80.63	-74.7	-95.6	3.8	8464679	99	40204
2025-01-08 00:59:55.92	105.43	80.63	-74.7	-95.6	3.7	8461246	99	40255
2025-01-08 00:59:56.33	106.71	80.63	-74.7	-95.5	3.9	8453727	99	39778
2025-01-08 00:59:56.73	107.97	80.63	-74.7	-95.6	3.8	8460079	99	39736
2025-01-08 00:59:57.13	109.22	80.62	-74.7	-95.7	3.8	8463478	99	40484
2025-01-08 00:59:57.53	110.47	80.61	-74.7	-95.7	3.8	8460765	99	40333
2025-01-08 00:59:57.93	111.72	80.59	-74.7	-95.6	3.8	8462265	99	39909
2025-01-08 00:59:58.35	113.02	80.57	-74.7	-95.7	3.8	8446403	99	40417
2025-01-08 00:59:58.77	114.32	80.55	-74.7	-95.7	3.8	8452720	99	40305
2025-01-08 00:59:59.17	115.55	80.52	-74.7	-95.7	3.8	8455810	99	40227
2025-01-08 00:59:59.59	116.83	80.48	-74.6	-95.4	3.8	8455455	99	39761
2025-01-08 01:00:00.00	118.07	80.44	-74.7	-95.6	3.8	8461807	99	40170
2025-01-08 01:00:00.40	119.27	80.40	-74.8	-95.7	3.8	8448280	99	40255
2025-01-08 01:00:00.82	120.51	80.35	-74.7	-95.7	3.8	8467323	99	40303
2025-01-08 01:00:01.24	121.75	80.29	-74.6	-95.4	3.8	8470561	99	39368
2025-01-08 01:00:01.65	122.94	80.24	-74.6	-95.6	3.8	8459358	99	40252
2025-01-08 01:00:02.07	124.14	80.18	-74.8	-95.7	3.8	8472129	99	39949
2025-01-08 01:00:02.47	125.27	80.11	-74.7	-95.5	3.8	8466133	99	39296
2025-01-08 01:00:02.89	126.45	80.04	-74.7	-95.5	3.8	8468559	99	39534
2025-01-08 01:00:03.29	127.55	79.97	-74.8	-95.7	3.8	8465148	99	39983
2025-01-08 01:00:03.69	128.63	79.90	-74.7	-95.6	3.8	8468078	99	40145
2025-01-08 01:00:04.13	129.81	79.81	-74.6	-95.3	3.8	8454105	99	39144
2025-01-08 01:00:04.53	130.86	79.73	-74.8	-95.5	3.8	8463272	99	39114
2025-01-08 01:00:04.93	131.89	79.65	-74.7	-95.6	3.8	8462551	99	39977
2025-01-08 01:00:05.33	132.91	79.56	-74.8	-95.7	3.8	8447628	99	40024
2025-01-08 01:00:05.74	133.93	79.47	-74.7	-95.5	3.8	8461074	99	39450
2025-01-08 01:00:06.15	134.93	79.37	-74.7	-95.6	3.8	8449790	99	40006
2025-01-08 01:00:06.55	135.89	79.27	-74.7	-95.6	3.8	8453498	99	40001
2025-01-08 01:00:06.96	136.86	79.17	-74.8	-95.7	3.7	8456565	99	40261
2025-01-08 01:00:07.36	137.79	79.07	-74.7	-95.6	3.8	8458831	99	39669
2025-01-08 01:00:07.76	138.70	78.96	-74.7	-95.5	3.8	8454219	99	39596
2025-01-08 01:00:08.16	139.59	78.85	-74.7	-95.7	3.8	8464656	99	40258
2025-01-08 01:00:08.56	140.46	78.74	-74.7	-95.7	3.8	8461486	99	40215
2025-01-08 01:00:08.98	141.36	78.63	-74.7	-95.6	3.8	8466144	99	39696
2025-01-08 01:00:09.38	142.19	78.51	-74.7	-95.6	3.8	8451290	99	40225
2025-01-08 01:00:09.78	143.01	78.39	-74.7	-95.7	3.8	8451679	99	40207
2025-01-08 01:00:10.20	143.86	78.27	-74.8	-95.7	3.8	8458305	99	39883
2025-01-08 01:00:10.60	144.64	78.14	-74.8	-95.6	3.8	8471637	99	39867
2025-01-08 01:00:11.02	145.45	78.01	-74.8	-95.8	3.8	8443164	99	40337
2025-01-08 01:00:11.44	146.24	77.88	-74.7	-95.7	3.8	8458465	99	40178
2025-01-08 01:00:11.85	146.99	77.75	-74.7	-95.4	3.8	8454998	99	38719
2025-01-08 01:00:12.25	147.71	77.62	-74.6	-95.3	3.8	8468811	99	38841
2025-01-08 01:00:12.67	148.45	77.48	-74.7	-95.7	3.8	8453681	99	40370
2025-01-08 01:00:13.10	149.19	77.34	-74.6	-95.6	3.8	8458190	99	40444
2025-01-08 01:00:13.52	149.89	77.20	-74.8	-95.7	3.8	8441745	99	39932
2025-01-08 01:00:13.94	150.58	77.05	-74.8	-95.7	3.8	8464519	99	40226
2025-01-08 01:00:14.34	151.22	76.91	-74.8	-95.8	3.8	8459632	99	40183
2025-01-08 01:00:14.74	151.85	76.77	-74.7	-95.7	3.8	8465297	99	40220
2025-01-08 01:00:15.14	152.47	76.63	-74.8	-95.8	3.8	8464530	99	40381
2025-01-08 01:00:15.56	153.10	76.48	-74.7	-95.7	3.8	8458499	99	40179
2025-01-08 01:00:15.96	153.69	76.34	-74.7	-95.7	3.8	8458614	99	40185
2025-01-08 01:00:16.38	154.29	76.19	-74.8	-95.6	3.7	8459037	99	39152
2025-01-08 01:00:16.78	154.85	76.04	-74.7	-95.4	3.8	8462505	99	39091
2025-01-08 01:00:17.20	155.43	75.89	-74.7	-95.7	3.8	8460731	99	40244
2025-01-08 01:00:17.60	155.97	75.74	-74.8	-95.8	3.8	8462207	99	40233
2025-01-08 01:00:18.00	156.49	75.59	-74.8	-95.5	3.8	8457103	99	38842
2025-01-08 01:00:18.41	157.02	75.43	-74.6	-95.3	3.8	8455249	99	38766
2025-01-08 01:00:18.82	157.54	75.28	-74.7	-95.7	3.8	8458694	99	40081
2025-01-08 01:00:19.23	158.04	75.12	-74.7	-95.6	3.8	8468444	99	39916
2025-01-08 01:00:19.64	158.54	74.97	-74.7	-95.5	3.8	8456108	99	39438
2025-01-08 01:00:20.05	159.02	74.81	-74.5	-95.2	3.8	8467861	99	39187
2025-01-08 01:00:20.45	159.48	74.65	-74.7	-95.7	3.8	8462230	99	40019
2025-01-08 01:00:20.86	159.94	74.49	-74.7	-95.7	3.8	8469966	99	40113
2025-01-08 01:00:21.27	160.40	74.33	-74.7	-95.5	3.8	8469612	99	39138
2025-01-08 01:00:21.67	160.83	74.18	-74.7	-95.6	3.8	8458854	99	40031
2025-01-08 01:00:22.07	161.26	74.02	-74.8	-95.7	3.8	8451255	99	40054
2025-01-08 01:00:22.47	161.67	73.86	-74.7	-95.6	3.8	8461921	99	39995
2025-01-08 01:00:22.88	162.09	73.70	-74.8	-95.4	3.8	8444755	99	38835
2025-01-08 01:00:23.30	162.51	73.53	-74.7	-95.7	3.8	8454265	99	40189
2025-01-08 01:00:23.70	162.90	73.37	-74.7	-95.6	3.8	8462837	99	40124
2025-01-08 01:00:24.10	163.28	73.21	-74.7	-95.4	3.7	8458889	99	39158
2025-01-08 01:00:24.51	163.67	73.04	-74.7	-95.5	3.8	8449218	99	39299
2025-01-08 01:00:24.93	164.05	72.88	-74.7	-95.7	3.8	8454860	99	40412
2025-01-08 01:00:25.35	164.43	72.71	-74.7	-95.7	3.7	8458614	99	40394
2025-01-08 01:00:25.76	164.79	72.54	-74.6	-95.4	3.8	8456703	99	39400
2025-01-08 01:00:26.17	165.15	72.37	-74.8	-95.8	3.8	8459598	99	40123
2025-01-08 01:00:26.58	165.49	72.21	-74.7	-95.7	3.8	8454208	99	40286
2025-01-08 01:00:27.00	165.84	72.03	-74.7	-95.7	3.8	8464153	99	40221
2025-01-08 01:00:27.42	166.18	71.86	-74.7	-95.4	3.8	8458751	99	39118
2025-01-08 01:00:27.84	166.52	71.69	-74.6	-95.6	3.8	8459724	99	40294
2025-01-08 01:00:28.24	166.83	71.53	-74.5	-95.3	3.8	8452342	99	39622
2025-01-08 01:00:28.67	167.16	71.35	-74.7	-95.6	3.8	8452159	99	40247
2025-01-08 01:00:29.09	167.48	71.18	-74.7	-95.5	3.8	8460102	99	39175
2025-01-08 01:00:29.49	167.77	71.01	-74.7	-95.7	3.8	8462036	99	40335
2025-01-08 01:00:29.90	168.07	70.84	-74.7	-95.7	3.8	8454963	99	40238
2025-01-08 01:00:30.30	168.36	70.68	-74.7	-95.6	3.7	8460342	99	39847
2025-01-08 01:00:30.72	168.65	70.50	-74.8	-95.8	3.8	8461395	99	40524
2025-01-08 01:00:31.12	168.92	70.34	-74.8	-95.8	3.8	8464656	99	40293

#Closed at: 2025-01-08 01:00:31