passes_logs/2026/01/13/planumMaritime01/planumMaritime01__20260113_171043_METOP-C_rec.log

#Pass ID: 20260113_171043_METOP-C
#Satellite: METOP-C
#Configuration: METOP-C
#Start time: 2026-01-13 17:10:48.690742

#LorettStation: 1.0.0 05.05.2024
#Station: planumMaritime01
#Location: 37.49445 lon 55.92918 lat
#TLE: 1 43689U 18087A   26012.93337629  .00000090  00000+0  60903-4 0  9997
#TLE: 2 43689  98.6883  75.2176 0000430 188.2836 171.8334 14.21497815372770

#Time	Az	El	Level	SNR
2026-01-13 17:10:50.856041	129.6	10.2	-75.7	0.0
2026-01-13 17:10:53.108980	129.4	10.4	-74.9	0.0
2026-01-13 17:10:55.364698	129.3	10.6	-74.0	0.0
2026-01-13 17:10:57.618391	129.1	10.7	-74.0	0.3
2026-01-13 17:10:59.871551	129.0	10.9	-73.8	1.0
2026-01-13 17:11:02.125124	128.8	11.1	-73.5	0.7
2026-01-13 17:11:04.376910	128.7	11.3	-73.9	1.2
2026-01-13 17:11:06.631812	128.5	11.5	-73.6	2.5
2026-01-13 17:11:08.884840	128.3	11.7	-73.7	1.1
2026-01-13 17:11:11.139643	128.2	11.9	-73.5	2.8
2026-01-13 17:11:13.396189	128.0	12.1	-73.7	2.3
2026-01-13 17:11:15.648804	127.8	12.3	-74.0	3.5
2026-01-13 17:11:17.903776	127.7	12.5	-74.2	1.5
2026-01-13 17:11:20.159242	127.5	12.7	-73.0	0.0
2026-01-13 17:11:22.409858	127.3	12.9	-73.5	0.3
2026-01-13 17:11:24.664545	127.2	13.1	-73.6	0.4
2026-01-13 17:11:26.916072	127.0	13.3	-73.9	2.8
2026-01-13 17:11:29.169389	126.8	13.5	-73.7	3.4
2026-01-13 17:11:31.423894	126.6	13.7	-73.4	1.9
2026-01-13 17:11:33.678792	126.4	14.0	-74.0	2.4
2026-01-13 17:11:35.931531	126.2	14.2	-73.1	0.7
2026-01-13 17:11:38.189497	126.0	14.4	-73.4	2.0
2026-01-13 17:11:40.442181	125.8	14.6	-72.8	0.0
2026-01-13 17:11:42.695091	125.6	14.8	-72.9	1.1
2026-01-13 17:11:44.945870	125.4	15.0	-73.1	1.8
2026-01-13 17:11:47.195608	125.2	15.3	-72.9	1.1
2026-01-13 17:11:49.449607	125.0	15.5	-73.4	1.8
2026-01-13 17:11:51.698185	124.8	15.7	-72.8	2.3
2026-01-13 17:11:53.952538	124.6	15.9	-73.4	2.7
2026-01-13 17:11:56.206463	124.4	16.2	-72.0	0.5
2026-01-13 17:11:58.459628	124.1	16.4	-72.8	4.1
2026-01-13 17:12:00.708962	123.9	16.6	-72.8	2.5
2026-01-13 17:12:02.961175	123.7	16.8	-72.6	1.5
2026-01-13 17:12:05.215975	123.5	17.1	-72.6	2.9
2026-01-13 17:12:07.465540	123.2	17.3	-72.7	2.3
2026-01-13 17:12:09.716403	123.0	17.6	-73.0	4.1
2026-01-13 17:12:11.969509	122.7	17.8	-73.3	4.5
2026-01-13 17:12:14.221876	122.5	18.0	-72.7	3.9
2026-01-13 17:12:16.479928	122.2	18.3	-73.0	2.7
2026-01-13 17:12:18.731847	122.0	18.5	-73.0	2.7
2026-01-13 17:12:20.985065	121.7	18.8	-73.2	3.7
2026-01-13 17:12:23.239177	121.4	19.0	-72.8	3.2
2026-01-13 17:12:25.491215	121.2	19.3	-73.0	3.4
2026-01-13 17:12:27.743497	120.9	19.5	-73.0	4.6
2026-01-13 17:12:29.993792	120.6	19.8	-72.5	2.7
2026-01-13 17:12:32.244376	120.3	20.0	-72.8	3.0
2026-01-13 17:12:34.496424	120.1	20.3	-71.8	3.4
2026-01-13 17:12:36.748855	119.8	20.5	-72.7	2.9
2026-01-13 17:12:38.999514	119.5	20.8	-72.8	5.0
2026-01-13 17:12:41.252615	119.2	21.1	-72.5	4.8
2026-01-13 17:12:43.507606	118.8	21.3	-71.5	1.9
2026-01-13 17:12:45.762185	118.5	21.6	-71.7	3.7
2026-01-13 17:12:48.015014	118.2	21.9	-71.5	3.4
2026-01-13 17:12:50.268050	117.9	22.2	-71.9	3.8
2026-01-13 17:12:52.521055	117.6	22.4	-72.4	5.2
2026-01-13 17:12:54.776664	117.2	22.7	-71.9	4.7
2026-01-13 17:12:57.027157	116.9	23.0	-72.2	4.0
2026-01-13 17:12:59.277734	116.5	23.3	-71.6	4.3
2026-01-13 17:13:01.528402	116.2	23.5	-72.2	5.0
2026-01-13 17:13:03.778795	115.8	23.8	-71.9	5.1
2026-01-13 17:13:06.030351	115.4	24.1	-72.0	5.2
2026-01-13 17:13:08.286246	115.0	24.4	-72.4	5.1
2026-01-13 17:13:10.537413	114.7	24.7	-72.3	5.8
2026-01-13 17:13:12.789685	114.3	25.0	-72.4	6.1
2026-01-13 17:13:15.039858	113.9	25.3	-72.5	4.4
2026-01-13 17:13:17.291511	113.5	25.6	-72.3	4.8
2026-01-13 17:13:19.546091	113.1	25.8	-72.1	4.7
2026-01-13 17:13:21.798236	112.6	26.1	-71.9	5.2
2026-01-13 17:13:24.050514	112.2	26.4	-72.5	4.7
2026-01-13 17:13:26.302211	111.8	26.7	-72.4	5.4
2026-01-13 17:13:28.554936	111.3	27.0	-71.7	4.5
2026-01-13 17:13:30.808920	110.9	27.3	-71.9	4.9
2026-01-13 17:13:33.063165	110.4	27.7	-72.0	5.4
2026-01-13 17:13:35.313622	109.9	28.0	-71.8	4.4
2026-01-13 17:13:37.567397	109.4	28.3	-71.9	5.2
2026-01-13 17:13:39.819239	108.9	28.6	-72.1	3.1
2026-01-13 17:13:42.074017	108.4	28.9	-72.1	4.5
2026-01-13 17:13:44.326640	107.9	29.2	-72.1	4.9
2026-01-13 17:13:46.578419	107.4	29.5	-72.4	6.0
2026-01-13 17:13:48.829295	106.9	29.8	-72.4	5.8
2026-01-13 17:13:51.079592	106.3	30.1	-72.5	6.6
2026-01-13 17:13:53.333074	105.8	30.4	-72.4	6.0
2026-01-13 17:13:55.582550	105.2	30.7	-72.6	5.6
2026-01-13 17:13:57.831207	104.6	31.1	-72.4	5.6
2026-01-13 17:14:00.084098	104.1	31.4	-72.9	6.1
2026-01-13 17:14:02.333156	103.5	31.7	-72.3	2.7
2026-01-13 17:14:04.589471	102.9	32.0	-72.2	4.9
2026-01-13 17:14:06.842447	102.2	32.3	-72.8	6.7
2026-01-13 17:14:09.095100	101.6	32.6	-72.4	6.3
2026-01-13 17:14:11.347006	101.0	32.9	-71.7	6.2
2026-01-13 17:14:13.598093	100.3	33.2	-71.6	6.4
2026-01-13 17:14:15.850717	99.6	33.5	-71.7	7.0
2026-01-13 17:14:18.105649	98.9	33.8	-71.4	7.4
2026-01-13 17:14:20.358291	98.2	34.1	-71.5	6.9
2026-01-13 17:14:22.611111	97.5	34.5	-71.1	4.6
2026-01-13 17:14:24.862872	96.8	34.8	-71.4	6.8
2026-01-13 17:14:27.116459	96.1	35.0	-71.0	5.2
2026-01-13 17:14:29.368393	95.3	35.3	-70.8	4.4
2026-01-13 17:14:31.621090	94.6	35.6	-70.1	4.5
2026-01-13 17:14:33.873266	93.8	35.9	-70.2	5.9
2026-01-13 17:14:36.126948	93.0	36.2	-70.2	3.5
2026-01-13 17:14:38.381010	92.2	36.5	-69.7	2.3
2026-01-13 17:14:40.630652	91.4	36.8	-70.8	6.5
2026-01-13 17:14:42.881172	90.5	37.0	-70.9	4.0
2026-01-13 17:14:45.131360	89.7	37.3	-69.7	3.7
2026-01-13 17:14:47.384735	88.8	37.6	-70.3	4.0
2026-01-13 17:14:49.635033	88.0	37.8	-70.3	2.8
2026-01-13 17:14:51.889134	87.1	38.1	-69.7	0.9
2026-01-13 17:14:54.142184	86.2	38.3	-69.4	1.1
2026-01-13 17:14:56.393027	85.2	38.6	-68.7	0.0
2026-01-13 17:14:58.646811	84.3	38.8	-66.5	0.0
2026-01-13 17:15:00.899527	83.4	39.0	-68.9	2.5
2026-01-13 17:15:03.152381	82.4	39.2	-68.5	0.6
2026-01-13 17:15:05.405021	81.5	39.4	-67.5	0.0
2026-01-13 17:15:07.660056	80.5	39.6	-66.3	0.0
2026-01-13 17:15:09.912487	79.5	39.8	-69.3	4.9
2026-01-13 17:15:12.166996	78.5	40.0	-67.5	0.0
2026-01-13 17:15:14.420357	77.5	40.2	-68.1	1.4
2026-01-13 17:15:16.674913	76.4	40.4	-70.3	4.7
2026-01-13 17:15:18.926717	75.4	40.5	-68.3	4.5
2026-01-13 17:15:21.179033	74.4	40.7	-68.3	3.7
2026-01-13 17:15:23.431163	73.3	40.8	-66.2	0.0
2026-01-13 17:15:25.682341	72.2	40.9	-67.5	2.1
2026-01-13 17:15:27.934114	71.2	41.0	-65.0	0.0
2026-01-13 17:15:30.187547	70.1	41.1	-67.7	1.4
2026-01-13 17:15:32.436565	69.0	41.2	-67.4	0.7
2026-01-13 17:15:34.689473	67.9	41.3	-67.1	0.0
2026-01-13 17:15:36.941892	66.8	41.4	-67.5	0.0
2026-01-13 17:15:39.193929	65.7	41.4	-67.5	0.5
2026-01-13 17:15:41.449112	64.6	41.5	-67.3	0.0
2026-01-13 17:15:43.704424	63.5	41.5	-66.1	0.0
2026-01-13 17:15:45.957334	62.4	41.5	-67.5	0.0
2026-01-13 17:15:48.211859	61.3	41.5	-68.0	3.2
2026-01-13 17:15:50.465762	60.2	41.5	-68.1	0.0
2026-01-13 17:15:52.718992	59.1	41.5	-66.7	1.7
2026-01-13 17:15:54.972673	58.0	41.5	-68.0	1.5
2026-01-13 17:15:57.223679	56.9	41.5	-69.4	3.3
2026-01-13 17:15:59.478634	55.8	41.4	-66.7	0.0
2026-01-13 17:16:01.734336	54.7	41.3	-69.2	3.0
2026-01-13 17:16:03.983838	53.6	41.3	-68.9	3.8
2026-01-13 17:16:06.234338	52.5	41.2	-68.2	0.2
2026-01-13 17:16:08.490185	51.4	41.1	-67.2	0.0
2026-01-13 17:16:10.741202	50.3	41.0	-68.6	0.0
2026-01-13 17:16:12.992222	49.3	40.8	-67.5	0.0
2026-01-13 17:16:15.246935	48.2	40.7	-65.5	0.0
2026-01-13 17:16:17.501808	47.2	40.6	-68.0	0.0
2026-01-13 17:16:19.755966	46.1	40.4	-67.3	0.0
2026-01-13 17:16:22.011104	45.1	40.3	-67.0	0.0
2026-01-13 17:16:24.265291	44.1	40.1	-67.8	0.0
2026-01-13 17:16:26.516293	43.1	39.9	-68.1	0.0
2026-01-13 17:16:28.769809	42.1	39.7	-67.6	0.0
2026-01-13 17:16:31.022652	41.1	39.5	-68.6	2.1
2026-01-13 17:16:33.276360	40.1	39.3	-68.6	1.9
2026-01-13 17:16:35.528169	39.2	39.1	-68.1	3.1
2026-01-13 17:16:37.778166	38.2	38.9	-67.0	0.0
2026-01-13 17:16:40.031006	37.3	38.7	-67.7	0.0
2026-01-13 17:16:42.284597	36.4	38.4	-68.4	0.0
2026-01-13 17:16:44.537840	35.5	38.2	-66.7	0.0
2026-01-13 17:16:46.790074	34.6	37.9	-67.0	0.0
2026-01-13 17:16:49.041179	33.7	37.7	-67.9	0.0
2026-01-13 17:16:51.295054	32.8	37.4	-67.1	0.0
2026-01-13 17:16:53.548646	32.0	37.1	-67.2	0.0
2026-01-13 17:16:55.800583	31.2	36.9	-68.1	0.0
2026-01-13 17:16:58.053387	30.3	36.6	-66.3	0.0
2026-01-13 17:17:00.305986	29.5	36.3	-67.4	0.0
2026-01-13 17:17:02.560992	28.7	36.0	-67.9	0.0
2026-01-13 17:17:04.815850	28.0	35.8	-68.1	0.0
2026-01-13 17:17:07.070762	27.2	35.5	-66.9	0.0
2026-01-13 17:17:09.323960	26.4	35.2	-65.9	0.0
2026-01-13 17:17:11.575129	25.7	34.9	-62.1	0.0
2026-01-13 17:17:13.830165	25.0	34.6	-65.8	0.0
2026-01-13 17:17:16.084007	24.3	34.3	-65.8	0.0
2026-01-13 17:17:18.337809	23.6	34.0	-64.8	0.0
2026-01-13 17:17:20.591394	22.9	33.7	-64.1	0.0
2026-01-13 17:17:22.844221	22.2	33.4	-65.0	0.0
2026-01-13 17:17:25.097088	21.5	33.1	-64.6	0.0
2026-01-13 17:17:27.348781	20.9	32.7	-63.9	0.0
2026-01-13 17:17:29.601775	20.3	32.4	-63.4	0.0
2026-01-13 17:17:31.853582	19.6	32.1	-64.3	0.0
2026-01-13 17:17:34.107198	19.0	31.8	-65.1	0.0
2026-01-13 17:17:36.358087	18.4	31.5	-62.8	0.0
2026-01-13 17:17:38.612893	17.8	31.2	-64.9	0.0
2026-01-13 17:17:40.865823	17.3	30.9	-63.1	0.0
2026-01-13 17:17:43.120944	16.7	30.6	-64.1	0.0
2026-01-13 17:17:45.372167	16.1	30.3	-64.3	0.0
2026-01-13 17:17:47.626957	15.6	30.0	-60.5	0.0
2026-01-13 17:17:49.880930	15.1	29.6	-63.5	0.0
2026-01-13 17:17:52.136394	14.5	29.3	-64.4	0.0
2026-01-13 17:17:54.389772	14.0	29.0	-61.6	0.0
2026-01-13 17:17:56.643462	13.5	28.7	-65.3	0.0
2026-01-13 17:17:58.898084	13.0	28.4	-63.3	0.0
2026-01-13 17:18:01.148082	12.5	28.1	-63.0	0.0
2026-01-13 17:18:03.402790	12.1	27.8	-63.3	0.0
2026-01-13 17:18:05.657745	11.6	27.5	-63.8	0.0
2026-01-13 17:18:07.911487	11.1	27.2	-61.6	0.0
2026-01-13 17:18:10.167762	10.7	26.9	-63.8	0.0
2026-01-13 17:18:12.419551	10.3	26.6	-62.7	0.0
2026-01-13 17:18:14.674040	9.8	26.3	-61.6	0.0
2026-01-13 17:18:16.926788	9.4	26.0	-63.2	0.0
2026-01-13 17:18:19.179581	9.0	25.7	-64.2	0.0
2026-01-13 17:18:21.429384	8.6	25.4	-63.5	0.0
2026-01-13 17:18:23.681267	8.2	25.1	-63.1	0.0
2026-01-13 17:18:25.932839	7.8	24.8	-61.8	0.0
2026-01-13 17:18:28.188134	7.4	24.6	-63.6	0.0
2026-01-13 17:18:30.442586	7.0	24.3	-62.7	0.0
2026-01-13 17:18:32.694898	6.7	24.0	-60.0	0.0
2026-01-13 17:18:34.946263	6.3	23.7	-62.6	0.0
2026-01-13 17:18:37.201320	5.9	23.4	-62.1	0.0
2026-01-13 17:18:39.454159	5.6	23.1	-62.9	0.0
2026-01-13 17:18:41.707458	5.2	22.9	-62.2	0.0
2026-01-13 17:18:43.960499	4.9	22.6	-63.0	0.0
2026-01-13 17:18:46.215719	4.6	22.3	-61.7	0.0
2026-01-13 17:18:48.470007	4.2	22.0	-62.7	0.0
2026-01-13 17:18:50.722183	3.9	21.8	-61.9	0.0
2026-01-13 17:18:52.975746	3.6	21.5	-63.8	0.0
2026-01-13 17:18:55.228542	3.3	21.2	-62.5	0.0
2026-01-13 17:18:57.483466	3.0	21.0	-63.6	0.0
2026-01-13 17:18:59.737124	2.7	20.7	-59.8	0.0
2026-01-13 17:19:01.989969	2.4	20.5	-64.2	0.0
2026-01-13 17:19:04.242799	2.1	20.2	-63.1	0.0
2026-01-13 17:19:06.497870	1.8	19.9	-61.2	0.0
2026-01-13 17:19:08.750420	1.5	19.7	-60.5	0.0
2026-01-13 17:19:11.005816	1.3	19.4	-63.8	0.0
2026-01-13 17:19:13.258457	1.0	19.2	-64.4	0.0
2026-01-13 17:19:15.513403	0.7	18.9	-63.9	0.0
2026-01-13 17:19:17.767815	0.5	18.7	-61.5	0.0
2026-01-13 17:19:20.021512	0.2	18.4	-63.2	0.0
2026-01-13 17:19:22.276049	360.0	18.2	-64.5	0.0
2026-01-13 17:19:24.530136	359.7	18.0	-63.6	0.0
2026-01-13 17:19:26.783961	359.5	17.7	-62.7	0.0
2026-01-13 17:19:29.036703	359.2	17.5	-65.0	0.0
2026-01-13 17:19:31.289682	359.0	17.3	-65.3	0.0
2026-01-13 17:19:33.543047	358.8	17.0	-66.2	0.0
2026-01-13 17:19:35.793705	358.5	16.8	-65.1	0.0
2026-01-13 17:19:38.046923	358.3	16.6	-65.4	0.0
2026-01-13 17:19:40.300688	358.1	16.3	-64.8	0.0
2026-01-13 17:19:42.552949	357.9	16.1	-63.8	0.0
2026-01-13 17:19:44.806541	357.7	15.9	-66.4	0.0
2026-01-13 17:19:47.058097	357.4	15.6	-65.0	0.0
2026-01-13 17:19:49.312922	357.2	15.4	-65.8	0.0
2026-01-13 17:19:51.567408	357.0	15.2	-64.3	0.0
2026-01-13 17:19:53.820983	356.8	15.0	-67.4	0.0
2026-01-13 17:19:56.073626	356.6	14.8	-66.3	0.0
2026-01-13 17:19:58.328032	356.4	14.6	-65.6	0.0
2026-01-13 17:20:00.579046	356.2	14.3	-66.7	0.0
2026-01-13 17:20:02.830873	356.1	14.1	-65.8	0.0
2026-01-13 17:20:05.082935	355.9	13.9	-65.9	0.0
2026-01-13 17:20:07.337815	355.7	13.7	-67.5	0.0
2026-01-13 17:20:09.590406	355.5	13.5	-65.8	0.0
2026-01-13 17:20:11.845151	355.3	13.3	-65.3	0.0
2026-01-13 17:20:14.096873	355.1	13.1	-63.8	0.0
2026-01-13 17:20:16.350777	355.0	12.9	-65.5	0.0
2026-01-13 17:20:18.602654	354.8	12.7	-63.1	0.0
2026-01-13 17:20:20.855477	354.6	12.5	-67.7	0.0
2026-01-13 17:20:23.111020	354.5	12.3	-67.0	0.0
2026-01-13 17:20:25.361774	354.3	12.1	-64.6	0.0
2026-01-13 17:20:27.616760	354.1	11.9	-65.5	0.0
2026-01-13 17:20:29.870542	354.0	11.7	-64.4	0.0
2026-01-13 17:20:32.124446	353.8	11.5	-65.8	0.0
2026-01-13 17:20:34.376860	353.7	11.3	-66.7	0.0
2026-01-13 17:20:36.632207	353.5	11.1	-65.6	0.0
2026-01-13 17:20:38.885004	353.4	10.9	-64.9	0.0
2026-01-13 17:20:41.140237	353.2	10.7	-60.0	0.0
2026-01-13 17:20:43.394749	353.1	10.5	-64.4	0.0
2026-01-13 17:20:45.646393	352.9	10.4	-66.4	0.0
2026-01-13 17:20:47.899120	352.8	10.2	-71.9	0.0
#Closed at: 2026-01-13 17:10:43.695350