passes_logs/2026/01/13/planumMaritime01/planumMaritime01__20260113_090050_METOP-C_rec.log

#Pass ID: 20260113_090050_METOP-C
#Satellite: METOP-C
#Configuration: METOP-C
#Start time: 2026-01-13 09:00:55.420170

#LorettStation: 1.0.0 05.05.2024
#Station: planumMaritime01
#Location: 37.49445 lon 55.92918 lat
#TLE: 1 43689U 18087A   26012.93337629  .00000090  00000+0  60903-4 0  9997
#TLE: 2 43689  98.6883  75.2176 0000430 188.2836 171.8334 14.21497815372770

#Time	Az	El	Level	SNR
2026-01-13 09:00:57.586431	3.9	10.2	-62.7	0.0
2026-01-13 09:00:59.838437	3.7	10.3	-65.5	0.0
2026-01-13 09:01:02.095962	3.5	10.5	-63.1	0.0
2026-01-13 09:01:04.347126	3.3	10.7	-62.8	0.0
2026-01-13 09:01:06.598915	3.1	10.9	-62.2	0.0
2026-01-13 09:01:08.848735	2.9	11.0	-60.7	0.0
2026-01-13 09:01:11.102086	2.7	11.2	-65.2	0.0
2026-01-13 09:01:13.351725	2.4	11.4	-66.6	0.0
2026-01-13 09:01:15.605674	2.2	11.6	-62.2	0.0
2026-01-13 09:01:17.860455	2.0	11.8	-63.9	0.0
2026-01-13 09:01:20.116899	1.8	11.9	-65.8	0.0
2026-01-13 09:01:22.369170	1.6	12.1	-66.8	0.0
2026-01-13 09:01:24.623492	1.4	12.3	-64.8	0.0
2026-01-13 09:01:26.876321	1.1	12.5	-68.9	0.0
2026-01-13 09:01:29.126108	0.9	12.7	-68.3	0.0
2026-01-13 09:01:31.380376	0.7	12.9	-68.9	0.0
2026-01-13 09:01:33.637066	0.4	13.1	-69.1	0.0
2026-01-13 09:01:35.889073	0.2	13.2	-67.8	0.0
2026-01-13 09:01:38.142452	360.0	13.4	-68.8	0.0
2026-01-13 09:01:40.395138	359.7	13.6	-67.6	0.0
2026-01-13 09:01:42.647114	359.5	13.8	-65.3	0.0
2026-01-13 09:01:44.896316	359.2	14.0	-64.5	0.0
2026-01-13 09:01:47.147070	359.0	14.2	-68.8	0.0
2026-01-13 09:01:49.397700	358.7	14.4	-67.7	0.0
2026-01-13 09:01:51.649964	358.4	14.6	-67.6	0.0
2026-01-13 09:01:53.901091	358.2	14.8	-67.1	0.0
2026-01-13 09:01:56.151950	357.9	15.0	-67.0	0.0
2026-01-13 09:01:58.403688	357.6	15.2	-68.9	0.0
2026-01-13 09:02:00.654316	357.4	15.4	-68.0	0.0
2026-01-13 09:02:02.906233	357.1	15.6	-69.3	0.0
2026-01-13 09:02:05.160200	356.8	15.8	-68.3	0.0
2026-01-13 09:02:07.411242	356.5	16.0	-69.6	0.0
2026-01-13 09:02:09.664609	356.2	16.2	-67.6	0.0
2026-01-13 09:02:11.913924	355.9	16.4	-69.5	0.0
2026-01-13 09:02:14.166749	355.6	16.6	-66.7	0.0
2026-01-13 09:02:16.420056	355.3	16.8	-66.0	0.0
2026-01-13 09:02:18.670241	355.0	17.0	-67.3	0.0
2026-01-13 09:02:20.924766	354.7	17.2	-66.8	0.0
2026-01-13 09:02:23.178224	354.4	17.4	-67.1	0.0
2026-01-13 09:02:25.428587	354.1	17.6	-66.8	0.0
2026-01-13 09:02:27.681074	353.7	17.9	-68.1	0.0
2026-01-13 09:02:29.934903	353.4	18.1	-68.0	0.0
2026-01-13 09:02:32.186737	353.1	18.3	-66.4	0.0
2026-01-13 09:02:34.438454	352.7	18.5	-67.2	0.0
2026-01-13 09:02:36.688679	352.4	18.7	-67.0	0.0
2026-01-13 09:02:38.939662	352.0	18.9	-67.5	0.0
2026-01-13 09:02:41.191000	351.7	19.1	-65.8	0.0
2026-01-13 09:02:43.443122	351.3	19.3	-68.8	0.0
2026-01-13 09:02:45.694439	350.9	19.6	-67.2	0.0
2026-01-13 09:02:47.944109	350.6	19.8	-66.5	0.0
2026-01-13 09:02:50.198013	350.2	20.0	-62.8	0.0
2026-01-13 09:02:52.450017	349.8	20.2	-67.9	0.0
2026-01-13 09:02:54.701154	349.4	20.4	-66.6	0.0
2026-01-13 09:02:56.953927	349.0	20.7	-66.5	0.0
2026-01-13 09:02:59.209268	348.6	20.9	-67.7	0.0
2026-01-13 09:03:01.461981	348.2	21.1	-66.7	0.0
2026-01-13 09:03:03.712789	347.8	21.3	-68.1	0.0
2026-01-13 09:03:05.966219	347.4	21.5	-68.9	0.0
2026-01-13 09:03:08.215631	347.0	21.8	-64.6	0.0
2026-01-13 09:03:10.468303	346.5	22.0	-66.9	0.0
2026-01-13 09:03:12.721171	346.1	22.2	-65.2	0.0
2026-01-13 09:03:14.973865	345.6	22.4	-62.7	0.0
2026-01-13 09:03:17.228069	345.2	22.6	-63.9	0.0
2026-01-13 09:03:19.479564	344.7	22.9	-64.3	0.0
2026-01-13 09:03:21.730324	344.3	23.1	-66.5	0.0
2026-01-13 09:03:23.985132	343.8	23.3	-66.6	0.0
2026-01-13 09:03:26.237895	343.3	23.5	-66.3	0.0
2026-01-13 09:03:28.492721	342.8	23.8	-65.2	0.0
2026-01-13 09:03:30.748424	342.4	24.0	-65.8	0.0
2026-01-13 09:03:33.000852	341.9	24.2	-68.2	0.0
2026-01-13 09:03:35.256185	341.4	24.4	-66.3	0.0
2026-01-13 09:03:37.511100	340.8	24.6	-67.1	0.0
2026-01-13 09:03:39.765652	340.3	24.9	-66.3	0.0
2026-01-13 09:03:42.019251	339.8	25.1	-68.4	0.0
2026-01-13 09:03:44.271925	339.3	25.3	-68.0	0.0
2026-01-13 09:03:46.529447	338.7	25.5	-67.4	0.0
2026-01-13 09:03:48.783275	338.2	25.7	-67.2	0.0
2026-01-13 09:03:51.034302	337.6	25.9	-67.7	0.0
2026-01-13 09:03:53.288910	337.0	26.1	-67.9	0.0
2026-01-13 09:03:55.543660	336.5	26.4	-67.7	0.0
2026-01-13 09:03:57.798619	335.9	26.6	-68.2	0.0
2026-01-13 09:04:00.051120	335.3	26.8	-67.3	0.0
2026-01-13 09:04:02.303139	334.7	27.0	-67.0	0.0
2026-01-13 09:04:04.556635	334.1	27.2	-67.9	0.0
2026-01-13 09:04:06.808873	333.5	27.4	-67.7	0.0
2026-01-13 09:04:09.063103	332.9	27.6	-69.3	0.0
2026-01-13 09:04:11.316339	332.2	27.8	-67.8	0.0
2026-01-13 09:04:13.569664	331.6	28.0	-69.3	0.0
2026-01-13 09:04:15.826073	331.0	28.2	-69.0	0.0
2026-01-13 09:04:18.078748	330.3	28.4	-68.6	0.0
2026-01-13 09:04:20.330647	329.7	28.6	-68.5	0.0
2026-01-13 09:04:22.585124	329.0	28.7	-68.8	0.0
2026-01-13 09:04:24.835300	328.3	28.9	-64.4	0.0
2026-01-13 09:04:27.087994	327.6	29.1	-68.2	0.0
2026-01-13 09:04:29.338993	327.0	29.3	-68.8	0.0
2026-01-13 09:04:31.590964	326.3	29.4	-67.6	0.0
2026-01-13 09:04:33.841914	325.6	29.6	-67.5	0.0
2026-01-13 09:04:36.097120	324.8	29.8	-68.7	0.0
2026-01-13 09:04:38.347926	324.1	29.9	-66.7	0.0
2026-01-13 09:04:40.601550	323.4	30.1	-66.5	0.0
2026-01-13 09:04:42.857184	322.7	30.2	-68.7	0.0
2026-01-13 09:04:45.109064	321.9	30.4	-69.0	0.0
2026-01-13 09:04:47.363153	321.2	30.5	-68.9	0.0
2026-01-13 09:04:49.614279	320.4	30.7	-69.9	3.7
2026-01-13 09:04:51.867172	319.7	30.8	-70.5	4.6
2026-01-13 09:04:54.120274	318.9	30.9	-71.0	5.7
2026-01-13 09:04:56.371245	318.1	31.0	-69.9	4.6
2026-01-13 09:04:58.623090	317.4	31.1	-69.7	2.4
2026-01-13 09:05:00.875930	316.6	31.3	-70.6	3.7
2026-01-13 09:05:03.126719	315.8	31.4	-70.6	4.9
2026-01-13 09:05:05.378731	315.0	31.5	-72.3	7.1
2026-01-13 09:05:07.630314	314.2	31.6	-70.6	7.1
2026-01-13 09:05:09.884031	313.4	31.6	-72.1	5.9
2026-01-13 09:05:12.134893	312.6	31.7	-70.7	3.7
2026-01-13 09:05:14.386379	311.8	31.8	-72.2	6.9
2026-01-13 09:05:16.638762	311.0	31.9	-72.5	7.4
2026-01-13 09:05:18.891074	310.2	31.9	-72.5	5.8
2026-01-13 09:05:21.143897	309.3	32.0	-70.3	5.4
2026-01-13 09:05:23.394989	308.5	32.0	-70.8	7.7
2026-01-13 09:05:25.646545	307.7	32.1	-71.8	7.4
2026-01-13 09:05:27.897142	306.9	32.1	-68.6	1.8
2026-01-13 09:05:30.148339	306.0	32.1	-71.1	3.8
2026-01-13 09:05:32.400720	305.2	32.1	-69.4	1.2
2026-01-13 09:05:34.654618	304.4	32.2	-69.4	2.7
2026-01-13 09:05:36.908778	303.5	32.2	-70.3	2.8
2026-01-13 09:05:39.160883	302.7	32.2	-69.8	1.7
2026-01-13 09:05:41.410879	301.9	32.2	-71.8	2.9
2026-01-13 09:05:43.661762	301.1	32.2	-70.8	1.5
2026-01-13 09:05:45.912833	300.2	32.1	-71.9	5.2
2026-01-13 09:05:48.163345	299.4	32.1	-70.0	0.0
2026-01-13 09:05:50.414966	298.6	32.1	-69.2	0.0
2026-01-13 09:05:52.666024	297.7	32.0	-71.0	0.0
2026-01-13 09:05:54.916887	296.9	32.0	-72.3	0.0
2026-01-13 09:05:57.167219	296.1	31.9	-68.7	0.0
2026-01-13 09:05:59.418951	295.3	31.9	-71.7	2.7
2026-01-13 09:06:01.668722	294.5	31.8	-70.9	0.8
2026-01-13 09:06:03.922576	293.7	31.7	-69.4	0.9
2026-01-13 09:06:06.178510	292.8	31.7	-71.8	4.7
2026-01-13 09:06:08.429751	292.0	31.6	-70.9	6.5
2026-01-13 09:06:10.681799	291.2	31.5	-70.9	2.1
2026-01-13 09:06:12.933008	290.4	31.4	-72.4	6.8
2026-01-13 09:06:15.183960	289.7	31.3	-70.3	0.6
2026-01-13 09:06:17.436310	288.9	31.2	-71.6	3.3
2026-01-13 09:06:19.686876	288.1	31.1	-71.6	7.3
2026-01-13 09:06:21.934696	287.3	31.0	-71.4	4.5
2026-01-13 09:06:24.185376	286.6	30.8	-71.1	4.6
2026-01-13 09:06:26.431712	285.8	30.7	-70.8	4.1
2026-01-13 09:06:28.685402	285.0	30.6	-71.1	4.5
2026-01-13 09:06:30.938766	284.3	30.4	-72.4	7.3
2026-01-13 09:06:33.194013	283.5	30.3	-71.8	7.3
2026-01-13 09:06:35.446467	282.8	30.1	-71.8	4.4
2026-01-13 09:06:37.700590	282.1	30.0	-72.0	4.9
2026-01-13 09:06:39.952146	281.4	29.8	-71.5	2.8
2026-01-13 09:06:42.202602	280.6	29.7	-72.3	6.4
2026-01-13 09:06:44.453425	279.9	29.5	-71.4	3.2
2026-01-13 09:06:46.705334	279.2	29.3	-72.0	5.9
2026-01-13 09:06:48.958443	278.5	29.1	-71.8	5.8
2026-01-13 09:06:51.214022	277.8	29.0	-72.3	8.3
2026-01-13 09:06:53.464304	277.2	28.8	-73.1	8.0
2026-01-13 09:06:55.715889	276.5	28.6	-71.6	5.3
2026-01-13 09:06:57.968236	275.8	28.4	-73.1	8.3
2026-01-13 09:07:00.224105	275.2	28.2	-72.7	6.8
2026-01-13 09:07:02.475824	274.5	28.0	-73.4	7.0
2026-01-13 09:07:04.727345	273.9	27.8	-73.0	6.8
2026-01-13 09:07:06.979669	273.3	27.6	-73.8	7.3
2026-01-13 09:07:09.235721	272.6	27.4	-72.8	2.0
2026-01-13 09:07:11.486225	272.0	27.2	-74.0	7.7
2026-01-13 09:07:13.739095	271.4	27.0	-73.7	6.6
2026-01-13 09:07:15.991114	270.8	26.8	-74.0	6.9
2026-01-13 09:07:18.246022	270.2	26.6	-74.0	7.6
2026-01-13 09:07:20.498375	269.6	26.4	-73.8	7.5
2026-01-13 09:07:22.747502	269.1	26.2	-73.0	7.2
2026-01-13 09:07:25.003850	268.5	26.0	-74.0	7.6
2026-01-13 09:07:27.257038	267.9	25.8	-73.3	4.3
2026-01-13 09:07:29.514043	267.4	25.6	-74.1	7.1
2026-01-13 09:07:31.766715	266.8	25.3	-74.0	6.2
2026-01-13 09:07:34.018462	266.3	25.1	-73.6	6.6
2026-01-13 09:07:36.275158	265.8	24.9	-72.9	5.2
2026-01-13 09:07:38.527944	265.2	24.7	-73.7	7.1
2026-01-13 09:07:40.782675	264.7	24.5	-73.4	6.8
2026-01-13 09:07:43.035070	264.2	24.2	-74.1	8.4
2026-01-13 09:07:45.287726	263.7	24.0	-74.3	7.8
2026-01-13 09:07:47.540243	263.2	23.8	-74.1	7.1
2026-01-13 09:07:49.792382	262.7	23.6	-73.9	6.7
2026-01-13 09:07:52.042095	262.2	23.4	-74.9	7.8
2026-01-13 09:07:54.293183	261.8	23.1	-74.2	7.2
2026-01-13 09:07:56.546544	261.3	22.9	-74.1	6.6
2026-01-13 09:07:58.798717	260.8	22.7	-74.1	6.3
2026-01-13 09:08:01.049925	260.4	22.5	-74.6	6.5
2026-01-13 09:08:03.301869	259.9	22.2	-74.3	6.8
2026-01-13 09:08:05.555799	259.5	22.0	-73.9	6.9
2026-01-13 09:08:07.809488	259.0	21.8	-74.4	7.6
2026-01-13 09:08:10.063668	258.6	21.6	-74.6	7.6
2026-01-13 09:08:12.316825	258.2	21.4	-73.9	6.3
2026-01-13 09:08:14.570874	257.8	21.1	-74.5	6.5
2026-01-13 09:08:16.820889	257.4	20.9	-74.1	5.3
2026-01-13 09:08:19.071783	257.0	20.7	-74.6	6.9
2026-01-13 09:08:21.322004	256.6	20.5	-74.6	7.3
2026-01-13 09:08:23.575198	256.2	20.2	-73.9	5.9
2026-01-13 09:08:25.831783	255.8	20.0	-74.2	6.0
2026-01-13 09:08:28.084063	255.4	19.8	-74.4	7.3
2026-01-13 09:08:30.337774	255.0	19.6	-74.6	7.0
2026-01-13 09:08:32.590278	254.7	19.4	-74.1	4.6
2026-01-13 09:08:34.841934	254.3	19.2	-74.0	6.5
2026-01-13 09:08:37.092956	253.9	18.9	-73.9	5.4
2026-01-13 09:08:39.344269	253.6	18.7	-73.6	4.6
2026-01-13 09:08:41.597817	253.2	18.5	-74.1	6.7
2026-01-13 09:08:43.848389	252.9	18.3	-74.2	5.7
2026-01-13 09:08:46.102638	252.5	18.1	-75.0	7.4
2026-01-13 09:08:48.353861	252.2	17.9	-74.3	5.2
2026-01-13 09:08:50.604612	251.9	17.7	-74.8	6.4
2026-01-13 09:08:52.858532	251.5	17.4	-74.2	4.2
2026-01-13 09:08:55.111251	251.2	17.2	-74.3	4.9
2026-01-13 09:08:57.365076	250.9	17.0	-74.2	6.0
2026-01-13 09:08:59.617588	250.6	16.8	-74.5	3.5
2026-01-13 09:09:01.866823	250.3	16.6	-75.0	5.7
2026-01-13 09:09:04.123292	250.0	16.4	-74.7	7.8
2026-01-13 09:09:06.374385	249.7	16.2	-75.1	7.0
2026-01-13 09:09:08.626480	249.4	16.0	-75.0	4.3
2026-01-13 09:09:10.878951	249.1	15.8	-74.2	6.1
2026-01-13 09:09:13.128803	248.8	15.6	-74.5	4.3
2026-01-13 09:09:15.382813	248.5	15.4	-75.0	4.5
2026-01-13 09:09:17.632453	248.2	15.2	-75.0	5.8
2026-01-13 09:09:19.884374	248.0	15.0	-75.6	6.8
2026-01-13 09:09:22.137431	247.7	14.8	-75.4	4.8
2026-01-13 09:09:24.388912	247.4	14.6	-75.6	5.3
2026-01-13 09:09:26.642900	247.2	14.4	-75.4	7.1
2026-01-13 09:09:28.894787	246.9	14.2	-74.7	3.5
2026-01-13 09:09:31.149386	246.6	14.0	-75.4	4.2
2026-01-13 09:09:33.405849	246.4	13.8	-75.1	3.0
2026-01-13 09:09:35.657255	246.1	13.6	-75.4	3.8
2026-01-13 09:09:37.909136	245.9	13.4	-75.2	5.9
2026-01-13 09:09:40.159857	245.6	13.2	-75.2	3.7
2026-01-13 09:09:42.412955	245.4	13.0	-75.3	2.7
2026-01-13 09:09:44.661529	245.2	12.9	-75.4	2.8
2026-01-13 09:09:46.911599	244.9	12.7	-75.3	4.9
2026-01-13 09:09:49.163737	244.7	12.5	-75.0	3.1
2026-01-13 09:09:51.413027	244.5	12.3	-75.5	5.4
2026-01-13 09:09:53.662002	244.2	12.1	-75.4	4.5
2026-01-13 09:09:55.915888	244.0	11.9	-75.2	2.9
2026-01-13 09:09:58.167683	243.8	11.7	-74.7	4.0
2026-01-13 09:10:00.422447	243.6	11.6	-74.7	3.5
2026-01-13 09:10:02.675291	243.4	11.4	-75.1	3.2
2026-01-13 09:10:04.926185	243.2	11.2	-75.0	3.0
2026-01-13 09:10:07.179760	242.9	11.0	-74.4	4.3
2026-01-13 09:10:09.436063	242.7	10.8	-74.8	0.8
2026-01-13 09:10:11.684540	242.5	10.7	-76.5	2.3
2026-01-13 09:10:13.938976	242.3	10.5	-78.2	0.0
2026-01-13 09:10:16.192194	242.1	10.3	-78.4	0.0
2026-01-13 09:10:18.444847	241.9	10.1	-78.4	0.0
#Closed at: 2026-01-13 09:00:50.426563