passes_logs/2026/01/13/planumMaritime01/planumMaritime01__20260113_075510_METEOR-M2_3_rec.log

#Pass ID: 20260113_075510_METEOR-M2 3
#Satellite: METEOR-M2 3
#Configuration: METEOR-M2 3
#Start time: 2026-01-13 07:55:15.653288

#LorettStation: 1.0.0 05.05.2024
#Station: planumMaritime01
#Location: 37.49445 lon 55.92918 lat
#TLE: 1 57166U 23091A   26012.95860029 -.00000007  00000+0  15979-4 0  9992
#TLE: 2 57166  98.6333  70.9458 0002901 257.2519 102.8335 14.24030333132422

#Time	Az	El	Level	SNR
2026-01-13 07:55:17.814557	12.0	10.2	-73.2	0.0
2026-01-13 07:55:20.059706	11.9	10.4	-70.5	0.0
2026-01-13 07:55:22.306740	11.9	10.6	-71.0	0.0
2026-01-13 07:55:24.555217	11.8	10.8	-70.6	0.0
2026-01-13 07:55:26.801774	11.7	11.0	-70.2	0.0
2026-01-13 07:55:29.051972	11.7	11.2	-68.0	0.0
2026-01-13 07:55:31.299940	11.6	11.4	-69.1	0.0
2026-01-13 07:55:33.549945	11.5	11.6	-68.3	0.0
2026-01-13 07:55:35.794196	11.4	11.8	-68.7	0.0
2026-01-13 07:55:38.040056	11.4	12.0	-66.9	0.0
2026-01-13 07:55:40.290857	11.3	12.2	-69.3	0.0
2026-01-13 07:55:42.540094	11.2	12.4	-69.8	0.0
2026-01-13 07:55:44.790470	11.1	12.6	-68.4	0.0
2026-01-13 07:55:47.035819	11.1	12.9	-69.4	0.0
2026-01-13 07:55:49.282692	11.0	13.1	-66.2	0.0
2026-01-13 07:55:51.530901	10.9	13.3	-63.3	0.0
2026-01-13 07:55:53.781424	10.8	13.5	-67.4	0.0
2026-01-13 07:55:56.026056	10.7	13.7	-67.0	0.0
2026-01-13 07:55:58.270934	10.7	14.0	-69.1	0.0
2026-01-13 07:56:00.520385	10.6	14.2	-68.2	0.0
2026-01-13 07:56:02.768315	10.5	14.4	-67.9	0.0
2026-01-13 07:56:05.016887	10.4	14.7	-67.0	0.0
2026-01-13 07:56:07.264925	10.3	14.9	-68.5	0.0
2026-01-13 07:56:09.513966	10.2	15.1	-68.1	0.0
2026-01-13 07:56:11.760513	10.1	15.4	-68.4	0.0
2026-01-13 07:56:14.007851	10.0	15.6	-67.4	0.0
2026-01-13 07:56:16.254911	9.9	15.8	-67.6	0.0
2026-01-13 07:56:18.503842	9.8	16.1	-69.9	0.0
2026-01-13 07:56:20.751899	9.7	16.3	-68.3	0.0
2026-01-13 07:56:23.002113	9.6	16.6	-69.3	0.0
2026-01-13 07:56:25.249755	9.5	16.8	-69.7	0.0
2026-01-13 07:56:27.495204	9.4	17.1	-67.3	0.0
2026-01-13 07:56:29.745191	9.3	17.4	-70.2	0.0
2026-01-13 07:56:31.991550	9.2	17.6	-69.9	0.0
2026-01-13 07:56:34.241570	9.1	17.9	-70.4	0.0
2026-01-13 07:56:36.490902	9.0	18.1	-66.5	0.0
2026-01-13 07:56:38.740646	8.9	18.4	-69.3	0.0
2026-01-13 07:56:40.988531	8.7	18.7	-66.1	0.0
2026-01-13 07:56:43.236047	8.6	19.0	-68.0	0.0
2026-01-13 07:56:45.484441	8.5	19.2	-68.8	0.0
2026-01-13 07:56:47.730990	8.4	19.5	-69.4	0.0
2026-01-13 07:56:49.979454	8.3	19.8	-68.9	0.0
2026-01-13 07:56:52.228114	8.1	20.1	-68.4	0.0
2026-01-13 07:56:54.475645	8.0	20.4	-69.8	0.0
2026-01-13 07:56:56.722860	7.9	20.7	-70.0	0.0
2026-01-13 07:56:58.968972	7.7	21.0	-70.7	0.0
2026-01-13 07:57:01.217029	7.6	21.3	-68.9	0.0
2026-01-13 07:57:03.464808	7.4	21.6	-68.2	0.0
2026-01-13 07:57:05.710070	7.3	21.9	-71.8	0.0
2026-01-13 07:57:07.956312	7.1	22.2	-70.5	0.0
2026-01-13 07:57:10.207135	7.0	22.5	-70.9	0.0
2026-01-13 07:57:12.456472	6.8	22.8	-71.5	0.0
2026-01-13 07:57:14.709437	6.7	23.1	-69.8	0.0
2026-01-13 07:57:16.958283	6.5	23.5	-72.0	0.0
2026-01-13 07:57:19.206283	6.3	23.8	-71.6	0.0
2026-01-13 07:57:21.457183	6.1	24.1	-70.1	0.0
2026-01-13 07:57:23.706367	6.0	24.5	-70.3	0.0
2026-01-13 07:57:25.955310	5.8	24.8	-70.5	0.0
2026-01-13 07:57:28.206193	5.6	25.2	-71.5	0.0
2026-01-13 07:57:30.455109	5.4	25.5	-71.6	0.0
2026-01-13 07:57:32.704172	5.2	25.9	-71.8	0.0
2026-01-13 07:57:34.952157	5.0	26.2	-71.9	0.0
2026-01-13 07:57:37.201379	4.8	26.6	-69.6	0.0
2026-01-13 07:57:39.449154	4.6	27.0	-70.8	0.0
2026-01-13 07:57:41.699746	4.4	27.3	-72.4	0.0
2026-01-13 07:57:43.949466	4.2	27.7	-70.5	0.0
2026-01-13 07:57:46.199870	4.0	28.1	-70.1	0.0
2026-01-13 07:57:48.447817	3.7	28.5	-71.1	0.0
2026-01-13 07:57:50.698152	3.5	28.9	-70.9	0.0
2026-01-13 07:57:52.946912	3.3	29.3	-72.1	0.0
2026-01-13 07:57:55.195093	3.0	29.7	-70.1	0.0
2026-01-13 07:57:57.442843	2.8	30.1	-71.8	0.0
2026-01-13 07:57:59.691026	2.5	30.5	-71.3	0.0
2026-01-13 07:58:01.939170	2.2	30.9	-70.5	0.0
2026-01-13 07:58:04.191349	2.0	31.3	-71.6	0.0
2026-01-13 07:58:06.440064	1.7	31.8	-69.7	0.0
2026-01-13 07:58:08.688545	1.4	32.2	-70.1	0.0
2026-01-13 07:58:10.938991	1.1	32.6	-71.7	0.0
2026-01-13 07:58:13.186238	0.8	33.1	-71.5	0.0
2026-01-13 07:58:15.432588	0.5	33.5	-70.4	0.0
2026-01-13 07:58:17.678912	0.1	34.0	-72.0	0.0
2026-01-13 07:58:19.927169	359.8	34.5	-71.8	0.0
2026-01-13 07:58:22.178412	359.5	34.9	-69.9	0.0
2026-01-13 07:58:24.427827	359.1	35.4	-71.2	0.0
2026-01-13 07:58:26.674336	358.7	35.9	-70.9	0.0
2026-01-13 07:58:28.923274	358.4	36.4	-72.2	0.0
2026-01-13 07:58:31.170329	358.0	36.9	-72.8	0.0
2026-01-13 07:58:33.418774	357.6	37.4	-72.9	1.0
2026-01-13 07:58:35.665110	357.2	37.9	-73.6	2.1
2026-01-13 07:58:37.911284	356.7	38.4	-73.4	0.8
2026-01-13 07:58:40.160539	356.3	38.9	-75.1	5.4
2026-01-13 07:58:42.410722	355.8	39.4	-75.1	4.9
2026-01-13 07:58:44.660226	355.4	39.9	-74.7	4.6
2026-01-13 07:58:46.909504	354.9	40.5	-75.4	5.7
2026-01-13 07:58:49.155954	354.4	41.0	-74.0	2.2
2026-01-13 07:58:51.405564	353.9	41.6	-74.5	5.0
2026-01-13 07:58:53.656638	353.3	42.1	-76.0	6.4
2026-01-13 07:58:55.906294	352.8	42.7	-75.8	6.6
2026-01-13 07:58:58.154578	352.2	43.2	-75.8	7.0
2026-01-13 07:59:00.406159	351.6	43.8	-76.6	8.1
2026-01-13 07:59:02.656696	351.0	44.4	-76.6	6.9
2026-01-13 07:59:04.905618	350.3	45.0	-76.0	5.1
2026-01-13 07:59:07.151221	349.7	45.5	-76.3	6.6
2026-01-13 07:59:09.400192	349.0	46.1	-74.5	0.9
2026-01-13 07:59:11.648608	348.2	46.7	-76.5	5.1
2026-01-13 07:59:13.896977	347.5	47.3	-76.8	5.6
2026-01-13 07:59:16.143834	346.7	47.9	-76.9	6.1
2026-01-13 07:59:18.392706	345.9	48.5	-77.7	7.7
2026-01-13 07:59:20.639845	345.1	49.1	-77.1	4.9
2026-01-13 07:59:22.888763	344.2	49.7	-76.8	6.4
2026-01-13 07:59:25.137900	343.3	50.3	-76.8	6.9
2026-01-13 07:59:27.383255	342.3	50.9	-78.0	9.4
2026-01-13 07:59:29.630525	341.3	51.5	-77.4	7.5
2026-01-13 07:59:31.878868	340.3	52.1	-77.1	7.6
2026-01-13 07:59:34.126851	339.2	52.7	-78.0	9.1
2026-01-13 07:59:36.376002	338.1	53.3	-77.2	6.8
2026-01-13 07:59:38.623846	337.0	53.9	-77.7	9.0
2026-01-13 07:59:40.871610	335.8	54.5	-77.7	8.9
2026-01-13 07:59:43.119595	334.5	55.0	-77.8	8.0
2026-01-13 07:59:45.370713	333.2	55.6	-77.1	8.7
2026-01-13 07:59:47.620860	331.8	56.1	-77.4	7.1
2026-01-13 07:59:49.869395	330.4	56.7	-77.7	8.9
2026-01-13 07:59:52.116469	328.9	57.2	-77.1	5.7
2026-01-13 07:59:54.361105	327.4	57.7	-77.7	6.4
2026-01-13 07:59:56.611920	325.8	58.3	-77.2	4.0
2026-01-13 07:59:58.864490	324.1	58.7	-77.1	0.0
2026-01-13 08:00:01.113617	322.4	59.2	-78.0	4.6
2026-01-13 08:00:03.360310	320.6	59.7	-79.2	6.7
2026-01-13 08:00:05.610931	318.8	60.1	-79.2	7.9
2026-01-13 08:00:07.862721	316.9	60.5	-77.4	2.2
2026-01-13 08:00:10.114469	314.9	60.8	-77.4	1.8
2026-01-13 08:00:12.361018	312.9	61.2	-77.2	2.9
2026-01-13 08:00:14.612898	310.8	61.5	-78.2	2.3
2026-01-13 08:00:16.861012	308.7	61.8	-78.6	7.1
2026-01-13 08:00:19.108967	306.5	62.0	-78.7	6.8
2026-01-13 08:00:21.356301	304.3	62.2	-78.1	3.9
2026-01-13 08:00:23.605137	302.1	62.4	-78.3	7.8
2026-01-13 08:00:25.851620	299.8	62.5	-78.9	7.4
2026-01-13 08:00:28.100369	297.5	62.6	-77.6	3.8
2026-01-13 08:00:30.348254	295.2	62.7	-78.6	6.6
2026-01-13 08:00:32.597479	292.9	62.7	-77.1	3.8
2026-01-13 08:00:34.850160	290.5	62.7	-78.7	5.1
2026-01-13 08:00:37.099795	288.2	62.7	-78.1	4.9
2026-01-13 08:00:39.350542	285.9	62.6	-79.4	5.0
2026-01-13 08:00:41.597157	283.7	62.4	-78.9	6.8
2026-01-13 08:00:43.847628	281.4	62.2	-79.1	6.7
2026-01-13 08:00:46.095478	279.2	62.0	-78.8	8.3
2026-01-13 08:00:48.345774	277.0	61.8	-77.1	3.4
2026-01-13 08:00:50.594151	274.9	61.5	-79.4	8.5
2026-01-13 08:00:52.841811	272.8	61.2	-80.0	7.6
2026-01-13 08:00:55.091487	270.8	60.9	-80.4	6.4
2026-01-13 08:00:57.339093	268.8	60.5	-79.9	7.7
2026-01-13 08:00:59.587074	266.9	60.1	-80.6	8.0
2026-01-13 08:01:01.838401	265.1	59.7	-79.1	5.4
2026-01-13 08:01:04.084982	263.3	59.2	-79.7	10.4
2026-01-13 08:01:06.331962	261.6	58.8	-79.2	7.1
2026-01-13 08:01:08.581027	259.9	58.3	-79.5	8.3
2026-01-13 08:01:10.830573	258.3	57.8	-80.2	7.8
2026-01-13 08:01:13.081893	256.7	57.2	-80.4	9.6
2026-01-13 08:01:15.327926	255.3	56.7	-80.4	9.5
2026-01-13 08:01:17.575839	253.8	56.2	-80.7	9.8
2026-01-13 08:01:19.824919	252.5	55.6	-80.2	8.1
2026-01-13 08:01:22.074062	251.1	55.0	-81.1	9.4
2026-01-13 08:01:24.325082	249.9	54.5	-80.3	8.0
2026-01-13 08:01:26.577157	248.7	53.9	-80.5	9.9
2026-01-13 08:01:28.824405	247.5	53.3	-80.6	10.1
2026-01-13 08:01:31.073002	246.4	52.7	-80.5	10.3
2026-01-13 08:01:33.323247	245.3	52.1	-80.3	10.4
2026-01-13 08:01:35.570163	244.3	51.5	-80.2	10.3
2026-01-13 08:01:37.820354	243.3	50.9	-79.7	10.7
2026-01-13 08:01:40.068664	242.3	50.3	-79.5	11.2
2026-01-13 08:01:42.316917	241.4	49.7	-79.8	11.1
2026-01-13 08:01:44.568989	240.5	49.1	-79.7	10.7
2026-01-13 08:01:46.816597	239.7	48.5	-79.8	11.7
2026-01-13 08:01:49.061498	238.9	47.9	-79.4	11.3
2026-01-13 08:01:51.313893	238.1	47.3	-79.4	11.5
2026-01-13 08:01:53.562979	237.3	46.7	-79.4	10.8
2026-01-13 08:01:55.808214	236.6	46.1	-79.5	12.3
2026-01-13 08:01:58.056173	235.9	45.5	-79.3	12.6
2026-01-13 08:02:00.304752	235.3	44.9	-79.1	11.9
2026-01-13 08:02:02.554097	234.6	44.3	-79.0	13.4
2026-01-13 08:02:04.805132	234.0	43.8	-78.9	13.4
2026-01-13 08:02:07.052301	233.4	43.2	-79.1	13.4
2026-01-13 08:02:09.299583	232.8	42.6	-79.2	13.1
2026-01-13 08:02:11.550148	232.2	42.1	-79.1	13.3
2026-01-13 08:02:13.799300	231.7	41.5	-79.0	14.0
2026-01-13 08:02:16.045695	231.2	41.0	-78.8	13.6
2026-01-13 08:02:18.294813	230.7	40.4	-78.7	14.0
2026-01-13 08:02:20.542517	230.2	39.9	-78.6	14.5
2026-01-13 08:02:22.790954	229.7	39.4	-79.0	13.6
2026-01-13 08:02:25.040514	229.3	38.8	-78.7	13.9
2026-01-13 08:02:27.289193	228.8	38.3	-78.4	14.0
2026-01-13 08:02:29.540107	228.4	37.8	-78.4	14.1
2026-01-13 08:02:31.794600	228.0	37.3	-78.3	13.6
2026-01-13 08:02:34.042106	227.6	36.8	-79.1	13.9
2026-01-13 08:02:36.290478	227.2	36.3	-78.7	13.1
2026-01-13 08:02:38.541574	226.8	35.8	-78.3	14.3
2026-01-13 08:02:40.789743	226.4	35.3	-78.8	13.7
2026-01-13 08:02:43.038265	226.1	34.8	-78.5	13.3
2026-01-13 08:02:45.291160	225.7	34.4	-78.4	14.5
2026-01-13 08:02:47.539886	225.4	33.9	-78.4	14.2
2026-01-13 08:02:49.787978	225.1	33.4	-78.4	14.8
2026-01-13 08:02:52.037378	224.7	33.0	-79.0	13.9
2026-01-13 08:02:54.287307	224.4	32.5	-78.6	13.6
2026-01-13 08:02:56.534685	224.1	32.1	-78.8	13.2
2026-01-13 08:02:58.787686	223.8	31.7	-78.6	13.4
2026-01-13 08:03:01.034815	223.6	31.2	-78.1	13.6
2026-01-13 08:03:03.284026	223.3	30.8	-78.3	14.3
2026-01-13 08:03:05.534049	223.0	30.4	-78.2	13.9
2026-01-13 08:03:07.782438	222.8	30.0	-78.6	12.6
2026-01-13 08:03:10.029427	222.5	29.6	-78.6	12.5
2026-01-13 08:03:12.277929	222.3	29.1	-78.6	12.6
2026-01-13 08:03:14.524169	222.0	28.8	-79.0	12.4
2026-01-13 08:03:16.772705	221.8	28.4	-78.8	12.2
2026-01-13 08:03:19.020661	221.5	28.0	-78.4	9.9
2026-01-13 08:03:21.268225	221.3	27.6	-78.5	12.5
2026-01-13 08:03:23.516852	221.1	27.2	-78.2	11.5
2026-01-13 08:03:25.764205	220.9	26.8	-77.9	11.6
2026-01-13 08:03:28.015359	220.7	26.5	-78.5	12.3
2026-01-13 08:03:30.264664	220.5	26.1	-78.2	12.0
2026-01-13 08:03:32.515311	220.3	25.7	-78.3	11.5
2026-01-13 08:03:34.767040	220.1	25.4	-78.1	10.4
2026-01-13 08:03:37.015455	219.9	25.0	-78.6	11.2
2026-01-13 08:03:39.262272	219.7	24.7	-78.2	10.4
2026-01-13 08:03:41.510692	219.5	24.3	-78.1	9.9
2026-01-13 08:03:43.759137	219.3	24.0	-78.1	9.2
2026-01-13 08:03:46.009416	219.2	23.7	-78.6	11.4
2026-01-13 08:03:48.255891	219.0	23.3	-78.5	10.4
2026-01-13 08:03:50.506122	218.8	23.0	-78.7	10.4
2026-01-13 08:03:52.754156	218.7	22.7	-78.4	11.3
2026-01-13 08:03:55.004543	218.5	22.4	-78.5	10.9
2026-01-13 08:03:57.254448	218.4	22.0	-78.5	8.3
2026-01-13 08:03:59.505505	218.2	21.7	-78.8	10.1
2026-01-13 08:04:01.754626	218.1	21.4	-78.8	9.2
2026-01-13 08:04:04.004242	217.9	21.1	-78.6	9.5
2026-01-13 08:04:06.255212	217.8	20.8	-78.8	10.3
2026-01-13 08:04:08.505708	217.6	20.5	-78.7	9.7
2026-01-13 08:04:10.752357	217.5	20.2	-78.2	9.3
2026-01-13 08:04:13.003881	217.3	19.9	-78.6	8.8
2026-01-13 08:04:15.250777	217.2	19.6	-78.7	9.7
2026-01-13 08:04:17.500412	217.1	19.4	-78.5	8.6
2026-01-13 08:04:19.747611	217.0	19.1	-78.5	8.9
2026-01-13 08:04:21.995819	216.8	18.8	-78.7	8.6
2026-01-13 08:04:24.242094	216.7	18.5	-78.5	8.8
2026-01-13 08:04:26.490267	216.6	18.2	-78.3	9.0
2026-01-13 08:04:28.738255	216.5	18.0	-78.3	7.1
2026-01-13 08:04:30.984682	216.4	17.7	-78.9	8.3
2026-01-13 08:04:33.233446	216.2	17.4	-78.7	7.7
2026-01-13 08:04:35.482215	216.1	17.2	-78.5	7.6
2026-01-13 08:04:37.728738	216.0	16.9	-78.3	7.7
2026-01-13 08:04:39.979341	215.9	16.7	-78.1	7.1
2026-01-13 08:04:42.225967	215.8	16.4	-78.4	7.1
2026-01-13 08:04:44.474284	215.7	16.2	-78.7	7.2
2026-01-13 08:04:46.724450	215.6	15.9	-78.2	6.9
2026-01-13 08:04:48.974004	215.5	15.7	-78.8	6.3
2026-01-13 08:04:51.227033	215.4	15.4	-78.5	6.6
2026-01-13 08:04:53.476653	215.3	15.2	-78.3	6.5
2026-01-13 08:04:55.722312	215.2	14.9	-77.7	5.6
2026-01-13 08:04:57.972766	215.1	14.7	-78.3	6.2
2026-01-13 08:05:00.220472	215.0	14.5	-77.8	5.8
2026-01-13 08:05:02.468319	214.9	14.2	-78.7	5.6
2026-01-13 08:05:04.719805	214.8	14.0	-78.9	7.2
2026-01-13 08:05:06.966605	214.8	13.8	-78.5	6.2
2026-01-13 08:05:09.214180	214.7	13.6	-78.3	6.2
2026-01-13 08:05:11.462226	214.6	13.3	-78.3	5.3
2026-01-13 08:05:13.711116	214.5	13.1	-78.3	5.9
2026-01-13 08:05:15.960273	214.4	12.9	-78.3	4.5
2026-01-13 08:05:18.208565	214.3	12.7	-78.4	5.6
2026-01-13 08:05:20.454197	214.3	12.5	-78.3	6.3
2026-01-13 08:05:22.702574	214.2	12.2	-78.2	4.0
2026-01-13 08:05:24.951668	214.1	12.0	-78.5	5.2
2026-01-13 08:05:27.198811	214.0	11.8	-78.3	4.5
2026-01-13 08:05:29.446267	214.0	11.6	-78.0	5.4
2026-01-13 08:05:31.692635	213.9	11.4	-78.3	3.7
2026-01-13 08:05:33.941161	213.8	11.2	-78.4	5.8
2026-01-13 08:05:36.186837	213.7	11.0	-78.3	5.7
2026-01-13 08:05:38.437195	213.7	10.8	-80.5	7.3
2026-01-13 08:05:40.685647	213.6	10.6	-84.5	0.0
2026-01-13 08:05:42.936804	213.5	10.4	-84.3	0.0
2026-01-13 08:05:45.186313	213.5	10.2	-84.8	0.0
#Closed at: 2026-01-13 07:55:10.660489