passes_logs/2026/01/13/planumMaritime01/planumMaritime01__20260113_064133_METOP-B_rec.log

#Pass ID: 20260113_064133_METOP-B
#Satellite: METOP-B
#Configuration: METOP-B
#Start time: 2026-01-13 06:41:38.961641

#LorettStation: 1.0.0 05.05.2024
#Station: planumMaritime01
#Location: 37.49445 lon 55.92918 lat
#TLE: 1 38771U 12049A   26012.90633838  .00000094  00000+0  63105-4 0  9994
#TLE: 2 38771  98.6755  67.3301 0003319  81.0772 279.0781 14.21421823691209

#Time	Az	El	Level	SNR
2026-01-13 06:41:45.671649	23.5	10.6	-61.7	0.0
2026-01-13 06:41:47.914531	23.6	10.8	-59.7	0.0
2026-01-13 06:41:50.160819	23.7	11.0	-61.6	0.0
2026-01-13 06:41:52.405421	23.9	11.1	-60.4	0.0
2026-01-13 06:41:54.650590	24.0	11.3	-60.0	0.0
2026-01-13 06:41:56.898099	24.1	11.5	-60.0	0.0
2026-01-13 06:41:59.143589	24.2	11.7	-61.3	0.0
2026-01-13 06:42:01.388220	24.3	11.9	-59.3	0.0
2026-01-13 06:42:03.629625	24.5	12.1	-60.3	0.0
2026-01-13 06:42:05.875034	24.6	12.4	-60.1	0.0
2026-01-13 06:42:08.120864	24.7	12.6	-59.1	0.0
2026-01-13 06:42:10.369958	24.9	12.8	-60.4	0.0
2026-01-13 06:42:12.616147	25.0	13.0	-56.8	0.0
2026-01-13 06:42:14.863391	25.1	13.2	-57.9	0.0
2026-01-13 06:42:17.107753	25.3	13.4	-59.1	0.0
2026-01-13 06:42:19.354324	25.4	13.6	-60.7	0.0
2026-01-13 06:42:21.601222	25.5	13.8	-59.6	0.0
2026-01-13 06:42:23.845569	25.7	14.1	-61.6	0.0
2026-01-13 06:42:26.089323	25.8	14.3	-59.0	0.0
2026-01-13 06:42:28.332495	26.0	14.5	-59.7	0.0
2026-01-13 06:42:30.576094	26.1	14.7	-60.6	0.0
2026-01-13 06:42:32.822096	26.2	14.9	-60.4	0.0
2026-01-13 06:42:35.069371	26.4	15.2	-58.7	0.0
2026-01-13 06:42:37.314254	26.6	15.4	-56.8	0.0
2026-01-13 06:42:39.555784	26.7	15.6	-58.0	0.0
2026-01-13 06:42:41.799188	26.9	15.9	-61.6	0.0
2026-01-13 06:42:44.043271	27.0	16.1	-62.0	0.0
2026-01-13 06:42:46.287120	27.2	16.3	-60.1	0.0
2026-01-13 06:42:48.532511	27.3	16.6	-61.3	0.0
2026-01-13 06:42:50.777742	27.5	16.8	-64.4	0.0
2026-01-13 06:42:53.021153	27.7	17.1	-61.0	0.0
2026-01-13 06:42:55.267156	27.9	17.3	-62.7	0.0
2026-01-13 06:42:57.513648	28.0	17.6	-63.1	0.0
2026-01-13 06:42:59.758204	28.2	17.8	-63.7	0.0
2026-01-13 06:43:02.001488	28.4	18.1	-55.8	0.0
2026-01-13 06:43:04.246688	28.6	18.3	-64.3	0.0
2026-01-13 06:43:06.490266	28.8	18.6	-62.2	0.0
2026-01-13 06:43:08.736322	28.9	18.9	-61.8	0.0
2026-01-13 06:43:10.980910	29.1	19.1	-62.0	0.0
2026-01-13 06:43:13.228117	29.3	19.4	-61.7	0.0
2026-01-13 06:43:15.471427	29.5	19.7	-61.3	0.0
2026-01-13 06:43:17.719128	29.7	19.9	-62.4	0.0
2026-01-13 06:43:19.962282	29.9	20.2	-61.8	0.0
2026-01-13 06:43:22.206422	30.2	20.5	-57.6	0.0
2026-01-13 06:43:24.448919	30.4	20.8	-64.3	0.0
2026-01-13 06:43:26.695491	30.6	21.0	-63.2	0.0
2026-01-13 06:43:28.939572	30.8	21.3	-61.7	0.0
2026-01-13 06:43:31.185418	31.0	21.6	-64.1	0.0
2026-01-13 06:43:33.430406	31.3	21.9	-63.7	0.0
2026-01-13 06:43:35.675892	31.5	22.2	-62.8	0.0
2026-01-13 06:43:37.918550	31.7	22.5	-56.8	0.0
2026-01-13 06:43:40.164351	32.0	22.8	-65.4	0.0
2026-01-13 06:43:42.405662	32.2	23.1	-62.2	0.0
2026-01-13 06:43:44.649218	32.5	23.4	-60.3	0.0
2026-01-13 06:43:46.897779	32.7	23.7	-61.6	0.0
2026-01-13 06:43:49.139756	33.0	24.0	-62.7	0.0
2026-01-13 06:43:51.385404	33.2	24.4	-60.0	0.0
2026-01-13 06:43:53.631430	33.5	24.7	-58.2	0.0
2026-01-13 06:43:55.879150	33.8	25.0	-59.9	0.0
2026-01-13 06:43:58.124448	34.1	25.3	-61.4	0.0
2026-01-13 06:44:00.373292	34.4	25.7	-61.0	0.0
2026-01-13 06:44:02.619509	34.7	26.0	-59.1	0.0
2026-01-13 06:44:04.864296	35.0	26.3	-65.2	0.0
2026-01-13 06:44:07.108483	35.3	26.7	-65.8	0.0
2026-01-13 06:44:09.355043	35.6	27.0	-65.9	0.0
2026-01-13 06:44:11.599608	35.9	27.4	-65.5	0.0
2026-01-13 06:44:13.845806	36.2	27.7	-60.8	0.0
2026-01-13 06:44:16.090269	36.6	28.1	-66.3	0.0
2026-01-13 06:44:18.335122	36.9	28.4	-62.4	0.0
2026-01-13 06:44:20.578755	37.2	28.8	-62.2	0.0
2026-01-13 06:44:22.824292	37.6	29.2	-63.3	0.0
2026-01-13 06:44:25.069581	38.0	29.5	-64.4	0.0
2026-01-13 06:44:27.316429	38.3	29.9	-68.8	0.0
2026-01-13 06:44:29.564040	38.7	30.3	-66.8	0.0
2026-01-13 06:44:31.812426	39.1	30.7	-66.5	0.0
2026-01-13 06:44:34.057829	39.5	31.0	-66.0	0.0
2026-01-13 06:44:36.305404	39.9	31.4	-66.6	0.0
2026-01-13 06:44:38.551549	40.3	31.8	-68.2	0.0
2026-01-13 06:44:40.796200	40.8	32.2	-68.1	0.0
2026-01-13 06:44:43.041232	41.2	32.6	-69.3	0.0
2026-01-13 06:44:45.285342	41.6	33.0	-69.4	0.2
2026-01-13 06:44:47.532438	42.1	33.4	-69.7	3.4
2026-01-13 06:44:49.779465	42.6	33.8	-69.9	2.2
2026-01-13 06:44:52.022905	43.1	34.3	-69.0	0.9
2026-01-13 06:44:54.265790	43.6	34.7	-69.2	3.3
2026-01-13 06:44:56.509453	44.1	35.1	-68.6	0.5
2026-01-13 06:44:58.755765	44.6	35.5	-68.9	2.4
2026-01-13 06:45:00.999112	45.1	35.9	-70.0	3.8
2026-01-13 06:45:03.246388	45.7	36.4	-70.6	5.5
2026-01-13 06:45:05.491740	46.2	36.8	-69.1	2.3
2026-01-13 06:45:07.741525	46.8	37.2	-66.1	0.0
2026-01-13 06:45:09.987432	47.4	37.7	-69.4	4.4
2026-01-13 06:45:12.229755	48.0	38.1	-69.1	3.4
2026-01-13 06:45:14.474240	48.6	38.5	-69.1	3.6
2026-01-13 06:45:16.726220	49.3	39.0	-69.1	4.9
2026-01-13 06:45:18.969931	49.9	39.4	-69.8	4.8
2026-01-13 06:45:21.215197	50.6	39.9	-69.4	2.7
2026-01-13 06:45:23.463923	51.3	40.3	-68.4	4.4
2026-01-13 06:45:25.709132	52.0	40.8	-68.3	4.0
2026-01-13 06:45:27.954122	52.8	41.2	-67.3	3.1
2026-01-13 06:45:30.199585	53.5	41.7	-68.1	1.8
2026-01-13 06:45:32.444231	54.3	42.1	-67.5	2.2
2026-01-13 06:45:34.687528	55.1	42.6	-67.6	2.3
2026-01-13 06:45:36.932336	55.9	43.0	-68.5	3.0
2026-01-13 06:45:39.176789	56.8	43.5	-69.4	5.1
2026-01-13 06:45:41.424088	57.7	43.9	-69.5	4.6
2026-01-13 06:45:43.668360	58.5	44.4	-70.4	5.9
2026-01-13 06:45:45.914221	59.5	44.8	-70.1	6.8
2026-01-13 06:45:48.159316	60.4	45.2	-69.0	4.9
2026-01-13 06:45:50.403421	61.4	45.7	-68.7	3.8
2026-01-13 06:45:52.647818	62.4	46.1	-67.9	0.0
2026-01-13 06:45:54.892966	63.4	46.5	-69.5	5.9
2026-01-13 06:45:57.141736	64.5	46.9	-68.5	3.7
2026-01-13 06:45:59.387460	65.5	47.4	-68.5	1.0
2026-01-13 06:46:01.631086	66.6	47.8	-68.4	5.7
2026-01-13 06:46:03.875466	67.8	48.2	-68.7	6.6
2026-01-13 06:46:06.121429	68.9	48.5	-68.5	2.4
2026-01-13 06:46:08.372220	70.1	48.9	-68.5	4.2
2026-01-13 06:46:10.617339	71.4	49.3	-68.3	3.5
2026-01-13 06:46:12.863575	72.6	49.6	-68.1	5.9
2026-01-13 06:46:15.106714	73.9	50.0	-68.6	5.4
2026-01-13 06:46:17.351975	75.2	50.3	-68.7	6.4
2026-01-13 06:46:19.596283	76.5	50.6	-66.6	2.4
2026-01-13 06:46:21.840669	77.9	50.9	-69.4	5.4
2026-01-13 06:46:24.087359	79.3	51.2	-69.0	5.0
2026-01-13 06:46:26.334126	80.7	51.5	-68.6	5.3
2026-01-13 06:46:28.578234	82.2	51.8	-69.6	7.5
2026-01-13 06:46:30.826114	83.7	52.0	-69.8	4.0
2026-01-13 06:46:33.069057	85.1	52.2	-70.4	5.7
2026-01-13 06:46:35.312452	86.7	52.4	-68.7	2.2
2026-01-13 06:46:37.557568	88.2	52.6	-68.2	0.0
2026-01-13 06:46:39.805017	89.7	52.8	-69.9	4.4
2026-01-13 06:46:42.049535	91.3	52.9	-69.1	4.1
2026-01-13 06:46:44.292526	92.9	53.0	-70.0	6.5
2026-01-13 06:46:46.537675	94.5	53.1	-69.7	6.1
2026-01-13 06:46:48.780296	96.1	53.2	-70.9	5.7
2026-01-13 06:46:51.024739	97.7	53.3	-70.5	1.3
2026-01-13 06:46:53.269784	99.3	53.3	-69.6	3.6
2026-01-13 06:46:55.514471	100.9	53.3	-71.4	7.4
2026-01-13 06:46:57.759094	102.6	53.3	-71.1	7.9
2026-01-13 06:47:00.010704	104.2	53.2	-71.5	4.3
2026-01-13 06:47:02.257259	105.8	53.2	-71.6	8.4
2026-01-13 06:47:04.503948	107.4	53.1	-70.5	3.5
2026-01-13 06:47:06.745245	109.0	53.0	-71.3	7.6
2026-01-13 06:47:08.989563	110.6	52.9	-72.0	7.8
2026-01-13 06:47:11.231211	112.1	52.7	-71.4	8.0
2026-01-13 06:47:13.476231	113.7	52.5	-70.4	5.9
2026-01-13 06:47:15.718435	115.2	52.3	-71.5	6.6
2026-01-13 06:47:17.961085	116.7	52.1	-71.2	7.9
2026-01-13 06:47:20.207897	118.2	51.9	-70.3	7.3
2026-01-13 06:47:22.454309	119.6	51.7	-71.5	6.6
2026-01-13 06:47:24.700608	121.1	51.4	-71.8	9.4
2026-01-13 06:47:26.945930	122.5	51.1	-70.4	6.7
2026-01-13 06:47:29.190013	123.9	50.8	-72.0	8.8
2026-01-13 06:47:31.432627	125.2	50.5	-71.9	6.9
2026-01-13 06:47:33.679460	126.6	50.2	-72.0	9.3
2026-01-13 06:47:35.928455	127.9	49.8	-72.3	9.6
2026-01-13 06:47:38.177259	129.1	49.5	-72.5	8.5
2026-01-13 06:47:40.422547	130.4	49.1	-72.5	9.5
2026-01-13 06:47:42.668971	131.6	48.7	-72.8	8.7
2026-01-13 06:47:44.915602	132.8	48.4	-72.1	9.3
2026-01-13 06:47:47.156763	133.9	48.0	-72.4	10.1
2026-01-13 06:47:49.402318	135.1	47.6	-72.5	7.5
2026-01-13 06:47:51.648905	136.2	47.2	-72.4	10.0
2026-01-13 06:47:53.892348	137.2	46.7	-73.6	11.0
2026-01-13 06:47:56.135578	138.3	46.3	-72.8	9.0
2026-01-13 06:47:58.378589	139.3	45.9	-73.0	9.9
2026-01-13 06:48:00.623291	140.3	45.5	-72.6	9.2
2026-01-13 06:48:02.877060	141.2	45.0	-72.5	10.1
2026-01-13 06:48:05.123275	142.2	44.6	-72.9	10.5
2026-01-13 06:48:07.366985	143.1	44.1	-72.6	10.5
2026-01-13 06:48:09.613282	144.0	43.7	-72.7	9.8
2026-01-13 06:48:11.858420	144.8	43.2	-72.8	10.9
2026-01-13 06:48:14.104842	145.7	42.8	-73.0	11.0
2026-01-13 06:48:16.349648	146.5	42.3	-73.1	11.1
2026-01-13 06:48:18.596170	147.3	41.9	-72.7	10.5
2026-01-13 06:48:20.842510	148.0	41.4	-73.0	10.4
2026-01-13 06:48:23.088405	148.8	41.0	-73.0	10.6
2026-01-13 06:48:25.334339	149.5	40.5	-73.5	10.7
2026-01-13 06:48:27.579628	150.2	40.1	-73.1	10.3
2026-01-13 06:48:29.823397	150.9	39.6	-73.4	11.3
2026-01-13 06:48:32.068786	151.6	39.2	-73.3	10.9
2026-01-13 06:48:34.315429	152.2	38.7	-73.2	10.6
2026-01-13 06:48:36.562420	152.9	38.3	-73.1	10.1
2026-01-13 06:48:38.810764	153.5	37.9	-73.1	11.3
2026-01-13 06:48:41.058368	154.1	37.4	-73.1	11.7
2026-01-13 06:48:43.305298	154.7	37.0	-72.9	10.8
2026-01-13 06:48:45.556842	155.3	36.5	-73.2	10.4
2026-01-13 06:48:47.801229	155.8	36.1	-73.5	10.3
2026-01-13 06:48:50.046743	156.4	35.7	-73.4	10.9
2026-01-13 06:48:52.292480	156.9	35.3	-73.6	10.0
2026-01-13 06:48:54.535726	157.4	34.8	-73.2	9.8
2026-01-13 06:48:56.780913	157.9	34.4	-73.7	8.9
2026-01-13 06:48:59.026747	158.4	34.0	-73.2	9.3
2026-01-13 06:49:01.272367	158.9	33.6	-73.8	9.8
2026-01-13 06:49:03.517729	159.4	33.2	-73.5	10.2
2026-01-13 06:49:05.764896	159.8	32.8	-73.0	4.8
2026-01-13 06:49:08.010355	160.3	32.4	-73.4	8.1
2026-01-13 06:49:10.255833	160.7	32.0	-73.4	8.2
2026-01-13 06:49:12.504597	161.1	31.6	-73.1	9.0
2026-01-13 06:49:14.748194	161.5	31.2	-72.3	7.9
2026-01-13 06:49:16.992383	161.9	30.8	-72.3	7.9
2026-01-13 06:49:19.237606	162.3	30.4	-72.5	5.4
2026-01-13 06:49:21.486512	162.7	30.0	-72.7	7.7
2026-01-13 06:49:23.731735	163.1	29.6	-72.0	7.4
2026-01-13 06:49:25.976338	163.5	29.3	-72.7	5.2
2026-01-13 06:49:28.222510	163.8	28.9	-72.3	8.0
2026-01-13 06:49:30.468542	164.2	28.5	-72.6	7.3
2026-01-13 06:49:32.713438	164.5	28.2	-73.2	8.0
2026-01-13 06:49:34.960888	164.8	27.8	-72.3	5.7
2026-01-13 06:49:37.207792	165.2	27.5	-73.2	6.9
2026-01-13 06:49:39.451936	165.5	27.1	-73.6	6.0
2026-01-13 06:49:41.697377	165.8	26.8	-73.6	5.7
2026-01-13 06:49:43.945783	166.1	26.4	-72.9	6.2
2026-01-13 06:49:46.187430	166.4	26.1	-72.7	6.2
2026-01-13 06:49:48.431105	166.7	25.7	-73.2	6.5
2026-01-13 06:49:50.677343	167.0	25.4	-72.7	5.4
2026-01-13 06:49:52.920575	167.3	25.1	-72.7	7.4
2026-01-13 06:49:55.167637	167.6	24.7	-73.1	6.3
2026-01-13 06:49:57.410606	167.8	24.4	-72.9	3.9
2026-01-13 06:49:59.655581	168.1	24.1	-72.7	5.5
2026-01-13 06:50:01.899654	168.4	23.8	-72.9	6.2
2026-01-13 06:50:04.146488	168.6	23.5	-72.7	5.0
2026-01-13 06:50:06.395190	168.9	23.2	-72.6	4.9
2026-01-13 06:50:08.641127	169.1	22.8	-73.4	5.9
2026-01-13 06:50:10.885902	169.4	22.5	-73.1	5.8
2026-01-13 06:50:13.130842	169.6	22.2	-72.8	4.4
2026-01-13 06:50:15.378668	169.9	21.9	-73.2	4.6
2026-01-13 06:50:17.623949	170.1	21.6	-73.2	4.9
2026-01-13 06:50:19.870931	170.3	21.4	-72.7	5.0
2026-01-13 06:50:22.117175	170.5	21.1	-73.1	4.9
2026-01-13 06:50:24.364612	170.7	20.8	-73.1	4.9
2026-01-13 06:50:26.609474	171.0	20.5	-73.3	5.9
2026-01-13 06:50:28.857905	171.2	20.2	-73.4	4.2
2026-01-13 06:50:31.107740	171.4	19.9	-73.1	5.0
2026-01-13 06:50:33.352360	171.6	19.7	-73.6	5.7
2026-01-13 06:50:35.595329	171.8	19.4	-73.6	5.1
2026-01-13 06:50:37.841142	172.0	19.1	-73.3	5.2
2026-01-13 06:50:40.087630	172.2	18.9	-73.9	5.1
2026-01-13 06:50:42.330596	172.4	18.6	-73.5	3.1
2026-01-13 06:50:44.577414	172.5	18.3	-73.8	4.7
2026-01-13 06:50:46.827329	172.7	18.1	-74.0	5.6
2026-01-13 06:50:49.072912	172.9	17.8	-74.2	5.8
2026-01-13 06:50:51.316479	173.1	17.6	-74.9	5.2
2026-01-13 06:50:53.564030	173.3	17.3	-74.5	5.4
2026-01-13 06:50:55.809797	173.4	17.1	-75.3	5.7
2026-01-13 06:50:58.054170	173.6	16.8	-74.7	3.8
2026-01-13 06:51:00.301843	173.8	16.6	-74.0	3.5
2026-01-13 06:51:02.544671	173.9	16.3	-75.2	5.4
2026-01-13 06:51:04.794350	174.1	16.1	-75.1	5.9
2026-01-13 06:51:07.036710	174.3	15.8	-75.5	5.7
2026-01-13 06:51:09.281987	174.4	15.6	-75.2	5.8
2026-01-13 06:51:11.527040	174.6	15.4	-75.5	4.5
2026-01-13 06:51:13.770758	174.7	15.1	-75.4	5.0
2026-01-13 06:51:16.015138	174.9	14.9	-75.3	5.7
2026-01-13 06:51:18.259873	175.0	14.7	-75.5	6.1
2026-01-13 06:51:20.503532	175.2	14.5	-75.3	5.0
2026-01-13 06:51:22.748435	175.3	14.2	-75.3	5.3
2026-01-13 06:51:24.993647	175.5	14.0	-75.3	5.1
2026-01-13 06:51:27.239279	175.6	13.8	-74.8	4.6
2026-01-13 06:51:29.486009	175.7	13.6	-74.9	4.0
2026-01-13 06:51:31.731881	175.9	13.3	-75.1	4.4
2026-01-13 06:51:33.975927	176.0	13.1	-74.7	4.8
2026-01-13 06:51:36.220557	176.1	12.9	-74.8	3.5
2026-01-13 06:51:38.467048	176.3	12.7	-74.4	3.6
2026-01-13 06:51:40.712448	176.4	12.5	-74.8	0.6
2026-01-13 06:51:42.958343	176.5	12.3	-74.3	0.1
2026-01-13 06:51:45.199251	176.6	12.1	-73.7	2.0
2026-01-13 06:51:47.443345	176.8	11.9	-73.7	0.0
2026-01-13 06:51:49.689305	176.9	11.7	-73.9	0.0
2026-01-13 06:51:51.935490	177.0	11.5	-73.5	0.0
2026-01-13 06:51:54.180919	177.1	11.3	-72.8	0.0
2026-01-13 06:51:56.425962	177.2	11.1	-73.6	0.0
2026-01-13 06:51:58.672031	177.4	10.9	-75.0	1.7
2026-01-13 06:52:00.918203	177.5	10.7	-72.8	0.0
2026-01-13 06:52:03.162503	177.6	10.5	-74.1	0.0
2026-01-13 06:52:05.407740	177.7	10.3	-78.0	0.0
2026-01-13 06:52:07.651545	177.8	10.1	-81.1	0.0
#Closed at: 2026-01-13 06:41:33.968348