passes_logs/2026/01/13/planumMaritime01/planumMaritime01__20260113_174354_METEOR-M2_3_rec.log

#Pass ID: 20260113_174354_METEOR-M2 3
#Satellite: METEOR-M2 3
#Configuration: METEOR-M2 3
#Start time: 2026-01-13 17:43:59.452150

#LorettStation: 1.0.0 05.05.2024
#Station: planumMaritime01
#Location: 37.49445 lon 55.92918 lat
#TLE: 1 57166U 23091A   26012.95860029 -.00000007  00000+0  15979-4 0  9992
#TLE: 2 57166  98.6333  70.9458 0002901 257.2519 102.8335 14.24030333132422

#Time	Az	El	Level	SNR
2026-01-13 17:44:01.623879	159.5	10.2	-75.6	0.0
2026-01-13 17:44:03.886674	159.5	10.4	-75.4	0.0
2026-01-13 17:44:06.158503	159.5	10.6	-77.8	0.0
2026-01-13 17:44:08.430638	159.5	10.8	-78.4	6.1
2026-01-13 17:44:10.703165	159.5	11.0	-77.7	4.7
2026-01-13 17:44:12.973846	159.5	11.2	-77.9	3.8
2026-01-13 17:44:15.244159	159.5	11.4	-77.4	5.3
2026-01-13 17:44:17.518313	159.5	11.6	-77.7	5.3
2026-01-13 17:44:19.792185	159.5	11.9	-77.8	4.8
2026-01-13 17:44:22.063234	159.5	12.1	-78.1	5.4
2026-01-13 17:44:24.334910	159.5	12.3	-77.5	6.4
2026-01-13 17:44:26.608513	159.5	12.5	-77.9	7.0
2026-01-13 17:44:28.881755	159.5	12.7	-78.2	8.0
2026-01-13 17:44:31.149043	159.5	13.0	-78.2	7.0
2026-01-13 17:44:33.423262	159.5	13.2	-77.8	7.2
2026-01-13 17:44:35.690831	159.5	13.4	-77.8	7.7
2026-01-13 17:44:37.951739	159.5	13.6	-77.6	5.6
2026-01-13 17:44:40.212965	159.5	13.9	-77.4	5.4
2026-01-13 17:44:42.469885	159.4	14.1	-77.1	6.6
2026-01-13 17:44:44.725690	159.4	14.4	-77.5	6.3
2026-01-13 17:44:46.988688	159.4	14.6	-77.3	3.8
2026-01-13 17:44:49.245340	159.4	14.8	-77.0	4.2
2026-01-13 17:44:51.505310	159.4	15.1	-76.8	5.2
2026-01-13 17:44:53.764824	159.4	15.3	-76.6	3.3
2026-01-13 17:44:56.022571	159.4	15.6	-76.3	0.0
2026-01-13 17:44:58.286793	159.4	15.8	-76.2	0.0
2026-01-13 17:45:00.561302	159.4	16.1	-76.0	0.0
2026-01-13 17:45:02.833411	159.4	16.3	-75.7	0.0
2026-01-13 17:45:05.105444	159.4	16.6	-75.7	0.0
2026-01-13 17:45:07.378971	159.4	16.9	-75.6	0.0
2026-01-13 17:45:09.651462	159.4	17.1	-75.3	0.0
2026-01-13 17:45:11.924499	159.4	17.4	-75.1	0.0
2026-01-13 17:45:14.197798	159.4	17.7	-74.8	0.0
2026-01-13 17:45:16.467207	159.3	17.9	-74.4	0.0
2026-01-13 17:45:18.735357	159.3	18.2	-75.0	0.0
2026-01-13 17:45:21.005528	159.3	18.5	-75.0	0.0
2026-01-13 17:45:23.274655	159.3	18.8	-75.2	0.0
2026-01-13 17:45:25.547285	159.3	19.1	-75.4	0.0
2026-01-13 17:45:27.821897	159.3	19.4	-75.2	0.0
2026-01-13 17:45:30.090805	159.3	19.7	-75.1	0.0
2026-01-13 17:45:32.358581	159.3	20.0	-74.6	0.0
2026-01-13 17:45:34.631539	159.3	20.3	-73.9	0.0
2026-01-13 17:45:36.905387	159.3	20.6	-74.6	0.0
2026-01-13 17:45:39.181848	159.2	20.9	-74.4	0.0
2026-01-13 17:45:41.453305	159.2	21.2	-74.4	0.0
2026-01-13 17:45:43.726691	159.2	21.5	-74.9	0.0
2026-01-13 17:45:46.001998	159.2	21.9	-72.7	0.0
2026-01-13 17:45:48.275829	159.2	22.2	-74.5	0.0
2026-01-13 17:45:50.549132	159.2	22.5	-73.9	0.0
2026-01-13 17:45:52.820647	159.2	22.8	-76.3	8.0
2026-01-13 17:45:55.098481	159.2	23.2	-76.9	9.3
2026-01-13 17:45:57.370803	159.1	23.5	-76.9	8.5
2026-01-13 17:45:59.646770	159.1	23.9	-76.8	8.6
2026-01-13 17:46:01.918631	159.1	24.2	-77.0	8.9
2026-01-13 17:46:04.190620	159.1	24.6	-76.4	9.3
2026-01-13 17:46:06.466847	159.1	25.0	-76.0	6.2
2026-01-13 17:46:08.736245	159.1	25.3	-76.7	7.0
2026-01-13 17:46:11.006149	159.0	25.7	-76.9	9.3
2026-01-13 17:46:13.280426	159.0	26.1	-75.6	6.1
2026-01-13 17:46:15.555106	159.0	26.5	-76.1	7.2
2026-01-13 17:46:17.827998	159.0	26.9	-77.3	10.3
2026-01-13 17:46:20.097032	159.0	27.3	-77.6	11.1
2026-01-13 17:46:22.367072	158.9	27.7	-77.5	9.9
2026-01-13 17:46:24.639716	158.9	28.1	-77.2	10.6
2026-01-13 17:46:26.911069	158.9	28.5	-76.2	7.0
2026-01-13 17:46:29.184791	158.9	28.9	-77.2	11.2
2026-01-13 17:46:31.452288	158.8	29.3	-76.7	7.9
2026-01-13 17:46:33.726183	158.8	29.8	-77.7	10.7
2026-01-13 17:46:36.001331	158.8	30.2	-77.7	11.0
2026-01-13 17:46:38.272765	158.8	30.7	-77.3	10.1
2026-01-13 17:46:40.542424	158.7	31.1	-77.6	11.5
2026-01-13 17:46:42.810860	158.7	31.6	-77.6	12.3
2026-01-13 17:46:45.082257	158.7	32.0	-77.2	9.6
2026-01-13 17:46:47.346764	158.7	32.5	-77.3	10.1
2026-01-13 17:46:49.619768	158.6	33.0	-77.4	10.8
2026-01-13 17:46:51.889797	158.6	33.5	-77.3	10.2
2026-01-13 17:46:54.156759	158.5	34.0	-77.0	10.6
2026-01-13 17:46:56.415187	158.5	34.5	-77.2	10.4
2026-01-13 17:46:58.668766	158.5	35.0	-77.5	11.0
2026-01-13 17:47:00.921564	158.4	35.5	-77.9	12.2
2026-01-13 17:47:03.173138	158.4	36.1	-78.2	12.7
2026-01-13 17:47:05.425923	158.4	36.6	-78.0	12.3
2026-01-13 17:47:07.680367	158.3	37.2	-77.9	12.1
2026-01-13 17:47:09.936586	158.3	37.7	-77.8	11.8
2026-01-13 17:47:12.198430	158.2	38.3	-78.1	12.8
2026-01-13 17:47:14.458650	158.2	38.9	-78.1	12.8
2026-01-13 17:47:16.724269	158.1	39.5	-78.5	11.4
2026-01-13 17:47:18.988229	158.1	40.1	-78.2	11.7
2026-01-13 17:47:21.254310	158.0	40.7	-78.2	12.4
2026-01-13 17:47:23.517426	158.0	41.3	-78.4	12.2
2026-01-13 17:47:25.779385	157.9	41.9	-78.3	12.1
2026-01-13 17:47:28.043344	157.8	42.6	-78.6	12.3
2026-01-13 17:47:30.304591	157.8	43.2	-79.0	12.1
2026-01-13 17:47:32.569350	157.7	43.9	-78.8	12.0
2026-01-13 17:47:34.833085	157.6	44.6	-79.0	11.2
2026-01-13 17:47:37.091910	157.6	45.3	-78.6	12.1
2026-01-13 17:47:39.350900	157.5	46.0	-78.8	12.6
2026-01-13 17:47:41.610580	157.4	46.7	-79.0	12.3
2026-01-13 17:47:43.870911	157.3	47.4	-79.3	12.0
2026-01-13 17:47:46.134413	157.2	48.1	-79.4	11.7
2026-01-13 17:47:48.402477	157.1	48.9	-79.2	11.7
2026-01-13 17:47:50.669310	157.0	49.6	-79.4	9.8
2026-01-13 17:47:52.937760	156.9	50.4	-79.7	11.6
2026-01-13 17:47:55.209024	156.8	51.2	-79.5	10.9
2026-01-13 17:47:57.481248	156.7	52.0	-80.1	10.9
2026-01-13 17:47:59.751145	156.5	52.8	-80.4	10.0
2026-01-13 17:48:02.022848	156.4	53.7	-80.6	10.3
2026-01-13 17:48:04.294674	156.3	54.5	-80.6	9.6
2026-01-13 17:48:06.566652	156.1	55.4	-81.0	9.6
2026-01-13 17:48:08.839406	155.9	56.3	-80.5	9.3
2026-01-13 17:48:11.109934	155.8	57.2	-80.2	9.3
2026-01-13 17:48:13.376485	155.6	58.1	-79.8	10.4
2026-01-13 17:48:15.648964	155.4	59.0	-79.8	10.3
2026-01-13 17:48:17.918196	155.2	59.9	-79.9	11.1
2026-01-13 17:48:20.190715	154.9	60.8	-80.1	11.2
2026-01-13 17:48:22.460637	154.7	61.8	-80.0	10.8
2026-01-13 17:48:24.734854	154.4	62.8	-80.0	10.4
2026-01-13 17:48:27.002880	154.1	63.8	-80.5	10.7
2026-01-13 17:48:29.276000	153.8	64.8	-80.2	8.3
2026-01-13 17:48:31.548450	153.4	65.8	-80.4	9.6
2026-01-13 17:48:33.818757	153.0	66.8	-79.9	9.0
2026-01-13 17:48:36.090179	152.6	67.8	-79.6	7.9
2026-01-13 17:48:38.361757	152.1	68.9	-79.4	9.0
2026-01-13 17:48:40.634499	151.6	69.9	-78.8	7.0
2026-01-13 17:48:42.909664	151.0	71.0	-79.8	10.0
2026-01-13 17:48:45.179839	150.3	72.0	-78.8	8.9
2026-01-13 17:48:47.448427	149.5	73.1	-79.4	9.7
2026-01-13 17:48:49.716247	148.7	74.2	-79.5	10.5
2026-01-13 17:48:51.988486	147.6	75.3	-79.6	11.1
2026-01-13 17:48:54.261923	146.4	76.4	-79.6	10.5
2026-01-13 17:48:56.535948	145.0	77.5	-78.8	9.7
2026-01-13 17:48:58.811425	143.4	78.6	-77.7	8.7
2026-01-13 17:49:01.083904	141.3	79.7	-77.7	9.0
2026-01-13 17:49:03.358243	138.7	80.8	-78.6	8.9
2026-01-13 17:49:05.631898	135.5	81.8	-78.2	8.0
2026-01-13 17:49:07.901225	131.3	82.9	-78.5	8.9
2026-01-13 17:49:10.158895	125.7	83.9	-79.4	7.0
2026-01-13 17:49:12.420140	118.1	84.8	-79.5	8.8
2026-01-13 17:49:14.675374	107.6	85.5	-79.1	8.0
2026-01-13 17:49:16.933525	93.3	86.1	-79.0	9.6
2026-01-13 17:49:19.187926	75.7	86.4	-77.9	10.4
2026-01-13 17:49:21.448749	57.2	86.3	-78.0	8.6
2026-01-13 17:49:23.708383	41.4	85.8	-77.3	7.4
2026-01-13 17:49:25.962962	29.4	85.1	-76.8	5.1
2026-01-13 17:49:28.223045	20.6	84.2	-77.1	3.8
2026-01-13 17:49:30.478465	14.3	83.3	-78.2	5.6
2026-01-13 17:49:32.746141	9.6	82.3	-78.0	3.6
2026-01-13 17:49:35.018641	6.0	81.2	-76.7	3.7
2026-01-13 17:49:37.292118	3.2	80.2	-76.9	5.4
2026-01-13 17:49:39.561858	0.9	79.1	-76.9	6.5
2026-01-13 17:49:41.834203	359.1	78.0	-77.0	6.2
2026-01-13 17:49:44.110063	357.6	76.9	-77.4	6.8
2026-01-13 17:49:46.380645	356.3	75.8	-77.1	6.3
2026-01-13 17:49:48.654847	355.2	74.7	-76.9	4.7
2026-01-13 17:49:50.923898	354.3	73.6	-77.8	6.4
2026-01-13 17:49:53.192753	353.5	72.5	-77.3	6.3
2026-01-13 17:49:55.457469	352.8	71.4	-78.4	8.4
2026-01-13 17:49:57.726666	352.1	70.4	-77.9	6.1
2026-01-13 17:49:59.992917	351.6	69.3	-78.0	8.1
2026-01-13 17:50:02.258756	351.1	68.3	-76.8	4.9
2026-01-13 17:50:04.525849	350.6	67.3	-77.6	6.4
2026-01-13 17:50:06.795185	350.2	66.2	-77.2	6.4
2026-01-13 17:50:09.064519	349.8	65.2	-77.5	6.3
2026-01-13 17:50:11.339499	349.5	64.2	-77.5	5.6
2026-01-13 17:50:13.612536	349.2	63.2	-77.6	5.7
2026-01-13 17:50:15.886133	348.9	62.3	-77.9	8.2
2026-01-13 17:50:18.160826	348.7	61.3	-77.9	4.9
2026-01-13 17:50:20.432729	348.4	60.4	-78.1	3.3
2026-01-13 17:50:22.705982	348.2	59.4	-77.4	4.2
2026-01-13 17:50:24.983448	348.0	58.5	-77.8	6.5
2026-01-13 17:50:27.256218	347.8	57.6	-78.0	5.6
2026-01-13 17:50:29.531134	347.6	56.7	-77.2	5.5
2026-01-13 17:50:31.810124	347.4	55.8	-78.5	6.5
2026-01-13 17:50:34.084599	347.3	55.0	-78.3	8.2
2026-01-13 17:50:36.358916	347.1	54.1	-77.4	3.6
2026-01-13 17:50:38.634073	347.0	53.3	-78.4	5.2
2026-01-13 17:50:40.909398	346.9	52.4	-78.1	5.2
2026-01-13 17:50:43.183957	346.7	51.6	-77.4	3.5
2026-01-13 17:50:45.456106	346.6	50.8	-77.7	7.7
2026-01-13 17:50:47.728217	346.5	50.1	-76.3	2.4
2026-01-13 17:50:49.999636	346.4	49.3	-75.7	1.3
2026-01-13 17:50:52.272351	346.3	48.5	-76.4	5.8
2026-01-13 17:50:54.544683	346.2	47.8	-77.0	7.1
2026-01-13 17:50:56.818439	346.1	47.0	-75.5	1.8
2026-01-13 17:50:59.088934	346.0	46.3	-75.0	4.0
2026-01-13 17:51:01.358674	346.0	45.6	-75.3	4.4
2026-01-13 17:51:03.626549	345.9	44.9	-74.7	3.7
2026-01-13 17:51:05.902751	345.8	44.3	-74.3	3.9
2026-01-13 17:51:08.175350	345.7	43.6	-74.1	4.4
2026-01-13 17:51:10.447696	345.7	42.9	-73.3	0.7
2026-01-13 17:51:12.721342	345.6	42.3	-72.9	0.0
2026-01-13 17:51:14.997157	345.5	41.6	-73.6	2.2
2026-01-13 17:51:17.271603	345.5	41.0	-74.0	1.7
2026-01-13 17:51:19.545520	345.4	40.4	-72.6	1.1
2026-01-13 17:51:21.802795	345.4	39.8	-72.9	1.2
2026-01-13 17:51:24.067715	345.3	39.2	-71.4	0.0
2026-01-13 17:51:26.341538	345.3	38.6	-72.8	0.0
2026-01-13 17:51:28.614571	345.2	38.0	-72.9	0.0
2026-01-13 17:51:30.885061	345.2	37.5	-72.2	0.4
2026-01-13 17:51:33.160559	345.1	36.9	-72.9	0.0
2026-01-13 17:51:35.430970	345.1	36.4	-71.5	0.0
2026-01-13 17:51:37.699728	345.1	35.8	-72.0	0.0
2026-01-13 17:51:39.971872	345.0	35.3	-69.3	0.0
2026-01-13 17:51:42.240957	345.0	34.8	-68.8	0.0
2026-01-13 17:51:44.504896	345.0	34.3	-70.9	0.0
2026-01-13 17:51:46.766942	344.9	33.8	-71.2	0.0
2026-01-13 17:51:49.029204	344.9	33.3	-71.7	0.0
2026-01-13 17:51:51.292810	344.9	32.8	-69.2	0.0
2026-01-13 17:51:53.557978	344.8	32.3	-71.2	0.0
2026-01-13 17:51:55.822466	344.8	31.9	-71.8	0.0
2026-01-13 17:51:58.084847	344.8	31.4	-71.1	0.0
2026-01-13 17:52:00.351790	344.7	31.0	-72.8	0.0
2026-01-13 17:52:02.613429	344.7	30.5	-72.3	0.0
2026-01-13 17:52:04.876809	344.7	30.1	-69.6	0.0
2026-01-13 17:52:07.140699	344.7	29.6	-70.1	0.0
2026-01-13 17:52:09.405906	344.6	29.2	-70.1	0.0
2026-01-13 17:52:11.669469	344.6	28.8	-71.5	0.0
2026-01-13 17:52:13.934140	344.6	28.4	-71.2	0.0
2026-01-13 17:52:16.191600	344.6	28.0	-71.3	0.0
2026-01-13 17:52:18.450832	344.6	27.6	-71.0	0.0
2026-01-13 17:52:20.708745	344.5	27.2	-70.9	0.0
2026-01-13 17:52:22.971229	344.5	26.8	-70.5	0.0
2026-01-13 17:52:25.238023	344.5	26.4	-71.1	0.0
2026-01-13 17:52:27.503329	344.5	26.0	-70.2	0.0
2026-01-13 17:52:29.771421	344.5	25.6	-71.2	0.0
2026-01-13 17:52:32.037240	344.5	25.3	-70.1	0.0
2026-01-13 17:52:34.303380	344.4	24.9	-70.4	0.0
2026-01-13 17:52:36.571321	344.4	24.5	-68.7	0.0
2026-01-13 17:52:38.837533	344.4	24.2	-70.7	0.0
2026-01-13 17:52:41.106591	344.4	23.8	-69.2	0.0
2026-01-13 17:52:43.374290	344.4	23.5	-70.0	0.0
2026-01-13 17:52:45.639657	344.4	23.2	-68.4	0.0
2026-01-13 17:52:47.902469	344.4	22.8	-65.5	0.0
2026-01-13 17:52:50.175607	344.3	22.5	-66.8	0.0
2026-01-13 17:52:52.448445	344.3	22.2	-69.7	0.0
2026-01-13 17:52:54.721239	344.3	21.8	-70.0	0.0
2026-01-13 17:52:56.998710	344.3	21.5	-71.3	0.0
2026-01-13 17:52:59.274082	344.3	21.2	-70.7	0.0
2026-01-13 17:53:01.551361	344.3	20.9	-69.9	0.0
2026-01-13 17:53:03.825980	344.3	20.6	-71.4	0.0
2026-01-13 17:53:06.098399	344.3	20.3	-68.9	0.0
2026-01-13 17:53:08.373805	344.3	20.0	-70.1	0.0
2026-01-13 17:53:10.648055	344.2	19.7	-70.1	0.0
2026-01-13 17:53:12.919277	344.2	19.4	-69.4	0.0
2026-01-13 17:53:15.196245	344.2	19.1	-70.1	0.0
2026-01-13 17:53:17.472682	344.2	18.8	-69.4	0.0
2026-01-13 17:53:19.745599	344.2	18.5	-71.9	0.0
2026-01-13 17:53:22.023687	344.2	18.2	-70.2	0.0
2026-01-13 17:53:24.297443	344.2	18.0	-71.4	0.0
2026-01-13 17:53:26.571827	344.2	17.7	-72.1	0.0
2026-01-13 17:53:28.843932	344.2	17.4	-72.4	0.0
2026-01-13 17:53:31.112994	344.2	17.2	-72.4	0.0
2026-01-13 17:53:33.374667	344.2	16.9	-73.7	0.0
2026-01-13 17:53:35.633210	344.2	16.6	-72.4	0.0
2026-01-13 17:53:37.889051	344.2	16.4	-71.9	0.0
2026-01-13 17:53:40.149054	344.2	16.1	-71.6	0.0
2026-01-13 17:53:42.405863	344.2	15.9	-71.4	0.0
2026-01-13 17:53:44.665726	344.2	15.6	-72.3	0.0
2026-01-13 17:53:46.921486	344.1	15.4	-72.5	0.0
2026-01-13 17:53:49.177418	344.1	15.1	-73.1	0.0
2026-01-13 17:53:51.435540	344.1	14.9	-73.5	0.0
2026-01-13 17:53:53.690833	344.1	14.7	-73.3	0.0
2026-01-13 17:53:55.961139	344.1	14.4	-71.5	0.0
2026-01-13 17:53:58.233138	344.1	14.2	-71.4	0.0
2026-01-13 17:54:00.502479	344.1	13.9	-71.2	0.0
2026-01-13 17:54:02.774279	344.1	13.7	-73.8	0.0
2026-01-13 17:54:05.042839	344.1	13.5	-72.3	0.0
2026-01-13 17:54:07.315334	344.1	13.3	-73.1	0.0
2026-01-13 17:54:09.586795	344.1	13.0	-73.3	0.0
2026-01-13 17:54:11.856498	344.1	12.8	-72.2	0.0
2026-01-13 17:54:14.113968	344.1	12.6	-73.0	0.0
2026-01-13 17:54:16.375010	344.1	12.4	-72.8	0.0
2026-01-13 17:54:18.636147	344.1	12.2	-73.4	0.0
2026-01-13 17:54:20.901593	344.1	11.9	-73.1	0.0
2026-01-13 17:54:23.163565	344.1	11.7	-72.4	0.0
2026-01-13 17:54:25.425462	344.1	11.5	-73.2	0.0
2026-01-13 17:54:27.689414	344.1	11.3	-72.3	0.0
2026-01-13 17:54:29.953278	344.1	11.1	-72.9	0.0
2026-01-13 17:54:32.223655	344.1	10.9	-73.8	0.0
2026-01-13 17:54:34.491991	344.1	10.7	-72.3	0.0
2026-01-13 17:54:36.761993	344.1	10.5	-70.9	0.0
2026-01-13 17:54:39.031304	344.1	10.3	-73.9	0.0
2026-01-13 17:54:41.306981	344.1	10.1	-79.1	0.0
#Closed at: 2026-01-13 17:43:54.456875