passes_logs/2026/01/13/planumMaritime01/planumMaritime01__20260113_082157_METOP-B_rec.log

#Pass ID: 20260113_082157_METOP-B
#Satellite: METOP-B
#Configuration: METOP-B
#Start time: 2026-01-13 08:22:02.619138

#LorettStation: 1.0.0 05.05.2024
#Station: planumMaritime01
#Location: 37.49445 lon 55.92918 lat
#TLE: 1 38771U 12049A   26012.90633838  .00000094  00000+0  63105-4 0  9994
#TLE: 2 38771  98.6755  67.3301 0003319  81.0772 279.0781 14.21421823691209

#Time	Az	El	Level	SNR
2026-01-13 08:22:04.786297	5.1	10.2	-65.7	0.0
2026-01-13 08:22:07.040205	4.9	10.3	-65.1	0.0
2026-01-13 08:22:09.296823	4.7	10.5	-64.6	0.0
2026-01-13 08:22:11.552922	4.5	10.7	-66.1	0.0
2026-01-13 08:22:13.805840	4.4	10.9	-65.8	0.0
2026-01-13 08:22:16.062681	4.2	11.1	-66.2	0.0
2026-01-13 08:22:18.317211	4.0	11.3	-65.2	0.0
2026-01-13 08:22:20.570775	3.8	11.4	-65.0	0.0
2026-01-13 08:22:22.826696	3.6	11.6	-64.7	0.0
2026-01-13 08:22:25.077617	3.4	11.8	-63.8	0.0
2026-01-13 08:22:27.331214	3.2	12.0	-65.6	0.0
2026-01-13 08:22:29.585528	3.0	12.2	-64.4	0.0
2026-01-13 08:22:31.837039	2.8	12.4	-65.2	0.0
2026-01-13 08:22:34.089810	2.6	12.6	-63.4	0.0
2026-01-13 08:22:36.344864	2.4	12.8	-63.7	0.0
2026-01-13 08:22:38.598136	2.2	13.0	-65.9	0.0
2026-01-13 08:22:40.850881	2.0	13.2	-66.8	0.0
2026-01-13 08:22:43.106869	1.8	13.4	-64.9	0.0
2026-01-13 08:22:45.358435	1.5	13.6	-67.4	0.0
2026-01-13 08:22:47.609284	1.3	13.8	-66.6	0.0
2026-01-13 08:22:49.861326	1.1	14.0	-65.7	0.0
2026-01-13 08:22:52.114918	0.9	14.2	-64.6	0.0
2026-01-13 08:22:54.369510	0.6	14.4	-66.1	0.0
2026-01-13 08:22:56.621478	0.4	14.6	-66.6	0.0
2026-01-13 08:22:58.876649	0.1	14.8	-65.5	0.0
2026-01-13 08:23:01.132805	359.9	15.0	-65.4	0.0
2026-01-13 08:23:03.388178	359.7	15.2	-65.9	0.0
2026-01-13 08:23:05.641284	359.4	15.4	-65.9	0.0
2026-01-13 08:23:07.893072	359.2	15.6	-67.2	0.0
2026-01-13 08:23:10.147344	358.9	15.8	-65.5	0.0
2026-01-13 08:23:12.401013	358.6	16.0	-64.8	0.0
2026-01-13 08:23:14.655625	358.4	16.2	-65.8	0.0
2026-01-13 08:23:16.907787	358.1	16.4	-64.6	0.0
2026-01-13 08:23:19.161209	357.8	16.7	-65.5	0.0
2026-01-13 08:23:21.416044	357.5	16.9	-65.0	0.0
2026-01-13 08:23:23.669486	357.3	17.1	-63.2	0.0
2026-01-13 08:23:25.923487	357.0	17.3	-64.3	0.0
2026-01-13 08:23:28.177794	356.7	17.5	-60.4	0.0
2026-01-13 08:23:30.432885	356.4	17.8	-65.4	0.0
2026-01-13 08:23:32.687324	356.1	18.0	-62.7	0.0
2026-01-13 08:23:34.939600	355.8	18.2	-65.0	0.0
2026-01-13 08:23:37.195591	355.5	18.4	-64.1	0.0
2026-01-13 08:23:39.447535	355.2	18.7	-65.4	0.0
2026-01-13 08:23:41.701109	354.9	18.9	-65.2	0.0
2026-01-13 08:23:43.956949	354.5	19.1	-64.4	0.0
2026-01-13 08:23:46.210933	354.2	19.4	-65.3	0.0
2026-01-13 08:23:48.465576	353.9	19.6	-65.7	0.0
2026-01-13 08:23:50.719648	353.5	19.8	-67.0	0.0
2026-01-13 08:23:52.972369	353.2	20.1	-67.5	0.0
2026-01-13 08:23:55.227550	352.8	20.3	-65.9	0.0
2026-01-13 08:23:57.479014	352.5	20.5	-66.7	0.0
2026-01-13 08:23:59.731868	352.1	20.8	-65.1	0.0
2026-01-13 08:24:01.984646	351.8	21.0	-66.6	0.0
2026-01-13 08:24:04.238773	351.4	21.2	-66.8	0.0
2026-01-13 08:24:06.490802	351.0	21.5	-64.9	0.0
2026-01-13 08:24:08.743033	350.6	21.7	-64.4	0.0
2026-01-13 08:24:10.995709	350.2	22.0	-65.5	0.0
2026-01-13 08:24:13.249614	349.8	22.2	-62.5	0.0
2026-01-13 08:24:15.502380	349.4	22.4	-66.1	0.0
2026-01-13 08:24:17.755228	349.0	22.7	-62.5	0.0
2026-01-13 08:24:20.011543	348.6	22.9	-65.7	0.0
2026-01-13 08:24:22.263754	348.2	23.2	-66.4	0.0
2026-01-13 08:24:24.517558	347.8	23.4	-66.7	0.0
2026-01-13 08:24:26.772660	347.3	23.7	-68.7	0.0
2026-01-13 08:24:29.027119	346.9	23.9	-69.5	0.0
2026-01-13 08:24:31.279181	346.4	24.2	-68.3	0.0
2026-01-13 08:24:33.531139	346.0	24.4	-67.0	0.0
2026-01-13 08:24:35.785756	345.5	24.7	-66.6	0.0
2026-01-13 08:24:38.039037	345.0	24.9	-67.4	0.0
2026-01-13 08:24:40.292913	344.6	25.2	-66.3	0.0
2026-01-13 08:24:42.546168	344.1	25.4	-65.3	0.0
2026-01-13 08:24:44.799985	343.6	25.7	-65.4	0.0
2026-01-13 08:24:47.051539	343.1	25.9	-66.6	0.0
2026-01-13 08:24:49.303965	342.6	26.2	-66.0	0.0
2026-01-13 08:24:51.556402	342.0	26.4	-65.7	0.0
2026-01-13 08:24:53.810578	341.5	26.7	-65.9	0.0
2026-01-13 08:24:56.063896	341.0	26.9	-67.0	0.0
2026-01-13 08:24:58.317805	340.4	27.2	-66.9	0.0
2026-01-13 08:25:00.570781	339.9	27.4	-66.2	0.0
2026-01-13 08:25:02.823478	339.3	27.7	-60.1	0.0
2026-01-13 08:25:05.077303	338.7	27.9	-65.4	0.0
2026-01-13 08:25:07.334093	338.1	28.2	-59.5	0.0
2026-01-13 08:25:09.590191	337.6	28.4	-68.5	0.0
2026-01-13 08:25:11.844791	337.0	28.6	-63.7	0.0
2026-01-13 08:25:14.099600	336.3	28.9	-68.4	0.0
2026-01-13 08:25:16.352499	335.7	29.1	-67.7	0.0
2026-01-13 08:25:18.607366	335.1	29.4	-70.1	0.0
2026-01-13 08:25:20.865452	334.5	29.6	-69.5	0.0
2026-01-13 08:25:23.121552	333.8	29.8	-68.9	0.0
2026-01-13 08:25:25.379351	333.2	30.1	-70.9	0.0
2026-01-13 08:25:27.631389	332.5	30.3	-70.3	0.0
2026-01-13 08:25:29.884644	331.8	30.5	-70.0	0.0
2026-01-13 08:25:32.139569	331.1	30.7	-68.6	0.0
2026-01-13 08:25:34.390434	330.4	31.0	-67.6	0.0
2026-01-13 08:25:36.645599	329.7	31.2	-67.8	0.0
2026-01-13 08:25:38.896950	329.0	31.4	-71.6	4.9
2026-01-13 08:25:41.151139	328.3	31.6	-70.3	3.6
2026-01-13 08:25:43.403191	327.6	31.8	-71.3	3.8
2026-01-13 08:25:45.654489	326.8	32.0	-68.9	2.2
2026-01-13 08:25:47.909106	326.1	32.2	-69.0	0.0
2026-01-13 08:25:50.160383	325.3	32.4	-68.3	2.4
2026-01-13 08:25:52.415025	324.5	32.6	-69.9	2.1
2026-01-13 08:25:54.667631	323.8	32.8	-69.8	1.0
2026-01-13 08:25:56.920997	323.0	33.0	-70.0	2.7
2026-01-13 08:25:59.171358	322.2	33.1	-70.7	3.7
2026-01-13 08:26:01.422641	321.4	33.3	-71.4	4.6
2026-01-13 08:26:03.672651	320.6	33.5	-69.8	2.6
2026-01-13 08:26:05.924882	319.7	33.6	-73.2	5.9
2026-01-13 08:26:08.177210	318.9	33.8	-72.5	4.9
2026-01-13 08:26:10.428751	318.1	33.9	-71.7	3.6
2026-01-13 08:26:12.681152	317.2	34.1	-70.4	3.8
2026-01-13 08:26:14.935172	316.4	34.2	-72.5	6.4
2026-01-13 08:26:17.190261	315.5	34.3	-73.9	6.7
2026-01-13 08:26:19.444448	314.7	34.4	-73.9	7.9
2026-01-13 08:26:21.694397	313.8	34.6	-72.9	5.6
2026-01-13 08:26:23.949384	312.9	34.7	-72.3	5.4
2026-01-13 08:26:26.201512	312.0	34.8	-72.4	5.9
2026-01-13 08:26:28.451843	311.1	34.8	-71.2	6.2
2026-01-13 08:26:30.703651	310.2	34.9	-72.3	7.4
2026-01-13 08:26:32.956088	309.3	35.0	-70.8	1.2
2026-01-13 08:26:35.208286	308.4	35.1	-71.3	2.9
2026-01-13 08:26:37.457247	307.5	35.1	-71.4	6.3
2026-01-13 08:26:39.709365	306.6	35.2	-72.0	4.6
2026-01-13 08:26:41.958703	305.7	35.2	-72.9	6.5
2026-01-13 08:26:44.211455	304.8	35.3	-70.6	2.9
2026-01-13 08:26:46.464263	303.9	35.3	-71.5	2.2
2026-01-13 08:26:48.717016	303.0	35.3	-70.3	0.3
2026-01-13 08:26:50.967536	302.1	35.3	-71.2	5.4
2026-01-13 08:26:53.220477	301.1	35.3	-72.7	3.6
2026-01-13 08:26:55.474694	300.2	35.3	-69.9	2.2
2026-01-13 08:26:57.728328	299.3	35.3	-67.8	0.0
2026-01-13 08:26:59.981862	298.4	35.3	-68.7	0.0
2026-01-13 08:27:02.234844	297.5	35.2	-70.1	0.0
2026-01-13 08:27:04.487839	296.6	35.2	-70.7	4.3
2026-01-13 08:27:06.740267	295.7	35.2	-72.4	1.6
2026-01-13 08:27:08.996189	294.8	35.1	-68.8	1.5
2026-01-13 08:27:11.250523	293.8	35.0	-71.9	4.3
2026-01-13 08:27:13.505590	292.9	35.0	-71.9	7.3
2026-01-13 08:27:15.756519	292.1	34.9	-70.8	5.3
2026-01-13 08:27:18.009204	291.2	34.8	-69.3	0.0
2026-01-13 08:27:20.260071	290.3	34.7	-70.4	4.2
2026-01-13 08:27:22.509928	289.4	34.6	-70.9	4.4
2026-01-13 08:27:24.761860	288.5	34.5	-71.7	7.2
2026-01-13 08:27:27.016623	287.6	34.4	-70.7	4.4
2026-01-13 08:27:29.267549	286.8	34.3	-69.7	3.2
2026-01-13 08:27:31.520205	285.9	34.1	-71.9	7.9
2026-01-13 08:27:33.773898	285.1	34.0	-70.3	3.8
2026-01-13 08:27:36.026190	284.2	33.8	-71.7	7.3
2026-01-13 08:27:38.278585	283.4	33.7	-72.8	8.4
2026-01-13 08:27:40.533425	282.6	33.5	-71.8	5.0
2026-01-13 08:27:42.783459	281.8	33.4	-71.5	4.3
2026-01-13 08:27:45.035734	281.0	33.2	-73.1	8.4
2026-01-13 08:27:47.287495	280.1	33.0	-72.4	7.0
2026-01-13 08:27:49.539371	279.4	32.9	-72.5	5.6
2026-01-13 08:27:51.794476	278.6	32.7	-72.2	6.3
2026-01-13 08:27:54.044270	277.8	32.5	-72.8	8.6
2026-01-13 08:27:56.293585	277.0	32.3	-71.2	5.0
2026-01-13 08:27:58.543172	276.3	32.1	-72.1	3.9
2026-01-13 08:28:00.792641	275.5	31.9	-72.8	7.7
2026-01-13 08:28:03.046473	274.8	31.7	-72.8	7.9
2026-01-13 08:28:05.298227	274.1	31.5	-73.7	8.2
2026-01-13 08:28:07.550030	273.3	31.3	-73.8	6.2
2026-01-13 08:28:09.800970	272.6	31.0	-74.0	7.0
2026-01-13 08:28:12.053568	271.9	30.8	-73.9	8.1
2026-01-13 08:28:14.307657	271.2	30.6	-74.1	7.4
2026-01-13 08:28:16.558439	270.6	30.4	-74.0	7.2
2026-01-13 08:28:18.811108	269.9	30.2	-74.4	6.6
2026-01-13 08:28:21.061692	269.2	29.9	-73.6	8.4
2026-01-13 08:28:23.314981	268.6	29.7	-73.8	8.3
2026-01-13 08:28:25.566507	267.9	29.5	-73.2	7.5
2026-01-13 08:28:27.815541	267.3	29.2	-73.5	7.5
2026-01-13 08:28:30.066585	266.7	29.0	-73.4	8.5
2026-01-13 08:28:32.320055	266.1	28.7	-73.6	7.5
2026-01-13 08:28:34.572810	265.5	28.5	-73.6	8.1
2026-01-13 08:28:36.829155	264.9	28.3	-74.4	8.9
2026-01-13 08:28:39.079821	264.3	28.0	-74.2	7.3
2026-01-13 08:28:41.332050	263.7	27.8	-74.1	7.6
2026-01-13 08:28:43.584124	263.1	27.5	-74.1	7.9
2026-01-13 08:28:45.838378	262.6	27.3	-73.7	6.7
2026-01-13 08:28:48.088568	262.0	27.0	-73.6	7.3
2026-01-13 08:28:50.343460	261.5	26.8	-73.7	7.7
2026-01-13 08:28:52.597385	260.9	26.5	-73.4	7.8
2026-01-13 08:28:54.848236	260.4	26.3	-74.2	7.9
2026-01-13 08:28:57.105806	259.9	26.0	-73.5	6.7
2026-01-13 08:28:59.358430	259.4	25.8	-74.1	7.9
2026-01-13 08:29:01.613620	258.9	25.5	-74.2	7.8
2026-01-13 08:29:03.864840	258.4	25.3	-74.1	7.0
2026-01-13 08:29:06.119007	257.9	25.0	-74.7	7.4
2026-01-13 08:29:08.375297	257.4	24.8	-74.0	7.2
2026-01-13 08:29:10.627642	256.9	24.5	-74.1	6.9
2026-01-13 08:29:12.879152	256.5	24.3	-74.6	7.5
2026-01-13 08:29:15.132977	256.0	24.0	-74.3	6.4
2026-01-13 08:29:17.385094	255.6	23.8	-74.8	7.2
2026-01-13 08:29:19.640403	255.1	23.5	-74.0	7.2
2026-01-13 08:29:21.890299	254.7	23.3	-74.3	7.8
2026-01-13 08:29:24.142476	254.3	23.0	-74.4	7.1
2026-01-13 08:29:26.393394	253.8	22.8	-74.6	8.0
2026-01-13 08:29:28.644824	253.4	22.5	-74.8	7.5
2026-01-13 08:29:30.896321	253.0	22.3	-74.4	7.2
2026-01-13 08:29:33.150124	252.6	22.0	-74.8	8.4
2026-01-13 08:29:35.399889	252.2	21.8	-74.9	7.8
2026-01-13 08:29:37.656404	251.8	21.5	-74.8	7.9
2026-01-13 08:29:39.906654	251.5	21.3	-75.1	7.0
2026-01-13 08:29:42.159969	251.1	21.1	-74.5	4.8
2026-01-13 08:29:44.410210	250.7	20.8	-75.1	7.9
2026-01-13 08:29:46.666555	250.3	20.6	-74.9	6.6
2026-01-13 08:29:48.920861	250.0	20.4	-75.2	7.1
2026-01-13 08:29:51.173213	249.6	20.1	-74.4	5.3
2026-01-13 08:29:53.426028	249.3	19.9	-75.0	7.0
2026-01-13 08:29:55.677507	248.9	19.6	-74.6	6.3
2026-01-13 08:29:57.930586	248.6	19.4	-74.9	6.3
2026-01-13 08:30:00.182485	248.3	19.2	-74.3	4.8
2026-01-13 08:30:02.435148	247.9	18.9	-74.9	5.8
2026-01-13 08:30:04.691298	247.6	18.7	-75.2	7.3
2026-01-13 08:30:06.941255	247.3	18.5	-75.1	5.7
2026-01-13 08:30:09.195002	247.0	18.3	-75.4	6.3
2026-01-13 08:30:11.447429	246.7	18.0	-75.5	6.0
2026-01-13 08:30:13.700546	246.4	17.8	-74.6	4.7
2026-01-13 08:30:15.950315	246.1	17.6	-75.3	6.0
2026-01-13 08:30:18.203140	245.8	17.4	-74.7	5.3
2026-01-13 08:30:20.455331	245.5	17.1	-74.8	5.5
2026-01-13 08:30:22.709542	245.2	16.9	-75.3	5.4
2026-01-13 08:30:24.963415	244.9	16.7	-75.3	5.7
2026-01-13 08:30:27.213347	244.7	16.5	-75.3	5.3
2026-01-13 08:30:29.467909	244.4	16.3	-75.5	5.6
2026-01-13 08:30:31.718956	244.1	16.1	-75.3	4.9
2026-01-13 08:30:33.973716	243.8	15.8	-75.5	4.2
2026-01-13 08:30:36.223529	243.6	15.6	-75.6	4.5
2026-01-13 08:30:38.475265	243.3	15.4	-75.4	3.4
2026-01-13 08:30:40.727808	243.1	15.2	-75.3	4.1
2026-01-13 08:30:42.979505	242.8	15.0	-75.0	4.2
2026-01-13 08:30:45.233959	242.6	14.8	-75.4	5.0
2026-01-13 08:30:47.488558	242.3	14.6	-75.0	4.4
2026-01-13 08:30:49.741414	242.1	14.4	-75.0	2.0
2026-01-13 08:30:51.992067	241.9	14.2	-75.0	3.0
2026-01-13 08:30:54.243798	241.6	14.0	-75.2	3.8
2026-01-13 08:30:56.495291	241.4	13.8	-74.5	4.1
2026-01-13 08:30:58.747388	241.2	13.6	-75.2	2.4
2026-01-13 08:31:00.999266	240.9	13.4	-74.8	1.7
2026-01-13 08:31:03.250989	240.7	13.2	-75.0	3.0
2026-01-13 08:31:05.501001	240.5	13.0	-74.5	1.2
2026-01-13 08:31:07.753453	240.3	12.8	-75.0	3.7
2026-01-13 08:31:10.004269	240.1	12.6	-74.6	4.1
2026-01-13 08:31:12.257703	239.9	12.4	-74.9	2.5
2026-01-13 08:31:14.510465	239.7	12.2	-74.5	3.2
2026-01-13 08:31:16.762396	239.5	12.0	-74.8	2.9
2026-01-13 08:31:19.017871	239.3	11.8	-74.5	2.6
2026-01-13 08:31:21.271560	239.1	11.6	-74.5	1.5
2026-01-13 08:31:23.522356	238.9	11.5	-74.5	2.0
2026-01-13 08:31:25.774743	238.7	11.3	-75.0	4.1
2026-01-13 08:31:28.026624	238.5	11.1	-74.5	2.0
2026-01-13 08:31:30.281497	238.3	10.9	-74.7	3.3
2026-01-13 08:31:32.534730	238.1	10.7	-76.2	2.8
2026-01-13 08:31:34.793679	237.9	10.5	-77.4	0.0
2026-01-13 08:31:37.047675	237.7	10.4	-79.0	0.0
2026-01-13 08:31:39.299721	237.6	10.2	-78.7	0.0
#Closed at: 2026-01-13 08:21:57.621713