passes_logs/2026/01/13/planumMaritime01/planumMaritime01__20260113_192559_METEOR-M2_3_rec.log

#Pass ID: 20260113_192559_METEOR-M2 3
#Satellite: METEOR-M2 3
#Configuration: METEOR-M2 3
#Start time: 2026-01-13 19:26:04.847624

#LorettStation: 1.0.0 05.05.2024
#Station: planumMaritime01
#Location: 37.49445 lon 55.92918 lat
#TLE: 1 57166U 23091A   26012.95860029 -.00000007  00000+0  15979-4 0  9992
#TLE: 2 57166  98.6333  70.9458 0002901 257.2519 102.8335 14.24030333132422

#Time	Az	El	Level	SNR
2026-01-13 19:26:07.025483	225.7	10.1	-81.5	0.0
2026-01-13 19:26:08.156513	225.8	10.2	-82.0	0.0
2026-01-13 19:26:09.293211	226.0	10.3	-82.2	0.0
2026-01-13 19:26:10.428229	226.1	10.3	-81.7	0.0
2026-01-13 19:26:11.564338	226.3	10.4	-82.2	0.0
2026-01-13 19:26:12.700044	226.4	10.5	-82.1	0.0
2026-01-13 19:26:13.832323	226.6	10.5	-81.9	0.0
2026-01-13 19:26:14.969583	226.7	10.6	-80.8	0.0
2026-01-13 19:26:16.106761	226.9	10.7	-80.5	0.0
2026-01-13 19:26:17.244240	227.0	10.8	-79.2	3.4
2026-01-13 19:26:18.378213	227.2	10.8	-78.5	3.4
2026-01-13 19:26:19.515774	227.4	10.9	-77.6	4.8
2026-01-13 19:26:20.650088	227.5	11.0	-77.6	4.6
2026-01-13 19:26:21.787051	227.7	11.0	-77.9	5.1
2026-01-13 19:26:22.922585	227.8	11.1	-77.2	5.7
2026-01-13 19:26:24.059862	228.0	11.2	-77.4	4.1
2026-01-13 19:26:25.198456	228.2	11.2	-77.1	4.6
2026-01-13 19:26:26.334032	228.3	11.3	-77.0	6.9
2026-01-13 19:26:27.473297	228.5	11.4	-77.5	3.5
2026-01-13 19:26:28.613355	228.7	11.5	-77.5	6.6
2026-01-13 19:26:29.750961	228.8	11.5	-77.3	4.2
2026-01-13 19:26:30.885377	229.0	11.6	-77.6	5.2
2026-01-13 19:26:32.021003	229.1	11.7	-77.2	6.6
2026-01-13 19:26:33.156844	229.3	11.7	-77.3	6.1
2026-01-13 19:26:34.295059	229.5	11.8	-77.3	6.1
2026-01-13 19:26:35.429563	229.7	11.9	-77.5	5.7
2026-01-13 19:26:36.566470	229.8	11.9	-77.3	7.1
2026-01-13 19:26:37.703784	230.0	12.0	-77.4	4.2
2026-01-13 19:26:38.842786	230.2	12.1	-77.8	4.6
2026-01-13 19:26:39.979533	230.3	12.1	-77.3	6.1
2026-01-13 19:26:41.116091	230.5	12.2	-78.1	4.5
2026-01-13 19:26:42.253623	230.7	12.3	-77.9	2.4
2026-01-13 19:26:43.389289	230.9	12.4	-77.8	6.9
2026-01-13 19:26:44.525885	231.0	12.4	-77.9	6.8
2026-01-13 19:26:45.664179	231.2	12.5	-78.1	7.4
2026-01-13 19:26:46.800974	231.4	12.6	-78.0	6.5
2026-01-13 19:26:47.938594	231.6	12.6	-77.8	3.4
2026-01-13 19:26:49.075721	231.7	12.7	-78.0	3.2
2026-01-13 19:26:50.211942	231.9	12.8	-77.7	7.0
2026-01-13 19:26:51.347881	232.1	12.8	-78.2	6.2
2026-01-13 19:26:52.486242	232.3	12.9	-77.5	6.2
2026-01-13 19:26:53.620836	232.5	13.0	-77.5	6.9
2026-01-13 19:26:54.762357	232.6	13.0	-77.7	3.2
2026-01-13 19:26:55.898524	232.8	13.1	-77.6	4.1
2026-01-13 19:26:57.034887	233.0	13.2	-78.2	4.6
2026-01-13 19:26:58.171335	233.2	13.3	-78.2	6.5
2026-01-13 19:26:59.305232	233.4	13.3	-78.2	4.7
2026-01-13 19:27:00.439507	233.6	13.4	-77.6	6.6
2026-01-13 19:27:01.576414	233.8	13.5	-77.6	5.4
2026-01-13 19:27:02.709187	233.9	13.5	-77.9	4.4
2026-01-13 19:27:03.847617	234.1	13.6	-77.6	6.0
2026-01-13 19:27:04.985099	234.3	13.7	-77.4	5.5
2026-01-13 19:27:06.124003	234.5	13.7	-78.4	6.6
2026-01-13 19:27:07.256275	234.7	13.8	-77.8	7.3
2026-01-13 19:27:08.393043	234.9	13.9	-78.0	7.3
2026-01-13 19:27:09.531550	235.1	13.9	-78.0	7.9
2026-01-13 19:27:10.669193	235.3	14.0	-77.9	6.8
2026-01-13 19:27:11.802482	235.5	14.1	-78.0	7.3
2026-01-13 19:27:12.940940	235.7	14.1	-78.0	4.4
2026-01-13 19:27:14.077218	235.9	14.2	-78.2	7.7
2026-01-13 19:27:15.211503	236.1	14.3	-78.0	7.3
2026-01-13 19:27:16.345714	236.3	14.3	-78.3	8.1
2026-01-13 19:27:17.473643	236.5	14.4	-78.4	6.7
2026-01-13 19:27:18.602593	236.7	14.5	-77.9	8.6
2026-01-13 19:27:19.732009	236.9	14.5	-78.2	7.7
2026-01-13 19:27:20.860557	237.1	14.6	-78.2	7.9
2026-01-13 19:27:21.989311	237.3	14.7	-78.2	8.5
2026-01-13 19:27:23.121071	237.5	14.7	-78.4	8.6
2026-01-13 19:27:24.250513	237.7	14.8	-77.8	6.7
2026-01-13 19:27:25.378807	237.9	14.9	-77.5	7.2
2026-01-13 19:27:26.510714	238.1	14.9	-78.1	8.4
2026-01-13 19:27:27.639392	238.3	15.0	-77.8	8.0
2026-01-13 19:27:28.768857	238.5	15.1	-78.1	9.6
2026-01-13 19:27:29.901352	238.7	15.1	-77.7	7.6
2026-01-13 19:27:31.031551	238.9	15.2	-77.9	8.8
2026-01-13 19:27:32.159846	239.1	15.3	-77.8	6.2
2026-01-13 19:27:33.288281	239.3	15.3	-78.0	8.9
2026-01-13 19:27:34.417482	239.5	15.4	-78.2	8.9
2026-01-13 19:27:35.546744	239.8	15.4	-78.4	9.1
2026-01-13 19:27:36.675789	240.0	15.5	-78.5	9.9
2026-01-13 19:27:37.805646	240.2	15.6	-78.8	10.8
2026-01-13 19:27:38.936852	240.4	15.6	-78.7	11.4
2026-01-13 19:27:40.072454	240.6	15.7	-78.8	11.0
2026-01-13 19:27:41.210508	240.8	15.8	-78.9	10.9
2026-01-13 19:27:42.348727	241.0	15.8	-78.5	10.3
2026-01-13 19:27:43.486388	241.3	15.9	-78.7	7.9
2026-01-13 19:27:44.620964	241.5	15.9	-78.6	10.8
2026-01-13 19:27:45.758136	241.7	16.0	-78.9	9.8
2026-01-13 19:27:46.894897	241.9	16.1	-78.8	11.0
2026-01-13 19:27:48.029629	242.2	16.1	-79.0	11.4
2026-01-13 19:27:49.165488	242.4	16.2	-78.6	11.1
2026-01-13 19:27:50.303202	242.6	16.3	-78.8	11.1
2026-01-13 19:27:51.441556	242.8	16.3	-78.6	11.6
2026-01-13 19:27:52.577739	243.1	16.4	-78.3	10.6
2026-01-13 19:27:53.718324	243.3	16.4	-78.8	11.6
2026-01-13 19:27:54.854381	243.5	16.5	-78.3	10.4
2026-01-13 19:27:55.990703	243.7	16.6	-78.8	11.6
2026-01-13 19:27:57.129172	244.0	16.6	-78.7	10.6
2026-01-13 19:27:58.263038	244.2	16.7	-78.8	11.3
2026-01-13 19:27:59.396950	244.4	16.7	-78.9	11.9
2026-01-13 19:28:00.535480	244.7	16.8	-78.5	11.1
2026-01-13 19:28:01.670681	244.9	16.9	-78.5	11.5
2026-01-13 19:28:02.803023	245.1	16.9	-78.4	10.2
2026-01-13 19:28:03.939924	245.4	17.0	-77.6	8.6
2026-01-13 19:28:05.075702	245.6	17.0	-78.2	9.4
2026-01-13 19:28:06.210987	245.8	17.1	-78.1	12.3
2026-01-13 19:28:07.345391	246.1	17.1	-78.5	11.0
2026-01-13 19:28:08.479772	246.3	17.2	-78.0	10.3
2026-01-13 19:28:09.615268	246.6	17.2	-78.3	11.5
2026-01-13 19:28:10.751254	246.8	17.3	-78.4	11.5
2026-01-13 19:28:11.884862	247.0	17.4	-78.0	12.0
2026-01-13 19:28:13.016709	247.3	17.4	-78.4	10.9
2026-01-13 19:28:14.153455	247.5	17.5	-78.5	10.5
2026-01-13 19:28:15.288442	247.8	17.5	-78.7	11.2
2026-01-13 19:28:16.422605	248.0	17.6	-78.3	11.3
2026-01-13 19:28:17.555981	248.3	17.6	-78.3	10.8
2026-01-13 19:28:18.696776	248.5	17.7	-78.3	11.2
2026-01-13 19:28:19.834718	248.8	17.7	-78.3	10.1
2026-01-13 19:28:20.970390	249.0	17.8	-78.1	10.4
2026-01-13 19:28:22.108749	249.3	17.8	-78.4	11.2
2026-01-13 19:28:23.246333	249.5	17.9	-78.5	11.1
2026-01-13 19:28:24.382882	249.8	17.9	-78.2	11.3
2026-01-13 19:28:25.517831	250.0	18.0	-78.7	10.9
2026-01-13 19:28:26.654123	250.3	18.0	-78.4	9.8
2026-01-13 19:28:27.791198	250.5	18.1	-78.1	10.3
2026-01-13 19:28:28.927855	250.8	18.1	-77.6	9.5
2026-01-13 19:28:30.063383	251.0	18.2	-78.0	10.7
2026-01-13 19:28:31.200499	251.3	18.2	-77.9	11.1
2026-01-13 19:28:32.338529	251.5	18.3	-77.9	10.0
2026-01-13 19:28:33.474455	251.8	18.3	-78.0	11.3
2026-01-13 19:28:34.609997	252.1	18.4	-77.7	9.2
2026-01-13 19:28:35.748403	252.3	18.4	-78.3	11.1
2026-01-13 19:28:36.887190	252.6	18.5	-77.9	9.2
2026-01-13 19:28:38.025135	252.8	18.5	-77.9	9.9
2026-01-13 19:28:39.159239	253.1	18.6	-77.9	11.0
2026-01-13 19:28:40.298799	253.4	18.6	-77.7	8.7
2026-01-13 19:28:41.435243	253.6	18.7	-77.9	10.6
2026-01-13 19:28:42.571510	253.9	18.7	-77.7	9.6
2026-01-13 19:28:43.709985	254.2	18.7	-77.6	9.5
2026-01-13 19:28:44.846019	254.4	18.8	-77.8	9.8
2026-01-13 19:28:45.982453	254.7	18.8	-77.9	9.5
2026-01-13 19:28:47.117401	254.9	18.9	-78.2	11.3
2026-01-13 19:28:48.256684	255.2	18.9	-78.3	10.2
2026-01-13 19:28:49.392694	255.5	18.9	-77.8	10.4
2026-01-13 19:28:50.529732	255.8	19.0	-77.6	10.3
2026-01-13 19:28:51.664179	256.0	19.0	-78.3	11.2
2026-01-13 19:28:52.802339	256.3	19.1	-77.9	10.7
2026-01-13 19:28:53.939901	256.6	19.1	-77.6	9.9
2026-01-13 19:28:55.074591	256.8	19.1	-77.8	10.8
2026-01-13 19:28:56.206304	257.1	19.2	-77.6	11.3
2026-01-13 19:28:57.340107	257.4	19.2	-77.7	11.4
2026-01-13 19:28:58.472447	257.6	19.2	-78.2	11.3
2026-01-13 19:28:59.604965	257.9	19.3	-78.0	11.4
2026-01-13 19:29:00.735677	258.2	19.3	-78.0	11.2
2026-01-13 19:29:01.870619	258.5	19.3	-77.4	10.5
2026-01-13 19:29:03.003024	258.7	19.4	-77.4	10.8
2026-01-13 19:29:04.132544	259.0	19.4	-77.7	10.2
2026-01-13 19:29:05.266161	259.3	19.4	-77.6	11.3
2026-01-13 19:29:06.400660	259.6	19.5	-77.7	10.4
2026-01-13 19:29:07.535064	259.8	19.5	-77.4	10.1
2026-01-13 19:29:08.666662	260.1	19.5	-77.6	9.6
2026-01-13 19:29:09.799497	260.4	19.6	-77.8	10.7
2026-01-13 19:29:10.932271	260.7	19.6	-77.6	7.8
2026-01-13 19:29:12.065853	261.0	19.6	-77.7	10.5
2026-01-13 19:29:13.199430	261.2	19.7	-78.0	10.9
2026-01-13 19:29:14.332912	261.5	19.7	-77.4	9.9
2026-01-13 19:29:15.463760	261.8	19.7	-77.0	8.7
2026-01-13 19:29:16.595124	262.1	19.7	-77.5	10.7
2026-01-13 19:29:17.727687	262.4	19.8	-77.7	10.2
2026-01-13 19:29:18.859730	262.6	19.8	-77.6	10.6
2026-01-13 19:29:19.993642	262.9	19.8	-76.9	7.9
2026-01-13 19:29:21.127044	263.2	19.8	-77.7	10.5
2026-01-13 19:29:22.260423	263.5	19.9	-77.4	9.8
2026-01-13 19:29:23.393273	263.8	19.9	-77.7	10.8
2026-01-13 19:29:24.524948	264.1	19.9	-77.9	9.7
2026-01-13 19:29:25.657191	264.3	19.9	-77.7	10.2
2026-01-13 19:29:26.790923	264.6	19.9	-77.0	6.6
2026-01-13 19:29:27.922542	264.9	20.0	-77.3	10.0
2026-01-13 19:29:29.057833	265.2	20.0	-77.0	8.8
2026-01-13 19:29:30.191073	265.5	20.0	-77.4	10.7
2026-01-13 19:29:31.322232	265.8	20.0	-77.8	9.8
2026-01-13 19:29:32.455469	266.1	20.0	-77.5	10.1
2026-01-13 19:29:33.587766	266.3	20.0	-77.5	8.8
2026-01-13 19:29:34.719283	266.6	20.1	-76.8	9.7
2026-01-13 19:29:35.852504	266.9	20.1	-77.8	9.5
2026-01-13 19:29:36.983652	267.2	20.1	-77.6	10.4
2026-01-13 19:29:38.111784	267.5	20.1	-77.5	9.3
2026-01-13 19:29:39.237588	267.8	20.1	-76.5	10.1
2026-01-13 19:29:40.363106	268.1	20.1	-77.2	9.6
2026-01-13 19:29:41.491790	268.3	20.1	-77.4	10.4
2026-01-13 19:29:42.623865	268.6	20.1	-77.2	9.7
2026-01-13 19:29:43.757414	268.9	20.1	-77.2	9.3
2026-01-13 19:29:44.889274	269.2	20.2	-77.1	8.5
2026-01-13 19:29:46.021480	269.5	20.2	-77.1	10.0
2026-01-13 19:29:47.153325	269.8	20.2	-76.7	8.5
2026-01-13 19:29:48.281043	270.1	20.2	-77.0	9.6
2026-01-13 19:29:49.410530	270.4	20.2	-76.5	7.6
2026-01-13 19:29:50.540203	270.6	20.2	-76.7	9.0
2026-01-13 19:29:51.669375	270.9	20.2	-77.0	9.2
2026-01-13 19:29:52.798025	271.2	20.2	-76.8	7.9
2026-01-13 19:29:53.927574	271.5	20.2	-76.5	9.9
2026-01-13 19:29:55.058103	271.8	20.2	-76.0	6.7
2026-01-13 19:29:56.187962	272.1	20.2	-76.0	8.0
2026-01-13 19:29:57.314243	272.4	20.2	-76.6	8.3
2026-01-13 19:29:58.444436	272.7	20.2	-76.4	8.5
2026-01-13 19:29:59.575770	273.0	20.2	-76.7	4.3
2026-01-13 19:30:00.705557	273.2	20.2	-76.3	3.1
2026-01-13 19:30:01.835763	273.5	20.2	-76.1	8.6
2026-01-13 19:30:02.967996	273.8	20.2	-75.4	5.5
2026-01-13 19:30:04.103131	274.1	20.2	-75.5	6.9
2026-01-13 19:30:05.237386	274.4	20.2	-76.0	6.6
2026-01-13 19:30:06.368728	274.7	20.2	-76.2	9.1
2026-01-13 19:30:07.502963	275.0	20.2	-76.3	6.3
2026-01-13 19:30:08.636486	275.3	20.2	-75.0	7.3
2026-01-13 19:30:09.771214	275.6	20.2	-76.2	5.7
2026-01-13 19:30:10.907198	275.8	20.2	-76.4	7.0
2026-01-13 19:30:12.041220	276.1	20.1	-76.2	6.4
2026-01-13 19:30:13.176852	276.4	20.1	-76.5	7.5
2026-01-13 19:30:14.308848	276.7	20.1	-76.0	8.6
2026-01-13 19:30:15.441954	277.0	20.1	-75.7	4.3
2026-01-13 19:30:16.575849	277.3	20.1	-75.9	6.1
2026-01-13 19:30:17.708822	277.6	20.1	-76.4	7.7
2026-01-13 19:30:18.846340	277.9	20.1	-75.8	6.6
2026-01-13 19:30:19.982635	278.1	20.1	-75.5	7.0
2026-01-13 19:30:21.116001	278.4	20.0	-75.9	6.7
2026-01-13 19:30:22.247676	278.7	20.0	-76.5	7.7
2026-01-13 19:30:23.383589	279.0	20.0	-75.3	5.6
2026-01-13 19:30:24.513653	279.3	20.0	-75.7	6.5
2026-01-13 19:30:25.644653	279.6	20.0	-75.6	5.1
2026-01-13 19:30:26.777714	279.9	20.0	-75.8	6.3
2026-01-13 19:30:27.908687	280.1	19.9	-74.9	2.5
2026-01-13 19:30:29.038883	280.4	19.9	-75.5	5.8
2026-01-13 19:30:30.168702	280.7	19.9	-74.6	3.8
2026-01-13 19:30:31.298419	281.0	19.9	-74.8	5.2
2026-01-13 19:30:32.426474	281.3	19.9	-75.3	3.8
2026-01-13 19:30:33.556297	281.6	19.8	-74.2	5.1
2026-01-13 19:30:34.687453	281.8	19.8	-75.4	0.0
2026-01-13 19:30:35.816461	282.1	19.8	-75.1	6.6
2026-01-13 19:30:36.946064	282.4	19.8	-75.1	7.5
2026-01-13 19:30:38.077789	282.7	19.8	-75.4	7.0
2026-01-13 19:30:39.209651	283.0	19.7	-75.6	8.1
2026-01-13 19:30:40.337882	283.2	19.7	-75.5	6.1
2026-01-13 19:30:41.467754	283.5	19.7	-75.6	3.0
2026-01-13 19:30:42.597428	283.8	19.7	-76.1	1.0
2026-01-13 19:30:43.726755	284.1	19.6	-75.5	4.6
2026-01-13 19:30:44.854993	284.4	19.6	-74.8	2.3
2026-01-13 19:30:45.983821	284.6	19.6	-75.7	3.7
2026-01-13 19:30:47.118362	284.9	19.5	-75.2	1.9
2026-01-13 19:30:48.257355	285.2	19.5	-74.3	3.8
2026-01-13 19:30:49.393533	285.5	19.5	-75.1	1.6
2026-01-13 19:30:50.531104	285.7	19.4	-74.2	0.0
2026-01-13 19:30:51.669297	286.0	19.4	-75.6	2.4
2026-01-13 19:30:52.808537	286.3	19.4	-74.4	2.4
2026-01-13 19:30:53.945596	286.6	19.3	-74.1	2.5
2026-01-13 19:30:55.083710	286.8	19.3	-73.6	0.0
2026-01-13 19:30:56.219289	287.1	19.3	-75.0	2.8
2026-01-13 19:30:57.354382	287.4	19.2	-75.1	2.3
2026-01-13 19:30:58.491746	287.7	19.2	-75.5	4.3
2026-01-13 19:30:59.628711	287.9	19.2	-75.9	5.0
2026-01-13 19:31:00.763321	288.2	19.1	-75.4	3.0
2026-01-13 19:31:01.901638	288.5	19.1	-75.6	4.6
2026-01-13 19:31:03.040450	288.7	19.1	-74.8	1.8
2026-01-13 19:31:04.174203	289.0	19.0	-75.3	0.7
2026-01-13 19:31:05.308664	289.3	19.0	-75.9	1.7
2026-01-13 19:31:06.442601	289.5	18.9	-75.0	3.7
2026-01-13 19:31:07.581360	289.8	18.9	-75.4	0.0
2026-01-13 19:31:08.715661	290.1	18.9	-75.9	3.7
2026-01-13 19:31:09.852859	290.3	18.8	-76.0	1.9
2026-01-13 19:31:10.991009	290.6	18.8	-74.6	1.9
2026-01-13 19:31:12.126777	290.9	18.7	-74.8	1.4
2026-01-13 19:31:13.261462	291.1	18.7	-73.9	0.9
2026-01-13 19:31:14.400250	291.4	18.7	-76.1	3.4
2026-01-13 19:31:15.535810	291.7	18.6	-75.4	1.1
2026-01-13 19:31:16.673663	291.9	18.6	-75.8	3.8
2026-01-13 19:31:17.810204	292.2	18.5	-74.8	0.5
2026-01-13 19:31:18.946687	292.4	18.5	-76.7	4.3
2026-01-13 19:31:20.083645	292.7	18.4	-75.8	0.4
2026-01-13 19:31:21.220250	293.0	18.4	-73.7	0.0
2026-01-13 19:31:22.354612	293.2	18.3	-75.2	3.8
2026-01-13 19:31:23.492263	293.5	18.3	-75.2	1.6
2026-01-13 19:31:24.632670	293.7	18.2	-75.2	3.0
2026-01-13 19:31:25.770510	294.0	18.2	-75.1	1.1
2026-01-13 19:31:26.907632	294.2	18.1	-75.2	0.0
2026-01-13 19:31:28.043955	294.5	18.1	-74.9	1.2
2026-01-13 19:31:29.179073	294.7	18.0	-74.1	3.5
2026-01-13 19:31:30.319442	295.0	18.0	-74.5	0.0
2026-01-13 19:31:31.455437	295.2	17.9	-74.1	1.0
2026-01-13 19:31:32.593462	295.5	17.9	-72.9	0.0
2026-01-13 19:31:33.731249	295.7	17.8	-72.8	0.0
2026-01-13 19:31:34.869048	296.0	17.8	-73.9	0.4
2026-01-13 19:31:36.007314	296.2	17.7	-73.1	0.0
2026-01-13 19:31:37.143633	296.5	17.7	-73.8	1.4
2026-01-13 19:31:38.281722	296.7	17.6	-73.7	2.0
2026-01-13 19:31:39.423210	297.0	17.6	-73.8	0.0
2026-01-13 19:31:40.560409	297.2	17.5	-73.5	0.1
2026-01-13 19:31:41.696738	297.5	17.5	-74.6	0.0
2026-01-13 19:31:42.833210	297.7	17.4	-73.0	0.3
2026-01-13 19:31:43.969505	297.9	17.4	-73.6	0.0
2026-01-13 19:31:45.106036	298.2	17.3	-73.2	0.0
2026-01-13 19:31:46.243495	298.4	17.3	-74.2	0.9
2026-01-13 19:31:47.381876	298.7	17.2	-75.2	1.9
2026-01-13 19:31:48.518085	298.9	17.1	-74.2	0.8
2026-01-13 19:31:49.655994	299.1	17.1	-74.3	1.9
2026-01-13 19:31:50.793008	299.4	17.0	-74.6	0.0
2026-01-13 19:31:51.931442	299.6	17.0	-73.5	0.0
2026-01-13 19:31:53.069950	299.8	16.9	-73.6	0.0
2026-01-13 19:31:54.205983	300.1	16.9	-73.6	0.0
2026-01-13 19:31:55.339256	300.3	16.8	-73.9	0.0
2026-01-13 19:31:56.470265	300.5	16.7	-74.4	0.6
2026-01-13 19:31:57.598562	300.8	16.7	-74.3	0.0
2026-01-13 19:31:58.728633	301.0	16.6	-73.6	0.0
2026-01-13 19:31:59.858534	301.2	16.6	-72.8	0.0
2026-01-13 19:32:00.988965	301.5	16.5	-72.2	0.0
2026-01-13 19:32:02.118720	301.7	16.5	-73.4	0.0
2026-01-13 19:32:03.248650	301.9	16.4	-73.8	0.0
2026-01-13 19:32:04.376096	302.1	16.3	-74.4	0.0
2026-01-13 19:32:05.502396	302.4	16.3	-74.0	0.0
2026-01-13 19:32:06.629962	302.6	16.2	-73.5	0.0
2026-01-13 19:32:07.761006	302.8	16.2	-74.1	0.0
2026-01-13 19:32:08.891425	303.0	16.1	-74.1	0.0
2026-01-13 19:32:10.020712	303.2	16.0	-72.8	0.0
2026-01-13 19:32:11.155457	303.5	16.0	-73.3	0.3
2026-01-13 19:32:12.287822	303.7	15.9	-73.5	0.0
2026-01-13 19:32:13.415383	303.9	15.8	-72.7	0.0
2026-01-13 19:32:14.542822	304.1	15.8	-73.5	0.0
2026-01-13 19:32:15.672526	304.3	15.7	-73.8	0.0
2026-01-13 19:32:16.798766	304.5	15.7	-74.1	0.0
2026-01-13 19:32:17.932641	304.8	15.6	-74.6	0.9
2026-01-13 19:32:19.068315	305.0	15.5	-74.6	0.0
2026-01-13 19:32:20.204434	305.2	15.5	-73.0	0.0
2026-01-13 19:32:21.342225	305.4	15.4	-73.7	0.0
2026-01-13 19:32:22.477361	305.6	15.3	-75.0	0.7
2026-01-13 19:32:23.617298	305.8	15.3	-73.1	0.0
2026-01-13 19:32:24.753221	306.0	15.2	-72.4	0.0
2026-01-13 19:32:25.889556	306.2	15.2	-72.8	0.0
2026-01-13 19:32:27.025985	306.4	15.1	-73.7	0.0
2026-01-13 19:32:28.162357	306.6	15.0	-72.5	0.0
2026-01-13 19:32:29.298622	306.9	15.0	-75.0	0.0
2026-01-13 19:32:30.435177	307.1	14.9	-75.2	0.7
2026-01-13 19:32:31.570489	307.3	14.8	-73.4	0.0
2026-01-13 19:32:32.705376	307.5	14.8	-74.7	0.0
2026-01-13 19:32:33.838357	307.7	14.7	-74.7	0.0
2026-01-13 19:32:34.973837	307.9	14.6	-74.3	0.0
2026-01-13 19:32:36.106197	308.1	14.6	-73.6	0.0
2026-01-13 19:32:37.238528	308.3	14.5	-75.0	0.0
2026-01-13 19:32:38.369662	308.5	14.4	-71.7	0.0
2026-01-13 19:32:39.504067	308.7	14.4	-72.4	0.0
2026-01-13 19:32:40.639620	308.9	14.3	-72.3	0.0
2026-01-13 19:32:41.771924	309.1	14.2	-73.1	0.0
2026-01-13 19:32:42.903960	309.3	14.2	-74.9	0.0
2026-01-13 19:32:44.036780	309.4	14.1	-72.7	0.0
2026-01-13 19:32:45.168145	309.6	14.0	-75.2	0.0
2026-01-13 19:32:46.301020	309.8	14.0	-75.0	0.0
2026-01-13 19:32:47.438492	310.0	13.9	-74.8	0.0
2026-01-13 19:32:48.570090	310.2	13.8	-74.0	0.0
2026-01-13 19:32:49.704795	310.4	13.8	-73.2	0.0
2026-01-13 19:32:50.841613	310.6	13.7	-73.2	0.0
2026-01-13 19:32:51.974842	310.8	13.6	-74.5	0.0
2026-01-13 19:32:53.109497	311.0	13.6	-74.5	0.0
2026-01-13 19:32:54.245223	311.2	13.5	-73.7	0.0
2026-01-13 19:32:55.383166	311.3	13.4	-73.5	0.0
2026-01-13 19:32:56.516394	311.5	13.4	-70.4	0.0
2026-01-13 19:32:57.654157	311.7	13.3	-72.1	0.0
2026-01-13 19:32:58.790113	311.9	13.2	-71.7	0.0
2026-01-13 19:32:59.929509	312.1	13.2	-73.8	0.0
2026-01-13 19:33:01.061558	312.3	13.1	-72.0	0.0
2026-01-13 19:33:02.197478	312.4	13.0	-72.3	0.0
2026-01-13 19:33:03.335257	312.6	13.0	-71.5	0.0
2026-01-13 19:33:04.474322	312.8	12.9	-71.7	0.0
2026-01-13 19:33:05.609245	313.0	12.8	-74.0	0.0
2026-01-13 19:33:06.743569	313.2	12.8	-69.4	0.0
2026-01-13 19:33:07.878069	313.3	12.7	-72.2	0.0
2026-01-13 19:33:09.017401	313.5	12.6	-73.3	0.0
2026-01-13 19:33:10.153903	313.7	12.5	-71.1	0.0
2026-01-13 19:33:11.290609	313.9	12.5	-74.9	0.0
2026-01-13 19:33:12.424120	314.0	12.4	-72.6	0.0
2026-01-13 19:33:13.561240	314.2	12.3	-74.2	0.0
2026-01-13 19:33:14.698664	314.4	12.3	-74.4	0.0
2026-01-13 19:33:15.834253	314.6	12.2	-74.3	0.0
2026-01-13 19:33:16.972940	314.7	12.1	-72.4	0.0
2026-01-13 19:33:18.111930	314.9	12.1	-74.8	0.0
2026-01-13 19:33:19.252191	315.1	12.0	-73.1	0.0
2026-01-13 19:33:20.391602	315.2	11.9	-72.0	0.0
2026-01-13 19:33:21.530712	315.4	11.9	-72.2	0.0
2026-01-13 19:33:22.665166	315.6	11.8	-73.1	0.0
2026-01-13 19:33:23.803363	315.7	11.7	-74.8	0.0
2026-01-13 19:33:24.940843	315.9	11.7	-74.2	0.0
2026-01-13 19:33:26.078173	316.1	11.6	-73.1	0.0
2026-01-13 19:33:27.217265	316.2	11.5	-73.7	0.0
2026-01-13 19:33:28.353750	316.4	11.5	-74.8	0.0
2026-01-13 19:33:29.491707	316.6	11.4	-74.0	0.0
2026-01-13 19:33:30.628347	316.7	11.3	-73.0	0.0
2026-01-13 19:33:31.767000	316.9	11.2	-75.1	0.0
2026-01-13 19:33:32.903622	317.0	11.2	-74.2	0.0
2026-01-13 19:33:34.037402	317.2	11.1	-73.4	0.0
2026-01-13 19:33:35.165010	317.4	11.0	-73.8	0.0
2026-01-13 19:33:36.292242	317.5	11.0	-73.6	0.0
2026-01-13 19:33:37.421463	317.7	10.9	-75.1	0.0
2026-01-13 19:33:38.549003	317.8	10.8	-74.0	0.0
2026-01-13 19:33:39.678159	318.0	10.8	-78.4	0.0
2026-01-13 19:33:40.807835	318.1	10.7	-76.4	0.0
2026-01-13 19:33:41.936094	318.3	10.6	-77.8	0.0
2026-01-13 19:33:43.065996	318.5	10.6	-78.5	0.0
2026-01-13 19:33:44.195064	318.6	10.5	-81.2	0.0
2026-01-13 19:33:45.322990	318.8	10.4	-80.7	0.0
2026-01-13 19:33:46.454036	318.9	10.4	-80.9	0.0
2026-01-13 19:33:47.586637	319.1	10.3	-80.1	0.0
2026-01-13 19:33:48.725118	319.2	10.2	-80.4	0.0
2026-01-13 19:33:49.857446	319.4	10.1	-80.3	0.0
2026-01-13 19:33:50.987263	319.5	10.1	-81.1	0.0
#Closed at: 2026-01-13 19:25:59.853863