passes_logs/2026/01/13/planumMaritime01/planumMaritime01__20260113_163206_METOP-B_rec.log

#Pass ID: 20260113_163206_METOP-B
#Satellite: METOP-B
#Configuration: METOP-B
#Start time: 2026-01-13 16:32:11.319672

#LorettStation: 1.0.0 05.05.2024
#Station: planumMaritime01
#Location: 37.49445 lon 55.92918 lat
#TLE: 1 38771U 12049A   26012.90633838  .00000094  00000+0  63105-4 0  9994
#TLE: 2 38771  98.6755  67.3301 0003319  81.0772 279.0781 14.21421823691209

#Time	Az	El	Level	SNR
2026-01-13 16:32:13.484006	125.1	10.2	-77.0	0.0
2026-01-13 16:32:15.735936	125.0	10.4	-75.6	0.0
2026-01-13 16:32:17.988682	124.8	10.5	-74.0	0.0
2026-01-13 16:32:20.242202	124.6	10.7	-73.5	0.0
2026-01-13 16:32:22.496927	124.4	10.9	-73.4	0.0
2026-01-13 16:32:24.748681	124.3	11.1	-73.9	0.0
2026-01-13 16:32:27.000782	124.1	11.3	-73.0	0.0
2026-01-13 16:32:29.253737	123.9	11.5	-73.4	0.0
2026-01-13 16:32:31.504346	123.7	11.7	-73.6	0.0
2026-01-13 16:32:33.758188	123.5	11.9	-73.2	0.0
2026-01-13 16:32:36.012112	123.4	12.1	-73.8	0.0
2026-01-13 16:32:38.265002	123.2	12.2	-73.7	0.0
2026-01-13 16:32:40.518025	123.0	12.4	-73.5	0.0
2026-01-13 16:32:42.770044	122.8	12.6	-73.8	0.0
2026-01-13 16:32:45.024223	122.6	12.8	-73.4	0.0
2026-01-13 16:32:47.274744	122.4	13.0	-73.5	0.0
2026-01-13 16:32:49.527221	122.2	13.2	-73.7	0.0
2026-01-13 16:32:51.777447	122.0	13.4	-73.2	0.0
2026-01-13 16:32:54.030003	121.8	13.6	-73.4	0.0
2026-01-13 16:32:56.279621	121.5	13.8	-73.7	0.0
2026-01-13 16:32:58.531617	121.3	14.1	-73.9	0.0
2026-01-13 16:33:00.784307	121.1	14.3	-74.0	0.3
2026-01-13 16:33:03.033175	120.9	14.5	-73.8	1.2
2026-01-13 16:33:05.283768	120.7	14.7	-72.8	0.0
2026-01-13 16:33:07.533243	120.4	14.9	-73.3	0.0
2026-01-13 16:33:09.784683	120.2	15.1	-73.5	0.1
2026-01-13 16:33:12.035423	120.0	15.3	-73.5	0.1
2026-01-13 16:33:14.287573	119.7	15.5	-74.1	0.0
2026-01-13 16:33:16.540990	119.5	15.7	-73.1	0.1
2026-01-13 16:33:18.794612	119.2	16.0	-73.2	0.0
2026-01-13 16:33:21.045361	119.0	16.2	-73.1	2.6
2026-01-13 16:33:23.295955	118.7	16.4	-73.1	1.0
2026-01-13 16:33:25.549557	118.5	16.6	-73.9	3.7
2026-01-13 16:33:27.803584	118.2	16.9	-73.8	4.0
2026-01-13 16:33:30.052118	117.9	17.1	-74.0	3.5
2026-01-13 16:33:32.303716	117.7	17.3	-73.6	2.5
2026-01-13 16:33:34.554069	117.4	17.5	-73.5	2.1
2026-01-13 16:33:36.805282	117.1	17.8	-73.9	3.8
2026-01-13 16:33:39.057156	116.8	18.0	-73.7	3.1
2026-01-13 16:33:41.306305	116.6	18.2	-73.4	3.0
2026-01-13 16:33:43.558338	116.3	18.5	-73.8	3.2
2026-01-13 16:33:45.809223	116.0	18.7	-73.8	3.2
2026-01-13 16:33:48.062111	115.7	18.9	-73.3	1.6
2026-01-13 16:33:50.315467	115.4	19.2	-74.3	5.3
2026-01-13 16:33:52.567878	115.0	19.4	-73.4	3.6
2026-01-13 16:33:54.822116	114.7	19.7	-74.2	5.0
2026-01-13 16:33:57.074266	114.4	19.9	-72.6	0.4
2026-01-13 16:33:59.324969	114.1	20.1	-72.9	2.4
2026-01-13 16:34:01.578446	113.8	20.4	-73.4	3.4
2026-01-13 16:34:03.831323	113.4	20.6	-73.0	4.4
2026-01-13 16:34:06.084459	113.1	20.9	-73.6	4.4
2026-01-13 16:34:08.335411	112.7	21.1	-73.6	4.8
2026-01-13 16:34:10.588484	112.4	21.4	-74.0	5.4
2026-01-13 16:34:12.841529	112.0	21.6	-73.3	5.2
2026-01-13 16:34:15.089984	111.6	21.9	-73.2	4.2
2026-01-13 16:34:17.340821	111.3	22.1	-73.1	5.4
2026-01-13 16:34:19.592848	110.9	22.4	-72.9	4.6
2026-01-13 16:34:21.844363	110.5	22.7	-72.9	5.0
2026-01-13 16:34:24.095778	110.1	22.9	-72.3	2.4
2026-01-13 16:34:26.347257	109.7	23.2	-73.2	5.7
2026-01-13 16:34:28.600510	109.3	23.4	-73.2	5.3
2026-01-13 16:34:30.852451	108.9	23.7	-72.1	3.6
2026-01-13 16:34:33.101486	108.5	24.0	-72.0	3.8
2026-01-13 16:34:35.350764	108.1	24.2	-73.4	5.3
2026-01-13 16:34:37.603017	107.6	24.5	-73.1	6.3
2026-01-13 16:34:39.856495	107.2	24.8	-72.9	5.2
2026-01-13 16:34:42.109147	106.7	25.0	-72.9	6.0
2026-01-13 16:34:44.360673	106.3	25.3	-71.9	5.2
2026-01-13 16:34:46.611718	105.8	25.6	-71.9	6.9
2026-01-13 16:34:48.865771	105.4	25.8	-72.7	6.4
2026-01-13 16:34:51.118323	104.9	26.1	-72.8	7.0
2026-01-13 16:34:53.368791	104.4	26.4	-71.9	4.4
2026-01-13 16:34:55.623457	103.9	26.6	-72.6	6.0
2026-01-13 16:34:57.873873	103.4	26.9	-72.5	6.2
2026-01-13 16:35:00.127059	102.9	27.2	-72.0	4.8
2026-01-13 16:35:02.377786	102.4	27.5	-72.3	5.7
2026-01-13 16:35:04.631959	101.8	27.7	-71.3	2.6
2026-01-13 16:35:06.882678	101.3	28.0	-71.9	4.7
2026-01-13 16:35:09.134884	100.7	28.3	-72.1	6.0
2026-01-13 16:35:11.386367	100.2	28.5	-71.0	5.9
2026-01-13 16:35:13.637352	99.6	28.8	-71.7	6.1
2026-01-13 16:35:15.888998	99.0	29.1	-72.0	5.4
2026-01-13 16:35:18.143328	98.4	29.4	-71.9	5.6
2026-01-13 16:35:20.395620	97.8	29.6	-71.9	4.4
2026-01-13 16:35:22.650828	97.2	29.9	-72.4	6.6
2026-01-13 16:35:24.903208	96.6	30.2	-72.5	4.1
2026-01-13 16:35:27.156578	96.0	30.4	-71.5	3.8
2026-01-13 16:35:29.409175	95.3	30.7	-72.2	7.0
2026-01-13 16:35:31.660080	94.7	30.9	-71.9	5.4
2026-01-13 16:35:33.913819	94.0	31.2	-72.3	5.4
2026-01-13 16:35:36.168143	93.3	31.5	-71.2	2.1
2026-01-13 16:35:38.422172	92.7	31.7	-72.1	3.4
2026-01-13 16:35:40.672789	92.0	32.0	-71.5	4.1
2026-01-13 16:35:42.925238	91.3	32.2	-71.1	4.5
2026-01-13 16:35:45.176919	90.6	32.5	-70.3	4.9
2026-01-13 16:35:47.430145	89.8	32.7	-71.2	5.7
2026-01-13 16:35:49.683197	89.1	32.9	-70.5	5.3
2026-01-13 16:35:51.935031	88.3	33.2	-69.7	4.0
2026-01-13 16:35:54.188608	87.6	33.4	-70.8	4.7
2026-01-13 16:35:56.440944	86.8	33.6	-69.5	4.6
2026-01-13 16:35:58.694658	86.0	33.9	-69.9	4.0
2026-01-13 16:36:00.947023	85.2	34.1	-70.8	5.1
2026-01-13 16:36:03.198971	84.4	34.3	-70.4	3.5
2026-01-13 16:36:05.450741	83.6	34.5	-69.8	0.7
2026-01-13 16:36:07.701385	82.8	34.7	-70.2	3.0
2026-01-13 16:36:09.952640	82.0	34.9	-70.1	3.6
2026-01-13 16:36:12.202866	81.1	35.1	-70.7	4.4
2026-01-13 16:36:14.453663	80.3	35.3	-71.4	6.3
2026-01-13 16:36:16.707464	79.4	35.5	-69.4	0.0
2026-01-13 16:36:18.960112	78.5	35.7	-68.7	1.8
2026-01-13 16:36:21.213570	77.7	35.8	-69.1	1.2
2026-01-13 16:36:23.462890	76.8	36.0	-69.0	0.5
2026-01-13 16:36:25.718264	75.9	36.1	-68.6	0.2
2026-01-13 16:36:27.972667	75.0	36.3	-70.2	2.1
2026-01-13 16:36:30.224402	74.0	36.4	-68.0	0.0
2026-01-13 16:36:32.478337	73.1	36.6	-68.2	0.0
2026-01-13 16:36:34.734250	72.2	36.7	-71.1	3.2
2026-01-13 16:36:36.986827	71.3	36.8	-69.6	0.0
2026-01-13 16:36:39.241523	70.3	36.9	-68.4	0.0
2026-01-13 16:36:41.492676	69.4	37.0	-69.2	0.0
2026-01-13 16:36:43.746795	68.4	37.1	-67.9	0.0
2026-01-13 16:36:45.998690	67.4	37.2	-68.6	0.0
2026-01-13 16:36:48.253247	66.5	37.2	-68.1	0.0
2026-01-13 16:36:50.506401	65.5	37.3	-67.4	0.0
2026-01-13 16:36:52.756381	64.5	37.4	-68.9	2.0
2026-01-13 16:36:55.011330	63.6	37.4	-67.0	0.0
2026-01-13 16:36:57.262103	62.6	37.4	-68.3	0.3
2026-01-13 16:36:59.513829	61.6	37.5	-66.9	0.0
2026-01-13 16:37:01.767597	60.6	37.5	-69.4	0.4
2026-01-13 16:37:04.019313	59.6	37.5	-68.3	0.0
2026-01-13 16:37:06.271297	58.7	37.5	-68.2	0.0
2026-01-13 16:37:08.523947	57.7	37.5	-67.6	0.0
2026-01-13 16:37:10.777395	56.7	37.4	-65.9	0.0
2026-01-13 16:37:13.027477	55.7	37.4	-67.2	0.0
2026-01-13 16:37:15.278894	54.8	37.4	-66.4	0.0
2026-01-13 16:37:17.530182	53.8	37.3	-66.4	0.0
2026-01-13 16:37:19.783745	52.8	37.3	-67.4	0.0
2026-01-13 16:37:22.036251	51.9	37.2	-68.3	0.0
2026-01-13 16:37:24.285945	50.9	37.1	-66.8	0.0
2026-01-13 16:37:26.538051	49.9	37.0	-68.3	0.0
2026-01-13 16:37:28.789885	49.0	36.9	-66.8	0.0
2026-01-13 16:37:31.041243	48.0	36.8	-67.4	0.0
2026-01-13 16:37:33.292816	47.1	36.7	-68.0	0.0
2026-01-13 16:37:35.542348	46.2	36.6	-66.2	0.0
2026-01-13 16:37:37.792837	45.3	36.5	-66.8	0.0
2026-01-13 16:37:40.045494	44.3	36.3	-67.1	0.0
2026-01-13 16:37:42.296507	43.4	36.2	-66.7	0.0
2026-01-13 16:37:44.547259	42.5	36.0	-65.4	0.0
2026-01-13 16:37:46.801685	41.6	35.9	-66.1	0.0
2026-01-13 16:37:49.055866	40.8	35.7	-64.5	0.0
2026-01-13 16:37:51.306509	39.9	35.5	-65.8	0.0
2026-01-13 16:37:53.558501	39.0	35.3	-65.7	0.0
2026-01-13 16:37:55.813282	38.2	35.2	-66.4	0.0
2026-01-13 16:37:58.068152	37.3	35.0	-65.6	0.0
2026-01-13 16:38:00.323868	36.5	34.8	-66.4	0.0
2026-01-13 16:38:02.577324	35.7	34.6	-66.3	0.0
2026-01-13 16:38:04.828698	34.9	34.4	-66.3	0.0
2026-01-13 16:38:07.082654	34.1	34.1	-66.0	0.0
2026-01-13 16:38:09.336102	33.3	33.9	-66.5	0.0
2026-01-13 16:38:11.591108	32.5	33.7	-64.5	0.0
2026-01-13 16:38:13.845663	31.7	33.5	-66.6	0.0
2026-01-13 16:38:16.097652	31.0	33.2	-64.9	0.0
2026-01-13 16:38:18.351631	30.2	33.0	-66.2	0.0
2026-01-13 16:38:20.603029	29.5	32.8	-63.8	0.0
2026-01-13 16:38:22.856142	28.7	32.5	-65.8	0.0
2026-01-13 16:38:25.110830	28.0	32.3	-65.4	0.0
2026-01-13 16:38:27.363563	27.3	32.0	-64.1	0.0
2026-01-13 16:38:29.616701	26.6	31.8	-59.8	0.0
2026-01-13 16:38:31.871423	25.9	31.5	-59.5	0.0
2026-01-13 16:38:34.124985	25.3	31.3	-61.9	0.0
2026-01-13 16:38:36.378612	24.6	31.0	-61.5	0.0
2026-01-13 16:38:38.631452	24.0	30.8	-62.8	0.0
2026-01-13 16:38:40.884771	23.3	30.5	-58.4	0.0
2026-01-13 16:38:43.139322	22.7	30.2	-61.8	0.0
2026-01-13 16:38:45.389722	22.1	30.0	-61.8	0.0
2026-01-13 16:38:47.643723	21.5	29.7	-59.8	0.0
2026-01-13 16:38:49.899720	20.9	29.4	-62.0	0.0
2026-01-13 16:38:52.151039	20.3	29.2	-60.4	0.0
2026-01-13 16:38:54.403951	19.7	28.9	-60.4	0.0
2026-01-13 16:38:56.656342	19.1	28.6	-59.4	0.0
2026-01-13 16:38:58.908883	18.6	28.4	-59.6	0.0
2026-01-13 16:39:01.162813	18.0	28.1	-58.4	0.0
2026-01-13 16:39:03.418887	17.5	27.8	-59.5	0.0
2026-01-13 16:39:05.669646	17.0	27.5	-61.1	0.0
2026-01-13 16:39:07.922263	16.4	27.3	-60.1	0.0
2026-01-13 16:39:10.174351	15.9	27.0	-61.5	0.0
2026-01-13 16:39:12.429253	15.4	26.7	-60.5	0.0
2026-01-13 16:39:14.683025	14.9	26.5	-60.1	0.0
2026-01-13 16:39:16.933518	14.4	26.2	-61.2	0.0
2026-01-13 16:39:19.186316	13.9	25.9	-62.6	0.0
2026-01-13 16:39:21.439125	13.5	25.7	-61.8	0.0
2026-01-13 16:39:23.693314	13.0	25.4	-61.8	0.0
2026-01-13 16:39:25.947690	12.6	25.1	-63.0	0.0
2026-01-13 16:39:28.202542	12.1	24.9	-64.1	0.0
2026-01-13 16:39:30.456390	11.7	24.6	-61.9	0.0
2026-01-13 16:39:32.710158	11.2	24.3	-62.3	0.0
2026-01-13 16:39:34.967115	10.8	24.1	-63.2	0.0
2026-01-13 16:39:37.221844	10.4	23.8	-62.4	0.0
2026-01-13 16:39:39.478340	10.0	23.5	-61.6	0.0
2026-01-13 16:39:41.732132	9.6	23.3	-61.7	0.0
2026-01-13 16:39:43.986086	9.2	23.0	-62.9	0.0
2026-01-13 16:39:46.239276	8.8	22.8	-64.7	0.0
2026-01-13 16:39:48.492121	8.4	22.5	-62.2	0.0
2026-01-13 16:39:50.747508	8.0	22.2	-63.7	0.0
2026-01-13 16:39:53.000757	7.7	22.0	-64.1	0.0
2026-01-13 16:39:55.253689	7.3	21.7	-63.7	0.0
2026-01-13 16:39:57.511522	6.9	21.5	-61.4	0.0
2026-01-13 16:39:59.763535	6.6	21.2	-63.9	0.0
2026-01-13 16:40:02.021621	6.2	21.0	-62.5	0.0
2026-01-13 16:40:04.273030	5.9	20.7	-63.5	0.0
2026-01-13 16:40:06.526852	5.6	20.5	-63.5	0.0
2026-01-13 16:40:08.780560	5.2	20.2	-64.4	0.0
2026-01-13 16:40:11.033397	4.9	20.0	-64.1	0.0
2026-01-13 16:40:13.284907	4.6	19.8	-64.7	0.0
2026-01-13 16:40:15.535070	4.3	19.5	-64.7	0.0
2026-01-13 16:40:17.787201	4.0	19.3	-65.2	0.0
2026-01-13 16:40:20.039470	3.7	19.0	-64.3	0.0
2026-01-13 16:40:22.290324	3.4	18.8	-64.2	0.0
2026-01-13 16:40:24.544128	3.1	18.6	-62.0	0.0
2026-01-13 16:40:26.798433	2.8	18.3	-63.4	0.0
2026-01-13 16:40:29.048841	2.5	18.1	-62.2	0.0
2026-01-13 16:40:31.303477	2.2	17.9	-63.1	0.0
2026-01-13 16:40:33.556869	1.9	17.6	-61.8	0.0
2026-01-13 16:40:35.810040	1.7	17.4	-63.1	0.0
2026-01-13 16:40:38.059872	1.4	17.2	-63.9	0.0
2026-01-13 16:40:40.314156	1.1	17.0	-63.6	0.0
2026-01-13 16:40:42.564501	0.9	16.7	-63.4	0.0
2026-01-13 16:40:44.819195	0.6	16.5	-64.0	0.0
2026-01-13 16:40:47.072005	0.4	16.3	-64.8	0.0
2026-01-13 16:40:49.324148	0.1	16.1	-65.1	0.0
2026-01-13 16:40:51.575217	359.9	15.9	-66.2	0.0
2026-01-13 16:40:53.826255	359.6	15.6	-65.6	0.0
2026-01-13 16:40:56.080823	359.4	15.4	-67.3	0.0
2026-01-13 16:40:58.334227	359.1	15.2	-65.9	0.0
2026-01-13 16:41:00.590169	358.9	15.0	-65.4	0.0
2026-01-13 16:41:02.842870	358.7	14.8	-66.9	0.0
2026-01-13 16:41:05.092988	358.5	14.6	-67.3	0.0
2026-01-13 16:41:07.342564	358.2	14.4	-66.6	0.0
2026-01-13 16:41:09.596921	358.0	14.2	-64.8	0.0
2026-01-13 16:41:11.853592	357.8	14.0	-67.0	0.0
2026-01-13 16:41:14.105678	357.6	13.8	-66.4	0.0
2026-01-13 16:41:16.359570	357.4	13.6	-64.6	0.0
2026-01-13 16:41:18.613486	357.2	13.4	-66.7	0.0
2026-01-13 16:41:20.862390	357.0	13.2	-67.3	0.0
2026-01-13 16:41:23.114705	356.8	13.0	-67.7	0.0
2026-01-13 16:41:25.367435	356.6	12.8	-67.1	0.0
2026-01-13 16:41:27.619363	356.4	12.6	-68.1	0.0
2026-01-13 16:41:29.873675	356.2	12.4	-66.2	0.0
2026-01-13 16:41:32.122575	356.0	12.2	-66.9	0.0
2026-01-13 16:41:34.373897	355.8	12.0	-66.5	0.0
2026-01-13 16:41:36.627056	355.6	11.8	-63.0	0.0
2026-01-13 16:41:38.879004	355.5	11.6	-65.4	0.0
2026-01-13 16:41:41.129761	355.3	11.4	-64.5	0.0
2026-01-13 16:41:43.383368	355.1	11.2	-67.2	0.0
2026-01-13 16:41:45.635513	354.9	11.0	-66.1	0.0
2026-01-13 16:41:47.886439	354.8	10.9	-67.0	0.0
2026-01-13 16:41:50.133073	354.6	10.7	-63.0	0.0
2026-01-13 16:41:52.388439	354.4	10.5	-66.2	0.0
2026-01-13 16:41:54.642357	354.3	10.3	-71.0	0.0
2026-01-13 16:41:56.893120	354.1	10.1	-75.0	0.0
#Closed at: 2026-01-13 16:32:06.326692