passes_logs/2026/01/13/planumMaritime01/planumMaritime01__20260113_185043_METOP-C_rec.log

#Pass ID: 20260113_185043_METOP-C
#Satellite: METOP-C
#Configuration: METOP-C
#Start time: 2026-01-13 18:50:48.607440

#LorettStation: 1.0.0 05.05.2024
#Station: planumMaritime01
#Location: 37.49445 lon 55.92918 lat
#TLE: 1 43689U 18087A   26012.93337629  .00000090  00000+0  60903-4 0  9997
#TLE: 2 43689  98.6883  75.2176 0000430 188.2836 171.8334 14.21497815372770

#Time	Az	El	Level	SNR
2026-01-13 18:50:50.785940	189.7	10.2	-74.2	0.0
2026-01-13 18:50:53.039167	189.9	10.4	-73.0	0.0
2026-01-13 18:50:55.294555	190.0	10.6	-70.9	0.0
2026-01-13 18:50:57.546675	190.2	10.7	-70.6	0.0
2026-01-13 18:50:59.798243	190.3	10.9	-70.4	0.0
2026-01-13 18:51:02.050173	190.5	11.1	-69.6	0.0
2026-01-13 18:51:04.303160	190.6	11.3	-70.4	0.0
2026-01-13 18:51:06.553352	190.8	11.5	-69.6	0.0
2026-01-13 18:51:08.806605	190.9	11.7	-70.5	0.0
2026-01-13 18:51:11.063616	191.1	11.9	-70.6	0.0
2026-01-13 18:51:13.316927	191.3	12.1	-69.8	0.0
2026-01-13 18:51:15.568778	191.4	12.3	-70.1	0.0
2026-01-13 18:51:17.822516	191.6	12.5	-70.2	0.0
2026-01-13 18:51:20.075808	191.8	12.7	-70.4	0.0
2026-01-13 18:51:22.333214	191.9	12.9	-70.6	0.0
2026-01-13 18:51:24.586164	192.1	13.1	-70.3	0.0
2026-01-13 18:51:26.840287	192.3	13.3	-70.4	0.0
2026-01-13 18:51:29.096836	192.5	13.5	-70.4	0.0
2026-01-13 18:51:31.348914	192.7	13.8	-70.0	0.0
2026-01-13 18:51:33.600655	192.8	14.0	-69.8	0.0
2026-01-13 18:51:35.853978	193.0	14.2	-69.6	0.0
2026-01-13 18:51:38.107086	193.2	14.4	-69.9	0.0
2026-01-13 18:51:40.357784	193.4	14.6	-70.1	0.0
2026-01-13 18:51:42.609511	193.6	14.8	-70.1	0.0
2026-01-13 18:51:44.859910	193.8	15.0	-69.8	0.0
2026-01-13 18:51:47.113082	194.0	15.3	-70.1	0.0
2026-01-13 18:51:49.363727	194.2	15.5	-70.5	0.0
2026-01-13 18:51:51.617632	194.4	15.7	-70.0	0.0
2026-01-13 18:51:53.870421	194.6	15.9	-69.9	0.0
2026-01-13 18:51:56.123350	194.8	16.2	-70.4	0.0
2026-01-13 18:51:58.373001	195.1	16.4	-70.0	0.0
2026-01-13 18:52:00.627816	195.3	16.6	-70.5	0.0
2026-01-13 18:52:02.879729	195.5	16.9	-70.5	0.0
2026-01-13 18:52:05.132929	195.7	17.1	-70.5	0.0
2026-01-13 18:52:07.389806	196.0	17.4	-70.3	0.0
2026-01-13 18:52:09.641884	196.2	17.6	-70.2	0.0
2026-01-13 18:52:11.898437	196.4	17.8	-69.7	0.0
2026-01-13 18:52:14.150495	196.7	18.1	-70.3	0.0
2026-01-13 18:52:16.403498	196.9	18.3	-69.9	0.7
2026-01-13 18:52:18.657214	197.2	18.6	-69.6	0.0
2026-01-13 18:52:20.910179	197.4	18.8	-69.2	0.0
2026-01-13 18:52:23.164376	197.7	19.1	-69.6	0.0
2026-01-13 18:52:25.412450	197.9	19.3	-69.9	0.0
2026-01-13 18:52:27.665150	198.2	19.6	-69.3	0.0
2026-01-13 18:52:29.916363	198.5	19.8	-69.2	0.0
2026-01-13 18:52:32.174043	198.7	20.1	-70.0	0.0
2026-01-13 18:52:34.426414	199.0	20.4	-69.9	0.0
2026-01-13 18:52:36.679010	199.3	20.6	-69.3	0.0
2026-01-13 18:52:38.930014	199.6	20.9	-70.1	0.0
2026-01-13 18:52:41.180198	199.9	21.2	-70.2	0.0
2026-01-13 18:52:43.431062	200.2	21.4	-69.6	0.0
2026-01-13 18:52:45.685843	200.5	21.7	-69.8	0.0
2026-01-13 18:52:47.938462	200.8	22.0	-69.2	0.0
2026-01-13 18:52:50.190535	201.1	22.3	-69.4	0.0
2026-01-13 18:52:52.443185	201.4	22.6	-69.7	0.0
2026-01-13 18:52:54.697950	201.8	22.8	-69.7	0.1
2026-01-13 18:52:56.951234	202.1	23.1	-69.2	0.1
2026-01-13 18:52:59.205752	202.4	23.4	-70.0	0.0
2026-01-13 18:53:01.459717	202.8	23.7	-69.9	1.7
2026-01-13 18:53:03.714739	203.1	24.0	-69.9	0.4
2026-01-13 18:53:05.968271	203.5	24.3	-69.9	2.5
2026-01-13 18:53:08.218613	203.8	24.6	-71.3	5.9
2026-01-13 18:53:10.471254	204.2	24.9	-70.2	1.4
2026-01-13 18:53:12.724419	204.6	25.2	-70.0	3.1
2026-01-13 18:53:14.976727	205.0	25.5	-71.3	6.5
2026-01-13 18:53:17.227169	205.4	25.8	-70.5	2.6
2026-01-13 18:53:19.479609	205.8	26.1	-70.4	2.3
2026-01-13 18:53:21.732178	206.2	26.4	-71.2	4.5
2026-01-13 18:53:23.984162	206.6	26.7	-70.5	5.2
2026-01-13 18:53:26.235686	207.0	27.0	-71.1	5.0
2026-01-13 18:53:28.487246	207.4	27.3	-71.4	4.5
2026-01-13 18:53:30.741665	207.9	27.6	-71.4	6.9
2026-01-13 18:53:32.993830	208.3	28.0	-72.0	7.8
2026-01-13 18:53:35.246249	208.8	28.3	-71.7	6.2
2026-01-13 18:53:37.499175	209.2	28.6	-71.6	6.1
2026-01-13 18:53:39.756093	209.7	28.9	-72.0	7.1
2026-01-13 18:53:42.008941	210.2	29.3	-72.5	8.2
2026-01-13 18:53:44.260917	210.7	29.6	-72.4	7.6
2026-01-13 18:53:46.510276	211.2	29.9	-72.7	9.7
2026-01-13 18:53:48.762493	211.7	30.2	-72.8	7.9
2026-01-13 18:53:51.015713	212.2	30.6	-72.5	9.4
2026-01-13 18:53:53.267856	212.7	30.9	-72.5	9.2
2026-01-13 18:53:55.518372	213.3	31.2	-72.3	8.3
2026-01-13 18:53:57.770573	213.8	31.6	-73.2	10.9
2026-01-13 18:54:00.025277	214.4	31.9	-73.7	10.8
2026-01-13 18:54:02.278327	215.0	32.2	-73.3	11.3
2026-01-13 18:54:04.532727	215.6	32.6	-73.7	12.3
2026-01-13 18:54:06.784245	216.2	32.9	-73.6	12.4
2026-01-13 18:54:09.037336	216.8	33.3	-73.5	11.8
2026-01-13 18:54:11.288387	217.4	33.6	-73.2	12.2
2026-01-13 18:54:13.539271	218.1	33.9	-73.7	13.1
2026-01-13 18:54:15.790918	218.7	34.3	-73.6	12.8
2026-01-13 18:54:18.045998	219.4	34.6	-73.7	13.7
2026-01-13 18:54:20.298329	220.1	34.9	-73.2	12.3
2026-01-13 18:54:22.550783	220.8	35.3	-73.4	12.4
2026-01-13 18:54:24.804261	221.5	35.6	-73.6	13.1
2026-01-13 18:54:27.057105	222.2	35.9	-73.8	13.5
2026-01-13 18:54:29.309527	222.9	36.3	-73.2	13.2
2026-01-13 18:54:31.563579	223.7	36.6	-73.3	13.7
2026-01-13 18:54:33.817025	224.5	36.9	-73.1	13.0
2026-01-13 18:54:36.073070	225.2	37.3	-73.3	13.7
2026-01-13 18:54:38.327110	226.0	37.6	-73.2	13.7
2026-01-13 18:54:40.576665	226.8	37.9	-73.1	12.8
2026-01-13 18:54:42.826693	227.7	38.2	-72.9	12.6
2026-01-13 18:54:45.077547	228.5	38.5	-73.0	12.2
2026-01-13 18:54:47.328796	229.4	38.8	-72.7	12.6
2026-01-13 18:54:49.580454	230.3	39.1	-72.9	12.4
2026-01-13 18:54:51.832690	231.2	39.4	-72.5	13.1
2026-01-13 18:54:54.083443	232.1	39.7	-72.3	12.6
2026-01-13 18:54:56.339427	233.0	40.0	-72.3	11.9
2026-01-13 18:54:58.592961	233.9	40.3	-72.3	10.9
2026-01-13 18:55:00.845015	234.9	40.5	-72.6	13.1
2026-01-13 18:55:03.099348	235.9	40.8	-72.7	12.1
2026-01-13 18:55:05.351075	236.8	41.1	-72.5	13.2
2026-01-13 18:55:07.607818	237.9	41.3	-72.1	12.8
2026-01-13 18:55:09.859000	238.9	41.6	-72.3	12.6
2026-01-13 18:55:12.110218	239.9	41.8	-72.3	12.4
2026-01-13 18:55:14.361583	241.0	42.0	-72.4	11.5
2026-01-13 18:55:16.614716	242.0	42.2	-72.2	11.5
2026-01-13 18:55:18.866047	243.1	42.4	-72.1	11.9
2026-01-13 18:55:21.117468	244.2	42.6	-72.6	11.3
2026-01-13 18:55:23.369410	245.3	42.8	-72.8	12.0
2026-01-13 18:55:25.621641	246.4	43.0	-72.6	11.1
2026-01-13 18:55:27.872021	247.5	43.2	-72.9	11.6
2026-01-13 18:55:30.121782	248.7	43.3	-72.6	10.2
2026-01-13 18:55:32.374259	249.8	43.5	-72.3	10.6
2026-01-13 18:55:34.628167	251.0	43.6	-72.1	10.0
2026-01-13 18:55:36.878370	252.1	43.7	-72.4	11.8
2026-01-13 18:55:39.132346	253.3	43.8	-72.0	10.6
2026-01-13 18:55:41.384607	254.5	43.9	-71.1	9.2
2026-01-13 18:55:43.638725	255.7	44.0	-71.7	11.0
2026-01-13 18:55:45.892449	256.9	44.0	-71.4	9.8
2026-01-13 18:55:48.144580	258.1	44.1	-71.8	10.9
2026-01-13 18:55:50.398374	259.3	44.1	-72.1	10.7
2026-01-13 18:55:52.650711	260.5	44.1	-71.3	8.9
2026-01-13 18:55:54.902189	261.7	44.2	-72.2	9.7
2026-01-13 18:55:57.155475	262.9	44.1	-72.3	10.2
2026-01-13 18:55:59.411432	264.1	44.1	-71.7	7.9
2026-01-13 18:56:01.664088	265.3	44.1	-70.4	5.4
2026-01-13 18:56:03.917198	266.5	44.1	-71.7	10.3
2026-01-13 18:56:06.171202	267.7	44.0	-71.6	9.6
2026-01-13 18:56:08.423490	268.9	43.9	-70.4	5.4
2026-01-13 18:56:10.676457	270.0	43.8	-70.3	7.6
2026-01-13 18:56:12.926032	271.2	43.7	-69.8	6.0
2026-01-13 18:56:15.177219	272.4	43.6	-71.1	6.9
2026-01-13 18:56:17.429322	273.5	43.5	-70.4	8.0
2026-01-13 18:56:19.683115	274.7	43.4	-69.5	7.5
2026-01-13 18:56:21.935630	275.8	43.2	-69.4	5.1
2026-01-13 18:56:24.193855	277.0	43.1	-69.8	6.0
2026-01-13 18:56:26.444786	278.1	42.9	-69.2	5.6
2026-01-13 18:56:28.695532	279.2	42.7	-69.0	9.4
2026-01-13 18:56:30.945049	280.3	42.5	-68.6	6.4
2026-01-13 18:56:33.197752	281.4	42.3	-69.5	8.3
2026-01-13 18:56:35.449120	282.4	42.1	-68.4	4.9
2026-01-13 18:56:37.703456	283.5	41.9	-67.4	5.5
2026-01-13 18:56:39.955335	284.5	41.6	-66.7	1.6
2026-01-13 18:56:42.208642	285.5	41.4	-66.7	0.0
2026-01-13 18:56:44.461557	286.5	41.2	-67.0	1.7
2026-01-13 18:56:46.712919	287.5	40.9	-68.6	5.8
2026-01-13 18:56:48.966330	288.5	40.6	-68.7	5.8
2026-01-13 18:56:51.216633	289.5	40.4	-70.3	3.5
2026-01-13 18:56:53.469820	290.4	40.1	-67.5	2.2
2026-01-13 18:56:55.723999	291.3	39.8	-70.2	4.2
2026-01-13 18:56:57.976364	292.2	39.5	-69.1	0.0
2026-01-13 18:57:00.228529	293.1	39.2	-70.3	2.1
2026-01-13 18:57:02.486489	294.0	38.9	-68.2	2.9
2026-01-13 18:57:04.737660	294.9	38.6	-64.6	0.0
2026-01-13 18:57:06.987660	295.7	38.3	-67.2	1.0
2026-01-13 18:57:09.242205	296.6	38.0	-66.5	2.4
2026-01-13 18:57:11.494679	297.4	37.7	-66.9	0.0
2026-01-13 18:57:13.745251	298.2	37.4	-68.5	2.9
2026-01-13 18:57:15.996351	299.0	37.0	-69.1	0.0
2026-01-13 18:57:18.248120	299.7	36.7	-67.8	0.0
2026-01-13 18:57:20.499479	300.5	36.4	-69.7	4.0
2026-01-13 18:57:22.755573	301.2	36.1	-67.8	0.0
2026-01-13 18:57:25.008195	302.0	35.7	-69.0	3.9
2026-01-13 18:57:27.264932	302.7	35.4	-70.5	5.2
2026-01-13 18:57:29.518040	303.4	35.1	-66.9	0.0
2026-01-13 18:57:31.769185	304.0	34.7	-69.3	0.0
2026-01-13 18:57:34.020972	304.7	34.4	-67.7	0.0
2026-01-13 18:57:36.273410	305.4	34.1	-69.2	4.1
2026-01-13 18:57:38.526551	306.0	33.7	-70.2	3.7
2026-01-13 18:57:40.776350	306.6	33.4	-69.3	0.0
2026-01-13 18:57:43.028929	307.3	33.1	-68.9	0.0
2026-01-13 18:57:45.280420	307.9	32.7	-70.7	4.7
2026-01-13 18:57:47.537305	308.5	32.4	-69.0	3.6
2026-01-13 18:57:49.788079	309.0	32.1	-69.1	2.9
2026-01-13 18:57:52.040410	309.6	31.7	-70.3	4.1
2026-01-13 18:57:54.292481	310.2	31.4	-70.1	6.1
2026-01-13 18:57:56.544612	310.7	31.1	-69.4	3.3
2026-01-13 18:57:58.796049	311.2	30.7	-68.4	2.7
2026-01-13 18:58:01.047505	311.8	30.4	-71.1	2.2
2026-01-13 18:58:03.299117	312.3	30.1	-69.2	1.7
2026-01-13 18:58:05.553760	312.8	29.8	-69.4	2.7
2026-01-13 18:58:07.804631	313.3	29.4	-68.6	1.9
2026-01-13 18:58:10.058682	313.8	29.1	-68.4	1.5
2026-01-13 18:58:12.313757	314.2	28.8	-68.7	0.0
2026-01-13 18:58:14.565667	314.7	28.5	-68.1	0.0
2026-01-13 18:58:16.819468	315.2	28.1	-68.6	0.0
2026-01-13 18:58:19.073994	315.6	27.8	-66.2	0.0
2026-01-13 18:58:21.330306	316.0	27.5	-68.7	0.0
2026-01-13 18:58:23.583015	316.5	27.2	-69.2	0.0
2026-01-13 18:58:25.836522	316.9	26.9	-67.4	0.0
2026-01-13 18:58:28.090626	317.3	26.6	-67.4	0.0
2026-01-13 18:58:30.344202	317.7	26.3	-67.9	0.0
2026-01-13 18:58:32.597059	318.1	26.0	-67.2	0.0
2026-01-13 18:58:34.851454	318.5	25.7	-66.6	0.0
2026-01-13 18:58:37.103982	318.9	25.4	-67.3	0.0
2026-01-13 18:58:39.356346	319.3	25.1	-67.3	0.0
2026-01-13 18:58:41.609991	319.7	24.8	-67.8	0.0
2026-01-13 18:58:43.862130	320.0	24.5	-66.9	0.0
2026-01-13 18:58:46.111189	320.4	24.2	-68.5	0.0
2026-01-13 18:58:48.364505	320.7	23.9	-69.4	0.0
2026-01-13 18:58:50.616264	321.1	23.6	-69.0	0.0
2026-01-13 18:58:52.870537	321.4	23.3	-67.2	0.0
2026-01-13 18:58:55.123498	321.7	23.0	-68.9	0.0
2026-01-13 18:58:57.377123	322.1	22.8	-68.5	0.0
2026-01-13 18:58:59.630690	322.4	22.5	-66.3	0.0
2026-01-13 18:59:01.882450	322.7	22.2	-67.9	0.0
2026-01-13 18:59:04.135330	323.0	21.9	-67.9	0.0
2026-01-13 18:59:06.388398	323.3	21.6	-67.9	0.0
2026-01-13 18:59:08.639649	323.6	21.4	-68.3	0.0
2026-01-13 18:59:10.891485	323.9	21.1	-67.4	0.0
2026-01-13 18:59:13.143993	324.2	20.8	-67.8	0.0
2026-01-13 18:59:15.398067	324.5	20.6	-67.3	0.0
2026-01-13 18:59:17.650926	324.8	20.3	-67.1	0.0
2026-01-13 18:59:19.905746	325.0	20.1	-67.6	0.0
2026-01-13 18:59:22.158045	325.3	19.8	-68.3	0.0
2026-01-13 18:59:24.408508	325.6	19.5	-68.1	0.0
2026-01-13 18:59:26.662067	325.9	19.3	-68.0	0.0
2026-01-13 18:59:28.914212	326.1	19.0	-67.5	0.0
2026-01-13 18:59:31.167636	326.4	18.8	-68.1	0.0
2026-01-13 18:59:33.424700	326.6	18.5	-68.4	0.0
2026-01-13 18:59:35.676405	326.9	18.3	-67.9	0.0
2026-01-13 18:59:37.929894	327.1	18.1	-67.7	0.0
2026-01-13 18:59:40.184686	327.3	17.8	-68.2	0.0
2026-01-13 18:59:42.439679	327.6	17.6	-68.3	0.0
2026-01-13 18:59:44.693711	327.8	17.3	-65.9	0.0
2026-01-13 18:59:46.946223	328.0	17.1	-65.5	0.0
2026-01-13 18:59:49.198861	328.3	16.9	-66.7	0.0
2026-01-13 18:59:51.454044	328.5	16.6	-66.8	0.0
2026-01-13 18:59:53.707934	328.7	16.4	-65.2	0.0
2026-01-13 18:59:55.961815	328.9	16.2	-64.6	0.0
2026-01-13 18:59:58.213712	329.1	15.9	-64.3	0.0
2026-01-13 19:00:00.466029	329.3	15.7	-64.6	0.0
2026-01-13 19:00:02.719097	329.6	15.5	-63.1	0.0
2026-01-13 19:00:04.969996	329.8	15.3	-63.4	0.0
2026-01-13 19:00:07.221072	330.0	15.1	-63.3	0.0
2026-01-13 19:00:09.473315	330.2	14.8	-63.3	0.0
2026-01-13 19:00:11.726059	330.4	14.6	-63.7	0.0
2026-01-13 19:00:13.979167	330.5	14.4	-62.9	0.0
2026-01-13 19:00:16.229895	330.7	14.2	-63.2	0.0
2026-01-13 19:00:18.486130	330.9	14.0	-63.6	0.0
2026-01-13 19:00:20.737411	331.1	13.8	-62.9	0.0
2026-01-13 19:00:22.990099	331.3	13.6	-60.9	0.0
2026-01-13 19:00:25.241714	331.5	13.4	-63.9	0.0
2026-01-13 19:00:27.495268	331.6	13.2	-61.5	0.0
2026-01-13 19:00:29.748743	331.8	12.9	-61.5	0.0
2026-01-13 19:00:32.003408	332.0	12.7	-63.0	0.0
2026-01-13 19:00:34.254230	332.2	12.5	-62.8	0.0
2026-01-13 19:00:36.507089	332.3	12.3	-63.6	0.0
2026-01-13 19:00:38.760502	332.5	12.1	-65.5	0.0
2026-01-13 19:00:41.013484	332.7	11.9	-63.4	0.0
2026-01-13 19:00:43.269173	332.8	11.8	-65.3	0.0
2026-01-13 19:00:45.525414	333.0	11.6	-65.4	0.0
2026-01-13 19:00:47.780316	333.1	11.4	-66.1	0.0
2026-01-13 19:00:50.032965	333.3	11.2	-66.9	0.0
2026-01-13 19:00:52.284804	333.5	11.0	-66.8	0.0
2026-01-13 19:00:54.536794	333.6	10.8	-64.5	0.0
2026-01-13 19:00:56.791681	333.8	10.6	-68.2	0.0
2026-01-13 19:00:59.042851	333.9	10.4	-69.9	0.0
2026-01-13 19:01:01.296868	334.1	10.2	-73.9	0.0
2026-01-13 19:01:03.548959	334.2	10.1	-72.8	0.0
#Closed at: 2026-01-13 18:50:43.613340