passes_logs/2026/01/13/planumMaritime01/planumMaritime01__20260113_181149_METOP-B_rec.log

#Pass ID: 20260113_181149_METOP-B
#Satellite: METOP-B
#Configuration: METOP-B
#Start time: 2026-01-13 18:11:54.315123

#LorettStation: 1.0.0 05.05.2024
#Station: planumMaritime01
#Location: 37.49445 lon 55.92918 lat
#TLE: 1 38771U 12049A   26012.90633838  .00000094  00000+0  63105-4 0  9994
#TLE: 2 38771  98.6755  67.3301 0003319  81.0772 279.0781 14.21421823691209

#Time	Az	El	Level	SNR
2026-01-13 18:11:56.485444	185.1	10.2	-73.3	0.0
2026-01-13 18:11:58.738805	185.2	10.4	-72.7	0.0
2026-01-13 18:12:00.995778	185.3	10.6	-72.0	0.0
2026-01-13 18:12:03.248291	185.4	10.8	-71.9	0.0
2026-01-13 18:12:05.500515	185.6	11.0	-71.6	0.0
2026-01-13 18:12:07.755224	185.7	11.1	-70.6	0.0
2026-01-13 18:12:10.008275	185.8	11.3	-70.9	0.0
2026-01-13 18:12:12.262111	186.0	11.5	-71.4	0.0
2026-01-13 18:12:14.516965	186.1	11.7	-71.3	0.0
2026-01-13 18:12:16.767637	186.2	11.9	-71.3	0.0
2026-01-13 18:12:19.021406	186.4	12.2	-71.9	0.0
2026-01-13 18:12:21.273936	186.5	12.4	-71.9	0.0
2026-01-13 18:12:23.526856	186.7	12.6	-71.1	0.0
2026-01-13 18:12:25.779794	186.8	12.8	-71.1	0.0
2026-01-13 18:12:28.033642	187.0	13.0	-70.1	0.0
2026-01-13 18:12:30.286393	187.1	13.2	-70.5	0.0
2026-01-13 18:12:32.539250	187.3	13.4	-71.5	0.0
2026-01-13 18:12:34.791073	187.4	13.6	-70.8	0.0
2026-01-13 18:12:37.044070	187.6	13.8	-71.4	0.0
2026-01-13 18:12:39.297899	187.7	14.1	-70.9	0.0
2026-01-13 18:12:41.550347	187.9	14.3	-70.7	0.0
2026-01-13 18:12:43.801337	188.0	14.5	-71.5	1.0
2026-01-13 18:12:46.054825	188.2	14.7	-70.9	0.3
2026-01-13 18:12:48.307845	188.4	15.0	-70.7	0.0
2026-01-13 18:12:50.557409	188.6	15.2	-71.2	0.0
2026-01-13 18:12:52.807535	188.7	15.4	-71.4	0.0
2026-01-13 18:12:55.058348	188.9	15.6	-71.7	0.0
2026-01-13 18:12:57.310899	189.1	15.9	-71.2	0.0
2026-01-13 18:12:59.560733	189.3	16.1	-71.4	0.0
2026-01-13 18:13:01.814943	189.4	16.4	-71.5	0.0
2026-01-13 18:13:04.066063	189.6	16.6	-71.8	0.0
2026-01-13 18:13:06.316491	189.8	16.8	-72.2	0.0
2026-01-13 18:13:08.572803	190.0	17.1	-70.9	0.0
2026-01-13 18:13:10.828325	190.2	17.3	-71.0	0.0
2026-01-13 18:13:13.081463	190.4	17.6	-71.5	0.0
2026-01-13 18:13:15.334689	190.6	17.8	-70.0	0.0
2026-01-13 18:13:17.590121	190.8	18.1	-71.4	0.0
2026-01-13 18:13:19.841647	191.0	18.3	-70.2	0.0
2026-01-13 18:13:22.094170	191.2	18.6	-70.1	0.0
2026-01-13 18:13:24.346523	191.4	18.9	-69.6	0.0
2026-01-13 18:13:26.597204	191.7	19.1	-69.6	0.0
2026-01-13 18:13:28.849930	191.9	19.4	-69.8	0.0
2026-01-13 18:13:31.103126	192.1	19.7	-69.3	0.0
2026-01-13 18:13:33.356351	192.3	19.9	-69.4	0.0
2026-01-13 18:13:35.608655	192.6	20.2	-69.8	0.0
2026-01-13 18:13:37.858106	192.8	20.5	-69.8	0.0
2026-01-13 18:13:40.111030	193.0	20.8	-69.8	0.0
2026-01-13 18:13:42.360600	193.3	21.0	-69.5	0.0
2026-01-13 18:13:44.612767	193.5	21.3	-69.4	0.0
2026-01-13 18:13:46.866024	193.8	21.6	-69.0	0.0
2026-01-13 18:13:49.117153	194.1	21.9	-70.1	0.0
2026-01-13 18:13:51.369880	194.3	22.2	-70.8	0.0
2026-01-13 18:13:53.623766	194.6	22.5	-69.3	0.0
2026-01-13 18:13:55.874192	194.9	22.8	-69.8	0.0
2026-01-13 18:13:58.126323	195.1	23.1	-69.5	0.0
2026-01-13 18:14:00.378711	195.4	23.4	-70.7	0.0
2026-01-13 18:14:02.630504	195.7	23.7	-68.7	0.0
2026-01-13 18:14:04.881663	196.0	24.0	-69.5	0.9
2026-01-13 18:14:07.136304	196.3	24.3	-69.1	0.0
2026-01-13 18:14:09.388095	196.6	24.6	-69.1	0.0
2026-01-13 18:14:11.641971	196.9	24.9	-69.6	0.0
2026-01-13 18:14:13.895180	197.3	25.3	-69.5	0.0
2026-01-13 18:14:16.145428	197.6	25.6	-69.1	0.0
2026-01-13 18:14:18.396646	197.9	25.9	-69.5	1.4
2026-01-13 18:14:20.648900	198.3	26.2	-70.3	0.0
2026-01-13 18:14:22.905483	198.6	26.6	-69.8	0.9
2026-01-13 18:14:25.154764	199.0	26.9	-70.4	1.4
2026-01-13 18:14:27.409792	199.3	27.2	-70.4	2.3
2026-01-13 18:14:29.662792	199.7	27.6	-71.1	1.5
2026-01-13 18:14:31.914501	200.1	27.9	-71.1	4.2
2026-01-13 18:14:34.171159	200.4	28.3	-70.9	2.7
2026-01-13 18:14:36.422785	200.8	28.6	-71.0	5.2
2026-01-13 18:14:38.673433	201.2	29.0	-71.5	6.5
2026-01-13 18:14:40.923686	201.6	29.3	-71.5	5.3
2026-01-13 18:14:43.175966	202.1	29.7	-71.1	4.4
2026-01-13 18:14:45.428788	202.5	30.1	-71.6	2.6
2026-01-13 18:14:47.680731	202.9	30.4	-72.2	3.4
2026-01-13 18:14:49.934314	203.4	30.8	-72.4	5.2
2026-01-13 18:14:52.188301	203.8	31.2	-72.5	7.7
2026-01-13 18:14:54.440785	204.3	31.5	-72.6	7.4
2026-01-13 18:14:56.691926	204.8	31.9	-72.9	7.6
2026-01-13 18:14:58.947105	205.3	32.3	-73.5	9.3
2026-01-13 18:15:01.200513	205.8	32.7	-73.1	8.9
2026-01-13 18:15:03.451831	206.3	33.1	-73.0	8.5
2026-01-13 18:15:05.704805	206.8	33.4	-72.8	9.3
2026-01-13 18:15:07.955679	207.3	33.8	-73.3	9.4
2026-01-13 18:15:10.209041	207.9	34.2	-73.5	10.0
2026-01-13 18:15:12.459096	208.5	34.6	-73.5	9.6
2026-01-13 18:15:14.710057	209.0	35.0	-73.4	10.4
2026-01-13 18:15:16.964080	209.6	35.4	-73.6	10.9
2026-01-13 18:15:19.217819	210.2	35.8	-73.8	11.6
2026-01-13 18:15:21.470474	210.9	36.2	-73.8	11.4
2026-01-13 18:15:23.723036	211.5	36.6	-73.5	11.6
2026-01-13 18:15:25.974776	212.1	37.0	-73.8	11.7
2026-01-13 18:15:28.225553	212.8	37.4	-73.6	12.2
2026-01-13 18:15:30.478017	213.5	37.8	-73.5	11.9
2026-01-13 18:15:32.731498	214.2	38.2	-73.1	11.8
2026-01-13 18:15:34.984293	214.9	38.6	-73.2	11.4
2026-01-13 18:15:37.236421	215.6	39.0	-73.2	10.9
2026-01-13 18:15:39.488334	216.4	39.4	-73.2	11.5
2026-01-13 18:15:41.739802	217.2	39.8	-73.3	11.1
2026-01-13 18:15:43.993927	218.0	40.2	-73.2	11.0
2026-01-13 18:15:46.248152	218.8	40.6	-73.0	11.1
2026-01-13 18:15:48.498505	219.6	41.0	-73.3	10.7
2026-01-13 18:15:50.749664	220.5	41.4	-73.1	11.0
2026-01-13 18:15:53.002479	221.3	41.8	-73.2	10.6
2026-01-13 18:15:55.252394	222.2	42.2	-73.1	8.7
2026-01-13 18:15:57.503907	223.1	42.6	-73.4	10.5
2026-01-13 18:15:59.754831	224.1	43.0	-72.9	9.8
2026-01-13 18:16:02.006813	225.0	43.4	-72.8	10.0
2026-01-13 18:16:04.258931	226.0	43.7	-72.7	10.3
2026-01-13 18:16:06.510118	227.0	44.1	-72.9	10.0
2026-01-13 18:16:08.761663	228.0	44.5	-73.0	11.1
2026-01-13 18:16:11.013544	229.1	44.8	-72.6	11.1
2026-01-13 18:16:13.268967	230.2	45.1	-72.0	10.4
2026-01-13 18:16:15.520214	231.2	45.5	-72.5	11.9
2026-01-13 18:16:17.774162	232.4	45.8	-72.0	10.1
2026-01-13 18:16:20.024971	233.5	46.1	-72.3	11.1
2026-01-13 18:16:22.279467	234.7	46.4	-72.4	10.6
2026-01-13 18:16:24.528616	235.9	46.7	-72.5	11.2
2026-01-13 18:16:26.780721	237.1	47.0	-72.8	11.8
2026-01-13 18:16:29.033960	238.3	47.3	-72.6	10.5
2026-01-13 18:16:31.284442	239.5	47.6	-72.8	11.5
2026-01-13 18:16:33.534461	240.8	47.8	-72.3	10.5
2026-01-13 18:16:35.786940	242.1	48.0	-72.7	10.0
2026-01-13 18:16:38.041044	243.4	48.3	-72.7	9.6
2026-01-13 18:16:40.293951	244.7	48.5	-72.5	10.4
2026-01-13 18:16:42.548145	246.1	48.6	-72.3	11.1
2026-01-13 18:16:44.801802	247.4	48.8	-71.7	9.7
2026-01-13 18:16:47.055505	248.8	49.0	-71.9	9.2
2026-01-13 18:16:49.306610	250.2	49.1	-72.1	9.2
2026-01-13 18:16:51.557664	251.6	49.2	-72.9	10.1
2026-01-13 18:16:53.811565	253.0	49.3	-72.1	8.4
2026-01-13 18:16:56.066785	254.4	49.4	-72.3	9.9
2026-01-13 18:16:58.319494	255.8	49.5	-72.2	9.4
2026-01-13 18:17:00.571318	257.3	49.5	-72.0	8.9
2026-01-13 18:17:02.821989	258.7	49.6	-71.4	7.7
2026-01-13 18:17:05.074537	260.1	49.6	-72.0	7.5
2026-01-13 18:17:07.327501	261.6	49.6	-71.7	8.9
2026-01-13 18:17:09.577704	263.0	49.6	-71.3	7.7
2026-01-13 18:17:11.830598	264.4	49.5	-71.1	9.0
2026-01-13 18:17:14.081294	265.9	49.4	-70.3	4.7
2026-01-13 18:17:16.333742	267.3	49.4	-69.8	7.8
2026-01-13 18:17:18.586865	268.7	49.3	-69.8	4.9
2026-01-13 18:17:20.839770	270.1	49.2	-69.7	5.1
2026-01-13 18:17:23.092951	271.5	49.0	-69.8	5.9
2026-01-13 18:17:25.344945	272.9	48.9	-68.9	5.4
2026-01-13 18:17:27.595678	274.2	48.7	-70.9	6.7
2026-01-13 18:17:29.845431	275.6	48.5	-71.0	6.8
2026-01-13 18:17:32.096110	276.9	48.3	-70.6	6.6
2026-01-13 18:17:34.347898	278.2	48.1	-71.2	8.5
2026-01-13 18:17:36.597623	279.5	47.9	-69.5	8.0
2026-01-13 18:17:38.848725	280.8	47.6	-68.4	3.8
2026-01-13 18:17:41.103012	282.0	47.4	-67.9	0.0
2026-01-13 18:17:43.355164	283.2	47.1	-68.8	6.3
2026-01-13 18:17:45.608770	284.5	46.8	-69.7	6.2
2026-01-13 18:17:47.861242	285.6	46.5	-69.8	3.0
2026-01-13 18:17:50.115104	286.8	46.2	-68.9	1.9
2026-01-13 18:17:52.369600	288.0	45.9	-67.2	0.0
2026-01-13 18:17:54.623002	289.1	45.6	-66.9	0.0
2026-01-13 18:17:56.875970	290.2	45.3	-66.5	1.8
2026-01-13 18:17:59.128588	291.3	44.9	-68.2	0.0
2026-01-13 18:18:01.377430	292.3	44.6	-67.3	1.2
2026-01-13 18:18:03.630048	293.3	44.2	-67.6	1.4
2026-01-13 18:18:05.880780	294.3	43.8	-69.0	5.7
2026-01-13 18:18:08.133888	295.3	43.5	-68.4	0.0
2026-01-13 18:18:10.386055	296.3	43.1	-66.7	0.0
2026-01-13 18:18:12.638315	297.2	42.7	-66.8	0.0
2026-01-13 18:18:14.891131	298.2	42.3	-66.8	0.0
2026-01-13 18:18:17.144570	299.0	42.0	-70.0	4.1
2026-01-13 18:18:19.398005	299.9	41.6	-68.3	0.0
2026-01-13 18:18:21.652551	300.8	41.2	-68.5	0.9
2026-01-13 18:18:23.906143	301.6	40.8	-70.8	5.0
2026-01-13 18:18:26.157462	302.4	40.4	-72.0	6.6
2026-01-13 18:18:28.408509	303.2	40.0	-70.2	0.0
2026-01-13 18:18:30.659735	304.0	39.6	-70.2	2.6
2026-01-13 18:18:32.913321	304.8	39.2	-69.3	0.0
2026-01-13 18:18:35.165534	305.5	38.8	-70.3	4.9
2026-01-13 18:18:37.417871	306.2	38.4	-69.2	5.8
2026-01-13 18:18:39.667769	306.9	38.0	-69.1	4.0
2026-01-13 18:18:41.920514	307.6	37.6	-69.7	4.9
2026-01-13 18:18:44.174208	308.3	37.2	-70.8	9.2
2026-01-13 18:18:46.427400	308.9	36.8	-69.2	6.2
2026-01-13 18:18:48.679024	309.6	36.4	-67.8	0.0
2026-01-13 18:18:50.930733	310.2	36.0	-70.1	3.6
2026-01-13 18:18:53.182497	310.8	35.6	-70.9	7.1
2026-01-13 18:18:55.437157	311.4	35.2	-71.7	7.4
2026-01-13 18:18:57.691042	312.0	34.8	-69.1	1.3
2026-01-13 18:18:59.943800	312.5	34.4	-70.3	3.9
2026-01-13 18:19:02.196722	313.1	34.0	-69.5	1.6
2026-01-13 18:19:04.448579	313.6	33.6	-69.4	0.8
2026-01-13 18:19:06.700254	314.2	33.2	-68.5	2.6
2026-01-13 18:19:08.953495	314.7	32.9	-71.0	4.8
2026-01-13 18:19:11.203923	315.2	32.5	-68.6	0.8
2026-01-13 18:19:13.458593	315.7	32.1	-68.9	0.7
2026-01-13 18:19:15.711391	316.2	31.7	-69.3	1.1
2026-01-13 18:19:17.964172	316.6	31.4	-67.2	0.0
2026-01-13 18:19:20.219005	317.1	31.0	-68.4	0.0
2026-01-13 18:19:22.473968	317.5	30.6	-68.3	1.1
2026-01-13 18:19:24.726893	318.0	30.2	-68.0	0.4
2026-01-13 18:19:26.981693	318.4	29.9	-67.9	0.0
2026-01-13 18:19:29.234694	318.8	29.5	-68.0	0.0
2026-01-13 18:19:31.488721	319.2	29.2	-66.8	0.0
2026-01-13 18:19:33.742094	319.6	28.8	-67.6	0.0
2026-01-13 18:19:35.999065	320.0	28.5	-66.8	0.0
2026-01-13 18:19:38.253960	320.4	28.1	-65.1	0.0
2026-01-13 18:19:40.506714	320.8	27.8	-66.4	0.0
2026-01-13 18:19:42.762567	321.2	27.4	-64.8	0.0
2026-01-13 18:19:45.017409	321.5	27.1	-68.0	0.0
2026-01-13 18:19:47.271663	321.9	26.8	-66.6	0.0
2026-01-13 18:19:49.523967	322.2	26.4	-68.2	0.0
2026-01-13 18:19:51.778786	322.6	26.1	-66.9	0.0
2026-01-13 18:19:54.032524	322.9	25.8	-67.2	0.0
2026-01-13 18:19:56.285725	323.3	25.5	-68.2	0.0
2026-01-13 18:19:58.538286	323.6	25.1	-66.9	0.0
2026-01-13 18:20:00.792404	323.9	24.8	-67.7	0.0
2026-01-13 18:20:03.048333	324.2	24.5	-64.8	0.0
2026-01-13 18:20:05.299619	324.5	24.2	-66.3	0.0
2026-01-13 18:20:07.550592	324.8	23.9	-67.0	0.0
2026-01-13 18:20:09.806556	325.1	23.6	-67.1	0.0
2026-01-13 18:20:12.060217	325.4	23.3	-66.9	0.0
2026-01-13 18:20:14.314129	325.7	23.0	-66.7	0.0
2026-01-13 18:20:16.566952	325.9	22.7	-66.5	0.0
2026-01-13 18:20:18.822830	326.2	22.4	-65.7	0.0
2026-01-13 18:20:21.077429	326.5	22.1	-65.6	0.0
2026-01-13 18:20:23.330624	326.7	21.8	-65.7	0.0
2026-01-13 18:20:25.582958	327.0	21.5	-67.9	0.0
2026-01-13 18:20:27.836985	327.2	21.2	-66.2	0.0
2026-01-13 18:20:30.091789	327.5	21.0	-67.2	0.0
2026-01-13 18:20:32.345580	327.7	20.7	-66.0	0.0
2026-01-13 18:20:34.600229	328.0	20.4	-67.9	0.0
2026-01-13 18:20:36.854195	328.2	20.1	-67.3	0.0
2026-01-13 18:20:39.110435	328.4	19.9	-66.3	0.0
2026-01-13 18:20:41.365108	328.7	19.6	-68.2	0.0
2026-01-13 18:20:43.619806	328.9	19.3	-65.4	0.0
2026-01-13 18:20:45.871642	329.1	19.1	-65.6	0.0
2026-01-13 18:20:48.125501	329.3	18.8	-65.4	0.0
2026-01-13 18:20:50.379203	329.5	18.6	-65.4	0.0
2026-01-13 18:20:52.631953	329.8	18.3	-65.3	0.0
2026-01-13 18:20:54.882840	330.0	18.0	-64.9	0.0
2026-01-13 18:20:57.137568	330.2	17.8	-64.4	0.0
2026-01-13 18:20:59.392430	330.4	17.5	-64.1	0.0
2026-01-13 18:21:01.645523	330.6	17.3	-64.7	0.0
2026-01-13 18:21:03.899227	330.8	17.1	-63.2	0.0
2026-01-13 18:21:06.152884	330.9	16.8	-62.8	0.0
2026-01-13 18:21:08.405622	331.1	16.6	-66.2	0.0
2026-01-13 18:21:10.662588	331.3	16.3	-64.8	0.0
2026-01-13 18:21:12.915430	331.5	16.1	-63.6	0.0
2026-01-13 18:21:15.168193	331.7	15.9	-64.8	0.0
2026-01-13 18:21:17.421977	331.9	15.6	-63.7	0.0
2026-01-13 18:21:19.674566	332.0	15.4	-61.8	0.0
2026-01-13 18:21:21.927550	332.2	15.2	-61.4	0.0
2026-01-13 18:21:24.179500	332.4	15.0	-64.3	0.0
2026-01-13 18:21:26.431262	332.5	14.7	-63.5	0.0
2026-01-13 18:21:28.685164	332.7	14.5	-64.7	0.0
2026-01-13 18:21:30.940976	332.9	14.3	-59.8	0.0
2026-01-13 18:21:33.193775	333.0	14.1	-62.9	0.0
2026-01-13 18:21:35.445573	333.2	13.9	-65.4	0.0
2026-01-13 18:21:37.701498	333.3	13.6	-62.6	0.0
2026-01-13 18:21:39.952166	333.5	13.4	-62.6	0.0
2026-01-13 18:21:42.206633	333.7	13.2	-64.4	0.0
2026-01-13 18:21:44.458701	333.8	13.0	-64.8	0.0
2026-01-13 18:21:46.711284	334.0	12.8	-65.7	0.0
2026-01-13 18:21:48.964622	334.1	12.6	-66.2	0.0
2026-01-13 18:21:51.216444	334.2	12.4	-65.5	0.0
2026-01-13 18:21:53.469098	334.4	12.2	-68.0	0.0
2026-01-13 18:21:55.720906	334.5	12.0	-70.0	0.0
2026-01-13 18:21:57.974583	334.7	11.8	-71.1	0.0
2026-01-13 18:22:00.227349	334.8	11.6	-67.4	0.0
2026-01-13 18:22:02.480885	334.9	11.4	-69.9	0.0
2026-01-13 18:22:04.732938	335.1	11.2	-71.0	0.0
2026-01-13 18:22:06.985772	335.2	11.0	-70.3	0.0
2026-01-13 18:22:09.238579	335.3	10.8	-64.9	0.0
2026-01-13 18:22:11.494395	335.5	10.6	-67.6	0.0
2026-01-13 18:22:13.748283	335.6	10.4	-70.5	0.0
2026-01-13 18:22:15.997560	335.7	10.2	-74.5	0.0
#Closed at: 2026-01-13 18:11:49.319366