passes_logs/2026/01/13/planumMaritime01/planumMaritime01__20260113_103045_METEOR-M2_4_rec.log

#Pass ID: 20260113_103045_METEOR-M2 4
#Satellite: METEOR-M2 4
#Configuration: METEOR-M2 4
#Start time: 2026-01-13 10:30:50.190495

#LorettStation: 1.0.0 05.05.2024
#Station: planumMaritime01
#Location: 37.49445 lon 55.92918 lat
#TLE: 1 59051U 24039A   26012.93756097  .00000021  00000+0  29173-4 0  9993
#TLE: 2 59051  98.6810 334.3643 0005973 258.1895 101.8613 14.22407037 97198

#Time	Az	El	Level	SNR
2026-01-13 10:30:52.358322	131.7	10.2	-81.8	0.0
2026-01-13 10:30:54.611828	131.5	10.4	-80.7	0.0
2026-01-13 10:30:56.865327	131.4	10.6	-77.5	0.0
2026-01-13 10:30:59.121697	131.2	10.7	-77.6	1.9
2026-01-13 10:31:01.374428	131.1	10.9	-77.3	1.3
2026-01-13 10:31:03.629335	130.9	11.1	-76.9	3.4
2026-01-13 10:31:05.883733	130.8	11.3	-77.5	0.0
2026-01-13 10:31:08.138231	130.7	11.5	-77.7	0.0
2026-01-13 10:31:10.390668	130.5	11.7	-76.9	0.0
2026-01-13 10:31:12.644303	130.3	11.9	-77.4	2.1
2026-01-13 10:31:14.904387	130.2	12.1	-77.8	2.0
2026-01-13 10:31:17.178910	130.0	12.3	-77.5	4.4
2026-01-13 10:31:19.452694	129.9	12.5	-78.0	7.1
2026-01-13 10:31:21.728178	129.7	12.7	-78.3	7.7
2026-01-13 10:31:24.004948	129.5	12.9	-78.2	7.9
2026-01-13 10:31:26.278437	129.4	13.2	-78.0	7.7
2026-01-13 10:31:28.554087	129.2	13.4	-78.2	7.8
2026-01-13 10:31:30.825117	129.0	13.6	-78.6	7.4
2026-01-13 10:31:33.095138	128.9	13.8	-78.3	6.5
2026-01-13 10:31:35.362720	128.7	14.0	-78.2	7.2
2026-01-13 10:31:37.631261	128.5	14.2	-78.3	6.8
2026-01-13 10:31:39.906760	128.3	14.5	-78.6	8.6
2026-01-13 10:31:42.179739	128.1	14.7	-78.6	8.1
2026-01-13 10:31:44.459788	127.9	14.9	-78.0	8.2
2026-01-13 10:31:46.731671	127.7	15.1	-77.7	6.7
2026-01-13 10:31:49.001970	127.6	15.3	-78.4	8.5
2026-01-13 10:31:51.272656	127.4	15.6	-77.3	6.6
2026-01-13 10:31:53.541190	127.2	15.8	-77.6	7.9
2026-01-13 10:31:55.809885	126.9	16.0	-77.5	6.9
2026-01-13 10:31:58.081919	126.7	16.3	-77.0	5.4
2026-01-13 10:32:00.346559	126.5	16.5	-76.8	6.6
2026-01-13 10:32:02.617202	126.3	16.7	-78.5	9.1
2026-01-13 10:32:04.886177	126.1	17.0	-77.2	6.9
2026-01-13 10:32:07.155805	125.9	17.2	-77.3	7.0
2026-01-13 10:32:09.425790	125.6	17.5	-77.1	7.0
2026-01-13 10:32:11.701325	125.4	17.7	-77.9	6.7
2026-01-13 10:32:13.976804	125.2	18.0	-77.0	7.6
2026-01-13 10:32:16.251916	124.9	18.2	-76.9	6.9
2026-01-13 10:32:18.525165	124.7	18.5	-77.5	7.5
2026-01-13 10:32:20.794894	124.5	18.7	-77.1	5.6
2026-01-13 10:32:23.060376	124.2	19.0	-77.3	6.7
2026-01-13 10:32:25.322103	124.0	19.2	-77.6	7.6
2026-01-13 10:32:27.584636	123.7	19.5	-77.8	7.7
2026-01-13 10:32:29.850818	123.4	19.7	-78.3	9.4
2026-01-13 10:32:32.121721	123.2	20.0	-77.4	7.3
2026-01-13 10:32:34.391416	122.9	20.3	-77.6	8.1
2026-01-13 10:32:36.664248	122.6	20.5	-78.1	8.2
2026-01-13 10:32:38.928125	122.3	20.8	-78.0	8.7
2026-01-13 10:32:41.195872	122.1	21.1	-78.1	8.1
2026-01-13 10:32:43.471313	121.8	21.4	-78.0	9.1
2026-01-13 10:32:45.745688	121.5	21.6	-77.6	8.6
2026-01-13 10:32:48.021002	121.2	21.9	-77.6	9.2
2026-01-13 10:32:50.293239	120.8	22.2	-77.8	10.3
2026-01-13 10:32:52.569136	120.5	22.5	-77.8	10.5
2026-01-13 10:32:54.843331	120.2	22.8	-77.9	10.1
2026-01-13 10:32:57.102490	119.9	23.0	-78.0	10.4
2026-01-13 10:32:59.356595	119.6	23.3	-77.8	9.7
2026-01-13 10:33:01.608606	119.2	23.6	-78.0	10.3
2026-01-13 10:33:03.864100	118.9	23.9	-77.7	9.2
2026-01-13 10:33:06.119449	118.5	24.2	-78.4	9.4
2026-01-13 10:33:08.370879	118.2	24.5	-77.6	10.0
2026-01-13 10:33:10.624943	117.8	24.8	-77.9	9.3
2026-01-13 10:33:12.881281	117.4	25.1	-77.6	8.2
2026-01-13 10:33:15.138264	117.1	25.4	-78.2	9.3
2026-01-13 10:33:17.394446	116.7	25.7	-78.0	9.7
2026-01-13 10:33:19.651566	116.3	26.0	-77.6	10.5
2026-01-13 10:33:21.916298	115.9	26.3	-78.0	10.4
2026-01-13 10:33:24.187701	115.5	26.6	-77.5	10.4
2026-01-13 10:33:26.461648	115.1	27.0	-77.3	10.4
2026-01-13 10:33:28.731405	114.6	27.3	-77.2	9.1
2026-01-13 10:33:30.998691	114.2	27.6	-77.4	10.6
2026-01-13 10:33:33.272675	113.7	27.9	-77.7	10.4
2026-01-13 10:33:35.549145	113.3	28.2	-77.3	9.1
2026-01-13 10:33:37.817707	112.8	28.6	-77.3	10.5
2026-01-13 10:33:40.082623	112.4	28.9	-77.8	10.4
2026-01-13 10:33:42.355160	111.9	29.2	-77.4	8.9
2026-01-13 10:33:44.626201	111.4	29.5	-77.1	11.3
2026-01-13 10:33:46.899208	110.9	29.9	-77.1	10.8
2026-01-13 10:33:49.166172	110.4	30.2	-76.7	9.8
2026-01-13 10:33:51.436502	109.8	30.5	-75.8	6.7
2026-01-13 10:33:53.705829	109.3	30.9	-76.8	11.0
2026-01-13 10:33:55.977802	108.7	31.2	-77.0	9.2
2026-01-13 10:33:58.252358	108.2	31.5	-77.0	10.0
2026-01-13 10:34:00.529405	107.6	31.9	-77.6	9.1
2026-01-13 10:34:02.803741	107.0	32.2	-77.1	8.4
2026-01-13 10:34:05.077285	106.4	32.6	-77.4	8.8
2026-01-13 10:34:07.353662	105.8	32.9	-77.6	10.0
2026-01-13 10:34:09.625672	105.2	33.2	-77.2	8.7
2026-01-13 10:34:11.901303	104.6	33.6	-77.2	9.4
2026-01-13 10:34:14.177240	103.9	33.9	-77.4	10.7
2026-01-13 10:34:16.452122	103.3	34.2	-77.3	10.1
2026-01-13 10:34:18.727101	102.6	34.6	-77.1	8.1
2026-01-13 10:34:21.000020	101.9	34.9	-77.1	7.3
2026-01-13 10:34:23.272436	101.2	35.3	-77.4	7.9
2026-01-13 10:34:25.544262	100.5	35.6	-77.4	8.1
2026-01-13 10:34:27.813118	99.7	35.9	-76.3	5.4
2026-01-13 10:34:30.081503	99.0	36.2	-76.9	8.7
2026-01-13 10:34:32.346224	98.2	36.6	-76.5	4.5
2026-01-13 10:34:34.611687	97.5	36.9	-75.7	5.0
2026-01-13 10:34:36.882286	96.7	37.2	-76.9	7.2
2026-01-13 10:34:39.148054	95.9	37.5	-75.6	5.9
2026-01-13 10:34:41.416221	95.0	37.8	-75.0	4.0
2026-01-13 10:34:43.685502	94.2	38.1	-75.6	7.7
2026-01-13 10:34:45.946502	93.3	38.4	-74.4	1.8
2026-01-13 10:34:48.213523	92.5	38.7	-74.0	0.0
2026-01-13 10:34:50.479762	91.6	39.0	-74.5	2.6
2026-01-13 10:34:52.747943	90.7	39.3	-76.2	1.9
2026-01-13 10:34:55.013925	89.8	39.6	-75.5	3.7
2026-01-13 10:34:57.282587	88.8	39.9	-74.1	2.6
2026-01-13 10:34:59.547057	87.9	40.2	-74.0	0.0
2026-01-13 10:35:01.813188	86.9	40.4	-74.0	0.0
2026-01-13 10:35:04.068387	85.9	40.7	-75.1	0.0
2026-01-13 10:35:06.324044	84.9	40.9	-75.5	4.4
2026-01-13 10:35:08.577210	83.9	41.2	-75.9	2.5
2026-01-13 10:35:10.833860	82.9	41.4	-76.5	4.1
2026-01-13 10:35:13.088458	81.9	41.6	-75.6	4.9
2026-01-13 10:35:15.343516	80.8	41.8	-74.8	1.6
2026-01-13 10:35:17.599230	79.8	42.0	-75.6	1.5
2026-01-13 10:35:19.855811	78.7	42.2	-75.4	2.9
2026-01-13 10:35:22.111318	77.6	42.4	-75.9	0.9
2026-01-13 10:35:24.363961	76.5	42.6	-75.3	2.1
2026-01-13 10:35:26.619917	75.4	42.7	-75.4	1.5
2026-01-13 10:35:28.885835	74.3	42.9	-75.5	3.5
2026-01-13 10:35:31.153394	73.1	43.0	-75.3	1.7
2026-01-13 10:35:33.421305	72.0	43.1	-75.4	3.1
2026-01-13 10:35:35.686753	70.8	43.2	-76.0	3.6
2026-01-13 10:35:37.955118	69.7	43.3	-75.4	2.9
2026-01-13 10:35:40.224065	68.5	43.4	-75.7	0.0
2026-01-13 10:35:42.492809	67.3	43.5	-75.5	3.1
2026-01-13 10:35:44.765083	66.1	43.5	-75.5	0.1
2026-01-13 10:35:47.040342	64.9	43.6	-75.8	3.6
2026-01-13 10:35:49.310031	63.8	43.6	-75.6	4.4
2026-01-13 10:35:51.578347	62.6	43.6	-75.4	0.9
2026-01-13 10:35:53.845071	61.4	43.6	-74.7	0.0
2026-01-13 10:35:56.115404	60.2	43.6	-73.6	0.0
2026-01-13 10:35:58.386420	59.0	43.6	-74.5	0.8
2026-01-13 10:36:00.654150	57.8	43.5	-76.0	4.1
2026-01-13 10:36:02.925871	56.6	43.5	-74.0	0.0
2026-01-13 10:36:05.198732	55.5	43.4	-73.9	0.0
2026-01-13 10:36:07.470231	54.3	43.3	-75.3	1.9
2026-01-13 10:36:09.742017	53.1	43.3	-75.6	0.7
2026-01-13 10:36:12.015508	52.0	43.1	-75.9	1.8
2026-01-13 10:36:14.286806	50.8	43.0	-75.1	1.5
2026-01-13 10:36:16.560064	49.7	42.9	-76.5	3.0
2026-01-13 10:36:18.830095	48.5	42.7	-75.6	1.9
2026-01-13 10:36:21.101369	47.4	42.6	-75.2	1.5
2026-01-13 10:36:23.373686	46.3	42.4	-76.8	3.5
2026-01-13 10:36:25.641120	45.2	42.2	-75.3	2.0
2026-01-13 10:36:27.911394	44.1	42.1	-76.4	1.7
2026-01-13 10:36:30.182578	43.1	41.9	-77.3	0.2
2026-01-13 10:36:32.451978	42.0	41.7	-76.8	4.5
2026-01-13 10:36:34.721197	41.0	41.4	-77.5	5.5
2026-01-13 10:36:36.981651	39.9	41.2	-75.5	1.0
2026-01-13 10:36:39.245255	38.9	41.0	-76.4	2.1
2026-01-13 10:36:41.509424	37.9	40.7	-73.9	0.0
2026-01-13 10:36:43.771098	36.9	40.5	-74.2	0.0
2026-01-13 10:36:46.029826	36.0	40.2	-75.6	0.1
2026-01-13 10:36:48.289322	35.0	39.9	-74.8	0.0
2026-01-13 10:36:50.550040	34.1	39.7	-74.0	0.0
2026-01-13 10:36:52.814990	33.2	39.4	-75.8	0.9
2026-01-13 10:36:55.086842	32.3	39.1	-74.2	0.0
2026-01-13 10:36:57.359147	31.4	38.8	-74.9	2.6
2026-01-13 10:36:59.628965	30.5	38.5	-73.9	0.0
2026-01-13 10:37:01.898344	29.7	38.2	-73.1	0.0
2026-01-13 10:37:04.169136	28.8	37.9	-74.4	1.5
2026-01-13 10:37:06.440866	28.0	37.6	-75.2	0.0
2026-01-13 10:37:08.708237	27.2	37.3	-74.1	0.0
2026-01-13 10:37:10.962417	26.4	37.0	-74.6	0.0
2026-01-13 10:37:13.217178	25.6	36.6	-73.4	0.0
2026-01-13 10:37:15.473970	24.9	36.3	-72.7	0.0
2026-01-13 10:37:17.731165	24.1	36.0	-72.7	0.0
2026-01-13 10:37:19.982869	23.4	35.7	-70.7	0.0
2026-01-13 10:37:22.234953	22.7	35.3	-72.0	0.0
2026-01-13 10:37:24.490871	22.0	35.0	-70.9	0.0
2026-01-13 10:37:26.744044	21.3	34.7	-72.4	0.0
2026-01-13 10:37:28.999066	20.6	34.4	-71.4	0.0
2026-01-13 10:37:31.256801	20.0	34.0	-71.1	0.0
2026-01-13 10:37:33.510744	19.3	33.7	-69.5	0.0
2026-01-13 10:37:35.786807	18.7	33.4	-69.5	0.0
2026-01-13 10:37:38.060264	18.1	33.0	-68.7	0.0
2026-01-13 10:37:40.336319	17.5	32.7	-69.9	0.0
2026-01-13 10:37:42.611513	16.9	32.3	-69.6	0.0
2026-01-13 10:37:44.885510	16.3	32.0	-69.6	0.0
2026-01-13 10:37:47.158748	15.7	31.7	-70.6	0.0
2026-01-13 10:37:49.433506	15.2	31.3	-70.3	0.0
2026-01-13 10:37:51.701396	14.6	31.0	-69.1	0.0
2026-01-13 10:37:53.962852	14.1	30.7	-70.9	0.0
2026-01-13 10:37:56.223112	13.6	30.3	-70.9	0.0
2026-01-13 10:37:58.482177	13.0	30.0	-69.7	0.0
2026-01-13 10:38:00.738837	12.5	29.7	-69.8	0.0
2026-01-13 10:38:02.998304	12.0	29.4	-68.0	0.0
2026-01-13 10:38:05.260982	11.6	29.0	-70.4	0.0
2026-01-13 10:38:07.529773	11.1	28.7	-70.9	0.0
2026-01-13 10:38:09.791780	10.6	28.4	-70.4	0.0
2026-01-13 10:38:12.053436	10.2	28.1	-72.1	0.0
2026-01-13 10:38:14.311893	9.7	27.8	-68.7	0.0
2026-01-13 10:38:16.572208	9.3	27.4	-71.3	0.0
2026-01-13 10:38:18.832156	8.9	27.1	-71.7	0.0
2026-01-13 10:38:21.092178	8.5	26.8	-70.4	0.0
2026-01-13 10:38:23.353794	8.0	26.5	-70.9	0.0
2026-01-13 10:38:25.617692	7.6	26.2	-68.8	0.0
2026-01-13 10:38:27.886893	7.2	25.9	-70.9	0.0
2026-01-13 10:38:30.150062	6.9	25.6	-68.0	0.0
2026-01-13 10:38:32.406859	6.5	25.3	-69.8	0.0
2026-01-13 10:38:34.668448	6.1	25.0	-67.0	0.0
2026-01-13 10:38:36.925845	5.7	24.7	-69.6	0.0
2026-01-13 10:38:39.183119	5.4	24.4	-65.8	0.0
2026-01-13 10:38:41.440360	5.0	24.1	-63.7	0.0
2026-01-13 10:38:43.697849	4.7	23.8	-69.9	0.0
2026-01-13 10:38:45.959016	4.4	23.5	-69.5	0.0
2026-01-13 10:38:48.233998	4.0	23.2	-70.0	0.0
2026-01-13 10:38:50.506894	3.7	22.9	-68.5	0.0
2026-01-13 10:38:52.780490	3.4	22.6	-66.6	0.0
2026-01-13 10:38:55.056885	3.1	22.4	-64.7	0.0
2026-01-13 10:38:57.330255	2.8	22.1	-63.6	0.0
2026-01-13 10:38:59.604403	2.5	21.8	-67.3	0.0
2026-01-13 10:39:01.880367	2.2	21.5	-65.6	0.0
2026-01-13 10:39:04.154142	1.9	21.3	-70.0	0.0
2026-01-13 10:39:06.427845	1.6	21.0	-71.5	0.0
2026-01-13 10:39:08.693624	1.3	20.7	-71.3	0.0
2026-01-13 10:39:10.962308	1.0	20.4	-71.8	0.0
2026-01-13 10:39:13.227603	0.8	20.2	-70.0	0.0
2026-01-13 10:39:15.493122	0.5	19.9	-71.7	0.0
2026-01-13 10:39:17.762076	0.2	19.7	-69.9	0.0
2026-01-13 10:39:20.029936	360.0	19.4	-71.3	0.0
2026-01-13 10:39:22.295578	359.7	19.1	-71.2	0.0
2026-01-13 10:39:24.551239	359.5	18.9	-71.1	0.0
2026-01-13 10:39:26.805563	359.2	18.6	-68.8	0.0
2026-01-13 10:39:29.059957	359.0	18.4	-70.8	0.0
2026-01-13 10:39:31.320499	358.7	18.1	-72.0	0.0
2026-01-13 10:39:33.576805	358.5	17.9	-70.7	0.0
2026-01-13 10:39:35.826956	358.3	17.7	-72.1	0.0
2026-01-13 10:39:38.079021	358.1	17.4	-69.7	0.0
2026-01-13 10:39:40.334380	357.8	17.2	-71.5	0.0
2026-01-13 10:39:42.590534	357.6	16.9	-70.6	0.0
2026-01-13 10:39:44.845468	357.4	16.7	-72.7	0.0
2026-01-13 10:39:47.097986	357.2	16.5	-73.5	0.0
2026-01-13 10:39:49.356725	357.0	16.2	-72.0	0.0
2026-01-13 10:39:51.622410	356.8	16.0	-70.0	0.0
2026-01-13 10:39:53.888610	356.6	15.8	-72.8	0.0
2026-01-13 10:39:56.156712	356.4	15.6	-71.4	0.0
2026-01-13 10:39:58.426970	356.2	15.3	-70.7	0.0
2026-01-13 10:40:00.693084	356.0	15.1	-68.8	0.0
2026-01-13 10:40:02.961444	355.8	14.9	-74.3	0.0
2026-01-13 10:40:05.231212	355.6	14.7	-72.7	0.0
2026-01-13 10:40:07.495085	355.5	14.4	-73.5	0.0
2026-01-13 10:40:09.755342	355.3	14.2	-73.5	0.0
2026-01-13 10:40:12.019819	355.1	14.0	-73.3	0.0
2026-01-13 10:40:14.283421	354.9	13.8	-75.2	0.0
2026-01-13 10:40:16.551478	354.8	13.6	-74.4	0.0
2026-01-13 10:40:18.819225	354.6	13.4	-74.6	0.0
2026-01-13 10:40:21.088158	354.4	13.2	-72.9	0.0
2026-01-13 10:40:23.353217	354.3	13.0	-74.0	0.0
2026-01-13 10:40:25.622650	354.1	12.8	-74.0	0.0
2026-01-13 10:40:27.891670	353.9	12.5	-72.7	0.0
2026-01-13 10:40:30.165011	353.8	12.3	-74.7	0.0
2026-01-13 10:40:32.440128	353.6	12.1	-74.5	0.0
2026-01-13 10:40:34.714760	353.5	11.9	-74.5	0.0
2026-01-13 10:40:36.986850	353.3	11.7	-72.3	0.0
2026-01-13 10:40:39.253582	353.2	11.5	-74.3	0.0
2026-01-13 10:40:41.514202	353.0	11.3	-73.2	0.0
2026-01-13 10:40:43.773706	352.9	11.2	-72.5	0.0
2026-01-13 10:40:46.035015	352.7	11.0	-72.5	0.0
2026-01-13 10:40:48.295920	352.6	10.8	-73.3	0.0
2026-01-13 10:40:50.552772	352.5	10.6	-70.0	0.0
2026-01-13 10:40:52.810400	352.3	10.4	-70.5	0.0
2026-01-13 10:40:55.071650	352.2	10.2	-77.0	0.0
#Closed at: 2026-01-13 10:30:45.196545