passes_logs/2026/01/05/planumMaritime01/planumMaritime01__20260105_082606_METOP-C_rec.log

#Pass ID: 20260105_082606_METOP-C
#Satellite: METOP-C
#Configuration: METOP-C
#Start time: 2026-01-05 08:26:11.137164

#LorettStation: 1.0.0 05.05.2024
#Station: planumMaritime01
#Location: 37.49445 lon 55.92918 lat
#TLE: 1 43689U 18087A   26004.62757632  .00000231  00000+0  12556-3 0  9991
#TLE: 2 43689  98.6895  67.0425 0000107 306.6752  53.4416 14.21494733371594

#Time	Az	El	Level	SNR
2026-01-05 08:26:13.312325	9.9	10.2	-69.8	0.0
2026-01-05 08:26:15.567093	9.7	10.4	-66.3	0.0
2026-01-05 08:26:17.818013	9.6	10.6	-67.3	0.0
2026-01-05 08:26:20.068981	9.5	10.8	-66.3	0.0
2026-01-05 08:26:22.324439	9.4	11.0	-63.2	0.0
2026-01-05 08:26:24.575816	9.3	11.2	-65.6	0.0
2026-01-05 08:26:26.829368	9.2	11.4	-64.4	0.0
2026-01-05 08:26:29.082096	9.1	11.6	-61.5	0.0
2026-01-05 08:26:31.336106	9.0	11.8	-62.5	0.0
2026-01-05 08:26:33.589780	8.9	12.0	-63.9	0.0
2026-01-05 08:26:35.843670	8.8	12.2	-65.9	0.0
2026-01-05 08:26:38.095522	8.7	12.4	-64.9	0.0
2026-01-05 08:26:40.348829	8.5	12.6	-67.5	0.0
2026-01-05 08:26:42.600344	8.4	12.8	-66.7	0.0
2026-01-05 08:26:44.852694	8.3	13.0	-65.9	0.0
2026-01-05 08:26:47.105867	8.2	13.2	-64.5	0.0
2026-01-05 08:26:49.359314	8.0	13.4	-65.5	0.0
2026-01-05 08:26:51.609469	7.9	13.6	-62.3	0.0
2026-01-05 08:26:53.862039	7.8	13.9	-65.9	0.0
2026-01-05 08:26:56.114973	7.7	14.1	-65.5	0.0
2026-01-05 08:26:58.368313	7.5	14.3	-64.2	0.0
2026-01-05 08:27:00.620492	7.4	14.5	-63.7	0.0
2026-01-05 08:27:02.873867	7.2	14.8	-61.7	0.0
2026-01-05 08:27:05.126712	7.1	15.0	-62.5	0.0
2026-01-05 08:27:07.383502	7.0	15.2	-65.8	0.0
2026-01-05 08:27:09.636495	6.8	15.5	-64.9	0.0
2026-01-05 08:27:11.889028	6.7	15.7	-64.7	0.0
2026-01-05 08:27:14.143868	6.5	15.9	-65.2	0.0
2026-01-05 08:27:16.397869	6.4	16.2	-67.8	0.0
2026-01-05 08:27:18.651142	6.2	16.4	-66.4	0.0
2026-01-05 08:27:20.903252	6.0	16.6	-65.9	0.0
2026-01-05 08:27:23.157001	5.9	16.9	-63.5	0.0
2026-01-05 08:27:25.408730	5.7	17.1	-64.9	0.0
2026-01-05 08:27:27.664509	5.6	17.4	-68.0	0.0
2026-01-05 08:27:29.918908	5.4	17.6	-66.2	0.0
2026-01-05 08:27:32.172620	5.2	17.9	-63.1	0.0
2026-01-05 08:27:34.426372	5.0	18.1	-65.7	0.0
2026-01-05 08:27:36.683118	4.9	18.4	-66.8	0.0
2026-01-05 08:27:38.937200	4.7	18.7	-66.0	0.0
2026-01-05 08:27:41.191937	4.5	18.9	-66.0	0.0
2026-01-05 08:27:43.445717	4.3	19.2	-66.0	0.0
2026-01-05 08:27:45.699499	4.1	19.5	-65.3	0.0
2026-01-05 08:27:47.956911	3.9	19.7	-66.7	0.0
2026-01-05 08:27:50.210432	3.7	20.0	-66.9	0.0
2026-01-05 08:27:52.464227	3.5	20.3	-68.0	0.0
2026-01-05 08:27:54.719986	3.3	20.6	-66.9	0.0
2026-01-05 08:27:56.972510	3.1	20.9	-67.8	0.0
2026-01-05 08:27:59.226686	2.9	21.1	-68.6	0.0
2026-01-05 08:28:01.479475	2.7	21.4	-64.5	0.0
2026-01-05 08:28:03.735090	2.4	21.7	-68.4	0.0
2026-01-05 08:28:05.991240	2.2	22.0	-67.2	0.0
2026-01-05 08:28:08.242713	2.0	22.3	-67.4	0.0
2026-01-05 08:28:10.497470	1.7	22.6	-67.2	0.0
2026-01-05 08:28:12.749754	1.5	22.9	-66.8	0.0
2026-01-05 08:28:15.004594	1.2	23.2	-66.7	0.0
2026-01-05 08:28:17.254676	1.0	23.5	-65.1	0.0
2026-01-05 08:28:19.508965	0.7	23.8	-68.1	0.0
2026-01-05 08:28:21.761457	0.5	24.2	-65.3	0.0
2026-01-05 08:28:24.016139	0.2	24.5	-66.8	0.0
2026-01-05 08:28:26.269879	359.9	24.8	-65.3	0.0
2026-01-05 08:28:28.524211	359.6	25.1	-66.9	0.0
2026-01-05 08:28:30.780169	359.4	25.5	-65.4	0.0
2026-01-05 08:28:33.033870	359.1	25.8	-66.8	0.0
2026-01-05 08:28:35.289420	358.8	26.1	-65.7	0.0
2026-01-05 08:28:37.543536	358.5	26.5	-65.3	0.0
2026-01-05 08:28:39.799461	358.1	26.8	-66.0	0.0
2026-01-05 08:28:42.050826	357.8	27.1	-65.7	0.0
2026-01-05 08:28:44.303706	357.5	27.5	-67.4	0.0
2026-01-05 08:28:46.557218	357.2	27.8	-66.5	0.0
2026-01-05 08:28:48.809828	356.8	28.2	-66.6	0.0
2026-01-05 08:28:51.063323	356.5	28.6	-66.5	0.0
2026-01-05 08:28:53.318435	356.1	28.9	-65.8	0.0
2026-01-05 08:28:55.573058	355.7	29.3	-65.7	0.0
2026-01-05 08:28:57.825335	355.4	29.7	-65.3	0.0
2026-01-05 08:29:00.079042	355.0	30.0	-65.7	0.0
2026-01-05 08:29:02.333676	354.6	30.4	-66.2	0.0
2026-01-05 08:29:04.589365	354.2	30.8	-66.1	0.0
2026-01-05 08:29:06.842361	353.8	31.2	-65.1	0.0
2026-01-05 08:29:09.097037	353.4	31.5	-64.8	0.0
2026-01-05 08:29:11.350441	352.9	31.9	-66.1	0.0
2026-01-05 08:29:13.605570	352.5	32.3	-65.7	0.0
2026-01-05 08:29:15.858330	352.0	32.7	-65.9	0.0
2026-01-05 08:29:18.111712	351.6	33.1	-60.7	0.0
2026-01-05 08:29:20.363508	351.1	33.5	-61.1	0.0
2026-01-05 08:29:22.620306	350.6	33.9	-65.7	0.0
2026-01-05 08:29:24.870813	350.1	34.3	-68.1	0.0
2026-01-05 08:29:27.121646	349.6	34.7	-68.1	0.0
2026-01-05 08:29:29.375627	349.0	35.2	-68.5	0.0
2026-01-05 08:29:31.627745	348.5	35.6	-68.4	0.0
2026-01-05 08:29:33.883664	347.9	36.0	-69.2	0.0
2026-01-05 08:29:36.136958	347.4	36.4	-70.3	0.0
2026-01-05 08:29:38.388574	346.8	36.8	-70.5	0.0
2026-01-05 08:29:40.644317	346.2	37.3	-69.5	0.0
2026-01-05 08:29:42.899123	345.6	37.7	-69.6	0.0
2026-01-05 08:29:45.152953	344.9	38.1	-70.8	0.0
2026-01-05 08:29:47.406840	344.3	38.6	-70.6	3.4
2026-01-05 08:29:49.657024	343.6	39.0	-70.4	0.5
2026-01-05 08:29:51.909472	342.9	39.4	-71.3	5.1
2026-01-05 08:29:54.162754	342.2	39.8	-70.0	3.9
2026-01-05 08:29:56.416131	341.5	40.3	-70.8	2.9
2026-01-05 08:29:58.668723	340.7	40.7	-70.8	2.5
2026-01-05 08:30:00.927857	340.0	41.1	-71.0	4.0
2026-01-05 08:30:03.182060	339.2	41.6	-71.8	9.0
2026-01-05 08:30:05.434699	338.4	42.0	-70.6	6.6
2026-01-05 08:30:07.686012	337.5	42.4	-70.4	7.4
2026-01-05 08:30:09.937324	336.7	42.9	-71.8	7.3
2026-01-05 08:30:12.191260	335.8	43.3	-71.7	6.3
2026-01-05 08:30:14.442978	334.9	43.7	-71.1	5.3
2026-01-05 08:30:16.695321	334.0	44.1	-71.6	6.0
2026-01-05 08:30:18.953336	333.0	44.5	-72.0	9.1
2026-01-05 08:30:21.204652	332.1	44.9	-71.9	8.3
2026-01-05 08:30:23.458713	331.1	45.3	-71.9	7.1
2026-01-05 08:30:25.710067	330.0	45.7	-71.7	6.6
2026-01-05 08:30:27.964867	329.0	46.1	-72.2	9.7
2026-01-05 08:30:30.217837	327.9	46.5	-72.1	9.2
2026-01-05 08:30:32.468887	326.8	46.9	-72.5	9.3
2026-01-05 08:30:34.720990	325.7	47.2	-72.2	9.7
2026-01-05 08:30:36.975242	324.5	47.6	-72.1	9.6
2026-01-05 08:30:39.227233	323.3	48.0	-72.4	10.4
2026-01-05 08:30:41.480685	322.1	48.3	-72.1	10.5
2026-01-05 08:30:43.734745	320.9	48.6	-72.1	9.6
2026-01-05 08:30:45.989234	319.6	48.9	-72.3	10.3
2026-01-05 08:30:48.241429	318.3	49.2	-72.7	9.4
2026-01-05 08:30:50.491474	317.0	49.5	-72.1	8.6
2026-01-05 08:30:52.744031	315.7	49.8	-71.6	8.0
2026-01-05 08:30:54.996936	314.3	50.0	-70.3	4.5
2026-01-05 08:30:57.247484	312.9	50.3	-71.5	7.0
2026-01-05 08:30:59.496896	311.5	50.5	-71.0	8.5
2026-01-05 08:31:01.748099	310.1	50.7	-71.5	9.7
2026-01-05 08:31:04.001433	308.7	50.9	-71.4	8.6
2026-01-05 08:31:06.254984	307.2	51.0	-70.6	7.4
2026-01-05 08:31:08.508669	305.7	51.2	-70.0	8.5
2026-01-05 08:31:10.758289	304.2	51.3	-70.6	5.4
2026-01-05 08:31:13.010333	302.7	51.4	-70.7	4.8
2026-01-05 08:31:15.260745	301.2	51.5	-71.5	8.4
2026-01-05 08:31:17.513549	299.7	51.6	-71.5	9.1
2026-01-05 08:31:19.767432	298.2	51.6	-71.3	6.6
2026-01-05 08:31:22.016587	296.6	51.7	-71.8	5.6
2026-01-05 08:31:24.267657	295.1	51.7	-71.0	8.8
2026-01-05 08:31:26.522225	293.6	51.6	-71.8	9.5
2026-01-05 08:31:28.776202	292.1	51.6	-72.1	8.0
2026-01-05 08:31:31.028524	290.5	51.5	-72.8	10.2
2026-01-05 08:31:33.285648	289.0	51.5	-72.7	8.3
2026-01-05 08:31:35.537054	287.5	51.3	-72.9	10.2
2026-01-05 08:31:37.792222	286.0	51.2	-72.5	7.0
2026-01-05 08:31:40.045334	284.5	51.1	-73.0	10.8
2026-01-05 08:31:42.298917	283.1	50.9	-72.6	10.1
2026-01-05 08:31:44.550435	281.6	50.7	-72.0	8.7
2026-01-05 08:31:46.803094	280.2	50.5	-71.3	7.4
2026-01-05 08:31:49.055935	278.8	50.3	-71.9	7.5
2026-01-05 08:31:51.309897	277.4	50.1	-72.5	8.3
2026-01-05 08:31:53.563583	276.0	49.8	-71.6	8.6
2026-01-05 08:31:55.820349	274.7	49.6	-72.2	9.5
2026-01-05 08:31:58.075212	273.3	49.3	-72.2	8.7
2026-01-05 08:32:00.330007	272.0	49.0	-73.1	11.8
2026-01-05 08:32:02.584579	270.8	48.7	-73.1	11.0
2026-01-05 08:32:04.838620	269.5	48.4	-72.8	11.1
2026-01-05 08:32:07.092458	268.3	48.0	-72.1	10.1
2026-01-05 08:32:09.345447	267.1	47.7	-72.6	8.9
2026-01-05 08:32:11.600265	265.9	47.3	-72.9	9.9
2026-01-05 08:32:13.852609	264.8	47.0	-73.1	10.2
2026-01-05 08:32:16.105702	263.7	46.6	-73.5	9.8
2026-01-05 08:32:18.358735	262.6	46.2	-72.5	7.1
2026-01-05 08:32:20.613020	261.5	45.8	-73.3	9.1
2026-01-05 08:32:22.868392	260.5	45.4	-73.3	8.3
2026-01-05 08:32:25.122122	259.5	45.0	-73.6	8.7
2026-01-05 08:32:27.377077	258.5	44.6	-73.7	9.8
2026-01-05 08:32:29.629015	257.6	44.2	-73.9	8.9
2026-01-05 08:32:31.881744	256.6	43.8	-73.4	9.4
2026-01-05 08:32:34.132975	255.7	43.3	-73.9	10.6
2026-01-05 08:32:36.387632	254.8	42.9	-74.0	11.5
2026-01-05 08:32:38.638724	254.0	42.5	-73.9	11.5
2026-01-05 08:32:40.893652	253.1	42.1	-73.9	11.7
2026-01-05 08:32:43.146692	252.3	41.6	-74.1	9.8
2026-01-05 08:32:45.401937	251.5	41.2	-73.9	11.0
2026-01-05 08:32:47.655665	250.7	40.8	-73.3	7.9
2026-01-05 08:32:49.907065	250.0	40.3	-73.6	10.6
2026-01-05 08:32:52.157779	249.3	39.9	-73.9	12.3
2026-01-05 08:32:54.410051	248.5	39.5	-73.5	12.9
2026-01-05 08:32:56.663490	247.8	39.0	-73.6	11.5
2026-01-05 08:32:58.916803	247.2	38.6	-74.0	13.0
2026-01-05 08:33:01.169755	246.5	38.2	-74.1	11.5
2026-01-05 08:33:03.420896	245.9	37.7	-73.8	12.3
2026-01-05 08:33:05.675492	245.2	37.3	-74.0	12.2
2026-01-05 08:33:07.929003	244.6	36.9	-74.0	11.8
2026-01-05 08:33:10.180227	244.0	36.5	-74.1	12.3
2026-01-05 08:33:12.433908	243.5	36.0	-74.2	13.0
2026-01-05 08:33:14.688027	242.9	35.6	-74.2	12.8
2026-01-05 08:33:16.939230	242.4	35.2	-74.5	13.1
2026-01-05 08:33:19.193213	241.8	34.8	-74.2	12.4
2026-01-05 08:33:21.441917	241.3	34.4	-74.7	12.3
2026-01-05 08:33:23.697922	240.8	34.0	-74.7	11.6
2026-01-05 08:33:25.955744	240.3	33.6	-74.7	11.2
2026-01-05 08:33:28.208587	239.8	33.1	-74.3	11.2
2026-01-05 08:33:30.462086	239.3	32.7	-74.9	12.1
2026-01-05 08:33:32.712980	238.9	32.3	-74.6	11.3
2026-01-05 08:33:34.963529	238.4	32.0	-74.5	11.6
2026-01-05 08:33:37.215414	238.0	31.6	-74.8	13.1
2026-01-05 08:33:39.469028	237.6	31.2	-74.8	10.9
2026-01-05 08:33:41.722951	237.2	30.8	-74.8	11.9
2026-01-05 08:33:43.977248	236.8	30.4	-74.7	10.8
2026-01-05 08:33:46.232488	236.4	30.0	-75.0	11.3
2026-01-05 08:33:48.485233	236.0	29.7	-74.7	11.1
2026-01-05 08:33:50.741269	235.6	29.3	-74.8	11.0
2026-01-05 08:33:52.994008	235.2	28.9	-74.4	11.0
2026-01-05 08:33:55.248053	234.9	28.5	-74.4	10.7
2026-01-05 08:33:57.503070	234.5	28.2	-75.1	12.1
2026-01-05 08:33:59.754876	234.2	27.8	-75.2	11.6
2026-01-05 08:34:02.007069	233.8	27.5	-75.3	11.4
2026-01-05 08:34:04.261543	233.5	27.1	-75.4	11.2
2026-01-05 08:34:06.514046	233.2	26.8	-75.7	10.4
2026-01-05 08:34:08.767735	232.9	26.4	-75.8	9.9
2026-01-05 08:34:11.020898	232.5	26.1	-75.6	10.2
2026-01-05 08:34:13.272573	232.2	25.8	-75.7	9.3
2026-01-05 08:34:15.524865	232.0	25.4	-75.4	10.3
2026-01-05 08:34:17.777626	231.7	25.1	-75.9	10.5
2026-01-05 08:34:20.032492	231.4	24.8	-75.6	10.8
2026-01-05 08:34:22.286417	231.1	24.4	-75.7	9.6
2026-01-05 08:34:24.541312	230.8	24.1	-75.4	10.4
2026-01-05 08:34:26.796514	230.6	23.8	-75.6	9.5
2026-01-05 08:34:29.050050	230.3	23.5	-75.0	9.7
2026-01-05 08:34:31.303685	230.0	23.2	-75.3	8.3
2026-01-05 08:34:33.553831	229.8	22.9	-74.6	7.5
2026-01-05 08:34:35.805344	229.5	22.6	-75.4	9.7
2026-01-05 08:34:38.060702	229.3	22.3	-75.0	9.4
2026-01-05 08:34:40.314840	229.1	22.0	-75.1	9.0
2026-01-05 08:34:42.567794	228.8	21.7	-75.3	7.6
2026-01-05 08:34:44.823211	228.6	21.4	-74.6	5.3
2026-01-05 08:34:47.076139	228.4	21.1	-75.6	8.6
2026-01-05 08:34:49.326608	228.2	20.8	-75.3	8.4
2026-01-05 08:34:51.579591	228.0	20.5	-75.4	8.5
2026-01-05 08:34:53.834881	227.7	20.2	-74.8	5.7
2026-01-05 08:34:56.086910	227.5	20.0	-74.7	5.3
2026-01-05 08:34:58.339894	227.3	19.7	-75.4	7.9
2026-01-05 08:35:00.593387	227.1	19.4	-74.9	7.2
2026-01-05 08:35:02.846022	226.9	19.1	-75.0	7.1
2026-01-05 08:35:05.100061	226.8	18.9	-75.0	7.9
2026-01-05 08:35:07.351492	226.6	18.6	-74.7	6.9
2026-01-05 08:35:09.600757	226.4	18.3	-75.1	7.9
2026-01-05 08:35:11.854647	226.2	18.1	-74.9	7.3
2026-01-05 08:35:14.107155	226.0	17.8	-74.8	7.0
2026-01-05 08:35:16.358124	225.8	17.6	-74.8	6.2
2026-01-05 08:35:18.612931	225.7	17.3	-74.4	5.9
2026-01-05 08:35:20.864879	225.5	17.1	-75.0	5.7
2026-01-05 08:35:23.121186	225.3	16.8	-74.9	6.3
2026-01-05 08:35:25.375055	225.2	16.6	-74.4	4.1
2026-01-05 08:35:27.626630	225.0	16.3	-74.9	5.4
2026-01-05 08:35:29.876680	224.9	16.1	-74.9	5.0
2026-01-05 08:35:32.128425	224.7	15.8	-75.1	5.5
2026-01-05 08:35:34.380743	224.5	15.6	-74.5	4.2
2026-01-05 08:35:36.633917	224.4	15.4	-74.9	5.1
2026-01-05 08:35:38.887373	224.2	15.1	-75.0	4.0
2026-01-05 08:35:41.141576	224.1	14.9	-74.1	3.3
2026-01-05 08:35:43.391686	224.0	14.7	-74.4	2.1
2026-01-05 08:35:45.642437	223.8	14.4	-75.3	5.5
2026-01-05 08:35:47.892338	223.7	14.2	-74.8	4.3
2026-01-05 08:35:50.147209	223.5	14.0	-74.7	3.8
2026-01-05 08:35:52.403268	223.4	13.8	-74.8	4.0
2026-01-05 08:35:54.658390	223.3	13.6	-74.6	2.1
2026-01-05 08:35:56.911633	223.1	13.3	-74.5	2.5
2026-01-05 08:35:59.165260	223.0	13.1	-74.4	2.5
2026-01-05 08:36:01.417672	222.9	12.9	-74.2	2.9
2026-01-05 08:36:03.671273	222.8	12.7	-74.0	1.0
2026-01-05 08:36:05.923577	222.6	12.5	-74.3	1.6
2026-01-05 08:36:08.176020	222.5	12.3	-73.8	1.2
2026-01-05 08:36:10.432744	222.4	12.1	-74.6	0.0
2026-01-05 08:36:12.686001	222.3	11.9	-74.0	0.0
2026-01-05 08:36:14.941356	222.2	11.7	-74.6	0.0
2026-01-05 08:36:17.192825	222.1	11.5	-75.0	0.8
2026-01-05 08:36:19.445963	221.9	11.3	-74.1	0.0
2026-01-05 08:36:21.699659	221.8	11.1	-74.2	0.0
2026-01-05 08:36:23.956223	221.7	10.9	-75.9	4.6
2026-01-05 08:36:26.205356	221.6	10.7	-79.5	0.0
2026-01-05 08:36:28.461613	221.5	10.5	-80.0	0.0
2026-01-05 08:36:30.716335	221.4	10.3	-80.0	0.0
2026-01-05 08:36:32.968217	221.3	10.1	-79.6	0.0
#Closed at: 2026-01-05 08:26:06.141435