passes_logs/2026/01/05/planumMaritime01/planumMaritime01__20260105_235220_METEOR-M2_4_rec.log

#Pass ID: 20260105_235220_METEOR-M2 4
#Satellite: METEOR-M2 4
#Configuration: METEOR-M2 4
#Start time: 2026-01-05 23:52:25.707351

#LorettStation: 1.0.0 05.05.2024
#Station: planumMaritime01
#Location: 37.49445 lon 55.92918 lat
#TLE: 1 59051U 24039A   26005.62187337  .00000055  00000+0  44203-4 0  9994
#TLE: 2 59051  98.6800 327.1603 0006009 283.2344  76.8163 14.22405842 96150

#Time	Az	El	Level	SNR
2026-01-05 23:52:27.879187	32.3	10.2	-79.0	0.0
2026-01-05 23:52:30.143384	32.5	10.3	-77.4	0.0
2026-01-05 23:52:32.407613	32.7	10.5	-77.4	0.0
2026-01-05 23:52:34.675349	33.0	10.7	-74.6	0.0
2026-01-05 23:52:36.942248	33.2	10.8	-70.0	0.0
2026-01-05 23:52:39.212166	33.4	11.0	-66.7	0.0
2026-01-05 23:52:41.480922	33.7	11.2	-67.6	0.0
2026-01-05 23:52:43.749145	33.9	11.3	-68.2	0.0
2026-01-05 23:52:46.017938	34.2	11.5	-67.0	0.0
2026-01-05 23:52:48.284447	34.4	11.7	-67.3	0.0
2026-01-05 23:52:50.554802	34.7	11.9	-65.2	0.0
2026-01-05 23:52:52.823558	34.9	12.0	-68.1	0.0
2026-01-05 23:52:55.087392	35.2	12.2	-67.3	0.0
2026-01-05 23:52:57.354154	35.4	12.4	-68.7	0.0
2026-01-05 23:52:59.623430	35.7	12.6	-67.7	0.0
2026-01-05 23:53:01.888226	35.9	12.7	-68.9	0.0
2026-01-05 23:53:04.152018	36.2	12.9	-69.4	0.0
2026-01-05 23:53:06.420140	36.5	13.1	-69.2	0.0
2026-01-05 23:53:08.690437	36.7	13.3	-69.1	0.0
2026-01-05 23:53:10.959581	37.0	13.5	-70.5	0.0
2026-01-05 23:53:13.234378	37.3	13.6	-68.5	0.0
2026-01-05 23:53:15.511881	37.6	13.8	-68.7	0.0
2026-01-05 23:53:17.788684	37.9	14.0	-71.0	0.0
2026-01-05 23:53:20.062866	38.1	14.2	-71.3	0.0
2026-01-05 23:53:22.341602	38.4	14.4	-70.8	0.0
2026-01-05 23:53:24.617949	38.7	14.6	-72.2	0.0
2026-01-05 23:53:26.892907	39.0	14.7	-72.6	0.0
2026-01-05 23:53:29.162516	39.3	14.9	-72.9	0.0
2026-01-05 23:53:31.438845	39.6	15.1	-73.1	0.0
2026-01-05 23:53:33.712211	40.0	15.3	-70.7	0.0
2026-01-05 23:53:35.987676	40.3	15.5	-68.9	0.0
2026-01-05 23:53:38.261048	40.6	15.7	-73.3	0.0
2026-01-05 23:53:40.537603	40.9	15.9	-73.1	0.0
2026-01-05 23:53:42.816820	41.2	16.1	-73.4	0.0
2026-01-05 23:53:45.093018	41.6	16.3	-73.9	0.0
2026-01-05 23:53:47.370544	41.9	16.4	-74.0	0.0
2026-01-05 23:53:49.647846	42.2	16.6	-74.0	0.0
2026-01-05 23:53:51.924010	42.6	16.8	-71.9	0.0
2026-01-05 23:53:54.196651	42.9	17.0	-72.1	0.0
2026-01-05 23:53:56.473086	43.3	17.2	-72.0	0.0
2026-01-05 23:53:58.749866	43.6	17.4	-74.3	0.0
2026-01-05 23:54:01.028901	44.0	17.6	-74.2	0.0
2026-01-05 23:54:03.305568	44.4	17.8	-73.4	0.0
2026-01-05 23:54:05.580647	44.7	18.0	-73.5	0.0
2026-01-05 23:54:07.849010	45.1	18.2	-72.5	0.0
2026-01-05 23:54:10.120851	45.5	18.4	-73.8	0.0
2026-01-05 23:54:12.394499	45.9	18.6	-74.0	0.0
2026-01-05 23:54:14.670081	46.3	18.8	-72.9	0.0
2026-01-05 23:54:16.944445	46.6	19.0	-72.5	0.0
2026-01-05 23:54:19.215551	47.0	19.2	-74.7	0.0
2026-01-05 23:54:21.490728	47.5	19.4	-74.0	0.0
2026-01-05 23:54:23.761026	47.9	19.6	-74.5	0.8
2026-01-05 23:54:26.036023	48.3	19.8	-74.0	0.0
2026-01-05 23:54:28.311980	48.7	20.0	-74.6	1.8
2026-01-05 23:54:30.585291	49.1	20.2	-75.2	3.7
2026-01-05 23:54:32.860826	49.5	20.4	-74.0	0.3
2026-01-05 23:54:35.135566	50.0	20.6	-74.0	0.7
2026-01-05 23:54:37.410170	50.4	20.8	-73.5	0.0
2026-01-05 23:54:39.684399	50.9	21.0	-74.7	0.6
2026-01-05 23:54:41.955085	51.3	21.2	-74.8	2.1
2026-01-05 23:54:44.234145	51.8	21.4	-74.3	0.0
2026-01-05 23:54:46.510622	52.3	21.6	-75.3	0.0
2026-01-05 23:54:48.787394	52.7	21.8	-75.5	3.1
2026-01-05 23:54:51.061413	53.2	22.0	-73.9	1.0
2026-01-05 23:54:53.332487	53.7	22.2	-74.2	3.5
2026-01-05 23:54:55.607633	54.2	22.4	-74.8	2.5
2026-01-05 23:54:57.882399	54.7	22.6	-73.4	0.0
2026-01-05 23:55:00.149748	55.2	22.8	-74.5	3.5
2026-01-05 23:55:02.421517	55.7	23.0	-74.3	2.5
2026-01-05 23:55:04.688891	56.2	23.2	-74.1	0.0
2026-01-05 23:55:06.956363	56.7	23.4	-75.1	0.4
2026-01-05 23:55:09.222832	57.2	23.5	-74.9	0.0
2026-01-05 23:55:11.492193	57.8	23.7	-75.3	1.8
2026-01-05 23:55:13.760567	58.3	23.9	-74.6	0.0
2026-01-05 23:55:16.026406	58.8	24.1	-75.2	2.3
2026-01-05 23:55:18.293555	59.4	24.3	-75.5	0.6
2026-01-05 23:55:20.558974	59.9	24.5	-74.5	0.0
2026-01-05 23:55:22.826465	60.5	24.7	-73.8	0.0
2026-01-05 23:55:25.095214	61.1	24.9	-75.3	4.3
2026-01-05 23:55:27.365735	61.7	25.0	-75.0	1.3
2026-01-05 23:55:29.637987	62.2	25.2	-75.1	4.3
2026-01-05 23:55:31.907176	62.8	25.4	-75.0	3.8
2026-01-05 23:55:34.175022	63.4	25.6	-75.8	3.2
2026-01-05 23:55:36.443785	64.0	25.7	-75.4	4.8
2026-01-05 23:55:38.709085	64.6	25.9	-75.3	6.1
2026-01-05 23:55:40.979809	65.2	26.1	-75.9	5.6
2026-01-05 23:55:43.245435	65.9	26.3	-75.4	4.7
2026-01-05 23:55:45.513859	66.5	26.4	-75.5	4.4
2026-01-05 23:55:47.778390	67.1	26.6	-75.9	6.1
2026-01-05 23:55:50.044649	67.8	26.7	-75.3	3.8
2026-01-05 23:55:52.315018	68.4	26.9	-75.2	5.0
2026-01-05 23:55:54.579823	69.1	27.0	-76.6	7.3
2026-01-05 23:55:56.843520	69.7	27.2	-76.4	4.9
2026-01-05 23:55:59.106664	70.4	27.3	-77.1	7.8
2026-01-05 23:56:01.370729	71.1	27.5	-76.8	8.0
2026-01-05 23:56:03.639892	71.7	27.6	-76.9	6.0
2026-01-05 23:56:05.905993	72.4	27.8	-75.6	5.8
2026-01-05 23:56:08.170785	73.1	27.9	-75.8	7.6
2026-01-05 23:56:10.434747	73.8	28.0	-76.3	6.6
2026-01-05 23:56:12.702196	74.5	28.2	-76.1	7.0
2026-01-05 23:56:14.968586	75.2	28.3	-76.7	8.3
2026-01-05 23:56:17.235259	75.9	28.4	-76.2	8.1
2026-01-05 23:56:19.501477	76.6	28.5	-76.5	8.5
2026-01-05 23:56:21.777947	77.4	28.6	-74.6	6.8
2026-01-05 23:56:24.053863	78.1	28.7	-76.2	9.9
2026-01-05 23:56:26.327668	78.8	28.8	-75.5	7.5
2026-01-05 23:56:28.603742	79.6	28.9	-76.1	7.7
2026-01-05 23:56:30.877499	80.3	29.0	-76.2	5.4
2026-01-05 23:56:33.152642	81.1	29.1	-76.9	9.8
2026-01-05 23:56:35.427947	81.8	29.2	-77.2	8.9
2026-01-05 23:56:37.704800	82.6	29.2	-76.2	8.0
2026-01-05 23:56:39.979834	83.3	29.3	-76.4	9.3
2026-01-05 23:56:42.256745	84.1	29.4	-77.0	10.8
2026-01-05 23:56:44.532778	84.8	29.4	-76.6	9.9
2026-01-05 23:56:46.805846	85.6	29.5	-76.9	9.4
2026-01-05 23:56:49.079672	86.4	29.5	-77.6	9.1
2026-01-05 23:56:51.358271	87.1	29.6	-77.3	9.3
2026-01-05 23:56:53.637884	87.9	29.6	-76.9	9.2
2026-01-05 23:56:55.909823	88.7	29.7	-77.7	9.0
2026-01-05 23:56:58.183457	89.5	29.7	-77.3	9.3
2026-01-05 23:57:00.458617	90.2	29.7	-76.9	10.8
2026-01-05 23:57:02.728723	91.0	29.7	-76.8	8.1
2026-01-05 23:57:05.002265	91.8	29.7	-77.4	10.7
2026-01-05 23:57:07.280753	92.6	29.7	-78.0	11.4
2026-01-05 23:57:09.560228	93.4	29.7	-77.8	10.6
2026-01-05 23:57:11.835213	94.1	29.7	-78.0	10.9
2026-01-05 23:57:14.105896	94.9	29.7	-78.2	10.4
2026-01-05 23:57:16.375878	95.7	29.7	-77.9	11.7
2026-01-05 23:57:18.646389	96.5	29.7	-78.0	8.7
2026-01-05 23:57:20.913541	97.2	29.6	-78.3	10.8
2026-01-05 23:57:23.175819	98.0	29.6	-77.9	11.3
2026-01-05 23:57:25.446299	98.8	29.6	-78.2	10.9
2026-01-05 23:57:27.716595	99.6	29.5	-78.0	10.6
2026-01-05 23:57:29.982095	100.3	29.5	-78.3	12.1
2026-01-05 23:57:32.247380	101.1	29.4	-78.1	11.4
2026-01-05 23:57:34.513213	101.8	29.3	-77.9	11.5
2026-01-05 23:57:36.777379	102.6	29.3	-77.8	11.8
2026-01-05 23:57:39.045585	103.4	29.2	-77.8	11.8
2026-01-05 23:57:41.311906	104.1	29.1	-77.5	10.7
2026-01-05 23:57:43.576713	104.8	29.1	-78.1	11.6
2026-01-05 23:57:45.843396	105.6	29.0	-78.0	12.1
2026-01-05 23:57:48.111675	106.3	28.9	-77.7	10.7
2026-01-05 23:57:50.377138	107.1	28.8	-78.2	11.8
2026-01-05 23:57:52.642769	107.8	28.7	-78.4	11.4
2026-01-05 23:57:54.909997	108.5	28.6	-78.1	11.6
2026-01-05 23:57:57.179479	109.2	28.5	-78.3	11.1
2026-01-05 23:57:59.453110	110.0	28.3	-78.5	10.3
2026-01-05 23:58:01.730585	110.7	28.2	-78.5	10.7
2026-01-05 23:58:04.005864	111.4	28.1	-78.3	11.1
2026-01-05 23:58:06.280760	112.1	28.0	-78.4	10.7
2026-01-05 23:58:08.555390	112.8	27.8	-77.9	10.2
2026-01-05 23:58:10.824946	113.5	27.7	-78.1	10.6
2026-01-05 23:58:13.102896	114.2	27.6	-78.2	9.6
2026-01-05 23:58:15.379492	114.8	27.4	-78.3	11.3
2026-01-05 23:58:17.657715	115.5	27.3	-78.0	11.1
2026-01-05 23:58:19.932296	116.2	27.1	-77.8	10.1
2026-01-05 23:58:22.209783	116.8	27.0	-78.1	11.1
2026-01-05 23:58:24.485230	117.5	26.8	-77.9	11.2
2026-01-05 23:58:26.759835	118.2	26.7	-78.1	11.1
2026-01-05 23:58:29.037315	118.8	26.5	-78.2	10.8
2026-01-05 23:58:31.312600	119.4	26.3	-78.0	10.2
2026-01-05 23:58:33.586925	120.1	26.2	-78.0	10.4
2026-01-05 23:58:35.863054	120.7	26.0	-78.3	12.7
2026-01-05 23:58:38.137192	121.3	25.8	-78.4	12.2
2026-01-05 23:58:40.411871	121.9	25.6	-78.9	12.4
2026-01-05 23:58:42.687551	122.5	25.5	-78.6	11.6
2026-01-05 23:58:44.963710	123.1	25.3	-79.1	11.6
2026-01-05 23:58:47.243479	123.7	25.1	-78.9	12.5
2026-01-05 23:58:49.521284	124.3	24.9	-78.4	11.3
2026-01-05 23:58:51.798916	124.9	24.7	-78.9	11.9
2026-01-05 23:58:54.074281	125.4	24.6	-78.6	11.8
2026-01-05 23:58:56.349533	126.0	24.4	-79.0	11.9
2026-01-05 23:58:58.628017	126.6	24.2	-78.9	11.6
2026-01-05 23:59:00.903738	127.1	24.0	-78.8	11.2
2026-01-05 23:59:03.181690	127.7	23.8	-78.7	11.8
2026-01-05 23:59:05.453951	128.2	23.6	-78.7	12.0
2026-01-05 23:59:07.729230	128.7	23.4	-78.7	12.0
2026-01-05 23:59:10.008562	129.3	23.2	-78.6	11.7
2026-01-05 23:59:12.284463	129.8	23.0	-78.7	11.3
2026-01-05 23:59:14.559227	130.3	22.8	-78.7	10.6
2026-01-05 23:59:16.836133	130.8	22.6	-78.6	11.9
2026-01-05 23:59:19.108912	131.3	22.4	-78.5	11.3
2026-01-05 23:59:21.387932	131.8	22.2	-78.7	12.1
2026-01-05 23:59:23.664630	132.3	22.0	-78.5	12.2
2026-01-05 23:59:25.940474	132.8	21.8	-78.8	11.9
2026-01-05 23:59:28.217029	133.2	21.6	-78.4	11.2
2026-01-05 23:59:30.493599	133.7	21.4	-78.5	12.5
2026-01-05 23:59:32.768127	134.2	21.2	-78.3	11.0
2026-01-05 23:59:35.041035	134.6	21.0	-78.3	11.8
2026-01-05 23:59:37.310635	135.1	20.8	-78.5	11.8
2026-01-05 23:59:39.581761	135.5	20.6	-78.8	11.5
2026-01-05 23:59:41.850603	136.0	20.4	-78.6	10.8
2026-01-05 23:59:44.117510	136.4	20.2	-78.9	11.3
2026-01-05 23:59:46.384640	136.8	20.0	-78.7	11.3
2026-01-05 23:59:48.652364	137.2	19.8	-79.0	11.1
2026-01-05 23:59:50.918392	137.7	19.6	-78.7	10.6
2026-01-05 23:59:53.186972	138.1	19.4	-78.7	11.1
2026-01-05 23:59:55.452681	138.5	19.2	-78.8	11.3
2026-01-05 23:59:57.721282	138.9	19.0	-78.7	10.6
2026-01-05 23:59:59.989249	139.3	18.8	-79.0	11.1
2026-01-06 00:00:02.260792	139.7	18.6	-78.8	11.1
2026-01-06 00:00:04.530078	140.1	18.4	-79.1	11.5
2026-01-06 00:00:06.797696	140.4	18.2	-78.9	11.2
2026-01-06 00:00:09.068046	140.8	18.0	-78.8	10.8
2026-01-06 00:00:11.343682	141.2	17.8	-78.7	10.9
2026-01-06 00:00:13.621557	141.6	17.6	-78.9	10.8
2026-01-06 00:00:15.895769	141.9	17.4	-79.0	10.0
2026-01-06 00:00:18.172620	142.3	17.2	-79.1	10.0
2026-01-06 00:00:20.449415	142.6	17.0	-78.8	9.2
2026-01-06 00:00:22.722564	143.0	16.8	-79.2	9.8
2026-01-06 00:00:24.998955	143.3	16.6	-79.4	9.6
2026-01-06 00:00:27.272643	143.7	16.4	-78.9	10.1
2026-01-06 00:00:29.546030	144.0	16.2	-79.2	9.3
2026-01-06 00:00:31.823947	144.3	16.0	-79.3	9.5
2026-01-06 00:00:34.098167	144.7	15.9	-79.1	9.4
2026-01-06 00:00:36.376539	145.0	15.7	-79.2	9.7
2026-01-06 00:00:38.655866	145.3	15.5	-79.4	9.0
2026-01-06 00:00:40.931468	145.6	15.3	-79.4	7.5
2026-01-06 00:00:43.209749	145.9	15.1	-79.2	8.5
2026-01-06 00:00:45.480919	146.2	14.9	-79.5	9.0
2026-01-06 00:00:47.750678	146.6	14.7	-78.9	8.6
2026-01-06 00:00:50.020660	146.9	14.5	-78.9	9.1
2026-01-06 00:00:52.293082	147.2	14.3	-78.9	9.2
2026-01-06 00:00:54.565303	147.4	14.1	-79.0	8.1
2026-01-06 00:00:56.837196	147.7	14.0	-78.8	8.5
2026-01-06 00:00:59.104245	148.0	13.8	-78.9	8.2
2026-01-06 00:01:01.373402	148.3	13.6	-78.7	7.0
2026-01-06 00:01:03.643278	148.6	13.4	-78.2	7.4
2026-01-06 00:01:05.915657	148.9	13.2	-78.9	8.6
2026-01-06 00:01:08.186692	149.1	13.0	-78.7	8.2
2026-01-06 00:01:10.455833	149.4	12.9	-79.0	8.1
2026-01-06 00:01:12.724744	149.7	12.7	-79.2	8.1
2026-01-06 00:01:14.996209	149.9	12.5	-78.9	8.2
2026-01-06 00:01:17.266585	150.2	12.3	-79.0	8.3
2026-01-06 00:01:19.534738	150.4	12.1	-79.2	9.0
2026-01-06 00:01:21.802919	150.7	12.0	-79.4	8.8
2026-01-06 00:01:24.071540	151.0	11.8	-79.0	9.4
2026-01-06 00:01:26.345580	151.2	11.6	-79.2	8.0
2026-01-06 00:01:28.611607	151.4	11.4	-79.3	7.9
2026-01-06 00:01:30.882235	151.7	11.3	-79.4	8.5
2026-01-06 00:01:33.150172	151.9	11.1	-79.4	8.0
2026-01-06 00:01:35.422846	152.2	10.9	-79.8	7.6
2026-01-06 00:01:37.696763	152.4	10.8	-82.6	0.0
2026-01-06 00:01:39.972212	152.6	10.6	-84.2	0.0
2026-01-06 00:01:42.250077	152.9	10.4	-85.3	0.0
2026-01-06 00:01:44.526918	153.1	10.2	-85.4	0.0
2026-01-06 00:01:46.800761	153.3	10.1	-85.4	0.0
#Closed at: 2026-01-05 23:52:20.713476