passes_logs/2026/01/05/planumMaritime01/planumMaritime01__20260105_191107_METEOR-M2_3_rec.log

#Pass ID: 20260105_191107_METEOR-M2 3
#Satellite: METEOR-M2 3
#Configuration: METEOR-M2 3
#Start time: 2026-01-05 19:11:12.749010

#LorettStation: 1.0.0 05.05.2024
#Station: planumMaritime01
#Location: 37.49445 lon 55.92918 lat
#TLE: 1 57166U 23091A   26004.66755860  .00000054  00000+0  42637-4 0  9999
#TLE: 2 57166  98.6343  62.8028 0002899 290.8792  69.2076 14.24029436131247

#Time	Az	El	Level	SNR
2026-01-05 19:11:14.911830	214.6	10.1	-83.1	0.0
2026-01-05 19:11:17.183959	214.9	10.3	-82.7	0.0
2026-01-05 19:11:19.458966	215.1	10.5	-81.9	0.0
2026-01-05 19:11:21.731287	215.4	10.6	-81.4	0.0
2026-01-05 19:11:24.008486	215.7	10.8	-80.2	2.1
2026-01-05 19:11:26.282323	215.9	10.9	-76.4	1.9
2026-01-05 19:11:28.552799	216.2	11.1	-74.5	0.0
2026-01-05 19:11:30.818563	216.5	11.3	-74.3	0.0
2026-01-05 19:11:33.085440	216.8	11.4	-74.3	0.0
2026-01-05 19:11:35.353466	217.0	11.6	-74.3	0.0
2026-01-05 19:11:37.620609	217.3	11.8	-74.3	0.0
2026-01-05 19:11:39.892876	217.6	11.9	-74.7	0.0
2026-01-05 19:11:42.160018	217.9	12.1	-74.3	0.0
2026-01-05 19:11:44.428374	218.2	12.2	-74.5	0.0
2026-01-05 19:11:46.694611	218.5	12.4	-74.6	0.1
2026-01-05 19:11:48.954453	218.8	12.6	-74.6	0.6
2026-01-05 19:11:51.210664	219.1	12.7	-74.5	0.0
2026-01-05 19:11:53.466178	219.4	12.9	-74.8	0.0
2026-01-05 19:11:55.722615	219.7	13.1	-74.8	0.3
2026-01-05 19:11:57.976590	220.0	13.2	-75.1	0.0
2026-01-05 19:12:00.233665	220.4	13.4	-74.9	1.3
2026-01-05 19:12:02.489011	220.7	13.6	-75.0	0.0
2026-01-05 19:12:04.740799	221.0	13.7	-75.0	1.1
2026-01-05 19:12:06.996052	221.3	13.9	-74.9	0.0
2026-01-05 19:12:09.251736	221.7	14.1	-75.1	2.7
2026-01-05 19:12:11.499680	222.0	14.2	-75.2	0.6
2026-01-05 19:12:13.766583	222.3	14.4	-75.3	0.6
2026-01-05 19:12:16.037282	222.7	14.6	-75.3	1.4
2026-01-05 19:12:18.304950	223.0	14.7	-75.4	0.5
2026-01-05 19:12:20.572933	223.4	14.9	-75.5	4.3
2026-01-05 19:12:22.844553	223.7	15.1	-75.7	1.3
2026-01-05 19:12:25.115684	224.1	15.2	-75.6	3.6
2026-01-05 19:12:27.385482	224.5	15.4	-75.8	5.5
2026-01-05 19:12:29.657589	224.8	15.6	-76.1	3.3
2026-01-05 19:12:31.926742	225.2	15.7	-76.1	4.0
2026-01-05 19:12:34.197619	225.6	15.9	-76.1	3.3
2026-01-05 19:12:36.470786	226.0	16.1	-76.1	4.6
2026-01-05 19:12:38.740132	226.3	16.3	-76.6	3.1
2026-01-05 19:12:41.014143	226.7	16.4	-76.7	4.6
2026-01-05 19:12:43.288991	227.1	16.6	-76.8	4.2
2026-01-05 19:12:45.562490	227.5	16.8	-76.5	5.2
2026-01-05 19:12:47.837994	227.9	16.9	-76.7	7.8
2026-01-05 19:12:50.109656	228.3	17.1	-77.0	8.0
2026-01-05 19:12:52.377371	228.7	17.3	-77.1	6.2
2026-01-05 19:12:54.647764	229.2	17.4	-77.3	6.7
2026-01-05 19:12:56.920314	229.6	17.6	-77.3	6.6
2026-01-05 19:12:59.190806	230.0	17.8	-77.3	7.3
2026-01-05 19:13:01.460269	230.4	17.9	-77.4	8.7
2026-01-05 19:13:03.734583	230.9	18.1	-77.3	8.0
2026-01-05 19:13:06.007550	231.3	18.3	-77.3	8.3
2026-01-05 19:13:08.282952	231.7	18.4	-77.3	9.2
2026-01-05 19:13:10.556738	232.2	18.6	-77.5	9.0
2026-01-05 19:13:12.834226	232.7	18.8	-77.3	7.6
2026-01-05 19:13:15.112457	233.1	18.9	-77.3	9.9
2026-01-05 19:13:17.389860	233.6	19.1	-77.2	9.0
2026-01-05 19:13:19.665104	234.0	19.3	-77.4	9.7
2026-01-05 19:13:21.945137	234.5	19.4	-77.7	9.8
2026-01-05 19:13:24.218928	235.0	19.6	-77.8	9.2
2026-01-05 19:13:26.495281	235.5	19.7	-77.7	9.2
2026-01-05 19:13:28.768452	236.0	19.9	-77.5	9.5
2026-01-05 19:13:31.044584	236.5	20.1	-77.4	8.1
2026-01-05 19:13:33.317469	237.0	20.2	-77.7	7.9
2026-01-05 19:13:35.594901	237.5	20.4	-77.6	8.0
2026-01-05 19:13:37.870590	238.0	20.5	-77.6	8.0
2026-01-05 19:13:40.148021	238.5	20.7	-77.4	8.1
2026-01-05 19:13:42.423942	239.0	20.8	-77.5	9.0
2026-01-05 19:13:44.699895	239.5	21.0	-77.1	8.9
2026-01-05 19:13:46.975051	240.1	21.1	-77.4	8.1
2026-01-05 19:13:49.251338	240.6	21.3	-77.0	8.3
2026-01-05 19:13:51.510807	241.1	21.4	-77.2	8.9
2026-01-05 19:13:53.767981	241.7	21.6	-76.9	8.4
2026-01-05 19:13:56.027991	242.2	21.7	-77.0	7.8
2026-01-05 19:13:58.285918	242.8	21.9	-76.9	8.5
2026-01-05 19:14:00.544672	243.3	22.0	-77.0	8.5
2026-01-05 19:14:02.802609	243.9	22.1	-76.8	8.3
2026-01-05 19:14:05.063093	244.4	22.3	-76.9	8.1
2026-01-05 19:14:07.317952	245.0	22.4	-76.6	7.0
2026-01-05 19:14:09.574365	245.6	22.5	-76.7	8.3
2026-01-05 19:14:11.833871	246.1	22.7	-76.6	7.7
2026-01-05 19:14:14.100028	246.7	22.8	-76.5	7.7
2026-01-05 19:14:16.370083	247.3	22.9	-76.5	8.8
2026-01-05 19:14:18.634950	247.9	23.0	-76.3	8.7
2026-01-05 19:14:20.901284	248.5	23.1	-76.3	8.6
2026-01-05 19:14:23.168234	249.1	23.3	-76.3	7.6
2026-01-05 19:14:25.438230	249.7	23.4	-76.3	8.6
2026-01-05 19:14:27.709615	250.3	23.5	-75.6	6.7
2026-01-05 19:14:29.979692	250.9	23.6	-75.3	6.4
2026-01-05 19:14:32.250017	251.6	23.7	-76.3	8.6
2026-01-05 19:14:34.519800	252.2	23.8	-75.8	7.6
2026-01-05 19:14:36.794561	252.8	23.9	-75.9	8.5
2026-01-05 19:14:39.069556	253.4	24.0	-76.1	8.5
2026-01-05 19:14:41.347100	254.1	24.1	-76.2	8.4
2026-01-05 19:14:43.621665	254.7	24.2	-76.0	8.8
2026-01-05 19:14:45.895106	255.4	24.3	-76.0	8.3
2026-01-05 19:14:48.169846	256.0	24.3	-76.1	8.7
2026-01-05 19:14:50.445864	256.7	24.4	-76.1	8.4
2026-01-05 19:14:52.720102	257.3	24.5	-76.1	7.0
2026-01-05 19:14:54.997182	258.0	24.6	-76.3	7.6
2026-01-05 19:14:57.270665	258.6	24.6	-76.3	7.7
2026-01-05 19:14:59.543121	259.3	24.7	-76.5	8.7
2026-01-05 19:15:01.813656	260.0	24.8	-76.2	7.8
2026-01-05 19:15:04.083234	260.6	24.8	-76.1	8.0
2026-01-05 19:15:06.354416	261.3	24.9	-76.2	8.6
2026-01-05 19:15:08.626448	262.0	24.9	-76.4	9.2
2026-01-05 19:15:10.894074	262.6	24.9	-76.1	8.6
2026-01-05 19:15:13.165741	263.3	25.0	-76.4	9.1
2026-01-05 19:15:15.434888	264.0	25.0	-76.6	9.2
2026-01-05 19:15:17.705643	264.7	25.1	-76.2	6.8
2026-01-05 19:15:19.977726	265.3	25.1	-76.8	8.0
2026-01-05 19:15:22.253969	266.0	25.1	-76.7	8.2
2026-01-05 19:15:24.534651	266.7	25.1	-76.6	8.2
2026-01-05 19:15:26.812762	267.4	25.1	-76.8	7.8
2026-01-05 19:15:29.087299	268.1	25.2	-76.6	7.6
2026-01-05 19:15:31.362717	268.7	25.2	-76.9	8.2
2026-01-05 19:15:33.636120	269.4	25.2	-77.3	8.7
2026-01-05 19:15:35.906512	270.1	25.2	-77.4	9.1
2026-01-05 19:15:38.171951	270.8	25.2	-76.6	7.7
2026-01-05 19:15:40.440738	271.5	25.1	-76.6	7.5
2026-01-05 19:15:42.705503	272.1	25.1	-76.5	6.9
2026-01-05 19:15:44.971788	272.8	25.1	-76.2	8.0
2026-01-05 19:15:47.241711	273.5	25.1	-76.7	7.9
2026-01-05 19:15:49.512880	274.2	25.1	-76.1	7.2
2026-01-05 19:15:51.783470	274.8	25.0	-76.5	7.2
2026-01-05 19:15:54.052946	275.5	25.0	-76.7	7.3
2026-01-05 19:15:56.325988	276.2	25.0	-76.5	7.9
2026-01-05 19:15:58.595853	276.9	24.9	-75.7	6.7
2026-01-05 19:16:00.867261	277.5	24.9	-76.1	6.8
2026-01-05 19:16:03.137776	278.2	24.8	-75.2	4.8
2026-01-05 19:16:05.411966	278.9	24.8	-75.9	7.1
2026-01-05 19:16:07.684686	279.5	24.7	-74.4	4.1
2026-01-05 19:16:09.955752	280.2	24.6	-75.0	6.0
2026-01-05 19:16:12.228474	280.8	24.6	-75.3	5.8
2026-01-05 19:16:14.499424	281.5	24.5	-73.4	4.1
2026-01-05 19:16:16.771575	282.1	24.4	-73.9	0.9
2026-01-05 19:16:19.043063	282.8	24.4	-75.3	6.5
2026-01-05 19:16:21.314344	283.4	24.3	-75.9	6.5
2026-01-05 19:16:23.582702	284.1	24.2	-74.6	4.7
2026-01-05 19:16:25.850054	284.7	24.1	-75.0	5.7
2026-01-05 19:16:28.120281	285.3	24.0	-74.8	2.4
2026-01-05 19:16:30.396858	286.0	23.9	-75.6	6.8
2026-01-05 19:16:32.667385	286.6	23.8	-75.1	4.7
2026-01-05 19:16:34.943152	287.2	23.7	-75.4	3.9
2026-01-05 19:16:37.224123	287.8	23.6	-74.9	1.6
2026-01-05 19:16:39.499550	288.5	23.5	-74.7	2.6
2026-01-05 19:16:41.776729	289.1	23.4	-75.2	5.8
2026-01-05 19:16:44.050487	289.7	23.3	-75.0	3.7
2026-01-05 19:16:46.323489	290.3	23.2	-74.9	3.5
2026-01-05 19:16:48.593835	290.9	23.1	-74.0	2.8
2026-01-05 19:16:50.860109	291.5	22.9	-73.6	1.7
2026-01-05 19:16:53.124561	292.1	22.8	-74.1	2.8
2026-01-05 19:16:55.391121	292.6	22.7	-75.4	4.9
2026-01-05 19:16:57.658841	293.2	22.6	-75.5	3.8
2026-01-05 19:16:59.923314	293.8	22.4	-74.2	0.9
2026-01-05 19:17:02.187176	294.4	22.3	-75.5	1.5
2026-01-05 19:17:04.453185	294.9	22.2	-74.1	0.5
2026-01-05 19:17:06.719177	295.5	22.0	-75.5	3.0
2026-01-05 19:17:08.984375	296.0	21.9	-76.1	3.7
2026-01-05 19:17:11.257988	296.6	21.8	-75.3	1.5
2026-01-05 19:17:13.530185	297.1	21.6	-75.4	2.3
2026-01-05 19:17:15.802828	297.7	21.5	-75.6	3.1
2026-01-05 19:17:18.074466	298.2	21.3	-75.8	0.0
2026-01-05 19:17:20.348802	298.7	21.2	-75.7	2.9
2026-01-05 19:17:22.624152	299.3	21.0	-75.7	2.5
2026-01-05 19:17:24.904631	299.8	20.9	-76.0	0.7
2026-01-05 19:17:27.179645	300.3	20.7	-75.7	5.0
2026-01-05 19:17:29.457327	300.8	20.6	-74.8	2.6
2026-01-05 19:17:31.733312	301.3	20.4	-75.7	0.0
2026-01-05 19:17:34.010616	301.8	20.3	-75.3	1.7
2026-01-05 19:17:36.281746	302.3	20.1	-74.0	1.1
2026-01-05 19:17:38.558947	302.8	20.0	-73.2	0.0
2026-01-05 19:17:40.833519	303.3	19.8	-75.1	2.5
2026-01-05 19:17:43.108392	303.8	19.7	-75.1	2.2
2026-01-05 19:17:45.389063	304.3	19.5	-74.0	2.0
2026-01-05 19:17:47.661914	304.7	19.3	-75.3	2.9
2026-01-05 19:17:49.939413	305.2	19.2	-75.1	3.9
2026-01-05 19:17:52.213031	305.7	19.0	-74.9	4.1
2026-01-05 19:17:54.489947	306.1	18.8	-74.8	1.1
2026-01-05 19:17:56.765802	306.6	18.7	-75.3	0.0
2026-01-05 19:17:59.021440	307.0	18.5	-73.4	0.0
2026-01-05 19:18:01.281374	307.5	18.4	-74.0	0.0
2026-01-05 19:18:03.540775	307.9	18.2	-75.2	0.0
2026-01-05 19:18:05.798290	308.3	18.0	-73.5	0.0
2026-01-05 19:18:08.058610	308.7	17.9	-73.2	0.0
2026-01-05 19:18:10.315806	309.2	17.7	-73.9	0.0
2026-01-05 19:18:12.572374	309.6	17.5	-74.2	0.0
2026-01-05 19:18:14.829285	310.0	17.4	-73.2	0.0
2026-01-05 19:18:17.090527	310.4	17.2	-73.6	0.0
2026-01-05 19:18:19.352573	310.8	17.0	-71.7	0.0
2026-01-05 19:18:21.616024	311.2	16.9	-73.6	0.0
2026-01-05 19:18:23.885583	311.6	16.7	-74.2	0.0
2026-01-05 19:18:26.146811	312.0	16.5	-72.7	0.0
2026-01-05 19:18:28.417710	312.4	16.4	-74.4	0.4
2026-01-05 19:18:30.693109	312.8	16.2	-73.6	0.0
2026-01-05 19:18:32.966777	313.2	16.0	-72.3	0.0
2026-01-05 19:18:35.240178	313.5	15.9	-73.9	0.0
2026-01-05 19:18:37.514863	313.9	15.7	-74.6	1.0
2026-01-05 19:18:39.792248	314.3	15.5	-73.5	0.1
2026-01-05 19:18:42.068195	314.6	15.4	-73.9	0.0
2026-01-05 19:18:44.344294	315.0	15.2	-74.4	0.0
2026-01-05 19:18:46.615863	315.4	15.0	-72.4	0.0
2026-01-05 19:18:48.894059	315.7	14.9	-74.1	0.0
2026-01-05 19:18:51.166482	316.1	14.7	-73.2	0.0
2026-01-05 19:18:53.435449	316.4	14.5	-72.4	0.0
2026-01-05 19:18:55.711766	316.7	14.4	-74.2	0.0
2026-01-05 19:18:57.985845	317.1	14.2	-75.1	0.0
2026-01-05 19:19:00.260337	317.4	14.0	-73.6	0.0
2026-01-05 19:19:02.534533	317.7	13.9	-74.1	0.0
2026-01-05 19:19:04.810940	318.1	13.7	-74.4	0.0
2026-01-05 19:19:07.084063	318.4	13.5	-74.5	0.0
2026-01-05 19:19:09.360353	318.7	13.4	-75.2	0.0
2026-01-05 19:19:11.634695	319.0	13.2	-73.4	0.0
2026-01-05 19:19:13.905296	319.3	13.0	-73.0	0.0
2026-01-05 19:19:16.180535	319.6	12.9	-73.7	0.0
2026-01-05 19:19:18.453586	320.0	12.7	-73.3	0.0
2026-01-05 19:19:20.726417	320.3	12.5	-74.4	0.0
2026-01-05 19:19:23.000313	320.6	12.4	-74.2	0.0
2026-01-05 19:19:25.269263	320.8	12.2	-73.4	0.0
2026-01-05 19:19:27.543858	321.1	12.1	-73.3	0.0
2026-01-05 19:19:29.819958	321.4	11.9	-74.0	0.0
2026-01-05 19:19:32.096839	321.7	11.7	-73.5	0.0
2026-01-05 19:19:34.373051	322.0	11.6	-72.9	0.0
2026-01-05 19:19:36.649875	322.3	11.4	-74.4	0.0
2026-01-05 19:19:38.923381	322.6	11.3	-73.6	0.0
2026-01-05 19:19:41.199958	322.8	11.1	-73.4	0.0
2026-01-05 19:19:43.473893	323.1	10.9	-71.1	0.0
2026-01-05 19:19:45.749486	323.4	10.8	-75.7	0.0
2026-01-05 19:19:48.020751	323.6	10.6	-75.9	0.0
2026-01-05 19:19:50.298130	323.9	10.5	-78.6	0.0
2026-01-05 19:19:52.573525	324.2	10.3	-80.9	0.0
2026-01-05 19:19:54.847738	324.4	10.1	-81.0	0.0
#Closed at: 2026-01-05 19:11:07.754753