passes_logs/2026/01/05/planumMaritime01/planumMaritime01__20260105_060644_METOP-B_rec.log

#Pass ID: 20260105_060644_METOP-B
#Satellite: METOP-B
#Configuration: METOP-B
#Start time: 2026-01-05 06:06:49.076491

#LorettStation: 1.0.0 05.05.2024
#Station: planumMaritime01
#Location: 37.49445 lon 55.92918 lat
#TLE: 1 38771U 12049A   26004.60009303  .00000237  00000+0  12823-3 0  9995
#TLE: 2 38771  98.6765  59.1677 0003376  97.4732 262.6829 14.21418730690028

#Time	Az	El	Level	SNR
2026-01-05 06:06:51.256998	31.7	10.2	-74.3	0.0
2026-01-05 06:06:53.509525	31.9	10.3	-73.2	0.0
2026-01-05 06:06:55.762438	32.2	10.5	-70.8	0.0
2026-01-05 06:06:58.017049	32.4	10.7	-64.8	0.0
2026-01-05 06:07:00.271197	32.6	10.8	-62.4	0.0
2026-01-05 06:07:02.522376	32.8	11.0	-63.4	0.0
2026-01-05 06:07:04.772062	33.1	11.2	-63.3	0.0
2026-01-05 06:07:07.026404	33.3	11.4	-61.2	0.0
2026-01-05 06:07:09.279517	33.5	11.5	-62.9	0.0
2026-01-05 06:07:11.536035	33.8	11.7	-61.8	0.0
2026-01-05 06:07:13.787350	34.0	11.9	-61.5	0.0
2026-01-05 06:07:16.039736	34.2	12.1	-61.0	0.0
2026-01-05 06:07:18.294539	34.5	12.2	-60.0	0.0
2026-01-05 06:07:20.547392	34.7	12.4	-60.1	0.0
2026-01-05 06:07:22.801720	35.0	12.6	-61.2	0.0
2026-01-05 06:07:25.054610	35.2	12.8	-57.7	0.0
2026-01-05 06:07:27.306438	35.5	12.9	-62.2	0.0
2026-01-05 06:07:29.558986	35.8	13.1	-60.6	0.0
2026-01-05 06:07:31.810505	36.0	13.3	-59.6	0.0
2026-01-05 06:07:34.065660	36.3	13.5	-62.0	0.0
2026-01-05 06:07:36.316947	36.6	13.7	-62.8	0.0
2026-01-05 06:07:38.569681	36.8	13.9	-62.9	0.0
2026-01-05 06:07:40.823206	37.1	14.0	-64.8	0.0
2026-01-05 06:07:43.074045	37.4	14.2	-64.6	0.0
2026-01-05 06:07:45.329505	37.7	14.4	-61.2	0.0
2026-01-05 06:07:47.581727	38.0	14.6	-64.4	0.0
2026-01-05 06:07:49.836418	38.2	14.8	-63.4	0.0
2026-01-05 06:07:52.091495	38.5	15.0	-63.2	0.0
2026-01-05 06:07:54.345345	38.8	15.2	-62.1	0.0
2026-01-05 06:07:56.597855	39.1	15.4	-60.1	0.0
2026-01-05 06:07:58.850031	39.4	15.6	-62.7	0.0
2026-01-05 06:08:01.102913	39.7	15.7	-64.3	0.0
2026-01-05 06:08:03.356359	40.1	15.9	-64.0	0.0
2026-01-05 06:08:05.611320	40.4	16.1	-61.6	0.0
2026-01-05 06:08:07.867058	40.7	16.3	-65.4	0.0
2026-01-05 06:08:10.120084	41.0	16.5	-63.4	0.0
2026-01-05 06:08:12.374734	41.4	16.7	-66.7	0.0
2026-01-05 06:08:14.629850	41.7	16.9	-64.8	0.0
2026-01-05 06:08:16.883599	42.0	17.1	-67.4	0.0
2026-01-05 06:08:19.136204	42.4	17.3	-65.2	0.0
2026-01-05 06:08:21.388687	42.7	17.5	-65.4	0.0
2026-01-05 06:08:23.643935	43.1	17.7	-66.4	0.0
2026-01-05 06:08:25.894676	43.4	17.9	-64.2	0.0
2026-01-05 06:08:28.145805	43.8	18.1	-63.5	0.0
2026-01-05 06:08:30.397685	44.1	18.3	-69.2	0.0
2026-01-05 06:08:32.649572	44.5	18.5	-68.1	0.0
2026-01-05 06:08:34.902744	44.9	18.7	-66.5	0.0
2026-01-05 06:08:37.160506	45.3	18.9	-65.4	0.0
2026-01-05 06:08:39.411852	45.6	19.1	-66.5	0.0
2026-01-05 06:08:41.664375	46.0	19.3	-65.5	0.0
2026-01-05 06:08:43.921381	46.4	19.5	-66.6	0.0
2026-01-05 06:08:46.173322	46.8	19.7	-67.5	0.0
2026-01-05 06:08:48.428622	47.2	19.9	-67.9	0.0
2026-01-05 06:08:50.680107	47.6	20.1	-66.6	0.0
2026-01-05 06:08:52.934353	48.0	20.4	-65.7	0.0
2026-01-05 06:08:55.187750	48.5	20.6	-69.1	0.0
2026-01-05 06:08:57.442174	48.9	20.8	-69.1	0.0
2026-01-05 06:08:59.694777	49.3	21.0	-66.4	0.0
2026-01-05 06:09:01.948707	49.8	21.2	-66.4	0.0
2026-01-05 06:09:04.203125	50.2	21.4	-67.6	0.0
2026-01-05 06:09:06.456312	50.6	21.6	-67.8	0.0
2026-01-05 06:09:08.710940	51.1	21.8	-67.3	0.0
2026-01-05 06:09:10.965799	51.6	22.0	-67.0	0.0
2026-01-05 06:09:13.220458	52.0	22.2	-69.5	0.0
2026-01-05 06:09:15.473821	52.5	22.4	-68.0	0.0
2026-01-05 06:09:17.728787	53.0	22.6	-67.3	0.0
2026-01-05 06:09:19.983382	53.5	22.8	-69.3	0.0
2026-01-05 06:09:22.237530	54.0	23.0	-69.1	0.0
2026-01-05 06:09:24.492052	54.5	23.2	-69.5	0.0
2026-01-05 06:09:26.746916	55.0	23.4	-68.9	0.0
2026-01-05 06:09:28.999667	55.5	23.6	-69.7	0.0
2026-01-05 06:09:31.256979	56.0	23.8	-68.1	0.0
2026-01-05 06:09:33.511610	56.5	24.1	-69.3	0.0
2026-01-05 06:09:35.770205	57.0	24.3	-70.2	0.0
2026-01-05 06:09:38.021869	57.6	24.5	-68.8	0.0
2026-01-05 06:09:40.277267	58.1	24.6	-69.6	0.6
2026-01-05 06:09:42.537326	58.7	24.8	-69.2	0.0
2026-01-05 06:09:44.790097	59.2	25.0	-70.2	0.5
2026-01-05 06:09:47.045151	59.8	25.2	-69.7	0.0
2026-01-05 06:09:49.300808	60.4	25.4	-69.8	0.1
2026-01-05 06:09:51.556117	61.0	25.6	-69.8	1.7
2026-01-05 06:09:53.812755	61.5	25.8	-68.9	0.0
2026-01-05 06:09:56.065886	62.1	26.0	-70.5	0.3
2026-01-05 06:09:58.320642	62.7	26.2	-69.6	0.1
2026-01-05 06:10:00.574620	63.3	26.4	-70.1	0.4
2026-01-05 06:10:02.826890	63.9	26.6	-69.9	0.0
2026-01-05 06:10:05.079746	64.6	26.7	-69.4	2.0
2026-01-05 06:10:07.332117	65.2	26.9	-69.7	2.0
2026-01-05 06:10:09.585136	65.8	27.1	-70.5	2.8
2026-01-05 06:10:11.839439	66.5	27.3	-70.8	3.4
2026-01-05 06:10:14.094655	67.1	27.4	-69.9	0.0
2026-01-05 06:10:16.346374	67.8	27.6	-71.4	4.8
2026-01-05 06:10:18.596493	68.4	27.8	-71.3	1.5
2026-01-05 06:10:20.846657	69.1	27.9	-71.2	3.3
2026-01-05 06:10:23.099612	69.8	28.1	-71.0	2.7
2026-01-05 06:10:25.352819	70.5	28.2	-71.7	5.0
2026-01-05 06:10:27.605242	71.1	28.4	-72.6	5.6
2026-01-05 06:10:29.858612	71.8	28.5	-70.9	4.9
2026-01-05 06:10:32.111258	72.5	28.7	-72.0	4.9
2026-01-05 06:10:34.365355	73.2	28.8	-71.4	0.1
2026-01-05 06:10:36.618494	73.9	29.0	-72.5	6.4
2026-01-05 06:10:38.867077	74.7	29.1	-72.5	6.0
2026-01-05 06:10:41.120798	75.4	29.2	-72.1	4.4
2026-01-05 06:10:43.374029	76.1	29.3	-72.2	4.9
2026-01-05 06:10:45.623569	76.9	29.5	-71.4	3.5
2026-01-05 06:10:47.875531	77.6	29.6	-71.3	3.6
2026-01-05 06:10:50.128573	78.3	29.7	-71.9	6.9
2026-01-05 06:10:52.383804	79.1	29.8	-72.4	6.9
2026-01-05 06:10:54.640303	79.8	29.9	-72.6	4.9
2026-01-05 06:10:56.893256	80.6	30.0	-72.1	7.1
2026-01-05 06:10:59.145216	81.4	30.1	-71.6	5.8
2026-01-05 06:11:01.396571	82.1	30.1	-72.0	6.3
2026-01-05 06:11:03.648182	82.9	30.2	-71.4	6.9
2026-01-05 06:11:05.898970	83.7	30.3	-71.7	7.2
2026-01-05 06:11:08.149838	84.5	30.4	-71.5	7.3
2026-01-05 06:11:10.403304	85.2	30.4	-72.1	7.8
2026-01-05 06:11:12.655450	86.0	30.5	-71.8	8.4
2026-01-05 06:11:14.909005	86.8	30.5	-72.6	9.3
2026-01-05 06:11:17.164578	87.6	30.6	-72.6	8.0
2026-01-05 06:11:19.421245	88.4	30.6	-73.3	8.3
2026-01-05 06:11:21.674119	89.2	30.7	-72.4	8.2
2026-01-05 06:11:23.925832	90.0	30.7	-72.9	9.2
2026-01-05 06:11:26.178189	90.8	30.7	-72.1	8.1
2026-01-05 06:11:28.430021	91.6	30.7	-72.4	6.6
2026-01-05 06:11:30.680422	92.4	30.7	-72.6	9.1
2026-01-05 06:11:32.928425	93.2	30.7	-73.4	9.0
2026-01-05 06:11:35.180242	94.0	30.7	-73.4	9.5
2026-01-05 06:11:37.436710	94.8	30.7	-72.7	5.0
2026-01-05 06:11:39.692565	95.6	30.7	-73.3	7.7
2026-01-05 06:11:41.948827	96.4	30.7	-73.0	8.8
2026-01-05 06:11:44.203092	97.2	30.7	-73.1	8.4
2026-01-05 06:11:46.454640	98.0	30.6	-72.8	7.5
2026-01-05 06:11:48.708569	98.8	30.6	-73.6	8.5
2026-01-05 06:11:50.958417	99.5	30.6	-72.8	7.7
2026-01-05 06:11:53.211265	100.3	30.5	-73.6	7.9
2026-01-05 06:11:55.466066	101.1	30.4	-72.7	7.2
2026-01-05 06:11:57.716587	101.9	30.4	-72.9	7.6
2026-01-05 06:11:59.971776	102.7	30.3	-73.2	9.6
2026-01-05 06:12:02.224836	103.5	30.3	-73.8	7.6
2026-01-05 06:12:04.478190	104.2	30.2	-73.7	8.6
2026-01-05 06:12:06.735858	105.0	30.1	-73.9	6.8
2026-01-05 06:12:08.990799	105.8	30.0	-73.6	5.8
2026-01-05 06:12:11.243472	106.5	29.9	-73.8	7.9
2026-01-05 06:12:13.499280	107.3	29.8	-74.3	7.6
2026-01-05 06:12:15.753125	108.0	29.7	-73.9	7.2
2026-01-05 06:12:18.003708	108.8	29.6	-74.1	8.2
2026-01-05 06:12:20.254582	109.5	29.5	-74.0	8.4
2026-01-05 06:12:22.508504	110.3	29.4	-73.5	8.0
2026-01-05 06:12:24.765397	111.0	29.2	-74.1	7.7
2026-01-05 06:12:27.017992	111.7	29.1	-74.0	8.9
2026-01-05 06:12:29.267824	112.5	29.0	-74.6	8.8
2026-01-05 06:12:31.520645	113.2	28.9	-74.0	7.4
2026-01-05 06:12:33.774389	113.9	28.7	-74.2	8.4
2026-01-05 06:12:36.025326	114.6	28.6	-74.5	9.3
2026-01-05 06:12:38.278840	115.3	28.4	-74.0	8.9
2026-01-05 06:12:40.532447	116.0	28.3	-74.3	9.4
2026-01-05 06:12:42.784065	116.7	28.1	-74.1	9.9
2026-01-05 06:12:45.035854	117.3	28.0	-73.6	9.3
2026-01-05 06:12:47.287310	118.0	27.8	-74.0	9.7
2026-01-05 06:12:49.546476	118.7	27.6	-74.0	9.3
2026-01-05 06:12:51.798842	119.3	27.5	-73.7	10.1
2026-01-05 06:12:54.048128	120.0	27.3	-73.8	9.4
2026-01-05 06:12:56.299384	120.6	27.1	-73.6	9.2
2026-01-05 06:12:58.552758	121.3	27.0	-74.1	10.3
2026-01-05 06:13:00.805766	121.9	26.8	-74.1	9.9
2026-01-05 06:13:03.058332	122.5	26.6	-73.8	9.5
2026-01-05 06:13:05.310954	123.1	26.4	-74.2	9.0
2026-01-05 06:13:07.563844	123.7	26.2	-74.1	8.2
2026-01-05 06:13:09.818599	124.3	26.0	-74.3	9.0
2026-01-05 06:13:12.070396	124.9	25.8	-74.4	8.7
2026-01-05 06:13:14.326502	125.5	25.7	-74.2	8.0
2026-01-05 06:13:16.579446	126.1	25.5	-74.6	8.3
2026-01-05 06:13:18.834440	126.7	25.3	-74.0	6.9
2026-01-05 06:13:21.086255	127.3	25.1	-74.1	6.8
2026-01-05 06:13:23.340076	127.8	24.9	-74.4	7.9
2026-01-05 06:13:25.592281	128.4	24.7	-74.1	6.8
2026-01-05 06:13:27.846147	128.9	24.5	-74.6	8.0
2026-01-05 06:13:30.098382	129.5	24.3	-74.5	7.7
2026-01-05 06:13:32.354856	130.0	24.1	-74.3	7.8
2026-01-05 06:13:34.608493	130.5	23.9	-74.5	7.9
2026-01-05 06:13:36.862405	131.0	23.7	-74.2	7.1
2026-01-05 06:13:39.119742	131.6	23.5	-74.4	7.5
2026-01-05 06:13:41.374416	132.1	23.3	-74.4	7.1
2026-01-05 06:13:43.630352	132.6	23.1	-74.5	6.8
2026-01-05 06:13:45.882794	133.1	22.9	-74.7	6.7
2026-01-05 06:13:48.136912	133.6	22.6	-74.7	8.6
2026-01-05 06:13:50.389857	134.0	22.4	-74.5	5.7
2026-01-05 06:13:52.641921	134.5	22.2	-74.9	6.8
2026-01-05 06:13:54.895352	135.0	22.0	-74.9	7.4
2026-01-05 06:13:57.150100	135.4	21.8	-75.0	6.0
2026-01-05 06:13:59.404328	135.9	21.6	-75.2	7.1
2026-01-05 06:14:01.656769	136.4	21.4	-74.7	5.9
2026-01-05 06:14:03.907915	136.8	21.2	-74.9	7.1
2026-01-05 06:14:06.162962	137.2	21.0	-74.9	6.7
2026-01-05 06:14:08.417635	137.7	20.8	-74.9	7.6
2026-01-05 06:14:10.670759	138.1	20.6	-75.0	7.2
2026-01-05 06:14:12.922798	138.5	20.4	-75.1	7.2
2026-01-05 06:14:15.176273	138.9	20.2	-75.2	7.1
2026-01-05 06:14:17.429853	139.4	19.9	-74.9	7.2
2026-01-05 06:14:19.683901	139.8	19.7	-75.1	7.9
2026-01-05 06:14:21.935859	140.2	19.5	-75.2	8.1
2026-01-05 06:14:24.191653	140.6	19.3	-74.9	7.5
2026-01-05 06:14:26.442238	141.0	19.1	-75.3	7.9
2026-01-05 06:14:28.691150	141.3	18.9	-75.1	7.9
2026-01-05 06:14:30.942937	141.7	18.7	-75.2	7.6
2026-01-05 06:14:33.197648	142.1	18.5	-75.4	7.9
2026-01-05 06:14:35.450295	142.5	18.3	-75.5	7.0
2026-01-05 06:14:37.705541	142.8	18.1	-75.3	6.8
2026-01-05 06:14:39.955905	143.2	17.9	-75.2	8.1
2026-01-05 06:14:42.206745	143.5	17.7	-74.3	5.0
2026-01-05 06:14:44.460042	143.9	17.5	-75.2	7.4
2026-01-05 06:14:46.712498	144.2	17.3	-75.6	7.9
2026-01-05 06:14:48.966102	144.6	17.1	-75.4	6.9
2026-01-05 06:14:51.219931	144.9	16.9	-75.3	7.2
2026-01-05 06:14:53.473183	145.3	16.7	-75.5	5.5
2026-01-05 06:14:55.724979	145.6	16.5	-75.2	5.9
2026-01-05 06:14:57.977663	145.9	16.3	-74.9	6.5
2026-01-05 06:15:00.231650	146.2	16.1	-75.0	5.3
2026-01-05 06:15:02.483800	146.6	15.9	-75.4	5.4
2026-01-05 06:15:04.735750	146.9	15.7	-75.2	6.4
2026-01-05 06:15:06.987688	147.2	15.5	-74.7	4.7
2026-01-05 06:15:09.236909	147.5	15.3	-75.1	5.4
2026-01-05 06:15:11.489667	147.8	15.1	-74.9	4.2
2026-01-05 06:15:13.743552	148.1	14.9	-75.0	5.0
2026-01-05 06:15:15.995671	148.4	14.7	-75.5	4.2
2026-01-05 06:15:18.246630	148.7	14.6	-75.4	5.0
2026-01-05 06:15:20.499489	149.0	14.4	-75.6	5.3
2026-01-05 06:15:22.752575	149.2	14.2	-75.6	4.7
2026-01-05 06:15:25.007501	149.5	14.0	-75.9	4.6
2026-01-05 06:15:27.257774	149.8	13.8	-75.9	5.4
2026-01-05 06:15:29.508316	150.1	13.6	-75.2	0.0
2026-01-05 06:15:31.762268	150.3	13.4	-76.0	4.2
2026-01-05 06:15:34.017665	150.6	13.2	-75.7	5.5
2026-01-05 06:15:36.267097	150.9	13.1	-75.7	3.6
2026-01-05 06:15:38.518509	151.1	12.9	-76.1	4.0
2026-01-05 06:15:40.771321	151.4	12.7	-76.0	4.7
2026-01-05 06:15:43.021080	151.6	12.5	-76.1	5.4
2026-01-05 06:15:45.273346	151.9	12.3	-75.7	5.4
2026-01-05 06:15:47.526121	152.1	12.2	-76.2	4.0
2026-01-05 06:15:49.784451	152.4	12.0	-75.9	4.2
2026-01-05 06:15:52.038010	152.6	11.8	-75.8	4.7
2026-01-05 06:15:54.293872	152.9	11.6	-76.1	3.3
2026-01-05 06:15:56.550389	153.1	11.4	-76.4	4.3
2026-01-05 06:15:58.802815	153.3	11.3	-75.5	3.4
2026-01-05 06:16:01.057763	153.6	11.1	-75.3	2.5
2026-01-05 06:16:03.311625	153.8	10.9	-75.2	3.2
2026-01-05 06:16:05.565523	154.0	10.8	-76.9	0.8
2026-01-05 06:16:07.816939	154.2	10.6	-79.3	0.0
2026-01-05 06:16:10.073006	154.5	10.4	-79.1	0.0
2026-01-05 06:16:12.326041	154.7	10.2	-80.3	0.0
2026-01-05 06:16:14.575658	154.9	10.1	-80.2	0.0
#Closed at: 2026-01-05 06:06:44.083350