passes_logs/2026/01/05/planumMaritime01/planumMaritime01__20260105_100412_METEOR-M2_4_rec.log

#Pass ID: 20260105_100412_METEOR-M2 4
#Satellite: METEOR-M2 4
#Configuration: METEOR-M2 4
#Start time: 2026-01-05 10:04:17.205540

#LorettStation: 1.0.0 05.05.2024
#Station: planumMaritime01
#Location: 37.49445 lon 55.92918 lat
#TLE: 1 59051U 24039A   26004.63706891  .00000062  00000+0  47407-4 0  9993
#TLE: 2 59051  98.6798 326.1906 0006032 286.5360  73.5155 14.22405675 96015

#Time	Az	El	Level	SNR
2026-01-05 10:04:19.370201	115.3	10.2	-80.0	2.6
2026-01-05 10:04:21.626615	115.0	10.3	-79.4	2.2
2026-01-05 10:04:23.880685	114.8	10.5	-77.2	2.3
2026-01-05 10:04:26.138790	114.6	10.7	-77.3	3.0
2026-01-05 10:04:28.396736	114.4	10.9	-77.2	4.7
2026-01-05 10:04:30.651349	114.2	11.0	-77.3	1.9
2026-01-05 10:04:32.908715	114.0	11.2	-77.0	0.5
2026-01-05 10:04:35.168060	113.7	11.4	-76.1	0.4
2026-01-05 10:04:37.426712	113.5	11.6	-77.0	3.1
2026-01-05 10:04:39.685956	113.3	11.7	-77.3	4.8
2026-01-05 10:04:41.954139	113.0	11.9	-76.2	1.5
2026-01-05 10:04:44.230651	112.8	12.1	-77.7	4.4
2026-01-05 10:04:46.503858	112.6	12.3	-77.8	2.2
2026-01-05 10:04:48.780421	112.3	12.5	-78.2	4.6
2026-01-05 10:04:51.054248	112.1	12.7	-78.3	5.7
2026-01-05 10:04:53.331189	111.8	12.8	-77.7	5.3
2026-01-05 10:04:55.607124	111.6	13.0	-77.5	3.4
2026-01-05 10:04:57.883957	111.3	13.2	-77.4	4.9
2026-01-05 10:05:00.149131	111.0	13.4	-76.9	4.4
2026-01-05 10:05:02.414623	110.8	13.6	-78.0	2.5
2026-01-05 10:05:04.676993	110.5	13.8	-78.1	3.5
2026-01-05 10:05:06.941611	110.2	14.0	-78.3	3.8
2026-01-05 10:05:09.209006	110.0	14.2	-78.2	4.7
2026-01-05 10:05:11.472043	109.7	14.4	-76.3	1.3
2026-01-05 10:05:13.736908	109.4	14.5	-77.5	4.9
2026-01-05 10:05:16.006735	109.1	14.7	-75.8	1.4
2026-01-05 10:05:18.274756	108.8	14.9	-78.4	5.0
2026-01-05 10:05:20.548059	108.5	15.1	-78.1	5.0
2026-01-05 10:05:22.810025	108.2	15.3	-77.9	5.5
2026-01-05 10:05:25.082978	107.9	15.5	-77.4	4.1
2026-01-05 10:05:27.362003	107.6	15.7	-78.2	4.6
2026-01-05 10:05:29.636949	107.3	15.9	-77.6	5.3
2026-01-05 10:05:31.912600	107.0	16.1	-77.7	5.1
2026-01-05 10:05:34.185758	106.7	16.3	-77.8	3.6
2026-01-05 10:05:36.460930	106.4	16.5	-78.5	6.6
2026-01-05 10:05:38.732413	106.0	16.7	-78.1	5.1
2026-01-05 10:05:41.008828	105.7	16.9	-78.5	5.9
2026-01-05 10:05:43.285957	105.4	17.1	-78.2	6.1
2026-01-05 10:05:45.559172	105.0	17.3	-77.1	2.6
2026-01-05 10:05:47.834634	104.7	17.5	-77.4	4.6
2026-01-05 10:05:50.108613	104.3	17.7	-77.5	4.1
2026-01-05 10:05:52.388270	104.0	17.9	-77.4	2.9
2026-01-05 10:05:54.665025	103.6	18.2	-76.8	4.1
2026-01-05 10:05:56.940780	103.2	18.4	-77.4	4.3
2026-01-05 10:05:59.215694	102.9	18.6	-77.7	6.2
2026-01-05 10:06:01.490493	102.5	18.8	-77.8	4.9
2026-01-05 10:06:03.768967	102.1	19.0	-77.6	5.2
2026-01-05 10:06:06.046943	101.7	19.2	-76.7	3.1
2026-01-05 10:06:08.323577	101.3	19.4	-77.9	4.4
2026-01-05 10:06:10.597040	100.9	19.6	-76.5	3.1
2026-01-05 10:06:12.870215	100.5	19.8	-76.5	3.3
2026-01-05 10:06:15.140843	100.1	20.0	-76.8	4.6
2026-01-05 10:06:17.414104	99.7	20.2	-76.3	1.7
2026-01-05 10:06:19.689407	99.3	20.4	-77.0	3.7
2026-01-05 10:06:21.960953	98.9	20.7	-76.1	3.3
2026-01-05 10:06:24.230591	98.4	20.9	-76.8	6.3
2026-01-05 10:06:26.503205	98.0	21.1	-76.4	5.6
2026-01-05 10:06:28.771456	97.6	21.3	-76.6	4.6
2026-01-05 10:06:31.031295	97.1	21.5	-76.2	3.8
2026-01-05 10:06:33.294752	96.7	21.7	-75.0	3.3
2026-01-05 10:06:35.553120	96.2	21.9	-76.0	5.9
2026-01-05 10:06:37.813876	95.7	22.1	-75.9	6.5
2026-01-05 10:06:40.076168	95.3	22.3	-75.6	3.7
2026-01-05 10:06:42.348498	94.8	22.5	-75.8	5.5
2026-01-05 10:06:44.621583	94.3	22.7	-76.1	4.1
2026-01-05 10:06:46.894352	93.8	23.0	-76.9	6.4
2026-01-05 10:06:49.167265	93.3	23.2	-77.0	3.4
2026-01-05 10:06:51.439401	92.8	23.4	-74.6	1.4
2026-01-05 10:06:53.716989	92.3	23.6	-75.8	1.5
2026-01-05 10:06:55.993302	91.7	23.8	-76.0	3.2
2026-01-05 10:06:58.267636	91.2	24.0	-76.0	4.0
2026-01-05 10:07:00.537650	90.7	24.2	-76.1	5.0
2026-01-05 10:07:02.810475	90.1	24.4	-76.2	4.6
2026-01-05 10:07:05.084593	89.6	24.6	-75.6	2.6
2026-01-05 10:07:07.353995	89.0	24.8	-74.9	2.2
2026-01-05 10:07:09.622025	88.5	25.0	-75.9	4.8
2026-01-05 10:07:11.889629	87.9	25.2	-76.5	5.3
2026-01-05 10:07:14.156222	87.3	25.4	-76.7	5.5
2026-01-05 10:07:16.425150	86.7	25.6	-75.3	2.7
2026-01-05 10:07:18.694176	86.2	25.8	-75.2	3.8
2026-01-05 10:07:20.959137	85.6	25.9	-76.1	5.7
2026-01-05 10:07:23.228648	85.0	26.1	-75.8	3.1
2026-01-05 10:07:25.495056	84.3	26.3	-76.3	4.7
2026-01-05 10:07:27.768769	83.7	26.5	-76.6	3.7
2026-01-05 10:07:30.041080	83.1	26.7	-76.2	5.5
2026-01-05 10:07:32.314644	82.5	26.8	-76.5	3.6
2026-01-05 10:07:34.590841	81.8	27.0	-77.0	5.5
2026-01-05 10:07:36.865902	81.2	27.2	-76.2	4.5
2026-01-05 10:07:39.136961	80.5	27.4	-77.0	6.5
2026-01-05 10:07:41.414694	79.9	27.5	-75.0	0.3
2026-01-05 10:07:43.689087	79.2	27.7	-77.0	5.0
2026-01-05 10:07:45.963067	78.5	27.8	-76.9	6.5
2026-01-05 10:07:48.233433	77.8	28.0	-77.6	6.1
2026-01-05 10:07:50.514813	77.1	28.1	-76.6	5.1
2026-01-05 10:07:52.791310	76.4	28.3	-76.6	4.3
2026-01-05 10:07:55.062637	75.7	28.4	-77.3	6.5
2026-01-05 10:07:57.338138	75.0	28.6	-73.3	0.6
2026-01-05 10:07:59.613486	74.3	28.7	-75.7	2.7
2026-01-05 10:08:01.886369	73.6	28.8	-75.7	6.1
2026-01-05 10:08:04.162547	72.9	29.0	-76.2	6.0
2026-01-05 10:08:06.437955	72.1	29.1	-76.7	6.0
2026-01-05 10:08:08.711832	71.4	29.2	-76.6	4.8
2026-01-05 10:08:10.984642	70.7	29.3	-76.2	3.0
2026-01-05 10:08:13.258784	69.9	29.4	-75.7	2.1
2026-01-05 10:08:15.533201	69.2	29.5	-75.8	0.3
2026-01-05 10:08:17.807996	68.4	29.6	-76.3	5.3
2026-01-05 10:08:20.082043	67.7	29.7	-74.0	0.0
2026-01-05 10:08:22.357395	66.9	29.8	-76.2	0.0
2026-01-05 10:08:24.632769	66.1	29.9	-76.0	2.4
2026-01-05 10:08:26.909966	65.4	29.9	-76.6	2.3
2026-01-05 10:08:29.182035	64.6	30.0	-75.1	1.8
2026-01-05 10:08:31.458480	63.8	30.1	-74.4	0.0
2026-01-05 10:08:33.737252	63.0	30.1	-72.8	2.2
2026-01-05 10:08:36.014299	62.2	30.2	-75.1	2.0
2026-01-05 10:08:38.281103	61.4	30.2	-74.7	1.1
2026-01-05 10:08:40.538266	60.7	30.3	-76.0	2.6
2026-01-05 10:08:42.798047	59.9	30.3	-75.9	3.2
2026-01-05 10:08:45.060464	59.1	30.3	-75.4	2.7
2026-01-05 10:08:47.319650	58.3	30.3	-73.7	0.0
2026-01-05 10:08:49.580284	57.5	30.4	-73.8	0.0
2026-01-05 10:08:51.839645	56.7	30.4	-74.3	2.1
2026-01-05 10:08:54.100328	55.9	30.4	-75.2	1.2
2026-01-05 10:08:56.359474	55.2	30.4	-71.8	0.0
2026-01-05 10:08:58.617031	54.4	30.4	-74.0	1.2
2026-01-05 10:09:00.888122	53.6	30.3	-73.3	1.6
2026-01-05 10:09:03.164102	52.8	30.3	-73.8	0.0
2026-01-05 10:09:05.440718	52.0	30.3	-72.5	0.0
2026-01-05 10:09:07.714317	51.2	30.3	-73.6	0.0
2026-01-05 10:09:09.993190	50.4	30.2	-73.9	0.9
2026-01-05 10:09:12.265225	49.6	30.2	-72.7	0.0
2026-01-05 10:09:14.539139	48.9	30.1	-74.2	0.0
2026-01-05 10:09:16.816674	48.1	30.1	-74.8	2.7
2026-01-05 10:09:19.091937	47.3	30.0	-72.6	0.0
2026-01-05 10:09:21.364146	46.5	29.9	-68.7	0.0
2026-01-05 10:09:23.631736	45.8	29.8	-72.7	0.0
2026-01-05 10:09:25.896728	45.0	29.8	-73.8	0.0
2026-01-05 10:09:28.163046	44.2	29.7	-72.9	0.0
2026-01-05 10:09:30.430062	43.5	29.6	-74.4	0.0
2026-01-05 10:09:32.696172	42.7	29.5	-74.5	0.0
2026-01-05 10:09:34.959693	42.0	29.4	-73.7	0.0
2026-01-05 10:09:37.231126	41.2	29.3	-73.3	0.0
2026-01-05 10:09:39.508024	40.5	29.2	-73.9	0.0
2026-01-05 10:09:41.779239	39.8	29.1	-72.0	0.0
2026-01-05 10:09:44.057848	39.0	28.9	-71.7	0.0
2026-01-05 10:09:46.331254	38.3	28.8	-69.7	0.0
2026-01-05 10:09:48.605302	37.6	28.7	-71.4	0.0
2026-01-05 10:09:50.877070	36.9	28.5	-71.3	0.0
2026-01-05 10:09:53.153747	36.2	28.4	-69.9	0.0
2026-01-05 10:09:55.425447	35.5	28.3	-69.3	0.0
2026-01-05 10:09:57.695464	34.8	28.1	-71.6	0.0
2026-01-05 10:09:59.966055	34.1	28.0	-70.6	0.0
2026-01-05 10:10:02.236336	33.4	27.8	-72.1	0.0
2026-01-05 10:10:04.508005	32.8	27.7	-71.3	0.0
2026-01-05 10:10:06.780899	32.1	27.5	-71.9	0.0
2026-01-05 10:10:09.055109	31.5	27.3	-70.6	0.0
2026-01-05 10:10:11.327224	30.8	27.2	-71.4	0.0
2026-01-05 10:10:13.602651	30.2	27.0	-67.7	0.0
2026-01-05 10:10:15.876961	29.5	26.8	-69.8	0.0
2026-01-05 10:10:18.151249	28.9	26.6	-71.4	0.0
2026-01-05 10:10:20.424363	28.3	26.5	-70.6	0.0
2026-01-05 10:10:22.695783	27.7	26.3	-70.7	0.0
2026-01-05 10:10:24.972939	27.0	26.1	-69.6	0.0
2026-01-05 10:10:27.247090	26.4	25.9	-69.6	0.0
2026-01-05 10:10:29.517704	25.8	25.7	-69.1	0.0
2026-01-05 10:10:31.786181	25.3	25.5	-70.5	0.0
2026-01-05 10:10:34.059120	24.7	25.4	-68.6	0.0
2026-01-05 10:10:36.335117	24.1	25.2	-68.3	0.0
2026-01-05 10:10:38.610472	23.5	25.0	-70.1	0.0
2026-01-05 10:10:40.884265	23.0	24.8	-71.3	0.0
2026-01-05 10:10:43.160956	22.4	24.6	-69.6	0.0
2026-01-05 10:10:45.428741	21.9	24.4	-68.5	0.0
2026-01-05 10:10:47.683836	21.4	24.2	-69.7	0.0
2026-01-05 10:10:49.944278	20.8	24.0	-69.0	0.0
2026-01-05 10:10:52.204294	20.3	23.8	-69.7	0.0
2026-01-05 10:10:54.462136	19.8	23.6	-71.2	0.0
2026-01-05 10:10:56.718689	19.3	23.4	-69.7	0.0
2026-01-05 10:10:58.981165	18.8	23.2	-70.1	0.0
2026-01-05 10:11:01.241731	18.3	23.0	-71.3	0.0
2026-01-05 10:11:03.501352	17.8	22.7	-71.4	0.0
2026-01-05 10:11:05.757997	17.3	22.5	-70.8	0.0
2026-01-05 10:11:08.029794	16.8	22.3	-72.0	0.0
2026-01-05 10:11:10.299086	16.4	22.1	-69.6	0.0
2026-01-05 10:11:12.572368	15.9	21.9	-72.5	0.0
2026-01-05 10:11:14.846923	15.5	21.7	-71.1	0.0
2026-01-05 10:11:17.119069	15.0	21.5	-71.4	0.0
2026-01-05 10:11:19.394023	14.6	21.3	-72.1	0.0
2026-01-05 10:11:21.672370	14.1	21.1	-73.4	0.0
2026-01-05 10:11:23.946647	13.7	20.9	-71.0	0.0
2026-01-05 10:11:26.208201	13.3	20.7	-72.2	0.0
2026-01-05 10:11:28.467660	12.8	20.5	-73.0	0.0
2026-01-05 10:11:30.724555	12.4	20.3	-71.0	0.0
2026-01-05 10:11:32.983318	12.0	20.0	-72.9	0.0
2026-01-05 10:11:35.244851	11.6	19.8	-73.2	0.0
2026-01-05 10:11:37.503819	11.2	19.6	-73.3	0.0
2026-01-05 10:11:39.769081	10.8	19.4	-70.0	0.0
2026-01-05 10:11:42.026653	10.4	19.2	-69.1	0.0
2026-01-05 10:11:44.287725	10.1	19.0	-71.5	0.0
2026-01-05 10:11:46.550366	9.7	18.8	-69.0	0.0
2026-01-05 10:11:48.818529	9.3	18.6	-70.7	0.0
2026-01-05 10:11:51.091916	8.9	18.4	-70.5	0.0
2026-01-05 10:11:53.365608	8.6	18.2	-70.5	0.0
2026-01-05 10:11:55.640935	8.2	18.0	-70.0	0.0
2026-01-05 10:11:57.914969	7.9	17.8	-69.4	0.0
2026-01-05 10:12:00.194671	7.5	17.6	-69.0	0.0
2026-01-05 10:12:02.469026	7.2	17.4	-70.0	0.0
2026-01-05 10:12:04.743643	6.8	17.2	-69.7	0.0
2026-01-05 10:12:07.021921	6.5	17.0	-70.3	0.0
2026-01-05 10:12:09.298300	6.2	16.8	-63.2	0.0
2026-01-05 10:12:11.575023	5.9	16.6	-69.2	0.0
2026-01-05 10:12:13.851193	5.5	16.4	-66.8	0.0
2026-01-05 10:12:16.127160	5.2	16.2	-70.9	0.0
2026-01-05 10:12:18.404211	4.9	16.0	-71.9	0.0
2026-01-05 10:12:20.682751	4.6	15.8	-71.1	0.0
2026-01-05 10:12:22.960324	4.3	15.6	-67.3	0.0
2026-01-05 10:12:25.240042	4.0	15.4	-72.8	0.0
2026-01-05 10:12:27.516766	3.7	15.2	-71.0	0.0
2026-01-05 10:12:29.790969	3.4	15.0	-64.7	0.0
2026-01-05 10:12:32.063372	3.1	14.8	-65.4	0.0
2026-01-05 10:12:34.339755	2.8	14.6	-63.1	0.0
2026-01-05 10:12:36.616780	2.6	14.4	-73.6	0.0
2026-01-05 10:12:38.887695	2.3	14.2	-73.3	0.0
2026-01-05 10:12:41.162991	2.0	14.0	-73.8	0.0
2026-01-05 10:12:43.439142	1.7	13.8	-73.5	0.0
2026-01-05 10:12:45.715777	1.5	13.6	-73.7	0.0
2026-01-05 10:12:47.991712	1.2	13.5	-72.9	0.0
2026-01-05 10:12:50.269982	1.0	13.3	-74.0	0.0
2026-01-05 10:12:52.544412	0.7	13.1	-73.2	0.0
2026-01-05 10:12:54.822125	0.5	12.9	-71.7	0.0
2026-01-05 10:12:57.088449	0.2	12.7	-69.9	0.0
2026-01-05 10:12:59.347329	360.0	12.5	-74.6	0.0
2026-01-05 10:13:01.608033	359.7	12.4	-73.2	0.0
2026-01-05 10:13:03.868704	359.5	12.2	-74.0	0.0
2026-01-05 10:13:06.127380	359.3	12.0	-74.8	0.0
2026-01-05 10:13:08.383456	359.0	11.8	-75.0	0.0
2026-01-05 10:13:10.640328	358.8	11.6	-72.6	0.0
2026-01-05 10:13:12.901199	358.6	11.5	-73.8	0.0
2026-01-05 10:13:15.160664	358.3	11.3	-73.3	0.0
2026-01-05 10:13:17.420344	358.1	11.1	-73.5	0.0
2026-01-05 10:13:19.695190	357.9	10.9	-73.9	0.0
2026-01-05 10:13:21.969591	357.7	10.8	-75.0	0.0
2026-01-05 10:13:24.240843	357.5	10.6	-72.2	0.0
2026-01-05 10:13:26.514284	357.3	10.4	-74.4	0.0
2026-01-05 10:13:28.785021	357.1	10.2	-81.4	0.0
#Closed at: 2026-01-05 10:04:12.211232