passes_logs/2026/01/05/planumMaritime01/planumMaritime01__20260105_163709_METOP-C_rec.log

#Pass ID: 20260105_163709_METOP-C
#Satellite: METOP-C
#Configuration: METOP-C
#Start time: 2026-01-05 16:37:14.112176

#LorettStation: 1.0.0 05.05.2024
#Station: planumMaritime01
#Location: 37.49445 lon 55.92918 lat
#TLE: 1 43689U 18087A   26004.62757632  .00000231  00000+0  12556-3 0  9991
#TLE: 2 43689  98.6895  67.0425 0000107 306.6752  53.4416 14.21494733371594

#Time	Az	El	Level	SNR
2026-01-05 16:37:16.275010	108.6	10.2	-75.2	0.0
2026-01-05 16:37:18.527782	108.4	10.3	-75.2	0.0
2026-01-05 16:37:20.782235	108.1	10.5	-72.7	0.0
2026-01-05 16:37:23.036004	107.9	10.6	-73.3	0.0
2026-01-05 16:37:25.290150	107.7	10.8	-73.0	0.0
2026-01-05 16:37:27.545012	107.4	11.0	-73.1	0.0
2026-01-05 16:37:29.798761	107.2	11.1	-72.5	0.0
2026-01-05 16:37:32.050707	106.9	11.3	-70.9	0.0
2026-01-05 16:37:34.304576	106.7	11.5	-70.7	0.0
2026-01-05 16:37:36.556669	106.4	11.6	-71.7	0.0
2026-01-05 16:37:38.808714	106.1	11.8	-72.2	0.0
2026-01-05 16:37:41.058996	105.9	12.0	-71.6	0.0
2026-01-05 16:37:43.313388	105.6	12.2	-71.0	0.0
2026-01-05 16:37:45.567451	105.3	12.3	-72.1	0.0
2026-01-05 16:37:47.819207	105.1	12.5	-71.8	0.0
2026-01-05 16:37:50.071589	104.8	12.7	-71.5	0.0
2026-01-05 16:37:52.332569	104.5	12.8	-72.4	0.0
2026-01-05 16:37:54.587531	104.2	13.0	-72.3	0.0
2026-01-05 16:37:56.840296	103.9	13.2	-72.6	0.0
2026-01-05 16:37:59.091409	103.6	13.4	-71.9	0.0
2026-01-05 16:38:01.344820	103.3	13.5	-72.7	0.0
2026-01-05 16:38:03.597765	103.0	13.7	-72.4	0.0
2026-01-05 16:38:05.850838	102.7	13.9	-73.0	0.0
2026-01-05 16:38:08.104858	102.4	14.1	-72.0	0.0
2026-01-05 16:38:10.359429	102.1	14.2	-72.0	0.0
2026-01-05 16:38:12.614472	101.8	14.4	-72.6	0.0
2026-01-05 16:38:14.870342	101.5	14.6	-72.4	0.0
2026-01-05 16:38:17.125550	101.2	14.8	-72.1	0.0
2026-01-05 16:38:19.379677	100.8	14.9	-71.3	0.0
2026-01-05 16:38:21.634208	100.5	15.1	-72.2	0.0
2026-01-05 16:38:23.886132	100.2	15.3	-72.1	0.0
2026-01-05 16:38:26.139192	99.9	15.5	-72.2	0.0
2026-01-05 16:38:28.390858	99.5	15.6	-71.8	0.2
2026-01-05 16:38:30.644569	99.2	15.8	-71.7	0.0
2026-01-05 16:38:32.899816	98.8	16.0	-71.5	0.0
2026-01-05 16:38:35.153420	98.5	16.2	-71.8	0.0
2026-01-05 16:38:37.406387	98.1	16.4	-71.3	0.0
2026-01-05 16:38:39.659702	97.7	16.5	-72.5	0.0
2026-01-05 16:38:41.915056	97.4	16.7	-71.9	0.0
2026-01-05 16:38:44.171380	97.0	16.9	-72.5	0.0
2026-01-05 16:38:46.426710	96.6	17.1	-71.9	0.0
2026-01-05 16:38:48.678992	96.3	17.3	-70.5	0.0
2026-01-05 16:38:50.932761	95.9	17.4	-72.9	0.0
2026-01-05 16:38:53.185271	95.5	17.6	-72.1	0.0
2026-01-05 16:38:55.440005	95.1	17.8	-71.6	0.0
2026-01-05 16:38:57.695236	94.7	18.0	-71.7	0.0
2026-01-05 16:38:59.950245	94.3	18.2	-68.2	0.0
2026-01-05 16:39:02.206571	93.9	18.3	-70.7	0.0
2026-01-05 16:39:04.460936	93.5	18.5	-69.2	0.0
2026-01-05 16:39:06.714892	93.0	18.7	-69.1	0.0
2026-01-05 16:39:08.967515	92.6	18.9	-69.3	0.0
2026-01-05 16:39:11.222805	92.2	19.1	-69.8	0.0
2026-01-05 16:39:13.475483	91.8	19.2	-68.7	0.0
2026-01-05 16:39:15.730546	91.3	19.4	-68.9	0.0
2026-01-05 16:39:17.985679	90.9	19.6	-69.2	0.0
2026-01-05 16:39:20.240250	90.4	19.8	-68.8	0.0
2026-01-05 16:39:22.492356	90.0	19.9	-68.7	0.0
2026-01-05 16:39:24.747799	89.5	20.1	-71.1	0.0
2026-01-05 16:39:27.004382	89.0	20.3	-69.6	0.0
2026-01-05 16:39:29.260518	88.6	20.5	-69.7	0.0
2026-01-05 16:39:31.514228	88.1	20.6	-70.0	0.0
2026-01-05 16:39:33.767282	87.6	20.8	-68.7	0.0
2026-01-05 16:39:36.022146	87.1	21.0	-68.9	0.0
2026-01-05 16:39:38.274981	86.6	21.2	-67.6	0.0
2026-01-05 16:39:40.528842	86.1	21.3	-67.9	0.0
2026-01-05 16:39:42.783305	85.6	21.5	-68.6	0.0
2026-01-05 16:39:45.037773	85.1	21.7	-67.2	0.0
2026-01-05 16:39:47.292222	84.6	21.8	-69.4	0.0
2026-01-05 16:39:49.544045	84.1	22.0	-69.2	0.0
2026-01-05 16:39:51.798656	83.6	22.2	-67.4	0.0
2026-01-05 16:39:54.052824	83.0	22.3	-69.3	0.0
2026-01-05 16:39:56.306558	82.5	22.5	-69.4	0.0
2026-01-05 16:39:58.559928	82.0	22.6	-69.6	0.0
2026-01-05 16:40:00.818058	81.4	22.8	-68.8	0.0
2026-01-05 16:40:03.070423	80.9	22.9	-69.1	0.0
2026-01-05 16:40:05.324452	80.3	23.1	-68.2	0.0
2026-01-05 16:40:07.575643	79.7	23.2	-70.9	0.0
2026-01-05 16:40:09.832143	79.2	23.4	-70.8	0.0
2026-01-05 16:40:12.088718	78.6	23.5	-68.5	0.0
2026-01-05 16:40:14.344414	78.0	23.7	-68.7	0.0
2026-01-05 16:40:16.598870	77.4	23.8	-68.1	0.0
2026-01-05 16:40:18.849944	76.8	24.0	-69.1	0.0
2026-01-05 16:40:21.105381	76.2	24.1	-70.0	0.0
2026-01-05 16:40:23.357777	75.6	24.2	-70.6	0.0
2026-01-05 16:40:25.611899	75.0	24.4	-71.4	0.0
2026-01-05 16:40:27.864950	74.4	24.5	-70.1	0.0
2026-01-05 16:40:30.119789	73.8	24.6	-69.2	0.0
2026-01-05 16:40:32.373746	73.2	24.7	-71.1	0.0
2026-01-05 16:40:34.629629	72.6	24.8	-69.6	0.0
2026-01-05 16:40:36.883140	71.9	25.0	-70.2	0.0
2026-01-05 16:40:39.135783	71.3	25.1	-66.9	0.0
2026-01-05 16:40:41.391440	70.7	25.2	-69.3	0.0
2026-01-05 16:40:43.646943	70.0	25.3	-69.8	0.0
2026-01-05 16:40:45.900887	69.4	25.4	-69.5	0.0
2026-01-05 16:40:48.153742	68.7	25.5	-69.1	0.0
2026-01-05 16:40:50.406544	68.1	25.6	-69.3	0.0
2026-01-05 16:40:52.661712	67.4	25.7	-69.2	0.0
2026-01-05 16:40:54.909823	66.8	25.8	-67.9	0.0
2026-01-05 16:40:57.163762	66.1	25.8	-68.4	0.0
2026-01-05 16:40:59.417509	65.4	25.9	-69.3	0.0
2026-01-05 16:41:01.671128	64.7	26.0	-69.1	0.0
2026-01-05 16:41:03.926315	64.1	26.1	-67.5	0.0
2026-01-05 16:41:06.180056	63.4	26.1	-68.6	0.0
2026-01-05 16:41:08.434361	62.7	26.2	-66.8	0.0
2026-01-05 16:41:10.687554	62.0	26.2	-64.5	0.0
2026-01-05 16:41:12.946055	61.3	26.3	-63.4	0.0
2026-01-05 16:41:15.195187	60.7	26.3	-67.7	0.0
2026-01-05 16:41:17.447040	60.0	26.4	-68.0	0.0
2026-01-05 16:41:19.701160	59.3	26.4	-68.4	0.0
2026-01-05 16:41:21.953790	58.6	26.5	-67.6	0.0
2026-01-05 16:41:24.207636	57.9	26.5	-67.8	0.0
2026-01-05 16:41:26.460814	57.2	26.5	-65.7	0.0
2026-01-05 16:41:28.713693	56.5	26.5	-67.9	0.0
2026-01-05 16:41:30.966399	55.8	26.6	-68.0	0.0
2026-01-05 16:41:33.219807	55.1	26.6	-66.7	0.0
2026-01-05 16:41:35.473265	54.4	26.6	-65.9	0.0
2026-01-05 16:41:37.727945	53.7	26.6	-65.9	0.0
2026-01-05 16:41:39.981086	53.0	26.6	-67.1	0.0
2026-01-05 16:41:42.235916	52.3	26.6	-66.8	0.0
2026-01-05 16:41:44.487285	51.6	26.6	-67.3	0.0
2026-01-05 16:41:46.738680	50.9	26.5	-67.1	0.0
2026-01-05 16:41:48.993493	50.2	26.5	-68.4	0.0
2026-01-05 16:41:51.251406	49.5	26.5	-68.4	0.0
2026-01-05 16:41:53.506450	48.8	26.5	-67.5	0.0
2026-01-05 16:41:55.759114	48.1	26.4	-66.1	0.0
2026-01-05 16:41:58.015519	47.4	26.4	-67.1	0.0
2026-01-05 16:42:00.268747	46.7	26.3	-66.3	0.0
2026-01-05 16:42:02.522015	46.1	26.3	-64.8	0.0
2026-01-05 16:42:04.774059	45.4	26.2	-64.6	0.0
2026-01-05 16:42:07.025188	44.7	26.2	-64.1	0.0
2026-01-05 16:42:09.277906	44.0	26.1	-65.2	0.0
2026-01-05 16:42:11.531701	43.3	26.1	-65.7	0.0
2026-01-05 16:42:13.785354	42.7	26.0	-65.8	0.0
2026-01-05 16:42:16.039479	42.0	25.9	-63.7	0.0
2026-01-05 16:42:18.292556	41.3	25.8	-64.4	0.0
2026-01-05 16:42:20.544345	40.7	25.7	-64.9	0.0
2026-01-05 16:42:22.797239	40.0	25.7	-64.1	0.0
2026-01-05 16:42:25.050801	39.3	25.6	-64.1	0.0
2026-01-05 16:42:27.307206	38.7	25.5	-64.3	0.0
2026-01-05 16:42:29.561883	38.0	25.4	-65.3	0.0
2026-01-05 16:42:31.816570	37.4	25.3	-64.3	0.0
2026-01-05 16:42:34.068938	36.7	25.2	-62.9	0.0
2026-01-05 16:42:36.323610	36.1	25.1	-62.9	0.0
2026-01-05 16:42:38.575485	35.5	25.0	-63.8	0.0
2026-01-05 16:42:40.829198	34.8	24.8	-62.0	0.0
2026-01-05 16:42:43.083992	34.2	24.7	-62.9	0.0
2026-01-05 16:42:45.335621	33.6	24.6	-63.3	0.0
2026-01-05 16:42:47.589097	33.0	24.5	-63.0	0.0
2026-01-05 16:42:49.843483	32.4	24.4	-60.7	0.0
2026-01-05 16:42:52.100874	31.8	24.2	-60.2	0.0
2026-01-05 16:42:54.353451	31.2	24.1	-61.7	0.0
2026-01-05 16:42:56.604974	30.6	24.0	-62.6	0.0
2026-01-05 16:42:58.859682	30.0	23.8	-59.7	0.0
2026-01-05 16:43:01.113575	29.4	23.7	-60.2	0.0
2026-01-05 16:43:03.368022	28.8	23.5	-61.3	0.0
2026-01-05 16:43:05.623869	28.3	23.4	-62.5	0.0
2026-01-05 16:43:07.877618	27.7	23.2	-62.6	0.0
2026-01-05 16:43:10.130616	27.1	23.1	-59.6	0.0
2026-01-05 16:43:12.382258	26.6	22.9	-59.2	0.0
2026-01-05 16:43:14.638618	26.0	22.8	-58.8	0.0
2026-01-05 16:43:16.893314	25.5	22.6	-63.8	0.0
2026-01-05 16:43:19.146885	25.0	22.5	-61.4	0.0
2026-01-05 16:43:21.400978	24.4	22.3	-62.6	0.0
2026-01-05 16:43:23.654583	23.9	22.2	-63.4	0.0
2026-01-05 16:43:25.907679	23.4	22.0	-61.7	0.0
2026-01-05 16:43:28.164956	22.9	21.8	-62.6	0.0
2026-01-05 16:43:30.420944	22.3	21.7	-58.8	0.0
2026-01-05 16:43:32.673298	21.8	21.5	-62.9	0.0
2026-01-05 16:43:34.927827	21.3	21.3	-63.2	0.0
2026-01-05 16:43:37.181604	20.8	21.2	-63.2	0.0
2026-01-05 16:43:39.440602	20.4	21.0	-61.6	0.0
2026-01-05 16:43:41.693589	19.9	20.8	-62.1	0.0
2026-01-05 16:43:43.947197	19.4	20.7	-58.4	0.0
2026-01-05 16:43:46.201621	18.9	20.5	-61.6	0.0
2026-01-05 16:43:48.454500	18.5	20.3	-64.7	0.0
2026-01-05 16:43:50.709125	18.0	20.1	-62.0	0.0
2026-01-05 16:43:52.964735	17.5	20.0	-64.0	0.0
2026-01-05 16:43:55.219653	17.1	19.8	-62.3	0.0
2026-01-05 16:43:57.475537	16.6	19.6	-64.8	0.0
2026-01-05 16:43:59.732742	16.2	19.4	-64.0	0.0
2026-01-05 16:44:01.987557	15.8	19.3	-65.0	0.0
2026-01-05 16:44:04.241910	15.3	19.1	-63.7	0.0
2026-01-05 16:44:06.494744	14.9	18.9	-63.4	0.0
2026-01-05 16:44:08.747385	14.5	18.7	-63.5	0.0
2026-01-05 16:44:11.005966	14.1	18.5	-64.0	0.0
2026-01-05 16:44:13.262460	13.7	18.4	-63.6	0.0
2026-01-05 16:44:15.514091	13.2	18.2	-63.6	0.0
2026-01-05 16:44:17.767723	12.8	18.0	-63.1	0.0
2026-01-05 16:44:20.020177	12.5	17.8	-64.6	0.0
2026-01-05 16:44:22.275825	12.1	17.6	-61.2	0.0
2026-01-05 16:44:24.527812	11.7	17.5	-62.9	0.0
2026-01-05 16:44:26.780270	11.3	17.3	-62.6	0.0
2026-01-05 16:44:29.033879	10.9	17.1	-63.8	0.0
2026-01-05 16:44:31.288625	10.5	16.9	-64.2	0.0
2026-01-05 16:44:33.543793	10.2	16.7	-64.3	0.0
2026-01-05 16:44:35.797421	9.8	16.6	-63.5	0.0
2026-01-05 16:44:38.053023	9.4	16.4	-63.9	0.0
2026-01-05 16:44:40.307996	9.1	16.2	-63.8	0.0
2026-01-05 16:44:42.563643	8.7	16.0	-64.2	0.0
2026-01-05 16:44:44.817444	8.4	15.9	-63.2	0.0
2026-01-05 16:44:47.070618	8.1	15.7	-63.3	0.0
2026-01-05 16:44:49.323839	7.7	15.5	-65.2	0.0
2026-01-05 16:44:51.578634	7.4	15.3	-65.2	0.0
2026-01-05 16:44:53.832694	7.1	15.1	-65.3	0.0
2026-01-05 16:44:56.088239	6.7	15.0	-65.0	0.0
2026-01-05 16:44:58.343086	6.4	14.8	-64.0	0.0
2026-01-05 16:45:00.597914	6.1	14.6	-65.1	0.0
2026-01-05 16:45:02.853435	5.8	14.4	-65.5	0.0
2026-01-05 16:45:05.108096	5.5	14.3	-64.5	0.0
2026-01-05 16:45:07.359284	5.2	14.1	-63.9	0.0
2026-01-05 16:45:09.612411	4.9	13.9	-66.5	0.0
2026-01-05 16:45:11.864455	4.6	13.7	-65.1	0.0
2026-01-05 16:45:14.115915	4.3	13.6	-65.1	0.0
2026-01-05 16:45:16.367502	4.0	13.4	-63.8	0.0
2026-01-05 16:45:18.621188	3.7	13.2	-66.1	0.0
2026-01-05 16:45:20.874850	3.4	13.0	-65.3	0.0
2026-01-05 16:45:23.127758	3.1	12.9	-62.8	0.0
2026-01-05 16:45:25.382586	2.8	12.7	-64.6	0.0
2026-01-05 16:45:27.636208	2.6	12.5	-64.3	0.0
2026-01-05 16:45:29.892008	2.3	12.4	-64.8	0.0
2026-01-05 16:45:32.151121	2.0	12.2	-64.7	0.0
2026-01-05 16:45:34.407198	1.7	12.0	-65.0	0.0
2026-01-05 16:45:36.656603	1.5	11.9	-64.5	0.0
2026-01-05 16:45:38.909760	1.2	11.7	-65.0	0.0
2026-01-05 16:45:41.162883	1.0	11.5	-66.3	0.0
2026-01-05 16:45:43.418495	0.7	11.4	-66.1	0.0
2026-01-05 16:45:45.673502	0.5	11.2	-66.4	0.0
2026-01-05 16:45:47.928781	0.2	11.0	-65.3	0.0
2026-01-05 16:45:50.181745	360.0	10.9	-66.3	0.0
2026-01-05 16:45:52.433590	359.7	10.7	-64.9	0.0
2026-01-05 16:45:54.688327	359.5	10.5	-62.2	0.0
2026-01-05 16:45:56.943221	359.3	10.4	-69.6	0.0
2026-01-05 16:45:59.195748	359.0	10.2	-74.5	0.0
#Closed at: 2026-01-05 16:37:09.115872