passes_logs/2026/01/05/planumMaritime01/planumMaritime01__20260105_114313_METEOR-M2_4_rec.log

#Pass ID: 20260105_114313_METEOR-M2 4
#Satellite: METEOR-M2 4
#Configuration: METEOR-M2 4
#Start time: 2026-01-05 11:43:18.859798

#LorettStation: 1.0.0 05.05.2024
#Station: planumMaritime01
#Location: 37.49445 lon 55.92918 lat
#TLE: 1 59051U 24039A   26004.63706891  .00000062  00000+0  47407-4 0  9993
#TLE: 2 59051  98.6798 326.1906 0006032 286.5360  73.5155 14.22405675 96015

#Time	Az	El	Level	SNR
2026-01-05 11:43:21.023005	174.9	10.2	-80.8	0.0
2026-01-05 11:43:23.283176	175.0	10.4	-79.0	1.9
2026-01-05 11:43:25.541161	175.0	10.6	-79.0	5.2
2026-01-05 11:43:27.797756	175.1	10.8	-79.2	8.0
2026-01-05 11:43:30.058386	175.2	11.0	-78.5	8.9
2026-01-05 11:43:32.320915	175.3	11.2	-78.7	7.8
2026-01-05 11:43:34.580058	175.4	11.4	-78.6	9.0
2026-01-05 11:43:36.836884	175.4	11.6	-78.6	9.3
2026-01-05 11:43:39.098538	175.5	11.8	-78.7	10.2
2026-01-05 11:43:41.355010	175.6	12.0	-78.8	9.6
2026-01-05 11:43:43.627383	175.7	12.2	-79.1	9.3
2026-01-05 11:43:45.900529	175.8	12.5	-78.7	9.4
2026-01-05 11:43:48.175211	175.9	12.7	-78.3	9.7
2026-01-05 11:43:50.448342	175.9	12.9	-77.9	8.7
2026-01-05 11:43:52.727138	176.0	13.1	-78.1	10.1
2026-01-05 11:43:55.003531	176.1	13.3	-78.6	9.3
2026-01-05 11:43:57.274985	176.2	13.6	-78.2	9.1
2026-01-05 11:43:59.548635	176.3	13.8	-76.9	5.8
2026-01-05 11:44:01.819558	176.4	14.0	-77.9	9.7
2026-01-05 11:44:04.088126	176.5	14.2	-78.2	9.6
2026-01-05 11:44:06.355232	176.6	14.5	-77.8	9.4
2026-01-05 11:44:08.619905	176.7	14.7	-78.0	9.1
2026-01-05 11:44:10.884018	176.8	15.0	-78.2	8.9
2026-01-05 11:44:13.148842	176.9	15.2	-78.1	9.6
2026-01-05 11:44:15.417171	177.0	15.4	-77.2	2.9
2026-01-05 11:44:17.684656	177.1	15.7	-78.0	9.1
2026-01-05 11:44:19.948276	177.2	15.9	-78.2	9.1
2026-01-05 11:44:22.212513	177.3	16.2	-77.0	7.0
2026-01-05 11:44:24.479660	177.4	16.4	-77.5	8.3
2026-01-05 11:44:26.746446	177.5	16.7	-77.6	8.8
2026-01-05 11:44:29.027227	177.7	16.9	-77.2	7.8
2026-01-05 11:44:31.306642	177.8	17.2	-77.8	8.8
2026-01-05 11:44:33.581005	177.9	17.5	-77.2	8.7
2026-01-05 11:44:35.858252	178.0	17.7	-77.0	9.0
2026-01-05 11:44:38.134911	178.1	18.0	-77.3	8.8
2026-01-05 11:44:40.408948	178.3	18.3	-77.3	8.5
2026-01-05 11:44:42.683288	178.4	18.6	-76.9	8.3
2026-01-05 11:44:44.959814	178.5	18.8	-77.2	9.2
2026-01-05 11:44:47.230567	178.6	19.1	-76.8	8.8
2026-01-05 11:44:49.495720	178.8	19.4	-77.2	9.5
2026-01-05 11:44:51.765014	178.9	19.7	-77.0	8.8
2026-01-05 11:44:54.038717	179.0	20.0	-76.4	7.3
2026-01-05 11:44:56.307300	179.2	20.3	-76.8	8.0
2026-01-05 11:44:58.582243	179.3	20.6	-76.9	7.9
2026-01-05 11:45:00.851624	179.5	20.9	-76.6	8.4
2026-01-05 11:45:03.119064	179.6	21.2	-76.7	7.7
2026-01-05 11:45:05.387819	179.8	21.5	-77.1	8.3
2026-01-05 11:45:07.652852	179.9	21.8	-76.8	7.9
2026-01-05 11:45:09.922952	180.1	22.1	-76.2	6.9
2026-01-05 11:45:12.194110	180.2	22.4	-76.3	6.5
2026-01-05 11:45:14.461648	180.4	22.7	-76.3	7.8
2026-01-05 11:45:16.730141	180.6	23.1	-76.4	7.7
2026-01-05 11:45:18.997805	180.7	23.4	-77.2	7.9
2026-01-05 11:45:21.259302	180.9	23.7	-77.0	8.6
2026-01-05 11:45:23.517682	181.1	24.1	-77.5	9.0
2026-01-05 11:45:25.778703	181.3	24.4	-77.2	9.0
2026-01-05 11:45:28.037785	181.4	24.7	-77.5	9.3
2026-01-05 11:45:30.296938	181.6	25.1	-76.6	9.2
2026-01-05 11:45:32.555217	181.8	25.4	-77.3	8.1
2026-01-05 11:45:34.809519	182.0	25.8	-77.3	10.4
2026-01-05 11:45:37.069681	182.2	26.2	-77.1	10.3
2026-01-05 11:45:39.327070	182.4	26.5	-77.3	9.2
2026-01-05 11:45:41.583700	182.6	26.9	-77.3	9.3
2026-01-05 11:45:43.844330	182.8	27.3	-77.3	8.9
2026-01-05 11:45:46.115552	183.0	27.7	-77.5	8.9
2026-01-05 11:45:48.387857	183.3	28.0	-77.7	9.5
2026-01-05 11:45:50.658810	183.5	28.4	-77.5	10.2
2026-01-05 11:45:52.931218	183.7	28.8	-77.1	8.4
2026-01-05 11:45:55.205834	184.0	29.2	-77.6	9.7
2026-01-05 11:45:57.478342	184.2	29.6	-77.4	10.7
2026-01-05 11:45:59.748360	184.5	30.1	-77.5	10.4
2026-01-05 11:46:02.019183	184.7	30.5	-77.5	9.7
2026-01-05 11:46:04.292864	185.0	30.9	-77.6	10.1
2026-01-05 11:46:06.566069	185.3	31.3	-77.4	9.8
2026-01-05 11:46:08.837651	185.5	31.8	-77.5	9.9
2026-01-05 11:46:11.110749	185.8	32.2	-77.3	9.3
2026-01-05 11:46:13.384092	186.1	32.7	-77.5	11.4
2026-01-05 11:46:15.647545	186.4	33.1	-77.8	10.6
2026-01-05 11:46:17.906524	186.7	33.6	-78.1	10.2
2026-01-05 11:46:20.168143	187.0	34.0	-78.4	10.6
2026-01-05 11:46:22.431440	187.4	34.5	-78.2	10.4
2026-01-05 11:46:24.692954	187.7	35.0	-78.5	10.0
2026-01-05 11:46:26.953831	188.0	35.5	-78.4	10.5
2026-01-05 11:46:29.219070	188.4	36.0	-78.4	10.4
2026-01-05 11:46:31.480768	188.8	36.5	-78.8	10.9
2026-01-05 11:46:33.741916	189.1	37.0	-78.8	11.0
2026-01-05 11:46:36.003026	189.5	37.5	-78.9	10.3
2026-01-05 11:46:38.277190	189.9	38.0	-78.9	11.5
2026-01-05 11:46:40.549091	190.4	38.5	-79.0	11.6
2026-01-05 11:46:42.824879	190.8	39.0	-78.8	11.3
2026-01-05 11:46:45.102095	191.2	39.6	-78.6	12.6
2026-01-05 11:46:47.375319	191.7	40.1	-78.5	12.7
2026-01-05 11:46:49.645695	192.2	40.7	-78.5	12.5
2026-01-05 11:46:51.919928	192.7	41.2	-78.8	12.8
2026-01-05 11:46:54.194311	193.2	41.8	-79.0	12.6
2026-01-05 11:46:56.471388	193.7	42.4	-78.8	12.3
2026-01-05 11:46:58.747781	194.2	42.9	-79.1	12.7
2026-01-05 11:47:01.023947	194.8	43.5	-79.1	12.5
2026-01-05 11:47:03.297799	195.4	44.1	-79.5	12.1
2026-01-05 11:47:05.571668	196.0	44.7	-79.8	12.2
2026-01-05 11:47:07.847087	196.6	45.3	-80.3	12.1
2026-01-05 11:47:10.118995	197.3	45.9	-80.6	11.9
2026-01-05 11:47:12.388615	197.9	46.5	-80.1	10.6
2026-01-05 11:47:14.659793	198.6	47.1	-80.2	11.8
2026-01-05 11:47:16.925281	199.4	47.7	-79.9	12.2
2026-01-05 11:47:19.194169	200.1	48.3	-79.9	11.9
2026-01-05 11:47:21.461991	200.9	49.0	-79.9	12.0
2026-01-05 11:47:23.732461	201.7	49.6	-80.0	12.1
2026-01-05 11:47:25.995540	202.6	50.2	-79.7	11.0
2026-01-05 11:47:28.255955	203.5	50.8	-80.1	11.7
2026-01-05 11:47:30.514011	204.4	51.5	-80.4	11.0
2026-01-05 11:47:32.777328	205.4	52.1	-80.8	10.4
2026-01-05 11:47:35.033211	206.4	52.7	-80.8	9.3
2026-01-05 11:47:37.292445	207.4	53.3	-81.1	9.7
2026-01-05 11:47:39.549797	208.5	54.0	-80.9	10.4
2026-01-05 11:47:41.806794	209.6	54.6	-80.7	9.3
2026-01-05 11:47:44.065863	210.8	55.2	-80.7	9.5
2026-01-05 11:47:46.323180	212.1	55.8	-81.3	10.3
2026-01-05 11:47:48.582390	213.4	56.4	-81.0	8.5
2026-01-05 11:47:50.856118	214.7	57.0	-80.8	9.8
2026-01-05 11:47:53.133888	216.1	57.6	-80.9	10.2
2026-01-05 11:47:55.411200	217.6	58.2	-80.5	10.4
2026-01-05 11:47:57.689765	219.2	58.7	-80.4	10.1
2026-01-05 11:47:59.967050	220.8	59.3	-80.1	10.8
2026-01-05 11:48:02.240981	222.5	59.8	-80.5	10.9
2026-01-05 11:48:04.511599	224.2	60.3	-80.5	10.1
2026-01-05 11:48:06.775853	226.1	60.8	-80.5	10.4
2026-01-05 11:48:09.040262	227.9	61.3	-80.6	10.6
2026-01-05 11:48:11.311611	229.9	61.8	-80.6	9.9
2026-01-05 11:48:13.578107	231.9	62.2	-80.9	10.6
2026-01-05 11:48:15.840161	234.0	62.6	-80.8	10.5
2026-01-05 11:48:18.109417	236.2	62.9	-81.0	10.3
2026-01-05 11:48:20.376497	238.4	63.3	-80.8	9.6
2026-01-05 11:48:22.643918	240.7	63.5	-80.6	10.1
2026-01-05 11:48:24.912485	243.0	63.8	-80.5	10.3
2026-01-05 11:48:27.179110	245.4	64.0	-80.7	10.1
2026-01-05 11:48:29.443766	247.8	64.2	-79.7	8.9
2026-01-05 11:48:31.716582	250.3	64.3	-80.2	10.3
2026-01-05 11:48:33.987647	252.8	64.4	-80.4	10.4
2026-01-05 11:48:36.261553	255.3	64.5	-80.1	7.7
2026-01-05 11:48:38.527494	257.8	64.5	-80.1	7.9
2026-01-05 11:48:40.804591	260.3	64.4	-80.5	7.5
2026-01-05 11:48:43.079318	262.8	64.4	-79.9	6.0
2026-01-05 11:48:45.355674	265.3	64.2	-80.2	8.1
2026-01-05 11:48:47.630412	267.7	64.1	-79.3	6.5
2026-01-05 11:48:49.905930	270.1	63.9	-77.9	3.2
2026-01-05 11:48:52.181112	272.5	63.6	-79.8	5.4
2026-01-05 11:48:54.457892	274.8	63.4	-80.3	8.9
2026-01-05 11:48:56.729165	277.0	63.0	-80.0	5.3
2026-01-05 11:48:59.004392	279.2	62.7	-79.8	3.9
2026-01-05 11:49:01.278882	281.3	62.3	-79.3	4.1
2026-01-05 11:49:03.555439	283.4	61.9	-79.9	3.8
2026-01-05 11:49:05.827766	285.4	61.5	-79.8	6.1
2026-01-05 11:49:08.104600	287.3	61.0	-79.4	4.9
2026-01-05 11:49:10.377789	289.1	60.5	-77.6	0.8
2026-01-05 11:49:12.650010	290.9	60.0	-78.7	1.2
2026-01-05 11:49:14.918887	292.6	59.5	-78.4	2.8
2026-01-05 11:49:17.187393	294.2	58.9	-77.7	0.8
2026-01-05 11:49:19.450043	295.8	58.4	-79.5	1.3
2026-01-05 11:49:21.719848	297.3	57.8	-79.8	2.8
2026-01-05 11:49:23.989723	298.7	57.2	-79.9	4.6
2026-01-05 11:49:26.255879	300.1	56.6	-78.9	1.1
2026-01-05 11:49:28.515085	301.4	56.0	-78.8	2.4
2026-01-05 11:49:30.772611	302.6	55.4	-78.5	0.0
2026-01-05 11:49:33.029710	303.9	54.8	-80.1	5.0
2026-01-05 11:49:35.287816	305.0	54.2	-79.6	3.6
2026-01-05 11:49:37.546153	306.1	53.6	-79.5	4.5
2026-01-05 11:49:39.802638	307.2	53.0	-77.7	2.0
2026-01-05 11:49:42.061553	308.2	52.3	-77.4	1.6
2026-01-05 11:49:44.320591	309.2	51.7	-78.1	4.5
2026-01-05 11:49:46.577334	310.1	51.1	-77.7	4.4
2026-01-05 11:49:48.830529	311.0	50.5	-78.4	7.5
2026-01-05 11:49:51.095063	311.8	49.8	-78.6	8.2
2026-01-05 11:49:53.372551	312.7	49.2	-78.9	7.5
2026-01-05 11:49:55.649703	313.5	48.6	-77.7	3.5
2026-01-05 11:49:57.928889	314.2	48.0	-78.2	6.8
2026-01-05 11:50:00.208202	315.0	47.4	-78.0	6.9
2026-01-05 11:50:02.483450	315.7	46.8	-78.2	7.3
2026-01-05 11:50:04.758145	316.4	46.1	-78.4	5.5
2026-01-05 11:50:07.033790	317.0	45.5	-78.4	5.2
2026-01-05 11:50:09.311037	317.7	44.9	-78.2	4.4
2026-01-05 11:50:11.580199	318.3	44.4	-77.6	1.7
2026-01-05 11:50:13.856984	318.9	43.8	-78.6	2.6
2026-01-05 11:50:16.130907	319.4	43.2	-76.8	0.0
2026-01-05 11:50:18.406223	320.0	42.6	-77.2	4.1
2026-01-05 11:50:20.677398	320.5	42.1	-77.2	5.7
2026-01-05 11:50:22.942007	321.0	41.5	-77.9	6.6
2026-01-05 11:50:25.207042	321.5	40.9	-77.1	3.9
2026-01-05 11:50:27.475910	322.0	40.4	-76.9	4.6
2026-01-05 11:50:29.744669	322.5	39.9	-76.9	4.4
2026-01-05 11:50:32.009492	322.9	39.3	-76.7	4.6
2026-01-05 11:50:34.276262	323.3	38.8	-77.2	4.4
2026-01-05 11:50:36.545651	323.8	38.3	-75.2	0.0
2026-01-05 11:50:38.814554	324.2	37.8	-76.0	4.8
2026-01-05 11:50:41.080677	324.6	37.3	-76.4	2.4
2026-01-05 11:50:43.357151	324.9	36.7	-76.8	6.7
2026-01-05 11:50:45.635778	325.3	36.2	-76.4	4.7
2026-01-05 11:50:47.911416	325.7	35.8	-76.3	5.0
2026-01-05 11:50:50.188804	326.0	35.3	-76.5	5.1
2026-01-05 11:50:52.464156	326.4	34.8	-75.1	3.1
2026-01-05 11:50:54.741751	326.7	34.3	-75.2	2.3
2026-01-05 11:50:57.017210	327.0	33.9	-75.3	1.7
2026-01-05 11:50:59.288865	327.3	33.4	-76.7	4.4
2026-01-05 11:51:01.564318	327.6	32.9	-75.0	1.1
2026-01-05 11:51:03.842178	327.9	32.5	-75.9	2.3
2026-01-05 11:51:06.117511	328.2	32.1	-75.3	3.1
2026-01-05 11:51:08.391284	328.5	31.6	-74.8	0.0
2026-01-05 11:51:10.665565	328.8	31.2	-73.9	0.6
2026-01-05 11:51:12.937960	329.1	30.8	-74.1	1.1
2026-01-05 11:51:15.205222	329.3	30.3	-73.7	1.1
2026-01-05 11:51:17.471425	329.6	29.9	-74.1	2.4
2026-01-05 11:51:19.740780	329.8	29.5	-74.1	0.0
2026-01-05 11:51:22.007734	330.1	29.1	-73.6	0.0
2026-01-05 11:51:24.274117	330.3	28.7	-73.9	0.1
2026-01-05 11:51:26.539466	330.5	28.3	-73.4	0.0
2026-01-05 11:51:28.805648	330.7	27.9	-73.6	0.0
2026-01-05 11:51:31.066865	331.0	27.6	-73.4	0.9
2026-01-05 11:51:33.323214	331.2	27.2	-72.1	0.0
2026-01-05 11:51:35.581262	331.4	26.8	-72.0	0.0
2026-01-05 11:51:37.838992	331.6	26.5	-73.1	0.0
2026-01-05 11:51:40.091329	331.8	26.1	-73.1	0.0
2026-01-05 11:51:42.346439	332.0	25.7	-71.9	0.0
2026-01-05 11:51:44.600298	332.2	25.4	-72.9	0.0
2026-01-05 11:51:46.857022	332.4	25.0	-70.8	0.0
2026-01-05 11:51:49.110915	332.6	24.7	-72.8	0.0
2026-01-05 11:51:51.365004	332.7	24.4	-72.6	0.0
2026-01-05 11:51:53.620756	332.9	24.0	-73.1	0.0
2026-01-05 11:51:55.877101	333.1	23.7	-72.7	0.0
2026-01-05 11:51:58.144187	333.3	23.4	-72.1	0.0
2026-01-05 11:52:00.419324	333.4	23.0	-71.3	0.0
2026-01-05 11:52:02.687797	333.6	22.7	-71.4	0.0
2026-01-05 11:52:04.954107	333.7	22.4	-73.6	0.0
2026-01-05 11:52:07.218913	333.9	22.1	-73.5	0.0
2026-01-05 11:52:09.489095	334.1	21.8	-71.9	0.0
2026-01-05 11:52:11.757611	334.2	21.5	-73.3	0.0
2026-01-05 11:52:14.029761	334.4	21.2	-70.6	0.0
2026-01-05 11:52:16.299130	334.5	20.9	-72.7	0.0
2026-01-05 11:52:18.570003	334.7	20.6	-71.8	0.0
2026-01-05 11:52:20.841035	334.8	20.3	-72.8	0.0
2026-01-05 11:52:23.111943	334.9	20.0	-71.2	0.0
2026-01-05 11:52:25.383544	335.1	19.7	-70.5	0.0
2026-01-05 11:52:27.659136	335.2	19.4	-71.0	0.0
2026-01-05 11:52:29.931859	335.3	19.1	-72.0	0.0
2026-01-05 11:52:32.207129	335.5	18.9	-71.9	0.0
2026-01-05 11:52:34.476801	335.6	18.6	-71.8	0.0
2026-01-05 11:52:36.751573	335.7	18.3	-70.8	0.0
2026-01-05 11:52:39.024716	335.8	18.0	-70.7	0.0
2026-01-05 11:52:41.301422	336.0	17.8	-72.6	0.0
2026-01-05 11:52:43.578393	336.1	17.5	-67.9	0.0
2026-01-05 11:52:45.852467	336.2	17.3	-68.9	0.0
2026-01-05 11:52:48.128570	336.3	17.0	-67.5	0.0
2026-01-05 11:52:50.400715	336.4	16.7	-67.6	0.0
2026-01-05 11:52:52.674575	336.5	16.5	-65.8	0.0
2026-01-05 11:52:54.948880	336.7	16.2	-72.7	0.0
2026-01-05 11:52:57.227538	336.8	16.0	-72.2	0.0
2026-01-05 11:52:59.501347	336.9	15.7	-70.4	0.0
2026-01-05 11:53:01.770674	337.0	15.5	-71.6	0.0
2026-01-05 11:53:04.045992	337.1	15.3	-74.0	0.0
2026-01-05 11:53:06.323147	337.2	15.0	-74.0	0.0
2026-01-05 11:53:08.598106	337.3	14.8	-71.1	0.0
2026-01-05 11:53:10.871278	337.4	14.6	-73.5	0.0
2026-01-05 11:53:13.145215	337.5	14.3	-73.9	0.0
2026-01-05 11:53:15.419015	337.6	14.1	-73.4	0.0
2026-01-05 11:53:17.689982	337.7	13.9	-74.7	0.0
2026-01-05 11:53:19.957016	337.8	13.6	-74.7	0.0
2026-01-05 11:53:22.227877	337.9	13.4	-76.0	0.0
2026-01-05 11:53:24.493551	338.0	13.2	-74.3	0.0
2026-01-05 11:53:26.760960	338.0	13.0	-75.8	0.0
2026-01-05 11:53:29.029278	338.1	12.8	-75.8	0.0
2026-01-05 11:53:31.301536	338.2	12.6	-75.6	0.0
2026-01-05 11:53:33.566231	338.3	12.3	-73.4	0.0
2026-01-05 11:53:35.819611	338.4	12.1	-75.8	0.0
2026-01-05 11:53:38.076923	338.5	11.9	-75.4	0.0
2026-01-05 11:53:40.335834	338.6	11.7	-75.1	0.0
2026-01-05 11:53:42.592873	338.6	11.5	-75.9	0.0
2026-01-05 11:53:44.846275	338.7	11.3	-75.8	0.0
2026-01-05 11:53:47.103396	338.8	11.1	-75.2	0.0
2026-01-05 11:53:49.360914	338.9	10.9	-73.8	0.0
2026-01-05 11:53:51.617129	339.0	10.7	-70.8	0.0
2026-01-05 11:53:53.880113	339.0	10.5	-72.6	0.0
2026-01-05 11:53:56.137789	339.1	10.3	-75.3	0.0
2026-01-05 11:53:58.398351	339.2	10.1	-80.7	0.0
#Closed at: 2026-01-05 11:43:13.865077