passes_logs/2026/01/05/planumMaritime01/planumMaritime01__20260105_173625_METOP-B_rec.log

#Pass ID: 20260105_173625_METOP-B
#Satellite: METOP-B
#Configuration: METOP-B
#Start time: 2026-01-05 17:36:30.767384

#LorettStation: 1.0.0 05.05.2024
#Station: planumMaritime01
#Location: 37.49445 lon 55.92918 lat
#TLE: 1 38771U 12049A   26004.60009303  .00000237  00000+0  12823-3 0  9995
#TLE: 2 38771  98.6765  59.1677 0003376  97.4732 262.6829 14.21418730690028

#Time	Az	El	Level	SNR
2026-01-05 17:36:32.934607	163.6	10.2	-74.0	0.0
2026-01-05 17:36:35.188013	163.6	10.4	-72.3	0.0
2026-01-05 17:36:37.440732	163.6	10.6	-73.1	0.0
2026-01-05 17:36:39.693649	163.6	10.8	-72.9	0.0
2026-01-05 17:36:41.946928	163.7	11.0	-73.5	2.5
2026-01-05 17:36:44.198491	163.7	11.2	-73.3	1.8
2026-01-05 17:36:46.453229	163.7	11.4	-73.4	1.6
2026-01-05 17:36:48.704905	163.7	11.6	-73.2	0.5
2026-01-05 17:36:50.955988	163.7	11.8	-73.3	1.9
2026-01-05 17:36:53.210443	163.8	12.0	-73.2	3.1
2026-01-05 17:36:55.462358	163.8	12.3	-73.2	2.0
2026-01-05 17:36:57.715561	163.8	12.5	-73.3	2.8
2026-01-05 17:36:59.968086	163.8	12.7	-72.6	3.3
2026-01-05 17:37:02.220146	163.8	12.9	-72.5	1.9
2026-01-05 17:37:04.472691	163.9	13.1	-73.1	3.4
2026-01-05 17:37:06.727697	163.9	13.4	-72.3	1.8
2026-01-05 17:37:08.979817	163.9	13.6	-72.7	1.1
2026-01-05 17:37:11.231908	163.9	13.8	-72.6	2.9
2026-01-05 17:37:13.484893	163.9	14.1	-71.4	1.4
2026-01-05 17:37:15.739276	164.0	14.3	-71.7	1.5
2026-01-05 17:37:17.992438	164.0	14.5	-72.6	1.6
2026-01-05 17:37:20.244601	164.0	14.8	-72.4	1.0
2026-01-05 17:37:22.499971	164.0	15.0	-72.6	1.2
2026-01-05 17:37:24.750877	164.1	15.3	-72.7	2.1
2026-01-05 17:37:27.005696	164.1	15.5	-72.4	1.1
2026-01-05 17:37:29.258484	164.1	15.8	-72.9	1.5
2026-01-05 17:37:31.511390	164.1	16.0	-72.2	2.2
2026-01-05 17:37:33.764186	164.2	16.3	-72.4	2.7
2026-01-05 17:37:36.015214	164.2	16.5	-72.6	3.5
2026-01-05 17:37:38.267795	164.2	16.8	-72.5	0.5
2026-01-05 17:37:40.519998	164.2	17.0	-72.6	0.7
2026-01-05 17:37:42.773485	164.3	17.3	-72.6	0.6
2026-01-05 17:37:45.026513	164.3	17.6	-72.4	1.1
2026-01-05 17:37:47.279415	164.3	17.8	-72.1	2.4
2026-01-05 17:37:49.530578	164.3	18.1	-70.9	0.3
2026-01-05 17:37:51.786537	164.4	18.4	-72.2	3.3
2026-01-05 17:37:54.041214	164.4	18.7	-72.1	2.5
2026-01-05 17:37:56.295811	164.4	19.0	-72.2	4.2
2026-01-05 17:37:58.547423	164.4	19.2	-72.3	3.7
2026-01-05 17:38:00.799949	164.5	19.5	-72.5	6.0
2026-01-05 17:38:03.050413	164.5	19.8	-72.2	2.6
2026-01-05 17:38:05.304310	164.5	20.1	-72.1	5.6
2026-01-05 17:38:07.561172	164.6	20.4	-72.0	2.6
2026-01-05 17:38:09.811875	164.6	20.7	-72.4	4.3
2026-01-05 17:38:12.065994	164.6	21.0	-71.8	2.5
2026-01-05 17:38:14.320129	164.6	21.4	-72.1	4.8
2026-01-05 17:38:16.574344	164.7	21.7	-71.7	3.0
2026-01-05 17:38:18.829081	164.7	22.0	-71.2	4.4
2026-01-05 17:38:21.082862	164.7	22.3	-71.9	4.6
2026-01-05 17:38:23.336522	164.8	22.6	-71.9	4.9
2026-01-05 17:38:25.590177	164.8	23.0	-72.1	5.4
2026-01-05 17:38:27.842527	164.8	23.3	-72.2	5.6
2026-01-05 17:38:30.097480	164.9	23.7	-71.2	6.9
2026-01-05 17:38:32.351569	164.9	24.0	-71.3	5.5
2026-01-05 17:38:34.602660	165.0	24.4	-71.6	4.6
2026-01-05 17:38:36.854684	165.0	24.7	-72.0	5.0
2026-01-05 17:38:39.107206	165.0	25.1	-71.8	5.3
2026-01-05 17:38:41.361937	165.1	25.4	-71.7	6.2
2026-01-05 17:38:43.620833	165.1	25.8	-71.8	6.1
2026-01-05 17:38:45.872539	165.1	26.2	-72.0	6.6
2026-01-05 17:38:48.127562	165.2	26.6	-72.0	6.7
2026-01-05 17:38:50.379689	165.2	27.0	-71.9	6.5
2026-01-05 17:38:52.632589	165.3	27.3	-71.4	5.8
2026-01-05 17:38:54.884250	165.3	27.7	-72.5	6.7
2026-01-05 17:38:57.139661	165.4	28.1	-72.4	6.4
2026-01-05 17:38:59.394387	165.4	28.6	-72.6	7.0
2026-01-05 17:39:01.646407	165.4	29.0	-72.1	4.8
2026-01-05 17:39:03.900527	165.5	29.4	-72.6	6.1
2026-01-05 17:39:06.153345	165.5	29.8	-72.5	6.3
2026-01-05 17:39:08.404803	165.6	30.3	-72.4	6.6
2026-01-05 17:39:10.654327	165.6	30.7	-72.1	6.3
2026-01-05 17:39:12.912905	165.7	31.2	-72.2	7.4
2026-01-05 17:39:15.163555	165.7	31.6	-72.2	7.0
2026-01-05 17:39:17.415793	165.8	32.1	-72.3	7.1
2026-01-05 17:39:19.667505	165.9	32.5	-72.0	7.5
2026-01-05 17:39:21.920269	165.9	33.0	-72.6	8.9
2026-01-05 17:39:24.174207	166.0	33.5	-72.9	9.3
2026-01-05 17:39:26.427275	166.0	34.0	-72.9	9.6
2026-01-05 17:39:28.682371	166.1	34.5	-72.8	9.6
2026-01-05 17:39:30.935120	166.2	35.0	-73.4	10.1
2026-01-05 17:39:33.185283	166.2	35.5	-73.3	10.2
2026-01-05 17:39:35.439744	166.3	36.1	-73.6	9.7
2026-01-05 17:39:37.691550	166.4	36.6	-73.9	10.1
2026-01-05 17:39:39.946343	166.4	37.1	-74.1	10.1
2026-01-05 17:39:42.198709	166.5	37.7	-73.7	10.0
2026-01-05 17:39:44.452716	166.6	38.3	-73.9	10.2
2026-01-05 17:39:46.707987	166.7	38.8	-74.2	10.9
2026-01-05 17:39:48.962161	166.7	39.4	-74.3	10.5
2026-01-05 17:39:51.215030	166.8	40.0	-74.3	10.3
2026-01-05 17:39:53.466273	166.9	40.6	-74.2	10.7
2026-01-05 17:39:55.718340	167.0	41.2	-73.9	11.0
2026-01-05 17:39:57.974576	167.1	41.8	-73.6	11.8
2026-01-05 17:40:00.229187	167.2	42.5	-73.3	11.2
2026-01-05 17:40:02.483468	167.3	43.1	-73.3	11.7
2026-01-05 17:40:04.734203	167.4	43.8	-73.0	11.4
2026-01-05 17:40:06.984717	167.5	44.4	-73.4	11.8
2026-01-05 17:40:09.234726	167.6	45.1	-73.6	11.4
2026-01-05 17:40:11.486941	167.7	45.8	-73.4	10.9
2026-01-05 17:40:13.740480	167.8	46.5	-73.7	11.9
2026-01-05 17:40:15.994356	168.0	47.2	-73.8	11.4
2026-01-05 17:40:18.248904	168.1	48.0	-73.6	11.0
2026-01-05 17:40:20.503832	168.2	48.7	-73.5	11.5
2026-01-05 17:40:22.757499	168.4	49.4	-73.5	11.9
2026-01-05 17:40:25.012328	168.5	50.2	-73.0	11.4
2026-01-05 17:40:27.265428	168.7	51.0	-73.2	10.9
2026-01-05 17:40:29.517195	168.9	51.8	-73.3	11.1
2026-01-05 17:40:31.769546	169.0	52.6	-73.0	10.3
2026-01-05 17:40:34.023283	169.2	53.4	-73.1	11.3
2026-01-05 17:40:36.278805	169.4	54.2	-72.9	11.4
2026-01-05 17:40:38.530726	169.6	55.1	-72.8	11.0
2026-01-05 17:40:40.784594	169.8	55.9	-73.8	10.5
2026-01-05 17:40:43.039004	170.1	56.8	-73.6	10.3
2026-01-05 17:40:45.295225	170.3	57.7	-73.6	10.2
2026-01-05 17:40:47.546516	170.6	58.6	-73.6	9.7
2026-01-05 17:40:49.800576	170.9	59.5	-73.4	10.3
2026-01-05 17:40:52.055250	171.2	60.4	-73.4	10.1
2026-01-05 17:40:54.311531	171.5	61.3	-73.3	10.7
2026-01-05 17:40:56.562945	171.8	62.3	-73.3	10.8
2026-01-05 17:40:58.815000	172.2	63.2	-73.2	10.5
2026-01-05 17:41:01.067431	172.6	64.2	-72.9	11.2
2026-01-05 17:41:03.322225	173.1	65.2	-72.6	10.8
2026-01-05 17:41:05.573470	173.6	66.2	-73.0	11.0
2026-01-05 17:41:07.828502	174.1	67.2	-73.0	10.5
2026-01-05 17:41:10.080095	174.7	68.2	-73.3	10.1
2026-01-05 17:41:12.329251	175.3	69.2	-73.9	10.4
2026-01-05 17:41:14.580193	176.0	70.2	-73.2	7.1
2026-01-05 17:41:16.832922	176.8	71.3	-74.3	7.7
2026-01-05 17:41:19.086670	177.7	72.3	-74.5	8.6
2026-01-05 17:41:21.340704	178.7	73.4	-74.3	8.2
2026-01-05 17:41:23.593530	179.9	74.4	-74.0	7.8
2026-01-05 17:41:25.848951	181.2	75.5	-74.5	7.7
2026-01-05 17:41:28.100107	182.8	76.5	-74.7	7.6
2026-01-05 17:41:30.353646	184.6	77.6	-73.6	7.4
2026-01-05 17:41:32.605913	186.7	78.6	-73.0	8.7
2026-01-05 17:41:34.858495	189.3	79.7	-73.5	10.7
2026-01-05 17:41:37.113076	192.5	80.7	-73.6	10.5
2026-01-05 17:41:39.366826	196.5	81.7	-73.7	9.0
2026-01-05 17:41:41.623209	201.5	82.6	-73.1	9.2
2026-01-05 17:41:43.878250	207.9	83.5	-72.3	7.5
2026-01-05 17:41:46.130629	216.1	84.2	-72.8	8.7
2026-01-05 17:41:48.384950	226.6	84.8	-73.1	8.2
2026-01-05 17:41:50.637725	239.3	85.2	-72.7	6.6
2026-01-05 17:41:52.889582	253.6	85.4	-73.4	8.3
2026-01-05 17:41:55.144259	267.8	85.2	-72.0	6.9
2026-01-05 17:41:57.398695	280.4	84.8	-73.2	8.1
2026-01-05 17:41:59.651686	290.7	84.2	-72.7	3.8
2026-01-05 17:42:01.907027	298.8	83.4	-72.8	7.5
2026-01-05 17:42:04.166524	305.1	82.5	-72.8	8.2
2026-01-05 17:42:06.416958	310.0	81.6	-72.5	7.3
2026-01-05 17:42:08.669995	313.9	80.6	-71.4	4.5
2026-01-05 17:42:10.926873	317.0	79.6	-72.9	8.2
2026-01-05 17:42:13.179551	319.6	78.6	-71.9	6.5
2026-01-05 17:42:15.434269	321.7	77.5	-71.5	5.8
2026-01-05 17:42:17.686425	323.5	76.5	-71.3	2.2
2026-01-05 17:42:19.938605	325.1	75.4	-71.5	7.0
2026-01-05 17:42:22.186404	326.4	74.4	-71.6	5.7
2026-01-05 17:42:24.438635	327.5	73.3	-72.9	6.0
2026-01-05 17:42:26.691672	328.5	72.2	-72.6	4.1
2026-01-05 17:42:28.943454	329.4	71.2	-72.9	4.4
2026-01-05 17:42:31.197324	330.2	70.2	-73.3	3.9
2026-01-05 17:42:33.449483	330.9	69.1	-72.0	0.0
2026-01-05 17:42:35.703294	331.5	68.1	-72.9	3.8
2026-01-05 17:42:37.955694	332.1	67.1	-72.2	5.9
2026-01-05 17:42:40.208289	332.6	66.1	-72.2	5.2
2026-01-05 17:42:42.467224	333.1	65.1	-72.4	7.1
2026-01-05 17:42:44.717493	333.6	64.1	-71.7	6.1
2026-01-05 17:42:46.973891	334.0	63.2	-71.4	8.2
2026-01-05 17:42:49.229904	334.3	62.2	-72.0	8.7
2026-01-05 17:42:51.482718	334.7	61.3	-71.9	8.7
2026-01-05 17:42:53.734391	335.0	60.4	-71.9	9.3
2026-01-05 17:42:55.988169	335.3	59.4	-71.8	7.4
2026-01-05 17:42:58.242294	335.6	58.5	-72.3	8.2
2026-01-05 17:43:00.493318	335.9	57.6	-72.0	5.7
2026-01-05 17:43:02.747381	336.1	56.8	-72.1	7.5
2026-01-05 17:43:05.000864	336.3	55.9	-72.0	6.9
2026-01-05 17:43:07.253252	336.6	55.1	-71.7	6.7
2026-01-05 17:43:09.506490	336.8	54.2	-72.0	8.2
2026-01-05 17:43:11.760810	337.0	53.4	-71.2	5.7
2026-01-05 17:43:14.013671	337.1	52.6	-71.8	7.9
2026-01-05 17:43:16.268634	337.3	51.8	-71.2	7.4
2026-01-05 17:43:18.521764	337.5	51.0	-72.0	10.0
2026-01-05 17:43:20.773448	337.6	50.2	-71.7	8.0
2026-01-05 17:43:23.026860	337.8	49.5	-71.9	8.1
2026-01-05 17:43:25.279632	337.9	48.7	-71.3	5.8
2026-01-05 17:43:27.536044	338.1	48.0	-72.1	6.8
2026-01-05 17:43:29.788757	338.2	47.3	-70.6	4.0
2026-01-05 17:43:32.043239	338.3	46.5	-70.8	4.9
2026-01-05 17:43:34.296711	338.5	45.8	-71.2	6.7
2026-01-05 17:43:36.550232	338.6	45.2	-69.3	0.4
2026-01-05 17:43:38.800587	338.7	44.5	-69.6	4.7
2026-01-05 17:43:41.059252	338.8	43.8	-69.6	5.7
2026-01-05 17:43:43.314517	338.9	43.2	-69.5	4.0
2026-01-05 17:43:45.568220	339.0	42.5	-68.4	3.6
2026-01-05 17:43:47.821735	339.1	41.9	-67.2	0.0
2026-01-05 17:43:50.075508	339.2	41.3	-68.7	4.0
2026-01-05 17:43:52.329807	339.3	40.7	-67.7	2.8
2026-01-05 17:43:54.583062	339.4	40.1	-68.2	0.7
2026-01-05 17:43:56.837483	339.4	39.5	-68.2	0.1
2026-01-05 17:43:59.088737	339.5	38.9	-67.3	0.0
2026-01-05 17:44:01.341925	339.6	38.3	-66.9	0.0
2026-01-05 17:44:03.595858	339.7	37.8	-66.9	0.0
2026-01-05 17:44:05.850852	339.8	37.2	-66.6	0.0
2026-01-05 17:44:08.104985	339.8	36.7	-68.7	0.0
2026-01-05 17:44:10.358901	339.9	36.1	-68.0	0.0
2026-01-05 17:44:12.611574	340.0	35.6	-66.0	0.0
2026-01-05 17:44:14.864191	340.0	35.1	-66.2	0.0
2026-01-05 17:44:17.115994	340.1	34.6	-67.3	0.0
2026-01-05 17:44:19.367734	340.2	34.1	-67.3	0.0
2026-01-05 17:44:21.622725	340.2	33.6	-66.7	0.0
2026-01-05 17:44:23.880500	340.3	33.1	-67.4	0.0
2026-01-05 17:44:26.135538	340.3	32.6	-65.2	0.0
2026-01-05 17:44:28.389633	340.4	32.2	-66.5	0.0
2026-01-05 17:44:30.640368	340.4	31.7	-67.3	0.0
2026-01-05 17:44:32.895948	340.5	31.2	-65.8	0.0
2026-01-05 17:44:35.155317	340.6	30.8	-65.9	0.0
2026-01-05 17:44:37.406067	340.6	30.4	-68.0	0.0
2026-01-05 17:44:39.659381	340.7	29.9	-67.5	0.0
2026-01-05 17:44:41.912127	340.7	29.5	-63.1	0.0
2026-01-05 17:44:44.164788	340.8	29.1	-67.0	0.0
2026-01-05 17:44:46.420366	340.8	28.7	-66.2	0.0
2026-01-05 17:44:48.672478	340.8	28.3	-65.4	0.0
2026-01-05 17:44:50.926471	340.9	27.9	-67.5	0.0
2026-01-05 17:44:53.180146	340.9	27.5	-67.6	0.0
2026-01-05 17:44:55.434031	341.0	27.1	-68.5	0.0
2026-01-05 17:44:57.691482	341.0	26.7	-65.6	0.0
2026-01-05 17:44:59.943768	341.1	26.3	-67.4	0.0
2026-01-05 17:45:02.198795	341.1	25.9	-66.4	0.0
2026-01-05 17:45:04.455716	341.1	25.6	-65.9	0.0
2026-01-05 17:45:06.708154	341.2	25.2	-65.9	0.0
2026-01-05 17:45:08.963166	341.2	24.8	-68.1	0.0
2026-01-05 17:45:11.216337	341.3	24.5	-65.8	0.0
2026-01-05 17:45:13.472840	341.3	24.1	-65.5	0.0
2026-01-05 17:45:15.727395	341.3	23.8	-63.2	0.0
2026-01-05 17:45:17.982486	341.4	23.4	-66.6	0.0
2026-01-05 17:45:20.234160	341.4	23.1	-65.0	0.0
2026-01-05 17:45:22.486487	341.4	22.8	-64.5	0.0
2026-01-05 17:45:24.737568	341.5	22.4	-66.5	0.0
2026-01-05 17:45:26.990535	341.5	22.1	-64.2	0.0
2026-01-05 17:45:29.241540	341.6	21.8	-65.5	0.0
2026-01-05 17:45:31.492760	341.6	21.5	-65.0	0.0
2026-01-05 17:45:33.744717	341.6	21.2	-66.2	0.0
2026-01-05 17:45:36.000793	341.6	20.9	-65.0	0.0
2026-01-05 17:45:38.251866	341.7	20.6	-63.4	0.0
2026-01-05 17:45:40.505196	341.7	20.3	-64.2	0.0
2026-01-05 17:45:42.761253	341.7	20.0	-63.8	0.0
2026-01-05 17:45:45.013955	341.8	19.7	-63.2	0.0
2026-01-05 17:45:47.267740	341.8	19.4	-65.6	0.0
2026-01-05 17:45:49.519761	341.8	19.1	-67.0	0.0
2026-01-05 17:45:51.771941	341.9	18.8	-63.1	0.0
2026-01-05 17:45:54.025240	341.9	18.5	-66.3	0.0
2026-01-05 17:45:56.281081	341.9	18.3	-67.4	0.0
2026-01-05 17:45:58.535302	341.9	18.0	-68.4	0.0
2026-01-05 17:46:00.785675	342.0	17.7	-68.2	0.0
2026-01-05 17:46:03.039744	342.0	17.5	-67.6	0.0
2026-01-05 17:46:05.292980	342.0	17.2	-67.8	0.0
2026-01-05 17:46:07.544032	342.1	16.9	-67.0	0.0
2026-01-05 17:46:09.796041	342.1	16.7	-67.4	0.0
2026-01-05 17:46:12.047650	342.1	16.4	-65.4	0.0
2026-01-05 17:46:14.303365	342.1	16.2	-68.2	0.0
2026-01-05 17:46:16.557185	342.2	15.9	-67.3	0.0
2026-01-05 17:46:18.810925	342.2	15.7	-69.0	0.0
2026-01-05 17:46:21.063823	342.2	15.4	-69.1	0.0
2026-01-05 17:46:23.317569	342.2	15.2	-69.5	0.0
2026-01-05 17:46:25.571436	342.3	14.9	-69.5	0.0
2026-01-05 17:46:27.827254	342.3	14.7	-69.1	0.0
2026-01-05 17:46:30.083117	342.3	14.5	-70.4	0.0
2026-01-05 17:46:32.338580	342.3	14.2	-70.3	0.0
2026-01-05 17:46:34.591312	342.4	14.0	-69.9	0.0
2026-01-05 17:46:36.841158	342.4	13.8	-68.9	0.0
2026-01-05 17:46:39.095786	342.4	13.5	-69.2	0.0
2026-01-05 17:46:41.348167	342.4	13.3	-68.5	0.0
2026-01-05 17:46:43.602438	342.5	13.1	-69.4	0.0
2026-01-05 17:46:45.854650	342.5	12.9	-69.5	0.0
2026-01-05 17:46:48.108572	342.5	12.6	-69.1	0.0
2026-01-05 17:46:50.363517	342.5	12.4	-69.0	0.0
2026-01-05 17:46:52.614794	342.5	12.2	-68.2	0.0
2026-01-05 17:46:54.865921	342.6	12.0	-66.5	0.0
2026-01-05 17:46:57.119646	342.6	11.8	-67.9	0.0
2026-01-05 17:46:59.373045	342.6	11.6	-66.2	0.0
2026-01-05 17:47:01.625126	342.6	11.4	-67.6	0.0
2026-01-05 17:47:03.876504	342.6	11.2	-66.6	0.0
2026-01-05 17:47:06.130074	342.7	11.0	-66.5	0.0
2026-01-05 17:47:08.387630	342.7	10.8	-66.2	0.0
2026-01-05 17:47:10.641374	342.7	10.6	-68.9	0.0
2026-01-05 17:47:12.893835	342.7	10.4	-68.8	0.0
2026-01-05 17:47:15.146804	342.8	10.2	-74.7	0.0
#Closed at: 2026-01-05 17:36:25.773040