passes_logs/2026/01/05/planumMaritime01/planumMaritime01__20260105_064604_METOP-C_rec.log

#Pass ID: 20260105_064604_METOP-C
#Satellite: METOP-C
#Configuration: METOP-C
#Start time: 2026-01-05 06:46:09.744213

#LorettStation: 1.0.0 05.05.2024
#Station: planumMaritime01
#Location: 37.49445 lon 55.92918 lat
#TLE: 1 43689U 18087A   26004.62757632  .00000231  00000+0  12556-3 0  9991
#TLE: 2 43689  98.6895  67.0425 0000107 306.6752  53.4416 14.21494733371594

#Time	Az	El	Level	SNR
2026-01-05 06:46:11.923902	29.6	10.2	-74.7	0.0
2026-01-05 06:46:14.176406	29.8	10.3	-71.0	0.0
2026-01-05 06:46:16.428577	30.0	10.5	-67.1	0.0
2026-01-05 06:46:18.681507	30.2	10.7	-64.2	0.0
2026-01-05 06:46:20.933178	30.4	10.9	-64.6	0.0
2026-01-05 06:46:23.186567	30.6	11.0	-62.6	0.0
2026-01-05 06:46:25.438583	30.8	11.2	-62.2	0.0
2026-01-05 06:46:27.692215	31.0	11.4	-59.9	0.0
2026-01-05 06:46:29.946572	31.2	11.6	-61.8	0.0
2026-01-05 06:46:32.202391	31.4	11.8	-61.6	0.0
2026-01-05 06:46:34.453299	31.6	12.0	-59.3	0.0
2026-01-05 06:46:36.707965	31.8	12.1	-59.9	0.0
2026-01-05 06:46:38.961397	32.0	12.3	-62.0	0.0
2026-01-05 06:46:41.214281	32.3	12.5	-62.2	0.0
2026-01-05 06:46:43.469331	32.5	12.7	-58.8	0.0
2026-01-05 06:46:45.722718	32.7	12.9	-60.4	0.0
2026-01-05 06:46:47.976048	32.9	13.1	-61.8	0.0
2026-01-05 06:46:50.229568	33.2	13.3	-60.8	0.0
2026-01-05 06:46:52.483919	33.4	13.5	-62.3	0.0
2026-01-05 06:46:54.737337	33.7	13.7	-62.1	0.0
2026-01-05 06:46:56.990237	33.9	13.8	-61.5	0.0
2026-01-05 06:46:59.243213	34.1	14.0	-62.3	0.0
2026-01-05 06:47:01.498611	34.4	14.2	-60.6	0.0
2026-01-05 06:47:03.751309	34.6	14.4	-61.8	0.0
2026-01-05 06:47:06.004548	34.9	14.6	-60.8	0.0
2026-01-05 06:47:08.256234	35.1	14.8	-60.3	0.0
2026-01-05 06:47:10.509498	35.4	15.0	-61.2	0.0
2026-01-05 06:47:12.761853	35.7	15.2	-62.2	0.0
2026-01-05 06:47:15.014400	35.9	15.4	-62.4	0.0
2026-01-05 06:47:17.266622	36.2	15.6	-61.6	0.0
2026-01-05 06:47:19.520943	36.5	15.9	-63.9	0.0
2026-01-05 06:47:21.776755	36.8	16.1	-63.1	0.0
2026-01-05 06:47:24.029948	37.0	16.3	-64.2	0.0
2026-01-05 06:47:26.283724	37.3	16.5	-63.8	0.0
2026-01-05 06:47:28.536421	37.6	16.7	-63.3	0.0
2026-01-05 06:47:30.788251	37.9	16.9	-63.8	0.0
2026-01-05 06:47:33.043233	38.2	17.1	-64.9	0.0
2026-01-05 06:47:35.297967	38.5	17.3	-64.4	0.0
2026-01-05 06:47:37.550399	38.8	17.5	-62.7	0.0
2026-01-05 06:47:39.804130	39.1	17.8	-64.2	0.0
2026-01-05 06:47:42.061428	39.4	18.0	-64.4	0.0
2026-01-05 06:47:44.313626	39.8	18.2	-65.3	0.0
2026-01-05 06:47:46.565593	40.1	18.4	-64.0	0.0
2026-01-05 06:47:48.820268	40.4	18.6	-65.7	0.0
2026-01-05 06:47:51.072624	40.7	18.8	-65.1	0.0
2026-01-05 06:47:53.325607	41.1	19.1	-65.8	0.0
2026-01-05 06:47:55.580758	41.4	19.3	-66.3	0.0
2026-01-05 06:47:57.834616	41.8	19.5	-65.8	0.0
2026-01-05 06:48:00.086568	42.1	19.7	-68.1	0.0
2026-01-05 06:48:02.340228	42.5	20.0	-66.0	0.0
2026-01-05 06:48:04.596510	42.8	20.2	-66.4	0.0
2026-01-05 06:48:06.851680	43.2	20.4	-66.6	0.0
2026-01-05 06:48:09.106453	43.6	20.7	-67.5	0.0
2026-01-05 06:48:11.361637	44.0	20.9	-67.1	0.0
2026-01-05 06:48:13.617029	44.4	21.1	-65.7	0.0
2026-01-05 06:48:15.869741	44.7	21.4	-65.2	0.0
2026-01-05 06:48:18.121037	45.1	21.6	-67.2	0.0
2026-01-05 06:48:20.372988	45.5	21.8	-68.2	0.0
2026-01-05 06:48:22.628603	46.0	22.1	-65.3	0.0
2026-01-05 06:48:24.882119	46.4	22.3	-68.2	0.0
2026-01-05 06:48:27.134880	46.8	22.5	-65.5	0.0
2026-01-05 06:48:29.389236	47.2	22.8	-66.8	0.0
2026-01-05 06:48:31.643314	47.6	23.0	-67.8	0.0
2026-01-05 06:48:33.892080	48.1	23.2	-66.8	0.0
2026-01-05 06:48:36.146436	48.5	23.5	-68.7	0.0
2026-01-05 06:48:38.401259	49.0	23.7	-67.3	0.0
2026-01-05 06:48:40.654645	49.4	24.0	-69.2	0.0
2026-01-05 06:48:42.909211	49.9	24.2	-67.6	0.0
2026-01-05 06:48:45.166665	50.4	24.4	-68.2	0.0
2026-01-05 06:48:47.418215	50.9	24.7	-68.9	0.5
2026-01-05 06:48:49.670839	51.3	24.9	-69.4	0.8
2026-01-05 06:48:51.926552	51.8	25.2	-69.1	0.0
2026-01-05 06:48:54.179599	52.3	25.4	-67.5	0.0
2026-01-05 06:48:56.432118	52.9	25.6	-68.0	0.0
2026-01-05 06:48:58.684950	53.4	25.9	-67.1	0.0
2026-01-05 06:49:00.939187	53.9	26.1	-68.6	0.0
2026-01-05 06:49:03.194880	54.4	26.4	-68.9	1.0
2026-01-05 06:49:05.447598	55.0	26.6	-68.2	0.0
2026-01-05 06:49:07.699481	55.5	26.8	-67.7	0.0
2026-01-05 06:49:09.952551	56.1	27.1	-68.7	0.0
2026-01-05 06:49:12.207143	56.6	27.3	-69.8	0.0
2026-01-05 06:49:14.461733	57.2	27.5	-69.8	0.0
2026-01-05 06:49:16.711191	57.8	27.8	-70.4	2.0
2026-01-05 06:49:18.965191	58.4	28.0	-70.0	1.7
2026-01-05 06:49:21.216323	59.0	28.2	-70.3	2.0
2026-01-05 06:49:23.466386	59.6	28.5	-70.2	1.5
2026-01-05 06:49:25.717720	60.2	28.7	-69.7	1.1
2026-01-05 06:49:27.968763	60.8	28.9	-69.4	1.1
2026-01-05 06:49:30.222408	61.5	29.2	-69.7	1.5
2026-01-05 06:49:32.475185	62.1	29.4	-70.2	5.1
2026-01-05 06:49:34.725303	62.8	29.6	-70.1	4.7
2026-01-05 06:49:36.980189	63.4	29.8	-71.1	3.6
2026-01-05 06:49:39.232755	64.1	30.0	-70.6	4.2
2026-01-05 06:49:41.483219	64.8	30.3	-71.4	4.9
2026-01-05 06:49:43.733666	65.5	30.5	-70.9	2.6
2026-01-05 06:49:45.985550	66.2	30.7	-71.2	5.7
2026-01-05 06:49:48.242239	66.9	30.9	-71.6	6.7
2026-01-05 06:49:50.495340	67.6	31.1	-71.8	6.1
2026-01-05 06:49:52.746828	68.3	31.3	-71.8	7.3
2026-01-05 06:49:55.000809	69.0	31.5	-71.9	7.7
2026-01-05 06:49:57.253687	69.8	31.7	-71.3	4.9
2026-01-05 06:49:59.507028	70.5	31.9	-72.5	7.2
2026-01-05 06:50:01.759001	71.3	32.0	-72.4	8.0
2026-01-05 06:50:04.010420	72.1	32.2	-72.5	7.3
2026-01-05 06:50:06.263781	72.8	32.4	-72.7	7.1
2026-01-05 06:50:08.516350	73.6	32.6	-72.6	7.7
2026-01-05 06:50:10.768273	74.4	32.7	-71.8	7.3
2026-01-05 06:50:13.021330	75.2	32.9	-72.6	8.6
2026-01-05 06:50:15.271895	76.0	33.0	-72.7	9.7
2026-01-05 06:50:17.523630	76.8	33.2	-72.7	9.7
2026-01-05 06:50:19.774156	77.6	33.3	-72.4	8.1
2026-01-05 06:50:22.031039	78.5	33.5	-71.8	8.5
2026-01-05 06:50:24.282978	79.3	33.6	-71.7	8.0
2026-01-05 06:50:26.535801	80.1	33.7	-71.6	8.8
2026-01-05 06:50:28.790112	81.0	33.8	-72.1	10.5
2026-01-05 06:50:31.042424	81.8	34.0	-72.6	10.7
2026-01-05 06:50:33.293380	82.7	34.1	-72.1	10.0
2026-01-05 06:50:35.543366	83.6	34.2	-71.6	10.2
2026-01-05 06:50:37.794788	84.4	34.3	-72.5	11.3
2026-01-05 06:50:40.047412	85.3	34.3	-72.1	8.0
2026-01-05 06:50:42.299662	86.2	34.4	-71.0	8.1
2026-01-05 06:50:44.551163	87.1	34.5	-72.4	10.0
2026-01-05 06:50:46.806058	88.0	34.5	-72.1	8.6
2026-01-05 06:50:49.060872	88.9	34.6	-72.7	9.7
2026-01-05 06:50:51.314314	89.8	34.7	-72.6	10.7
2026-01-05 06:50:53.566507	90.6	34.7	-72.5	10.9
2026-01-05 06:50:55.818738	91.5	34.7	-71.6	9.9
2026-01-05 06:50:58.076887	92.4	34.8	-72.6	11.1
2026-01-05 06:51:00.333092	93.3	34.8	-72.0	9.8
2026-01-05 06:51:02.588393	94.3	34.8	-72.5	10.7
2026-01-05 06:51:04.844782	95.2	34.8	-72.0	9.7
2026-01-05 06:51:07.096245	96.1	34.8	-72.4	11.1
2026-01-05 06:51:09.349064	97.0	34.8	-72.0	9.6
2026-01-05 06:51:11.599622	97.9	34.7	-71.4	10.4
2026-01-05 06:51:13.850858	98.8	34.7	-72.0	9.5
2026-01-05 06:51:16.104065	99.7	34.7	-71.9	11.8
2026-01-05 06:51:18.358085	100.5	34.6	-71.0	8.3
2026-01-05 06:51:20.611037	101.4	34.6	-72.0	10.8
2026-01-05 06:51:22.864171	102.3	34.5	-72.4	10.9
2026-01-05 06:51:25.117288	103.2	34.5	-72.1	9.8
2026-01-05 06:51:27.372765	104.1	34.4	-71.6	8.1
2026-01-05 06:51:29.626991	105.0	34.3	-71.6	9.1
2026-01-05 06:51:31.881043	105.9	34.2	-72.3	7.5
2026-01-05 06:51:34.135127	106.7	34.1	-72.8	10.2
2026-01-05 06:51:36.389858	107.6	34.0	-72.2	8.2
2026-01-05 06:51:38.640077	108.5	33.9	-72.4	9.3
2026-01-05 06:51:40.894162	109.3	33.8	-72.1	8.1
2026-01-05 06:51:43.147618	110.2	33.7	-72.2	9.6
2026-01-05 06:51:45.400081	111.0	33.5	-72.3	9.5
2026-01-05 06:51:47.652708	111.8	33.4	-73.0	10.7
2026-01-05 06:51:49.905780	112.7	33.3	-72.4	9.0
2026-01-05 06:51:52.157035	113.5	33.1	-72.8	7.6
2026-01-05 06:51:54.407183	114.3	33.0	-73.4	9.5
2026-01-05 06:51:56.660656	115.1	32.8	-73.7	11.3
2026-01-05 06:51:58.913366	115.9	32.7	-73.0	7.5
2026-01-05 06:52:01.161259	116.7	32.5	-73.3	8.2
2026-01-05 06:52:03.411830	117.5	32.3	-73.6	9.3
2026-01-05 06:52:05.662140	118.2	32.1	-73.2	9.0
2026-01-05 06:52:07.913778	119.0	32.0	-73.7	9.7
2026-01-05 06:52:10.164386	119.8	31.8	-73.6	9.5
2026-01-05 06:52:12.419555	120.5	31.6	-73.5	8.6
2026-01-05 06:52:14.671704	121.2	31.4	-73.7	9.6
2026-01-05 06:52:16.923429	122.0	31.2	-73.7	9.6
2026-01-05 06:52:19.176449	122.7	31.0	-73.6	11.0
2026-01-05 06:52:21.430737	123.4	30.8	-73.8	10.9
2026-01-05 06:52:23.684473	124.1	30.6	-73.8	10.6
2026-01-05 06:52:25.937333	124.8	30.4	-73.9	9.5
2026-01-05 06:52:28.191496	125.5	30.1	-73.9	11.4
2026-01-05 06:52:30.447871	126.2	29.9	-74.0	11.1
2026-01-05 06:52:32.700417	126.8	29.7	-73.8	11.9
2026-01-05 06:52:34.951575	127.5	29.5	-73.7	11.2
2026-01-05 06:52:37.204473	128.2	29.3	-73.7	11.3
2026-01-05 06:52:39.459909	128.8	29.0	-73.6	10.6
2026-01-05 06:52:41.711530	129.4	28.8	-73.7	9.8
2026-01-05 06:52:43.963811	130.1	28.6	-73.6	10.5
2026-01-05 06:52:46.218964	130.7	28.3	-73.8	10.2
2026-01-05 06:52:48.469213	131.3	28.1	-73.7	10.8
2026-01-05 06:52:50.722218	131.9	27.9	-73.8	10.4
2026-01-05 06:52:52.975928	132.5	27.6	-73.7	10.5
2026-01-05 06:52:55.229360	133.0	27.4	-73.6	10.7
2026-01-05 06:52:57.480737	133.6	27.2	-73.7	11.1
2026-01-05 06:52:59.733194	134.2	26.9	-73.8	11.5
2026-01-05 06:53:01.982831	134.7	26.7	-73.7	10.9
2026-01-05 06:53:04.234796	135.3	26.5	-74.1	10.4
2026-01-05 06:53:06.490362	135.8	26.2	-74.1	10.7
2026-01-05 06:53:08.746999	136.4	26.0	-74.0	9.7
2026-01-05 06:53:10.998448	136.9	25.7	-74.2	9.8
2026-01-05 06:53:13.250563	137.4	25.5	-74.2	9.0
2026-01-05 06:53:15.503458	137.9	25.2	-74.4	8.9
2026-01-05 06:53:17.756503	138.4	25.0	-74.2	9.4
2026-01-05 06:53:20.008326	138.9	24.8	-74.1	9.6
2026-01-05 06:53:22.264076	139.4	24.5	-74.1	9.8
2026-01-05 06:53:24.518203	139.9	24.3	-74.2	9.9
2026-01-05 06:53:26.770166	140.3	24.0	-74.6	9.0
2026-01-05 06:53:29.021455	140.8	23.8	-74.7	9.1
2026-01-05 06:53:31.274994	141.3	23.6	-74.7	9.8
2026-01-05 06:53:33.530129	141.7	23.3	-74.9	8.4
2026-01-05 06:53:35.785048	142.2	23.1	-75.0	8.5
2026-01-05 06:53:38.037140	142.6	22.8	-74.7	9.1
2026-01-05 06:53:40.291023	143.0	22.6	-74.8	9.1
2026-01-05 06:53:42.542593	143.4	22.4	-74.5	9.8
2026-01-05 06:53:44.796887	143.9	22.1	-74.8	9.0
2026-01-05 06:53:47.049985	144.3	21.9	-74.8	8.6
2026-01-05 06:53:49.304592	144.7	21.6	-74.7	9.3
2026-01-05 06:53:51.560566	145.1	21.4	-74.9	8.4
2026-01-05 06:53:53.812759	145.5	21.2	-74.7	8.5
2026-01-05 06:53:56.065798	145.9	20.9	-74.7	7.9
2026-01-05 06:53:58.319980	146.3	20.7	-74.1	6.0
2026-01-05 06:54:00.573232	146.6	20.5	-75.0	8.7
2026-01-05 06:54:02.826342	147.0	20.2	-74.7	6.6
2026-01-05 06:54:05.077167	147.4	20.0	-74.7	6.4
2026-01-05 06:54:07.330287	147.7	19.8	-74.5	6.5
2026-01-05 06:54:09.580978	148.1	19.6	-74.0	7.9
2026-01-05 06:54:11.836120	148.4	19.3	-73.8	6.8
2026-01-05 06:54:14.087457	148.8	19.1	-74.2	8.0
2026-01-05 06:54:16.338983	149.1	18.9	-74.4	8.0
2026-01-05 06:54:18.595034	149.5	18.7	-74.4	7.8
2026-01-05 06:54:20.846299	149.8	18.4	-74.3	7.0
2026-01-05 06:54:23.099989	150.1	18.2	-74.7	8.1
2026-01-05 06:54:25.351320	150.4	18.0	-74.7	7.0
2026-01-05 06:54:27.604296	150.8	17.8	-74.5	7.5
2026-01-05 06:54:29.854858	151.1	17.6	-73.5	3.0
2026-01-05 06:54:32.106311	151.4	17.3	-75.1	7.9
2026-01-05 06:54:34.356452	151.7	17.1	-75.0	7.2
2026-01-05 06:54:36.610055	152.0	16.9	-75.0	6.5
2026-01-05 06:54:38.862722	152.3	16.7	-74.8	6.7
2026-01-05 06:54:41.117738	152.6	16.5	-75.1	5.2
2026-01-05 06:54:43.371855	152.9	16.3	-75.0	7.0
2026-01-05 06:54:45.622814	153.1	16.1	-74.6	5.3
2026-01-05 06:54:47.873936	153.4	15.8	-74.8	3.8
2026-01-05 06:54:50.124149	153.7	15.6	-74.5	5.6
2026-01-05 06:54:52.376706	154.0	15.4	-74.7	4.8
2026-01-05 06:54:54.633802	154.2	15.2	-74.7	3.7
2026-01-05 06:54:56.887411	154.5	15.0	-74.5	4.7
2026-01-05 06:54:59.140324	154.8	14.8	-74.6	6.1
2026-01-05 06:55:01.395497	155.0	14.6	-74.5	4.4
2026-01-05 06:55:03.645009	155.3	14.4	-75.0	3.6
2026-01-05 06:55:05.895398	155.5	14.2	-74.5	5.1
2026-01-05 06:55:08.149317	155.8	14.0	-74.7	4.0
2026-01-05 06:55:10.401313	156.0	13.8	-74.7	4.4
2026-01-05 06:55:12.653487	156.3	13.6	-74.2	2.3
2026-01-05 06:55:14.911804	156.5	13.4	-74.5	3.9
2026-01-05 06:55:17.162185	156.7	13.2	-74.8	5.0
2026-01-05 06:55:19.415247	157.0	13.0	-74.8	4.1
2026-01-05 06:55:21.667555	157.2	12.9	-74.9	4.4
2026-01-05 06:55:23.918305	157.4	12.7	-75.0	3.6
2026-01-05 06:55:26.172704	157.7	12.5	-74.8	3.0
2026-01-05 06:55:28.423216	157.9	12.3	-75.3	3.7
2026-01-05 06:55:30.675742	158.1	12.1	-75.3	4.3
2026-01-05 06:55:32.929968	158.3	11.9	-75.4	3.4
2026-01-05 06:55:35.180348	158.5	11.7	-75.9	4.4
2026-01-05 06:55:37.435076	158.7	11.5	-75.8	4.3
2026-01-05 06:55:39.686546	158.9	11.4	-76.1	3.5
2026-01-05 06:55:41.944190	159.2	11.2	-76.1	3.6
2026-01-05 06:55:44.199758	159.4	11.0	-75.5	3.9
2026-01-05 06:55:46.452588	159.6	10.8	-75.6	0.0
2026-01-05 06:55:48.705328	159.8	10.6	-77.5	0.0
2026-01-05 06:55:50.960682	160.0	10.5	-76.3	0.0
2026-01-05 06:55:53.209963	160.2	10.3	-81.7	0.0
2026-01-05 06:55:55.462653	160.3	10.1	-80.6	0.0
#Closed at: 2026-01-05 06:46:04.750969