passes_logs/2026/01/29/R3.2S-Naryan-Mar/R3.2S-Naryan-Mar__20260129_234907_SUOMI_NPP_rec.log

#Pass ID: 20260129_234907_SUOMI NPP
#Satellite: SUOMI NPP
#Configuration: NPP
#almurnet v.1.7.20240730
#Start time: 2026-01-29 23:49:09

#Version: 2.2.20231116
#Station: R3.2S-Naryan-Mar
#Location: 53.008057 lon 67.646978 lat
#TLE: 1 37849U 11061A   26028.91916408  .00000155  00000+0  94467-4 0  9990
#TLE: 2 37849  98.7824 330.8488 0002045  39.4457 320.6868 14.19531289738686

#Time	Az	El	Level	Level2	SNR	BER	BlckErr	Temp	State	Recorded	gain1	gain2
2026-01-29 23:49:09.22	25.13	0.11	-62.0	-76.3	3.4	1.52e+00	0	43	0	0	60	248703
2026-01-29 23:49:13.24	25.10	0.35	-62.0	-78.8	3.6	1.51e+00	0	45	104	0	60	340478
2026-01-29 23:49:17.26	25.06	0.60	-61.5	-78.7	3.6	1.51e+00	0	45	104	0	60	337097
2026-01-29 23:49:21.29	25.03	0.84	-61.2	-78.3	3.6	1.51e+00	0	45	104	0	60	322308
2026-01-29 23:49:25.31	24.99	1.09	-57.8	-77.2	3.6	1.51e+00	0	45	104	0	60	284846
2026-01-29 23:49:29.34	24.96	1.34	-60.3	-77.3	3.6	1.51e+00	0	45	104	0	60	285961
2026-01-29 23:49:33.36	24.92	1.59	-59.5	-77.4	3.6	1.51e+00	0	45	104	0	60	289605
2026-01-29 23:49:37.39	24.88	1.85	-58.5	-75.9	3.6	1.51e+00	0	45	104	0	60	243390
2026-01-29 23:49:41.42	24.84	2.10	-55.5	-75.5	3.6	1.51e+00	0	45	104	0	60	234224
2026-01-29 23:49:45.44	24.80	2.36	-54.6	-74.5	3.5	1.51e+00	0	45	104	0	60	207832
2026-01-29 23:49:49.47	24.76	2.62	-54.7	-74.4	3.6	1.51e+00	0	45	104	0	60	206419
2026-01-29 23:49:53.50	24.72	2.88	-54.5	-74.3	3.6	1.51e+00	0	45	104	0	60	202511
2026-01-29 23:49:57.52	24.68	3.15	-54.3	-74.6	3.6	1.51e+00	0	45	104	0	60	209756
2026-01-29 23:50:01.55	24.63	3.42	-54.2	-74.3	3.6	1.51e+00	0	45	104	0	60	203993
2026-01-29 23:50:05.59	24.59	3.69	-54.1	-74.4	3.6	1.51e+00	0	45	104	0	60	206031
2026-01-29 23:50:09.62	24.54	3.96	-53.9	-73.9	3.6	1.51e+00	0	45	104	0	60	193641
2026-01-29 23:50:13.64	24.49	4.24	-53.8	-74.4	3.6	1.51e+00	0	45	104	0	60	204839
2026-01-29 23:50:17.67	24.44	4.52	-54.0	-73.7	3.6	1.51e+00	0	45	104	0	60	190029
2026-01-29 23:50:21.70	24.39	4.80	-53.8	-73.6	3.6	1.51e+00	0	45	104	0	60	187505
2026-01-29 23:50:25.72	24.34	5.08	-53.6	-67.4	5.1	6.63e-01	0	45	0	2097152	60	91807
2026-01-29 23:50:29.75	24.29	5.37	-53.3	-62.0	11.0	4.99e-03	0	45	0	9437184	60	49391
2026-01-29 23:50:33.78	24.23	5.66	-52.7	-58.7	14.5	1.50e-06	0	45	0	16777216	60	33635
2026-01-29 23:50:37.80	24.18	5.96	-52.3	-58.2	14.9	0.00e+00	0	46	0	24117248	60	31758
2026-01-29 23:50:41.83	24.12	6.26	-53.0	-60.4	11.4	0.00e+00	0	45	0	31457280	60	41248
2026-01-29 23:50:45.85	24.06	6.56	-52.4	-58.5	16.3	0.00e+00	0	45	0	39845888	60	33099
2026-01-29 23:50:49.86	24.00	6.86	-54.1	-58.2	14.5	7.00e-07	0	45	0	47185920	60	31723
2026-01-29 23:50:53.87	23.94	7.17	-53.0	-58.1	14.6	7.00e-07	0	45	0	54525952	60	31475
2026-01-29 23:50:57.90	23.87	7.48	-49.6	-57.4	14.2	1.50e-06	0	46	0	61865984	60	28923
2026-01-29 23:51:01.93	23.81	7.79	-54.2	-57.7	17.0	0.00e+00	0	46	0	69206016	60	30208
2026-01-29 23:51:05.95	23.74	8.11	-53.3	-57.4	16.1	0.00e+00	0	46	0	77594624	60	29165
2026-01-29 23:51:09.97	23.67	8.44	-50.3	-57.3	15.8	0.00e+00	0	45	0	84934656	60	28572
2026-01-29 23:51:14.00	23.60	8.76	-49.6	-57.1	16.4	0.00e+00	0	45	0	92274688	60	28198
2026-01-29 23:51:18.02	23.53	9.10	-50.7	-56.9	15.4	0.00e+00	0	46	0	99614720	60	27552
2026-01-29 23:51:22.06	23.45	9.43	-52.6	-56.8	16.1	0.00e+00	0	46	0	106954752	60	27195
2026-01-29 23:51:26.08	23.37	9.77	-52.2	-56.7	17.2	0.00e+00	0	45	0	115343360	60	26905
2026-01-29 23:51:30.10	23.29	10.12	-50.5	-56.8	18.0	0.00e+00	0	46	0	122683392	60	26974
2026-01-29 23:51:34.12	23.21	10.47	-50.3	-56.2	18.0	0.00e+00	0	46	0	130023424	60	25419
2026-01-29 23:51:38.15	23.13	10.82	-50.2	-56.0	16.5	0.00e+00	0	46	0	137363456	60	24820
2026-01-29 23:51:42.19	23.04	11.19	-48.8	-55.7	14.8	0.00e+00	0	46	0	144703488	60	23827
2026-01-29 23:51:46.20	22.95	11.55	-48.8	-55.7	14.0	7.00e-07	0	46	0	153092096	60	23832
2026-01-29 23:51:50.23	22.86	11.92	-52.0	-55.6	15.9	0.00e+00	0	46	0	160432128	60	23579
2026-01-29 23:51:54.26	22.76	12.30	-51.2	-55.3	16.4	0.00e+00	0	46	0	167772160	60	22710
2026-01-29 23:51:58.29	22.66	12.68	-48.5	-55.1	14.5	7.00e-07	0	46	0	175112192	60	22378
2026-01-29 23:52:02.32	22.56	13.07	-47.1	-55.1	15.0	7.00e-07	0	46	0	182452224	60	22337
2026-01-29 23:52:06.35	22.46	13.47	-48.1	-55.1	15.9	0.00e+00	0	46	0	190840832	60	22373
2026-01-29 23:52:10.38	22.35	13.87	-50.8	-55.2	18.7	0.00e+00	0	46	0	198180864	60	22568
2026-01-29 23:52:14.38	22.24	14.27	-49.8	-55.1	18.5	0.00e+00	0	46	0	205520896	60	22391
2026-01-29 23:52:18.41	22.12	14.69	-49.5	-54.8	16.8	0.00e+00	0	45	0	212860928	60	21545
2026-01-29 23:52:22.43	22.01	15.11	-49.7	-54.5	20.4	0.00e+00	0	46	0	220200960	60	20911
2026-01-29 23:52:26.46	21.88	15.54	-51.0	-54.2	20.4	0.00e+00	0	46	0	228589568	60	20109
2026-01-29 23:52:30.49	21.76	15.98	-52.1	-54.1	20.5	0.00e+00	0	46	0	235929600	60	19886
2026-01-29 23:52:34.50	21.63	16.42	-52.0	-53.9	21.1	0.00e+00	0	46	0	243269632	60	19469
2026-01-29 23:52:38.53	21.49	16.87	-50.7	-53.8	18.8	0.00e+00	0	46	0	250609664	60	19180
2026-01-29 23:52:42.56	21.35	17.34	-51.4	-53.8	20.7	0.00e+00	0	46	0	257949696	60	19202
2026-01-29 23:52:46.58	21.21	17.80	-51.7	-54.1	20.4	0.00e+00	0	46	0	266338304	60	19817
2026-01-29 23:52:50.60	21.06	18.28	-50.7	-54.2	20.9	0.00e+00	0	46	0	273678336	60	20103
2026-01-29 23:52:54.63	20.90	18.77	-49.9	-54.1	19.2	0.00e+00	0	46	0	281018368	60	19774
2026-01-29 23:52:58.65	20.74	19.27	-49.8	-53.8	18.9	0.00e+00	0	46	0	288358400	60	19089
2026-01-29 23:53:02.68	20.58	19.77	-50.5	-54.0	19.9	0.00e+00	0	46	0	295698432	60	19542
2026-01-29 23:53:06.71	20.40	20.29	-47.8	-53.8	16.1	0.00e+00	0	46	0	303038464	60	19246
2026-01-29 23:53:10.73	20.22	20.82	-52.1	-54.1	21.3	0.00e+00	0	46	0	311427072	60	19880
2026-01-29 23:53:14.75	20.04	21.36	-47.5	-53.7	17.5	0.00e+00	0	46	0	318767104	60	19043
2026-01-29 23:53:18.78	19.84	21.91	-50.7	-53.9	18.4	0.00e+00	0	46	0	326107136	60	19447
2026-01-29 23:53:22.81	19.64	22.47	-52.0	-54.2	21.5	0.00e+00	0	46	0	333447168	60	20069
2026-01-29 23:53:26.83	19.43	23.04	-52.3	-54.4	20.4	0.00e+00	0	46	0	340787200	60	20613
2026-01-29 23:53:30.85	19.22	23.63	-52.7	-54.3	21.2	0.00e+00	0	46	0	349175808	60	20349
2026-01-29 23:53:34.87	18.99	24.23	-51.7	-54.5	19.8	0.00e+00	0	46	0	356515840	60	20819
2026-01-29 23:53:38.89	18.75	24.84	-53.2	-55.4	19.5	0.00e+00	0	46	0	363855872	60	23068
2026-01-29 23:53:42.90	18.51	25.47	-53.4	-55.8	19.8	0.00e+00	0	46	0	371195904	60	24087
2026-01-29 23:53:46.92	18.25	26.11	-52.8	-55.7	20.0	0.00e+00	0	46	0	378535936	60	23758
2026-01-29 23:53:50.94	17.98	26.76	-52.7	-55.5	19.1	0.00e+00	0	46	0	386924544	60	23288
2026-01-29 23:53:54.96	17.70	27.44	-54.3	-56.5	19.0	0.00e+00	0	46	0	394264576	60	26265
2026-01-29 23:53:58.98	17.41	28.12	-54.3	-57.1	18.3	0.00e+00	0	46	0	401604608	60	27972
2026-01-29 23:54:03.01	17.10	28.83	-53.8	-56.4	19.4	0.00e+00	0	46	0	408944640	60	25863
2026-01-29 23:54:07.03	16.78	29.55	-52.5	-57.2	16.9	0.00e+00	0	46	0	416284672	60	28401
2026-01-29 23:54:11.05	16.45	30.29	-54.1	-57.9	16.3	0.00e+00	0	46	0	424673280	60	30821
2026-01-29 23:54:15.07	16.09	31.05	-54.7	-57.5	17.3	0.00e+00	0	46	0	432013312	60	29394
2026-01-29 23:54:19.09	15.72	31.82	-54.5	-58.2	17.9	0.00e+00	0	46	0	439353344	60	31912
2026-01-29 23:54:23.11	15.33	32.62	-56.0	-58.9	17.4	0.00e+00	0	46	0	446693376	60	34394
2026-01-29 23:54:27.12	14.92	33.43	-51.4	-58.2	15.1	0.00e+00	0	46	0	454033408	60	31822
2026-01-29 23:54:31.16	14.49	34.27	-54.5	-59.9	14.2	5.30e-06	0	46	0	462422016	60	38881
2026-01-29 23:54:35.19	14.03	35.13	-55.7	-58.7	17.6	0.00e+00	0	46	0	469762048	60	33767
2026-01-29 23:54:39.22	13.54	36.01	-55.4	-58.8	17.7	0.00e+00	0	46	0	477102080	60	34019
2026-01-29 23:54:43.24	13.03	36.91	-55.7	-59.0	17.2	0.00e+00	0	46	0	484442112	60	35015
2026-01-29 23:54:47.26	12.49	37.84	-55.5	-57.7	18.7	0.00e+00	0	46	0	491782144	60	30114
2026-01-29 23:54:51.29	11.92	38.79	-55.4	-57.9	18.0	0.00e+00	0	46	0	500170752	60	30646
2026-01-29 23:54:55.31	11.31	39.76	-55.9	-58.8	17.3	0.00e+00	0	46	0	507510784	60	33983
2026-01-29 23:54:59.34	10.66	40.75	-55.6	-59.0	17.2	0.00e+00	0	46	0	514850816	60	35102
2026-01-29 23:55:03.36	9.96	41.77	-54.8	-57.3	18.3	0.00e+00	0	46	0	522190848	60	28737
2026-01-29 23:55:07.39	9.22	42.81	-55.3	-57.2	19.2	0.00e+00	0	46	0	529530880	60	28313
2026-01-29 23:55:11.42	8.43	43.88	-55.5	-57.5	19.0	0.00e+00	0	46	0	536870912	60	29426
2026-01-29 23:55:15.45	7.59	44.97	-54.2	-55.6	20.5	0.00e+00	0	46	0	545259520	60	23674
2026-01-29 23:55:19.48	6.68	46.08	-54.8	-56.6	20.0	0.00e+00	0	46	0	552599552	60	26574
2026-01-29 23:55:23.51	5.70	47.22	-54.1	-55.8	20.4	0.00e+00	0	46	0	559939584	60	24121
2026-01-29 23:55:27.54	4.64	48.38	-55.0	-57.3	18.8	0.00e+00	0	46	0	567279616	60	28829
2026-01-29 23:55:31.56	3.51	49.55	-53.6	-54.9	21.4	0.00e+00	0	46	0	575668224	60	21896
2026-01-29 23:55:35.58	2.28	50.74	-53.1	-54.6	21.7	0.00e+00	0	46	0	583008256	60	21050
2026-01-29 23:55:39.61	0.95	51.95	-54.7	-56.3	20.3	0.00e+00	0	46	0	590348288	60	25443
2026-01-29 23:55:43.63	359.50	53.17	-53.9	-55.2	21.1	0.00e+00	0	46	0	597688320	60	22629
2026-01-29 23:55:47.66	357.93	54.41	-53.9	-55.3	21.3	0.00e+00	0	46	0	605028352	60	22776
2026-01-29 23:55:51.68	356.21	55.64	-55.7	-57.5	19.3	0.00e+00	0	46	0	613416960	60	29344
2026-01-29 23:55:55.71	354.33	56.88	-55.8	-57.6	19.1	0.00e+00	0	46	0	620756992	60	29789
2026-01-29 23:55:59.74	352.27	58.12	-56.4	-58.4	18.1	0.00e+00	0	46	0	628097024	60	32565
2026-01-29 23:56:03.77	350.01	59.34	-54.9	-56.6	20.3	0.00e+00	0	46	0	635437056	60	26342
2026-01-29 23:56:07.79	347.54	60.53	-54.6	-56.0	20.7	0.00e+00	0	46	0	642777088	60	24862
2026-01-29 23:56:11.82	344.82	61.70	-53.8	-55.1	21.7	0.00e+00	0	46	0	650117120	60	22160
2026-01-29 23:56:15.84	341.83	62.83	-54.3	-55.6	21.2	0.00e+00	0	46	0	658505728	60	23678
2026-01-29 23:56:19.87	338.55	63.90	-53.8	-55.2	21.5	0.00e+00	0	46	0	665845760	60	22422
2026-01-29 23:56:23.90	334.97	64.90	-53.2	-54.4	22.0	0.00e+00	0	46	0	673185792	60	20446
2026-01-29 23:56:27.92	331.07	65.82	-53.9	-55.2	21.4	0.00e+00	0	46	0	680525824	60	22634
2026-01-29 23:56:31.95	326.84	66.64	-53.5	-55.0	21.2	0.00e+00	0	46	0	688914432	60	22083
2026-01-29 23:56:35.97	322.30	67.34	-55.1	-57.2	19.6	0.00e+00	0	46	0	696254464	60	28283
2026-01-29 23:56:40.00	317.47	67.90	-57.3	-60.6	16.3	0.00e+00	0	46	0	703594496	60	41783
2026-01-29 23:56:44.03	312.40	68.31	-55.8	-57.7	19.2	0.00e+00	0	46	0	710934528	60	30043
2026-01-29 23:56:48.06	307.16	68.57	-55.9	-58.5	18.2	0.00e+00	0	46	0	718274560	60	33029
2026-01-29 23:56:52.09	301.83	68.65	-55.7	-58.9	17.8	0.00e+00	0	46	0	726663168	60	34634
2026-01-29 23:56:56.12	296.50	68.56	-55.4	-59.0	17.6	0.00e+00	0	46	0	734003200	60	34772
2026-01-29 23:57:00.13	291.29	68.30	-54.8	-57.5	18.9	0.00e+00	0	46	0	741343232	60	29497
2026-01-29 23:57:04.16	286.23	67.88	-57.3	-61.0	15.8	0.00e+00	0	46	0	748683264	60	44089
2026-01-29 23:57:08.19	281.40	67.31	-56.6	-59.8	16.9	0.00e+00	0	46	0	756023296	60	38217
2026-01-29 23:57:12.22	276.87	66.61	-54.0	-56.0	20.0	0.00e+00	0	46	0	763363328	60	24688
2026-01-29 23:57:16.24	272.66	65.78	-52.8	-54.9	20.9	0.00e+00	0	46	0	771751936	60	21765
2026-01-29 23:57:20.27	268.76	64.86	-52.8	-55.1	20.7	0.00e+00	0	46	0	779091968	60	22351
2026-01-29 23:57:24.30	265.18	63.85	-53.3	-55.4	20.5	0.00e+00	0	46	0	786432000	60	23052
2026-01-29 23:57:28.32	261.92	62.78	-54.7	-56.9	19.5	0.00e+00	0	46	0	793772032	60	27419
2026-01-29 23:57:32.35	258.94	61.65	-55.5	-57.8	18.8	0.00e+00	0	46	0	802160640	60	30501
2026-01-29 23:57:36.38	256.23	60.47	-56.2	-58.8	17.7	0.00e+00	0	46	0	809500672	60	34209
2026-01-29 23:57:40.41	253.76	59.27	-55.5	-57.4	19.3	0.00e+00	0	46	0	816840704	60	29189
2026-01-29 23:57:44.44	251.50	58.05	-54.0	-55.5	21.0	0.00e+00	0	46	0	824180736	60	23258
2026-01-29 23:57:48.45	249.46	56.82	-53.2	-54.5	22.1	0.00e+00	0	46	0	831520768	60	20866
2026-01-29 23:57:52.48	247.58	55.58	-54.0	-55.3	21.3	0.00e+00	0	46	0	839909376	60	22733
2026-01-29 23:57:56.51	245.87	54.33	-54.5	-55.9	20.7	0.00e+00	0	45	0	847249408	60	24473
2026-01-29 23:58:00.53	244.30	53.10	-53.5	-54.8	21.6	0.00e+00	0	46	0	854589440	60	21430
2026-01-29 23:58:04.55	242.86	51.88	-55.4	-57.3	19.3	0.00e+00	0	46	0	861929472	60	28591
2026-01-29 23:58:08.57	241.53	50.67	-54.3	-55.8	20.6	0.00e+00	0	46	0	869269504	60	24033
2026-01-29 23:58:12.60	240.30	49.47	-53.4	-54.7	21.5	0.00e+00	0	46	0	876609536	60	21276
2026-01-29 23:58:16.62	239.17	48.30	-54.2	-55.7	20.5	0.00e+00	0	46	0	884998144	60	23946
2026-01-29 23:58:20.64	238.12	47.14	-55.9	-57.9	18.4	0.00e+00	0	46	0	892338176	60	30851
2026-01-29 23:58:24.67	237.14	46.00	-54.2	-55.7	20.3	0.00e+00	0	46	0	899678208	60	23750
2026-01-29 23:58:28.70	236.24	44.89	-53.6	-54.9	21.1	0.00e+00	0	46	0	907018240	60	21886
2026-01-29 23:58:32.73	235.39	43.79	-55.3	-57.0	19.0	0.00e+00	0	46	0	914358272	60	27895
2026-01-29 23:58:36.76	234.60	42.73	-58.2	-61.9	14.3	0.00e+00	0	46	0	922746880	60	48642
2026-01-29 23:58:40.76	233.86	41.69	-56.8	-59.4	16.8	0.00e+00	0	46	0	930086912	60	36517
2026-01-29 23:58:44.79	233.17	40.67	-55.2	-57.0	19.0	0.00e+00	0	46	0	937426944	60	27653
2026-01-29 23:58:48.82	232.52	39.67	-55.9	-58.1	17.7	0.00e+00	0	46	0	944766976	60	31624
2026-01-29 23:58:52.85	231.91	38.70	-56.3	-58.6	17.4	0.00e+00	0	46	0	953155584	60	33528
2026-01-29 23:58:56.88	231.33	37.75	-57.5	-60.7	14.9	0.00e+00	0	46	0	960495616	60	42510
2026-01-29 23:59:00.91	230.79	36.82	-54.5	-56.1	19.4	0.00e+00	0	46	0	967835648	60	25055
2026-01-29 23:59:04.94	230.28	35.91	-53.8	-55.4	20.3	0.00e+00	0	46	0	975175680	60	22962
2026-01-29 23:59:08.97	229.79	35.03	-55.2	-57.2	18.4	0.00e+00	0	46	0	982515712	60	28339
2026-01-29 23:59:12.98	229.34	34.18	-55.0	-56.8	18.9	0.00e+00	0	46	0	989855744	60	27237
2026-01-29 23:59:17.00	228.90	33.34	-55.0	-57.0	18.0	0.00e+00	0	46	0	998244352	60	27653
2026-01-29 23:59:21.02	228.49	32.52	-55.2	-57.3	18.3	0.00e+00	0	46	0	1005584384	60	28834
2026-01-29 23:59:25.05	228.10	31.72	-55.7	-58.1	17.4	0.00e+00	0	46	0	1012924416	60	31434
2026-01-29 23:59:29.07	227.73	30.95	-54.9	-56.9	18.5	0.00e+00	0	46	0	1020264448	60	27400
2026-01-29 23:59:33.10	227.37	30.19	-56.7	-60.0	15.5	0.00e+00	0	46	0	1027604480	60	39081
2026-01-29 23:59:37.13	227.04	29.44	-55.9	-58.6	16.7	0.00e+00	0	46	0	1035993088	60	33286
2026-01-29 23:59:41.15	226.71	28.72	-55.6	-58.1	17.0	0.00e+00	0	46	0	1043333120	60	31318
2026-01-29 23:59:45.18	226.41	28.02	-56.2	-59.0	16.5	0.00e+00	0	46	0	1050673152	60	35090
2026-01-29 23:59:49.21	226.11	27.33	-55.1	-57.3	18.3	0.00e+00	0	46	0	1058013184	60	28668
2026-01-29 23:59:53.24	225.83	26.65	-54.8	-56.9	18.3	0.00e+00	0	46	0	1065353216	60	27489
2026-01-29 23:59:57.25	225.56	26.00	-54.8	-57.0	18.1	0.00e+00	0	46	0	1073741824	60	27715
2026-01-30 00:00:01.28	225.30	25.35	-55.6	-58.1	17.0	0.00e+00	0	46	0	1081081856	60	31661
2026-01-30 00:00:05.31	225.06	24.72	-54.7	-56.8	18.4	0.00e+00	0	46	0	1088421888	60	26996
2026-01-30 00:00:09.34	224.82	24.11	-54.0	-55.7	19.3	0.00e+00	0	46	0	1095761920	60	23996
2026-01-30 00:00:13.37	224.59	23.51	-54.7	-56.8	17.9	0.00e+00	0	46	0	1103101952	60	27181
2026-01-30 00:00:17.39	224.37	22.92	-55.1	-57.4	17.7	0.00e+00	0	46	0	1111490560	60	29079
2026-01-30 00:00:21.43	224.16	22.35	-54.7	-56.9	18.2	0.00e+00	0	46	0	1118830592	60	27370
2026-01-30 00:00:25.45	223.96	21.78	-53.9	-55.9	19.1	0.00e+00	0	46	0	1126170624	60	24447
2026-01-30 00:00:29.47	223.76	21.23	-54.2	-56.3	18.6	0.00e+00	0	46	0	1133510656	60	25701
2026-01-30 00:00:33.49	223.58	20.70	-54.6	-56.9	17.9	0.00e+00	0	46	0	1140850688	60	27556
2026-01-30 00:00:37.49	223.40	20.17	-54.4	-56.5	18.2	0.00e+00	0	46	0	1149239296	60	26317
2026-01-30 00:00:41.51	223.22	19.65	-53.8	-55.7	18.9	0.00e+00	0	46	0	1156579328	60	23895
2026-01-30 00:00:45.54	223.06	19.15	-53.6	-55.4	19.0	0.00e+00	0	46	0	1163919360	60	23083
2026-01-30 00:00:49.55	222.89	18.65	-53.5	-55.3	19.4	0.00e+00	0	46	0	1171259392	60	22704
2026-01-30 00:00:53.55	222.74	18.16	-53.6	-55.5	19.0	0.00e+00	0	46	0	1178599424	60	23302
2026-01-30 00:00:57.58	222.59	17.69	-53.6	-55.4	19.1	0.00e+00	0	46	0	1186988032	60	23139
2026-01-30 00:01:01.61	222.44	17.22	-53.2	-54.9	19.5	0.00e+00	0	46	0	1194328064	60	21782
2026-01-30 00:01:05.63	222.30	16.75	-53.3	-55.1	19.1	0.00e+00	0	46	0	1201668096	60	22404
2026-01-30 00:01:09.66	222.16	16.30	-53.5	-55.5	18.7	0.00e+00	0	46	0	1209008128	60	23369
2026-01-30 00:01:13.69	222.03	15.86	-54.0	-56.2	18.3	0.00e+00	0	46	0	1216348160	60	25171
2026-01-30 00:01:17.72	221.90	15.42	-53.9	-56.0	18.3	0.00e+00	0	46	0	1223688192	60	24738
2026-01-30 00:01:21.74	221.78	14.99	-53.8	-55.8	18.4	0.00e+00	0	46	0	1232076800	60	24247
2026-01-30 00:01:25.76	221.66	14.57	-54.0	-56.1	18.2	0.00e+00	0	46	0	1239416832	60	25029
2026-01-30 00:01:29.78	221.54	14.15	-53.9	-56.1	18.2	0.00e+00	0	46	0	1246756864	60	24870
2026-01-30 00:01:33.81	221.43	13.74	-54.3	-56.6	17.6	0.00e+00	0	46	0	1254096896	60	26629
2026-01-30 00:01:37.84	221.32	13.34	-54.6	-57.0	17.3	0.00e+00	0	46	0	1262485504	60	27792
2026-01-30 00:01:41.87	221.21	12.95	-54.4	-56.7	17.5	0.00e+00	0	46	0	1269825536	60	26854
2026-01-30 00:01:45.90	221.11	12.56	-54.2	-56.5	17.7	0.00e+00	0	46	0	1277165568	60	26107
2026-01-30 00:01:49.94	221.01	12.17	-53.7	-55.7	18.3	0.00e+00	0	46	0	1284505600	60	23971
2026-01-30 00:01:53.96	220.91	11.80	-53.7	-55.8	18.3	0.00e+00	0	46	0	1291845632	60	24167
2026-01-30 00:01:57.98	220.81	11.43	-53.6	-55.7	18.3	0.00e+00	0	46	0	1300234240	60	23888
2026-01-30 00:02:02.00	220.72	11.06	-53.6	-55.7	18.3	0.00e+00	0	46	0	1307574272	60	23905
2026-01-30 00:02:06.04	220.63	10.70	-53.8	-55.9	18.1	0.00e+00	0	46	0	1314914304	60	24369
2026-01-30 00:02:10.06	220.55	10.34	-54.1	-56.4	17.6	0.00e+00	0	46	0	1322254336	60	25958
2026-01-30 00:02:14.09	220.46	9.99	-54.6	-57.2	16.7	0.00e+00	0	46	0	1329594368	60	28542
2026-01-30 00:02:18.11	220.38	9.65	-54.7	-57.5	16.3	0.00e+00	0	46	0	1336934400	60	29543
2026-01-30 00:02:22.14	220.30	9.30	-55.2	-58.4	15.2	0.00e+00	0	46	0	1345323008	60	32436
2026-01-30 00:02:26.16	220.22	8.97	-55.0	-58.2	15.4	0.00e+00	0	46	0	1352663040	60	31829
2026-01-30 00:02:30.20	220.15	8.64	-55.2	-58.6	14.9	0.00e+00	0	46	0	1360003072	60	33410
2026-01-30 00:02:34.22	220.07	8.31	-53.9	-56.6	16.8	0.00e+00	0	46	0	1367343104	60	26400
2026-01-30 00:02:38.25	220.00	7.98	-54.2	-56.9	16.5	0.00e+00	0	46	0	1375731712	60	27559
2026-01-30 00:02:42.28	219.93	7.66	-54.2	-57.0	16.3	0.00e+00	0	46	0	1383071744	60	27717
2026-01-30 00:02:46.29	219.86	7.35	-54.2	-57.0	16.4	0.00e+00	0	46	0	1390411776	60	27641
2026-01-30 00:02:50.33	219.79	7.04	-54.2	-57.0	16.3	0.00e+00	0	46	0	1397751808	60	27633
2026-01-30 00:02:54.36	219.73	6.73	-54.4	-57.3	16.1	0.00e+00	0	46	0	1405091840	60	28678
2026-01-30 00:02:58.39	219.67	6.42	-54.4	-57.4	15.9	0.00e+00	0	46	0	1413480448	60	28969
2026-01-30 00:03:02.42	219.60	6.12	-54.5	-57.7	15.4	0.00e+00	0	46	0	1420820480	60	30066
2026-01-30 00:03:06.44	219.54	5.82	-58.2	-74.9	3.6	1.51e+00	0	46	104	1425014784	60	217338
2026-01-30 00:03:10.47	219.49	5.53	-59.3	-75.9	3.5	1.51e+00	0	46	104	1425014784	60	245175
2026-01-30 00:03:14.49	219.43	5.24	-60.5	-77.1	3.6	1.51e+00	0	46	104	1425014784	60	280381
2026-01-30 00:03:18.51	219.37	4.95	-61.4	-77.8	3.6	1.51e+00	0	46	104	1425014784	60	305084
2026-01-30 00:03:22.53	219.32	4.67	-62.0	-78.6	3.6	1.51e+00	0	46	104	1425014784	60	334457
2026-01-30 00:03:26.56	219.26	4.38	-62.2	-78.9	3.6	1.51e+00	0	46	104	1425014784	60	344964
2026-01-30 00:03:30.59	219.21	4.10	-60.7	-78.9	3.5	1.51e+00	0	46	104	1425014784	60	344310
2026-01-30 00:03:34.61	219.16	3.83	-59.1	-77.9	3.6	1.51e+00	0	46	104	1425014784	60	307020
2026-01-30 00:03:38.64	219.11	3.55	-60.5	-78.4	3.6	1.51e+00	0	46	104	1425014784	60	325614
2026-01-30 00:03:42.65	219.06	3.28	-60.6	-78.4	3.6	1.51e+00	0	46	104	1425014784	60	327728
2026-01-30 00:03:46.68	219.02	3.02	-60.6	-78.6	3.6	1.51e+00	0	46	104	1425014784	60	332972
2026-01-30 00:03:50.70	218.97	2.75	-60.6	-78.6	3.6	1.51e+00	0	46	104	1425014784	60	332552
2026-01-30 00:03:54.72	218.92	2.49	-60.7	-78.6	3.6	1.51e+00	0	46	104	1425014784	60	335041
2026-01-30 00:03:58.75	218.88	2.23	-60.7	-78.6	3.6	1.51e+00	0	46	104	1425014784	60	332930
2026-01-30 00:04:02.77	218.84	1.97	-60.6	-78.6	3.6	1.51e+00	0	46	104	1425014784	60	332546
2026-01-30 00:04:06.79	218.80	1.71	-60.7	-78.6	3.6	1.51e+00	0	46	104	1425014784	60	332303
2026-01-30 00:04:10.81	218.75	1.46	-60.8	-78.6	3.6	1.51e+00	0	46	104	1425014784	60	334921
2026-01-30 00:04:14.82	218.71	1.21	-60.8	-78.5	3.5	1.51e+00	0	46	104	1425014784	60	330080
2026-01-30 00:04:18.86	218.67	0.96	-60.9	-78.7	3.6	1.51e+00	0	46	104	1425014784	60	335782
2026-01-30 00:04:22.87	218.64	0.71	-61.0	-78.5	3.6	1.51e+00	0	46	104	1425014784	60	331218
2026-01-30 00:04:26.90	218.60	0.46	-61.0	-78.7	3.6	1.51e+00	0	46	104	1425014784	60	335731
2026-01-30 00:04:30.93	218.56	0.22	-61.1	-78.7	3.6	1.51e+00	0	46	104	1425014784	60	336645
2026-01-30 00:04:34.96	218.52	-0.02	-61.2	-78.7	3.6	1.51e+00	0	46	104	1425014784	60	336105

#Closed at: 2026-01-30 00:04:35
#Recorded file [1425 MB]: D:/Data/35015_260130_030304.dat