passes_logs/2026/01/29/R3.2S-Naryan-Mar/R3.2S-Naryan-Mar__20260129_202803_SUOMI_NPP_rec.log

#Pass ID: 20260129_202803_SUOMI NPP
#Satellite: SUOMI NPP
#Configuration: NPP
#almurnet v.1.7.20240730
#Start time: 2026-01-29 20:28:04

#Version: 2.2.20231116
#Station: R3.2S-Naryan-Mar
#Location: 53.008057 lon 67.646978 lat
#TLE: 1 37849U 11061A   26028.91916408  .00000155  00000+0  94467-4 0  9990
#TLE: 2 37849  98.7824 330.8488 0002045  39.4457 320.6868 14.19531289738686

#Time	Az	El	Level	Level2	SNR	BER	BlckErr	Temp	State	Recorded	gain1	gain2
2026-01-29 20:28:04.73	16.46	0.05	-58.4	-75.1	3.6	1.51e+00	0	43	0	0	60	216698
2026-01-29 20:28:08.74	16.77	0.24	-61.6	-79.1	3.6	1.51e+00	0	45	104	0	60	354238
2026-01-29 20:28:12.76	17.09	0.43	-61.6	-78.9	3.6	1.51e+00	0	45	104	0	60	345997
2026-01-29 20:28:16.78	17.42	0.62	-61.6	-78.9	3.6	1.51e+00	0	45	104	0	60	346647
2026-01-29 20:28:20.80	17.74	0.81	-60.5	-78.0	3.6	1.51e+00	0	45	104	0	60	312808
2026-01-29 20:28:24.83	18.07	1.00	-59.3	-77.8	3.6	1.51e+00	0	45	104	0	60	305145
2026-01-29 20:28:28.85	18.41	1.20	-54.5	-74.9	3.6	1.51e+00	0	45	104	0	60	216569
2026-01-29 20:28:32.87	18.75	1.39	-60.6	-77.4	3.6	1.51e+00	0	45	104	0	60	290773
2026-01-29 20:28:36.89	19.09	1.58	-58.4	-76.1	3.6	1.51e+00	0	45	104	0	60	250654
2026-01-29 20:28:40.91	19.44	1.78	-57.5	-76.6	3.6	1.51e+00	0	45	104	0	60	263701
2026-01-29 20:28:44.93	19.79	1.97	-57.6	-76.6	3.6	1.51e+00	0	45	104	0	60	264006
2026-01-29 20:28:48.96	20.15	2.17	-57.5	-76.6	3.6	1.51e+00	0	45	104	0	60	263812
2026-01-29 20:28:53.00	20.51	2.37	-57.6	-76.5	3.6	1.51e+00	0	45	104	0	60	262801
2026-01-29 20:28:57.02	20.88	2.56	-57.7	-76.4	3.6	1.51e+00	0	45	104	0	60	259502
2026-01-29 20:29:01.05	21.25	2.76	-57.8	-76.5	3.6	1.51e+00	0	45	104	0	60	262513
2026-01-29 20:29:05.08	21.63	2.96	-57.9	-76.6	3.6	1.51e+00	0	45	104	0	60	263948
2026-01-29 20:29:09.11	22.01	3.15	-57.9	-76.5	3.6	1.51e+00	0	46	104	0	60	262638
2026-01-29 20:29:13.12	22.39	3.35	-57.8	-76.5	3.6	1.51e+00	0	45	104	0	60	261764
2026-01-29 20:29:17.15	22.78	3.55	-57.8	-76.4	3.6	1.51e+00	0	46	104	0	60	259087
2026-01-29 20:29:21.18	23.18	3.75	-57.8	-76.3	3.6	1.51e+00	0	46	104	0	60	256637
2026-01-29 20:29:25.20	23.58	3.95	-57.9	-76.5	3.6	1.51e+00	0	46	104	0	60	262860
2026-01-29 20:29:29.20	23.98	4.15	-57.8	-76.4	3.6	1.51e+00	0	45	104	0	60	257501
2026-01-29 20:29:33.23	24.39	4.35	-57.8	-76.6	3.6	1.51e+00	0	46	104	0	60	264175
2026-01-29 20:29:37.26	24.81	4.55	-57.7	-76.4	3.5	1.51e+00	0	45	104	0	60	259249
2026-01-29 20:29:41.27	25.23	4.75	-57.6	-76.4	3.6	1.51e+00	0	46	104	0	60	258196
2026-01-29 20:29:45.31	25.66	4.95	-57.7	-76.3	3.6	1.51e+00	0	46	104	0	60	257064
2026-01-29 20:29:49.33	26.09	5.15	-57.6	-76.3	3.6	1.51e+00	0	46	104	0	60	254621
2026-01-29 20:29:53.36	26.53	5.35	-57.5	-76.4	3.6	1.51e+00	0	46	104	0	60	260242
2026-01-29 20:29:57.39	26.97	5.56	-57.6	-74.8	3.6	1.51e+00	0	46	104	0	60	214156
2026-01-29 20:30:01.41	27.42	5.76	-56.8	-64.4	10.5	3.86e-02	0	46	0	3145728	60	65164
2026-01-29 20:30:05.44	27.88	5.96	-54.7	-58.2	17.1	0.00e+00	0	46	0	10485760	60	31885
2026-01-29 20:30:09.47	28.34	6.16	-55.3	-58.3	16.6	0.00e+00	0	46	0	18874368	60	32401
2026-01-29 20:30:13.49	28.81	6.36	-54.6	-58.2	16.5	0.00e+00	0	46	0	26214400	60	31915
2026-01-29 20:30:17.51	29.28	6.56	-54.3	-58.7	15.5	0.00e+00	0	46	0	33554432	60	33903
2026-01-29 20:30:21.53	29.76	6.77	-52.7	-59.4	14.0	7.00e-07	0	46	0	40894464	60	36526
2026-01-29 20:30:25.56	30.25	6.97	-54.0	-58.8	15.0	0.00e+00	0	46	0	48234496	60	33952
2026-01-29 20:30:29.57	30.74	7.17	-55.0	-58.2	17.3	0.00e+00	0	46	0	56623104	60	31738
2026-01-29 20:30:33.59	31.24	7.37	-54.4	-58.5	16.4	0.00e+00	0	46	0	63963136	60	32977
2026-01-29 20:30:37.61	31.75	7.57	-54.8	-57.7	16.9	0.00e+00	0	46	0	71303168	60	30179
2026-01-29 20:30:41.63	32.26	7.77	-55.1	-58.0	17.7	0.00e+00	0	46	0	78643200	60	31292
2026-01-29 20:30:45.66	32.78	7.97	-53.9	-57.2	17.7	0.00e+00	0	46	0	85983232	60	28285
2026-01-29 20:30:49.67	33.31	8.17	-54.2	-57.2	17.2	0.00e+00	0	46	0	93323264	60	28222
2026-01-29 20:30:53.68	33.84	8.37	-54.1	-56.8	18.6	0.00e+00	0	46	0	101711872	60	27096
2026-01-29 20:30:57.70	34.38	8.57	-52.6	-56.5	17.2	0.00e+00	0	46	0	109051904	60	26208
2026-01-29 20:31:01.72	34.93	8.77	-53.8	-55.7	19.8	0.00e+00	0	46	0	116391936	60	23832
2026-01-29 20:31:05.73	35.49	8.97	-53.5	-56.0	18.8	0.00e+00	0	46	0	123731968	60	24791
2026-01-29 20:31:09.76	36.05	9.16	-54.3	-56.3	18.3	0.00e+00	0	46	0	131072000	60	25729
2026-01-29 20:31:13.79	36.62	9.36	-53.0	-55.9	18.3	0.00e+00	0	46	0	139460608	60	24531
2026-01-29 20:31:17.82	37.20	9.56	-54.4	-56.3	19.3	0.00e+00	0	46	0	146800640	60	25548
2026-01-29 20:31:21.85	37.79	9.75	-54.1	-56.5	18.8	0.00e+00	0	46	0	154140672	60	26059
2026-01-29 20:31:25.87	38.38	9.94	-54.3	-56.4	19.1	0.00e+00	0	46	0	161480704	60	25797
2026-01-29 20:31:29.91	38.98	10.14	-54.3	-56.2	19.1	0.00e+00	0	46	0	168820736	60	25210
2026-01-29 20:31:33.94	39.59	10.33	-53.7	-56.1	19.3	0.00e+00	0	46	0	177209344	60	24907
2026-01-29 20:31:37.97	40.21	10.52	-54.1	-55.8	19.5	0.00e+00	0	46	0	184549376	60	24079
2026-01-29 20:31:41.99	40.83	10.70	-54.1	-55.9	19.4	0.00e+00	0	46	0	191889408	60	24549
2026-01-29 20:31:46.02	41.46	10.89	-54.4	-56.4	18.9	0.00e+00	0	46	0	199229440	60	25889
2026-01-29 20:31:50.05	42.10	11.08	-53.7	-56.2	19.0	0.00e+00	0	46	0	206569472	60	25405
2026-01-29 20:31:54.08	42.75	11.26	-54.5	-56.3	19.4	0.00e+00	0	46	0	214958080	60	25458
2026-01-29 20:31:58.10	43.40	11.44	-54.6	-56.8	18.8	0.00e+00	0	46	0	222298112	60	26979
2026-01-29 20:32:02.13	44.07	11.62	-54.9	-56.8	18.9	0.00e+00	0	46	0	229638144	60	27174
2026-01-29 20:32:06.15	44.74	11.80	-54.5	-56.4	19.0	0.00e+00	0	46	0	236978176	60	25928
2026-01-29 20:32:10.18	45.42	11.97	-54.9	-56.9	18.7	0.00e+00	0	46	0	244318208	60	27358
2026-01-29 20:32:14.20	46.10	12.14	-55.1	-57.3	18.1	0.00e+00	0	46	0	252706816	60	28697
2026-01-29 20:32:18.21	46.79	12.31	-55.3	-57.3	18.4	0.00e+00	0	46	0	260046848	60	28779
2026-01-29 20:32:22.24	47.50	12.48	-55.4	-57.4	18.3	0.00e+00	0	46	0	267386880	60	29130
2026-01-29 20:32:26.28	48.21	12.64	-55.7	-58.0	17.6	0.00e+00	0	46	0	274726912	60	31264
2026-01-29 20:32:30.30	48.93	12.81	-55.8	-58.3	17.7	0.00e+00	0	46	0	282066944	60	32214
2026-01-29 20:32:34.33	49.65	12.96	-55.8	-58.6	16.9	0.00e+00	0	46	0	290455552	60	33290
2026-01-29 20:32:38.36	50.39	13.12	-56.3	-58.5	17.5	0.00e+00	0	46	0	297795584	60	33087
2026-01-29 20:32:42.39	51.13	13.27	-56.0	-58.3	17.8	0.00e+00	0	46	0	305135616	60	32155
2026-01-29 20:32:46.41	51.87	13.42	-55.9	-58.8	17.3	0.00e+00	0	46	0	312475648	60	34046
2026-01-29 20:32:50.43	52.63	13.57	-56.0	-58.6	17.6	0.00e+00	0	46	0	319815680	60	33296
2026-01-29 20:32:54.46	53.39	13.71	-55.7	-58.1	17.9	0.00e+00	0	46	0	328204288	60	31618
2026-01-29 20:32:58.49	54.16	13.84	-55.7	-57.9	17.9	0.00e+00	0	46	0	335544320	60	30834
2026-01-29 20:33:02.51	54.93	13.98	-54.2	-56.2	19.3	0.00e+00	0	45	0	342884352	60	25360
2026-01-29 20:33:06.54	55.72	14.11	-52.7	-55.9	18.5	0.00e+00	0	46	0	350224384	60	24303
2026-01-29 20:33:10.57	56.51	14.23	-53.0	-56.0	18.6	0.00e+00	0	46	0	357564416	60	24605
2026-01-29 20:33:14.60	57.30	14.35	-54.5	-56.1	19.9	0.00e+00	0	46	0	365953024	60	24891
2026-01-29 20:33:18.63	58.11	14.47	-54.3	-56.0	20.0	0.00e+00	0	46	0	373293056	60	24658
2026-01-29 20:33:22.66	58.92	14.58	-54.8	-56.9	19.5	0.00e+00	0	46	0	380633088	60	27355
2026-01-29 20:33:26.68	59.73	14.69	-52.9	-56.7	18.6	0.00e+00	0	46	0	387973120	60	26791
2026-01-29 20:33:30.71	60.55	14.79	-55.8	-57.9	19.3	0.00e+00	0	46	0	395313152	60	30762
2026-01-29 20:33:34.73	61.37	14.89	-55.6	-58.3	18.3	0.00e+00	0	46	0	403701760	60	32273
2026-01-29 20:33:38.75	62.20	14.98	-55.0	-59.3	16.7	0.00e+00	0	46	0	411041792	60	36243
2026-01-29 20:33:42.76	63.03	15.06	-57.5	-59.8	18.0	0.00e+00	0	46	0	418381824	60	38221
2026-01-29 20:33:46.78	63.87	15.14	-55.8	-57.4	20.1	0.00e+00	0	46	0	425721856	60	28884
2026-01-29 20:33:50.80	64.71	15.22	-54.3	-58.4	17.9	0.00e+00	0	46	0	433061888	60	32538
2026-01-29 20:33:54.82	65.56	15.29	-56.1	-58.1	19.7	0.00e+00	0	46	0	440401920	60	31377
2026-01-29 20:33:58.85	66.41	15.35	-56.9	-58.7	19.3	0.00e+00	0	46	0	448790528	60	33796
2026-01-29 20:34:02.88	67.27	15.41	-56.2	-57.7	20.1	0.00e+00	0	46	0	456130560	60	30130
2026-01-29 20:34:06.88	68.12	15.46	-56.5	-58.4	19.1	0.00e+00	0	46	0	463470592	60	32586
2026-01-29 20:34:10.90	68.98	15.51	-56.7	-58.4	19.4	0.00e+00	0	46	0	470810624	60	32723
2026-01-29 20:34:14.93	69.84	15.55	-56.9	-58.7	19.3	0.00e+00	0	46	0	478150656	60	33785
2026-01-29 20:34:18.96	70.71	15.58	-57.1	-59.1	18.7	0.00e+00	0	46	0	486539264	60	35267
2026-01-29 20:34:22.99	71.58	15.61	-56.9	-59.0	19.0	0.00e+00	0	46	0	493879296	60	34797
2026-01-29 20:34:27.01	72.44	15.64	-56.2	-58.5	19.0	0.00e+00	0	46	0	501219328	60	33037
2026-01-29 20:34:31.04	73.32	15.65	-57.4	-59.5	18.5	0.00e+00	0	46	0	508559360	60	37004
2026-01-29 20:34:35.07	74.19	15.66	-55.8	-57.9	19.3	0.00e+00	0	46	0	516947968	60	30766
2026-01-29 20:34:39.09	75.06	15.67	-56.0	-58.0	19.3	0.00e+00	0	46	0	524288000	60	31104
2026-01-29 20:34:43.11	75.93	15.66	-55.9	-57.9	19.6	0.00e+00	0	46	0	531628032	60	30643
2026-01-29 20:34:47.14	76.80	15.65	-56.0	-57.7	19.9	0.00e+00	0	46	0	538968064	60	30149
2026-01-29 20:34:51.17	77.67	15.64	-57.0	-59.0	19.6	0.00e+00	0	46	0	546308096	60	34962
2026-01-29 20:34:55.20	78.54	15.62	-56.4	-58.1	20.3	0.00e+00	0	46	0	553648128	60	31331
2026-01-29 20:34:59.23	79.41	15.59	-57.0	-58.8	19.4	0.00e+00	0	46	0	562036736	60	34120
2026-01-29 20:35:03.26	80.28	15.56	-56.9	-58.8	19.5	0.00e+00	0	46	0	569376768	60	33965
2026-01-29 20:35:07.28	81.14	15.52	-56.2	-58.0	19.6	0.00e+00	0	46	0	576716800	60	31142
2026-01-29 20:35:11.31	82.00	15.47	-56.0	-58.4	19.1	0.00e+00	0	46	0	584056832	60	32488
2026-01-29 20:35:15.34	82.86	15.42	-56.0	-58.3	19.4	0.00e+00	0	46	0	591396864	60	32155
2026-01-29 20:35:19.36	83.72	15.36	-56.3	-58.1	20.0	0.00e+00	0	46	0	599785472	60	31322
2026-01-29 20:35:23.39	84.57	15.30	-55.8	-57.4	20.1	0.00e+00	0	46	0	607125504	60	29061
2026-01-29 20:35:27.42	85.42	15.23	-54.9	-56.5	21.0	0.00e+00	0	46	0	614465536	60	26129
2026-01-29 20:35:31.45	86.27	15.16	-55.1	-56.7	21.0	0.00e+00	0	46	0	621805568	60	26675
2026-01-29 20:35:35.48	87.11	15.08	-55.1	-56.9	20.3	0.00e+00	0	46	0	630194176	60	27339
2026-01-29 20:35:39.50	87.95	14.99	-55.3	-57.3	19.9	0.00e+00	0	46	0	637534208	60	28852
2026-01-29 20:35:43.53	88.78	14.90	-55.0	-56.9	19.8	0.00e+00	0	46	0	644874240	60	27465
2026-01-29 20:35:47.55	89.61	14.81	-55.1	-56.9	20.0	0.00e+00	0	46	0	652214272	60	27321
2026-01-29 20:35:51.56	90.43	14.71	-54.7	-56.3	20.7	0.00e+00	0	46	0	659554304	60	25488
2026-01-29 20:35:55.58	91.24	14.60	-54.3	-55.7	21.5	0.00e+00	0	46	0	666894336	60	23851
2026-01-29 20:35:59.61	92.06	14.49	-54.5	-56.0	21.0	0.00e+00	0	46	0	675282944	60	24760
2026-01-29 20:36:03.64	92.86	14.37	-54.4	-56.0	20.8	0.00e+00	0	46	0	682622976	60	24823
2026-01-29 20:36:07.68	93.66	14.25	-54.6	-56.4	20.4	0.00e+00	0	46	0	689963008	60	25758
2026-01-29 20:36:11.69	94.45	14.13	-54.8	-56.4	20.8	0.00e+00	0	46	0	697303040	60	25931
2026-01-29 20:36:15.72	95.24	14.00	-54.5	-56.4	20.5	0.00e+00	0	46	0	704643072	60	25900
2026-01-29 20:36:19.75	96.02	13.87	-54.3	-56.5	19.9	0.00e+00	0	46	0	713031680	60	26046
2026-01-29 20:36:23.78	96.79	13.73	-55.2	-57.2	20.0	0.00e+00	0	46	0	720371712	60	28392
2026-01-29 20:36:27.81	97.56	13.59	-55.2	-56.9	20.3	0.00e+00	0	46	0	727711744	60	27270
2026-01-29 20:36:31.84	98.32	13.44	-55.7	-57.5	19.5	0.00e+00	0	46	0	735051776	60	29520
2026-01-29 20:36:35.87	99.07	13.29	-56.2	-58.0	19.1	0.00e+00	0	46	0	743440384	60	31273
2026-01-29 20:36:39.90	99.81	13.14	-55.8	-57.8	19.2	0.00e+00	0	46	0	750780416	60	30539
2026-01-29 20:36:43.93	100.55	12.98	-56.2	-58.5	18.5	0.00e+00	0	46	0	758120448	60	32836
2026-01-29 20:36:47.96	101.28	12.83	-56.4	-59.2	17.7	0.00e+00	0	46	0	765460480	60	35840
2026-01-29 20:36:51.98	102.00	12.66	-56.1	-58.5	18.2	0.00e+00	0	46	0	772800512	60	33110
2026-01-29 20:36:56.01	102.71	12.50	-56.3	-59.3	17.0	0.00e+00	0	46	0	780140544	60	35968
2026-01-29 20:37:00.03	103.42	12.33	-57.4	-60.2	17.0	0.00e+00	0	46	0	788529152	60	39909
2026-01-29 20:37:04.06	104.12	12.16	-57.9	-61.1	15.9	0.00e+00	0	46	0	795869184	60	44242
2026-01-29 20:37:08.09	104.81	11.99	-56.4	-59.5	17.3	0.00e+00	0	46	0	803209216	60	37128
2026-01-29 20:37:12.11	105.49	11.81	-55.6	-58.0	18.9	0.00e+00	0	46	0	810549248	60	31265
2026-01-29 20:37:16.13	106.16	11.64	-55.0	-58.3	17.1	0.00e+00	0	46	0	817889280	60	32329
2026-01-29 20:37:20.15	106.83	11.46	-55.1	-58.1	18.4	0.00e+00	0	46	0	826277888	60	31619
2026-01-29 20:37:24.19	107.49	11.27	-54.9	-58.5	17.8	0.00e+00	0	46	0	833617920	60	33123
2026-01-29 20:37:28.22	108.14	11.09	-54.5	-58.7	16.5	0.00e+00	0	46	0	840957952	60	33738
2026-01-29 20:37:32.23	108.78	10.90	-55.0	-58.8	17.2	0.00e+00	0	46	0	848297984	60	34016
2026-01-29 20:37:36.25	109.42	10.72	-54.6	-57.9	16.4	0.00e+00	0	46	0	856686592	60	30872
2026-01-29 20:37:40.27	110.04	10.53	-53.2	-57.6	17.8	0.00e+00	0	46	0	864026624	60	29758
2026-01-29 20:37:44.30	110.66	10.34	-51.3	-57.2	15.6	0.00e+00	0	46	0	871366656	60	28457
2026-01-29 20:37:48.32	111.27	10.15	-52.4	-57.3	16.8	0.00e+00	0	46	0	878706688	60	28755
2026-01-29 20:37:52.33	111.88	9.95	-53.8	-57.2	18.4	0.00e+00	0	46	0	886046720	60	28438
2026-01-29 20:37:56.36	112.47	9.76	-53.5	-57.1	17.9	0.00e+00	0	46	0	893386752	60	27971
2026-01-29 20:38:00.39	113.06	9.56	-54.2	-57.5	18.2	0.00e+00	0	46	0	901775360	60	29266
2026-01-29 20:38:04.41	113.64	9.37	-54.5	-57.0	18.7	0.00e+00	0	46	0	909115392	60	27812
2026-01-29 20:38:08.43	114.22	9.17	-54.1	-56.3	19.4	0.00e+00	0	46	0	916455424	60	25699
2026-01-29 20:38:12.45	114.78	8.97	-54.5	-57.0	19.1	0.00e+00	0	46	0	923795456	60	27834
2026-01-29 20:38:16.48	115.34	8.77	-54.2	-57.4	18.0	0.00e+00	0	46	0	931135488	60	29193
2026-01-29 20:38:20.50	115.89	8.57	-54.2	-57.5	18.2	0.00e+00	0	46	0	939524096	60	29282
2026-01-29 20:38:24.53	116.44	8.37	-54.3	-57.4	18.5	0.00e+00	0	46	0	946864128	60	29121
2026-01-29 20:38:28.56	116.97	8.17	-54.2	-57.1	18.6	0.00e+00	0	46	0	954204160	60	28151
2026-01-29 20:38:32.59	117.50	7.97	-54.0	-56.7	18.4	0.00e+00	0	46	0	961544192	60	26657
2026-01-29 20:38:36.62	118.03	7.76	-54.8	-57.2	18.0	0.00e+00	0	46	0	968884224	60	28368
2026-01-29 20:38:40.64	118.54	7.56	-54.7	-58.0	17.4	0.00e+00	0	46	0	977272832	60	30980
2026-01-29 20:38:44.67	119.05	7.36	-54.9	-57.7	17.7	0.00e+00	0	46	0	984612864	60	29906
2026-01-29 20:38:48.70	119.56	7.16	-55.2	-57.6	17.7	0.00e+00	0	46	0	991952896	60	29790
2026-01-29 20:38:52.72	120.05	6.95	-55.7	-58.5	17.2	0.00e+00	0	46	0	999292928	60	33130
2026-01-29 20:38:56.74	120.54	6.75	-55.6	-58.5	16.9	0.00e+00	0	46	0	1006632960	60	33087
2026-01-29 20:39:00.77	121.02	6.55	-56.1	-58.8	16.8	0.00e+00	0	46	0	1015021568	60	33960
2026-01-29 20:39:04.80	121.50	6.34	-56.0	-59.1	16.7	0.00e+00	0	46	0	1022361600	60	35483
2026-01-29 20:39:08.84	121.97	6.14	-56.0	-59.6	15.8	0.00e+00	0	46	0	1029701632	60	37570
2026-01-29 20:39:12.86	122.43	5.93	-59.9	-77.2	3.6	1.51e+00	0	46	104	1035993088	60	284066
2026-01-29 20:39:16.88	122.89	5.73	-61.2	-78.2	3.6	1.51e+00	0	46	104	1035993088	60	319100
2026-01-29 20:39:20.91	123.34	5.53	-62.1	-78.6	3.6	1.51e+00	0	46	104	1035993088	60	333395
2026-01-29 20:39:24.94	123.79	5.32	-62.8	-79.1	3.6	1.51e+00	0	46	104	1035993088	60	352428
2026-01-29 20:39:28.96	124.23	5.12	-63.2	-79.6	3.6	1.51e+00	0	46	104	1035993088	60	375227
2026-01-29 20:39:32.97	124.66	4.92	-63.2	-79.6	3.6	1.51e+00	0	46	104	1035993088	60	374748
2026-01-29 20:39:37.00	125.09	4.72	-63.2	-79.7	3.6	1.51e+00	0	46	104	1035993088	60	379581
2026-01-29 20:39:41.03	125.51	4.51	-61.2	-79.8	3.6	1.51e+00	0	46	104	1035993088	60	380864
2026-01-29 20:39:45.06	125.93	4.31	-58.9	-78.6	3.6	1.51e+00	0	46	104	1035993088	60	335078
2026-01-29 20:39:49.08	126.34	4.11	-60.8	-79.4	3.6	1.51e+00	0	46	104	1035993088	60	366629
2026-01-29 20:39:53.11	126.75	3.91	-60.6	-79.5	3.6	1.51e+00	0	46	104	1035993088	60	370967
2026-01-29 20:39:57.14	127.15	3.71	-60.6	-79.0	3.6	1.51e+00	0	46	104	1035993088	60	349308
2026-01-29 20:40:01.16	127.54	3.51	-60.5	-79.2	3.5	1.51e+00	0	46	104	1035993088	60	357554
2026-01-29 20:40:05.19	127.93	3.31	-60.6	-79.2	3.6	1.51e+00	0	46	104	1035993088	60	356348
2026-01-29 20:40:09.23	128.32	3.10	-60.5	-79.2	3.6	1.51e+00	0	46	104	1035993088	60	355883
2026-01-29 20:40:13.25	128.70	2.91	-60.5	-79.1	3.6	1.51e+00	0	46	104	1035993088	60	353512
2026-01-29 20:40:17.28	129.08	2.71	-60.4	-79.0	3.6	1.51e+00	0	46	104	1035993088	60	350803
2026-01-29 20:40:21.31	129.45	2.51	-60.4	-78.9	3.6	1.51e+00	0	46	104	1035993088	60	346557
2026-01-29 20:40:25.34	129.81	2.31	-60.4	-79.1	3.6	1.51e+00	0	46	104	1035993088	60	352201
2026-01-29 20:40:29.37	130.18	2.11	-60.5	-79.0	3.6	1.51e+00	0	46	104	1035993088	60	349150
2026-01-29 20:40:33.40	130.53	1.91	-60.5	-79.0	3.6	1.51e+00	0	46	104	1035993088	60	347657
2026-01-29 20:40:37.42	130.88	1.72	-60.4	-79.0	3.6	1.51e+00	0	46	104	1035993088	60	348244
2026-01-29 20:40:41.45	131.23	1.52	-60.3	-79.0	3.6	1.51e+00	0	46	104	1035993088	60	349345
2026-01-29 20:40:45.48	131.58	1.32	-60.2	-78.7	3.6	1.51e+00	0	46	104	1035993088	60	338572
2026-01-29 20:40:49.51	131.92	1.13	-60.3	-78.9	3.6	1.51e+00	0	46	104	1035993088	60	345697
2026-01-29 20:40:53.52	132.25	0.93	-60.2	-78.9	3.6	1.51e+00	0	46	104	1035993088	60	346344
2026-01-29 20:40:57.55	132.58	0.74	-60.3	-78.7	3.6	1.51e+00	0	46	104	1035993088	60	337610
2026-01-29 20:41:01.58	132.91	0.55	-60.4	-78.9	3.6	1.51e+00	0	46	104	1035993088	60	346620
2026-01-29 20:41:05.60	133.23	0.35	-60.3	-79.0	3.6	1.51e+00	0	46	104	1035993088	60	347991
2026-01-29 20:41:09.61	133.55	0.16	-60.2	-78.7	3.6	1.51e+00	0	46	104	1035993088	60	338851
2026-01-29 20:41:13.64	133.86	-0.03	-60.3	-78.9	3.6	1.51e+00	0	46	104	1035993088	60	344180

#Closed at: 2026-01-29 20:41:15
#Recorded file [1035 MB]: D:/Data/35015_260129_233912.dat