passes_logs/2026/01/29/R3.2S-Naryan-Mar/R3.2S-Naryan-Mar__20260129_142447_FENGYUN_3E_rec.log

#Pass ID: 20260129_142447_FENGYUN 3E
#Satellite: FENGYUN 3E
#Configuration: FENGYUN 3E
#almurnet v.1.7.20240730
#Start time: 2026-01-29 14:24:48

#Version: 2.2.20231116
#Station: R3.2S-Naryan-Mar
#Location: 53.008057 lon 67.646978 lat
#TLE: 1 49008U 21062A   26028.95833242 -.00000015  00000+0  13843-4 0  9995
#TLE: 2 49008  98.7500  33.9242 0002547 112.2873 247.8573 14.19887818236829

#Time	Az	El	Level	Level2	SNR	BER	BlckErr	Temp	State	Recorded	gain1	gain2
2026-01-29 14:24:48.17	198.22	0.05	-57.0	-73.5	3.5	8.45e-01	0	44	0	0	60	185086
2026-01-29 14:24:52.19	198.43	0.27	-59.5	-74.3	3.5	8.45e-01	0	45	104	0	60	202123
2026-01-29 14:24:56.22	198.64	0.50	-61.2	-74.7	3.6	8.45e-01	0	45	104	0	60	212446
2026-01-29 14:25:00.25	198.86	0.72	-61.2	-74.6	3.6	8.45e-01	0	45	104	0	60	209521
2026-01-29 14:25:04.28	199.07	0.95	-59.5	-73.2	3.6	8.45e-01	0	45	104	0	60	178197
2026-01-29 14:25:08.30	199.29	1.18	-57.2	-71.7	3.6	8.45e-01	0	45	104	0	60	151113
2026-01-29 14:25:12.33	199.52	1.41	-56.9	-71.3	3.6	8.44e-01	0	45	104	0	60	143515
2026-01-29 14:25:16.36	199.74	1.64	-56.9	-71.2	3.6	8.46e-01	0	46	104	0	60	142797
2026-01-29 14:25:20.39	199.97	1.87	-56.8	-71.0	3.6	8.44e-01	0	45	104	0	60	138922
2026-01-29 14:25:24.43	200.21	2.11	-56.7	-70.9	3.6	8.45e-01	0	46	104	0	60	137798
2026-01-29 14:25:28.45	200.45	2.34	-56.7	-70.9	3.6	8.46e-01	0	46	104	0	60	137398
2026-01-29 14:25:32.47	200.69	2.58	-56.6	-70.9	3.6	8.45e-01	0	46	104	0	60	138156
2026-01-29 14:25:36.47	200.93	2.82	-56.5	-70.9	3.6	8.45e-01	0	46	104	0	60	137710
2026-01-29 14:25:40.48	201.18	3.06	-56.5	-70.8	3.6	8.44e-01	0	46	104	0	60	136090
2026-01-29 14:25:44.50	201.43	3.30	-56.5	-70.8	3.6	8.45e-01	0	46	104	0	60	136604
2026-01-29 14:25:48.51	201.68	3.55	-56.5	-70.8	3.6	8.47e-01	0	46	104	0	60	135399
2026-01-29 14:25:52.52	201.94	3.79	-56.5	-70.7	3.6	8.45e-01	0	46	104	0	60	134984
2026-01-29 14:25:56.52	202.20	4.04	-56.5	-70.5	3.6	8.44e-01	0	46	104	0	60	131469
2026-01-29 14:26:00.56	202.47	4.29	-56.5	-70.7	3.6	8.46e-01	0	46	104	0	60	134428
2026-01-29 14:26:04.58	202.74	4.54	-56.5	-70.6	3.5	8.45e-01	0	46	104	0	60	132163
2026-01-29 14:26:08.60	203.02	4.79	-56.4	-70.5	3.6	8.44e-01	0	46	104	0	60	131885
2026-01-29 14:26:12.62	203.30	5.05	-56.3	-69.5	3.6	8.45e-01	0	46	104	0	60	117000
2026-01-29 14:26:16.64	203.59	5.30	-56.1	-66.7	4.3	8.37e-01	0	46	104	0	60	84398
2026-01-29 14:26:20.68	203.88	5.56	-53.5	-57.1	12.3	4.02e-04	0	46	0	22020096	60	27996
2026-01-29 14:26:24.70	204.18	5.82	-50.9	-53.2	15.8	0.00e+00	0	46	0	51380224	60	17897
2026-01-29 14:26:28.73	204.48	6.09	-52.8	-56.0	12.6	0.00e+00	0	46	0	80740352	60	24855
2026-01-29 14:26:32.76	204.78	6.35	-49.9	-51.7	16.1	5.86e-03	0	46	0	7340032	60	15097
2026-01-29 14:26:36.79	205.10	6.62	-49.7	-51.5	17.0	0.00e+00	0	46	0	36700160	60	14741
2026-01-29 14:26:40.82	205.41	6.89	-49.1	-50.7	17.5	0.00e+00	0	46	0	65011712	60	13488
2026-01-29 14:26:44.84	205.74	7.16	-48.5	-50.1	17.9	0.00e+00	0	46	0	94371840	60	12464
2026-01-29 14:26:48.87	206.06	7.44	-48.2	-49.7	18.4	0.00e+00	0	46	0	122683392	60	11947
2026-01-29 14:26:52.90	206.40	7.71	-48.3	-49.9	18.4	0.00e+00	0	46	0	153092096	60	12197
2026-01-29 14:26:56.93	206.74	7.99	-48.1	-49.6	18.5	0.00e+00	0	46	0	181403648	60	11779
2026-01-29 14:27:00.96	207.09	8.27	-48.3	-49.8	18.3	0.00e+00	0	46	0	210763776	60	12078
2026-01-29 14:27:04.99	207.44	8.55	-48.1	-49.5	18.4	0.00e+00	0	46	0	240123904	60	11727
2026-01-29 14:27:09.02	207.80	8.84	-47.7	-49.2	18.5	0.00e+00	0	46	0	268435456	60	11255
2026-01-29 14:27:13.05	208.17	9.13	-47.6	-49.0	18.5	0.00e+00	0	46	0	297795584	60	11030
2026-01-29 14:27:17.07	208.54	9.42	-47.4	-48.8	18.7	0.00e+00	0	46	0	327155712	60	10760
2026-01-29 14:27:21.09	208.92	9.71	-48.0	-48.8	21.4	0.00e+00	0	46	0	356515840	60	10831
2026-01-29 14:27:25.12	209.31	10.00	-47.9	-48.8	21.6	0.00e+00	0	46	0	384827392	60	10764
2026-01-29 14:27:29.15	209.71	10.30	-48.1	-48.9	21.6	0.00e+00	0	46	0	414187520	60	10913
2026-01-29 14:27:33.18	210.11	10.60	-48.2	-49.1	21.5	0.00e+00	0	46	0	442499072	60	11178
2026-01-29 14:27:37.20	210.53	10.90	-48.1	-49.0	21.7	0.00e+00	0	46	0	472907776	60	10997
2026-01-29 14:27:41.24	210.95	11.20	-48.1	-48.9	21.8	0.00e+00	0	46	0	501219328	60	10901
2026-01-29 14:27:45.26	211.37	11.51	-47.9	-48.7	21.9	0.00e+00	0	46	0	530579456	60	10653
2026-01-29 14:27:49.28	211.81	11.82	-47.9	-48.7	21.9	0.00e+00	0	46	0	558891008	60	10655
2026-01-29 14:27:53.30	212.26	12.13	-47.8	-48.6	22.1	0.00e+00	0	46	0	588251136	60	10601
2026-01-29 14:27:57.32	212.71	12.44	-47.9	-48.6	22.2	0.00e+00	0	46	0	617611264	60	10577
2026-01-29 14:28:01.34	213.18	12.76	-48.1	-48.9	22.1	0.00e+00	0	46	0	646971392	60	10903
2026-01-29 14:28:05.36	213.65	13.08	-48.1	-48.9	22.2	0.00e+00	0	46	0	675282944	60	10867
2026-01-29 14:28:09.38	214.13	13.40	-48.1	-48.9	22.2	0.00e+00	0	46	0	704643072	60	10908
2026-01-29 14:28:13.41	214.63	13.72	-47.9	-48.7	22.5	0.00e+00	0	46	0	734003200	60	10638
2026-01-29 14:28:17.43	215.13	14.05	-47.8	-48.6	22.5	0.00e+00	0	46	0	762314752	60	10554
2026-01-29 14:28:21.46	215.65	14.37	-47.8	-48.6	22.6	0.00e+00	0	46	0	791674880	60	10536
2026-01-29 14:28:25.48	216.18	14.70	-47.5	-48.2	22.9	0.00e+00	0	46	0	819986432	60	10122
2026-01-29 14:28:29.51	216.72	15.04	-47.5	-48.2	23.0	0.00e+00	0	46	0	850395136	60	10064
2026-01-29 14:28:33.55	217.27	15.37	-47.6	-48.3	23.0	0.00e+00	0	46	0	878706688	60	10182
2026-01-29 14:28:37.57	217.83	15.71	-47.8	-48.5	23.1	0.00e+00	0	46	0	908066816	60	10427
2026-01-29 14:28:41.60	218.41	16.05	-47.6	-48.3	23.2	0.00e+00	0	46	0	937426944	60	10212
2026-01-29 14:28:45.64	219.00	16.39	-47.6	-48.3	23.3	0.00e+00	0	46	0	966787072	60	10217
2026-01-29 14:28:49.67	219.60	16.74	-47.4	-48.1	23.5	0.00e+00	0	46	0	995098624	60	9914
2026-01-29 14:28:53.69	220.21	17.08	-47.2	-47.9	23.7	0.00e+00	0	46	0	1024458752	60	9721
2026-01-29 14:28:57.71	220.84	17.43	-47.7	-48.4	23.2	0.00e+00	0	46	0	1053818880	60	10267
2026-01-29 14:29:01.73	221.48	17.77	-48.6	-49.3	22.3	0.00e+00	0	46	0	1082130432	60	11480
2026-01-29 14:29:05.76	222.14	18.12	-48.2	-49.0	22.7	0.00e+00	0	46	0	1111490560	60	11030
2026-01-29 14:29:09.78	222.81	18.47	-48.1	-48.8	22.8	0.00e+00	0	46	0	1139802112	60	10828
2026-01-29 14:29:13.80	223.50	18.83	-48.6	-49.4	22.6	0.00e+00	0	46	0	1170210816	60	11524
2026-01-29 14:29:17.83	224.20	19.18	-48.1	-48.8	22.8	0.00e+00	0	46	0	1198522368	60	10823
2026-01-29 14:29:21.86	224.92	19.53	-47.2	-47.9	23.5	0.00e+00	0	46	0	1227882496	60	9733
2026-01-29 14:29:25.88	225.65	19.89	-47.1	-47.8	23.8	0.00e+00	0	46	0	1256194048	60	9602
2026-01-29 14:29:29.89	226.40	20.24	-46.8	-47.5	24.2	0.00e+00	0	46	0	1285554176	60	9250
2026-01-29 14:29:33.92	227.17	20.60	-46.5	-47.2	24.3	0.00e+00	0	46	0	1314914304	60	8945
2026-01-29 14:29:37.94	227.96	20.95	-46.4	-47.1	24.5	0.00e+00	0	46	0	1344274432	60	8840
2026-01-29 14:29:41.97	228.76	21.30	-46.6	-47.3	24.2	0.00e+00	0	46	0	1372585984	60	9046
2026-01-29 14:29:46.00	229.58	21.66	-46.7	-47.3	24.1	0.00e+00	0	46	0	1401946112	60	9111
2026-01-29 14:29:50.03	230.43	22.01	-46.2	-46.8	24.4	0.00e+00	0	46	0	1431306240	60	8618
2026-01-29 14:29:54.06	231.29	22.36	-45.9	-46.6	24.7	0.00e+00	0	46	0	1459617792	60	8352
2026-01-29 14:29:58.09	232.17	22.71	-45.8	-46.4	24.7	0.00e+00	0	46	0	1490026496	60	8213
2026-01-29 14:30:02.11	233.06	23.06	-45.7	-46.3	25.0	0.00e+00	0	46	0	1518338048	60	8092
2026-01-29 14:30:06.13	233.98	23.40	-45.7	-46.3	24.8	0.00e+00	0	46	0	1547698176	60	8123
2026-01-29 14:30:10.16	234.92	23.74	-45.8	-46.4	24.8	0.00e+00	0	46	0	1576009728	60	8202
2026-01-29 14:30:14.19	235.87	24.08	-45.5	-46.1	25.1	0.00e+00	0	46	0	1605369856	60	7875
2026-01-29 14:30:18.21	236.85	24.42	-45.4	-46.0	25.1	0.00e+00	0	46	0	1634729984	60	7828
2026-01-29 14:30:22.24	237.85	24.74	-45.4	-45.9	25.2	0.00e+00	0	46	0	1664090112	60	7772
2026-01-29 14:30:26.26	238.87	25.07	-45.2	-45.8	25.1	0.00e+00	0	46	0	1692401664	60	7651
2026-01-29 14:30:30.28	239.90	25.39	-45.2	-45.8	25.1	0.00e+00	0	46	0	1721761792	60	7658
2026-01-29 14:30:34.30	240.96	25.70	-45.3	-45.9	25.1	0.00e+00	0	46	0	1751121920	60	7756
2026-01-29 14:30:38.32	242.04	26.00	-45.1	-45.7	25.2	0.00e+00	0	46	0	1779433472	60	7515
2026-01-29 14:30:42.35	243.14	26.30	-44.9	-45.5	25.3	0.00e+00	0	46	0	1808793600	60	7386
2026-01-29 14:30:46.38	244.26	26.59	-44.7	-45.3	25.4	0.00e+00	0	46	0	1837105152	60	7208
2026-01-29 14:30:50.40	245.40	26.87	-44.7	-45.2	25.4	0.00e+00	0	46	0	1867513856	60	7161
2026-01-29 14:30:54.42	246.55	27.14	-44.8	-45.4	25.4	0.00e+00	0	46	0	1895825408	60	7282
2026-01-29 14:30:58.44	247.73	27.41	-44.8	-45.4	25.5	0.00e+00	0	46	0	1925185536	60	7316
2026-01-29 14:31:02.47	248.93	27.66	-45.1	-45.7	25.3	0.00e+00	0	46	0	1953497088	60	7513
2026-01-29 14:31:06.48	250.14	27.90	-45.2	-45.7	25.2	0.00e+00	0	46	0	1983905792	60	7593
2026-01-29 14:31:10.51	251.37	28.13	-45.1	-45.7	25.2	0.00e+00	0	46	0	2012217344	60	7559
2026-01-29 14:31:14.54	252.62	28.34	-44.9	-45.5	25.4	0.00e+00	0	46	0	2041577472	60	7393
2026-01-29 14:31:18.57	253.89	28.55	-45.0	-45.6	25.3	0.00e+00	0	46	0	2069889024	60	7474
2026-01-29 14:31:22.60	255.17	28.74	-45.2	-45.8	25.2	0.00e+00	0	46	0	2099249152	60	7646
2026-01-29 14:31:26.62	256.46	28.91	-45.3	-45.9	25.0	0.00e+00	0	46	0	2128609280	60	7727
2026-01-29 14:31:30.65	257.77	29.07	-44.8	-45.4	25.5	0.00e+00	0	46	0	2156920832	60	7267
2026-01-29 14:31:34.67	259.09	29.22	-45.0	-45.6	25.4	0.00e+00	0	46	0	2186280960	60	7505
2026-01-29 14:31:38.70	260.42	29.35	-45.0	-45.6	25.4	0.00e+00	0	46	0	2215641088	60	7466
2026-01-29 14:31:42.73	261.76	29.46	-45.3	-45.9	25.1	0.00e+00	0	46	0	2245001216	60	7691
2026-01-29 14:31:46.74	263.11	29.56	-45.2	-45.8	25.2	0.00e+00	0	46	0	2273312768	60	7662
2026-01-29 14:31:50.78	264.47	29.64	-45.1	-45.6	25.5	0.00e+00	0	47	0	2302672896	60	7490
2026-01-29 14:31:54.80	265.83	29.70	-45.1	-45.7	25.4	0.00e+00	0	46	0	2332033024	60	7518
2026-01-29 14:31:58.82	267.20	29.75	-45.2	-45.8	25.2	0.00e+00	0	46	0	2361393152	60	7613
2026-01-29 14:32:02.85	268.57	29.78	-45.4	-46.0	25.1	0.00e+00	0	46	0	2389704704	60	7787
2026-01-29 14:32:06.87	269.94	29.79	-45.5	-46.1	25.0	0.00e+00	0	46	0	2419064832	60	7910
2026-01-29 14:32:10.89	271.31	29.78	-45.2	-45.9	25.1	0.00e+00	0	46	0	2448424960	60	7688
2026-01-29 14:32:14.91	272.67	29.76	-45.2	-45.8	25.3	0.00e+00	0	46	0	2476736512	60	7655
2026-01-29 14:32:18.93	274.04	29.71	-45.3	-45.9	25.2	0.00e+00	0	46	0	2506096640	60	7728
2026-01-29 14:32:22.96	275.40	29.65	-45.2	-45.9	25.2	0.00e+00	0	47	0	2534408192	60	7703
2026-01-29 14:32:26.98	276.76	29.58	-45.0	-45.6	25.4	0.00e+00	0	46	0	2563768320	60	7507
2026-01-29 14:32:31.00	278.11	29.49	-45.1	-45.8	25.3	0.00e+00	0	46	0	2593128448	60	7629
2026-01-29 14:32:35.02	279.45	29.38	-45.0	-45.8	25.2	0.00e+00	0	46	0	2622488576	60	7602
2026-01-29 14:32:39.04	280.78	29.25	-45.2	-45.9	25.2	0.00e+00	0	47	0	2650800128	60	7734
2026-01-29 14:32:43.07	282.10	29.11	-44.8	-45.5	25.5	0.00e+00	0	46	0	2680160256	60	7341
2026-01-29 14:32:47.09	283.41	28.95	-45.0	-45.7	25.4	0.00e+00	0	46	0	2709520384	60	7522
2026-01-29 14:32:51.12	284.71	28.78	-44.9	-45.6	25.5	0.00e+00	0	46	0	2738880512	60	7455
2026-01-29 14:32:55.14	285.99	28.60	-45.0	-45.6	25.4	0.00e+00	0	46	0	2767192064	60	7460
2026-01-29 14:32:59.18	287.26	28.40	-45.3	-46.0	25.0	0.00e+00	0	46	0	2796552192	60	7847
2026-01-29 14:33:03.21	288.51	28.18	-45.4	-46.2	24.9	0.00e+00	0	46	0	2825912320	60	7996
2026-01-29 14:33:07.22	289.74	27.96	-45.3	-46.1	25.0	0.00e+00	0	46	0	2854223872	60	7941
2026-01-29 14:33:11.24	290.95	27.72	-45.3	-46.0	25.1	0.00e+00	0	46	0	2883584000	60	7807
2026-01-29 14:33:15.27	292.15	27.47	-45.4	-46.0	25.1	0.00e+00	0	46	0	2912944128	60	7831
2026-01-29 14:33:19.31	293.34	27.21	-45.4	-46.0	25.1	0.00e+00	0	46	0	2942304256	60	7797
2026-01-29 14:33:23.33	294.49	26.95	-45.6	-46.3	25.0	0.00e+00	0	46	0	2970615808	60	8062
2026-01-29 14:33:27.36	295.64	26.67	-45.7	-46.4	24.8	0.00e+00	0	46	0	2999975936	60	8170
2026-01-29 14:33:31.39	296.76	26.38	-45.3	-45.9	25.2	0.00e+00	0	46	0	3029336064	60	7725
2026-01-29 14:33:35.42	297.86	26.08	-45.4	-46.1	24.8	0.00e+00	0	46	0	3058696192	60	7872
2026-01-29 14:33:39.44	298.94	25.78	-45.4	-46.2	25.0	0.00e+00	0	46	0	3087007744	60	7959
2026-01-29 14:33:43.46	300.00	25.47	-46.1	-46.8	24.6	0.00e+00	0	46	0	3116367872	60	8554
2026-01-29 14:33:47.48	301.04	25.16	-46.1	-46.7	24.6	0.00e+00	0	46	0	3145728000	60	8480
2026-01-29 14:33:51.51	302.06	24.84	-45.7	-46.4	24.9	0.00e+00	0	46	0	3174039552	60	8142
2026-01-29 14:33:55.53	303.06	24.51	-45.9	-46.5	24.8	0.00e+00	0	46	0	3203399680	60	8313
2026-01-29 14:33:59.55	304.04	24.18	-45.8	-46.5	24.7	0.00e+00	0	46	0	3231711232	60	8304
2026-01-29 14:34:03.58	305.00	23.85	-45.9	-46.6	24.6	0.00e+00	0	46	0	3261071360	60	8387
2026-01-29 14:34:07.60	305.93	23.51	-46.0	-46.7	24.3	0.00e+00	0	46	0	3290431488	60	8431
2026-01-29 14:34:11.62	306.85	23.17	-46.0	-46.7	24.4	0.00e+00	0	46	0	3319791616	60	8430
2026-01-29 14:34:15.63	307.75	22.82	-45.9	-46.7	24.3	0.00e+00	0	47	0	3348103168	60	8442
2026-01-29 14:34:19.66	308.63	22.48	-46.1	-46.9	23.9	0.00e+00	0	46	0	3377463296	60	8693
2026-01-29 14:34:23.68	309.49	22.13	-46.0	-46.7	24.0	0.00e+00	0	47	0	3406823424	60	8518
2026-01-29 14:34:27.70	310.33	21.78	-46.3	-47.0	23.8	0.00e+00	0	46	0	3436183552	60	8762
2026-01-29 14:34:31.72	311.16	21.43	-46.3	-47.0	23.7	0.00e+00	0	46	0	3464495104	60	8788
2026-01-29 14:34:35.76	311.97	21.08	-46.2	-47.0	23.8	0.00e+00	0	46	0	3493855232	60	8726
2026-01-29 14:34:39.78	312.75	20.72	-46.4	-47.0	23.8	0.00e+00	0	46	0	3523215360	60	8801
2026-01-29 14:34:43.80	313.52	20.37	-46.6	-47.4	23.6	0.00e+00	0	47	0	3551526912	60	9142
2026-01-29 14:34:47.83	314.28	20.02	-46.9	-47.6	23.4	0.00e+00	0	46	0	3580887040	60	9407
2026-01-29 14:34:51.85	315.02	19.67	-46.6	-47.3	23.7	0.00e+00	0	46	0	3610247168	60	9064
2026-01-29 14:34:55.88	315.74	19.31	-46.6	-47.2	23.7	0.00e+00	0	46	0	3638558720	60	9015
2026-01-29 14:34:59.91	316.44	18.96	-46.6	-47.3	23.7	0.00e+00	0	46	0	3667918848	60	9046
2026-01-29 14:35:03.93	317.13	18.61	-47.1	-47.8	23.2	0.00e+00	0	46	0	3697278976	60	9626
2026-01-29 14:35:07.95	317.81	18.26	-47.2	-48.0	22.9	0.00e+00	0	46	0	3725590528	60	9846
2026-01-29 14:35:11.98	318.47	17.92	-47.0	-47.7	23.0	0.00e+00	0	46	0	3754950656	60	9534
2026-01-29 14:35:16.00	319.11	17.57	-46.6	-47.3	23.5	0.00e+00	0	46	0	3784310784	60	9105
2026-01-29 14:35:20.02	319.74	17.23	-46.8	-47.5	23.3	0.00e+00	0	46	0	3813670912	60	9255
2026-01-29 14:35:24.04	320.36	16.88	-47.2	-47.9	23.0	0.00e+00	0	46	0	3841982464	60	9740
2026-01-29 14:35:28.07	320.96	16.54	-47.4	-48.2	22.7	0.00e+00	0	46	0	3871342592	60	10084
2026-01-29 14:35:32.10	321.55	16.20	-47.7	-48.5	22.5	0.00e+00	0	46	0	3900702720	60	10397
2026-01-29 14:35:36.12	322.13	15.86	-47.4	-48.2	22.7	0.00e+00	0	46	0	3929014272	60	10045
2026-01-29 14:35:40.15	322.69	15.53	-46.8	-48.0	22.8	0.00e+00	0	46	0	3958374400	60	9799
2026-01-29 14:35:44.18	323.25	15.19	-47.1	-48.4	22.3	0.00e+00	0	46	0	3987734528	60	10347
2026-01-29 14:35:48.20	323.79	14.86	-47.5	-48.8	21.7	0.00e+00	0	46	0	4017094656	60	10825
2026-01-29 14:35:52.23	324.32	14.53	-47.8	-49.3	21.1	0.00e+00	0	46	0	4045406208	60	11441
2026-01-29 14:35:56.25	324.84	14.21	-47.7	-49.7	20.4	0.00e+00	0	46	0	4074766336	60	11978
2026-01-29 14:36:00.28	325.35	13.88	-47.6	-50.1	19.9	0.00e+00	0	46	0	4103077888	60	12488
2026-01-29 14:36:04.31	325.85	13.56	-47.6	-50.6	19.2	0.00e+00	0	46	0	4133486592	60	13257
2026-01-29 14:36:08.32	326.33	13.24	-48.6	-51.3	18.4	0.00e+00	0	46	0	4161798144	60	14467
2026-01-29 14:36:12.34	326.81	12.93	-49.7	-52.2	17.5	0.00e+00	0	46	0	4191158272	60	15925
2026-01-29 14:36:16.37	327.28	12.61	-49.4	-53.3	16.2	0.00e+00	0	47	0	4219469824	60	18069
2026-01-29 14:36:20.40	327.74	12.30	-49.2	-54.4	15.1	0.00e+00	0	47	0	4248829952	60	20646
2026-01-29 14:36:24.42	328.18	11.99	-49.5	-55.3	14.0	3.40e-06	0	47	0	4278190080	60	22766
2026-01-29 14:36:28.44	328.62	11.68	-50.1	-56.2	12.9	4.69e-05	0	47	0	4307550208	60	25395
2026-01-29 14:36:32.48	329.06	11.38	-51.9	-57.4	11.5	6.83e-04	0	46	0	4335861760	60	28977
2026-01-29 14:36:36.51	329.48	11.07	-54.3	-58.6	10.0	7.09e-03	0	46	0	4365221888	60	33325
2026-01-29 14:36:40.53	329.89	10.77	-53.5	-59.7	8.6	3.51e-02	0	47	0	4394582016	60	38051
2026-01-29 14:36:44.56	330.30	10.47	-53.2	-60.9	7.4	1.04e-01	0	47	0	4422893568	60	43288
2026-01-29 14:36:48.59	330.70	10.18	-54.1	-62.0	6.2	2.51e-01	0	47	0	4453302272	60	49437
2026-01-29 14:36:52.62	331.09	9.88	-55.6	-65.3	4.8	8.26e-01	0	47	104	4461690880	60	72247
2026-01-29 14:36:56.64	331.48	9.59	-55.7	-64.9	4.0	8.26e-01	0	46	0	4461690880	60	69147
2026-01-29 14:37:00.66	331.85	9.31	-55.7	-65.7	3.7	8.33e-01	0	47	0	4461690880	60	75185
2026-01-29 14:37:04.69	332.22	9.02	-53.9	-68.8	3.6	8.44e-01	0	47	104	4461690880	60	108286
2026-01-29 14:37:08.72	332.59	8.74	-54.2	-69.6	3.6	8.45e-01	0	47	104	4461690880	60	118421
2026-01-29 14:37:12.73	332.94	8.46	-55.9	-70.0	3.6	8.46e-01	0	46	104	4461690880	60	123210
2026-01-29 14:37:16.75	333.29	8.18	-55.4	-70.4	3.6	8.46e-01	0	47	104	4461690880	60	129959
2026-01-29 14:37:20.79	333.64	7.90	-56.9	-70.5	3.6	8.45e-01	0	47	104	4461690880	60	131230
2026-01-29 14:37:24.82	333.98	7.62	-56.8	-70.5	3.6	8.45e-01	0	47	104	4461690880	60	131779
2026-01-29 14:37:28.84	334.31	7.35	-56.8	-70.5	3.6	8.45e-01	0	47	104	4461690880	60	131142
2026-01-29 14:37:32.85	334.63	7.08	-56.5	-70.2	3.6	8.44e-01	0	47	104	4461690880	60	127320
2026-01-29 14:37:36.86	334.95	6.81	-55.5	-69.7	3.6	8.44e-01	0	47	104	4461690880	60	119978
2026-01-29 14:37:40.89	335.27	6.55	-55.9	-69.8	3.6	8.45e-01	0	47	104	4461690880	60	121015
2026-01-29 14:37:44.91	335.58	6.28	-55.4	-69.7	3.6	8.45e-01	0	46	104	4461690880	60	120218
2026-01-29 14:37:48.94	335.88	6.02	-55.1	-69.6	3.6	8.45e-01	0	47	104	4461690880	60	118385
2026-01-29 14:37:52.96	336.18	5.76	-54.4	-68.3	3.6	8.44e-01	0	47	104	4461690880	60	101939
2026-01-29 14:37:56.99	336.48	5.50	-50.2	-67.6	3.5	8.46e-01	0	47	104	4461690880	60	94043
2026-01-29 14:38:01.02	336.77	5.25	-51.0	-67.6	3.6	8.45e-01	0	47	104	4461690880	60	93579
2026-01-29 14:38:05.05	337.05	4.99	-55.5	-69.6	3.6	8.45e-01	0	47	104	4461690880	60	118780
2026-01-29 14:38:09.06	337.33	4.74	-59.2	-72.5	3.6	8.45e-01	0	47	104	4461690880	60	164915
2026-01-29 14:38:13.09	337.61	4.49	-59.7	-73.0	3.6	8.45e-01	0	47	104	4461690880	60	175544
2026-01-29 14:38:17.12	337.88	4.24	-60.4	-73.5	3.6	8.45e-01	0	47	104	4461690880	60	184870
2026-01-29 14:38:21.15	338.15	3.99	-59.6	-73.6	3.6	8.45e-01	0	47	104	4461690880	60	188303
2026-01-29 14:38:25.18	338.41	3.75	-59.3	-74.0	3.6	8.44e-01	0	47	104	4461690880	60	195670
2026-01-29 14:38:29.20	338.67	3.50	-57.4	-73.9	3.6	8.46e-01	0	47	104	4461690880	60	194514
2026-01-29 14:38:33.23	338.93	3.26	-57.3	-73.9	3.6	8.45e-01	0	47	104	4461690880	60	193168
2026-01-29 14:38:37.25	339.18	3.02	-58.1	-73.8	3.6	8.44e-01	0	47	104	4461690880	60	191671
2026-01-29 14:38:41.28	339.43	2.78	-58.1	-73.8	3.6	8.46e-01	0	47	104	4461690880	60	191635
2026-01-29 14:38:45.31	339.67	2.55	-58.0	-73.8	3.6	8.46e-01	0	47	104	4461690880	60	191095
2026-01-29 14:38:49.34	339.91	2.31	-57.9	-73.7	3.6	8.44e-01	0	47	104	4461690880	60	190416
2026-01-29 14:38:53.37	340.15	2.08	-57.9	-73.7	3.6	8.45e-01	0	47	104	4461690880	60	190090
2026-01-29 14:38:57.38	340.38	1.85	-57.8	-73.7	3.6	8.47e-01	0	47	104	4461690880	60	189782
2026-01-29 14:39:01.39	340.61	1.62	-58.0	-73.6	3.6	8.45e-01	0	47	104	4461690880	60	188044
2026-01-29 14:39:05.42	340.84	1.39	-57.9	-73.6	3.6	8.46e-01	0	47	104	4461690880	60	187768
2026-01-29 14:39:09.44	341.06	1.16	-58.0	-73.5	3.6	8.45e-01	0	47	104	4461690880	60	185245
2026-01-29 14:39:13.46	341.28	0.93	-57.8	-73.5	3.6	8.44e-01	0	47	104	4461690880	60	185293
2026-01-29 14:39:17.48	341.50	0.71	-57.8	-73.4	3.6	8.44e-01	0	47	104	4461690880	60	184186
2026-01-29 14:39:21.50	341.72	0.49	-57.6	-73.5	3.6	8.45e-01	0	47	104	4461690880	60	185185
2026-01-29 14:39:25.53	341.93	0.27	-57.7	-73.5	3.6	8.46e-01	0	47	104	4461690880	60	184943
2026-01-29 14:39:29.55	342.14	0.05	-57.7	-73.4	3.6	8.46e-01	0	47	104	4461690880	60	184270

#Closed at: 2026-01-29 14:39:32
#Recorded file [4461 MB]: D:/Data/35015_260129_173752.dat