passes_logs/2026/01/29/R3.2S-Naryan-Mar/R3.2S-Naryan-Mar__20260129_231919_NOAA_21_JPSS-2_rec.log

#Pass ID: 20260129_231919_NOAA 21 (JPSS-2)
#Satellite: NOAA 21 (JPSS-2)
#Configuration: NOAA-21
#almurnet v.1.7.20240730
#Start time: 2026-01-29 23:19:22

#Version: 2.2.20231116
#Station: R3.2S-Naryan-Mar
#Location: 53.008057 lon 67.646978 lat
#TLE: 1 54234U 22150A   26028.89828222  .00000145  00000+0  89569-4 0  9997
#TLE: 2 54234  98.7511 329.6308 0000927 198.8651 161.2491 14.19540676166783

#Time	Az	El	Level	Level2	SNR	BER	BlckErr	Temp	State	Recorded	gain1	gain2
2026-01-29 23:19:22.24	23.33	0.16	-61.4	-75.0	3.2	1.54e+00	0	45	0	0	60	213957
2026-01-29 23:19:26.26	23.34	0.40	-62.1	-76.7	3.5	1.52e+00	0	45	104	0	60	261556
2026-01-29 23:19:30.28	23.35	0.65	-62.2	-76.7	3.5	1.52e+00	0	45	104	0	60	260260
2026-01-29 23:19:34.31	23.35	0.89	-60.4	-76.1	3.5	1.51e+00	0	45	104	0	60	243589
2026-01-29 23:19:38.32	23.36	1.14	-59.5	-75.6	3.5	1.51e+00	0	45	104	0	60	230368
2026-01-29 23:19:42.35	23.37	1.39	-59.2	-75.6	3.5	1.52e+00	0	45	104	0	60	229270
2026-01-29 23:19:46.37	23.38	1.64	-50.7	-71.9	3.9	1.50e+00	0	45	104	0	60	150045
2026-01-29 23:19:50.40	23.38	1.90	-59.8	-74.7	3.5	1.52e+00	0	45	104	0	60	205596
2026-01-29 23:19:54.42	23.39	2.15	-57.2	-73.5	3.7	1.52e+00	0	45	104	0	60	181001
2026-01-29 23:19:58.43	23.39	2.41	-57.6	-72.6	3.6	1.51e+00	0	46	104	0	60	162884
2026-01-29 23:20:02.45	23.40	2.67	-57.6	-72.8	3.6	1.52e+00	0	46	104	0	60	166981
2026-01-29 23:20:06.48	23.41	2.94	-57.6	-72.7	3.5	1.51e+00	0	46	104	0	60	163503
2026-01-29 23:20:10.51	23.41	3.20	-57.5	-72.8	3.6	1.51e+00	0	45	104	0	60	166086
2026-01-29 23:20:14.54	23.42	3.47	-57.5	-72.5	3.5	1.51e+00	0	46	104	0	60	159624
2026-01-29 23:20:18.57	23.42	3.74	-57.6	-72.5	3.6	1.51e+00	0	46	104	0	60	159638
2026-01-29 23:20:22.60	23.43	4.02	-57.7	-72.5	3.5	1.51e+00	0	46	104	0	60	160823
2026-01-29 23:20:26.63	23.43	4.30	-57.7	-72.3	3.5	1.52e+00	0	46	104	0	60	156344
2026-01-29 23:20:30.66	23.43	4.58	-57.7	-72.2	3.5	1.51e+00	0	46	104	0	60	154500
2026-01-29 23:20:34.70	23.44	4.86	-57.7	-70.8	3.5	1.51e+00	0	46	104	0	60	132597
2026-01-29 23:20:38.73	23.44	5.15	-56.7	-62.9	8.6	7.78e-02	0	46	0	4194304	60	53241
2026-01-29 23:20:42.76	23.45	5.44	-54.4	-57.7	14.3	1.50e-06	0	46	0	16777216	60	29140
2026-01-29 23:20:46.79	23.45	5.73	-52.7	-55.1	16.8	0.00e+00	0	46	0	29360128	60	21715
2026-01-29 23:20:50.81	23.45	6.03	-52.8	-55.2	16.6	0.00e+00	0	46	0	41943040	60	21910
2026-01-29 23:20:54.84	23.45	6.33	-52.4	-55.9	15.3	0.00e+00	0	46	0	54525952	60	23785
2026-01-29 23:20:58.86	23.46	6.63	-54.0	-57.6	14.8	0.00e+00	0	46	0	67108864	60	28795
2026-01-29 23:21:02.89	23.46	6.94	-52.9	-58.7	12.3	1.95e-04	0	46	0	79691776	60	32674
2026-01-29 23:21:06.92	23.46	7.25	-53.8	-60.0	11.8	2.35e-04	0	46	0	92274688	60	37834
2026-01-29 23:21:10.96	23.46	7.56	-56.1	-60.5	11.8	3.97e-04	0	46	0	104857600	60	40264
2026-01-29 23:21:14.99	23.46	7.88	-55.5	-61.2	10.2	6.26e-03	0	46	0	117440512	60	43676
2026-01-29 23:21:19.02	23.46	8.20	-56.3	-62.4	10.2	3.40e-03	0	46	0	130023424	60	50266
2026-01-29 23:21:23.05	23.46	8.53	-56.7	-65.3	6.4	1.66e-01	0	46	0	142606336	60	70301
2026-01-29 23:21:27.07	23.46	8.86	-56.9	-67.5	5.8	1.46e+00	0	46	104	145752064	60	89884
2026-01-29 23:21:31.09	23.46	9.19	-52.8	-55.1	16.3	0.00e+00	0	46	0	10485760	60	21608
2026-01-29 23:21:35.12	23.46	9.53	-53.0	-55.3	17.3	0.00e+00	0	46	0	23068672	60	22155
2026-01-29 23:21:39.15	23.46	9.88	-52.3	-55.0	17.7	0.00e+00	0	46	0	35651584	60	21289
2026-01-29 23:21:43.17	23.45	10.22	-52.6	-55.4	18.0	0.00e+00	0	46	0	48234496	60	22413
2026-01-29 23:21:47.20	23.45	10.58	-51.5	-53.8	19.3	0.00e+00	0	46	0	60817408	60	18701
2026-01-29 23:21:51.23	23.45	10.94	-51.2	-54.3	17.8	0.00e+00	0	46	0	73400320	60	19789
2026-01-29 23:21:55.26	23.45	11.30	-51.3	-55.2	16.8	0.00e+00	0	46	0	85983232	60	21814
2026-01-29 23:21:59.28	23.44	11.67	-52.0	-55.6	16.5	0.00e+00	0	46	0	98566144	60	22966
2026-01-29 23:22:03.32	23.44	12.05	-52.7	-56.2	15.4	0.00e+00	0	46	0	111149056	60	24632
2026-01-29 23:22:07.35	23.43	12.43	-53.1	-56.4	14.8	0.00e+00	0	46	0	123731968	60	25193
2026-01-29 23:22:11.37	23.43	12.82	-54.3	-57.5	14.0	1.50e-06	0	46	0	136314880	60	28460
2026-01-29 23:22:15.40	23.42	13.21	-53.7	-55.7	17.8	0.00e+00	0	46	0	148897792	60	23285
2026-01-29 23:22:19.43	23.41	13.61	-52.1	-54.6	17.7	0.00e+00	0	46	0	161480704	60	20358
2026-01-29 23:22:23.46	23.40	14.02	-53.6	-55.8	16.7	0.00e+00	0	46	0	174063616	60	23531
2026-01-29 23:22:27.49	23.40	14.43	-53.8	-56.6	16.2	0.00e+00	0	46	0	186646528	60	25726
2026-01-29 23:22:31.51	23.39	14.85	-52.9	-57.2	15.1	0.00e+00	0	46	0	199229440	60	27629
2026-01-29 23:22:35.54	23.38	15.28	-52.9	-57.7	12.8	2.21e-05	0	46	0	211812352	60	29276
2026-01-29 23:22:39.58	23.36	15.72	-52.4	-59.1	11.4	8.44e-04	0	46	0	224395264	60	34123
2026-01-29 23:22:43.60	23.35	16.16	-53.0	-60.3	10.9	2.33e-03	0	46	0	236978176	60	39331
2026-01-29 23:22:47.62	23.34	16.62	-54.2	-61.6	9.8	1.27e-02	0	46	0	249561088	60	45819
2026-01-29 23:22:51.65	23.33	17.08	-56.8	-63.5	9.0	3.80e-02	0	46	0	262144000	60	57053
2026-01-29 23:22:55.68	23.31	17.55	-58.3	-66.4	6.1	2.93e-01	0	46	0	274726912	60	79270
2026-01-29 23:22:59.71	23.30	18.03	-55.3	-61.6	12.1	7.26e-01	0	46	104	275775488	60	45836
2026-01-29 23:23:03.74	23.28	18.52	-53.7	-56.3	16.7	3.00e-06	0	46	0	11534336	60	24719
2026-01-29 23:23:07.76	23.26	19.01	-52.0	-53.7	20.0	0.00e+00	0	46	0	24117248	60	18340
2026-01-29 23:23:11.79	23.24	19.52	-52.1	-53.9	19.6	0.00e+00	0	46	0	36700160	60	18829
2026-01-29 23:23:15.83	23.22	20.04	-51.3	-53.2	19.8	0.00e+00	0	46	0	49283072	60	17303
2026-01-29 23:23:19.86	23.20	20.57	-51.9	-53.6	20.1	0.00e+00	0	46	0	61865984	60	18221
2026-01-29 23:23:23.89	23.18	21.12	-52.2	-53.9	19.6	0.00e+00	0	46	0	74448896	60	18843
2026-01-29 23:23:27.91	23.16	21.67	-50.6	-52.1	20.9	0.00e+00	0	46	0	87031808	60	15348
2026-01-29 23:23:31.94	23.13	22.24	-50.4	-51.9	20.9	0.00e+00	0	46	0	99614720	60	14915
2026-01-29 23:23:35.96	23.10	22.81	-50.7	-52.1	20.7	0.00e+00	0	46	0	112197632	60	15383
2026-01-29 23:23:39.98	23.08	23.41	-49.8	-51.3	20.3	0.00e+00	0	46	0	124780544	60	14000
2026-01-29 23:23:44.00	23.05	24.01	-50.0	-51.5	20.7	0.00e+00	0	46	0	137363456	60	14285
2026-01-29 23:23:48.02	23.01	24.63	-50.4	-52.0	20.2	0.00e+00	0	46	0	149946368	60	15076
2026-01-29 23:23:52.04	22.98	25.27	-50.4	-52.2	20.5	0.00e+00	0	46	0	162529280	60	15518
2026-01-29 23:23:56.06	22.94	25.92	-50.9	-52.7	20.0	0.00e+00	0	46	0	175112192	60	16357
2026-01-29 23:24:00.09	22.90	26.58	-51.5	-53.6	19.4	0.00e+00	0	46	0	187695104	60	18251
2026-01-29 23:24:04.11	22.86	27.27	-52.1	-54.2	18.7	0.00e+00	0	46	0	200278016	60	19562
2026-01-29 23:24:08.14	22.82	27.97	-51.8	-53.5	19.8	0.00e+00	0	46	0	212860928	60	17993
2026-01-29 23:24:12.17	22.77	28.69	-51.4	-52.9	19.8	0.00e+00	0	46	0	225443840	60	16873
2026-01-29 23:24:16.18	22.72	29.43	-50.8	-52.3	21.4	0.00e+00	0	46	0	238026752	60	15595
2026-01-29 23:24:20.21	22.67	30.19	-50.9	-52.2	21.3	0.00e+00	0	46	0	250609664	60	15556
2026-01-29 23:24:24.23	22.62	30.97	-50.9	-52.2	21.2	0.00e+00	0	46	0	263192576	60	15476
2026-01-29 23:24:28.27	22.56	31.77	-51.3	-52.8	20.3	0.00e+00	0	46	0	275775488	60	16679
2026-01-29 23:24:32.30	22.49	32.59	-51.9	-53.3	20.6	0.00e+00	0	46	0	288358400	60	17575
2026-01-29 23:24:36.33	22.43	33.44	-52.7	-54.2	20.1	0.00e+00	0	46	0	300941312	60	19607
2026-01-29 23:24:40.36	22.35	34.31	-53.1	-54.6	19.9	0.00e+00	0	46	0	313524224	60	20315
2026-01-29 23:24:44.38	22.28	35.21	-53.4	-55.4	18.3	0.00e+00	0	46	0	326107136	60	22411
2026-01-29 23:24:48.41	22.19	36.13	-54.2	-56.8	16.8	0.00e+00	0	46	0	338690048	60	26221
2026-01-29 23:24:52.45	22.11	37.09	-54.3	-57.7	15.7	0.00e+00	0	46	0	351272960	60	29321
2026-01-29 23:24:56.48	22.01	38.06	-56.3	-58.8	15.5	0.00e+00	0	46	0	363855872	60	33107
2026-01-29 23:25:00.51	21.91	39.07	-55.0	-57.3	16.9	0.00e+00	0	46	0	376438784	60	27796
2026-01-29 23:25:04.53	21.80	40.11	-54.7	-56.5	18.1	0.00e+00	0	46	0	389021696	60	25449
2026-01-29 23:25:08.56	21.68	41.18	-54.9	-56.8	17.9	0.00e+00	0	46	0	401604608	60	26469
2026-01-29 23:25:12.59	21.56	42.28	-55.5	-58.0	15.8	0.00e+00	0	46	0	414187520	60	30242
2026-01-29 23:25:16.62	21.42	43.42	-56.8	-59.3	15.2	0.00e+00	0	46	0	426770432	60	34910
2026-01-29 23:25:20.64	21.27	44.58	-55.1	-57.2	17.3	0.00e+00	0	46	0	439353344	60	27611
2026-01-29 23:25:24.67	21.11	45.79	-55.7	-57.8	17.0	0.00e+00	0	46	0	451936256	60	29367
2026-01-29 23:25:28.69	20.94	47.03	-56.0	-58.2	16.7	0.00e+00	0	46	0	464519168	60	30959
2026-01-29 23:25:32.71	20.75	48.31	-54.4	-56.2	18.5	0.00e+00	0	46	0	477102080	60	24623
2026-01-29 23:25:36.74	20.54	49.63	-53.6	-55.2	19.2	0.00e+00	0	46	0	489684992	60	21890
2026-01-29 23:25:40.77	20.31	50.98	-54.2	-55.9	19.1	0.00e+00	0	46	0	502267904	60	23638
2026-01-29 23:25:44.80	20.05	52.38	-54.6	-56.4	18.5	0.00e+00	0	46	0	514850816	60	25180
2026-01-29 23:25:48.83	19.77	53.82	-54.4	-56.2	18.5	0.00e+00	0	46	0	527433728	60	24695
2026-01-29 23:25:52.85	19.46	55.30	-53.1	-54.5	20.1	0.00e+00	0	46	0	540016640	60	20258
2026-01-29 23:25:56.88	19.11	56.82	-53.6	-55.1	19.7	0.00e+00	0	46	0	552599552	60	21664
2026-01-29 23:26:00.91	18.72	58.38	-53.8	-55.3	19.7	0.00e+00	0	46	0	565182464	60	22141
2026-01-29 23:26:04.93	18.27	59.98	-51.8	-53.1	21.4	0.00e+00	0	46	0	577765376	60	17222
2026-01-29 23:26:08.96	17.77	61.62	-52.5	-53.8	21.0	0.00e+00	0	46	0	590348288	60	18698
2026-01-29 23:26:12.99	17.19	63.30	-52.7	-54.2	20.5	0.00e+00	0	46	0	602931200	60	19467
2026-01-29 23:26:17.02	16.51	65.02	-52.9	-54.3	20.5	0.00e+00	0	46	0	615514112	60	19760
2026-01-29 23:26:21.04	15.72	66.78	-51.0	-52.2	22.1	0.00e+00	0	46	0	628097024	60	15551
2026-01-29 23:26:25.07	14.79	68.56	-49.8	-51.0	23.1	0.00e+00	0	46	0	640679936	60	13465
2026-01-29 23:26:29.09	13.66	70.38	-50.1	-51.3	22.7	0.00e+00	0	46	0	653262848	60	13914
2026-01-29 23:26:33.11	12.29	72.22	-50.5	-51.7	22.2	0.00e+00	0	46	0	665845760	60	14679
2026-01-29 23:26:37.14	10.57	74.08	-50.7	-52.0	22.2	0.00e+00	0	46	0	678428672	60	15111
2026-01-29 23:26:41.17	8.36	75.96	-50.8	-52.0	22.0	0.00e+00	0	46	0	691011584	60	15183
2026-01-29 23:26:45.19	5.44	77.82	-51.0	-52.1	22.7	0.00e+00	0	46	0	703594496	60	15325
2026-01-29 23:26:49.21	1.45	79.67	-51.8	-53.0	22.3	0.00e+00	0	46	0	716177408	60	17064
2026-01-29 23:26:53.22	355.71	81.46	-50.7	-51.9	22.9	0.00e+00	0	46	0	728760320	60	14922
2026-01-29 23:26:57.25	346.96	83.14	-50.5	-51.8	22.6	0.00e+00	0	46	0	741343232	60	14750
2026-01-29 23:27:01.27	333.10	84.57	-50.9	-52.2	22.0	0.00e+00	0	46	0	753926144	60	15556
2026-01-29 23:27:05.31	311.53	85.49	-50.8	-52.1	21.9	0.00e+00	0	46	0	766509056	60	15409
2026-01-29 23:27:09.34	284.80	85.57	-50.5	-51.7	22.7	0.00e+00	0	46	0	779091968	60	14713
2026-01-29 23:27:13.35	262.19	84.76	-50.8	-52.1	22.1	0.00e+00	0	46	0	790626304	60	15294
2026-01-29 23:27:17.39	247.19	83.38	-51.1	-52.5	21.4	0.00e+00	0	46	0	804257792	60	16030
2026-01-29 23:27:21.42	237.80	81.73	-50.9	-52.3	21.6	0.00e+00	0	46	0	816840704	60	15697
2026-01-29 23:27:25.45	231.68	79.94	-50.5	-51.8	22.2	0.00e+00	0	46	0	829423616	60	14876
2026-01-29 23:27:29.48	227.46	78.09	-51.7	-53.3	21.0	0.00e+00	0	46	0	842006528	60	17511
2026-01-29 23:27:33.50	224.42	76.22	-52.1	-53.5	21.3	0.00e+00	0	46	0	854589440	60	18012
2026-01-29 23:27:37.53	222.12	74.35	-52.0	-53.4	21.2	0.00e+00	0	46	0	867172352	60	17822
2026-01-29 23:27:41.55	220.34	72.48	-51.8	-53.1	22.1	0.00e+00	0	46	0	879755264	60	17097
2026-01-29 23:27:45.58	218.92	70.63	-50.0	-51.0	23.4	0.00e+00	0	46	0	892338176	60	13572
2026-01-29 23:27:49.61	217.76	68.81	-51.9	-53.3	20.8	0.00e+00	0	46	0	904921088	60	17624
2026-01-29 23:27:53.63	216.80	67.01	-49.8	-50.8	23.6	0.00e+00	0	46	0	917504000	60	13220
2026-01-29 23:27:57.65	215.99	65.25	-50.1	-51.2	22.6	0.00e+00	0	46	0	930086912	60	13837
2026-01-29 23:28:01.68	215.30	63.52	-49.8	-50.8	23.6	0.00e+00	0	46	0	942669824	60	13266
2026-01-29 23:28:05.69	214.71	61.84	-52.4	-53.9	19.8	0.00e+00	0	46	0	955252736	60	18770
2026-01-29 23:28:09.71	214.19	60.19	-51.3	-52.5	22.1	0.00e+00	0	46	0	967835648	60	15959
2026-01-29 23:28:13.74	213.74	58.58	-52.9	-54.3	20.5	0.00e+00	0	46	0	979369984	60	19688
2026-01-29 23:28:17.77	213.34	57.01	-50.5	-51.6	22.4	0.00e+00	0	46	0	993001472	60	14496
2026-01-29 23:28:21.80	212.98	55.48	-53.2	-54.7	20.2	0.00e+00	0	46	0	1005584384	60	20613
2026-01-29 23:28:25.82	212.66	53.99	-53.4	-54.8	20.2	0.00e+00	0	46	0	1018167296	60	20968
2026-01-29 23:28:29.85	212.38	52.54	-52.2	-53.6	20.6	0.00e+00	0	46	0	1029701632	60	18183
2026-01-29 23:28:33.88	212.12	51.13	-54.2	-56.0	18.6	0.00e+00	0	46	0	1043333120	60	23925
2026-01-29 23:28:37.91	211.88	49.77	-53.4	-54.9	19.8	0.00e+00	0	46	0	1055916032	60	21042
2026-01-29 23:28:41.94	211.67	48.44	-53.0	-54.5	19.7	0.00e+00	0	46	0	1068498944	60	20093
2026-01-29 23:28:45.95	211.48	47.15	-52.9	-54.4	20.3	0.00e+00	0	46	0	1080033280	60	19865
2026-01-29 23:28:49.98	211.30	45.90	-54.3	-56.0	18.5	0.00e+00	0	46	0	1093664768	60	24044
2026-01-29 23:28:54.00	211.14	44.69	-55.0	-56.8	17.8	0.00e+00	0	46	0	1106247680	60	26457
2026-01-29 23:28:58.03	210.98	43.51	-54.4	-56.1	18.3	0.00e+00	0	46	0	1118830592	60	24402
2026-01-29 23:29:02.07	210.84	42.36	-53.6	-55.1	19.2	0.00e+00	0	46	0	1131413504	60	21721
2026-01-29 23:29:06.09	210.72	41.26	-55.8	-58.0	16.5	0.00e+00	0	46	0	1143996416	60	30265
2026-01-29 23:29:10.11	210.60	40.18	-54.9	-56.8	17.9	0.00e+00	0	46	0	1156579328	60	26246
2026-01-29 23:29:14.11	210.49	39.14	-54.4	-56.1	18.3	0.00e+00	0	46	0	1169162240	60	24318
2026-01-29 23:29:18.14	210.38	38.13	-53.2	-54.8	19.5	0.00e+00	0	46	0	1181745152	60	20827
2026-01-29 23:29:22.16	210.29	37.14	-52.1	-53.5	20.4	0.00e+00	0	46	0	1194328064	60	17997
2026-01-29 23:29:26.18	210.20	36.19	-51.9	-53.2	20.8	0.00e+00	0	46	0	1206910976	60	17434
2026-01-29 23:29:30.21	210.11	35.26	-51.7	-53.0	20.8	0.00e+00	0	46	0	1219493888	60	17012
2026-01-29 23:29:34.24	210.03	34.35	-51.7	-53.0	20.7	0.00e+00	0	46	0	1232076800	60	17056
2026-01-29 23:29:38.26	209.96	33.48	-51.1	-52.4	21.2	0.00e+00	0	46	0	1244659712	60	15889
2026-01-29 23:29:42.29	209.89	32.62	-51.3	-52.6	21.3	0.00e+00	0	46	0	1257242624	60	16238
2026-01-29 23:29:46.31	209.82	31.79	-51.2	-52.4	21.5	0.00e+00	0	46	0	1269825536	60	15900
2026-01-29 23:29:50.34	209.76	30.99	-51.7	-53.0	21.0	0.00e+00	0	46	0	1282408448	60	17020
2026-01-29 23:29:54.37	209.71	30.20	-52.1	-53.5	20.5	0.00e+00	0	46	0	1294991360	60	18069
2026-01-29 23:29:58.40	209.65	29.44	-52.1	-53.5	20.4	0.00e+00	0	46	0	1307574272	60	18079
2026-01-29 23:30:02.42	209.60	28.69	-51.9	-53.4	20.2	0.00e+00	0	46	0	1320157184	60	17698
2026-01-29 23:30:06.44	209.55	27.97	-51.9	-53.3	20.4	0.00e+00	0	46	0	1332740096	60	17627
2026-01-29 23:30:10.46	209.51	27.26	-52.2	-53.7	19.8	0.00e+00	0	46	0	1345323008	60	18432
2026-01-29 23:30:14.48	209.46	26.57	-52.6	-54.2	19.5	0.00e+00	0	46	0	1357905920	60	19477
2026-01-29 23:30:18.52	209.42	25.90	-53.3	-55.0	18.8	0.00e+00	0	46	0	1370488832	60	21367
2026-01-29 23:30:22.55	209.38	25.24	-53.1	-54.7	19.0	0.00e+00	0	46	0	1383071744	60	20732
2026-01-29 23:30:26.58	209.35	24.60	-53.7	-55.4	18.4	0.00e+00	0	46	0	1395654656	60	22418
2026-01-29 23:30:30.60	209.31	23.98	-51.9	-53.3	20.3	0.00e+00	0	46	0	1408237568	60	17541
2026-01-29 23:30:34.62	209.28	23.37	-49.8	-51.0	21.9	0.00e+00	0	46	0	1420820480	60	13431
2026-01-29 23:30:38.64	209.25	22.77	-49.8	-51.0	21.9	0.00e+00	0	46	0	1433403392	60	13485
2026-01-29 23:30:42.67	209.22	22.19	-49.7	-51.0	21.9	0.00e+00	0	46	0	1445986304	60	13440
2026-01-29 23:30:46.68	209.19	21.62	-50.0	-51.3	21.5	0.00e+00	0	46	0	1458569216	60	13912
2026-01-29 23:30:50.71	209.17	21.07	-50.5	-51.8	21.2	0.00e+00	0	46	0	1471152128	60	14757
2026-01-29 23:30:54.73	209.14	20.52	-51.8	-53.2	19.8	0.00e+00	0	46	0	1483735040	60	17468
2026-01-29 23:30:58.76	209.12	19.99	-53.7	-55.7	17.6	0.00e+00	0	46	0	1496317952	60	23216
2026-01-29 23:31:02.79	209.10	19.47	-54.7	-57.1	15.9	0.00e+00	0	46	0	1508900864	60	27259
2026-01-29 23:31:06.82	209.08	18.95	-56.0	-59.0	13.9	1.50e-06	0	46	0	1521483776	60	33844
2026-01-29 23:31:10.84	209.06	18.45	-57.3	-61.4	11.0	8.14e-04	0	46	0	1534066688	60	44837
2026-01-29 23:31:14.87	209.04	17.96	-57.5	-62.0	10.4	7.49e-03	0	46	0	1546649600	60	47757
2026-01-29 23:31:18.89	209.02	17.48	-58.2	-63.9	8.6	3.02e-02	0	46	0	1559232512	60	59284
2026-01-29 23:31:22.92	209.01	17.01	-58.8	-67.6	5.5	4.83e-01	0	46	104	1569718272	60	91070
2026-01-29 23:31:26.93	208.99	16.55	-58.8	-67.2	6.1	1.06e+00	0	46	104	1569718272	60	87571
2026-01-29 23:31:30.97	208.98	16.09	-51.1	-52.6	19.9	0.00e+00	0	46	0	11534336	60	16181
2026-01-29 23:31:35.00	208.96	15.64	-50.4	-51.8	20.5	0.00e+00	0	46	0	24117248	60	14865
2026-01-29 23:31:39.03	208.95	15.21	-50.7	-52.2	20.1	0.00e+00	0	46	0	36700160	60	15442
2026-01-29 23:31:43.05	208.94	14.78	-51.2	-52.7	19.7	0.00e+00	0	46	0	49283072	60	16345
2026-01-29 23:31:47.08	208.92	14.35	-51.8	-53.4	18.9	0.00e+00	0	46	0	61865984	60	17752
2026-01-29 23:31:51.11	208.91	13.94	-52.8	-54.7	17.7	0.00e+00	0	46	0	74448896	60	20580
2026-01-29 23:31:55.13	208.90	13.53	-54.1	-56.4	16.1	0.00e+00	0	46	0	87031808	60	25098
2026-01-29 23:31:59.16	208.89	13.12	-55.7	-58.7	13.8	7.00e-07	0	46	0	99614720	60	32857
2026-01-29 23:32:03.18	208.88	12.73	-56.4	-60.0	12.3	3.09e-04	0	46	0	112197632	60	37946
2026-01-29 23:32:07.21	208.88	12.34	-57.3	-61.9	10.0	7.70e-03	0	46	0	124780544	60	47332
2026-01-29 23:32:11.24	208.87	11.96	-58.1	-64.1	7.6	8.64e-02	0	46	0	137363456	60	61215
2026-01-29 23:32:15.25	208.86	11.58	-58.6	-67.0	5.5	4.45e-01	0	46	104	147849216	60	84913
2026-01-29 23:32:19.28	208.85	11.21	-57.9	-63.7	9.9	2.06e-01	0	46	0	7340032	60	58250
2026-01-29 23:32:23.31	208.85	10.84	-51.7	-53.3	18.7	0.00e+00	0	46	0	19922944	60	17671
2026-01-29 23:32:27.34	208.84	10.48	-50.8	-52.3	19.5	0.00e+00	0	46	0	32505856	60	15758
2026-01-29 23:32:31.37	208.84	10.13	-51.2	-52.7	19.2	0.00e+00	0	46	0	45088768	60	16496
2026-01-29 23:32:35.39	208.83	9.78	-51.5	-53.1	18.9	0.00e+00	0	46	0	57671680	60	17253
2026-01-29 23:32:39.43	208.83	9.43	-51.9	-53.7	18.3	0.00e+00	0	46	0	70254592	60	18369
2026-01-29 23:32:43.46	208.82	9.09	-52.5	-54.4	17.6	0.00e+00	0	46	0	82837504	60	20039
2026-01-29 23:32:47.48	208.82	8.75	-52.7	-54.7	17.2	0.00e+00	0	46	0	95420416	60	20685
2026-01-29 23:32:51.50	208.82	8.42	-53.5	-55.8	16.4	0.00e+00	0	46	0	108003328	60	23408
2026-01-29 23:32:55.53	208.81	8.09	-54.2	-56.8	15.4	0.00e+00	0	46	0	120586240	60	26275
2026-01-29 23:32:59.56	208.81	7.77	-54.4	-57.1	14.6	7.00e-07	0	46	0	133169152	60	27299
2026-01-29 23:33:03.59	208.81	7.45	-55.3	-58.7	13.0	1.90e-05	0	47	0	145752064	60	32634
2026-01-29 23:33:07.60	208.81	7.14	-56.0	-59.9	11.7	3.81e-04	0	46	0	158334976	60	37405
2026-01-29 23:33:11.63	208.81	6.82	-56.8	-61.7	9.6	7.34e-03	0	47	0	170917888	60	46278
2026-01-29 23:33:15.65	208.80	6.52	-57.3	-63.3	7.7	5.33e-02	0	47	0	183500800	60	55729
2026-01-29 23:33:19.68	208.80	6.21	-57.6	-66.1	3.9	5.16e-01	0	47	104	196083712	60	76557
2026-01-29 23:33:23.69	208.80	5.91	-58.6	-72.7	3.5	1.52e+00	0	47	104	196083712	60	163440
2026-01-29 23:33:27.71	208.80	5.62	-59.7	-73.7	3.5	1.52e+00	0	47	104	196083712	60	184419
2026-01-29 23:33:31.74	208.80	5.32	-61.1	-75.1	3.5	1.52e+00	0	47	104	196083712	60	215589
2026-01-29 23:33:35.76	208.80	5.03	-61.8	-75.9	3.5	1.52e+00	0	47	104	196083712	60	236337
2026-01-29 23:33:39.77	208.80	4.75	-62.4	-76.3	3.5	1.52e+00	0	46	104	196083712	60	249811
2026-01-29 23:33:43.79	208.80	4.46	-62.5	-76.5	3.5	1.52e+00	0	47	104	196083712	60	254868
2026-01-29 23:33:47.80	208.80	4.18	-63.0	-77.1	3.5	1.52e+00	0	47	104	196083712	60	273989
2026-01-29 23:33:51.82	208.81	3.91	-61.5	-76.6	3.5	1.52e+00	0	47	104	196083712	60	258350
2026-01-29 23:33:55.84	208.81	3.63	-62.5	-76.9	3.5	1.51e+00	0	47	104	196083712	60	266672
2026-01-29 23:33:59.86	208.81	3.36	-62.4	-76.8	3.5	1.52e+00	0	47	104	196083712	60	264240
2026-01-29 23:34:03.89	208.81	3.09	-62.4	-76.9	3.5	1.52e+00	0	47	104	196083712	60	265048
2026-01-29 23:34:07.91	208.81	2.82	-62.4	-76.8	3.5	1.52e+00	0	47	104	196083712	60	262591
2026-01-29 23:34:11.94	208.81	2.55	-62.3	-76.8	3.5	1.52e+00	0	47	104	196083712	60	262560
2026-01-29 23:34:15.95	208.82	2.29	-62.3	-76.7	3.5	1.52e+00	0	47	104	196083712	60	261041
2026-01-29 23:34:19.98	208.82	2.03	-62.4	-76.8	3.5	1.52e+00	0	47	104	196083712	60	263255
2026-01-29 23:34:24.01	208.82	1.77	-62.3	-76.8	3.5	1.52e+00	0	47	104	196083712	60	263475
2026-01-29 23:34:28.03	208.82	1.52	-62.3	-76.8	3.5	1.52e+00	0	47	104	196083712	60	263370
2026-01-29 23:34:32.06	208.83	1.27	-62.2	-76.7	3.5	1.52e+00	0	47	104	196083712	60	258842
2026-01-29 23:34:36.09	208.83	1.01	-62.2	-76.7	3.5	1.51e+00	0	47	104	196083712	60	261118
2026-01-29 23:34:40.12	208.83	0.77	-62.1	-76.7	3.5	1.52e+00	0	47	104	196083712	60	259671
2026-01-29 23:34:44.14	208.84	0.52	-62.1	-76.7	3.5	1.52e+00	0	47	104	196083712	60	259546
2026-01-29 23:34:48.16	208.84	0.27	-62.1	-76.7	3.5	1.51e+00	0	47	104	196083712	60	259569
2026-01-29 23:34:52.20	208.85	0.03	-62.1	-76.7	3.5	1.52e+00	0	47	104	196083712	60	260012

#Closed at: 2026-01-29 23:34:54
#Recorded file [196 MB]: D:/Data/35015_260130_023321.dat