passes_logs/2026/01/29/R3.2S-Naryan-Mar/R3.2S-Naryan-Mar__20260129_000754_SUOMI_NPP_rec.log

#Pass ID: 20260129_000754_SUOMI NPP
#Satellite: SUOMI NPP
#Configuration: NPP
#almurnet v.1.7.20240730
#Start time: 2026-01-29 00:07:55

#Version: 2.2.20231116
#Station: R3.2S-Naryan-Mar
#Location: 53.008057 lon 67.646978 lat
#TLE: 1 37849U 11061A   26027.86188320  .00000172  00000+0  10275-3 0  9990
#TLE: 2 37849  98.7823 329.8005 0002088  41.4184 318.7150 14.19530883738530

#Time	Az	El	Level	Level2	SNR	BER	BlckErr	Temp	State	Recorded	gain1	gain2
2026-01-29 00:07:55.38	26.61	0.03	-61.0	-75.5	3.4	1.52e+00	0	44	0	0	60	226581
2026-01-29 00:07:59.41	26.55	0.27	-61.5	-78.1	3.6	1.51e+00	0	45	104	0	60	314206
2026-01-29 00:08:03.44	26.49	0.51	-61.4	-77.8	3.6	1.51e+00	0	45	104	0	60	303511
2026-01-29 00:08:07.46	26.42	0.75	-60.3	-77.6	3.6	1.51e+00	0	45	104	0	60	297065
2026-01-29 00:08:11.47	26.36	1.00	-59.8	-77.0	3.6	1.51e+00	0	45	104	0	60	276330
2026-01-29 00:08:15.48	26.29	1.24	-59.6	-76.5	3.6	1.51e+00	0	45	104	0	60	262540
2026-01-29 00:08:19.51	26.22	1.49	-59.6	-76.4	3.6	1.51e+00	0	45	104	0	60	259900
2026-01-29 00:08:23.53	26.15	1.74	-59.5	-76.4	3.6	1.51e+00	0	45	104	0	60	259171
2026-01-29 00:08:27.55	26.08	2.00	-59.5	-76.4	3.6	1.51e+00	0	45	104	0	60	257401
2026-01-29 00:08:31.58	26.01	2.25	-59.4	-76.3	3.6	1.51e+00	0	45	104	0	60	256276
2026-01-29 00:08:35.61	25.93	2.51	-59.4	-76.3	3.6	1.51e+00	0	45	104	0	60	255242
2026-01-29 00:08:39.63	25.86	2.77	-59.3	-76.2	3.5	1.51e+00	0	45	104	0	60	253028
2026-01-29 00:08:43.66	25.78	3.03	-59.4	-76.2	3.6	1.51e+00	0	45	104	0	60	253237
2026-01-29 00:08:47.69	25.70	3.30	-59.4	-76.2	3.6	1.51e+00	0	45	104	0	60	251731
2026-01-29 00:08:51.72	25.62	3.57	-59.4	-76.2	3.6	1.51e+00	0	46	104	0	60	252789
2026-01-29 00:08:55.74	25.54	3.84	-59.4	-76.1	3.6	1.51e+00	0	46	104	0	60	249576
2026-01-29 00:08:59.77	25.45	4.11	-59.4	-76.1	3.6	1.51e+00	0	46	104	0	60	250981
2026-01-29 00:09:03.79	25.36	4.39	-59.4	-76.1	3.6	1.51e+00	0	46	104	0	60	249887
2026-01-29 00:09:07.82	25.27	4.66	-59.3	-76.1	3.6	1.51e+00	0	46	104	0	60	250169
2026-01-29 00:09:11.85	25.18	4.95	-59.3	-76.1	3.6	1.51e+00	0	46	104	0	60	251359
2026-01-29 00:09:15.88	25.09	5.23	-59.3	-76.2	3.6	1.51e+00	0	46	104	0	60	252073
2026-01-29 00:09:19.90	25.00	5.52	-59.3	-76.1	3.6	1.51e+00	0	46	104	0	60	249560
2026-01-29 00:09:23.92	24.90	5.81	-59.3	-76.0	3.6	1.51e+00	0	46	104	0	60	246913
2026-01-29 00:09:27.95	24.80	6.10	-58.5	-75.9	3.6	1.51e+00	0	46	104	0	60	243001
2026-01-29 00:09:31.97	24.70	6.40	-58.2	-75.6	3.6	1.51e+00	0	46	104	0	60	235382
2026-01-29 00:09:35.99	24.59	6.70	-59.7	-76.0	3.6	1.51e+00	0	46	104	0	60	248554
2026-01-29 00:09:40.02	24.48	7.00	-59.2	-75.5	3.6	1.51e+00	0	46	104	0	60	232665
2026-01-29 00:09:44.05	24.38	7.31	-58.8	-76.0	3.6	1.51e+00	0	46	104	0	60	247936
2026-01-29 00:09:48.08	24.26	7.62	-58.4	-75.4	3.6	1.51e+00	0	46	104	0	60	230000
2026-01-29 00:09:52.11	24.15	7.93	-59.6	-76.0	3.6	1.51e+00	0	46	104	0	60	248321
2026-01-29 00:09:56.13	24.03	8.25	-56.2	-74.7	3.6	1.51e+00	0	46	104	0	60	213088
2026-01-29 00:10:00.17	23.91	8.57	-59.1	-75.9	3.6	1.51e+00	0	46	104	0	60	243219
2026-01-29 00:10:04.19	23.78	8.90	-56.9	-75.1	3.6	1.51e+00	0	46	104	0	60	222986
2026-01-29 00:10:08.22	23.66	9.23	-59.8	-75.9	3.6	1.51e+00	0	46	104	0	60	244914
2026-01-29 00:10:12.25	23.52	9.56	-58.3	-76.1	3.6	1.51e+00	0	46	104	0	60	248753
2026-01-29 00:10:16.29	23.39	9.90	-57.9	-75.7	3.6	1.51e+00	0	46	104	0	60	240101
2026-01-29 00:10:20.32	23.25	10.25	-59.3	-76.1	3.6	1.51e+00	0	46	104	0	60	249885
2026-01-29 00:10:24.34	23.11	10.59	-59.5	-76.0	3.6	1.51e+00	0	46	104	0	60	247317
2026-01-29 00:10:28.35	22.97	10.94	-57.5	-76.0	3.6	1.51e+00	0	46	104	0	60	247061
2026-01-29 00:10:32.38	22.82	11.30	-55.0	-75.8	3.6	1.51e+00	0	46	104	0	60	241932
2026-01-29 00:10:36.41	22.66	11.67	-59.6	-76.0	3.6	1.51e+00	0	46	104	0	60	247188
2026-01-29 00:10:40.45	22.51	12.03	-57.8	-76.2	3.6	1.51e+00	0	46	104	0	60	253700
2026-01-29 00:10:44.48	22.34	12.41	-54.3	-74.2	3.6	1.51e+00	0	46	104	0	60	201828
2026-01-29 00:10:48.51	22.18	12.79	-54.3	-73.3	3.6	1.51e+00	0	46	104	0	60	180724
2026-01-29 00:10:52.54	22.00	13.17	-56.9	-75.8	3.6	1.51e+00	0	46	104	0	60	241897
2026-01-29 00:10:56.56	21.83	13.56	-58.1	-76.1	3.6	1.51e+00	0	46	104	0	60	250612
2026-01-29 00:11:00.58	21.65	13.96	-54.7	-73.6	3.6	1.51e+00	0	46	104	0	60	187596
2026-01-29 00:11:04.60	21.46	14.36	-56.8	-75.8	3.6	1.51e+00	0	46	104	0	60	240602
2026-01-29 00:11:08.63	21.27	14.77	-55.4	-74.6	3.6	1.51e+00	0	46	104	0	60	211466
2026-01-29 00:11:12.66	21.07	15.18	-58.7	-76.0	3.6	1.51e+00	0	46	104	0	60	246297
2026-01-29 00:11:16.68	20.86	15.61	-58.6	-75.6	3.6	1.51e+00	0	46	104	0	60	237371
2026-01-29 00:11:20.71	20.65	16.04	-59.5	-76.8	3.6	1.51e+00	0	46	104	0	60	272283
2026-01-29 00:11:24.74	20.44	16.47	-58.9	-75.9	3.6	1.51e+00	0	46	104	0	60	243817
2026-01-29 00:11:28.76	20.21	16.92	-59.4	-76.8	3.6	1.51e+00	0	46	104	0	60	269974
2026-01-29 00:11:32.77	19.98	17.37	-57.9	-76.1	3.6	1.51e+00	0	46	104	0	60	248734
2026-01-29 00:11:36.79	19.74	17.83	-58.3	-76.2	3.6	1.51e+00	0	46	104	0	60	252630
2026-01-29 00:11:40.82	19.49	18.29	-58.3	-75.9	3.6	1.51e+00	0	46	104	0	60	244945
2026-01-29 00:11:44.85	19.24	18.77	-58.2	-75.7	3.6	1.51e+00	0	46	104	0	60	237710
2026-01-29 00:11:48.88	18.97	19.26	-57.8	-75.4	3.6	1.51e+00	0	46	104	0	60	230206
2026-01-29 00:11:52.90	18.70	19.75	-60.2	-76.7	3.6	1.51e+00	0	46	104	0	60	269456
2026-01-29 00:11:56.93	18.42	20.25	-56.2	-74.9	3.6	1.51e+00	0	46	104	0	60	217114
2026-01-29 00:12:00.96	18.12	20.77	-59.4	-76.7	3.6	1.51e+00	0	46	104	0	60	268924
2026-01-29 00:12:04.98	17.82	21.29	-59.6	-76.0	3.6	1.51e+00	0	46	104	0	60	245961
2026-01-29 00:12:09.01	17.51	21.82	-59.9	-75.8	3.6	1.51e+00	0	46	104	0	60	240655
2026-01-29 00:12:13.04	17.18	22.37	-60.5	-76.2	3.6	1.51e+00	0	46	104	0	60	252385
2026-01-29 00:12:17.06	16.84	22.92	-59.9	-76.7	3.6	1.51e+00	0	46	104	0	60	267355
2026-01-29 00:12:21.09	16.49	23.48	-59.5	-76.4	3.6	1.51e+00	0	46	104	0	60	257494
2026-01-29 00:12:25.11	16.13	24.06	-59.0	-75.8	3.6	1.51e+00	0	46	104	0	60	242266
2026-01-29 00:12:29.14	15.75	24.65	-60.1	-76.8	3.6	1.51e+00	0	46	104	0	60	269840
2026-01-29 00:12:33.17	15.35	25.25	-60.1	-76.3	3.6	1.51e+00	0	46	104	0	60	254684
2026-01-29 00:12:37.19	14.94	25.86	-59.0	-76.4	3.6	1.51e+00	0	46	104	0	60	259823
2026-01-29 00:12:41.22	14.52	26.48	-60.2	-76.8	3.6	1.51e+00	0	46	104	0	60	271326
2026-01-29 00:12:45.25	14.07	27.12	-60.3	-76.7	3.6	1.51e+00	0	46	104	0	60	267481
2026-01-29 00:12:49.27	13.61	27.77	-60.5	-76.6	3.6	1.51e+00	0	46	104	0	60	264643
2026-01-29 00:12:53.29	13.12	28.44	-59.2	-76.8	3.6	1.51e+00	0	46	104	0	60	271480
2026-01-29 00:12:57.32	12.62	29.11	-58.3	-76.4	3.6	1.51e+00	0	46	104	0	60	258095
2026-01-29 00:13:01.35	12.09	29.81	-58.0	-76.2	3.6	1.51e+00	0	46	104	0	60	253546
2026-01-29 00:13:05.38	11.54	30.51	-59.3	-76.6	3.6	1.51e+00	0	46	104	0	60	265815
2026-01-29 00:13:09.40	10.96	31.23	-60.6	-77.0	3.6	1.51e+00	0	46	104	0	60	278740
2026-01-29 00:13:13.43	10.35	31.97	-60.3	-76.9	3.6	1.51e+00	0	46	104	0	60	275276
2026-01-29 00:13:17.46	9.72	32.72	-60.5	-77.2	3.6	1.51e+00	0	46	104	0	60	282643
2026-01-29 00:13:21.50	9.05	33.49	-60.4	-77.2	3.6	1.51e+00	0	46	104	0	60	285140
2026-01-29 00:13:25.52	8.36	34.26	-60.6	-77.2	3.6	1.51e+00	0	46	104	0	60	282824
2026-01-29 00:13:29.54	7.62	35.06	-60.8	-77.3	3.6	1.51e+00	0	46	104	0	60	286117
2026-01-29 00:13:33.56	6.85	35.86	-60.5	-77.2	3.6	1.51e+00	0	46	104	0	60	283876
2026-01-29 00:13:37.58	6.04	36.69	-60.9	-77.3	3.6	1.51e+00	0	46	104	0	60	286215
2026-01-29 00:13:41.60	5.19	37.52	-60.9	-77.2	3.6	1.51e+00	0	46	104	0	60	285383
2026-01-29 00:13:45.61	4.30	38.37	-60.9	-77.2	3.6	1.51e+00	0	46	104	0	60	282919
2026-01-29 00:13:49.63	3.35	39.23	-60.9	-77.1	3.6	1.51e+00	0	46	104	0	60	280208
2026-01-29 00:13:53.65	2.35	40.11	-60.8	-77.1	3.6	1.51e+00	0	46	104	0	60	281530
2026-01-29 00:13:57.67	1.29	40.99	-61.0	-77.2	3.6	1.51e+00	0	46	104	0	60	285344
2026-01-29 00:14:01.68	0.18	41.89	-61.0	-77.2	3.6	1.51e+00	0	46	104	0	60	284462
2026-01-29 00:14:05.71	358.99	42.80	-60.8	-77.1	3.6	1.51e+00	0	46	104	0	60	279874
2026-01-29 00:14:09.74	357.74	43.71	-60.9	-77.1	3.6	1.51e+00	0	46	104	0	60	279716
2026-01-29 00:14:13.77	356.40	44.63	-60.8	-77.1	3.6	1.51e+00	0	46	104	0	60	281199
2026-01-29 00:14:17.79	355.00	45.55	-60.7	-77.1	3.6	1.51e+00	0	46	104	0	60	279484
2026-01-29 00:14:21.82	353.50	46.48	-61.0	-77.1	3.6	1.51e+00	0	46	104	0	60	279018
2026-01-29 00:14:25.85	351.91	47.40	-61.0	-77.1	3.6	1.51e+00	0	46	104	0	60	280033
2026-01-29 00:14:29.87	350.23	48.31	-60.7	-77.0	3.6	1.51e+00	0	46	104	0	60	277874
2026-01-29 00:14:33.90	348.44	49.22	-61.0	-77.1	3.6	1.51e+00	0	46	104	0	60	279068
2026-01-29 00:14:37.93	346.55	50.11	-60.9	-76.9	3.6	1.51e+00	0	46	104	0	60	273108
2026-01-29 00:14:41.96	344.53	50.99	-60.8	-76.9	3.6	1.51e+00	0	46	104	0	60	273961
2026-01-29 00:14:45.99	342.40	51.84	-60.8	-76.8	3.6	1.51e+00	0	46	104	0	60	269798
2026-01-29 00:14:50.01	340.15	52.66	-60.9	-76.8	3.6	1.51e+00	0	46	104	0	60	270314
2026-01-29 00:14:54.02	337.78	53.44	-60.9	-76.9	3.6	1.51e+00	0	46	104	0	60	275237
2026-01-29 00:14:58.06	335.26	54.19	-60.9	-77.0	3.6	1.51e+00	0	46	104	0	60	277498
2026-01-29 00:15:02.09	332.62	54.88	-60.8	-76.8	3.6	1.51e+00	0	46	104	0	60	272263
2026-01-29 00:15:06.11	329.85	55.52	-60.6	-76.9	3.6	1.51e+00	0	46	104	0	60	272893
2026-01-29 00:15:10.12	326.97	56.10	-60.9	-77.2	3.6	1.51e+00	0	46	104	0	60	284057
2026-01-29 00:15:14.15	323.96	56.61	-60.9	-77.0	3.6	1.51e+00	0	46	104	0	60	276503
2026-01-29 00:15:18.18	320.85	57.04	-60.5	-77.0	3.6	1.51e+00	0	46	104	0	60	277718
2026-01-29 00:15:22.21	317.64	57.40	-60.8	-76.9	3.6	1.51e+00	0	46	104	0	60	273001
2026-01-29 00:15:26.22	314.38	57.66	-60.7	-77.1	3.6	1.51e+00	0	46	104	0	60	279121
2026-01-29 00:15:30.23	311.06	57.84	-60.9	-76.6	3.6	1.51e+00	0	46	104	0	60	264011
2026-01-29 00:15:34.26	307.69	57.93	-60.6	-77.1	3.6	1.51e+00	0	46	104	0	60	279396
2026-01-29 00:15:38.29	304.31	57.92	-60.3	-77.0	3.6	1.51e+00	0	46	104	0	60	276661
2026-01-29 00:15:42.32	300.94	57.82	-59.9	-76.4	3.6	1.51e+00	0	46	104	0	60	259672
2026-01-29 00:15:46.34	297.62	57.62	-59.4	-76.7	3.6	1.51e+00	0	46	104	0	60	269418
2026-01-29 00:15:50.37	294.35	57.34	-59.4	-76.9	3.6	1.51e+00	0	46	104	0	60	274501
2026-01-29 00:15:54.39	291.17	56.97	-59.8	-76.7	3.6	1.51e+00	0	46	104	0	60	267954
2026-01-29 00:15:58.42	288.07	56.52	-59.8	-76.9	3.6	1.51e+00	0	46	104	0	60	272652
2026-01-29 00:16:02.45	285.07	56.00	-59.2	-76.0	3.6	1.51e+00	0	46	104	0	60	247853
2026-01-29 00:16:06.48	282.20	55.41	-59.1	-76.5	3.6	1.51e+00	0	46	104	0	60	261103
2026-01-29 00:16:10.50	279.45	54.76	-58.9	-76.3	3.6	1.51e+00	0	46	104	0	60	256671
2026-01-29 00:16:14.53	276.83	54.05	-59.1	-76.5	3.6	1.51e+00	0	46	104	0	60	261571
2026-01-29 00:16:18.55	274.35	53.30	-59.5	-76.3	3.6	1.51e+00	0	46	104	0	60	255775
2026-01-29 00:16:22.59	271.98	52.50	-59.7	-76.7	3.6	1.51e+00	0	46	104	0	60	267431
2026-01-29 00:16:26.61	269.75	51.68	-59.8	-76.0	3.6	1.51e+00	0	46	104	0	60	247854
2026-01-29 00:16:30.64	267.63	50.82	-60.1	-76.8	3.6	1.51e+00	0	46	104	0	60	271056
2026-01-29 00:16:34.66	265.65	49.94	-60.2	-76.7	3.6	1.51e+00	0	46	104	0	60	268912
2026-01-29 00:16:38.69	263.77	49.04	-60.3	-76.8	3.6	1.51e+00	0	46	104	0	60	270636
2026-01-29 00:16:42.72	261.99	48.13	-60.3	-76.6	3.6	1.51e+00	0	46	104	0	60	264884
2026-01-29 00:16:46.75	260.33	47.21	-60.4	-76.6	3.6	1.51e+00	0	46	104	0	60	265592
2026-01-29 00:16:50.76	258.76	46.29	-60.4	-76.4	3.6	1.51e+00	0	46	104	0	60	259569
2026-01-29 00:16:54.79	257.28	45.37	-60.5	-76.8	3.6	1.51e+00	0	46	104	0	60	270078
2026-01-29 00:16:58.83	255.88	44.44	-60.4	-76.5	3.6	1.51e+00	0	46	104	0	60	260665
2026-01-29 00:17:02.85	254.56	43.52	-60.4	-76.3	3.6	1.51e+00	0	46	104	0	60	255972
2026-01-29 00:17:06.88	253.32	42.60	-60.3	-76.4	3.6	1.51e+00	0	46	104	0	60	259581
2026-01-29 00:17:10.91	252.14	41.69	-60.3	-76.5	3.6	1.51e+00	0	46	104	0	60	260976
2026-01-29 00:17:14.94	251.03	40.80	-60.4	-76.4	3.6	1.51e+00	0	46	104	0	60	257718
2026-01-29 00:17:18.97	249.98	39.91	-60.4	-76.4	3.6	1.51e+00	0	46	104	0	60	257635
2026-01-29 00:17:22.98	248.99	39.03	-60.4	-76.3	3.6	1.51e+00	0	46	104	0	60	255919
2026-01-29 00:17:27.01	248.05	38.17	-60.4	-76.1	3.6	1.51e+00	0	46	104	0	60	250355
2026-01-29 00:17:31.05	247.15	37.32	-60.4	-75.8	3.6	1.51e+00	0	47	104	0	60	242589
2026-01-29 00:17:35.07	246.31	36.48	-60.4	-76.1	3.6	1.51e+00	0	47	104	0	60	250176
2026-01-29 00:17:39.09	245.50	35.66	-60.4	-76.7	3.6	1.51e+00	0	46	104	0	60	268276
2026-01-29 00:17:43.12	244.74	34.85	-60.4	-76.3	3.6	1.51e+00	0	46	104	0	60	256791
2026-01-29 00:17:47.15	244.01	34.06	-60.5	-76.8	3.6	1.51e+00	0	46	104	0	60	270003
2026-01-29 00:17:51.18	243.32	33.28	-60.3	-75.9	3.6	1.51e+00	0	46	104	0	60	245591
2026-01-29 00:17:55.20	242.66	32.52	-60.3	-76.6	3.6	1.51e+00	0	46	104	0	60	265489
2026-01-29 00:17:59.23	242.03	31.77	-60.1	-74.7	3.6	1.51e+00	0	46	104	0	60	211636
2026-01-29 00:18:03.26	241.43	31.03	-60.1	-74.8	3.6	1.50e+00	0	46	104	0	60	214753
2026-01-29 00:18:07.29	240.85	30.31	-60.0	-73.2	3.9	1.47e+00	0	46	104	0	60	179021
2026-01-29 00:18:11.31	240.31	29.61	-59.9	-71.5	3.8	1.41e+00	0	46	0	1048576	60	146420
2026-01-29 00:18:15.33	239.78	28.92	-59.7	-68.3	6.0	6.17e-01	0	46	0	3145728	60	101921
2026-01-29 00:18:19.36	239.28	28.24	-59.5	-67.7	6.4	2.44e-01	0	46	0	10485760	60	95474
2026-01-29 00:18:23.38	238.80	27.58	-59.5	-67.9	6.4	1.85e-01	0	46	0	17825792	60	97817
2026-01-29 00:18:27.40	238.34	26.93	-59.4	-68.0	6.6	1.58e-01	0	46	0	25165824	60	98765
2026-01-29 00:18:31.42	237.89	26.30	-59.1	-66.1	8.4	1.03e-01	0	47	0	32505856	60	79241
2026-01-29 00:18:35.45	237.47	25.67	-58.7	-64.7	9.5	4.65e-02	0	47	0	40894464	60	67303
2026-01-29 00:18:39.48	237.06	25.06	-59.2	-67.4	6.5	1.65e-01	0	47	0	48234496	60	92337
2026-01-29 00:18:43.50	236.67	24.46	-59.4	-68.6	5.6	3.09e-01	0	47	0	55574528	60	105464
2026-01-29 00:18:47.52	236.29	23.88	-59.2	-67.8	6.5	2.50e-01	0	46	0	62914560	60	96466
2026-01-29 00:18:51.55	235.92	23.30	-59.0	-66.6	7.6	6.90e-02	0	46	0	70254592	60	84082
2026-01-29 00:18:55.58	235.57	22.74	-58.8	-65.4	9.5	1.95e-02	0	47	0	78643200	60	72619
2026-01-29 00:18:59.61	235.24	22.18	-57.4	-61.3	13.8	1.06e-05	0	46	0	85983232	60	45488
2026-01-29 00:19:03.63	234.91	21.64	-57.7	-62.1	12.9	1.52e-05	0	46	0	93323264	60	49775
2026-01-29 00:19:07.66	234.60	21.11	-56.0	-58.9	16.3	0.00e+00	0	46	0	100663296	60	34336
2026-01-29 00:19:11.69	234.29	20.59	-55.3	-57.7	17.2	0.00e+00	0	46	0	108003328	60	30212
2026-01-29 00:19:15.72	234.00	20.08	-55.7	-58.5	16.3	0.00e+00	0	46	0	116391936	60	32924
2026-01-29 00:19:19.74	233.72	19.57	-56.5	-59.9	15.1	0.00e+00	0	46	0	123731968	60	38612
2026-01-29 00:19:23.77	233.44	19.08	-56.4	-59.8	15.2	0.00e+00	0	46	0	131072000	60	38136
2026-01-29 00:19:27.80	233.18	18.60	-55.5	-58.1	16.7	0.00e+00	0	46	0	138412032	60	31594
2026-01-29 00:19:31.82	232.92	18.12	-55.3	-57.9	16.6	0.00e+00	0	46	0	145752064	60	30806
2026-01-29 00:19:35.84	232.68	17.65	-55.1	-57.7	16.9	0.00e+00	0	46	0	154140672	60	30037
2026-01-29 00:19:39.88	232.44	17.19	-54.3	-56.5	18.0	0.00e+00	0	46	0	161480704	60	26152
2026-01-29 00:19:43.91	232.20	16.74	-54.4	-56.6	17.8	0.00e+00	0	46	0	168820736	60	26495
2026-01-29 00:19:47.94	231.98	16.30	-54.5	-56.9	17.5	0.00e+00	0	46	0	176160768	60	27278
2026-01-29 00:19:51.96	231.76	15.86	-54.4	-56.7	17.7	0.00e+00	0	46	0	183500800	60	26706
2026-01-29 00:19:55.99	231.55	15.43	-54.0	-56.2	17.8	0.00e+00	0	46	0	191889408	60	25281
2026-01-29 00:20:00.02	231.34	15.01	-54.0	-56.1	18.0	0.00e+00	0	46	0	199229440	60	25128
2026-01-29 00:20:04.04	231.15	14.60	-53.7	-55.8	18.2	0.00e+00	0	46	0	206569472	60	24204
2026-01-29 00:20:08.06	230.95	14.19	-54.3	-56.6	17.7	0.00e+00	0	46	0	213909504	60	26470
2026-01-29 00:20:12.09	230.76	13.79	-54.8	-57.3	17.0	0.00e+00	0	46	0	221249536	60	28680
2026-01-29 00:20:16.12	230.58	13.39	-55.0	-57.6	16.6	0.00e+00	0	46	0	229638144	60	29791
2026-01-29 00:20:20.14	230.40	13.00	-54.9	-57.6	16.5	0.00e+00	0	46	0	236978176	60	29586
2026-01-29 00:20:24.16	230.23	12.62	-54.3	-56.6	17.6	0.00e+00	0	46	0	244318208	60	26362
2026-01-29 00:20:28.18	230.06	12.24	-53.6	-55.6	18.4	0.00e+00	0	46	0	251658240	60	23599
2026-01-29 00:20:32.21	229.90	11.87	-53.5	-55.5	18.7	0.00e+00	0	46	0	258998272	60	23232
2026-01-29 00:20:36.22	229.74	11.50	-53.2	-55.1	18.7	0.00e+00	0	46	0	267386880	60	22273
2026-01-29 00:20:40.23	229.59	11.14	-53.5	-55.5	18.4	0.00e+00	0	46	0	274726912	60	23432
2026-01-29 00:20:44.26	229.44	10.78	-53.6	-55.7	18.1	0.00e+00	0	46	0	282066944	60	23767
2026-01-29 00:20:48.29	229.29	10.43	-54.0	-56.3	17.4	0.00e+00	0	46	0	289406976	60	25693
2026-01-29 00:20:52.31	229.15	10.08	-54.1	-56.6	17.0	0.00e+00	0	46	0	296747008	60	26433
2026-01-29 00:20:56.33	229.01	9.74	-54.0	-56.5	17.2	0.00e+00	0	46	0	305135616	60	26052
2026-01-29 00:21:00.35	228.87	9.40	-54.1	-56.6	16.9	0.00e+00	0	46	0	312475648	60	26508
2026-01-29 00:21:04.38	228.74	9.07	-54.2	-56.8	16.6	0.00e+00	0	46	0	319815680	60	27225
2026-01-29 00:21:08.41	228.61	8.74	-54.2	-56.8	16.5	0.00e+00	0	46	0	327155712	60	27258
2026-01-29 00:21:12.44	228.48	8.41	-54.4	-57.1	16.3	0.00e+00	0	46	0	334495744	60	28042
2026-01-29 00:21:16.47	228.36	8.09	-54.8	-57.8	15.7	0.00e+00	0	46	0	341835776	60	30501
2026-01-29 00:21:20.50	228.24	7.77	-54.8	-58.1	14.9	0.00e+00	0	46	0	350224384	60	31314
2026-01-29 00:21:24.53	228.12	7.46	-55.1	-58.7	14.5	0.00e+00	0	46	0	357564416	60	33691
2026-01-29 00:21:28.57	228.01	7.15	-55.3	-59.1	13.9	3.80e-06	0	46	0	364904448	60	35341
2026-01-29 00:21:32.59	227.90	6.84	-55.3	-59.2	13.6	8.30e-06	0	46	0	372244480	60	35654
2026-01-29 00:21:36.62	227.79	6.54	-55.4	-59.7	13.1	3.73e-05	0	46	0	380633088	60	37851
2026-01-29 00:21:40.65	227.68	6.24	-55.7	-60.5	12.3	7.93e-05	0	46	0	387973120	60	41273
2026-01-29 00:21:44.68	227.57	5.94	-58.0	-74.3	3.6	1.51e+00	0	46	104	393216000	60	203804
2026-01-29 00:21:48.71	227.47	5.65	-60.2	-76.7	3.6	1.51e+00	0	46	104	393216000	60	269249
2026-01-29 00:21:52.73	227.37	5.36	-61.6	-78.0	3.6	1.51e+00	0	46	104	393216000	60	310110
2026-01-29 00:21:56.77	227.28	5.07	-61.9	-78.3	3.6	1.51e+00	0	46	104	393216000	60	320362
2026-01-29 00:22:00.80	227.18	4.79	-61.6	-78.1	3.6	1.51e+00	0	46	104	393216000	60	314875
2026-01-29 00:22:04.82	227.09	4.51	-61.3	-78.3	3.6	1.51e+00	0	46	104	393216000	60	322174
2026-01-29 00:22:08.85	226.99	4.23	-61.7	-78.2	3.6	1.51e+00	0	46	104	393216000	60	320054
2026-01-29 00:22:12.88	226.91	3.95	-61.6	-78.2	3.6	1.51e+00	0	46	104	393216000	60	317660
2026-01-29 00:22:16.91	226.82	3.68	-61.5	-78.2	3.6	1.51e+00	0	46	104	393216000	60	318084
2026-01-29 00:22:20.93	226.73	3.41	-61.5	-78.2	3.6	1.51e+00	0	46	104	393216000	60	319763
2026-01-29 00:22:24.95	226.65	3.14	-61.5	-78.2	3.6	1.51e+00	0	46	104	393216000	60	319232
2026-01-29 00:22:28.98	226.57	2.88	-61.5	-78.2	3.6	1.51e+00	0	46	104	393216000	60	319344
2026-01-29 00:22:33.01	226.49	2.62	-61.5	-78.1	3.6	1.51e+00	0	46	104	393216000	60	316030
2026-01-29 00:22:37.03	226.41	2.36	-61.5	-78.1	3.6	1.51e+00	0	47	104	393216000	60	316195
2026-01-29 00:22:41.05	226.33	2.10	-61.5	-78.1	3.6	1.51e+00	0	46	104	393216000	60	314592
2026-01-29 00:22:45.07	226.25	1.84	-61.5	-78.2	3.6	1.51e+00	0	46	104	393216000	60	317687
2026-01-29 00:22:49.10	226.18	1.59	-61.5	-78.2	3.6	1.51e+00	0	47	104	393216000	60	317768
2026-01-29 00:22:53.12	226.11	1.34	-61.5	-78.1	3.6	1.51e+00	0	47	104	393216000	60	315201
2026-01-29 00:22:57.15	226.04	1.09	-61.5	-78.1	3.6	1.51e+00	0	46	104	393216000	60	315952
2026-01-29 00:23:01.17	225.97	0.84	-61.6	-78.2	3.6	1.51e+00	0	47	104	393216000	60	317911
2026-01-29 00:23:05.19	225.90	0.60	-61.5	-78.2	3.6	1.51e+00	0	46	104	393216000	60	317183
2026-01-29 00:23:09.22	225.83	0.35	-61.5	-78.1	3.6	1.51e+00	0	46	104	393216000	60	316519
2026-01-29 00:23:13.25	225.76	0.11	-61.5	-78.1	3.6	1.51e+00	0	46	104	393216000	60	316300

#Closed at: 2026-01-29 00:23:15
#Recorded file [393 MB]: D:/Data/35015_260129_032228.dat