passes_logs/2026/01/29/R3.2S-Naryan-Mar/R3.2S-Naryan-Mar__20260129_204838_NOAA_20_JPSS-1_rec.log

#Pass ID: 20260129_204838_NOAA 20 (JPSS-1)
#Satellite: NOAA 20 (JPSS-1)
#Configuration: NOAA 20
#almurnet v.1.7.20240730
#Start time: 2026-01-29 20:48:38

#Version: 2.2.20231116
#Station: R3.2S-Naryan-Mar
#Location: 53.008057 lon 67.646978 lat
#TLE: 1 43013U 17073A   26028.86313978  .00000144  00000+0  89200-4 0  9993
#TLE: 2 43013  98.7648 329.6571 0000891  20.0014 340.1197 14.19541559424709

#Time	Az	El	Level	Level2	SNR	BER	BlckErr	Temp	State	Recorded	gain1	gain2
2026-01-29 20:48:38.67	16.81	0.01	-60.3	-78.7	3.5	1.51e+00	0	43	0	0	60	335696
2026-01-29 20:48:42.70	17.08	0.22	-61.9	-79.4	3.6	1.51e+00	0	45	104	0	60	367274
2026-01-29 20:48:46.73	17.36	0.42	-61.8	-78.9	3.6	1.51e+00	0	45	104	0	60	346916
2026-01-29 20:48:50.76	17.64	0.63	-61.8	-78.9	3.6	1.51e+00	0	45	104	0	60	344325
2026-01-29 20:48:54.78	17.92	0.84	-60.3	-78.4	3.6	1.51e+00	0	45	104	0	60	324758
2026-01-29 20:48:58.81	18.21	1.04	-60.5	-78.3	3.6	1.51e+00	0	45	104	0	60	323005
2026-01-29 20:49:02.84	18.50	1.25	-50.1	-73.2	3.6	1.51e+00	0	45	104	0	60	178586
2026-01-29 20:49:06.87	18.79	1.46	-58.2	-75.2	3.6	1.51e+00	0	45	104	0	60	226128
2026-01-29 20:49:10.90	19.09	1.67	-58.1	-76.9	3.6	1.51e+00	0	45	104	0	60	275181
2026-01-29 20:49:14.93	19.40	1.89	-49.5	-73.4	3.6	1.51e+00	0	45	104	0	60	183395
2026-01-29 20:49:18.96	19.70	2.10	-50.9	-72.5	3.6	1.51e+00	0	45	104	0	60	164806
2026-01-29 20:49:22.99	20.01	2.31	-50.8	-73.4	3.6	1.51e+00	0	45	104	0	60	182395
2026-01-29 20:49:27.01	20.33	2.53	-50.7	-72.3	3.6	1.51e+00	0	45	104	0	60	161048
2026-01-29 20:49:31.04	20.65	2.74	-50.6	-73.3	3.6	1.51e+00	0	45	104	0	60	180304
2026-01-29 20:49:35.07	20.97	2.96	-50.7	-73.3	3.6	1.51e+00	0	45	104	0	60	181200
2026-01-29 20:49:39.10	21.30	3.18	-50.5	-73.1	3.5	1.51e+00	0	45	104	0	60	177382
2026-01-29 20:49:43.12	21.63	3.39	-50.4	-73.1	3.6	1.51e+00	0	45	104	0	60	176758
2026-01-29 20:49:47.14	21.97	3.61	-50.4	-73.0	3.6	1.51e+00	0	45	104	0	60	175926
2026-01-29 20:49:51.17	22.31	3.83	-50.4	-73.0	3.6	1.51e+00	0	45	104	0	60	175377
2026-01-29 20:49:55.19	22.66	4.06	-50.6	-73.2	3.6	1.51e+00	0	45	104	0	60	179987
2026-01-29 20:49:59.22	23.01	4.28	-50.3	-73.1	3.6	1.51e+00	0	45	104	0	60	176760
2026-01-29 20:50:03.24	23.37	4.50	-50.4	-72.5	3.6	1.51e+00	0	45	104	0	60	165249
2026-01-29 20:50:07.27	23.73	4.73	-50.1	-72.9	3.6	1.51e+00	0	45	104	0	60	173036
2026-01-29 20:50:11.30	24.10	4.95	-50.3	-72.9	3.6	1.51e+00	0	46	104	0	60	173969
2026-01-29 20:50:15.34	24.47	5.18	-50.5	-71.3	3.6	1.51e+00	0	46	104	0	60	144081
2026-01-29 20:50:19.36	24.85	5.41	-50.3	-71.7	3.6	1.51e+00	0	46	104	0	60	150346
2026-01-29 20:50:23.40	25.24	5.63	-50.3	-68.6	4.0	1.50e+00	0	46	104	0	60	105843
2026-01-29 20:50:27.43	25.63	5.86	-49.6	-60.5	9.7	2.61e-02	0	46	0	6291456	60	41561
2026-01-29 20:50:31.46	26.03	6.09	-47.6	-58.6	10.5	7.97e-04	0	46	0	13631488	60	33482
2026-01-29 20:50:35.48	26.43	6.32	-54.3	-59.7	15.7	0.00e+00	0	46	0	22020096	60	37701
2026-01-29 20:50:39.50	26.83	6.56	-55.5	-58.4	17.0	0.00e+00	0	46	0	29360128	60	32406
2026-01-29 20:50:43.51	27.25	6.79	-54.5	-58.1	15.6	0.00e+00	0	46	0	36700160	60	31454
2026-01-29 20:50:47.54	27.67	7.02	-52.9	-58.0	14.8	7.00e-07	0	45	0	44040192	60	31099
2026-01-29 20:50:51.55	28.09	7.26	-52.5	-58.1	14.7	0.00e+00	0	46	0	51380224	60	31483
2026-01-29 20:50:55.57	28.53	7.49	-54.1	-58.1	16.6	0.00e+00	0	46	0	59768832	60	31498
2026-01-29 20:50:59.59	28.97	7.73	-51.5	-57.9	14.3	0.00e+00	0	46	0	67108864	60	30735
2026-01-29 20:51:03.62	29.41	7.96	-54.9	-57.9	16.9	0.00e+00	0	46	0	74448896	60	30778
2026-01-29 20:51:07.63	29.87	8.20	-54.7	-57.9	17.3	0.00e+00	0	46	0	81788928	60	30767
2026-01-29 20:51:11.66	30.33	8.44	-54.4	-58.0	17.1	0.00e+00	0	46	0	89128960	60	31050
2026-01-29 20:51:15.69	30.80	8.68	-53.4	-57.5	17.1	0.00e+00	0	46	0	97517568	60	29523
2026-01-29 20:51:19.71	31.27	8.92	-54.1	-57.2	18.2	0.00e+00	0	46	0	104857600	60	28505
2026-01-29 20:51:23.73	31.76	9.16	-53.1	-57.0	16.4	0.00e+00	0	46	0	112197632	60	27852
2026-01-29 20:51:27.75	32.25	9.40	-53.9	-57.3	17.2	0.00e+00	0	46	0	119537664	60	28784
2026-01-29 20:51:31.78	32.75	9.64	-54.2	-57.1	17.5	0.00e+00	0	46	0	126877696	60	28090
2026-01-29 20:51:35.82	33.26	9.89	-54.8	-57.0	18.7	0.00e+00	0	46	0	135266304	60	27862
2026-01-29 20:51:39.85	33.77	10.13	-54.5	-57.3	18.2	0.00e+00	0	46	0	142606336	60	28839
2026-01-29 20:51:43.87	34.30	10.37	-55.2	-57.7	17.9	0.00e+00	0	46	0	149946368	60	30197
2026-01-29 20:51:47.90	34.83	10.61	-54.8	-57.6	18.0	0.00e+00	0	46	0	157286400	60	29639
2026-01-29 20:51:51.93	35.37	10.86	-53.6	-57.2	18.4	0.00e+00	0	46	0	164626432	60	28498
2026-01-29 20:51:55.96	35.92	11.10	-54.2	-57.2	17.8	0.00e+00	0	46	0	173015040	60	28266
2026-01-29 20:51:59.98	36.48	11.35	-54.4	-57.2	18.3	0.00e+00	0	46	0	180355072	60	28531
2026-01-29 20:52:04.01	37.05	11.59	-54.0	-57.1	18.6	0.00e+00	0	46	0	187695104	60	28178
2026-01-29 20:52:08.03	37.62	11.83	-54.6	-57.3	18.0	0.00e+00	0	46	0	195035136	60	28793
2026-01-29 20:52:12.06	38.21	12.08	-54.0	-57.3	17.5	0.00e+00	0	46	0	202375168	60	28864
2026-01-29 20:52:16.08	38.80	12.32	-54.2	-56.7	18.6	0.00e+00	0	46	0	210763776	60	26723
2026-01-29 20:52:20.11	39.41	12.56	-54.3	-56.5	18.6	0.00e+00	0	46	0	218103808	60	26261
2026-01-29 20:52:24.14	40.02	12.81	-54.7	-56.6	19.3	0.00e+00	0	46	0	225443840	60	26416
2026-01-29 20:52:28.17	40.65	13.05	-54.6	-56.6	19.2	0.00e+00	0	46	0	232783872	60	26384
2026-01-29 20:52:32.19	41.28	13.29	-54.1	-56.3	19.6	0.00e+00	0	46	0	240123904	60	25590
2026-01-29 20:52:36.23	41.93	13.53	-54.2	-55.9	19.8	0.00e+00	0	46	0	248512512	60	24568
2026-01-29 20:52:40.25	42.58	13.77	-54.3	-56.1	19.9	0.00e+00	0	46	0	255852544	60	24944
2026-01-29 20:52:44.28	43.25	14.01	-54.2	-55.9	19.9	0.00e+00	0	46	0	263192576	60	24441
2026-01-29 20:52:48.31	43.92	14.25	-53.9	-55.4	20.6	0.00e+00	0	46	0	270532608	60	23202
2026-01-29 20:52:52.32	44.61	14.48	-53.8	-55.6	20.0	0.00e+00	0	46	0	277872640	60	23574
2026-01-29 20:52:56.36	45.31	14.72	-53.5	-55.4	20.1	0.00e+00	0	46	0	286261248	60	22987
2026-01-29 20:53:00.38	46.01	14.95	-53.5	-55.3	20.6	0.00e+00	0	46	0	293601280	60	22847
2026-01-29 20:53:04.40	46.73	15.18	-53.6	-55.7	19.5	0.00e+00	0	46	0	300941312	60	23787
2026-01-29 20:53:08.42	47.46	15.41	-53.9	-55.6	20.4	0.00e+00	0	46	0	308281344	60	23717
2026-01-29 20:53:12.45	48.20	15.63	-53.7	-55.9	20.2	0.00e+00	0	46	0	315621376	60	24522
2026-01-29 20:53:16.48	48.95	15.86	-54.4	-56.2	19.6	0.00e+00	0	46	0	324009984	60	25393
2026-01-29 20:53:20.50	49.71	16.08	-53.3	-56.5	18.4	0.00e+00	0	46	0	331350016	60	26088
2026-01-29 20:53:24.52	50.48	16.30	-54.2	-56.8	18.5	0.00e+00	0	46	0	338690048	60	27079
2026-01-29 20:53:28.55	51.27	16.51	-54.7	-57.2	18.9	0.00e+00	0	46	0	346030080	60	28312
2026-01-29 20:53:32.57	52.06	16.73	-54.8	-57.6	18.5	0.00e+00	0	46	0	353370112	60	29697
2026-01-29 20:53:36.60	52.87	16.93	-49.6	-56.6	15.7	0.00e+00	0	46	0	361758720	60	26398
2026-01-29 20:53:40.63	53.68	17.14	-53.4	-57.1	17.7	0.00e+00	0	46	0	369098752	60	27983
2026-01-29 20:53:44.64	54.51	17.34	-55.0	-57.4	19.0	0.00e+00	0	46	0	376438784	60	29145
2026-01-29 20:53:48.66	55.34	17.54	-55.8	-57.8	18.6	0.00e+00	0	46	0	383778816	60	30433
2026-01-29 20:53:52.68	56.19	17.73	-55.4	-57.8	18.6	0.00e+00	0	46	0	391118848	60	30444
2026-01-29 20:53:56.70	57.05	17.92	-54.1	-58.1	17.5	0.00e+00	0	46	0	399507456	60	31322
2026-01-29 20:54:00.73	57.92	18.10	-54.6	-58.0	18.5	0.00e+00	0	46	0	406847488	60	31236
2026-01-29 20:54:04.75	58.80	18.28	-56.3	-58.3	18.8	0.00e+00	0	46	0	414187520	60	32133
2026-01-29 20:54:08.77	59.69	18.45	-55.3	-58.2	18.2	0.00e+00	0	46	0	421527552	60	31800
2026-01-29 20:54:12.78	60.58	18.62	-54.7	-58.3	17.7	0.00e+00	0	46	0	428867584	60	32036
2026-01-29 20:54:16.80	61.49	18.78	-56.5	-58.5	19.3	0.00e+00	0	46	0	437256192	60	33101
2026-01-29 20:54:20.83	62.41	18.94	-56.4	-58.2	19.5	0.00e+00	0	46	0	444596224	60	31945
2026-01-29 20:54:24.85	63.34	19.09	-55.2	-58.4	17.6	0.00e+00	0	46	0	451936256	60	32496
2026-01-29 20:54:28.88	64.27	19.23	-54.9	-57.7	19.2	0.00e+00	0	46	0	459276288	60	30076
2026-01-29 20:54:32.91	65.22	19.37	-55.5	-57.8	19.8	0.00e+00	0	46	0	466616320	60	30265
2026-01-29 20:54:36.94	66.17	19.50	-55.9	-57.8	19.7	0.00e+00	0	46	0	473956352	60	30300
2026-01-29 20:54:40.97	67.13	19.62	-55.8	-58.0	19.4	0.00e+00	0	46	0	482344960	60	31146
2026-01-29 20:54:44.99	68.10	19.73	-55.6	-57.4	20.5	0.00e+00	0	46	0	489684992	60	28966
2026-01-29 20:54:49.02	69.08	19.84	-55.9	-57.6	20.1	0.00e+00	0	46	0	497025024	60	29667
2026-01-29 20:54:53.05	70.06	19.94	-55.9	-57.6	20.0	0.00e+00	0	46	0	504365056	60	29584
2026-01-29 20:54:57.08	71.05	20.03	-56.3	-57.9	20.3	0.00e+00	0	46	0	511705088	60	30777
2026-01-29 20:55:01.10	72.04	20.12	-56.5	-58.6	18.8	0.00e+00	0	46	0	520093696	60	33426
2026-01-29 20:55:05.12	73.04	20.19	-57.0	-58.9	19.3	0.00e+00	0	46	0	527433728	60	34545
2026-01-29 20:55:09.16	74.04	20.26	-56.3	-58.0	19.8	0.00e+00	0	46	0	534773760	60	31255
2026-01-29 20:55:13.19	75.05	20.32	-56.5	-58.3	19.8	0.00e+00	0	46	0	542113792	60	32070
2026-01-29 20:55:17.22	76.06	20.36	-56.9	-58.8	19.4	0.00e+00	0	46	0	550502400	60	34180
2026-01-29 20:55:21.23	77.07	20.41	-57.2	-59.1	19.0	0.00e+00	0	46	0	557842432	60	35443
2026-01-29 20:55:25.26	78.09	20.44	-56.9	-59.2	18.7	0.00e+00	0	46	0	565182464	60	35905
2026-01-29 20:55:29.29	79.11	20.46	-56.8	-58.8	19.2	0.00e+00	0	46	0	572522496	60	34108
2026-01-29 20:55:33.32	80.13	20.47	-57.5	-59.6	19.2	0.00e+00	0	46	0	579862528	60	37480
2026-01-29 20:55:37.35	81.15	20.48	-56.7	-59.1	19.5	0.00e+00	0	46	0	587202560	60	35174
2026-01-29 20:55:41.37	82.17	20.48	-56.7	-58.6	19.9	0.00e+00	0	46	0	595591168	60	33174
2026-01-29 20:55:45.40	83.19	20.46	-56.8	-58.8	19.4	0.00e+00	0	46	0	602931200	60	33933
2026-01-29 20:55:49.43	84.21	20.44	-57.2	-59.1	19.5	0.00e+00	0	46	0	610271232	60	35254
2026-01-29 20:55:53.45	85.22	20.41	-57.5	-59.5	19.1	0.00e+00	0	46	0	617611264	60	36874
2026-01-29 20:55:57.48	86.24	20.37	-57.3	-59.4	18.9	0.00e+00	0	46	0	624951296	60	36676
2026-01-29 20:56:01.51	87.25	20.32	-56.7	-58.5	20.1	0.00e+00	0	46	0	633339904	60	32858
2026-01-29 20:56:05.54	88.26	20.26	-56.4	-58.0	20.3	0.00e+00	0	46	0	640679936	60	31130
2026-01-29 20:56:09.57	89.27	20.20	-56.6	-58.4	19.8	0.00e+00	0	46	0	648019968	60	32775
2026-01-29 20:56:13.60	90.27	20.12	-56.0	-57.8	20.0	0.00e+00	0	46	0	655360000	60	30480
2026-01-29 20:56:17.63	91.26	20.04	-55.8	-57.5	20.2	0.00e+00	0	46	0	663748608	60	29478
2026-01-29 20:56:21.66	92.25	19.95	-55.4	-57.3	20.2	0.00e+00	0	46	0	671088640	60	28801
2026-01-29 20:56:25.67	93.23	19.85	-55.8	-58.0	19.9	0.00e+00	0	46	0	678428672	60	31073
2026-01-29 20:56:29.70	94.21	19.75	-55.6	-57.4	20.3	0.00e+00	0	46	0	685768704	60	29186
2026-01-29 20:56:33.73	95.18	19.63	-54.8	-56.5	20.8	0.00e+00	0	46	0	693108736	60	26120
2026-01-29 20:56:37.75	96.15	19.51	-54.4	-55.8	21.9	0.00e+00	0	46	0	700448768	60	24199
2026-01-29 20:56:41.77	97.10	19.38	-54.7	-56.3	21.2	0.00e+00	0	46	0	708837376	60	25453
2026-01-29 20:56:45.80	98.05	19.25	-54.9	-56.3	21.5	0.00e+00	0	46	0	716177408	60	25641
2026-01-29 20:56:49.83	98.99	19.10	-54.8	-56.3	21.2	0.00e+00	0	46	0	723517440	60	25548
2026-01-29 20:56:53.86	99.92	18.95	-54.5	-55.9	21.8	0.00e+00	0	46	0	730857472	60	24313
2026-01-29 20:56:57.88	100.84	18.80	-53.8	-55.3	21.6	0.00e+00	0	46	0	738197504	60	22760
2026-01-29 20:57:01.91	101.76	18.64	-54.4	-55.8	21.7	0.00e+00	0	46	0	746586112	60	24167
2026-01-29 20:57:05.94	102.66	18.47	-54.9	-56.4	21.4	0.00e+00	0	46	0	753926144	60	25887
2026-01-29 20:57:09.96	103.55	18.29	-55.1	-56.5	21.0	0.00e+00	0	46	0	761266176	60	26305
2026-01-29 20:57:13.98	104.44	18.12	-55.2	-56.8	20.9	0.00e+00	0	46	0	768606208	60	26968
2026-01-29 20:57:18.01	105.31	17.93	-55.3	-56.8	20.7	0.00e+00	0	46	0	776994816	60	27196
2026-01-29 20:57:22.03	106.17	17.74	-55.7	-57.3	20.2	0.00e+00	0	46	0	784334848	60	28867
2026-01-29 20:57:26.05	107.02	17.55	-55.8	-57.7	20.0	0.00e+00	0	46	0	791674880	60	30006
2026-01-29 20:57:30.08	107.87	17.35	-55.7	-57.9	19.7	0.00e+00	0	46	0	799014912	60	30647
2026-01-29 20:57:34.11	108.70	17.15	-56.0	-57.9	19.5	0.00e+00	0	46	0	806354944	60	30826
2026-01-29 20:57:38.14	109.52	16.94	-55.7	-57.5	20.2	0.00e+00	0	46	0	813694976	60	29214
2026-01-29 20:57:42.16	110.33	16.73	-56.1	-57.9	19.6	0.00e+00	0	46	0	822083584	60	30670
2026-01-29 20:57:46.18	111.13	16.52	-56.2	-58.1	19.6	0.00e+00	0	46	0	829423616	60	31466
2026-01-29 20:57:50.20	111.91	16.30	-55.7	-57.4	20.1	0.00e+00	0	46	0	836763648	60	28910
2026-01-29 20:57:54.23	112.69	16.08	-55.2	-56.8	20.6	0.00e+00	0	46	0	844103680	60	27069
2026-01-29 20:57:58.25	113.45	15.86	-55.2	-56.8	20.6	0.00e+00	0	46	0	851443712	60	27108
2026-01-29 20:58:02.27	114.21	15.64	-55.4	-56.9	20.4	0.00e+00	0	46	0	859832320	60	27563
2026-01-29 20:58:06.28	114.95	15.41	-56.2	-58.1	19.2	0.00e+00	0	46	0	867172352	60	31350
2026-01-29 20:58:10.29	115.68	15.18	-55.5	-57.1	20.2	0.00e+00	0	46	0	874512384	60	28023
2026-01-29 20:58:14.32	116.40	14.95	-55.2	-56.7	20.3	0.00e+00	0	46	0	881852416	60	26912
2026-01-29 20:58:18.35	117.11	14.71	-55.3	-56.8	20.3	0.00e+00	0	46	0	889192448	60	27200
2026-01-29 20:58:22.38	117.81	14.48	-55.0	-56.4	20.7	0.00e+00	0	46	0	897581056	60	25944
2026-01-29 20:58:26.40	118.50	14.24	-55.4	-57.0	20.0	0.00e+00	0	46	0	904921088	60	27766
2026-01-29 20:58:30.42	119.18	14.00	-54.9	-56.4	20.7	0.00e+00	0	46	0	912261120	60	25798
2026-01-29 20:58:34.45	119.85	13.76	-55.1	-56.6	20.3	0.00e+00	0	46	0	919601152	60	26515
2026-01-29 20:58:38.48	120.51	13.52	-55.4	-57.0	20.0	0.00e+00	0	46	0	926941184	60	27771
2026-01-29 20:58:42.49	121.15	13.28	-54.7	-56.2	20.6	0.00e+00	0	46	0	935329792	60	25215
2026-01-29 20:58:46.52	121.79	13.04	-55.3	-56.9	20.1	0.00e+00	0	46	0	942669824	60	27513
2026-01-29 20:58:50.55	122.42	12.79	-55.6	-57.4	19.6	0.00e+00	0	46	0	950009856	60	28901
2026-01-29 20:58:54.57	123.03	12.55	-55.2	-56.8	20.0	0.00e+00	0	46	0	957349888	60	27184
2026-01-29 20:58:58.60	123.64	12.30	-55.6	-57.3	19.5	0.00e+00	0	46	0	964689920	60	28827
2026-01-29 20:59:02.63	124.24	12.06	-55.5	-57.2	19.5	0.00e+00	0	46	0	973078528	60	28413
2026-01-29 20:59:06.65	124.83	11.81	-55.1	-56.7	19.8	0.00e+00	0	46	0	980418560	60	26892
2026-01-29 20:59:10.68	125.41	11.57	-55.5	-57.3	19.4	0.00e+00	0	46	0	987758592	60	28574
2026-01-29 20:59:14.70	125.98	11.32	-55.8	-57.6	19.1	0.00e+00	0	46	0	995098624	60	29741
2026-01-29 20:59:18.73	126.54	11.08	-55.4	-57.1	19.6	0.00e+00	0	46	0	1002438656	60	28116
2026-01-29 20:59:22.77	127.09	10.83	-55.5	-57.3	19.3	0.00e+00	0	46	0	1010827264	60	28752
2026-01-29 20:59:26.79	127.63	10.58	-55.6	-57.5	19.1	0.00e+00	0	46	0	1018167296	60	29524
2026-01-29 20:59:30.82	128.17	10.34	-55.5	-57.4	19.2	0.00e+00	0	46	0	1025507328	60	29176
2026-01-29 20:59:34.85	128.69	10.09	-55.8	-57.8	18.8	0.00e+00	0	46	0	1032847360	60	30354
2026-01-29 20:59:38.88	129.21	9.85	-56.4	-58.5	18.2	0.00e+00	0	46	0	1040187392	60	32932
2026-01-29 20:59:42.90	129.72	9.61	-56.2	-58.3	18.3	0.00e+00	0	46	0	1048576000	60	32348
2026-01-29 20:59:46.93	130.22	9.36	-55.6	-57.6	19.0	0.00e+00	0	46	0	1055916032	60	29648
2026-01-29 20:59:50.96	130.71	9.12	-55.7	-57.8	18.5	0.00e+00	0	46	0	1063256064	60	30478
2026-01-29 20:59:54.99	131.20	8.87	-55.9	-58.1	18.1	0.00e+00	0	46	0	1070596096	60	31568
2026-01-29 20:59:59.01	131.68	8.63	-55.9	-58.1	18.1	0.00e+00	0	46	0	1077936128	60	31336
2026-01-29 21:00:03.02	132.14	8.39	-56.0	-58.3	17.7	0.00e+00	0	46	0	1086324736	60	32375
2026-01-29 21:00:07.05	132.61	8.15	-56.3	-58.7	17.3	0.00e+00	0	46	0	1093664768	60	33924
2026-01-29 21:00:11.07	133.06	7.91	-55.9	-58.4	17.5	0.00e+00	0	46	0	1101004800	60	32627
2026-01-29 21:00:15.10	133.51	7.67	-55.6	-58.3	16.5	0.00e+00	0	46	0	1108344832	60	32185
2026-01-29 21:00:19.12	133.95	7.44	-55.9	-58.6	16.8	0.00e+00	0	46	0	1115684864	60	33213
2026-01-29 21:00:23.15	134.39	7.20	-56.4	-59.1	16.6	0.00e+00	0	46	0	1124073472	60	35316
2026-01-29 21:00:27.18	134.81	6.96	-56.6	-59.5	16.1	0.00e+00	0	46	0	1131413504	60	37070
2026-01-29 21:00:31.21	135.23	6.73	-56.5	-59.6	16.0	0.00e+00	0	46	0	1138753536	60	37216
2026-01-29 21:00:35.23	135.65	6.49	-56.8	-60.0	15.5	0.00e+00	0	46	0	1146093568	60	39308
2026-01-29 21:00:39.24	136.06	6.26	-56.7	-60.0	15.6	0.00e+00	0	46	0	1153433600	60	39065
2026-01-29 21:00:43.28	136.46	6.02	-56.8	-60.2	15.3	0.00e+00	0	46	0	1160773632	60	40220
2026-01-29 21:00:47.31	136.86	5.79	-61.5	-77.9	3.6	1.51e+00	0	46	104	1162870784	60	306461
2026-01-29 21:00:51.32	137.24	5.56	-62.1	-78.4	3.6	1.51e+00	0	46	104	1162870784	60	325866
2026-01-29 21:00:55.33	137.63	5.33	-62.4	-78.7	3.6	1.51e+00	0	46	104	1162870784	60	338790
2026-01-29 21:00:59.36	138.01	5.10	-62.9	-79.1	3.6	1.51e+00	0	46	104	1162870784	60	354703
2026-01-29 21:01:03.39	138.38	4.87	-63.2	-79.5	3.6	1.51e+00	0	46	104	1162870784	60	368572
2026-01-29 21:01:07.41	138.75	4.65	-63.5	-79.8	3.6	1.51e+00	0	46	104	1162870784	60	384791
2026-01-29 21:01:11.43	139.11	4.42	-63.3	-79.8	3.6	1.51e+00	0	46	104	1162870784	60	382705
2026-01-29 21:01:15.46	139.46	4.20	-62.5	-79.6	3.6	1.51e+00	0	46	104	1162870784	60	373167
2026-01-29 21:01:19.50	139.82	3.97	-63.3	-79.9	3.6	1.51e+00	0	46	104	1162870784	60	387183
2026-01-29 21:01:23.53	140.16	3.75	-63.2	-79.8	3.6	1.51e+00	0	46	104	1162870784	60	383425
2026-01-29 21:01:27.55	140.50	3.53	-63.1	-79.7	3.6	1.51e+00	0	46	104	1162870784	60	380432
2026-01-29 21:01:31.58	140.84	3.30	-63.0	-79.6	3.6	1.51e+00	0	46	104	1162870784	60	375428
2026-01-29 21:01:35.61	141.17	3.08	-63.0	-79.7	3.6	1.51e+00	0	46	104	1162870784	60	377384
2026-01-29 21:01:39.63	141.50	2.86	-63.0	-79.7	3.6	1.51e+00	0	46	104	1162870784	60	376639
2026-01-29 21:01:43.65	141.82	2.65	-63.0	-79.6	3.6	1.51e+00	0	46	104	1162870784	60	375023
2026-01-29 21:01:47.69	142.14	2.43	-63.0	-79.6	3.6	1.51e+00	0	46	104	1162870784	60	375772
2026-01-29 21:01:51.72	142.46	2.21	-63.0	-79.6	3.6	1.51e+00	0	46	104	1162870784	60	374118
2026-01-29 21:01:55.75	142.77	2.00	-63.1	-79.6	3.6	1.51e+00	0	46	104	1162870784	60	376307
2026-01-29 21:01:59.77	143.07	1.78	-63.1	-79.7	3.6	1.51e+00	0	46	104	1162870784	60	378091
2026-01-29 21:02:03.80	143.37	1.57	-63.1	-79.7	3.6	1.51e+00	0	46	104	1162870784	60	377978
2026-01-29 21:02:07.83	143.67	1.36	-63.1	-79.6	3.6	1.51e+00	0	46	104	1162870784	60	375869
2026-01-29 21:02:11.86	143.96	1.15	-63.1	-79.7	3.6	1.51e+00	0	46	104	1162870784	60	376385
2026-01-29 21:02:15.89	144.25	0.93	-63.1	-79.7	3.6	1.51e+00	0	46	104	1162870784	60	378812
2026-01-29 21:02:19.92	144.54	0.72	-63.1	-79.7	3.6	1.51e+00	0	46	104	1162870784	60	377699
2026-01-29 21:02:23.95	144.82	0.52	-63.1	-79.7	3.6	1.51e+00	0	46	104	1162870784	60	376906
2026-01-29 21:02:27.98	145.10	0.31	-63.1	-79.6	3.6	1.51e+00	0	46	104	1162870784	60	374980
2026-01-29 21:02:32.01	145.37	0.10	-63.1	-79.6	3.6	1.51e+00	0	46	104	1162870784	60	375445

#Closed at: 2026-01-29 21:02:34
#Recorded file [1162 MB]: D:/Data/35015_260130_000043.dat