passes_logs/2026/01/29/R3.2S-Naryan-Mar/R3.2S-Naryan-Mar__20260129_075435_NOAA_21_JPSS-2_rec.log

#Pass ID: 20260129_075435_NOAA 21 (JPSS-2)
#Satellite: NOAA 21 (JPSS-2)
#Configuration: NOAA-21
#almurnet v.1.7.20240730
#Start time: 2026-01-29 07:54:37

#Version: 2.2.20231116
#Station: R3.2S-Naryan-Mar
#Location: 53.008057 lon 67.646978 lat
#TLE: 1 54234U 22150A   26027.91149249  .00000141  00000+0  87546-4 0  9993
#TLE: 2 54234  98.7510 328.6558 0000880 202.8718 157.2419 14.19540177166642

#Time	Az	El	Level	Level2	SNR	BER	BlckErr	Temp	State	Recorded	gain1	gain2
2026-01-29 07:54:37.66	143.99	0.15	-60.7	-74.2	3.3	1.54e+00	0	44	0	0	60	196224
2026-01-29 07:54:41.69	143.96	0.39	-62.5	-76.9	3.5	1.52e+00	0	44	104	0	60	266098
2026-01-29 07:54:45.72	143.94	0.64	-62.7	-76.8	3.5	1.52e+00	0	45	104	0	60	263122
2026-01-29 07:54:49.75	143.91	0.88	-61.5	-75.6	3.5	1.52e+00	0	45	104	0	60	228537
2026-01-29 07:54:53.78	143.88	1.13	-58.8	-73.7	3.5	1.52e+00	0	45	104	0	60	184983
2026-01-29 07:54:57.82	143.85	1.39	-58.7	-73.5	3.5	1.51e+00	0	45	104	0	60	180385
2026-01-29 07:55:01.85	143.82	1.64	-58.7	-73.5	3.5	1.51e+00	0	45	104	0	60	179362
2026-01-29 07:55:05.88	143.79	1.90	-58.7	-73.6	3.5	1.51e+00	0	45	104	0	60	181624
2026-01-29 07:55:09.91	143.76	2.16	-58.6	-73.5	3.5	1.52e+00	0	45	104	0	60	180816
2026-01-29 07:55:13.93	143.72	2.42	-58.6	-73.4	3.5	1.52e+00	0	45	104	0	60	178396
2026-01-29 07:55:17.97	143.69	2.68	-58.6	-73.4	3.5	1.52e+00	0	45	104	0	60	177176
2026-01-29 07:55:22.00	143.66	2.95	-58.6	-73.4	3.5	1.51e+00	0	45	104	0	60	178008
2026-01-29 07:55:26.01	143.62	3.21	-58.6	-73.4	3.5	1.52e+00	0	45	104	0	60	177333
2026-01-29 07:55:30.03	143.59	3.48	-58.6	-73.2	3.5	1.51e+00	0	45	104	0	60	174702
2026-01-29 07:55:34.06	143.55	3.76	-58.5	-73.2	3.5	1.52e+00	0	45	104	0	60	174854
2026-01-29 07:55:38.09	143.51	4.03	-58.5	-72.7	3.5	1.51e+00	0	45	104	0	60	164671
2026-01-29 07:55:42.12	143.47	4.31	-58.5	-72.4	3.5	1.51e+00	0	45	104	0	60	158274
2026-01-29 07:55:46.15	143.44	4.59	-58.3	-70.6	3.9	1.45e+00	0	45	104	0	60	128739
2026-01-29 07:55:50.18	143.39	4.88	-57.0	-62.3	10.0	1.61e-02	0	45	0	5242880	60	49313
2026-01-29 07:55:54.22	143.35	5.17	-54.7	-57.7	14.9	7.00e-07	0	45	0	17825792	60	29027
2026-01-29 07:55:58.24	143.31	5.46	-53.3	-55.6	17.0	0.00e+00	0	45	0	30408704	60	22810
2026-01-29 07:56:02.28	143.27	5.75	-53.7	-56.2	16.4	0.00e+00	0	45	0	42991616	60	24473
2026-01-29 07:56:06.31	143.22	6.05	-55.6	-59.3	13.2	9.10e-06	0	45	0	55574528	60	35048
2026-01-29 07:56:10.33	143.18	6.35	-58.1	-66.1	7.6	9.36e-01	0	45	104	62914560	60	76608
2026-01-29 07:56:14.35	143.13	6.66	-54.4	-56.9	15.6	0.00e+00	0	45	0	10485760	60	26756
2026-01-29 07:56:18.37	143.08	6.96	-52.6	-54.8	17.2	0.00e+00	0	45	0	23068672	60	20987
2026-01-29 07:56:22.39	143.03	7.28	-52.1	-54.3	17.7	0.00e+00	0	45	0	35651584	60	19837
2026-01-29 07:56:26.41	142.98	7.59	-52.0	-54.2	18.0	0.00e+00	0	45	0	48234496	60	19611
2026-01-29 07:56:30.44	142.93	7.91	-51.9	-54.1	18.2	0.00e+00	0	45	0	60817408	60	19303
2026-01-29 07:56:34.46	142.87	8.23	-51.7	-53.8	18.5	0.00e+00	0	46	0	73400320	60	18731
2026-01-29 07:56:38.48	142.82	8.56	-51.8	-53.9	18.5	0.00e+00	0	45	0	85983232	60	18831
2026-01-29 07:56:42.51	142.76	8.89	-51.7	-53.6	18.8	0.00e+00	0	45	0	98566144	60	18197
2026-01-29 07:56:46.53	142.70	9.23	-51.7	-53.4	19.1	0.00e+00	0	45	0	111149056	60	17887
2026-01-29 07:56:50.56	142.64	9.57	-51.6	-53.2	19.6	0.00e+00	0	45	0	123731968	60	17355
2026-01-29 07:56:54.58	142.58	9.92	-51.5	-53.1	19.7	0.00e+00	0	46	0	136314880	60	17107
2026-01-29 07:56:58.60	142.51	10.27	-51.3	-52.8	19.7	0.00e+00	0	46	0	148897792	60	16688
2026-01-29 07:57:02.63	142.45	10.62	-51.2	-52.7	19.7	0.00e+00	0	46	0	161480704	60	16511
2026-01-29 07:57:06.65	142.38	10.98	-51.2	-52.7	19.8	0.00e+00	0	46	0	174063616	60	16467
2026-01-29 07:57:10.69	142.31	11.35	-51.2	-52.7	19.9	0.00e+00	0	46	0	186646528	60	16408
2026-01-29 07:57:14.72	142.24	11.72	-51.1	-52.5	20.2	0.00e+00	0	46	0	199229440	60	16091
2026-01-29 07:57:18.75	142.16	12.10	-51.1	-52.5	20.2	0.00e+00	0	46	0	211812352	60	16025
2026-01-29 07:57:22.78	142.09	12.48	-50.9	-52.3	20.4	0.00e+00	0	46	0	224395264	60	15655
2026-01-29 07:57:26.81	142.01	12.87	-50.8	-52.2	20.4	0.00e+00	0	46	0	236978176	60	15457
2026-01-29 07:57:30.85	141.92	13.27	-50.7	-52.1	20.5	0.00e+00	0	46	0	249561088	60	15300
2026-01-29 07:57:34.88	141.84	13.67	-50.7	-52.0	20.6	0.00e+00	0	46	0	262144000	60	15227
2026-01-29 07:57:38.92	141.75	14.08	-50.7	-52.0	20.6	0.00e+00	0	46	0	274726912	60	15225
2026-01-29 07:57:42.95	141.66	14.50	-50.7	-52.1	20.6	0.00e+00	0	46	0	287309824	60	15318
2026-01-29 07:57:46.98	141.57	14.92	-50.6	-52.1	20.7	0.00e+00	0	46	0	299892736	60	15258
2026-01-29 07:57:51.01	141.47	15.35	-50.6	-52.0	20.7	0.00e+00	0	46	0	312475648	60	15163
2026-01-29 07:57:55.03	141.38	15.79	-50.5	-51.9	20.8	0.00e+00	0	46	0	325058560	60	14997
2026-01-29 07:57:59.07	141.27	16.24	-50.5	-51.9	20.8	0.00e+00	0	46	0	337641472	60	14906
2026-01-29 07:58:03.09	141.17	16.69	-50.6	-51.9	20.8	0.00e+00	0	45	0	350224384	60	14978
2026-01-29 07:58:07.12	141.06	17.15	-50.6	-52.0	20.8	0.00e+00	0	46	0	362807296	60	15128
2026-01-29 07:58:11.14	140.95	17.62	-50.7	-52.1	20.8	0.00e+00	0	46	0	375390208	60	15259
2026-01-29 07:58:15.16	140.83	18.10	-50.6	-51.9	20.8	0.00e+00	0	46	0	387973120	60	15043
2026-01-29 07:58:19.19	140.71	18.59	-50.6	-52.0	20.8	0.00e+00	0	46	0	400556032	60	15128
2026-01-29 07:58:23.23	140.58	19.09	-50.5	-51.9	20.8	0.00e+00	0	46	0	413138944	60	14991
2026-01-29 07:58:27.26	140.45	19.60	-50.5	-51.9	20.6	0.00e+00	0	46	0	425721856	60	14889
2026-01-29 07:58:31.29	140.31	20.12	-50.5	-51.9	20.8	0.00e+00	0	46	0	438304768	60	14903
2026-01-29 07:58:35.32	140.17	20.66	-50.2	-51.5	21.0	0.00e+00	0	46	0	450887680	60	14379
2026-01-29 07:58:39.36	140.03	21.20	-50.0	-51.3	21.3	0.00e+00	0	46	0	463470592	60	13958
2026-01-29 07:58:43.39	139.87	21.75	-49.7	-51.0	21.6	0.00e+00	0	46	0	476053504	60	13519
2026-01-29 07:58:47.41	139.72	22.32	-49.5	-50.8	21.8	0.00e+00	0	46	0	488636416	60	13159
2026-01-29 07:58:51.45	139.55	22.90	-49.3	-50.6	22.1	0.00e+00	0	46	0	501219328	60	12853
2026-01-29 07:58:55.48	139.38	23.49	-49.2	-50.5	22.2	0.00e+00	0	46	0	513802240	60	12702
2026-01-29 07:58:59.51	139.20	24.10	-49.2	-50.4	22.2	0.00e+00	0	46	0	526385152	60	12647
2026-01-29 07:59:03.54	139.02	24.72	-49.3	-50.5	22.2	0.00e+00	0	46	0	538968064	60	12799
2026-01-29 07:59:07.57	138.82	25.35	-49.7	-50.9	21.9	0.00e+00	0	46	0	551550976	60	13367
2026-01-29 07:59:11.59	138.62	26.00	-50.0	-51.2	21.7	0.00e+00	0	46	0	564133888	60	13877
2026-01-29 07:59:15.62	138.41	26.66	-50.3	-51.6	21.4	0.00e+00	0	46	0	576716800	60	14394
2026-01-29 07:59:19.65	138.19	27.34	-50.4	-51.7	21.4	0.00e+00	0	46	0	589299712	60	14630
2026-01-29 07:59:23.67	137.95	28.04	-50.5	-51.8	21.3	0.00e+00	0	46	0	601882624	60	14755
2026-01-29 07:59:27.71	137.71	28.76	-50.3	-51.6	21.5	0.00e+00	0	46	0	614465536	60	14419
2026-01-29 07:59:31.73	137.46	29.49	-50.2	-51.5	21.5	0.00e+00	0	46	0	627048448	60	14278
2026-01-29 07:59:35.76	137.19	30.24	-50.2	-51.5	21.5	0.00e+00	0	46	0	639631360	60	14251
2026-01-29 07:59:39.79	136.91	31.01	-50.0	-51.3	21.6	0.00e+00	0	46	0	652214272	60	13903
2026-01-29 07:59:43.82	136.61	31.80	-49.8	-51.1	21.8	0.00e+00	0	46	0	664797184	60	13636
2026-01-29 07:59:47.85	136.30	32.61	-50.2	-51.5	21.4	0.00e+00	0	46	0	677380096	60	14305
2026-01-29 07:59:51.89	135.97	33.45	-50.6	-51.9	21.0	0.00e+00	0	46	0	691011584	60	15049
2026-01-29 07:59:55.92	135.63	34.30	-51.0	-52.4	20.8	0.00e+00	0	46	0	702545920	60	15797
2026-01-29 07:59:59.95	135.26	35.18	-51.5	-52.9	20.5	0.00e+00	0	46	0	715128832	60	16719
2026-01-29 08:00:03.98	134.87	36.08	-52.1	-53.6	19.7	0.00e+00	0	46	0	728760320	60	18279
2026-01-29 08:00:08.01	134.46	37.01	-52.2	-53.7	19.7	0.00e+00	0	46	0	741343232	60	18481
2026-01-29 08:00:12.03	134.03	37.96	-52.4	-53.9	19.6	0.00e+00	0	46	0	752877568	60	18940
2026-01-29 08:00:16.06	133.57	38.93	-52.8	-54.5	19.0	0.00e+00	0	46	0	765460480	60	20086
2026-01-29 08:00:20.09	133.08	39.93	-52.8	-54.5	19.1	0.00e+00	0	46	0	779091968	60	20170
2026-01-29 08:00:24.12	132.55	40.96	-53.1	-54.7	18.9	0.00e+00	0	46	0	790626304	60	20694
2026-01-29 08:00:28.15	131.99	42.02	-53.5	-55.3	18.6	0.00e+00	0	46	0	803209216	60	22068
2026-01-29 08:00:32.17	131.39	43.10	-54.2	-56.1	17.6	0.00e+00	0	46	0	815792128	60	24310
2026-01-29 08:00:36.19	130.75	44.21	-54.5	-56.3	17.6	0.00e+00	0	46	0	829423616	60	24955
2026-01-29 08:00:40.22	130.06	45.35	-54.6	-56.5	17.5	0.00e+00	0	46	0	840957952	60	25536
2026-01-29 08:00:44.25	129.32	46.52	-52.7	-54.2	19.4	0.00e+00	0	46	0	853540864	60	19493
2026-01-29 08:00:48.28	128.52	47.71	-52.5	-54.0	19.8	0.00e+00	0	46	0	867172352	60	19083
2026-01-29 08:00:52.32	127.65	48.93	-52.5	-54.1	19.7	0.00e+00	0	46	0	879755264	60	19276
2026-01-29 08:00:56.34	126.70	50.18	-52.9	-54.5	19.3	0.00e+00	0	46	0	891289600	60	20263
2026-01-29 08:01:00.37	125.68	51.45	-52.0	-53.6	20.0	0.00e+00	0	46	0	903872512	60	18244
2026-01-29 08:01:04.39	124.56	52.75	-51.6	-53.3	20.3	0.00e+00	0	46	0	917504000	60	17496
2026-01-29 08:01:08.43	123.34	54.07	-51.0	-52.6	20.1	0.00e+00	0	46	0	930086912	60	16154
2026-01-29 08:01:12.46	121.99	55.41	-50.8	-52.4	20.3	0.00e+00	0	46	0	941621248	60	15784
2026-01-29 08:01:16.49	120.51	56.77	-50.9	-52.5	20.4	0.00e+00	0	46	0	955252736	60	16025
2026-01-29 08:01:20.53	118.87	58.14	-50.9	-52.6	20.7	0.00e+00	0	46	0	967835648	60	16136
2026-01-29 08:01:24.56	117.06	59.52	-50.1	-51.6	21.7	0.00e+00	0	46	0	980418560	60	14432
2026-01-29 08:01:28.59	115.04	60.89	-50.3	-51.7	21.7	0.00e+00	0	46	0	993001472	60	14644
2026-01-29 08:01:32.62	112.79	62.27	-49.9	-51.3	21.9	0.00e+00	0	46	0	1005584384	60	13928
2026-01-29 08:01:36.65	110.27	63.62	-49.4	-50.7	22.1	0.00e+00	0	46	0	1018167296	60	13048
2026-01-29 08:01:40.69	107.43	64.95	-49.6	-51.0	22.0	0.00e+00	0	46	0	1030750208	60	13561
2026-01-29 08:01:44.71	104.26	66.24	-50.0	-51.6	21.2	0.00e+00	0	46	0	1043333120	60	14381
2026-01-29 08:01:48.74	100.68	67.47	-49.7	-51.2	21.0	0.00e+00	0	46	0	1055916032	60	13867
2026-01-29 08:01:52.76	96.68	68.63	-49.7	-51.1	21.6	0.00e+00	0	46	0	1068498944	60	13673
2026-01-29 08:01:56.79	92.19	69.69	-50.5	-52.1	20.7	0.00e+00	0	46	0	1081081856	60	15289
2026-01-29 08:02:00.80	87.21	70.63	-50.6	-52.3	21.0	0.00e+00	0	46	0	1093664768	60	15681
2026-01-29 08:02:04.83	81.72	71.43	-49.9	-51.3	22.1	0.00e+00	0	46	0	1106247680	60	13893
2026-01-29 08:02:08.86	75.75	72.06	-49.8	-51.1	22.5	0.00e+00	0	46	0	1118830592	60	13617
2026-01-29 08:02:12.89	69.40	72.49	-50.0	-51.4	21.8	0.00e+00	0	46	0	1131413504	60	14068
2026-01-29 08:02:16.92	62.80	72.71	-50.5	-52.0	21.3	0.00e+00	0	46	0	1143996416	60	15074
2026-01-29 08:02:20.95	56.11	72.70	-49.7	-51.2	22.1	0.00e+00	0	46	0	1156579328	60	13738
2026-01-29 08:02:24.99	49.51	72.47	-49.8	-51.2	22.0	0.00e+00	0	46	0	1169162240	60	13857
2026-01-29 08:02:29.02	43.17	72.03	-49.8	-51.2	21.8	0.00e+00	0	46	0	1181745152	60	13789
2026-01-29 08:02:33.05	37.23	71.40	-50.0	-51.2	22.3	0.00e+00	0	46	0	1194328064	60	13766
2026-01-29 08:02:37.08	31.76	70.59	-49.9	-51.2	22.4	0.00e+00	0	46	0	1206910976	60	13740
2026-01-29 08:02:41.11	26.79	69.65	-49.7	-51.1	22.6	0.00e+00	0	46	0	1219493888	60	13581
2026-01-29 08:02:45.14	22.32	68.58	-49.6	-51.1	22.2	0.00e+00	0	46	0	1232076800	60	13610
2026-01-29 08:02:49.17	18.33	67.42	-50.1	-51.4	22.3	0.00e+00	0	46	0	1244659712	60	14061
2026-01-29 08:02:53.20	14.78	66.18	-51.4	-52.7	21.4	0.00e+00	0	46	0	1257242624	60	16420
2026-01-29 08:02:57.22	11.63	64.90	-50.0	-51.2	22.8	0.00e+00	0	46	0	1269825536	60	13805
2026-01-29 08:03:01.24	8.82	63.57	-51.5	-52.9	21.4	0.00e+00	0	46	0	1282408448	60	16722
2026-01-29 08:03:05.27	6.32	62.22	-50.4	-51.6	22.4	0.00e+00	0	46	0	1294991360	60	14485
2026-01-29 08:03:09.30	4.08	60.85	-50.8	-52.1	21.3	0.00e+00	0	46	0	1307574272	60	15408
2026-01-29 08:03:13.33	2.07	59.47	-50.4	-51.7	22.1	0.00e+00	0	46	0	1320157184	60	14665
2026-01-29 08:03:17.36	0.27	58.10	-51.4	-52.7	21.1	0.00e+00	0	46	0	1332740096	60	16401
2026-01-29 08:03:21.38	358.64	56.74	-51.7	-53.0	21.0	0.00e+00	0	46	0	1345323008	60	17073
2026-01-29 08:03:25.41	357.17	55.39	-52.8	-54.3	19.8	0.00e+00	0	46	0	1357905920	60	19721
2026-01-29 08:03:29.43	355.84	54.06	-51.7	-53.0	21.4	0.00e+00	0	46	0	1370488832	60	16991
2026-01-29 08:03:33.46	354.62	52.74	-53.1	-54.6	19.9	0.00e+00	0	46	0	1383071744	60	20504
2026-01-29 08:03:37.49	353.50	51.44	-52.4	-53.8	20.4	0.00e+00	0	46	0	1395654656	60	18653
2026-01-29 08:03:41.52	352.48	50.17	-53.9	-55.5	19.2	0.00e+00	0	46	0	1408237568	60	22707
2026-01-29 08:03:45.56	351.54	48.93	-54.3	-56.0	18.4	0.00e+00	0	46	0	1420820480	60	24058
2026-01-29 08:03:49.58	350.68	47.71	-53.5	-55.0	19.7	0.00e+00	0	46	0	1433403392	60	21302
2026-01-29 08:03:53.61	349.88	46.52	-52.6	-54.0	20.7	0.00e+00	0	46	0	1445986304	60	18970
2026-01-29 08:03:57.63	349.14	45.36	-54.7	-56.5	18.1	0.00e+00	0	46	0	1458569216	60	25374
2026-01-29 08:04:01.65	348.46	44.23	-53.4	-54.9	19.2	0.00e+00	0	46	0	1471152128	60	21229
2026-01-29 08:04:05.67	347.82	43.12	-53.8	-55.3	19.5	0.00e+00	0	46	0	1483735040	60	22202
2026-01-29 08:04:09.69	347.22	42.05	-53.7	-55.2	19.6	0.00e+00	0	46	0	1496317952	60	21982
2026-01-29 08:04:13.71	346.66	41.00	-54.1	-55.9	18.8	0.00e+00	0	46	0	1508900864	60	23750
2026-01-29 08:04:17.74	346.14	39.97	-53.6	-55.3	18.8	0.00e+00	0	46	0	1521483776	60	22045
2026-01-29 08:04:21.77	345.65	38.97	-53.2	-54.9	19.1	0.00e+00	0	46	0	1534066688	60	21035
2026-01-29 08:04:25.81	345.19	38.00	-53.6	-55.2	19.2	0.00e+00	0	46	0	1546649600	60	21971
2026-01-29 08:04:29.84	344.76	37.05	-52.5	-53.9	20.6	0.00e+00	0	46	0	1559232512	60	18823
2026-01-29 08:04:33.87	344.35	36.13	-52.2	-53.6	20.6	0.00e+00	0	46	0	1571815424	60	18300
2026-01-29 08:04:37.90	343.97	35.23	-52.8	-54.3	20.0	0.00e+00	0	46	0	1584398336	60	19772
2026-01-29 08:04:41.94	343.60	34.35	-52.5	-53.9	20.5	0.00e+00	0	46	0	1596981248	60	18944
2026-01-29 08:04:45.96	343.26	33.50	-52.5	-53.9	20.3	0.00e+00	0	46	0	1609564160	60	18868
2026-01-29 08:04:49.99	342.93	32.67	-52.5	-54.0	19.8	0.00e+00	0	46	0	1622147072	60	19021
2026-01-29 08:04:54.02	342.62	31.86	-52.2	-54.0	18.6	0.00e+00	0	46	0	1634729984	60	19090
2026-01-29 08:04:58.05	342.33	31.07	-51.7	-53.3	19.7	0.00e+00	0	46	0	1647312896	60	17624
2026-01-29 08:05:02.08	342.05	30.30	-50.9	-52.3	21.5	0.00e+00	0	46	0	1659895808	60	15639
2026-01-29 08:05:06.11	341.78	29.56	-50.3	-51.6	22.1	0.00e+00	0	46	0	1672478720	60	14465
2026-01-29 08:05:10.15	341.53	28.82	-50.4	-51.7	21.5	0.00e+00	0	46	0	1685061632	60	14619
2026-01-29 08:05:14.18	341.29	28.11	-51.0	-52.2	21.6	0.00e+00	0	46	0	1697644544	60	15576
2026-01-29 08:05:18.21	341.06	27.41	-51.2	-52.5	21.7	0.00e+00	0	46	0	1710227456	60	15979
2026-01-29 08:05:22.24	340.84	26.74	-51.0	-52.2	21.5	0.00e+00	0	46	0	1722810368	60	15539
2026-01-29 08:05:26.27	340.63	26.07	-50.9	-52.1	21.5	0.00e+00	0	46	0	1735393280	60	15407
2026-01-29 08:05:30.30	340.43	25.43	-51.1	-52.3	21.4	0.00e+00	0	46	0	1747976192	60	15766
2026-01-29 08:05:34.33	340.24	24.79	-51.2	-52.5	21.2	0.00e+00	0	46	0	1760559104	60	16109
2026-01-29 08:05:38.37	340.05	24.18	-51.3	-52.7	20.6	0.00e+00	0	46	0	1773142016	60	16448
2026-01-29 08:05:42.40	339.87	23.57	-51.2	-52.6	20.6	0.00e+00	0	46	0	1785724928	60	16313
2026-01-29 08:05:46.42	339.71	22.98	-51.0	-52.4	21.0	0.00e+00	0	46	0	1798307840	60	15940
2026-01-29 08:05:50.45	339.54	22.41	-50.4	-52.0	21.2	0.00e+00	0	46	0	1810890752	60	15162
2026-01-29 08:05:54.48	339.39	21.84	-50.3	-51.7	21.6	0.00e+00	0	46	0	1823473664	60	14623
2026-01-29 08:05:58.51	339.24	21.29	-50.3	-51.5	21.6	0.00e+00	0	46	0	1836056576	60	14374
2026-01-29 08:06:02.53	339.09	20.75	-50.2	-51.5	21.7	0.00e+00	0	46	0	1848639488	60	14271
2026-01-29 08:06:06.57	338.95	20.22	-50.1	-51.5	21.5	0.00e+00	0	46	0	1861222400	60	14246
2026-01-29 08:06:10.59	338.82	19.70	-50.1	-51.6	21.4	0.00e+00	0	46	0	1873805312	60	14473
2026-01-29 08:06:14.62	338.69	19.19	-50.4	-51.7	21.7	0.00e+00	0	46	0	1886388224	60	14623
2026-01-29 08:06:18.63	338.57	18.70	-50.6	-51.9	21.4	0.00e+00	0	46	0	1898971136	60	14923
2026-01-29 08:06:22.67	338.45	18.21	-50.7	-52.1	21.2	0.00e+00	0	46	0	1911554048	60	15259
2026-01-29 08:06:26.70	338.33	17.73	-50.7	-52.3	20.4	0.00e+00	0	46	0	1924136960	60	15599
2026-01-29 08:06:30.72	338.22	17.26	-50.8	-52.7	19.3	0.00e+00	0	46	0	1936719872	60	16439
2026-01-29 08:06:34.75	338.11	16.80	-51.1	-53.2	18.8	0.00e+00	0	46	0	1949302784	60	17462
2026-01-29 08:06:38.78	338.01	16.34	-51.8	-53.7	18.8	0.00e+00	0	46	0	1961885696	60	18519
2026-01-29 08:06:42.81	337.91	15.90	-52.5	-54.5	18.3	0.00e+00	0	46	0	1974468608	60	20157
2026-01-29 08:06:46.84	337.81	15.46	-53.0	-55.1	17.4	0.00e+00	0	46	0	1987051520	60	21582
2026-01-29 08:06:50.87	337.72	15.03	-53.6	-55.8	16.1	0.00e+00	0	46	0	1999634432	60	23528
2026-01-29 08:06:54.91	337.63	14.61	-53.7	-56.4	15.1	0.00e+00	0	46	0	2012217344	60	25002
2026-01-29 08:06:58.94	337.54	14.19	-54.1	-57.0	14.5	0.00e+00	0	46	0	2024800256	60	26799
2026-01-29 08:07:02.96	337.46	13.78	-54.6	-57.8	13.9	1.50e-06	0	46	0	2037383168	60	29514
2026-01-29 08:07:06.99	337.38	13.38	-54.7	-58.6	12.9	3.58e-05	0	46	0	2049966080	60	32249
2026-01-29 08:07:11.02	337.30	12.99	-55.0	-59.3	12.2	1.85e-04	0	46	0	2062548992	60	34902
2026-01-29 08:07:15.05	337.22	12.60	-55.7	-60.2	11.3	9.52e-04	0	46	0	2075131904	60	38871
2026-01-29 08:07:19.08	337.14	12.22	-56.2	-61.2	10.2	4.81e-03	0	46	0	2087714816	60	43452
2026-01-29 08:07:23.10	337.07	11.84	-56.2	-62.2	8.9	2.67e-02	0	46	0	2100297728	60	48851
2026-01-29 08:07:27.14	337.00	11.47	-56.7	-63.3	7.7	7.77e-02	0	46	0	2112880640	60	55833
2026-01-29 08:07:31.17	336.94	11.10	-57.4	-64.3	6.2	2.35e-01	0	46	0	2125463552	60	62766
2026-01-29 08:07:35.20	336.87	10.74	-57.0	-71.5	3.5	1.51e+00	0	46	104	2132803584	60	143117
2026-01-29 08:07:39.23	336.81	10.39	-52.1	-67.5	3.6	1.49e+00	0	46	104	2132803584	60	89844
2026-01-29 08:07:43.26	336.74	10.04	-53.6	-70.6	3.6	1.51e+00	0	46	104	2132803584	60	129300
2026-01-29 08:07:47.29	336.68	9.69	-51.9	-68.0	3.7	1.51e+00	0	46	104	2132803584	60	95305
2026-01-29 08:07:51.32	336.63	9.35	-51.1	-67.9	4.0	1.51e+00	0	46	104	2132803584	60	94620
2026-01-29 08:07:55.34	336.57	9.01	-51.9	-69.2	3.7	1.51e+00	0	46	104	2132803584	60	109946
2026-01-29 08:07:59.38	336.52	8.68	-52.3	-69.8	3.7	1.51e+00	0	46	104	2132803584	60	117772
2026-01-29 08:08:03.40	336.46	8.36	-53.2	-71.0	3.7	1.51e+00	0	46	104	2132803584	60	135454
2026-01-29 08:08:07.42	336.41	8.03	-56.2	-71.0	3.6	1.51e+00	0	46	104	2132803584	60	135388
2026-01-29 08:08:11.45	336.36	7.71	-55.0	-70.3	3.6	1.51e+00	0	46	104	2132803584	60	124582
2026-01-29 08:08:15.48	336.31	7.40	-55.2	-70.8	3.7	1.51e+00	0	46	104	2132803584	60	131664
2026-01-29 08:08:19.51	336.27	7.09	-54.0	-70.0	3.7	1.51e+00	0	46	104	2132803584	60	119748
2026-01-29 08:08:23.54	336.22	6.78	-56.8	-71.1	3.6	1.51e+00	0	46	104	2132803584	60	137042
2026-01-29 08:08:27.57	336.18	6.47	-54.5	-70.1	3.7	1.51e+00	0	46	104	2132803584	60	121355
2026-01-29 08:08:31.60	336.13	6.17	-55.5	-70.4	3.7	1.51e+00	0	46	104	2132803584	60	126636
2026-01-29 08:08:35.63	336.09	5.88	-58.7	-73.4	3.5	1.52e+00	0	46	104	2132803584	60	177154
2026-01-29 08:08:39.66	336.05	5.58	-59.9	-74.6	3.6	1.52e+00	0	46	104	2132803584	60	203234
2026-01-29 08:08:43.69	336.01	5.29	-61.5	-75.7	3.5	1.52e+00	0	46	104	2132803584	60	232620
2026-01-29 08:08:47.73	335.97	5.00	-61.5	-75.7	3.5	1.52e+00	0	46	104	2132803584	60	232191
2026-01-29 08:08:51.76	335.93	4.72	-61.7	-76.1	3.5	1.52e+00	0	46	104	2132803584	60	243246
2026-01-29 08:08:55.79	335.90	4.44	-58.4	-75.0	3.6	1.51e+00	0	46	104	2132803584	60	213478
2026-01-29 08:08:59.82	335.86	4.16	-58.4	-74.5	3.6	1.51e+00	0	46	104	2132803584	60	202790
2026-01-29 08:09:03.85	335.83	3.88	-59.0	-75.1	3.6	1.51e+00	0	46	104	2132803584	60	217395
2026-01-29 08:09:07.88	335.79	3.61	-59.1	-74.9	3.6	1.51e+00	0	46	104	2132803584	60	211651
2026-01-29 08:09:11.91	335.76	3.34	-59.1	-75.2	3.6	1.51e+00	0	46	104	2132803584	60	218553
2026-01-29 08:09:15.94	335.73	3.07	-59.1	-74.9	3.6	1.51e+00	0	46	104	2132803584	60	212144
2026-01-29 08:09:19.97	335.70	2.81	-59.0	-75.0	3.6	1.51e+00	0	46	104	2132803584	60	214351
2026-01-29 08:09:24.01	335.67	2.54	-59.0	-74.8	3.6	1.51e+00	0	46	104	2132803584	60	208414
2026-01-29 08:09:28.04	335.64	2.28	-59.0	-74.9	3.6	1.51e+00	0	46	104	2132803584	60	212640
2026-01-29 08:09:32.06	335.61	2.02	-59.1	-74.9	3.6	1.51e+00	0	46	104	2132803584	60	211139
2026-01-29 08:09:36.09	335.59	1.77	-59.1	-75.1	3.6	1.52e+00	0	46	104	2132803584	60	215479
2026-01-29 08:09:40.13	335.56	1.51	-59.0	-74.8	3.6	1.51e+00	0	46	104	2132803584	60	208356
2026-01-29 08:09:44.16	335.53	1.26	-59.0	-74.9	3.6	1.51e+00	0	46	104	2132803584	60	210455
2026-01-29 08:09:48.19	335.51	1.01	-59.0	-74.8	3.6	1.51e+00	0	46	104	2132803584	60	209087
2026-01-29 08:09:52.22	335.48	0.77	-59.0	-74.9	3.6	1.51e+00	0	46	104	2132803584	60	211060
2026-01-29 08:09:56.25	335.46	0.52	-59.1	-74.8	3.5	1.51e+00	0	46	104	2132803584	60	210099
2026-01-29 08:10:00.28	335.44	0.28	-59.0	-75.0	3.6	1.51e+00	0	46	104	2132803584	60	214739
2026-01-29 08:10:04.32	335.41	0.04	-59.0	-74.8	3.6	1.51e+00	0	46	104	2132803584	60	209232

#Closed at: 2026-01-29 08:10:07
#Recorded file [2132 MB]: D:/Data/35015_260129_110733.dat