passes_logs/2026/01/29/R3.2S-Naryan-Mar/R3.2S-Naryan-Mar__20260129_224932_AQUA_rec.log

#Pass ID: 20260129_224932_AQUA
#Satellite: AQUA
#Configuration: AQUA
#almurnet v.1.7.20240730
#Start time: 2026-01-29 22:49:35

#Version: 2.2.20231116
#Station: R3.2S-Naryan-Mar
#Location: 53.008057 lon 67.646978 lat
#TLE: 1 27424U 02022A   26028.91948147  .00001781  00000+0  36607-3 0  9997
#TLE: 2 27424  98.4103 355.5827 0001815  62.4290   1.4641 14.61871847262923

#Time	Az	El	Level	Level2	SNR	BER	BlckErr	Temp	State	Recorded	gain1	gain2
2026-01-29 22:49:35.39	19.24	0.15	-53.4	-75.5	3.2	3.02e+01	0	45	0	0	60	227893
2026-01-29 22:49:38.40	19.45	0.31	-53.4	-77.0	3.5	3.02e+01	0	45	104	0	60	268108
2026-01-29 22:49:41.42	19.67	0.48	-53.7	-77.0	3.5	3.02e+01	0	45	104	0	60	268208
2026-01-29 22:49:44.42	19.89	0.64	-54.2	-77.0	3.5	3.02e+01	0	45	104	0	60	269436
2026-01-29 22:49:47.43	20.11	0.80	-54.6	-77.0	3.5	3.02e+01	0	45	104	0	60	267974
2026-01-29 22:49:50.45	20.33	0.97	-55.0	-77.1	3.5	3.02e+01	0	45	104	0	60	271498
2026-01-29 22:49:53.48	20.56	1.13	-55.1	-76.9	3.5	3.02e+01	0	45	104	0	60	266132
2026-01-29 22:49:56.49	20.78	1.30	-55.1	-77.0	3.5	3.02e+01	0	45	104	0	60	269760
2026-01-29 22:49:59.51	21.02	1.47	-55.2	-77.0	3.5	3.02e+01	0	45	104	0	60	270537
2026-01-29 22:50:02.52	21.25	1.63	-55.3	-77.0	3.5	3.02e+01	0	45	104	0	60	268139
2026-01-29 22:50:05.55	21.49	1.80	-55.5	-76.9	3.5	3.02e+01	0	45	104	0	60	267036
2026-01-29 22:50:08.57	21.73	1.97	-55.6	-76.8	3.5	3.02e+01	0	45	104	0	60	264145
2026-01-29 22:50:11.59	21.97	2.14	-55.6	-76.9	3.5	3.02e+01	0	45	104	0	60	266325
2026-01-29 22:50:14.60	22.21	2.31	-55.3	-76.9	3.5	3.02e+01	0	45	104	0	60	265294
2026-01-29 22:50:17.62	22.46	2.48	-54.9	-76.8	3.5	3.02e+01	0	45	104	0	60	264145
2026-01-29 22:50:20.64	22.71	2.66	-54.6	-76.9	3.5	3.02e+01	0	45	104	0	60	265152
2026-01-29 22:50:23.65	22.97	2.83	-54.4	-77.0	3.5	3.02e+01	0	45	104	0	60	268400
2026-01-29 22:50:26.67	23.23	3.00	-54.3	-76.8	3.5	3.02e+01	0	45	104	0	60	264498
2026-01-29 22:50:29.69	23.49	3.18	-54.2	-76.9	3.5	3.02e+01	0	45	104	0	60	265988
2026-01-29 22:50:32.71	23.75	3.35	-54.1	-76.8	3.5	3.02e+01	0	45	104	0	60	264194
2026-01-29 22:50:35.73	24.02	3.53	-54.0	-77.0	3.5	3.02e+01	0	46	104	0	60	268448
2026-01-29 22:50:38.75	24.29	3.71	-53.8	-76.9	3.5	3.02e+01	0	46	104	0	60	267731
2026-01-29 22:50:41.77	24.56	3.88	-53.6	-77.0	3.5	3.02e+01	0	45	104	0	60	267884
2026-01-29 22:50:44.79	24.84	4.06	-53.8	-77.0	3.5	3.02e+01	0	46	104	0	60	270682
2026-01-29 22:50:47.81	25.12	4.24	-54.2	-76.9	3.5	3.02e+01	0	46	104	0	60	267484
2026-01-29 22:50:50.82	25.40	4.42	-54.6	-77.0	3.5	3.02e+01	0	46	104	0	60	268504
2026-01-29 22:50:53.83	25.69	4.60	-55.1	-76.9	3.5	3.02e+01	0	46	104	0	60	266619
2026-01-29 22:50:56.85	25.98	4.78	-55.7	-77.0	3.5	3.02e+01	0	46	104	0	60	268684
2026-01-29 22:50:59.88	26.28	4.97	-56.2	-76.9	3.5	3.02e+01	0	46	104	0	60	265510
2026-01-29 22:51:02.90	26.58	5.15	-56.4	-77.0	3.5	3.02e+01	0	46	104	0	60	268506
2026-01-29 22:51:05.92	26.88	5.34	-56.5	-77.0	3.5	3.02e+01	0	46	104	0	60	267892
2026-01-29 22:51:08.95	27.19	5.52	-56.6	-76.9	3.5	3.02e+01	0	46	104	0	60	265769
2026-01-29 22:51:11.96	27.50	5.71	-56.7	-76.9	3.5	3.02e+01	0	46	104	0	60	267118
2026-01-29 22:51:14.98	27.82	5.89	-56.7	-76.9	3.5	3.02e+01	0	46	104	0	60	266461
2026-01-29 22:51:18.01	28.14	6.08	-56.7	-76.8	3.5	3.02e+01	0	46	104	0	60	263260
2026-01-29 22:51:21.03	28.46	6.27	-56.3	-76.9	3.5	3.02e+01	0	46	104	0	60	267407
2026-01-29 22:51:24.05	28.79	6.46	-55.7	-77.0	3.5	3.02e+01	0	46	104	0	60	268296
2026-01-29 22:51:27.06	29.13	6.65	-54.9	-76.8	3.5	3.02e+01	0	46	104	0	60	264161
2026-01-29 22:51:30.08	29.46	6.84	-53.9	-76.7	3.5	3.02e+01	0	46	104	0	60	259332
2026-01-29 22:51:33.11	29.81	7.03	-53.4	-76.7	3.5	3.02e+01	0	46	104	0	60	261314
2026-01-29 22:51:36.13	30.15	7.23	-53.2	-76.8	3.5	3.02e+01	0	46	104	0	60	264677
2026-01-29 22:51:39.16	30.51	7.42	-53.3	-76.8	3.5	3.02e+01	0	46	104	0	60	262411
2026-01-29 22:51:42.18	30.87	7.62	-53.6	-76.8	3.5	3.02e+01	0	46	104	0	60	264451
2026-01-29 22:51:45.20	31.23	7.81	-54.2	-77.0	3.5	3.02e+01	0	46	104	0	60	268022
2026-01-29 22:51:48.23	31.60	8.01	-54.7	-76.9	3.5	3.02e+01	0	46	104	0	60	265844
2026-01-29 22:51:51.24	31.97	8.20	-55.1	-76.8	3.5	3.02e+01	0	46	104	0	60	263888
2026-01-29 22:51:54.27	32.35	8.40	-55.5	-76.9	3.5	3.02e+01	0	46	104	0	60	265339
2026-01-29 22:51:57.29	32.73	8.60	-55.5	-76.8	3.5	3.02e+01	0	46	104	0	60	264534
2026-01-29 22:52:00.32	33.12	8.80	-55.3	-76.8	3.5	3.02e+01	0	46	104	0	60	264194
2026-01-29 22:52:03.34	33.51	9.00	-54.9	-76.9	3.5	3.02e+01	0	46	104	0	60	266584
2026-01-29 22:52:06.36	33.91	9.20	-54.6	-76.8	3.5	3.02e+01	0	46	104	0	60	263737
2026-01-29 22:52:09.38	34.32	9.40	-54.3	-76.8	3.5	3.02e+01	0	46	104	0	60	262813
2026-01-29 22:52:12.40	34.73	9.60	-54.2	-76.9	3.5	3.02e+01	0	46	104	0	60	264890
2026-01-29 22:52:15.41	35.15	9.80	-54.6	-76.9	3.5	3.02e+01	0	46	104	0	60	267316
2026-01-29 22:52:18.44	35.57	10.00	-55.2	-76.8	3.5	3.02e+01	0	46	104	0	60	264577
2026-01-29 22:52:21.46	36.00	10.21	-55.7	-76.9	3.5	3.02e+01	0	46	104	0	60	265655
2026-01-29 22:52:24.48	36.44	10.41	-56.2	-76.9	3.5	3.02e+01	0	46	104	0	60	265105
2026-01-29 22:52:27.50	36.88	10.62	-56.3	-76.9	3.5	3.02e+01	0	46	104	0	60	266249
2026-01-29 22:52:30.51	37.33	10.82	-56.0	-76.9	3.5	3.02e+01	0	46	104	0	60	267303
2026-01-29 22:52:33.53	37.78	11.03	-55.6	-76.9	3.5	3.02e+01	0	46	104	0	60	267155
2026-01-29 22:52:36.55	38.24	11.23	-55.3	-76.9	3.5	3.02e+01	0	46	104	0	60	267705
2026-01-29 22:52:39.57	38.71	11.44	-55.2	-76.9	3.5	3.02e+01	0	46	104	0	60	265528
2026-01-29 22:52:42.58	39.19	11.64	-55.1	-76.6	3.5	3.02e+01	0	46	104	0	60	258332
2026-01-29 22:52:45.60	39.67	11.85	-54.8	-76.4	3.5	3.02e+01	0	46	104	0	60	251284
2026-01-29 22:52:48.60	40.16	12.05	-54.7	-76.7	3.5	3.02e+01	0	46	104	0	60	259896
2026-01-29 22:52:51.62	40.65	12.26	-54.8	-76.7	3.5	3.02e+01	0	46	104	0	60	260750
2026-01-29 22:52:54.65	41.16	12.47	-54.9	-76.8	3.5	3.02e+01	0	46	104	0	60	264379
2026-01-29 22:52:57.67	41.67	12.68	-55.4	-76.9	3.5	3.02e+01	0	46	104	0	60	265485
2026-01-29 22:53:00.68	42.19	12.88	-55.7	-76.9	3.5	3.02e+01	0	46	104	0	60	265349
2026-01-29 22:53:03.70	42.72	13.09	-55.3	-76.8	3.5	3.02e+01	0	46	104	0	60	262464
2026-01-29 22:53:06.72	43.25	13.30	-54.1	-76.7	3.5	3.02e+01	0	46	104	0	60	261407
2026-01-29 22:53:09.73	43.79	13.50	-52.4	-76.7	3.5	3.02e+01	0	46	104	0	60	261583
2026-01-29 22:53:12.75	44.34	13.71	-51.1	-76.7	3.5	3.02e+01	0	46	104	0	60	261455
2026-01-29 22:53:15.77	44.90	13.91	-50.3	-76.7	3.5	3.02e+01	0	46	104	0	60	260280
2026-01-29 22:53:18.78	45.47	14.12	-50.1	-76.6	3.5	3.02e+01	0	46	104	0	60	258400
2026-01-29 22:53:21.80	46.04	14.32	-50.1	-76.8	3.5	3.02e+01	0	46	104	0	60	263031
2026-01-29 22:53:24.82	46.63	14.53	-50.1	-76.4	3.5	3.02e+01	0	46	104	0	60	252593
2026-01-29 22:53:27.84	47.22	14.73	-50.4	-76.8	3.5	3.02e+01	0	46	104	0	60	263517
2026-01-29 22:53:30.87	47.82	14.93	-50.8	-76.7	3.5	3.02e+01	0	46	104	0	60	259557
2026-01-29 22:53:33.89	48.43	15.13	-51.3	-76.8	3.5	3.02e+01	0	46	104	0	60	263404
2026-01-29 22:53:36.91	49.05	15.34	-51.8	-76.8	3.5	3.02e+01	0	46	104	0	60	262192
2026-01-29 22:53:39.92	49.67	15.53	-52.5	-76.7	3.5	3.02e+01	0	46	104	0	60	259621
2026-01-29 22:53:42.95	50.31	15.73	-53.1	-76.6	3.5	3.02e+01	0	46	104	0	60	256872
2026-01-29 22:53:45.96	50.95	15.93	-53.9	-76.7	3.5	3.02e+01	0	46	104	0	60	260903
2026-01-29 22:53:48.97	51.60	16.12	-54.5	-76.6	3.5	3.02e+01	0	46	104	0	60	257996
2026-01-29 22:53:51.99	52.26	16.32	-55.0	-76.7	3.5	3.02e+01	0	46	104	0	60	261623
2026-01-29 22:53:55.01	52.93	16.51	-55.2	-76.7	3.5	3.02e+01	0	46	104	0	60	261448
2026-01-29 22:53:58.02	53.61	16.70	-55.2	-76.8	3.5	3.02e+01	0	46	104	0	60	262248
2026-01-29 22:54:01.04	54.30	16.89	-55.0	-76.7	3.5	3.02e+01	0	46	104	0	60	260682
2026-01-29 22:54:04.06	54.99	17.07	-54.7	-76.7	3.5	3.02e+01	0	46	104	0	60	259642
2026-01-29 22:54:07.08	55.70	17.25	-54.4	-76.8	3.5	3.02e+01	0	46	104	0	60	262017
2026-01-29 22:54:10.10	56.41	17.43	-54.0	-76.8	3.5	3.02e+01	0	46	104	0	60	262249
2026-01-29 22:54:13.11	57.13	17.61	-53.7	-76.7	3.5	3.02e+01	0	46	104	0	60	260984
2026-01-29 22:54:16.14	57.87	17.79	-53.5	-76.7	3.5	3.02e+01	0	46	104	0	60	259391
2026-01-29 22:54:19.15	58.61	17.96	-53.3	-76.9	3.5	3.02e+01	0	46	104	0	60	266206
2026-01-29 22:54:22.15	59.35	18.13	-53.2	-76.7	3.5	3.02e+01	0	46	104	0	60	260748
2026-01-29 22:54:25.17	60.11	18.29	-53.1	-76.6	3.5	3.02e+01	0	46	104	0	60	258573
2026-01-29 22:54:28.18	60.88	18.45	-53.1	-76.7	3.5	3.02e+01	0	46	104	0	60	261303
2026-01-29 22:54:31.21	61.66	18.61	-53.0	-76.7	3.5	3.02e+01	0	46	104	0	60	258954
2026-01-29 22:54:34.23	62.44	18.77	-53.0	-76.6	3.5	3.02e+01	0	46	104	0	60	258589
2026-01-29 22:54:37.26	63.23	18.92	-52.6	-76.7	3.5	3.02e+01	0	46	104	0	60	259467
2026-01-29 22:54:40.28	64.03	19.06	-52.4	-76.4	3.5	3.02e+01	0	46	104	0	60	251993
2026-01-29 22:54:43.29	64.84	19.21	-52.1	-76.5	3.5	3.02e+01	0	46	104	0	60	253555
2026-01-29 22:54:46.30	65.65	19.34	-51.7	-76.5	3.5	3.02e+01	0	46	104	0	60	254601
2026-01-29 22:54:49.33	66.48	19.47	-51.5	-76.5	3.5	3.02e+01	0	46	104	0	60	253353
2026-01-29 22:54:52.36	67.31	19.60	-51.2	-76.5	3.5	3.02e+01	0	46	104	0	60	254788
2026-01-29 22:54:55.38	68.15	19.73	-50.9	-76.5	3.5	3.02e+01	0	46	104	0	60	253142
2026-01-29 22:54:58.40	68.99	19.84	-50.4	-76.4	3.5	3.02e+01	0	46	104	0	60	251570
2026-01-29 22:55:01.42	69.85	19.96	-50.2	-76.4	3.5	3.02e+01	0	46	104	0	60	251771
2026-01-29 22:55:04.43	70.70	20.06	-49.9	-76.3	3.5	3.02e+01	0	46	104	0	60	247567
2026-01-29 22:55:07.46	71.57	20.16	-49.6	-75.8	3.5	3.02e+01	0	46	104	0	60	233734
2026-01-29 22:55:10.48	72.44	20.26	-49.4	-75.6	3.5	3.02e+01	0	46	104	0	60	229215
2026-01-29 22:55:13.51	73.32	20.35	-49.0	-76.1	3.5	3.02e+01	0	46	104	0	60	243602
2026-01-29 22:55:16.52	74.19	20.43	-49.0	-76.2	3.5	3.02e+01	0	46	104	0	60	246289
2026-01-29 22:55:19.54	75.08	20.51	-48.7	-76.2	3.5	3.02e+01	0	46	104	0	60	245833
2026-01-29 22:55:22.56	75.97	20.58	-48.8	-76.0	3.5	3.02e+01	0	46	104	0	60	239987
2026-01-29 22:55:25.58	76.86	20.64	-48.8	-75.8	3.6	3.02e+01	0	46	104	0	60	235482
2026-01-29 22:55:28.60	77.76	20.70	-48.7	-76.3	3.5	3.02e+01	0	46	104	0	60	248700
2026-01-29 22:55:31.62	78.66	20.75	-48.7	-76.0	3.5	3.02e+01	0	46	104	0	60	239094
2026-01-29 22:55:34.63	79.56	20.79	-49.0	-75.9	3.5	3.02e+01	0	46	104	0	60	237920
2026-01-29 22:55:37.65	80.46	20.83	-49.2	-75.7	3.5	3.02e+01	0	46	104	0	60	232973
2026-01-29 22:55:40.67	81.37	20.86	-49.3	-75.4	3.6	3.02e+01	0	46	104	0	60	223856
2026-01-29 22:55:43.69	82.28	20.89	-49.7	-75.3	3.6	3.02e+01	0	46	104	0	60	222327
2026-01-29 22:55:46.70	83.19	20.90	-50.0	-75.6	3.6	3.02e+01	0	46	104	0	60	228685
2026-01-29 22:55:49.73	84.11	20.91	-50.4	-75.1	3.6	3.02e+01	0	46	104	0	60	217598
2026-01-29 22:55:52.73	85.01	20.92	-50.6	-75.4	3.6	3.02e+01	0	46	104	0	60	224585
2026-01-29 22:55:55.76	85.93	20.91	-50.9	-75.6	3.7	3.02e+01	0	46	104	0	60	227991
2026-01-29 22:55:58.78	86.84	20.90	-51.0	-75.1	3.6	3.02e+01	0	46	104	0	60	217514
2026-01-29 22:56:01.80	87.75	20.88	-51.1	-75.3	3.6	3.02e+01	0	46	104	0	60	221355
2026-01-29 22:56:04.82	88.66	20.86	-50.9	-75.3	3.6	3.02e+01	0	46	104	0	60	220676
2026-01-29 22:56:07.83	89.57	20.83	-50.7	-75.5	3.6	3.02e+01	0	46	104	0	60	226135
2026-01-29 22:56:10.86	90.48	20.79	-50.5	-75.2	3.6	3.02e+01	0	46	104	0	60	219832
2026-01-29 22:56:13.88	91.38	20.74	-50.2	-74.9	3.6	3.02e+01	0	46	104	0	60	210390
2026-01-29 22:56:16.89	92.28	20.69	-50.1	-75.0	3.6	3.02e+01	0	46	104	0	60	214912
2026-01-29 22:56:19.91	93.17	20.63	-49.9	-74.7	3.6	3.02e+01	0	46	104	0	60	206911
2026-01-29 22:56:22.93	94.07	20.56	-49.8	-74.7	3.6	3.02e+01	0	46	104	0	60	206289
2026-01-29 22:56:25.95	94.96	20.49	-49.8	-74.9	3.6	3.02e+01	0	46	104	0	60	211258
2026-01-29 22:56:28.97	95.84	20.41	-49.9	-75.0	3.6	3.02e+01	0	46	104	0	60	213406
2026-01-29 22:56:32.00	96.73	20.33	-50.0	-74.7	3.6	3.02e+01	0	46	104	0	60	207032
2026-01-29 22:56:35.01	97.60	20.24	-50.3	-74.8	3.7	3.02e+01	0	46	104	0	60	208121
2026-01-29 22:56:38.03	98.47	20.14	-50.5	-74.9	3.6	3.02e+01	0	46	104	0	60	212693
2026-01-29 22:56:41.05	99.33	20.04	-49.9	-73.5	3.7	3.02e+01	0	46	104	0	60	179989
2026-01-29 22:56:44.06	100.19	19.93	-50.1	-73.8	3.8	3.02e+01	0	46	104	0	60	185703
2026-01-29 22:56:47.08	101.04	19.82	-50.1	-73.8	3.8	3.02e+01	0	46	104	0	60	185678
2026-01-29 22:56:50.11	101.89	19.70	-50.1	-73.1	3.8	3.02e+01	0	46	104	0	60	171243
2026-01-29 22:56:53.12	102.73	19.58	-50.1	-73.0	3.8	3.02e+01	0	46	104	0	60	169763
2026-01-29 22:56:56.14	103.56	19.45	-50.2	-73.1	3.9	3.02e+01	0	46	104	0	60	171619
2026-01-29 22:56:59.16	104.38	19.31	-50.2	-72.9	3.8	3.02e+01	0	46	104	0	60	168785
2026-01-29 22:57:02.18	105.20	19.17	-50.1	-72.6	3.9	3.02e+01	0	46	104	0	60	163083
2026-01-29 22:57:05.20	106.01	19.03	-50.1	-72.7	3.8	3.02e+01	0	46	104	0	60	163583
2026-01-29 22:57:08.22	106.81	18.88	-50.1	-72.7	3.9	3.02e+01	0	46	104	0	60	164107
2026-01-29 22:57:11.24	107.60	18.73	-50.2	-73.2	3.8	3.02e+01	0	46	104	0	60	173507
2026-01-29 22:57:14.25	108.38	18.58	-50.1	-72.3	3.8	3.02e+01	0	46	104	0	60	157593
2026-01-29 22:57:17.27	109.16	18.42	-50.0	-72.4	3.8	3.02e+01	0	46	104	0	60	159164
2026-01-29 22:57:20.29	109.93	18.25	-49.9	-72.3	3.9	3.02e+01	0	46	104	0	60	156886
2026-01-29 22:57:23.32	110.69	18.08	-49.7	-72.5	3.9	3.02e+01	0	46	104	0	60	159705
2026-01-29 22:57:26.33	111.44	17.91	-49.5	-72.2	3.8	3.02e+01	0	46	104	0	60	154281
2026-01-29 22:57:29.36	112.18	17.74	-49.4	-72.9	3.9	3.02e+01	0	46	104	0	60	167752
2026-01-29 22:57:32.38	112.92	17.56	-49.2	-72.2	3.9	3.02e+01	0	46	104	0	60	154155
2026-01-29 22:57:35.40	113.64	17.38	-49.1	-72.1	3.9	3.02e+01	0	46	104	0	60	153273
2026-01-29 22:57:38.42	114.36	17.20	-49.0	-72.1	3.9	3.02e+01	0	46	104	0	60	152843
2026-01-29 22:57:41.44	115.06	17.02	-48.9	-72.2	3.9	3.02e+01	0	46	104	0	60	154292
2026-01-29 22:57:44.45	115.76	16.83	-48.9	-71.9	3.9	3.02e+01	0	46	104	0	60	150573
2026-01-29 22:57:47.48	116.45	16.64	-48.9	-71.9	3.8	3.02e+01	0	46	104	0	60	150395
2026-01-29 22:57:50.50	117.13	16.45	-48.9	-73.7	3.9	3.02e+01	0	46	104	0	60	184801
2026-01-29 22:57:53.52	117.80	16.26	-49.0	-72.9	3.9	3.02e+01	0	46	104	0	60	167476
2026-01-29 22:57:56.54	118.46	16.06	-49.0	-72.3	3.9	3.02e+01	0	46	104	0	60	156298
2026-01-29 22:57:59.55	119.11	15.87	-49.0	-72.2	3.9	3.02e+01	0	46	104	0	60	155606
2026-01-29 22:58:02.57	119.76	15.67	-49.0	-73.2	3.8	3.02e+01	0	46	104	0	60	173682
2026-01-29 22:58:05.58	120.39	15.47	-49.0	-72.8	3.8	3.02e+01	0	46	104	0	60	165445
2026-01-29 22:58:08.60	121.02	15.27	-49.0	-72.8	3.8	3.02e+01	0	46	104	0	60	165745
2026-01-29 22:58:11.62	121.63	15.07	-49.0	-73.3	3.8	3.02e+01	0	46	104	0	60	176797
2026-01-29 22:58:14.64	122.24	14.86	-49.0	-73.0	3.8	3.02e+01	0	46	104	0	60	170272
2026-01-29 22:58:17.65	122.84	14.66	-49.0	-73.6	3.7	3.02e+01	0	46	104	0	60	182537
2026-01-29 22:58:20.67	123.43	14.45	-49.0	-74.0	3.8	3.02e+01	0	46	104	0	60	191206
2026-01-29 22:58:23.68	124.02	14.25	-48.9	-73.5	3.7	3.02e+01	0	46	104	0	60	179884
2026-01-29 22:58:26.71	124.59	14.04	-48.8	-73.6	3.7	3.02e+01	0	46	104	0	60	182502
2026-01-29 22:58:29.73	125.16	13.83	-48.8	-73.9	3.7	3.02e+01	0	46	104	0	60	187961
2026-01-29 22:58:32.75	125.72	13.63	-48.8	-73.7	3.7	3.02e+01	0	46	104	0	60	183846
2026-01-29 22:58:35.77	126.27	13.42	-48.8	-74.1	3.7	3.02e+01	0	46	104	0	60	193769
2026-01-29 22:58:38.78	126.81	13.21	-48.8	-74.1	3.7	3.02e+01	0	46	104	0	60	191972
2026-01-29 22:58:41.80	127.35	13.00	-48.9	-74.2	3.6	3.02e+01	0	46	104	0	60	195466
2026-01-29 22:58:44.82	127.87	12.80	-49.1	-74.6	3.7	3.02e+01	0	46	104	0	60	203834
2026-01-29 22:58:47.85	128.39	12.59	-49.2	-74.3	3.7	3.02e+01	0	46	104	0	60	198164
2026-01-29 22:58:50.87	128.91	12.38	-49.3	-74.3	3.7	3.02e+01	0	46	104	0	60	196243
2026-01-29 22:58:53.88	129.41	12.17	-49.4	-74.8	3.6	3.02e+01	0	46	104	0	60	210204
2026-01-29 22:58:56.90	129.91	11.96	-49.4	-74.2	3.6	3.02e+01	0	46	104	0	60	195390
2026-01-29 22:58:59.92	130.40	11.75	-49.3	-74.5	3.6	3.02e+01	0	46	104	0	60	202037
2026-01-29 22:59:02.93	130.88	11.55	-49.3	-74.8	3.6	3.02e+01	0	46	104	0	60	209649
2026-01-29 22:59:05.95	131.35	11.34	-49.3	-74.4	3.6	3.02e+01	0	46	104	0	60	200125
2026-01-29 22:59:08.96	131.82	11.13	-49.3	-74.5	3.6	3.02e+01	0	46	104	0	60	202058
2026-01-29 22:59:11.99	132.28	10.92	-49.2	-75.0	3.7	3.02e+01	0	46	104	0	60	213063
2026-01-29 22:59:15.01	132.74	10.72	-49.2	-74.5	3.6	3.02e+01	0	46	104	0	60	201984
2026-01-29 22:59:18.04	133.19	10.51	-49.2	-74.6	3.6	3.02e+01	0	46	104	0	60	203296
2026-01-29 22:59:21.06	133.63	10.31	-49.2	-75.0	3.6	3.02e+01	0	46	104	0	60	212771
2026-01-29 22:59:24.08	134.06	10.10	-49.2	-74.6	3.6	3.02e+01	0	46	104	0	60	203588
2026-01-29 22:59:27.09	134.49	9.90	-49.3	-74.9	3.6	3.02e+01	0	46	104	0	60	211697
2026-01-29 22:59:30.11	134.92	9.69	-49.3	-74.8	3.6	3.02e+01	0	46	104	0	60	208097
2026-01-29 22:59:33.13	135.33	9.49	-49.4	-74.7	3.6	3.02e+01	0	46	104	0	60	206555
2026-01-29 22:59:36.15	135.74	9.29	-50.0	-75.5	3.6	3.02e+01	0	46	104	0	60	227177
2026-01-29 22:59:39.17	136.15	9.08	-50.2	-75.2	3.6	3.02e+01	0	46	104	0	60	218676
2026-01-29 22:59:42.18	136.55	8.88	-50.3	-75.2	3.6	3.02e+01	0	46	104	0	60	219788
2026-01-29 22:59:45.20	136.94	8.68	-50.3	-75.5	3.5	3.02e+01	0	46	104	0	60	227262
2026-01-29 22:59:48.21	137.33	8.48	-50.4	-75.5	3.5	3.02e+01	0	46	104	0	60	226360
2026-01-29 22:59:51.23	137.71	8.28	-50.4	-75.6	3.5	3.02e+01	0	46	104	0	60	228712
2026-01-29 22:59:54.25	138.08	8.09	-50.4	-75.6	3.5	3.02e+01	0	46	104	0	60	230175
2026-01-29 22:59:57.27	138.46	7.89	-50.4	-75.5	3.6	3.02e+01	0	46	104	0	60	225583
2026-01-29 23:00:00.29	138.82	7.69	-50.3	-75.8	3.6	3.02e+01	0	46	104	0	60	235012
2026-01-29 23:00:03.31	139.18	7.49	-50.3	-75.6	3.5	3.02e+01	0	46	104	0	60	228869
2026-01-29 23:00:06.34	139.54	7.30	-50.4	-75.5	3.5	3.02e+01	0	46	104	0	60	227917
2026-01-29 23:00:09.36	139.89	7.10	-50.7	-75.5	3.5	3.02e+01	0	46	104	0	60	227502
2026-01-29 23:00:12.38	140.24	6.91	-51.1	-75.5	3.6	3.02e+01	0	46	104	0	60	227824
2026-01-29 23:00:15.40	140.58	6.72	-51.6	-75.5	3.5	3.02e+01	0	46	104	0	60	227011
2026-01-29 23:00:18.41	140.92	6.53	-52.2	-75.7	3.5	3.02e+01	0	46	104	0	60	232598
2026-01-29 23:00:21.43	141.25	6.33	-52.8	-75.6	3.6	3.02e+01	0	46	104	0	60	229651
2026-01-29 23:00:24.46	141.58	6.14	-53.1	-75.5	3.5	3.02e+01	0	46	104	0	60	227442
2026-01-29 23:00:27.47	141.90	5.95	-53.3	-75.6	3.5	3.02e+01	0	46	104	0	60	230210
2026-01-29 23:00:30.49	142.22	5.76	-53.2	-75.6	3.5	3.02e+01	0	46	104	0	60	230164
2026-01-29 23:00:33.51	142.53	5.58	-53.0	-75.5	3.5	3.02e+01	0	46	104	0	60	225552
2026-01-29 23:00:36.53	142.84	5.39	-52.7	-75.6	3.6	3.02e+01	0	46	104	0	60	228858
2026-01-29 23:00:39.55	143.15	5.20	-52.4	-75.6	3.5	3.02e+01	0	46	104	0	60	228988
2026-01-29 23:00:42.57	143.45	5.02	-52.3	-75.4	3.5	3.02e+01	0	46	104	0	60	223444
2026-01-29 23:00:45.59	143.75	4.83	-52.2	-75.6	3.5	3.02e+01	0	46	104	0	60	229387
2026-01-29 23:00:48.61	144.04	4.65	-52.0	-75.6	3.5	3.02e+01	0	46	104	0	60	229291
2026-01-29 23:00:51.62	144.33	4.47	-52.0	-75.5	3.5	3.02e+01	0	46	104	0	60	226253
2026-01-29 23:00:54.63	144.62	4.28	-51.9	-75.5	3.5	3.02e+01	0	46	104	0	60	226689
2026-01-29 23:00:57.65	144.90	4.10	-51.8	-75.6	3.5	3.02e+01	0	46	104	0	60	228207
2026-01-29 23:01:00.68	145.18	3.92	-51.6	-75.5	3.5	3.02e+01	0	46	104	0	60	225654
2026-01-29 23:01:03.69	145.46	3.74	-51.5	-75.5	3.5	3.02e+01	0	46	104	0	60	226557
2026-01-29 23:01:06.71	145.73	3.56	-51.3	-75.3	3.5	3.02e+01	0	46	104	0	60	220670
2026-01-29 23:01:09.73	146.00	3.39	-51.1	-74.6	3.6	3.02e+01	0	46	104	0	60	204149
2026-01-29 23:01:12.75	146.27	3.21	-50.9	-73.8	3.7	3.02e+01	0	46	104	0	60	185499
2026-01-29 23:01:15.77	146.53	3.03	-50.9	-74.4	3.6	3.02e+01	0	46	104	0	60	199081
2026-01-29 23:01:18.79	146.79	2.86	-50.9	-75.5	3.5	3.02e+01	0	46	104	0	60	225425
2026-01-29 23:01:21.81	147.04	2.68	-50.7	-75.5	3.5	3.02e+01	0	46	104	0	60	226023
2026-01-29 23:01:24.83	147.30	2.51	-50.5	-75.4	3.5	3.02e+01	0	46	104	0	60	225280
2026-01-29 23:01:27.85	147.55	2.33	-50.3	-75.5	3.6	3.02e+01	0	46	104	0	60	227286
2026-01-29 23:01:30.88	147.79	2.16	-50.1	-75.4	3.5	3.02e+01	0	46	104	0	60	224310
2026-01-29 23:01:33.90	148.04	1.99	-50.1	-75.5	3.6	3.02e+01	0	46	104	0	60	227429
2026-01-29 23:01:36.92	148.28	1.82	-50.1	-75.3	3.5	3.02e+01	0	46	104	0	60	220231
2026-01-29 23:01:39.93	148.51	1.65	-50.1	-75.3	3.5	3.02e+01	0	46	104	0	60	222014
2026-01-29 23:01:42.95	148.75	1.48	-50.3	-75.5	3.5	3.02e+01	0	46	104	0	60	225640
2026-01-29 23:01:45.96	148.98	1.31	-50.7	-75.5	3.5	3.02e+01	0	46	104	0	60	227007
2026-01-29 23:01:48.98	149.21	1.14	-50.9	-75.2	3.6	3.02e+01	0	46	104	0	60	217965
2026-01-29 23:01:52.00	149.44	0.98	-51.1	-75.3	3.5	3.02e+01	0	46	104	0	60	221696
2026-01-29 23:01:55.03	149.66	0.81	-51.2	-75.0	3.5	3.02e+01	0	46	104	0	60	214877
2026-01-29 23:01:58.04	149.88	0.64	-51.2	-75.1	3.6	3.02e+01	0	46	104	0	60	216529
2026-01-29 23:02:01.06	150.10	0.48	-51.2	-75.0	3.6	3.02e+01	0	46	104	0	60	213293
2026-01-29 23:02:04.09	150.32	0.31	-51.1	-75.1	3.5	3.02e+01	0	46	104	0	60	216119
2026-01-29 23:02:07.11	150.53	0.15	-53.6	-76.0	3.5	3.02e+01	0	46	104	0	60	241367
2026-01-29 23:02:10.13	150.74	-0.01	-55.8	-76.8	3.5	3.02e+01	0	46	104	0	60	261750

#Closed at: 2026-01-29 23:02:10
#Recorded file [0 MB]: D:/Data/35015_260130_014935.dat