passes_logs/2026/01/29/R3.2S-Naryan-Mar/R3.2S-Naryan-Mar__20260129_030405_AQUA_rec.log

#Pass ID: 20260129_030405_AQUA
#Satellite: AQUA
#Configuration: AQUA
#almurnet v.1.7.20240730
#Start time: 2026-01-29 03:04:06

#Version: 2.2.20231116
#Station: R3.2S-Naryan-Mar
#Location: 53.008057 lon 67.646978 lat
#TLE: 1 27424U 02022A   26027.88561574  .00001798  00000+0  36942-3 0  9997
#TLE: 2 27424  98.4102 354.5311 0001840  63.5604 322.5877 14.61868111262779

#Time	Az	El	Level	Level2	SNR	BER	BlckErr	Temp	State	Recorded	gain1	gain2
2026-01-29 03:04:06.66	31.65	0.09	-59.2	-73.7	3.5	8.45e-01	0	44	0	0	60	189848
2026-01-29 03:04:09.68	31.50	0.26	-57.5	-78.0	3.6	3.03e+01	0	45	104	0	60	301332
2026-01-29 03:04:12.69	31.34	0.44	-58.0	-78.6	3.6	3.03e+01	0	45	104	0	60	325509
2026-01-29 03:04:15.70	31.18	0.61	-58.2	-78.6	3.5	3.03e+01	0	46	104	0	60	325582
2026-01-29 03:04:18.72	31.02	0.79	-54.9	-78.3	3.5	3.03e+01	0	45	104	0	60	313100
2026-01-29 03:04:21.73	30.86	0.97	-55.2	-77.4	3.5	3.03e+01	0	46	104	0	60	280495
2026-01-29 03:04:24.76	30.69	1.15	-54.1	-76.8	3.5	3.03e+01	0	46	104	0	60	262135
2026-01-29 03:04:27.78	30.52	1.32	-54.1	-76.8	3.5	3.03e+01	0	45	104	0	60	262512
2026-01-29 03:04:30.80	30.35	1.51	-54.0	-76.6	3.5	3.03e+01	0	46	104	0	60	258286
2026-01-29 03:04:33.82	30.17	1.69	-54.0	-76.5	3.5	3.03e+01	0	46	104	0	60	254644
2026-01-29 03:04:36.83	30.00	1.87	-54.0	-76.7	3.5	3.03e+01	0	46	104	0	60	259933
2026-01-29 03:04:39.86	29.82	2.05	-54.0	-76.5	3.6	3.03e+01	0	46	104	0	60	253172
2026-01-29 03:04:42.89	29.63	2.24	-54.0	-76.4	3.5	3.03e+01	0	46	104	0	60	252348
2026-01-29 03:04:45.91	29.45	2.42	-54.0	-76.6	3.5	3.03e+01	0	46	104	0	60	256918
2026-01-29 03:04:48.92	29.26	2.61	-53.9	-76.4	3.5	3.03e+01	0	46	104	0	60	252304
2026-01-29 03:04:51.94	29.07	2.80	-53.9	-76.4	3.5	3.03e+01	0	46	104	0	60	250368
2026-01-29 03:04:54.95	28.88	2.99	-53.9	-76.5	3.5	3.03e+01	0	46	104	0	60	254473
2026-01-29 03:04:57.98	28.68	3.18	-53.9	-76.3	3.5	3.03e+01	0	46	104	0	60	249151
2026-01-29 03:05:01.00	28.48	3.37	-53.9	-76.3	3.5	3.03e+01	0	46	104	0	60	249658
2026-01-29 03:05:04.02	28.28	3.56	-53.9	-76.4	3.6	3.03e+01	0	46	104	0	60	250004
2026-01-29 03:05:07.04	28.08	3.76	-53.9	-76.4	3.5	3.03e+01	0	46	104	0	60	252512
2026-01-29 03:05:10.06	27.87	3.95	-53.9	-76.4	3.5	3.03e+01	0	46	104	0	60	252374
2026-01-29 03:05:13.09	27.65	4.15	-53.9	-76.5	3.5	3.03e+01	0	46	104	0	60	253001
2026-01-29 03:05:16.11	27.44	4.34	-53.8	-76.5	3.5	3.03e+01	0	46	104	0	60	255319
2026-01-29 03:05:19.13	27.22	4.54	-53.8	-76.5	3.5	3.03e+01	0	46	104	0	60	252846
2026-01-29 03:05:22.15	27.00	4.74	-53.8	-76.4	3.5	3.03e+01	0	46	104	0	60	250710
2026-01-29 03:05:25.17	26.77	4.94	-53.8	-76.5	3.5	3.03e+01	0	46	104	0	60	255190
2026-01-29 03:05:28.19	26.55	5.15	-53.8	-76.4	3.5	3.03e+01	0	46	104	0	60	251638
2026-01-29 03:05:31.21	26.31	5.35	-53.8	-76.3	3.5	3.03e+01	0	46	104	0	60	247181
2026-01-29 03:05:34.24	26.08	5.56	-53.8	-76.2	3.5	3.03e+01	0	46	104	0	60	246678
2026-01-29 03:05:37.26	25.84	5.76	-53.8	-76.3	3.5	3.03e+01	0	46	104	0	60	248638
2026-01-29 03:05:40.27	25.59	5.97	-53.8	-76.2	3.5	3.03e+01	0	46	104	0	60	245705
2026-01-29 03:05:43.30	25.34	6.18	-53.7	-76.5	3.5	3.03e+01	0	46	104	0	60	254978
2026-01-29 03:05:46.32	25.09	6.39	-53.2	-76.5	3.5	3.03e+01	0	46	104	0	60	255259
2026-01-29 03:05:49.34	24.83	6.60	-52.6	-76.7	3.5	3.03e+01	0	46	104	0	60	260122
2026-01-29 03:05:52.36	24.57	6.81	-54.1	-76.4	3.5	3.03e+01	0	46	104	0	60	251279
2026-01-29 03:05:55.38	24.31	7.03	-54.0	-76.6	3.5	3.03e+01	0	46	104	0	60	257384
2026-01-29 03:05:58.40	24.04	7.25	-50.8	-76.9	3.5	3.03e+01	0	46	104	0	60	266632
2026-01-29 03:06:01.41	23.77	7.46	-49.5	-76.9	3.5	3.03e+01	0	46	104	0	60	265354
2026-01-29 03:06:04.44	23.49	7.68	-51.0	-76.6	3.5	3.03e+01	0	46	104	0	60	258694
2026-01-29 03:06:07.46	23.20	7.90	-53.9	-76.7	3.5	3.03e+01	0	46	104	0	60	259243
2026-01-29 03:06:10.48	22.91	8.12	-50.0	-76.9	3.5	3.03e+01	0	46	104	0	60	265115
2026-01-29 03:06:13.50	22.62	8.35	-52.0	-76.7	3.5	3.03e+01	0	46	104	0	60	260133
2026-01-29 03:06:16.52	22.32	8.57	-51.7	-76.8	3.5	3.03e+01	0	46	104	0	60	262165
2026-01-29 03:06:19.54	22.02	8.80	-52.0	-76.8	3.5	3.03e+01	0	46	104	0	60	262007
2026-01-29 03:06:22.57	21.71	9.03	-52.7	-76.9	3.5	3.03e+01	0	46	104	0	60	265322
2026-01-29 03:06:25.58	21.39	9.26	-50.6	-76.8	3.5	3.03e+01	0	46	104	0	60	262541
2026-01-29 03:06:28.60	21.07	9.49	-52.3	-76.8	3.5	3.03e+01	0	46	104	0	60	261829
2026-01-29 03:06:31.61	20.75	9.72	-52.1	-76.7	3.5	3.03e+01	0	46	104	0	60	258814
2026-01-29 03:06:34.63	20.42	9.96	-52.5	-76.8	3.5	3.03e+01	0	46	104	0	60	262439
2026-01-29 03:06:37.65	20.08	10.19	-48.8	-76.8	3.6	3.03e+01	0	46	104	0	60	262869
2026-01-29 03:06:40.67	19.73	10.43	-53.4	-76.8	3.5	3.03e+01	0	46	104	0	60	262473
2026-01-29 03:06:43.69	19.38	10.67	-53.6	-76.8	3.5	3.03e+01	0	46	104	0	60	261761
2026-01-29 03:06:46.72	19.03	10.91	-53.4	-76.8	3.5	3.03e+01	0	46	104	0	60	262965
2026-01-29 03:06:49.73	18.66	11.15	-53.9	-76.8	3.6	3.03e+01	0	46	104	0	60	261750
2026-01-29 03:06:52.75	18.29	11.40	-52.8	-76.9	3.5	3.03e+01	0	46	104	0	60	265471
2026-01-29 03:06:55.77	17.92	11.64	-52.3	-76.7	3.5	3.03e+01	0	46	104	0	60	260547
2026-01-29 03:06:58.80	17.53	11.89	-52.5	-76.6	3.5	3.03e+01	0	46	104	0	60	257116
2026-01-29 03:07:01.82	17.14	12.14	-53.4	-76.8	3.5	3.03e+01	0	46	104	0	60	262339
2026-01-29 03:07:04.83	16.74	12.39	-53.1	-77.0	3.5	3.03e+01	0	46	104	0	60	269807
2026-01-29 03:07:07.85	16.34	12.64	-52.4	-76.9	3.5	3.03e+01	0	46	104	0	60	265410
2026-01-29 03:07:10.88	15.92	12.89	-53.6	-76.9	3.5	3.03e+01	0	46	104	0	60	267161
2026-01-29 03:07:13.90	15.50	13.15	-52.4	-76.9	3.5	3.03e+01	0	46	104	0	60	267145
2026-01-29 03:07:16.92	15.07	13.40	-53.4	-77.2	3.5	3.03e+01	0	46	104	0	60	275011
2026-01-29 03:07:19.93	14.63	13.66	-51.7	-76.8	3.5	3.03e+01	0	46	104	0	60	262763
2026-01-29 03:07:22.96	14.18	13.92	-54.1	-77.0	3.5	3.03e+01	0	46	104	0	60	268101
2026-01-29 03:07:25.97	13.73	14.18	-53.5	-77.0	3.5	3.03e+01	0	46	104	0	60	268193
2026-01-29 03:07:28.99	13.27	14.44	-53.9	-77.3	3.5	3.03e+01	0	46	104	0	60	277425
2026-01-29 03:07:32.01	12.79	14.70	-53.8	-76.9	3.5	3.03e+01	0	46	104	0	60	266562
2026-01-29 03:07:35.03	12.31	14.97	-53.8	-77.2	3.5	3.03e+01	0	46	104	0	60	275795
2026-01-29 03:07:38.05	11.82	15.23	-53.9	-77.0	3.5	3.03e+01	0	46	104	0	60	268750
2026-01-29 03:07:41.07	11.32	15.50	-54.0	-77.2	3.5	3.03e+01	0	46	104	0	60	276601
2026-01-29 03:07:44.10	10.80	15.77	-53.6	-76.9	3.5	3.03e+01	0	46	104	0	60	267475
2026-01-29 03:07:47.12	10.28	16.04	-55.4	-77.2	3.5	3.03e+01	0	46	104	0	60	275469
2026-01-29 03:07:50.15	9.75	16.31	-53.8	-77.0	3.5	3.03e+01	0	46	104	0	60	267991
2026-01-29 03:07:53.16	9.21	16.58	-55.2	-77.2	3.5	3.03e+01	0	46	104	0	60	275557
2026-01-29 03:07:56.17	8.66	16.85	-55.3	-76.9	3.5	3.03e+01	0	46	104	0	60	267067
2026-01-29 03:07:59.19	8.09	17.12	-52.9	-77.2	3.5	3.03e+01	0	46	104	0	60	276465
2026-01-29 03:08:02.21	7.52	17.39	-54.8	-76.8	3.5	3.03e+01	0	46	104	0	60	262007
2026-01-29 03:08:05.24	6.93	17.66	-54.9	-77.0	3.5	3.03e+01	0	46	104	0	60	270031
2026-01-29 03:08:08.25	6.34	17.94	-56.6	-76.7	3.5	3.03e+01	0	46	104	0	60	260853
2026-01-29 03:08:11.26	5.73	18.21	-54.4	-77.2	3.5	3.03e+01	0	46	104	0	60	275581
2026-01-29 03:08:14.28	5.11	18.48	-54.5	-76.9	3.5	3.03e+01	0	46	104	0	60	266133
2026-01-29 03:08:17.31	4.47	18.75	-55.1	-76.9	3.5	3.03e+01	0	46	104	0	60	266953
2026-01-29 03:08:20.33	3.83	19.03	-55.0	-76.6	3.5	3.03e+01	0	46	104	0	60	258082
2026-01-29 03:08:23.35	3.17	19.30	-55.3	-76.8	3.5	3.03e+01	0	46	104	0	60	264157
2026-01-29 03:08:26.36	2.50	19.57	-54.9	-76.7	3.5	3.03e+01	0	46	104	0	60	258871
2026-01-29 03:08:29.37	1.82	19.84	-55.6	-76.5	3.5	3.03e+01	0	46	104	0	60	254775
2026-01-29 03:08:32.40	1.12	20.11	-55.2	-76.3	3.5	3.03e+01	0	46	104	0	60	249299
2026-01-29 03:08:35.42	0.41	20.38	-55.3	-76.7	3.6	3.03e+01	0	46	104	0	60	259308
2026-01-29 03:08:38.44	359.69	20.65	-55.6	-76.6	3.5	3.03e+01	0	46	104	0	60	256358
2026-01-29 03:08:41.44	358.96	20.91	-55.2	-76.1	3.6	3.03e+01	0	46	104	0	60	243254
2026-01-29 03:08:44.46	358.21	21.18	-55.2	-76.1	3.5	3.03e+01	0	46	104	0	60	241833
2026-01-29 03:08:47.48	357.44	21.44	-55.2	-76.0	3.5	3.03e+01	0	46	104	0	60	239156
2026-01-29 03:08:50.51	356.66	21.70	-55.2	-76.1	3.5	3.03e+01	0	46	104	0	60	241705
2026-01-29 03:08:53.52	355.88	21.95	-54.8	-75.7	3.5	3.03e+01	0	46	104	0	60	232368
2026-01-29 03:08:56.54	355.07	22.21	-54.5	-75.7	3.5	3.03e+01	0	46	104	0	60	230707
2026-01-29 03:08:59.57	354.25	22.46	-55.1	-75.8	3.6	3.03e+01	0	46	104	0	60	234712
2026-01-29 03:09:02.58	353.42	22.70	-55.1	-75.8	3.6	3.03e+01	0	46	104	0	60	235852
2026-01-29 03:09:05.60	352.57	22.95	-55.1	-75.7	3.6	3.03e+01	0	46	104	0	60	232971
2026-01-29 03:09:08.62	351.71	23.19	-55.6	-76.1	3.6	3.03e+01	0	46	104	0	60	241814
2026-01-29 03:09:11.64	350.83	23.42	-55.9	-76.6	3.5	3.03e+01	0	46	104	0	60	256973
2026-01-29 03:09:14.65	349.95	23.65	-56.2	-76.8	3.5	3.03e+01	0	46	104	0	60	263948
2026-01-29 03:09:17.66	349.05	23.87	-56.6	-76.9	3.5	3.03e+01	0	46	104	0	60	267715
2026-01-29 03:09:20.68	348.13	24.09	-57.0	-77.0	3.5	3.03e+01	0	46	104	0	60	268410
2026-01-29 03:09:23.70	347.20	24.31	-57.1	-77.0	3.5	3.03e+01	0	46	104	0	60	270481
2026-01-29 03:09:26.71	346.26	24.51	-57.2	-77.0	3.5	3.03e+01	0	46	104	0	60	270600
2026-01-29 03:09:29.73	345.31	24.71	-56.9	-76.9	3.5	3.03e+01	0	46	104	0	60	265899
2026-01-29 03:09:32.75	344.34	24.91	-56.2	-77.0	3.5	3.03e+01	0	46	104	0	60	269094
2026-01-29 03:09:35.76	343.36	25.09	-56.3	-77.0	3.5	3.03e+01	0	46	104	0	60	268519
2026-01-29 03:09:38.78	342.37	25.27	-57.0	-76.8	3.5	3.03e+01	0	46	104	0	60	263345
2026-01-29 03:09:41.80	341.37	25.44	-56.9	-76.8	3.5	3.03e+01	0	46	104	0	60	261733
2026-01-29 03:09:44.81	340.35	25.61	-56.1	-76.4	3.5	3.03e+01	0	46	104	0	60	252490
2026-01-29 03:09:47.83	339.33	25.76	-56.1	-76.6	3.5	3.03e+01	0	46	104	0	60	256374
2026-01-29 03:09:50.83	338.30	25.90	-55.8	-76.5	3.5	3.03e+01	0	46	104	0	60	255388
2026-01-29 03:09:53.84	337.26	26.04	-56.1	-76.6	3.5	3.03e+01	0	46	104	0	60	258376
2026-01-29 03:09:56.86	336.20	26.17	-55.3	-76.1	3.5	3.03e+01	0	46	104	0	60	241446
2026-01-29 03:09:59.89	335.13	26.28	-55.4	-76.2	3.5	3.03e+01	0	46	104	0	60	246384
2026-01-29 03:10:02.91	334.06	26.39	-56.4	-76.7	3.5	3.03e+01	0	46	104	0	60	258919
2026-01-29 03:10:05.92	332.99	26.49	-56.0	-76.5	3.5	3.03e+01	0	46	104	0	60	253940
2026-01-29 03:10:08.94	331.90	26.57	-55.6	-76.3	3.5	3.03e+01	0	46	104	0	60	248249
2026-01-29 03:10:11.96	330.81	26.65	-56.3	-76.4	3.5	3.03e+01	0	46	104	0	60	252005
2026-01-29 03:10:14.98	329.71	26.71	-56.2	-76.5	3.5	3.03e+01	0	46	104	0	60	254338
2026-01-29 03:10:18.00	328.61	26.76	-56.5	-77.0	3.5	3.03e+01	0	46	104	0	60	269038
2026-01-29 03:10:21.02	327.51	26.80	-56.8	-77.1	3.5	3.03e+01	0	46	104	0	60	271814
2026-01-29 03:10:24.04	326.40	26.83	-56.8	-77.1	3.5	3.03e+01	0	46	104	0	60	271139
2026-01-29 03:10:27.05	325.30	26.85	-56.8	-77.1	3.5	3.03e+01	0	46	104	0	60	273065
2026-01-29 03:10:30.08	324.19	26.86	-56.7	-77.0	3.5	3.03e+01	0	46	104	0	60	269207
2026-01-29 03:10:33.10	323.08	26.86	-55.9	-76.9	3.5	3.03e+01	0	46	104	0	60	266460
2026-01-29 03:10:36.12	321.97	26.84	-56.1	-76.9	3.5	3.03e+01	0	46	104	0	60	264760
2026-01-29 03:10:39.14	320.86	26.81	-55.5	-76.5	3.5	3.03e+01	0	46	104	0	60	253550
2026-01-29 03:10:42.16	319.75	26.77	-56.1	-76.8	3.5	3.03e+01	0	46	104	0	60	264313
2026-01-29 03:10:45.17	318.66	26.72	-56.1	-76.7	3.5	3.03e+01	0	46	104	0	60	261171
2026-01-29 03:10:48.20	317.56	26.66	-55.3	-76.4	3.5	3.03e+01	0	46	104	0	60	250938
2026-01-29 03:10:51.22	316.46	26.59	-55.7	-76.8	3.5	3.03e+01	0	46	104	0	60	262223
2026-01-29 03:10:54.23	315.38	26.51	-55.4	-76.7	3.5	3.03e+01	0	46	104	0	60	259483
2026-01-29 03:10:57.24	314.30	26.42	-55.2	-76.2	3.5	3.03e+01	0	46	104	0	60	245256
2026-01-29 03:11:00.25	313.23	26.31	-55.1	-76.2	3.5	3.03e+01	0	46	104	0	60	245820
2026-01-29 03:11:03.27	312.16	26.20	-54.4	-75.8	3.5	3.03e+01	0	46	104	0	60	234015
2026-01-29 03:11:06.29	311.10	26.07	-54.7	-75.9	3.5	3.03e+01	0	46	104	0	60	237262
2026-01-29 03:11:09.31	310.05	25.94	-55.5	-76.3	3.5	3.03e+01	0	47	104	0	60	248045
2026-01-29 03:11:12.33	309.01	25.80	-54.6	-75.0	3.6	3.03e+01	0	46	104	0	60	214492
2026-01-29 03:11:15.35	307.98	25.65	-54.2	-74.4	3.6	3.03e+01	0	46	104	0	60	200759
2026-01-29 03:11:18.36	306.97	25.49	-54.0	-74.6	3.6	3.03e+01	0	47	104	0	60	205290
2026-01-29 03:11:21.38	305.96	25.32	-55.1	-75.4	3.5	3.03e+01	0	46	104	0	60	224281
2026-01-29 03:11:24.40	304.96	25.14	-54.6	-75.3	3.5	3.03e+01	0	46	104	0	60	222167
2026-01-29 03:11:27.41	303.98	24.96	-54.9	-75.2	3.5	3.03e+01	0	46	104	0	60	218857
2026-01-29 03:11:30.43	303.01	24.76	-54.1	-74.7	3.5	3.03e+01	0	46	104	0	60	206778
2026-01-29 03:11:33.44	302.05	24.57	-54.6	-74.7	3.5	3.03e+01	0	46	104	0	60	206098
2026-01-29 03:11:36.46	301.10	24.36	-53.6	-74.1	3.6	3.03e+01	0	46	104	0	60	193993
2026-01-29 03:11:39.48	300.17	24.15	-53.5	-72.8	3.6	3.03e+01	0	46	104	0	60	166016
2026-01-29 03:11:42.51	299.24	23.93	-52.1	-73.0	3.6	3.03e+01	0	46	104	0	60	170451
2026-01-29 03:11:45.52	298.34	23.71	-54.9	-74.6	3.5	3.03e+01	0	47	104	0	60	204336
2026-01-29 03:11:48.54	297.44	23.48	-52.5	-73.3	3.6	3.03e+01	0	46	104	0	60	175460
2026-01-29 03:11:51.55	296.57	23.24	-54.8	-75.7	3.5	3.03e+01	0	46	104	0	60	230687
2026-01-29 03:11:54.57	295.70	23.01	-53.0	-73.9	3.6	3.03e+01	0	46	104	0	60	189258
2026-01-29 03:11:57.60	294.84	22.76	-54.1	-74.4	3.6	3.03e+01	0	46	104	0	60	199456
2026-01-29 03:12:00.62	294.01	22.52	-54.3	-73.0	3.7	3.03e+01	0	46	104	0	60	169761
2026-01-29 03:12:03.64	293.18	22.27	-53.7	-73.6	3.6	3.03e+01	0	46	104	0	60	182023
2026-01-29 03:12:06.65	292.37	22.01	-54.3	-75.0	3.5	3.03e+01	0	46	104	0	60	213753
2026-01-29 03:12:09.68	291.57	21.75	-52.5	-72.2	3.6	3.03e+01	0	46	104	0	60	155753
2026-01-29 03:12:12.70	290.79	21.50	-52.9	-73.1	3.6	3.03e+01	0	46	104	0	60	171279
2026-01-29 03:12:15.73	290.02	21.23	-54.6	-74.8	3.5	3.03e+01	0	46	104	0	60	208004
2026-01-29 03:12:18.74	289.27	20.97	-54.2	-73.6	3.5	3.03e+01	0	46	104	0	60	182090
2026-01-29 03:12:21.76	288.53	20.70	-54.9	-75.0	3.5	3.03e+01	0	47	104	0	60	213072
2026-01-29 03:12:24.78	287.80	20.44	-55.2	-73.3	3.6	3.03e+01	0	46	104	0	60	175626
2026-01-29 03:12:27.80	287.08	20.17	-53.8	-73.5	3.6	3.03e+01	0	46	104	0	60	180304
2026-01-29 03:12:30.82	286.38	19.90	-54.8	-74.7	3.5	3.03e+01	0	46	104	0	60	207699
2026-01-29 03:12:33.84	285.69	19.63	-56.1	-75.5	3.5	3.03e+01	0	46	104	0	60	226215
2026-01-29 03:12:36.86	285.02	19.35	-54.1	-75.1	3.5	3.03e+01	0	47	104	0	60	216327
2026-01-29 03:12:39.89	284.35	19.08	-54.5	-75.4	3.5	3.03e+01	0	46	104	0	60	223697
2026-01-29 03:12:42.90	283.71	18.81	-54.6	-73.8	3.7	3.03e+01	0	46	104	0	60	185673
2026-01-29 03:12:45.93	283.07	18.53	-51.8	-62.8	10.9	3.03e+01	0	46	104	0	60	52246
2026-01-29 03:12:48.94	282.44	18.26	-50.6	-72.1	3.8	3.03e+01	0	47	104	0	60	152771
2026-01-29 03:12:51.97	281.83	17.99	-50.6	-72.6	3.7	3.03e+01	0	47	104	0	60	162579
2026-01-29 03:12:54.99	281.22	17.71	-51.8	-73.2	3.6	3.03e+01	0	46	104	0	60	174122
2026-01-29 03:12:58.00	280.64	17.44	-49.1	-68.4	3.7	3.03e+01	0	46	104	0	60	100195
2026-01-29 03:13:01.03	280.05	17.17	-48.8	-68.3	3.8	3.03e+01	0	47	104	0	60	99057
2026-01-29 03:13:04.04	279.49	16.89	-48.8	-69.7	3.8	3.03e+01	0	46	104	524288	60	116052
2026-01-29 03:13:07.05	278.93	16.62	-51.1	-70.6	3.7	3.03e+01	0	46	104	524288	60	129009
2026-01-29 03:13:10.06	278.39	16.35	-53.6	-73.0	3.7	3.03e+01	0	47	104	524288	60	170548
2026-01-29 03:13:13.08	277.85	16.08	-52.2	-71.5	3.6	3.03e+01	0	47	104	524288	60	143798
2026-01-29 03:13:16.10	277.33	15.81	-50.6	-69.9	3.7	3.03e+01	0	46	104	524288	60	118591
2026-01-29 03:13:19.12	276.81	15.54	-52.6	-72.6	3.6	3.03e+01	0	46	104	524288	60	161788
2026-01-29 03:13:22.13	276.31	15.28	-50.3	-71.0	3.7	3.03e+01	0	46	104	524288	60	134509
2026-01-29 03:13:25.14	275.81	15.01	-51.3	-70.0	3.5	3.03e+01	0	46	104	524288	60	120251
2026-01-29 03:13:28.16	275.33	14.75	-51.7	-70.4	3.6	3.03e+01	0	46	104	524288	60	126591
2026-01-29 03:13:31.19	274.85	14.48	-50.5	-71.2	3.7	3.03e+01	0	46	104	524288	60	137582
2026-01-29 03:13:34.21	274.38	14.22	-51.1	-70.9	3.8	3.03e+01	0	46	104	524288	60	132872
2026-01-29 03:13:37.23	273.92	13.96	-51.3	-71.5	3.6	3.03e+01	0	47	104	524288	60	143118
2026-01-29 03:13:40.25	273.47	13.70	-55.3	-74.8	3.5	3.03e+01	0	47	104	524288	60	208407
2026-01-29 03:13:43.26	273.03	13.44	-56.1	-75.2	3.5	3.03e+01	0	46	104	524288	60	217815
2026-01-29 03:13:46.27	272.60	13.19	-51.5	-71.6	3.7	3.03e+01	0	47	104	524288	60	145011
2026-01-29 03:13:49.29	272.17	12.93	-52.6	-68.1	5.3	3.03e+01	0	46	104	524288	60	96521
2026-01-29 03:13:52.30	271.75	12.68	-51.9	-70.8	3.6	3.03e+01	0	46	104	2097152	60	132298
2026-01-29 03:13:55.32	271.34	12.42	-54.5	-63.4	9.3	3.03e+01	0	46	104	2097152	60	56536
2026-01-29 03:13:58.34	270.94	12.17	-52.2	-58.3	15.6	3.03e+01	0	47	0	5242880	60	31135
2026-01-29 03:14:01.35	270.55	11.92	-50.5	-54.1	20.0	3.03e+01	0	46	0	10485760	60	19370
2026-01-29 03:14:04.37	270.16	11.68	-49.4	-51.6	22.8	3.03e+01	0	46	0	16252928	60	14432
2026-01-29 03:14:07.38	269.78	11.43	-48.3	-50.6	24.1	3.03e+01	0	46	0	22020096	60	12893
2026-01-29 03:14:10.41	269.41	11.18	-47.2	-50.7	20.8	3.03e+01	0	46	0	27787264	60	13071
2026-01-29 03:14:13.41	269.04	10.94	-47.2	-50.7	20.4	3.03e+01	0	46	0	33554432	60	13106
2026-01-29 03:14:16.42	268.68	10.70	-47.9	-50.8	21.3	3.03e+01	0	46	0	38797312	60	13195
2026-01-29 03:14:19.44	268.33	10.46	-47.6	-50.9	20.0	3.03e+01	0	47	0	44564480	60	13413
2026-01-29 03:14:22.46	267.98	10.22	-47.5	-50.8	21.1	3.03e+01	0	46	0	50331648	60	13265
2026-01-29 03:14:25.47	267.64	9.99	-48.0	-50.9	20.8	3.03e+01	0	46	0	56098816	60	13387
2026-01-29 03:14:28.49	267.31	9.75	-48.5	-51.0	21.3	3.03e+01	0	46	0	61865984	60	13475
2026-01-29 03:14:31.51	266.98	9.52	-48.5	-51.0	21.5	3.03e+01	0	46	0	67108864	60	13463
2026-01-29 03:14:34.53	266.65	9.29	-48.9	-50.9	23.7	3.03e+01	0	46	0	72876032	60	13396
2026-01-29 03:14:37.56	266.33	9.05	-48.9	-51.2	23.0	3.03e+01	0	46	0	78643200	60	13818
2026-01-29 03:14:40.58	266.02	8.83	-47.8	-51.1	20.1	3.03e+01	0	47	0	84410368	60	13653
2026-01-29 03:14:43.61	265.71	8.60	-48.1	-51.4	20.0	3.03e+01	0	46	0	90177536	60	14075
2026-01-29 03:14:46.63	265.41	8.37	-48.5	-51.3	21.1	3.03e+01	0	46	0	95420416	60	14000
2026-01-29 03:14:49.65	265.12	8.15	-48.0	-51.6	19.8	3.03e+01	0	46	0	101187584	60	14468
2026-01-29 03:14:52.67	264.82	7.92	-48.4	-51.6	20.7	3.03e+01	0	46	0	106954752	60	14522
2026-01-29 03:14:55.69	264.54	7.70	-47.6	-51.3	19.4	3.03e+01	0	46	0	112721920	60	14048
2026-01-29 03:14:58.70	264.26	7.48	-48.0	-51.3	21.5	3.03e+01	0	46	0	118489088	60	14046
2026-01-29 03:15:01.73	263.98	7.26	-49.2	-51.8	21.9	3.03e+01	0	46	0	123731968	60	14871
2026-01-29 03:15:04.75	263.71	7.05	-48.1	-52.2	19.5	3.03e+01	0	46	0	129499136	60	15417
2026-01-29 03:15:07.77	263.44	6.83	-47.7	-52.0	19.5	3.03e+01	0	47	0	135266304	60	15107
2026-01-29 03:15:10.79	263.18	6.62	-48.9	-52.0	20.8	3.03e+01	0	46	0	141033472	60	15181
2026-01-29 03:15:13.81	262.92	6.41	-49.1	-52.3	19.0	3.03e+01	0	47	0	146800640	60	15597
2026-01-29 03:15:16.83	262.66	6.19	-47.5	-52.5	17.5	3.03e+01	0	47	0	152043520	60	16012
2026-01-29 03:15:19.85	262.41	5.98	-53.3	-69.4	3.7	3.03e+01	0	46	0	157810688	60	112137
2026-01-29 03:15:22.87	262.16	5.78	-55.1	-74.6	3.5	3.03e+01	0	46	104	157810688	60	203460
2026-01-29 03:15:25.89	261.92	5.57	-53.0	-74.5	3.6	3.03e+01	0	46	104	157810688	60	201437
2026-01-29 03:15:28.90	261.68	5.36	-56.5	-77.0	3.5	3.03e+01	0	46	104	157810688	60	269329
2026-01-29 03:15:31.92	261.45	5.16	-56.3	-77.7	3.5	3.03e+01	0	47	104	157810688	60	290672
2026-01-29 03:15:34.94	261.22	4.96	-58.0	-78.2	3.5	3.03e+01	0	47	104	157810688	60	308576
2026-01-29 03:15:37.96	260.99	4.75	-56.1	-77.3	3.6	3.03e+01	0	47	104	157810688	60	280164
2026-01-29 03:15:40.98	260.76	4.55	-56.2	-78.1	3.5	3.03e+01	0	46	104	157810688	60	304001
2026-01-29 03:15:44.00	260.54	4.35	-56.5	-77.7	3.5	3.03e+01	0	47	104	157810688	60	290666
2026-01-29 03:15:47.02	260.33	4.16	-56.5	-77.9	3.5	3.03e+01	0	47	104	157810688	60	297218
2026-01-29 03:15:50.05	260.11	3.96	-56.4	-77.9	3.6	3.03e+01	0	46	104	157810688	60	298526
2026-01-29 03:15:53.07	259.90	3.76	-56.4	-77.7	3.5	3.03e+01	0	46	104	157810688	60	291960
2026-01-29 03:15:56.09	259.69	3.57	-56.3	-77.7	3.5	3.03e+01	0	46	104	157810688	60	292039
2026-01-29 03:15:59.11	259.49	3.38	-56.3	-77.4	3.5	3.03e+01	0	46	104	157810688	60	283286
2026-01-29 03:16:02.12	259.29	3.18	-56.3	-77.5	3.5	3.03e+01	0	47	104	157810688	60	284644
2026-01-29 03:16:05.14	259.09	2.99	-56.3	-77.5	3.6	3.03e+01	0	47	104	157810688	60	286374
2026-01-29 03:16:08.16	258.89	2.80	-56.3	-77.5	3.6	3.03e+01	0	46	104	157810688	60	284581
2026-01-29 03:16:11.18	258.70	2.62	-56.3	-77.4	3.5	3.03e+01	0	46	104	157810688	60	281854
2026-01-29 03:16:14.19	258.51	2.43	-56.3	-77.6	3.5	3.03e+01	0	47	104	157810688	60	287458
2026-01-29 03:16:17.21	258.32	2.24	-56.3	-77.4	3.5	3.03e+01	0	47	104	157810688	60	282603
2026-01-29 03:16:20.24	258.14	2.06	-56.2	-77.6	3.5	3.03e+01	0	47	104	157810688	60	289404
2026-01-29 03:16:23.25	257.96	1.87	-56.2	-77.5	3.5	3.03e+01	0	46	104	157810688	60	286125
2026-01-29 03:16:26.27	257.78	1.69	-56.2	-77.4	3.5	3.03e+01	0	47	104	157810688	60	283606
2026-01-29 03:16:29.28	257.60	1.51	-56.2	-77.4	3.6	3.03e+01	0	47	104	157810688	60	283215
2026-01-29 03:16:32.30	257.43	1.33	-56.2	-77.4	3.5	3.03e+01	0	47	104	157810688	60	280879
2026-01-29 03:16:35.32	257.26	1.15	-56.2	-77.3	3.5	3.03e+01	0	47	104	157810688	60	278407
2026-01-29 03:16:38.34	257.09	0.97	-56.1	-77.3	3.6	3.03e+01	0	47	104	157810688	60	278523
2026-01-29 03:16:41.36	256.92	0.79	-56.2	-77.5	3.5	3.03e+01	0	47	104	157810688	60	283737
2026-01-29 03:16:44.38	256.75	0.61	-56.2	-77.4	3.5	3.03e+01	0	47	104	157810688	60	283236
2026-01-29 03:16:47.40	256.59	0.44	-56.1	-77.5	3.5	3.03e+01	0	47	104	157810688	60	284228
2026-01-29 03:16:50.43	256.43	0.26	-56.1	-77.3	3.6	3.03e+01	0	47	104	157810688	60	277286
2026-01-29 03:16:53.45	256.27	0.09	-56.1	-77.4	3.5	3.03e+01	0	47	104	157810688	60	282440

#Closed at: 2026-01-29 03:16:56
#Recorded file [157 MB]: D:/Data/35015_260129_061519.dat