passes_logs/2026/01/29/R3.2S-Naryan-Mar/R3.2S-Naryan-Mar__20260129_012643_AQUA_rec.log

#Pass ID: 20260129_012643_AQUA
#Satellite: AQUA
#Configuration: AQUA
#almurnet v.1.7.20240730
#Start time: 2026-01-29 01:26:45

#Version: 2.2.20231116
#Station: R3.2S-Naryan-Mar
#Location: 53.008057 lon 67.646978 lat
#TLE: 1 27424U 02022A   26027.88561574  .00001798  00000+0  36942-3 0  9997
#TLE: 2 27424  98.4102 354.5311 0001840  63.5604 322.5877 14.61868111262779

#Time	Az	El	Level	Level2	SNR	BER	BlckErr	Temp	State	Recorded	gain1	gain2
2026-01-29 01:26:45.10	23.83	0.08	-59.5	-74.1	3.5	8.45e-01	0	44	0	0	60	198592
2026-01-29 01:26:49.12	23.78	0.32	-56.8	-76.5	3.5	3.02e+01	0	45	104	0	60	253611
2026-01-29 01:26:53.15	23.73	0.57	-57.2	-77.6	3.5	3.02e+01	0	45	104	0	60	287995
2026-01-29 01:26:57.18	23.68	0.83	-56.9	-77.8	3.5	3.02e+01	0	45	104	0	60	293722
2026-01-29 01:27:01.21	23.63	1.08	-51.5	-76.6	3.5	3.02e+01	0	45	104	0	60	256654
2026-01-29 01:27:05.21	23.58	1.34	-50.8	-76.7	3.6	3.02e+01	0	45	104	0	60	260184
2026-01-29 01:27:09.24	23.53	1.60	-50.8	-76.6	3.5	3.02e+01	0	45	104	0	60	256715
2026-01-29 01:27:13.28	23.47	1.86	-50.9	-76.6	3.5	3.02e+01	0	45	104	0	60	256508
2026-01-29 01:27:17.30	23.42	2.12	-50.8	-76.7	3.5	3.02e+01	0	46	104	0	60	259341
2026-01-29 01:27:21.33	23.36	2.39	-50.8	-76.5	3.5	3.02e+01	0	46	104	0	60	254572
2026-01-29 01:27:25.36	23.30	2.66	-50.7	-76.5	3.5	3.02e+01	0	46	104	0	60	255288
2026-01-29 01:27:29.39	23.24	2.94	-50.7	-76.6	3.5	3.02e+01	0	46	104	0	60	257227
2026-01-29 01:27:33.42	23.18	3.21	-50.7	-76.5	3.5	3.02e+01	0	46	104	0	60	253561
2026-01-29 01:27:37.44	23.11	3.49	-50.6	-76.6	3.5	3.02e+01	0	46	104	0	60	256497
2026-01-29 01:27:41.46	23.05	3.77	-50.6	-76.5	3.6	3.02e+01	0	46	104	0	60	254267
2026-01-29 01:27:45.50	22.98	4.06	-50.6	-76.3	3.5	3.02e+01	0	46	104	0	60	249824
2026-01-29 01:27:49.52	22.91	4.35	-50.5	-76.4	3.5	3.02e+01	0	46	104	0	60	252575
2026-01-29 01:27:53.54	22.84	4.64	-50.5	-76.3	3.5	3.02e+01	0	46	104	0	60	248388
2026-01-29 01:27:57.57	22.77	4.94	-50.5	-76.5	3.5	3.02e+01	0	46	104	0	60	253602
2026-01-29 01:28:01.60	22.69	5.24	-50.5	-76.4	3.5	3.02e+01	0	46	104	0	60	251215
2026-01-29 01:28:05.62	22.61	5.54	-50.7	-76.3	3.5	3.02e+01	0	46	104	0	60	247657
2026-01-29 01:28:09.63	22.54	5.85	-50.6	-75.8	3.5	3.02e+01	0	46	104	0	60	233527
2026-01-29 01:28:13.65	22.45	6.16	-50.9	-76.2	3.5	3.02e+01	0	46	104	0	60	245515
2026-01-29 01:28:17.68	22.37	6.48	-52.4	-76.0	3.5	3.02e+01	0	46	104	0	60	240708
2026-01-29 01:28:21.70	22.28	6.79	-50.5	-76.6	3.5	3.02e+01	0	46	104	0	60	256946
2026-01-29 01:28:25.72	22.19	7.12	-50.6	-76.0	3.5	3.02e+01	0	46	104	0	60	238936
2026-01-29 01:28:29.73	22.10	7.45	-51.4	-76.6	3.5	3.02e+01	0	46	104	0	60	256965
2026-01-29 01:28:33.76	22.01	7.78	-50.3	-76.2	3.5	3.02e+01	0	46	104	0	60	246163
2026-01-29 01:28:37.79	21.91	8.12	-50.9	-76.1	3.5	3.02e+01	0	46	104	0	60	242472
2026-01-29 01:28:41.81	21.81	8.46	-50.6	-75.7	3.5	3.02e+01	0	46	104	0	60	230590
2026-01-29 01:28:45.84	21.71	8.81	-51.4	-74.9	3.5	3.02e+01	0	46	104	0	60	211965
2026-01-29 01:28:49.87	21.60	9.16	-50.9	-75.3	3.5	3.02e+01	0	46	104	0	60	222391
2026-01-29 01:28:53.90	21.49	9.52	-52.2	-76.4	3.5	3.02e+01	0	46	104	0	60	250810
2026-01-29 01:28:57.92	21.38	9.89	-50.1	-75.7	3.5	3.02e+01	0	46	104	0	60	232604
2026-01-29 01:29:01.93	21.26	10.26	-52.0	-76.1	3.5	3.02e+01	0	46	104	0	60	243979
2026-01-29 01:29:05.97	21.14	10.64	-51.7	-75.8	3.5	3.02e+01	0	46	104	0	60	234289
2026-01-29 01:29:10.00	21.02	11.02	-51.4	-76.0	3.6	3.02e+01	0	46	104	0	60	240422
2026-01-29 01:29:14.03	20.89	11.41	-47.7	-75.8	3.5	3.02e+01	0	46	104	0	60	234306
2026-01-29 01:29:18.05	20.76	11.81	-52.8	-75.1	3.5	3.02e+01	0	46	104	0	60	217612
2026-01-29 01:29:22.07	20.62	12.21	-51.8	-74.8	3.5	3.02e+01	0	46	104	0	60	210210
2026-01-29 01:29:26.10	20.48	12.63	-50.0	-76.6	3.5	3.02e+01	0	46	104	0	60	256418
2026-01-29 01:29:30.13	20.33	13.05	-51.5	-75.4	3.6	3.02e+01	0	46	104	0	60	224095
2026-01-29 01:29:34.15	20.18	13.47	-53.4	-76.7	3.5	3.02e+01	0	46	104	0	60	261525
2026-01-29 01:29:38.18	20.03	13.91	-53.9	-74.5	3.5	3.02e+01	0	46	104	0	60	202338
2026-01-29 01:29:42.21	19.86	14.35	-53.5	-76.5	3.5	3.02e+01	0	46	104	0	60	253669
2026-01-29 01:29:46.23	19.70	14.81	-53.4	-75.1	3.5	3.02e+01	0	46	104	0	60	215180
2026-01-29 01:29:50.25	19.52	15.27	-54.0	-75.2	3.6	3.02e+01	0	46	104	0	60	219598
2026-01-29 01:29:54.29	19.34	15.74	-54.0	-74.6	3.8	3.02e+01	0	46	104	0	60	204850
2026-01-29 01:29:58.32	19.15	16.23	-52.0	-76.1	3.5	3.02e+01	0	46	104	0	60	241986
2026-01-29 01:30:02.34	18.96	16.72	-53.2	-74.7	3.6	3.02e+01	0	46	104	0	60	206748
2026-01-29 01:30:06.36	18.76	17.22	-54.2	-76.6	3.5	3.02e+01	0	46	104	0	60	256728
2026-01-29 01:30:10.39	18.55	17.74	-52.6	-74.8	3.6	3.02e+01	0	46	104	0	60	208120
2026-01-29 01:30:14.42	18.33	18.26	-49.8	-76.9	3.5	3.02e+01	0	47	104	0	60	266886
2026-01-29 01:30:18.45	18.10	18.80	-51.6	-74.6	3.8	3.02e+01	0	46	104	0	60	203615
2026-01-29 01:30:22.48	17.86	19.35	-54.3	-76.8	3.6	3.02e+01	0	46	104	0	60	262426
2026-01-29 01:30:26.49	17.62	19.92	-51.3	-74.6	3.8	3.02e+01	0	47	104	0	60	204711
2026-01-29 01:30:30.52	17.36	20.50	-54.7	-76.8	3.5	3.02e+01	0	46	104	0	60	261883
2026-01-29 01:30:34.54	17.09	21.09	-54.3	-74.7	3.5	3.02e+01	0	46	104	0	60	207740
2026-01-29 01:30:38.57	16.81	21.70	-54.1	-76.7	3.5	3.02e+01	0	47	104	0	60	261042
2026-01-29 01:30:42.59	16.52	22.32	-54.4	-74.7	3.6	3.02e+01	0	47	104	0	60	206959
2026-01-29 01:30:46.62	16.21	22.96	-56.2	-77.0	3.5	3.02e+01	0	46	104	0	60	269264
2026-01-29 01:30:50.65	15.89	23.62	-55.4	-75.3	3.7	3.02e+01	0	46	104	0	60	222706
2026-01-29 01:30:54.67	15.56	24.29	-56.0	-76.8	3.5	3.02e+01	0	46	104	0	60	263617
2026-01-29 01:30:58.70	15.20	24.98	-55.3	-75.2	3.5	3.02e+01	0	46	104	0	60	219793
2026-01-29 01:31:02.72	14.83	25.69	-55.0	-76.2	3.5	3.02e+01	0	46	104	0	60	245573
2026-01-29 01:31:06.75	14.45	26.42	-55.3	-76.1	3.5	3.02e+01	0	46	104	0	60	243347
2026-01-29 01:31:10.77	14.04	27.17	-54.5	-76.8	3.5	3.02e+01	0	47	104	0	60	263634
2026-01-29 01:31:14.80	13.61	27.94	-55.0	-75.1	3.8	3.02e+01	0	46	104	0	60	215426
2026-01-29 01:31:18.83	13.15	28.74	-54.8	-76.2	3.5	3.02e+01	0	47	104	0	60	244626
2026-01-29 01:31:22.86	12.68	29.56	-54.1	-75.6	3.5	3.02e+01	0	47	104	0	60	228554
2026-01-29 01:31:26.89	12.17	30.40	-52.2	-76.4	3.5	3.02e+01	0	46	104	0	60	250380
2026-01-29 01:31:30.92	11.64	31.27	-52.1	-75.6	3.5	3.02e+01	0	47	104	0	60	228346
2026-01-29 01:31:34.94	11.07	32.15	-55.5	-76.6	3.5	3.02e+01	0	47	104	0	60	256754
2026-01-29 01:31:38.97	10.47	33.07	-56.5	-76.6	3.5	3.02e+01	0	47	104	0	60	258624
2026-01-29 01:31:43.00	9.84	34.02	-56.5	-76.7	3.5	3.02e+01	0	47	104	0	60	260411
2026-01-29 01:31:47.02	9.16	34.98	-56.5	-76.6	3.5	3.02e+01	0	47	104	0	60	258052
2026-01-29 01:31:51.05	8.44	35.98	-56.9	-76.5	3.5	3.02e+01	0	47	104	0	60	254000
2026-01-29 01:31:55.08	7.67	37.01	-57.0	-76.7	3.5	3.02e+01	0	47	104	0	60	258751
2026-01-29 01:31:59.11	6.84	38.07	-56.9	-76.7	3.5	3.02e+01	0	46	104	0	60	261147
2026-01-29 01:32:03.14	5.96	39.15	-56.6	-77.1	3.5	3.02e+01	0	47	104	0	60	272288
2026-01-29 01:32:07.16	5.02	40.26	-57.1	-77.3	3.5	3.02e+01	0	47	104	0	60	277339
2026-01-29 01:32:11.19	4.00	41.40	-56.9	-77.1	3.5	3.02e+01	0	47	104	0	60	273859
2026-01-29 01:32:15.23	2.91	42.58	-57.0	-77.1	3.5	3.02e+01	0	46	104	0	60	272737
2026-01-29 01:32:19.26	1.73	43.77	-56.8	-76.9	3.5	3.02e+01	0	47	104	0	60	265658
2026-01-29 01:32:23.27	0.46	44.99	-56.4	-76.6	3.6	3.02e+01	0	47	104	0	60	256585
2026-01-29 01:32:27.29	359.08	46.23	-54.8	-75.5	3.6	3.02e+01	0	47	104	0	60	226268
2026-01-29 01:32:31.33	357.58	47.50	-54.9	-76.0	3.6	3.02e+01	0	47	104	0	60	239627
2026-01-29 01:32:35.35	355.95	48.78	-53.9	-75.7	3.5	3.02e+01	0	47	104	0	60	231037
2026-01-29 01:32:39.37	354.18	50.07	-54.6	-75.9	3.5	3.02e+01	0	47	104	0	60	235959
2026-01-29 01:32:43.40	352.25	51.37	-55.0	-75.5	3.5	3.02e+01	0	46	104	0	60	226667
2026-01-29 01:32:47.43	350.13	52.67	-56.1	-76.8	3.5	3.02e+01	0	46	104	0	60	264178
2026-01-29 01:32:51.45	347.83	53.96	-55.9	-76.7	3.5	3.02e+01	0	47	104	0	60	261396
2026-01-29 01:32:55.47	345.30	55.23	-55.7	-77.4	3.5	3.02e+01	0	47	104	0	60	280962
2026-01-29 01:32:59.50	342.53	56.48	-56.3	-77.4	3.5	3.02e+01	0	47	104	0	60	280785
2026-01-29 01:33:03.53	339.50	57.68	-56.9	-77.6	3.5	3.02e+01	0	47	104	0	60	288656
2026-01-29 01:33:07.56	336.19	58.83	-57.4	-77.7	3.5	3.02e+01	0	47	104	0	60	290783
2026-01-29 01:33:11.59	332.59	59.90	-56.5	-77.5	3.5	3.02e+01	0	47	104	0	60	284857
2026-01-29 01:33:15.62	328.69	60.88	-55.8	-77.0	3.5	3.02e+01	0	47	104	0	60	270341
2026-01-29 01:33:19.64	324.50	61.74	-55.6	-76.8	3.5	3.02e+01	0	46	104	0	60	264559
2026-01-29 01:33:23.67	320.01	62.47	-56.4	-77.3	3.5	3.02e+01	0	47	104	0	60	278004
2026-01-29 01:33:27.69	315.29	63.05	-56.3	-77.1	3.5	3.02e+01	0	46	104	0	60	271557
2026-01-29 01:33:31.72	310.34	63.47	-55.3	-76.7	3.5	3.02e+01	0	47	104	0	60	258853
2026-01-29 01:33:35.76	305.25	63.71	-54.7	-76.9	3.5	3.02e+01	0	47	104	0	60	265651
2026-01-29 01:33:39.78	300.11	63.76	-55.1	-76.9	3.5	3.02e+01	0	47	104	0	60	266911
2026-01-29 01:33:43.80	295.00	63.62	-54.9	-77.3	3.5	3.02e+01	0	47	104	0	60	277694
2026-01-29 01:33:47.83	289.97	63.30	-56.0	-77.0	3.5	3.02e+01	0	46	104	0	60	267858
2026-01-29 01:33:51.86	285.11	62.81	-55.2	-76.2	3.5	3.02e+01	0	46	104	0	60	244305
2026-01-29 01:33:55.88	280.49	62.15	-54.9	-76.6	3.5	3.02e+01	0	46	104	0	60	257982
2026-01-29 01:33:59.89	276.15	61.36	-54.9	-77.1	3.5	3.02e+01	0	47	104	0	60	273717
2026-01-29 01:34:03.90	272.10	60.44	-55.6	-77.4	3.5	3.02e+01	0	47	104	0	60	283420
2026-01-29 01:34:07.92	268.34	59.42	-56.3	-76.5	3.5	3.02e+01	0	46	104	0	60	254028
2026-01-29 01:34:11.95	264.87	58.32	-57.2	-77.0	3.5	3.02e+01	0	47	104	0	60	268123
2026-01-29 01:34:15.96	261.70	57.15	-57.3	-76.8	3.5	3.02e+01	0	47	104	0	60	264437
2026-01-29 01:34:19.99	258.78	55.92	-57.1	-76.5	3.5	3.02e+01	0	47	104	0	60	254338
2026-01-29 01:34:24.02	256.12	54.66	-55.7	-75.5	3.5	3.02e+01	0	47	104	0	60	227350
2026-01-29 01:34:28.06	253.68	53.37	-55.5	-74.1	3.7	3.02e+01	0	47	104	0	60	193022
2026-01-29 01:34:32.08	251.46	52.07	-56.1	-76.1	3.5	3.02e+01	0	47	104	0	60	242503
2026-01-29 01:34:36.10	249.43	50.77	-56.0	-73.9	3.9	3.02e+01	0	47	104	0	60	189322
2026-01-29 01:34:40.12	247.57	49.47	-55.8	-76.3	3.5	3.02e+01	0	47	104	0	60	248609
2026-01-29 01:34:44.14	245.87	48.18	-56.1	-73.6	3.9	3.02e+01	0	47	104	0	60	182830
2026-01-29 01:34:48.17	244.30	46.90	-55.9	-75.1	3.5	3.02e+01	0	47	104	0	60	217597
2026-01-29 01:34:52.18	242.86	45.65	-56.3	-74.0	3.8	3.02e+01	0	46	104	0	60	190727
2026-01-29 01:34:56.21	241.52	44.41	-57.2	-76.1	3.5	3.02e+01	0	46	104	0	60	242778
2026-01-29 01:35:00.24	240.29	43.19	-57.3	-74.6	3.8	3.02e+01	0	46	104	0	60	205280
2026-01-29 01:35:04.26	239.15	42.01	-56.3	-76.1	3.5	3.02e+01	0	47	104	0	60	242153
2026-01-29 01:35:08.27	238.10	40.85	-56.4	-75.1	3.5	3.02e+01	0	47	104	0	60	216886
2026-01-29 01:35:12.29	237.11	39.72	-56.8	-74.5	3.6	3.02e+01	0	47	104	0	60	202139
2026-01-29 01:35:16.32	236.19	38.62	-56.9	-75.5	3.5	3.02e+01	0	47	104	0	60	226275
2026-01-29 01:35:20.36	235.34	37.54	-56.6	-74.9	3.6	3.02e+01	0	47	104	0	60	211634
2026-01-29 01:35:24.38	234.54	36.50	-57.1	-75.3	3.5	3.02e+01	0	47	104	0	60	221569
2026-01-29 01:35:28.41	233.79	35.48	-56.9	-74.9	3.6	3.02e+01	0	47	104	0	60	211550
2026-01-29 01:35:32.45	233.08	34.49	-57.1	-75.2	3.5	3.02e+01	0	47	104	0	60	218342
2026-01-29 01:35:36.47	232.42	33.53	-56.6	-74.9	3.7	3.02e+01	0	47	104	0	60	210361
2026-01-29 01:35:40.49	231.80	32.60	-57.0	-74.8	3.7	3.02e+01	0	47	104	0	60	209613
2026-01-29 01:35:44.53	231.21	31.69	-56.6	-74.0	4.0	3.02e+01	0	47	104	0	60	190054
2026-01-29 01:35:48.56	230.66	30.80	-56.8	-71.6	4.9	3.02e+01	0	47	104	0	60	145466
2026-01-29 01:35:52.59	230.14	29.95	-56.5	-70.1	5.6	3.02e+01	0	47	0	0	60	122183
2026-01-29 01:35:56.61	229.64	29.12	-56.1	-70.8	5.4	3.02e+01	0	47	104	524288	60	131581
2026-01-29 01:36:00.64	229.18	28.31	-55.6	-66.1	8.6	3.02e+01	0	47	0	5767168	60	76598
2026-01-29 01:36:04.67	228.73	27.52	-55.5	-65.9	8.5	3.02e+01	0	47	0	13631488	60	75280
2026-01-29 01:36:08.70	228.31	26.75	-55.5	-65.7	8.8	3.02e+01	0	47	0	20971520	60	73338
2026-01-29 01:36:12.72	227.91	26.01	-55.5	-65.1	9.8	3.02e+01	0	47	0	28835840	60	68343
2026-01-29 01:36:16.75	227.53	25.29	-55.4	-64.0	11.2	3.02e+01	0	47	0	36175872	60	60060
2026-01-29 01:36:20.77	227.17	24.58	-55.2	-63.1	11.6	3.02e+01	0	47	0	43515904	60	54492
2026-01-29 01:36:24.80	226.82	23.90	-54.9	-63.7	10.7	3.02e+01	0	46	0	51380224	60	58232
2026-01-29 01:36:28.82	226.49	23.23	-53.8	-62.0	11.9	3.02e+01	0	46	0	58720256	60	48140
2026-01-29 01:36:32.85	226.17	22.58	-53.0	-62.6	11.0	3.02e+01	0	47	0	66584576	60	51333
2026-01-29 01:36:36.89	225.87	21.95	-52.8	-62.0	11.8	3.02e+01	0	46	0	73924608	60	47885
2026-01-29 01:36:40.92	225.58	21.33	-53.0	-61.2	13.2	3.02e+01	0	46	0	81788928	60	43902
2026-01-29 01:36:44.95	225.31	20.72	-53.2	-61.1	13.6	3.02e+01	0	47	0	89128960	60	43036
2026-01-29 01:36:48.98	225.04	20.14	-53.0	-59.8	14.4	3.02e+01	0	47	0	96468992	60	37206
2026-01-29 01:36:53.01	224.79	19.56	-52.7	-59.7	13.6	3.02e+01	0	47	0	104333312	60	36786
2026-01-29 01:36:57.04	224.54	19.00	-52.8	-61.7	11.9	3.02e+01	0	47	0	111673344	60	46337
2026-01-29 01:37:01.07	224.31	18.45	-53.3	-61.9	12.6	3.02e+01	0	46	0	119013376	60	47113
2026-01-29 01:37:05.08	224.08	17.92	-54.0	-62.6	11.7	3.02e+01	0	47	0	126877696	60	51053
2026-01-29 01:37:09.11	223.87	17.40	-53.8	-61.6	11.8	3.02e+01	0	46	0	134217728	60	45951
2026-01-29 01:37:13.15	223.66	16.89	-53.3	-60.7	12.6	3.02e+01	0	47	0	142082048	60	41360
2026-01-29 01:37:17.18	223.46	16.39	-53.4	-60.4	13.5	3.02e+01	0	46	0	149422080	60	39762
2026-01-29 01:37:21.21	223.26	15.90	-53.9	-61.4	12.9	3.02e+01	0	47	0	156762112	60	44492
2026-01-29 01:37:25.24	223.08	15.42	-53.7	-62.9	11.0	3.02e+01	0	46	0	164626432	60	53021
2026-01-29 01:37:29.27	222.90	14.95	-52.1	-63.3	10.2	3.02e+01	0	47	0	171966464	60	55520
2026-01-29 01:37:33.29	222.72	14.49	-51.5	-64.4	8.5	3.02e+01	0	47	0	179830784	60	62831
2026-01-29 01:37:37.31	222.56	14.04	-51.9	-63.2	9.5	3.02e+01	0	47	0	187170816	60	55106
2026-01-29 01:37:41.34	222.39	13.60	-53.0	-62.1	11.8	3.02e+01	0	47	0	195035136	60	48326
2026-01-29 01:37:45.37	222.24	13.17	-53.3	-61.4	12.1	3.02e+01	0	47	0	202375168	60	44511
2026-01-29 01:37:49.40	222.09	12.74	-52.2	-62.8	9.7	3.02e+01	0	47	0	209715200	60	52545
2026-01-29 01:37:53.41	221.94	12.33	-49.4	-61.8	8.2	3.02e+01	0	47	0	217579520	60	46597
2026-01-29 01:37:57.44	221.80	11.92	-46.7	-63.6	3.9	3.02e+01	0	47	104	224395264	60	57686
2026-01-29 01:38:01.47	221.66	11.51	-45.4	-62.7	3.9	3.02e+01	0	47	104	524288	60	51888
2026-01-29 01:38:05.50	221.53	11.12	-44.5	-62.4	3.9	3.02e+01	0	46	104	524288	60	49906
2026-01-29 01:38:09.52	221.40	10.73	-44.3	-62.8	4.3	3.02e+01	0	47	104	524288	60	52431
2026-01-29 01:38:13.53	221.28	10.35	-51.3	-70.2	3.6	3.02e+01	0	46	104	524288	60	122854
2026-01-29 01:38:17.56	221.16	9.98	-50.2	-69.5	3.6	3.02e+01	0	46	104	524288	60	113610
2026-01-29 01:38:21.59	221.04	9.61	-50.0	-69.9	3.6	3.02e+01	0	46	104	524288	60	118338
2026-01-29 01:38:25.61	220.93	9.24	-50.5	-69.9	3.6	3.02e+01	0	46	104	524288	60	119390
2026-01-29 01:38:29.63	220.82	8.89	-50.7	-71.3	3.6	3.02e+01	0	46	104	524288	60	139693
2026-01-29 01:38:33.66	220.71	8.53	-50.6	-71.2	3.5	3.02e+01	0	46	104	524288	60	137691
2026-01-29 01:38:37.69	220.61	8.19	-50.8	-72.6	3.5	3.02e+01	0	47	104	524288	60	161630
2026-01-29 01:38:41.71	220.50	7.85	-50.7	-72.5	3.5	3.02e+01	0	46	104	524288	60	160380
2026-01-29 01:38:45.73	220.41	7.51	-51.8	-72.9	3.5	3.02e+01	0	46	104	524288	60	167685
2026-01-29 01:38:49.76	220.31	7.18	-52.3	-72.6	3.5	3.02e+01	0	47	104	524288	60	162332
2026-01-29 01:38:53.79	220.22	6.85	-52.6	-72.4	3.5	3.02e+01	0	47	104	524288	60	159323
2026-01-29 01:38:57.81	220.13	6.53	-52.6	-72.8	3.5	3.02e+01	0	46	104	524288	60	165162
2026-01-29 01:39:01.83	220.04	6.21	-52.1	-71.2	3.5	3.02e+01	0	47	104	524288	60	137889
2026-01-29 01:39:05.86	219.95	5.90	-53.5	-73.0	3.5	3.02e+01	0	47	104	524288	60	170590
2026-01-29 01:39:09.89	219.87	5.59	-51.6	-74.4	3.5	3.02e+01	0	47	104	524288	60	198856
2026-01-29 01:39:13.92	219.79	5.28	-57.2	-77.4	3.5	3.02e+01	0	47	104	524288	60	282773
2026-01-29 01:39:17.95	219.71	4.98	-57.9	-78.0	3.5	3.02e+01	0	47	104	524288	60	300732
2026-01-29 01:39:21.98	219.63	4.68	-53.3	-74.2	3.7	3.02e+01	0	47	104	524288	60	195908
2026-01-29 01:39:26.01	219.56	4.38	-52.4	-74.0	3.7	3.02e+01	0	47	104	524288	60	191428
2026-01-29 01:39:30.03	219.49	4.09	-52.4	-74.0	3.7	3.02e+01	0	47	104	524288	60	190446
2026-01-29 01:39:34.06	219.41	3.80	-52.5	-74.2	3.7	3.02e+01	0	47	104	524288	60	194704
2026-01-29 01:39:38.09	219.35	3.52	-52.7	-74.2	3.7	3.02e+01	0	47	104	524288	60	194752
2026-01-29 01:39:42.12	219.28	3.24	-52.8	-74.4	3.7	3.02e+01	0	47	104	524288	60	198841
2026-01-29 01:39:46.14	219.21	2.96	-52.8	-74.5	3.7	3.02e+01	0	47	104	524288	60	202572
2026-01-29 01:39:50.16	219.15	2.68	-52.9	-75.1	3.7	3.02e+01	0	46	104	524288	60	215178
2026-01-29 01:39:54.18	219.08	2.41	-53.0	-74.6	3.7	3.02e+01	0	46	104	524288	60	203731
2026-01-29 01:39:58.21	219.02	2.14	-53.1	-75.2	3.7	3.02e+01	0	46	104	524288	60	219518
2026-01-29 01:40:02.24	218.96	1.88	-53.1	-74.7	3.7	3.02e+01	0	46	104	524288	60	206201
2026-01-29 01:40:06.26	218.90	1.61	-53.2	-75.3	3.7	3.02e+01	0	46	104	524288	60	221721
2026-01-29 01:40:10.29	218.85	1.35	-53.2	-74.9	3.7	3.02e+01	0	46	104	524288	60	211358
2026-01-29 01:40:14.32	218.79	1.09	-53.2	-75.3	3.7	3.02e+01	0	46	104	524288	60	220424
2026-01-29 01:40:18.35	218.74	0.83	-53.3	-75.0	3.6	3.02e+01	0	46	104	524288	60	214458
2026-01-29 01:40:22.38	218.68	0.58	-53.4	-74.9	3.7	3.02e+01	0	46	104	524288	60	212068
2026-01-29 01:40:26.40	218.63	0.33	-53.4	-75.3	3.7	3.02e+01	0	47	104	524288	60	222257
2026-01-29 01:40:30.43	218.58	0.08	-53.5	-75.3	3.7	3.02e+01	0	47	104	524288	60	222014

#Closed at: 2026-01-29 01:40:32
#Recorded file [0 MB]: D:/Data/35015_260129_043806.dat