passes_logs/2026/01/29/R3.2S-Naryan-Mar/R3.2S-Naryan-Mar__20260129_024645_FENGYUN_3E_rec.log

#Pass ID: 20260129_024645_FENGYUN 3E
#Satellite: FENGYUN 3E
#Configuration: FENGYUN 3E
#almurnet v.1.7.20240730
#Start time: 2026-01-29 02:46:48

#Version: 2.2.20231116
#Station: R3.2S-Naryan-Mar
#Location: 53.008057 lon 67.646978 lat
#TLE: 1 49008U 21062A   26027.83084825  .00000170  00000+0  10081-3 0  9997
#TLE: 2 49008  98.7501  32.8098 0002509 114.2687 245.8752 14.19888158236667

#Time	Az	El	Level	Level2	SNR	BER	BlckErr	Temp	State	Recorded	gain1	gain2
2026-01-29 02:46:48.26	20.54	0.13	-57.0	-71.2	3.3	8.41e-01	0	45	0	0	60	142062
2026-01-29 02:46:52.29	20.63	0.37	-60.1	-73.8	3.6	8.45e-01	0	45	104	0	60	191313
2026-01-29 02:46:56.32	20.73	0.61	-56.6	-73.1	3.6	8.45e-01	0	45	104	0	60	177787
2026-01-29 02:47:00.35	20.82	0.85	-58.7	-73.1	3.6	8.44e-01	0	45	104	0	60	177224
2026-01-29 02:47:04.37	20.92	1.10	-49.2	-66.2	3.6	8.45e-01	0	45	104	0	60	80364
2026-01-29 02:47:08.39	21.02	1.34	-49.3	-66.5	3.6	8.46e-01	0	45	104	0	60	82801
2026-01-29 02:47:12.42	21.12	1.59	-49.3	-66.6	3.6	8.44e-01	0	46	104	0	60	83637
2026-01-29 02:47:16.45	21.22	1.84	-49.3	-66.6	3.6	8.46e-01	0	46	104	0	60	83763
2026-01-29 02:47:20.48	21.32	2.09	-49.4	-66.6	3.6	8.46e-01	0	46	104	0	60	84136
2026-01-29 02:47:24.51	21.43	2.35	-49.0	-66.8	3.6	8.45e-01	0	46	104	0	60	85590
2026-01-29 02:47:28.54	21.53	2.60	-49.0	-66.8	3.6	8.45e-01	0	46	104	0	60	85358
2026-01-29 02:47:32.57	21.64	2.86	-49.4	-66.7	3.6	8.45e-01	0	46	104	0	60	84975
2026-01-29 02:47:36.59	21.75	3.12	-49.4	-66.8	3.6	8.45e-01	0	46	104	0	60	85234
2026-01-29 02:47:40.61	21.86	3.39	-49.2	-66.6	3.6	8.45e-01	0	46	104	0	60	83464
2026-01-29 02:47:44.65	21.97	3.65	-49.2	-66.6	3.6	8.45e-01	0	46	104	0	60	83461
2026-01-29 02:47:48.67	22.09	3.92	-49.0	-66.7	3.6	8.44e-01	0	46	104	0	60	84465
2026-01-29 02:47:52.69	22.20	4.19	-49.3	-66.7	3.6	8.46e-01	0	46	104	0	60	84934
2026-01-29 02:47:56.72	22.32	4.47	-49.5	-66.5	3.6	8.44e-01	0	46	104	0	60	82554
2026-01-29 02:48:00.75	22.44	4.74	-49.4	-66.6	3.6	8.45e-01	0	46	104	0	60	84067
2026-01-29 02:48:04.78	22.56	5.02	-49.3	-66.7	3.6	8.45e-01	0	46	104	0	60	84266
2026-01-29 02:48:08.79	22.69	5.31	-49.1	-66.6	3.6	8.44e-01	0	46	104	0	60	83765
2026-01-29 02:48:12.81	22.81	5.59	-49.1	-66.5	3.6	8.44e-01	0	46	104	0	60	82660
2026-01-29 02:48:16.83	22.94	5.88	-49.0	-66.5	3.6	8.46e-01	0	46	104	0	60	82380
2026-01-29 02:48:20.86	23.07	6.17	-53.7	-65.7	3.6	8.46e-01	0	46	104	0	60	75127
2026-01-29 02:48:24.87	23.20	6.46	-49.0	-65.5	3.6	8.46e-01	0	46	104	0	60	73902
2026-01-29 02:48:28.91	23.33	6.76	-48.1	-67.4	3.6	8.43e-01	0	46	104	0	60	91445
2026-01-29 02:48:32.93	23.47	7.06	-50.5	-64.1	3.6	8.46e-01	0	46	104	0	60	62684
2026-01-29 02:48:36.96	23.61	7.37	-56.6	-70.6	3.6	8.45e-01	0	46	104	0	60	132104
2026-01-29 02:48:40.99	23.75	7.68	-50.1	-64.0	3.6	8.45e-01	0	46	104	0	60	62333
2026-01-29 02:48:45.00	23.90	7.99	-55.4	-70.7	3.6	8.45e-01	0	46	104	0	60	134873
2026-01-29 02:48:49.02	24.04	8.30	-48.6	-67.8	3.6	8.46e-01	0	46	104	0	60	96238
2026-01-29 02:48:53.04	24.19	8.62	-54.5	-69.3	3.6	8.45e-01	0	46	104	0	60	113827
2026-01-29 02:48:57.05	24.35	8.94	-53.3	-69.2	3.6	8.45e-01	0	46	104	0	60	112386
2026-01-29 02:49:01.08	24.50	9.27	-53.4	-69.3	3.6	8.45e-01	0	46	104	0	60	113835
2026-01-29 02:49:05.09	24.66	9.60	-55.0	-70.7	3.6	8.45e-01	0	46	104	0	60	134295
2026-01-29 02:49:09.12	24.82	9.94	-49.3	-66.0	3.6	8.45e-01	0	47	104	0	60	77810
2026-01-29 02:49:13.15	24.99	10.28	-56.0	-70.0	3.6	8.45e-01	0	46	104	0	60	123930
2026-01-29 02:49:17.17	25.16	10.63	-53.8	-71.9	3.6	8.46e-01	0	46	104	0	60	153928
2026-01-29 02:49:21.19	25.33	10.98	-55.8	-70.9	3.6	8.45e-01	0	46	104	0	60	137733
2026-01-29 02:49:25.21	25.51	11.33	-53.8	-71.7	3.6	8.46e-01	0	46	104	0	60	151363
2026-01-29 02:49:29.23	25.69	11.69	-54.7	-71.4	3.6	8.46e-01	0	46	104	0	60	146096
2026-01-29 02:49:33.26	25.87	12.06	-58.3	-71.5	3.6	8.46e-01	0	46	104	0	60	148003
2026-01-29 02:49:37.28	26.06	12.43	-55.4	-71.4	3.6	8.46e-01	0	46	104	0	60	145455
2026-01-29 02:49:41.32	26.26	12.80	-52.9	-70.2	3.6	8.44e-01	0	46	104	0	60	127294
2026-01-29 02:49:45.35	26.45	13.19	-56.0	-69.5	3.6	8.45e-01	0	46	104	0	60	116712
2026-01-29 02:49:49.38	26.66	13.57	-51.1	-71.1	3.6	8.44e-01	0	46	104	0	60	140917
2026-01-29 02:49:53.40	26.86	13.97	-55.7	-71.0	3.6	8.46e-01	0	46	104	0	60	138970
2026-01-29 02:49:57.42	27.08	14.37	-53.1	-72.2	3.6	8.44e-01	0	46	104	0	60	159814
2026-01-29 02:50:01.45	27.29	14.77	-52.6	-70.8	3.6	8.45e-01	0	46	104	0	60	136100
2026-01-29 02:50:05.47	27.52	15.18	-54.2	-71.7	3.6	8.46e-01	0	46	104	0	60	150687
2026-01-29 02:50:09.50	27.75	15.60	-51.3	-70.8	3.6	8.44e-01	0	46	104	0	60	136081
2026-01-29 02:50:13.53	27.98	16.03	-50.9	-71.2	3.6	8.45e-01	0	46	104	0	60	141510
2026-01-29 02:50:17.57	28.23	16.47	-48.8	-70.2	3.6	8.45e-01	0	46	104	0	60	126992
2026-01-29 02:50:21.59	28.47	16.91	-51.3	-70.7	3.6	8.45e-01	0	46	104	0	60	133797
2026-01-29 02:50:25.60	28.73	17.35	-52.2	-70.4	3.6	8.46e-01	0	46	104	0	60	129212
2026-01-29 02:50:29.63	28.99	17.81	-46.5	-71.9	3.6	8.45e-01	0	46	104	0	60	153982
2026-01-29 02:50:33.66	29.26	18.28	-57.2	-70.2	3.6	8.45e-01	0	46	104	0	60	126094
2026-01-29 02:50:37.68	29.54	18.75	-49.3	-71.8	3.6	8.45e-01	0	47	104	0	60	152758
2026-01-29 02:50:41.71	29.83	19.23	-56.5	-70.3	3.6	8.44e-01	0	46	104	0	60	128389
2026-01-29 02:50:45.74	30.12	19.72	-53.0	-71.8	3.6	8.45e-01	0	46	104	0	60	152723
2026-01-29 02:50:49.77	30.42	20.22	-51.5	-70.6	3.6	8.44e-01	0	46	104	0	60	133274
2026-01-29 02:50:53.80	30.74	20.73	-51.7	-72.6	3.6	8.45e-01	0	46	104	0	60	167127
2026-01-29 02:50:57.80	31.06	21.25	-53.9	-70.0	3.6	8.45e-01	0	46	104	0	60	123869
2026-01-29 02:51:01.83	31.39	21.78	-55.5	-72.1	3.6	8.44e-01	0	46	104	0	60	157060
2026-01-29 02:51:05.86	31.74	22.32	-57.0	-71.1	3.6	8.45e-01	0	47	104	0	60	140764
2026-01-29 02:51:09.89	32.10	22.87	-57.8	-69.9	3.6	8.45e-01	0	47	104	0	60	121994
2026-01-29 02:51:13.92	32.47	23.43	-56.3	-71.1	3.6	8.46e-01	0	47	104	0	60	139832
2026-01-29 02:51:17.94	32.85	24.00	-54.9	-70.7	3.6	8.46e-01	0	47	104	0	60	133809
2026-01-29 02:51:21.97	33.24	24.59	-54.2	-70.0	3.6	8.44e-01	0	46	104	0	60	123924
2026-01-29 02:51:26.00	33.66	25.18	-57.3	-71.2	3.6	8.45e-01	0	47	104	0	60	142134
2026-01-29 02:51:30.03	34.08	25.79	-56.0	-69.6	3.7	8.45e-01	0	47	104	0	60	117930
2026-01-29 02:51:34.04	34.52	26.41	-53.4	-72.2	3.6	8.46e-01	0	47	104	0	60	160356
2026-01-29 02:51:38.08	34.98	27.05	-53.9	-69.7	3.6	8.44e-01	0	47	104	0	60	120374
2026-01-29 02:51:42.11	35.46	27.70	-57.9	-69.8	3.6	8.44e-01	0	47	104	0	60	120411
2026-01-29 02:51:46.13	35.95	28.36	-58.9	-70.6	3.7	8.44e-01	0	47	104	0	60	132105
2026-01-29 02:51:50.15	36.47	29.03	-53.6	-70.3	3.6	8.44e-01	0	47	104	0	60	128896
2026-01-29 02:51:54.17	37.01	29.72	-51.6	-70.0	3.7	8.45e-01	0	47	104	0	60	123775
2026-01-29 02:51:58.21	37.57	30.42	-55.0	-69.9	3.6	8.44e-01	0	47	104	0	60	122968
2026-01-29 02:52:02.23	38.15	31.14	-58.9	-70.2	3.7	8.44e-01	0	47	104	0	60	126265
2026-01-29 02:52:06.25	38.76	31.87	-58.4	-70.2	3.6	8.44e-01	0	47	104	0	60	127016
2026-01-29 02:52:10.27	39.40	32.62	-57.2	-70.2	3.8	8.43e-01	0	47	104	0	60	126162
2026-01-29 02:52:14.30	40.07	33.38	-52.9	-70.0	3.8	8.44e-01	0	47	104	0	60	123932
2026-01-29 02:52:18.32	40.77	34.16	-53.6	-69.7	3.7	8.42e-01	0	47	104	0	60	119207
2026-01-29 02:52:22.33	41.50	34.95	-53.6	-69.7	3.8	8.43e-01	0	47	104	0	60	120012
2026-01-29 02:52:26.37	42.27	35.76	-58.1	-70.2	3.8	8.43e-01	0	47	104	0	60	126726
2026-01-29 02:52:30.40	43.08	36.58	-57.9	-69.9	3.8	8.44e-01	0	47	104	0	60	122962
2026-01-29 02:52:34.43	43.93	37.42	-57.9	-70.0	3.8	8.44e-01	0	47	104	0	60	124533
2026-01-29 02:52:38.45	44.82	38.27	-58.3	-69.9	3.7	8.44e-01	0	47	104	0	60	122335
2026-01-29 02:52:42.48	45.76	39.14	-58.9	-69.9	3.7	8.46e-01	0	47	104	0	60	122600
2026-01-29 02:52:46.51	46.76	40.02	-59.0	-70.0	3.6	8.44e-01	0	47	104	0	60	124568
2026-01-29 02:52:50.54	47.80	40.91	-59.3	-70.1	3.6	8.43e-01	0	47	104	0	60	125113
2026-01-29 02:52:54.55	48.90	41.81	-59.1	-70.0	3.8	8.43e-01	0	47	104	0	60	123520
2026-01-29 02:52:58.58	50.07	42.73	-58.4	-70.1	3.8	8.43e-01	0	47	104	0	60	125758
2026-01-29 02:53:02.61	51.31	43.65	-58.7	-69.9	3.6	8.42e-01	0	47	104	0	60	122552
2026-01-29 02:53:06.63	52.62	44.58	-59.1	-70.5	3.7	8.46e-01	0	46	104	0	60	130892
2026-01-29 02:53:10.65	54.00	45.52	-59.5	-70.9	3.6	8.45e-01	0	47	104	0	60	137593
2026-01-29 02:53:14.68	55.48	46.46	-58.6	-70.5	3.7	8.43e-01	0	46	104	0	60	131391
2026-01-29 02:53:18.71	57.04	47.40	-59.2	-70.6	3.6	8.45e-01	0	47	104	0	60	133328
2026-01-29 02:53:22.74	58.70	48.34	-59.5	-70.8	3.7	8.44e-01	0	47	104	0	60	135677
2026-01-29 02:53:26.76	60.45	49.26	-59.3	-71.1	3.6	8.44e-01	0	46	104	0	60	140391
2026-01-29 02:53:30.78	62.31	50.18	-59.7	-73.6	3.6	8.45e-01	0	46	104	0	60	187646
2026-01-29 02:53:34.81	64.30	51.09	-59.5	-72.0	3.6	8.45e-01	0	47	104	0	60	155982
2026-01-29 02:53:38.83	66.40	51.97	-58.9	-72.4	3.6	8.45e-01	0	47	104	0	60	163562
2026-01-29 02:53:42.85	68.62	52.83	-59.6	-72.7	3.6	8.44e-01	0	46	104	0	60	168845
2026-01-29 02:53:46.86	70.97	53.65	-59.2	-73.7	3.6	8.46e-01	0	46	104	0	60	190011
2026-01-29 02:53:50.88	73.46	54.44	-59.8	-72.5	3.6	8.45e-01	0	47	104	0	60	165731
2026-01-29 02:53:54.90	76.08	55.18	-60.2	-73.8	3.6	8.45e-01	0	47	104	0	60	192538
2026-01-29 02:53:58.92	78.84	55.87	-60.0	-73.3	3.6	8.46e-01	0	47	104	0	60	181038
2026-01-29 02:54:02.94	81.74	56.50	-59.1	-73.7	3.6	8.45e-01	0	47	104	0	60	190648
2026-01-29 02:54:06.97	84.77	57.07	-59.1	-73.9	3.6	8.45e-01	0	46	104	0	60	193853
2026-01-29 02:54:11.01	87.92	57.57	-60.6	-73.9	3.6	8.46e-01	0	47	104	0	60	194917
2026-01-29 02:54:15.03	91.17	57.98	-60.9	-73.8	3.6	8.46e-01	0	47	104	0	60	192272
2026-01-29 02:54:19.05	94.51	58.31	-60.4	-73.8	3.6	8.46e-01	0	47	104	0	60	192443
2026-01-29 02:54:23.08	97.93	58.55	-60.8	-74.3	3.6	8.46e-01	0	47	104	0	60	202829
2026-01-29 02:54:27.11	101.39	58.69	-60.0	-73.4	3.6	8.45e-01	0	47	104	0	60	183464
2026-01-29 02:54:31.13	104.88	58.74	-59.8	-73.3	3.6	8.45e-01	0	47	104	0	60	181024
2026-01-29 02:54:35.16	108.37	58.69	-59.4	-73.1	3.6	8.45e-01	0	47	104	0	60	177108
2026-01-29 02:54:39.19	111.84	58.54	-59.8	-74.1	3.6	8.46e-01	0	47	104	0	60	197887
2026-01-29 02:54:43.22	115.26	58.30	-59.3	-74.2	3.6	8.46e-01	0	47	104	0	60	201358
2026-01-29 02:54:47.25	118.61	57.97	-59.1	-74.3	3.6	8.45e-01	0	47	104	0	60	203095
2026-01-29 02:54:51.26	121.85	57.56	-59.5	-74.0	3.6	8.46e-01	0	47	104	0	60	195747
2026-01-29 02:54:55.27	124.98	57.06	-60.5	-74.1	3.6	8.45e-01	0	47	104	0	60	199338
2026-01-29 02:54:59.31	128.02	56.49	-60.6	-74.3	3.6	8.44e-01	0	47	104	0	60	203061
2026-01-29 02:55:03.34	130.92	55.86	-61.1	-74.4	3.6	8.46e-01	0	47	104	0	60	206366
2026-01-29 02:55:07.35	133.68	55.17	-61.2	-74.4	3.6	8.45e-01	0	47	104	0	60	206665
2026-01-29 02:55:11.38	136.31	54.42	-60.9	-73.6	3.6	8.45e-01	0	47	104	0	60	188150
2026-01-29 02:55:15.42	138.81	53.62	-61.1	-73.8	3.6	8.46e-01	0	47	104	0	60	191951
2026-01-29 02:55:19.45	141.17	52.79	-61.3	-74.0	3.6	8.45e-01	0	47	104	0	60	196693
2026-01-29 02:55:23.47	143.40	51.93	-61.4	-74.2	3.6	8.45e-01	0	47	104	0	60	201464
2026-01-29 02:55:27.49	145.50	51.05	-61.3	-74.1	3.6	8.45e-01	0	47	104	0	60	198339
2026-01-29 02:55:31.52	147.48	50.14	-61.3	-74.1	3.6	8.46e-01	0	47	104	0	60	198750
2026-01-29 02:55:35.55	149.35	49.22	-61.2	-74.2	3.6	8.46e-01	0	47	104	0	60	199993
2026-01-29 02:55:39.56	151.10	48.29	-61.1	-74.0	3.6	8.45e-01	0	47	104	0	60	196078
2026-01-29 02:55:43.60	152.76	47.34	-60.8	-73.8	3.6	8.46e-01	0	47	104	0	60	191157
2026-01-29 02:55:47.62	154.32	46.40	-60.8	-73.7	3.6	8.44e-01	0	47	104	0	60	190001
2026-01-29 02:55:51.64	155.79	45.46	-60.6	-73.3	3.6	8.45e-01	0	47	104	0	60	182012
2026-01-29 02:55:55.66	157.17	44.52	-60.7	-73.6	3.6	8.45e-01	0	47	104	0	60	187645
2026-01-29 02:55:59.69	158.48	43.59	-60.4	-73.4	3.6	8.46e-01	0	47	104	0	60	183163
2026-01-29 02:56:03.71	159.71	42.66	-60.4	-73.4	3.6	8.45e-01	0	47	104	0	60	183453
2026-01-29 02:56:07.74	160.88	41.74	-60.4	-73.3	3.6	8.44e-01	0	47	104	0	60	181046
2026-01-29 02:56:11.75	161.98	40.84	-60.3	-73.2	3.6	8.44e-01	0	47	104	0	60	178816
2026-01-29 02:56:15.77	163.03	39.94	-60.3	-73.2	3.6	8.45e-01	0	47	104	0	60	178800
2026-01-29 02:56:19.81	164.02	39.06	-60.1	-73.1	3.6	8.45e-01	0	47	104	0	60	177319
2026-01-29 02:56:23.83	164.96	38.19	-60.1	-73.1	3.6	8.45e-01	0	47	104	0	60	177139
2026-01-29 02:56:27.85	165.85	37.34	-59.9	-72.9	3.6	8.45e-01	0	47	104	0	60	173880
2026-01-29 02:56:31.88	166.70	36.49	-59.8	-72.8	3.6	8.44e-01	0	47	104	0	60	171994
2026-01-29 02:56:35.91	167.51	35.67	-59.6	-72.7	3.6	8.44e-01	0	47	104	0	60	169429
2026-01-29 02:56:39.94	168.28	34.85	-59.5	-72.8	3.6	8.45e-01	0	47	104	0	60	170221
2026-01-29 02:56:43.97	169.01	34.06	-59.5	-72.6	3.6	8.46e-01	0	47	104	0	60	167910
2026-01-29 02:56:47.99	169.71	33.28	-59.4	-72.5	3.6	8.46e-01	0	47	104	0	60	164751
2026-01-29 02:56:52.02	170.38	32.51	-59.3	-72.5	3.6	8.46e-01	0	47	104	0	60	164444
2026-01-29 02:56:56.05	171.02	31.76	-59.3	-72.4	3.6	8.46e-01	0	47	104	0	60	162444
2026-01-29 02:57:00.08	171.63	31.03	-59.1	-72.2	3.6	8.46e-01	0	47	104	0	60	160516
2026-01-29 02:57:04.10	172.21	30.31	-59.1	-72.2	3.6	8.45e-01	0	47	104	0	60	160268
2026-01-29 02:57:08.13	172.77	29.60	-58.9	-72.0	3.6	8.45e-01	0	47	104	0	60	156748
2026-01-29 02:57:12.17	173.31	28.91	-59.0	-72.3	3.6	8.45e-01	0	47	104	0	60	161888
2026-01-29 02:57:16.19	173.82	28.23	-58.9	-72.3	3.6	8.45e-01	0	47	104	0	60	161195
2026-01-29 02:57:20.21	174.32	27.57	-58.8	-71.8	3.6	8.46e-01	0	47	104	0	60	153218
2026-01-29 02:57:24.24	174.79	26.92	-58.8	-72.0	3.6	8.46e-01	0	47	104	0	60	156794
2026-01-29 02:57:28.27	175.25	26.28	-58.7	-71.8	3.6	8.45e-01	0	47	104	0	60	153224
2026-01-29 02:57:32.30	175.69	25.66	-58.7	-71.8	3.6	8.44e-01	0	47	104	0	60	151682
2026-01-29 02:57:36.32	176.11	25.05	-58.6	-72.1	3.6	8.45e-01	0	47	104	0	60	158371
2026-01-29 02:57:40.33	176.52	24.46	-58.4	-71.4	3.6	8.44e-01	0	47	104	0	60	145811
2026-01-29 02:57:44.36	176.92	23.87	-58.5	-71.5	3.6	8.46e-01	0	47	104	0	60	147369
2026-01-29 02:57:48.39	177.30	23.29	-58.5	-71.6	3.6	8.44e-01	0	47	104	0	60	148817
2026-01-29 02:57:52.42	177.66	22.73	-58.6	-71.8	3.6	8.44e-01	0	47	104	0	60	153108
2026-01-29 02:57:56.44	178.02	22.18	-58.4	-71.2	3.6	8.44e-01	0	47	104	0	60	142428
2026-01-29 02:58:00.44	178.36	21.64	-58.3	-71.7	3.6	8.45e-01	0	47	104	0	60	150945
2026-01-29 02:58:04.45	178.69	21.11	-58.2	-71.1	3.5	8.47e-01	0	47	104	0	60	140253
2026-01-29 02:58:08.46	179.01	20.59	-58.0	-71.5	3.6	8.46e-01	0	47	104	0	60	146969
2026-01-29 02:58:12.49	179.32	20.08	-58.3	-71.5	3.6	8.46e-01	0	47	104	0	60	147734
2026-01-29 02:58:16.51	179.63	19.58	-58.1	-71.4	3.6	8.46e-01	0	47	104	0	60	145956
2026-01-29 02:58:20.54	179.92	19.09	-58.1	-71.0	3.6	8.45e-01	0	47	104	0	60	139789
2026-01-29 02:58:24.56	180.20	18.61	-58.0	-70.9	3.6	8.46e-01	0	47	104	0	60	137236
2026-01-29 02:58:28.57	180.48	18.13	-57.8	-71.0	3.6	8.45e-01	0	47	104	0	60	139734
2026-01-29 02:58:32.60	180.75	17.67	-57.8	-70.9	3.6	8.45e-01	0	47	104	0	60	138040
2026-01-29 02:58:36.64	181.01	17.21	-57.7	-71.0	3.6	8.45e-01	0	47	104	0	60	138507
2026-01-29 02:58:40.67	181.26	16.76	-57.7	-70.9	3.6	8.45e-01	0	47	104	0	60	137876
2026-01-29 02:58:44.70	181.51	16.31	-57.7	-71.1	3.6	8.45e-01	0	47	104	0	60	140747
2026-01-29 02:58:48.73	181.75	15.88	-57.6	-71.1	3.6	8.45e-01	0	47	104	0	60	140679
2026-01-29 02:58:52.76	181.98	15.45	-57.6	-70.9	3.6	8.45e-01	0	47	104	0	60	138161
2026-01-29 02:58:56.78	182.21	15.03	-57.6	-70.9	3.6	8.44e-01	0	47	104	0	60	138073
2026-01-29 02:59:00.80	182.43	14.62	-57.5	-70.8	3.6	8.45e-01	0	47	104	0	60	136415
2026-01-29 02:59:04.83	182.65	14.21	-57.5	-70.8	3.6	8.45e-01	0	47	104	0	60	136093
2026-01-29 02:59:08.87	182.86	13.81	-57.3	-70.7	3.6	8.45e-01	0	47	104	0	60	134929
2026-01-29 02:59:12.90	183.06	13.41	-57.3	-70.7	3.6	8.45e-01	0	47	104	0	60	134105
2026-01-29 02:59:16.92	183.26	13.02	-57.3	-70.5	3.6	8.45e-01	0	47	104	0	60	131521
2026-01-29 02:59:20.95	183.46	12.64	-57.2	-70.5	3.6	8.47e-01	0	47	104	0	60	131558
2026-01-29 02:59:24.95	183.65	12.27	-57.1	-70.4	3.6	8.44e-01	0	47	104	0	60	130311
2026-01-29 02:59:28.98	183.83	11.90	-56.9	-70.4	3.6	8.45e-01	0	47	104	0	60	129903
2026-01-29 02:59:33.01	184.02	11.53	-56.8	-70.2	3.6	8.46e-01	0	47	104	0	60	127425
2026-01-29 02:59:37.03	184.19	11.17	-56.9	-70.2	3.6	8.46e-01	0	47	104	0	60	127507
2026-01-29 02:59:41.06	184.37	10.81	-56.9	-70.3	3.6	8.45e-01	0	47	104	0	60	128458
2026-01-29 02:59:45.08	184.54	10.46	-56.8	-70.2	3.6	8.46e-01	0	47	104	0	60	126074
2026-01-29 02:59:49.11	184.71	10.11	-56.7	-70.2	3.6	8.44e-01	0	47	104	0	60	126344
2026-01-29 02:59:53.13	184.87	9.77	-56.5	-70.0	3.6	8.46e-01	0	47	104	0	60	123990
2026-01-29 02:59:57.14	185.03	9.44	-56.5	-70.0	3.6	8.44e-01	0	47	104	0	60	123445
2026-01-29 03:00:01.16	185.18	9.10	-56.4	-69.9	3.6	8.44e-01	0	47	104	0	60	122368
2026-01-29 03:00:05.19	185.34	8.78	-56.1	-69.9	3.6	8.45e-01	0	47	104	0	60	121811
2026-01-29 03:00:09.21	185.49	8.45	-55.8	-69.6	3.6	8.45e-01	0	47	104	0	60	118950
2026-01-29 03:00:13.24	185.63	8.13	-55.6	-69.6	3.6	8.43e-01	0	47	104	0	60	118151
2026-01-29 03:00:17.28	185.78	7.81	-55.1	-69.7	3.6	8.45e-01	0	47	104	0	60	119074
2026-01-29 03:00:21.30	185.92	7.50	-54.9	-69.4	3.6	8.46e-01	0	47	104	0	60	116061
2026-01-29 03:00:25.33	186.06	7.19	-53.3	-69.2	3.6	8.45e-01	0	47	104	0	60	113637
2026-01-29 03:00:29.36	186.20	6.89	-53.2	-69.1	3.6	8.45e-01	0	47	104	0	60	111702
2026-01-29 03:00:33.39	186.33	6.58	-52.0	-68.4	3.6	8.45e-01	0	47	104	0	60	103505
2026-01-29 03:00:37.41	186.46	6.28	-47.3	-67.6	3.6	8.45e-01	0	47	104	0	60	94424
2026-01-29 03:00:41.44	186.59	5.99	-52.5	-68.5	3.6	8.45e-01	0	47	104	0	60	104415
2026-01-29 03:00:45.46	186.72	5.70	-58.3	-71.7	3.6	8.45e-01	0	47	104	0	60	150548
2026-01-29 03:00:49.50	186.84	5.41	-60.5	-73.7	3.6	8.46e-01	0	47	104	0	60	189033
2026-01-29 03:00:53.51	186.96	5.12	-61.1	-74.2	3.6	8.46e-01	0	47	104	0	60	200256
2026-01-29 03:00:57.52	187.08	4.84	-58.7	-74.8	3.6	8.46e-01	0	47	104	0	60	215045
2026-01-29 03:01:01.55	187.20	4.56	-59.4	-74.4	3.6	8.45e-01	0	47	104	0	60	205879
2026-01-29 03:01:05.58	187.32	4.28	-59.3	-74.5	3.6	8.45e-01	0	47	104	0	60	206935
2026-01-29 03:01:09.61	187.43	4.01	-59.3	-74.4	3.6	8.46e-01	0	47	104	0	60	204758
2026-01-29 03:01:13.64	187.54	3.74	-59.2	-74.4	3.6	8.46e-01	0	47	104	0	60	204577
2026-01-29 03:01:17.67	187.65	3.47	-59.1	-74.2	3.6	8.46e-01	0	47	104	0	60	201771
2026-01-29 03:01:21.70	187.76	3.20	-59.1	-74.3	3.6	8.44e-01	0	47	104	0	60	203229
2026-01-29 03:01:25.72	187.87	2.94	-59.1	-74.2	3.6	8.46e-01	0	47	104	0	60	201674
2026-01-29 03:01:29.74	187.98	2.67	-59.2	-74.2	3.6	8.45e-01	0	47	104	0	60	200884
2026-01-29 03:01:33.77	188.08	2.41	-59.1	-74.3	3.6	8.45e-01	0	47	104	0	60	203668
2026-01-29 03:01:37.80	188.18	2.16	-59.0	-74.1	3.6	8.45e-01	0	47	104	0	60	199198
2026-01-29 03:01:41.82	188.28	1.90	-59.1	-74.3	3.6	8.45e-01	0	47	104	0	60	202465
2026-01-29 03:01:45.84	188.38	1.65	-59.1	-74.2	3.6	8.46e-01	0	47	104	0	60	200536
2026-01-29 03:01:49.87	188.48	1.40	-59.1	-74.1	3.6	8.46e-01	0	47	104	0	60	199408
2026-01-29 03:01:53.90	188.58	1.15	-59.1	-74.2	3.6	8.45e-01	0	47	104	0	60	201036
2026-01-29 03:01:57.93	188.67	0.90	-59.2	-74.3	3.6	8.46e-01	0	47	104	0	60	203945
2026-01-29 03:02:01.96	188.77	0.66	-59.2	-74.3	3.6	8.46e-01	0	47	104	0	60	202684
2026-01-29 03:02:05.98	188.86	0.42	-59.2	-74.3	3.6	8.46e-01	0	47	104	0	60	203773
2026-01-29 03:02:10.01	188.95	0.18	-59.2	-74.3	3.6	8.45e-01	0	47	104	0	60	202898
2026-01-29 03:02:14.05	189.04	-0.06	-59.2	-74.3	3.6	8.45e-01	0	47	104	0	60	203569

#Closed at: 2026-01-29 03:02:14
#Recorded file [0 MB]: D:/Data/35015_260129_055322.dat