passes_logs/2026/01/29/R3.2S-Naryan-Mar/R3.2S-Naryan-Mar__20260129_050601_SUOMI_NPP_rec.log

#Pass ID: 20260129_050601_SUOMI NPP
#Satellite: SUOMI NPP
#Configuration: NPP
#almurnet v.1.7.20240730
#Start time: 2026-01-29 05:06:02

#Version: 2.2.20231116
#Station: R3.2S-Naryan-Mar
#Location: 53.008057 lon 67.646978 lat
#TLE: 1 37849U 11061A   26027.93236865  .00000148  00000+0  91411-4 0  9991
#TLE: 2 37849  98.7823 329.8704 0002085  41.3231 318.8102 14.19530777738546

#Time	Az	El	Level	Level2	SNR	BER	BlckErr	Temp	State	Recorded	gain1	gain2
2026-01-29 05:06:02.86	81.78	0.05	-59.6	-73.6	3.5	8.45e-01	0	44	0	0	60	186865
2026-01-29 05:06:06.88	81.56	0.27	-62.2	-79.3	3.6	1.51e+00	0	45	104	0	60	360963
2026-01-29 05:06:10.91	81.32	0.49	-61.9	-79.0	3.6	1.51e+00	0	45	104	0	60	349215
2026-01-29 05:06:14.93	81.09	0.71	-59.8	-78.1	3.6	1.51e+00	0	45	104	0	60	314769
2026-01-29 05:06:18.96	80.85	0.93	-60.9	-77.6	3.6	1.51e+00	0	45	104	0	60	296463
2026-01-29 05:06:22.99	80.61	1.15	-60.8	-77.4	3.6	1.51e+00	0	45	104	0	60	289377
2026-01-29 05:06:27.01	80.36	1.37	-60.1	-76.7	3.6	1.51e+00	0	45	104	0	60	268540
2026-01-29 05:06:31.03	80.11	1.60	-60.0	-76.6	3.6	1.51e+00	0	45	104	0	60	266333
2026-01-29 05:06:35.05	79.86	1.82	-60.0	-76.6	3.6	1.51e+00	0	45	104	0	60	263852
2026-01-29 05:06:39.07	79.60	2.05	-59.9	-76.5	3.6	1.51e+00	0	45	104	0	60	261867
2026-01-29 05:06:43.10	79.34	2.28	-59.9	-76.5	3.6	1.51e+00	0	45	104	0	60	261340
2026-01-29 05:06:47.13	79.07	2.51	-59.9	-76.4	3.6	1.51e+00	0	45	104	0	60	260000
2026-01-29 05:06:51.16	78.80	2.74	-59.8	-76.4	3.6	1.51e+00	0	45	104	0	60	258660
2026-01-29 05:06:55.19	78.52	2.97	-59.8	-76.3	3.6	1.51e+00	0	45	104	0	60	257255
2026-01-29 05:06:59.22	78.24	3.21	-59.8	-76.4	3.6	1.51e+00	0	45	104	0	60	258372
2026-01-29 05:07:03.24	77.96	3.44	-59.8	-76.4	3.6	1.51e+00	0	45	104	0	60	258097
2026-01-29 05:07:07.27	77.67	3.68	-59.8	-76.4	3.6	1.51e+00	0	45	104	0	60	257900
2026-01-29 05:07:11.30	77.37	3.91	-59.8	-76.4	3.6	1.51e+00	0	45	104	0	60	257834
2026-01-29 05:07:15.33	77.07	4.15	-59.8	-76.3	3.6	1.51e+00	0	46	104	0	60	256699
2026-01-29 05:07:19.35	76.77	4.39	-59.8	-76.3	3.6	1.51e+00	0	46	104	0	60	255879
2026-01-29 05:07:23.38	76.46	4.63	-59.8	-76.3	3.6	1.51e+00	0	46	104	0	60	255896
2026-01-29 05:07:27.42	76.14	4.88	-59.8	-76.3	3.6	1.51e+00	0	45	104	0	60	255554
2026-01-29 05:07:31.45	75.82	5.12	-59.7	-76.3	3.6	1.51e+00	0	45	104	0	60	255365
2026-01-29 05:07:35.46	75.49	5.37	-59.7	-76.3	3.6	1.51e+00	0	46	104	0	60	254791
2026-01-29 05:07:39.49	75.16	5.62	-59.7	-76.3	3.6	1.51e+00	0	46	104	0	60	254827
2026-01-29 05:07:43.53	74.82	5.86	-59.7	-76.2	3.6	1.51e+00	0	46	104	0	60	251857
2026-01-29 05:07:47.55	74.48	6.11	-59.5	-76.4	3.6	1.51e+00	0	46	104	0	60	259136
2026-01-29 05:07:51.58	74.12	6.37	-60.1	-75.5	3.5	1.51e+00	0	46	104	0	60	234244
2026-01-29 05:07:55.60	73.77	6.62	-60.2	-76.5	3.6	1.50e+00	0	46	104	0	60	263326
2026-01-29 05:07:59.63	73.40	6.87	-60.3	-75.5	3.6	1.51e+00	0	46	104	0	60	232395
2026-01-29 05:08:03.66	73.03	7.13	-59.6	-75.2	3.6	1.51e+00	0	46	104	0	60	226317
2026-01-29 05:08:07.69	72.65	7.39	-59.4	-76.2	3.6	1.51e+00	0	46	104	0	60	253927
2026-01-29 05:08:11.71	72.27	7.64	-60.5	-74.9	3.7	1.50e+00	0	46	104	0	60	218262
2026-01-29 05:08:15.72	71.88	7.90	-60.2	-71.1	4.1	1.33e+00	0	46	0	0	60	140776
2026-01-29 05:08:19.75	71.48	8.16	-58.9	-63.9	11.9	2.23e-03	0	46	0	5242880	60	61721
2026-01-29 05:08:23.79	71.08	8.43	-57.9	-61.5	14.3	0.00e+00	0	46	0	13631488	60	46585
2026-01-29 05:08:27.81	70.66	8.69	-57.7	-61.4	14.6	0.00e+00	0	46	0	20971520	60	46177
2026-01-29 05:08:31.84	70.24	8.96	-57.9	-61.3	14.9	7.00e-07	0	46	0	28311552	60	45549
2026-01-29 05:08:35.87	69.81	9.22	-57.5	-60.6	15.7	0.00e+00	0	46	0	35651584	60	41992
2026-01-29 05:08:39.90	69.37	9.49	-57.4	-60.5	15.7	0.00e+00	0	46	0	44040192	60	41691
2026-01-29 05:08:43.93	68.93	9.76	-57.2	-60.3	15.6	0.00e+00	0	46	0	51380224	60	40745
2026-01-29 05:08:47.97	68.47	10.03	-56.7	-59.8	16.2	0.00e+00	0	46	0	58720256	60	38286
2026-01-29 05:08:52.00	68.01	10.30	-56.8	-59.4	17.1	0.00e+00	0	46	0	66060288	60	36383
2026-01-29 05:08:56.02	67.54	10.57	-56.0	-58.7	17.7	0.00e+00	0	46	0	73400320	60	33658
2026-01-29 05:09:00.03	67.06	10.85	-56.4	-58.8	17.5	0.00e+00	0	46	0	80740352	60	34238
2026-01-29 05:09:04.07	66.57	11.12	-56.0	-58.4	18.0	0.00e+00	0	46	0	89128960	60	32646
2026-01-29 05:09:08.10	66.07	11.40	-55.9	-58.3	17.8	0.00e+00	0	46	0	96468992	60	32269
2026-01-29 05:09:12.13	65.56	11.67	-55.8	-58.0	18.4	0.00e+00	0	46	0	103809024	60	31249
2026-01-29 05:09:16.15	65.04	11.95	-55.4	-58.2	17.9	0.00e+00	0	46	0	111149056	60	31676
2026-01-29 05:09:20.18	64.51	12.23	-54.6	-58.3	16.7	0.00e+00	0	46	0	119537664	60	32393
2026-01-29 05:09:24.21	63.97	12.51	-56.7	-59.1	17.4	0.00e+00	0	46	0	126877696	60	35267
2026-01-29 05:09:28.23	63.42	12.78	-57.1	-60.1	16.2	0.00e+00	0	46	0	134217728	60	39499
2026-01-29 05:09:32.26	62.86	13.06	-58.2	-61.4	15.2	0.00e+00	0	46	0	141557760	60	46110
2026-01-29 05:09:36.28	62.28	13.34	-56.1	-62.0	13.4	2.20e-06	0	46	0	148897792	60	49528
2026-01-29 05:09:40.31	61.70	13.62	-56.3	-62.8	12.6	3.28e-05	0	46	0	157286400	60	54216
2026-01-29 05:09:44.35	61.10	13.91	-58.0	-63.8	12.1	3.91e-04	0	46	0	164626432	60	60717
2026-01-29 05:09:48.37	60.50	14.19	-59.5	-64.2	12.2	2.71e-04	0	46	0	171966464	60	63674
2026-01-29 05:09:52.40	59.88	14.47	-59.3	-66.1	10.2	7.50e-03	0	46	0	179306496	60	79309
2026-01-29 05:09:56.43	59.25	14.75	-59.4	-67.2	8.5	2.92e-02	0	46	0	186646528	60	89817
2026-01-29 05:10:00.46	58.61	15.03	-57.0	-68.3	6.5	1.95e-01	0	46	0	195035136	60	101485
2026-01-29 05:10:04.49	57.95	15.31	-58.1	-68.2	6.7	2.74e-01	0	46	0	202375168	60	100972
2026-01-29 05:10:08.51	57.29	15.59	-59.5	-70.0	5.6	3.67e-01	0	46	0	209715200	60	124168
2026-01-29 05:10:12.54	56.61	15.86	-60.0	-71.0	4.6	7.44e-01	0	46	0	217055232	60	138629
2026-01-29 05:10:16.57	55.91	16.14	-59.9	-72.6	3.8	1.34e+00	0	46	0	224395264	60	166926
2026-01-29 05:10:20.60	55.21	16.42	-60.7	-75.1	3.8	1.52e+00	0	46	104	225443840	60	222251
2026-01-29 05:10:24.63	54.49	16.69	-60.2	-74.7	3.8	1.46e+00	0	46	104	225443840	60	213428
2026-01-29 05:10:28.67	53.75	16.97	-60.8	-74.5	4.0	1.45e+00	0	46	104	225443840	60	206965
2026-01-29 05:10:32.70	53.01	17.24	-61.3	-73.7	4.0	1.42e+00	0	46	0	225443840	60	190043
2026-01-29 05:10:36.73	52.25	17.50	-60.6	-74.3	3.7	1.40e+00	0	46	104	225443840	60	203090
2026-01-29 05:10:40.77	51.47	17.77	-59.5	-74.4	3.7	1.45e+00	0	46	104	225443840	60	205969
2026-01-29 05:10:44.78	50.69	18.03	-59.7	-74.4	3.9	1.46e+00	0	46	104	225443840	60	205663
2026-01-29 05:10:48.81	49.89	18.29	-57.5	-73.6	3.8	1.50e+00	0	46	104	225443840	60	187395
2026-01-29 05:10:52.83	49.07	18.55	-55.7	-73.2	3.7	1.50e+00	0	46	104	225443840	60	178159
2026-01-29 05:10:56.86	48.24	18.81	-54.7	-72.7	3.8	1.51e+00	0	46	104	225443840	60	169537
2026-01-29 05:11:00.88	47.40	19.06	-55.1	-72.3	3.7	1.46e+00	0	46	0	225443840	60	161951
2026-01-29 05:11:04.90	46.55	19.30	-54.9	-72.9	3.6	1.49e+00	0	46	104	225443840	60	172504
2026-01-29 05:11:08.92	45.68	19.54	-54.4	-73.0	3.6	1.50e+00	0	46	104	225443840	60	174012
2026-01-29 05:11:12.94	44.80	19.78	-55.8	-73.3	3.6	1.51e+00	0	46	104	225443840	60	180584
2026-01-29 05:11:16.95	43.90	20.01	-56.4	-74.0	3.6	1.51e+00	0	46	104	225443840	60	195790
2026-01-29 05:11:20.99	42.99	20.24	-60.0	-76.2	3.6	1.51e+00	0	46	104	225443840	60	253883
2026-01-29 05:11:25.01	42.06	20.46	-60.0	-77.1	3.6	1.51e+00	0	46	104	225443840	60	280089
2026-01-29 05:11:29.02	41.13	20.67	-60.6	-76.2	3.6	1.51e+00	0	46	104	225443840	60	251954
2026-01-29 05:11:33.04	40.18	20.88	-60.6	-77.2	3.6	1.51e+00	0	46	104	225443840	60	284422
2026-01-29 05:11:37.07	39.22	21.08	-59.1	-77.3	3.5	1.51e+00	0	46	104	225443840	60	286372
2026-01-29 05:11:41.10	38.24	21.27	-54.8	-75.0	3.6	1.51e+00	0	46	104	225443840	60	220039
2026-01-29 05:11:45.13	37.25	21.46	-61.1	-77.4	3.6	1.51e+00	0	46	104	225443840	60	288916
2026-01-29 05:11:49.15	36.25	21.64	-61.1	-77.2	3.6	1.51e+00	0	46	104	225443840	60	284891
2026-01-29 05:11:53.18	35.24	21.81	-56.8	-76.7	3.6	1.51e+00	0	46	104	225443840	60	269126
2026-01-29 05:11:57.20	34.22	21.97	-56.0	-75.7	3.6	1.51e+00	0	46	104	225443840	60	237849
2026-01-29 05:12:01.23	33.18	22.12	-60.5	-77.2	3.6	1.51e+00	0	46	104	225443840	60	284326
2026-01-29 05:12:05.25	32.14	22.26	-53.1	-76.1	3.6	1.51e+00	0	46	104	225443840	60	249247
2026-01-29 05:12:09.28	31.09	22.40	-58.9	-77.5	3.6	1.51e+00	0	46	104	225443840	60	292940
2026-01-29 05:12:13.31	30.03	22.52	-55.2	-76.0	3.5	1.51e+00	0	46	104	225443840	60	245904
2026-01-29 05:12:17.33	28.96	22.64	-60.7	-78.0	3.6	1.51e+00	0	46	104	225443840	60	310119
2026-01-29 05:12:21.36	27.88	22.74	-57.3	-76.2	3.6	1.51e+00	0	46	104	225443840	60	254046
2026-01-29 05:12:25.38	26.80	22.83	-59.2	-77.9	3.6	1.51e+00	0	46	104	225443840	60	307751
2026-01-29 05:12:29.41	25.71	22.92	-57.5	-77.2	3.6	1.51e+00	0	46	104	225443840	60	284245
2026-01-29 05:12:33.43	24.61	22.99	-58.1	-76.9	3.6	1.51e+00	0	46	104	225443840	60	275113
2026-01-29 05:12:37.45	23.51	23.05	-58.6	-76.9	3.6	1.51e+00	0	46	104	225443840	60	273098
2026-01-29 05:12:41.48	22.41	23.10	-57.4	-76.4	3.6	1.51e+00	0	46	104	225443840	60	259953
2026-01-29 05:12:45.51	21.30	23.13	-57.2	-75.9	3.6	1.51e+00	0	46	104	225443840	60	245551
2026-01-29 05:12:49.54	20.19	23.16	-58.8	-77.5	3.6	1.51e+00	0	46	104	225443840	60	293632
2026-01-29 05:12:53.56	19.08	23.17	-54.4	-75.4	3.6	1.51e+00	0	46	104	225443840	60	231976
2026-01-29 05:12:57.59	17.97	23.18	-56.7	-75.8	3.6	1.51e+00	0	46	104	225443840	60	240918
2026-01-29 05:13:01.62	16.86	23.17	-57.6	-76.2	3.6	1.51e+00	0	46	104	225443840	60	251841
2026-01-29 05:13:05.64	15.75	23.15	-61.4	-77.5	3.6	1.51e+00	0	46	104	225443840	60	294090
2026-01-29 05:13:09.66	14.64	23.12	-61.2	-77.5	3.6	1.51e+00	0	46	104	225443840	60	292862
2026-01-29 05:13:13.68	13.54	23.07	-59.4	-77.5	3.6	1.51e+00	0	46	104	225443840	60	293481
2026-01-29 05:13:17.71	12.44	23.02	-61.2	-77.8	3.6	1.51e+00	0	46	104	225443840	60	303366
2026-01-29 05:13:21.74	11.34	22.95	-59.9	-77.3	3.6	1.51e+00	0	46	104	225443840	60	286459
2026-01-29 05:13:25.76	10.25	22.88	-61.0	-77.8	3.6	1.51e+00	0	46	104	225443840	60	302692
2026-01-29 05:13:29.79	9.16	22.79	-59.7	-77.3	3.6	1.51e+00	0	46	104	225443840	60	288441
2026-01-29 05:13:33.82	8.08	22.69	-60.5	-78.0	3.6	1.51e+00	0	46	104	225443840	60	312412
2026-01-29 05:13:37.85	7.01	22.58	-60.5	-77.8	3.6	1.51e+00	0	46	104	225443840	60	305811
2026-01-29 05:13:41.88	5.94	22.46	-59.0	-76.9	3.6	1.51e+00	0	46	104	225443840	60	273718
2026-01-29 05:13:45.90	4.89	22.33	-59.5	-77.5	3.6	1.51e+00	0	46	104	225443840	60	295114
2026-01-29 05:13:49.91	3.85	22.19	-61.0	-77.7	3.6	1.51e+00	0	46	104	225443840	60	301957
2026-01-29 05:13:53.93	2.81	22.04	-61.6	-77.9	3.6	1.51e+00	0	46	104	225443840	60	309325
2026-01-29 05:13:57.93	1.79	21.89	-60.4	-77.9	3.6	1.51e+00	0	46	104	225443840	60	307851
2026-01-29 05:14:01.95	0.78	21.72	-60.9	-77.9	3.6	1.51e+00	0	46	104	225443840	60	306717
2026-01-29 05:14:05.98	359.77	21.55	-61.0	-77.9	3.6	1.51e+00	0	46	104	225443840	60	306570
2026-01-29 05:14:10.00	358.78	21.37	-60.8	-77.2	3.6	1.51e+00	0	46	104	225443840	60	284287
2026-01-29 05:14:14.02	357.80	21.18	-60.0	-77.5	3.6	1.51e+00	0	46	104	225443840	60	294966
2026-01-29 05:14:18.03	356.83	20.98	-60.7	-77.7	3.6	1.51e+00	0	46	104	225443840	60	299653
2026-01-29 05:14:22.05	355.88	20.78	-61.4	-77.9	3.6	1.51e+00	0	46	104	225443840	60	305951
2026-01-29 05:14:26.08	354.93	20.57	-61.1	-77.6	3.6	1.51e+00	0	46	104	225443840	60	296869
2026-01-29 05:14:30.12	354.00	20.35	-60.5	-77.3	3.6	1.51e+00	0	46	104	225443840	60	286810
2026-01-29 05:14:34.14	353.09	20.13	-60.9	-77.3	3.6	1.51e+00	0	46	104	225443840	60	286556
2026-01-29 05:14:38.16	352.18	19.90	-60.8	-77.6	3.6	1.51e+00	0	46	104	225443840	60	298312
2026-01-29 05:14:42.19	351.29	19.66	-61.0	-77.6	3.6	1.51e+00	0	46	104	225443840	60	296137
2026-01-29 05:14:46.22	350.42	19.42	-61.1	-77.7	3.6	1.51e+00	0	46	104	225443840	60	300277
2026-01-29 05:14:50.25	349.56	19.18	-61.1	-77.7	3.6	1.51e+00	0	46	104	225443840	60	300904
2026-01-29 05:14:54.27	348.71	18.93	-61.3	-77.7	3.6	1.51e+00	0	46	104	225443840	60	300666
2026-01-29 05:14:58.31	347.87	18.68	-61.1	-77.7	3.6	1.51e+00	0	46	104	225443840	60	299026
2026-01-29 05:15:02.33	347.05	18.43	-60.6	-77.5	3.6	1.51e+00	0	46	104	225443840	60	294549
2026-01-29 05:15:06.36	346.25	18.17	-58.9	-77.1	3.6	1.51e+00	0	46	104	225443840	60	281828
2026-01-29 05:15:10.38	345.46	17.91	-60.4	-77.5	3.6	1.51e+00	0	46	104	225443840	60	294482
2026-01-29 05:15:14.41	344.68	17.64	-60.8	-77.5	3.6	1.51e+00	0	46	104	225443840	60	292822
2026-01-29 05:15:18.43	343.92	17.37	-59.8	-77.4	3.6	1.51e+00	0	46	104	225443840	60	289284
2026-01-29 05:15:22.46	343.16	17.11	-59.9	-77.3	3.6	1.51e+00	0	46	104	225443840	60	287469
2026-01-29 05:15:26.48	342.43	16.83	-59.8	-77.0	3.6	1.51e+00	0	46	104	225443840	60	278733
2026-01-29 05:15:30.51	341.70	16.56	-60.5	-77.2	3.6	1.51e+00	0	46	104	225443840	60	284006
2026-01-29 05:15:34.54	340.99	16.29	-61.0	-77.3	3.6	1.51e+00	0	46	104	225443840	60	287622
2026-01-29 05:15:38.57	340.29	16.01	-60.8	-77.3	3.6	1.51e+00	0	46	104	225443840	60	286237
2026-01-29 05:15:42.59	339.61	15.73	-60.8	-77.1	3.6	1.51e+00	0	46	104	225443840	60	281718
2026-01-29 05:15:46.62	338.94	15.46	-60.5	-77.0	3.6	1.51e+00	0	46	104	225443840	60	277606
2026-01-29 05:15:50.65	338.28	15.18	-60.6	-77.0	3.6	1.51e+00	0	46	104	225443840	60	278673
2026-01-29 05:15:54.68	337.63	14.90	-60.5	-77.1	3.6	1.51e+00	0	46	104	225443840	60	279957
2026-01-29 05:15:58.70	337.00	14.62	-60.6	-77.1	3.6	1.51e+00	0	46	104	225443840	60	279912
2026-01-29 05:16:02.73	336.38	14.34	-60.0	-76.7	3.6	1.51e+00	0	46	104	225443840	60	267995
2026-01-29 05:16:06.77	335.76	14.06	-58.4	-76.0	3.6	1.51e+00	0	46	104	225443840	60	248539
2026-01-29 05:16:10.80	335.17	13.78	-59.9	-76.2	3.6	1.51e+00	0	46	104	225443840	60	252530
2026-01-29 05:16:14.82	334.58	13.50	-59.1	-76.4	3.6	1.51e+00	0	46	104	225443840	60	257753
2026-01-29 05:16:18.85	334.00	13.22	-60.0	-76.4	3.6	1.51e+00	0	46	104	225443840	60	257733
2026-01-29 05:16:22.89	333.44	12.94	-59.4	-76.3	3.6	1.51e+00	0	46	104	225443840	60	254904
2026-01-29 05:16:26.90	332.88	12.66	-60.2	-76.6	3.6	1.51e+00	0	46	104	225443840	60	265076
2026-01-29 05:16:30.92	332.34	12.38	-60.2	-76.8	3.6	1.51e+00	0	46	104	225443840	60	270388
2026-01-29 05:16:34.95	331.81	12.10	-59.3	-76.3	3.6	1.51e+00	0	46	104	225443840	60	257223
2026-01-29 05:16:38.98	331.28	11.83	-60.0	-77.0	3.6	1.51e+00	0	46	104	225443840	60	275983
2026-01-29 05:16:43.01	330.77	11.55	-58.2	-75.7	3.6	1.51e+00	0	46	104	225443840	60	239660
2026-01-29 05:16:47.04	330.27	11.28	-59.7	-76.6	3.6	1.51e+00	0	46	104	225443840	60	263976
2026-01-29 05:16:51.08	329.77	11.00	-57.8	-75.4	3.6	1.51e+00	0	46	104	225443840	60	231322
2026-01-29 05:16:55.11	329.29	10.73	-59.5	-76.2	3.6	1.51e+00	0	46	104	225443840	60	252241
2026-01-29 05:16:59.13	328.81	10.45	-57.4	-75.4	3.6	1.51e+00	0	46	104	225443840	60	231756
2026-01-29 05:17:03.15	328.35	10.18	-59.5	-76.6	3.6	1.51e+00	0	46	104	225443840	60	263834
2026-01-29 05:17:07.18	327.89	9.91	-54.9	-74.6	3.6	1.51e+00	0	46	104	225443840	60	211047
2026-01-29 05:17:11.20	327.44	9.64	-58.9	-76.2	3.6	1.51e+00	0	46	104	225443840	60	251699
2026-01-29 05:17:15.23	327.00	9.38	-53.8	-74.2	3.6	1.51e+00	0	46	104	225443840	60	200565
2026-01-29 05:17:19.26	326.57	9.11	-56.7	-75.8	3.6	1.51e+00	0	46	104	225443840	60	240740
2026-01-29 05:17:23.29	326.15	8.84	-53.9	-74.1	3.6	1.51e+00	0	46	104	225443840	60	199554
2026-01-29 05:17:27.32	325.73	8.58	-55.5	-75.4	3.6	1.51e+00	0	46	104	225443840	60	230676
2026-01-29 05:17:31.34	325.32	8.32	-55.4	-74.2	3.6	1.51e+00	0	46	104	225443840	60	201561
2026-01-29 05:17:35.36	324.92	8.06	-58.4	-75.2	3.6	1.51e+00	0	46	104	225443840	60	225388
2026-01-29 05:17:39.38	324.53	7.80	-58.6	-75.2	3.6	1.51e+00	0	46	104	225443840	60	226610
2026-01-29 05:17:43.41	324.14	7.54	-58.6	-75.2	3.6	1.51e+00	0	46	104	225443840	60	226189
2026-01-29 05:17:47.42	323.77	7.28	-58.7	-75.1	3.6	1.51e+00	0	46	104	225443840	60	223375
2026-01-29 05:17:51.44	323.39	7.03	-58.7	-75.1	3.6	1.51e+00	0	46	104	225443840	60	223261
2026-01-29 05:17:55.46	323.03	6.77	-58.4	-75.0	3.6	1.51e+00	0	46	104	225443840	60	221342
2026-01-29 05:17:59.48	322.67	6.52	-58.2	-75.0	3.6	1.51e+00	0	46	104	225443840	60	219440
2026-01-29 05:18:03.51	322.32	6.27	-57.9	-74.8	3.6	1.51e+00	0	46	104	225443840	60	215336
2026-01-29 05:18:07.53	321.97	6.02	-57.7	-74.7	3.6	1.51e+00	0	46	104	225443840	60	212808
2026-01-29 05:18:11.54	321.63	5.77	-61.6	-78.0	3.6	1.51e+00	0	46	104	225443840	60	312752
2026-01-29 05:18:15.56	321.30	5.52	-61.1	-78.3	3.6	1.51e+00	0	46	104	225443840	60	321354
2026-01-29 05:18:19.59	320.97	5.28	-62.3	-79.0	3.6	1.51e+00	0	46	104	225443840	60	347465
2026-01-29 05:18:23.61	320.65	5.03	-60.7	-78.9	3.6	1.51e+00	0	46	104	225443840	60	346884
2026-01-29 05:18:27.64	320.33	4.79	-61.7	-79.3	3.6	1.51e+00	0	46	104	225443840	60	359864
2026-01-29 05:18:31.66	320.02	4.55	-61.6	-79.0	3.6	1.51e+00	0	46	104	225443840	60	350793
2026-01-29 05:18:35.69	319.71	4.31	-61.6	-79.1	3.6	1.51e+00	0	46	104	225443840	60	353497
2026-01-29 05:18:39.73	319.41	4.07	-61.6	-79.1	3.6	1.51e+00	0	46	104	225443840	60	351704
2026-01-29 05:18:43.75	319.11	3.83	-61.5	-79.0	3.6	1.51e+00	0	46	104	225443840	60	350296
2026-01-29 05:18:47.79	318.82	3.59	-61.4	-79.0	3.6	1.51e+00	0	46	104	225443840	60	347568
2026-01-29 05:18:51.82	318.54	3.36	-61.4	-78.9	3.6	1.51e+00	0	46	104	225443840	60	346802
2026-01-29 05:18:55.85	318.25	3.12	-61.5	-79.0	3.6	1.51e+00	0	46	104	225443840	60	348973
2026-01-29 05:18:59.87	317.98	2.89	-61.3	-78.8	3.6	1.51e+00	0	46	104	225443840	60	341606
2026-01-29 05:19:03.89	317.71	2.66	-61.4	-79.0	3.6	1.51e+00	0	46	104	225443840	60	347836
2026-01-29 05:19:07.93	317.44	2.43	-61.3	-78.8	3.6	1.51e+00	0	46	104	225443840	60	342642
2026-01-29 05:19:11.95	317.17	2.20	-61.3	-78.9	3.6	1.51e+00	0	46	104	225443840	60	343553
2026-01-29 05:19:15.96	316.92	1.97	-61.3	-78.9	3.6	1.51e+00	0	47	104	225443840	60	345163
2026-01-29 05:19:19.99	316.66	1.75	-61.3	-78.9	3.5	1.51e+00	0	46	104	225443840	60	344837
2026-01-29 05:19:24.01	316.41	1.52	-61.3	-78.8	3.6	1.51e+00	0	46	104	225443840	60	342666
2026-01-29 05:19:28.02	316.16	1.30	-61.3	-78.9	3.6	1.51e+00	0	46	104	225443840	60	343354
2026-01-29 05:19:32.05	315.92	1.08	-61.3	-78.8	3.6	1.51e+00	0	46	104	225443840	60	342504
2026-01-29 05:19:36.06	315.68	0.86	-61.3	-78.7	3.6	1.51e+00	0	46	104	225443840	60	337210
2026-01-29 05:19:40.09	315.45	0.64	-61.1	-78.7	3.6	1.51e+00	0	46	104	225443840	60	338853
2026-01-29 05:19:44.12	315.22	0.42	-61.1	-78.7	3.6	1.51e+00	0	46	104	225443840	60	337796
2026-01-29 05:19:48.15	314.99	0.20	-61.2	-78.7	3.6	1.51e+00	0	46	104	225443840	60	337646
2026-01-29 05:19:52.17	314.76	-0.02	-61.2	-78.8	3.6	1.51e+00	0	46	104	225443840	60	339989

#Closed at: 2026-01-29 05:19:53
#Recorded file [225 MB]: D:/Data/35015_260129_081435.dat