passes_logs/2026/01/29/R3.2S-Naryan-Mar/R3.2S-Naryan-Mar__20260129_070456_NOAA_20_JPSS-1_rec.log

#Pass ID: 20260129_070456_NOAA 20 (JPSS-1)
#Satellite: NOAA 20 (JPSS-1)
#Configuration: NOAA 20
#almurnet v.1.7.20240730
#Start time: 2026-01-29 07:04:58

#Version: 2.2.20231116
#Station: R3.2S-Naryan-Mar
#Location: 53.008057 lon 67.646978 lat
#TLE: 1 43013U 17073A   26027.94683596  .00000137  00000+0  85741-4 0  9995
#TLE: 2 43013  98.7648 328.7503 0000940  21.3928 338.7287 14.19541154424576

#Time	Az	El	Level	Level2	SNR	BER	BlckErr	Temp	State	Recorded	gain1	gain2
2026-01-29 07:04:58.77	124.86	0.12	-60.7	-78.3	3.5	1.51e+00	0	43	0	0	60	322792
2026-01-29 07:05:02.79	124.76	0.36	-61.0	-78.9	3.6	1.51e+00	0	44	104	0	60	344090
2026-01-29 07:05:06.81	124.65	0.60	-61.6	-79.1	3.6	1.51e+00	0	45	104	0	60	352552
2026-01-29 07:05:10.84	124.55	0.84	-61.9	-78.9	3.6	1.51e+00	0	45	104	0	60	345983
2026-01-29 07:05:14.87	124.44	1.09	-60.6	-77.5	3.6	1.51e+00	0	45	104	0	60	295283
2026-01-29 07:05:18.90	124.33	1.33	-55.7	-73.5	3.6	1.51e+00	0	45	104	0	60	185459
2026-01-29 07:05:22.93	124.22	1.58	-55.5	-73.6	3.6	1.51e+00	0	45	104	0	60	187191
2026-01-29 07:05:26.94	124.10	1.83	-55.4	-73.4	3.6	1.51e+00	0	45	104	0	60	184002
2026-01-29 07:05:30.97	123.98	2.08	-55.4	-73.1	3.6	1.51e+00	0	45	104	0	60	177733
2026-01-29 07:05:34.99	123.87	2.34	-55.4	-73.1	3.6	1.51e+00	0	45	104	0	60	176306
2026-01-29 07:05:39.02	123.74	2.59	-55.4	-73.1	3.6	1.51e+00	0	45	104	0	60	177233
2026-01-29 07:05:43.05	123.62	2.85	-55.4	-73.3	3.6	1.51e+00	0	45	104	0	60	180649
2026-01-29 07:05:47.07	123.50	3.11	-55.5	-73.5	3.6	1.51e+00	0	45	104	0	60	186192
2026-01-29 07:05:51.09	123.37	3.38	-55.5	-73.3	3.6	1.51e+00	0	45	104	0	60	181515
2026-01-29 07:05:55.11	123.24	3.64	-55.4	-73.4	3.6	1.51e+00	0	45	104	0	60	182365
2026-01-29 07:05:59.13	123.10	3.91	-55.1	-73.0	3.6	1.51e+00	0	45	104	0	60	174753
2026-01-29 07:06:03.16	122.97	4.18	-55.1	-73.0	3.6	1.51e+00	0	45	104	0	60	175506
2026-01-29 07:06:07.18	122.83	4.45	-55.1	-73.0	3.6	1.51e+00	0	45	104	0	60	174499
2026-01-29 07:06:11.21	122.69	4.73	-55.2	-73.1	3.6	1.51e+00	0	45	104	0	60	176998
2026-01-29 07:06:15.23	122.54	5.01	-55.1	-72.8	3.6	1.51e+00	0	45	104	0	60	171070
2026-01-29 07:06:19.25	122.39	5.29	-55.0	-72.8	3.6	1.51e+00	0	45	104	0	60	170395
2026-01-29 07:06:23.28	122.24	5.57	-54.9	-73.0	3.6	1.51e+00	0	45	104	0	60	175904
2026-01-29 07:06:27.31	122.09	5.86	-54.8	-72.9	3.6	1.51e+00	0	45	104	0	60	173233
2026-01-29 07:06:31.33	121.93	6.15	-56.9	-75.1	3.6	1.51e+00	0	45	104	0	60	222951
2026-01-29 07:06:35.36	121.77	6.44	-53.8	-72.7	3.6	1.51e+00	0	45	104	0	60	169913
2026-01-29 07:06:39.39	121.60	6.74	-53.0	-72.4	3.6	1.51e+00	0	45	104	0	60	163924
2026-01-29 07:06:43.42	121.43	7.04	-55.1	-72.9	3.5	1.51e+00	0	45	104	0	60	172171
2026-01-29 07:06:47.44	121.26	7.34	-54.4	-74.3	3.6	1.51e+00	0	45	104	0	60	204062
2026-01-29 07:06:51.47	121.09	7.65	-55.5	-73.2	3.5	1.51e+00	0	46	104	0	60	178685
2026-01-29 07:06:55.50	120.91	7.96	-57.3	-75.0	3.6	1.51e+00	0	45	104	0	60	219083
2026-01-29 07:06:59.52	120.72	8.27	-57.0	-75.3	3.6	1.51e+00	0	45	104	0	60	228280
2026-01-29 07:07:03.55	120.53	8.59	-57.9	-75.4	3.6	1.51e+00	0	45	104	0	60	231226
2026-01-29 07:07:07.57	120.34	8.91	-56.3	-74.8	3.6	1.51e+00	0	46	104	0	60	214391
2026-01-29 07:07:11.61	120.14	9.23	-58.2	-75.6	3.6	1.51e+00	0	45	104	0	60	237376
2026-01-29 07:07:15.63	119.94	9.56	-57.8	-74.7	3.6	1.51e+00	0	46	104	0	60	212927
2026-01-29 07:07:19.65	119.73	9.89	-57.8	-75.5	3.6	1.51e+00	0	46	104	0	60	233862
2026-01-29 07:07:23.68	119.52	10.23	-58.4	-75.2	3.6	1.51e+00	0	45	104	0	60	224876
2026-01-29 07:07:27.70	119.30	10.57	-57.2	-75.8	3.6	1.51e+00	0	46	104	0	60	242477
2026-01-29 07:07:31.72	119.08	10.91	-58.4	-75.7	3.6	1.51e+00	0	46	104	0	60	238065
2026-01-29 07:07:35.74	118.85	11.26	-59.2	-76.1	3.6	1.51e+00	0	46	104	0	60	250588
2026-01-29 07:07:39.77	118.62	11.61	-57.2	-75.5	3.6	1.51e+00	0	46	104	0	60	233903
2026-01-29 07:07:43.80	118.38	11.97	-58.3	-76.0	3.6	1.51e+00	0	46	104	0	60	246695
2026-01-29 07:07:47.83	118.13	12.34	-56.8	-75.7	3.6	1.51e+00	0	46	104	0	60	237464
2026-01-29 07:07:51.85	117.88	12.70	-59.1	-76.2	3.6	1.51e+00	0	46	104	0	60	254373
2026-01-29 07:07:55.88	117.62	13.08	-58.7	-76.1	3.6	1.51e+00	0	46	104	0	60	248975
2026-01-29 07:07:59.91	117.35	13.46	-57.9	-75.7	3.6	1.51e+00	0	46	104	0	60	239557
2026-01-29 07:08:03.94	117.08	13.84	-58.8	-76.0	3.6	1.51e+00	0	46	104	0	60	246702
2026-01-29 07:08:07.95	116.80	14.23	-59.2	-76.2	3.6	1.51e+00	0	46	104	0	60	253513
2026-01-29 07:08:11.96	116.51	14.62	-59.3	-76.0	3.6	1.51e+00	0	46	104	0	60	247297
2026-01-29 07:08:15.99	116.21	15.02	-59.0	-75.8	3.6	1.51e+00	0	46	104	0	60	242555
2026-01-29 07:08:20.02	115.90	15.43	-58.9	-76.1	3.5	1.51e+00	0	46	104	0	60	250724
2026-01-29 07:08:24.05	115.59	15.84	-59.8	-76.3	3.6	1.51e+00	0	46	104	0	60	257238
2026-01-29 07:08:28.06	115.26	16.26	-59.7	-76.3	3.6	1.51e+00	0	46	104	0	60	256971
2026-01-29 07:08:32.09	114.93	16.68	-59.4	-76.4	3.6	1.51e+00	0	46	104	0	60	259583
2026-01-29 07:08:36.12	114.59	17.11	-60.0	-76.4	3.6	1.51e+00	0	46	104	0	60	259370
2026-01-29 07:08:40.15	114.23	17.55	-59.1	-76.0	3.6	1.51e+00	0	46	104	0	60	246721
2026-01-29 07:08:44.17	113.87	17.99	-59.5	-76.4	3.6	1.51e+00	0	46	104	0	60	257991
2026-01-29 07:08:48.20	113.49	18.44	-59.1	-76.1	3.6	1.51e+00	0	46	104	0	60	249575
2026-01-29 07:08:52.23	113.10	18.90	-59.0	-76.1	3.6	1.51e+00	0	46	104	0	60	249225
2026-01-29 07:08:56.25	112.70	19.37	-59.3	-76.4	3.6	1.51e+00	0	46	104	0	60	258586
2026-01-29 07:09:00.27	112.29	19.84	-59.2	-76.3	3.6	1.51e+00	0	46	104	0	60	256072
2026-01-29 07:09:04.30	111.86	20.32	-59.0	-76.4	3.6	1.51e+00	0	46	104	0	60	258681
2026-01-29 07:09:08.33	111.42	20.81	-58.9	-76.2	3.6	1.51e+00	0	46	104	0	60	252288
2026-01-29 07:09:12.35	110.97	21.30	-59.1	-76.0	3.6	1.51e+00	0	46	104	0	60	247697
2026-01-29 07:09:16.38	110.50	21.80	-59.2	-76.7	3.6	1.51e+00	0	46	104	0	60	266745
2026-01-29 07:09:20.41	110.01	22.31	-59.0	-76.5	3.6	1.51e+00	0	46	104	0	60	261140
2026-01-29 07:09:24.44	109.51	22.83	-59.2	-76.5	3.6	1.51e+00	0	46	104	0	60	261423
2026-01-29 07:09:28.46	108.99	23.36	-59.0	-76.2	3.6	1.51e+00	0	46	104	0	60	251813
2026-01-29 07:09:32.49	108.45	23.89	-59.2	-76.4	3.6	1.51e+00	0	46	104	0	60	258642
2026-01-29 07:09:36.51	107.89	24.44	-57.4	-75.7	3.6	1.51e+00	0	46	104	0	60	238405
2026-01-29 07:09:40.55	107.31	24.99	-58.3	-76.1	3.6	1.51e+00	0	46	104	0	60	250087
2026-01-29 07:09:44.57	106.71	25.55	-58.5	-75.6	3.6	1.51e+00	0	46	104	0	60	235613
2026-01-29 07:09:48.60	106.09	26.12	-58.5	-76.4	3.6	1.51e+00	0	46	104	0	60	257945
2026-01-29 07:09:52.63	105.45	26.69	-59.8	-76.9	3.6	1.51e+00	0	46	104	0	60	272721
2026-01-29 07:09:56.66	104.78	27.28	-58.9	-76.1	3.6	1.51e+00	0	46	104	0	60	249957
2026-01-29 07:10:00.69	104.08	27.87	-58.8	-76.4	3.6	1.51e+00	0	46	104	0	60	259137
2026-01-29 07:10:04.71	103.36	28.47	-58.7	-76.4	3.6	1.51e+00	0	46	104	0	60	259603
2026-01-29 07:10:08.72	102.61	29.08	-58.7	-76.3	3.6	1.51e+00	0	46	104	0	60	256279
2026-01-29 07:10:12.76	101.83	29.70	-59.8	-76.3	3.6	1.51e+00	0	46	104	0	60	254555
2026-01-29 07:10:16.79	101.02	30.32	-60.4	-76.5	3.6	1.51e+00	0	46	104	0	60	263117
2026-01-29 07:10:20.82	100.18	30.95	-59.6	-76.2	3.6	1.51e+00	0	46	104	0	60	253724
2026-01-29 07:10:24.84	99.30	31.59	-59.4	-76.8	3.6	1.51e+00	0	46	104	0	60	271598
2026-01-29 07:10:28.87	98.39	32.23	-58.3	-76.7	3.6	1.51e+00	0	46	104	0	60	268996
2026-01-29 07:10:32.90	97.44	32.88	-59.3	-76.7	3.6	1.51e+00	0	46	104	0	60	268208
2026-01-29 07:10:36.92	96.46	33.53	-59.5	-76.7	3.6	1.51e+00	0	46	104	0	60	267830
2026-01-29 07:10:40.96	95.42	34.18	-58.9	-76.9	3.6	1.51e+00	0	46	104	0	60	273061
2026-01-29 07:10:44.99	94.35	34.84	-59.0	-77.2	3.6	1.51e+00	0	46	104	0	60	282709
2026-01-29 07:10:49.02	93.23	35.50	-60.1	-76.9	3.6	1.51e+00	0	46	104	0	60	274924
2026-01-29 07:10:53.04	92.07	36.16	-60.0	-77.5	3.6	1.51e+00	0	46	104	0	60	294220
2026-01-29 07:10:57.06	90.86	36.82	-59.1	-76.2	3.6	1.51e+00	0	46	104	0	60	253688
2026-01-29 07:11:01.08	89.60	37.48	-60.0	-76.6	3.6	1.51e+00	0	46	104	0	60	265122
2026-01-29 07:11:05.11	88.29	38.14	-61.0	-77.3	3.6	1.51e+00	0	46	104	0	60	287487
2026-01-29 07:11:09.14	86.92	38.79	-60.1	-77.3	3.6	1.51e+00	0	46	104	0	60	285918
2026-01-29 07:11:13.16	85.50	39.43	-61.4	-77.4	3.6	1.51e+00	0	46	104	0	60	290250
2026-01-29 07:11:17.18	84.02	40.06	-60.8	-77.5	3.6	1.51e+00	0	46	104	0	60	293045
2026-01-29 07:11:21.20	82.48	40.68	-61.3	-78.0	3.6	1.51e+00	0	46	104	0	60	311365
2026-01-29 07:11:25.23	80.88	41.29	-61.2	-78.0	3.6	1.51e+00	0	46	104	0	60	311944
2026-01-29 07:11:29.24	79.23	41.88	-61.4	-77.3	3.6	1.51e+00	0	46	104	0	60	285608
2026-01-29 07:11:33.27	77.51	42.45	-60.9	-78.0	3.6	1.51e+00	0	46	104	0	60	309936
2026-01-29 07:11:37.31	75.72	43.00	-60.8	-77.9	3.5	1.51e+00	0	46	104	0	60	308647
2026-01-29 07:11:41.34	73.88	43.53	-59.4	-77.5	3.6	1.51e+00	0	46	104	0	60	292349
2026-01-29 07:11:45.37	71.97	44.02	-61.6	-77.7	3.6	1.51e+00	0	46	104	0	60	299376
2026-01-29 07:11:49.39	70.01	44.49	-61.7	-77.8	3.5	1.51e+00	0	46	104	0	60	302453
2026-01-29 07:11:53.41	68.00	44.92	-61.9	-78.3	3.6	1.51e+00	0	46	104	0	60	323443
2026-01-29 07:11:57.43	65.93	45.32	-61.6	-78.3	3.6	1.51e+00	0	46	104	0	60	322486
2026-01-29 07:12:01.45	63.81	45.68	-61.6	-78.3	3.6	1.51e+00	0	46	104	0	60	323747
2026-01-29 07:12:05.46	61.66	45.99	-61.6	-78.1	3.6	1.51e+00	0	46	104	0	60	315109
2026-01-29 07:12:09.49	59.45	46.26	-61.3	-78.2	3.6	1.51e+00	0	46	104	0	60	316745
2026-01-29 07:12:13.51	57.21	46.49	-61.5	-78.0	3.6	1.51e+00	0	46	104	0	60	312113
2026-01-29 07:12:17.55	54.93	46.67	-60.8	-77.8	3.6	1.51e+00	0	46	104	0	60	305294
2026-01-29 07:12:21.58	52.63	46.80	-61.2	-78.1	3.6	1.51e+00	0	46	104	0	60	315122
2026-01-29 07:12:25.60	50.33	46.87	-61.7	-78.2	3.6	1.51e+00	0	46	104	0	60	317858
2026-01-29 07:12:29.62	48.01	46.90	-61.5	-78.2	3.6	1.51e+00	0	46	104	0	60	317167
2026-01-29 07:12:33.65	45.69	46.88	-61.5	-78.3	3.6	1.51e+00	0	46	104	0	60	322018
2026-01-29 07:12:37.68	43.38	46.80	-61.4	-77.8	3.6	1.51e+00	0	46	104	0	60	302847
2026-01-29 07:12:41.71	41.09	46.67	-62.0	-78.3	3.6	1.51e+00	0	46	104	0	60	321914
2026-01-29 07:12:45.74	38.81	46.50	-61.9	-78.3	3.6	1.51e+00	0	46	104	0	60	323235
2026-01-29 07:12:49.76	36.57	46.27	-61.2	-78.1	3.6	1.51e+00	0	46	104	0	60	314894
2026-01-29 07:12:53.78	34.37	46.00	-60.7	-78.3	3.6	1.51e+00	0	46	104	0	60	322595
2026-01-29 07:12:57.80	32.21	45.69	-61.4	-78.0	3.6	1.51e+00	0	46	104	0	60	309470
2026-01-29 07:13:01.82	30.09	45.33	-61.4	-78.1	3.6	1.51e+00	0	46	104	0	60	315102
2026-01-29 07:13:05.83	28.03	44.94	-60.4	-77.6	3.6	1.51e+00	0	46	104	0	60	296313
2026-01-29 07:13:09.86	26.01	44.51	-60.6	-78.0	3.6	1.51e+00	0	46	104	0	60	311507
2026-01-29 07:13:13.88	24.05	44.05	-61.4	-77.1	3.6	1.51e+00	0	46	104	0	60	281921
2026-01-29 07:13:17.90	22.15	43.55	-61.6	-78.1	3.6	1.51e+00	0	46	104	0	60	315788
2026-01-29 07:13:21.92	20.31	43.03	-61.8	-77.6	3.6	1.51e+00	0	46	104	0	60	297211
2026-01-29 07:13:25.95	18.53	42.48	-61.8	-77.9	3.6	1.51e+00	0	46	104	0	60	306843
2026-01-29 07:13:29.96	16.82	41.91	-60.1	-77.3	3.6	1.51e+00	0	46	104	0	60	287362
2026-01-29 07:13:33.99	15.15	41.33	-60.8	-77.8	3.6	1.51e+00	0	46	104	0	60	302870
2026-01-29 07:13:38.01	13.56	40.72	-60.5	-77.5	3.6	1.51e+00	0	46	104	0	60	293871
2026-01-29 07:13:42.03	12.02	40.10	-59.5	-77.7	3.6	1.51e+00	0	46	104	0	60	301575
2026-01-29 07:13:46.05	10.54	39.47	-59.4	-77.1	3.6	1.51e+00	0	46	104	0	60	280141
2026-01-29 07:13:50.07	9.12	38.84	-59.9	-77.5	3.6	1.51e+00	0	46	104	0	60	293708
2026-01-29 07:13:54.09	7.76	38.19	-59.6	-77.4	3.6	1.51e+00	0	46	104	0	60	290888
2026-01-29 07:13:58.11	6.45	37.54	-58.0	-77.0	3.6	1.51e+00	0	46	104	0	60	278283
2026-01-29 07:14:02.12	5.19	36.88	-58.1	-77.1	3.6	1.51e+00	0	46	104	0	60	279918
2026-01-29 07:14:06.12	3.99	36.23	-57.7	-77.3	3.6	1.51e+00	0	46	104	0	60	288637
2026-01-29 07:14:10.14	2.83	35.57	-60.4	-77.8	3.6	1.51e+00	0	46	104	0	60	303539
2026-01-29 07:14:14.16	1.71	34.91	-59.6	-77.6	3.6	1.51e+00	0	46	104	0	60	295631
2026-01-29 07:14:18.18	0.64	34.26	-60.0	-77.6	3.6	1.51e+00	0	46	104	0	60	297005
2026-01-29 07:14:22.20	359.61	33.61	-59.6	-77.6	3.6	1.51e+00	0	46	104	0	60	297962
2026-01-29 07:14:26.22	358.63	32.96	-59.4	-77.4	3.6	1.51e+00	0	46	104	0	60	290812
2026-01-29 07:14:30.24	357.68	32.31	-60.4	-77.6	3.6	1.51e+00	0	46	104	0	60	297447
2026-01-29 07:14:34.27	356.77	31.67	-60.2	-77.6	3.6	1.51e+00	0	46	104	0	60	296727
2026-01-29 07:14:38.30	355.89	31.04	-59.6	-77.3	3.6	1.51e+00	0	46	104	0	60	287079
2026-01-29 07:14:42.33	355.05	30.41	-58.3	-77.2	3.6	1.51e+00	0	46	104	0	60	283551
2026-01-29 07:14:46.34	354.24	29.79	-59.9	-77.4	3.6	1.51e+00	0	46	104	0	60	291644
2026-01-29 07:14:50.37	353.46	29.17	-58.7	-77.1	3.6	1.51e+00	0	46	104	0	60	281419
2026-01-29 07:14:54.41	352.71	28.57	-58.4	-76.2	3.6	1.51e+00	0	46	104	0	60	253631
2026-01-29 07:14:58.44	351.99	27.97	-58.1	-76.5	3.6	1.51e+00	0	46	104	0	60	262514
2026-01-29 07:15:02.46	351.29	27.38	-58.1	-77.4	3.6	1.51e+00	0	46	104	0	60	291569
2026-01-29 07:15:06.49	350.63	26.79	-57.8	-77.3	3.6	1.51e+00	0	46	104	0	60	285579
2026-01-29 07:15:10.52	349.98	26.22	-58.8	-77.3	3.6	1.51e+00	0	46	104	0	60	286382
2026-01-29 07:15:14.53	349.36	25.65	-60.8	-77.4	3.6	1.51e+00	0	46	104	0	60	290619
2026-01-29 07:15:18.55	348.76	25.09	-59.7	-76.9	3.6	1.51e+00	0	46	104	0	60	275458
2026-01-29 07:15:22.56	348.19	24.55	-59.9	-76.9	3.6	1.51e+00	0	46	104	0	60	275276
2026-01-29 07:15:26.57	347.63	24.01	-59.8	-77.1	3.6	1.51e+00	0	46	104	0	60	279922
2026-01-29 07:15:30.59	347.10	23.47	-60.1	-77.2	3.6	1.51e+00	0	46	104	0	60	282396
2026-01-29 07:15:34.61	346.58	22.95	-60.5	-77.0	3.6	1.51e+00	0	46	104	0	60	278336
2026-01-29 07:15:38.62	346.08	22.43	-61.1	-77.5	3.6	1.51e+00	0	46	104	0	60	295281
2026-01-29 07:15:42.63	345.59	21.92	-60.9	-77.3	3.6	1.51e+00	0	46	104	0	60	288283
2026-01-29 07:15:46.65	345.12	21.42	-61.2	-77.5	3.6	1.51e+00	0	46	104	0	60	294106
2026-01-29 07:15:50.66	344.67	20.93	-60.8	-77.4	3.6	1.51e+00	0	46	104	0	60	289191
2026-01-29 07:15:54.68	344.23	20.44	-60.6	-77.3	3.6	1.51e+00	0	46	104	0	60	287055
2026-01-29 07:15:58.71	343.80	19.96	-61.1	-77.5	3.6	1.51e+00	0	46	104	0	60	294741
2026-01-29 07:16:02.74	343.39	19.49	-61.3	-77.6	3.6	1.51e+00	0	46	104	0	60	295986
2026-01-29 07:16:06.76	342.99	19.03	-60.8	-77.3	3.6	1.51e+00	0	46	104	0	60	287761
2026-01-29 07:16:10.79	342.61	18.57	-60.0	-76.9	3.6	1.51e+00	0	46	104	0	60	274351
2026-01-29 07:16:14.82	342.23	18.12	-59.1	-77.0	3.6	1.51e+00	0	46	104	0	60	277740
2026-01-29 07:16:18.84	341.87	17.68	-60.4	-77.1	3.6	1.51e+00	0	46	104	0	60	281523
2026-01-29 07:16:22.88	341.51	17.24	-60.0	-77.2	3.6	1.51e+00	0	46	104	0	60	284834
2026-01-29 07:16:26.91	341.17	16.81	-59.7	-77.2	3.6	1.51e+00	0	46	104	0	60	282375
2026-01-29 07:16:30.93	340.84	16.39	-60.5	-77.2	3.6	1.51e+00	0	46	104	0	60	283635
2026-01-29 07:16:34.95	340.51	15.97	-60.7	-77.3	3.6	1.51e+00	0	46	104	0	60	286923
2026-01-29 07:16:38.98	340.20	15.56	-60.6	-76.9	3.6	1.51e+00	0	46	104	0	60	275002
2026-01-29 07:16:43.01	339.89	15.15	-60.2	-76.8	3.6	1.51e+00	0	46	104	0	60	270387
2026-01-29 07:16:47.03	339.60	14.75	-60.1	-77.0	3.6	1.51e+00	0	46	104	0	60	276840
2026-01-29 07:16:51.04	339.31	14.36	-60.3	-77.0	3.6	1.51e+00	0	46	104	0	60	278294
2026-01-29 07:16:55.07	339.03	13.97	-59.8	-76.9	3.6	1.51e+00	0	46	104	0	60	274574
2026-01-29 07:16:59.09	338.76	13.59	-58.7	-76.5	3.6	1.51e+00	0	46	104	0	60	261784
2026-01-29 07:17:03.12	338.49	13.21	-58.8	-76.4	3.6	1.51e+00	0	46	104	0	60	260027
2026-01-29 07:17:07.14	338.23	12.84	-57.4	-75.8	3.6	1.51e+00	0	46	104	0	60	242488
2026-01-29 07:17:11.16	337.98	12.47	-59.5	-75.9	3.6	1.51e+00	0	46	104	0	60	243526
2026-01-29 07:17:15.19	337.74	12.11	-58.5	-76.0	3.6	1.51e+00	0	46	104	0	60	246098
2026-01-29 07:17:19.22	337.50	11.75	-56.4	-75.0	3.6	1.51e+00	0	46	104	0	60	221502
2026-01-29 07:17:23.24	337.27	11.40	-59.0	-75.8	3.6	1.51e+00	0	46	104	0	60	241931
2026-01-29 07:17:27.26	337.04	11.05	-58.1	-75.4	3.6	1.51e+00	0	46	104	0	60	231581
2026-01-29 07:17:31.29	336.82	10.70	-58.6	-75.4	3.6	1.51e+00	0	46	104	0	60	230208
2026-01-29 07:17:35.29	336.60	10.36	-57.9	-75.4	3.6	1.51e+00	0	46	104	0	60	229480
2026-01-29 07:17:39.31	336.39	10.03	-58.9	-75.3	3.6	1.51e+00	0	46	104	0	60	226979
2026-01-29 07:17:43.33	336.19	9.70	-58.4	-75.2	3.6	1.51e+00	0	46	104	0	60	224886
2026-01-29 07:17:47.35	335.99	9.37	-58.3	-75.2	3.6	1.51e+00	0	46	104	0	60	225699
2026-01-29 07:17:51.38	335.79	9.05	-57.1	-74.6	3.6	1.51e+00	0	46	104	0	60	210998
2026-01-29 07:17:55.41	335.60	8.73	-57.6	-74.8	3.6	1.51e+00	0	46	104	0	60	216161
2026-01-29 07:17:59.45	335.41	8.41	-57.1	-74.7	3.6	1.51e+00	0	46	104	0	60	211973
2026-01-29 07:18:03.47	335.23	8.10	-57.4	-74.5	3.6	1.51e+00	0	46	104	0	60	208872
2026-01-29 07:18:07.48	335.05	7.79	-57.4	-74.7	3.6	1.51e+00	0	46	104	0	60	212652
2026-01-29 07:18:11.50	334.88	7.48	-57.2	-74.5	3.6	1.51e+00	0	46	104	0	60	207590
2026-01-29 07:18:15.51	334.71	7.18	-51.5	-72.5	3.6	1.51e+00	0	46	104	0	60	166043
2026-01-29 07:18:19.54	334.54	6.88	-51.8	-71.8	3.6	1.51e+00	0	46	104	0	60	153039
2026-01-29 07:18:23.57	334.38	6.59	-53.0	-72.7	3.6	1.51e+00	0	46	104	0	60	169037
2026-01-29 07:18:27.59	334.22	6.29	-52.9	-73.3	3.6	1.51e+00	0	46	104	0	60	181861
2026-01-29 07:18:31.61	334.07	6.00	-54.8	-73.8	3.6	1.51e+00	0	46	104	0	60	191910
2026-01-29 07:18:35.63	333.91	5.72	-61.0	-77.3	3.6	1.51e+00	0	46	104	0	60	288324
2026-01-29 07:18:39.67	333.77	5.43	-60.7	-77.9	3.6	1.51e+00	0	46	104	0	60	309042
2026-01-29 07:18:43.70	333.62	5.15	-62.6	-79.0	3.6	1.51e+00	0	46	104	0	60	348806
2026-01-29 07:18:47.73	333.48	4.87	-60.1	-78.7	3.6	1.51e+00	0	46	104	0	60	337801
2026-01-29 07:18:51.77	333.34	4.59	-61.3	-79.0	3.6	1.51e+00	0	46	104	0	60	349068
2026-01-29 07:18:55.80	333.20	4.32	-61.3	-79.1	3.6	1.51e+00	0	46	104	0	60	351646
2026-01-29 07:18:59.83	333.07	4.05	-61.3	-79.0	3.6	1.51e+00	0	46	104	0	60	349258
2026-01-29 07:19:03.86	332.93	3.78	-61.2	-78.9	3.6	1.51e+00	0	46	104	0	60	346593
2026-01-29 07:19:07.88	332.81	3.52	-61.2	-79.1	3.6	1.51e+00	0	46	104	0	60	351700
2026-01-29 07:19:11.91	332.68	3.25	-61.2	-78.9	3.6	1.51e+00	0	46	104	0	60	344337
2026-01-29 07:19:15.94	332.56	2.99	-61.3	-79.0	3.6	1.51e+00	0	46	104	0	60	350388
2026-01-29 07:19:19.97	332.44	2.73	-61.3	-79.1	3.6	1.51e+00	0	46	104	0	60	352519
2026-01-29 07:19:24.00	332.32	2.48	-61.2	-79.1	3.6	1.51e+00	0	46	104	0	60	353014
2026-01-29 07:19:28.03	332.20	2.22	-61.1	-78.9	3.6	1.51e+00	0	46	104	0	60	346940
2026-01-29 07:19:32.05	332.09	1.97	-61.2	-79.0	3.6	1.51e+00	0	46	104	0	60	350849
2026-01-29 07:19:36.08	331.97	1.72	-61.2	-79.0	3.6	1.51e+00	0	46	104	0	60	349246
2026-01-29 07:19:40.10	331.87	1.47	-61.1	-78.9	3.6	1.51e+00	0	46	104	0	60	345780
2026-01-29 07:19:44.13	331.76	1.23	-61.1	-78.9	3.6	1.51e+00	0	46	104	0	60	346249
2026-01-29 07:19:48.16	331.65	0.98	-61.0	-79.0	3.6	1.51e+00	0	46	104	0	60	348345
2026-01-29 07:19:52.18	331.55	0.74	-61.0	-78.7	3.6	1.51e+00	0	46	104	0	60	339073
2026-01-29 07:19:56.21	331.45	0.50	-61.0	-78.8	3.6	1.51e+00	0	46	104	0	60	342045
2026-01-29 07:20:00.24	331.35	0.26	-61.0	-78.8	3.6	1.51e+00	0	46	104	0	60	340690
2026-01-29 07:20:04.27	331.25	0.02	-61.0	-78.8	3.6	1.51e+00	0	46	104	0	60	341908

#Closed at: 2026-01-29 07:20:07
#Recorded file [0 MB]: D:/Data/35015_260129_101920.dat