passes_logs/2026/01/29/R3.2S-Naryan-Mar/R3.2S-Naryan-Mar__20260129_084453_NOAA_20_JPSS-1_rec.log

#Pass ID: 20260129_084453_NOAA 20 (JPSS-1)
#Satellite: NOAA 20 (JPSS-1)
#Configuration: NOAA 20
#almurnet v.1.7.20240730
#Start time: 2026-01-29 08:44:55

#Version: 2.2.20231116
#Station: R3.2S-Naryan-Mar
#Location: 53.008057 lon 67.646978 lat
#TLE: 1 43013U 17073A   26027.94683596  .00000137  00000+0  85741-4 0  9995
#TLE: 2 43013  98.7648 328.7503 0000940  21.3928 338.7287 14.19541154424576

#Time	Az	El	Level	Level2	SNR	BER	BlckErr	Temp	State	Recorded	gain1	gain2
2026-01-29 08:44:55.93	163.85	0.14	-58.8	-75.7	3.3	1.54e+00	0	44	0	0	60	238454
2026-01-29 08:44:59.96	163.91	0.38	-58.9	-77.0	3.6	1.51e+00	0	44	104	0	60	276166
2026-01-29 08:45:03.99	163.97	0.63	-59.0	-77.2	3.6	1.51e+00	0	45	104	0	60	283615
2026-01-29 08:45:08.02	164.03	0.88	-58.9	-77.1	3.6	1.51e+00	0	45	104	0	60	280881
2026-01-29 08:45:12.05	164.09	1.12	-59.0	-77.2	3.6	1.51e+00	0	45	104	0	60	283555
2026-01-29 08:45:16.08	164.15	1.37	-58.9	-77.1	3.6	1.51e+00	0	45	104	0	60	279463
2026-01-29 08:45:20.11	164.22	1.63	-58.8	-77.2	3.6	1.51e+00	0	45	104	0	60	282236
2026-01-29 08:45:24.14	164.28	1.88	-58.8	-77.0	3.6	1.51e+00	0	45	104	0	60	278542
2026-01-29 08:45:28.17	164.35	2.14	-58.9	-77.1	3.6	1.51e+00	0	45	104	0	60	282110
2026-01-29 08:45:32.21	164.41	2.40	-58.9	-77.1	3.6	1.51e+00	0	45	104	0	60	279261
2026-01-29 08:45:36.24	164.48	2.66	-58.9	-77.2	3.6	1.51e+00	0	45	104	0	60	285127
2026-01-29 08:45:40.26	164.55	2.93	-59.0	-77.0	3.6	1.51e+00	0	45	104	0	60	278789
2026-01-29 08:45:44.28	164.62	3.19	-58.9	-77.1	3.6	1.51e+00	0	45	104	0	60	282084
2026-01-29 08:45:48.32	164.69	3.46	-58.9	-77.1	3.6	1.51e+00	0	45	104	0	60	280267
2026-01-29 08:45:52.35	164.76	3.73	-58.9	-77.1	3.6	1.51e+00	0	45	104	0	60	281272
2026-01-29 08:45:56.38	164.83	4.01	-58.9	-77.3	3.6	1.51e+00	0	45	104	0	60	286575
2026-01-29 08:46:00.41	164.90	4.29	-58.8	-77.0	3.6	1.51e+00	0	45	104	0	60	278339
2026-01-29 08:46:04.44	164.98	4.57	-58.8	-77.1	3.6	1.51e+00	0	45	104	0	60	279370
2026-01-29 08:46:08.46	165.05	4.85	-58.8	-77.0	3.6	1.51e+00	0	45	104	0	60	277245
2026-01-29 08:46:12.49	165.13	5.14	-58.8	-76.9	3.6	1.51e+00	0	45	104	0	60	275692
2026-01-29 08:46:16.51	165.21	5.43	-58.8	-77.4	3.6	1.51e+00	0	45	104	0	60	290928
2026-01-29 08:46:20.53	165.29	5.72	-61.4	-78.0	3.6	1.51e+00	0	45	104	0	60	310264
2026-01-29 08:46:24.55	165.37	6.01	-61.8	-78.2	3.6	1.51e+00	0	45	104	0	60	319989
2026-01-29 08:46:28.56	165.45	6.31	-60.8	-77.4	3.6	1.51e+00	0	45	104	0	60	289808
2026-01-29 08:46:32.59	165.53	6.62	-58.2	-73.9	3.6	1.51e+00	0	45	104	0	60	194757
2026-01-29 08:46:36.62	165.62	6.92	-57.1	-68.7	4.9	1.51e+00	0	46	104	3145728	60	106260
2026-01-29 08:46:40.64	165.70	7.23	-55.8	-60.1	13.7	1.43e+00	0	45	104	2097152	60	39653
2026-01-29 08:46:44.67	165.79	7.55	-56.1	-60.7	13.1	3.43e-05	0	45	0	6291456	60	42582
2026-01-29 08:46:48.69	165.88	7.86	-56.2	-61.2	12.5	1.34e-04	0	46	0	13631488	60	45086
2026-01-29 08:46:52.72	165.97	8.18	-56.5	-62.4	11.2	1.14e-03	0	45	0	20971520	60	51451
2026-01-29 08:46:56.74	166.06	8.51	-57.0	-64.2	8.8	4.35e-03	0	45	0	29360128	60	63591
2026-01-29 08:47:00.76	166.16	8.84	-57.2	-64.1	4.6	3.48e-02	0	45	104	33554432	60	62928
2026-01-29 08:47:04.78	166.25	9.17	-56.1	-60.2	14.1	2.20e-06	0	45	0	3145728	60	40070
2026-01-29 08:47:08.80	166.35	9.51	-56.6	-61.2	13.0	2.13e-05	0	45	0	10485760	60	44773
2026-01-29 08:47:12.81	166.45	9.85	-56.0	-59.8	14.4	2.20e-06	0	45	0	17825792	60	38131
2026-01-29 08:47:16.83	166.55	10.20	-56.2	-60.4	13.7	5.30e-06	0	45	0	26214400	60	41082
2026-01-29 08:47:20.85	166.66	10.55	-56.6	-61.4	12.0	1.13e-04	0	45	0	33554432	60	45948
2026-01-29 08:47:24.87	166.77	10.91	-56.9	-62.1	12.0	3.54e-04	0	45	0	40894464	60	49958
2026-01-29 08:47:28.87	166.87	11.27	-56.8	-62.2	11.8	2.18e-04	0	46	0	48234496	60	50591
2026-01-29 08:47:32.89	166.99	11.64	-57.3	-63.8	10.2	5.32e-03	0	46	0	55574528	60	60503
2026-01-29 08:47:36.91	167.10	12.01	-57.7	-65.4	8.0	4.82e-02	0	45	0	63963136	60	72957
2026-01-29 08:47:40.92	167.22	12.39	-58.4	-69.1	4.9	5.64e-01	0	46	0	71303168	60	111779
2026-01-29 08:47:44.93	167.33	12.78	-58.1	-67.5	5.7	2.41e-02	0	46	0	77594624	60	93299
2026-01-29 08:47:48.95	167.46	13.17	-53.4	-55.3	19.2	0.00e+00	0	45	0	1048576	60	22708
2026-01-29 08:47:52.97	167.58	13.56	-53.0	-54.8	19.5	0.00e+00	0	46	0	8388608	60	21574
2026-01-29 08:47:56.98	167.71	13.97	-54.7	-57.4	17.2	0.00e+00	0	45	0	15728640	60	28975
2026-01-29 08:48:00.99	167.84	14.38	-53.3	-55.1	19.2	0.00e+00	0	45	0	23068672	60	22344
2026-01-29 08:48:05.00	167.97	14.79	-53.1	-54.9	19.6	0.00e+00	0	45	0	31457280	60	21689
2026-01-29 08:48:09.02	168.11	15.22	-52.6	-54.2	20.2	0.00e+00	0	45	0	38797312	60	20136
2026-01-29 08:48:13.04	168.25	15.65	-52.6	-54.2	20.2	0.00e+00	0	46	0	46137344	60	20168
2026-01-29 08:48:17.06	168.40	16.09	-52.7	-54.3	20.2	0.00e+00	0	45	0	53477376	60	20352
2026-01-29 08:48:21.09	168.55	16.54	-53.5	-55.2	19.5	0.00e+00	0	46	0	60817408	60	22651
2026-01-29 08:48:25.11	168.70	17.00	-53.1	-54.8	20.0	0.00e+00	0	46	0	69206016	60	21423
2026-01-29 08:48:29.13	168.86	17.46	-53.2	-54.9	19.9	0.00e+00	0	46	0	76546048	60	21769
2026-01-29 08:48:33.15	169.02	17.93	-54.9	-57.1	17.8	0.00e+00	0	45	0	83886080	60	28194
2026-01-29 08:48:37.17	169.18	18.42	-55.5	-58.1	16.9	0.00e+00	0	45	0	91226112	60	31604
2026-01-29 08:48:41.20	169.36	18.91	-56.2	-59.2	15.9	0.00e+00	0	46	0	98566144	60	35732
2026-01-29 08:48:45.22	169.53	19.41	-55.6	-58.2	17.0	0.00e+00	0	45	0	105906176	60	31729
2026-01-29 08:48:49.25	169.71	19.92	-54.3	-56.2	19.0	0.00e+00	0	45	0	114294784	60	25266
2026-01-29 08:48:53.27	169.90	20.45	-54.3	-56.2	19.1	0.00e+00	0	46	0	121634816	60	25372
2026-01-29 08:48:57.28	170.10	20.98	-54.6	-56.5	18.9	0.00e+00	0	45	0	128974848	60	26283
2026-01-29 08:49:01.29	170.29	21.52	-54.6	-56.5	19.0	0.00e+00	0	46	0	136314880	60	26150
2026-01-29 08:49:05.32	170.50	22.08	-54.6	-56.5	19.1	0.00e+00	0	45	0	143654912	60	26069
2026-01-29 08:49:09.35	170.72	22.65	-54.4	-56.2	19.3	0.00e+00	0	46	0	152043520	60	25413
2026-01-29 08:49:13.39	170.94	23.23	-54.2	-56.1	19.4	0.00e+00	0	45	0	159383552	60	24864
2026-01-29 08:49:17.41	171.17	23.83	-54.1	-55.9	19.6	0.00e+00	0	45	0	166723584	60	24324
2026-01-29 08:49:21.44	171.41	24.43	-54.1	-55.9	19.6	0.00e+00	0	45	0	174063616	60	24383
2026-01-29 08:49:25.47	171.65	25.06	-54.3	-56.0	19.6	0.00e+00	0	46	0	182452224	60	24833
2026-01-29 08:49:29.50	171.91	25.69	-54.4	-56.2	19.5	0.00e+00	0	46	0	189792256	60	25325
2026-01-29 08:49:33.52	172.17	26.34	-54.7	-56.5	19.3	0.00e+00	0	46	0	197132288	60	26233
2026-01-29 08:49:37.55	172.45	27.01	-55.0	-57.0	19.0	0.00e+00	0	45	0	204472320	60	27620
2026-01-29 08:49:41.58	172.74	27.70	-55.3	-57.3	18.6	0.00e+00	0	46	0	211812352	60	28872
2026-01-29 08:49:45.61	173.04	28.40	-55.5	-57.6	18.5	0.00e+00	0	45	0	219152384	60	29705
2026-01-29 08:49:49.64	173.35	29.11	-55.8	-57.9	18.3	0.00e+00	0	45	0	227540992	60	30731
2026-01-29 08:49:53.68	173.68	29.85	-56.1	-58.4	17.7	0.00e+00	0	45	0	234881024	60	32532
2026-01-29 08:49:57.71	174.02	30.60	-56.3	-58.7	17.4	0.00e+00	0	46	0	242221056	60	33558
2026-01-29 08:50:01.74	174.38	31.38	-56.3	-58.8	17.3	0.00e+00	0	45	0	249561088	60	34072
2026-01-29 08:50:05.77	174.75	32.17	-56.4	-58.9	17.3	0.00e+00	0	45	0	257949696	60	34476
2026-01-29 08:50:09.81	175.14	32.98	-56.4	-58.8	17.5	0.00e+00	0	45	0	265289728	60	34176
2026-01-29 08:50:13.84	175.56	33.82	-56.0	-58.2	18.1	0.00e+00	0	45	0	272629760	60	31791
2026-01-29 08:50:17.86	175.99	34.67	-56.0	-58.2	18.0	0.00e+00	0	45	0	279969792	60	31798
2026-01-29 08:50:21.89	176.44	35.55	-55.9	-58.0	18.1	0.00e+00	0	45	0	287309824	60	31298
2026-01-29 08:50:25.93	176.92	36.45	-55.8	-57.8	18.4	0.00e+00	0	45	0	295698432	60	30431
2026-01-29 08:50:29.95	177.43	37.37	-55.9	-58.1	18.0	0.00e+00	0	45	0	303038464	60	31467
2026-01-29 08:50:33.96	177.96	38.32	-56.3	-58.7	17.6	0.00e+00	0	45	0	310378496	60	33548
2026-01-29 08:50:37.98	178.53	39.29	-56.8	-59.4	16.8	0.00e+00	0	45	0	317718528	60	36607
2026-01-29 08:50:41.99	179.12	40.28	-57.5	-60.6	15.6	0.00e+00	0	45	0	325058560	60	41795
2026-01-29 08:50:46.01	179.76	41.30	-60.6	-74.4	3.6	2.23e-01	0	46	104	332398592	60	204562
2026-01-29 08:50:50.04	180.44	42.34	-61.7	-78.3	3.6	1.51e+00	0	46	104	332398592	60	322028
2026-01-29 08:50:54.06	181.16	43.41	-58.2	-77.4	3.6	1.51e+00	0	45	104	332398592	60	290294
2026-01-29 08:50:58.09	181.93	44.51	-59.9	-77.9	3.6	1.51e+00	0	46	104	332398592	60	309239
2026-01-29 08:51:02.11	182.76	45.63	-59.7	-77.7	3.6	1.51e+00	0	46	104	332398592	60	301261
2026-01-29 08:51:06.13	183.64	46.77	-59.6	-77.9	3.6	1.51e+00	0	46	104	332398592	60	307004
2026-01-29 08:51:10.14	184.59	47.94	-59.7	-77.7	3.6	1.51e+00	0	46	104	332398592	60	299385
2026-01-29 08:51:14.17	185.62	49.14	-58.7	-77.7	3.6	1.51e+00	0	46	104	332398592	60	300760
2026-01-29 08:51:18.20	186.73	50.36	-62.0	-78.6	3.6	1.51e+00	0	46	104	332398592	60	332289
2026-01-29 08:51:22.24	187.94	51.60	-55.5	-57.1	20.2	0.00e+00	0	45	0	332398592	60	27960
2026-01-29 08:51:26.25	189.24	52.85	-61.0	-69.0	9.5	5.93e-02	0	45	0	2097152	60	109903
2026-01-29 08:51:30.27	190.66	54.12	-54.5	-55.9	20.8	0.00e+00	0	46	0	9437184	60	24546
2026-01-29 08:51:34.28	192.20	55.40	-52.9	-54.1	22.5	0.00e+00	0	46	0	16777216	60	19762
2026-01-29 08:51:38.30	193.90	56.69	-54.4	-55.8	20.9	0.00e+00	0	45	0	24117248	60	24116
2026-01-29 08:51:42.32	195.76	57.99	-54.9	-56.4	20.4	0.00e+00	0	45	0	31457280	60	25907
2026-01-29 08:51:46.34	197.81	59.28	-55.7	-57.6	19.3	0.00e+00	0	45	0	38797312	60	29567
2026-01-29 08:51:50.35	200.06	60.56	-54.0	-55.3	21.3	0.00e+00	0	45	0	47185920	60	22873
2026-01-29 08:51:54.37	202.55	61.83	-52.7	-53.8	22.5	0.00e+00	0	45	0	54525952	60	19275
2026-01-29 08:51:58.39	205.31	63.07	-53.0	-54.3	22.2	0.00e+00	0	45	0	61865984	60	20257
2026-01-29 08:52:02.40	208.36	64.27	-54.0	-55.4	21.1	0.00e+00	0	46	0	69206016	60	23100
2026-01-29 08:52:06.41	211.73	65.41	-54.3	-55.9	20.8	0.00e+00	0	45	0	76546048	60	24367
2026-01-29 08:52:10.43	215.47	66.49	-54.7	-56.3	20.3	0.00e+00	0	45	0	83886080	60	25617
2026-01-29 08:52:14.45	219.58	67.49	-55.0	-56.7	19.8	0.00e+00	0	46	0	92274688	60	26942
2026-01-29 08:52:18.47	224.08	68.37	-55.6	-57.6	19.0	0.00e+00	0	45	0	99614720	60	29695
2026-01-29 08:52:22.48	228.96	69.13	-55.2	-57.2	19.1	0.00e+00	0	45	0	106954752	60	28294
2026-01-29 08:52:26.49	234.19	69.75	-55.4	-57.7	18.5	0.00e+00	0	46	0	114294784	60	30087
2026-01-29 08:52:30.49	239.71	70.20	-55.4	-57.8	18.4	0.00e+00	0	45	0	121634816	60	30472
2026-01-29 08:52:34.52	245.50	70.47	-53.6	-55.3	20.8	0.00e+00	0	45	0	128974848	60	22722
2026-01-29 08:52:38.52	251.35	70.56	-53.2	-55.0	21.0	0.00e+00	0	45	0	137363456	60	22120
2026-01-29 08:52:42.54	257.23	70.46	-52.4	-54.5	21.1	0.00e+00	0	45	0	144703488	60	20713
2026-01-29 08:52:46.57	262.99	70.16	-52.5	-55.2	20.0	0.00e+00	0	45	0	152043520	60	22506
2026-01-29 08:52:50.59	268.51	69.69	-53.4	-56.9	18.0	0.00e+00	0	46	0	159383552	60	27521
2026-01-29 08:52:54.61	273.72	69.06	-54.2	-57.9	17.4	0.00e+00	0	46	0	166723584	60	30739
2026-01-29 08:52:58.63	278.57	68.29	-55.1	-58.1	17.7	0.00e+00	0	46	0	175112192	60	31450
2026-01-29 08:53:02.65	283.02	67.39	-54.0	-56.0	20.2	0.00e+00	0	45	0	182452224	60	24765
2026-01-29 08:53:06.68	287.10	66.38	-55.2	-57.7	18.7	0.00e+00	0	45	0	189792256	60	29971
2026-01-29 08:53:10.70	290.79	65.30	-54.4	-57.2	18.9	0.00e+00	0	45	0	197132288	60	28494
2026-01-29 08:53:14.73	294.14	64.14	-53.6	-56.9	18.8	0.00e+00	0	46	0	204472320	60	27527
2026-01-29 08:53:18.75	297.16	62.94	-52.5	-54.4	21.6	0.00e+00	0	46	0	212860928	60	20577
2026-01-29 08:53:22.77	299.88	61.70	-50.6	-51.9	23.8	0.00e+00	0	46	0	220200960	60	15450
2026-01-29 08:53:26.80	302.35	60.43	-50.9	-52.2	23.6	0.00e+00	0	45	0	227540992	60	16015
2026-01-29 08:53:30.82	304.58	59.15	-52.4	-53.7	22.4	0.00e+00	0	45	0	234881024	60	18958
2026-01-29 08:53:34.85	306.61	57.85	-53.0	-54.4	21.6	0.00e+00	0	45	0	242221056	60	20652
2026-01-29 08:53:38.87	308.44	56.56	-52.6	-54.5	21.5	0.00e+00	0	45	0	250609664	60	20818
2026-01-29 08:53:42.88	310.12	55.28	-54.1	-56.2	19.9	0.00e+00	0	46	0	257949696	60	25246
2026-01-29 08:53:46.90	311.65	54.00	-50.6	-51.8	23.8	0.00e+00	0	46	0	265289728	60	15194
2026-01-29 08:53:50.91	313.05	52.74	-51.5	-52.7	23.1	0.00e+00	0	46	0	272629760	60	16811
2026-01-29 08:53:54.93	314.34	51.49	-52.3	-53.4	22.5	0.00e+00	0	45	0	279969792	60	18412
2026-01-29 08:53:58.94	315.52	50.26	-52.5	-54.1	21.6	0.00e+00	0	45	0	287309824	60	19790
2026-01-29 08:54:02.95	316.62	49.06	-55.9	-58.6	17.2	0.00e+00	0	45	0	295698432	60	33297
2026-01-29 08:54:06.98	317.64	47.87	-55.0	-57.7	18.1	0.00e+00	0	45	0	303038464	60	30199
2026-01-29 08:54:11.00	318.58	46.70	-56.8	-60.3	16.0	0.00e+00	0	46	0	310378496	60	40608
2026-01-29 08:54:15.02	319.46	45.57	-54.8	-56.8	19.5	0.00e+00	0	45	0	317718528	60	27127
2026-01-29 08:54:19.05	320.28	44.45	-53.6	-55.2	21.0	0.00e+00	0	45	0	325058560	60	22547
2026-01-29 08:54:23.07	321.05	43.36	-54.9	-57.3	18.6	0.00e+00	0	45	0	333447168	60	28783
2026-01-29 08:54:27.10	321.77	42.30	-52.1	-53.3	22.7	0.00e+00	0	45	0	340787200	60	18216
2026-01-29 08:54:31.12	322.44	41.26	-55.2	-57.1	19.1	0.00e+00	0	45	0	348127232	60	27998
2026-01-29 08:54:35.16	323.07	40.24	-53.1	-54.5	21.6	0.00e+00	0	45	0	355467264	60	20886
2026-01-29 08:54:39.18	323.67	39.25	-52.5	-53.7	22.4	0.00e+00	0	45	0	362807296	60	18872
2026-01-29 08:54:43.21	324.23	38.29	-55.3	-57.6	18.2	0.00e+00	0	45	0	371195904	60	29866
2026-01-29 08:54:47.24	324.76	37.35	-52.7	-54.5	21.1	0.00e+00	0	46	0	378535936	60	20797
2026-01-29 08:54:51.27	325.27	36.43	-53.1	-54.6	21.5	0.00e+00	0	46	0	385875968	60	21055
2026-01-29 08:54:55.30	325.74	35.54	-53.7	-55.2	20.9	0.00e+00	0	45	0	393216000	60	22560
2026-01-29 08:54:59.33	326.20	34.66	-54.3	-56.0	20.0	0.00e+00	0	46	0	400556032	60	24691
2026-01-29 08:55:03.37	326.63	33.81	-54.2	-55.9	20.3	0.00e+00	0	45	0	408944640	60	24510
2026-01-29 08:55:07.40	327.04	32.98	-54.1	-55.9	20.2	0.00e+00	0	46	0	416284672	60	24539
2026-01-29 08:55:11.42	327.43	32.18	-54.9	-56.8	19.5	0.00e+00	0	46	0	423624704	60	27148
2026-01-29 08:55:15.44	327.80	31.39	-55.9	-58.1	17.9	0.00e+00	0	46	0	430964736	60	31634
2026-01-29 08:55:19.46	328.15	30.63	-55.8	-58.0	18.1	0.00e+00	0	46	0	439353344	60	31176
2026-01-29 08:55:23.48	328.49	29.88	-55.1	-57.0	19.1	0.00e+00	0	46	0	446693376	60	27648
2026-01-29 08:55:27.51	328.82	29.15	-53.8	-55.3	20.6	0.00e+00	0	46	0	454033408	60	22887
2026-01-29 08:55:31.54	329.13	28.43	-53.7	-55.3	20.5	0.00e+00	0	45	0	461373440	60	22873
2026-01-29 08:55:35.58	329.43	27.74	-53.9	-55.9	19.9	0.00e+00	0	46	0	468713472	60	24379
2026-01-29 08:55:39.60	329.72	27.06	-54.0	-55.7	20.1	0.00e+00	0	46	0	476053504	60	23979
2026-01-29 08:55:43.61	330.00	26.40	-53.1	-54.5	21.3	0.00e+00	0	46	0	484442112	60	20756
2026-01-29 08:55:47.65	330.26	25.75	-52.5	-53.8	21.8	0.00e+00	0	45	0	491782144	60	19145
2026-01-29 08:55:51.66	330.52	25.12	-52.2	-53.5	22.0	0.00e+00	0	46	0	499122176	60	18497
2026-01-29 08:55:55.69	330.77	24.50	-52.4	-53.7	21.8	0.00e+00	0	45	0	506462208	60	18954
2026-01-29 08:55:59.71	331.00	23.90	-52.8	-54.1	21.4	0.00e+00	0	45	0	513802240	60	19974
2026-01-29 08:56:03.74	331.24	23.30	-52.5	-53.8	21.5	0.00e+00	0	46	0	522190848	60	19267
2026-01-29 08:56:07.77	331.46	22.72	-52.2	-53.6	21.8	0.00e+00	0	46	0	529530880	60	18669
2026-01-29 08:56:11.79	331.67	22.16	-52.2	-53.6	21.8	0.00e+00	0	46	0	536870912	60	18769
2026-01-29 08:56:15.82	331.88	21.61	-52.1	-53.6	21.9	0.00e+00	0	46	0	544210944	60	18661
2026-01-29 08:56:19.84	332.08	21.06	-52.2	-53.5	22.0	0.00e+00	0	46	0	551550976	60	18623
2026-01-29 08:56:23.86	332.28	20.53	-52.3	-53.6	21.8	0.00e+00	0	46	0	559939584	60	18800
2026-01-29 08:56:27.88	332.47	20.01	-52.5	-53.8	21.5	0.00e+00	0	46	0	567279616	60	19264
2026-01-29 08:56:31.89	332.65	19.51	-52.6	-54.0	21.5	0.00e+00	0	46	0	574619648	60	19542
2026-01-29 08:56:35.92	332.83	19.00	-52.6	-54.3	21.1	0.00e+00	0	46	0	581959680	60	20280
2026-01-29 08:56:39.94	333.00	18.51	-52.6	-54.4	20.9	0.00e+00	0	46	0	589299712	60	20574
2026-01-29 08:56:43.97	333.17	18.03	-52.9	-54.7	20.8	0.00e+00	0	46	0	597688320	60	21205
2026-01-29 08:56:47.99	333.33	17.56	-53.6	-55.4	20.0	0.00e+00	0	46	0	605028352	60	23178
2026-01-29 08:56:52.02	333.49	17.10	-54.3	-56.3	19.0	0.00e+00	0	46	0	612368384	60	25730
2026-01-29 08:56:56.04	333.64	16.64	-55.0	-57.3	18.2	0.00e+00	0	46	0	619708416	60	28608
2026-01-29 08:57:00.06	333.79	16.20	-55.5	-58.4	16.5	0.00e+00	0	46	0	627048448	60	32433
2026-01-29 08:57:04.09	333.94	15.76	-55.5	-58.9	15.8	0.00e+00	0	46	0	635437056	60	34717
2026-01-29 08:57:08.12	334.09	15.33	-55.9	-59.6	15.0	0.00e+00	0	46	0	642777088	60	37414
2026-01-29 08:57:12.13	334.22	14.91	-55.0	-58.3	16.3	0.00e+00	0	46	0	650117120	60	32211
2026-01-29 08:57:16.16	334.36	14.49	-55.4	-58.7	15.7	0.00e+00	0	46	0	657457152	60	33818
2026-01-29 08:57:20.19	334.49	14.08	-55.7	-59.4	14.8	0.00e+00	0	46	0	664797184	60	36442
2026-01-29 08:57:24.20	334.62	13.68	-56.0	-60.1	13.7	6.10e-06	0	46	0	672137216	60	39499
2026-01-29 08:57:28.23	334.75	13.28	-56.0	-61.0	12.4	9.99e-05	0	46	0	680525824	60	43714
2026-01-29 08:57:32.25	334.87	12.89	-55.9	-61.9	11.1	1.16e-03	0	46	0	687865856	60	48625
2026-01-29 08:57:36.28	335.00	12.51	-56.1	-62.8	10.0	6.24e-03	0	46	0	695205888	60	54295
2026-01-29 08:57:40.32	335.12	12.13	-56.3	-63.8	8.8	2.51e-02	0	46	0	702545920	60	60602
2026-01-29 08:57:44.34	335.23	11.76	-55.3	-64.6	7.4	9.52e-02	0	46	0	709885952	60	66615
2026-01-29 08:57:48.36	335.34	11.39	-54.5	-65.5	6.1	2.44e-01	0	46	0	718274560	60	73781
2026-01-29 08:57:52.38	335.46	11.03	-52.9	-71.1	3.6	1.49e+00	0	46	104	722468864	60	141357
2026-01-29 08:57:56.40	335.57	10.67	-53.1	-70.4	3.6	1.49e+00	0	46	104	722468864	60	130352
2026-01-29 08:58:00.42	335.67	10.32	-52.1	-71.8	3.6	1.51e+00	0	46	104	722468864	60	153136
2026-01-29 08:58:04.45	335.78	9.97	-52.4	-71.2	3.6	1.51e+00	0	46	104	722468864	60	142831
2026-01-29 08:58:08.45	335.88	9.63	-54.8	-73.9	3.6	1.51e+00	0	46	104	722468864	60	195083
2026-01-29 08:58:12.47	335.98	9.30	-53.2	-72.6	3.5	1.51e+00	0	46	104	722468864	60	167978
2026-01-29 08:58:16.49	336.08	8.97	-55.8	-74.3	3.6	1.51e+00	0	46	104	722468864	60	203385
2026-01-29 08:58:20.51	336.18	8.64	-52.4	-72.5	3.6	1.51e+00	0	46	104	722468864	60	165810
2026-01-29 08:58:24.53	336.27	8.31	-53.7	-72.6	3.6	1.51e+00	0	46	104	722468864	60	166853
2026-01-29 08:58:28.56	336.37	7.99	-53.9	-72.8	3.6	1.51e+00	0	46	104	722468864	60	171902
2026-01-29 08:58:32.57	336.46	7.68	-56.3	-73.9	3.6	1.51e+00	0	46	104	722468864	60	195164
2026-01-29 08:58:36.61	336.55	7.36	-54.0	-72.9	3.6	1.51e+00	0	46	104	722468864	60	172404
2026-01-29 08:58:40.62	336.64	7.06	-55.3	-73.5	3.6	1.51e+00	0	46	104	722468864	60	186304
2026-01-29 08:58:44.65	336.72	6.75	-53.9	-72.6	3.6	1.51e+00	0	46	104	722468864	60	166954
2026-01-29 08:58:48.67	336.81	6.45	-55.8	-73.8	3.6	1.51e+00	0	46	104	722468864	60	191319
2026-01-29 08:58:52.69	336.90	6.15	-55.1	-73.3	3.6	1.51e+00	0	46	104	722468864	60	180769
2026-01-29 08:58:56.72	336.98	5.86	-58.7	-75.3	3.6	1.51e+00	0	46	104	722468864	60	228618
2026-01-29 08:59:00.75	337.06	5.57	-59.8	-76.7	3.6	1.51e+00	0	46	104	722468864	60	268417
2026-01-29 08:59:04.79	337.14	5.28	-60.7	-77.6	3.6	1.51e+00	0	46	104	722468864	60	296049
2026-01-29 08:59:08.82	337.22	4.99	-60.8	-77.6	3.6	1.51e+00	0	46	104	722468864	60	297547
2026-01-29 08:59:12.86	337.30	4.71	-61.1	-77.9	3.6	1.51e+00	0	46	104	722468864	60	308608
2026-01-29 08:59:16.88	337.38	4.43	-58.7	-77.4	3.6	1.51e+00	0	46	104	722468864	60	291642
2026-01-29 08:59:20.91	337.45	4.15	-59.4	-77.7	3.6	1.51e+00	0	46	104	722468864	60	299138
2026-01-29 08:59:24.94	337.53	3.88	-59.8	-77.8	3.6	1.51e+00	0	46	104	722468864	60	303388
2026-01-29 08:59:28.97	337.60	3.61	-59.8	-77.8	3.6	1.51e+00	0	46	104	722468864	60	303575
2026-01-29 08:59:33.00	337.68	3.34	-59.7	-77.8	3.6	1.51e+00	0	46	104	722468864	60	304830
2026-01-29 08:59:37.03	337.75	3.07	-59.6	-77.6	3.6	1.51e+00	0	46	104	722468864	60	296010
2026-01-29 08:59:41.05	337.82	2.81	-59.6	-77.3	3.6	1.51e+00	0	46	104	722468864	60	288617
2026-01-29 08:59:45.09	337.89	2.55	-59.5	-77.4	3.6	1.51e+00	0	46	104	722468864	60	289666
2026-01-29 08:59:49.12	337.96	2.29	-59.5	-77.4	3.6	1.51e+00	0	46	104	722468864	60	289805
2026-01-29 08:59:53.14	338.03	2.03	-59.5	-77.5	3.6	1.51e+00	0	46	104	722468864	60	292338
2026-01-29 08:59:57.17	338.10	1.78	-59.5	-77.5	3.6	1.51e+00	0	46	104	722468864	60	293152
2026-01-29 09:00:01.20	338.16	1.53	-59.5	-77.5	3.6	1.51e+00	0	46	104	722468864	60	292179
2026-01-29 09:00:05.23	338.23	1.28	-59.5	-77.5	3.6	1.51e+00	0	46	104	722468864	60	292655
2026-01-29 09:00:09.27	338.30	1.03	-59.5	-77.3	3.6	1.51e+00	0	46	104	722468864	60	285926
2026-01-29 09:00:13.29	338.36	0.79	-59.5	-77.5	3.6	1.51e+00	0	46	104	722468864	60	293117
2026-01-29 09:00:17.33	338.42	0.54	-59.5	-77.4	3.6	1.51e+00	0	46	104	722468864	60	290854
2026-01-29 09:00:21.35	338.49	0.30	-59.5	-77.5	3.6	1.51e+00	0	46	104	722468864	60	292300
2026-01-29 09:00:25.38	338.55	0.06	-59.5	-77.5	3.6	1.51e+00	0	46	104	722468864	60	292161

#Closed at: 2026-01-29 09:00:28
#Recorded file [722 MB]: D:/Data/35015_260129_115757.dat