passes_logs/2026/01/29/R3.2S-Naryan-Mar/R3.2S-Naryan-Mar__20260129_042709_FENGYUN_3E_rec.log

#Pass ID: 20260129_042709_FENGYUN 3E
#Satellite: FENGYUN 3E
#Configuration: FENGYUN 3E
#almurnet v.1.7.20240730
#Start time: 2026-01-29 04:27:11

#Version: 2.2.20231116
#Station: R3.2S-Naryan-Mar
#Location: 53.008057 lon 67.646978 lat
#TLE: 1 49008U 21062A   26027.83084825  .00000170  00000+0  10081-3 0  9997
#TLE: 2 49008  98.7501  32.8098 0002509 114.2687 245.8752 14.19888158236667

#Time	Az	El	Level	Level2	SNR	BER	BlckErr	Temp	State	Recorded	gain1	gain2
2026-01-29 04:27:11.60	27.10	0.12	-60.1	-77.9	3.5	1.51e+00	0	43	0	0	60	307579
2026-01-29 04:27:15.62	27.03	0.36	-59.7	-74.5	3.6	8.45e-01	0	45	104	0	60	208124
2026-01-29 04:27:19.65	26.95	0.60	-61.2	-75.0	3.6	8.44e-01	0	45	104	0	60	219084
2026-01-29 04:27:23.68	26.87	0.85	-59.0	-74.2	3.5	8.46e-01	0	45	104	0	60	201292
2026-01-29 04:27:27.72	26.80	1.09	-58.2	-74.1	3.6	8.46e-01	0	45	104	0	60	198064
2026-01-29 04:27:31.75	26.72	1.34	-59.1	-72.2	3.6	8.46e-01	0	45	104	0	60	159231
2026-01-29 04:27:35.78	26.63	1.59	-59.0	-72.0	3.6	8.46e-01	0	45	104	0	60	155946
2026-01-29 04:27:39.80	26.55	1.84	-59.0	-72.0	3.6	8.46e-01	0	45	104	0	60	155718
2026-01-29 04:27:43.83	26.47	2.09	-58.9	-72.0	3.6	8.45e-01	0	45	104	0	60	156062
2026-01-29 04:27:47.86	26.38	2.35	-58.9	-71.9	3.6	8.46e-01	0	45	104	0	60	154390
2026-01-29 04:27:51.89	26.29	2.61	-58.8	-71.8	3.6	8.46e-01	0	45	104	0	60	153279
2026-01-29 04:27:55.91	26.20	2.87	-58.7	-71.8	3.6	8.46e-01	0	45	104	0	60	151561
2026-01-29 04:27:59.95	26.11	3.13	-58.7	-71.9	3.6	8.44e-01	0	46	104	0	60	153380
2026-01-29 04:28:03.98	26.01	3.40	-58.6	-71.7	3.5	8.45e-01	0	46	104	0	60	150286
2026-01-29 04:28:08.00	25.92	3.66	-58.6	-71.8	3.6	8.46e-01	0	46	104	0	60	152312
2026-01-29 04:28:12.02	25.82	3.93	-58.5	-71.5	3.6	8.45e-01	0	46	104	0	60	147181
2026-01-29 04:28:16.05	25.72	4.21	-58.4	-71.4	3.6	8.46e-01	0	46	104	0	60	146178
2026-01-29 04:28:20.08	25.62	4.48	-58.5	-71.6	3.6	8.45e-01	0	46	104	0	60	148263
2026-01-29 04:28:24.11	25.51	4.76	-58.5	-71.6	3.6	8.46e-01	0	46	104	0	60	148706
2026-01-29 04:28:28.12	25.41	5.04	-58.5	-71.5	3.6	8.46e-01	0	46	104	0	60	147098
2026-01-29 04:28:32.16	25.29	5.33	-58.4	-71.4	3.6	8.44e-01	0	46	104	0	60	145986
2026-01-29 04:28:36.19	25.18	5.61	-58.4	-71.4	3.6	8.45e-01	0	46	104	0	60	145376
2026-01-29 04:28:40.22	25.07	5.90	-58.3	-71.3	3.6	8.46e-01	0	46	104	0	60	143796
2026-01-29 04:28:44.24	24.95	6.20	-53.5	-68.9	3.6	8.46e-01	0	46	104	0	60	108955
2026-01-29 04:28:48.27	24.83	6.49	-56.3	-68.0	3.6	8.45e-01	0	46	104	0	60	98326
2026-01-29 04:28:52.31	24.71	6.79	-58.2	-70.9	3.6	8.46e-01	0	46	104	0	60	137181
2026-01-29 04:28:56.33	24.58	7.10	-55.8	-67.3	3.6	8.45e-01	0	46	104	0	60	91273
2026-01-29 04:29:00.35	24.45	7.40	-54.9	-68.5	3.6	8.44e-01	0	46	104	0	60	103901
2026-01-29 04:29:04.38	24.32	7.71	-56.1	-67.8	3.6	8.46e-01	0	46	104	0	60	96181
2026-01-29 04:29:08.41	24.18	8.03	-58.2	-72.4	3.6	8.45e-01	0	46	104	0	60	163577
2026-01-29 04:29:12.44	24.04	8.34	-56.0	-67.6	3.6	8.44e-01	0	46	104	0	60	93808
2026-01-29 04:29:16.46	23.90	8.66	-58.5	-71.8	3.6	8.46e-01	0	46	104	0	60	152752
2026-01-29 04:29:20.49	23.76	8.99	-51.9	-68.1	3.6	8.45e-01	0	46	104	0	60	99873
2026-01-29 04:29:24.52	23.61	9.32	-55.4	-70.0	3.6	8.45e-01	0	46	104	0	60	123896
2026-01-29 04:29:28.54	23.45	9.65	-56.5	-69.9	3.6	8.45e-01	0	46	104	0	60	122767
2026-01-29 04:29:32.57	23.30	9.99	-56.4	-70.6	3.6	8.45e-01	0	46	104	0	60	133066
2026-01-29 04:29:36.59	23.14	10.33	-53.3	-69.3	3.6	8.44e-01	0	46	104	0	60	113663
2026-01-29 04:29:40.62	22.97	10.68	-53.9	-70.1	3.6	8.46e-01	0	46	104	0	60	125082
2026-01-29 04:29:44.64	22.80	11.03	-54.5	-70.5	3.6	8.45e-01	0	46	104	0	60	130612
2026-01-29 04:29:48.66	22.63	11.39	-52.5	-71.5	3.6	8.45e-01	0	46	104	0	60	147092
2026-01-29 04:29:52.68	22.45	11.75	-54.5	-69.9	3.6	8.45e-01	0	46	104	0	60	122257
2026-01-29 04:29:56.70	22.26	12.11	-49.1	-71.3	3.6	8.45e-01	0	46	104	0	60	144686
2026-01-29 04:30:00.73	22.07	12.48	-53.7	-70.4	3.6	8.46e-01	0	46	104	0	60	130454
2026-01-29 04:30:04.76	21.88	12.86	-48.0	-72.1	3.6	8.47e-01	0	46	104	0	60	157404
2026-01-29 04:30:08.78	21.68	13.24	-53.9	-71.2	3.6	8.45e-01	0	46	104	0	60	142303
2026-01-29 04:30:12.81	21.47	13.63	-49.8	-72.1	3.6	8.46e-01	0	46	104	0	60	157047
2026-01-29 04:30:16.84	21.26	14.03	-55.8	-70.5	3.6	8.45e-01	0	46	104	0	60	131066
2026-01-29 04:30:20.87	21.04	14.43	-52.6	-71.3	3.6	8.45e-01	0	46	104	0	60	143652
2026-01-29 04:30:24.88	20.82	14.83	-56.3	-69.9	3.6	8.44e-01	0	46	104	0	60	121922
2026-01-29 04:30:28.90	20.59	15.24	-56.4	-72.7	3.6	8.45e-01	0	46	104	0	60	168753
2026-01-29 04:30:32.93	20.35	15.66	-56.4	-70.5	3.6	8.45e-01	0	46	104	0	60	131237
2026-01-29 04:30:36.94	20.11	16.09	-57.0	-70.9	3.6	8.45e-01	0	46	104	0	60	136663
2026-01-29 04:30:40.96	19.86	16.52	-57.4	-70.9	3.6	8.45e-01	0	46	104	0	60	138200
2026-01-29 04:30:44.99	19.60	16.96	-52.9	-71.3	3.6	8.45e-01	0	46	104	0	60	143114
2026-01-29 04:30:49.01	19.33	17.41	-53.7	-71.1	3.6	8.45e-01	0	46	104	0	60	140832
2026-01-29 04:30:53.03	19.05	17.86	-58.5	-72.5	3.6	8.45e-01	0	46	104	0	60	164888
2026-01-29 04:30:57.03	18.77	18.32	-55.6	-71.3	3.6	8.45e-01	0	46	104	0	60	143637
2026-01-29 04:31:01.04	18.47	18.79	-56.2	-73.4	3.6	8.44e-01	0	47	104	0	60	182451
2026-01-29 04:31:05.06	18.17	19.27	-51.2	-72.1	3.5	8.45e-01	0	47	104	0	60	158043
2026-01-29 04:31:09.09	17.85	19.76	-57.6	-72.3	3.6	8.45e-01	0	47	104	0	60	162033
2026-01-29 04:31:13.12	17.52	20.26	-53.4	-71.4	3.6	8.45e-01	0	46	104	0	60	146260
2026-01-29 04:31:17.16	17.18	20.77	-56.4	-72.6	3.5	8.44e-01	0	46	104	0	60	167313
2026-01-29 04:31:21.18	16.83	21.28	-57.3	-70.7	3.6	8.44e-01	0	46	104	0	60	134617
2026-01-29 04:31:25.21	16.47	21.81	-59.5	-73.3	3.6	8.44e-01	0	47	104	0	60	181796
2026-01-29 04:31:29.23	16.10	22.34	-58.0	-71.3	3.6	8.44e-01	0	47	104	0	60	144602
2026-01-29 04:31:33.26	15.71	22.89	-58.2	-73.6	3.6	8.45e-01	0	47	104	0	60	188011
2026-01-29 04:31:37.28	15.30	23.44	-59.5	-72.1	3.6	8.44e-01	0	47	104	0	60	157909
2026-01-29 04:31:41.31	14.88	24.00	-59.4	-72.5	3.6	8.47e-01	0	46	104	0	60	165912
2026-01-29 04:31:45.34	14.45	24.58	-58.5	-71.2	3.6	8.45e-01	0	46	104	0	60	142403
2026-01-29 04:31:49.36	13.99	25.17	-58.4	-71.7	3.6	8.44e-01	0	46	104	0	60	149832
2026-01-29 04:31:53.39	13.52	25.77	-57.8	-70.9	3.6	8.46e-01	0	46	104	0	60	138183
2026-01-29 04:31:57.41	13.04	26.37	-58.9	-73.5	3.6	8.45e-01	0	47	104	0	60	185521
2026-01-29 04:32:01.44	12.53	27.00	-58.3	-71.5	3.6	8.46e-01	0	46	104	0	60	146577
2026-01-29 04:32:05.47	12.00	27.63	-58.4	-73.4	3.6	8.46e-01	0	47	104	0	60	183424
2026-01-29 04:32:09.49	11.44	28.27	-57.4	-72.3	3.6	8.45e-01	0	47	104	0	60	161175
2026-01-29 04:32:13.52	10.87	28.93	-55.2	-73.4	3.6	8.45e-01	0	47	104	0	60	184013
2026-01-29 04:32:17.55	10.27	29.60	-59.4	-72.5	3.6	8.45e-01	0	47	104	0	60	165606
2026-01-29 04:32:21.58	9.64	30.28	-59.0	-73.4	3.6	8.45e-01	0	47	104	0	60	183036
2026-01-29 04:32:25.61	8.98	30.98	-57.7	-72.2	3.6	8.45e-01	0	46	104	0	60	159136
2026-01-29 04:32:29.63	8.30	31.68	-60.1	-73.3	3.5	8.45e-01	0	47	104	0	60	181312
2026-01-29 04:32:33.66	7.59	32.40	-60.0	-73.2	3.6	8.46e-01	0	47	104	0	60	178735
2026-01-29 04:32:37.69	6.84	33.13	-59.2	-72.9	3.6	8.45e-01	0	47	104	0	60	173918
2026-01-29 04:32:41.72	6.05	33.88	-59.2	-71.8	3.6	8.45e-01	0	47	104	0	60	153082
2026-01-29 04:32:45.75	5.23	34.63	-59.6	-73.4	3.6	8.46e-01	0	47	104	0	60	182874
2026-01-29 04:32:49.78	4.36	35.40	-59.8	-72.6	3.6	8.45e-01	0	47	104	0	60	167910
2026-01-29 04:32:53.80	3.46	36.18	-60.0	-73.0	3.6	8.45e-01	0	47	104	0	60	174730
2026-01-29 04:32:57.83	2.51	36.96	-59.7	-71.9	3.6	8.45e-01	0	47	104	0	60	154331
2026-01-29 04:33:01.86	1.51	37.76	-60.1	-72.4	3.6	8.45e-01	0	47	104	0	60	163641
2026-01-29 04:33:05.88	0.46	38.57	-60.0	-72.2	3.6	8.45e-01	0	47	104	0	60	159000
2026-01-29 04:33:09.91	359.36	39.38	-59.3	-72.5	3.6	8.44e-01	0	47	104	0	60	165446
2026-01-29 04:33:13.94	358.20	40.20	-59.6	-72.0	3.6	8.46e-01	0	47	104	0	60	156564
2026-01-29 04:33:17.96	356.98	41.02	-59.4	-71.8	3.6	8.45e-01	0	47	104	0	60	152930
2026-01-29 04:33:21.99	355.69	41.85	-59.7	-71.6	3.6	8.45e-01	0	47	104	0	60	148933
2026-01-29 04:33:26.01	354.34	42.68	-59.7	-72.0	3.6	8.45e-01	0	47	104	0	60	156709
2026-01-29 04:33:30.04	352.91	43.51	-60.2	-72.6	3.6	8.45e-01	0	47	104	0	60	166573
2026-01-29 04:33:34.08	351.40	44.34	-60.3	-72.6	3.6	8.46e-01	0	47	104	0	60	167244
2026-01-29 04:33:38.11	349.81	45.16	-59.7	-72.3	3.6	8.45e-01	0	47	104	0	60	161891
2026-01-29 04:33:42.13	348.15	45.97	-61.1	-73.5	3.6	8.46e-01	0	47	104	0	60	185640
2026-01-29 04:33:46.13	346.40	46.76	-60.4	-73.5	3.6	8.45e-01	0	47	104	0	60	185039
2026-01-29 04:33:50.16	344.55	47.54	-59.8	-73.6	3.6	8.45e-01	0	47	104	0	60	186672
2026-01-29 04:33:54.19	342.61	48.31	-60.5	-73.6	3.6	8.45e-01	0	47	104	0	60	187897
2026-01-29 04:33:58.21	340.57	49.04	-60.6	-73.5	3.6	8.45e-01	0	47	104	0	60	184974
2026-01-29 04:34:02.21	338.44	49.74	-60.6	-74.2	3.6	8.44e-01	0	47	104	0	60	201012
2026-01-29 04:34:06.23	336.21	50.42	-60.1	-73.7	3.6	8.46e-01	0	47	104	0	60	189736
2026-01-29 04:34:10.26	333.87	51.05	-60.2	-73.8	3.6	8.46e-01	0	47	104	0	60	191952
2026-01-29 04:34:14.27	331.44	51.64	-60.2	-73.6	3.6	8.47e-01	0	47	104	0	60	188206
2026-01-29 04:34:18.29	328.91	52.18	-60.4	-73.7	3.6	8.46e-01	0	47	104	0	60	189001
2026-01-29 04:34:22.32	326.29	52.66	-60.2	-73.6	3.6	8.46e-01	0	47	104	0	60	188481
2026-01-29 04:34:26.34	323.59	53.09	-59.2	-73.6	3.6	8.45e-01	0	47	104	0	60	186944
2026-01-29 04:34:30.37	320.81	53.45	-60.1	-73.5	3.6	8.44e-01	0	47	104	0	60	186438
2026-01-29 04:34:34.40	317.96	53.75	-60.1	-73.5	3.6	8.45e-01	0	47	104	0	60	185836
2026-01-29 04:34:38.43	315.07	53.97	-59.0	-73.0	3.6	8.45e-01	0	47	104	0	60	175181
2026-01-29 04:34:42.46	312.13	54.12	-59.0	-72.7	3.6	8.46e-01	0	47	104	0	60	168817
2026-01-29 04:34:46.49	309.18	54.19	-58.0	-72.6	3.6	8.45e-01	0	47	104	0	60	166341
2026-01-29 04:34:50.52	306.21	54.18	-59.1	-72.2	3.6	8.45e-01	0	47	104	0	60	160273
2026-01-29 04:34:54.55	303.26	54.10	-58.5	-72.6	3.6	8.45e-01	0	47	104	0	60	166693
2026-01-29 04:34:58.58	300.33	53.94	-58.2	-72.2	3.6	8.46e-01	0	47	104	0	60	159567
2026-01-29 04:35:02.61	297.43	53.70	-57.7	-72.3	3.6	8.45e-01	0	47	104	0	60	161127
2026-01-29 04:35:06.63	294.60	53.40	-56.6	-72.5	3.6	8.46e-01	0	47	104	0	60	164969
2026-01-29 04:35:10.66	291.83	53.03	-57.0	-72.2	3.6	8.45e-01	0	47	104	0	60	159393
2026-01-29 04:35:14.69	289.13	52.59	-59.3	-72.3	3.6	8.45e-01	0	47	104	0	60	162383
2026-01-29 04:35:18.72	286.52	52.10	-59.1	-72.1	3.6	8.45e-01	0	47	104	0	60	157570
2026-01-29 04:35:22.74	284.01	51.55	-57.9	-72.9	3.6	8.45e-01	0	47	104	0	60	173148
2026-01-29 04:35:26.75	281.59	50.95	-57.7	-71.1	3.6	8.44e-01	0	47	104	0	60	141063
2026-01-29 04:35:30.78	279.26	50.31	-56.3	-73.0	3.6	8.44e-01	0	47	104	0	60	174298
2026-01-29 04:35:34.81	277.03	49.63	-56.3	-70.9	3.6	8.43e-01	0	47	104	0	60	137474
2026-01-29 04:35:38.84	274.91	48.91	-56.6	-70.0	3.9	8.40e-01	0	47	104	0	60	123724
2026-01-29 04:35:42.86	272.88	48.17	-57.4	-68.6	3.7	8.38e-01	0	47	0	0	60	105875
2026-01-29 04:35:46.89	270.95	47.40	-58.0	-69.0	3.9	8.38e-01	0	47	104	0	60	109997
2026-01-29 04:35:50.91	269.12	46.62	-58.2	-68.0	3.8	8.33e-01	0	47	0	0	60	98510
2026-01-29 04:35:54.93	267.37	45.82	-58.5	-70.0	3.8	8.40e-01	0	47	104	0	60	123715
2026-01-29 04:35:58.95	265.72	45.00	-58.8	-67.8	3.9	8.32e-01	0	47	0	0	60	96138
2026-01-29 04:36:02.98	264.14	44.18	-59.0	-67.9	3.9	8.32e-01	0	47	0	0	60	97044
2026-01-29 04:36:07.01	262.65	43.35	-58.9	-67.5	3.9	8.29e-01	0	47	0	0	60	92875
2026-01-29 04:36:11.04	261.23	42.52	-58.9	-69.1	3.7	8.37e-01	0	47	104	0	60	112174
2026-01-29 04:36:15.06	259.88	41.69	-58.9	-67.2	4.0	8.27e-01	0	47	0	0	60	90073
2026-01-29 04:36:19.08	258.61	40.86	-58.9	-67.2	4.0	8.27e-01	0	47	0	0	60	89466
2026-01-29 04:36:23.11	257.39	40.03	-58.9	-67.0	4.0	8.25e-01	0	47	0	0	60	88094
2026-01-29 04:36:27.13	256.24	39.21	-59.0	-67.3	3.9	8.30e-01	0	47	0	0	60	91009
2026-01-29 04:36:31.15	255.15	38.40	-59.1	-67.2	4.0	8.27e-01	0	47	0	0	60	89896
2026-01-29 04:36:35.18	254.10	37.59	-59.0	-67.3	3.9	8.28e-01	0	47	0	0	60	91057
2026-01-29 04:36:39.21	253.11	36.79	-59.1	-67.5	3.8	8.30e-01	0	47	0	0	60	92565
2026-01-29 04:36:43.24	252.16	36.00	-59.0	-67.2	3.9	8.30e-01	0	47	0	0	60	89928
2026-01-29 04:36:47.26	251.27	35.23	-58.9	-66.9	4.0	7.50e-01	0	47	0	0	60	87036
2026-01-29 04:36:51.29	250.41	34.46	-59.0	-67.0	4.0	8.27e-01	0	47	0	0	60	87310
2026-01-29 04:36:55.32	249.59	33.70	-58.9	-66.9	4.1	8.26e-01	0	47	0	0	60	86693
2026-01-29 04:36:59.36	248.81	32.96	-58.9	-66.9	4.0	8.28e-01	0	47	0	0	60	86667
2026-01-29 04:37:03.38	248.06	32.23	-58.8	-67.0	3.9	8.28e-01	0	47	0	0	60	87521
2026-01-29 04:37:07.40	247.35	31.51	-58.8	-67.1	3.9	8.30e-01	0	47	0	0	60	88222
2026-01-29 04:37:11.43	246.67	30.80	-58.8	-67.1	3.9	8.30e-01	0	47	0	0	60	88296
2026-01-29 04:37:15.45	246.02	30.11	-58.7	-67.0	3.9	8.30e-01	0	47	0	0	60	87760
2026-01-29 04:37:19.47	245.39	29.43	-58.7	-67.2	3.9	8.33e-01	0	47	0	0	60	89254
2026-01-29 04:37:23.50	244.80	28.76	-58.7	-68.7	3.9	8.38e-01	0	47	104	0	60	106811
2026-01-29 04:37:27.52	244.22	28.10	-58.8	-68.5	4.1	8.36e-01	0	47	104	0	60	103908
2026-01-29 04:37:31.54	243.67	27.46	-58.8	-68.6	4.0	8.37e-01	0	47	104	0	60	106063
2026-01-29 04:37:35.56	243.15	26.83	-58.7	-68.8	3.7	8.35e-01	0	47	104	0	60	107807
2026-01-29 04:37:39.58	242.64	26.21	-58.7	-68.7	3.9	8.38e-01	0	47	104	0	60	106630
2026-01-29 04:37:43.60	242.15	25.60	-58.7	-69.1	3.8	8.40e-01	0	47	104	0	60	112145
2026-01-29 04:37:47.62	241.68	25.00	-58.6	-69.4	3.9	8.42e-01	0	47	104	0	60	115795
2026-01-29 04:37:51.65	241.23	24.42	-58.7	-69.4	3.8	8.43e-01	0	47	104	0	60	115976
2026-01-29 04:37:55.67	240.80	23.84	-58.7	-69.7	3.6	8.45e-01	0	47	104	0	60	119638
2026-01-29 04:37:59.70	240.38	23.28	-58.5	-69.0	3.7	8.39e-01	0	47	104	0	60	110376
2026-01-29 04:38:03.73	239.97	22.72	-58.5	-68.9	3.9	8.44e-01	0	47	104	0	60	109136
2026-01-29 04:38:07.74	239.59	22.18	-58.3	-68.9	3.8	8.43e-01	0	47	104	0	60	108729
2026-01-29 04:38:11.75	239.21	21.65	-58.3	-69.0	3.8	8.42e-01	0	47	104	0	60	109980
2026-01-29 04:38:15.77	238.85	21.12	-58.4	-69.1	3.6	8.42e-01	0	47	104	0	60	111979
2026-01-29 04:38:19.80	238.50	20.61	-58.2	-68.8	3.8	8.43e-01	0	47	104	0	60	108284
2026-01-29 04:38:23.83	238.16	20.10	-58.1	-69.0	3.8	8.43e-01	0	47	104	0	60	110133
2026-01-29 04:38:27.85	237.83	19.60	-58.2	-69.1	3.6	8.43e-01	0	47	104	0	60	111433
2026-01-29 04:38:31.88	237.52	19.11	-58.1	-69.2	3.7	8.44e-01	0	47	104	0	60	112622
2026-01-29 04:38:35.91	237.21	18.63	-58.1	-69.3	3.7	8.44e-01	0	47	104	0	60	114058
2026-01-29 04:38:39.93	236.91	18.16	-57.9	-69.2	3.7	8.43e-01	0	47	104	0	60	112557
2026-01-29 04:38:43.95	236.63	17.70	-58.2	-68.4	3.6	8.44e-01	0	47	104	0	60	102953
2026-01-29 04:38:47.98	236.35	17.25	-58.0	-69.0	3.7	8.44e-01	0	47	104	0	60	110809
2026-01-29 04:38:52.01	236.08	16.80	-57.8	-69.1	3.6	8.44e-01	0	47	104	0	60	111838
2026-01-29 04:38:56.04	235.82	16.36	-57.9	-69.1	3.7	8.44e-01	0	47	104	0	60	111179
2026-01-29 04:39:00.06	235.57	15.92	-57.8	-69.0	3.6	8.45e-01	0	47	104	0	60	109853
2026-01-29 04:39:04.09	235.32	15.50	-57.8	-68.9	3.6	8.44e-01	0	47	104	0	60	109741
2026-01-29 04:39:08.12	235.08	15.08	-57.8	-69.1	3.6	8.46e-01	0	47	104	0	60	111519
2026-01-29 04:39:12.15	234.85	14.67	-57.6	-69.1	3.6	8.45e-01	0	47	104	0	60	111077
2026-01-29 04:39:16.18	234.62	14.26	-57.9	-70.8	3.6	8.45e-01	0	47	104	0	60	136202
2026-01-29 04:39:20.21	234.40	13.86	-57.6	-67.3	3.9	8.36e-01	0	47	104	0	60	91313
2026-01-29 04:39:24.24	234.19	13.46	-57.3	-64.7	4.4	8.02e-01	0	47	0	0	60	67305
2026-01-29 04:39:28.25	233.99	13.08	-57.2	-64.6	4.4	8.00e-01	0	47	0	0	60	66571
2026-01-29 04:39:32.27	233.78	12.70	-57.1	-64.6	4.4	7.99e-01	0	47	0	0	60	66199
2026-01-29 04:39:36.30	233.59	12.32	-57.1	-64.6	4.3	8.02e-01	0	47	0	0	60	66629
2026-01-29 04:39:40.33	233.40	11.95	-56.8	-63.1	5.6	6.09e-01	0	47	0	0	60	55747
2026-01-29 04:39:44.36	233.21	11.58	-56.5	-62.2	5.8	3.26e-01	0	47	0	26214400	60	50418
2026-01-29 04:39:48.39	233.03	11.22	-56.6	-62.5	6.7	2.40e-01	0	47	0	54525952	60	52040
2026-01-29 04:39:52.42	232.86	10.86	-56.3	-61.6	7.1	1.10e-01	0	47	0	84934656	60	47199
2026-01-29 04:39:56.45	232.68	10.51	-55.8	-60.3	8.5	2.59e-02	0	47	0	113246208	60	40374
2026-01-29 04:40:00.47	232.52	10.16	-54.5	-57.7	11.7	1.26e-03	0	47	0	142606336	60	29935
2026-01-29 04:40:04.50	232.35	9.82	-53.2	-55.6	15.1	1.10e-06	0	47	0	170917888	60	23693
2026-01-29 04:40:08.52	232.20	9.48	-53.5	-56.0	14.8	2.20e-06	0	47	0	200278016	60	24823
2026-01-29 04:40:12.55	232.04	9.15	-52.7	-54.9	15.0	1.10e-06	0	47	0	229638144	60	21774
2026-01-29 04:40:16.58	231.89	8.82	-53.0	-55.3	14.1	1.10e-06	0	47	0	257949696	60	22731
2026-01-29 04:40:20.59	231.74	8.50	-52.3	-54.3	15.1	0.00e+00	0	47	0	287309824	60	20367
2026-01-29 04:40:24.62	231.60	8.18	-51.2	-52.8	16.3	0.00e+00	0	47	0	316669952	60	17172
2026-01-29 04:40:28.64	231.46	7.86	-51.1	-52.7	16.7	0.00e+00	0	47	0	346030080	60	16949
2026-01-29 04:40:32.67	231.32	7.55	-50.1	-51.5	17.5	0.00e+00	0	47	0	374341632	60	14724
2026-01-29 04:40:36.70	231.18	7.23	-50.0	-51.4	17.1	0.00e+00	0	47	0	403701760	60	14539
2026-01-29 04:40:40.73	231.05	6.93	-49.7	-51.0	17.8	0.00e+00	0	47	0	433061888	60	13941
2026-01-29 04:40:44.76	230.93	6.63	-49.6	-51.0	17.5	0.00e+00	0	47	0	462422016	60	13884
2026-01-29 04:40:48.79	230.80	6.33	-49.9	-51.3	17.7	0.00e+00	0	47	0	490733568	60	14437
2026-01-29 04:40:52.81	230.68	6.03	-48.9	-50.2	18.5	0.00e+00	0	47	0	520093696	60	12660
2026-01-29 04:40:56.83	230.56	5.74	-59.2	-72.5	3.6	8.46e-01	0	47	104	527433728	60	165099
2026-01-29 04:41:00.85	230.44	5.45	-60.2	-73.6	3.6	8.46e-01	0	47	104	527433728	60	188146
2026-01-29 04:41:04.89	230.33	5.16	-61.3	-74.3	3.6	8.44e-01	0	47	104	527433728	60	203843
2026-01-29 04:41:08.91	230.21	4.88	-61.1	-74.6	3.6	8.46e-01	0	47	104	527433728	60	209653
2026-01-29 04:41:12.94	230.10	4.60	-60.4	-74.7	3.6	8.43e-01	0	47	104	527433728	60	213227
2026-01-29 04:41:16.97	230.00	4.32	-58.5	-74.4	3.6	8.45e-01	0	47	104	527433728	60	206671
2026-01-29 04:41:21.00	229.89	4.04	-60.1	-74.6	3.6	8.45e-01	0	47	104	527433728	60	210333
2026-01-29 04:41:25.02	229.79	3.77	-60.1	-74.5	3.6	8.45e-01	0	47	104	527433728	60	207189
2026-01-29 04:41:29.04	229.69	3.50	-60.0	-74.2	3.6	8.46e-01	0	47	104	527433728	60	202005
2026-01-29 04:41:33.06	229.59	3.23	-59.9	-74.2	3.6	8.45e-01	0	47	104	527433728	60	200569
2026-01-29 04:41:37.09	229.49	2.97	-59.8	-74.1	3.6	8.44e-01	0	47	104	527433728	60	198873
2026-01-29 04:41:41.12	229.40	2.70	-59.7	-74.2	3.6	8.45e-01	0	47	104	527433728	60	200982
2026-01-29 04:41:45.13	229.30	2.44	-59.7	-74.1	3.6	8.45e-01	0	47	104	527433728	60	198086
2026-01-29 04:41:49.17	229.21	2.19	-59.6	-74.2	3.6	8.45e-01	0	47	104	527433728	60	200112
2026-01-29 04:41:53.20	229.12	1.93	-59.6	-74.2	3.6	8.46e-01	0	47	104	527433728	60	200921
2026-01-29 04:41:57.22	229.04	1.68	-59.5	-74.2	3.6	8.46e-01	0	47	104	527433728	60	200388
2026-01-29 04:42:01.25	228.95	1.42	-59.7	-74.1	3.6	8.45e-01	0	47	104	527433728	60	199012
2026-01-29 04:42:05.27	228.87	1.18	-59.7	-74.1	3.6	8.46e-01	0	47	104	527433728	60	198558
2026-01-29 04:42:09.31	228.78	0.93	-59.7	-74.1	3.6	8.45e-01	0	47	104	527433728	60	198602
2026-01-29 04:42:13.33	228.70	0.68	-59.6	-74.1	3.6	8.46e-01	0	47	104	527433728	60	198997
2026-01-29 04:42:17.37	228.62	0.44	-59.7	-74.2	3.6	8.44e-01	0	47	104	527433728	60	200741
2026-01-29 04:42:21.40	228.54	0.20	-59.6	-74.2	3.6	8.45e-01	0	47	104	527433728	60	200607
2026-01-29 04:42:25.43	228.47	-0.04	-59.6	-74.1	3.6	8.46e-01	0	47	104	527433728	60	199206

#Closed at: 2026-01-29 04:42:25
#Recorded file [527 MB]: D:/Data/35015_260129_074147.dat