passes_logs/2026/01/29/R3.2S-Naryan-Mar/R3.2S-Naryan-Mar__20260129_110118_FENGYUN_3D_rec.log

#Pass ID: 20260129_110118_FENGYUN 3D
#Satellite: FENGYUN 3D
#Configuration: FENGYUN 3D
#almurnet v.1.7.20240730
#Start time: 2026-01-29 11:01:20

#Version: 2.2.20231116
#Station: R3.2S-Naryan-Mar
#Location: 53.008057 lon 67.646978 lat
#TLE: 1 43010U 17072A   26027.97130493  .00000326  00000+0  17586-3 0  9998
#TLE: 2 43010  98.9960 359.9900 0002514  87.8428 272.3036 14.19701925425097

#Time	Az	El	Level	Level2	SNR	BER	BlckErr	Temp	State	Recorded	gain1	gain2
2026-01-29 11:01:20.12	168.77	0.09	-60.3	-77.6	3.5	1.51e+00	0	43	0	0	60	297642
2026-01-29 11:01:24.13	168.85	0.33	-61.6	-75.0	3.6	8.45e-01	0	44	104	0	60	221096
2026-01-29 11:01:28.16	168.93	0.57	-61.9	-75.1	3.6	8.45e-01	0	44	104	0	60	221738
2026-01-29 11:01:32.20	169.02	0.81	-60.9	-74.1	3.6	8.45e-01	0	45	104	0	60	199091
2026-01-29 11:01:36.23	169.11	1.06	-59.8	-73.1	3.5	8.45e-01	0	45	104	0	60	176737
2026-01-29 11:01:40.26	169.19	1.31	-57.5	-71.3	3.6	8.45e-01	0	45	104	0	60	144179
2026-01-29 11:01:44.30	169.28	1.56	-57.3	-71.0	3.6	8.45e-01	0	45	104	0	60	138485
2026-01-29 11:01:48.33	169.38	1.81	-57.2	-70.9	3.6	8.46e-01	0	45	104	0	60	137911
2026-01-29 11:01:52.36	169.47	2.07	-57.1	-71.0	3.6	8.45e-01	0	45	104	0	60	139481
2026-01-29 11:01:56.39	169.56	2.32	-57.1	-70.8	3.6	8.45e-01	0	45	104	0	60	136574
2026-01-29 11:02:00.42	169.66	2.58	-57.1	-70.8	3.6	8.45e-01	0	45	104	0	60	135843
2026-01-29 11:02:04.46	169.75	2.85	-57.0	-70.7	3.6	8.45e-01	0	45	104	0	60	135068
2026-01-29 11:02:08.49	169.85	3.11	-57.0	-70.6	3.6	8.44e-01	0	45	104	0	60	133245
2026-01-29 11:02:12.52	169.95	3.38	-57.0	-70.8	3.6	8.44e-01	0	45	104	0	60	135841
2026-01-29 11:02:16.55	170.05	3.65	-56.9	-70.5	3.6	8.46e-01	0	45	104	0	60	131205
2026-01-29 11:02:20.58	170.16	3.92	-56.9	-70.5	3.5	8.45e-01	0	45	104	0	60	130729
2026-01-29 11:02:24.61	170.26	4.19	-56.9	-70.4	3.6	8.44e-01	0	45	104	0	60	130230
2026-01-29 11:02:28.63	170.37	4.47	-56.9	-70.1	3.6	8.45e-01	0	46	104	0	60	125490
2026-01-29 11:02:32.64	170.47	4.75	-56.5	-64.9	4.4	8.16e-01	0	45	0	0	60	69182
2026-01-29 11:02:36.67	170.58	5.03	-54.3	-57.8	11.7	2.41e-03	0	45	0	17825792	60	30331
2026-01-29 11:02:40.69	170.69	5.32	-51.4	-53.2	16.5	0.00e+00	0	45	0	40894464	60	17988
2026-01-29 11:02:44.71	170.81	5.61	-50.2	-51.7	18.0	0.00e+00	0	45	0	62914560	60	15042
2026-01-29 11:02:48.73	170.92	5.90	-51.2	-52.9	16.6	0.00e+00	0	45	0	84934656	60	17374
2026-01-29 11:02:52.75	171.04	6.19	-52.4	-54.6	15.4	4.80e-05	0	45	0	108003328	60	21016
2026-01-29 11:02:56.77	171.16	6.49	-51.5	-53.3	16.5	0.00e+00	0	45	104	114294784	60	18197
2026-01-29 11:03:00.80	171.28	6.79	-51.8	-53.7	16.1	0.00e+00	0	45	0	22020096	60	18867
2026-01-29 11:03:04.82	171.41	7.10	-51.4	-53.2	16.7	0.00e+00	0	45	0	45088768	60	17886
2026-01-29 11:03:08.84	171.53	7.41	-51.4	-53.0	16.8	0.00e+00	0	45	0	68157440	60	17564
2026-01-29 11:03:12.86	171.66	7.72	-51.9	-53.8	16.3	0.00e+00	0	45	0	90177536	60	19084
2026-01-29 11:03:16.89	171.79	8.04	-52.3	-54.2	15.8	0.00e+00	0	45	0	112197632	60	20166
2026-01-29 11:03:20.91	171.93	8.36	-50.8	-52.3	17.9	0.00e+00	0	45	0	135266304	60	16081
2026-01-29 11:03:24.94	172.06	8.68	-48.2	-49.2	20.8	0.00e+00	0	45	0	158334976	60	11292
2026-01-29 11:03:28.96	172.20	9.01	-47.7	-48.7	21.2	0.00e+00	0	45	0	180355072	60	10627
2026-01-29 11:03:32.99	172.35	9.34	-48.2	-49.2	20.8	0.00e+00	0	45	0	203423744	60	11285
2026-01-29 11:03:37.01	172.49	9.68	-48.5	-49.5	20.5	0.00e+00	0	45	0	225443840	60	11749
2026-01-29 11:03:41.03	172.64	10.02	-48.7	-49.7	20.3	0.00e+00	0	45	0	248512512	60	12014
2026-01-29 11:03:45.05	172.79	10.37	-49.4	-50.6	19.6	0.00e+00	0	45	0	271581184	60	13201
2026-01-29 11:03:49.07	172.95	10.72	-49.3	-50.4	19.7	0.00e+00	0	45	0	293601280	60	12991
2026-01-29 11:03:53.09	173.10	11.07	-50.3	-51.6	18.5	0.00e+00	0	45	0	316669952	60	14939
2026-01-29 11:03:57.12	173.27	11.43	-51.3	-52.8	17.5	0.00e+00	0	45	0	338690048	60	17080
2026-01-29 11:04:01.14	173.43	11.80	-52.9	-54.9	15.3	0.00e+00	0	45	0	361758720	60	21799
2026-01-29 11:04:05.16	173.60	12.17	-53.3	-55.5	14.7	0.00e+00	0	45	0	384827392	60	23426
2026-01-29 11:04:09.18	173.77	12.55	-54.0	-56.5	13.6	6.80e-06	0	45	0	406847488	60	26128
2026-01-29 11:04:13.20	173.95	12.93	-54.9	-57.9	12.2	2.30e-04	0	45	0	429916160	60	30927
2026-01-29 11:04:17.22	174.13	13.32	-56.3	-60.7	9.2	1.46e-02	0	45	0	451936256	60	42490
2026-01-29 11:04:21.25	174.32	13.72	-57.2	-63.2	5.8	1.91e-01	0	46	0	475004928	60	56859
2026-01-29 11:04:25.27	174.51	14.12	-56.4	-61.0	9.0	8.34e-02	0	46	0	494927872	60	44045
2026-01-29 11:04:29.30	174.71	14.53	-57.8	-66.2	4.0	7.74e-01	0	46	0	3145728	60	79947
2026-01-29 11:04:33.33	174.91	14.94	-47.6	-48.6	21.8	0.00e+00	0	46	0	24117248	60	10489
2026-01-29 11:04:37.36	175.12	15.36	-47.7	-48.6	21.7	0.00e+00	0	46	0	46137344	60	10538
2026-01-29 11:04:41.40	175.33	15.79	-48.2	-49.1	21.3	0.00e+00	0	45	0	69206016	60	11198
2026-01-29 11:04:45.43	175.55	16.23	-47.5	-48.4	22.0	0.00e+00	0	46	0	91226112	60	10275
2026-01-29 11:04:49.45	175.77	16.67	-48.2	-49.2	21.3	0.00e+00	0	46	0	114294784	60	11252
2026-01-29 11:04:53.48	176.00	17.12	-49.1	-50.1	20.6	0.00e+00	0	46	0	137363456	60	12514
2026-01-29 11:04:57.52	176.24	17.59	-49.7	-50.8	20.0	0.00e+00	0	46	0	159383552	60	13556
2026-01-29 11:05:01.53	176.48	18.05	-50.8	-52.0	18.9	0.00e+00	0	46	0	182452224	60	15588
2026-01-29 11:05:05.56	176.73	18.53	-51.6	-53.0	17.8	0.00e+00	0	45	0	205520896	60	17449
2026-01-29 11:05:09.59	176.99	19.01	-53.2	-55.0	15.9	0.00e+00	0	46	0	227540992	60	22119
2026-01-29 11:05:13.61	177.26	19.51	-55.0	-57.6	13.3	2.05e-05	0	46	0	250609664	60	29761
2026-01-29 11:05:17.65	177.53	20.01	-56.4	-60.1	10.6	3.86e-03	0	46	0	273678336	60	39606
2026-01-29 11:05:21.67	177.81	20.53	-57.4	-62.4	7.9	6.76e-02	0	46	0	295698432	60	51804
2026-01-29 11:05:25.70	178.11	21.05	-57.8	-63.5	6.8	1.54e-01	0	46	0	318767104	60	58338
2026-01-29 11:05:29.72	178.41	21.59	-58.2	-65.1	8.0	8.11e-01	0	45	104	335544320	60	70488
2026-01-29 11:05:33.75	178.72	22.13	-54.3	-55.9	16.4	6.81e-01	0	46	0	14680064	60	24395
2026-01-29 11:05:37.77	179.04	22.69	-48.7	-49.7	21.5	0.00e+00	0	45	0	37748736	60	11905
2026-01-29 11:05:41.81	179.38	23.26	-49.7	-50.7	20.2	0.00e+00	0	45	0	59768832	60	13480
2026-01-29 11:05:45.84	179.72	23.84	-51.3	-52.5	19.1	0.00e+00	0	45	0	82837504	60	16448
2026-01-29 11:05:49.87	180.08	24.43	-53.0	-54.5	17.1	0.00e+00	0	45	0	105906176	60	20733
2026-01-29 11:05:53.90	180.45	25.03	-55.4	-57.6	14.8	0.00e+00	0	46	0	127926272	60	29635
2026-01-29 11:05:57.93	180.84	25.65	-57.4	-60.8	11.1	9.14e-04	0	46	0	150994944	60	43073
2026-01-29 11:06:01.96	181.24	26.28	-58.5	-63.4	8.1	4.57e-02	0	46	0	174063616	60	58146
2026-01-29 11:06:06.00	181.66	26.93	-59.1	-65.1	6.1	2.39e-01	0	46	0	196083712	60	70728
2026-01-29 11:06:10.03	182.09	27.59	-46.8	-47.6	23.2	1.76e-02	0	46	0	212860928	60	9372
2026-01-29 11:06:14.06	182.54	28.26	-57.7	-61.1	10.9	9.61e-04	0	46	0	235929600	60	44357
2026-01-29 11:06:18.09	183.01	28.95	-54.7	-56.4	16.4	0.00e+00	0	46	0	257949696	60	25793
2026-01-29 11:06:22.13	183.50	29.65	-51.0	-52.0	20.7	0.00e+00	0	46	0	281018368	60	15537
2026-01-29 11:06:26.15	184.01	30.37	-47.0	-47.7	24.3	0.00e+00	0	46	0	304087040	60	9540
2026-01-29 11:06:30.18	184.55	31.10	-46.8	-47.5	24.5	0.00e+00	0	46	0	326107136	60	9308
2026-01-29 11:06:34.21	185.11	31.85	-46.8	-47.5	24.5	0.00e+00	0	46	0	349175808	60	9333
2026-01-29 11:06:38.24	185.69	32.62	-47.6	-48.3	24.0	0.00e+00	0	46	0	372244480	60	10243
2026-01-29 11:06:42.27	186.30	33.40	-48.5	-49.2	23.4	0.00e+00	0	46	0	394264576	60	11363
2026-01-29 11:06:46.30	186.94	34.20	-49.3	-50.1	23.0	0.00e+00	0	46	0	416284672	60	12508
2026-01-29 11:06:50.32	187.62	35.02	-50.9	-51.8	21.4	0.00e+00	0	46	0	439353344	60	15189
2026-01-29 11:06:54.35	188.32	35.86	-52.7	-53.8	19.5	0.00e+00	0	46	0	462422016	60	19245
2026-01-29 11:06:58.38	189.07	36.71	-54.2	-55.6	17.8	0.00e+00	0	46	0	484442112	60	23613
2026-01-29 11:07:02.40	189.85	37.57	-56.5	-58.5	15.0	0.00e+00	0	46	0	507510784	60	32933
2026-01-29 11:07:06.43	190.67	38.46	-58.5	-61.8	11.9	1.13e-03	0	46	0	530579456	60	48175
2026-01-29 11:07:10.46	191.54	39.36	-59.1	-63.1	10.0	1.53e-02	0	46	0	552599552	60	56038
2026-01-29 11:07:14.49	192.46	40.28	-59.9	-65.2	7.6	1.37e-01	0	46	0	575668224	60	70980
2026-01-29 11:07:18.52	193.44	41.22	-60.4	-66.6	5.7	3.91e-01	0	46	0	597688320	60	83463
2026-01-29 11:07:22.55	194.47	42.17	-51.1	-51.9	22.6	2.40e-04	0	46	0	614465536	60	15393
2026-01-29 11:07:26.58	195.56	43.13	-50.6	-51.5	22.0	0.00e+00	0	46	0	636485632	60	14657
2026-01-29 11:07:30.60	196.71	44.11	-49.9	-50.7	22.6	0.00e+00	0	46	0	659554304	60	13408
2026-01-29 11:07:34.64	197.95	45.10	-50.8	-51.7	21.7	0.00e+00	0	46	0	682622976	60	15113
2026-01-29 11:07:38.67	199.26	46.10	-52.6	-53.6	19.5	0.00e+00	0	46	0	704643072	60	18844
2026-01-29 11:07:42.70	200.65	47.10	-55.0	-56.6	16.6	0.00e+00	0	46	0	727711744	60	26439
2026-01-29 11:07:46.73	202.14	48.11	-56.9	-59.1	14.5	3.40e-06	0	46	0	750780416	60	35250
2026-01-29 11:07:50.77	203.73	49.13	-49.6	-50.4	22.9	0.00e+00	0	46	0	772800512	60	12948
2026-01-29 11:07:54.79	205.42	50.14	-47.1	-47.8	25.1	0.00e+00	0	46	0	794820608	60	9663
2026-01-29 11:07:58.81	207.22	51.14	-47.5	-48.2	24.7	0.00e+00	0	46	0	817889280	60	10058
2026-01-29 11:08:02.84	209.15	52.14	-47.9	-48.6	24.4	0.00e+00	0	46	0	840957952	60	10565
2026-01-29 11:08:06.86	211.21	53.12	-48.0	-48.7	24.5	0.00e+00	0	46	0	862978048	60	10640
2026-01-29 11:08:10.88	213.40	54.08	-47.8	-48.5	24.6	0.00e+00	0	46	0	886046720	60	10481
2026-01-29 11:08:14.91	215.75	55.01	-47.6	-48.3	24.5	0.00e+00	0	46	0	908066816	60	10221
2026-01-29 11:08:18.93	218.25	55.91	-47.0	-47.7	25.1	0.00e+00	0	46	0	931135488	60	9475
2026-01-29 11:08:22.95	220.91	56.76	-47.8	-48.6	24.3	0.00e+00	0	46	0	954204160	60	10517
2026-01-29 11:08:26.96	223.73	57.56	-47.3	-48.0	24.7	0.00e+00	0	46	0	976224256	60	9831
2026-01-29 11:08:30.98	226.72	58.31	-55.1	-56.5	20.1	8.14e-03	0	46	0	999292928	60	26232
2026-01-29 11:08:34.99	229.86	58.99	-60.3	-74.5	3.6	8.45e-01	0	46	104	1000341504	60	209098
2026-01-29 11:08:39.01	233.17	59.59	-60.3	-74.8	3.6	8.45e-01	0	46	104	1000341504	60	214251
2026-01-29 11:08:43.03	236.62	60.11	-60.6	-74.8	3.6	8.45e-01	0	46	104	1000341504	60	215019
2026-01-29 11:08:47.05	240.20	60.54	-60.6	-74.8	3.6	8.45e-01	0	46	104	1000341504	60	216484
2026-01-29 11:08:51.06	243.88	60.87	-60.5	-74.7	3.6	8.45e-01	0	46	104	1000341504	60	212451
2026-01-29 11:08:55.07	247.64	61.10	-60.6	-74.8	3.6	8.45e-01	0	46	104	1000341504	60	216203
2026-01-29 11:08:59.09	251.46	61.21	-60.5	-74.8	3.6	8.45e-01	0	46	104	1000341504	60	215318
2026-01-29 11:09:03.10	255.29	61.22	-60.5	-74.6	3.6	8.46e-01	0	46	104	1000341504	60	209673
2026-01-29 11:09:07.12	259.12	61.11	-60.5	-74.8	3.6	8.44e-01	0	46	104	1000341504	60	214958
2026-01-29 11:09:11.15	262.90	60.90	-61.3	-75.1	3.6	8.46e-01	0	46	104	1000341504	60	223089
2026-01-29 11:09:15.17	266.60	60.58	-61.6	-75.1	3.6	8.45e-01	0	46	104	1000341504	60	221957
2026-01-29 11:09:19.18	270.18	60.17	-61.5	-75.0	3.6	8.44e-01	0	46	104	1000341504	60	220627
2026-01-29 11:09:23.21	273.66	59.65	-61.8	-75.3	3.6	8.46e-01	0	46	104	1000341504	60	229291
2026-01-29 11:09:27.23	276.98	59.06	-61.4	-75.0	3.6	8.45e-01	0	46	104	1000341504	60	221375
2026-01-29 11:09:31.26	280.15	58.39	-61.9	-75.0	3.6	8.44e-01	0	46	104	1000341504	60	221388
2026-01-29 11:09:35.27	283.14	57.65	-62.1	-75.4	3.6	8.45e-01	0	46	104	1000341504	60	231162
2026-01-29 11:09:39.29	285.98	56.85	-61.6	-75.9	3.6	8.45e-01	0	46	104	1000341504	60	245419
2026-01-29 11:09:43.33	288.66	56.00	-61.5	-75.8	3.6	8.44e-01	0	46	104	1000341504	60	240263
2026-01-29 11:09:47.34	291.17	55.11	-61.5	-75.8	3.6	8.45e-01	0	46	104	1000341504	60	242082
2026-01-29 11:09:51.37	293.53	54.18	-61.4	-75.7	3.6	8.45e-01	0	46	104	1000341504	60	238730
2026-01-29 11:09:55.39	295.74	53.23	-59.6	-75.1	3.6	8.46e-01	0	46	104	1000341504	60	223250
2026-01-29 11:09:59.42	297.81	52.25	-59.9	-69.7	5.1	8.45e-01	0	46	104	1000341504	60	119844
2026-01-29 11:10:03.44	299.75	51.26	-59.5	-65.2	12.3	5.25e-01	0	46	0	13631488	60	71009
2026-01-29 11:10:07.46	301.56	50.26	-56.5	-58.6	14.9	0.00e+00	0	46	0	33554432	60	33262
2026-01-29 11:10:11.48	303.26	49.26	-51.7	-52.7	21.1	0.00e+00	0	46	0	56623104	60	16910
2026-01-29 11:10:15.50	304.85	48.25	-51.2	-52.2	21.3	0.00e+00	0	46	0	78643200	60	15951
2026-01-29 11:10:19.52	306.34	47.25	-51.9	-53.1	20.4	0.00e+00	0	46	0	101711872	60	17768
2026-01-29 11:10:23.54	307.74	46.25	-48.1	-48.8	24.0	0.00e+00	0	46	0	124780544	60	10822
2026-01-29 11:10:27.57	309.06	45.25	-47.5	-48.3	24.7	0.00e+00	0	46	0	146800640	60	10241
2026-01-29 11:10:31.59	310.29	44.27	-48.6	-49.5	23.7	0.00e+00	0	46	0	169869312	60	11641
2026-01-29 11:10:35.61	311.45	43.29	-50.0	-51.0	22.2	0.00e+00	0	46	0	191889408	60	13932
2026-01-29 11:10:39.63	312.55	42.33	-49.2	-49.9	23.2	0.00e+00	0	46	0	214958080	60	12276
2026-01-29 11:10:43.66	313.59	41.38	-46.5	-47.3	25.3	0.00e+00	0	46	0	238026752	60	9050
2026-01-29 11:10:47.68	314.56	40.45	-46.1	-46.9	25.8	0.00e+00	0	46	0	260046848	60	8663
2026-01-29 11:10:51.70	315.49	39.54	-46.1	-46.7	25.7	0.00e+00	0	46	0	283115520	60	8498
2026-01-29 11:10:55.72	316.36	38.64	-46.0	-46.8	26.0	0.00e+00	0	46	0	305135616	60	8528
2026-01-29 11:10:59.75	317.19	37.75	-45.9	-46.6	26.0	0.00e+00	0	46	0	328204288	60	8362
2026-01-29 11:11:03.77	317.98	36.89	-45.8	-46.6	25.9	0.00e+00	0	46	0	350224384	60	8355
2026-01-29 11:11:07.80	318.73	36.03	-46.3	-47.0	25.6	0.00e+00	0	46	0	373293056	60	8816
2026-01-29 11:11:11.82	319.44	35.20	-46.3	-46.9	25.6	0.00e+00	0	46	0	395313152	60	8677
2026-01-29 11:11:15.84	320.11	34.39	-46.2	-46.8	25.6	0.00e+00	0	46	0	418381824	60	8558
2026-01-29 11:11:19.87	320.76	33.59	-46.0	-46.7	25.8	0.00e+00	0	46	0	441450496	60	8505
2026-01-29 11:11:23.89	321.37	32.81	-45.8	-46.4	25.9	0.00e+00	0	46	0	463470592	60	8176
2026-01-29 11:11:27.90	321.96	32.04	-46.0	-46.7	25.8	0.00e+00	0	46	0	486539264	60	8518
2026-01-29 11:11:31.93	322.52	31.29	-46.4	-47.0	25.4	0.00e+00	0	46	0	508559360	60	8795
2026-01-29 11:11:35.95	323.06	30.56	-46.3	-47.0	25.6	0.00e+00	0	46	0	531628032	60	8807
2026-01-29 11:11:39.96	323.57	29.85	-46.4	-47.0	25.4	0.00e+00	0	46	0	554696704	60	8769
2026-01-29 11:11:43.99	324.06	29.14	-46.5	-47.2	25.3	0.00e+00	0	46	0	576716800	60	8929
2026-01-29 11:11:48.01	324.54	28.46	-46.3	-46.9	25.4	0.00e+00	0	46	0	599785472	60	8659
2026-01-29 11:11:52.03	324.99	27.79	-46.7	-47.3	25.1	0.00e+00	0	46	0	622854144	60	9033
2026-01-29 11:11:56.06	325.43	27.13	-46.7	-47.3	25.1	0.00e+00	0	46	0	644874240	60	9051
2026-01-29 11:12:00.08	325.85	26.49	-46.7	-47.3	25.1	0.00e+00	0	46	0	666894336	60	9071
2026-01-29 11:12:04.10	326.25	25.86	-46.5	-47.1	25.2	0.00e+00	0	46	0	689963008	60	8834
2026-01-29 11:12:08.11	326.64	25.24	-46.9	-47.5	24.8	0.00e+00	0	46	0	711983104	60	9270
2026-01-29 11:12:12.13	327.01	24.64	-47.0	-47.6	24.8	0.00e+00	0	46	0	735051776	60	9450
2026-01-29 11:12:16.14	327.37	24.05	-46.7	-47.3	25.0	0.00e+00	0	46	0	758120448	60	9063
2026-01-29 11:12:20.17	327.72	23.47	-46.8	-47.6	24.8	0.00e+00	0	46	0	780140544	60	9379
2026-01-29 11:12:24.19	328.06	22.90	-46.9	-47.7	24.6	0.00e+00	0	46	0	803209216	60	9500
2026-01-29 11:12:28.20	328.38	22.35	-46.9	-47.6	24.6	0.00e+00	0	46	0	825229312	60	9392
2026-01-29 11:12:32.23	328.70	21.80	-47.3	-47.9	24.4	0.00e+00	0	46	0	848297984	60	9767
2026-01-29 11:12:36.27	329.00	21.27	-47.5	-48.3	24.2	0.00e+00	0	46	0	871366656	60	10176
2026-01-29 11:12:40.29	329.30	20.74	-47.3	-48.2	24.2	0.00e+00	0	46	0	893386752	60	10016
2026-01-29 11:12:44.30	329.59	20.23	-47.6	-48.3	24.1	0.00e+00	0	46	0	916455424	60	10138
2026-01-29 11:12:48.33	329.86	19.73	-47.7	-48.4	24.0	0.00e+00	0	46	0	939524096	60	10316
2026-01-29 11:12:52.36	330.13	19.23	-47.8	-48.7	23.8	0.00e+00	0	46	0	961544192	60	10640
2026-01-29 11:12:56.38	330.39	18.75	-48.0	-48.6	23.6	0.00e+00	0	46	0	983564288	60	10606
2026-01-29 11:13:00.40	330.65	18.27	-48.3	-49.1	23.1	0.00e+00	0	46	0	1006632960	60	11203
2026-01-29 11:13:04.43	330.89	17.80	-48.2	-48.9	22.7	0.00e+00	0	46	0	1028653056	60	10947
2026-01-29 11:13:08.44	331.13	17.34	-46.8	-47.4	6.4	7.82e-02	0	46	0	1051721728	60	9209
2026-01-29 11:13:12.47	331.37	16.89	-48.8	-49.7	20.6	0.00e+00	0	46	0	1074790400	60	11933
2026-01-29 11:13:16.50	331.59	16.45	-49.1	-50.1	22.0	0.00e+00	0	46	0	1096810496	60	12561
2026-01-29 11:13:20.52	331.81	16.01	-49.4	-50.4	21.5	0.00e+00	0	46	0	1119879168	60	12982
2026-01-29 11:13:24.54	332.03	15.58	-49.8	-50.8	20.5	0.00e+00	0	46	0	1142947840	60	13642
2026-01-29 11:13:28.55	332.24	15.16	-50.6	-51.8	19.6	0.00e+00	0	46	0	1164967936	60	15326
2026-01-29 11:13:32.57	332.44	14.75	-50.9	-52.2	18.9	0.00e+00	0	46	0	1188036608	60	16016
2026-01-29 11:13:36.59	332.64	14.34	-51.6	-53.1	18.2	0.00e+00	0	46	0	1210056704	60	17622
2026-01-29 11:13:40.61	332.83	13.94	-52.3	-53.9	17.3	0.00e+00	0	46	0	1233125376	60	19456
2026-01-29 11:13:44.63	333.02	13.55	-53.3	-55.2	15.8	0.00e+00	0	46	0	1256194048	60	22569
2026-01-29 11:13:48.65	333.21	13.16	-53.7	-55.7	15.2	0.00e+00	0	46	0	1278214144	60	23944
2026-01-29 11:13:52.68	333.39	12.77	-54.4	-56.7	14.0	3.40e-06	0	46	0	1301282816	60	26819
2026-01-29 11:13:56.70	333.57	12.40	-54.7	-58.3	11.8	2.78e-04	0	46	0	1323302912	60	32283
2026-01-29 11:14:00.70	333.74	12.03	-54.7	-58.9	10.9	1.36e-03	0	46	0	1345323008	60	34484
2026-01-29 11:14:04.71	333.91	11.66	-54.5	-59.9	9.3	1.25e-02	0	46	0	1368391680	60	38901
2026-01-29 11:14:08.71	334.07	11.30	-54.5	-61.2	7.8	5.96e-02	0	46	0	1390411776	60	44844
2026-01-29 11:14:12.73	334.23	10.95	-55.1	-62.5	6.7	1.58e-01	0	46	0	1413480448	60	52442
2026-01-29 11:14:16.74	334.39	10.60	-55.5	-68.7	3.6	8.45e-01	0	46	104	1426063360	60	106211
2026-01-29 11:14:20.77	334.55	10.25	-55.1	-66.2	3.8	8.35e-01	0	46	0	1426063360	60	80446
2026-01-29 11:14:24.79	334.70	9.91	-54.8	-68.2	3.7	8.40e-01	0	46	104	1426063360	60	100892
2026-01-29 11:14:28.82	334.85	9.57	-57.4	-71.3	3.6	8.45e-01	0	46	104	1426063360	60	144009
2026-01-29 11:14:32.84	334.99	9.24	-55.6	-70.5	3.6	8.44e-01	0	46	104	1426063360	60	131906
2026-01-29 11:14:36.87	335.13	8.91	-57.9	-71.7	3.6	8.45e-01	0	46	104	1426063360	60	150285
2026-01-29 11:14:40.89	335.27	8.58	-55.8	-71.0	3.6	8.45e-01	0	46	104	1426063360	60	138933
2026-01-29 11:14:44.92	335.41	8.26	-57.8	-71.4	3.6	8.46e-01	0	46	104	1426063360	60	145474
2026-01-29 11:14:48.94	335.55	7.95	-57.0	-71.0	3.6	8.45e-01	0	46	104	1426063360	60	139452
2026-01-29 11:14:52.96	335.68	7.63	-57.8	-71.3	3.6	8.44e-01	0	46	104	1426063360	60	143645
2026-01-29 11:14:56.97	335.81	7.33	-56.6	-71.1	3.6	8.45e-01	0	46	104	1426063360	60	140305
2026-01-29 11:15:01.00	335.94	7.02	-57.7	-71.0	3.6	8.45e-01	0	46	104	1426063360	60	139331
2026-01-29 11:15:05.03	336.06	6.72	-57.0	-70.7	3.6	8.46e-01	0	46	104	1426063360	60	135034
2026-01-29 11:15:09.05	336.19	6.42	-57.3	-70.8	3.6	8.46e-01	0	46	104	1426063360	60	135975
2026-01-29 11:15:13.06	336.31	6.13	-56.9	-70.7	3.6	8.45e-01	0	46	104	1426063360	60	134855
2026-01-29 11:15:17.09	336.43	5.83	-58.7	-72.8	3.6	8.45e-01	0	46	104	1426063360	60	171186
2026-01-29 11:15:21.12	336.54	5.54	-60.7	-74.2	3.6	8.45e-01	0	46	104	1426063360	60	199863
2026-01-29 11:15:25.15	336.66	5.26	-61.2	-74.6	3.6	8.46e-01	0	46	104	1426063360	60	211313
2026-01-29 11:15:29.17	336.77	4.98	-61.4	-74.6	3.6	8.45e-01	0	46	104	1426063360	60	210582
2026-01-29 11:15:33.19	336.88	4.70	-61.8	-75.1	3.6	8.45e-01	0	46	104	1426063360	60	222990
2026-01-29 11:15:37.22	336.99	4.42	-60.3	-75.1	3.6	8.45e-01	0	46	104	1426063360	60	223728
2026-01-29 11:15:41.25	337.10	4.15	-60.8	-75.4	3.6	8.45e-01	0	46	104	1426063360	60	229929
2026-01-29 11:15:45.28	337.21	3.87	-61.2	-75.4	3.6	8.45e-01	0	46	104	1426063360	60	231098
2026-01-29 11:15:49.31	337.31	3.60	-61.1	-75.3	3.6	8.46e-01	0	46	104	1426063360	60	228886
2026-01-29 11:15:53.33	337.42	3.34	-61.2	-75.4	3.6	8.45e-01	0	46	104	1426063360	60	229517
2026-01-29 11:15:57.34	337.52	3.08	-61.2	-75.3	3.6	8.46e-01	0	46	104	1426063360	60	228228
2026-01-29 11:16:01.37	337.62	2.81	-61.2	-75.5	3.6	8.44e-01	0	46	104	1426063360	60	233689
2026-01-29 11:16:05.40	337.72	2.55	-61.1	-75.4	3.6	8.44e-01	0	46	104	1426063360	60	229864
2026-01-29 11:16:09.40	337.81	2.30	-61.1	-75.3	3.6	8.46e-01	0	46	104	1426063360	60	227486
2026-01-29 11:16:13.42	337.91	2.04	-61.1	-75.3	3.6	8.45e-01	0	46	104	1426063360	60	226920
2026-01-29 11:16:17.44	338.01	1.79	-61.1	-75.4	3.6	8.44e-01	0	46	104	1426063360	60	229687
2026-01-29 11:16:21.48	338.10	1.54	-61.1	-75.2	3.6	8.45e-01	0	46	104	1426063360	60	226606
2026-01-29 11:16:25.51	338.19	1.29	-61.0	-75.2	3.6	8.44e-01	0	46	104	1426063360	60	226409
2026-01-29 11:16:29.54	338.28	1.05	-61.0	-75.2	3.6	8.46e-01	0	46	104	1426063360	60	226205
2026-01-29 11:16:33.57	338.37	0.80	-61.1	-75.2	3.6	8.45e-01	0	46	104	1426063360	60	226108
2026-01-29 11:16:37.58	338.46	0.56	-61.1	-75.3	3.6	8.45e-01	0	46	104	1426063360	60	226799
2026-01-29 11:16:41.61	338.55	0.32	-61.1	-75.2	3.6	8.45e-01	0	46	104	1426063360	60	225873
2026-01-29 11:16:45.65	338.64	0.08	-61.1	-75.2	3.6	8.46e-01	0	46	104	1426063360	60	226690

#Closed at: 2026-01-29 11:16:49
#Recorded file [1426 MB]: D:/Data/35015_260129_141425.dat