passes_logs/2026/01/29/R3.2S-Naryan-Mar/R3.2S-Naryan-Mar__20260129_222913_NOAA_20_JPSS-1_rec.log

#Pass ID: 20260129_222913_NOAA 20 (JPSS-1)
#Satellite: NOAA 20 (JPSS-1)
#Configuration: NOAA 20
#almurnet v.1.7.20240730
#Start time: 2026-01-29 22:29:13

#Version: 2.2.20231116
#Station: R3.2S-Naryan-Mar
#Location: 53.008057 lon 67.646978 lat
#TLE: 1 43013U 17073A   26028.86313978  .00000144  00000+0  89200-4 0  9993
#TLE: 2 43013  98.7648 329.6571 0000891  20.0014 340.1197 14.19541559424709

#Time	Az	El	Level	Level2	SNR	BER	BlckErr	Temp	State	Recorded	gain1	gain2
2026-01-29 22:29:13.61	20.47	0.02	-60.1	-78.3	3.5	1.51e+00	0	44	0	0	60	323271
2026-01-29 22:29:17.63	20.56	0.26	-61.8	-79.3	3.6	1.51e+00	0	45	104	0	60	362233
2026-01-29 22:29:21.66	20.66	0.50	-61.8	-79.2	3.6	1.51e+00	0	45	104	0	60	355782
2026-01-29 22:29:25.68	20.75	0.74	-61.9	-79.2	3.6	1.51e+00	0	45	104	0	60	357463
2026-01-29 22:29:29.70	20.85	0.98	-62.1	-79.1	3.6	1.51e+00	0	45	104	0	60	353789
2026-01-29 22:29:33.73	20.95	1.22	-62.2	-79.1	3.6	1.51e+00	0	45	104	0	60	352255
2026-01-29 22:29:37.76	21.05	1.47	-62.2	-78.9	3.6	1.51e+00	0	45	104	0	60	346597
2026-01-29 22:29:41.79	21.16	1.72	-62.1	-78.9	3.6	1.51e+00	0	45	104	0	60	344776
2026-01-29 22:29:45.81	21.26	1.97	-62.1	-78.7	3.6	1.51e+00	0	45	104	0	60	338740
2026-01-29 22:29:49.84	21.37	2.22	-62.0	-78.8	3.6	1.51e+00	0	46	104	0	60	342321
2026-01-29 22:29:53.87	21.47	2.48	-61.8	-78.8	3.6	1.51e+00	0	45	104	0	60	340890
2026-01-29 22:29:57.90	21.58	2.74	-61.6	-78.5	3.6	1.51e+00	0	46	104	0	60	331053
2026-01-29 22:30:01.93	21.69	3.00	-61.4	-78.6	3.6	1.51e+00	0	46	104	0	60	334235
2026-01-29 22:30:05.96	21.80	3.26	-61.2	-78.5	3.6	1.51e+00	0	46	104	0	60	331342
2026-01-29 22:30:09.99	21.92	3.52	-61.0	-78.6	3.6	1.51e+00	0	46	104	0	60	332388
2026-01-29 22:30:14.00	22.03	3.79	-60.9	-78.6	3.6	1.51e+00	0	45	104	0	60	332607
2026-01-29 22:30:18.03	22.15	4.06	-60.7	-78.7	3.6	1.51e+00	0	46	104	0	60	337264
2026-01-29 22:30:22.06	22.27	4.33	-60.5	-78.8	3.6	1.51e+00	0	46	104	0	60	340999
2026-01-29 22:30:26.09	22.39	4.61	-60.5	-78.6	3.6	1.51e+00	0	46	104	0	60	335391
2026-01-29 22:30:30.12	22.51	4.88	-60.5	-78.5	3.6	1.51e+00	0	46	104	0	60	329553
2026-01-29 22:30:34.15	22.64	5.17	-60.5	-78.6	3.6	1.51e+00	0	46	104	0	60	331853
2026-01-29 22:30:38.17	22.76	5.45	-60.6	-78.4	3.6	1.51e+00	0	46	104	0	60	327353
2026-01-29 22:30:42.20	22.89	5.73	-60.9	-78.7	3.6	1.51e+00	0	46	104	0	60	338509
2026-01-29 22:30:46.23	23.02	6.02	-61.0	-78.8	3.6	1.51e+00	0	46	104	0	60	340246
2026-01-29 22:30:50.25	23.15	6.32	-61.1	-78.9	3.6	1.51e+00	0	46	104	0	60	344661
2026-01-29 22:30:54.26	23.29	6.61	-61.2	-78.8	3.6	1.51e+00	0	46	104	0	60	339683
2026-01-29 22:30:58.28	23.43	6.91	-61.2	-78.6	3.6	1.51e+00	0	46	104	0	60	335087
2026-01-29 22:31:02.31	23.57	7.21	-61.1	-78.5	3.6	1.51e+00	0	46	104	0	60	330236
2026-01-29 22:31:06.33	23.71	7.52	-61.0	-78.6	3.6	1.51e+00	0	46	104	0	60	334041
2026-01-29 22:31:10.36	23.86	7.83	-60.8	-78.6	3.6	1.51e+00	0	46	104	0	60	334536
2026-01-29 22:31:14.38	24.00	8.14	-60.7	-78.7	3.6	1.51e+00	0	46	104	0	60	337121
2026-01-29 22:31:18.41	24.16	8.46	-60.6	-78.7	3.6	1.51e+00	0	46	104	0	60	335996
2026-01-29 22:31:22.44	24.31	8.78	-60.6	-78.6	3.6	1.51e+00	0	46	104	0	60	332098
2026-01-29 22:31:26.47	24.47	9.11	-60.6	-78.6	3.6	1.51e+00	0	46	104	0	60	332480
2026-01-29 22:31:30.50	24.63	9.43	-60.8	-78.7	3.6	1.51e+00	0	46	104	0	60	336556
2026-01-29 22:31:34.54	24.79	9.77	-61.0	-78.7	3.6	1.51e+00	0	46	104	0	60	337813
2026-01-29 22:31:38.56	24.96	10.11	-61.2	-78.8	3.6	1.51e+00	0	46	104	0	60	340905
2026-01-29 22:31:42.58	25.13	10.45	-61.2	-78.9	3.6	1.51e+00	0	46	104	0	60	343438
2026-01-29 22:31:46.61	25.30	10.80	-61.3	-78.8	3.6	1.51e+00	0	46	104	0	60	342155
2026-01-29 22:31:50.64	25.48	11.15	-61.4	-78.7	3.6	1.51e+00	0	46	104	0	60	339265
2026-01-29 22:31:54.67	25.66	11.51	-61.5	-78.7	3.6	1.51e+00	0	46	104	0	60	337443
2026-01-29 22:31:58.69	25.85	11.87	-61.3	-78.8	3.6	1.51e+00	0	46	104	0	60	342133
2026-01-29 22:32:02.71	26.04	12.23	-61.2	-78.8	3.6	1.51e+00	0	46	104	0	60	341790
2026-01-29 22:32:06.75	26.23	12.61	-61.1	-78.7	3.6	1.51e+00	0	46	104	0	60	335678
2026-01-29 22:32:10.77	26.43	12.98	-60.8	-78.6	3.6	1.51e+00	0	46	104	0	60	334178
2026-01-29 22:32:14.78	26.63	13.37	-60.6	-78.4	3.6	1.51e+00	0	46	104	0	60	327579
2026-01-29 22:32:18.80	26.84	13.75	-60.5	-78.4	3.6	1.51e+00	0	46	104	0	60	325562
2026-01-29 22:32:22.82	27.06	14.15	-60.4	-78.4	3.6	1.51e+00	0	46	104	0	60	326433
2026-01-29 22:32:26.85	27.27	14.55	-60.2	-78.4	3.6	1.51e+00	0	46	104	0	60	327000
2026-01-29 22:32:30.86	27.50	14.96	-60.0	-78.5	3.6	1.51e+00	0	46	104	0	60	330113
2026-01-29 22:32:34.88	27.73	15.37	-59.9	-78.4	3.6	1.51e+00	0	46	104	0	60	324512
2026-01-29 22:32:38.92	27.96	15.79	-59.6	-78.2	3.6	1.51e+00	0	46	104	0	60	318244
2026-01-29 22:32:42.93	28.21	16.22	-59.5	-78.2	3.6	1.51e+00	0	46	104	0	60	317688
2026-01-29 22:32:46.93	28.45	16.65	-59.4	-78.2	3.6	1.51e+00	0	46	104	0	60	317813
2026-01-29 22:32:50.92	28.71	17.09	-59.3	-78.2	3.6	1.51e+00	0	46	104	0	60	319287
2026-01-29 22:32:54.93	28.97	17.54	-59.3	-78.1	3.5	1.51e+00	0	46	104	0	60	315695
2026-01-29 22:32:58.93	29.24	18.00	-59.3	-78.2	3.6	1.51e+00	0	46	104	0	60	317466
2026-01-29 22:33:02.96	29.51	18.46	-59.4	-78.2	3.6	1.51e+00	0	46	104	0	60	319813
2026-01-29 22:33:06.98	29.80	18.94	-59.4	-78.2	3.6	1.51e+00	0	46	104	0	60	317268
2026-01-29 22:33:11.00	30.09	19.42	-59.6	-78.2	3.6	1.51e+00	0	46	104	0	60	319102
2026-01-29 22:33:15.01	30.39	19.91	-60.2	-78.3	3.6	1.51e+00	0	46	104	0	60	322156
2026-01-29 22:33:19.02	30.71	20.41	-60.5	-78.4	3.6	1.51e+00	0	46	104	0	60	325436
2026-01-29 22:33:23.03	31.03	20.92	-60.7	-78.4	3.6	1.51e+00	0	46	104	0	60	327700
2026-01-29 22:33:27.04	31.36	21.44	-60.9	-78.4	3.6	1.51e+00	0	46	104	0	60	326036
2026-01-29 22:33:31.06	31.70	21.97	-61.0	-78.3	3.6	1.51e+00	0	46	104	0	60	321166
2026-01-29 22:33:35.07	32.06	22.50	-61.1	-78.4	3.6	1.51e+00	0	46	104	0	60	324547
2026-01-29 22:33:39.07	32.42	23.05	-61.2	-78.3	3.6	1.51e+00	0	46	104	0	60	321094
2026-01-29 22:33:43.07	32.80	23.61	-61.2	-78.3	3.6	1.51e+00	0	46	104	0	60	323473
2026-01-29 22:33:47.08	33.19	24.18	-61.3	-78.5	3.6	1.51e+00	0	46	104	0	60	327848
2026-01-29 22:33:51.08	33.59	24.76	-61.5	-78.5	3.6	1.51e+00	0	46	104	0	60	328771
2026-01-29 22:33:55.08	34.01	25.36	-61.5	-78.4	3.6	1.51e+00	0	46	104	0	60	327324
2026-01-29 22:33:59.10	34.45	25.96	-61.5	-78.4	3.6	1.51e+00	0	46	104	0	60	324938
2026-01-29 22:34:03.11	34.90	26.58	-61.6	-78.4	3.6	1.51e+00	0	46	104	0	60	327468
2026-01-29 22:34:07.13	35.37	27.21	-61.7	-78.5	3.6	1.51e+00	0	46	104	0	60	328337
2026-01-29 22:34:11.14	35.86	27.86	-61.8	-78.5	3.6	1.51e+00	0	46	104	0	60	329660
2026-01-29 22:34:15.16	36.37	28.52	-61.8	-78.5	3.6	1.51e+00	0	46	104	0	60	329917
2026-01-29 22:34:19.18	36.89	29.19	-61.9	-78.4	3.6	1.51e+00	0	46	104	0	60	326344
2026-01-29 22:34:23.19	37.44	29.87	-61.8	-78.4	3.6	1.51e+00	0	46	104	0	60	325283
2026-01-29 22:34:27.20	38.02	30.57	-61.8	-78.4	3.6	1.51e+00	0	46	104	0	60	324208
2026-01-29 22:34:31.23	38.62	31.29	-61.8	-78.3	3.6	1.51e+00	0	46	104	0	60	322078
2026-01-29 22:34:35.25	39.24	32.02	-61.8	-78.4	3.6	1.51e+00	0	46	104	0	60	326981
2026-01-29 22:34:39.28	39.90	32.76	-61.7	-78.4	3.6	1.51e+00	0	46	104	0	60	325882
2026-01-29 22:34:43.28	40.58	33.52	-61.6	-78.4	3.6	1.51e+00	0	46	104	0	60	326426
2026-01-29 22:34:47.31	41.30	34.29	-61.5	-78.4	3.6	1.51e+00	0	46	104	0	60	325532
2026-01-29 22:34:51.34	42.05	35.08	-61.4	-78.3	3.6	1.51e+00	0	46	104	0	60	323914
2026-01-29 22:34:55.36	42.84	35.89	-61.2	-78.3	3.6	1.51e+00	0	46	104	0	60	321324
2026-01-29 22:34:59.37	43.66	36.70	-61.1	-78.2	3.6	1.51e+00	0	46	104	0	60	318257
2026-01-29 22:35:03.39	44.53	37.53	-61.1	-78.2	3.6	1.51e+00	0	46	104	0	60	319464
2026-01-29 22:35:07.41	45.44	38.38	-61.0	-78.1	3.6	1.51e+00	0	46	104	0	60	315255
2026-01-29 22:35:11.43	46.40	39.23	-60.9	-78.2	3.6	1.51e+00	0	46	104	0	60	319535
2026-01-29 22:35:15.45	47.42	40.10	-60.9	-78.4	3.5	1.51e+00	0	46	104	0	60	326352
2026-01-29 22:35:19.47	48.48	40.98	-61.0	-78.4	3.6	1.51e+00	0	46	104	0	60	324605
2026-01-29 22:35:23.48	49.61	41.87	-61.0	-78.4	3.6	1.51e+00	0	46	104	0	60	325257
2026-01-29 22:35:27.50	50.80	42.78	-61.2	-78.4	3.6	1.51e+00	0	46	104	0	60	324118
2026-01-29 22:35:31.51	52.05	43.68	-61.3	-78.3	3.6	1.51e+00	0	46	104	0	60	323294
2026-01-29 22:35:35.53	53.38	44.60	-61.5	-78.3	3.6	1.51e+00	0	46	104	0	60	323631
2026-01-29 22:35:39.54	54.78	45.51	-61.6	-78.4	3.6	1.51e+00	0	46	104	0	60	324318
2026-01-29 22:35:43.56	56.28	46.44	-61.7	-78.4	3.6	1.51e+00	0	46	104	0	60	326687
2026-01-29 22:35:47.56	57.85	47.35	-61.8	-78.4	3.6	1.51e+00	0	46	104	0	60	326924
2026-01-29 22:35:51.58	59.52	48.26	-61.8	-78.4	3.6	1.51e+00	0	46	104	0	60	324595
2026-01-29 22:35:55.59	61.29	49.17	-61.8	-78.3	3.6	1.51e+00	0	46	104	0	60	323239
2026-01-29 22:35:59.60	63.17	50.06	-61.7	-78.3	3.6	1.51e+00	0	46	104	0	60	320987
2026-01-29 22:36:03.61	65.16	50.94	-61.7	-78.2	3.6	1.51e+00	0	46	104	0	60	319680
2026-01-29 22:36:07.62	67.26	51.79	-61.8	-78.3	3.6	1.51e+00	0	46	104	0	60	322359
2026-01-29 22:36:11.63	69.49	52.62	-61.8	-78.3	3.6	1.51e+00	0	46	104	0	60	322299
2026-01-29 22:36:15.65	71.84	53.42	-61.8	-78.3	3.6	1.51e+00	0	46	104	0	60	322726
2026-01-29 22:36:19.67	74.33	54.17	-61.7	-78.3	3.6	1.51e+00	0	46	104	0	60	322258
2026-01-29 22:36:23.67	76.93	54.88	-61.7	-78.2	3.6	1.51e+00	0	46	104	0	60	319189
2026-01-29 22:36:27.69	79.68	55.54	-61.7	-78.2	3.6	1.51e+00	0	46	104	0	60	319765
2026-01-29 22:36:31.71	82.55	56.14	-61.7	-78.2	3.6	1.51e+00	0	46	104	0	60	317954
2026-01-29 22:36:35.74	85.54	56.68	-61.7	-78.3	3.6	1.51e+00	0	46	104	0	60	320855
2026-01-29 22:36:39.77	88.65	57.15	-61.7	-78.2	3.6	1.51e+00	0	46	104	0	60	319668
2026-01-29 22:36:43.79	91.85	57.53	-61.7	-78.3	3.6	1.51e+00	0	46	104	0	60	320789
2026-01-29 22:36:47.81	95.12	57.83	-61.8	-78.3	3.6	1.51e+00	0	46	104	0	60	320852
2026-01-29 22:36:51.84	98.47	58.05	-61.8	-78.3	3.6	1.51e+00	0	46	104	0	60	321992
2026-01-29 22:36:55.87	101.87	58.17	-61.8	-78.2	3.6	1.51e+00	0	46	104	0	60	320219
2026-01-29 22:36:59.89	105.27	58.20	-61.7	-78.3	3.6	1.51e+00	0	46	104	0	60	323196
2026-01-29 22:37:03.90	108.66	58.14	-61.6	-78.3	3.6	1.51e+00	0	46	104	0	60	322811
2026-01-29 22:37:07.93	112.04	57.98	-61.5	-78.3	3.6	1.51e+00	0	46	104	0	60	323215
2026-01-29 22:37:11.95	115.37	57.74	-61.4	-78.3	3.6	1.51e+00	0	46	104	0	60	323142
2026-01-29 22:37:15.97	118.62	57.41	-61.4	-78.4	3.6	1.51e+00	0	46	104	0	60	324887
2026-01-29 22:37:20.01	121.80	56.99	-61.3	-78.3	3.6	1.51e+00	0	46	104	0	60	323907
2026-01-29 22:37:24.03	124.87	56.50	-61.3	-78.3	3.6	1.51e+00	0	46	104	0	60	322720
2026-01-29 22:37:28.05	127.82	55.94	-61.4	-78.3	3.6	1.51e+00	0	46	104	0	60	321888
2026-01-29 22:37:32.08	130.65	55.31	-61.4	-78.2	3.6	1.51e+00	0	46	104	0	60	319508
2026-01-29 22:37:36.12	133.37	54.63	-61.5	-78.3	3.6	1.51e+00	0	46	104	0	60	323421
2026-01-29 22:37:40.14	135.94	53.90	-61.6	-78.4	3.6	1.51e+00	0	46	104	0	60	324642
2026-01-29 22:37:44.16	138.38	53.12	-61.6	-78.3	3.6	1.51e+00	0	46	104	0	60	323013
2026-01-29 22:37:48.19	140.71	52.31	-61.5	-78.3	3.6	1.51e+00	0	46	104	0	60	322495
2026-01-29 22:37:52.21	142.89	51.47	-61.4	-78.2	3.6	1.51e+00	0	46	104	0	60	319424
2026-01-29 22:37:56.24	144.97	50.60	-61.1	-78.0	3.6	1.51e+00	0	46	104	0	60	310985
2026-01-29 22:38:00.26	146.92	49.71	-61.1	-78.0	3.6	1.51e+00	0	46	104	0	60	310679
2026-01-29 22:38:04.29	148.77	48.80	-61.0	-77.8	3.6	1.51e+00	0	46	104	0	60	303679
2026-01-29 22:38:08.31	150.51	47.89	-60.9	-77.8	3.6	1.51e+00	0	46	104	0	60	303965
2026-01-29 22:38:12.33	152.15	46.97	-60.9	-77.9	3.6	1.51e+00	0	46	104	0	60	306359
2026-01-29 22:38:16.35	153.69	46.05	-60.8	-77.9	3.6	1.51e+00	0	46	104	0	60	305894
2026-01-29 22:38:20.37	155.15	45.12	-60.5	-77.7	3.6	1.51e+00	0	46	104	0	60	300455
2026-01-29 22:38:24.40	156.53	44.20	-60.4	-77.8	3.6	1.51e+00	0	46	104	0	60	304118
2026-01-29 22:38:28.43	157.84	43.28	-60.4	-77.7	3.6	1.51e+00	0	46	104	0	60	300072
2026-01-29 22:38:32.45	159.07	42.37	-60.4	-77.5	3.6	1.51e+00	0	46	104	0	60	294853
2026-01-29 22:38:36.48	160.24	41.47	-60.3	-77.6	3.6	1.51e+00	0	46	104	0	60	295742
2026-01-29 22:38:40.50	161.34	40.58	-60.2	-77.7	3.6	1.51e+00	0	46	104	0	60	299049
2026-01-29 22:38:44.52	162.39	39.70	-60.2	-77.8	3.6	1.51e+00	0	46	104	0	60	303323
2026-01-29 22:38:48.55	163.38	38.83	-60.3	-77.9	3.6	1.51e+00	0	46	104	0	60	308540
2026-01-29 22:38:52.58	164.32	37.97	-60.5	-77.9	3.6	1.51e+00	0	46	104	0	60	308065
2026-01-29 22:38:56.60	165.22	37.13	-60.6	-78.0	3.6	1.51e+00	0	46	104	0	60	312974
2026-01-29 22:39:00.63	166.07	36.30	-60.6	-78.0	3.6	1.51e+00	0	46	104	0	60	311944
2026-01-29 22:39:04.67	166.89	35.48	-60.9	-78.1	3.6	1.51e+00	0	46	104	0	60	313176
2026-01-29 22:39:08.69	167.66	34.68	-61.0	-78.1	3.6	1.51e+00	0	46	104	0	60	313803
2026-01-29 22:39:12.71	168.39	33.90	-61.0	-78.0	3.6	1.51e+00	0	46	104	0	60	311953
2026-01-29 22:39:16.74	169.10	33.12	-61.2	-78.0	3.6	1.51e+00	0	46	104	0	60	311649
2026-01-29 22:39:20.76	169.77	32.37	-61.3	-78.1	3.6	1.51e+00	0	46	104	0	60	313939
2026-01-29 22:39:24.79	170.41	31.63	-61.3	-78.0	3.6	1.51e+00	0	46	104	0	60	311320
2026-01-29 22:39:28.81	171.03	30.90	-61.3	-78.0	3.6	1.51e+00	0	46	104	0	60	311157
2026-01-29 22:39:32.83	171.61	30.19	-61.3	-78.0	3.6	1.51e+00	0	46	104	0	60	309924
2026-01-29 22:39:36.86	172.18	29.49	-61.4	-77.9	3.6	1.51e+00	0	46	104	0	60	307502
2026-01-29 22:39:40.88	172.72	28.81	-61.4	-77.9	3.6	1.51e+00	0	46	104	0	60	307633
2026-01-29 22:39:44.91	173.24	28.14	-61.4	-78.0	3.6	1.51e+00	0	46	104	0	60	309739
2026-01-29 22:39:48.93	173.74	27.48	-61.4	-78.0	3.6	1.51e+00	0	46	104	0	60	310531
2026-01-29 22:39:52.96	174.22	26.84	-61.3	-77.9	3.5	1.51e+00	0	46	104	0	60	308941
2026-01-29 22:39:56.99	174.68	26.21	-61.1	-77.9	3.6	1.51e+00	0	46	104	0	60	308259
2026-01-29 22:40:01.01	175.13	25.59	-60.8	-77.8	3.6	1.51e+00	0	46	104	0	60	304917
2026-01-29 22:40:05.04	175.56	24.98	-60.5	-77.8	3.6	1.51e+00	0	46	104	0	60	303592
2026-01-29 22:40:09.07	175.97	24.39	-60.3	-77.7	3.5	1.51e+00	0	46	104	0	60	301678
2026-01-29 22:40:13.10	176.37	23.81	-60.1	-77.7	3.6	1.51e+00	0	46	104	0	60	299184
2026-01-29 22:40:17.12	176.75	23.24	-60.1	-77.5	3.6	1.51e+00	0	46	104	0	60	294400
2026-01-29 22:40:21.16	177.13	22.68	-60.3	-77.6	3.6	1.51e+00	0	46	104	0	60	297360
2026-01-29 22:40:25.19	177.49	22.13	-60.6	-77.5	3.6	1.51e+00	0	46	104	0	60	295057
2026-01-29 22:40:29.21	177.84	21.59	-60.9	-77.8	3.6	1.51e+00	0	46	104	0	60	303627
2026-01-29 22:40:33.24	178.17	21.06	-61.2	-77.9	3.6	1.51e+00	0	46	104	0	60	306661
2026-01-29 22:40:37.27	178.50	20.55	-61.2	-77.9	3.6	1.51e+00	0	46	104	0	60	308516
2026-01-29 22:40:41.31	178.82	20.04	-61.1	-77.9	3.6	1.51e+00	0	46	104	0	60	307780
2026-01-29 22:40:45.34	179.12	19.54	-61.1	-77.9	3.6	1.51e+00	0	46	104	0	60	305991
2026-01-29 22:40:49.37	179.42	19.05	-61.0	-77.8	3.6	1.51e+00	0	46	104	0	60	303495
2026-01-29 22:40:53.39	179.71	18.57	-61.0	-77.8	3.6	1.51e+00	0	46	104	0	60	303013
2026-01-29 22:40:57.40	179.99	18.10	-61.1	-77.7	3.6	1.51e+00	0	46	104	0	60	301160
2026-01-29 22:41:01.44	180.26	17.63	-61.1	-77.6	3.6	1.51e+00	0	46	104	0	60	297520
2026-01-29 22:41:05.46	180.52	17.18	-61.1	-77.6	3.6	1.51e+00	0	46	104	0	60	298857
2026-01-29 22:41:09.48	180.78	16.73	-61.1	-77.7	3.6	1.51e+00	0	46	104	0	60	299244
2026-01-29 22:41:13.51	181.03	16.29	-61.1	-77.6	3.6	1.51e+00	0	46	104	0	60	298339
2026-01-29 22:41:17.53	181.27	15.86	-61.0	-77.7	3.6	1.51e+00	0	46	104	0	60	300001
2026-01-29 22:41:21.55	181.51	15.43	-61.0	-77.8	3.6	1.51e+00	0	46	104	0	60	305533
2026-01-29 22:41:25.58	181.74	15.01	-60.9	-77.7	3.6	1.51e+00	0	46	104	0	60	301322
2026-01-29 22:41:29.60	181.97	14.60	-60.7	-77.8	3.6	1.51e+00	0	46	104	0	60	305021
2026-01-29 22:41:33.64	182.19	14.19	-60.3	-77.7	3.6	1.51e+00	0	46	104	0	60	298943
2026-01-29 22:41:37.66	182.40	13.80	-59.8	-77.7	3.6	1.51e+00	0	46	104	0	60	300837
2026-01-29 22:41:41.68	182.61	13.40	-59.5	-77.5	3.6	1.51e+00	0	46	104	0	60	294969
2026-01-29 22:41:45.70	182.81	13.02	-59.1	-77.4	3.6	1.51e+00	0	46	104	0	60	289176
2026-01-29 22:41:49.74	183.01	12.63	-59.2	-77.6	3.6	1.51e+00	0	46	104	0	60	296979
2026-01-29 22:41:53.77	183.20	12.26	-59.3	-77.4	3.6	1.51e+00	0	46	104	0	60	291374
2026-01-29 22:41:57.79	183.39	11.89	-59.5	-77.4	3.6	1.51e+00	0	46	104	0	60	291863
2026-01-29 22:42:01.82	183.58	11.52	-59.7	-77.7	3.6	1.51e+00	0	46	104	0	60	300456
2026-01-29 22:42:05.85	183.76	11.16	-60.2	-77.8	3.6	1.51e+00	0	46	104	0	60	305668
2026-01-29 22:42:09.88	183.94	10.81	-60.8	-78.0	3.6	1.51e+00	0	46	104	0	60	310144
2026-01-29 22:42:13.90	184.11	10.46	-61.1	-78.0	3.6	1.51e+00	0	46	104	0	60	311674
2026-01-29 22:42:17.93	184.28	10.11	-61.4	-78.0	3.6	1.51e+00	0	46	104	0	60	312131
2026-01-29 22:42:21.96	184.45	9.77	-61.5	-78.0	3.6	1.51e+00	0	46	104	0	60	310120
2026-01-29 22:42:25.98	184.61	9.43	-61.3	-77.7	3.6	1.51e+00	0	46	104	0	60	302209
2026-01-29 22:42:30.00	184.77	9.10	-60.8	-77.6	3.6	1.51e+00	0	46	104	0	60	297716
2026-01-29 22:42:34.01	184.92	8.78	-60.3	-77.3	3.6	1.51e+00	0	46	104	0	60	286810
2026-01-29 22:42:38.04	185.07	8.45	-59.8	-77.2	3.6	1.51e+00	0	46	104	0	60	284899
2026-01-29 22:42:42.07	185.22	8.13	-59.5	-77.0	3.6	1.51e+00	0	46	104	0	60	277784
2026-01-29 22:42:46.09	185.37	7.82	-59.3	-77.1	3.6	1.51e+00	0	46	104	0	60	281442
2026-01-29 22:42:50.11	185.51	7.50	-59.2	-76.9	3.6	1.51e+00	0	46	104	0	60	273474
2026-01-29 22:42:54.14	185.66	7.20	-59.3	-77.2	3.6	1.51e+00	0	46	104	0	60	282214
2026-01-29 22:42:58.17	185.79	6.89	-59.4	-77.0	3.6	1.51e+00	0	46	104	0	60	275793
2026-01-29 22:43:02.19	185.93	6.59	-59.6	-77.1	3.6	1.51e+00	0	46	104	0	60	280998
2026-01-29 22:43:06.22	186.06	6.29	-59.7	-77.2	3.6	1.51e+00	0	46	104	0	60	284015
2026-01-29 22:43:10.24	186.19	6.00	-59.8	-77.2	3.6	1.51e+00	0	46	104	0	60	284738
2026-01-29 22:43:14.27	186.32	5.70	-59.7	-77.3	3.6	1.51e+00	0	46	104	0	60	287135
2026-01-29 22:43:18.30	186.45	5.42	-59.7	-77.3	3.6	1.51e+00	0	46	104	0	60	287702
2026-01-29 22:43:22.32	186.57	5.13	-59.9	-77.3	3.5	1.51e+00	0	46	104	0	60	288188
2026-01-29 22:43:26.34	186.70	4.85	-60.1	-77.4	3.6	1.51e+00	0	46	104	0	60	292089
2026-01-29 22:43:30.37	186.82	4.57	-60.4	-77.4	3.6	1.51e+00	0	46	104	0	60	290410
2026-01-29 22:43:34.40	186.93	4.29	-60.5	-77.6	3.6	1.51e+00	0	46	104	0	60	296467
2026-01-29 22:43:38.42	187.05	4.02	-60.4	-77.6	3.6	1.51e+00	0	46	104	0	60	296590
2026-01-29 22:43:42.43	187.16	3.75	-60.2	-77.3	3.6	1.51e+00	0	46	104	0	60	288344
2026-01-29 22:43:46.44	187.28	3.48	-60.1	-77.2	3.6	1.51e+00	0	46	104	0	60	283065
2026-01-29 22:43:50.46	187.39	3.21	-60.2	-77.0	3.6	1.51e+00	0	46	104	0	60	276641
2026-01-29 22:43:54.48	187.50	2.95	-60.4	-77.1	3.6	1.51e+00	0	46	104	0	60	279014
2026-01-29 22:43:58.50	187.60	2.69	-60.6	-77.0	3.6	1.51e+00	0	46	104	0	60	277761
2026-01-29 22:44:02.53	187.71	2.43	-60.7	-77.2	3.5	1.51e+00	0	46	104	0	60	282453
2026-01-29 22:44:06.55	187.81	2.17	-60.9	-77.4	3.6	1.51e+00	0	46	104	0	60	291439
2026-01-29 22:44:10.58	187.92	1.92	-60.9	-77.4	3.6	1.51e+00	0	46	104	0	60	291874
2026-01-29 22:44:14.59	188.02	1.67	-60.8	-77.5	3.6	1.51e+00	0	46	104	0	60	293116
2026-01-29 22:44:18.61	188.12	1.42	-60.6	-77.5	3.6	1.51e+00	0	46	104	0	60	294315
2026-01-29 22:44:22.63	188.21	1.17	-60.4	-77.6	3.6	1.51e+00	0	46	104	0	60	296080
2026-01-29 22:44:26.66	188.31	0.92	-60.3	-77.5	3.6	1.51e+00	0	46	104	0	60	294521
2026-01-29 22:44:30.68	188.40	0.68	-60.4	-77.6	3.6	1.51e+00	0	46	104	0	60	295634
2026-01-29 22:44:34.72	188.50	0.44	-60.6	-77.6	3.6	1.51e+00	0	46	104	0	60	297245
2026-01-29 22:44:38.75	188.59	0.20	-60.8	-77.6	3.6	1.51e+00	0	46	104	0	60	295547
2026-01-29 22:44:42.77	188.68	-0.04	-60.9	-77.5	3.6	1.51e+00	0	46	104	0	60	292452

#Closed at: 2026-01-29 22:44:43
#Recorded file [0 MB]: D:/Data/35015_260130_013214.dat