passes_logs/2026/01/29/R3.2S-Naryan-Mar/R3.2S-Naryan-Mar__20260129_213847_NOAA_21_JPSS-2_rec.log

#Pass ID: 20260129_213847_NOAA 21 (JPSS-2)
#Satellite: NOAA 21 (JPSS-2)
#Configuration: NOAA-21
#almurnet v.1.7.20240730
#Start time: 2026-01-29 21:38:49

#Version: 2.2.20231116
#Station: R3.2S-Naryan-Mar
#Location: 53.008057 lon 67.646978 lat
#TLE: 1 54234U 22150A   26028.89828222  .00000145  00000+0  89569-4 0  9997
#TLE: 2 54234  98.7511 329.6308 0000927 198.8651 161.2491 14.19540676166783

#Time	Az	El	Level	Level2	SNR	BER	BlckErr	Temp	State	Recorded	gain1	gain2
2026-01-29 21:38:49.66	18.34	0.11	-63.1	-79.3	3.5	1.51e+00	0	43	0	0	60	361835
2026-01-29 21:38:53.68	18.53	0.33	-62.8	-76.8	3.5	1.52e+00	0	45	104	0	60	264193
2026-01-29 21:38:57.71	18.71	0.56	-62.9	-76.9	3.5	1.52e+00	0	45	104	0	60	265904
2026-01-29 21:39:01.73	18.90	0.79	-63.0	-77.0	3.5	1.52e+00	0	45	104	0	60	268225
2026-01-29 21:39:05.76	19.10	1.02	-62.8	-76.8	3.5	1.52e+00	0	45	104	0	60	262195
2026-01-29 21:39:09.78	19.29	1.25	-62.1	-76.1	3.5	1.52e+00	0	45	104	0	60	242149
2026-01-29 21:39:13.80	19.49	1.48	-62.0	-75.9	3.5	1.52e+00	0	45	104	0	60	236619
2026-01-29 21:39:17.83	19.69	1.72	-61.7	-75.6	3.5	1.52e+00	0	45	104	0	60	229561
2026-01-29 21:39:21.86	19.89	1.95	-60.8	-75.2	3.5	1.52e+00	0	45	104	0	60	218816
2026-01-29 21:39:25.88	20.10	2.19	-60.2	-74.6	3.5	1.52e+00	0	45	104	0	60	205366
2026-01-29 21:39:29.91	20.31	2.43	-60.1	-74.5	3.5	1.52e+00	0	45	104	0	60	202339
2026-01-29 21:39:33.93	20.52	2.67	-60.0	-74.4	3.5	1.51e+00	0	45	104	0	60	198526
2026-01-29 21:39:37.96	20.74	2.92	-59.9	-74.4	3.5	1.52e+00	0	45	104	0	60	199479
2026-01-29 21:39:41.99	20.96	3.16	-60.0	-74.5	3.5	1.52e+00	0	45	104	0	60	201104
2026-01-29 21:39:46.01	21.18	3.41	-60.0	-74.4	3.5	1.52e+00	0	45	104	0	60	199435
2026-01-29 21:39:50.05	21.41	3.66	-60.0	-74.4	3.5	1.52e+00	0	46	104	0	60	198989
2026-01-29 21:39:54.08	21.64	3.91	-59.9	-74.0	3.5	1.52e+00	0	46	104	0	60	189987
2026-01-29 21:39:58.10	21.87	4.16	-59.9	-74.3	3.5	1.52e+00	0	46	104	0	60	197078
2026-01-29 21:40:02.13	22.11	4.42	-59.9	-74.3	3.5	1.52e+00	0	46	104	0	60	197123
2026-01-29 21:40:06.16	22.35	4.68	-59.8	-74.4	3.5	1.51e+00	0	46	104	0	60	199040
2026-01-29 21:40:10.19	22.60	4.94	-59.6	-73.6	3.5	1.51e+00	0	46	104	0	60	181601
2026-01-29 21:40:14.22	22.85	5.20	-59.7	-72.2	3.7	1.50e+00	0	46	104	0	60	155164
2026-01-29 21:40:18.24	23.10	5.46	-58.3	-63.6	9.6	2.53e-02	0	46	0	5242880	60	57426
2026-01-29 21:40:22.27	23.36	5.73	-55.2	-57.8	15.9	0.00e+00	0	46	0	17825792	60	29502
2026-01-29 21:40:26.30	23.62	6.00	-54.0	-56.0	17.5	0.00e+00	0	46	0	30408704	60	24025
2026-01-29 21:40:30.32	23.89	6.27	-57.2	-60.9	12.4	9.90e-06	0	46	0	42991616	60	42173
2026-01-29 21:40:34.34	24.16	6.54	-54.2	-56.2	17.5	0.00e+00	0	46	0	55574528	60	24440
2026-01-29 21:40:38.36	24.43	6.81	-53.8	-55.6	18.3	0.00e+00	0	46	0	68157440	60	22801
2026-01-29 21:40:42.38	24.71	7.09	-53.7	-55.6	18.1	0.00e+00	0	46	0	80740352	60	22846
2026-01-29 21:40:46.41	25.00	7.37	-53.8	-55.5	18.4	0.00e+00	0	46	0	93323264	60	22792
2026-01-29 21:40:50.43	25.29	7.65	-53.8	-55.7	18.2	0.00e+00	0	46	0	105906176	60	23116
2026-01-29 21:40:54.45	25.59	7.94	-53.6	-55.3	18.6	0.00e+00	0	46	0	118489088	60	22107
2026-01-29 21:40:58.47	25.89	8.23	-53.3	-55.0	18.8	0.00e+00	0	46	0	131072000	60	21354
2026-01-29 21:41:02.50	26.19	8.52	-53.4	-55.0	18.8	0.00e+00	0	46	0	143654912	60	21446
2026-01-29 21:41:06.53	26.51	8.81	-53.1	-54.6	19.3	0.00e+00	0	46	0	156237824	60	20542
2026-01-29 21:41:10.56	26.83	9.11	-53.1	-54.7	19.2	0.00e+00	0	46	0	168820736	60	20680
2026-01-29 21:41:14.58	27.15	9.41	-53.0	-54.5	19.4	0.00e+00	0	46	0	181403648	60	20274
2026-01-29 21:41:18.61	27.49	9.71	-53.0	-54.6	19.4	0.00e+00	0	46	0	193986560	60	20431
2026-01-29 21:41:22.64	27.82	10.01	-52.9	-54.5	19.6	0.00e+00	0	46	0	206569472	60	20170
2026-01-29 21:41:26.67	28.17	10.32	-53.1	-54.7	19.5	0.00e+00	0	46	0	219152384	60	20564
2026-01-29 21:41:30.70	28.52	10.63	-52.4	-53.9	20.1	0.00e+00	0	46	0	231735296	60	18860
2026-01-29 21:41:34.73	28.88	10.95	-52.5	-54.0	19.9	0.00e+00	0	46	0	244318208	60	19118
2026-01-29 21:41:38.76	29.25	11.26	-52.5	-53.9	20.1	0.00e+00	0	46	0	256901120	60	18872
2026-01-29 21:41:42.78	29.62	11.58	-52.3	-53.7	20.1	0.00e+00	0	46	0	269484032	60	18449
2026-01-29 21:41:46.81	30.01	11.91	-52.2	-53.6	20.2	0.00e+00	0	46	0	282066944	60	18182
2026-01-29 21:41:50.84	30.40	12.23	-52.3	-53.7	20.3	0.00e+00	0	46	0	294649856	60	18409
2026-01-29 21:41:54.87	30.80	12.56	-52.4	-53.8	20.1	0.00e+00	0	46	0	307232768	60	18706
2026-01-29 21:41:58.90	31.20	12.90	-52.7	-54.1	19.9	0.00e+00	0	46	0	319815680	60	19378
2026-01-29 21:42:02.92	31.62	13.23	-53.2	-54.7	19.4	0.00e+00	0	46	0	332398592	60	20695
2026-01-29 21:42:06.96	32.05	13.57	-53.4	-55.0	19.2	0.00e+00	0	46	0	344981504	60	21415
2026-01-29 21:42:10.99	32.48	13.92	-54.0	-55.6	18.5	0.00e+00	0	46	0	357564416	60	23021
2026-01-29 21:42:15.02	32.93	14.26	-54.5	-56.3	17.9	0.00e+00	0	46	0	370147328	60	24805
2026-01-29 21:42:19.05	33.38	14.61	-54.5	-56.4	17.8	0.00e+00	0	46	0	382730240	60	25000
2026-01-29 21:42:23.08	33.85	14.97	-55.3	-57.4	16.9	0.00e+00	0	46	0	395313152	60	28177
2026-01-29 21:42:27.10	34.32	15.32	-55.9	-58.2	15.8	0.00e+00	0	46	0	407896064	60	30898
2026-01-29 21:42:31.13	34.81	15.69	-56.3	-58.9	15.4	0.00e+00	0	46	0	420478976	60	33373
2026-01-29 21:42:35.15	35.31	16.05	-55.9	-58.2	16.0	0.00e+00	0	46	0	433061888	60	30831
2026-01-29 21:42:39.18	35.82	16.42	-53.7	-55.4	18.7	0.00e+00	0	46	0	445644800	60	22358
2026-01-29 21:42:43.20	36.34	16.79	-52.6	-54.0	19.9	0.00e+00	0	46	0	458227712	60	19144
2026-01-29 21:42:47.22	36.87	17.16	-51.9	-53.2	20.8	0.00e+00	0	46	0	470810624	60	17423
2026-01-29 21:42:51.25	37.42	17.54	-52.2	-53.7	20.3	0.00e+00	0	46	0	483393536	60	18328
2026-01-29 21:42:55.28	37.99	17.92	-52.0	-53.5	20.2	0.00e+00	0	46	0	495976448	60	17925
2026-01-29 21:42:59.31	38.56	18.30	-52.1	-53.6	20.5	0.00e+00	0	46	0	508559360	60	18108
2026-01-29 21:43:03.34	39.15	18.69	-52.2	-53.7	20.2	0.00e+00	0	46	0	521142272	60	18506
2026-01-29 21:43:07.35	39.75	19.08	-52.5	-54.0	20.0	0.00e+00	0	46	0	533725184	60	19037
2026-01-29 21:43:11.38	40.37	19.48	-52.5	-53.9	20.3	0.00e+00	0	46	0	546308096	60	18827
2026-01-29 21:43:15.40	41.01	19.87	-52.8	-54.4	19.7	0.00e+00	0	46	0	558891008	60	19894
2026-01-29 21:43:19.42	41.66	20.27	-52.1	-53.8	19.6	0.00e+00	0	46	0	571473920	60	18546
2026-01-29 21:43:23.45	42.33	20.67	-51.7	-53.5	19.5	0.00e+00	0	46	0	584056832	60	17911
2026-01-29 21:43:27.48	43.01	21.08	-51.0	-52.5	21.2	0.00e+00	0	46	0	596639744	60	16028
2026-01-29 21:43:31.51	43.72	21.49	-51.4	-52.7	21.3	0.00e+00	0	46	0	609222656	60	16358
2026-01-29 21:43:35.54	44.44	21.90	-51.0	-52.3	21.8	0.00e+00	0	46	0	621805568	60	15630
2026-01-29 21:43:39.56	45.18	22.31	-51.1	-52.4	21.8	0.00e+00	0	46	0	634388480	60	15774
2026-01-29 21:43:43.58	45.94	22.72	-51.3	-52.6	21.6	0.00e+00	0	46	0	646971392	60	16197
2026-01-29 21:43:47.60	46.72	23.14	-50.7	-52.0	21.8	0.00e+00	0	46	0	659554304	60	15060
2026-01-29 21:43:51.62	47.52	23.55	-50.6	-52.0	21.7	0.00e+00	0	46	0	672137216	60	15169
2026-01-29 21:43:55.64	48.34	23.97	-51.2	-52.5	21.6	0.00e+00	0	46	0	684720128	60	16015
2026-01-29 21:43:59.66	49.18	24.39	-50.7	-52.0	22.1	0.00e+00	0	46	0	697303040	60	15071
2026-01-29 21:44:03.69	50.05	24.81	-51.1	-52.3	21.9	0.00e+00	0	46	0	709885952	60	15745
2026-01-29 21:44:07.71	50.93	25.22	-51.6	-52.9	21.5	0.00e+00	0	46	0	722468864	60	16792
2026-01-29 21:44:11.73	51.84	25.64	-51.9	-53.3	21.2	0.00e+00	0	46	0	735051776	60	17544
2026-01-29 21:44:15.74	52.77	26.06	-51.5	-52.8	21.4	0.00e+00	0	46	0	747634688	60	16669
2026-01-29 21:44:19.77	53.73	26.47	-51.5	-52.8	21.8	0.00e+00	0	46	0	760217600	60	16535
2026-01-29 21:44:23.79	54.72	26.88	-51.8	-53.1	21.7	0.00e+00	0	46	0	772800512	60	17161
2026-01-29 21:44:27.82	55.73	27.29	-52.1	-53.4	21.7	0.00e+00	0	46	0	785383424	60	17789
2026-01-29 21:44:31.84	56.76	27.70	-51.8	-53.0	21.8	0.00e+00	0	46	0	797966336	60	17058
2026-01-29 21:44:35.87	57.82	28.10	-52.5	-53.9	21.3	0.00e+00	0	46	0	810549248	60	18881
2026-01-29 21:44:39.91	58.91	28.50	-53.0	-54.4	21.1	0.00e+00	0	46	0	823132160	60	19855
2026-01-29 21:44:43.92	60.02	28.89	-53.1	-54.3	21.4	0.00e+00	0	46	0	835715072	60	19823
2026-01-29 21:44:47.95	61.17	29.28	-53.1	-54.3	21.5	0.00e+00	0	46	0	848297984	60	19793
2026-01-29 21:44:51.98	62.33	29.66	-53.4	-54.6	21.6	0.00e+00	0	46	0	860880896	60	20492
2026-01-29 21:44:56.00	63.53	30.03	-52.6	-53.8	21.8	0.00e+00	0	46	0	873463808	60	18543
2026-01-29 21:45:00.03	64.75	30.39	-52.7	-53.9	21.9	0.00e+00	0	46	0	886046720	60	18907
2026-01-29 21:45:04.06	66.00	30.74	-52.7	-53.9	21.6	0.00e+00	0	46	0	898629632	60	18851
2026-01-29 21:45:08.08	67.28	31.08	-52.9	-54.1	21.4	0.00e+00	0	46	0	911212544	60	19342
2026-01-29 21:45:12.11	68.58	31.41	-53.9	-55.2	20.7	0.00e+00	0	46	0	923795456	60	21962
2026-01-29 21:45:16.12	69.90	31.73	-54.2	-55.6	20.4	0.00e+00	0	46	0	936378368	60	22797
2026-01-29 21:45:20.15	71.26	32.03	-53.1	-54.4	21.3	0.00e+00	0	46	0	948961280	60	19924
2026-01-29 21:45:24.18	72.64	32.32	-54.0	-55.3	20.7	0.00e+00	0	46	0	961544192	60	22235
2026-01-29 21:45:28.21	74.04	32.59	-53.7	-55.1	20.6	0.00e+00	0	46	0	974127104	60	21550
2026-01-29 21:45:32.24	75.46	32.85	-53.2	-54.4	21.4	0.00e+00	0	46	0	986710016	60	20031
2026-01-29 21:45:36.26	76.91	33.09	-53.8	-55.2	21.0	0.00e+00	0	46	0	999292928	60	21794
2026-01-29 21:45:40.29	78.38	33.31	-53.4	-54.7	21.2	0.00e+00	0	46	0	1011875840	60	20722
2026-01-29 21:45:44.32	79.86	33.51	-53.6	-54.9	21.3	0.00e+00	0	46	0	1024458752	60	21088
2026-01-29 21:45:48.35	81.37	33.69	-54.1	-55.5	20.8	0.00e+00	0	46	0	1037041664	60	22632
2026-01-29 21:45:52.38	82.89	33.85	-53.8	-55.1	21.2	0.00e+00	0	46	0	1049624576	60	21711
2026-01-29 21:45:56.40	84.42	33.99	-54.6	-55.8	21.3	0.00e+00	0	46	0	1062207488	60	23519
2026-01-29 21:46:00.44	85.97	34.11	-54.8	-56.1	20.9	0.00e+00	0	46	0	1074790400	60	24415
2026-01-29 21:46:04.47	87.53	34.20	-55.0	-56.4	20.4	0.00e+00	0	46	0	1087373312	60	25216
2026-01-29 21:46:08.49	89.09	34.28	-54.4	-55.7	21.1	0.00e+00	0	46	0	1099956224	60	23285
2026-01-29 21:46:12.52	90.66	34.32	-54.3	-55.6	21.1	0.00e+00	0	46	0	1112539136	60	22933
2026-01-29 21:46:16.54	92.23	34.35	-55.0	-56.4	20.4	0.00e+00	0	46	0	1125122048	60	25014
2026-01-29 21:46:20.57	93.80	34.35	-55.0	-56.4	20.3	0.00e+00	0	46	0	1137704960	60	25106
2026-01-29 21:46:24.60	95.38	34.33	-54.4	-55.7	21.0	0.00e+00	0	46	0	1150287872	60	23154
2026-01-29 21:46:28.62	96.94	34.28	-54.5	-55.8	21.1	0.00e+00	0	46	0	1162870784	60	23392
2026-01-29 21:46:32.65	98.51	34.21	-54.2	-55.5	21.0	0.00e+00	0	46	0	1175453696	60	22759
2026-01-29 21:46:36.68	100.07	34.12	-54.4	-55.8	20.7	0.00e+00	0	46	0	1188036608	60	23362
2026-01-29 21:46:40.72	101.62	34.00	-54.4	-55.8	20.6	0.00e+00	0	46	0	1200619520	60	23366
2026-01-29 21:46:44.74	103.15	33.86	-54.2	-55.5	20.9	0.00e+00	0	46	0	1213202432	60	22687
2026-01-29 21:46:48.76	104.67	33.71	-54.2	-55.5	20.8	0.00e+00	0	46	0	1225785344	60	22702
2026-01-29 21:46:52.79	106.18	33.53	-53.7	-54.9	21.4	0.00e+00	0	46	0	1238368256	60	21190
2026-01-29 21:46:56.81	107.67	33.33	-53.9	-55.3	21.1	0.00e+00	0	46	0	1250951168	60	22041
2026-01-29 21:47:00.84	109.14	33.11	-53.6	-54.9	21.3	0.00e+00	0	46	0	1263534080	60	21181
2026-01-29 21:47:04.87	110.59	32.87	-53.9	-55.2	21.0	0.00e+00	0	46	0	1276116992	60	21873
2026-01-29 21:47:08.89	112.02	32.61	-54.0	-55.3	21.1	0.00e+00	0	46	0	1288699904	60	22178
2026-01-29 21:47:12.92	113.43	32.34	-54.3	-55.7	20.5	0.00e+00	0	46	0	1301282816	60	23197
2026-01-29 21:47:16.94	114.81	32.05	-54.1	-55.5	20.7	0.00e+00	0	46	0	1313865728	60	22545
2026-01-29 21:47:20.97	116.17	31.75	-53.7	-55.0	21.2	0.00e+00	0	46	0	1326448640	60	21441
2026-01-29 21:47:25.00	117.50	31.43	-53.3	-54.6	21.5	0.00e+00	0	47	0	1339031552	60	20409
2026-01-29 21:47:29.02	118.81	31.10	-52.9	-54.2	21.8	0.00e+00	0	46	0	1351614464	60	19481
2026-01-29 21:47:33.05	120.09	30.76	-53.0	-54.2	21.8	0.00e+00	0	46	0	1364197376	60	19604
2026-01-29 21:47:37.06	121.34	30.41	-53.0	-54.2	21.7	0.00e+00	0	46	0	1376780288	60	19571
2026-01-29 21:47:41.09	122.57	30.04	-52.2	-53.4	21.9	0.00e+00	0	46	0	1389363200	60	17831
2026-01-29 21:47:45.12	123.77	29.67	-52.5	-53.7	21.9	0.00e+00	0	46	0	1401946112	60	18411
2026-01-29 21:47:49.14	124.94	29.29	-52.5	-53.7	21.7	0.00e+00	0	46	0	1414529024	60	18436
2026-01-29 21:47:53.17	126.09	28.90	-52.6	-53.9	21.6	0.00e+00	0	46	0	1427111936	60	18818
2026-01-29 21:47:57.20	127.21	28.51	-52.3	-53.5	21.9	0.00e+00	0	46	0	1439694848	60	17916
2026-01-29 21:48:01.22	128.30	28.11	-52.2	-53.4	21.9	0.00e+00	0	46	0	1452277760	60	17756
2026-01-29 21:48:05.24	129.37	27.71	-51.9	-53.1	22.2	0.00e+00	0	46	0	1464860672	60	17202
2026-01-29 21:48:09.26	130.41	27.30	-52.0	-53.2	21.8	0.00e+00	0	46	0	1477443584	60	17457
2026-01-29 21:48:13.29	131.42	26.89	-52.2	-53.4	21.7	0.00e+00	0	47	0	1490026496	60	17818
2026-01-29 21:48:17.31	132.41	26.47	-52.3	-53.5	21.7	0.00e+00	0	46	0	1502609408	60	18032
2026-01-29 21:48:21.34	133.38	26.05	-52.1	-53.3	21.8	0.00e+00	0	46	0	1515192320	60	17615
2026-01-29 21:48:25.35	134.31	25.64	-52.1	-53.4	21.7	0.00e+00	0	46	0	1527775232	60	17757
2026-01-29 21:48:29.39	135.23	25.21	-52.2	-53.5	21.4	0.00e+00	0	46	0	1540358144	60	17998
2026-01-29 21:48:33.42	136.12	24.79	-52.6	-53.9	21.1	0.00e+00	0	46	0	1552941056	60	18748
2026-01-29 21:48:37.45	136.99	24.37	-52.7	-54.0	21.0	0.00e+00	0	46	0	1565523968	60	19151
2026-01-29 21:48:41.47	137.84	23.95	-51.8	-53.1	21.7	0.00e+00	0	46	0	1578106880	60	17145
2026-01-29 21:48:45.50	138.67	23.53	-51.7	-53.0	21.9	0.00e+00	0	46	0	1590689792	60	16936
2026-01-29 21:48:49.52	139.47	23.11	-51.9	-53.1	21.7	0.00e+00	0	46	0	1603272704	60	17186
2026-01-29 21:48:53.55	140.25	22.69	-51.9	-53.2	21.6	0.00e+00	0	46	0	1615855616	60	17298
2026-01-29 21:48:57.56	141.01	22.28	-52.0	-53.3	21.5	0.00e+00	0	46	0	1628438528	60	17619
2026-01-29 21:49:01.60	141.76	21.86	-52.3	-53.6	21.2	0.00e+00	0	46	0	1641021440	60	18291
2026-01-29 21:49:05.62	142.48	21.45	-52.3	-53.6	21.1	0.00e+00	0	46	0	1653604352	60	18206
2026-01-29 21:49:09.66	143.19	21.04	-52.9	-54.3	20.5	0.00e+00	0	46	0	1666187264	60	19769
2026-01-29 21:49:13.68	143.88	20.63	-52.1	-53.4	21.2	0.00e+00	0	46	0	1678770176	60	17840
2026-01-29 21:49:17.71	144.55	20.22	-52.0	-53.3	21.3	0.00e+00	0	46	0	1691353088	60	17552
2026-01-29 21:49:21.73	145.20	19.82	-52.1	-53.4	21.2	0.00e+00	0	46	0	1703936000	60	17874
2026-01-29 21:49:25.76	145.84	19.42	-51.4	-52.6	21.8	0.00e+00	0	46	0	1716518912	60	16229
2026-01-29 21:49:29.78	146.46	19.03	-51.7	-53.0	21.3	0.00e+00	0	46	0	1729101824	60	16934
2026-01-29 21:49:33.81	147.07	18.63	-51.7	-53.0	21.5	0.00e+00	0	46	0	1741684736	60	16950
2026-01-29 21:49:37.84	147.66	18.24	-51.5	-52.8	21.6	0.00e+00	0	46	0	1754267648	60	16561
2026-01-29 21:49:41.87	148.24	17.85	-51.5	-52.8	21.6	0.00e+00	0	46	0	1766850560	60	16592
2026-01-29 21:49:45.90	148.80	17.47	-51.6	-52.9	21.6	0.00e+00	0	46	0	1779433472	60	16718
2026-01-29 21:49:49.93	149.35	17.09	-51.9	-53.1	21.4	0.00e+00	0	46	0	1792016384	60	17225
2026-01-29 21:49:53.96	149.89	16.71	-52.1	-53.4	21.2	0.00e+00	0	46	0	1804599296	60	17813
2026-01-29 21:49:57.99	150.41	16.34	-52.2	-53.5	21.0	0.00e+00	0	46	0	1817182208	60	17932
2026-01-29 21:50:02.01	150.92	15.97	-52.2	-53.5	20.7	0.00e+00	0	46	0	1829765120	60	18036
2026-01-29 21:50:06.04	151.42	15.60	-52.4	-53.7	20.5	0.00e+00	0	46	0	1842348032	60	18507
2026-01-29 21:50:10.07	151.91	15.24	-52.4	-53.7	20.7	0.00e+00	0	46	0	1854930944	60	18478
2026-01-29 21:50:14.10	152.38	14.88	-52.2	-53.6	20.8	0.00e+00	0	46	0	1867513856	60	18111
2026-01-29 21:50:18.12	152.85	14.52	-52.3	-53.6	20.6	0.00e+00	0	46	0	1880096768	60	18311
2026-01-29 21:50:22.15	153.30	14.17	-52.3	-53.8	20.4	0.00e+00	0	46	0	1892679680	60	18530
2026-01-29 21:50:26.18	153.75	13.82	-52.4	-53.8	20.2	0.00e+00	0	46	0	1905262592	60	18709
2026-01-29 21:50:30.21	154.18	13.48	-52.6	-54.0	20.2	0.00e+00	0	46	0	1917845504	60	19070
2026-01-29 21:50:34.23	154.61	13.13	-52.3	-53.7	20.4	0.00e+00	0	46	0	1930428416	60	18455
2026-01-29 21:50:38.25	155.02	12.80	-52.1	-53.5	20.7	0.00e+00	0	47	0	1943011328	60	18027
2026-01-29 21:50:42.28	155.43	12.46	-52.2	-53.6	20.6	0.00e+00	0	47	0	1955594240	60	18209
2026-01-29 21:50:46.31	155.83	12.13	-52.2	-53.6	20.7	0.00e+00	0	46	0	1968177152	60	18201
2026-01-29 21:50:50.32	156.22	11.80	-52.4	-53.7	20.4	0.00e+00	0	46	0	1980760064	60	18508
2026-01-29 21:50:54.34	156.60	11.48	-52.5	-54.0	20.0	0.00e+00	0	46	0	1993342976	60	19026
2026-01-29 21:50:58.36	156.97	11.15	-52.6	-54.0	19.8	0.00e+00	0	46	0	2005925888	60	19167
2026-01-29 21:51:02.39	157.34	10.84	-52.5	-54.0	20.0	0.00e+00	0	46	0	2018508800	60	19070
2026-01-29 21:51:06.41	157.70	10.52	-52.5	-53.9	19.9	0.00e+00	0	46	0	2031091712	60	18946
2026-01-29 21:51:10.44	158.05	10.21	-52.4	-53.9	20.0	0.00e+00	0	46	0	2043674624	60	18773
2026-01-29 21:51:14.47	158.39	9.90	-52.5	-53.9	20.0	0.00e+00	0	46	0	2056257536	60	18895
2026-01-29 21:51:18.50	158.73	9.59	-52.6	-54.1	19.7	0.00e+00	0	46	0	2068840448	60	19198
2026-01-29 21:51:22.53	159.06	9.29	-52.9	-54.4	19.3	0.00e+00	0	46	0	2081423360	60	20034
2026-01-29 21:51:26.55	159.39	8.98	-53.5	-55.1	18.7	0.00e+00	0	46	0	2094006272	60	21763
2026-01-29 21:51:30.59	159.71	8.69	-53.4	-55.1	18.6	0.00e+00	0	46	0	2106589184	60	21710
2026-01-29 21:51:34.62	160.02	8.39	-53.5	-55.2	18.5	0.00e+00	0	46	0	2119172096	60	21877
2026-01-29 21:51:38.65	160.32	8.10	-53.5	-55.3	18.3	0.00e+00	0	46	0	2131755008	60	22065
2026-01-29 21:51:42.66	160.62	7.81	-53.5	-55.2	18.3	0.00e+00	0	46	0	2144337920	60	21947
2026-01-29 21:51:46.70	160.92	7.52	-53.3	-55.1	18.4	0.00e+00	0	46	0	2156920832	60	21588
2026-01-29 21:51:50.72	161.21	7.24	-53.4	-55.2	18.3	0.00e+00	0	46	0	2169503744	60	21778
2026-01-29 21:51:54.75	161.49	6.95	-53.3	-55.0	18.4	0.00e+00	0	46	0	2182086656	60	21460
2026-01-29 21:51:58.77	161.77	6.67	-53.2	-55.0	18.4	0.00e+00	0	46	0	2194669568	60	21378
2026-01-29 21:52:02.80	162.04	6.40	-53.3	-55.1	18.2	0.00e+00	0	46	0	2207252480	60	21573
2026-01-29 21:52:06.82	162.31	6.12	-53.5	-55.4	17.9	0.00e+00	0	46	0	2219835392	60	22338
2026-01-29 21:52:10.84	162.58	5.85	-61.0	-75.0	3.5	1.52e+00	0	46	104	2226126848	60	212726
2026-01-29 21:52:14.86	162.84	5.58	-62.0	-76.0	3.5	1.52e+00	0	47	104	2226126848	60	239918
2026-01-29 21:52:18.88	163.09	5.31	-62.5	-76.5	3.5	1.52e+00	0	47	104	2226126848	60	253002
2026-01-29 21:52:22.91	163.34	5.05	-62.7	-76.6	3.5	1.52e+00	0	46	104	2226126848	60	257701
2026-01-29 21:52:26.94	163.59	4.79	-63.0	-76.9	3.5	1.52e+00	0	47	104	2226126848	60	266120
2026-01-29 21:52:30.97	163.83	4.52	-63.3	-77.3	3.5	1.52e+00	0	47	104	2226126848	60	277974
2026-01-29 21:52:34.99	164.07	4.27	-63.5	-77.5	3.5	1.51e+00	0	47	104	2226126848	60	283937
2026-01-29 21:52:39.02	164.31	4.01	-62.3	-77.2	3.5	1.52e+00	0	47	104	2226126848	60	276696
2026-01-29 21:52:43.04	164.54	3.75	-61.9	-77.0	3.5	1.51e+00	0	47	104	2226126848	60	269632
2026-01-29 21:52:47.08	164.77	3.50	-62.7	-77.4	3.5	1.52e+00	0	47	104	2226126848	60	283607
2026-01-29 21:52:51.10	164.99	3.25	-62.6	-77.3	3.5	1.52e+00	0	47	104	2226126848	60	279388
2026-01-29 21:52:55.14	165.21	3.00	-62.5	-77.3	3.5	1.52e+00	0	47	104	2226126848	60	279650
2026-01-29 21:52:59.16	165.43	2.75	-62.5	-77.1	3.5	1.52e+00	0	47	104	2226126848	60	273279
2026-01-29 21:53:03.19	165.64	2.51	-62.5	-77.3	3.5	1.52e+00	0	47	104	2226126848	60	278007
2026-01-29 21:53:07.21	165.85	2.27	-62.5	-77.1	3.5	1.52e+00	0	47	104	2226126848	60	273869
2026-01-29 21:53:11.24	166.06	2.02	-62.5	-77.1	3.5	1.52e+00	0	47	104	2226126848	60	273915
2026-01-29 21:53:15.27	166.26	1.78	-62.5	-77.2	3.5	1.52e+00	0	47	104	2226126848	60	276648
2026-01-29 21:53:19.30	166.46	1.55	-62.5	-77.3	3.5	1.51e+00	0	47	104	2226126848	60	277974
2026-01-29 21:53:23.32	166.66	1.31	-62.5	-77.2	3.5	1.52e+00	0	47	104	2226126848	60	276665
2026-01-29 21:53:27.35	166.85	1.08	-62.5	-77.3	3.5	1.52e+00	0	47	104	2226126848	60	277858
2026-01-29 21:53:31.38	167.05	0.84	-62.5	-77.2	3.5	1.52e+00	0	47	104	2226126848	60	275759
2026-01-29 21:53:35.41	167.24	0.61	-62.5	-77.2	3.5	1.52e+00	0	47	104	2226126848	60	275353
2026-01-29 21:53:39.43	167.42	0.38	-62.5	-77.2	3.5	1.52e+00	0	47	104	2226126848	60	274627
2026-01-29 21:53:43.46	167.61	0.15	-62.5	-77.1	3.5	1.51e+00	0	47	104	2226126848	60	273347
2026-01-29 21:53:47.48	167.79	-0.07	-62.5	-77.1	3.5	1.52e+00	0	47	104	2226126848	60	273925

#Closed at: 2026-01-29 21:53:49
#Recorded file [2226 MB]: D:/Data/35015_260130_005208.dat