passes_logs/2026/01/29/R3.2S-Naryan-Mar/R3.2S-Naryan-Mar__20260129_160825_FENGYUN_3E_rec.log

#Pass ID: 20260129_160825_FENGYUN 3E
#Satellite: FENGYUN 3E
#Configuration: FENGYUN 3E
#almurnet v.1.7.20240730
#Start time: 2026-01-29 16:08:25

#Version: 2.2.20231116
#Station: R3.2S-Naryan-Mar
#Location: 53.008057 lon 67.646978 lat
#TLE: 1 49008U 21062A   26028.95833242 -.00000015  00000+0  13843-4 0  9995
#TLE: 2 49008  98.7500  33.9242 0002547 112.2873 247.8573 14.19887818236829

#Time	Az	El	Level	Level2	SNR	BER	BlckErr	Temp	State	Recorded	gain1	gain2
2026-01-29 16:08:25.81	245.15	0.02	-57.7	-72.9	3.4	8.45e-01	0	44	0	0	60	172169
2026-01-29 16:08:28.83	245.44	0.15	-58.6	-71.5	3.6	8.46e-01	0	45	104	0	60	147001
2026-01-29 16:08:31.84	245.72	0.27	-58.6	-71.5	3.6	8.45e-01	0	45	104	0	60	147001
2026-01-29 16:08:34.86	246.01	0.39	-58.6	-71.5	3.6	8.45e-01	0	45	104	0	60	147001
2026-01-29 16:08:37.88	246.30	0.52	-58.6	-71.5	3.6	8.45e-01	0	45	104	0	60	147001
2026-01-29 16:08:40.89	246.59	0.64	-58.6	-71.5	3.6	8.45e-01	0	46	104	0	60	147001
2026-01-29 16:08:43.91	246.89	0.77	-58.6	-71.5	3.6	8.46e-01	0	46	104	0	60	147001
2026-01-29 16:08:46.93	247.18	0.89	-58.6	-71.5	3.6	8.46e-01	0	45	104	0	60	147001
2026-01-29 16:08:49.95	247.48	1.01	-58.6	-71.5	3.6	8.46e-01	0	46	104	0	60	147001
2026-01-29 16:08:52.98	247.79	1.14	-58.6	-71.5	3.6	8.44e-01	0	46	104	0	60	147001
2026-01-29 16:08:56.00	248.09	1.26	-58.6	-71.5	3.6	8.45e-01	0	45	104	0	60	147001
2026-01-29 16:08:59.01	248.40	1.38	-58.6	-71.5	3.6	8.46e-01	0	46	104	0	60	147001
2026-01-29 16:09:02.04	248.71	1.51	-58.6	-71.5	3.6	8.46e-01	0	46	104	0	60	147001
2026-01-29 16:09:05.06	249.02	1.63	-58.6	-71.5	3.6	8.46e-01	0	46	104	0	60	147001
2026-01-29 16:09:08.07	249.33	1.75	-58.6	-71.5	3.6	8.45e-01	0	46	104	0	60	147001
2026-01-29 16:09:11.09	249.65	1.88	-58.6	-71.5	3.6	8.46e-01	0	46	104	0	60	147001
2026-01-29 16:09:14.11	249.97	2.00	-58.6	-71.5	3.6	8.46e-01	0	46	104	0	60	147001
2026-01-29 16:09:17.12	250.29	2.12	-58.6	-71.5	3.6	8.45e-01	0	46	104	0	60	147001
2026-01-29 16:09:20.15	250.61	2.24	-58.6	-71.5	3.6	8.45e-01	0	46	104	0	60	147001
2026-01-29 16:09:23.16	250.94	2.37	-58.6	-71.5	3.6	8.44e-01	0	46	104	0	60	147001
2026-01-29 16:09:26.17	251.27	2.49	-58.6	-71.5	3.6	8.45e-01	0	46	104	0	60	147001
2026-01-29 16:09:29.17	251.60	2.61	-58.6	-71.5	3.6	8.46e-01	0	46	104	0	60	147001
2026-01-29 16:09:32.19	251.93	2.73	-58.6	-71.5	3.6	8.46e-01	0	46	104	0	60	147001
2026-01-29 16:09:35.21	252.27	2.85	-58.6	-71.5	3.6	8.45e-01	0	46	104	0	60	147001
2026-01-29 16:09:38.23	252.61	2.97	-58.6	-71.5	3.6	8.45e-01	0	46	104	0	60	147001
2026-01-29 16:09:41.25	252.95	3.09	-58.6	-71.5	3.6	8.46e-01	0	46	104	0	60	147001
2026-01-29 16:09:44.26	253.30	3.21	-58.6	-71.5	3.6	8.45e-01	0	46	104	0	60	147001
2026-01-29 16:09:47.28	253.65	3.33	-58.6	-71.5	3.6	8.45e-01	0	46	104	0	60	147001
2026-01-29 16:09:50.30	254.00	3.45	-58.6	-71.5	3.6	8.46e-01	0	46	104	0	60	147001
2026-01-29 16:09:53.32	254.35	3.57	-58.6	-71.5	3.6	8.45e-01	0	46	104	0	60	147001
2026-01-29 16:09:56.35	254.71	3.69	-58.6	-71.5	3.6	8.45e-01	0	46	104	0	60	147001
2026-01-29 16:09:59.37	255.07	3.81	-58.6	-71.5	3.6	8.46e-01	0	46	104	0	60	147001
2026-01-29 16:10:02.38	255.43	3.93	-58.6	-71.5	3.6	8.46e-01	0	46	104	0	60	147001
2026-01-29 16:10:05.40	255.79	4.04	-58.6	-71.5	3.6	8.46e-01	0	46	104	0	60	147001
2026-01-29 16:10:08.42	256.16	4.16	-58.6	-71.5	3.5	8.46e-01	0	46	104	0	60	147001
2026-01-29 16:10:11.44	256.53	4.28	-58.6	-71.5	3.6	8.45e-01	0	46	104	0	60	147001
2026-01-29 16:10:14.46	256.90	4.40	-58.6	-71.5	3.6	8.46e-01	0	46	104	0	60	147001
2026-01-29 16:10:17.47	257.28	4.51	-58.6	-71.5	3.6	8.44e-01	0	46	104	0	60	147001
2026-01-29 16:10:20.49	257.66	4.63	-58.6	-71.5	3.6	8.46e-01	0	46	104	0	60	147001
2026-01-29 16:10:23.51	258.04	4.74	-58.6	-71.5	3.6	8.44e-01	0	46	104	0	60	147001
2026-01-29 16:10:26.54	258.43	4.86	-58.6	-71.5	3.6	8.46e-01	0	46	104	0	60	147001
2026-01-29 16:10:29.56	258.81	4.97	-58.6	-71.5	3.6	8.45e-01	0	46	104	0	60	147001
2026-01-29 16:10:32.58	259.20	5.08	-58.6	-71.5	3.6	8.45e-01	0	46	104	0	60	147001
2026-01-29 16:10:35.59	259.60	5.20	-58.6	-71.5	3.6	8.46e-01	0	46	104	0	60	147001
2026-01-29 16:10:38.61	259.99	5.31	-58.6	-71.5	3.6	8.45e-01	0	46	104	0	60	147001
2026-01-29 16:10:41.63	260.39	5.42	-58.6	-71.5	3.6	8.46e-01	0	46	104	0	60	147001
2026-01-29 16:10:44.65	260.79	5.53	-58.6	-71.5	3.6	8.45e-01	0	46	104	0	60	147001
2026-01-29 16:10:47.68	261.20	5.64	-58.6	-71.5	3.7	8.45e-01	0	46	104	0	60	147001
2026-01-29 16:10:50.69	261.61	5.75	-58.6	-71.5	4.2	8.37e-01	0	46	0	0	60	147001
2026-01-29 16:10:53.70	262.02	5.86	-58.6	-71.5	12.8	6.23e-01	0	46	0	0	60	147001
2026-01-29 16:10:56.72	262.43	5.96	-58.6	-71.5	16.1	5.45e-01	0	46	0	0	60	147001
2026-01-29 16:10:59.74	262.85	6.07	-58.6	-71.5	12.4	5.53e-01	0	46	0	0	60	147001
2026-01-29 16:11:02.76	263.27	6.18	-58.6	-71.5	8.5	8.44e-01	0	46	104	0	60	147001
2026-01-29 16:11:05.78	263.69	6.28	-58.6	-71.5	3.6	8.45e-01	0	46	104	0	60	147001
2026-01-29 16:11:08.81	264.12	6.39	-58.6	-71.5	3.6	8.46e-01	0	46	104	0	60	147001
2026-01-29 16:11:11.83	264.55	6.49	-58.6	-71.5	3.6	8.45e-01	0	46	104	0	60	147001
2026-01-29 16:11:14.86	264.98	6.59	-58.6	-71.5	3.6	8.45e-01	0	46	104	0	60	147001
2026-01-29 16:11:17.87	265.41	6.69	-58.6	-71.5	3.6	8.45e-01	0	46	104	0	60	147001
2026-01-29 16:11:20.89	265.85	6.79	-58.6	-71.5	3.6	8.44e-01	0	46	104	0	60	147001
2026-01-29 16:11:23.90	266.29	6.89	-58.6	-71.5	3.6	8.46e-01	0	46	104	0	60	147001
2026-01-29 16:11:26.92	266.73	6.99	-58.6	-71.5	3.6	8.45e-01	0	46	104	0	60	147001
2026-01-29 16:11:29.93	267.17	7.09	-58.6	-71.5	3.6	8.44e-01	0	46	104	0	60	147001
2026-01-29 16:11:32.96	267.63	7.18	-58.6	-71.5	3.6	8.47e-01	0	46	104	0	60	147001
2026-01-29 16:11:35.97	268.08	7.28	-58.6	-71.5	3.6	8.45e-01	0	46	104	0	60	147001
2026-01-29 16:11:38.98	268.53	7.37	-58.6	-71.5	3.6	8.44e-01	0	46	104	0	60	147001
2026-01-29 16:11:42.00	268.99	7.47	-58.6	-71.5	3.6	8.46e-01	0	46	104	0	60	147001
2026-01-29 16:11:45.02	269.45	7.56	-58.6	-71.5	3.6	8.46e-01	0	46	104	0	60	147001
2026-01-29 16:11:48.04	269.91	7.65	-58.6	-71.5	3.6	8.45e-01	0	46	104	0	60	147001
2026-01-29 16:11:51.06	270.37	7.74	-58.6	-71.5	3.6	8.46e-01	0	46	104	0	60	147001
2026-01-29 16:11:54.08	270.84	7.82	-58.6	-71.5	3.6	8.46e-01	0	46	104	0	60	147001
2026-01-29 16:11:57.09	271.31	7.91	-58.6	-71.5	3.6	8.44e-01	0	46	104	0	60	147001
2026-01-29 16:12:00.10	271.78	8.00	-58.6	-71.5	3.6	8.43e-01	0	46	104	0	60	147001
2026-01-29 16:12:03.12	272.26	8.08	-58.6	-71.5	3.6	8.47e-01	0	46	104	0	60	147001
2026-01-29 16:12:06.15	272.74	8.16	-58.6	-71.5	3.6	8.44e-01	0	46	104	0	60	147001
2026-01-29 16:12:09.17	273.22	8.24	-58.6	-71.5	3.6	8.45e-01	0	46	104	0	60	147001
2026-01-29 16:12:12.19	273.70	8.32	-58.6	-71.5	3.6	8.45e-01	0	46	104	0	60	147001
2026-01-29 16:12:15.21	274.19	8.40	-58.6	-71.5	3.6	8.45e-01	0	46	104	0	60	147001
2026-01-29 16:12:18.23	274.68	8.47	-58.6	-71.5	3.6	8.44e-01	0	46	104	0	60	147001
2026-01-29 16:12:21.26	275.17	8.55	-58.6	-71.5	3.6	8.45e-01	0	46	104	0	60	147001
2026-01-29 16:12:24.28	275.67	8.62	-58.6	-71.5	3.6	8.44e-01	0	46	104	0	60	147001
2026-01-29 16:12:27.30	276.16	8.69	-58.6	-71.5	3.6	8.45e-01	0	47	104	0	60	147001
2026-01-29 16:12:30.32	276.66	8.76	-58.6	-71.5	3.6	8.46e-01	0	46	104	0	60	147001
2026-01-29 16:12:33.34	277.16	8.83	-58.6	-71.5	3.6	8.45e-01	0	46	104	0	60	147001
2026-01-29 16:12:36.35	277.66	8.90	-58.6	-71.5	3.6	8.44e-01	0	46	104	0	60	147001
2026-01-29 16:12:39.37	278.17	8.96	-58.6	-71.5	3.6	8.45e-01	0	46	104	0	60	147001
2026-01-29 16:12:42.39	278.68	9.03	-58.6	-71.5	3.6	8.45e-01	0	46	104	0	60	147001
2026-01-29 16:12:45.42	279.19	9.09	-58.6	-71.5	3.6	8.45e-01	0	46	104	0	60	147001
2026-01-29 16:12:48.44	279.70	9.15	-58.6	-71.5	3.6	8.45e-01	0	47	104	0	60	147001
2026-01-29 16:12:51.45	280.21	9.20	-58.6	-71.5	3.6	8.45e-01	0	46	104	0	60	147001
2026-01-29 16:12:54.46	280.72	9.26	-58.6	-71.5	3.6	8.46e-01	0	47	104	0	60	147001
2026-01-29 16:12:57.48	281.24	9.31	-58.6	-71.5	3.6	8.46e-01	0	47	104	0	60	147001
2026-01-29 16:13:00.50	281.76	9.36	-58.6	-71.5	3.6	8.45e-01	0	46	104	0	60	147001
2026-01-29 16:13:03.51	282.28	9.41	-58.6	-71.5	3.6	8.45e-01	0	47	104	0	60	147001
2026-01-29 16:13:06.52	282.80	9.46	-58.6	-71.5	3.6	8.45e-01	0	46	104	0	60	147001
2026-01-29 16:13:09.54	283.32	9.51	-58.6	-71.5	3.5	8.46e-01	0	46	104	0	60	147001
2026-01-29 16:13:12.56	283.85	9.55	-58.6	-71.5	3.6	8.46e-01	0	46	104	0	60	147001
2026-01-29 16:13:15.59	284.37	9.59	-58.6	-71.5	3.6	8.45e-01	0	47	104	0	60	147001
2026-01-29 16:13:18.60	284.90	9.63	-58.6	-71.5	3.6	8.45e-01	0	46	104	0	60	147001
2026-01-29 16:13:21.62	285.43	9.67	-58.6	-71.5	3.6	8.45e-01	0	46	104	0	60	147001
2026-01-29 16:13:24.65	285.96	9.71	-58.6	-71.5	3.6	8.46e-01	0	47	104	0	60	147001
2026-01-29 16:13:27.67	286.50	9.74	-58.6	-71.5	3.6	8.46e-01	0	46	104	0	60	147001
2026-01-29 16:13:30.68	287.03	9.77	-58.6	-71.5	3.6	8.44e-01	0	47	104	0	60	147001
2026-01-29 16:13:33.70	287.56	9.80	-58.6	-71.5	3.6	8.45e-01	0	46	104	0	60	147001
2026-01-29 16:13:36.72	288.10	9.83	-58.6	-71.5	3.6	8.44e-01	0	46	104	0	60	147001
2026-01-29 16:13:39.72	288.63	9.85	-58.6	-71.5	3.6	8.46e-01	0	46	104	0	60	147001
2026-01-29 16:13:42.72	289.16	9.87	-58.6	-71.5	3.6	8.45e-01	0	46	104	0	60	147001
2026-01-29 16:13:45.73	289.70	9.89	-58.6	-71.5	3.6	8.44e-01	0	46	104	0	60	147001
2026-01-29 16:13:48.75	290.24	9.91	-58.6	-71.5	3.6	8.45e-01	0	46	104	0	60	147001
2026-01-29 16:13:51.76	290.77	9.93	-58.6	-71.5	3.6	8.45e-01	0	47	104	0	60	147001
2026-01-29 16:13:54.77	291.31	9.94	-58.6	-71.5	3.6	8.45e-01	0	47	104	0	60	147001
2026-01-29 16:13:57.78	291.85	9.95	-58.6	-71.5	3.6	8.45e-01	0	47	104	0	60	147001
2026-01-29 16:14:00.79	292.39	9.96	-58.6	-71.5	3.6	8.46e-01	0	47	104	0	60	147001
2026-01-29 16:14:03.81	292.93	9.97	-58.6	-71.5	3.6	8.45e-01	0	46	104	0	60	147001
2026-01-29 16:14:06.81	293.46	9.98	-58.6	-71.5	3.6	8.45e-01	0	46	104	0	60	147001
2026-01-29 16:14:09.83	294.00	9.98	-58.6	-71.5	3.6	8.45e-01	0	47	104	0	60	147001
2026-01-29 16:14:12.85	294.55	9.98	-58.6	-71.5	3.6	8.44e-01	0	46	104	0	60	147001
2026-01-29 16:14:15.86	295.08	9.98	-58.6	-71.5	3.6	8.46e-01	0	46	104	0	60	147001
2026-01-29 16:14:18.88	295.63	9.98	-58.6	-71.5	3.6	8.45e-01	0	47	104	0	60	147001
2026-01-29 16:14:21.91	296.17	9.97	-58.6	-71.5	3.6	8.45e-01	0	46	104	0	60	147001
2026-01-29 16:14:24.93	296.71	9.96	-58.6	-71.5	3.6	8.44e-01	0	46	104	0	60	147001
2026-01-29 16:14:27.95	297.25	9.95	-58.6	-71.5	3.6	8.46e-01	0	46	104	0	60	147001
2026-01-29 16:14:30.96	297.79	9.94	-58.6	-71.5	3.6	8.45e-01	0	46	104	0	60	147001
2026-01-29 16:14:33.97	298.32	9.92	-58.6	-71.5	3.6	8.46e-01	0	46	104	0	60	147001
2026-01-29 16:14:37.00	298.86	9.91	-58.6	-71.5	3.6	8.45e-01	0	47	104	0	60	147001
2026-01-29 16:14:40.02	299.40	9.89	-58.6	-71.5	3.6	8.44e-01	0	47	104	0	60	147001
2026-01-29 16:14:43.04	299.94	9.87	-58.6	-71.5	3.6	8.47e-01	0	46	104	0	60	147001
2026-01-29 16:14:46.07	300.48	9.84	-58.6	-71.5	3.6	8.46e-01	0	46	104	0	60	147001
2026-01-29 16:14:49.09	301.01	9.82	-58.6	-71.5	3.6	8.46e-01	0	47	104	0	60	147001
2026-01-29 16:14:52.11	301.54	9.79	-58.6	-71.5	3.6	8.44e-01	0	47	104	0	60	147001
2026-01-29 16:14:55.13	302.08	9.76	-58.6	-71.5	3.6	8.45e-01	0	47	104	0	60	147001
2026-01-29 16:14:58.16	302.61	9.73	-58.6	-71.5	3.6	8.45e-01	0	46	104	0	60	147001
2026-01-29 16:15:01.18	303.14	9.69	-58.6	-71.5	3.6	8.47e-01	0	46	104	0	60	147001
2026-01-29 16:15:04.20	303.67	9.66	-58.6	-71.5	3.6	8.46e-01	0	46	104	0	60	147001
2026-01-29 16:15:07.23	304.20	9.62	-58.6	-71.5	3.6	8.45e-01	0	46	104	0	60	147001
2026-01-29 16:15:10.25	304.73	9.58	-58.6	-71.5	3.6	8.46e-01	0	47	104	0	60	147001
2026-01-29 16:15:13.28	305.26	9.54	-58.6	-71.5	3.6	8.46e-01	0	47	104	0	60	147001
2026-01-29 16:15:16.30	305.78	9.49	-58.6	-71.5	3.6	8.45e-01	0	47	104	0	60	147001
2026-01-29 16:15:19.32	306.30	9.45	-58.6	-71.5	3.6	8.45e-01	0	47	104	0	60	147001
2026-01-29 16:15:22.33	306.82	9.40	-58.6	-71.5	3.6	8.45e-01	0	47	104	0	60	147001
2026-01-29 16:15:25.35	307.34	9.35	-58.6	-71.5	3.6	8.45e-01	0	47	104	0	60	147001
2026-01-29 16:15:28.38	307.86	9.30	-58.6	-71.5	3.6	8.45e-01	0	47	104	0	60	147001
2026-01-29 16:15:31.39	308.37	9.24	-58.6	-71.5	3.6	8.45e-01	0	47	104	0	60	147001
2026-01-29 16:15:34.41	308.89	9.19	-58.6	-71.5	3.6	8.45e-01	0	47	104	0	60	147001
2026-01-29 16:15:37.42	309.40	9.13	-58.6	-71.5	3.5	8.46e-01	0	47	104	0	60	147001
2026-01-29 16:15:40.44	309.91	9.07	-58.6	-71.5	3.6	8.47e-01	0	47	104	0	60	147001
2026-01-29 16:15:43.47	310.41	9.01	-58.6	-71.5	3.6	8.44e-01	0	47	104	0	60	147001
2026-01-29 16:15:46.50	310.92	8.94	-58.6	-71.5	3.6	8.46e-01	0	47	104	0	60	147001
2026-01-29 16:15:49.52	311.43	8.88	-58.6	-71.5	3.6	8.46e-01	0	47	104	0	60	147001
2026-01-29 16:15:52.54	311.93	8.81	-58.6	-71.5	3.6	8.45e-01	0	47	104	0	60	147001
2026-01-29 16:15:55.56	312.42	8.74	-58.6	-71.5	3.6	8.45e-01	0	47	104	0	60	147001
2026-01-29 16:15:58.58	312.92	8.67	-58.6	-71.5	3.6	8.44e-01	0	47	104	0	60	147001
2026-01-29 16:16:01.61	313.42	8.60	-58.6	-71.5	3.6	8.46e-01	0	46	104	0	60	147001
2026-01-29 16:16:04.63	313.91	8.53	-58.6	-71.5	3.6	8.45e-01	0	46	104	0	60	147001
2026-01-29 16:16:07.65	314.40	8.45	-58.6	-71.5	3.6	8.45e-01	0	47	104	0	60	147001
2026-01-29 16:16:10.68	314.89	8.38	-58.6	-71.5	3.6	8.45e-01	0	47	104	0	60	147001
2026-01-29 16:16:13.70	315.37	8.30	-58.6	-71.5	3.6	8.45e-01	0	46	104	0	60	147001
2026-01-29 16:16:16.73	315.85	8.22	-58.6	-71.5	3.6	8.45e-01	0	47	104	0	60	147001
2026-01-29 16:16:19.75	316.33	8.14	-58.6	-71.5	3.6	8.45e-01	0	47	104	0	60	147001
2026-01-29 16:16:22.77	316.81	8.06	-58.6	-71.5	3.6	8.47e-01	0	46	104	0	60	147001
2026-01-29 16:16:25.78	317.28	7.97	-58.6	-71.5	3.6	8.45e-01	0	47	104	0	60	147001
2026-01-29 16:16:28.81	317.75	7.89	-58.6	-71.5	3.6	8.44e-01	0	47	104	0	60	147001
2026-01-29 16:16:31.83	318.22	7.80	-58.6	-71.5	3.6	8.45e-01	0	47	104	0	60	147001
2026-01-29 16:16:34.85	318.69	7.72	-58.6	-71.5	3.6	8.44e-01	0	47	104	0	60	147001
2026-01-29 16:16:37.88	319.15	7.63	-58.6	-71.5	3.6	8.46e-01	0	47	104	0	60	147001
2026-01-29 16:16:40.90	319.61	7.54	-58.6	-71.5	3.6	8.45e-01	0	47	104	0	60	147001
2026-01-29 16:16:43.92	320.07	7.45	-58.6	-71.5	3.6	8.45e-01	0	47	104	0	60	147001
2026-01-29 16:16:46.93	320.53	7.35	-58.6	-71.5	3.6	8.45e-01	0	47	104	0	60	147001
2026-01-29 16:16:49.95	320.98	7.26	-58.6	-71.5	3.6	8.45e-01	0	47	104	0	60	147001
2026-01-29 16:16:52.97	321.43	7.16	-58.6	-71.5	3.6	8.44e-01	0	47	104	0	60	147001
2026-01-29 16:16:55.98	321.87	7.07	-58.6	-71.5	3.6	8.46e-01	0	47	104	0	60	147001
2026-01-29 16:16:59.00	322.32	6.97	-58.6	-71.5	3.6	8.45e-01	0	47	104	0	60	147001
2026-01-29 16:17:02.02	322.76	6.87	-58.6	-71.5	3.6	8.45e-01	0	47	104	0	60	147001
2026-01-29 16:17:05.04	323.19	6.78	-58.6	-71.5	3.6	8.45e-01	0	47	104	0	60	147001
2026-01-29 16:17:08.06	323.63	6.67	-58.6	-71.5	3.6	8.45e-01	0	47	104	0	60	147001
2026-01-29 16:17:11.08	324.06	6.57	-58.6	-71.5	3.6	8.46e-01	0	47	104	0	60	147001
2026-01-29 16:17:14.10	324.49	6.47	-58.6	-71.5	3.6	8.45e-01	0	47	104	0	60	147001
2026-01-29 16:17:17.13	324.92	6.37	-58.6	-71.5	3.6	8.46e-01	0	47	104	0	60	147001
2026-01-29 16:17:20.15	325.34	6.26	-58.6	-71.5	3.6	8.46e-01	0	47	104	0	60	147001
2026-01-29 16:17:23.18	325.76	6.16	-58.6	-71.5	3.6	8.45e-01	0	47	104	0	60	147001
2026-01-29 16:17:26.20	326.18	6.05	-58.6	-71.5	3.6	8.45e-01	0	47	104	0	60	147001
2026-01-29 16:17:29.22	326.60	5.95	-58.6	-71.5	3.6	8.45e-01	0	47	104	0	60	147001
2026-01-29 16:17:32.24	327.01	5.84	-58.6	-71.5	3.6	8.45e-01	0	47	104	0	60	147001
2026-01-29 16:17:35.26	327.42	5.73	-58.6	-71.5	3.6	8.45e-01	0	47	104	0	60	147001
2026-01-29 16:17:38.28	327.82	5.62	-58.6	-71.5	3.6	8.47e-01	0	47	104	0	60	147001
2026-01-29 16:17:41.30	328.22	5.52	-58.6	-71.5	3.6	8.46e-01	0	47	104	0	60	147001
2026-01-29 16:17:44.33	328.63	5.41	-58.6	-71.5	3.6	8.45e-01	0	47	104	0	60	147001
2026-01-29 16:17:47.35	329.02	5.29	-58.6	-71.5	3.6	8.44e-01	0	47	104	0	60	147001
2026-01-29 16:17:50.37	329.42	5.18	-58.6	-71.5	3.6	8.44e-01	0	47	104	0	60	147001
2026-01-29 16:17:53.39	329.81	5.07	-58.6	-71.5	3.6	8.45e-01	0	47	104	0	60	147001
2026-01-29 16:17:56.41	330.20	4.96	-58.6	-71.5	3.6	8.47e-01	0	47	104	0	60	147001
2026-01-29 16:17:59.43	330.58	4.85	-58.6	-71.5	3.6	8.46e-01	0	47	104	0	60	147001
2026-01-29 16:18:02.46	330.97	4.73	-58.6	-71.5	3.6	8.46e-01	0	47	104	0	60	147001
2026-01-29 16:18:05.47	331.35	4.62	-58.6	-71.5	3.6	8.45e-01	0	47	104	0	60	147001
2026-01-29 16:18:08.47	331.72	4.50	-58.6	-71.5	3.6	8.45e-01	0	47	104	0	60	147001
2026-01-29 16:18:11.48	332.09	4.39	-58.6	-71.5	3.6	8.46e-01	0	47	104	0	60	147001
2026-01-29 16:18:14.51	332.47	4.27	-58.6	-71.5	3.6	8.45e-01	0	47	104	0	60	147001
2026-01-29 16:18:17.53	332.83	4.16	-58.6	-71.5	3.6	8.44e-01	0	47	104	0	60	147001
2026-01-29 16:18:20.55	333.20	4.04	-58.6	-71.5	3.6	8.45e-01	0	47	104	0	60	147001
2026-01-29 16:18:23.56	333.56	3.92	-58.6	-71.5	3.6	8.45e-01	0	47	104	0	60	147001
2026-01-29 16:18:26.58	333.92	3.81	-58.6	-71.5	3.6	8.44e-01	0	47	104	0	60	147001
2026-01-29 16:18:29.60	334.28	3.69	-58.6	-71.5	3.6	8.46e-01	0	47	104	0	60	147001
2026-01-29 16:18:32.62	334.64	3.57	-58.6	-71.5	3.6	8.45e-01	0	47	104	0	60	147001
2026-01-29 16:18:35.64	334.99	3.45	-58.6	-71.5	3.6	8.45e-01	0	47	104	0	60	147001
2026-01-29 16:18:38.67	335.34	3.33	-58.6	-71.5	3.5	8.46e-01	0	47	104	0	60	147001
2026-01-29 16:18:41.68	335.68	3.21	-58.6	-71.5	3.6	8.44e-01	0	47	104	0	60	147001
2026-01-29 16:18:44.71	336.03	3.09	-58.6	-71.5	3.6	8.46e-01	0	47	104	0	60	147001
2026-01-29 16:18:47.73	336.37	2.98	-58.6	-71.5	3.6	8.45e-01	0	47	104	0	60	147001
2026-01-29 16:18:50.76	336.71	2.85	-58.6	-71.5	3.6	8.46e-01	0	47	104	0	60	147001
2026-01-29 16:18:53.78	337.05	2.73	-58.6	-71.5	3.6	8.45e-01	0	47	104	0	60	147001
2026-01-29 16:18:56.80	337.38	2.61	-58.6	-71.5	3.6	8.45e-01	0	47	104	0	60	147001
2026-01-29 16:18:59.83	337.71	2.49	-58.6	-71.5	3.6	8.45e-01	0	47	104	0	60	147001
2026-01-29 16:19:02.85	338.04	2.37	-58.6	-71.5	3.6	8.46e-01	0	47	104	0	60	147001
2026-01-29 16:19:05.88	338.37	2.25	-58.6	-71.5	3.6	8.45e-01	0	47	104	0	60	147001
2026-01-29 16:19:08.90	338.69	2.13	-58.6	-71.5	3.6	8.44e-01	0	47	104	0	60	147001
2026-01-29 16:19:11.92	339.01	2.01	-58.6	-71.5	3.6	8.46e-01	0	47	104	0	60	147001
2026-01-29 16:19:14.93	339.33	1.89	-58.6	-71.5	3.6	8.45e-01	0	47	104	0	60	147001
2026-01-29 16:19:17.95	339.64	1.76	-58.6	-71.5	3.6	8.44e-01	0	47	104	0	60	147001
2026-01-29 16:19:20.97	339.96	1.64	-58.6	-71.5	3.6	8.46e-01	0	47	104	0	60	147001
2026-01-29 16:19:23.99	340.27	1.52	-58.6	-71.5	3.6	8.46e-01	0	47	104	0	60	147001
2026-01-29 16:19:27.01	340.58	1.40	-58.6	-71.5	3.6	8.45e-01	0	47	104	0	60	147001
2026-01-29 16:19:30.02	340.88	1.28	-58.6	-71.5	3.6	8.44e-01	0	47	104	0	60	147001
2026-01-29 16:19:33.04	341.18	1.15	-58.6	-71.5	3.6	8.45e-01	0	47	104	0	60	147001
2026-01-29 16:19:36.07	341.49	1.03	-58.6	-71.5	3.6	8.46e-01	0	47	104	0	60	147001
2026-01-29 16:19:39.08	341.78	0.91	-58.6	-71.5	3.6	8.45e-01	0	47	104	0	60	147001
2026-01-29 16:19:42.10	342.08	0.79	-58.6	-71.5	3.6	8.44e-01	0	47	104	0	60	147001
2026-01-29 16:19:45.12	342.38	0.66	-58.6	-71.5	3.6	8.45e-01	0	47	104	0	60	147001
2026-01-29 16:19:48.14	342.67	0.54	-58.6	-71.5	3.6	8.46e-01	0	47	104	0	60	147001
2026-01-29 16:19:51.16	342.96	0.42	-58.6	-71.5	3.6	8.46e-01	0	47	104	0	60	147001
2026-01-29 16:19:54.18	343.25	0.29	-58.6	-71.5	3.6	8.45e-01	0	47	104	0	60	147001
2026-01-29 16:19:57.20	343.53	0.17	-58.6	-71.5	3.6	8.45e-01	0	47	104	0	60	147001
2026-01-29 16:20:00.22	343.81	0.05	-58.6	-71.5	3.6	8.45e-01	0	47	104	0	60	147001
2026-01-29 16:20:03.23	344.09	-0.07	-58.6	-71.5	3.6	8.45e-01	0	47	104	0	60	147001

#Closed at: 2026-01-29 16:20:03
#Recorded file [0 MB]: D:/Data/35015_260129_191103.dat