passes_logs/2026/01/29/R3.2S-Naryan-Mar/R3.2S-Naryan-Mar__20260129_020819_NOAA_20_JPSS-1_rec.log

#Pass ID: 20260129_020819_NOAA 20 (JPSS-1)
#Satellite: NOAA 20 (JPSS-1)
#Configuration: NOAA 20
#almurnet v.1.7.20240730
#Start time: 2026-01-29 02:08:21

#Version: 2.2.20231116
#Station: R3.2S-Naryan-Mar
#Location: 53.008057 lon 67.646978 lat
#TLE: 1 43013U 17073A   26027.80586608  .00000156  00000+0  94940-4 0  9998
#TLE: 2 43013  98.7647 328.6108 0000947  21.3465 338.7750 14.19541216424550

#Time	Az	El	Level	Level2	SNR	BER	BlckErr	Temp	State	Recorded	gain1	gain2
2026-01-29 02:08:21.22	40.95	0.12	-57.6	-75.3	3.3	1.54e+00	0	45	0	0	60	226962
2026-01-29 02:08:25.23	40.74	0.34	-61.0	-78.0	3.6	1.51e+00	0	45	104	0	60	309746
2026-01-29 02:08:29.25	40.53	0.56	-58.1	-78.0	3.6	1.51e+00	0	45	104	0	60	309852
2026-01-29 02:08:33.28	40.31	0.79	-59.7	-77.4	3.6	1.51e+00	0	45	104	0	60	290421
2026-01-29 02:08:37.31	40.09	1.01	-60.1	-76.7	3.6	1.51e+00	0	45	104	0	60	269266
2026-01-29 02:08:41.33	39.87	1.24	-54.9	-74.3	3.6	1.51e+00	0	45	104	0	60	204411
2026-01-29 02:08:45.36	39.64	1.47	-55.0	-74.6	3.6	1.51e+00	0	45	104	0	60	210630
2026-01-29 02:08:49.38	39.41	1.70	-55.0	-74.4	3.6	1.51e+00	0	45	104	0	60	205463
2026-01-29 02:08:53.40	39.17	1.93	-54.8	-74.5	3.6	1.51e+00	0	45	104	0	60	208103
2026-01-29 02:08:57.43	38.93	2.16	-55.0	-74.4	3.6	1.51e+00	0	45	104	0	60	206435
2026-01-29 02:09:01.45	38.69	2.39	-55.0	-74.7	3.6	1.51e+00	0	46	104	0	60	212716
2026-01-29 02:09:05.48	38.44	2.63	-54.8	-74.3	3.6	1.51e+00	0	46	104	0	60	204320
2026-01-29 02:09:09.51	38.19	2.86	-54.8	-74.6	3.6	1.51e+00	0	46	104	0	60	210947
2026-01-29 02:09:13.54	37.93	3.10	-54.7	-74.4	3.6	1.51e+00	0	46	104	0	60	206689
2026-01-29 02:09:17.57	37.67	3.34	-54.9	-74.5	3.6	1.51e+00	0	46	104	0	60	208901
2026-01-29 02:09:21.60	37.41	3.58	-55.2	-74.3	3.6	1.51e+00	0	46	104	0	60	202723
2026-01-29 02:09:25.62	37.14	3.82	-55.1	-74.5	3.6	1.51e+00	0	46	104	0	60	208279
2026-01-29 02:09:29.65	36.86	4.06	-55.1	-74.3	3.6	1.51e+00	0	46	104	0	60	203222
2026-01-29 02:09:33.67	36.59	4.31	-54.9	-74.6	3.6	1.51e+00	0	46	104	0	60	211352
2026-01-29 02:09:37.69	36.30	4.56	-54.9	-74.2	3.6	1.51e+00	0	46	104	0	60	199894
2026-01-29 02:09:41.73	36.01	4.80	-54.9	-74.2	3.6	1.51e+00	0	46	104	0	60	200419
2026-01-29 02:09:45.75	35.72	5.05	-55.0	-74.6	3.6	1.51e+00	0	46	104	0	60	209813
2026-01-29 02:09:49.78	35.42	5.31	-55.0	-74.6	3.6	1.51e+00	0	46	104	0	60	209266
2026-01-29 02:09:53.80	35.11	5.56	-54.7	-74.0	3.6	1.51e+00	0	46	104	0	60	195901
2026-01-29 02:09:57.83	34.80	5.81	-54.7	-73.9	3.6	1.51e+00	0	46	104	0	60	193240
2026-01-29 02:10:01.85	34.48	6.07	-57.8	-76.0	3.6	1.51e+00	0	46	104	0	60	247334
2026-01-29 02:10:05.87	34.16	6.33	-55.5	-75.9	3.6	1.51e+00	0	46	104	0	60	243370
2026-01-29 02:10:09.90	33.83	6.59	-52.6	-72.1	3.6	1.51e+00	0	46	104	0	60	158384
2026-01-29 02:10:13.93	33.50	6.85	-56.7	-75.5	3.6	1.51e+00	0	46	104	0	60	234041
2026-01-29 02:10:17.96	33.16	7.11	-55.4	-75.2	3.6	1.51e+00	0	46	104	0	60	225124
2026-01-29 02:10:21.98	32.81	7.38	-59.4	-76.2	3.6	1.51e+00	0	46	104	0	60	252855
2026-01-29 02:10:25.98	32.46	7.64	-51.6	-72.3	3.6	1.51e+00	0	46	104	0	60	162097
2026-01-29 02:10:30.02	32.09	7.91	-52.3	-72.5	3.6	1.51e+00	0	46	104	0	60	164457
2026-01-29 02:10:34.04	31.73	8.18	-58.4	-75.8	3.6	1.51e+00	0	46	104	0	60	241838
2026-01-29 02:10:38.06	31.35	8.45	-54.9	-74.6	3.6	1.51e+00	0	46	104	0	60	211463
2026-01-29 02:10:42.08	30.97	8.72	-55.9	-74.0	3.6	1.51e+00	0	46	104	0	60	195705
2026-01-29 02:10:46.11	30.58	9.00	-53.4	-73.7	3.6	1.51e+00	0	46	104	0	60	189051
2026-01-29 02:10:50.14	30.18	9.28	-58.8	-76.2	3.6	1.51e+00	0	46	104	0	60	252309
2026-01-29 02:10:54.16	29.78	9.55	-52.7	-73.7	3.6	1.51e+00	0	46	104	0	60	189191
2026-01-29 02:10:58.18	29.36	9.83	-57.7	-75.4	3.6	1.51e+00	0	46	104	0	60	229908
2026-01-29 02:11:02.19	28.94	10.11	-59.4	-76.1	3.6	1.51e+00	0	46	104	0	60	248689
2026-01-29 02:11:06.22	28.51	10.40	-57.7	-75.6	3.6	1.51e+00	0	46	104	0	60	236238
2026-01-29 02:11:10.24	28.07	10.68	-58.8	-76.0	3.6	1.51e+00	0	46	104	0	60	248197
2026-01-29 02:11:14.27	27.62	10.97	-53.5	-73.7	3.6	1.51e+00	0	46	104	0	60	189628
2026-01-29 02:11:18.28	27.17	11.26	-59.5	-76.1	3.6	1.51e+00	0	46	104	0	60	250587
2026-01-29 02:11:22.31	26.70	11.55	-53.3	-73.8	3.6	1.51e+00	0	46	104	0	60	191236
2026-01-29 02:11:26.34	26.22	11.84	-56.1	-75.1	3.6	1.51e+00	0	46	104	0	60	223230
2026-01-29 02:11:30.36	25.74	12.13	-53.6	-74.4	3.6	1.51e+00	0	46	104	0	60	206700
2026-01-29 02:11:34.39	25.24	12.43	-53.8	-74.7	3.6	1.51e+00	0	46	104	0	60	212267
2026-01-29 02:11:38.41	24.74	12.72	-56.0	-74.6	3.6	1.51e+00	0	46	104	0	60	209291
2026-01-29 02:11:42.43	24.22	13.02	-47.7	-72.5	3.6	1.51e+00	0	46	104	0	60	164597
2026-01-29 02:11:46.45	23.69	13.31	-47.0	-72.1	3.6	1.51e+00	0	46	104	0	60	158392
2026-01-29 02:11:50.48	23.15	13.61	-51.0	-73.1	3.6	1.51e+00	0	46	104	0	60	178030
2026-01-29 02:11:54.51	22.60	13.92	-55.1	-73.0	3.6	1.51e+00	0	46	104	0	60	175283
2026-01-29 02:11:58.54	22.04	14.22	-45.2	-68.0	3.6	1.51e+00	0	46	104	0	60	98110
2026-01-29 02:12:02.57	21.47	14.52	-50.8	-74.3	3.6	1.51e+00	0	46	104	0	60	203175
2026-01-29 02:12:06.60	20.88	14.82	-54.6	-73.3	3.6	1.51e+00	0	46	104	0	60	181670
2026-01-29 02:12:10.63	20.28	15.13	-51.6	-71.9	3.6	1.51e+00	0	46	104	0	60	154567
2026-01-29 02:12:14.66	19.67	15.43	-57.5	-74.9	3.6	1.51e+00	0	46	104	0	60	218010
2026-01-29 02:12:18.68	19.05	15.73	-51.5	-74.4	3.6	1.51e+00	0	46	104	0	60	205392
2026-01-29 02:12:22.69	18.41	16.04	-51.4	-73.1	3.6	1.51e+00	0	46	104	0	60	176442
2026-01-29 02:12:26.73	17.76	16.34	-48.6	-72.4	3.6	1.50e+00	0	46	104	0	60	163665
2026-01-29 02:12:30.76	17.10	16.65	-51.4	-73.7	3.6	1.51e+00	0	46	104	0	60	189896
2026-01-29 02:12:34.79	16.42	16.95	-51.8	-71.0	3.6	1.51e+00	0	46	104	0	60	139568
2026-01-29 02:12:38.80	15.73	17.26	-50.7	-71.2	3.6	1.51e+00	0	46	104	0	60	142414
2026-01-29 02:12:42.83	15.02	17.56	-56.6	-75.4	3.6	1.51e+00	0	46	104	0	60	231920
2026-01-29 02:12:46.87	14.30	17.87	-52.0	-73.9	3.6	1.51e+00	0	46	104	0	60	194863
2026-01-29 02:12:50.90	13.57	18.17	-55.6	-75.9	3.6	1.51e+00	0	46	104	0	60	243175
2026-01-29 02:12:54.92	12.82	18.47	-56.8	-76.6	3.6	1.51e+00	0	46	104	0	60	265310
2026-01-29 02:12:58.95	12.05	18.77	-54.4	-74.3	3.6	1.51e+00	0	46	104	0	60	202386
2026-01-29 02:13:02.98	11.27	19.06	-55.0	-74.3	3.6	1.51e+00	0	46	104	0	60	203324
2026-01-29 02:13:07.00	10.48	19.36	-59.8	-76.8	3.6	1.51e+00	0	46	104	0	60	272553
2026-01-29 02:13:11.02	9.67	19.65	-53.4	-75.0	3.6	1.51e+00	0	46	104	0	60	219079
2026-01-29 02:13:15.05	8.84	19.94	-59.3	-76.8	3.6	1.51e+00	0	46	104	0	60	270930
2026-01-29 02:13:19.09	7.99	20.23	-56.1	-76.5	3.6	1.51e+00	0	46	104	0	60	262103
2026-01-29 02:13:23.11	7.13	20.51	-59.1	-76.6	3.6	1.51e+00	0	46	104	0	60	265218
2026-01-29 02:13:27.14	6.26	20.79	-55.7	-74.9	3.6	1.51e+00	0	46	104	0	60	218076
2026-01-29 02:13:31.16	5.37	21.06	-58.3	-76.3	3.6	1.51e+00	0	46	104	0	60	257317
2026-01-29 02:13:35.18	4.46	21.33	-58.4	-75.6	3.6	1.51e+00	0	46	104	0	60	235717
2026-01-29 02:13:39.21	3.54	21.60	-58.5	-76.5	3.6	1.51e+00	0	46	104	0	60	261204
2026-01-29 02:13:43.23	2.60	21.86	-60.3	-76.7	3.6	1.51e+00	0	46	104	0	60	267901
2026-01-29 02:13:47.25	1.65	22.11	-59.4	-76.2	3.5	1.51e+00	0	46	104	0	60	251686
2026-01-29 02:13:51.28	0.67	22.36	-56.3	-74.6	3.6	1.51e+00	0	46	104	0	60	209785
2026-01-29 02:13:55.29	359.69	22.60	-58.6	-76.9	3.6	1.51e+00	0	46	104	0	60	273625
2026-01-29 02:13:59.30	358.69	22.83	-56.4	-74.5	3.6	1.51e+00	0	46	104	0	60	207213
2026-01-29 02:14:03.32	357.68	23.06	-54.9	-74.8	3.6	1.51e+00	0	46	104	0	60	215172
2026-01-29 02:14:07.35	356.65	23.28	-55.7	-75.2	3.6	1.51e+00	0	46	104	0	60	225034
2026-01-29 02:14:11.38	355.60	23.49	-60.3	-76.5	3.6	1.51e+00	0	46	104	0	60	261037
2026-01-29 02:14:15.39	354.54	23.69	-59.0	-76.5	3.6	1.51e+00	0	47	104	0	60	262038
2026-01-29 02:14:19.41	353.47	23.88	-58.3	-76.3	3.6	1.51e+00	0	46	104	0	60	257236
2026-01-29 02:14:23.44	352.38	24.06	-58.4	-76.3	3.6	1.51e+00	0	46	104	0	60	257177
2026-01-29 02:14:27.47	351.28	24.23	-59.8	-76.9	3.6	1.51e+00	0	46	104	0	60	274561
2026-01-29 02:14:31.50	350.17	24.39	-59.8	-76.9	3.6	1.51e+00	0	46	104	0	60	273009
2026-01-29 02:14:35.52	349.05	24.55	-59.4	-76.6	3.6	1.51e+00	0	46	104	0	60	263391
2026-01-29 02:14:39.55	347.92	24.69	-60.1	-76.9	3.6	1.51e+00	0	46	104	0	60	272808
2026-01-29 02:14:43.58	346.78	24.81	-60.0	-76.8	3.6	1.51e+00	0	46	104	0	60	272513
2026-01-29 02:14:47.60	345.63	24.93	-59.7	-76.3	3.6	1.51e+00	0	46	104	0	60	255079
2026-01-29 02:14:51.62	344.47	25.03	-59.4	-77.2	3.6	1.51e+00	0	46	104	0	60	283177
2026-01-29 02:14:55.64	343.30	25.12	-58.6	-76.9	3.6	1.51e+00	0	46	104	0	60	273027
2026-01-29 02:14:59.68	342.13	25.20	-56.6	-75.8	3.6	1.51e+00	0	46	104	0	60	241120
2026-01-29 02:15:03.71	340.95	25.27	-59.5	-77.3	3.6	1.51e+00	0	46	104	0	60	286156
2026-01-29 02:15:07.72	339.77	25.32	-59.1	-76.2	3.6	1.51e+00	0	46	104	0	60	254046
2026-01-29 02:15:11.74	338.58	25.36	-59.4	-76.9	3.6	1.51e+00	0	46	104	0	60	274065
2026-01-29 02:15:15.77	337.39	25.38	-59.9	-77.0	3.6	1.51e+00	0	46	104	0	60	277215
2026-01-29 02:15:19.80	336.20	25.39	-59.9	-77.2	3.6	1.51e+00	0	46	104	0	60	283254
2026-01-29 02:15:23.81	335.02	25.39	-58.9	-77.0	3.6	1.51e+00	0	46	104	0	60	277573
2026-01-29 02:15:27.83	333.83	25.38	-60.2	-76.9	3.6	1.51e+00	0	46	104	0	60	273442
2026-01-29 02:15:31.86	332.64	25.35	-60.7	-77.0	3.6	1.51e+00	0	46	104	0	60	276468
2026-01-29 02:15:35.88	331.45	25.31	-59.2	-76.8	3.6	1.51e+00	0	46	104	0	60	270947
2026-01-29 02:15:39.90	330.27	25.25	-60.3	-76.9	3.6	1.51e+00	0	46	104	0	60	274092
2026-01-29 02:15:43.93	329.10	25.18	-60.3	-76.9	3.6	1.51e+00	0	46	104	0	60	273001
2026-01-29 02:15:47.96	327.92	25.10	-60.2	-77.0	3.6	1.51e+00	0	46	104	0	60	278674
2026-01-29 02:15:51.98	326.76	25.01	-60.5	-77.1	3.6	1.51e+00	0	46	104	0	60	279477
2026-01-29 02:15:56.00	325.60	24.90	-60.7	-77.0	3.6	1.51e+00	0	47	104	0	60	278457
2026-01-29 02:16:00.03	324.45	24.78	-59.9	-76.7	3.6	1.51e+00	0	46	104	0	60	269217
2026-01-29 02:16:04.06	323.31	24.65	-60.1	-76.7	3.6	1.51e+00	0	46	104	0	60	267518
2026-01-29 02:16:08.09	322.18	24.51	-58.8	-76.7	3.5	1.51e+00	0	47	104	0	60	268061
2026-01-29 02:16:12.12	321.06	24.35	-58.6	-76.7	3.6	1.51e+00	0	46	104	0	60	267864
2026-01-29 02:16:16.14	319.95	24.19	-58.8	-76.4	3.6	1.51e+00	0	46	104	0	60	259141
2026-01-29 02:16:20.17	318.85	24.01	-59.8	-76.4	3.6	1.51e+00	0	46	104	0	60	260258
2026-01-29 02:16:24.19	317.77	23.83	-59.5	-76.1	3.6	1.51e+00	0	46	104	0	60	251269
2026-01-29 02:16:28.21	316.70	23.63	-59.0	-76.6	3.6	1.51e+00	0	46	104	0	60	263376
2026-01-29 02:16:32.23	315.64	23.43	-58.6	-76.3	3.6	1.51e+00	0	46	104	0	60	257026
2026-01-29 02:16:36.26	314.60	23.22	-60.2	-76.6	3.6	1.51e+00	0	46	104	0	60	263932
2026-01-29 02:16:40.28	313.57	23.00	-59.8	-76.8	3.6	1.51e+00	0	46	104	0	60	271135
2026-01-29 02:16:44.31	312.56	22.77	-59.0	-76.3	3.6	1.51e+00	0	46	104	0	60	255846
2026-01-29 02:16:48.34	311.56	22.53	-58.9	-76.3	3.6	1.51e+00	0	46	104	0	60	256616
2026-01-29 02:16:52.37	310.57	22.29	-58.8	-76.6	3.6	1.51e+00	0	46	104	0	60	263787
2026-01-29 02:16:56.40	309.60	22.04	-58.7	-76.4	3.6	1.51e+00	0	46	104	0	60	259398
2026-01-29 02:17:00.42	308.65	21.78	-59.1	-76.4	3.6	1.51e+00	0	46	104	0	60	259400
2026-01-29 02:17:04.44	307.72	21.52	-59.7	-76.4	3.6	1.51e+00	0	46	104	0	60	258187
2026-01-29 02:17:08.47	306.80	21.25	-58.9	-76.2	3.6	1.51e+00	0	46	104	0	60	252329
2026-01-29 02:17:12.51	305.89	20.98	-58.1	-76.0	3.6	1.51e+00	0	46	104	0	60	246310
2026-01-29 02:17:16.54	305.00	20.70	-58.0	-76.0	3.6	1.51e+00	0	46	104	0	60	248237
2026-01-29 02:17:20.57	304.13	20.42	-58.3	-75.9	3.5	1.51e+00	0	46	104	0	60	243144
2026-01-29 02:17:24.58	303.28	20.14	-58.0	-75.4	3.6	1.51e+00	0	46	104	0	60	231410
2026-01-29 02:17:28.61	302.44	19.85	-58.2	-74.8	3.6	1.51e+00	0	46	104	0	60	216374
2026-01-29 02:17:32.64	301.61	19.56	-58.2	-75.0	3.6	1.51e+00	0	46	104	0	60	220922
2026-01-29 02:17:36.67	300.80	19.27	-58.4	-76.1	3.6	1.51e+00	0	46	104	0	60	249746
2026-01-29 02:17:40.70	300.01	18.97	-58.7	-75.3	3.6	1.51e+00	0	46	104	0	60	229055
2026-01-29 02:17:44.73	299.23	18.68	-58.5	-76.4	3.6	1.51e+00	0	46	104	0	60	258919
2026-01-29 02:17:48.76	298.47	18.38	-58.0	-75.0	3.6	1.51e+00	0	46	104	0	60	220246
2026-01-29 02:17:52.78	297.72	18.07	-58.2	-76.3	3.6	1.51e+00	0	46	104	0	60	256468
2026-01-29 02:17:56.80	296.99	17.77	-58.3	-75.4	3.6	1.51e+00	0	46	104	0	60	229684
2026-01-29 02:18:00.84	296.27	17.47	-57.6	-75.0	3.6	1.51e+00	0	46	104	0	60	220859
2026-01-29 02:18:04.87	295.57	17.16	-57.6	-75.1	3.6	1.51e+00	0	46	104	0	60	221955
2026-01-29 02:18:08.88	294.88	16.86	-57.2	-74.9	3.6	1.51e+00	0	46	104	0	60	219003
2026-01-29 02:18:12.90	294.21	16.56	-57.1	-74.9	3.6	1.51e+00	0	46	104	0	60	219035
2026-01-29 02:18:16.93	293.54	16.25	-58.7	-76.1	3.6	1.51e+00	0	47	104	0	60	250945
2026-01-29 02:18:20.96	292.90	15.94	-58.4	-74.8	3.6	1.51e+00	0	46	104	0	60	214347
2026-01-29 02:18:24.98	292.26	15.64	-59.1	-75.1	3.6	1.51e+00	0	47	104	0	60	222653
2026-01-29 02:18:29.00	291.64	15.34	-59.1	-75.6	3.6	1.51e+00	0	46	104	0	60	234769
2026-01-29 02:18:33.03	291.03	15.03	-58.5	-76.0	3.6	1.51e+00	0	47	104	0	60	247208
2026-01-29 02:18:37.06	290.44	14.73	-58.2	-74.8	3.6	1.51e+00	0	47	104	0	60	215611
2026-01-29 02:18:41.09	289.85	14.42	-58.4	-75.9	3.6	1.51e+00	0	46	104	0	60	244970
2026-01-29 02:18:45.11	289.28	14.12	-57.5	-74.6	3.6	1.51e+00	0	46	104	0	60	210860
2026-01-29 02:18:49.14	288.72	13.82	-58.4	-75.9	3.6	1.51e+00	0	46	104	0	60	245497
2026-01-29 02:18:53.17	288.17	13.52	-57.4	-74.6	3.6	1.51e+00	0	46	104	0	60	211476
2026-01-29 02:18:57.20	287.63	13.22	-58.1	-75.4	3.6	1.51e+00	0	47	104	0	60	229806
2026-01-29 02:19:01.23	287.11	12.92	-58.0	-73.9	3.6	1.51e+00	0	46	104	0	60	193966
2026-01-29 02:19:05.26	286.59	12.62	-58.0	-74.3	3.6	1.51e+00	0	46	104	0	60	203053
2026-01-29 02:19:09.29	286.08	12.33	-58.1	-73.8	3.6	1.51e+00	0	46	104	0	60	191479
2026-01-29 02:19:13.32	285.59	12.03	-58.1	-74.3	3.6	1.51e+00	0	46	104	0	60	203702
2026-01-29 02:19:17.35	285.10	11.74	-58.7	-75.6	3.6	1.51e+00	0	46	104	0	60	235093
2026-01-29 02:19:21.38	284.63	11.45	-58.1	-75.0	3.6	1.51e+00	0	46	104	0	60	221117
2026-01-29 02:19:25.41	284.16	11.16	-58.7	-75.4	3.6	1.51e+00	0	46	104	0	60	231721
2026-01-29 02:19:29.44	283.71	10.87	-58.1	-75.3	3.6	1.51e+00	0	46	104	0	60	227403
2026-01-29 02:19:33.47	283.26	10.58	-58.5	-75.2	3.6	1.51e+00	0	46	104	0	60	226625
2026-01-29 02:19:37.49	282.82	10.30	-57.8	-74.8	3.6	1.51e+00	0	46	104	0	60	214379
2026-01-29 02:19:41.52	282.39	10.01	-58.4	-74.8	3.6	1.51e+00	0	47	104	0	60	215665
2026-01-29 02:19:45.55	281.97	9.73	-58.3	-74.2	3.6	1.50e+00	0	46	104	0	60	200052
2026-01-29 02:19:49.58	281.55	9.45	-57.6	-74.9	3.6	1.51e+00	0	47	104	0	60	218183
2026-01-29 02:19:53.59	281.15	9.18	-58.1	-74.6	3.6	1.51e+00	0	47	104	0	60	210545
2026-01-29 02:19:57.63	280.75	8.90	-57.9	-74.6	3.6	1.51e+00	0	47	104	0	60	211254
2026-01-29 02:20:01.66	280.36	8.62	-58.2	-74.9	3.5	1.51e+00	0	46	104	0	60	218140
2026-01-29 02:20:05.69	279.98	8.35	-58.3	-74.8	3.6	1.51e+00	0	47	104	0	60	215644
2026-01-29 02:20:09.71	279.61	8.08	-58.3	-75.0	3.6	1.51e+00	0	47	104	0	60	219101
2026-01-29 02:20:13.74	279.24	7.81	-58.3	-75.2	3.6	1.51e+00	0	47	104	0	60	224193
2026-01-29 02:20:17.77	278.88	7.54	-58.5	-75.0	3.6	1.51e+00	0	46	104	0	60	219435
2026-01-29 02:20:21.80	278.52	7.27	-58.5	-75.0	3.6	1.51e+00	0	47	104	0	60	220247
2026-01-29 02:20:25.82	278.18	7.01	-58.6	-74.5	3.6	1.51e+00	0	46	104	0	60	208470
2026-01-29 02:20:29.84	277.84	6.75	-58.6	-75.2	3.6	1.51e+00	0	46	104	0	60	224363
2026-01-29 02:20:33.87	277.50	6.49	-58.6	-74.8	3.6	1.51e+00	0	47	104	0	60	215301
2026-01-29 02:20:37.90	277.17	6.23	-58.8	-75.2	3.6	1.51e+00	0	46	104	0	60	226003
2026-01-29 02:20:41.92	276.85	5.97	-58.7	-75.2	3.6	1.51e+00	0	47	104	0	60	225922
2026-01-29 02:20:45.96	276.53	5.71	-58.0	-75.5	3.6	1.51e+00	0	46	104	0	60	233955
2026-01-29 02:20:49.99	276.22	5.46	-54.9	-75.7	3.6	1.51e+00	0	47	104	0	60	238806
2026-01-29 02:20:54.02	275.92	5.20	-54.3	-75.6	3.6	1.51e+00	0	47	104	0	60	236997
2026-01-29 02:20:58.03	275.62	4.95	-57.3	-76.8	3.6	1.51e+00	0	46	104	0	60	270310
2026-01-29 02:21:02.05	275.32	4.70	-57.6	-77.0	3.6	1.51e+00	0	46	104	0	60	278500
2026-01-29 02:21:06.09	275.03	4.46	-57.3	-76.9	3.6	1.51e+00	0	47	104	0	60	273288
2026-01-29 02:21:10.11	274.75	4.21	-57.1	-76.8	3.6	1.51e+00	0	46	104	0	60	270456
2026-01-29 02:21:14.12	274.47	3.97	-57.5	-76.9	3.6	1.51e+00	0	46	104	0	60	274340
2026-01-29 02:21:18.15	274.20	3.72	-57.4	-76.8	3.6	1.51e+00	0	46	104	0	60	269673
2026-01-29 02:21:22.18	273.93	3.48	-57.5	-76.7	3.6	1.51e+00	0	46	104	0	60	267915
2026-01-29 02:21:26.20	273.66	3.24	-57.5	-77.0	3.6	1.51e+00	0	46	104	0	60	277786
2026-01-29 02:21:30.22	273.40	3.00	-57.6	-76.8	3.6	1.51e+00	0	46	104	0	60	271145
2026-01-29 02:21:34.24	273.15	2.76	-57.5	-77.0	3.6	1.51e+00	0	47	104	0	60	276898
2026-01-29 02:21:38.27	272.89	2.53	-57.5	-76.7	3.6	1.51e+00	0	46	104	0	60	269491
2026-01-29 02:21:42.30	272.64	2.29	-57.5	-76.9	3.6	1.51e+00	0	46	104	0	60	274874
2026-01-29 02:21:46.33	272.40	2.06	-57.3	-76.5	3.6	1.51e+00	0	46	104	0	60	263339
2026-01-29 02:21:50.37	272.16	1.83	-57.3	-76.9	3.6	1.51e+00	0	46	104	0	60	272712
2026-01-29 02:21:54.39	271.92	1.60	-57.2	-76.7	3.6	1.51e+00	0	46	104	0	60	266856
2026-01-29 02:21:58.41	271.69	1.37	-56.9	-76.4	3.6	1.51e+00	0	47	104	0	60	260261
2026-01-29 02:22:02.43	271.46	1.14	-56.9	-76.5	3.6	1.51e+00	0	46	104	0	60	262726
2026-01-29 02:22:06.46	271.24	0.92	-56.9	-76.3	3.6	1.51e+00	0	47	104	0	60	256865
2026-01-29 02:22:10.49	271.02	0.69	-56.8	-76.3	3.6	1.51e+00	0	46	104	0	60	256543
2026-01-29 02:22:14.52	270.80	0.47	-56.8	-76.4	3.6	1.51e+00	0	47	104	0	60	258431
2026-01-29 02:22:18.54	270.59	0.25	-56.9	-76.5	3.6	1.51e+00	0	46	104	0	60	262792
2026-01-29 02:22:22.55	270.38	0.03	-56.9	-76.2	3.6	1.51e+00	0	46	104	0	60	254189

#Closed at: 2026-01-29 02:22:23
#Recorded file [0 MB]: D:/Data/35015_260129_051822.dat