passes_logs/2026/01/29/R3.2S-Naryan-Mar/R3.2S-Naryan-Mar__20260129_002825_NOAA_20_JPSS-1_rec.log

#Pass ID: 20260129_002825_NOAA 20 (JPSS-1)
#Satellite: NOAA 20 (JPSS-1)
#Configuration: NOAA 20
#almurnet v.1.7.20240730
#Start time: 2026-01-29 00:28:25

#Version: 2.2.20231116
#Station: R3.2S-Naryan-Mar
#Location: 53.008057 lon 67.646978 lat
#TLE: 1 43013U 17073A   26027.80586608  .00000156  00000+0  94940-4 0  9998
#TLE: 2 43013  98.7647 328.6108 0000947  21.3465 338.7750 14.19541216424550

#Time	Az	El	Level	Level2	SNR	BER	BlckErr	Temp	State	Recorded	gain1	gain2
2026-01-29 00:28:25.94	28.77	0.03	-61.5	-77.9	3.5	1.51e+00	0	44	0	0	60	309226
2026-01-29 00:28:29.96	28.68	0.27	-61.5	-78.1	3.6	1.51e+00	0	45	104	0	60	316185
2026-01-29 00:28:33.99	28.57	0.51	-61.9	-78.3	3.6	1.51e+00	0	45	104	0	60	320568
2026-01-29 00:28:38.02	28.47	0.75	-60.4	-77.6	3.6	1.51e+00	0	45	104	0	60	298061
2026-01-29 00:28:42.05	28.37	0.99	-58.9	-76.7	3.6	1.51e+00	0	45	104	0	60	269034
2026-01-29 00:28:46.07	28.26	1.23	-59.1	-76.4	3.6	1.51e+00	0	45	104	0	60	259071
2026-01-29 00:28:50.10	28.15	1.48	-59.1	-76.3	3.6	1.51e+00	0	45	104	0	60	254909
2026-01-29 00:28:54.12	28.04	1.73	-59.1	-76.2	3.6	1.51e+00	0	45	104	0	60	251885
2026-01-29 00:28:58.15	27.93	1.98	-59.1	-76.2	3.6	1.51e+00	0	45	104	0	60	251985
2026-01-29 00:29:02.18	27.82	2.23	-59.1	-76.2	3.6	1.51e+00	0	46	104	0	60	254137
2026-01-29 00:29:06.20	27.70	2.49	-59.2	-76.3	3.6	1.51e+00	0	46	104	0	60	254917
2026-01-29 00:29:10.23	27.58	2.74	-59.1	-76.3	3.6	1.51e+00	0	45	104	0	60	257273
2026-01-29 00:29:14.26	27.46	3.00	-59.1	-76.1	3.6	1.51e+00	0	46	104	0	60	250940
2026-01-29 00:29:18.28	27.34	3.26	-59.1	-76.3	3.6	1.51e+00	0	46	104	0	60	254852
2026-01-29 00:29:22.31	27.21	3.53	-59.1	-76.1	3.6	1.51e+00	0	46	104	0	60	251368
2026-01-29 00:29:26.34	27.08	3.79	-59.2	-76.2	3.6	1.51e+00	0	46	104	0	60	254194
2026-01-29 00:29:30.36	26.95	4.06	-59.2	-76.3	3.6	1.51e+00	0	46	104	0	60	255996
2026-01-29 00:29:34.38	26.81	4.33	-59.3	-76.2	3.6	1.51e+00	0	46	104	0	60	253085
2026-01-29 00:29:38.41	26.68	4.60	-59.3	-76.2	3.6	1.51e+00	0	46	104	0	60	253803
2026-01-29 00:29:42.44	26.54	4.88	-59.3	-76.4	3.6	1.51e+00	0	46	104	0	60	258177
2026-01-29 00:29:46.47	26.39	5.16	-59.3	-76.3	3.6	1.51e+00	0	46	104	0	60	255048
2026-01-29 00:29:50.49	26.25	5.44	-59.3	-76.2	3.6	1.51e+00	0	46	104	0	60	253161
2026-01-29 00:29:54.51	26.10	5.72	-59.3	-76.2	3.6	1.51e+00	0	46	104	0	60	252558
2026-01-29 00:29:58.54	25.94	6.01	-59.3	-76.0	3.6	1.51e+00	0	46	104	0	60	246870
2026-01-29 00:30:02.57	25.79	6.30	-59.0	-75.9	3.6	1.51e+00	0	46	104	0	60	244990
2026-01-29 00:30:06.60	25.63	6.59	-59.1	-75.6	3.6	1.51e+00	0	46	104	0	60	235576
2026-01-29 00:30:10.63	25.46	6.89	-59.7	-76.3	3.6	1.51e+00	0	46	104	0	60	256791
2026-01-29 00:30:14.67	25.30	7.19	-58.0	-75.2	3.6	1.51e+00	0	46	104	0	60	224286
2026-01-29 00:30:18.70	25.12	7.49	-59.1	-76.2	3.6	1.51e+00	0	46	104	0	60	252129
2026-01-29 00:30:22.73	24.95	7.80	-57.2	-75.0	3.6	1.51e+00	0	46	104	0	60	220775
2026-01-29 00:30:26.76	24.77	8.11	-59.4	-76.3	3.6	1.51e+00	0	46	104	0	60	254676
2026-01-29 00:30:30.79	24.59	8.42	-57.4	-75.2	3.6	1.51e+00	0	46	104	0	60	225574
2026-01-29 00:30:34.82	24.40	8.74	-58.6	-76.4	3.5	1.51e+00	0	46	104	0	60	257558
2026-01-29 00:30:38.85	24.21	9.06	-59.0	-76.1	3.6	1.51e+00	0	46	104	0	60	249876
2026-01-29 00:30:42.88	24.01	9.38	-59.2	-76.1	3.6	1.51e+00	0	46	104	0	60	249958
2026-01-29 00:30:46.90	23.81	9.71	-59.4	-75.7	3.6	1.51e+00	0	46	104	0	60	237751
2026-01-29 00:30:50.93	23.60	10.04	-59.4	-76.3	3.6	1.51e+00	0	46	104	0	60	255554
2026-01-29 00:30:54.95	23.39	10.38	-59.4	-75.8	3.6	1.51e+00	0	46	104	0	60	242286
2026-01-29 00:30:58.97	23.17	10.72	-57.7	-76.5	3.6	1.51e+00	0	46	104	0	60	262643
2026-01-29 00:31:03.00	22.95	11.07	-59.6	-75.5	3.6	1.51e+00	0	46	104	0	60	232160
2026-01-29 00:31:07.03	22.72	11.41	-59.1	-76.5	3.6	1.51e+00	0	46	104	0	60	261718
2026-01-29 00:31:11.05	22.49	11.77	-56.5	-75.5	3.6	1.51e+00	0	46	104	0	60	233822
2026-01-29 00:31:15.07	22.25	12.13	-51.9	-72.7	3.6	1.51e+00	0	46	104	0	60	169656
2026-01-29 00:31:19.10	22.00	12.49	-55.4	-74.4	3.6	1.51e+00	0	46	104	0	60	205499
2026-01-29 00:31:23.13	21.75	12.86	-56.6	-75.7	3.6	1.51e+00	0	46	104	0	60	239611
2026-01-29 00:31:27.16	21.49	13.23	-55.2	-74.9	3.6	1.51e+00	0	46	104	0	60	217517
2026-01-29 00:31:31.18	21.22	13.61	-59.9	-76.6	3.6	1.51e+00	0	46	104	0	60	264394
2026-01-29 00:31:35.22	20.95	13.99	-54.9	-74.2	3.6	1.51e+00	0	46	104	0	60	199830
2026-01-29 00:31:39.25	20.67	14.38	-59.0	-75.9	3.6	1.51e+00	0	46	104	0	60	245271
2026-01-29 00:31:43.28	20.38	14.78	-59.0	-75.8	3.6	1.51e+00	0	46	104	0	60	242451
2026-01-29 00:31:47.31	20.08	15.18	-58.5	-75.9	3.6	1.51e+00	0	46	104	0	60	244065
2026-01-29 00:31:51.33	19.77	15.58	-58.9	-75.5	3.6	1.51e+00	0	46	104	0	60	234718
2026-01-29 00:31:55.37	19.45	16.00	-59.6	-76.7	3.6	1.51e+00	0	46	104	0	60	269251
2026-01-29 00:31:59.40	19.13	16.41	-58.1	-75.9	3.6	1.51e+00	0	46	104	0	60	245769
2026-01-29 00:32:03.43	18.79	16.84	-57.3	-75.8	3.5	1.51e+00	0	46	104	0	60	241832
2026-01-29 00:32:07.45	18.45	17.27	-59.7	-76.3	3.6	1.51e+00	0	46	104	0	60	255890
2026-01-29 00:32:11.48	18.09	17.71	-59.3	-76.2	3.6	1.51e+00	0	46	104	0	60	253725
2026-01-29 00:32:15.51	17.73	18.15	-59.2	-76.7	3.6	1.51e+00	0	46	104	0	60	269175
2026-01-29 00:32:19.55	17.35	18.60	-59.0	-76.2	3.6	1.51e+00	0	46	104	0	60	253461
2026-01-29 00:32:23.56	16.96	19.06	-59.8	-76.3	3.6	1.51e+00	0	46	104	0	60	256666
2026-01-29 00:32:27.59	16.56	19.52	-58.4	-76.2	3.6	1.51e+00	0	46	104	0	60	252739
2026-01-29 00:32:31.62	16.14	20.00	-59.9	-76.8	3.6	1.51e+00	0	46	104	0	60	270431
2026-01-29 00:32:35.64	15.72	20.47	-60.2	-76.3	3.6	1.51e+00	0	46	104	0	60	255836
2026-01-29 00:32:39.66	15.28	20.96	-60.3	-76.7	3.6	1.51e+00	0	46	104	0	60	267672
2026-01-29 00:32:43.69	14.82	21.45	-60.3	-76.8	3.6	1.51e+00	0	46	104	0	60	272597
2026-01-29 00:32:47.73	14.34	21.96	-60.6	-76.9	3.6	1.51e+00	0	46	104	0	60	275484
2026-01-29 00:32:51.75	13.86	22.47	-60.2	-76.9	3.6	1.51e+00	0	46	104	0	60	273325
2026-01-29 00:32:55.78	13.35	22.99	-59.9	-76.8	3.6	1.51e+00	0	46	104	0	60	272413
2026-01-29 00:32:59.80	12.83	23.51	-59.8	-76.5	3.6	1.51e+00	0	47	104	0	60	261676
2026-01-29 00:33:03.83	12.28	24.05	-60.4	-76.8	3.6	1.51e+00	0	46	104	0	60	270024
2026-01-29 00:33:07.85	11.72	24.59	-59.8	-76.5	3.6	1.51e+00	0	46	104	0	60	263156
2026-01-29 00:33:11.88	11.14	25.14	-58.7	-76.2	3.6	1.51e+00	0	46	104	0	60	253047
2026-01-29 00:33:15.91	10.54	25.70	-60.2	-76.5	3.6	1.51e+00	0	46	104	0	60	262521
2026-01-29 00:33:19.93	9.92	26.26	-60.2	-76.8	3.6	1.51e+00	0	46	104	0	60	270460
2026-01-29 00:33:23.96	9.27	26.84	-60.1	-76.6	3.6	1.51e+00	0	46	104	0	60	265033
2026-01-29 00:33:27.97	8.60	27.42	-60.1	-76.7	3.6	1.51e+00	0	46	104	0	60	268400
2026-01-29 00:33:31.99	7.90	28.01	-57.9	-76.1	3.6	1.51e+00	0	46	104	0	60	251050
2026-01-29 00:33:36.01	7.18	28.61	-60.2	-76.7	3.6	1.51e+00	0	46	104	0	60	268026
2026-01-29 00:33:40.03	6.42	29.21	-60.0	-76.5	3.6	1.51e+00	0	46	104	0	60	261594
2026-01-29 00:33:44.05	5.64	29.83	-60.5	-76.7	3.6	1.51e+00	0	46	104	0	60	269349
2026-01-29 00:33:48.07	4.83	30.45	-60.5	-76.8	3.6	1.51e+00	0	46	104	0	60	269588
2026-01-29 00:33:52.08	3.98	31.07	-60.5	-76.8	3.6	1.51e+00	0	46	104	0	60	272370
2026-01-29 00:33:56.10	3.11	31.70	-60.3	-76.8	3.6	1.51e+00	0	46	104	0	60	271462
2026-01-29 00:34:00.10	2.19	32.34	-60.2	-76.8	3.6	1.51e+00	0	46	104	0	60	270769
2026-01-29 00:34:04.12	1.24	32.98	-60.3	-76.8	3.6	1.51e+00	0	46	104	0	60	271786
2026-01-29 00:34:08.14	0.25	33.63	-60.3	-76.9	3.6	1.51e+00	0	46	104	0	60	273975
2026-01-29 00:34:12.16	359.22	34.28	-60.6	-77.0	3.6	1.51e+00	0	46	104	0	60	276853
2026-01-29 00:34:16.17	358.15	34.93	-60.7	-77.0	3.6	1.51e+00	0	46	104	0	60	276224
2026-01-29 00:34:20.17	357.03	35.58	-60.8	-76.9	3.6	1.51e+00	0	47	104	0	60	275517
2026-01-29 00:34:24.19	355.87	36.24	-60.8	-77.0	3.6	1.51e+00	0	47	104	0	60	276992
2026-01-29 00:34:28.22	354.65	36.90	-60.8	-77.0	3.6	1.51e+00	0	46	104	0	60	276401
2026-01-29 00:34:32.25	353.38	37.55	-60.8	-77.1	3.5	1.51e+00	0	47	104	0	60	279962
2026-01-29 00:34:36.27	352.07	38.20	-60.7	-77.1	3.6	1.51e+00	0	46	104	0	60	280676
2026-01-29 00:34:40.30	350.69	38.84	-60.8	-77.2	3.6	1.51e+00	0	46	104	0	60	283281
2026-01-29 00:34:44.32	349.27	39.48	-60.6	-77.0	3.6	1.51e+00	0	46	104	0	60	277592
2026-01-29 00:34:48.35	347.78	40.11	-60.8	-77.1	3.6	1.51e+00	0	46	104	0	60	279274
2026-01-29 00:34:52.38	346.24	40.72	-60.8	-77.0	3.6	1.51e+00	0	46	104	0	60	278677
2026-01-29 00:34:56.40	344.64	41.32	-60.7	-77.1	3.6	1.51e+00	0	46	104	0	60	279515
2026-01-29 00:35:00.43	342.97	41.91	-60.6	-77.0	3.6	1.51e+00	0	46	104	0	60	277062
2026-01-29 00:35:04.45	341.25	42.47	-60.9	-77.0	3.6	1.51e+00	0	46	104	0	60	278829
2026-01-29 00:35:08.48	339.46	43.01	-60.8	-77.1	3.6	1.51e+00	0	46	104	0	60	280200
2026-01-29 00:35:12.51	337.62	43.53	-60.8	-77.0	3.6	1.51e+00	0	46	104	0	60	277097
2026-01-29 00:35:16.54	335.71	44.02	-60.7	-77.0	3.6	1.51e+00	0	46	104	0	60	277702
2026-01-29 00:35:20.57	333.75	44.48	-60.9	-77.0	3.6	1.51e+00	0	46	104	0	60	276172
2026-01-29 00:35:24.59	331.73	44.90	-60.8	-77.0	3.6	1.51e+00	0	46	104	0	60	277492
2026-01-29 00:35:28.62	329.66	45.29	-60.8	-77.0	3.6	1.51e+00	0	47	104	0	60	278415
2026-01-29 00:35:32.65	327.54	45.64	-60.8	-77.0	3.6	1.51e+00	0	46	104	0	60	277520
2026-01-29 00:35:36.68	325.37	45.95	-60.9	-77.1	3.6	1.51e+00	0	46	104	0	60	278988
2026-01-29 00:35:40.70	323.17	46.21	-61.0	-77.2	3.6	1.51e+00	0	46	104	0	60	283580
2026-01-29 00:35:44.73	320.93	46.43	-60.8	-77.1	3.6	1.51e+00	0	46	104	0	60	281026
2026-01-29 00:35:48.77	318.65	46.60	-60.7	-77.1	3.6	1.51e+00	0	46	104	0	60	279184
2026-01-29 00:35:52.80	316.36	46.72	-60.8	-77.1	3.6	1.51e+00	0	46	104	0	60	279345
2026-01-29 00:35:56.82	314.06	46.78	-60.8	-77.1	3.6	1.51e+00	0	46	104	0	60	281804
2026-01-29 00:36:00.84	311.76	46.80	-60.4	-76.9	3.6	1.51e+00	0	46	104	0	60	273441
2026-01-29 00:36:04.87	309.45	46.77	-60.5	-76.8	3.6	1.51e+00	0	47	104	0	60	272434
2026-01-29 00:36:08.91	307.14	46.68	-60.2	-76.9	3.6	1.51e+00	0	46	104	0	60	274634
2026-01-29 00:36:12.93	304.86	46.55	-60.5	-76.9	3.6	1.51e+00	0	46	104	0	60	274398
2026-01-29 00:36:16.95	302.60	46.37	-60.3	-76.8	3.6	1.51e+00	0	46	104	0	60	271644
2026-01-29 00:36:20.98	300.37	46.14	-60.1	-76.8	3.6	1.51e+00	0	46	104	0	60	270847
2026-01-29 00:36:25.00	298.18	45.86	-60.2	-76.9	3.6	1.51e+00	0	46	104	0	60	273235
2026-01-29 00:36:29.03	296.02	45.54	-60.0	-76.9	3.6	1.51e+00	0	47	104	0	60	275336
2026-01-29 00:36:33.05	293.92	45.18	-59.9	-76.9	3.6	1.51e+00	0	46	104	0	60	274165
2026-01-29 00:36:37.07	291.86	44.78	-60.3	-76.8	3.6	1.51e+00	0	47	104	0	60	272255
2026-01-29 00:36:41.10	289.85	44.34	-60.4	-76.7	3.6	1.51e+00	0	46	104	0	60	268998
2026-01-29 00:36:45.12	287.91	43.88	-60.4	-76.7	3.6	1.51e+00	0	46	104	0	60	268209
2026-01-29 00:36:49.15	286.02	43.38	-60.2	-76.6	3.6	1.51e+00	0	46	104	0	60	265693
2026-01-29 00:36:53.18	284.18	42.85	-60.1	-76.2	3.6	1.51e+00	0	46	104	0	60	252213
2026-01-29 00:36:57.21	282.41	42.30	-60.0	-76.5	3.6	1.51e+00	0	46	104	0	60	262310
2026-01-29 00:37:01.24	280.70	41.73	-59.8	-75.7	3.6	1.51e+00	0	46	104	0	60	239065
2026-01-29 00:37:05.25	279.06	41.14	-59.7	-76.3	3.6	1.51e+00	0	46	104	0	60	257035
2026-01-29 00:37:09.29	277.47	40.53	-59.8	-75.8	3.6	1.51e+00	0	47	104	0	60	240408
2026-01-29 00:37:13.32	275.94	39.91	-60.0	-76.6	3.6	1.51e+00	0	46	104	0	60	265578
2026-01-29 00:37:17.35	274.46	39.28	-60.0	-75.5	3.6	1.51e+00	0	46	104	0	60	232717
2026-01-29 00:37:21.37	273.05	38.64	-60.1	-75.8	3.5	1.51e+00	0	47	104	0	60	241792
2026-01-29 00:37:25.39	271.70	38.00	-60.1	-75.6	3.6	1.51e+00	0	46	104	0	60	235831
2026-01-29 00:37:29.41	270.39	37.34	-60.1	-76.3	3.6	1.51e+00	0	46	104	0	60	255561
2026-01-29 00:37:33.44	269.14	36.69	-60.0	-75.3	3.6	1.51e+00	0	46	104	0	60	227298
2026-01-29 00:37:37.47	267.93	36.03	-60.0	-75.8	3.6	1.51e+00	0	46	104	0	60	242078
2026-01-29 00:37:41.49	266.78	35.37	-60.0	-75.5	3.6	1.51e+00	0	46	104	0	60	232189
2026-01-29 00:37:45.52	265.67	34.71	-59.9	-75.5	3.6	1.51e+00	0	46	104	0	60	233806
2026-01-29 00:37:49.55	264.60	34.06	-59.9	-76.1	3.6	1.51e+00	0	46	104	0	60	250953
2026-01-29 00:37:53.58	263.57	33.40	-59.9	-76.0	3.6	1.51e+00	0	46	104	0	60	248010
2026-01-29 00:37:57.61	262.59	32.75	-59.8	-75.9	3.6	1.51e+00	0	46	104	0	60	243156
2026-01-29 00:38:01.64	261.65	32.11	-59.8	-75.9	3.6	1.51e+00	0	47	104	0	60	245011
2026-01-29 00:38:05.66	260.74	31.47	-59.7	-75.6	3.6	1.51e+00	0	46	104	0	60	236405
2026-01-29 00:38:09.68	259.87	30.84	-59.6	-75.8	3.6	1.51e+00	0	47	104	0	60	241382
2026-01-29 00:38:13.71	259.03	30.21	-59.6	-75.3	3.6	1.51e+00	0	46	104	0	60	228883
2026-01-29 00:38:17.73	258.23	29.59	-59.6	-75.3	3.6	1.51e+00	0	46	104	0	60	226905
2026-01-29 00:38:21.76	257.45	28.98	-59.6	-75.6	3.6	1.51e+00	0	47	104	0	60	235260
2026-01-29 00:38:25.78	256.70	28.37	-59.6	-75.5	3.6	1.51e+00	0	47	104	0	60	232680
2026-01-29 00:38:29.80	255.99	27.78	-59.4	-73.5	3.6	1.51e+00	0	46	104	0	60	185453
2026-01-29 00:38:33.83	255.29	27.18	-59.4	-72.0	3.6	1.47e+00	0	46	0	0	60	156129
2026-01-29 00:38:37.85	254.63	26.60	-59.3	-73.0	3.8	1.49e+00	0	47	104	0	60	174790
2026-01-29 00:38:41.88	253.98	26.03	-59.2	-72.4	3.9	1.49e+00	0	47	104	0	60	162507
2026-01-29 00:38:45.91	253.36	25.46	-59.2	-70.6	3.9	1.38e+00	0	46	0	0	60	132657
2026-01-29 00:38:49.93	252.77	24.91	-59.2	-70.6	4.0	1.31e+00	0	47	0	1048576	60	132856
2026-01-29 00:38:53.97	252.19	24.36	-57.7	-62.8	11.5	1.45e-03	0	46	0	7340032	60	54190
2026-01-29 00:38:58.00	251.63	23.81	-57.7	-62.9	11.1	1.69e-03	0	46	0	14680064	60	54518
2026-01-29 00:39:02.02	251.10	23.28	-57.4	-62.1	12.5	2.06e-04	0	46	0	23068672	60	49752
2026-01-29 00:39:06.04	250.58	22.76	-57.4	-62.1	12.3	8.84e-04	0	46	0	30408704	60	49775
2026-01-29 00:39:10.08	250.07	22.24	-56.6	-60.1	14.3	1.50e-06	0	46	0	37748736	60	39834
2026-01-29 00:39:14.11	249.59	21.73	-56.0	-59.2	15.5	0.00e+00	0	46	0	45088768	60	35698
2026-01-29 00:39:18.13	249.12	21.23	-56.0	-59.2	15.4	0.00e+00	0	46	0	52428800	60	35692
2026-01-29 00:39:22.15	248.67	20.74	-55.3	-58.0	16.5	0.00e+00	0	46	0	60817408	60	31120
2026-01-29 00:39:26.19	248.23	20.25	-54.7	-57.1	17.4	0.00e+00	0	46	0	68157440	60	27905
2026-01-29 00:39:30.21	247.80	19.77	-54.6	-56.9	17.9	0.00e+00	0	46	0	75497472	60	27279
2026-01-29 00:39:34.22	247.39	19.30	-54.3	-56.5	17.8	0.00e+00	0	46	0	82837504	60	26158
2026-01-29 00:39:38.25	246.99	18.84	-54.2	-56.4	18.2	0.00e+00	0	47	0	90177536	60	25761
2026-01-29 00:39:42.28	246.60	18.38	-53.9	-55.9	18.5	0.00e+00	0	46	0	98566144	60	24354
2026-01-29 00:39:46.31	246.23	17.93	-53.7	-55.6	18.7	0.00e+00	0	46	0	105906176	60	23725
2026-01-29 00:39:50.33	245.86	17.49	-53.8	-55.8	18.6	0.00e+00	0	46	0	113246208	60	24052
2026-01-29 00:39:54.35	245.51	17.06	-53.7	-55.6	18.7	0.00e+00	0	46	0	120586240	60	23723
2026-01-29 00:39:58.38	245.17	16.63	-53.5	-55.4	18.8	0.00e+00	0	46	0	127926272	60	23145
2026-01-29 00:40:02.41	244.83	16.20	-53.7	-55.6	18.5	0.00e+00	0	46	0	136314880	60	23622
2026-01-29 00:40:06.44	244.51	15.79	-53.8	-55.9	18.2	0.00e+00	0	46	0	143654912	60	24502
2026-01-29 00:40:10.45	244.19	15.38	-53.8	-55.8	18.3	0.00e+00	0	46	0	150994944	60	24121
2026-01-29 00:40:14.49	243.89	14.97	-53.6	-55.6	18.5	0.00e+00	0	46	0	158334976	60	23596
2026-01-29 00:40:18.51	243.59	14.57	-53.6	-55.6	18.5	0.00e+00	0	46	0	165675008	60	23558
2026-01-29 00:40:22.53	243.30	14.18	-53.7	-55.6	18.4	0.00e+00	0	46	0	174063616	60	23719
2026-01-29 00:40:26.56	243.02	13.79	-53.7	-55.7	18.4	0.00e+00	0	46	0	181403648	60	23828
2026-01-29 00:40:30.59	242.75	13.41	-53.7	-55.8	18.4	0.00e+00	0	46	0	188743680	60	24034
2026-01-29 00:40:34.61	242.48	13.03	-53.6	-55.7	18.2	0.00e+00	0	46	0	196083712	60	23851
2026-01-29 00:40:38.62	242.22	12.66	-53.8	-55.9	18.0	0.00e+00	0	46	0	203423744	60	24372
2026-01-29 00:40:42.65	241.97	12.30	-54.1	-56.4	17.6	0.00e+00	0	46	0	211812352	60	25745
2026-01-29 00:40:46.67	241.72	11.93	-54.1	-56.5	17.4	0.00e+00	0	46	0	219152384	60	26100
2026-01-29 00:40:50.70	241.48	11.58	-54.3	-56.8	17.1	0.00e+00	0	46	0	226492416	60	27015
2026-01-29 00:40:54.71	241.25	11.22	-54.2	-56.6	17.3	0.00e+00	0	46	0	233832448	60	26452
2026-01-29 00:40:58.72	241.02	10.88	-54.3	-56.7	17.1	0.00e+00	0	46	0	241172480	60	26888
2026-01-29 00:41:02.75	240.80	10.53	-54.1	-56.4	17.5	0.00e+00	0	46	0	248512512	60	25848
2026-01-29 00:41:06.78	240.58	10.19	-54.1	-56.5	17.4	0.00e+00	0	46	0	256901120	60	26157
2026-01-29 00:41:10.81	240.37	9.86	-54.2	-56.6	17.1	0.00e+00	0	46	0	264241152	60	26632
2026-01-29 00:41:14.84	240.16	9.53	-54.2	-56.7	16.9	0.00e+00	0	46	0	271581184	60	26783
2026-01-29 00:41:18.87	239.96	9.20	-54.2	-56.8	16.7	0.00e+00	0	46	0	278921216	60	27160
2026-01-29 00:41:22.90	239.76	8.87	-54.2	-56.8	16.6	0.00e+00	0	46	0	287309824	60	27037
2026-01-29 00:41:26.93	239.57	8.55	-54.2	-56.8	16.6	0.00e+00	0	46	0	294649856	60	27047
2026-01-29 00:41:30.95	239.38	8.24	-54.1	-56.8	16.5	0.00e+00	0	46	0	301989888	60	27001
2026-01-29 00:41:34.98	239.19	7.93	-54.0	-56.6	16.7	0.00e+00	0	46	0	309329920	60	26485
2026-01-29 00:41:39.01	239.01	7.62	-54.1	-56.7	16.5	0.00e+00	0	46	0	316669952	60	26913
2026-01-29 00:41:43.04	238.84	7.31	-54.1	-56.9	16.3	0.00e+00	0	46	0	325058560	60	27367
2026-01-29 00:41:47.06	238.66	7.01	-54.3	-57.2	16.0	0.00e+00	0	46	0	332398592	60	28261
2026-01-29 00:41:51.09	238.50	6.71	-54.5	-57.5	15.7	0.00e+00	0	46	0	339738624	60	29219
2026-01-29 00:41:55.12	238.33	6.41	-54.6	-57.9	15.3	0.00e+00	0	46	0	347078656	60	30865
2026-01-29 00:41:59.15	238.17	6.12	-54.6	-57.9	15.1	0.00e+00	0	46	0	354418688	60	30644
2026-01-29 00:42:03.18	238.01	5.83	-58.7	-75.0	3.6	1.51e+00	0	46	104	357564416	60	221560
2026-01-29 00:42:07.21	237.86	5.55	-59.7	-76.1	3.6	1.51e+00	0	46	104	357564416	60	249377
2026-01-29 00:42:11.24	237.71	5.26	-60.3	-76.5	3.6	1.51e+00	0	47	104	357564416	60	263338
2026-01-29 00:42:15.27	237.56	4.98	-61.1	-77.4	3.6	1.51e+00	0	47	104	357564416	60	290451
2026-01-29 00:42:19.30	237.41	4.70	-61.8	-78.1	3.6	1.51e+00	0	46	104	357564416	60	315739
2026-01-29 00:42:23.31	237.27	4.43	-61.9	-78.6	3.6	1.51e+00	0	46	104	357564416	60	333674
2026-01-29 00:42:27.35	237.13	4.15	-61.9	-78.2	3.6	1.51e+00	0	47	104	357564416	60	320155
2026-01-29 00:42:31.38	236.99	3.88	-61.9	-78.3	3.6	1.51e+00	0	46	104	357564416	60	321412
2026-01-29 00:42:35.41	236.86	3.62	-61.8	-78.3	3.6	1.51e+00	0	47	104	357564416	60	320411
2026-01-29 00:42:39.43	236.73	3.35	-61.8	-78.2	3.6	1.51e+00	0	47	104	357564416	60	318199
2026-01-29 00:42:43.45	236.60	3.09	-61.8	-78.2	3.6	1.51e+00	0	47	104	357564416	60	318837
2026-01-29 00:42:47.48	236.47	2.83	-61.8	-78.2	3.6	1.51e+00	0	46	104	357564416	60	317570
2026-01-29 00:42:51.50	236.35	2.57	-61.8	-78.2	3.6	1.51e+00	0	47	104	357564416	60	320233
2026-01-29 00:42:55.53	236.23	2.31	-61.8	-78.2	3.6	1.51e+00	0	47	104	357564416	60	317826
2026-01-29 00:42:59.56	236.11	2.06	-61.8	-78.2	3.6	1.51e+00	0	47	104	357564416	60	317776
2026-01-29 00:43:03.59	235.99	1.81	-61.8	-78.2	3.6	1.51e+00	0	47	104	357564416	60	319338
2026-01-29 00:43:07.62	235.88	1.56	-61.8	-78.2	3.6	1.51e+00	0	47	104	357564416	60	317578
2026-01-29 00:43:11.65	235.77	1.31	-61.8	-78.2	3.6	1.51e+00	0	47	104	357564416	60	317162
2026-01-29 00:43:15.67	235.66	1.06	-61.8	-78.2	3.5	1.51e+00	0	47	104	357564416	60	317670
2026-01-29 00:43:19.71	235.55	0.82	-61.8	-78.2	3.6	1.51e+00	0	47	104	357564416	60	319043
2026-01-29 00:43:23.74	235.44	0.58	-61.8	-78.2	3.6	1.51e+00	0	47	104	357564416	60	318795
2026-01-29 00:43:27.77	235.34	0.34	-61.8	-78.2	3.6	1.51e+00	0	47	104	357564416	60	318803
2026-01-29 00:43:31.79	235.23	0.10	-61.8	-78.2	3.6	1.51e+00	0	47	104	357564416	60	320102

#Closed at: 2026-01-29 00:43:34
#Recorded file [357 MB]: D:/Data/35015_260129_034200.dat