passes_logs/2026/01/29/R3.2S-Naryan-Mar/R3.2S-Naryan-Mar__20260129_082419_SUOMI_NPP_rec.log

#Pass ID: 20260129_082419_SUOMI NPP
#Satellite: SUOMI NPP
#Configuration: NPP
#almurnet v.1.7.20240730
#Start time: 2026-01-29 08:24:19

#Version: 2.2.20231116
#Station: R3.2S-Naryan-Mar
#Location: 53.008057 lon 67.646978 lat
#TLE: 1 37849U 11061A   26027.93236865  .00000148  00000+0  91411-4 0  9991
#TLE: 2 37849  98.7823 329.8704 0002085  41.3231 318.8102 14.19530777738546

#Time	Az	El	Level	Level2	SNR	BER	BlckErr	Temp	State	Recorded	gain1	gain2
2026-01-29 08:24:19.32	153.83	0.02	-59.0	-74.6	3.5	1.51e+00	0	43	0	0	60	205307
2026-01-29 08:24:23.35	153.85	0.26	-59.7	-77.7	3.6	1.51e+00	0	44	104	0	60	301125
2026-01-29 08:24:27.38	153.86	0.50	-62.4	-78.9	3.6	1.51e+00	0	44	104	0	60	345965
2026-01-29 08:24:31.41	153.88	0.75	-61.8	-78.3	3.6	1.51e+00	0	44	104	0	60	321175
2026-01-29 08:24:35.44	153.90	1.00	-60.9	-77.4	3.6	1.51e+00	0	44	104	0	60	289449
2026-01-29 08:24:39.48	153.91	1.25	-59.0	-75.6	3.6	1.51e+00	0	44	104	0	60	236161
2026-01-29 08:24:43.51	153.93	1.51	-58.8	-75.5	3.6	1.51e+00	0	44	104	0	60	234154
2026-01-29 08:24:47.54	153.94	1.76	-58.7	-75.4	3.6	1.51e+00	0	44	104	0	60	231695
2026-01-29 08:24:51.56	153.96	2.02	-58.7	-75.3	3.6	1.51e+00	0	44	104	0	60	229053
2026-01-29 08:24:55.60	153.98	2.28	-58.6	-75.3	3.6	1.51e+00	0	44	104	0	60	228172
2026-01-29 08:24:59.62	153.99	2.54	-58.6	-75.2	3.6	1.51e+00	0	44	104	0	60	226076
2026-01-29 08:25:03.65	154.01	2.81	-58.5	-75.2	3.5	1.51e+00	0	44	104	0	60	225941
2026-01-29 08:25:07.69	154.02	3.08	-58.5	-75.1	3.6	1.51e+00	0	45	104	0	60	222248
2026-01-29 08:25:11.71	154.04	3.34	-58.5	-74.9	3.6	1.51e+00	0	45	104	0	60	216587
2026-01-29 08:25:15.74	154.06	3.62	-58.5	-74.8	3.6	1.51e+00	0	45	104	0	60	214975
2026-01-29 08:25:19.77	154.07	3.89	-58.5	-74.8	3.6	1.51e+00	0	45	104	0	60	214305
2026-01-29 08:25:23.80	154.09	4.17	-58.4	-74.6	3.6	1.51e+00	0	45	104	0	60	211032
2026-01-29 08:25:27.84	154.11	4.45	-58.4	-73.5	3.6	1.51e+00	0	45	104	0	60	186315
2026-01-29 08:25:31.87	154.12	4.74	-58.0	-66.3	6.9	2.15e-01	0	45	0	4194304	60	80813
2026-01-29 08:25:35.90	154.14	5.03	-56.8	-61.7	12.3	4.44e-04	0	45	0	11534336	60	47441
2026-01-29 08:25:39.93	154.16	5.32	-56.0	-59.8	14.1	7.00e-07	0	45	0	18874368	60	38225
2026-01-29 08:25:43.97	154.17	5.61	-56.1	-60.2	13.7	7.60e-06	0	45	0	26214400	60	40235
2026-01-29 08:25:48.00	154.19	5.91	-57.2	-63.4	10.2	2.14e-03	0	45	0	34603008	60	57675
2026-01-29 08:25:52.03	154.21	6.21	-58.3	-72.5	3.6	9.66e-01	0	45	104	40894464	60	165849
2026-01-29 08:25:56.05	154.22	6.51	-57.9	-68.6	6.3	1.51e+00	0	45	104	1048576	60	105762
2026-01-29 08:26:00.07	154.24	6.82	-57.4	-64.5	9.3	2.43e-02	0	45	0	5242880	60	65515
2026-01-29 08:26:04.10	154.26	7.13	-57.7	-65.7	7.8	4.86e-02	0	45	0	13631488	60	75578
2026-01-29 08:26:08.13	154.28	7.45	-57.9	-66.0	7.6	9.20e-02	0	45	0	20971520	60	78461
2026-01-29 08:26:12.14	154.29	7.77	-58.1	-66.4	7.0	1.58e-01	0	45	0	28311552	60	81813
2026-01-29 08:26:16.15	154.31	8.09	-58.1	-66.9	6.2	4.89e-03	0	45	0	1048576	60	86504
2026-01-29 08:26:20.17	154.33	8.41	-56.2	-60.2	14.0	3.00e-06	0	45	0	8388608	60	40259
2026-01-29 08:26:24.18	154.35	8.75	-56.4	-60.8	13.5	1.29e-05	0	45	0	15728640	60	42718
2026-01-29 08:26:28.19	154.36	9.08	-57.1	-62.6	11.2	4.87e-04	0	45	0	23068672	60	53112
2026-01-29 08:26:32.21	154.38	9.42	-57.4	-64.5	9.2	1.52e-02	0	45	0	30408704	60	65733
2026-01-29 08:26:36.23	154.40	9.77	-57.5	-65.7	8.0	7.34e-02	0	45	0	37748736	60	75514
2026-01-29 08:26:40.25	154.42	10.11	-57.6	-67.0	6.6	1.79e-01	0	45	0	46137344	60	87217
2026-01-29 08:26:44.27	154.44	10.47	-57.8	-67.6	6.2	4.27e-01	0	45	0	50331648	60	94414
2026-01-29 08:26:48.27	154.45	10.83	-57.4	-66.0	8.2	7.98e-01	0	45	104	1048576	60	78121
2026-01-29 08:26:52.30	154.47	11.19	-56.4	-60.9	13.5	9.90e-06	0	45	0	6291456	60	43570
2026-01-29 08:26:56.32	154.49	11.57	-56.3	-60.2	14.3	0.00e+00	0	45	0	13631488	60	40142
2026-01-29 08:27:00.34	154.51	11.94	-55.0	-57.5	17.2	0.00e+00	0	45	0	20971520	60	29361
2026-01-29 08:27:04.36	154.53	12.32	-54.1	-56.2	18.4	0.00e+00	0	45	0	28311552	60	25308
2026-01-29 08:27:08.38	154.55	12.71	-54.4	-56.5	18.2	0.00e+00	0	45	0	36700160	60	26306
2026-01-29 08:27:12.40	154.57	13.11	-54.1	-56.1	18.6	0.00e+00	0	45	0	44040192	60	24920
2026-01-29 08:27:16.41	154.59	13.51	-54.1	-56.0	18.6	0.00e+00	0	45	0	51380224	60	24804
2026-01-29 08:27:20.42	154.61	13.92	-53.7	-55.6	19.1	0.00e+00	0	45	0	58720256	60	23562
2026-01-29 08:27:24.43	154.63	14.33	-53.6	-55.3	19.4	0.00e+00	0	45	0	66060288	60	22928
2026-01-29 08:27:28.46	154.65	14.75	-53.4	-55.1	19.7	0.00e+00	0	45	0	74448896	60	22232
2026-01-29 08:27:32.49	154.67	15.18	-53.5	-55.1	19.8	0.00e+00	0	45	0	81788928	60	22413
2026-01-29 08:27:36.50	154.69	15.62	-53.2	-54.8	20.1	0.00e+00	0	45	0	89128960	60	21435
2026-01-29 08:27:40.51	154.71	16.07	-53.2	-54.8	20.2	0.00e+00	0	45	0	96468992	60	21412
2026-01-29 08:27:44.52	154.73	16.52	-53.3	-54.9	20.0	0.00e+00	0	45	0	103809024	60	21659
2026-01-29 08:27:48.54	154.75	16.98	-53.3	-54.9	19.9	0.00e+00	0	45	0	111149056	60	21800
2026-01-29 08:27:52.56	154.77	17.45	-53.6	-55.3	19.8	0.00e+00	0	45	0	119537664	60	22712
2026-01-29 08:27:56.57	154.79	17.93	-53.9	-55.6	19.6	0.00e+00	0	45	0	126877696	60	23668
2026-01-29 08:28:00.60	154.81	18.42	-53.4	-55.0	20.1	0.00e+00	0	45	0	134217728	60	21914
2026-01-29 08:28:04.64	154.83	18.93	-53.6	-55.2	19.9	0.00e+00	0	45	0	141557760	60	22581
2026-01-29 08:28:08.65	154.85	19.44	-53.6	-55.2	20.0	0.00e+00	0	45	0	148897792	60	22539
2026-01-29 08:28:12.68	154.88	19.96	-53.9	-55.5	19.6	0.00e+00	0	45	0	157286400	60	23456
2026-01-29 08:28:16.70	154.90	20.49	-53.7	-55.3	19.9	0.00e+00	0	45	0	164626432	60	22877
2026-01-29 08:28:20.72	154.92	21.03	-52.8	-54.2	20.9	0.00e+00	0	45	0	171966464	60	20132
2026-01-29 08:28:24.74	154.94	21.59	-52.9	-54.3	20.7	0.00e+00	0	45	0	179306496	60	20386
2026-01-29 08:28:28.76	154.97	22.16	-53.7	-55.3	19.9	0.00e+00	0	45	0	186646528	60	22927
2026-01-29 08:28:32.78	154.99	22.74	-53.5	-55.0	20.1	0.00e+00	0	45	0	195035136	60	22126
2026-01-29 08:28:36.80	155.01	23.34	-53.7	-55.4	19.9	0.00e+00	0	45	0	202375168	60	22986
2026-01-29 08:28:40.82	155.04	23.94	-53.6	-55.2	19.9	0.00e+00	0	45	0	209715200	60	22662
2026-01-29 08:28:44.85	155.06	24.57	-54.0	-55.8	19.6	0.00e+00	0	45	0	217055232	60	24099
2026-01-29 08:28:48.88	155.09	25.21	-53.8	-55.4	19.8	0.00e+00	0	45	0	224395264	60	23158
2026-01-29 08:28:52.90	155.11	25.86	-53.8	-55.4	20.0	0.00e+00	0	45	0	231735296	60	23102
2026-01-29 08:28:56.93	155.14	26.54	-54.3	-56.1	19.4	0.00e+00	0	45	0	240123904	60	24920
2026-01-29 08:29:00.93	155.17	27.22	-54.6	-56.6	18.9	0.00e+00	0	45	0	247463936	60	26459
2026-01-29 08:29:04.96	155.19	27.93	-54.3	-56.0	19.4	0.00e+00	0	45	0	254803968	60	24831
2026-01-29 08:29:08.98	155.22	28.65	-54.2	-55.9	19.5	0.00e+00	0	45	0	262144000	60	24432
2026-01-29 08:29:13.01	155.25	29.40	-55.0	-56.9	19.0	0.00e+00	0	45	0	269484032	60	27341
2026-01-29 08:29:17.03	155.28	30.16	-54.8	-56.7	19.3	0.00e+00	0	45	0	277872640	60	26717
2026-01-29 08:29:21.06	155.31	30.95	-54.3	-55.9	19.7	0.00e+00	0	45	0	285212672	60	24516
2026-01-29 08:29:25.09	155.34	31.76	-54.9	-56.8	19.1	0.00e+00	0	45	0	292552704	60	27087
2026-01-29 08:29:29.10	155.37	32.59	-55.0	-56.8	18.9	0.00e+00	0	45	0	299892736	60	27113
2026-01-29 08:29:33.12	155.40	33.44	-55.7	-57.9	18.0	0.00e+00	0	45	0	307232768	60	30869
2026-01-29 08:29:37.15	155.44	34.32	-55.4	-57.5	18.5	0.00e+00	0	45	0	315621376	60	29327
2026-01-29 08:29:41.14	155.47	35.22	-54.9	-56.7	19.3	0.00e+00	0	45	0	322961408	60	26721
2026-01-29 08:29:45.17	155.51	36.15	-53.7	-55.2	20.5	0.00e+00	0	45	0	330301440	60	22515
2026-01-29 08:29:49.19	155.54	37.10	-53.0	-54.4	21.3	0.00e+00	0	45	0	337641472	60	20589
2026-01-29 08:29:53.21	155.58	38.09	-53.1	-54.5	21.3	0.00e+00	0	45	0	344981504	60	20777
2026-01-29 08:29:57.24	155.62	39.11	-52.4	-53.6	21.3	0.00e+00	0	45	0	353370112	60	18790
2026-01-29 08:30:01.25	155.66	40.15	-52.8	-54.1	21.6	0.00e+00	0	45	0	360710144	60	19911
2026-01-29 08:30:05.29	155.70	41.23	-52.8	-54.1	21.6	0.00e+00	0	45	0	368050176	60	19863
2026-01-29 08:30:09.31	155.75	42.34	-53.2	-54.7	21.1	0.00e+00	0	45	0	375390208	60	21276
2026-01-29 08:30:13.34	155.80	43.49	-54.0	-55.6	20.5	0.00e+00	0	45	0	382730240	60	23484
2026-01-29 08:30:17.35	155.84	44.67	-54.5	-56.2	19.9	0.00e+00	0	45	0	391118848	60	25294
2026-01-29 08:30:21.37	155.90	45.89	-55.9	-58.0	18.2	0.00e+00	0	45	0	398458880	60	31219
2026-01-29 08:30:25.40	155.95	47.14	-56.2	-58.5	18.0	0.00e+00	0	45	0	405798912	60	32901
2026-01-29 08:30:29.42	156.01	48.43	-57.6	-60.7	15.8	0.00e+00	0	45	0	413138944	60	42411
2026-01-29 08:30:33.44	156.07	49.77	-57.2	-60.0	16.8	0.00e+00	0	45	0	420478976	60	39008
2026-01-29 08:30:37.47	156.14	51.14	-56.9	-59.5	17.3	0.00e+00	0	45	0	428867584	60	36783
2026-01-29 08:30:41.50	156.21	52.56	-57.6	-60.6	16.2	0.00e+00	0	45	0	436207616	60	42013
2026-01-29 08:30:45.51	156.29	54.01	-56.7	-59.1	17.5	0.00e+00	0	45	0	443547648	60	35318
2026-01-29 08:30:49.53	156.37	55.51	-58.2	-61.8	14.7	0.00e+00	0	45	0	450887680	60	47975
2026-01-29 08:30:53.55	156.46	57.05	-58.6	-62.4	14.2	7.00e-07	0	45	0	458227712	60	51895
2026-01-29 08:30:57.58	156.56	58.63	-59.5	-64.8	11.3	5.95e-04	0	45	0	465567744	60	68081
2026-01-29 08:31:01.58	156.68	60.25	-59.6	-65.1	10.7	5.55e-03	0	45	0	473956352	60	70371
2026-01-29 08:31:05.61	156.80	61.92	-60.0	-66.7	9.2	2.17e-02	0	45	0	481296384	60	84342
2026-01-29 08:31:09.63	156.94	63.63	-60.3	-68.2	7.4	8.43e-02	0	45	0	488636416	60	100737
2026-01-29 08:31:13.65	157.11	65.38	-60.5	-70.1	4.9	6.32e-01	0	46	0	495976448	60	125647
2026-01-29 08:31:17.67	157.29	67.17	-58.6	-62.9	13.0	1.58e-01	0	45	0	1048576	60	54815
2026-01-29 08:31:21.69	157.51	69.00	-57.4	-60.6	15.7	0.00e+00	0	45	0	8388608	60	42222
2026-01-29 08:31:25.71	157.78	70.87	-58.1	-62.6	13.5	6.10e-06	0	45	0	15728640	60	52583
2026-01-29 08:31:29.72	158.10	72.77	-58.2	-64.1	12.0	5.20e-03	0	45	0	23068672	60	63111
2026-01-29 08:31:33.73	158.50	74.69	-53.7	-55.8	20.1	0.00e+00	0	45	0	30408704	60	24205
2026-01-29 08:31:37.75	159.01	76.65	-54.8	-58.0	17.5	0.00e+00	0	45	0	37748736	60	31288
2026-01-29 08:31:41.76	159.71	78.64	-54.0	-57.7	17.8	0.00e+00	0	45	0	45088768	60	30176
2026-01-29 08:31:45.77	160.71	80.64	-54.4	-58.3	17.0	0.00e+00	0	45	0	53477376	60	32340
2026-01-29 08:31:49.80	162.26	82.66	-53.3	-56.1	19.0	0.00e+00	0	45	0	60817408	60	24884
2026-01-29 08:31:53.83	165.00	84.70	-53.1	-55.5	19.8	0.00e+00	0	45	0	68157440	60	23344
2026-01-29 08:31:57.85	171.11	86.71	-54.6	-57.5	18.1	0.00e+00	0	45	0	75497472	60	29535
2026-01-29 08:32:01.86	194.40	88.58	-57.1	-62.7	12.7	2.13e-05	0	45	0	82837504	60	53638
2026-01-29 08:32:05.87	292.23	88.69	-56.0	-60.5	15.1	0.00e+00	0	45	0	91226112	60	41391
2026-01-29 08:32:09.90	318.86	86.84	-55.5	-60.7	14.6	3.80e-06	0	45	0	98566144	60	42373
2026-01-29 08:32:13.93	325.39	84.83	-54.6	-58.5	16.7	0.00e+00	0	45	0	105906176	60	33006
2026-01-29 08:32:17.95	328.24	82.80	-55.8	-60.7	14.9	0.00e+00	0	45	0	113246208	60	42473
2026-01-29 08:32:21.97	329.84	80.78	-56.5	-61.5	14.4	9.38e-05	0	45	0	120586240	60	46451
2026-01-29 08:32:25.99	330.87	78.77	-57.0	-60.6	15.5	0.00e+00	0	45	0	127926272	60	42221
2026-01-29 08:32:30.01	331.58	76.79	-58.2	-62.2	14.3	3.80e-06	0	45	0	136314880	60	50412
2026-01-29 08:32:34.03	332.11	74.83	-57.7	-62.3	13.7	0.00e+00	0	45	0	143654912	60	50919
2026-01-29 08:32:38.04	332.52	72.90	-57.9	-62.3	13.8	8.30e-06	0	45	0	150994944	60	51137
2026-01-29 08:32:42.07	332.84	71.00	-57.9	-62.8	12.7	1.50e-06	0	45	0	158334976	60	53948
2026-01-29 08:32:46.09	333.11	69.13	-59.4	-65.6	10.7	1.38e-03	0	45	0	165675008	60	74341
2026-01-29 08:32:50.10	333.33	67.31	-59.2	-64.9	11.4	9.17e-03	0	46	0	174063616	60	68763
2026-01-29 08:32:54.12	333.52	65.52	-56.5	-59.0	17.3	0.00e+00	0	45	0	181403648	60	34750
2026-01-29 08:32:58.15	333.68	63.76	-55.7	-58.0	18.2	0.00e+00	0	45	0	188743680	60	31098
2026-01-29 08:33:02.17	333.83	62.05	-55.6	-58.5	17.3	0.00e+00	0	45	0	196083712	60	32985
2026-01-29 08:33:06.19	333.95	60.39	-53.3	-55.0	20.5	0.00e+00	0	45	0	203423744	60	22045
2026-01-29 08:33:10.20	334.07	58.77	-53.8	-55.4	20.3	0.00e+00	0	45	0	211812352	60	23170
2026-01-29 08:33:14.22	334.17	57.19	-55.7	-57.9	18.1	0.00e+00	0	46	0	219152384	60	30908
2026-01-29 08:33:18.24	334.26	55.65	-53.7	-55.4	20.4	0.00e+00	0	45	0	226492416	60	23037
2026-01-29 08:33:22.27	334.35	54.15	-55.3	-57.8	18.5	0.00e+00	0	46	0	233832448	60	30277
2026-01-29 08:33:26.26	334.43	52.71	-53.5	-55.1	20.5	0.00e+00	0	46	0	241172480	60	22384
2026-01-29 08:33:30.27	334.50	51.30	-55.2	-57.4	18.8	0.00e+00	0	45	0	248512512	60	28893
2026-01-29 08:33:34.28	334.57	49.93	-53.6	-55.1	20.6	0.00e+00	0	45	0	256901120	60	22245
2026-01-29 08:33:38.30	334.63	48.60	-58.1	-62.5	13.3	0.00e+00	0	46	0	264241152	60	52535
2026-01-29 08:33:42.31	334.69	47.31	-54.3	-56.0	19.9	0.00e+00	0	46	0	271581184	60	24651
2026-01-29 08:33:46.31	334.74	46.07	-56.0	-58.6	17.3	0.00e+00	0	46	0	278921216	60	33325
2026-01-29 08:33:50.33	334.80	44.85	-56.2	-59.5	16.1	0.00e+00	0	46	0	286261248	60	37014
2026-01-29 08:33:54.34	334.85	43.67	-51.0	-52.2	22.6	0.00e+00	0	45	0	294649856	60	15991
2026-01-29 08:33:58.35	334.89	42.53	-53.6	-55.3	20.3	0.00e+00	0	45	0	301989888	60	22919
2026-01-29 08:34:02.36	334.94	41.42	-55.7	-58.4	17.5	0.00e+00	0	45	0	309329920	60	32480
2026-01-29 08:34:06.36	334.98	40.35	-53.3	-54.8	20.6	0.00e+00	0	45	0	316669952	60	21588
2026-01-29 08:34:10.38	335.03	39.31	-56.3	-59.9	15.9	0.00e+00	0	45	0	324009984	60	38530
2026-01-29 08:34:14.39	335.07	38.29	-58.3	-66.7	8.5	3.08e-02	0	46	0	331350016	60	85128
2026-01-29 08:34:18.40	335.11	37.31	-56.1	-58.9	16.9	0.00e+00	0	45	0	338690048	60	34504
2026-01-29 08:34:22.43	335.14	36.35	-54.9	-57.0	18.6	0.00e+00	0	46	0	347078656	60	27636
2026-01-29 08:34:26.44	335.18	35.42	-57.1	-61.2	14.5	2.20e-06	0	46	0	354418688	60	44791
2026-01-29 08:34:30.46	335.22	34.52	-57.8	-64.8	10.4	2.63e-03	0	45	0	361758720	60	68219
2026-01-29 08:34:34.47	335.25	33.64	-58.1	-63.9	11.5	9.02e-04	0	46	0	369098752	60	61425
2026-01-29 08:34:38.49	335.28	32.79	-57.0	-60.6	15.0	0.00e+00	0	45	0	376438784	60	41962
2026-01-29 08:34:42.51	335.32	31.96	-55.6	-58.4	17.4	0.00e+00	0	45	0	384827392	60	32693
2026-01-29 08:34:46.52	335.35	31.16	-54.6	-56.8	19.0	0.00e+00	0	45	0	392167424	60	27145
2026-01-29 08:34:50.53	335.38	30.37	-55.3	-57.5	18.1	0.00e+00	0	45	0	399507456	60	29474
2026-01-29 08:34:54.53	335.41	29.61	-59.5	-77.2	3.6	1.51e+00	0	46	104	405798912	60	282517
2026-01-29 08:34:58.55	335.44	28.87	-60.8	-77.5	3.6	1.51e+00	0	45	104	405798912	60	294292
2026-01-29 08:35:02.56	335.47	28.15	-60.4	-77.8	3.6	1.51e+00	0	45	104	405798912	60	303767
2026-01-29 08:35:06.57	335.50	27.44	-58.6	-77.5	3.6	1.51e+00	0	46	104	405798912	60	293912
2026-01-29 08:35:10.59	335.53	26.75	-59.4	-77.6	3.6	1.51e+00	0	46	104	405798912	60	298361
2026-01-29 08:35:14.61	335.55	26.08	-59.4	-77.5	3.6	1.51e+00	0	46	104	405798912	60	294722
2026-01-29 08:35:18.63	335.58	25.43	-59.2	-77.6	3.6	1.51e+00	0	46	104	405798912	60	297728
2026-01-29 08:35:22.65	335.61	24.79	-60.9	-78.1	3.6	1.51e+00	0	46	104	405798912	60	316106
2026-01-29 08:35:26.68	335.63	24.16	-61.0	-78.2	3.6	1.51e+00	0	46	104	405798912	60	317875
2026-01-29 08:35:30.70	335.66	23.55	-60.0	-77.6	3.6	1.51e+00	0	46	104	405798912	60	298433
2026-01-29 08:35:34.73	335.69	22.96	-54.2	-56.1	18.5	0.00e+00	0	46	0	405798912	60	25010
2026-01-29 08:35:38.75	335.71	22.37	-54.7	-56.9	18.1	4.74e-01	0	46	0	7340032	60	27265
2026-01-29 08:35:42.77	335.74	21.80	-54.0	-55.7	20.1	0.00e+00	0	46	0	14680064	60	23845
2026-01-29 08:35:46.80	335.76	21.25	-54.4	-56.2	19.4	0.00e+00	0	46	0	23068672	60	25312
2026-01-29 08:35:50.82	335.78	20.70	-53.0	-54.7	20.5	0.00e+00	0	46	0	30408704	60	21346
2026-01-29 08:35:54.85	335.81	20.17	-52.9	-54.9	20.0	0.00e+00	0	45	0	37748736	60	21727
2026-01-29 08:35:58.88	335.83	19.65	-53.3	-55.4	19.7	0.00e+00	0	45	0	45088768	60	23039
2026-01-29 08:36:02.90	335.86	19.14	-52.6	-54.5	20.8	0.00e+00	0	46	0	52428800	60	20689
2026-01-29 08:36:06.92	335.88	18.63	-52.6	-54.6	20.7	0.00e+00	0	45	0	59768832	60	21024
2026-01-29 08:36:10.93	335.90	18.15	-52.9	-54.8	20.3	0.00e+00	0	46	0	68157440	60	21514
2026-01-29 08:36:14.95	335.93	17.66	-53.5	-55.2	19.6	0.00e+00	0	46	0	75497472	60	22608
2026-01-29 08:36:18.97	335.95	17.19	-53.7	-55.5	19.1	0.00e+00	0	46	0	82837504	60	23404
2026-01-29 08:36:22.99	335.97	16.73	-54.1	-56.2	18.6	0.00e+00	0	46	0	90177536	60	25194
2026-01-29 08:36:27.00	336.00	16.28	-54.3	-56.7	18.0	0.00e+00	0	45	0	97517568	60	26782
2026-01-29 08:36:31.01	336.02	15.83	-54.3	-57.2	17.6	0.00e+00	0	46	0	105906176	60	28311
2026-01-29 08:36:35.03	336.04	15.40	-54.7	-57.8	16.9	0.00e+00	0	46	0	113246208	60	30471
2026-01-29 08:36:39.05	336.06	14.97	-55.3	-58.5	16.1	0.00e+00	0	46	0	120586240	60	32945
2026-01-29 08:36:43.08	336.08	14.54	-55.8	-59.3	15.0	0.00e+00	0	46	0	127926272	60	35987
2026-01-29 08:36:47.10	336.11	14.13	-56.0	-59.9	14.1	1.50e-06	0	46	0	135266304	60	38511
2026-01-29 08:36:51.13	336.13	13.72	-56.0	-60.7	12.9	2.05e-05	0	46	0	143654912	60	42250
2026-01-29 08:36:55.15	336.15	13.32	-55.6	-61.4	11.8	4.78e-04	0	46	0	150994944	60	45802
2026-01-29 08:36:59.18	336.17	12.92	-55.8	-62.1	10.9	1.99e-03	0	45	0	158334976	60	50166
2026-01-29 08:37:03.20	336.19	12.53	-56.3	-63.0	10.0	7.01e-03	0	46	0	165675008	60	55404
2026-01-29 08:37:07.23	336.21	12.15	-56.5	-64.0	9.0	1.87e-02	0	46	0	173015040	60	61853
2026-01-29 08:37:11.25	336.23	11.77	-56.4	-65.0	7.7	8.04e-02	0	46	0	181403648	60	69414
2026-01-29 08:37:15.28	336.26	11.40	-56.3	-65.9	6.7	1.67e-01	0	46	0	188743680	60	77090
2026-01-29 08:37:19.31	336.28	11.03	-51.9	-70.9	3.7	1.02e+00	0	46	104	195035136	60	137758
2026-01-29 08:37:23.34	336.30	10.67	-54.9	-70.9	3.7	1.42e+00	0	46	104	195035136	60	136768
2026-01-29 08:37:27.35	336.32	10.32	-52.1	-70.0	3.7	1.48e+00	0	46	104	195035136	60	123686
2026-01-29 08:37:31.37	336.34	9.97	-55.9	-71.8	3.7	1.51e+00	0	46	104	195035136	60	152432
2026-01-29 08:37:35.39	336.36	9.62	-53.5	-71.4	3.6	1.51e+00	0	46	104	195035136	60	145016
2026-01-29 08:37:39.42	336.38	9.28	-52.5	-73.3	3.6	1.51e+00	0	46	104	195035136	60	181557
2026-01-29 08:37:43.44	336.40	8.95	-53.2	-73.1	3.6	1.51e+00	0	46	104	195035136	60	177325
2026-01-29 08:37:47.47	336.42	8.62	-53.2	-73.5	3.6	1.51e+00	0	46	104	195035136	60	184592
2026-01-29 08:37:51.49	336.44	8.29	-53.9	-73.2	3.5	1.51e+00	0	46	104	195035136	60	179789
2026-01-29 08:37:55.52	336.46	7.97	-54.7	-73.5	3.6	1.51e+00	0	46	104	195035136	60	186165
2026-01-29 08:37:59.54	336.48	7.65	-55.5	-73.6	3.6	1.51e+00	0	46	104	195035136	60	187244
2026-01-29 08:38:03.57	336.50	7.33	-54.5	-73.5	3.6	1.51e+00	0	46	104	195035136	60	185773
2026-01-29 08:38:07.59	336.52	7.02	-54.2	-73.3	3.6	1.51e+00	0	46	104	195035136	60	181063
2026-01-29 08:38:11.60	336.54	6.72	-55.0	-73.2	3.6	1.51e+00	0	46	104	195035136	60	179943
2026-01-29 08:38:15.61	336.56	6.41	-54.7	-73.5	3.6	1.51e+00	0	46	104	195035136	60	184759
2026-01-29 08:38:19.64	336.58	6.11	-55.6	-73.7	3.6	1.51e+00	0	46	104	195035136	60	190775
2026-01-29 08:38:23.68	336.60	5.81	-58.5	-75.8	3.6	1.51e+00	0	46	104	195035136	60	240230
2026-01-29 08:38:27.70	336.62	5.52	-59.8	-77.1	3.6	1.51e+00	0	46	104	195035136	60	279855
2026-01-29 08:38:31.72	336.64	5.23	-61.1	-78.0	3.6	1.51e+00	0	46	104	195035136	60	310402
2026-01-29 08:38:35.75	336.66	4.94	-61.1	-78.0	3.6	1.51e+00	0	46	104	195035136	60	309948
2026-01-29 08:38:39.78	336.68	4.66	-60.8	-77.5	3.6	1.51e+00	0	46	104	195035136	60	295226
2026-01-29 08:38:43.81	336.70	4.38	-58.9	-76.2	3.6	1.51e+00	0	46	104	195035136	60	254176
2026-01-29 08:38:47.84	336.72	4.10	-54.6	-74.2	3.6	1.51e+00	0	46	104	195035136	60	200052
2026-01-29 08:38:51.87	336.74	3.82	-58.4	-77.0	3.6	1.51e+00	0	46	104	195035136	60	278973
2026-01-29 08:38:55.90	336.76	3.55	-60.8	-77.4	3.6	1.51e+00	0	46	104	195035136	60	291183
2026-01-29 08:38:59.93	336.78	3.28	-61.4	-77.8	3.6	1.51e+00	0	46	104	195035136	60	304440
2026-01-29 08:39:03.96	336.80	3.01	-60.8	-77.9	3.6	1.51e+00	0	46	104	195035136	60	305915
2026-01-29 08:39:08.00	336.82	2.75	-61.1	-77.9	3.6	1.51e+00	0	46	104	195035136	60	307722
2026-01-29 08:39:12.03	336.84	2.49	-58.6	-77.6	3.6	1.51e+00	0	46	104	195035136	60	295902
2026-01-29 08:39:16.05	336.86	2.23	-59.2	-78.0	3.5	1.51e+00	0	46	104	195035136	60	311407
2026-01-29 08:39:20.09	336.88	1.97	-59.7	-78.1	3.6	1.51e+00	0	46	104	195035136	60	315727
2026-01-29 08:39:24.12	336.90	1.71	-59.7	-77.9	3.6	1.51e+00	0	46	104	195035136	60	306113
2026-01-29 08:39:28.13	336.92	1.46	-59.6	-77.7	3.6	1.51e+00	0	46	104	195035136	60	301305
2026-01-29 08:39:32.16	336.94	1.21	-59.6	-77.6	3.6	1.51e+00	0	46	104	195035136	60	296173
2026-01-29 08:39:36.19	336.96	0.96	-59.7	-77.7	3.6	1.51e+00	0	46	104	195035136	60	300620
2026-01-29 08:39:40.22	336.98	0.71	-59.6	-77.8	3.6	1.51e+00	0	46	104	195035136	60	302627
2026-01-29 08:39:44.25	337.00	0.47	-59.5	-77.5	3.6	1.51e+00	0	46	104	195035136	60	293978
2026-01-29 08:39:48.28	337.02	0.23	-59.3	-77.5	3.6	1.51e+00	0	46	104	195035136	60	293638
2026-01-29 08:39:52.31	337.04	-0.01	-59.4	-77.5	3.6	1.51e+00	0	46	104	195035136	60	295389

#Closed at: 2026-01-29 08:39:54
#Recorded file [195 MB]: D:/Data/35015_260129_113727.dat