passes_logs/2026/01/29/R3.2S-Naryan-Mar/R3.2S-Naryan-Mar__20260129_014757_SUOMI_NPP_rec.log

#Pass ID: 20260129_014757_SUOMI NPP
#Satellite: SUOMI NPP
#Configuration: NPP
#almurnet v.1.7.20240730
#Start time: 2026-01-29 01:47:58

#Version: 2.2.20231116
#Station: R3.2S-Naryan-Mar
#Location: 53.008057 lon 67.646978 lat
#TLE: 1 37849U 11061A   26027.86188320  .00000172  00000+0  10275-3 0  9990
#TLE: 2 37849  98.7823 329.8005 0002088  41.4184 318.7150 14.19530883738530

#Time	Az	El	Level	Level2	SNR	BER	BlckErr	Temp	State	Recorded	gain1	gain2
2026-01-29 01:47:58.19	37.37	0.06	-53.5	-75.1	3.6	3.02e+01	0	44	0	0	60	216865
2026-01-29 01:48:02.21	37.18	0.28	-60.9	-77.9	3.6	1.51e+00	0	45	104	0	60	308386
2026-01-29 01:48:06.23	36.99	0.51	-61.2	-77.9	3.6	1.51e+00	0	45	104	0	60	308428
2026-01-29 01:48:10.25	36.80	0.74	-60.1	-77.4	3.6	1.51e+00	0	45	104	0	60	289244
2026-01-29 01:48:14.26	36.60	0.96	-59.3	-77.5	3.6	1.51e+00	0	45	104	0	60	292774
2026-01-29 01:48:18.29	36.40	1.19	-54.9	-73.0	3.6	1.51e+00	0	45	104	0	60	174439
2026-01-29 01:48:22.31	36.20	1.43	-54.7	-72.8	3.6	1.51e+00	0	45	104	0	60	170372
2026-01-29 01:48:26.32	35.99	1.66	-54.5	-72.8	3.6	1.51e+00	0	46	104	0	60	171272
2026-01-29 01:48:30.33	35.78	1.89	-54.7	-73.1	3.6	1.51e+00	0	45	104	0	60	176952
2026-01-29 01:48:34.36	35.57	2.13	-54.7	-72.8	3.6	1.51e+00	0	46	104	0	60	170134
2026-01-29 01:48:38.38	35.35	2.37	-54.9	-73.6	3.6	1.51e+00	0	46	104	0	60	187712
2026-01-29 01:48:42.40	35.13	2.61	-54.7	-72.8	3.5	1.51e+00	0	46	104	0	60	171265
2026-01-29 01:48:46.41	34.90	2.85	-54.7	-73.4	3.6	1.51e+00	0	46	104	0	60	184043
2026-01-29 01:48:50.45	34.67	3.09	-54.7	-72.8	3.6	1.51e+00	0	46	104	0	60	170246
2026-01-29 01:48:54.46	34.44	3.34	-54.7	-73.5	3.6	1.51e+00	0	46	104	0	60	184624
2026-01-29 01:48:58.48	34.20	3.58	-54.7	-73.5	3.6	1.51e+00	0	46	104	0	60	186372
2026-01-29 01:49:02.50	33.96	3.83	-54.9	-73.1	3.6	1.51e+00	0	46	104	0	60	177272
2026-01-29 01:49:06.53	33.71	4.08	-54.7	-73.4	3.6	1.51e+00	0	46	104	0	60	183030
2026-01-29 01:49:10.56	33.46	4.34	-54.7	-73.7	3.6	1.51e+00	0	46	104	0	60	189306
2026-01-29 01:49:14.59	33.21	4.59	-54.7	-73.4	3.6	1.51e+00	0	46	104	0	60	183772
2026-01-29 01:49:18.61	32.95	4.84	-54.6	-73.1	3.6	1.51e+00	0	46	104	0	60	177730
2026-01-29 01:49:22.63	32.68	5.10	-54.6	-73.3	3.6	1.51e+00	0	46	104	0	60	181224
2026-01-29 01:49:26.66	32.41	5.36	-54.5	-72.7	3.6	1.51e+00	0	46	104	0	60	168338
2026-01-29 01:49:30.69	32.13	5.62	-54.4	-72.7	3.6	1.51e+00	0	46	104	0	60	169347
2026-01-29 01:49:34.71	31.85	5.89	-54.5	-72.6	3.6	1.51e+00	0	46	104	0	60	167640
2026-01-29 01:49:38.74	31.57	6.15	-54.2	-74.8	3.6	1.51e+00	0	46	104	0	60	215534
2026-01-29 01:49:42.77	31.27	6.42	-56.6	-75.1	3.6	1.51e+00	0	46	104	0	60	222887
2026-01-29 01:49:46.80	30.98	6.69	-56.4	-75.1	3.6	1.51e+00	0	46	104	0	60	223692
2026-01-29 01:49:50.83	30.67	6.96	-55.9	-74.7	3.6	1.51e+00	0	46	104	0	60	213284
2026-01-29 01:49:54.85	30.36	7.23	-54.5	-74.0	3.6	1.51e+00	0	46	104	0	60	195732
2026-01-29 01:49:58.88	30.05	7.51	-53.8	-73.5	3.6	1.51e+00	0	46	104	0	60	186360
2026-01-29 01:50:02.91	29.72	7.79	-56.0	-73.9	3.6	1.51e+00	0	46	104	0	60	193831
2026-01-29 01:50:06.94	29.40	8.07	-56.3	-75.1	3.6	1.51e+00	0	46	104	0	60	221683
2026-01-29 01:50:10.97	29.06	8.35	-56.5	-75.8	3.6	1.51e+00	0	46	104	0	60	240448
2026-01-29 01:50:15.01	28.72	8.64	-55.5	-75.5	3.6	1.51e+00	0	46	104	0	60	233726
2026-01-29 01:50:19.04	28.37	8.92	-58.6	-75.6	3.6	1.51e+00	0	46	104	0	60	234869
2026-01-29 01:50:23.06	28.01	9.21	-57.7	-74.5	3.6	1.51e+00	0	46	104	0	60	208333
2026-01-29 01:50:27.08	27.65	9.50	-56.8	-74.3	3.6	1.51e+00	0	46	104	0	60	203272
2026-01-29 01:50:31.11	27.28	9.79	-55.1	-73.6	3.6	1.51e+00	0	46	104	0	60	188356
2026-01-29 01:50:35.14	26.90	10.09	-56.9	-75.1	3.6	1.51e+00	0	46	104	0	60	221861
2026-01-29 01:50:39.17	26.51	10.39	-54.1	-74.1	3.6	1.51e+00	0	46	104	0	60	198023
2026-01-29 01:50:43.19	26.11	10.69	-58.7	-75.6	3.6	1.51e+00	0	46	104	0	60	237356
2026-01-29 01:50:47.22	25.71	10.99	-57.6	-75.7	3.6	1.51e+00	0	46	104	0	60	238576
2026-01-29 01:50:51.25	25.30	11.30	-54.5	-75.5	3.6	1.51e+00	0	46	104	0	60	233492
2026-01-29 01:50:55.27	24.87	11.60	-55.0	-75.7	3.6	1.51e+00	0	46	104	0	60	238335
2026-01-29 01:50:59.29	24.44	11.91	-59.2	-76.2	3.6	1.51e+00	0	46	104	0	60	253611
2026-01-29 01:51:03.32	24.00	12.22	-55.4	-74.7	3.6	1.51e+00	0	46	104	0	60	213519
2026-01-29 01:51:07.35	23.55	12.54	-46.0	-70.1	3.6	1.51e+00	0	46	104	0	60	124954
2026-01-29 01:51:11.38	23.09	12.85	-45.7	-69.1	3.6	1.51e+00	0	46	104	0	60	112111
2026-01-29 01:51:15.40	22.62	13.17	-47.1	-71.6	3.6	1.51e+00	0	46	104	0	60	148512
2026-01-29 01:51:19.43	22.14	13.49	-47.5	-69.4	3.6	1.51e+00	0	46	104	0	60	115801
2026-01-29 01:51:23.45	21.65	13.81	-56.1	-75.6	3.6	1.51e+00	0	46	104	0	60	235176
2026-01-29 01:51:27.48	21.14	14.14	-46.2	-69.6	3.6	1.51e+00	0	46	104	0	60	118398
2026-01-29 01:51:31.51	20.63	14.46	-58.9	-75.3	3.6	1.51e+00	0	46	104	0	60	226788
2026-01-29 01:51:35.53	20.10	14.79	-54.7	-75.1	3.6	1.51e+00	0	46	104	0	60	221611
2026-01-29 01:51:39.56	19.56	15.12	-55.5	-75.4	3.6	1.51e+00	0	46	104	0	60	229930
2026-01-29 01:51:43.59	19.01	15.46	-54.5	-73.8	3.6	1.51e+00	0	46	104	0	60	192807
2026-01-29 01:51:47.62	18.45	15.79	-57.4	-75.7	3.6	1.51e+00	0	46	104	0	60	240140
2026-01-29 01:51:51.65	17.87	16.13	-54.4	-74.7	3.6	1.51e+00	0	46	104	0	60	212641
2026-01-29 01:51:55.68	17.28	16.46	-56.7	-75.7	3.6	1.51e+00	0	46	104	0	60	237891
2026-01-29 01:51:59.71	16.68	16.80	-50.6	-73.0	3.6	1.51e+00	0	46	104	0	60	174849
2026-01-29 01:52:03.72	16.06	17.14	-51.7	-72.2	3.6	1.51e+00	0	46	104	0	60	159275
2026-01-29 01:52:07.74	15.43	17.48	-57.5	-75.4	3.6	1.51e+00	0	46	104	0	60	229390
2026-01-29 01:52:11.77	14.78	17.83	-56.4	-76.0	3.6	1.51e+00	0	46	104	0	60	245891
2026-01-29 01:52:15.80	14.12	18.17	-55.3	-75.5	3.6	1.51e+00	0	46	104	0	60	233722
2026-01-29 01:52:19.83	13.44	18.51	-57.6	-75.2	3.6	1.51e+00	0	46	104	0	60	224322
2026-01-29 01:52:23.86	12.75	18.86	-57.8	-75.8	3.6	1.51e+00	0	46	104	0	60	242791
2026-01-29 01:52:27.89	12.03	19.20	-55.2	-75.5	3.6	1.51e+00	0	46	104	0	60	234421
2026-01-29 01:52:31.93	11.31	19.55	-53.5	-75.1	3.6	1.51e+00	0	46	104	0	60	221957
2026-01-29 01:52:35.95	10.56	19.89	-54.3	-75.2	3.6	1.51e+00	0	47	104	0	60	226315
2026-01-29 01:52:39.98	9.80	20.24	-54.1	-75.1	3.5	1.51e+00	0	46	104	0	60	222030
2026-01-29 01:52:44.01	9.02	20.58	-58.5	-76.5	3.6	1.51e+00	0	46	104	0	60	261683
2026-01-29 01:52:48.05	8.23	20.93	-56.4	-75.7	3.6	1.51e+00	0	46	104	0	60	238782
2026-01-29 01:52:52.07	7.41	21.27	-57.8	-76.4	3.6	1.51e+00	0	46	104	0	60	259347
2026-01-29 01:52:56.09	6.58	21.60	-58.9	-76.6	3.6	1.51e+00	0	46	104	0	60	263539
2026-01-29 01:53:00.11	5.73	21.94	-59.2	-75.8	3.6	1.51e+00	0	46	104	0	60	241100
2026-01-29 01:53:04.14	4.86	22.28	-58.3	-75.1	3.6	1.51e+00	0	46	104	0	60	222222
2026-01-29 01:53:08.17	3.97	22.61	-58.6	-76.1	3.6	1.51e+00	0	46	104	0	60	249588
2026-01-29 01:53:12.20	3.06	22.94	-58.7	-76.4	3.6	1.51e+00	0	46	104	0	60	258455
2026-01-29 01:53:16.23	2.14	23.26	-59.9	-76.3	3.6	1.51e+00	0	46	104	0	60	255155
2026-01-29 01:53:20.26	1.19	23.58	-59.0	-76.0	3.5	1.51e+00	0	46	104	0	60	247823
2026-01-29 01:53:24.28	0.22	23.90	-59.2	-76.2	3.6	1.51e+00	0	46	104	0	60	252968
2026-01-29 01:53:28.30	359.24	24.21	-59.6	-76.8	3.6	1.51e+00	0	46	104	0	60	270094
2026-01-29 01:53:32.33	358.23	24.51	-59.3	-76.6	3.6	1.51e+00	0	46	104	0	60	263634
2026-01-29 01:53:36.36	357.20	24.81	-58.0	-76.6	3.6	1.51e+00	0	46	104	0	60	263632
2026-01-29 01:53:40.39	356.16	25.10	-58.8	-75.8	3.6	1.51e+00	0	47	104	0	60	240428
2026-01-29 01:53:44.40	355.10	25.38	-59.5	-76.9	3.6	1.51e+00	0	46	104	0	60	274957
2026-01-29 01:53:48.42	354.02	25.66	-60.0	-76.6	3.6	1.51e+00	0	46	104	0	60	263720
2026-01-29 01:53:52.44	352.92	25.92	-60.0	-76.4	3.6	1.51e+00	0	46	104	0	60	259432
2026-01-29 01:53:56.46	351.80	26.18	-59.8	-76.5	3.6	1.51e+00	0	46	104	0	60	261145
2026-01-29 01:54:00.48	350.66	26.43	-60.4	-76.9	3.6	1.51e+00	0	46	104	0	60	275646
2026-01-29 01:54:04.49	349.51	26.66	-56.7	-75.5	3.5	1.51e+00	0	46	104	0	60	232921
2026-01-29 01:54:08.52	348.33	26.89	-58.4	-75.8	3.6	1.51e+00	0	46	104	0	60	241047
2026-01-29 01:54:12.54	347.14	27.10	-57.7	-75.4	3.6	1.51e+00	0	46	104	0	60	230834
2026-01-29 01:54:16.54	345.94	27.30	-60.1	-76.8	3.6	1.51e+00	0	46	104	0	60	272587
2026-01-29 01:54:20.56	344.72	27.49	-59.6	-76.5	3.6	1.51e+00	0	46	104	0	60	262173
2026-01-29 01:54:24.59	343.49	27.67	-59.0	-76.2	3.6	1.51e+00	0	46	104	0	60	252762
2026-01-29 01:54:28.62	342.24	27.83	-58.9	-76.3	3.6	1.51e+00	0	46	104	0	60	256030
2026-01-29 01:54:32.65	340.98	27.98	-58.5	-75.6	3.6	1.51e+00	0	47	104	0	60	236580
2026-01-29 01:54:36.68	339.70	28.11	-59.1	-76.5	3.6	1.51e+00	0	46	104	0	60	261366
2026-01-29 01:54:40.71	338.42	28.22	-57.7	-76.0	3.6	1.51e+00	0	46	104	0	60	246707
2026-01-29 01:54:44.74	337.13	28.33	-58.8	-76.1	3.6	1.51e+00	0	46	104	0	60	251478
2026-01-29 01:54:48.76	335.83	28.41	-58.5	-76.1	3.6	1.51e+00	0	47	104	0	60	248804
2026-01-29 01:54:52.78	334.53	28.48	-59.6	-76.2	3.6	1.51e+00	0	46	104	0	60	252327
2026-01-29 01:54:56.79	333.22	28.53	-59.3	-76.6	3.6	1.51e+00	0	46	104	0	60	265619
2026-01-29 01:55:00.82	331.91	28.57	-59.0	-76.7	3.6	1.51e+00	0	46	104	0	60	267055
2026-01-29 01:55:04.84	330.60	28.59	-59.8	-76.6	3.6	1.51e+00	0	46	104	0	60	263383
2026-01-29 01:55:08.85	329.29	28.59	-60.2	-76.6	3.6	1.51e+00	0	46	104	0	60	264473
2026-01-29 01:55:12.88	327.97	28.57	-59.2	-76.8	3.6	1.51e+00	0	46	104	0	60	271530
2026-01-29 01:55:16.91	326.65	28.54	-59.0	-76.8	3.6	1.51e+00	0	46	104	0	60	270850
2026-01-29 01:55:20.93	325.34	28.49	-59.4	-76.6	3.6	1.51e+00	0	46	104	0	60	265656
2026-01-29 01:55:24.94	324.04	28.43	-59.4	-76.3	3.6	1.51e+00	0	46	104	0	60	256493
2026-01-29 01:55:28.96	322.74	28.35	-59.6	-76.1	3.6	1.51e+00	0	46	104	0	60	248940
2026-01-29 01:55:32.99	321.45	28.25	-58.9	-76.6	3.6	1.51e+00	0	47	104	0	60	265820
2026-01-29 01:55:37.00	320.17	28.14	-58.4	-76.6	3.6	1.51e+00	0	46	104	0	60	265752
2026-01-29 01:55:41.03	318.89	28.01	-59.2	-76.7	3.6	1.51e+00	0	46	104	0	60	266677
2026-01-29 01:55:45.06	317.63	27.87	-60.1	-76.5	3.6	1.51e+00	0	46	104	0	60	262660
2026-01-29 01:55:49.09	316.37	27.71	-59.7	-76.5	3.6	1.51e+00	0	46	104	0	60	261987
2026-01-29 01:55:53.13	315.13	27.54	-58.1	-76.0	3.6	1.51e+00	0	46	104	0	60	247929
2026-01-29 01:55:57.15	313.91	27.35	-57.8	-75.7	3.6	1.51e+00	0	46	104	0	60	239446
2026-01-29 01:56:01.17	312.70	27.15	-59.1	-75.9	3.6	1.51e+00	0	46	104	0	60	243627
2026-01-29 01:56:05.20	311.50	26.94	-59.0	-76.1	3.6	1.51e+00	0	46	104	0	60	250424
2026-01-29 01:56:09.23	310.32	26.72	-58.8	-76.2	3.6	1.51e+00	0	46	104	0	60	252240
2026-01-29 01:56:13.25	309.16	26.48	-58.7	-76.0	3.6	1.51e+00	0	46	104	0	60	247279
2026-01-29 01:56:17.28	308.01	26.24	-58.7	-75.9	3.6	1.51e+00	0	46	104	0	60	244505
2026-01-29 01:56:21.31	306.89	25.98	-59.0	-75.8	3.6	1.51e+00	0	46	104	0	60	241116
2026-01-29 01:56:25.33	305.78	25.72	-59.5	-76.0	3.6	1.51e+00	0	46	104	0	60	247422
2026-01-29 01:56:29.36	304.69	25.44	-59.5	-76.2	3.6	1.51e+00	0	46	104	0	60	251580
2026-01-29 01:56:33.37	303.62	25.16	-58.9	-75.4	3.6	1.51e+00	0	46	104	0	60	230533
2026-01-29 01:56:37.41	302.57	24.87	-59.6	-76.0	3.6	1.51e+00	0	46	104	0	60	247555
2026-01-29 01:56:41.44	301.53	24.58	-59.7	-75.8	3.6	1.51e+00	0	47	104	0	60	242786
2026-01-29 01:56:45.46	300.52	24.27	-59.2	-75.9	3.6	1.51e+00	0	46	104	0	60	245042
2026-01-29 01:56:49.49	299.53	23.96	-59.3	-76.1	3.6	1.51e+00	0	46	104	0	60	250031
2026-01-29 01:56:53.51	298.56	23.65	-59.3	-76.0	3.6	1.51e+00	0	46	104	0	60	248607
2026-01-29 01:56:57.55	297.60	23.33	-58.5	-75.3	3.6	1.51e+00	0	46	104	0	60	228019
2026-01-29 01:57:01.55	296.68	23.01	-58.2	-75.0	3.6	1.51e+00	0	46	104	0	60	219855
2026-01-29 01:57:05.58	295.76	22.68	-58.3	-75.0	3.6	1.51e+00	0	46	104	0	60	220664
2026-01-29 01:57:09.61	294.87	22.35	-58.4	-74.8	3.6	1.51e+00	0	46	104	0	60	214160
2026-01-29 01:57:13.64	293.99	22.01	-59.4	-76.1	3.6	1.51e+00	0	46	104	0	60	248973
2026-01-29 01:57:17.66	293.13	21.68	-58.9	-75.2	3.6	1.51e+00	0	46	104	0	60	224430
2026-01-29 01:57:21.69	292.30	21.34	-59.3	-75.0	3.6	1.51e+00	0	47	104	0	60	220363
2026-01-29 01:57:25.71	291.48	21.00	-58.7	-74.9	3.6	1.51e+00	0	46	104	0	60	217938
2026-01-29 01:57:29.74	290.67	20.65	-58.9	-75.0	3.6	1.51e+00	0	47	104	0	60	221080
2026-01-29 01:57:33.76	289.89	20.31	-58.0	-73.5	3.6	1.51e+00	0	46	104	0	60	185350
2026-01-29 01:57:37.79	289.13	19.97	-57.9	-74.1	3.6	1.51e+00	0	46	104	0	60	197800
2026-01-29 01:57:41.82	288.38	19.62	-57.8	-74.0	3.6	1.51e+00	0	47	104	0	60	195713
2026-01-29 01:57:45.85	287.64	19.27	-57.7	-74.3	3.6	1.51e+00	0	47	104	0	60	202271
2026-01-29 01:57:49.88	286.93	18.93	-58.3	-74.6	3.6	1.51e+00	0	46	104	0	60	209725
2026-01-29 01:57:53.90	286.23	18.58	-58.1	-74.5	3.6	1.51e+00	0	46	104	0	60	206992
2026-01-29 01:57:57.92	285.55	18.24	-58.8	-75.1	3.6	1.51e+00	0	47	104	0	60	223093
2026-01-29 01:58:01.95	284.88	17.90	-58.4	-74.0	3.6	1.50e+00	0	47	104	0	60	195749
2026-01-29 01:58:05.97	284.23	17.55	-58.6	-75.0	3.6	1.51e+00	0	46	104	0	60	220399
2026-01-29 01:58:09.99	283.59	17.21	-58.6	-74.8	3.6	1.51e+00	0	46	104	0	60	214817
2026-01-29 01:58:14.00	282.97	16.87	-58.5	-73.7	3.7	1.50e+00	0	47	104	0	60	190255
2026-01-29 01:58:18.03	282.36	16.53	-58.4	-72.9	3.8	1.48e+00	0	47	104	0	60	173356
2026-01-29 01:58:22.06	281.77	16.19	-58.5	-73.2	3.7	1.50e+00	0	47	104	0	60	178815
2026-01-29 01:58:26.07	281.19	15.86	-58.5	-72.9	3.7	1.48e+00	0	46	104	0	60	173666
2026-01-29 01:58:30.10	280.62	15.52	-58.4	-70.5	3.8	1.38e+00	0	46	0	0	60	131438
2026-01-29 01:58:34.12	280.06	15.19	-58.3	-71.9	3.9	1.39e+00	0	46	104	1048576	60	154070
2026-01-29 01:58:38.15	279.52	14.86	-58.2	-72.3	3.9	1.48e+00	0	47	104	1048576	60	161880
2026-01-29 01:58:42.18	278.99	14.53	-58.2	-69.9	4.0	1.34e+00	0	47	0	1048576	60	122907
2026-01-29 01:58:46.20	278.47	14.20	-57.7	-65.1	8.7	8.59e-02	0	47	0	8388608	60	70202
2026-01-29 01:58:50.24	277.96	13.87	-57.2	-63.1	11.0	6.74e-03	0	46	0	15728640	60	55855
2026-01-29 01:58:54.26	277.46	13.55	-57.0	-62.7	11.3	9.18e-04	0	46	0	23068672	60	53470
2026-01-29 01:58:58.29	276.98	13.23	-56.1	-60.2	13.5	6.80e-06	0	47	0	30408704	60	40166
2026-01-29 01:59:02.30	276.50	12.91	-55.8	-59.4	14.5	1.50e-06	0	46	0	37748736	60	36744
2026-01-29 01:59:06.32	276.04	12.60	-55.2	-58.3	15.7	0.00e+00	0	46	0	46137344	60	32149
2026-01-29 01:59:10.35	275.58	12.28	-55.3	-58.4	15.6	0.00e+00	0	47	0	53477376	60	32717
2026-01-29 01:59:14.38	275.14	11.97	-55.3	-58.3	16.1	0.00e+00	0	46	0	60817408	60	32396
2026-01-29 01:59:18.40	274.71	11.66	-54.5	-57.2	17.0	0.00e+00	0	46	0	68157440	60	28296
2026-01-29 01:59:22.43	274.28	11.35	-53.6	-55.7	18.5	0.00e+00	0	46	0	75497472	60	23895
2026-01-29 01:59:26.45	273.86	11.04	-53.2	-55.1	18.8	0.00e+00	0	46	0	83886080	60	22286
2026-01-29 01:59:30.46	273.46	10.74	-53.6	-55.8	18.2	0.00e+00	0	46	0	91226112	60	24059
2026-01-29 01:59:34.46	273.06	10.44	-54.3	-56.8	17.3	0.00e+00	0	46	0	98566144	60	27087
2026-01-29 01:59:38.49	272.67	10.14	-54.8	-57.5	16.7	0.00e+00	0	46	0	105906176	60	29512
2026-01-29 01:59:42.50	272.29	9.85	-54.6	-57.2	16.9	0.00e+00	0	46	0	113246208	60	28463
2026-01-29 01:59:46.52	271.91	9.56	-54.6	-57.2	17.0	0.00e+00	0	46	0	121634816	60	28303
2026-01-29 01:59:50.53	271.55	9.26	-54.3	-56.7	17.2	0.00e+00	0	46	0	128974848	60	26786
2026-01-29 01:59:54.54	271.19	8.98	-54.5	-57.1	16.9	0.00e+00	0	46	0	136314880	60	28066
2026-01-29 01:59:58.56	270.83	8.69	-54.8	-57.6	16.3	0.00e+00	0	46	0	143654912	60	29848
2026-01-29 02:00:02.55	270.49	8.41	-55.1	-58.1	15.7	0.00e+00	0	46	0	150994944	60	31453
2026-01-29 02:00:06.57	270.15	8.12	-54.9	-57.7	16.3	0.00e+00	0	46	0	158334976	60	30219
2026-01-29 02:00:10.57	269.82	7.84	-54.1	-56.5	17.3	0.00e+00	0	46	0	165675008	60	26144
2026-01-29 02:00:14.58	269.50	7.57	-53.6	-55.7	18.1	0.00e+00	0	46	0	174063616	60	23803
2026-01-29 02:00:18.60	269.18	7.29	-53.5	-55.6	18.1	0.00e+00	0	46	0	181403648	60	23634
2026-01-29 02:00:22.62	268.87	7.02	-54.0	-56.4	17.2	0.00e+00	0	46	0	188743680	60	25970
2026-01-29 02:00:26.63	268.56	6.75	-54.5	-57.3	16.4	0.00e+00	0	46	0	196083712	60	28608
2026-01-29 02:00:30.65	268.26	6.48	-55.0	-58.1	15.4	0.00e+00	0	46	0	203423744	60	31618
2026-01-29 02:00:34.67	267.97	6.21	-55.5	-59.0	14.8	0.00e+00	0	46	0	211812352	60	34957
2026-01-29 02:00:38.68	267.68	5.94	-58.5	-75.1	3.6	1.51e+00	0	46	104	217055232	60	222240
2026-01-29 02:00:42.70	267.39	5.68	-57.6	-75.5	3.6	1.51e+00	0	46	104	217055232	60	233427
2026-01-29 02:00:46.73	267.11	5.42	-57.8	-75.6	3.6	1.51e+00	0	46	104	217055232	60	235411
2026-01-29 02:00:50.76	266.84	5.16	-55.9	-75.2	3.6	1.51e+00	0	46	104	217055232	60	225068
2026-01-29 02:00:54.78	266.57	4.90	-56.4	-76.0	3.6	1.51e+00	0	46	104	217055232	60	247512
2026-01-29 02:00:58.79	266.31	4.64	-58.5	-77.2	3.6	1.51e+00	0	46	104	217055232	60	284924
2026-01-29 02:01:02.82	266.05	4.39	-58.6	-77.3	3.6	1.51e+00	0	47	104	217055232	60	287522
2026-01-29 02:01:06.85	265.79	4.13	-58.6	-77.2	3.6	1.51e+00	0	46	104	217055232	60	284348
2026-01-29 02:01:10.88	265.54	3.88	-58.5	-77.4	3.6	1.51e+00	0	47	104	217055232	60	289883
2026-01-29 02:01:14.91	265.30	3.63	-58.5	-77.2	3.6	1.51e+00	0	47	104	217055232	60	284172
2026-01-29 02:01:18.94	265.06	3.39	-58.5	-77.4	3.6	1.51e+00	0	46	104	217055232	60	289646
2026-01-29 02:01:22.97	264.82	3.14	-58.4	-77.3	3.6	1.51e+00	0	46	104	217055232	60	286956
2026-01-29 02:01:26.99	264.59	2.90	-58.4	-77.2	3.6	1.51e+00	0	47	104	217055232	60	285326
2026-01-29 02:01:31.01	264.36	2.65	-58.4	-77.4	3.6	1.51e+00	0	47	104	217055232	60	290552
2026-01-29 02:01:35.04	264.13	2.41	-58.4	-77.3	3.6	1.51e+00	0	47	104	217055232	60	287575
2026-01-29 02:01:39.07	263.91	2.17	-58.4	-77.1	3.6	1.51e+00	0	47	104	217055232	60	280727
2026-01-29 02:01:43.10	263.69	1.94	-58.5	-77.2	3.6	1.51e+00	0	47	104	217055232	60	285339
2026-01-29 02:01:47.12	263.48	1.70	-58.3	-77.1	3.6	1.51e+00	0	47	104	217055232	60	279492
2026-01-29 02:01:51.14	263.27	1.47	-58.3	-77.1	3.6	1.51e+00	0	46	104	217055232	60	281592
2026-01-29 02:01:55.17	263.06	1.23	-58.3	-77.2	3.6	1.51e+00	0	47	104	217055232	60	284500
2026-01-29 02:01:59.20	262.86	1.00	-58.4	-77.2	3.6	1.51e+00	0	47	104	217055232	60	284619
2026-01-29 02:02:03.23	262.66	0.77	-58.5	-77.2	3.6	1.51e+00	0	46	104	217055232	60	283787
2026-01-29 02:02:07.25	262.46	0.54	-58.6	-77.3	3.6	1.51e+00	0	46	104	217055232	60	285728
2026-01-29 02:02:11.28	262.27	0.32	-58.4	-77.1	3.6	1.51e+00	0	46	104	217055232	60	280980
2026-01-29 02:02:15.30	262.08	0.09	-58.3	-77.0	3.6	1.51e+00	0	47	104	217055232	60	277819

#Closed at: 2026-01-29 02:02:18
#Recorded file [217 MB]: D:/Data/35015_260129_050037.dat