passes_logs/2026/01/29/R3.2S-Naryan-Mar/R3.2S-Naryan-Mar__20260129_124326_FENGYUN_3E_rec.log

#Pass ID: 20260129_124326_FENGYUN 3E
#Satellite: FENGYUN 3E
#Configuration: FENGYUN 3E
#almurnet v.1.7.20240730
#Start time: 2026-01-29 12:43:29

#Version: 2.2.20231116
#Station: R3.2S-Naryan-Mar
#Location: 53.008057 lon 67.646978 lat
#TLE: 1 49008U 21062A   26028.95833242 -.00000015  00000+0  13843-4 0  9995
#TLE: 2 49008  98.7500  33.9242 0002547 112.2873 247.8573 14.19887818236829

#Time	Az	El	Level	Level2	SNR	BER	BlckErr	Temp	State	Recorded	gain1	gain2
2026-01-29 12:43:29.29	156.57	0.18	-55.1	-71.6	3.3	8.40e-01	0	45	0	0	60	148685
2026-01-29 12:43:33.32	156.60	0.42	-60.8	-73.9	3.6	8.44e-01	0	45	104	0	60	194865
2026-01-29 12:43:37.35	156.63	0.67	-61.7	-74.9	3.6	8.45e-01	0	45	104	0	60	218621
2026-01-29 12:43:41.37	156.65	0.91	-60.4	-73.8	3.6	8.45e-01	0	45	104	0	60	192326
2026-01-29 12:43:45.40	156.68	1.16	-58.0	-71.9	3.6	8.45e-01	0	45	104	0	60	153993
2026-01-29 12:43:49.42	156.71	1.42	-57.6	-71.1	3.6	8.45e-01	0	45	104	0	60	139851
2026-01-29 12:43:53.44	156.74	1.67	-57.5	-70.9	3.6	8.45e-01	0	45	104	0	60	138099
2026-01-29 12:43:57.47	156.77	1.93	-57.5	-71.0	3.6	8.46e-01	0	45	104	0	60	138886
2026-01-29 12:44:01.48	156.79	2.18	-57.4	-70.9	3.6	8.45e-01	0	45	104	0	60	137977
2026-01-29 12:44:05.51	156.82	2.44	-57.3	-70.9	3.6	8.45e-01	0	45	104	0	60	136701
2026-01-29 12:44:09.52	156.85	2.71	-57.3	-70.8	3.6	8.45e-01	0	45	104	0	60	136606
2026-01-29 12:44:13.53	156.88	2.97	-57.2	-70.6	3.6	8.45e-01	0	46	104	0	60	133129
2026-01-29 12:44:17.56	156.91	3.24	-57.1	-70.0	3.6	8.44e-01	0	45	104	0	60	123946
2026-01-29 12:44:21.58	156.94	3.51	-57.0	-69.5	3.6	8.45e-01	0	46	104	0	60	117524
2026-01-29 12:44:25.60	156.97	3.79	-57.0	-69.9	3.6	8.45e-01	0	45	104	0	60	121952
2026-01-29 12:44:29.61	157.01	4.06	-56.9	-68.9	3.6	8.45e-01	0	45	104	0	60	109419
2026-01-29 12:44:33.63	157.04	4.34	-56.9	-68.7	3.6	8.45e-01	0	46	104	0	60	106980
2026-01-29 12:44:37.66	157.07	4.62	-56.4	-63.6	5.0	7.92e-01	0	46	0	0	60	59171
2026-01-29 12:44:41.69	157.10	4.91	-53.2	-56.2	12.7	1.80e-04	0	46	0	26214400	60	25209
2026-01-29 12:44:45.70	157.13	5.20	-49.6	-51.4	16.4	0.00e+00	0	46	0	55574528	60	14634
2026-01-29 12:44:49.74	157.17	5.49	-48.1	-49.7	17.4	0.00e+00	0	46	0	84934656	60	11954
2026-01-29 12:44:53.77	157.20	5.79	-49.2	-50.9	16.6	0.00e+00	0	46	0	113246208	60	13810
2026-01-29 12:44:57.80	157.23	6.09	-52.9	-55.8	11.7	5.70e-06	0	46	0	142606336	60	24102
2026-01-29 12:45:01.83	157.27	6.39	-51.1	-53.5	14.3	3.40e-06	0	46	104	156237824	60	18606
2026-01-29 12:45:05.85	157.30	6.69	-51.1	-53.4	15.0	0.00e+00	0	46	0	28311552	60	18273
2026-01-29 12:45:09.88	157.34	7.00	-49.4	-51.3	16.6	0.00e+00	0	46	0	57671680	60	14408
2026-01-29 12:45:13.92	157.37	7.32	-48.2	-50.0	17.5	0.00e+00	0	46	0	87031808	60	12352
2026-01-29 12:45:17.94	157.41	7.63	-47.7	-49.4	17.8	0.00e+00	0	46	0	116391936	60	11592
2026-01-29 12:45:21.96	157.45	7.95	-47.3	-49.0	18.1	0.00e+00	0	46	0	144703488	60	11056
2026-01-29 12:45:26.00	157.48	8.28	-47.3	-49.0	18.1	0.00e+00	0	46	0	174063616	60	11074
2026-01-29 12:45:30.03	157.52	8.61	-47.1	-48.7	18.2	0.00e+00	0	46	0	203423744	60	10688
2026-01-29 12:45:34.05	157.56	8.94	-47.0	-48.7	18.2	0.00e+00	0	46	0	231735296	60	10628
2026-01-29 12:45:38.06	157.60	9.28	-47.0	-48.6	18.3	0.00e+00	0	46	0	261095424	60	10600
2026-01-29 12:45:42.09	157.64	9.62	-46.9	-48.5	18.3	0.00e+00	0	46	0	289406976	60	10426
2026-01-29 12:45:46.12	157.68	9.97	-47.4	-48.4	21.5	0.00e+00	0	46	0	319815680	60	10321
2026-01-29 12:45:50.15	157.72	10.33	-47.4	-48.4	21.5	0.00e+00	0	46	0	348127232	60	10303
2026-01-29 12:45:54.17	157.76	10.68	-47.4	-48.4	21.7	0.00e+00	0	46	0	377487360	60	10278
2026-01-29 12:45:58.19	157.80	11.05	-47.2	-48.2	21.9	0.00e+00	0	46	0	405798912	60	10078
2026-01-29 12:46:02.23	157.84	11.42	-47.1	-48.0	22.0	0.00e+00	0	46	0	436207616	60	9878
2026-01-29 12:46:06.25	157.89	11.79	-47.2	-48.2	21.9	0.00e+00	0	46	0	464519168	60	10048
2026-01-29 12:46:10.28	157.93	12.17	-46.9	-47.8	22.3	0.00e+00	0	46	0	493879296	60	9609
2026-01-29 12:46:14.31	157.98	12.56	-46.8	-47.6	22.5	0.00e+00	0	46	0	523239424	60	9429
2026-01-29 12:46:18.34	158.02	12.95	-46.7	-47.5	22.7	0.00e+00	0	46	0	551550976	60	9276
2026-01-29 12:46:22.36	158.07	13.35	-46.5	-47.3	22.8	0.00e+00	0	46	0	580911104	60	9125
2026-01-29 12:46:26.39	158.12	13.75	-46.6	-47.4	22.8	0.00e+00	0	46	0	609222656	60	9196
2026-01-29 12:46:30.42	158.17	14.17	-46.4	-47.2	23.0	0.00e+00	0	46	0	639631360	60	9024
2026-01-29 12:46:34.44	158.21	14.58	-46.3	-47.1	23.1	0.00e+00	0	46	0	667942912	60	8917
2026-01-29 12:46:38.47	158.27	15.01	-46.2	-47.0	23.2	0.00e+00	0	46	0	697303040	60	8732
2026-01-29 12:46:42.49	158.32	15.45	-46.2	-47.0	23.1	0.00e+00	0	46	0	725614592	60	8812
2026-01-29 12:46:46.52	158.37	15.89	-46.2	-47.0	23.2	0.00e+00	0	46	0	754974720	60	8777
2026-01-29 12:46:50.55	158.42	16.34	-45.9	-46.7	23.5	0.00e+00	0	46	0	784334848	60	8431
2026-01-29 12:46:54.58	158.48	16.80	-45.8	-46.6	23.6	0.00e+00	0	46	0	813694976	60	8333
2026-01-29 12:46:58.60	158.53	17.27	-45.9	-46.7	23.6	0.00e+00	0	46	0	842006528	60	8428
2026-01-29 12:47:02.62	158.59	17.74	-45.8	-46.6	23.7	0.00e+00	0	46	0	871366656	60	8354
2026-01-29 12:47:06.65	158.65	18.23	-45.6	-46.4	23.9	0.00e+00	0	46	0	900726784	60	8174
2026-01-29 12:47:10.68	158.71	18.73	-45.8	-46.5	23.9	0.00e+00	0	46	0	929038336	60	8325
2026-01-29 12:47:14.71	158.77	19.23	-45.6	-46.3	24.1	0.00e+00	0	46	0	959447040	60	8134
2026-01-29 12:47:18.74	158.84	19.75	-45.4	-46.2	24.3	0.00e+00	0	46	0	987758592	60	7964
2026-01-29 12:47:22.76	158.90	20.28	-45.4	-46.1	24.5	0.00e+00	0	46	0	1017118720	60	7933
2026-01-29 12:47:26.78	158.97	20.82	-45.0	-45.7	24.8	0.00e+00	0	46	0	1045430272	60	7532
2026-01-29 12:47:30.81	159.04	21.37	-45.0	-45.7	24.7	0.00e+00	0	46	0	1074790400	60	7583
2026-01-29 12:47:34.81	159.11	21.93	-45.2	-46.0	24.5	0.00e+00	0	46	0	1104150528	60	7783
2026-01-29 12:47:38.82	159.18	22.50	-44.9	-45.6	24.8	0.00e+00	0	46	0	1133510656	60	7504
2026-01-29 12:47:42.85	159.26	23.09	-45.1	-45.8	24.9	0.00e+00	0	46	0	1161822208	60	7634
2026-01-29 12:47:46.87	159.34	23.69	-45.0	-45.7	25.0	0.00e+00	0	46	0	1191182336	60	7577
2026-01-29 12:47:50.88	159.42	24.31	-45.3	-46.1	24.9	0.00e+00	0	46	0	1219493888	60	7866
2026-01-29 12:47:54.90	159.50	24.94	-45.3	-46.0	24.9	0.00e+00	0	46	0	1248854016	60	7831
2026-01-29 12:47:58.93	159.59	25.59	-45.4	-46.2	24.8	0.00e+00	0	46	0	1278214144	60	7978
2026-01-29 12:48:02.96	159.68	26.25	-45.0	-45.7	25.1	0.00e+00	0	46	0	1306525696	60	7513
2026-01-29 12:48:06.97	159.77	26.93	-44.9	-45.6	25.4	0.00e+00	0	46	0	1335885824	60	7482
2026-01-29 12:48:10.99	159.86	27.63	-44.9	-45.6	25.4	0.00e+00	0	46	0	1365245952	60	7491
2026-01-29 12:48:15.02	159.96	28.34	-44.7	-45.4	25.6	0.00e+00	0	46	0	1394606080	60	7316
2026-01-29 12:48:19.05	160.06	29.08	-45.1	-45.8	25.4	0.00e+00	0	46	0	1422917632	60	7614
2026-01-29 12:48:23.08	160.17	29.84	-45.2	-45.9	25.4	0.00e+00	0	46	0	1452277760	60	7772
2026-01-29 12:48:27.08	160.28	30.61	-45.3	-46.0	25.7	0.00e+00	0	46	0	1480589312	60	7819
2026-01-29 12:48:31.11	160.40	31.40	-45.4	-46.1	25.6	0.00e+00	0	46	0	1510998016	60	7868
2026-01-29 12:48:35.14	160.52	32.22	-45.2	-45.8	25.7	0.00e+00	0	46	0	1539309568	60	7669
2026-01-29 12:48:39.17	160.65	33.06	-45.1	-45.8	25.7	0.00e+00	0	46	0	1568669696	60	7646
2026-01-29 12:48:43.19	160.78	33.93	-45.3	-46.0	25.6	0.00e+00	0	46	0	1596981248	60	7827
2026-01-29 12:48:47.23	160.92	34.82	-45.6	-46.3	25.3	0.00e+00	0	46	0	1626341376	60	8061
2026-01-29 12:48:51.25	161.07	35.74	-45.6	-46.3	25.6	0.00e+00	0	46	0	1655701504	60	8052
2026-01-29 12:48:55.28	161.22	36.68	-45.6	-46.2	25.7	0.00e+00	0	46	0	1685061632	60	8016
2026-01-29 12:48:59.31	161.39	37.65	-45.8	-46.5	25.4	0.00e+00	0	46	0	1714421760	60	8278
2026-01-29 12:49:03.33	161.56	38.65	-46.2	-46.9	25.1	0.00e+00	0	46	0	1742733312	60	8652
2026-01-29 12:49:07.36	161.74	39.68	-45.9	-46.6	25.4	0.00e+00	0	46	0	1772093440	60	8342
2026-01-29 12:49:11.39	161.93	40.74	-46.2	-46.9	25.3	0.00e+00	0	46	0	1800404992	60	8663
2026-01-29 12:49:15.41	162.14	41.83	-46.3	-47.0	25.3	0.00e+00	0	46	0	1830813696	60	8774
2026-01-29 12:49:19.45	162.36	42.96	-46.5	-47.2	25.1	0.00e+00	0	46	0	1859125248	60	8956
2026-01-29 12:49:23.48	162.59	44.12	-46.3	-47.0	25.5	0.00e+00	0	46	0	1888485376	60	8738
2026-01-29 12:49:27.49	162.84	45.31	-47.1	-47.8	24.8	0.00e+00	0	46	0	1916796928	60	9632
2026-01-29 12:49:31.52	163.11	46.55	-47.7	-48.4	24.4	0.00e+00	0	46	0	1946157056	60	10284
2026-01-29 12:49:35.55	163.41	47.81	-47.6	-48.3	24.4	0.00e+00	0	46	0	1975517184	60	10192
2026-01-29 12:49:39.58	163.72	49.12	-47.7	-48.4	24.3	0.00e+00	0	46	0	2003828736	60	10330
2026-01-29 12:49:43.61	164.06	50.47	-48.3	-49.1	24.1	0.00e+00	0	46	0	2034237440	60	11141
2026-01-29 12:49:47.63	164.43	51.85	-47.9	-48.7	24.1	0.00e+00	0	46	0	2062548992	60	10643
2026-01-29 12:49:51.65	164.84	53.27	-48.0	-48.7	24.1	0.00e+00	0	46	0	2091909120	60	10674
2026-01-29 12:49:55.68	165.29	54.73	-48.1	-48.9	24.0	0.00e+00	0	46	0	2120220672	60	10878
2026-01-29 12:49:59.71	165.79	56.24	-48.6	-49.5	22.8	0.00e+00	0	46	0	2150629376	60	11643
2026-01-29 12:50:03.73	166.34	57.78	-48.1	-48.9	24.1	0.00e+00	0	46	0	2178940928	60	10871
2026-01-29 12:50:07.75	166.95	59.36	-48.4	-49.2	23.8	0.00e+00	0	46	0	2208301056	60	11325
2026-01-29 12:50:11.77	167.65	60.97	-47.9	-48.6	24.4	0.00e+00	0	46	0	2236612608	60	10549
2026-01-29 12:50:15.79	168.44	62.63	-47.6	-48.3	23.9	0.00e+00	0	46	0	2265972736	60	10200
2026-01-29 12:50:19.80	169.34	64.31	-47.0	-47.7	24.9	0.00e+00	0	46	0	2294284288	60	9533
2026-01-29 12:50:23.82	170.38	66.04	-47.1	-47.9	24.7	0.00e+00	0	46	0	2323644416	60	9689
2026-01-29 12:50:27.85	171.61	67.79	-46.7	-47.4	25.3	0.00e+00	0	46	0	2353004544	60	9152
2026-01-29 12:50:31.87	173.07	69.57	-46.2	-46.9	25.3	0.00e+00	0	46	0	2382364672	60	8655
2026-01-29 12:50:35.89	174.82	71.37	-47.2	-47.9	24.4	0.00e+00	0	46	0	2410676224	60	9769
2026-01-29 12:50:39.91	176.97	73.17	-47.2	-48.0	24.7	0.00e+00	0	46	0	2440036352	60	9878
2026-01-29 12:50:43.94	179.67	74.99	-46.9	-47.7	24.7	0.00e+00	0	46	0	2469396480	60	9508
2026-01-29 12:50:47.97	183.13	76.78	-45.7	-46.6	25.0	0.00e+00	0	46	0	2497708032	60	8344
2026-01-29 12:50:51.99	187.69	78.53	-45.3	-46.2	25.7	0.00e+00	0	46	0	2527068160	60	7962
2026-01-29 12:50:56.00	193.87	80.20	-45.4	-46.4	25.6	0.00e+00	0	46	0	2555379712	60	8154
2026-01-29 12:51:00.03	202.54	81.74	-44.9	-46.0	25.5	0.00e+00	0	46	0	2585788416	60	7811
2026-01-29 12:51:04.05	214.73	83.01	-45.1	-46.3	25.4	0.00e+00	0	46	0	2614099968	60	8065
2026-01-29 12:51:08.07	231.25	83.85	-45.1	-46.2	25.3	0.00e+00	0	46	0	2643460096	60	7994
2026-01-29 12:51:12.08	250.77	84.06	-45.2	-46.2	25.3	0.00e+00	0	46	0	2671771648	60	8017
2026-01-29 12:51:16.10	269.51	83.59	-45.3	-46.1	25.5	0.00e+00	0	46	0	2701131776	60	7940
2026-01-29 12:51:20.13	284.38	82.55	-45.2	-46.0	25.9	0.00e+00	0	46	0	2730491904	60	7822
2026-01-29 12:51:24.16	295.07	81.16	-44.8	-45.8	25.9	0.00e+00	0	46	0	2759852032	60	7641
2026-01-29 12:51:28.19	302.65	79.56	-44.5	-45.5	26.3	0.00e+00	0	46	0	2788163584	60	7355
2026-01-29 12:51:32.22	308.13	77.85	-44.6	-45.5	26.0	0.00e+00	0	46	0	2817523712	60	7388
2026-01-29 12:51:36.24	312.20	76.08	-45.5	-46.3	25.3	0.00e+00	0	46	0	2846883840	60	8126
2026-01-29 12:51:40.28	315.33	74.27	-45.6	-46.5	25.1	0.00e+00	0	46	0	2875195392	60	8272
2026-01-29 12:51:44.29	317.78	72.47	-46.9	-47.7	24.4	0.00e+00	0	46	0	2904555520	60	9519
2026-01-29 12:51:48.32	319.76	70.66	-47.2	-48.1	24.2	0.00e+00	0	46	0	2933915648	60	9902
2026-01-29 12:51:52.36	321.40	68.87	-46.5	-47.2	25.0	0.00e+00	0	46	0	2963275776	60	9026
2026-01-29 12:51:56.39	322.75	67.10	-46.1	-46.9	25.6	0.00e+00	0	46	0	2991587328	60	8677
2026-01-29 12:52:00.41	323.90	65.36	-46.2	-47.2	25.2	0.00e+00	0	46	0	3020947456	60	8936
2026-01-29 12:52:04.43	324.89	63.65	-46.5	-47.3	25.1	0.00e+00	0	46	0	3050307584	60	9114
2026-01-29 12:52:08.46	325.75	61.98	-47.1	-47.9	24.4	0.00e+00	0	46	0	3079667712	60	9756
2026-01-29 12:52:12.49	326.50	60.34	-48.0	-48.9	23.5	0.00e+00	0	46	0	3107979264	60	10874
2026-01-29 12:52:16.50	327.16	58.74	-47.7	-48.7	23.7	0.00e+00	0	46	0	3137339392	60	10623
2026-01-29 12:52:20.52	327.74	57.18	-47.8	-48.7	23.9	0.00e+00	0	46	0	3166699520	60	10710
2026-01-29 12:52:24.55	328.27	55.66	-47.5	-48.4	24.0	0.00e+00	0	46	0	3195011072	60	10260
2026-01-29 12:52:28.59	328.75	54.17	-47.4	-48.2	24.2	0.00e+00	0	46	0	3224371200	60	10016
2026-01-29 12:52:32.62	329.18	52.72	-47.6	-48.4	24.1	0.00e+00	0	46	0	3253731328	60	10273
2026-01-29 12:52:36.64	329.58	51.32	-47.4	-48.1	24.2	0.00e+00	0	46	0	3283091456	60	10001
2026-01-29 12:52:40.66	329.93	49.96	-47.5	-48.3	24.2	0.00e+00	0	46	0	3311403008	60	10182
2026-01-29 12:52:44.70	330.27	48.63	-47.1	-47.9	24.4	0.00e+00	0	46	0	3340763136	60	9771
2026-01-29 12:52:48.73	330.57	47.34	-46.9	-47.7	24.5	0.00e+00	0	46	0	3370123264	60	9487
2026-01-29 12:52:52.74	330.85	46.10	-46.9	-47.7	23.5	0.00e+00	0	46	0	3399483392	60	9453
2026-01-29 12:52:56.77	331.12	44.89	-46.2	-46.9	24.7	0.00e+00	0	46	0	3427794944	60	8657
2026-01-29 12:53:00.80	331.36	43.71	-46.2	-47.0	24.3	0.00e+00	0	46	0	3457155072	60	8791
2026-01-29 12:53:04.82	331.59	42.57	-46.1	-46.9	24.6	0.00e+00	0	46	0	3486515200	60	8681
2026-01-29 12:53:08.83	331.80	41.46	-46.1	-46.9	24.9	0.00e+00	0	46	0	3514826752	60	8652
2026-01-29 12:53:12.86	332.00	40.38	-46.2	-47.0	24.9	0.00e+00	0	46	0	3544186880	60	8747
2026-01-29 12:53:16.89	332.19	39.34	-46.5	-47.2	24.8	0.00e+00	0	46	0	3572498432	60	8963
2026-01-29 12:53:20.92	332.37	38.32	-46.1	-46.9	25.0	0.00e+00	0	46	0	3602907136	60	8711
2026-01-29 12:53:24.93	332.54	37.34	-45.8	-46.7	24.8	0.00e+00	0	46	0	3631218688	60	8480
2026-01-29 12:53:28.95	332.70	36.38	-45.7	-46.5	25.2	0.00e+00	0	46	0	3660578816	60	8238
2026-01-29 12:53:32.98	332.86	35.45	-45.7	-46.5	25.3	0.00e+00	0	46	0	3688890368	60	8264
2026-01-29 12:53:37.00	333.00	34.55	-45.2	-46.1	25.4	0.00e+00	0	46	0	3718250496	60	7908
2026-01-29 12:53:41.01	333.14	33.68	-45.3	-46.1	25.4	0.00e+00	0	46	0	3747610624	60	7880
2026-01-29 12:53:45.02	333.27	32.83	-45.4	-46.1	25.2	0.00e+00	0	46	0	3776970752	60	7931
2026-01-29 12:53:49.05	333.40	32.00	-45.3	-46.1	25.3	0.00e+00	0	46	0	3805282304	60	7867
2026-01-29 12:53:53.07	333.52	31.19	-45.5	-46.3	25.0	0.00e+00	0	46	0	3834642432	60	8075
2026-01-29 12:53:57.08	333.63	30.41	-45.8	-46.6	25.0	0.00e+00	0	46	0	3862953984	60	8340
2026-01-29 12:54:01.10	333.74	29.64	-46.0	-46.7	24.7	0.00e+00	0	46	0	3892314112	60	8493
2026-01-29 12:54:05.13	333.85	28.90	-46.0	-46.8	24.7	0.00e+00	0	46	0	3921674240	60	8523
2026-01-29 12:54:09.15	333.95	28.17	-46.1	-46.8	24.5	0.00e+00	0	46	0	3949985792	60	8569
2026-01-29 12:54:13.17	334.05	27.46	-46.0	-46.7	24.5	0.00e+00	0	46	0	3979345920	60	8518
2026-01-29 12:54:17.18	334.15	26.78	-45.9	-46.7	24.6	0.00e+00	0	46	0	4008706048	60	8455
2026-01-29 12:54:21.21	334.24	26.10	-45.8	-46.5	24.8	0.00e+00	0	46	0	4038066176	60	8313
2026-01-29 12:54:25.24	334.33	25.45	-45.8	-46.6	24.8	0.00e+00	0	46	0	4066377728	60	8330
2026-01-29 12:54:29.27	334.42	24.81	-45.8	-46.5	24.8	0.00e+00	0	46	0	4095737856	60	8294
2026-01-29 12:54:33.30	334.50	24.18	-45.9	-46.7	24.7	0.00e+00	0	46	0	4124049408	60	8462
2026-01-29 12:54:37.33	334.58	23.57	-45.9	-46.7	24.6	0.00e+00	0	46	0	4154458112	60	8436
2026-01-29 12:54:41.35	334.66	22.97	-45.9	-46.7	24.5	0.00e+00	0	46	0	4182769664	60	8470
2026-01-29 12:54:45.37	334.74	22.39	-46.0	-46.8	24.4	0.00e+00	0	46	0	4212129792	60	8547
2026-01-29 12:54:49.39	334.81	21.82	-46.4	-47.1	24.1	0.00e+00	0	46	0	4240441344	60	8918
2026-01-29 12:54:53.42	334.88	21.26	-46.7	-47.5	23.6	0.00e+00	0	46	0	4269801472	60	9307
2026-01-29 12:54:57.45	334.95	20.72	-46.3	-47.1	23.8	0.00e+00	0	46	0	4299161600	60	8924
2026-01-29 12:55:01.48	335.02	20.18	-46.3	-47.2	23.7	0.00e+00	0	46	0	4328521728	60	8980
2026-01-29 12:55:05.48	335.09	19.67	-46.4	-47.3	23.7	0.00e+00	0	46	0	4356833280	60	9104
2026-01-29 12:55:09.52	335.15	19.15	-46.7	-47.6	23.5	0.00e+00	0	46	0	4386193408	60	9415
2026-01-29 12:55:13.55	335.22	18.65	-46.6	-47.6	23.5	0.00e+00	0	46	0	4415553536	60	9411
2026-01-29 12:55:17.56	335.28	18.16	-46.9	-47.9	23.3	0.00e+00	0	46	0	4443865088	60	9675
2026-01-29 12:55:21.57	335.34	17.68	-47.2	-48.1	23.2	0.00e+00	0	46	0	4473225216	60	9967
2026-01-29 12:55:25.60	335.40	17.21	-47.5	-48.4	22.8	0.00e+00	0	46	0	4501536768	60	10302
2026-01-29 12:55:29.63	335.46	16.74	-47.9	-48.9	22.3	0.00e+00	0	46	0	4531945472	60	10892
2026-01-29 12:55:33.65	335.51	16.29	-48.3	-49.3	21.6	0.00e+00	0	46	0	4560257024	60	11496
2026-01-29 12:55:37.67	335.57	15.84	-48.7	-49.9	21.0	0.00e+00	0	46	0	4589617152	60	12283
2026-01-29 12:55:41.70	335.62	15.40	-49.3	-50.5	20.3	0.00e+00	0	46	0	4617928704	60	13165
2026-01-29 12:55:45.72	335.68	14.97	-49.9	-51.2	19.4	0.00e+00	0	46	0	4647288832	60	14305
2026-01-29 12:55:49.74	335.73	14.55	-50.7	-52.1	18.5	0.00e+00	0	46	0	4676648960	60	15709
2026-01-29 12:55:53.76	335.78	14.14	-51.3	-52.9	17.4	0.00e+00	0	46	0	4706009088	60	17279
2026-01-29 12:55:57.79	335.83	13.73	-51.7	-53.9	16.5	0.00e+00	0	46	0	4734320640	60	19324
2026-01-29 12:56:01.82	335.88	13.32	-51.7	-54.8	15.4	0.00e+00	0	46	0	4763680768	60	21614
2026-01-29 12:56:05.83	335.93	12.93	-52.3	-55.9	14.2	1.10e-06	0	46	0	4793040896	60	24450
2026-01-29 12:56:09.85	335.98	12.54	-53.2	-56.8	13.0	5.37e-05	0	46	0	4821352448	60	27254
2026-01-29 12:56:13.88	336.02	12.16	-53.7	-57.9	11.7	5.00e-04	0	46	0	4850712576	60	30864
2026-01-29 12:56:17.90	336.07	11.78	-53.6	-59.0	10.5	3.74e-03	0	46	0	4879024128	60	35058
2026-01-29 12:56:21.93	336.11	11.41	-53.8	-60.2	9.1	1.96e-02	0	46	0	4909432832	60	39894
2026-01-29 12:56:25.95	336.16	11.04	-54.4	-61.4	7.6	1.50e-01	0	46	0	4937744384	60	45924
2026-01-29 12:56:29.98	336.20	10.68	-54.6	-62.5	6.4	2.10e-01	0	46	0	4967104512	60	52146
2026-01-29 12:56:34.00	336.25	10.33	-49.0	-69.3	3.6	8.44e-01	0	46	104	4984930304	60	113936
2026-01-29 12:56:38.03	336.29	9.98	-48.6	-67.0	3.7	8.41e-01	0	46	0	4984930304	60	87628
2026-01-29 12:56:42.05	336.33	9.63	-50.1	-70.2	3.6	8.45e-01	0	46	104	4984930304	60	126847
2026-01-29 12:56:46.07	336.37	9.29	-48.8	-69.1	3.6	8.44e-01	0	46	104	4984930304	60	111836
2026-01-29 12:56:50.09	336.42	8.96	-49.0	-69.3	3.6	8.45e-01	0	47	104	4984930304	60	114682
2026-01-29 12:56:54.12	336.46	8.62	-50.4	-70.1	3.6	8.46e-01	0	46	104	4984930304	60	125238
2026-01-29 12:56:58.14	336.50	8.30	-51.0	-70.5	3.6	8.47e-01	0	46	104	4984930304	60	130574
2026-01-29 12:57:02.17	336.54	7.97	-51.2	-70.6	3.6	8.45e-01	0	46	104	4984930304	60	133452
2026-01-29 12:57:06.20	336.58	7.66	-52.1	-70.6	3.6	8.46e-01	0	47	104	4984930304	60	132347
2026-01-29 12:57:10.23	336.62	7.34	-53.1	-70.5	3.6	8.45e-01	0	46	104	4984930304	60	131369
2026-01-29 12:57:14.25	336.65	7.03	-53.7	-70.4	3.6	8.46e-01	0	46	104	4984930304	60	129950
2026-01-29 12:57:18.27	336.69	6.72	-53.5	-70.3	3.6	8.44e-01	0	46	104	4984930304	60	128308
2026-01-29 12:57:22.29	336.73	6.42	-52.6	-70.0	3.6	8.46e-01	0	46	104	4984930304	60	124141
2026-01-29 12:57:26.32	336.77	6.12	-52.5	-70.1	3.6	8.44e-01	0	46	104	4984930304	60	125391
2026-01-29 12:57:30.35	336.80	5.82	-57.1	-72.6	3.6	8.45e-01	0	46	104	4984930304	60	167971
2026-01-29 12:57:34.36	336.84	5.53	-58.5	-73.2	3.6	8.46e-01	0	46	104	4984930304	60	178280
2026-01-29 12:57:38.38	336.88	5.24	-59.2	-73.5	3.6	8.45e-01	0	46	104	4984930304	60	185645
2026-01-29 12:57:42.40	336.91	4.95	-59.7	-73.5	3.6	8.45e-01	0	46	104	4984930304	60	185519
2026-01-29 12:57:46.43	336.95	4.67	-60.6	-74.1	3.6	8.46e-01	0	46	104	4984930304	60	197578
2026-01-29 12:57:50.46	336.98	4.39	-56.2	-74.4	3.6	8.46e-01	0	46	104	4984930304	60	206259
2026-01-29 12:57:54.48	337.02	4.11	-56.6	-74.2	3.6	8.45e-01	0	47	104	4984930304	60	201278
2026-01-29 12:57:58.51	337.05	3.83	-57.3	-74.2	3.6	8.46e-01	0	46	104	4984930304	60	201537
2026-01-29 12:58:02.53	337.08	3.56	-57.5	-74.2	3.6	8.46e-01	0	47	104	4984930304	60	200026
2026-01-29 12:58:06.53	337.12	3.29	-57.3	-74.1	3.6	8.45e-01	0	47	104	4984930304	60	197618
2026-01-29 12:58:10.55	337.15	3.03	-57.1	-74.0	3.6	8.44e-01	0	47	104	4984930304	60	195831
2026-01-29 12:58:14.58	337.18	2.76	-57.3	-74.0	3.6	8.46e-01	0	47	104	4984930304	60	196649
2026-01-29 12:58:18.61	337.22	2.50	-57.4	-74.0	3.6	8.46e-01	0	47	104	4984930304	60	196491
2026-01-29 12:58:22.64	337.25	2.24	-57.2	-74.0	3.6	8.44e-01	0	47	104	4984930304	60	197441
2026-01-29 12:58:26.66	337.28	1.98	-57.2	-74.0	3.6	8.46e-01	0	46	104	4984930304	60	196541
2026-01-29 12:58:30.69	337.32	1.73	-56.9	-74.0	3.6	8.46e-01	0	47	104	4984930304	60	197344
2026-01-29 12:58:34.72	337.35	1.47	-56.9	-74.1	3.6	8.45e-01	0	47	104	4984930304	60	198852
2026-01-29 12:58:38.74	337.38	1.22	-57.0	-74.1	3.6	8.45e-01	0	46	104	4984930304	60	198171
2026-01-29 12:58:42.74	337.41	0.97	-56.9	-74.0	3.6	8.46e-01	0	46	104	4984930304	60	196382
2026-01-29 12:58:46.77	337.44	0.73	-56.9	-74.0	3.6	8.46e-01	0	46	104	4984930304	60	195867
2026-01-29 12:58:50.80	337.47	0.48	-56.9	-74.0	3.6	8.45e-01	0	47	104	4984930304	60	197385
2026-01-29 12:58:54.82	337.50	0.24	-57.0	-74.1	3.6	8.45e-01	0	47	104	4984930304	60	198898
2026-01-29 12:58:58.83	337.53	0.00	-57.0	-74.0	3.6	8.45e-01	0	46	104	4984930304	60	197456

#Closed at: 2026-01-29 12:58:58
#Recorded file [4984 MB]: D:/Data/35015_260129_155640.dat