passes_logs/2026/01/29/R3.2S-Naryan-Mar/R3.2S-Naryan-Mar__20260129_052606_NOAA_20_JPSS-1_rec.log

#Pass ID: 20260129_052606_NOAA 20 (JPSS-1)
#Satellite: NOAA 20 (JPSS-1)
#Configuration: NOAA 20
#almurnet v.1.7.20240730
#Start time: 2026-01-29 05:26:09

#Version: 2.2.20231116
#Station: R3.2S-Naryan-Mar
#Location: 53.008057 lon 67.646978 lat
#TLE: 1 43013U 17073A   26027.94683596  .00000137  00000+0  85741-4 0  9995
#TLE: 2 43013  98.7648 328.7503 0000940  21.3928 338.7287 14.19541154424576

#Time	Az	El	Level	Level2	SNR	BER	BlckErr	Temp	State	Recorded	gain1	gain2
2026-01-29 05:26:09.62	89.59	0.15	-61.0	-77.2	3.3	1.54e+00	0	45	0	0	60	282404
2026-01-29 05:26:13.63	89.38	0.37	-61.9	-79.3	3.6	1.51e+00	0	45	104	0	60	360928
2026-01-29 05:26:17.66	89.17	0.59	-61.1	-78.8	3.5	1.51e+00	0	45	104	0	60	339415
2026-01-29 05:26:21.69	88.95	0.82	-61.2	-77.8	3.6	1.51e+00	0	45	104	0	60	305346
2026-01-29 05:26:25.72	88.72	1.04	-60.4	-77.1	3.6	1.51e+00	0	45	104	0	60	281357
2026-01-29 05:26:29.74	88.50	1.27	-60.1	-76.8	3.6	1.51e+00	0	45	104	0	60	272055
2026-01-29 05:26:33.76	88.27	1.50	-60.1	-76.8	3.6	1.51e+00	0	45	104	0	60	270672
2026-01-29 05:26:37.79	88.03	1.73	-60.0	-76.8	3.6	1.51e+00	0	45	104	0	60	270440
2026-01-29 05:26:41.82	87.79	1.96	-60.0	-76.7	3.6	1.51e+00	0	45	104	0	60	268565
2026-01-29 05:26:45.84	87.55	2.19	-59.9	-76.7	3.6	1.51e+00	0	45	104	0	60	269201
2026-01-29 05:26:49.87	87.31	2.42	-59.9	-76.7	3.6	1.51e+00	0	46	104	0	60	268934
2026-01-29 05:26:53.89	87.06	2.66	-59.9	-76.7	3.6	1.51e+00	0	45	104	0	60	267342
2026-01-29 05:26:57.92	86.80	2.90	-59.9	-76.7	3.6	1.51e+00	0	45	104	0	60	266420
2026-01-29 05:27:01.94	86.54	3.13	-59.8	-76.6	3.6	1.51e+00	0	46	104	0	60	265844
2026-01-29 05:27:05.96	86.28	3.37	-59.8	-76.6	3.6	1.51e+00	0	46	104	0	60	265340
2026-01-29 05:27:09.99	86.01	3.61	-59.8	-76.5	3.6	1.51e+00	0	46	104	0	60	263037
2026-01-29 05:27:14.02	85.74	3.86	-59.9	-76.6	3.6	1.51e+00	0	46	104	0	60	264086
2026-01-29 05:27:18.05	85.46	4.10	-59.8	-76.6	3.6	1.51e+00	0	46	104	0	60	264920
2026-01-29 05:27:22.08	85.18	4.35	-59.8	-76.6	3.6	1.51e+00	0	46	104	0	60	263878
2026-01-29 05:27:26.12	84.89	4.60	-59.8	-76.5	3.6	1.51e+00	0	46	104	0	60	261889
2026-01-29 05:27:30.14	84.60	4.84	-59.7	-76.4	3.6	1.51e+00	0	46	104	0	60	260204
2026-01-29 05:27:34.16	84.30	5.09	-59.7	-76.4	3.6	1.51e+00	0	46	104	0	60	258692
2026-01-29 05:27:38.18	84.00	5.35	-59.7	-76.5	3.6	1.51e+00	0	46	104	0	60	261147
2026-01-29 05:27:42.20	83.69	5.60	-59.7	-76.5	3.6	1.51e+00	0	46	104	0	60	262330
2026-01-29 05:27:46.24	83.38	5.86	-59.7	-76.4	3.6	1.51e+00	0	46	104	0	60	259095
2026-01-29 05:27:50.26	83.06	6.11	-59.5	-76.4	3.6	1.51e+00	0	46	104	0	60	258582
2026-01-29 05:27:54.28	82.73	6.37	-59.4	-76.3	3.6	1.51e+00	0	46	104	0	60	255274
2026-01-29 05:27:58.30	82.40	6.63	-59.4	-76.2	3.6	1.51e+00	0	46	104	0	60	252587
2026-01-29 05:28:02.33	82.06	6.90	-59.4	-76.2	3.6	1.51e+00	0	46	104	0	60	252975
2026-01-29 05:28:06.36	81.72	7.16	-59.3	-76.1	3.6	1.51e+00	0	46	104	0	60	250854
2026-01-29 05:28:10.37	81.37	7.42	-58.2	-75.9	3.6	1.51e+00	0	46	104	0	60	245419
2026-01-29 05:28:14.39	81.01	7.69	-57.9	-76.0	3.6	1.51e+00	0	46	104	0	60	247627
2026-01-29 05:28:18.42	80.65	7.96	-58.7	-75.9	3.6	1.51e+00	0	46	104	0	60	245634
2026-01-29 05:28:22.45	80.27	8.23	-60.0	-75.6	3.6	1.51e+00	0	46	104	0	60	237385
2026-01-29 05:28:26.48	79.90	8.50	-60.2	-75.7	3.6	1.51e+00	0	46	104	0	60	239553
2026-01-29 05:28:30.51	79.51	8.78	-59.5	-74.9	3.6	1.29e+00	0	46	104	0	60	216872
2026-01-29 05:28:34.54	79.11	9.06	-59.7	-75.7	3.6	1.51e+00	0	46	104	0	60	239765
2026-01-29 05:28:38.57	78.71	9.33	-60.0	-76.6	3.6	1.51e+00	0	46	104	0	60	264778
2026-01-29 05:28:42.59	78.30	9.61	-60.1	-76.6	3.6	1.51e+00	0	46	104	0	60	265913
2026-01-29 05:28:46.61	77.89	9.89	-59.2	-71.6	3.8	3.96e-01	0	46	104	0	60	149409
2026-01-29 05:28:50.64	77.46	10.18	-59.7	-75.2	3.6	1.49e+00	0	46	104	0	60	224284
2026-01-29 05:28:54.67	77.03	10.46	-60.2	-75.6	3.6	1.50e+00	0	46	104	0	60	236516
2026-01-29 05:28:58.70	76.58	10.75	-60.1	-76.5	3.6	1.51e+00	0	46	104	0	60	262311
2026-01-29 05:29:02.73	76.13	11.04	-60.3	-71.9	3.8	1.34e+00	0	46	0	0	60	154626
2026-01-29 05:29:06.76	75.67	11.33	-59.6	-68.2	6.7	2.98e-01	0	46	0	3145728	60	101025
2026-01-29 05:29:10.79	75.20	11.62	-58.6	-63.4	12.5	3.98e-04	0	46	0	10485760	60	58215
2026-01-29 05:29:14.82	74.71	11.91	-57.5	-60.8	15.2	0.00e+00	0	46	0	18874368	60	42995
2026-01-29 05:29:18.84	74.22	12.20	-57.2	-60.3	15.4	0.00e+00	0	46	0	26214400	60	40648
2026-01-29 05:29:22.87	73.72	12.50	-56.8	-60.0	15.7	0.00e+00	0	46	0	33554432	60	39396
2026-01-29 05:29:26.89	73.21	12.80	-56.4	-59.2	16.5	0.00e+00	0	46	0	40894464	60	35703
2026-01-29 05:29:30.91	72.69	13.09	-56.3	-58.8	17.2	0.00e+00	0	46	0	48234496	60	34029
2026-01-29 05:29:34.94	72.16	13.39	-56.2	-58.7	17.4	0.00e+00	0	46	0	56623104	60	33925
2026-01-29 05:29:38.97	71.61	13.69	-55.7	-58.4	17.8	0.00e+00	0	46	0	63963136	60	32437
2026-01-29 05:29:43.00	71.06	14.00	-55.8	-58.0	18.2	0.00e+00	0	46	0	71303168	60	31215
2026-01-29 05:29:47.03	70.49	14.30	-55.3	-57.3	18.9	0.00e+00	0	46	0	78643200	60	28872
2026-01-29 05:29:51.06	69.91	14.60	-55.4	-57.2	19.2	0.00e+00	0	46	0	87031808	60	28334
2026-01-29 05:29:55.09	69.32	14.91	-55.2	-56.9	19.5	0.00e+00	0	46	0	94371840	60	27497
2026-01-29 05:29:59.12	68.72	15.21	-55.1	-57.0	19.2	0.00e+00	0	46	0	101711872	60	27656
2026-01-29 05:30:03.15	68.10	15.52	-55.2	-57.5	18.8	0.00e+00	0	46	0	109051904	60	29352
2026-01-29 05:30:07.18	67.47	15.82	-55.5	-58.0	18.3	0.00e+00	0	46	0	116391936	60	31089
2026-01-29 05:30:11.21	66.83	16.13	-56.2	-58.4	18.1	0.00e+00	0	46	0	123731968	60	32476
2026-01-29 05:30:15.24	66.17	16.43	-56.8	-59.2	17.5	0.00e+00	0	46	0	132120576	60	35788
2026-01-29 05:30:19.27	65.50	16.74	-56.7	-59.6	17.1	0.00e+00	0	46	0	139460608	60	37370
2026-01-29 05:30:23.30	64.82	17.05	-57.1	-60.5	15.5	0.00e+00	0	46	0	146800640	60	41562
2026-01-29 05:30:27.31	64.12	17.35	-58.2	-61.8	14.7	0.00e+00	0	46	0	154140672	60	48064
2026-01-29 05:30:31.33	63.41	17.65	-54.0	-62.7	12.0	2.10e-04	0	46	0	162529280	60	53505
2026-01-29 05:30:35.36	62.69	17.96	-57.6	-63.6	11.8	1.04e-03	0	46	0	169869312	60	58989
2026-01-29 05:30:39.39	61.94	18.26	-59.6	-64.8	11.3	8.32e-04	0	46	0	177209344	60	68395
2026-01-29 05:30:43.42	61.19	18.56	-60.0	-65.4	11.0	2.69e-03	0	46	0	184549376	60	72876
2026-01-29 05:30:47.46	60.41	18.86	-60.3	-66.7	9.8	8.44e-03	0	46	0	191889408	60	84469
2026-01-29 05:30:51.48	59.63	19.16	-58.1	-67.3	7.9	5.29e-02	0	46	0	200278016	60	91169
2026-01-29 05:30:55.51	58.82	19.45	-57.3	-68.0	6.7	1.81e-01	0	46	0	207618048	60	98559
2026-01-29 05:30:59.52	58.01	19.74	-57.6	-68.7	5.6	3.50e-01	0	46	0	214958080	60	107005
2026-01-29 05:31:03.55	57.18	20.03	-59.9	-70.2	5.3	5.55e-01	0	46	0	222298112	60	126255
2026-01-29 05:31:07.57	56.33	20.32	-59.2	-70.9	4.6	6.78e-01	0	46	0	229638144	60	137517
2026-01-29 05:31:11.60	55.46	20.60	-59.6	-71.0	4.7	6.75e-01	0	46	0	236978176	60	139126
2026-01-29 05:31:15.62	54.58	20.88	-59.4	-71.0	4.5	8.31e-01	0	46	0	245366784	60	139423
2026-01-29 05:31:19.63	53.69	21.15	-59.0	-70.9	4.4	8.16e-01	0	46	0	252706816	60	137422
2026-01-29 05:31:23.66	52.77	21.42	-58.1	-70.9	4.3	9.23e-01	0	46	0	260046848	60	138048
2026-01-29 05:31:27.67	51.84	21.69	-57.3	-70.9	4.0	1.23e+00	0	46	0	267386880	60	137400
2026-01-29 05:31:31.69	50.90	21.94	-55.2	-71.2	3.8	1.44e+00	0	46	0	270532608	60	141702
2026-01-29 05:31:35.72	49.94	22.20	-55.5	-72.8	3.8	1.48e+00	0	46	104	270532608	60	170700
2026-01-29 05:31:39.75	48.96	22.44	-57.3	-73.1	3.9	1.47e+00	0	46	104	270532608	60	176726
2026-01-29 05:31:43.77	47.97	22.68	-57.2	-73.2	4.0	1.47e+00	0	46	104	270532608	60	178207
2026-01-29 05:31:47.77	46.96	22.92	-58.0	-72.2	3.7	1.42e+00	0	46	0	270532608	60	159437
2026-01-29 05:31:51.80	45.94	23.14	-58.8	-73.7	4.0	1.48e+00	0	46	104	270532608	60	189786
2026-01-29 05:31:55.83	44.90	23.36	-59.4	-73.8	3.7	1.45e+00	0	46	104	270532608	60	191966
2026-01-29 05:31:59.85	43.85	23.57	-59.2	-73.8	3.7	1.46e+00	0	46	104	270532608	60	192099
2026-01-29 05:32:03.88	42.78	23.76	-57.8	-73.6	3.7	1.49e+00	0	46	104	270532608	60	188156
2026-01-29 05:32:07.90	41.71	23.95	-55.6	-73.4	3.6	1.51e+00	0	46	104	270532608	60	183402
2026-01-29 05:32:11.93	40.61	24.13	-54.8	-75.8	3.6	1.51e+00	0	46	104	270532608	60	241844
2026-01-29 05:32:15.97	39.50	24.30	-56.7	-75.8	3.6	1.51e+00	0	46	104	270532608	60	242835
2026-01-29 05:32:20.00	38.39	24.46	-55.6	-75.2	3.6	1.51e+00	0	46	104	270532608	60	225162
2026-01-29 05:32:24.02	37.26	24.61	-56.6	-77.5	3.6	1.51e+00	0	46	104	270532608	60	294551
2026-01-29 05:32:28.04	36.13	24.75	-52.1	-73.7	3.6	1.51e+00	0	46	104	270532608	60	190037
2026-01-29 05:32:32.08	34.97	24.87	-57.3	-75.8	3.6	1.51e+00	0	46	104	270532608	60	242158
2026-01-29 05:32:36.09	33.82	24.99	-56.2	-75.4	3.6	1.51e+00	0	46	104	270532608	60	230119
2026-01-29 05:32:40.11	32.66	25.09	-58.9	-76.5	3.6	1.51e+00	0	46	104	270532608	60	263350
2026-01-29 05:32:44.14	31.49	25.17	-58.9	-77.0	3.6	1.51e+00	0	46	104	270532608	60	276880
2026-01-29 05:32:48.17	30.31	25.25	-57.9	-74.3	3.8	1.46e+00	0	46	104	270532608	60	202237
2026-01-29 05:32:52.20	29.13	25.31	-56.4	-75.6	3.5	1.51e+00	0	46	104	270532608	60	236165
2026-01-29 05:32:56.22	27.95	25.36	-58.4	-76.7	3.6	1.51e+00	0	46	104	270532608	60	268800
2026-01-29 05:33:00.24	26.76	25.39	-59.7	-77.4	3.6	1.51e+00	0	46	104	270532608	60	291250
2026-01-29 05:33:04.27	25.57	25.41	-55.8	-76.8	3.6	1.51e+00	0	46	104	270532608	60	272246
2026-01-29 05:33:08.29	24.38	25.42	-55.6	-76.0	3.6	1.51e+00	0	46	104	270532608	60	246657
2026-01-29 05:33:12.33	23.18	25.42	-58.8	-76.2	3.6	1.51e+00	0	46	104	270532608	60	253127
2026-01-29 05:33:16.36	21.99	25.40	-55.2	-75.5	3.6	1.51e+00	0	46	104	270532608	60	233309
2026-01-29 05:33:20.39	20.80	25.36	-58.0	-73.8	3.9	1.01e+00	0	46	104	270532608	60	192630
2026-01-29 05:33:24.41	19.62	25.32	-53.0	-74.5	3.6	1.51e+00	0	46	104	270532608	60	207274
2026-01-29 05:33:28.41	18.44	25.26	-60.4	-76.9	3.6	1.51e+00	0	46	104	270532608	60	273180
2026-01-29 05:33:32.45	17.26	25.18	-60.3	-76.5	3.6	1.51e+00	0	46	104	270532608	60	261380
2026-01-29 05:33:36.47	16.09	25.10	-58.6	-76.8	3.6	1.51e+00	0	46	104	270532608	60	271345
2026-01-29 05:33:40.50	14.93	25.00	-60.9	-77.3	3.6	1.51e+00	0	46	104	270532608	60	288582
2026-01-29 05:33:44.53	13.77	24.89	-60.3	-76.8	3.6	1.51e+00	0	46	104	270532608	60	272162
2026-01-29 05:33:48.55	12.62	24.77	-59.9	-76.5	3.5	1.51e+00	0	46	104	270532608	60	261784
2026-01-29 05:33:52.57	11.49	24.63	-58.5	-75.9	3.6	1.51e+00	0	46	104	270532608	60	244831
2026-01-29 05:33:56.60	10.36	24.49	-59.4	-76.0	3.6	1.51e+00	0	46	104	270532608	60	246061
2026-01-29 05:34:00.61	9.25	24.33	-55.9	-76.8	3.6	1.51e+00	0	46	104	270532608	60	269955
2026-01-29 05:34:04.63	8.14	24.16	-57.6	-76.9	3.6	1.51e+00	0	46	104	270532608	60	272628
2026-01-29 05:34:08.66	7.05	23.98	-57.2	-76.2	3.6	1.51e+00	0	46	104	270532608	60	253432
2026-01-29 05:34:12.68	5.97	23.80	-56.7	-75.8	3.6	1.51e+00	0	46	104	270532608	60	241713
2026-01-29 05:34:16.69	4.91	23.60	-60.5	-77.3	3.6	1.51e+00	0	46	104	270532608	60	287157
2026-01-29 05:34:20.73	3.85	23.39	-60.3	-77.3	3.6	1.51e+00	0	46	104	270532608	60	288689
2026-01-29 05:34:24.76	2.81	23.18	-60.6	-77.3	3.6	1.51e+00	0	46	104	270532608	60	287297
2026-01-29 05:34:28.78	1.79	22.95	-60.6	-77.2	3.6	1.51e+00	0	46	104	270532608	60	284716
2026-01-29 05:34:32.81	0.78	22.72	-60.6	-77.3	3.6	1.51e+00	0	46	104	270532608	60	286850
2026-01-29 05:34:36.83	359.79	22.48	-61.0	-77.5	3.6	1.51e+00	0	46	104	270532608	60	294946
2026-01-29 05:34:40.86	358.81	22.24	-59.0	-76.5	3.6	1.51e+00	0	46	104	270532608	60	260433
2026-01-29 05:34:44.89	357.85	21.99	-60.9	-77.2	3.6	1.51e+00	0	46	104	270532608	60	285410
2026-01-29 05:34:48.92	356.90	21.73	-60.1	-76.9	3.6	1.51e+00	0	46	104	270532608	60	273072
2026-01-29 05:34:52.95	355.97	21.46	-60.0	-77.5	3.6	1.51e+00	0	46	104	270532608	60	293480
2026-01-29 05:34:56.98	355.05	21.20	-60.3	-77.5	3.6	1.51e+00	0	46	104	270532608	60	294937
2026-01-29 05:35:01.01	354.15	20.92	-60.4	-77.4	3.6	1.51e+00	0	46	104	270532608	60	291763
2026-01-29 05:35:05.04	353.27	20.64	-60.7	-77.5	3.6	1.51e+00	0	47	104	270532608	60	292332
2026-01-29 05:35:09.07	352.40	20.36	-60.1	-77.4	3.6	1.51e+00	0	46	104	270532608	60	288852
2026-01-29 05:35:13.09	351.55	20.08	-59.9	-77.1	3.6	1.51e+00	0	46	104	270532608	60	281258
2026-01-29 05:35:17.13	350.72	19.79	-60.7	-77.3	3.6	1.51e+00	0	46	104	270532608	60	285963
2026-01-29 05:35:21.16	349.90	19.50	-60.8	-77.2	3.6	1.51e+00	0	46	104	270532608	60	285169
2026-01-29 05:35:25.18	349.10	19.20	-60.3	-77.2	3.6	1.51e+00	0	46	104	270532608	60	284471
2026-01-29 05:35:29.21	348.31	18.91	-60.3	-77.1	3.6	1.51e+00	0	46	104	270532608	60	280476
2026-01-29 05:35:33.25	347.54	18.61	-60.4	-76.9	3.6	1.51e+00	0	46	104	270532608	60	272949
2026-01-29 05:35:37.27	346.78	18.31	-60.8	-77.0	3.6	1.51e+00	0	46	104	270532608	60	277930
2026-01-29 05:35:41.31	346.04	18.01	-58.5	-76.7	3.6	1.51e+00	0	46	104	270532608	60	266998
2026-01-29 05:35:45.34	345.31	17.70	-59.5	-76.9	3.6	1.51e+00	0	46	104	270532608	60	274347
2026-01-29 05:35:49.37	344.60	17.40	-59.8	-77.0	3.6	1.51e+00	0	46	104	270532608	60	278655
2026-01-29 05:35:53.40	343.90	17.09	-59.9	-77.0	3.6	1.51e+00	0	46	104	270532608	60	277765
2026-01-29 05:35:57.42	343.22	16.79	-58.8	-76.7	3.6	1.51e+00	0	46	104	270532608	60	269229
2026-01-29 05:36:01.44	342.55	16.49	-59.0	-76.8	3.6	1.51e+00	0	46	104	270532608	60	271042
2026-01-29 05:36:05.48	341.89	16.18	-60.3	-77.1	3.6	1.51e+00	0	46	104	270532608	60	279274
2026-01-29 05:36:09.50	341.25	15.87	-59.3	-76.8	3.6	1.51e+00	0	46	104	270532608	60	272567
2026-01-29 05:36:13.53	340.62	15.57	-60.4	-77.1	3.6	1.51e+00	0	46	104	270532608	60	279175
2026-01-29 05:36:17.56	340.01	15.26	-60.5	-76.9	3.6	1.51e+00	0	46	104	270532608	60	273285
2026-01-29 05:36:21.59	339.40	14.96	-60.3	-76.7	3.6	1.51e+00	0	46	104	270532608	60	267469
2026-01-29 05:36:25.62	338.81	14.66	-60.2	-76.8	3.6	1.51e+00	0	46	104	270532608	60	270255
2026-01-29 05:36:29.64	338.23	14.35	-60.3	-76.8	3.6	1.51e+00	0	46	104	270532608	60	272304
2026-01-29 05:36:33.67	337.67	14.05	-60.3	-76.8	3.6	1.51e+00	0	46	104	270532608	60	271887
2026-01-29 05:36:37.70	337.11	13.75	-58.2	-76.0	3.6	1.51e+00	0	46	104	270532608	60	246867
2026-01-29 05:36:41.73	336.57	13.45	-59.5	-76.4	3.6	1.51e+00	0	46	104	270532608	60	259255
2026-01-29 05:36:45.75	336.04	13.15	-58.6	-75.9	3.6	1.51e+00	0	46	104	270532608	60	243295
2026-01-29 05:36:49.77	335.52	12.86	-58.2	-75.8	3.6	1.51e+00	0	46	104	270532608	60	241333
2026-01-29 05:36:53.80	335.00	12.56	-58.1	-75.9	3.6	1.51e+00	0	46	104	270532608	60	245547
2026-01-29 05:36:57.82	334.50	12.26	-59.4	-75.9	3.6	1.51e+00	0	46	104	270532608	60	244739
2026-01-29 05:37:01.83	334.02	11.97	-59.3	-76.1	3.6	1.51e+00	0	46	104	270532608	60	249473
2026-01-29 05:37:05.86	333.54	11.68	-59.2	-76.0	3.6	1.51e+00	0	46	104	270532608	60	246897
2026-01-29 05:37:09.89	333.06	11.39	-59.2	-75.7	3.6	1.51e+00	0	46	104	270532608	60	238514
2026-01-29 05:37:13.93	332.60	11.10	-59.1	-75.7	3.6	1.51e+00	0	46	104	270532608	60	238496
2026-01-29 05:37:17.95	332.15	10.81	-57.9	-75.4	3.6	1.51e+00	0	46	104	270532608	60	231530
2026-01-29 05:37:21.97	331.71	10.53	-58.6	-75.3	3.6	1.51e+00	0	46	104	270532608	60	228552
2026-01-29 05:37:25.99	331.27	10.24	-58.7	-75.3	3.6	1.51e+00	0	46	104	270532608	60	228725
2026-01-29 05:37:30.02	330.85	9.96	-56.9	-74.7	3.6	1.51e+00	0	46	104	270532608	60	212174
2026-01-29 05:37:34.04	330.43	9.68	-56.1	-74.6	3.6	1.51e+00	0	46	104	270532608	60	211339
2026-01-29 05:37:38.07	330.02	9.40	-57.8	-75.3	3.6	1.51e+00	0	46	104	270532608	60	228094
2026-01-29 05:37:42.10	329.62	9.12	-56.4	-74.9	3.6	1.51e+00	0	46	104	270532608	60	217003
2026-01-29 05:37:46.13	329.23	8.85	-56.6	-74.6	3.6	1.51e+00	0	46	104	270532608	60	210654
2026-01-29 05:37:50.16	328.84	8.57	-55.4	-74.3	3.6	1.51e+00	0	46	104	270532608	60	202603
2026-01-29 05:37:54.18	328.47	8.30	-57.0	-74.3	3.6	1.51e+00	0	46	104	270532608	60	203925
2026-01-29 05:37:58.21	328.09	8.03	-54.1	-73.8	3.6	1.51e+00	0	46	104	270532608	60	192547
2026-01-29 05:38:02.25	327.73	7.76	-53.7	-73.4	3.6	1.51e+00	0	46	104	270532608	60	182580
2026-01-29 05:38:06.26	327.37	7.49	-53.8	-73.3	3.6	1.51e+00	0	46	104	270532608	60	180956
2026-01-29 05:38:10.27	327.02	7.23	-54.5	-73.7	3.6	1.51e+00	0	46	104	270532608	60	189335
2026-01-29 05:38:14.29	326.68	6.96	-55.1	-73.9	3.6	1.51e+00	0	46	104	270532608	60	193419
2026-01-29 05:38:18.32	326.34	6.70	-55.9	-74.4	3.6	1.51e+00	0	46	104	270532608	60	204640
2026-01-29 05:38:22.34	326.01	6.44	-55.2	-73.9	3.6	1.51e+00	0	46	104	270532608	60	194469
2026-01-29 05:38:26.37	325.69	6.18	-57.2	-74.5	3.6	1.51e+00	0	46	104	270532608	60	207370
2026-01-29 05:38:30.37	325.37	5.93	-55.2	-74.3	3.6	1.51e+00	0	46	104	270532608	60	202698
2026-01-29 05:38:34.40	325.06	5.67	-61.0	-77.7	3.6	1.51e+00	0	46	104	270532608	60	298946
2026-01-29 05:38:38.43	324.75	5.42	-61.8	-78.1	3.6	1.51e+00	0	46	104	270532608	60	315069
2026-01-29 05:38:42.45	324.45	5.17	-62.2	-78.8	3.6	1.51e+00	0	46	104	270532608	60	341194
2026-01-29 05:38:46.48	324.15	4.92	-59.9	-78.2	3.6	1.51e+00	0	46	104	270532608	60	316852
2026-01-29 05:38:50.51	323.86	4.67	-61.6	-78.8	3.6	1.51e+00	0	46	104	270532608	60	342080
2026-01-29 05:38:54.54	323.57	4.42	-61.6	-78.7	3.6	1.51e+00	0	46	104	270532608	60	339023
2026-01-29 05:38:58.57	323.29	4.17	-61.4	-78.7	3.6	1.51e+00	0	46	104	270532608	60	337773
2026-01-29 05:39:02.60	323.02	3.93	-61.3	-78.6	3.6	1.51e+00	0	46	104	270532608	60	332461
2026-01-29 05:39:06.63	322.74	3.69	-61.4	-78.6	3.6	1.51e+00	0	46	104	270532608	60	333832
2026-01-29 05:39:10.66	322.48	3.44	-61.3	-78.6	3.6	1.51e+00	0	46	104	270532608	60	332141
2026-01-29 05:39:14.69	322.22	3.20	-61.3	-78.6	3.6	1.51e+00	0	46	104	270532608	60	333986
2026-01-29 05:39:18.71	321.96	2.97	-61.3	-78.6	3.6	1.51e+00	0	46	104	270532608	60	333262
2026-01-29 05:39:22.75	321.70	2.73	-61.3	-78.6	3.6	1.51e+00	0	46	104	270532608	60	332202
2026-01-29 05:39:26.77	321.46	2.49	-61.3	-78.5	3.6	1.51e+00	0	46	104	270532608	60	330678
2026-01-29 05:39:30.80	321.21	2.26	-61.2	-78.4	3.6	1.51e+00	0	46	104	270532608	60	324893
2026-01-29 05:39:34.82	320.97	2.03	-61.3	-78.5	3.6	1.51e+00	0	46	104	270532608	60	328482
2026-01-29 05:39:38.85	320.73	1.80	-61.2	-78.4	3.6	1.51e+00	0	46	104	270532608	60	324847
2026-01-29 05:39:42.88	320.50	1.57	-61.2	-78.4	3.6	1.51e+00	0	46	104	270532608	60	325710
2026-01-29 05:39:46.92	320.27	1.34	-61.1	-78.3	3.6	1.51e+00	0	46	104	270532608	60	323591
2026-01-29 05:39:50.93	320.05	1.11	-61.1	-78.4	3.6	1.51e+00	0	46	104	270532608	60	325600
2026-01-29 05:39:54.96	319.82	0.89	-61.1	-78.4	3.6	1.51e+00	0	46	104	270532608	60	324682
2026-01-29 05:39:59.00	319.61	0.66	-61.1	-78.4	3.6	1.51e+00	0	46	104	270532608	60	327401
2026-01-29 05:40:03.03	319.39	0.44	-61.1	-78.4	3.6	1.51e+00	0	46	104	270532608	60	324770
2026-01-29 05:40:07.05	319.18	0.22	-61.1	-78.4	3.6	1.51e+00	0	46	104	270532608	60	325916
2026-01-29 05:40:11.08	318.97	-0.00	-61.1	-78.4	3.6	1.51e+00	0	46	104	270532608	60	325770

#Closed at: 2026-01-29 05:40:11
#Recorded file [270 MB]: D:/Data/35015_260129_083634.dat