passes_logs/2026/01/29/R3.2S-Naryan-Mar/R3.2S-Naryan-Mar__20260129_061517_NOAA_21_JPSS-2_rec.log

#Pass ID: 20260129_061517_NOAA 21 (JPSS-2)
#Satellite: NOAA 21 (JPSS-2)
#Configuration: NOAA-21
#almurnet v.1.7.20240730
#Start time: 2026-01-29 06:15:20

#Version: 2.2.20231116
#Station: R3.2S-Naryan-Mar
#Location: 53.008057 lon 67.646978 lat
#TLE: 1 54234U 22150A   26027.91149249  .00000141  00000+0  87546-4 0  9993
#TLE: 2 54234  98.7510 328.6558 0000880 202.8718 157.2419 14.19540177166642

#Time	Az	El	Level	Level2	SNR	BER	BlckErr	Temp	State	Recorded	gain1	gain2
2026-01-29 06:15:20.42	106.65	0.15	-60.6	-74.1	3.3	1.54e+00	0	44	0	0	60	193091
2026-01-29 06:15:24.44	106.49	0.38	-62.0	-77.0	3.5	1.52e+00	0	45	104	0	60	268093
2026-01-29 06:15:28.47	106.32	0.61	-61.1	-76.2	3.5	1.52e+00	0	45	104	0	60	246774
2026-01-29 06:15:32.50	106.15	0.84	-61.3	-75.5	3.5	1.52e+00	0	45	104	0	60	227363
2026-01-29 06:15:36.53	105.97	1.08	-59.1	-73.6	3.5	1.52e+00	0	45	104	0	60	182451
2026-01-29 06:15:40.56	105.79	1.31	-58.9	-73.5	3.5	1.52e+00	0	45	104	0	60	179415
2026-01-29 06:15:44.59	105.61	1.55	-58.9	-73.4	3.5	1.52e+00	0	45	104	0	60	177219
2026-01-29 06:15:48.62	105.43	1.79	-58.9	-73.3	3.5	1.52e+00	0	45	104	0	60	176492
2026-01-29 06:15:52.65	105.24	2.04	-59.0	-73.4	3.5	1.52e+00	0	45	104	0	60	178670
2026-01-29 06:15:56.67	105.05	2.28	-59.0	-73.4	3.5	1.52e+00	0	45	104	0	60	177708
2026-01-29 06:16:00.70	104.86	2.53	-58.9	-73.3	3.5	1.52e+00	0	45	104	0	60	175914
2026-01-29 06:16:04.73	104.66	2.77	-58.9	-73.3	3.5	1.52e+00	0	45	104	0	60	175152
2026-01-29 06:16:08.75	104.46	3.02	-58.9	-73.3	3.5	1.52e+00	0	45	104	0	60	176090
2026-01-29 06:16:12.78	104.26	3.27	-58.8	-73.4	3.5	1.51e+00	0	45	104	0	60	177132
2026-01-29 06:16:16.80	104.05	3.53	-58.8	-73.3	3.5	1.52e+00	0	45	104	0	60	176273
2026-01-29 06:16:20.82	103.84	3.78	-58.8	-73.2	3.5	1.52e+00	0	45	104	0	60	173707
2026-01-29 06:16:24.85	103.62	4.04	-58.8	-73.3	3.5	1.51e+00	0	45	104	0	60	175406
2026-01-29 06:16:28.87	103.40	4.30	-58.8	-73.3	3.5	1.52e+00	0	45	104	0	60	175874
2026-01-29 06:16:32.89	103.18	4.56	-58.8	-73.2	3.5	1.52e+00	0	45	104	0	60	174569
2026-01-29 06:16:36.92	102.95	4.82	-58.9	-73.2	3.5	1.52e+00	0	45	104	0	60	174773
2026-01-29 06:16:40.94	102.72	5.09	-58.8	-73.2	3.5	1.52e+00	0	45	104	0	60	173995
2026-01-29 06:16:44.96	102.48	5.35	-58.8	-73.1	3.5	1.52e+00	0	45	104	0	60	172860
2026-01-29 06:16:48.99	102.24	5.62	-58.9	-73.1	3.5	1.51e+00	0	46	104	0	60	172443
2026-01-29 06:16:53.02	102.00	5.90	-58.9	-73.1	3.5	1.51e+00	0	46	104	0	60	172643
2026-01-29 06:16:57.05	101.75	6.17	-59.5	-73.4	3.5	1.52e+00	0	46	104	0	60	177968
2026-01-29 06:17:01.07	101.49	6.45	-55.4	-71.5	3.6	1.51e+00	0	46	104	0	60	143546
2026-01-29 06:17:05.09	101.23	6.73	-57.3	-72.0	3.5	1.51e+00	0	46	104	0	60	151569
2026-01-29 06:17:09.12	100.96	7.01	-59.4	-73.4	3.5	1.52e+00	0	46	104	0	60	178393
2026-01-29 06:17:13.15	100.69	7.29	-59.5	-73.4	3.5	1.52e+00	0	46	104	0	60	178001
2026-01-29 06:17:17.18	100.41	7.58	-59.4	-73.7	3.5	1.51e+00	0	46	104	0	60	183756
2026-01-29 06:17:21.20	100.13	7.87	-59.4	-73.8	3.5	1.52e+00	0	46	104	0	60	185293
2026-01-29 06:17:25.23	99.84	8.16	-59.8	-73.8	3.5	1.52e+00	0	46	104	0	60	186839
2026-01-29 06:17:29.25	99.54	8.46	-59.4	-73.2	3.5	1.51e+00	0	46	104	0	60	173702
2026-01-29 06:17:33.28	99.24	8.75	-59.5	-73.8	3.5	1.52e+00	0	46	104	0	60	186016
2026-01-29 06:17:37.30	98.93	9.05	-59.4	-73.2	3.5	1.52e+00	0	46	104	0	60	173697
2026-01-29 06:17:41.33	98.62	9.36	-58.9	-73.5	3.5	1.51e+00	0	46	104	0	60	179977
2026-01-29 06:17:45.36	98.30	9.66	-59.2	-73.6	3.5	1.51e+00	0	46	104	0	60	182629
2026-01-29 06:17:49.38	97.97	9.97	-59.4	-74.0	3.5	1.52e+00	0	46	104	0	60	190626
2026-01-29 06:17:53.39	97.63	10.28	-59.0	-74.0	3.5	1.51e+00	0	46	104	0	60	191066
2026-01-29 06:17:57.41	97.29	10.60	-58.7	-73.9	3.5	1.51e+00	0	46	104	0	60	188473
2026-01-29 06:18:01.45	96.94	10.92	-59.8	-73.8	3.5	1.52e+00	0	46	104	0	60	186792
2026-01-29 06:18:05.47	96.58	11.24	-60.1	-74.1	3.5	1.52e+00	0	46	104	0	60	192028
2026-01-29 06:18:09.49	96.21	11.56	-60.3	-73.9	3.5	1.52e+00	0	46	104	0	60	189557
2026-01-29 06:18:13.50	95.83	11.88	-60.0	-73.6	3.5	1.51e+00	0	46	104	0	60	181642
2026-01-29 06:18:17.54	95.45	12.22	-59.9	-73.6	3.5	1.52e+00	0	46	104	0	60	182266
2026-01-29 06:18:21.56	95.05	12.55	-60.0	-73.9	3.5	1.52e+00	0	46	104	0	60	188995
2026-01-29 06:18:25.57	94.65	12.88	-59.2	-73.6	3.5	1.51e+00	0	46	104	0	60	181692
2026-01-29 06:18:29.60	94.24	13.22	-60.5	-74.0	3.5	1.52e+00	0	46	104	0	60	191673
2026-01-29 06:18:33.63	93.82	13.57	-60.0	-73.7	3.5	1.52e+00	0	46	104	0	60	184583
2026-01-29 06:18:37.66	93.38	13.91	-60.4	-74.4	3.5	1.51e+00	0	46	104	0	60	199842
2026-01-29 06:18:41.68	92.94	14.26	-59.6	-74.2	3.5	1.52e+00	0	46	104	0	60	194162
2026-01-29 06:18:45.70	92.49	14.61	-59.6	-73.7	3.6	1.52e+00	0	46	104	0	60	184629
2026-01-29 06:18:49.72	92.02	14.97	-59.2	-74.1	3.5	1.52e+00	0	46	104	0	60	193431
2026-01-29 06:18:53.75	91.54	15.33	-59.3	-73.4	3.5	1.51e+00	0	46	104	0	60	178602
2026-01-29 06:18:57.77	91.06	15.69	-59.5	-73.7	3.5	1.52e+00	0	46	104	0	60	183804
2026-01-29 06:19:01.79	90.55	16.05	-59.7	-73.7	3.5	1.51e+00	0	46	104	0	60	184642
2026-01-29 06:19:05.82	90.04	16.42	-60.2	-73.9	3.5	1.52e+00	0	46	104	0	60	188240
2026-01-29 06:19:09.84	89.51	16.79	-60.5	-74.2	3.5	1.51e+00	0	46	104	0	60	195206
2026-01-29 06:19:13.86	88.97	17.17	-60.2	-74.3	3.5	1.51e+00	0	46	104	0	60	197334
2026-01-29 06:19:17.87	88.42	17.54	-59.7	-73.7	3.5	1.52e+00	0	46	104	0	60	184017
2026-01-29 06:19:21.89	87.85	17.92	-59.7	-73.9	3.5	1.52e+00	0	46	104	0	60	189146
2026-01-29 06:19:25.92	87.27	18.31	-60.6	-74.0	3.5	1.51e+00	0	46	104	0	60	190099
2026-01-29 06:19:29.94	86.67	18.69	-60.6	-74.5	3.5	1.52e+00	0	46	104	0	60	201388
2026-01-29 06:19:33.97	86.06	19.08	-59.5	-74.0	3.5	1.52e+00	0	46	104	0	60	191688
2026-01-29 06:19:37.99	85.43	19.47	-59.9	-73.9	3.5	1.52e+00	0	46	104	0	60	189163
2026-01-29 06:19:42.02	84.78	19.87	-60.4	-74.4	3.5	1.52e+00	0	46	104	0	60	200728
2026-01-29 06:19:46.05	84.11	20.27	-59.8	-74.3	3.5	1.52e+00	0	46	104	0	60	197804
2026-01-29 06:19:50.08	83.43	20.66	-59.8	-73.6	3.5	1.52e+00	0	46	104	0	60	181968
2026-01-29 06:19:54.10	82.73	21.06	-60.0	-74.2	3.5	1.52e+00	0	46	104	0	60	195697
2026-01-29 06:19:58.13	82.01	21.47	-59.8	-73.7	3.5	1.51e+00	0	46	104	0	60	184925
2026-01-29 06:20:02.15	81.27	21.87	-59.8	-73.6	3.5	1.52e+00	0	46	104	0	60	181776
2026-01-29 06:20:06.16	80.52	22.27	-60.7	-74.7	3.5	1.52e+00	0	46	104	0	60	206028
2026-01-29 06:20:10.19	79.74	22.68	-59.2	-74.3	3.5	1.52e+00	0	46	104	0	60	198299
2026-01-29 06:20:14.22	78.94	23.09	-59.4	-73.6	3.5	1.51e+00	0	46	104	0	60	182199
2026-01-29 06:20:18.25	78.12	23.49	-60.5	-74.6	3.5	1.51e+00	0	46	104	0	60	205468
2026-01-29 06:20:22.27	77.28	23.90	-60.5	-74.6	3.5	1.52e+00	0	46	104	0	60	203343
2026-01-29 06:20:26.28	76.42	24.30	-60.2	-74.6	3.5	1.52e+00	0	46	104	0	60	203900
2026-01-29 06:20:30.31	75.53	24.71	-61.0	-74.8	3.5	1.52e+00	0	46	104	0	60	208725
2026-01-29 06:20:34.34	74.62	25.11	-59.1	-73.9	3.5	1.51e+00	0	46	104	0	60	188829
2026-01-29 06:20:38.37	73.68	25.51	-60.7	-74.3	3.5	1.52e+00	0	46	104	0	60	197627
2026-01-29 06:20:42.39	72.73	25.91	-60.6	-74.8	3.5	1.52e+00	0	46	104	0	60	208636
2026-01-29 06:20:46.43	71.74	26.30	-60.3	-75.0	3.5	1.52e+00	0	46	104	0	60	215028
2026-01-29 06:20:50.46	70.73	26.69	-61.3	-74.6	3.5	1.52e+00	0	46	104	0	60	204813
2026-01-29 06:20:54.47	69.71	27.08	-61.0	-74.9	3.5	1.52e+00	0	46	104	0	60	212159
2026-01-29 06:20:58.49	68.65	27.46	-61.5	-74.4	3.5	1.51e+00	0	46	104	0	60	200039
2026-01-29 06:21:02.52	67.57	27.84	-61.1	-75.1	3.5	1.52e+00	0	46	104	0	60	215279
2026-01-29 06:21:06.54	66.46	28.20	-61.3	-74.3	3.5	1.51e+00	0	46	104	0	60	198082
2026-01-29 06:21:10.57	65.32	28.57	-61.7	-74.6	3.5	1.51e+00	0	46	104	0	60	204952
2026-01-29 06:21:14.59	64.16	28.92	-60.8	-75.1	3.5	1.51e+00	0	46	104	0	60	217138
2026-01-29 06:21:18.62	62.98	29.26	-61.7	-75.5	3.5	1.52e+00	0	46	104	0	60	225874
2026-01-29 06:21:22.65	61.77	29.60	-61.4	-74.8	3.5	1.51e+00	0	46	104	0	60	208188
2026-01-29 06:21:26.67	60.53	29.92	-61.8	-75.6	3.5	1.52e+00	0	46	104	0	60	229548
2026-01-29 06:21:30.70	59.27	30.23	-61.7	-75.1	3.5	1.52e+00	0	46	104	0	60	216250
2026-01-29 06:21:34.73	57.98	30.53	-61.2	-74.6	3.5	1.51e+00	0	46	104	0	60	204205
2026-01-29 06:21:38.76	56.67	30.81	-60.6	-73.9	3.5	1.51e+00	0	46	104	0	60	188390
2026-01-29 06:21:42.79	55.34	31.08	-61.4	-74.7	3.5	1.52e+00	0	46	104	0	60	206425
2026-01-29 06:21:46.81	53.99	31.34	-57.7	-73.8	3.6	1.51e+00	0	46	104	0	60	187279
2026-01-29 06:21:50.85	52.61	31.58	-58.2	-74.0	3.6	1.51e+00	0	46	104	0	60	190393
2026-01-29 06:21:54.88	51.22	31.80	-57.8	-74.0	3.6	1.51e+00	0	46	104	0	60	191588
2026-01-29 06:21:58.91	49.80	32.00	-57.1	-74.0	3.5	1.51e+00	0	46	104	0	60	191565
2026-01-29 06:22:02.93	48.38	32.19	-60.1	-74.4	3.5	1.52e+00	0	46	104	0	60	200525
2026-01-29 06:22:06.95	46.94	32.35	-56.8	-72.9	3.7	1.51e+00	0	46	104	0	60	168955
2026-01-29 06:22:10.98	45.48	32.50	-57.8	-73.4	3.6	1.51e+00	0	46	104	0	60	178619
2026-01-29 06:22:15.00	44.01	32.62	-58.2	-74.4	3.6	1.51e+00	0	46	104	0	60	198710
2026-01-29 06:22:19.02	42.53	32.72	-60.2	-74.4	3.5	1.51e+00	0	46	104	0	60	198517
2026-01-29 06:22:23.05	41.04	32.80	-57.7	-74.2	3.6	1.51e+00	0	46	104	0	60	195549
2026-01-29 06:22:27.08	39.54	32.86	-61.2	-74.4	3.5	1.51e+00	0	46	104	0	60	200538
2026-01-29 06:22:31.10	38.04	32.90	-56.1	-73.0	3.7	1.51e+00	0	46	104	0	60	169471
2026-01-29 06:22:35.12	36.54	32.92	-59.6	-74.2	3.5	1.52e+00	0	46	104	0	60	195349
2026-01-29 06:22:39.14	35.04	32.91	-55.8	-72.1	3.8	1.51e+00	0	46	104	0	60	152937
2026-01-29 06:22:43.17	33.54	32.88	-56.0	-72.8	3.8	1.51e+00	0	46	104	0	60	165636
2026-01-29 06:22:47.21	32.04	32.83	-57.6	-73.2	3.7	1.51e+00	0	46	104	0	60	173105
2026-01-29 06:22:51.23	30.55	32.76	-56.2	-72.2	3.8	1.51e+00	0	46	104	0	60	155819
2026-01-29 06:22:55.26	29.07	32.66	-60.3	-74.5	3.5	1.51e+00	0	46	104	0	60	202352
2026-01-29 06:22:59.29	27.59	32.54	-59.9	-74.5	3.5	1.51e+00	0	46	104	0	60	202731
2026-01-29 06:23:03.32	26.13	32.41	-61.0	-75.3	3.5	1.52e+00	0	46	104	0	60	221155
2026-01-29 06:23:07.34	24.68	32.25	-59.2	-74.2	3.5	1.51e+00	0	46	104	0	60	195657
2026-01-29 06:23:11.37	23.25	32.07	-60.0	-75.0	3.5	1.52e+00	0	46	104	0	60	214722
2026-01-29 06:23:15.41	21.82	31.88	-60.4	-74.4	3.5	1.52e+00	0	46	104	0	60	199395
2026-01-29 06:23:19.43	20.43	31.66	-60.6	-75.1	3.5	1.52e+00	0	46	104	0	60	216681
2026-01-29 06:23:23.46	19.05	31.43	-61.2	-74.9	3.5	1.52e+00	0	46	104	0	60	212268
2026-01-29 06:23:27.48	17.69	31.18	-59.8	-74.6	3.5	1.52e+00	0	46	104	0	60	204319
2026-01-29 06:23:31.50	16.35	30.92	-59.9	-74.5	3.5	1.52e+00	0	46	104	0	60	202994
2026-01-29 06:23:35.52	15.04	30.64	-58.9	-74.1	3.6	1.51e+00	0	46	104	0	60	193543
2026-01-29 06:23:39.55	13.75	30.35	-58.9	-74.0	3.6	1.51e+00	0	46	104	0	60	191132
2026-01-29 06:23:43.56	12.48	30.04	-55.9	-72.6	3.7	1.51e+00	0	46	104	0	60	162449
2026-01-29 06:23:47.58	11.24	29.72	-59.9	-74.4	3.5	1.51e+00	0	46	104	0	60	200082
2026-01-29 06:23:51.61	10.02	29.40	-57.1	-73.8	3.6	1.51e+00	0	47	104	0	60	187360
2026-01-29 06:23:55.63	8.83	29.06	-57.9	-73.9	3.6	1.51e+00	0	46	104	0	60	189315
2026-01-29 06:23:59.63	7.67	28.71	-59.4	-74.7	3.6	1.51e+00	0	46	104	0	60	206893
2026-01-29 06:24:03.65	6.53	28.35	-60.5	-74.7	3.5	1.52e+00	0	46	104	0	60	206612
2026-01-29 06:24:07.67	5.41	27.99	-59.9	-74.1	3.5	1.51e+00	0	46	104	0	60	191880
2026-01-29 06:24:11.70	4.32	27.62	-61.3	-75.3	3.5	1.52e+00	0	46	104	0	60	220414
2026-01-29 06:24:15.71	3.26	27.24	-61.0	-75.1	3.5	1.52e+00	0	47	104	0	60	216483
2026-01-29 06:24:19.74	2.22	26.86	-61.3	-75.3	3.5	1.51e+00	0	47	104	0	60	221277
2026-01-29 06:24:23.78	1.20	26.47	-61.1	-75.2	3.5	1.52e+00	0	47	104	0	60	218757
2026-01-29 06:24:27.80	0.21	26.07	-60.8	-75.1	3.5	1.52e+00	0	47	104	0	60	216049
2026-01-29 06:24:31.82	359.25	25.68	-59.1	-74.4	3.5	1.51e+00	0	46	104	0	60	199581
2026-01-29 06:24:35.84	358.31	25.28	-59.4	-73.6	3.5	1.51e+00	0	46	104	0	60	181911
2026-01-29 06:24:39.87	357.39	24.88	-59.4	-74.4	3.5	1.51e+00	0	46	104	0	60	199804
2026-01-29 06:24:43.90	356.50	24.48	-60.4	-73.7	3.6	1.52e+00	0	46	104	0	60	185115
2026-01-29 06:24:47.93	355.62	24.07	-59.8	-74.5	3.5	1.51e+00	0	46	104	0	60	202529
2026-01-29 06:24:51.95	354.78	23.67	-58.7	-74.3	3.5	1.52e+00	0	46	104	0	60	196416
2026-01-29 06:24:55.98	353.95	23.26	-60.3	-74.8	3.5	1.52e+00	0	46	104	0	60	208591
2026-01-29 06:25:00.01	353.14	22.86	-60.6	-74.9	3.5	1.52e+00	0	46	104	0	60	210883
2026-01-29 06:25:04.03	352.36	22.45	-60.1	-74.8	3.5	1.52e+00	0	46	104	0	60	208696
2026-01-29 06:25:08.06	351.60	22.05	-60.0	-74.7	3.5	1.52e+00	0	46	104	0	60	206844
2026-01-29 06:25:12.08	350.85	21.65	-60.7	-74.5	3.5	1.52e+00	0	46	104	0	60	201408
2026-01-29 06:25:16.11	350.13	21.24	-60.1	-74.5	3.5	1.51e+00	0	46	104	0	60	201150
2026-01-29 06:25:20.14	349.42	20.84	-60.9	-74.4	3.5	1.52e+00	0	46	104	0	60	199037
2026-01-29 06:25:24.16	348.74	20.45	-61.0	-74.8	3.5	1.52e+00	0	46	104	0	60	209835
2026-01-29 06:25:28.17	348.07	20.05	-60.9	-74.5	3.5	1.52e+00	0	46	104	0	60	201798
2026-01-29 06:25:32.19	347.42	19.66	-60.1	-74.9	3.5	1.52e+00	0	46	104	0	60	210480
2026-01-29 06:25:36.22	346.78	19.27	-60.9	-74.9	3.5	1.52e+00	0	46	104	0	60	211471
2026-01-29 06:25:40.24	346.16	18.88	-60.3	-74.9	3.5	1.52e+00	0	46	104	0	60	210446
2026-01-29 06:25:44.27	345.56	18.49	-59.3	-74.6	3.5	1.52e+00	0	46	104	0	60	204015
2026-01-29 06:25:48.30	344.97	18.11	-60.2	-74.5	3.5	1.52e+00	0	47	104	0	60	200820
2026-01-29 06:25:52.32	344.40	17.72	-59.3	-74.1	3.5	1.52e+00	0	46	104	0	60	191941
2026-01-29 06:25:56.35	343.84	17.35	-60.6	-74.9	3.5	1.52e+00	0	46	104	0	60	210631
2026-01-29 06:26:00.38	343.30	16.97	-60.3	-74.9	3.5	1.52e+00	0	46	104	0	60	210627
2026-01-29 06:26:04.41	342.77	16.60	-60.1	-74.9	3.5	1.52e+00	0	46	104	0	60	210802
2026-01-29 06:26:08.44	342.25	16.23	-60.5	-74.8	3.5	1.51e+00	0	46	104	0	60	208063
2026-01-29 06:26:12.46	341.75	15.86	-60.7	-74.5	3.5	1.52e+00	0	47	104	0	60	202613
2026-01-29 06:26:16.49	341.25	15.50	-60.8	-74.4	3.5	1.52e+00	0	47	104	0	60	200696
2026-01-29 06:26:20.53	340.77	15.14	-60.6	-74.6	3.5	1.52e+00	0	46	104	0	60	203201
2026-01-29 06:26:24.55	340.30	14.78	-60.5	-74.6	3.5	1.52e+00	0	46	104	0	60	203622
2026-01-29 06:26:28.58	339.85	14.43	-60.4	-74.5	3.5	1.51e+00	0	46	104	0	60	202796
2026-01-29 06:26:32.60	339.40	14.08	-60.2	-74.5	3.5	1.52e+00	0	46	104	0	60	201266
2026-01-29 06:26:36.63	338.97	13.74	-59.9	-74.3	3.5	1.52e+00	0	46	104	0	60	198336
2026-01-29 06:26:40.66	338.54	13.39	-59.6	-74.1	3.5	1.52e+00	0	46	104	0	60	193758
2026-01-29 06:26:44.68	338.13	13.05	-60.1	-73.7	3.5	1.52e+00	0	46	104	0	60	184929
2026-01-29 06:26:48.70	337.72	12.72	-59.8	-73.7	3.5	1.51e+00	0	46	104	0	60	183859
2026-01-29 06:26:52.73	337.33	12.38	-59.3	-73.4	3.5	1.52e+00	0	46	104	0	60	177531
2026-01-29 06:26:56.76	336.94	12.05	-59.2	-73.5	3.5	1.51e+00	0	46	104	0	60	180639
2026-01-29 06:27:00.80	336.56	11.72	-58.5	-72.8	3.5	1.52e+00	0	46	104	0	60	165346
2026-01-29 06:27:04.82	336.19	11.40	-58.7	-72.7	3.5	1.52e+00	0	46	104	0	60	164672
2026-01-29 06:27:08.85	335.83	11.08	-58.2	-72.6	3.5	1.52e+00	0	46	104	0	60	162096
2026-01-29 06:27:12.88	335.48	10.76	-57.9	-73.3	3.5	1.52e+00	0	46	104	0	60	176822
2026-01-29 06:27:16.92	335.13	10.44	-58.5	-72.7	3.5	1.52e+00	0	46	104	0	60	164768
2026-01-29 06:27:20.95	334.80	10.13	-58.9	-73.4	3.5	1.52e+00	0	46	104	0	60	176937
2026-01-29 06:27:24.98	334.47	9.82	-57.6	-72.3	3.5	1.52e+00	0	46	104	0	60	156678
2026-01-29 06:27:29.00	334.14	9.52	-59.0	-73.0	3.5	1.52e+00	0	46	104	0	60	169112
2026-01-29 06:27:33.02	333.83	9.21	-57.2	-72.1	3.5	1.51e+00	0	46	104	0	60	153319
2026-01-29 06:27:37.04	333.52	8.91	-57.9	-72.5	3.5	1.51e+00	0	46	104	0	60	159611
2026-01-29 06:27:41.07	333.22	8.61	-54.4	-70.8	3.6	1.51e+00	0	46	104	0	60	132175
2026-01-29 06:27:45.11	332.92	8.32	-57.1	-71.8	3.5	1.52e+00	0	46	104	0	60	148368
2026-01-29 06:27:49.14	332.63	8.02	-54.2	-70.6	3.7	1.51e+00	0	46	104	0	60	128737
2026-01-29 06:27:53.16	332.35	7.73	-54.8	-70.4	3.7	1.51e+00	0	46	104	0	60	126409
2026-01-29 06:27:57.19	332.07	7.45	-54.5	-70.0	3.7	1.51e+00	0	47	104	0	60	120620
2026-01-29 06:28:01.22	331.80	7.16	-56.0	-71.5	3.6	1.51e+00	0	46	104	0	60	142179
2026-01-29 06:28:05.25	331.53	6.88	-53.2	-69.4	3.8	1.51e+00	0	47	104	0	60	112507
2026-01-29 06:28:09.26	331.27	6.60	-56.4	-71.8	3.6	1.52e+00	0	47	104	0	60	147306
2026-01-29 06:28:13.27	331.02	6.32	-52.9	-69.8	3.7	1.51e+00	0	46	104	0	60	118063
2026-01-29 06:28:17.30	330.76	6.05	-55.6	-71.4	3.5	1.51e+00	0	46	104	0	60	141791
2026-01-29 06:28:21.33	330.52	5.78	-60.5	-74.7	3.5	1.52e+00	0	46	104	0	60	205533
2026-01-29 06:28:25.36	330.28	5.51	-61.1	-75.3	3.5	1.52e+00	0	46	104	0	60	221905
2026-01-29 06:28:29.38	330.04	5.24	-61.7	-75.8	3.5	1.52e+00	0	46	104	0	60	235635
2026-01-29 06:28:33.41	329.81	4.97	-62.5	-76.7	3.5	1.52e+00	0	46	104	0	60	260828
2026-01-29 06:28:37.43	329.58	4.71	-61.5	-76.5	3.5	1.51e+00	0	46	104	0	60	254651
2026-01-29 06:28:41.46	329.36	4.45	-61.4	-76.5	3.5	1.52e+00	0	46	104	0	60	255521
2026-01-29 06:28:45.48	329.14	4.19	-61.5	-76.5	3.5	1.52e+00	0	46	104	0	60	254726
2026-01-29 06:28:49.51	328.93	3.93	-61.5	-76.6	3.5	1.52e+00	0	46	104	0	60	256248
2026-01-29 06:28:53.54	328.72	3.67	-61.5	-76.4	3.5	1.52e+00	0	46	104	0	60	252399
2026-01-29 06:28:57.56	328.51	3.42	-61.4	-76.4	3.5	1.51e+00	0	46	104	0	60	251961
2026-01-29 06:29:01.58	328.31	3.17	-61.3	-76.3	3.5	1.52e+00	0	46	104	0	60	247682
2026-01-29 06:29:05.61	328.11	2.92	-61.3	-76.4	3.5	1.51e+00	0	46	104	0	60	251443
2026-01-29 06:29:09.64	327.91	2.67	-61.1	-76.2	3.5	1.52e+00	0	46	104	0	60	245055
2026-01-29 06:29:13.66	327.72	2.43	-61.1	-76.2	3.5	1.52e+00	0	46	104	0	60	245282
2026-01-29 06:29:17.69	327.53	2.18	-61.1	-76.1	3.5	1.51e+00	0	47	104	0	60	243245
2026-01-29 06:29:21.71	327.34	1.94	-61.1	-76.3	3.5	1.51e+00	0	46	104	0	60	247397
2026-01-29 06:29:25.72	327.16	1.70	-61.0	-76.2	3.5	1.52e+00	0	46	104	0	60	247020
2026-01-29 06:29:29.74	326.98	1.46	-61.0	-76.1	3.5	1.52e+00	0	46	104	0	60	242746
2026-01-29 06:29:33.77	326.81	1.22	-61.0	-76.2	3.5	1.52e+00	0	46	104	0	60	244283
2026-01-29 06:29:37.80	326.64	0.99	-61.1	-76.1	3.5	1.52e+00	0	46	104	0	60	243390
2026-01-29 06:29:41.83	326.47	0.75	-61.1	-76.3	3.5	1.52e+00	0	46	104	0	60	248183
2026-01-29 06:29:45.85	326.30	0.52	-61.1	-76.3	3.5	1.52e+00	0	46	104	0	60	247529
2026-01-29 06:29:49.86	326.14	0.29	-61.1	-76.2	3.5	1.52e+00	0	46	104	0	60	246119
2026-01-29 06:29:53.88	325.97	0.06	-61.0	-76.2	3.5	1.52e+00	0	47	104	0	60	246236

#Closed at: 2026-01-29 06:29:55
#Recorded file [0 MB]: D:/Data/35015_260129_091928.dat