passes_logs/2026/01/29/R3.2S-Naryan-Mar/R3.2S-Naryan-Mar__20260129_100533_SUOMI_NPP_rec.log

#Pass ID: 20260129_100533_SUOMI NPP
#Satellite: SUOMI NPP
#Configuration: NPP
#almurnet v.1.7.20240730
#Start time: 2026-01-29 10:05:34

#Version: 2.2.20231116
#Station: R3.2S-Naryan-Mar
#Location: 53.008057 lon 67.646978 lat
#TLE: 1 37849U 11061A   26027.93236865  .00000148  00000+0  91411-4 0  9991
#TLE: 2 37849  98.7823 329.8704 0002085  41.3231 318.8102 14.19530777738546

#Time	Az	El	Level	Level2	SNR	BER	BlckErr	Temp	State	Recorded	gain1	gain2
2026-01-29 10:05:34.17	195.24	0.04	-55.2	-76.7	3.5	3.01e+01	0	43	0	0	60	261473
2026-01-29 10:05:38.20	195.44	0.27	-61.8	-78.3	3.6	1.51e+00	0	44	104	0	60	323252
2026-01-29 10:05:42.23	195.64	0.49	-61.6	-78.0	3.6	1.51e+00	0	44	104	0	60	310996
2026-01-29 10:05:46.26	195.84	0.72	-61.2	-77.6	3.6	1.51e+00	0	44	104	0	60	298657
2026-01-29 10:05:50.29	196.04	0.95	-59.9	-76.7	3.6	1.51e+00	0	44	104	0	60	267322
2026-01-29 10:05:54.32	196.25	1.18	-58.1	-75.1	3.6	1.51e+00	0	44	104	0	60	223567
2026-01-29 10:05:58.35	196.46	1.42	-58.0	-75.0	3.5	1.51e+00	0	44	104	0	60	220218
2026-01-29 10:06:02.38	196.67	1.65	-57.8	-74.9	3.6	1.51e+00	0	44	104	0	60	217713
2026-01-29 10:06:06.41	196.89	1.89	-57.8	-74.8	3.6	1.51e+00	0	44	104	0	60	215483
2026-01-29 10:06:10.45	197.11	2.13	-57.7	-74.7	3.6	1.51e+00	0	44	104	0	60	213527
2026-01-29 10:06:14.48	197.33	2.37	-57.7	-74.8	3.6	1.51e+00	0	44	104	0	60	214439
2026-01-29 10:06:18.52	197.56	2.61	-57.7	-74.7	3.6	1.51e+00	0	44	104	0	60	212762
2026-01-29 10:06:22.54	197.79	2.85	-57.7	-74.7	3.6	1.51e+00	0	44	104	0	60	212975
2026-01-29 10:06:26.58	198.03	3.09	-57.7	-74.7	3.6	1.51e+00	0	45	104	0	60	212815
2026-01-29 10:06:30.60	198.26	3.34	-57.7	-74.7	3.6	1.51e+00	0	44	104	0	60	212951
2026-01-29 10:06:34.63	198.50	3.59	-57.6	-74.6	3.6	1.51e+00	0	45	104	0	60	211281
2026-01-29 10:06:38.66	198.75	3.84	-57.6	-74.6	3.6	1.51e+00	0	45	104	0	60	210437
2026-01-29 10:06:42.69	199.00	4.09	-57.6	-74.6	3.6	1.51e+00	0	45	104	0	60	210395
2026-01-29 10:06:46.71	199.25	4.35	-57.6	-74.6	3.6	1.51e+00	0	45	104	0	60	211293
2026-01-29 10:06:50.75	199.51	4.60	-57.5	-74.4	3.6	1.51e+00	0	45	104	0	60	204733
2026-01-29 10:06:54.77	199.77	4.86	-57.5	-74.5	3.6	1.51e+00	0	45	104	0	60	208080
2026-01-29 10:06:58.80	200.04	5.12	-57.5	-73.9	3.6	1.51e+00	0	45	104	0	60	193608
2026-01-29 10:07:02.84	200.31	5.38	-57.3	-68.1	4.6	9.18e-01	0	45	0	1048576	60	100098
2026-01-29 10:07:06.87	200.58	5.65	-56.2	-62.1	11.0	2.96e-03	0	45	0	8388608	60	49831
2026-01-29 10:07:10.90	200.86	5.91	-55.6	-60.5	12.8	5.34e-05	0	45	0	15728640	60	41375
2026-01-29 10:07:14.93	201.15	6.18	-56.9	-63.8	9.0	3.29e-03	0	45	0	23068672	60	60911
2026-01-29 10:07:18.96	201.44	6.45	-55.2	-58.8	14.9	4.03e-01	0	45	104	25165824	60	34297
2026-01-29 10:07:22.99	201.73	6.73	-54.7	-57.8	16.0	0.00e+00	0	45	0	7340032	60	30242
2026-01-29 10:07:27.02	202.04	7.00	-54.5	-57.3	16.3	0.00e+00	0	45	0	14680064	60	28853
2026-01-29 10:07:31.04	202.34	7.28	-54.3	-57.0	16.7	0.00e+00	0	45	0	22020096	60	27871
2026-01-29 10:07:35.08	202.65	7.56	-54.2	-56.8	16.9	0.00e+00	0	45	0	29360128	60	27234
2026-01-29 10:07:39.11	202.97	7.84	-54.0	-56.5	17.3	0.00e+00	0	45	0	37748736	60	26077
2026-01-29 10:07:43.14	203.29	8.13	-53.8	-56.1	17.7	0.00e+00	0	45	0	45088768	60	24925
2026-01-29 10:07:47.17	203.62	8.42	-53.9	-56.2	17.6	0.00e+00	0	45	0	52428800	60	25252
2026-01-29 10:07:51.20	203.96	8.71	-53.6	-55.8	18.0	0.00e+00	0	45	0	59768832	60	24163
2026-01-29 10:07:55.23	204.30	9.00	-53.5	-55.6	18.2	0.00e+00	0	45	0	67108864	60	23624
2026-01-29 10:07:59.26	204.65	9.29	-53.5	-55.5	18.4	0.00e+00	0	45	0	75497472	60	23357
2026-01-29 10:08:03.28	205.00	9.59	-53.1	-55.0	18.9	0.00e+00	0	45	0	82837504	60	22037
2026-01-29 10:08:07.30	205.37	9.89	-53.4	-55.3	18.7	0.00e+00	0	45	0	90177536	60	22781
2026-01-29 10:08:11.32	205.74	10.19	-53.4	-55.4	18.8	0.00e+00	0	45	0	97517568	60	22955
2026-01-29 10:08:15.34	206.11	10.50	-53.1	-54.8	19.3	0.00e+00	0	45	0	104857600	60	21636
2026-01-29 10:08:19.37	206.50	10.81	-53.0	-54.7	19.5	0.00e+00	0	45	0	113246208	60	21191
2026-01-29 10:08:23.39	206.89	11.12	-52.6	-54.2	20.0	0.00e+00	0	45	0	120586240	60	20094
2026-01-29 10:08:27.42	207.29	11.43	-52.5	-54.1	20.2	0.00e+00	0	45	0	127926272	60	19804
2026-01-29 10:08:31.45	207.70	11.75	-52.8	-54.4	19.8	0.00e+00	0	45	0	135266304	60	20581
2026-01-29 10:08:35.48	208.12	12.07	-53.4	-55.1	19.5	0.00e+00	0	45	0	142606336	60	22294
2026-01-29 10:08:39.51	208.54	12.39	-53.4	-55.0	19.6	0.00e+00	0	45	0	150994944	60	22113
2026-01-29 10:08:43.53	208.98	12.72	-53.3	-55.0	19.9	0.00e+00	0	45	0	158334976	60	21925
2026-01-29 10:08:47.55	209.42	13.05	-52.9	-54.4	20.3	0.00e+00	0	45	0	165675008	60	20573
2026-01-29 10:08:51.58	209.88	13.38	-52.7	-54.2	20.5	0.00e+00	0	45	0	173015040	60	20055
2026-01-29 10:08:55.61	210.34	13.71	-53.0	-54.5	20.3	0.00e+00	0	45	0	180355072	60	20880
2026-01-29 10:08:59.64	210.82	14.05	-53.4	-55.1	19.9	0.00e+00	0	45	0	188743680	60	22165
2026-01-29 10:09:03.67	211.30	14.39	-53.9	-55.7	19.6	0.00e+00	0	45	0	196083712	60	23851
2026-01-29 10:09:07.70	211.80	14.73	-54.3	-56.1	19.2	0.00e+00	0	45	0	203423744	60	24961
2026-01-29 10:09:11.74	212.31	15.08	-53.8	-55.5	19.7	0.00e+00	0	45	0	210763776	60	23246
2026-01-29 10:09:15.77	212.82	15.43	-53.8	-55.4	19.7	0.00e+00	0	45	0	218103808	60	23072
2026-01-29 10:09:19.79	213.35	15.78	-54.1	-55.9	19.2	0.00e+00	0	45	0	226492416	60	24443
2026-01-29 10:09:23.81	213.90	16.14	-53.9	-55.7	19.4	0.00e+00	0	45	0	233832448	60	23773
2026-01-29 10:09:27.83	214.45	16.49	-53.8	-55.4	19.9	0.00e+00	0	45	0	241172480	60	23109
2026-01-29 10:09:31.85	215.02	16.85	-54.0	-55.8	19.5	0.00e+00	0	45	0	248512512	60	24042
2026-01-29 10:09:35.85	215.59	17.21	-54.0	-55.7	19.5	0.00e+00	0	45	0	255852544	60	23979
2026-01-29 10:09:39.86	216.19	17.57	-54.3	-56.1	19.2	0.00e+00	0	45	0	264241152	60	25055
2026-01-29 10:09:43.87	216.79	17.94	-54.3	-56.1	19.4	4.33e-04	0	45	0	271581184	60	24955
2026-01-29 10:09:47.89	217.42	18.31	-54.3	-56.1	19.3	0.00e+00	0	45	0	278921216	60	24889
2026-01-29 10:09:51.90	218.05	18.68	-54.1	-55.7	19.6	0.00e+00	0	45	0	286261248	60	23994
2026-01-29 10:09:55.93	218.71	19.06	-53.5	-55.0	20.3	0.00e+00	0	45	0	293601280	60	21952
2026-01-29 10:09:59.95	219.37	19.43	-53.1	-54.6	20.3	0.00e+00	0	45	0	300941312	60	20995
2026-01-29 10:10:03.96	220.06	19.81	-53.2	-54.7	20.4	0.00e+00	0	45	0	309329920	60	21381
2026-01-29 10:10:07.99	220.76	20.19	-52.6	-54.0	21.0	0.00e+00	0	45	0	316669952	60	19533
2026-01-29 10:10:12.01	221.48	20.57	-52.8	-54.3	20.8	0.00e+00	0	45	0	324009984	60	20266
2026-01-29 10:10:16.03	222.21	20.95	-52.8	-54.2	20.8	0.00e+00	0	45	0	331350016	60	20176
2026-01-29 10:10:20.06	222.97	21.33	-52.9	-54.4	20.7	0.00e+00	0	45	0	338690048	60	20621
2026-01-29 10:10:24.08	223.74	21.72	-52.5	-53.9	21.2	0.00e+00	0	45	0	347078656	60	19301
2026-01-29 10:10:28.11	224.53	22.10	-52.0	-53.3	21.6	0.00e+00	0	45	0	354418688	60	18168
2026-01-29 10:10:32.14	225.34	22.49	-51.4	-52.6	22.2	0.00e+00	0	45	0	361758720	60	16723
2026-01-29 10:10:36.17	226.18	22.87	-51.3	-52.4	22.5	0.00e+00	0	45	0	369098752	60	16306
2026-01-29 10:10:40.18	227.02	23.26	-51.6	-52.8	22.0	0.00e+00	0	45	0	377487360	60	17177
2026-01-29 10:10:44.20	227.89	23.64	-52.3	-53.6	21.4	0.00e+00	0	45	0	384827392	60	18781
2026-01-29 10:10:48.21	228.78	24.02	-52.3	-53.6	21.3	0.00e+00	0	45	0	392167424	60	18764
2026-01-29 10:10:52.23	229.70	24.40	-52.4	-53.7	21.3	0.00e+00	0	45	0	399507456	60	18939
2026-01-29 10:10:56.24	230.63	24.78	-52.9	-54.3	20.7	0.00e+00	0	45	0	406847488	60	20316
2026-01-29 10:11:00.25	231.58	25.15	-52.8	-54.2	20.9	0.00e+00	0	45	0	414187520	60	20141
2026-01-29 10:11:04.27	232.56	25.52	-52.4	-53.7	21.3	0.00e+00	0	45	0	421527552	60	18937
2026-01-29 10:11:08.29	233.56	25.89	-52.5	-53.8	21.4	0.00e+00	0	45	0	429916160	60	19193
2026-01-29 10:11:12.32	234.59	26.26	-53.6	-55.2	20.1	0.00e+00	0	45	0	437256192	60	22488
2026-01-29 10:11:16.34	235.64	26.62	-53.0	-54.4	20.8	0.00e+00	0	45	0	444596224	60	20600
2026-01-29 10:11:20.35	236.70	26.97	-53.0	-54.4	20.8	0.00e+00	0	45	0	451936256	60	20571
2026-01-29 10:11:24.37	237.80	27.32	-53.0	-54.4	20.6	0.00e+00	0	45	0	459276288	60	20540
2026-01-29 10:11:28.38	238.91	27.66	-53.4	-54.9	20.3	0.00e+00	0	45	0	467664896	60	21830
2026-01-29 10:11:32.40	240.05	27.99	-53.1	-54.6	20.3	0.00e+00	0	45	0	475004928	60	20948
2026-01-29 10:11:36.42	241.21	28.32	-53.3	-54.9	20.3	0.00e+00	0	45	0	482344960	60	21681
2026-01-29 10:11:40.45	242.40	28.63	-53.1	-54.6	20.5	0.00e+00	0	45	0	489684992	60	21066
2026-01-29 10:11:44.47	243.61	28.94	-53.7	-55.3	19.9	0.00e+00	0	45	0	497025024	60	22798
2026-01-29 10:11:48.49	244.84	29.23	-53.6	-55.1	19.9	0.00e+00	0	45	0	505413632	60	22399
2026-01-29 10:11:52.51	246.10	29.52	-53.9	-55.5	19.6	0.00e+00	0	45	0	512753664	60	23334
2026-01-29 10:11:56.53	247.37	29.79	-54.5	-56.4	18.8	0.00e+00	0	45	0	520093696	60	25861
2026-01-29 10:12:00.56	248.67	30.05	-53.7	-55.4	19.4	0.00e+00	0	45	0	527433728	60	23149
2026-01-29 10:12:04.57	249.98	30.29	-54.4	-56.3	18.7	0.00e+00	0	45	0	534773760	60	25721
2026-01-29 10:12:08.59	251.31	30.52	-55.4	-57.8	17.0	0.00e+00	0	45	0	543162368	60	30517
2026-01-29 10:12:12.61	252.67	30.74	-54.7	-56.7	18.1	0.00e+00	0	45	0	550502400	60	26827
2026-01-29 10:12:16.63	254.03	30.94	-54.5	-56.5	18.3	0.00e+00	0	45	0	557842432	60	26154
2026-01-29 10:12:20.65	255.42	31.12	-53.8	-55.6	19.1	0.00e+00	0	45	0	565182464	60	23513
2026-01-29 10:12:24.69	256.83	31.29	-54.6	-56.7	18.3	0.00e+00	0	45	0	572522496	60	26821
2026-01-29 10:12:28.72	258.24	31.43	-54.1	-56.0	18.8	0.00e+00	0	45	0	580911104	60	24580
2026-01-29 10:12:32.74	259.67	31.56	-53.0	-54.5	20.4	0.00e+00	0	45	0	588251136	60	20732
2026-01-29 10:12:36.77	261.10	31.67	-54.1	-55.9	18.9	0.00e+00	0	45	0	595591168	60	24416
2026-01-29 10:12:40.79	262.55	31.76	-53.3	-54.9	19.9	0.00e+00	0	45	0	602931200	60	21771
2026-01-29 10:12:44.82	264.00	31.84	-53.0	-54.5	20.5	0.00e+00	0	45	0	610271232	60	20730
2026-01-29 10:12:48.84	265.46	31.89	-54.0	-55.7	19.2	0.00e+00	0	45	0	617611264	60	23894
2026-01-29 10:12:52.86	266.92	31.92	-53.6	-55.3	19.6	0.00e+00	0	45	0	625999872	60	22754
2026-01-29 10:12:56.89	268.38	31.93	-53.4	-55.0	19.9	0.00e+00	0	45	0	633339904	60	21940
2026-01-29 10:13:00.91	269.84	31.92	-53.2	-54.8	20.2	0.00e+00	0	45	0	640679936	60	21426
2026-01-29 10:13:04.92	271.30	31.89	-52.9	-54.4	20.4	0.00e+00	0	45	0	648019968	60	20589
2026-01-29 10:13:08.94	272.75	31.84	-53.9	-55.6	19.3	0.00e+00	0	45	0	655360000	60	23732
2026-01-29 10:13:12.96	274.20	31.77	-52.8	-54.4	20.4	0.00e+00	0	45	0	663748608	60	20457
2026-01-29 10:13:16.99	275.65	31.69	-53.2	-54.8	20.3	0.00e+00	0	45	0	671088640	60	21582
2026-01-29 10:13:21.01	277.09	31.58	-53.1	-54.8	20.0	0.00e+00	0	45	0	678428672	60	21568
2026-01-29 10:13:25.04	278.51	31.45	-52.3	-53.9	20.8	0.00e+00	0	45	0	685768704	60	19335
2026-01-29 10:13:29.06	279.93	31.31	-54.0	-56.3	18.6	0.00e+00	0	45	0	693108736	60	25521
2026-01-29 10:13:33.08	281.32	31.14	-54.4	-56.9	18.0	0.00e+00	0	45	0	701497344	60	27507
2026-01-29 10:13:37.11	282.71	30.96	-54.6	-56.9	18.1	0.00e+00	0	45	0	708837376	60	27409
2026-01-29 10:13:41.15	284.09	30.77	-54.2	-56.1	18.9	0.00e+00	0	45	0	716177408	60	25125
2026-01-29 10:13:45.16	285.44	30.55	-54.1	-56.0	18.9	0.00e+00	0	45	0	723517440	60	24843
2026-01-29 10:13:49.18	286.77	30.33	-54.0	-55.8	19.1	0.00e+00	0	45	0	730857472	60	24247
2026-01-29 10:13:53.20	288.08	30.09	-54.3	-56.4	18.5	0.00e+00	0	45	0	739246080	60	26021
2026-01-29 10:13:57.23	289.38	29.83	-53.6	-55.9	18.8	0.00e+00	0	45	0	746586112	60	24335
2026-01-29 10:14:01.24	290.65	29.56	-52.9	-54.8	20.0	0.00e+00	0	45	0	753926144	60	21565
2026-01-29 10:14:05.26	291.90	29.28	-54.9	-57.3	17.8	0.00e+00	0	45	0	761266176	60	28863
2026-01-29 10:14:09.27	293.13	28.99	-54.9	-56.9	18.3	0.00e+00	0	45	0	768606208	60	27568
2026-01-29 10:14:13.28	294.34	28.69	-54.0	-55.7	19.4	0.00e+00	0	45	0	775946240	60	23920
2026-01-29 10:14:17.29	295.52	28.37	-55.0	-57.3	18.0	0.00e+00	0	45	0	784334848	60	28602
2026-01-29 10:14:21.30	296.68	28.05	-56.3	-59.3	16.2	0.00e+00	0	45	0	791674880	60	35965
2026-01-29 10:14:25.32	297.82	27.72	-55.8	-58.4	16.9	0.00e+00	0	45	0	799014912	60	32588
2026-01-29 10:14:29.34	298.94	27.39	-55.3	-57.6	17.7	0.00e+00	0	45	0	806354944	60	29697
2026-01-29 10:14:33.36	300.03	27.04	-56.1	-58.9	16.4	0.00e+00	0	45	0	813694976	60	34644
2026-01-29 10:14:37.39	301.10	26.69	-55.8	-58.4	16.9	0.00e+00	0	45	0	822083584	60	32498
2026-01-29 10:14:41.42	302.15	26.33	-55.9	-58.4	16.9	0.00e+00	0	45	0	829423616	60	32674
2026-01-29 10:14:45.45	303.18	25.97	-55.3	-57.7	17.4	0.00e+00	0	45	0	836763648	60	30226
2026-01-29 10:14:49.48	304.18	25.60	-55.7	-58.5	16.7	0.00e+00	0	45	0	844103680	60	32834
2026-01-29 10:14:53.51	305.16	25.23	-54.7	-56.9	18.2	0.00e+00	0	45	0	851443712	60	27365
2026-01-29 10:14:57.53	306.12	24.86	-55.0	-57.3	17.8	0.00e+00	0	45	0	859832320	60	28811
2026-01-29 10:15:01.56	307.06	24.48	-55.0	-57.2	17.9	0.00e+00	0	45	0	867172352	60	28254
2026-01-29 10:15:05.57	307.97	24.11	-55.2	-57.5	17.8	0.00e+00	0	45	0	874512384	60	29236
2026-01-29 10:15:09.59	308.86	23.73	-53.9	-55.9	19.1	0.00e+00	0	45	0	881852416	60	24320
2026-01-29 10:15:13.62	309.73	23.35	-53.6	-55.7	19.2	0.00e+00	0	45	0	889192448	60	24014
2026-01-29 10:15:17.64	310.58	22.97	-52.5	-54.1	20.7	0.00e+00	0	45	0	897581056	60	19854
2026-01-29 10:15:21.66	311.41	22.58	-55.1	-57.4	17.7	0.00e+00	0	45	0	904921088	60	29099
2026-01-29 10:15:25.67	312.22	22.20	-53.9	-55.7	19.3	0.00e+00	0	45	0	912261120	60	23888
2026-01-29 10:15:29.70	313.01	21.82	-54.3	-56.4	18.7	0.00e+00	0	45	0	919601152	60	25786
2026-01-29 10:15:33.71	313.78	21.44	-52.8	-54.3	20.6	0.00e+00	0	45	0	926941184	60	20359
2026-01-29 10:15:37.73	314.53	21.06	-52.9	-54.4	20.4	0.00e+00	0	45	0	934281216	60	20626
2026-01-29 10:15:41.76	315.27	20.68	-53.0	-54.5	20.5	0.00e+00	0	45	0	942669824	60	20682
2026-01-29 10:15:45.78	315.99	20.30	-53.2	-54.8	20.1	0.00e+00	0	45	0	950009856	60	21573
2026-01-29 10:15:49.81	316.69	19.92	-53.6	-55.3	19.7	0.00e+00	0	45	0	957349888	60	22790
2026-01-29 10:15:53.84	317.38	19.55	-51.9	-53.1	21.5	0.00e+00	0	45	0	964689920	60	17758
2026-01-29 10:15:57.85	318.05	19.17	-52.2	-53.7	21.0	0.00e+00	0	45	0	972029952	60	18885
2026-01-29 10:16:01.87	318.70	18.80	-52.3	-53.8	20.7	0.00e+00	0	45	0	980418560	60	19185
2026-01-29 10:16:05.89	319.34	18.43	-52.0	-53.4	21.1	0.00e+00	0	45	0	987758592	60	18262
2026-01-29 10:16:09.90	319.96	18.07	-52.3	-53.7	21.0	0.00e+00	0	45	0	995098624	60	18968
2026-01-29 10:16:13.92	320.57	17.70	-52.3	-53.6	21.0	0.00e+00	0	45	0	1002438656	60	18847
2026-01-29 10:16:17.94	321.17	17.34	-52.0	-53.3	21.4	0.00e+00	0	45	0	1009778688	60	18042
2026-01-29 10:16:21.97	321.75	16.98	-52.3	-53.8	20.9	0.00e+00	0	45	0	1018167296	60	19081
2026-01-29 10:16:26.00	322.32	16.62	-52.7	-54.1	20.6	0.00e+00	0	45	0	1025507328	60	19969
2026-01-29 10:16:30.02	322.87	16.27	-52.3	-53.7	21.0	0.00e+00	0	45	0	1032847360	60	19000
2026-01-29 10:16:34.04	323.42	15.92	-51.9	-53.3	21.1	0.00e+00	0	45	0	1040187392	60	18177
2026-01-29 10:16:38.06	323.95	15.57	-52.8	-54.7	19.8	0.00e+00	0	45	0	1047527424	60	21209
2026-01-29 10:16:42.09	324.47	15.22	-53.8	-55.9	18.6	0.00e+00	0	45	0	1055916032	60	24549
2026-01-29 10:16:46.11	324.97	14.88	-54.0	-56.4	18.0	0.00e+00	0	45	0	1063256064	60	26018
2026-01-29 10:16:50.13	325.47	14.54	-53.2	-56.0	17.7	0.00e+00	0	45	0	1070596096	60	24691
2026-01-29 10:16:54.16	325.96	14.20	-53.2	-57.0	16.4	0.00e+00	0	45	0	1077936128	60	27778
2026-01-29 10:16:58.18	326.43	13.86	-53.2	-58.3	15.0	0.00e+00	0	45	0	1085276160	60	32120
2026-01-29 10:17:02.19	326.90	13.53	-54.2	-59.2	14.5	7.00e-07	0	45	0	1093664768	60	35813
2026-01-29 10:17:06.20	327.35	13.20	-54.9	-59.5	13.8	3.80e-06	0	45	0	1101004800	60	37111
2026-01-29 10:17:10.23	327.80	12.88	-54.0	-60.6	12.1	2.01e-04	0	45	0	1108344832	60	42209
2026-01-29 10:17:14.25	328.23	12.55	-53.5	-61.3	11.0	1.48e-03	0	45	0	1115684864	60	45460
2026-01-29 10:17:18.28	328.66	12.23	-53.5	-61.3	10.5	4.37e-03	0	45	0	1123024896	60	45288
2026-01-29 10:17:22.30	329.08	11.91	-54.1	-61.6	10.6	3.64e-03	0	45	0	1131413504	60	47355
2026-01-29 10:17:26.33	329.49	11.60	-55.6	-62.7	9.9	8.31e-03	0	45	0	1138753536	60	53543
2026-01-29 10:17:30.35	329.89	11.29	-56.5	-64.1	8.0	3.85e-02	0	45	0	1146093568	60	62890
2026-01-29 10:17:34.38	330.29	10.98	-56.1	-65.8	6.2	2.33e-01	0	45	0	1153433600	60	76045
2026-01-29 10:17:38.40	330.67	10.67	-58.0	-72.3	3.7	1.47e+00	0	45	104	1159725056	60	162391
2026-01-29 10:17:42.43	331.05	10.37	-57.4	-69.6	3.9	1.38e+00	0	45	0	1159725056	60	118555
2026-01-29 10:17:46.45	331.42	10.07	-57.5	-70.7	3.8	1.43e+00	0	46	0	1159725056	60	133621
2026-01-29 10:17:50.49	331.79	9.77	-58.0	-73.4	3.6	1.50e+00	0	45	104	1159725056	60	182990
2026-01-29 10:17:54.52	332.15	9.47	-56.7	-72.5	3.7	1.55e+00	0	46	104	1159725056	60	165390
2026-01-29 10:17:58.55	332.50	9.18	-58.0	-74.2	3.6	1.51e+00	0	45	104	1159725056	60	201549
2026-01-29 10:18:02.58	332.84	8.88	-57.3	-73.5	3.6	1.51e+00	0	46	104	1159725056	60	185341
2026-01-29 10:18:06.59	333.18	8.60	-57.5	-74.5	3.6	1.51e+00	0	46	104	1159725056	60	207411
2026-01-29 10:18:10.60	333.51	8.31	-57.6	-74.4	3.6	1.51e+00	0	46	104	1159725056	60	206679
2026-01-29 10:18:14.63	333.84	8.03	-56.5	-74.1	3.6	1.51e+00	0	46	104	1159725056	60	199455
2026-01-29 10:18:18.66	334.16	7.75	-58.0	-74.5	3.6	1.51e+00	0	46	104	1159725056	60	207651
2026-01-29 10:18:22.68	334.47	7.47	-58.2	-74.8	3.6	1.51e+00	0	46	104	1159725056	60	214302
2026-01-29 10:18:26.71	334.78	7.19	-58.1	-74.5	3.6	1.51e+00	0	46	104	1159725056	60	209011
2026-01-29 10:18:30.74	335.08	6.92	-57.7	-74.2	3.6	1.51e+00	0	46	104	1159725056	60	200444
2026-01-29 10:18:34.77	335.38	6.65	-56.4	-73.9	3.6	1.51e+00	0	46	104	1159725056	60	193683
2026-01-29 10:18:38.80	335.67	6.38	-56.7	-73.8	3.6	1.51e+00	0	46	104	1159725056	60	191011
2026-01-29 10:18:42.82	335.96	6.11	-57.3	-73.9	3.6	1.51e+00	0	46	104	1159725056	60	193472
2026-01-29 10:18:46.85	336.24	5.84	-58.8	-75.8	3.6	1.51e+00	0	46	104	1159725056	60	240722
2026-01-29 10:18:50.88	336.52	5.58	-60.3	-76.9	3.6	1.51e+00	0	46	104	1159725056	60	274049
2026-01-29 10:18:54.91	336.80	5.32	-61.4	-77.7	3.6	1.51e+00	0	45	104	1159725056	60	301458
2026-01-29 10:18:58.94	337.07	5.06	-61.4	-77.7	3.6	1.51e+00	0	46	104	1159725056	60	302089
2026-01-29 10:19:02.97	337.33	4.80	-61.3	-78.0	3.6	1.51e+00	0	46	104	1159725056	60	309491
2026-01-29 10:19:06.99	337.59	4.55	-59.5	-77.5	3.6	1.51e+00	0	46	104	1159725056	60	294925
2026-01-29 10:19:11.01	337.85	4.30	-60.2	-77.8	3.6	1.51e+00	0	46	104	1159725056	60	303682
2026-01-29 10:19:15.04	338.10	4.05	-60.5	-77.9	3.6	1.51e+00	0	46	104	1159725056	60	307338
2026-01-29 10:19:19.07	338.35	3.80	-60.5	-77.8	3.6	1.51e+00	0	46	104	1159725056	60	304306
2026-01-29 10:19:23.10	338.59	3.55	-60.5	-77.9	3.6	1.51e+00	0	46	104	1159725056	60	306095
2026-01-29 10:19:27.13	338.83	3.30	-60.4	-77.8	3.6	1.51e+00	0	46	104	1159725056	60	302583
2026-01-29 10:19:31.16	339.07	3.06	-60.4	-77.7	3.6	1.51e+00	0	46	104	1159725056	60	302358
2026-01-29 10:19:35.19	339.30	2.82	-60.4	-77.6	3.6	1.51e+00	0	46	104	1159725056	60	298746
2026-01-29 10:19:39.22	339.53	2.58	-60.5	-77.7	3.6	1.51e+00	0	46	104	1159725056	60	301372
2026-01-29 10:19:43.25	339.76	2.34	-60.4	-77.7	3.6	1.51e+00	0	46	104	1159725056	60	301205
2026-01-29 10:19:47.28	339.99	2.10	-60.4	-77.8	3.6	1.51e+00	0	46	104	1159725056	60	303768
2026-01-29 10:19:51.31	340.21	1.87	-60.5	-77.7	3.6	1.51e+00	0	46	104	1159725056	60	302104
2026-01-29 10:19:55.34	340.42	1.63	-60.5	-77.8	3.6	1.51e+00	0	46	104	1159725056	60	304510
2026-01-29 10:19:59.36	340.64	1.40	-60.5	-77.9	3.6	1.51e+00	0	46	104	1159725056	60	305894
2026-01-29 10:20:03.40	340.85	1.17	-60.6	-77.8	3.6	1.51e+00	0	46	104	1159725056	60	304564
2026-01-29 10:20:07.42	341.06	0.94	-60.6	-77.8	3.6	1.51e+00	0	46	104	1159725056	60	304866
2026-01-29 10:20:11.45	341.26	0.72	-60.5	-77.8	3.6	1.51e+00	0	46	104	1159725056	60	304952
2026-01-29 10:20:15.48	341.46	0.49	-60.5	-77.7	3.6	1.51e+00	0	46	104	1159725056	60	302064
2026-01-29 10:20:19.51	341.66	0.27	-60.5	-77.7	3.6	1.51e+00	0	46	104	1159725056	60	302055
2026-01-29 10:20:23.54	341.86	0.04	-60.5	-77.8	3.6	1.51e+00	0	46	104	1159725056	60	303500

#Closed at: 2026-01-29 10:20:24
#Recorded file [1159 MB]: D:/Data/35015_260129_131945.dat