passes_logs/2026/01/29/R3.2S-Naryan-Mar/R3.2S-Naryan-Mar__20260129_034729_NOAA_20_JPSS-1_rec.log

#Pass ID: 20260129_034729_NOAA 20 (JPSS-1)
#Satellite: NOAA 20 (JPSS-1)
#Configuration: NOAA 20
#almurnet v.1.7.20240730
#Start time: 2026-01-29 03:47:32

#Version: 2.2.20231116
#Station: R3.2S-Naryan-Mar
#Location: 53.008057 lon 67.646978 lat
#TLE: 1 43013U 17073A   26027.80586608  .00000156  00000+0  94940-4 0  9998
#TLE: 2 43013  98.7647 328.6108 0000947  21.3465 338.7750 14.19541216424550

#Time	Az	El	Level	Level2	SNR	BER	BlckErr	Temp	State	Recorded	gain1	gain2
2026-01-29 03:47:32.28	60.86	0.12	-61.8	-77.1	3.3	1.54e+00	0	45	0	0	60	279997
2026-01-29 03:47:36.30	60.61	0.34	-62.5	-79.0	3.6	1.51e+00	0	45	104	0	60	350211
2026-01-29 03:47:40.33	60.35	0.55	-59.5	-77.4	3.6	1.51e+00	0	45	104	0	60	290198
2026-01-29 03:47:44.37	60.10	0.76	-57.8	-75.8	3.6	1.51e+00	0	45	104	0	60	242673
2026-01-29 03:47:48.39	59.83	0.98	-60.3	-77.3	3.6	1.51e+00	0	45	104	0	60	287766
2026-01-29 03:47:52.41	59.57	1.20	-59.7	-76.7	3.6	1.51e+00	0	45	104	0	60	266621
2026-01-29 03:47:56.43	59.30	1.41	-59.8	-76.4	3.6	1.51e+00	0	46	104	0	60	258987
2026-01-29 03:48:00.46	59.02	1.63	-59.7	-76.1	3.6	1.51e+00	0	46	104	0	60	250800
2026-01-29 03:48:04.49	58.75	1.85	-59.6	-76.1	3.6	1.51e+00	0	46	104	0	60	248669
2026-01-29 03:48:08.51	58.46	2.07	-59.6	-76.0	3.6	1.51e+00	0	46	104	0	60	245918
2026-01-29 03:48:12.54	58.17	2.29	-59.5	-75.8	3.6	1.51e+00	0	46	104	0	60	240770
2026-01-29 03:48:16.57	57.88	2.51	-59.6	-76.0	3.6	1.51e+00	0	46	104	0	60	247107
2026-01-29 03:48:20.60	57.59	2.74	-59.5	-75.9	3.6	1.51e+00	0	46	104	0	60	243938
2026-01-29 03:48:24.63	57.28	2.96	-59.4	-75.2	3.6	1.51e+00	0	46	104	0	60	224711
2026-01-29 03:48:28.65	56.98	3.19	-59.4	-75.5	3.6	1.51e+00	0	46	104	0	60	234071
2026-01-29 03:48:32.69	56.67	3.42	-59.4	-76.0	3.6	1.51e+00	0	46	104	0	60	247567
2026-01-29 03:48:36.72	56.35	3.64	-59.5	-75.9	3.6	1.51e+00	0	46	104	0	60	243006
2026-01-29 03:48:40.75	56.03	3.87	-59.4	-75.9	3.6	1.51e+00	0	46	104	0	60	244675
2026-01-29 03:48:44.78	55.70	4.10	-59.4	-75.8	3.6	1.51e+00	0	46	104	0	60	242433
2026-01-29 03:48:48.81	55.37	4.33	-59.4	-75.9	3.6	1.51e+00	0	46	104	0	60	243873
2026-01-29 03:48:52.84	55.03	4.56	-59.4	-75.5	3.6	1.51e+00	0	46	104	0	60	233463
2026-01-29 03:48:56.86	54.69	4.80	-59.3	-73.8	3.6	1.51e+00	0	46	104	0	60	191784
2026-01-29 03:49:00.88	54.34	5.03	-59.0	-68.2	5.7	4.10e-01	0	46	0	4194304	60	100280
2026-01-29 03:49:04.91	53.98	5.27	-58.8	-67.0	6.8	1.45e-01	0	46	0	11534336	60	88117
2026-01-29 03:49:08.94	53.62	5.50	-59.2	-70.1	4.2	8.24e-01	0	46	0	18874368	60	125502
2026-01-29 03:49:12.97	53.25	5.74	-59.3	-74.8	3.6	1.51e+00	0	46	104	19922944	60	215232
2026-01-29 03:49:17.00	52.88	5.98	-59.4	-75.9	3.5	1.51e+00	0	46	104	19922944	60	243548
2026-01-29 03:49:21.02	52.50	6.22	-59.2	-75.9	3.6	1.51e+00	0	46	104	19922944	60	243491
2026-01-29 03:49:25.04	52.12	6.46	-59.6	-74.7	3.6	1.51e+00	0	46	104	19922944	60	214018
2026-01-29 03:49:29.07	51.72	6.70	-59.9	-76.1	3.6	1.51e+00	0	46	104	19922944	60	251128
2026-01-29 03:49:33.09	51.32	6.94	-59.0	-75.1	3.6	1.51e+00	0	46	104	19922944	60	222024
2026-01-29 03:49:37.11	50.92	7.18	-59.3	-76.1	3.6	1.51e+00	0	46	104	19922944	60	249900
2026-01-29 03:49:41.14	50.50	7.43	-59.6	-75.0	3.6	1.51e+00	0	46	104	19922944	60	219125
2026-01-29 03:49:45.17	50.08	7.67	-59.7	-76.1	3.6	1.51e+00	0	46	104	19922944	60	248666
2026-01-29 03:49:49.19	49.66	7.91	-57.6	-73.8	3.6	1.51e+00	0	46	104	19922944	60	190944
2026-01-29 03:49:53.21	49.22	8.16	-57.7	-74.2	3.6	1.51e+00	0	46	104	19922944	60	202046
2026-01-29 03:49:57.24	48.78	8.41	-58.3	-71.7	3.8	1.49e+00	0	46	0	19922944	60	150631
2026-01-29 03:50:01.26	48.33	8.66	-58.5	-68.1	6.0	2.28e-01	0	46	0	6291456	60	99417
2026-01-29 03:50:05.28	47.87	8.90	-56.9	-66.0	8.0	4.48e-02	0	46	0	13631488	60	78167
2026-01-29 03:50:09.31	47.40	9.15	-56.8	-65.3	8.6	6.01e-02	0	46	0	22020096	60	71916
2026-01-29 03:50:13.33	46.93	9.40	-57.9	-66.1	8.4	4.88e-02	0	46	0	29360128	60	78855
2026-01-29 03:50:17.36	46.44	9.65	-58.2	-65.4	9.3	2.22e-02	0	46	0	36700160	60	73022
2026-01-29 03:50:21.37	45.95	9.90	-58.6	-65.6	9.6	2.03e-02	0	46	0	44040192	60	74784
2026-01-29 03:50:25.38	45.45	10.15	-58.2	-65.9	9.1	1.69e-02	0	46	0	51380224	60	77246
2026-01-29 03:50:29.41	44.94	10.40	-58.3	-66.3	9.0	2.88e-02	0	46	0	59768832	60	80969
2026-01-29 03:50:33.43	44.43	10.66	-59.5	-66.8	8.0	4.35e-02	0	46	0	67108864	60	85978
2026-01-29 03:50:37.46	43.90	10.91	-58.2	-66.4	8.3	6.91e-02	0	46	0	74448896	60	81437
2026-01-29 03:50:41.47	43.36	11.16	-58.3	-65.9	8.4	4.40e-02	0	46	0	81788928	60	77275
2026-01-29 03:50:45.50	42.81	11.41	-59.1	-66.7	8.1	5.66e-02	0	46	0	89128960	60	84492
2026-01-29 03:50:49.53	42.26	11.66	-57.3	-66.2	8.1	4.35e-02	0	46	0	97517568	60	79778
2026-01-29 03:50:53.56	41.69	11.92	-56.7	-65.9	8.0	8.38e-02	0	46	0	104857600	60	77710
2026-01-29 03:50:57.57	41.12	12.17	-59.0	-67.4	7.4	9.23e-02	0	46	0	112197632	60	92094
2026-01-29 03:51:01.59	40.53	12.42	-59.2	-66.9	7.2	8.56e-02	0	46	0	119537664	60	86890
2026-01-29 03:51:05.62	39.93	12.67	-59.3	-66.9	7.7	8.64e-02	0	46	0	126877696	60	86963
2026-01-29 03:51:09.66	39.32	12.92	-59.5	-67.6	7.1	1.70e-01	0	46	0	134217728	60	94054
2026-01-29 03:51:13.68	38.71	13.17	-59.5	-68.4	6.5	1.93e-01	0	46	0	142606336	60	102659
2026-01-29 03:51:17.71	38.08	13.42	-57.9	-68.4	5.4	4.64e-01	0	46	0	149946368	60	102677
2026-01-29 03:51:21.74	37.44	13.67	-57.8	-69.1	5.0	5.49e-01	0	46	0	157286400	60	111612
2026-01-29 03:51:25.77	36.79	13.92	-59.9	-70.1	4.5	6.66e-01	0	46	0	164626432	60	124979
2026-01-29 03:51:29.79	36.13	14.16	-59.2	-70.1	4.2	7.74e-01	0	46	0	171966464	60	125573
2026-01-29 03:51:33.81	35.45	14.40	-56.7	-70.5	4.2	1.10e+00	0	46	0	180355072	60	130579
2026-01-29 03:51:37.84	34.77	14.65	-58.4	-72.7	4.1	1.45e+00	0	46	104	185597952	60	169506
2026-01-29 03:51:41.87	34.07	14.89	-58.2	-72.7	4.1	1.41e+00	0	46	104	185597952	60	169291
2026-01-29 03:51:45.90	33.37	15.13	-58.3	-72.4	3.7	1.43e+00	0	46	0	185597952	60	162627
2026-01-29 03:51:49.93	32.65	15.36	-55.8	-73.1	3.8	1.48e+00	0	46	104	185597952	60	176553
2026-01-29 03:51:53.97	31.92	15.60	-57.7	-73.8	3.6	1.46e+00	0	46	104	185597952	60	192065
2026-01-29 03:51:58.00	31.17	15.83	-58.7	-73.7	3.8	1.49e+00	0	46	104	185597952	60	189931
2026-01-29 03:52:02.02	30.42	16.06	-59.0	-73.7	3.9	1.49e+00	0	46	104	185597952	60	190195
2026-01-29 03:52:06.05	29.66	16.29	-60.2	-73.8	3.9	1.47e+00	0	46	104	185597952	60	191011
2026-01-29 03:52:10.07	28.88	16.51	-58.6	-73.6	3.6	1.43e+00	0	46	104	185597952	60	186945
2026-01-29 03:52:14.10	28.09	16.73	-55.1	-72.6	3.6	1.49e+00	0	46	104	185597952	60	167887
2026-01-29 03:52:18.12	27.29	16.94	-52.5	-73.2	3.8	1.47e+00	0	46	104	185597952	60	179532
2026-01-29 03:52:22.15	26.48	17.15	-50.9	-72.1	3.6	1.49e+00	0	46	104	185597952	60	157582
2026-01-29 03:52:26.17	25.66	17.36	-48.1	-71.4	3.6	1.51e+00	0	46	104	185597952	60	145608
2026-01-29 03:52:30.20	24.82	17.56	-55.8	-76.5	3.6	1.51e+00	0	46	104	185597952	60	263138
2026-01-29 03:52:34.23	23.98	17.76	-56.5	-74.7	3.6	1.51e+00	0	46	104	185597952	60	213512
2026-01-29 03:52:38.26	23.12	17.96	-56.1	-75.8	3.6	1.51e+00	0	46	104	185597952	60	242370
2026-01-29 03:52:42.28	22.25	18.14	-58.1	-76.2	3.6	1.51e+00	0	46	104	185597952	60	253709
2026-01-29 03:52:46.31	21.38	18.33	-56.7	-75.2	3.6	1.51e+00	0	46	104	185597952	60	224248
2026-01-29 03:52:50.34	20.49	18.50	-57.0	-76.0	3.5	1.51e+00	0	46	104	185597952	60	247951
2026-01-29 03:52:54.35	19.59	18.67	-57.6	-76.8	3.6	1.51e+00	0	46	104	185597952	60	270535
2026-01-29 03:52:58.38	18.68	18.84	-52.0	-71.7	3.6	1.51e+00	0	46	104	185597952	60	150440
2026-01-29 03:53:02.41	17.76	18.99	-53.8	-72.9	3.6	1.51e+00	0	46	104	185597952	60	172811
2026-01-29 03:53:06.44	16.83	19.15	-54.9	-73.4	3.6	1.51e+00	0	46	104	185597952	60	183783
2026-01-29 03:53:10.47	15.89	19.29	-57.1	-75.6	3.6	1.51e+00	0	46	104	185597952	60	236003
2026-01-29 03:53:14.50	14.95	19.43	-53.2	-75.1	3.5	1.51e+00	0	46	104	185597952	60	221694
2026-01-29 03:53:18.54	13.99	19.55	-58.8	-75.4	3.6	1.51e+00	0	46	104	185597952	60	231515
2026-01-29 03:53:22.56	13.03	19.68	-59.2	-76.1	3.6	1.51e+00	0	46	104	185597952	60	248862
2026-01-29 03:53:26.59	12.06	19.79	-55.7	-76.4	3.6	1.51e+00	0	46	104	185597952	60	257544
2026-01-29 03:53:30.62	11.08	19.89	-54.2	-74.8	3.6	1.51e+00	0	46	104	185597952	60	214087
2026-01-29 03:53:34.64	10.10	19.99	-60.3	-77.1	3.5	1.51e+00	0	46	104	185597952	60	280215
2026-01-29 03:53:38.67	9.11	20.08	-58.4	-76.3	3.6	1.51e+00	0	46	104	185597952	60	256478
2026-01-29 03:53:42.68	8.12	20.16	-58.0	-76.2	3.6	1.51e+00	0	46	104	185597952	60	252917
2026-01-29 03:53:46.70	7.12	20.23	-58.9	-76.6	3.6	1.51e+00	0	46	104	185597952	60	263535
2026-01-29 03:53:50.72	6.12	20.29	-56.8	-76.9	3.6	1.51e+00	0	46	104	185597952	60	274529
2026-01-29 03:53:54.75	5.11	20.34	-56.4	-76.5	3.6	1.51e+00	0	46	104	185597952	60	262586
2026-01-29 03:53:58.76	4.10	20.38	-59.6	-77.0	3.6	1.51e+00	0	46	104	185597952	60	275895
2026-01-29 03:54:02.75	3.10	20.42	-56.0	-75.8	3.6	1.51e+00	0	46	104	185597952	60	242657
2026-01-29 03:54:06.78	2.08	20.44	-58.3	-76.1	3.6	1.51e+00	0	46	104	185597952	60	250903
2026-01-29 03:54:10.81	1.06	20.45	-58.8	-76.5	3.6	1.51e+00	0	46	104	185597952	60	262283
2026-01-29 03:54:14.83	0.05	20.46	-59.2	-76.6	3.6	1.51e+00	0	46	104	185597952	60	264885
2026-01-29 03:54:18.85	359.03	20.45	-58.6	-76.1	3.6	1.51e+00	0	46	104	185597952	60	250083
2026-01-29 03:54:22.88	358.01	20.44	-59.2	-76.5	3.6	1.51e+00	0	46	104	185597952	60	261337
2026-01-29 03:54:26.91	357.00	20.42	-60.4	-76.9	3.6	1.51e+00	0	46	104	185597952	60	273787
2026-01-29 03:54:30.93	355.99	20.38	-60.0	-76.6	3.6	1.51e+00	0	46	104	185597952	60	263923
2026-01-29 03:54:34.95	354.98	20.34	-60.1	-76.7	3.6	1.51e+00	0	46	104	185597952	60	269371
2026-01-29 03:54:38.98	353.97	20.29	-59.6	-76.6	3.6	1.51e+00	0	46	104	185597952	60	265165
2026-01-29 03:54:43.01	352.96	20.23	-58.9	-76.0	3.6	1.51e+00	0	46	104	185597952	60	245824
2026-01-29 03:54:47.04	351.96	20.16	-59.3	-76.9	3.6	1.51e+00	0	46	104	185597952	60	273313
2026-01-29 03:54:51.05	350.97	20.08	-59.5	-76.9	3.6	1.51e+00	0	46	104	185597952	60	272969
2026-01-29 03:54:55.07	349.98	19.99	-59.1	-76.1	3.6	1.51e+00	0	46	104	185597952	60	249904
2026-01-29 03:54:59.10	349.00	19.90	-59.4	-76.4	3.6	1.51e+00	0	46	104	185597952	60	260009
2026-01-29 03:55:03.13	348.02	19.79	-58.6	-76.1	3.6	1.51e+00	0	46	104	185597952	60	249164
2026-01-29 03:55:07.16	347.05	19.68	-60.4	-76.9	3.6	1.51e+00	0	46	104	185597952	60	272772
2026-01-29 03:55:11.19	346.09	19.56	-60.0	-76.6	3.6	1.51e+00	0	46	104	185597952	60	263849
2026-01-29 03:55:15.23	345.13	19.43	-60.2	-76.8	3.6	1.51e+00	0	46	104	185597952	60	269892
2026-01-29 03:55:19.26	344.18	19.29	-60.2	-76.8	3.6	1.51e+00	0	46	104	185597952	60	272135
2026-01-29 03:55:23.29	343.25	19.15	-60.4	-76.9	3.5	1.51e+00	0	46	104	185597952	60	272672
2026-01-29 03:55:27.31	342.32	19.00	-60.0	-76.9	3.6	1.51e+00	0	46	104	185597952	60	273226
2026-01-29 03:55:31.35	341.40	18.84	-60.3	-76.8	3.6	1.51e+00	0	46	104	185597952	60	271911
2026-01-29 03:55:35.38	340.49	18.68	-60.0	-76.6	3.5	1.51e+00	0	46	104	185597952	60	263820
2026-01-29 03:55:39.40	339.59	18.51	-60.1	-76.8	3.6	1.51e+00	0	46	104	185597952	60	271125
2026-01-29 03:55:43.43	338.70	18.33	-60.1	-76.7	3.6	1.51e+00	0	46	104	185597952	60	267908
2026-01-29 03:55:47.45	337.82	18.15	-60.2	-76.8	3.6	1.51e+00	0	46	104	185597952	60	271902
2026-01-29 03:55:51.48	336.95	17.96	-59.2	-76.7	3.6	1.51e+00	0	46	104	185597952	60	266598
2026-01-29 03:55:55.50	336.10	17.77	-58.5	-76.5	3.6	1.51e+00	0	46	104	185597952	60	261736
2026-01-29 03:55:59.53	335.25	17.57	-59.4	-76.6	3.6	1.51e+00	0	46	104	185597952	60	265077
2026-01-29 03:56:03.56	334.42	17.37	-60.2	-76.7	3.6	1.51e+00	0	46	104	185597952	60	269394
2026-01-29 03:56:07.59	333.59	17.16	-58.9	-76.0	3.6	1.51e+00	0	46	104	185597952	60	247277
2026-01-29 03:56:11.62	332.78	16.95	-59.7	-76.7	3.6	1.51e+00	0	46	104	185597952	60	266693
2026-01-29 03:56:15.64	331.98	16.73	-59.8	-76.7	3.6	1.51e+00	0	46	104	185597952	60	267020
2026-01-29 03:56:19.67	331.19	16.51	-60.0	-76.6	3.6	1.51e+00	0	46	104	185597952	60	264127
2026-01-29 03:56:23.70	330.42	16.29	-59.5	-76.3	3.6	1.51e+00	0	46	104	185597952	60	256410
2026-01-29 03:56:27.72	329.65	16.06	-59.6	-76.7	3.6	1.51e+00	0	46	104	185597952	60	266972
2026-01-29 03:56:31.74	328.90	15.84	-59.8	-76.6	3.6	1.51e+00	0	46	104	185597952	60	265207
2026-01-29 03:56:35.75	328.16	15.61	-59.4	-76.6	3.6	1.51e+00	0	46	104	185597952	60	265564
2026-01-29 03:56:39.76	327.44	15.37	-59.3	-76.6	3.6	1.51e+00	0	46	104	185597952	60	264107
2026-01-29 03:56:43.79	326.72	15.14	-59.8	-76.4	3.6	1.51e+00	0	46	104	185597952	60	258716
2026-01-29 03:56:47.80	326.01	14.90	-59.0	-76.2	3.6	1.51e+00	0	46	104	185597952	60	253788
2026-01-29 03:56:51.83	325.32	14.66	-59.6	-76.4	3.6	1.51e+00	0	46	104	185597952	60	258608
2026-01-29 03:56:55.85	324.63	14.42	-59.7	-76.3	3.6	1.51e+00	0	46	104	185597952	60	256766
2026-01-29 03:56:59.88	323.96	14.17	-59.5	-76.2	3.6	1.51e+00	0	46	104	185597952	60	251935
2026-01-29 03:57:03.88	323.30	13.93	-58.6	-75.9	3.6	1.51e+00	0	46	104	185597952	60	244691
2026-01-29 03:57:07.90	322.65	13.68	-59.9	-76.4	3.6	1.51e+00	0	46	104	185597952	60	258071
2026-01-29 03:57:11.93	322.01	13.43	-59.8	-76.4	3.6	1.51e+00	0	47	104	185597952	60	257430
2026-01-29 03:57:15.95	321.38	13.18	-59.9	-76.3	3.6	1.51e+00	0	46	104	185597952	60	256248
2026-01-29 03:57:19.97	320.77	12.93	-59.5	-76.2	3.6	1.51e+00	0	46	104	185597952	60	252917
2026-01-29 03:57:24.00	320.16	12.68	-59.0	-76.0	3.6	1.51e+00	0	46	104	185597952	60	246175
2026-01-29 03:57:28.03	319.56	12.43	-59.0	-76.1	3.6	1.51e+00	0	46	104	185597952	60	249267
2026-01-29 03:57:32.05	318.98	12.18	-57.3	-75.2	3.6	1.51e+00	0	46	104	185597952	60	225764
2026-01-29 03:57:36.07	318.40	11.93	-57.2	-75.9	3.6	1.51e+00	0	46	104	185597952	60	243575
2026-01-29 03:57:40.11	317.83	11.68	-58.5	-75.8	3.6	1.51e+00	0	46	104	185597952	60	240928
2026-01-29 03:57:44.14	317.27	11.43	-56.8	-75.6	3.6	1.51e+00	0	47	104	185597952	60	237335
2026-01-29 03:57:48.17	316.73	11.17	-59.3	-75.9	3.6	1.51e+00	0	47	104	185597952	60	245087
2026-01-29 03:57:52.19	316.19	10.92	-59.1	-76.0	3.6	1.51e+00	0	46	104	185597952	60	247118
2026-01-29 03:57:56.21	315.66	10.67	-59.4	-75.9	3.6	1.51e+00	0	46	104	185597952	60	245315
2026-01-29 03:58:00.24	315.14	10.42	-58.3	-76.0	3.6	1.51e+00	0	46	104	185597952	60	248391
2026-01-29 03:58:04.27	314.63	10.17	-58.4	-76.0	3.6	1.51e+00	0	46	104	185597952	60	246114
2026-01-29 03:58:08.30	314.13	9.91	-58.7	-75.9	3.6	1.51e+00	0	46	104	185597952	60	244857
2026-01-29 03:58:12.32	313.64	9.66	-58.7	-75.9	3.6	1.51e+00	0	46	104	185597952	60	244242
2026-01-29 03:58:16.35	313.15	9.41	-58.8	-75.8	3.6	1.51e+00	0	46	104	185597952	60	242329
2026-01-29 03:58:20.38	312.68	9.16	-59.0	-75.8	3.6	1.51e+00	0	46	104	185597952	60	242396
2026-01-29 03:58:24.41	312.21	8.91	-58.9	-75.5	3.6	1.51e+00	0	46	104	185597952	60	232198
2026-01-29 03:58:28.43	311.75	8.67	-58.8	-75.3	3.6	1.51e+00	0	46	104	185597952	60	226912
2026-01-29 03:58:32.45	311.30	8.42	-58.8	-75.3	3.6	1.51e+00	0	46	104	185597952	60	228113
2026-01-29 03:58:36.48	310.86	8.17	-58.5	-75.0	3.6	1.51e+00	0	46	104	185597952	60	221271
2026-01-29 03:58:40.51	310.42	7.93	-58.7	-75.2	3.6	1.51e+00	0	46	104	185597952	60	224862
2026-01-29 03:58:44.54	309.99	7.68	-58.3	-75.1	3.6	1.51e+00	0	46	104	185597952	60	223632
2026-01-29 03:58:48.57	309.57	7.44	-58.3	-74.9	3.6	1.51e+00	0	46	104	185597952	60	218596
2026-01-29 03:58:52.60	309.16	7.19	-58.0	-75.0	3.6	1.51e+00	0	46	104	185597952	60	220304
2026-01-29 03:58:56.63	308.75	6.95	-58.7	-75.6	3.6	1.51e+00	0	46	104	185597952	60	237254
2026-01-29 03:59:00.63	308.35	6.71	-57.9	-74.9	3.6	1.51e+00	0	46	104	185597952	60	217947
2026-01-29 03:59:04.65	307.96	6.47	-57.7	-74.8	3.6	1.51e+00	0	46	104	185597952	60	214445
2026-01-29 03:59:08.68	307.58	6.23	-57.6	-74.6	3.6	1.51e+00	0	46	104	185597952	60	209499
2026-01-29 03:59:12.71	307.20	5.99	-57.0	-74.0	3.6	1.51e+00	0	46	104	185597952	60	196656
2026-01-29 03:59:16.73	306.82	5.75	-59.8	-76.9	3.6	1.51e+00	0	46	104	185597952	60	272789
2026-01-29 03:59:20.76	306.46	5.51	-60.2	-77.2	3.6	1.51e+00	0	46	104	185597952	60	284042
2026-01-29 03:59:24.80	306.09	5.28	-60.6	-77.6	3.6	1.51e+00	0	47	104	185597952	60	298707
2026-01-29 03:59:28.83	305.74	5.04	-60.0	-78.2	3.6	1.51e+00	0	46	104	185597952	60	319642
2026-01-29 03:59:32.85	305.39	4.81	-60.9	-78.8	3.6	1.51e+00	0	46	104	185597952	60	339700
2026-01-29 03:59:36.88	305.05	4.58	-60.4	-78.4	3.6	1.51e+00	0	46	104	185597952	60	326920
2026-01-29 03:59:40.91	304.71	4.34	-60.5	-78.5	3.6	1.51e+00	0	46	104	185597952	60	329658
2026-01-29 03:59:44.94	304.38	4.11	-60.6	-78.5	3.6	1.51e+00	0	46	104	185597952	60	328015
2026-01-29 03:59:48.96	304.05	3.88	-60.4	-78.4	3.6	1.51e+00	0	46	104	185597952	60	326566
2026-01-29 03:59:52.98	303.73	3.65	-60.5	-78.5	3.6	1.51e+00	0	46	104	185597952	60	327942
2026-01-29 03:59:57.01	303.41	3.43	-60.5	-78.4	3.6	1.51e+00	0	47	104	185597952	60	326056
2026-01-29 04:00:01.04	303.10	3.20	-60.6	-78.3	3.6	1.51e+00	0	46	104	185597952	60	323812
2026-01-29 04:00:05.07	302.79	2.97	-60.6	-78.4	3.6	1.51e+00	0	46	104	185597952	60	326758
2026-01-29 04:00:09.09	302.49	2.75	-60.5	-78.3	3.6	1.51e+00	0	46	104	185597952	60	320594
2026-01-29 04:00:13.12	302.20	2.53	-60.4	-78.2	3.6	1.51e+00	0	46	104	185597952	60	319864
2026-01-29 04:00:17.15	301.90	2.30	-60.3	-78.3	3.6	1.51e+00	0	46	104	185597952	60	322890
2026-01-29 04:00:21.17	301.62	2.08	-60.3	-78.1	3.6	1.51e+00	0	46	104	185597952	60	315565
2026-01-29 04:00:25.19	301.33	1.86	-60.2	-78.1	3.6	1.51e+00	0	46	104	185597952	60	315881
2026-01-29 04:00:29.21	301.05	1.64	-60.2	-78.2	3.6	1.51e+00	0	46	104	185597952	60	317881
2026-01-29 04:00:33.24	300.78	1.43	-60.2	-78.0	3.6	1.51e+00	0	46	104	185597952	60	312593
2026-01-29 04:00:37.27	300.51	1.21	-60.2	-78.0	3.6	1.51e+00	0	46	104	185597952	60	312626
2026-01-29 04:00:41.29	300.24	0.99	-60.1	-78.0	3.6	1.51e+00	0	46	104	185597952	60	310733
2026-01-29 04:00:45.33	299.98	0.78	-60.1	-78.0	3.6	1.51e+00	0	46	104	185597952	60	311040
2026-01-29 04:00:49.36	299.72	0.56	-60.1	-78.1	3.6	1.51e+00	0	46	104	185597952	60	315069
2026-01-29 04:00:53.38	299.47	0.35	-60.1	-78.0	3.6	1.51e+00	0	46	104	185597952	60	312571
2026-01-29 04:00:57.39	299.22	0.14	-60.1	-78.0	3.6	1.51e+00	0	46	104	185597952	60	310108

#Closed at: 2026-01-29 04:01:01
#Recorded file [185 MB]: D:/Data/35015_260129_065613.dat