passes_logs/2026/01/29/R3.2S-Naryan-Mar/R3.2S-Naryan-Mar__20260129_195813_NOAA_21_JPSS-2_rec.log

#Pass ID: 20260129_195813_NOAA 21 (JPSS-2)
#Satellite: NOAA 21 (JPSS-2)
#Configuration: NOAA-21
#almurnet v.1.7.20240730
#Start time: 2026-01-29 19:58:15

#Version: 2.2.20231116
#Station: R3.2S-Naryan-Mar
#Location: 53.008057 lon 67.646978 lat
#TLE: 1 54234U 22150A   26028.89828222  .00000145  00000+0  89569-4 0  9997
#TLE: 2 54234  98.7511 329.6308 0000927 198.8651 161.2491 14.19540676166783

#Time	Az	El	Level	Level2	SNR	BER	BlckErr	Temp	State	Recorded	gain1	gain2
2026-01-29 19:58:15.46	16.15	0.07	-58.6	-71.5	3.5	8.45e-01	0	43	0	0	60	147001
2026-01-29 19:58:18.47	16.42	0.20	-60.2	-75.4	3.5	1.52e+00	0	45	104	0	60	222751
2026-01-29 19:58:21.49	16.68	0.33	-58.7	-75.4	3.5	1.51e+00	0	45	104	0	60	223879
2026-01-29 19:58:24.51	16.96	0.46	-60.3	-75.0	3.5	1.51e+00	0	45	104	0	60	214529
2026-01-29 19:58:27.54	17.23	0.59	-59.1	-75.0	3.5	1.52e+00	0	45	104	0	60	214874
2026-01-29 19:58:30.56	17.51	0.72	-57.7	-73.3	3.7	1.52e+00	0	45	104	0	60	176321
2026-01-29 19:58:33.58	17.78	0.86	-54.2	-73.0	3.6	1.50e+00	0	45	104	0	60	169321
2026-01-29 19:58:36.59	18.06	0.99	-51.5	-70.1	4.1	1.50e+00	0	45	104	0	60	122207
2026-01-29 19:58:39.60	18.35	1.12	-56.3	-71.6	3.7	1.51e+00	0	45	104	0	60	144281
2026-01-29 19:58:42.63	18.63	1.25	-58.8	-74.0	3.5	1.51e+00	0	45	104	0	60	191048
2026-01-29 19:58:45.65	18.92	1.38	-59.1	-73.8	3.5	1.51e+00	0	45	104	0	60	186737
2026-01-29 19:58:48.68	19.21	1.51	-54.6	-71.1	3.8	1.51e+00	0	45	104	0	60	135995
2026-01-29 19:58:51.70	19.50	1.64	-49.6	-67.0	4.3	1.45e+00	0	45	104	0	60	85203
2026-01-29 19:58:54.72	19.80	1.77	-49.5	-67.8	4.2	1.50e+00	0	45	104	0	60	92963
2026-01-29 19:58:57.74	20.09	1.91	-49.4	-68.7	4.2	1.50e+00	0	45	104	0	60	103822
2026-01-29 19:59:00.75	20.39	2.04	-49.4	-68.5	4.2	1.50e+00	0	45	104	0	60	101739
2026-01-29 19:59:03.78	20.70	2.17	-49.5	-68.7	4.2	1.50e+00	0	45	104	0	60	103298
2026-01-29 19:59:06.80	21.00	2.30	-49.1	-68.4	4.3	1.50e+00	0	46	104	0	60	100222
2026-01-29 19:59:09.82	21.31	2.43	-49.2	-68.5	4.2	1.50e+00	0	46	104	0	60	101525
2026-01-29 19:59:12.84	21.62	2.56	-49.8	-69.0	4.1	1.50e+00	0	46	104	0	60	107522
2026-01-29 19:59:15.87	21.93	2.69	-50.0	-67.3	4.2	1.50e+00	0	46	104	0	60	87819
2026-01-29 19:59:18.89	22.25	2.82	-50.1	-67.4	4.1	1.50e+00	0	46	104	0	60	89373
2026-01-29 19:59:21.92	22.57	2.96	-50.1	-67.5	4.1	1.50e+00	0	46	104	0	60	89967
2026-01-29 19:59:24.93	22.88	3.09	-50.1	-67.4	4.1	1.50e+00	0	46	104	0	60	89429
2026-01-29 19:59:27.95	23.21	3.22	-50.1	-68.3	4.1	1.50e+00	0	46	104	0	60	98391
2026-01-29 19:59:30.95	23.53	3.35	-49.9	-67.2	4.1	1.50e+00	0	45	104	0	60	87046
2026-01-29 19:59:33.97	23.86	3.48	-49.9	-67.2	4.1	1.50e+00	0	46	104	0	60	87079
2026-01-29 19:59:37.00	24.19	3.61	-50.0	-68.1	4.0	1.50e+00	0	46	104	0	60	96580
2026-01-29 19:59:40.02	24.53	3.74	-49.9	-67.3	4.2	1.50e+00	0	46	104	0	60	87798
2026-01-29 19:59:43.03	24.86	3.87	-50.1	-67.3	4.2	1.50e+00	0	46	104	0	60	87972
2026-01-29 19:59:46.05	25.20	4.00	-50.2	-68.3	4.1	1.50e+00	0	46	104	0	60	98826
2026-01-29 19:59:49.07	25.55	4.13	-50.4	-67.6	4.2	1.50e+00	0	46	104	0	60	90983
2026-01-29 19:59:52.10	25.89	4.26	-50.5	-67.5	4.1	1.50e+00	0	46	104	0	60	90586
2026-01-29 19:59:55.12	26.24	4.39	-50.3	-69.2	4.0	1.50e+00	0	46	104	0	60	109760
2026-01-29 19:59:58.15	26.60	4.52	-50.4	-69.0	4.1	1.50e+00	0	46	104	0	60	106929
2026-01-29 20:00:01.17	26.95	4.65	-50.4	-67.6	4.1	1.50e+00	0	46	104	0	60	91289
2026-01-29 20:00:04.18	27.31	4.78	-50.5	-67.7	4.1	1.50e+00	0	46	104	0	60	92453
2026-01-29 20:00:07.21	27.67	4.90	-50.4	-67.8	4.1	1.50e+00	0	46	104	0	60	93059
2026-01-29 20:00:10.22	28.03	5.03	-50.5	-68.5	4.1	1.50e+00	0	46	104	0	60	101472
2026-01-29 20:00:13.24	28.40	5.16	-50.6	-68.1	4.1	1.50e+00	0	46	104	0	60	96139
2026-01-29 20:00:16.26	28.77	5.29	-50.6	-69.5	4.0	1.51e+00	0	46	104	0	60	113275
2026-01-29 20:00:19.28	29.14	5.41	-50.6	-68.6	4.1	1.50e+00	0	46	104	0	60	102485
2026-01-29 20:00:22.30	29.52	5.54	-50.7	-67.7	4.0	1.50e+00	0	46	104	0	60	91927
2026-01-29 20:00:25.32	29.90	5.67	-50.7	-67.3	3.9	1.51e+00	0	46	104	0	60	87855
2026-01-29 20:00:28.34	30.28	5.79	-50.6	-63.6	5.2	1.04e+00	0	46	104	0	60	57603
2026-01-29 20:00:31.36	30.67	5.92	-49.8	-56.4	11.3	1.60e-03	0	46	0	6291456	60	25032
2026-01-29 20:00:34.38	31.06	6.04	-49.4	-54.9	12.8	1.22e-05	0	46	0	16777216	60	21081
2026-01-29 20:00:37.40	31.45	6.17	-50.1	-57.8	10.0	1.13e-03	0	46	0	26214400	60	29470
2026-01-29 20:00:40.42	31.84	6.29	-51.6	-54.3	16.4	0.00e+00	0	46	0	35651584	60	19679
2026-01-29 20:00:43.44	32.24	6.42	-52.1	-54.2	16.7	0.00e+00	0	46	0	44040192	60	19516
2026-01-29 20:00:46.47	32.64	6.54	-49.9	-54.1	14.1	0.00e+00	0	46	0	53477376	60	19324
2026-01-29 20:00:49.48	33.05	6.66	-51.5	-54.2	16.1	0.00e+00	0	46	0	63963136	60	19547
2026-01-29 20:00:52.49	33.46	6.78	-52.0	-54.3	18.1	0.00e+00	0	46	0	73400320	60	19758
2026-01-29 20:00:55.51	33.87	6.90	-52.6	-54.5	17.5	0.00e+00	0	46	0	82837504	60	20217
2026-01-29 20:00:58.53	34.28	7.02	-51.7	-54.2	18.2	0.00e+00	0	46	0	91226112	60	19539
2026-01-29 20:01:01.55	34.70	7.14	-51.6	-54.1	17.8	0.00e+00	0	46	0	100663296	60	19251
2026-01-29 20:01:04.57	35.12	7.26	-50.7	-54.1	17.0	0.00e+00	0	46	0	110100480	60	19315
2026-01-29 20:01:07.58	35.55	7.38	-52.3	-54.1	18.3	0.00e+00	0	46	0	120586240	60	19263
2026-01-29 20:01:10.60	35.97	7.50	-51.1	-54.0	16.8	0.00e+00	0	46	0	130023424	60	19094
2026-01-29 20:01:13.62	36.41	7.61	-51.0	-53.9	16.7	0.00e+00	0	46	0	139460608	60	18932
2026-01-29 20:01:16.64	36.84	7.73	-50.9	-54.2	16.4	0.00e+00	0	46	0	147849216	60	19439
2026-01-29 20:01:19.66	37.28	7.84	-51.4	-54.0	17.8	0.00e+00	0	46	0	157286400	60	19071
2026-01-29 20:01:22.68	37.72	7.96	-52.5	-54.3	18.0	0.00e+00	0	46	0	167772160	60	19769
2026-01-29 20:01:25.70	38.17	8.07	-52.0	-53.9	18.4	0.00e+00	0	46	0	177209344	60	18752
2026-01-29 20:01:28.72	38.61	8.18	-51.4	-53.8	16.2	0.00e+00	0	46	0	186646528	60	18569
2026-01-29 20:01:31.74	39.07	8.29	-51.9	-53.6	18.6	0.00e+00	0	46	0	195035136	60	18133
2026-01-29 20:01:34.76	39.52	8.40	-51.7	-53.5	19.2	0.00e+00	0	46	0	204472320	60	17975
2026-01-29 20:01:37.78	39.98	8.51	-51.2	-53.4	18.0	0.00e+00	0	46	0	214958080	60	17719
2026-01-29 20:01:40.79	40.44	8.62	-50.9	-53.8	17.9	0.00e+00	0	46	0	224395264	60	18556
2026-01-29 20:01:43.81	40.90	8.73	-51.7	-53.8	18.3	0.00e+00	0	46	0	233832448	60	18619
2026-01-29 20:01:46.83	41.37	8.83	-51.9	-53.8	17.9	0.00e+00	0	46	0	242221056	60	18733
2026-01-29 20:01:49.85	41.84	8.94	-52.1	-53.8	19.0	0.00e+00	0	46	0	251658240	60	18564
2026-01-29 20:01:52.87	42.32	9.04	-51.4	-53.2	19.1	0.00e+00	0	46	0	262144000	60	17381
2026-01-29 20:01:55.89	42.80	9.14	-51.4	-53.2	18.5	0.00e+00	0	46	0	271581184	60	17487
2026-01-29 20:01:58.91	43.28	9.24	-51.9	-53.7	18.9	0.00e+00	0	46	0	281018368	60	18332
2026-01-29 20:02:01.94	43.76	9.34	-51.8	-53.5	19.0	0.00e+00	0	46	0	289406976	60	18044
2026-01-29 20:02:04.96	44.25	9.44	-51.2	-53.4	18.3	0.00e+00	0	46	0	298844160	60	17725
2026-01-29 20:02:07.99	44.74	9.54	-51.3	-53.3	18.5	0.00e+00	0	46	0	309329920	60	17615
2026-01-29 20:02:11.01	45.24	9.63	-51.4	-53.4	17.8	0.00e+00	0	46	0	318767104	60	17813
2026-01-29 20:02:14.03	45.73	9.72	-51.7	-53.7	17.9	0.00e+00	0	46	0	328204288	60	18490
2026-01-29 20:02:17.05	46.23	9.82	-52.1	-53.8	19.1	0.00e+00	0	46	0	336592896	60	18531
2026-01-29 20:02:20.06	46.73	9.91	-52.0	-53.7	18.8	0.00e+00	0	46	0	346030080	60	18315
2026-01-29 20:02:23.08	47.24	9.99	-52.1	-53.7	19.1	0.00e+00	0	46	0	356515840	60	18460
2026-01-29 20:02:26.10	47.75	10.08	-51.7	-53.4	19.2	0.00e+00	0	46	0	365953024	60	17862
2026-01-29 20:02:29.12	48.26	10.17	-51.5	-53.3	19.4	0.00e+00	0	46	0	375390208	60	17556
2026-01-29 20:02:32.13	48.77	10.25	-51.8	-53.6	18.9	0.00e+00	0	46	0	383778816	60	18248
2026-01-29 20:02:35.15	49.29	10.33	-51.7	-53.7	18.4	0.00e+00	0	46	0	393216000	60	18422
2026-01-29 20:02:38.17	49.81	10.41	-51.8	-53.5	19.1	0.00e+00	0	46	0	403701760	60	18045
2026-01-29 20:02:41.19	50.34	10.49	-51.9	-53.6	19.2	0.00e+00	0	46	0	413138944	60	18306
2026-01-29 20:02:44.20	50.86	10.57	-52.2	-53.8	19.3	0.00e+00	0	46	0	422576128	60	18577
2026-01-29 20:02:47.22	51.39	10.64	-51.8	-53.5	19.1	0.00e+00	0	46	0	430964736	60	18039
2026-01-29 20:02:50.24	51.92	10.71	-51.8	-53.6	19.2	0.00e+00	0	46	0	440401920	60	18159
2026-01-29 20:02:53.26	52.45	10.79	-51.5	-53.4	19.3	0.00e+00	0	46	0	449839104	60	17851
2026-01-29 20:02:56.28	52.99	10.85	-51.6	-53.3	19.3	0.00e+00	0	46	0	460324864	60	17505
2026-01-29 20:02:59.31	53.53	10.92	-51.5	-53.4	18.4	0.00e+00	0	46	0	469762048	60	17783
2026-01-29 20:03:02.33	54.07	10.99	-51.9	-53.6	19.2	0.00e+00	0	46	0	478150656	60	18157
2026-01-29 20:03:05.35	54.61	11.05	-52.0	-53.7	19.2	0.00e+00	0	46	0	487587840	60	18341
2026-01-29 20:03:08.37	55.16	11.11	-51.8	-53.5	19.3	0.00e+00	0	46	0	498073600	60	17973
2026-01-29 20:03:11.39	55.71	11.17	-51.8	-53.8	18.6	0.00e+00	0	46	0	507510784	60	18591
2026-01-29 20:03:14.41	56.26	11.22	-52.6	-54.3	18.8	0.00e+00	0	46	0	516947968	60	19736
2026-01-29 20:03:17.43	56.81	11.28	-52.1	-54.2	17.5	0.00e+00	0	46	0	525336576	60	19543
2026-01-29 20:03:20.44	57.36	11.33	-51.8	-53.4	19.5	0.00e+00	0	46	0	534773760	60	17764
2026-01-29 20:03:23.46	57.92	11.38	-49.6	-53.0	16.7	0.00e+00	0	46	0	544210944	60	17071
2026-01-29 20:03:26.47	58.47	11.42	-50.0	-53.2	16.6	0.00e+00	0	46	0	553648128	60	17450
2026-01-29 20:03:29.49	59.03	11.47	-51.7	-53.8	18.4	0.00e+00	0	46	0	564133888	60	18541
2026-01-29 20:03:32.51	59.59	11.51	-52.1	-53.7	19.1	0.00e+00	0	46	0	572522496	60	18376
2026-01-29 20:03:35.53	60.16	11.55	-52.0	-53.7	19.2	0.00e+00	0	46	0	581959680	60	18512
2026-01-29 20:03:38.55	60.72	11.59	-52.7	-54.3	19.3	0.00e+00	0	46	0	591396864	60	19802
2026-01-29 20:03:41.55	61.28	11.62	-51.5	-54.2	17.8	0.00e+00	0	46	0	600834048	60	19544
2026-01-29 20:03:44.57	61.85	11.66	-52.7	-54.4	19.6	0.00e+00	0	46	0	610271232	60	20025
2026-01-29 20:03:47.59	62.41	11.69	-52.0	-54.1	18.4	0.00e+00	0	46	0	619708416	60	19212
2026-01-29 20:03:50.60	62.98	11.71	-51.5	-54.2	17.3	0.00e+00	0	46	0	629145600	60	19572
2026-01-29 20:03:53.61	63.55	11.74	-52.4	-54.0	19.7	0.00e+00	0	46	0	638582784	60	19169
2026-01-29 20:03:56.63	64.12	11.76	-52.7	-54.3	19.7	0.00e+00	0	46	0	648019968	60	19672
2026-01-29 20:03:59.64	64.69	11.78	-51.6	-54.2	17.3	0.00e+00	0	46	0	657457152	60	19442
2026-01-29 20:04:02.66	65.26	11.80	-52.7	-54.2	19.7	0.00e+00	0	47	0	666894336	60	19609
2026-01-29 20:04:05.67	65.83	11.81	-52.9	-54.5	19.5	0.00e+00	0	46	0	676331520	60	20263
2026-01-29 20:04:08.70	66.41	11.83	-53.1	-54.8	19.7	0.00e+00	0	46	0	685768704	60	20803
2026-01-29 20:04:11.71	66.98	11.84	-52.7	-54.4	19.8	0.00e+00	0	46	0	695205888	60	19923
2026-01-29 20:04:14.72	67.55	11.84	-53.0	-54.5	19.8	0.00e+00	0	46	0	704643072	60	20283
2026-01-29 20:04:17.73	68.13	11.85	-53.1	-54.6	19.6	0.00e+00	0	46	0	714080256	60	20470
2026-01-29 20:04:20.75	68.70	11.85	-52.8	-54.6	19.3	0.00e+00	0	46	0	723517440	60	20384
2026-01-29 20:04:23.77	69.28	11.85	-52.7	-54.2	19.9	0.00e+00	0	46	0	732954624	60	19608
2026-01-29 20:04:26.78	69.85	11.85	-52.6	-54.2	19.8	0.00e+00	0	46	0	742391808	60	19445
2026-01-29 20:04:29.81	70.43	11.84	-52.6	-54.5	19.3	0.00e+00	0	46	0	751828992	60	20213
2026-01-29 20:04:32.82	71.00	11.83	-53.0	-54.5	19.7	0.00e+00	0	46	0	761266176	60	20301
2026-01-29 20:04:35.85	71.58	11.82	-52.6	-54.4	19.4	0.00e+00	0	46	0	770703360	60	19853
2026-01-29 20:04:38.87	72.15	11.81	-52.8	-54.3	19.6	0.00e+00	0	46	0	780140544	60	19793
2026-01-29 20:04:41.88	72.72	11.80	-52.8	-54.4	19.5	0.00e+00	0	46	0	789577728	60	20004
2026-01-29 20:04:44.90	73.29	11.78	-52.7	-54.3	19.6	0.00e+00	0	46	0	799014912	60	19783
2026-01-29 20:04:47.93	73.87	11.76	-52.9	-54.4	19.5	0.00e+00	0	46	0	808452096	60	20067
2026-01-29 20:04:50.95	74.44	11.73	-53.2	-54.7	19.8	0.00e+00	0	46	0	817889280	60	20586
2026-01-29 20:04:53.98	75.01	11.71	-53.0	-54.5	19.4	0.00e+00	0	46	0	827326464	60	20232
2026-01-29 20:04:57.00	75.58	11.68	-54.2	-55.9	19.4	0.00e+00	0	46	0	836763648	60	23711
2026-01-29 20:05:00.03	76.15	11.65	-53.9	-55.7	20.0	0.00e+00	0	46	0	846200832	60	23065
2026-01-29 20:05:03.04	76.71	11.61	-54.0	-55.5	19.4	0.00e+00	0	46	0	855638016	60	22784
2026-01-29 20:05:06.06	77.28	11.58	-53.9	-55.6	19.7	0.00e+00	0	46	0	865075200	60	22850
2026-01-29 20:05:09.08	77.84	11.54	-54.0	-55.6	19.6	0.00e+00	0	46	0	874512384	60	22809
2026-01-29 20:05:12.10	78.41	11.50	-54.2	-55.8	19.2	0.00e+00	0	46	0	883949568	60	23428
2026-01-29 20:05:15.12	78.97	11.46	-54.3	-56.1	18.9	0.00e+00	0	46	0	893386752	60	24294
2026-01-29 20:05:18.14	79.53	11.41	-53.9	-55.7	19.4	0.00e+00	0	46	0	902823936	60	23133
2026-01-29 20:05:21.16	80.09	11.36	-53.6	-55.5	18.9	0.00e+00	0	46	0	912261120	60	22569
2026-01-29 20:05:24.18	80.64	11.31	-53.6	-55.4	19.0	0.00e+00	0	46	0	921698304	60	22444
2026-01-29 20:05:27.20	81.20	11.26	-53.7	-55.3	19.6	0.00e+00	0	46	0	931135488	60	22219
2026-01-29 20:05:30.22	81.75	11.21	-53.8	-55.5	19.4	0.00e+00	0	46	0	940572672	60	22681
2026-01-29 20:05:33.25	82.30	11.15	-54.0	-55.6	19.2	0.00e+00	0	46	0	950009856	60	22810
2026-01-29 20:05:36.27	82.85	11.09	-53.5	-55.2	19.3	0.00e+00	0	46	0	959447040	60	21928
2026-01-29 20:05:39.29	83.40	11.03	-53.6	-55.2	19.6	0.00e+00	0	46	0	968884224	60	21879
2026-01-29 20:05:42.32	83.94	10.97	-53.6	-55.2	19.2	0.00e+00	0	46	0	978321408	60	21907
2026-01-29 20:05:45.34	84.49	10.90	-53.4	-55.0	19.3	0.00e+00	0	46	0	987758592	60	21409
2026-01-29 20:05:48.36	85.03	10.83	-53.5	-55.2	19.2	0.00e+00	0	46	0	997195776	60	21896
2026-01-29 20:05:51.38	85.56	10.76	-53.4	-55.1	19.5	0.00e+00	0	46	0	1006632960	60	21583
2026-01-29 20:05:54.40	86.10	10.69	-53.3	-55.0	19.6	0.00e+00	0	46	0	1016070144	60	21424
2026-01-29 20:05:57.43	86.63	10.62	-53.2	-55.0	19.5	0.00e+00	0	46	0	1025507328	60	21370
2026-01-29 20:06:00.45	87.16	10.54	-53.1	-55.2	19.3	0.00e+00	0	46	0	1034944512	60	22015
2026-01-29 20:06:03.47	87.69	10.47	-53.5	-55.5	18.8	0.00e+00	0	46	0	1044381696	60	22632
2026-01-29 20:06:06.49	88.21	10.39	-53.1	-55.0	19.6	0.00e+00	0	46	0	1053818880	60	21501
2026-01-29 20:06:09.51	88.73	10.31	-53.2	-54.9	19.6	0.00e+00	0	46	0	1063256064	60	21134
2026-01-29 20:06:12.53	89.25	10.22	-53.5	-55.2	19.0	0.00e+00	0	46	0	1072693248	60	21906
2026-01-29 20:06:15.56	89.77	10.14	-52.9	-55.2	17.8	0.00e+00	0	46	0	1082130432	60	22013
2026-01-29 20:06:18.58	90.28	10.05	-53.2	-55.4	18.4	0.00e+00	0	46	0	1091567616	60	22303
2026-01-29 20:06:21.60	90.79	9.96	-53.2	-55.2	19.2	0.00e+00	0	46	0	1101004800	60	21978
2026-01-29 20:06:24.62	91.30	9.87	-53.1	-55.1	18.7	0.00e+00	0	46	0	1110441984	60	21614
2026-01-29 20:06:27.64	91.80	9.78	-53.0	-55.1	18.9	0.00e+00	0	46	0	1119879168	60	21597
2026-01-29 20:06:30.67	92.31	9.69	-53.2	-55.3	19.0	0.00e+00	0	47	0	1129316352	60	22220
2026-01-29 20:06:33.69	92.80	9.60	-53.9	-55.7	18.9	0.00e+00	0	46	0	1138753536	60	23169
2026-01-29 20:06:36.71	93.30	9.50	-53.7	-55.5	18.6	0.00e+00	0	47	0	1148190720	60	22630
2026-01-29 20:06:39.73	93.79	9.40	-53.4	-55.5	17.0	0.00e+00	0	47	0	1157627904	60	22734
2026-01-29 20:06:42.75	94.28	9.30	-53.0	-55.3	16.8	0.00e+00	0	47	0	1167065088	60	22263
2026-01-29 20:06:45.77	94.77	9.20	-52.7	-55.1	18.2	0.00e+00	0	46	0	1176502272	60	21585
2026-01-29 20:06:48.80	95.25	9.10	-53.1	-55.2	18.5	0.00e+00	0	47	0	1185939456	60	21873
2026-01-29 20:06:51.82	95.73	9.00	-53.2	-55.3	18.2	0.00e+00	0	46	0	1195376640	60	22133
2026-01-29 20:06:54.83	96.20	8.89	-53.1	-55.4	18.1	0.00e+00	0	46	0	1204813824	60	22506
2026-01-29 20:06:57.85	96.67	8.79	-53.4	-55.6	17.6	0.00e+00	0	46	0	1214251008	60	22968
2026-01-29 20:07:00.88	97.14	8.68	-52.9	-55.9	16.9	0.00e+00	0	46	0	1224736768	60	23863
2026-01-29 20:07:03.90	97.61	8.57	-52.7	-55.3	17.2	0.00e+00	0	46	0	1233125376	60	22257
2026-01-29 20:07:06.92	98.07	8.46	-53.7	-55.5	18.8	0.00e+00	0	46	0	1242562560	60	22615
2026-01-29 20:07:09.93	98.53	8.36	-52.9	-55.7	17.5	0.00e+00	0	46	0	1251999744	60	23188
2026-01-29 20:07:12.95	98.99	8.24	-52.7	-55.6	16.2	0.00e+00	0	46	0	1261436928	60	23018
2026-01-29 20:07:15.97	99.44	8.13	-52.8	-55.9	17.1	0.00e+00	0	46	0	1270874112	60	23785
2026-01-29 20:07:18.99	99.89	8.02	-53.1	-55.9	16.9	0.00e+00	0	46	0	1280311296	60	23764
2026-01-29 20:07:22.02	100.33	7.90	-52.7	-55.9	16.2	0.00e+00	0	46	0	1289748480	60	23615
2026-01-29 20:07:25.03	100.78	7.79	-52.5	-55.8	15.8	0.00e+00	0	46	0	1299185664	60	23526
2026-01-29 20:07:28.05	101.21	7.67	-52.6	-55.9	16.7	0.00e+00	0	47	0	1308622848	60	23662
2026-01-29 20:07:31.06	101.65	7.56	-53.3	-56.0	15.9	0.00e+00	0	47	0	1318060032	60	24030
2026-01-29 20:07:34.08	102.08	7.44	-53.1	-55.9	16.4	0.00e+00	0	47	0	1327497216	60	23767
2026-01-29 20:07:37.11	102.51	7.32	-53.3	-56.0	16.8	0.00e+00	0	47	0	1336934400	60	23993
2026-01-29 20:07:40.12	102.94	7.20	-53.2	-56.1	16.4	0.00e+00	0	47	0	1346371584	60	24399
2026-01-29 20:07:43.15	103.36	7.08	-53.2	-56.0	17.6	0.00e+00	0	46	0	1355808768	60	23876
2026-01-29 20:07:46.17	103.78	6.96	-53.8	-56.0	17.8	0.00e+00	0	47	0	1365245952	60	23912
2026-01-29 20:07:49.19	104.19	6.84	-53.8	-56.1	17.8	0.00e+00	0	47	0	1374683136	60	24144
2026-01-29 20:07:52.21	104.61	6.72	-53.9	-56.3	17.0	0.00e+00	0	47	0	1384120320	60	24872
2026-01-29 20:07:55.23	105.02	6.59	-54.1	-56.8	17.1	0.00e+00	0	47	0	1393557504	60	26193
2026-01-29 20:07:58.25	105.42	6.47	-53.1	-56.2	16.6	0.00e+00	0	46	0	1402994688	60	24625
2026-01-29 20:08:01.26	105.82	6.35	-52.2	-56.1	15.2	0.00e+00	0	46	0	1412431872	60	24386
2026-01-29 20:08:04.27	106.22	6.22	-51.6	-56.1	15.9	0.00e+00	0	46	0	1421869056	60	24418
2026-01-29 20:08:07.29	106.62	6.10	-51.8	-56.4	16.3	0.00e+00	0	46	0	1431306240	60	25052
2026-01-29 20:08:10.30	107.01	5.97	-53.0	-71.2	3.9	6.30e-01	0	46	104	1439694848	60	137755
2026-01-29 20:08:13.32	107.40	5.84	-60.5	-75.1	3.5	1.51e+00	0	46	104	1439694848	60	216054
2026-01-29 20:08:16.35	107.78	5.72	-60.4	-75.5	3.5	1.52e+00	0	47	104	1439694848	60	227037
2026-01-29 20:08:19.37	108.17	5.59	-60.8	-75.6	3.5	1.51e+00	0	47	104	1439694848	60	229182
2026-01-29 20:08:22.39	108.55	5.46	-62.3	-76.5	3.5	1.52e+00	0	47	104	1439694848	60	255421
2026-01-29 20:08:25.41	108.92	5.33	-62.5	-76.7	3.5	1.52e+00	0	47	104	1439694848	60	261586
2026-01-29 20:08:28.44	109.30	5.21	-62.4	-76.8	3.5	1.52e+00	0	47	104	1439694848	60	261892
2026-01-29 20:08:31.46	109.67	5.08	-62.4	-76.8	3.5	1.52e+00	0	47	104	1439694848	60	262149
2026-01-29 20:08:34.48	110.04	4.95	-62.7	-77.3	3.5	1.51e+00	0	47	104	1439694848	60	278745
2026-01-29 20:08:37.51	110.40	4.82	-59.8	-76.6	3.6	1.51e+00	0	47	104	1439694848	60	257110
2026-01-29 20:08:40.52	110.76	4.69	-55.1	-72.8	4.1	1.51e+00	0	47	104	1439694848	60	166133
2026-01-29 20:08:43.55	111.12	4.56	-56.6	-74.2	3.8	1.51e+00	0	47	104	1439694848	60	195412
2026-01-29 20:08:46.57	111.47	4.43	-57.6	-74.6	3.8	1.51e+00	0	47	104	1439694848	60	204612
2026-01-29 20:08:49.59	111.83	4.30	-57.7	-74.5	3.8	1.51e+00	0	47	104	1439694848	60	202288
2026-01-29 20:08:52.61	112.18	4.17	-57.7	-75.0	3.8	1.51e+00	0	47	104	1439694848	60	212790
2026-01-29 20:08:55.64	112.52	4.03	-57.7	-74.7	3.8	1.51e+00	0	47	104	1439694848	60	206415
2026-01-29 20:08:58.65	112.86	3.90	-57.8	-74.6	3.8	1.51e+00	0	47	104	1439694848	60	205488
2026-01-29 20:09:01.68	113.21	3.77	-57.9	-75.2	3.7	1.51e+00	0	46	104	1439694848	60	219372
2026-01-29 20:09:04.69	113.54	3.64	-57.6	-74.5	3.8	1.51e+00	0	47	104	1439694848	60	201814
2026-01-29 20:09:07.72	113.88	3.51	-57.5	-74.6	3.8	1.51e+00	0	47	104	1439694848	60	204557
2026-01-29 20:09:10.74	114.21	3.38	-57.7	-74.8	3.7	1.51e+00	0	47	104	1439694848	60	209546
2026-01-29 20:09:13.76	114.54	3.25	-57.7	-74.6	3.8	1.51e+00	0	47	104	1439694848	60	203856
2026-01-29 20:09:16.78	114.86	3.11	-57.5	-74.6	3.7	1.51e+00	0	47	104	1439694848	60	204190
2026-01-29 20:09:19.80	115.19	2.98	-57.7	-74.7	3.8	1.51e+00	0	47	104	1439694848	60	207488
2026-01-29 20:09:22.82	115.51	2.85	-57.8	-74.6	3.7	1.51e+00	0	47	104	1439694848	60	204489
2026-01-29 20:09:25.85	115.82	2.72	-57.7	-74.6	3.7	1.51e+00	0	47	104	1439694848	60	204416
2026-01-29 20:09:28.87	116.14	2.58	-57.6	-74.5	3.7	1.51e+00	0	47	104	1439694848	60	203041
2026-01-29 20:09:31.89	116.45	2.45	-57.6	-74.6	3.7	1.51e+00	0	47	104	1439694848	60	203295
2026-01-29 20:09:34.91	116.76	2.32	-57.8	-75.2	3.7	1.51e+00	0	47	104	1439694848	60	218759
2026-01-29 20:09:37.93	117.07	2.19	-57.9	-74.6	3.7	1.51e+00	0	47	104	1439694848	60	203628
2026-01-29 20:09:40.94	117.37	2.05	-58.0	-74.9	3.7	1.51e+00	0	47	104	1439694848	60	210726
2026-01-29 20:09:43.96	117.67	1.92	-58.0	-74.8	3.7	1.51e+00	0	47	104	1439694848	60	208754
2026-01-29 20:09:46.99	117.97	1.79	-57.9	-74.7	3.7	1.51e+00	0	47	104	1439694848	60	206063
2026-01-29 20:09:50.01	118.27	1.66	-58.0	-74.7	3.7	1.51e+00	0	47	104	1439694848	60	205992
2026-01-29 20:09:53.04	118.56	1.52	-58.1	-75.3	3.7	1.51e+00	0	47	104	1439694848	60	220473
2026-01-29 20:09:56.06	118.86	1.39	-58.0	-74.7	3.7	1.51e+00	0	47	104	1439694848	60	206495
2026-01-29 20:09:59.08	119.14	1.26	-58.1	-74.8	3.7	1.51e+00	0	47	104	1439694848	60	208035
2026-01-29 20:10:02.09	119.43	1.13	-58.1	-75.1	3.7	1.51e+00	0	47	104	1439694848	60	215801
2026-01-29 20:10:05.11	119.71	0.99	-58.0	-75.3	3.6	1.51e+00	0	47	104	1439694848	60	220827
2026-01-29 20:10:08.14	120.00	0.86	-58.3	-75.0	3.7	1.51e+00	0	47	104	1439694848	60	213702
2026-01-29 20:10:11.16	120.28	0.73	-58.3	-74.8	3.7	1.51e+00	0	47	104	1439694848	60	210182
2026-01-29 20:10:14.19	120.55	0.59	-58.2	-74.9	3.7	1.51e+00	0	47	104	1439694848	60	212089
2026-01-29 20:10:17.21	120.83	0.46	-58.3	-75.0	3.7	1.51e+00	0	47	104	1439694848	60	213803
2026-01-29 20:10:20.23	121.10	0.33	-58.4	-75.0	3.7	1.51e+00	0	47	104	1439694848	60	214476
2026-01-29 20:10:23.24	121.37	0.20	-58.3	-75.0	3.7	1.51e+00	0	47	104	1439694848	60	213361
2026-01-29 20:10:26.26	121.64	0.07	-58.4	-75.4	3.6	1.51e+00	0	47	104	1439694848	60	224434
2026-01-29 20:10:29.28	121.91	-0.06	-58.4	-75.4	3.6	1.51e+00	0	47	104	1439694848	60	224951

#Closed at: 2026-01-29 20:10:29
#Recorded file [1439 MB]: D:/Data/35015_260129_230809.dat