passes_logs/2026/01/29/R3.2S-Naryan-Mar/R3.2S-Naryan-Mar__20260129_010430_FENGYUN_3D_rec.log

#Pass ID: 20260129_010430_FENGYUN 3D
#Satellite: FENGYUN 3D
#Configuration: FENGYUN 3D
#almurnet v.1.7.20240730
#Start time: 2026-01-29 01:04:32

#Version: 2.2.20231116
#Station: R3.2S-Naryan-Mar
#Location: 53.008057 lon 67.646978 lat
#TLE: 1 43010U 17072A   26027.90082829  .00000305  00000+0  16579-3 0  9998
#TLE: 2 43010  98.9960 359.9183 0002511  88.1058 272.0405 14.19701796425082

#Time	Az	El	Level	Level2	SNR	BER	BlckErr	Temp	State	Recorded	gain1	gain2
2026-01-29 01:04:32.07	22.62	0.09	-61.8	-77.9	3.5	1.51e+00	0	44	0	0	60	307815
2026-01-29 01:04:36.09	22.67	0.33	-59.3	-74.4	3.6	8.45e-01	0	45	104	0	60	205450
2026-01-29 01:04:40.12	22.71	0.57	-60.4	-74.2	3.6	8.46e-01	0	45	104	0	60	200812
2026-01-29 01:04:44.15	22.76	0.82	-59.5	-73.7	3.6	8.45e-01	0	45	104	0	60	190144
2026-01-29 01:04:48.18	22.81	1.06	-55.5	-72.6	3.6	8.44e-01	0	45	104	0	60	166908
2026-01-29 01:04:52.20	22.86	1.31	-51.3	-70.4	3.6	8.44e-01	0	45	104	0	60	129159
2026-01-29 01:04:56.23	22.91	1.56	-51.6	-70.7	3.6	8.42e-01	0	45	104	0	60	134908
2026-01-29 01:05:00.26	22.96	1.82	-51.6	-70.6	3.6	8.43e-01	0	45	104	0	60	133202
2026-01-29 01:05:04.29	23.01	2.07	-51.4	-70.6	3.6	8.42e-01	0	45	104	0	60	132242
2026-01-29 01:05:08.32	23.06	2.33	-51.4	-70.5	3.6	8.43e-01	0	45	104	0	60	131345
2026-01-29 01:05:12.35	23.11	2.59	-51.4	-70.5	3.6	8.43e-01	0	45	104	0	60	130631
2026-01-29 01:05:16.38	23.16	2.85	-51.6	-68.9	3.6	8.44e-01	0	46	104	0	60	109691
2026-01-29 01:05:20.41	23.21	3.12	-51.5	-70.6	3.6	8.43e-01	0	45	104	0	60	133057
2026-01-29 01:05:24.43	23.26	3.39	-51.6	-70.3	3.6	8.42e-01	0	45	104	0	60	128191
2026-01-29 01:05:28.46	23.32	3.66	-51.5	-70.4	3.5	8.44e-01	0	45	104	0	60	129345
2026-01-29 01:05:32.49	23.37	3.93	-51.6	-70.7	3.6	8.43e-01	0	45	104	0	60	133981
2026-01-29 01:05:36.52	23.42	4.21	-51.7	-69.8	3.6	8.44e-01	0	46	104	0	60	121393
2026-01-29 01:05:40.54	23.48	4.48	-51.8	-70.7	3.6	8.44e-01	0	46	104	0	60	134094
2026-01-29 01:05:44.57	23.53	4.77	-51.6	-69.7	3.6	8.44e-01	0	46	104	0	60	120382
2026-01-29 01:05:48.61	23.59	5.05	-51.7	-70.5	3.6	8.43e-01	0	46	104	0	60	131023
2026-01-29 01:05:52.63	23.65	5.34	-51.7	-69.7	3.6	8.43e-01	0	46	104	0	60	120324
2026-01-29 01:05:56.66	23.71	5.63	-51.8	-70.5	3.6	8.44e-01	0	46	104	0	60	131187
2026-01-29 01:06:00.69	23.77	5.92	-51.8	-70.5	3.6	8.42e-01	0	46	104	0	60	131433
2026-01-29 01:06:04.71	23.83	6.22	-51.7	-69.2	3.6	8.44e-01	0	46	104	0	60	113429
2026-01-29 01:06:08.74	23.89	6.52	-48.1	-68.7	3.6	8.41e-01	0	46	104	0	60	107247
2026-01-29 01:06:12.76	23.95	6.82	-52.5	-70.4	3.6	8.44e-01	0	46	104	0	60	130423
2026-01-29 01:06:16.78	24.01	7.13	-52.7	-69.8	3.6	8.44e-01	0	46	104	0	60	121699
2026-01-29 01:06:20.81	24.07	7.44	-57.9	-72.5	3.6	8.44e-01	0	46	104	0	60	164523
2026-01-29 01:06:24.84	24.14	7.76	-55.4	-71.5	3.6	8.45e-01	0	46	104	0	60	146906
2026-01-29 01:06:28.86	24.20	8.08	-59.1	-72.8	3.6	8.46e-01	0	46	104	0	60	170460
2026-01-29 01:06:32.89	24.27	8.40	-54.8	-71.6	3.6	8.44e-01	0	46	104	0	60	148694
2026-01-29 01:06:36.92	24.34	8.73	-56.4	-73.0	3.6	8.46e-01	0	46	104	0	60	175697
2026-01-29 01:06:40.95	24.41	9.06	-53.4	-69.9	3.6	8.44e-01	0	46	104	0	60	122327
2026-01-29 01:06:44.97	24.48	9.40	-56.4	-71.2	3.6	8.45e-01	0	46	104	0	60	142724
2026-01-29 01:06:49.00	24.55	9.74	-53.4	-70.5	3.6	8.46e-01	0	46	104	0	60	131477
2026-01-29 01:06:53.01	24.62	10.08	-57.5	-72.0	3.6	8.45e-01	0	46	104	0	60	156148
2026-01-29 01:06:57.04	24.69	10.44	-52.8	-70.2	3.6	8.44e-01	0	46	104	0	60	126970
2026-01-29 01:07:01.07	24.77	10.79	-52.4	-71.7	3.6	8.44e-01	0	46	104	0	60	150196
2026-01-29 01:07:05.09	24.84	11.15	-53.8	-68.5	3.5	8.45e-01	0	46	104	0	60	104120
2026-01-29 01:07:09.12	24.92	11.52	-55.3	-71.6	3.6	8.45e-01	0	46	104	0	60	148827
2026-01-29 01:07:13.15	25.00	11.89	-54.6	-72.5	3.6	8.46e-01	0	46	104	0	60	164533
2026-01-29 01:07:17.18	25.08	12.27	-53.8	-71.1	3.6	8.44e-01	0	46	104	0	60	140494
2026-01-29 01:07:21.20	25.17	12.65	-53.9	-70.1	3.6	8.45e-01	0	46	104	0	60	125734
2026-01-29 01:07:25.22	25.25	13.04	-56.3	-72.8	3.6	8.45e-01	0	46	104	0	60	170961
2026-01-29 01:07:29.25	25.34	13.44	-52.4	-70.0	3.6	8.44e-01	0	46	104	0	60	123915
2026-01-29 01:07:33.28	25.42	13.84	-56.1	-71.3	3.6	8.44e-01	0	46	104	0	60	143697
2026-01-29 01:07:37.30	25.51	14.25	-54.1	-70.6	3.6	8.45e-01	0	46	104	0	60	133393
2026-01-29 01:07:41.32	25.61	14.66	-53.7	-70.4	3.5	8.45e-01	0	46	104	0	60	130158
2026-01-29 01:07:45.35	25.70	15.09	-55.4	-70.8	3.6	8.45e-01	0	46	104	0	60	136237
2026-01-29 01:07:49.37	25.80	15.52	-52.2	-70.0	3.6	8.43e-01	0	46	104	0	60	124259
2026-01-29 01:07:53.39	25.90	15.96	-53.5	-69.7	3.6	8.43e-01	0	46	104	0	60	119120
2026-01-29 01:07:57.40	26.00	16.40	-52.9	-70.8	3.6	8.44e-01	0	46	104	0	60	136021
2026-01-29 01:08:01.43	26.10	16.86	-45.9	-66.5	3.6	8.43e-01	0	46	104	0	60	83186
2026-01-29 01:08:05.44	26.21	17.32	-49.4	-69.1	3.6	8.42e-01	0	46	104	0	60	111340
2026-01-29 01:08:09.45	26.31	17.79	-46.1	-65.1	3.6	8.40e-01	0	46	104	0	60	70538
2026-01-29 01:08:13.47	26.43	18.27	-52.3	-70.6	3.6	8.45e-01	0	46	104	0	60	132996
2026-01-29 01:08:17.51	26.54	18.76	-51.6	-69.5	3.6	8.44e-01	0	46	104	0	60	117585
2026-01-29 01:08:21.54	26.66	19.26	-52.3	-69.3	3.6	8.43e-01	0	46	104	0	60	114477
2026-01-29 01:08:25.56	26.78	19.77	-59.2	-70.8	3.6	8.45e-01	0	46	104	0	60	135927
2026-01-29 01:08:29.58	26.91	20.29	-56.5	-70.2	3.6	8.45e-01	0	46	104	0	60	126150
2026-01-29 01:08:33.61	27.04	20.83	-55.8	-71.6	3.6	8.43e-01	0	46	104	0	60	149168
2026-01-29 01:08:37.64	27.17	21.37	-52.6	-69.4	3.6	8.44e-01	0	46	104	0	60	116057
2026-01-29 01:08:41.67	27.31	21.93	-58.0	-72.9	3.6	8.46e-01	0	46	104	0	60	172029
2026-01-29 01:08:45.69	27.45	22.50	-52.7	-70.6	3.6	8.45e-01	0	46	104	0	60	133288
2026-01-29 01:08:49.72	27.60	23.08	-56.4	-71.8	3.6	8.44e-01	0	46	104	0	60	152046
2026-01-29 01:08:53.75	27.75	23.67	-56.4	-70.8	3.8	8.42e-01	0	46	104	0	60	136429
2026-01-29 01:08:57.78	27.90	24.28	-57.8	-70.6	3.8	8.42e-01	0	46	104	0	60	132710
2026-01-29 01:09:01.81	28.07	24.91	-57.5	-70.5	3.9	8.44e-01	0	46	104	0	60	131765
2026-01-29 01:09:05.84	28.23	25.54	-53.8	-69.8	3.8	8.42e-01	0	46	104	0	60	121579
2026-01-29 01:09:09.87	28.41	26.20	-53.7	-69.3	3.8	8.43e-01	0	46	104	0	60	114522
2026-01-29 01:09:13.89	28.59	26.87	-57.6	-69.8	3.9	8.41e-01	0	46	104	0	60	120891
2026-01-29 01:09:17.92	28.78	27.55	-55.5	-69.0	3.9	8.41e-01	0	46	104	0	60	110900
2026-01-29 01:09:21.95	28.97	28.26	-57.4	-67.9	4.0	8.27e-01	0	46	0	0	60	96823
2026-01-29 01:09:25.98	29.18	28.98	-59.6	-66.9	4.7	7.68e-01	0	46	0	0	60	86676
2026-01-29 01:09:30.01	29.39	29.72	-59.6	-67.4	4.3	8.05e-01	0	46	0	0	60	91561
2026-01-29 01:09:34.03	29.61	30.48	-59.0	-67.3	4.3	8.07e-01	0	46	0	0	60	90679
2026-01-29 01:09:38.05	29.84	31.26	-55.4	-66.7	4.3	8.08e-01	0	46	0	0	60	84367
2026-01-29 01:09:42.09	30.09	32.06	-57.0	-66.8	4.4	8.06e-01	0	46	0	0	60	85828
2026-01-29 01:09:46.11	30.34	32.88	-57.9	-67.0	4.4	8.07e-01	0	46	0	0	60	87560
2026-01-29 01:09:50.14	30.61	33.73	-57.5	-66.9	4.1	8.18e-01	0	46	0	0	60	87112
2026-01-29 01:09:54.16	30.89	34.60	-57.7	-66.8	4.5	7.85e-01	0	46	0	0	60	85704
2026-01-29 01:09:58.19	31.18	35.49	-57.8	-66.9	4.5	7.96e-01	0	46	0	0	60	86230
2026-01-29 01:10:02.22	31.49	36.41	-58.9	-67.4	4.3	8.11e-01	0	46	0	0	60	91687
2026-01-29 01:10:06.24	31.82	37.35	-57.9	-67.7	4.0	8.19e-01	0	46	0	0	60	94656
2026-01-29 01:10:10.27	32.17	38.32	-58.3	-67.9	4.1	8.28e-01	0	46	0	0	60	97440
2026-01-29 01:10:14.30	32.54	39.32	-58.2	-68.2	3.9	8.29e-01	0	46	0	0	60	101131
2026-01-29 01:10:18.33	32.93	40.35	-59.5	-68.5	4.0	8.30e-01	0	46	0	0	60	103756
2026-01-29 01:10:22.36	33.34	41.41	-58.7	-68.7	3.8	8.34e-01	0	46	0	0	60	106749
2026-01-29 01:10:26.39	33.78	42.49	-59.0	-70.3	3.9	8.40e-01	0	46	104	0	60	128072
2026-01-29 01:10:30.41	34.26	43.61	-59.6	-70.3	3.9	8.41e-01	0	46	104	0	60	128855
2026-01-29 01:10:34.44	34.76	44.76	-60.2	-70.6	3.9	8.42e-01	0	46	104	0	60	132783
2026-01-29 01:10:38.47	35.30	45.94	-59.2	-70.5	3.7	8.41e-01	0	46	104	0	60	131190
2026-01-29 01:10:42.49	35.89	47.15	-60.0	-70.8	3.9	8.41e-01	0	46	104	0	60	136333
2026-01-29 01:10:46.52	36.52	48.40	-60.1	-71.0	3.7	8.41e-01	0	46	104	0	60	139172
2026-01-29 01:10:50.56	37.20	49.68	-59.9	-70.9	3.8	8.42e-01	0	46	104	0	60	136877
2026-01-29 01:10:54.57	37.94	50.98	-60.1	-71.0	3.7	8.41e-01	0	46	104	0	60	138833
2026-01-29 01:10:58.58	38.75	52.32	-59.4	-71.1	3.8	8.42e-01	0	46	104	0	60	140997
2026-01-29 01:11:02.61	39.63	53.70	-59.2	-70.7	3.7	8.43e-01	0	46	104	0	60	134503
2026-01-29 01:11:06.65	40.61	55.11	-59.4	-71.2	3.6	8.42e-01	0	46	104	0	60	142082
2026-01-29 01:11:10.68	41.68	56.54	-59.2	-70.9	3.8	8.41e-01	0	46	104	0	60	137669
2026-01-29 01:11:14.70	42.87	58.00	-59.7	-70.1	3.6	8.41e-01	0	46	0	0	60	125021
2026-01-29 01:11:18.73	44.20	59.49	-60.0	-69.6	3.8	8.37e-01	0	46	0	0	60	118786
2026-01-29 01:11:22.76	45.69	61.00	-60.3	-69.3	3.8	8.34e-01	0	46	0	0	60	113737
2026-01-29 01:11:26.78	47.36	62.52	-59.9	-68.9	3.9	8.29e-01	0	46	0	0	60	109115
2026-01-29 01:11:30.80	49.26	64.06	-59.7	-69.2	3.8	8.32e-01	0	46	0	0	60	113620
2026-01-29 01:11:34.84	51.44	65.60	-60.2	-69.3	3.8	8.31e-01	0	46	0	0	60	114507
2026-01-29 01:11:38.87	53.93	67.14	-58.5	-70.4	4.0	8.37e-01	0	46	104	0	60	129162
2026-01-29 01:11:42.90	56.82	68.66	-58.6	-68.9	3.9	8.32e-01	0	46	0	0	60	108671
2026-01-29 01:11:46.92	60.17	70.14	-57.7	-70.7	3.7	8.36e-01	0	46	104	0	60	134900
2026-01-29 01:11:50.95	64.10	71.57	-59.0	-69.0	3.7	8.32e-01	0	46	0	0	60	109811
2026-01-29 01:11:54.97	68.69	72.93	-59.7	-69.5	3.8	8.37e-01	0	46	0	0	60	116646
2026-01-29 01:11:59.01	74.12	74.18	-59.0	-71.0	3.9	8.42e-01	0	46	104	0	60	139235
2026-01-29 01:12:03.03	80.42	75.28	-57.1	-70.6	3.7	8.42e-01	0	46	104	0	60	132630
2026-01-29 01:12:07.05	87.68	76.19	-56.6	-71.0	3.6	8.45e-01	0	46	104	0	60	139674
2026-01-29 01:12:11.08	95.88	76.87	-55.9	-71.0	3.6	8.44e-01	0	46	104	0	60	138596
2026-01-29 01:12:15.11	104.78	77.26	-58.1	-73.4	3.6	8.45e-01	0	46	104	0	60	183633
2026-01-29 01:12:19.13	114.01	77.34	-58.1	-72.3	3.6	8.45e-01	0	46	104	0	60	161725
2026-01-29 01:12:23.16	123.15	77.10	-57.8	-72.6	3.6	8.46e-01	0	46	104	0	60	167368
2026-01-29 01:12:27.18	131.71	76.57	-57.8	-72.4	3.6	8.45e-01	0	46	104	0	60	163827
2026-01-29 01:12:31.21	139.47	75.76	-59.4	-73.2	3.6	8.45e-01	0	46	104	0	60	179085
2026-01-29 01:12:35.23	146.25	74.75	-59.9	-73.1	3.6	8.45e-01	0	46	104	0	60	177022
2026-01-29 01:12:39.26	152.11	73.57	-61.1	-74.4	3.6	8.45e-01	0	46	104	0	60	206307
2026-01-29 01:12:43.29	157.10	72.26	-61.1	-73.4	3.6	8.45e-01	0	46	104	0	60	182612
2026-01-29 01:12:47.32	161.36	70.86	-61.1	-73.6	3.6	8.44e-01	0	46	104	0	60	188307
2026-01-29 01:12:51.35	164.99	69.39	-61.2	-73.5	3.6	8.45e-01	0	46	104	0	60	186414
2026-01-29 01:12:55.37	168.09	67.89	-61.3	-73.7	3.6	8.45e-01	0	46	104	0	60	189183
2026-01-29 01:12:59.40	170.77	66.35	-61.3	-73.3	3.6	8.45e-01	0	46	104	0	60	181276
2026-01-29 01:13:03.42	173.09	64.82	-61.3	-73.1	3.6	8.45e-01	0	46	104	0	60	176652
2026-01-29 01:13:07.45	175.13	63.27	-61.3	-73.3	3.6	8.44e-01	0	46	104	0	60	181447
2026-01-29 01:13:11.48	176.91	61.74	-61.3	-74.5	3.6	8.45e-01	0	46	104	0	60	207275
2026-01-29 01:13:15.51	178.49	60.21	-61.4	-74.1	3.6	8.45e-01	0	46	104	0	60	199362
2026-01-29 01:13:19.54	179.90	58.71	-61.2	-73.6	3.6	8.45e-01	0	46	104	0	60	186524
2026-01-29 01:13:23.57	181.15	57.23	-61.2	-73.6	3.6	8.45e-01	0	46	104	0	60	187189
2026-01-29 01:13:27.59	182.28	55.78	-61.0	-73.7	3.6	8.45e-01	0	46	104	0	60	190519
2026-01-29 01:13:31.62	183.30	54.36	-61.0	-73.6	3.6	8.44e-01	0	46	104	0	60	188569
2026-01-29 01:13:35.65	184.23	52.96	-61.0	-73.9	3.6	8.44e-01	0	46	104	0	60	195147
2026-01-29 01:13:39.68	185.08	51.60	-61.0	-73.6	3.6	8.47e-01	0	47	104	0	60	187721
2026-01-29 01:13:43.70	185.85	50.27	-61.1	-73.6	3.6	8.45e-01	0	47	104	0	60	187523
2026-01-29 01:13:47.72	186.56	48.97	-61.3	-74.4	3.6	8.45e-01	0	46	104	0	60	206354
2026-01-29 01:13:51.75	187.21	47.71	-61.2	-74.3	3.6	8.44e-01	0	47	104	0	60	203956
2026-01-29 01:13:55.77	187.82	46.48	-61.2	-73.9	3.5	8.45e-01	0	46	104	0	60	193811
2026-01-29 01:13:59.78	188.38	45.28	-61.2	-74.4	3.6	8.44e-01	0	47	104	0	60	205896
2026-01-29 01:14:03.80	188.90	44.12	-61.0	-73.7	3.6	8.44e-01	0	46	104	0	60	189882
2026-01-29 01:14:07.84	189.39	42.98	-61.1	-74.2	3.6	8.43e-01	0	47	104	0	60	200610
2026-01-29 01:14:11.86	189.84	41.88	-60.8	-73.1	3.6	8.44e-01	0	47	104	0	60	176206
2026-01-29 01:14:15.87	190.27	40.81	-60.9	-73.9	3.6	8.45e-01	0	47	104	0	60	194014
2026-01-29 01:14:19.90	190.67	39.76	-60.7	-73.1	3.6	8.46e-01	0	46	104	0	60	177965
2026-01-29 01:14:23.92	191.05	38.75	-60.8	-73.6	3.6	8.45e-01	0	46	104	0	60	187237
2026-01-29 01:14:27.94	191.40	37.76	-60.6	-73.2	3.6	8.45e-01	0	47	104	0	60	178571
2026-01-29 01:14:31.96	191.74	36.80	-60.5	-73.2	3.6	8.45e-01	0	47	104	0	60	179039
2026-01-29 01:14:35.99	192.06	35.87	-60.5	-73.8	3.6	8.46e-01	0	47	104	0	60	192578
2026-01-29 01:14:40.02	192.36	34.96	-60.3	-73.1	3.6	8.46e-01	0	46	104	0	60	177640
2026-01-29 01:14:44.04	192.65	34.08	-60.4	-73.5	3.6	8.45e-01	0	47	104	0	60	186268
2026-01-29 01:14:48.07	192.92	33.22	-60.4	-73.1	3.6	8.45e-01	0	47	104	0	60	176087
2026-01-29 01:14:52.09	193.18	32.38	-60.2	-73.3	3.6	8.45e-01	0	46	104	0	60	182164
2026-01-29 01:14:56.10	193.42	31.57	-60.3	-73.2	3.6	8.45e-01	0	46	104	0	60	179222
2026-01-29 01:15:00.13	193.66	30.78	-60.2	-73.0	3.6	8.44e-01	0	46	104	0	60	174498
2026-01-29 01:15:04.16	193.89	30.01	-60.2	-73.1	3.6	8.46e-01	0	46	104	0	60	177588
2026-01-29 01:15:08.19	194.10	29.25	-60.0	-72.6	3.6	8.45e-01	0	46	104	0	60	167099
2026-01-29 01:15:12.21	194.31	28.52	-59.9	-72.6	3.6	8.46e-01	0	47	104	0	60	167387
2026-01-29 01:15:16.24	194.51	27.81	-59.8	-72.6	3.6	8.45e-01	0	47	104	0	60	167961
2026-01-29 01:15:20.27	194.70	27.11	-59.8	-72.5	3.6	8.46e-01	0	47	104	0	60	165255
2026-01-29 01:15:24.29	194.88	26.43	-59.7	-72.4	3.6	8.46e-01	0	47	104	0	60	162963
2026-01-29 01:15:28.32	195.06	25.77	-59.6	-72.8	3.6	8.46e-01	0	47	104	0	60	170815
2026-01-29 01:15:32.35	195.23	25.12	-59.5	-72.5	3.6	8.46e-01	0	47	104	0	60	165510
2026-01-29 01:15:36.37	195.39	24.49	-59.6	-72.4	3.6	8.46e-01	0	46	104	0	60	163343
2026-01-29 01:15:40.39	195.55	23.87	-59.3	-71.7	3.6	8.46e-01	0	46	104	0	60	150770
2026-01-29 01:15:44.42	195.70	23.27	-59.2	-71.9	3.6	8.44e-01	0	46	104	0	60	153843
2026-01-29 01:15:48.45	195.85	22.68	-59.2	-71.8	3.6	8.45e-01	0	47	104	0	60	152612
2026-01-29 01:15:52.48	195.99	22.10	-59.2	-72.0	3.6	8.45e-01	0	47	104	0	60	156106
2026-01-29 01:15:56.49	196.13	21.54	-59.1	-71.9	3.6	8.43e-01	0	47	104	0	60	154700
2026-01-29 01:16:00.52	196.26	20.98	-59.0	-72.0	3.6	8.45e-01	0	47	104	0	60	156574
2026-01-29 01:16:04.55	196.39	20.44	-58.7	-71.4	3.6	8.45e-01	0	46	104	0	60	145723
2026-01-29 01:16:08.58	196.52	19.92	-58.6	-71.3	3.6	8.45e-01	0	47	104	0	60	144717
2026-01-29 01:16:12.62	196.64	19.40	-58.4	-71.1	3.6	8.45e-01	0	47	104	0	60	140236
2026-01-29 01:16:16.65	196.76	18.89	-58.4	-71.8	3.6	8.45e-01	0	47	104	0	60	151993
2026-01-29 01:16:20.68	196.87	18.39	-58.5	-69.7	3.8	8.44e-01	0	47	104	0	60	120260
2026-01-29 01:16:24.71	196.99	17.90	-58.4	-69.6	3.7	8.44e-01	0	47	104	0	60	118759
2026-01-29 01:16:28.72	197.09	17.43	-58.2	-69.6	3.8	8.44e-01	0	46	104	0	60	118247
2026-01-29 01:16:32.76	197.20	16.96	-58.1	-69.7	3.7	8.44e-01	0	46	104	0	60	119095
2026-01-29 01:16:36.78	197.30	16.50	-58.0	-69.7	3.7	8.45e-01	0	46	104	0	60	119231
2026-01-29 01:16:40.81	197.40	16.04	-58.3	-71.6	3.6	8.44e-01	0	47	104	0	60	148806
2026-01-29 01:16:44.83	197.50	15.60	-58.1	-71.6	3.6	8.46e-01	0	46	104	0	60	149285
2026-01-29 01:16:48.85	197.60	15.17	-58.0	-71.6	3.6	8.46e-01	0	47	104	0	60	148324
2026-01-29 01:16:52.88	197.69	14.74	-58.0	-69.8	3.6	8.46e-01	0	46	104	0	60	121097
2026-01-29 01:16:56.91	197.78	14.32	-57.6	-71.1	3.6	8.44e-01	0	46	104	0	60	140860
2026-01-29 01:17:00.93	197.87	13.90	-57.2	-71.0	3.6	8.45e-01	0	47	104	0	60	139175
2026-01-29 01:17:04.96	197.96	13.50	-57.4	-70.8	3.6	8.46e-01	0	46	104	0	60	135483
2026-01-29 01:17:08.99	198.04	13.10	-57.1	-70.9	3.6	8.46e-01	0	46	104	0	60	137321
2026-01-29 01:17:13.02	198.12	12.70	-57.2	-70.8	3.6	8.45e-01	0	47	104	0	60	136258
2026-01-29 01:17:17.05	198.20	12.32	-57.2	-70.8	3.6	8.45e-01	0	47	104	0	60	136604
2026-01-29 01:17:21.07	198.28	11.94	-57.3	-70.8	3.6	8.45e-01	0	46	104	0	60	136299
2026-01-29 01:17:25.09	198.36	11.56	-57.0	-70.7	3.6	8.44e-01	0	46	104	0	60	134973
2026-01-29 01:17:29.12	198.44	11.19	-56.6	-70.7	3.6	8.45e-01	0	47	104	0	60	133563
2026-01-29 01:17:33.15	198.51	10.83	-56.6	-70.7	3.5	8.46e-01	0	47	104	0	60	134470
2026-01-29 01:17:37.18	198.59	10.47	-56.5	-70.6	3.6	8.45e-01	0	47	104	0	60	132215
2026-01-29 01:17:41.20	198.66	10.11	-56.7	-70.5	3.6	8.46e-01	0	46	104	0	60	131933
2026-01-29 01:17:45.23	198.73	9.76	-56.6	-70.5	3.6	8.45e-01	0	47	104	0	60	131949
2026-01-29 01:17:49.26	198.80	9.42	-55.6	-70.1	3.6	8.45e-01	0	47	104	0	60	125789
2026-01-29 01:17:53.28	198.86	9.08	-54.5	-69.9	3.6	8.45e-01	0	46	104	0	60	122739
2026-01-29 01:17:57.31	198.93	8.75	-56.1	-70.4	3.6	8.46e-01	0	46	104	0	60	129640
2026-01-29 01:18:01.34	199.00	8.41	-55.2	-69.9	3.6	8.45e-01	0	46	104	0	60	122432
2026-01-29 01:18:05.37	199.06	8.09	-55.5	-69.9	3.6	8.46e-01	0	46	104	0	60	123137
2026-01-29 01:18:09.38	199.12	7.77	-55.9	-69.9	3.6	8.45e-01	0	46	104	0	60	122981
2026-01-29 01:18:13.40	199.18	7.45	-55.4	-69.8	3.6	8.45e-01	0	47	104	0	60	121575
2026-01-29 01:18:17.43	199.25	7.14	-55.0	-69.5	3.6	8.46e-01	0	47	104	0	60	117483
2026-01-29 01:18:21.46	199.31	6.83	-54.7	-69.5	3.6	8.45e-01	0	47	104	0	60	117018
2026-01-29 01:18:25.48	199.36	6.52	-55.6	-69.8	3.6	8.46e-01	0	47	104	0	60	120873
2026-01-29 01:18:29.50	199.42	6.22	-47.4	-66.6	3.6	8.44e-01	0	46	104	0	60	83425
2026-01-29 01:18:33.53	199.48	5.92	-54.6	-70.0	3.6	8.44e-01	0	47	104	0	60	123457
2026-01-29 01:18:37.56	199.54	5.62	-59.3	-72.8	3.6	8.46e-01	0	47	104	0	60	170298
2026-01-29 01:18:41.59	199.59	5.33	-61.3	-74.5	3.6	8.45e-01	0	47	104	0	60	208733
2026-01-29 01:18:45.61	199.65	5.04	-61.8	-75.1	3.6	8.44e-01	0	47	104	0	60	221933
2026-01-29 01:18:49.64	199.70	4.75	-58.9	-74.7	3.6	8.44e-01	0	47	104	0	60	212860
2026-01-29 01:18:53.67	199.75	4.47	-60.1	-75.1	3.6	8.44e-01	0	47	104	0	60	223189
2026-01-29 01:18:57.69	199.80	4.19	-60.0	-75.1	3.6	8.45e-01	0	47	104	0	60	224158
2026-01-29 01:19:01.72	199.86	3.91	-60.1	-75.2	3.6	8.44e-01	0	47	104	0	60	225369
2026-01-29 01:19:05.74	199.91	3.64	-60.1	-75.0	3.6	8.45e-01	0	47	104	0	60	219813
2026-01-29 01:19:09.77	199.96	3.36	-59.9	-75.0	3.6	8.45e-01	0	46	104	0	60	220537
2026-01-29 01:19:13.79	200.01	3.09	-59.9	-75.0	3.6	8.46e-01	0	47	104	0	60	220433
2026-01-29 01:19:17.81	200.05	2.83	-59.9	-74.9	3.6	8.46e-01	0	47	104	0	60	218417
2026-01-29 01:19:21.84	200.10	2.56	-59.8	-75.0	3.6	8.45e-01	0	47	104	0	60	220798
2026-01-29 01:19:25.86	200.15	2.30	-59.8	-74.8	3.6	8.45e-01	0	47	104	0	60	215868
2026-01-29 01:19:29.89	200.20	2.04	-59.8	-74.8	3.6	8.44e-01	0	47	104	0	60	215996
2026-01-29 01:19:33.92	200.24	1.79	-59.7	-75.2	3.6	8.47e-01	0	47	104	0	60	224607
2026-01-29 01:19:37.94	200.29	1.53	-59.6	-74.8	3.6	8.44e-01	0	47	104	0	60	214755
2026-01-29 01:19:41.96	200.33	1.28	-59.6	-74.8	3.6	8.46e-01	0	47	104	0	60	216355
2026-01-29 01:19:45.99	200.38	1.03	-59.6	-74.8	3.6	8.46e-01	0	47	104	0	60	214253
2026-01-29 01:19:50.02	200.42	0.78	-59.5	-74.7	3.6	8.45e-01	0	47	104	0	60	213603
2026-01-29 01:19:54.04	200.47	0.53	-59.6	-74.9	3.6	8.44e-01	0	47	104	0	60	217414
2026-01-29 01:19:58.06	200.51	0.29	-59.5	-74.7	3.6	8.46e-01	0	47	104	0	60	212366
2026-01-29 01:20:02.09	200.55	0.05	-59.4	-74.8	3.6	8.46e-01	0	47	104	0	60	216163

#Closed at: 2026-01-29 01:20:04
#Recorded file [0 MB]: D:/Data/35015_260129_041649.dat