passes_logs/2026/01/29/R3.2S-Naryan-Mar/R3.2S-Naryan-Mar__20260129_220838_SUOMI_NPP_rec.log

#Pass ID: 20260129_220838_SUOMI NPP
#Satellite: SUOMI NPP
#Configuration: NPP
#almurnet v.1.7.20240730
#Start time: 2026-01-29 22:08:39

#Version: 2.2.20231116
#Station: R3.2S-Naryan-Mar
#Location: 53.008057 lon 67.646978 lat
#TLE: 1 37849U 11061A   26028.91916408  .00000155  00000+0  94467-4 0  9990
#TLE: 2 37849  98.7824 330.8488 0002045  39.4457 320.6868 14.19531289738686

#Time	Az	El	Level	Level2	SNR	BER	BlckErr	Temp	State	Recorded	gain1	gain2
2026-01-29 22:08:39.94	19.38	0.08	-62.5	-76.8	3.5	1.52e+00	0	43	0	0	60	263361
2026-01-29 22:08:43.96	19.52	0.32	-61.8	-79.2	3.6	1.51e+00	0	45	104	0	60	355536
2026-01-29 22:08:47.99	19.66	0.55	-61.3	-79.2	3.6	1.51e+00	0	45	104	0	60	357565
2026-01-29 22:08:52.02	19.81	0.79	-61.8	-79.1	3.6	1.51e+00	0	45	104	0	60	353940
2026-01-29 22:08:56.04	19.96	1.02	-59.2	-77.7	3.6	1.51e+00	0	45	104	0	60	300091
2026-01-29 22:09:00.07	20.10	1.26	-58.8	-78.0	3.6	1.51e+00	0	45	104	0	60	310037
2026-01-29 22:09:04.09	20.25	1.50	-59.6	-78.1	3.6	1.51e+00	0	45	104	0	60	314383
2026-01-29 22:09:08.12	20.41	1.75	-51.4	-72.9	3.6	1.51e+00	0	45	104	0	60	173798
2026-01-29 22:09:12.13	20.56	1.99	-53.7	-76.2	3.6	1.51e+00	0	45	104	0	60	253621
2026-01-29 22:09:16.16	20.72	2.24	-56.9	-74.9	3.6	1.51e+00	0	45	104	0	60	217658
2026-01-29 22:09:20.19	20.88	2.49	-56.9	-74.8	3.6	1.51e+00	0	45	104	0	60	215194
2026-01-29 22:09:24.22	21.04	2.74	-56.6	-74.3	3.6	1.51e+00	0	45	104	0	60	203819
2026-01-29 22:09:28.24	21.20	2.99	-56.4	-74.9	3.6	1.51e+00	0	45	104	0	60	217305
2026-01-29 22:09:32.27	21.37	3.25	-56.4	-74.3	3.6	1.51e+00	0	45	104	0	60	204189
2026-01-29 22:09:36.29	21.54	3.51	-56.3	-74.7	3.5	1.51e+00	0	45	104	0	60	213759
2026-01-29 22:09:40.32	21.71	3.77	-56.2	-74.5	3.6	1.51e+00	0	45	104	0	60	207136
2026-01-29 22:09:44.35	21.89	4.03	-56.4	-74.7	3.6	1.51e+00	0	45	104	0	60	213811
2026-01-29 22:09:48.38	22.07	4.29	-56.1	-74.2	3.6	1.51e+00	0	45	104	0	60	200191
2026-01-29 22:09:52.40	22.25	4.56	-56.0	-74.5	3.6	1.51e+00	0	45	104	0	60	207572
2026-01-29 22:09:56.43	22.43	4.83	-56.1	-73.8	3.6	1.51e+00	0	45	104	0	60	190852
2026-01-29 22:10:00.45	22.62	5.10	-55.8	-73.2	3.6	1.51e+00	0	45	104	0	60	179740
2026-01-29 22:10:04.48	22.81	5.38	-55.5	-65.9	6.6	3.36e-01	0	45	0	3145728	60	77706
2026-01-29 22:10:08.52	23.00	5.65	-54.9	-61.1	12.3	6.74e-04	0	45	0	11534336	60	44242
2026-01-29 22:10:12.54	23.20	5.93	-54.3	-59.6	13.8	3.00e-06	0	45	0	18874368	60	37341
2026-01-29 22:10:16.57	23.40	6.22	-55.3	-61.4	13.8	5.42e-02	0	46	0	26214400	60	46283
2026-01-29 22:10:20.59	23.60	6.50	-50.8	-60.8	12.3	1.36e-04	0	45	0	33554432	60	42989
2026-01-29 22:10:24.62	23.81	6.79	-54.8	-61.8	13.5	1.60e-05	0	45	0	40894464	60	48120
2026-01-29 22:10:28.65	24.02	7.08	-52.9	-62.0	11.2	1.86e-03	0	46	0	48234496	60	49359
2026-01-29 22:10:32.67	24.23	7.38	-53.5	-63.0	11.2	1.09e-03	0	46	0	56623104	60	55137
2026-01-29 22:10:36.70	24.45	7.68	-50.6	-60.0	12.2	1.72e-04	0	46	0	63963136	60	38980
2026-01-29 22:10:40.72	24.67	7.98	-55.2	-60.5	14.2	2.20e-06	0	46	0	71303168	60	41449
2026-01-29 22:10:44.74	24.90	8.28	-51.8	-59.3	14.9	1.50e-06	0	46	0	78643200	60	36068
2026-01-29 22:10:48.77	25.13	8.59	-50.4	-59.0	12.2	8.69e-05	0	46	0	87031808	60	34835
2026-01-29 22:10:52.78	25.37	8.90	-51.6	-59.0	13.8	5.18e-05	0	46	0	94371840	60	35047
2026-01-29 22:10:56.80	25.61	9.21	-55.8	-58.5	17.2	0.00e+00	0	46	0	101711872	60	32873
2026-01-29 22:11:00.84	25.85	9.53	-54.8	-57.9	17.6	0.00e+00	0	46	0	109051904	60	30704
2026-01-29 22:11:04.87	26.11	9.85	-51.6	-57.4	16.0	0.00e+00	0	46	0	116391936	60	29087
2026-01-29 22:11:08.90	26.36	10.18	-54.7	-57.4	18.4	0.00e+00	0	46	0	124780544	60	29207
2026-01-29 22:11:12.92	26.62	10.51	-55.0	-57.1	18.7	0.00e+00	0	46	0	132120576	60	28069
2026-01-29 22:11:16.95	26.89	10.84	-54.8	-57.0	18.6	0.00e+00	0	46	0	139460608	60	27838
2026-01-29 22:11:20.98	27.16	11.18	-54.1	-56.9	18.9	0.00e+00	0	46	0	146800640	60	27470
2026-01-29 22:11:25.01	27.44	11.52	-53.3	-56.6	19.1	0.00e+00	0	46	0	154140672	60	26495
2026-01-29 22:11:29.03	27.73	11.87	-53.4	-56.2	18.8	0.00e+00	0	46	0	161480704	60	25152
2026-01-29 22:11:33.06	28.02	12.22	-53.5	-55.6	19.5	0.00e+00	0	46	0	169869312	60	23741
2026-01-29 22:11:37.08	28.31	12.58	-53.3	-55.6	19.8	0.00e+00	0	46	0	177209344	60	23609
2026-01-29 22:11:41.11	28.62	12.94	-52.8	-55.4	19.6	0.00e+00	0	46	0	184549376	60	22993
2026-01-29 22:11:45.13	28.93	13.30	-53.7	-55.8	19.4	0.00e+00	0	46	0	191889408	60	24058
2026-01-29 22:11:49.16	29.25	13.67	-52.7	-55.7	17.4	0.00e+00	0	46	0	200278016	60	23777
2026-01-29 22:11:53.18	29.58	14.04	-53.7	-55.7	19.3	0.00e+00	0	46	0	207618048	60	23842
2026-01-29 22:11:57.21	29.91	14.42	-53.1	-55.7	18.6	0.00e+00	0	46	0	214958080	60	23988
2026-01-29 22:12:01.23	30.25	14.81	-52.3	-56.1	17.2	0.00e+00	0	46	0	222298112	60	25044
2026-01-29 22:12:05.27	30.60	15.20	-53.1	-56.5	18.3	0.00e+00	0	46	0	229638144	60	26164
2026-01-29 22:12:09.30	30.96	15.59	-52.7	-56.6	18.2	0.00e+00	0	46	0	238026752	60	26508
2026-01-29 22:12:13.32	31.33	15.99	-54.0	-56.4	19.5	0.00e+00	0	46	0	245366784	60	25848
2026-01-29 22:12:17.34	31.71	16.40	-54.6	-56.5	19.7	0.00e+00	0	46	0	252706816	60	26157
2026-01-29 22:12:21.36	32.10	16.81	-54.9	-56.7	19.1	0.00e+00	0	46	0	260046848	60	26920
2026-01-29 22:12:25.38	32.50	17.23	-54.5	-56.4	19.7	0.00e+00	0	46	0	267386880	60	25891
2026-01-29 22:12:29.41	32.91	17.65	-54.4	-56.7	19.2	0.00e+00	0	46	0	274726912	60	26712
2026-01-29 22:12:33.43	33.33	18.08	-54.4	-56.4	19.9	0.00e+00	0	46	0	283115520	60	25817
2026-01-29 22:12:37.46	33.76	18.51	-54.0	-56.1	19.9	0.00e+00	0	46	0	290455552	60	24895
2026-01-29 22:12:41.49	34.21	18.96	-54.4	-56.2	19.4	0.00e+00	0	46	0	297795584	60	25297
2026-01-29 22:12:45.52	34.66	19.41	-54.3	-56.4	19.7	0.00e+00	0	46	0	305135616	60	25839
2026-01-29 22:12:49.55	35.13	19.86	-54.2	-56.5	18.5	0.00e+00	0	46	0	312475648	60	26233
2026-01-29 22:12:53.58	35.62	20.32	-54.1	-56.6	18.6	0.00e+00	0	46	0	320864256	60	26571
2026-01-29 22:12:57.61	36.12	20.79	-50.6	-57.0	15.0	0.00e+00	0	46	0	328204288	60	27830
2026-01-29 22:13:01.64	36.63	21.27	-50.9	-57.3	15.4	0.00e+00	0	46	0	335544320	60	28742
2026-01-29 22:13:05.66	37.16	21.75	-52.6	-57.5	18.1	0.00e+00	0	46	0	342884352	60	29318
2026-01-29 22:13:09.68	37.70	22.24	-54.0	-57.9	17.7	0.00e+00	0	46	0	351272960	60	30841
2026-01-29 22:13:13.71	38.26	22.73	-54.3	-57.5	18.5	0.00e+00	0	46	0	358612992	60	29372
2026-01-29 22:13:17.73	38.84	23.23	-53.1	-57.0	17.8	0.00e+00	0	46	0	365953024	60	27763
2026-01-29 22:13:21.75	39.44	23.74	-53.3	-56.9	16.9	0.00e+00	0	46	0	373293056	60	27552
2026-01-29 22:13:25.78	40.06	24.26	-52.2	-57.0	19.1	0.00e+00	0	46	0	380633088	60	27673
2026-01-29 22:13:29.81	40.70	24.78	-50.7	-56.6	15.6	0.00e+00	0	46	0	387973120	60	26337
2026-01-29 22:13:33.83	41.35	25.31	-54.4	-56.4	19.6	0.00e+00	0	46	0	396361728	60	26034
2026-01-29 22:13:37.86	42.03	25.85	-53.0	-57.5	17.6	0.00e+00	0	46	0	403701760	60	29508
2026-01-29 22:13:41.87	42.73	26.39	-55.7	-58.0	18.3	0.00e+00	0	46	0	411041792	60	31044
2026-01-29 22:13:45.90	43.46	26.94	-55.0	-56.6	20.1	0.00e+00	0	46	0	418381824	60	26428
2026-01-29 22:13:49.92	44.21	27.50	-54.0	-56.8	19.6	0.00e+00	0	46	0	425721856	60	26976
2026-01-29 22:13:53.94	44.99	28.06	-55.2	-57.6	18.5	0.00e+00	0	46	0	434110464	60	29735
2026-01-29 22:13:57.96	45.79	28.63	-56.2	-58.7	18.1	0.00e+00	0	46	0	441450496	60	33812
2026-01-29 22:14:01.99	46.63	29.20	-54.6	-57.5	18.4	0.00e+00	0	46	0	448790528	60	29270
2026-01-29 22:14:06.01	47.49	29.78	-55.5	-59.2	17.1	0.00e+00	0	46	0	456130560	60	35567
2026-01-29 22:14:10.03	48.38	30.36	-56.4	-59.4	17.5	0.00e+00	0	46	0	463470592	60	36364
2026-01-29 22:14:14.04	49.30	30.95	-56.3	-58.2	18.7	0.00e+00	0	46	0	471859200	60	31902
2026-01-29 22:14:18.06	50.26	31.54	-56.3	-58.3	18.6	0.00e+00	0	46	0	479199232	60	32359
2026-01-29 22:14:22.08	51.26	32.13	-55.4	-57.4	19.4	0.00e+00	0	46	0	486539264	60	29166
2026-01-29 22:14:26.11	52.29	32.73	-54.8	-58.2	18.1	0.00e+00	0	46	0	493879296	60	31763
2026-01-29 22:14:30.14	53.36	33.33	-55.7	-57.6	19.7	0.00e+00	0	46	0	501219328	60	29726
2026-01-29 22:14:34.17	54.47	33.93	-56.9	-58.8	18.8	0.00e+00	0	46	0	509607936	60	34136
2026-01-29 22:14:38.20	55.62	34.53	-56.0	-57.7	19.6	0.00e+00	0	46	0	516947968	60	30233
2026-01-29 22:14:42.22	56.81	35.13	-57.2	-59.3	18.7	0.00e+00	0	46	0	524288000	60	36137
2026-01-29 22:14:46.24	58.05	35.72	-57.7	-59.7	18.3	0.00e+00	0	46	0	531628032	60	37761
2026-01-29 22:14:50.28	59.33	36.32	-56.8	-58.6	19.4	0.00e+00	0	46	0	538968064	60	33336
2026-01-29 22:14:54.30	60.66	36.90	-57.1	-58.9	19.0	0.00e+00	0	46	0	547356672	60	34604
2026-01-29 22:14:58.33	62.03	37.48	-58.0	-60.3	17.8	0.00e+00	0	46	0	554696704	60	40372
2026-01-29 22:15:02.36	63.46	38.05	-58.0	-60.1	18.0	0.00e+00	0	46	0	562036736	60	39793
2026-01-29 22:15:06.39	64.94	38.61	-58.2	-60.3	18.1	0.00e+00	0	46	0	569376768	60	40665
2026-01-29 22:15:10.42	66.46	39.16	-57.0	-58.7	19.5	0.00e+00	0	46	0	576716800	60	33845
2026-01-29 22:15:14.44	68.03	39.69	-57.4	-59.3	19.1	0.00e+00	0	46	0	585105408	60	36300
2026-01-29 22:15:18.47	69.66	40.21	-57.6	-59.7	18.8	0.00e+00	0	46	0	592445440	60	37800
2026-01-29 22:15:22.49	71.34	40.71	-57.2	-59.1	19.5	0.00e+00	0	46	0	599785472	60	35183
2026-01-29 22:15:26.52	73.07	41.18	-56.1	-57.6	20.8	0.00e+00	0	46	0	607125504	60	29744
2026-01-29 22:15:30.55	74.85	41.64	-57.2	-58.9	19.5	0.00e+00	0	46	0	614465536	60	34474
2026-01-29 22:15:34.57	76.67	42.06	-57.3	-59.2	19.4	0.00e+00	0	46	0	622854144	60	35699
2026-01-29 22:15:38.59	78.54	42.46	-56.7	-58.8	19.3	0.00e+00	0	46	0	630194176	60	34019
2026-01-29 22:15:42.63	80.47	42.83	-57.8	-60.0	18.4	0.00e+00	0	46	0	637534208	60	39031
2026-01-29 22:15:46.65	82.42	43.17	-56.8	-58.5	19.8	0.00e+00	0	46	0	644874240	60	32963
2026-01-29 22:15:50.68	84.43	43.47	-56.8	-58.5	19.9	0.00e+00	0	46	0	652214272	60	32861
2026-01-29 22:15:54.71	86.46	43.74	-58.0	-59.5	20.2	0.00e+00	0	46	0	660602880	60	37196
2026-01-29 22:15:58.73	88.53	43.96	-58.0	-60.0	18.7	0.00e+00	0	46	0	667942912	60	39128
2026-01-29 22:16:02.75	90.62	44.15	-57.0	-58.8	19.7	0.00e+00	0	46	0	675282944	60	34110
2026-01-29 22:16:06.78	92.74	44.29	-57.7	-59.6	19.4	0.00e+00	0	46	0	682622976	60	37390
2026-01-29 22:16:10.80	94.86	44.40	-55.7	-56.9	21.7	0.00e+00	0	46	0	689963008	60	27423
2026-01-29 22:16:14.83	97.01	44.46	-55.5	-56.6	21.9	0.00e+00	0	46	0	698351616	60	26620
2026-01-29 22:16:18.86	99.16	44.47	-56.3	-57.8	20.6	0.00e+00	0	46	0	705691648	60	30570
2026-01-29 22:16:22.89	101.31	44.45	-56.4	-58.4	19.6	0.00e+00	0	46	0	713031680	60	32608
2026-01-29 22:16:26.91	103.45	44.38	-54.9	-56.6	20.9	0.00e+00	0	46	0	720371712	60	26509
2026-01-29 22:16:30.94	105.58	44.26	-55.7	-57.5	20.6	0.00e+00	0	46	0	727711744	60	29334
2026-01-29 22:16:34.96	107.69	44.11	-57.7	-59.8	18.7	0.00e+00	0	46	0	736100352	60	38496
2026-01-29 22:16:38.99	109.78	43.91	-58.8	-61.4	17.4	0.00e+00	0	46	0	743440384	60	46004
2026-01-29 22:16:43.00	111.83	43.67	-59.0	-61.7	17.3	0.00e+00	0	46	0	750780416	60	47533
2026-01-29 22:16:47.03	113.87	43.40	-58.2	-60.4	18.4	0.00e+00	0	46	0	758120448	60	40944
2026-01-29 22:16:51.05	115.86	43.09	-58.7	-61.2	17.4	0.00e+00	0	46	0	765460480	60	45105
2026-01-29 22:16:55.07	117.81	42.74	-57.8	-60.0	18.4	0.00e+00	0	46	0	773849088	60	39378
2026-01-29 22:16:59.09	119.71	42.37	-57.4	-59.5	18.6	0.00e+00	0	46	0	781189120	60	36905
2026-01-29 22:17:03.12	121.58	41.96	-56.2	-57.8	20.6	0.00e+00	0	46	0	788529152	60	30397
2026-01-29 22:17:07.16	123.41	41.52	-55.5	-57.0	21.2	0.00e+00	0	46	0	795869184	60	27657
2026-01-29 22:17:11.18	125.17	41.06	-56.5	-58.1	20.0	0.00e+00	0	46	0	803209216	60	31641
2026-01-29 22:17:15.20	126.89	40.58	-58.1	-60.3	18.2	0.00e+00	0	46	0	811597824	60	40522
2026-01-29 22:17:19.23	128.56	40.08	-56.6	-58.2	20.1	0.00e+00	0	46	0	818937856	60	31869
2026-01-29 22:17:23.26	130.18	39.56	-56.9	-58.5	19.8	0.00e+00	0	46	0	826277888	60	32941
2026-01-29 22:17:27.28	131.74	39.02	-58.2	-60.4	18.2	0.00e+00	0	46	0	833617920	60	40925
2026-01-29 22:17:31.31	133.26	38.46	-56.1	-57.6	20.4	0.00e+00	0	46	0	840957952	60	29733
2026-01-29 22:17:35.34	134.72	37.90	-56.0	-57.4	20.6	0.00e+00	0	46	0	848297984	60	29171
2026-01-29 22:17:39.37	136.14	37.32	-55.1	-56.4	21.3	0.00e+00	0	46	0	856686592	60	25896
2026-01-29 22:17:43.39	137.50	36.74	-57.1	-59.0	19.1	0.00e+00	0	46	0	864026624	60	34873
2026-01-29 22:17:47.42	138.83	36.15	-54.0	-55.1	22.3	0.00e+00	0	46	0	871366656	60	22353
2026-01-29 22:17:51.44	140.10	35.56	-55.8	-57.3	20.3	0.00e+00	0	46	0	878706688	60	28809
2026-01-29 22:17:55.47	141.33	34.96	-56.9	-58.7	19.0	0.00e+00	0	46	0	887095296	60	33811
2026-01-29 22:17:59.49	142.51	34.36	-55.1	-56.4	21.1	0.00e+00	0	46	0	894435328	60	25884
2026-01-29 22:18:03.51	143.65	33.76	-58.1	-60.5	17.2	0.00e+00	0	46	0	901775360	60	41635
2026-01-29 22:18:07.53	144.75	33.15	-56.3	-57.9	19.8	0.00e+00	0	46	0	909115392	60	30660
2026-01-29 22:18:11.55	145.81	32.55	-58.6	-61.3	16.6	0.00e+00	0	46	0	916455424	60	45467
2026-01-29 22:18:15.57	146.83	31.96	-55.5	-57.0	20.7	0.00e+00	0	46	0	924844032	60	27590
2026-01-29 22:18:19.60	147.82	31.36	-57.5	-59.6	18.2	0.00e+00	0	46	0	932184064	60	37608
2026-01-29 22:18:23.62	148.77	30.76	-55.5	-57.0	20.6	0.00e+00	0	46	0	939524096	60	27702
2026-01-29 22:18:27.65	149.69	30.17	-58.7	-61.4	16.3	0.00e+00	0	46	0	946864128	60	46240
2026-01-29 22:18:31.68	150.58	29.59	-58.0	-60.3	17.4	0.00e+00	0	46	0	954204160	60	40637
2026-01-29 22:18:35.71	151.44	29.01	-56.7	-58.6	18.6	0.00e+00	0	46	0	961544192	60	33196
2026-01-29 22:18:39.74	152.27	28.43	-58.5	-61.3	16.2	0.00e+00	0	46	0	969932800	60	45468
2026-01-29 22:18:43.75	153.06	27.86	-55.6	-57.2	20.1	0.00e+00	0	46	0	977272832	60	28484
2026-01-29 22:18:47.77	153.84	27.30	-55.8	-57.4	20.0	0.00e+00	0	46	0	984612864	60	29025
2026-01-29 22:18:51.79	154.58	26.74	-56.2	-57.9	19.4	0.00e+00	0	46	0	991952896	60	30845
2026-01-29 22:18:55.80	155.30	26.19	-54.7	-56.0	21.1	0.00e+00	0	46	0	999292928	60	24801
2026-01-29 22:18:59.82	156.00	25.65	-54.0	-55.3	21.5	0.00e+00	0	46	0	1007681536	60	22707
2026-01-29 22:19:03.85	156.67	25.11	-56.3	-58.1	19.1	0.00e+00	0	46	0	1015021568	60	31610
2026-01-29 22:19:07.87	157.32	24.58	-56.4	-58.4	18.8	0.00e+00	0	46	0	1022361600	60	32468
2026-01-29 22:19:11.89	157.95	24.06	-55.5	-57.2	19.6	0.00e+00	0	46	0	1029701632	60	28308
2026-01-29 22:19:15.90	158.56	23.54	-56.0	-57.9	19.0	0.00e+00	0	46	0	1037041664	60	30678
2026-01-29 22:19:19.92	159.16	23.04	-58.2	-61.3	15.7	0.00e+00	0	46	0	1045430272	60	45421
2026-01-29 22:19:23.95	159.73	22.53	-57.8	-60.6	16.3	0.00e+00	0	46	0	1052770304	60	42001
2026-01-29 22:19:27.96	160.29	22.04	-57.4	-60.0	16.6	0.00e+00	0	46	0	1060110336	60	39023
2026-01-29 22:19:31.99	160.83	21.55	-57.0	-59.4	17.5	0.00e+00	0	46	0	1067450368	60	36447
2026-01-29 22:19:36.02	161.35	21.07	-54.5	-55.9	20.6	0.00e+00	0	46	0	1074790400	60	24563
2026-01-29 22:19:40.04	161.86	20.59	-53.3	-54.6	21.7	0.00e+00	0	46	0	1082130432	60	20924
2026-01-29 22:19:44.07	162.36	20.12	-54.3	-55.7	20.6	0.00e+00	0	46	0	1090519040	60	23874
2026-01-29 22:19:48.10	162.84	19.66	-56.1	-58.1	18.5	0.00e+00	0	46	0	1097859072	60	31550
2026-01-29 22:19:52.13	163.30	19.20	-56.4	-58.6	18.1	0.00e+00	0	46	0	1105199104	60	33311
2026-01-29 22:19:56.15	163.76	18.76	-55.4	-57.3	19.0	0.00e+00	0	46	0	1112539136	60	28755
2026-01-29 22:20:00.18	164.20	18.31	-54.6	-56.2	20.0	0.00e+00	0	46	0	1120927744	60	25439
2026-01-29 22:20:04.20	164.62	17.88	-54.5	-56.1	20.0	0.00e+00	0	46	0	1128267776	60	25083
2026-01-29 22:20:08.23	165.04	17.45	-55.0	-56.7	19.3	0.00e+00	0	46	0	1135607808	60	26916
2026-01-29 22:20:12.26	165.45	17.02	-55.7	-57.8	18.3	0.00e+00	0	46	0	1142947840	60	30568
2026-01-29 22:20:16.29	165.84	16.60	-56.0	-58.3	17.7	0.00e+00	0	46	0	1150287872	60	32174
2026-01-29 22:20:20.31	166.23	16.19	-56.3	-58.7	17.5	0.00e+00	0	46	0	1158676480	60	33643
2026-01-29 22:20:24.34	166.60	15.79	-55.0	-57.0	18.8	0.00e+00	0	46	0	1166016512	60	27616
2026-01-29 22:20:28.36	166.97	15.39	-54.5	-56.3	19.4	0.00e+00	0	46	0	1173356544	60	25484
2026-01-29 22:20:32.39	167.32	14.99	-54.1	-55.8	19.8	0.00e+00	0	46	0	1180696576	60	24205
2026-01-29 22:20:36.41	167.67	14.60	-54.6	-56.4	19.2	0.00e+00	0	46	0	1188036608	60	26010
2026-01-29 22:20:40.44	168.01	14.22	-54.8	-56.8	18.8	0.00e+00	0	46	0	1195376640	60	27192
2026-01-29 22:20:44.47	168.34	13.84	-54.6	-56.5	19.3	0.00e+00	0	46	0	1203765248	60	26153
2026-01-29 22:20:48.49	168.66	13.46	-53.9	-55.7	19.8	0.00e+00	0	46	0	1211105280	60	23830
2026-01-29 22:20:52.50	168.98	13.09	-53.5	-55.1	20.3	0.00e+00	0	46	0	1218445312	60	22338
2026-01-29 22:20:56.52	169.29	12.73	-53.5	-55.0	20.2	0.00e+00	0	46	0	1225785344	60	22150
2026-01-29 22:21:00.56	169.59	12.37	-54.2	-56.0	19.4	0.00e+00	0	46	0	1234173952	60	24676
2026-01-29 22:21:04.58	169.88	12.01	-54.9	-57.0	18.4	0.00e+00	0	46	0	1241513984	60	27765
2026-01-29 22:21:08.61	170.17	11.66	-55.5	-58.0	17.4	0.00e+00	0	46	0	1248854016	60	31038
2026-01-29 22:21:12.64	170.45	11.32	-55.5	-58.0	17.0	0.00e+00	0	46	0	1256194048	60	31058
2026-01-29 22:21:16.67	170.73	10.97	-55.6	-58.4	16.6	0.00e+00	0	46	0	1263534080	60	32520
2026-01-29 22:21:20.69	170.99	10.64	-54.8	-57.3	17.6	0.00e+00	0	46	0	1271922688	60	28744
2026-01-29 22:21:24.72	171.26	10.30	-54.5	-56.9	18.0	0.00e+00	0	46	0	1279262720	60	27446
2026-01-29 22:21:28.75	171.52	9.97	-54.1	-56.3	18.4	0.00e+00	0	46	0	1286602752	60	25675
2026-01-29 22:21:32.78	171.77	9.64	-54.0	-56.2	18.4	0.00e+00	0	46	0	1293942784	60	25369
2026-01-29 22:21:36.80	172.02	9.32	-53.8	-55.9	18.7	0.00e+00	0	46	0	1301282816	60	24432
2026-01-29 22:21:40.82	172.26	9.00	-54.1	-56.3	18.3	0.00e+00	0	46	0	1308622848	60	25539
2026-01-29 22:21:44.85	172.49	8.69	-54.1	-56.3	18.4	0.00e+00	0	46	0	1317011456	60	25517
2026-01-29 22:21:48.87	172.73	8.38	-54.1	-56.3	18.3	0.00e+00	0	46	0	1324351488	60	25643
2026-01-29 22:21:52.90	172.95	8.07	-54.4	-56.9	17.7	0.00e+00	0	46	0	1331691520	60	27402
2026-01-29 22:21:56.93	173.18	7.77	-54.7	-57.3	17.4	0.00e+00	0	46	0	1339031552	60	28555
2026-01-29 22:22:00.95	173.40	7.46	-54.7	-57.2	17.5	0.00e+00	0	46	0	1347420160	60	28426
2026-01-29 22:22:04.98	173.61	7.17	-54.9	-57.5	17.0	0.00e+00	0	46	0	1354760192	60	29287
2026-01-29 22:22:09.01	173.82	6.87	-55.0	-57.8	16.7	0.00e+00	0	46	0	1362100224	60	30253
2026-01-29 22:22:13.03	174.03	6.58	-55.2	-58.5	15.7	0.00e+00	0	46	0	1369440256	60	32925
2026-01-29 22:22:17.05	174.23	6.29	-54.9	-58.0	16.3	0.00e+00	0	46	0	1376780288	60	31060
2026-01-29 22:22:21.08	174.43	6.00	-55.0	-58.4	15.8	0.00e+00	0	46	0	1385168896	60	32665
2026-01-29 22:22:25.11	174.63	5.72	-59.8	-76.5	3.6	1.51e+00	0	46	104	1386217472	60	261567
2026-01-29 22:22:29.14	174.82	5.44	-61.5	-77.9	3.6	1.51e+00	0	46	104	1386217472	60	306809
2026-01-29 22:22:33.16	175.01	5.16	-62.5	-78.9	3.6	1.51e+00	0	46	104	1386217472	60	343658
2026-01-29 22:22:37.19	175.20	4.89	-63.1	-79.5	3.6	1.51e+00	0	46	104	1386217472	60	369473
2026-01-29 22:22:41.21	175.38	4.61	-63.4	-79.7	3.6	1.51e+00	0	46	104	1386217472	60	378111
2026-01-29 22:22:45.24	175.56	4.34	-63.2	-79.9	3.6	1.51e+00	0	46	104	1386217472	60	385481
2026-01-29 22:22:49.26	175.74	4.08	-62.4	-79.5	3.6	1.51e+00	0	46	104	1386217472	60	368790
2026-01-29 22:22:53.28	175.91	3.81	-58.6	-78.3	3.6	1.51e+00	0	46	104	1386217472	60	321149
2026-01-29 22:22:57.31	176.08	3.55	-61.0	-79.3	3.6	1.51e+00	0	46	104	1386217472	60	360127
2026-01-29 22:23:01.34	176.25	3.29	-60.6	-79.0	3.6	1.51e+00	0	46	104	1386217472	60	349410
2026-01-29 22:23:05.37	176.41	3.03	-60.4	-79.0	3.6	1.51e+00	0	46	104	1386217472	60	349759
2026-01-29 22:23:09.40	176.58	2.77	-60.4	-78.9	3.6	1.51e+00	0	46	104	1386217472	60	346161
2026-01-29 22:23:13.43	176.74	2.52	-60.2	-78.8	3.6	1.51e+00	0	46	104	1386217472	60	342474
2026-01-29 22:23:17.46	176.90	2.27	-60.4	-79.1	3.6	1.51e+00	0	46	104	1386217472	60	352152
2026-01-29 22:23:21.48	177.05	2.02	-60.4	-78.8	3.6	1.51e+00	0	46	104	1386217472	60	342940
2026-01-29 22:23:25.50	177.20	1.77	-60.5	-78.8	3.6	1.51e+00	0	46	104	1386217472	60	342827
2026-01-29 22:23:29.54	177.36	1.53	-60.5	-78.8	3.6	1.51e+00	0	46	104	1386217472	60	342016
2026-01-29 22:23:33.56	177.50	1.28	-60.5	-78.8	3.6	1.51e+00	0	46	104	1386217472	60	341919
2026-01-29 22:23:37.58	177.65	1.04	-60.4	-78.9	3.6	1.51e+00	0	46	104	1386217472	60	346331
2026-01-29 22:23:41.61	177.79	0.80	-60.4	-78.8	3.6	1.51e+00	0	46	104	1386217472	60	340355
2026-01-29 22:23:45.63	177.94	0.56	-60.4	-78.7	3.6	1.51e+00	0	46	104	1386217472	60	338159
2026-01-29 22:23:49.65	178.08	0.33	-60.3	-78.7	3.6	1.51e+00	0	46	104	1386217472	60	339190
2026-01-29 22:23:53.68	178.21	0.09	-60.1	-78.4	3.6	1.51e+00	0	46	104	1386217472	60	327664

#Closed at: 2026-01-29 22:23:57
#Recorded file [1386 MB]: D:/Data/35015_260130_012221.dat