passes_logs/2026/01/29/R3.2S-Naryan-Mar/R3.2S-Naryan-Mar__20260129_112030_TY-42_rec.log

#Pass ID: 20260129_112030_TY-42
#Satellite: TY-42
#Configuration: TY-42
#almurnet v.1.7.20240730
#Start time: 2026-01-29 11:20:33

#Version: 2.2.20231116
#Station: R3.2S-Naryan-Mar
#Location: 53.008057 lon 67.646978 lat
#TLE: 1 64048U 25103A   26028.87012731  .00008010  00000-0  38191-3 0 09994
#TLE: 2 64048 097.4122 104.0273 0001827 094.4790 293.3217 15.19170538 38926

#Time	Az	El	Level	Level2	SNR	BER	BlckErr	Temp	State	Recorded	gain1	gain2
2026-01-29 11:20:33.00	31.60	0.15	-61.1	-74.8	3.5	8.45e-01	0	44	0	0	60	216459
2026-01-29 11:20:36.02	31.30	0.30	-58.1	-61.8	3.6	0.00e+00	0	45	104	0	60	146040
2026-01-29 11:20:39.04	30.99	0.46	-57.4	-60.9	3.6	0.00e+00	0	45	104	0	60	131661
2026-01-29 11:20:42.07	30.67	0.62	-55.3	-59.6	3.6	0.00e+00	0	46	104	0	60	113109
2026-01-29 11:20:45.09	30.35	0.77	-53.3	-56.5	3.6	0.00e+00	0	46	104	0	60	78692
2026-01-29 11:20:48.11	30.03	0.93	-51.8	-56.4	3.6	0.00e+00	0	46	104	0	60	78138
2026-01-29 11:20:51.13	29.70	1.09	-52.0	-56.3	3.6	0.00e+00	0	46	104	0	60	77666
2026-01-29 11:20:54.13	29.37	1.25	-51.8	-56.2	3.6	0.00e+00	0	46	104	0	60	76823
2026-01-29 11:20:57.14	29.04	1.40	-51.8	-56.2	3.6	0.00e+00	0	46	104	0	60	76494
2026-01-29 11:21:00.16	28.70	1.56	-51.7	-56.2	3.6	0.00e+00	0	46	104	0	60	76727
2026-01-29 11:21:03.18	28.35	1.72	-51.9	-56.2	3.6	0.00e+00	0	46	104	0	60	76707
2026-01-29 11:21:06.20	28.00	1.88	-51.6	-56.1	3.6	0.00e+00	0	46	104	0	60	75189
2026-01-29 11:21:09.22	27.64	2.04	-51.6	-56.1	3.6	0.00e+00	0	46	104	0	60	75143
2026-01-29 11:21:12.24	27.28	2.20	-51.6	-56.1	3.6	0.00e+00	0	46	104	0	60	75248
2026-01-29 11:21:15.26	26.91	2.36	-51.6	-56.1	3.6	0.00e+00	0	46	104	0	60	75190
2026-01-29 11:21:18.28	26.54	2.52	-51.5	-56.0	3.6	0.00e+00	0	46	104	0	60	74606
2026-01-29 11:21:21.30	26.17	2.68	-51.6	-56.1	3.6	0.00e+00	0	46	104	0	60	75374
2026-01-29 11:21:24.33	25.78	2.84	-51.6	-56.1	3.6	0.00e+00	0	46	104	0	60	75291
2026-01-29 11:21:27.35	25.39	3.00	-51.6	-56.1	3.6	0.00e+00	0	47	104	0	60	75156
2026-01-29 11:21:30.37	25.00	3.16	-51.6	-56.0	3.6	0.00e+00	0	46	104	0	60	74996
2026-01-29 11:21:33.39	24.60	3.32	-51.5	-56.0	3.6	0.00e+00	0	47	104	0	60	74642
2026-01-29 11:21:36.41	24.20	3.48	-51.6	-56.0	3.6	0.00e+00	0	47	104	0	60	74841
2026-01-29 11:21:39.44	23.78	3.65	-51.5	-56.0	3.6	0.00e+00	0	47	104	0	60	74821
2026-01-29 11:21:42.46	23.37	3.81	-51.5	-56.0	3.6	0.00e+00	0	47	104	0	60	75032
2026-01-29 11:21:45.49	22.94	3.97	-51.5	-56.0	3.6	0.00e+00	0	47	104	0	60	74678
2026-01-29 11:21:48.51	22.51	4.13	-51.5	-56.0	3.6	0.00e+00	0	47	104	0	60	74811
2026-01-29 11:21:51.54	22.08	4.30	-51.6	-56.0	3.6	0.00e+00	0	47	104	0	60	74957
2026-01-29 11:21:54.56	21.64	4.46	-51.7	-56.1	3.6	0.00e+00	0	47	104	0	60	75624
2026-01-29 11:21:57.58	21.19	4.62	-51.8	-56.1	3.6	0.00e+00	0	47	104	0	60	75538
2026-01-29 11:22:00.61	20.73	4.78	-51.8	-56.1	3.6	0.00e+00	0	47	104	0	60	75807
2026-01-29 11:22:03.61	20.28	4.94	-51.7	-56.0	3.6	0.00e+00	0	47	104	0	60	75058
2026-01-29 11:22:06.63	19.81	5.10	-51.7	-56.1	3.6	0.00e+00	0	47	104	0	60	75735
2026-01-29 11:22:09.65	19.33	5.26	-51.7	-56.1	3.6	0.00e+00	0	47	104	0	60	75399
2026-01-29 11:22:12.67	18.85	5.42	-51.7	-56.1	3.6	0.00e+00	0	47	104	0	60	75292
2026-01-29 11:22:15.70	18.36	5.59	-51.6	-56.1	3.6	0.00e+00	0	47	104	0	60	75413
2026-01-29 11:22:18.72	17.87	5.75	-51.6	-56.0	3.6	0.00e+00	0	47	104	0	60	74620
2026-01-29 11:22:21.73	17.37	5.91	-51.6	-56.0	3.6	0.00e+00	0	47	104	0	60	74900
2026-01-29 11:22:24.75	16.86	6.06	-54.3	-57.7	3.6	0.00e+00	0	47	104	0	60	90811
2026-01-29 11:22:27.76	16.35	6.22	-53.9	-58.1	3.6	0.00e+00	0	47	104	0	60	95000
2026-01-29 11:22:30.77	15.83	6.38	-52.1	-56.6	3.6	0.00e+00	0	47	104	0	60	79970
2026-01-29 11:22:33.78	15.30	6.54	-53.6	-57.6	3.6	0.00e+00	0	47	104	0	60	89916
2026-01-29 11:22:36.80	14.76	6.69	-52.9	-56.1	3.6	0.00e+00	0	47	104	0	60	75131
2026-01-29 11:22:39.81	14.22	6.85	-53.4	-56.1	3.6	0.00e+00	0	47	104	0	60	75125
2026-01-29 11:22:42.82	13.67	7.00	-52.6	-55.3	3.5	0.00e+00	0	47	104	0	60	68551
2026-01-29 11:22:45.83	13.11	7.16	-54.0	-56.8	3.6	0.00e+00	0	47	104	0	60	81774
2026-01-29 11:22:48.85	12.54	7.31	-54.1	-57.7	3.6	0.00e+00	0	47	104	0	60	91257
2026-01-29 11:22:51.86	11.97	7.46	-55.5	-59.0	3.6	0.00e+00	0	47	104	0	60	105138
2026-01-29 11:22:54.88	11.39	7.62	-54.5	-57.8	3.6	0.00e+00	0	47	104	0	60	92338
2026-01-29 11:22:57.90	10.80	7.77	-55.0	-58.6	3.6	0.00e+00	0	47	104	0	60	100242
2026-01-29 11:23:00.91	10.20	7.91	-54.6	-58.3	3.6	0.00e+00	0	47	104	0	60	96894
2026-01-29 11:23:03.92	9.60	8.06	-54.7	-58.3	3.6	0.00e+00	0	47	104	0	60	97050
2026-01-29 11:23:06.94	8.99	8.21	-54.9	-58.3	3.6	0.00e+00	0	47	104	0	60	97603
2026-01-29 11:23:09.95	8.37	8.35	-54.8	-58.4	3.6	0.00e+00	0	47	104	0	60	98975
2026-01-29 11:23:12.96	7.74	8.49	-54.8	-58.6	3.6	0.00e+00	0	47	104	0	60	100458
2026-01-29 11:23:15.97	7.11	8.63	-55.1	-59.0	3.6	0.00e+00	0	48	104	0	60	105663
2026-01-29 11:23:18.98	6.47	8.77	-55.1	-58.6	3.6	0.00e+00	0	47	104	0	60	101118
2026-01-29 11:23:22.00	5.82	8.91	-55.5	-59.0	3.6	0.00e+00	0	47	104	0	60	105593
2026-01-29 11:23:25.01	5.16	9.04	-54.6	-58.0	3.6	0.00e+00	0	47	104	0	60	94495
2026-01-29 11:23:28.01	4.50	9.18	-54.3	-57.8	3.5	0.00e+00	0	47	104	0	60	91884
2026-01-29 11:23:31.04	3.82	9.31	-55.5	-59.0	3.6	0.00e+00	0	47	104	0	60	105419
2026-01-29 11:23:34.05	3.14	9.44	-54.4	-57.6	3.6	0.00e+00	0	47	104	0	60	90201
2026-01-29 11:23:37.07	2.45	9.56	-54.8	-58.1	3.6	0.00e+00	0	47	104	0	60	95366
2026-01-29 11:23:40.08	1.76	9.69	-54.6	-58.2	3.6	0.00e+00	0	47	104	0	60	95951
2026-01-29 11:23:43.09	1.06	9.81	-54.1	-57.5	3.6	0.00e+00	0	47	104	0	60	88511
2026-01-29 11:23:46.11	0.35	9.92	-54.5	-57.8	3.6	0.00e+00	0	48	104	0	60	92130
2026-01-29 11:23:49.12	359.63	10.04	-54.8	-58.5	3.5	0.00e+00	0	48	104	0	60	99064
2026-01-29 11:23:52.13	358.91	10.15	-53.8	-56.9	3.6	0.00e+00	0	48	104	0	60	83136
2026-01-29 11:23:55.15	358.18	10.26	-54.4	-57.8	3.6	0.00e+00	0	47	104	0	60	91543
2026-01-29 11:23:58.16	357.44	10.36	-54.4	-58.0	3.6	0.00e+00	0	47	104	0	60	94309
2026-01-29 11:24:01.18	356.70	10.47	-54.5	-58.2	3.6	0.00e+00	0	48	104	0	60	95863
2026-01-29 11:24:04.20	355.95	10.57	-54.2	-58.0	3.6	0.00e+00	0	47	104	0	60	94365
2026-01-29 11:24:07.20	355.19	10.66	-54.6	-58.3	3.6	0.00e+00	0	47	104	0	60	96832
2026-01-29 11:24:10.22	354.43	10.75	-54.6	-58.4	3.5	0.00e+00	0	47	104	0	60	98682
2026-01-29 11:24:13.23	353.66	10.84	-54.4	-58.2	3.6	0.00e+00	0	48	104	0	60	95876
2026-01-29 11:24:16.24	352.89	10.92	-54.2	-58.0	3.6	0.00e+00	0	48	104	0	60	93856
2026-01-29 11:24:19.25	352.12	11.00	-54.5	-58.4	3.6	0.00e+00	0	48	104	0	60	98035
2026-01-29 11:24:22.27	351.33	11.08	-54.9	-58.5	3.6	0.00e+00	0	47	104	0	60	99116
2026-01-29 11:24:25.28	350.54	11.15	-54.2	-58.3	3.6	0.00e+00	0	48	104	0	60	96860
2026-01-29 11:24:28.29	349.75	11.22	-55.2	-58.8	3.6	0.00e+00	0	48	104	0	60	103409
2026-01-29 11:24:31.30	348.96	11.28	-54.7	-58.3	3.6	0.00e+00	0	47	104	0	60	97776
2026-01-29 11:24:34.33	348.15	11.34	-54.6	-58.2	3.6	0.00e+00	0	48	104	0	60	95961
2026-01-29 11:24:37.35	347.34	11.39	-54.6	-58.4	3.6	0.00e+00	0	48	104	0	60	98576
2026-01-29 11:24:40.36	346.54	11.44	-54.3	-58.2	3.6	0.00e+00	0	48	104	0	60	96391
2026-01-29 11:24:43.38	345.72	11.49	-54.1	-57.9	3.6	0.00e+00	0	48	104	0	60	92933
2026-01-29 11:24:46.40	344.91	11.53	-54.6	-58.3	3.6	0.00e+00	0	48	104	0	60	96775
2026-01-29 11:24:49.42	344.09	11.56	-55.0	-58.6	3.6	0.00e+00	0	48	104	0	60	100517
2026-01-29 11:24:52.44	343.27	11.59	-54.5	-57.6	3.5	0.00e+00	0	48	104	0	60	89709
2026-01-29 11:24:55.46	342.44	11.62	-54.5	-58.1	3.6	0.00e+00	0	48	104	0	60	95341
2026-01-29 11:24:58.48	341.62	11.64	-54.4	-57.8	3.6	0.00e+00	0	48	104	0	60	91576
2026-01-29 11:25:01.50	340.79	11.66	-54.4	-57.8	3.6	0.00e+00	0	47	104	0	60	91701
2026-01-29 11:25:04.52	339.97	11.67	-54.3	-57.8	3.6	0.00e+00	0	48	104	0	60	92089
2026-01-29 11:25:07.53	339.14	11.67	-54.0	-57.3	3.6	0.00e+00	0	48	104	0	60	86566
2026-01-29 11:25:10.54	338.32	11.67	-53.9	-57.1	3.6	0.00e+00	0	48	104	0	60	85142
2026-01-29 11:25:13.56	337.49	11.67	-54.2	-57.8	3.6	0.00e+00	0	48	104	0	60	91713
2026-01-29 11:25:16.58	336.66	11.66	-53.8	-57.2	3.6	0.00e+00	0	48	104	0	60	85771
2026-01-29 11:25:19.60	335.84	11.65	-53.8	-57.6	3.6	0.00e+00	0	48	104	0	60	89547
2026-01-29 11:25:22.61	335.01	11.63	-53.4	-57.3	3.6	0.00e+00	0	48	104	0	60	86342
2026-01-29 11:25:25.63	334.19	11.60	-53.4	-57.4	3.6	0.00e+00	0	48	104	0	60	88086
2026-01-29 11:25:28.65	333.37	11.58	-53.4	-56.9	3.6	0.00e+00	0	48	104	0	60	83063
2026-01-29 11:25:31.66	332.55	11.54	-53.6	-57.1	3.6	0.00e+00	0	48	104	0	60	84384
2026-01-29 11:25:34.66	331.74	11.50	-52.9	-56.5	3.6	0.00e+00	0	48	104	0	60	78626
2026-01-29 11:25:37.68	330.92	11.46	-53.2	-57.3	3.6	0.00e+00	0	48	104	0	60	86675
2026-01-29 11:25:40.70	330.11	11.41	-53.4	-56.8	3.6	0.00e+00	0	48	104	0	60	82319
2026-01-29 11:25:43.71	329.31	11.36	-53.3	-57.0	3.6	0.00e+00	0	48	104	0	60	84044
2026-01-29 11:25:46.73	328.50	11.30	-52.9	-55.8	3.6	0.00e+00	0	48	104	0	60	72988
2026-01-29 11:25:49.75	327.70	11.24	-53.3	-56.7	3.6	0.00e+00	0	48	104	0	60	80468
2026-01-29 11:25:52.77	326.90	11.18	-53.2	-56.2	3.6	0.00e+00	0	48	104	0	60	76447
2026-01-29 11:25:55.78	326.11	11.11	-53.2	-56.2	3.6	0.00e+00	0	48	104	0	60	76291
2026-01-29 11:25:58.80	325.33	11.03	-52.2	-54.5	3.7	0.00e+00	0	48	104	0	60	62657
2026-01-29 11:26:01.82	324.54	10.95	-53.2	-56.1	3.6	0.00e+00	0	48	104	0	60	75666
2026-01-29 11:26:04.84	323.77	10.87	-52.2	-54.6	3.7	0.00e+00	0	48	104	0	60	63563
2026-01-29 11:26:07.86	322.99	10.79	-53.5	-56.7	3.6	0.00e+00	0	48	104	0	60	81122
2026-01-29 11:26:10.87	322.23	10.70	-52.2	-54.6	3.7	0.00e+00	0	48	104	0	60	63640
2026-01-29 11:26:13.89	321.47	10.60	-52.7	-55.4	3.6	0.00e+00	0	48	104	0	60	69575
2026-01-29 11:26:16.91	320.71	10.50	-52.9	-55.8	3.6	0.00e+00	0	48	104	0	60	73359
2026-01-29 11:26:19.92	319.97	10.40	-52.4	-55.3	3.6	0.00e+00	0	48	104	0	60	68978
2026-01-29 11:26:22.95	319.22	10.30	-52.3	-55.3	3.6	0.00e+00	0	48	104	0	60	69148
2026-01-29 11:26:25.97	318.49	10.19	-53.0	-56.2	3.6	0.00e+00	0	48	104	0	60	76674
2026-01-29 11:26:29.00	317.76	10.08	-53.4	-56.7	3.6	0.00e+00	0	48	104	0	60	80935
2026-01-29 11:26:32.01	317.04	9.96	-53.6	-56.9	3.6	0.00e+00	0	48	104	0	60	82821
2026-01-29 11:26:35.03	316.33	9.85	-53.0	-56.2	3.6	0.00e+00	0	48	104	0	60	76622
2026-01-29 11:26:38.05	315.62	9.73	-53.0	-56.8	3.6	0.00e+00	0	48	104	0	60	81877
2026-01-29 11:26:41.07	314.92	9.60	-52.8	-56.6	3.6	0.00e+00	0	48	104	0	60	79668
2026-01-29 11:26:44.09	314.22	9.48	-52.4	-56.0	3.6	0.00e+00	0	48	104	0	60	75062
2026-01-29 11:26:47.11	313.54	9.35	-53.1	-56.7	3.6	0.00e+00	0	48	104	0	60	80992
2026-01-29 11:26:50.13	312.86	9.22	-52.9	-56.4	3.6	0.00e+00	0	48	104	0	60	78141
2026-01-29 11:26:53.15	312.19	9.09	-53.3	-57.0	3.6	0.00e+00	0	48	104	0	60	84030
2026-01-29 11:26:56.16	311.53	8.95	-53.4	-57.2	3.6	0.00e+00	0	48	104	0	60	85824
2026-01-29 11:26:59.17	310.88	8.82	-52.8	-56.5	3.6	0.00e+00	0	48	104	0	60	78806
2026-01-29 11:27:02.19	310.23	8.68	-52.9	-56.7	3.6	0.00e+00	0	48	104	0	60	80539
2026-01-29 11:27:05.21	309.59	8.54	-51.9	-55.8	3.6	0.00e+00	0	48	104	0	60	73246
2026-01-29 11:27:08.23	308.96	8.40	-51.3	-54.5	3.6	0.00e+00	0	48	104	0	60	63006
2026-01-29 11:27:11.25	308.33	8.25	-52.9	-56.1	3.6	0.00e+00	0	48	104	0	60	75155
2026-01-29 11:27:14.27	307.71	8.11	-51.3	-53.4	3.8	0.00e+00	0	48	104	0	60	55252
2026-01-29 11:27:17.29	307.11	7.96	-51.7	-54.1	3.7	0.00e+00	0	48	104	0	60	60239
2026-01-29 11:27:20.31	306.50	7.81	-53.2	-56.8	3.6	0.00e+00	0	48	104	0	60	81706
2026-01-29 11:27:23.33	305.91	7.66	-51.0	-53.2	3.8	0.00e+00	0	48	104	0	60	53807
2026-01-29 11:27:26.35	305.32	7.51	-52.2	-55.0	3.7	0.00e+00	0	48	104	0	60	66261
2026-01-29 11:27:29.37	304.74	7.36	-52.5	-56.0	3.6	0.00e+00	0	48	104	0	60	74873
2026-01-29 11:27:32.39	304.17	7.20	-48.8	-50.2	4.2	0.00e+00	0	48	104	0	60	38195
2026-01-29 11:27:35.40	303.61	7.05	-51.8	-54.4	3.6	0.00e+00	0	48	104	0	60	61887
2026-01-29 11:27:38.42	303.06	6.89	-48.2	-50.0	3.9	0.00e+00	0	48	104	0	60	37536
2026-01-29 11:27:41.44	302.51	6.74	-49.9	-54.4	3.6	0.00e+00	0	48	104	0	60	61742
2026-01-29 11:27:44.46	301.97	6.58	-53.3	-57.2	3.6	0.00e+00	0	48	104	0	60	86211
2026-01-29 11:27:47.48	301.43	6.42	-51.9	-55.7	3.6	0.00e+00	0	48	104	0	60	71950
2026-01-29 11:27:50.51	300.90	6.26	-52.4	-56.2	3.6	0.00e+00	0	48	104	0	60	76347
2026-01-29 11:27:53.53	300.39	6.11	-52.3	-56.1	3.6	0.00e+00	0	48	104	0	60	75482
2026-01-29 11:27:56.54	299.87	5.95	-53.9	-57.9	3.6	0.00e+00	0	48	104	0	60	93267
2026-01-29 11:27:59.57	299.37	5.79	-56.0	-59.5	3.6	0.00e+00	0	48	104	0	60	111574
2026-01-29 11:28:02.59	298.87	5.63	-56.3	-60.2	3.6	0.00e+00	0	48	104	0	60	121189
2026-01-29 11:28:05.61	298.38	5.46	-56.4	-60.2	3.5	0.00e+00	0	48	104	0	60	121011
2026-01-29 11:28:08.63	297.89	5.30	-56.6	-60.1	3.6	0.00e+00	0	48	104	0	60	119845
2026-01-29 11:28:11.64	297.42	5.14	-58.1	-61.8	3.6	0.00e+00	0	48	104	0	60	144866
2026-01-29 11:28:14.66	296.95	4.98	-57.2	-61.1	3.6	0.00e+00	0	48	104	0	60	133913
2026-01-29 11:28:17.68	296.48	4.82	-57.3	-61.2	3.6	0.00e+00	0	48	104	0	60	136226
2026-01-29 11:28:20.70	296.03	4.66	-57.2	-61.1	3.6	0.00e+00	0	48	104	0	60	134429
2026-01-29 11:28:23.72	295.58	4.50	-57.2	-61.0	3.6	0.00e+00	0	48	104	0	60	133412
2026-01-29 11:28:26.73	295.13	4.33	-57.1	-61.0	3.6	0.00e+00	0	48	104	0	60	133068
2026-01-29 11:28:29.76	294.69	4.17	-57.1	-61.0	3.6	0.00e+00	0	48	104	0	60	132772
2026-01-29 11:28:32.78	294.26	4.01	-57.0	-60.9	3.6	0.00e+00	0	48	104	0	60	131201
2026-01-29 11:28:35.80	293.83	3.85	-56.9	-60.9	3.6	0.00e+00	0	48	104	0	60	130593
2026-01-29 11:28:38.82	293.41	3.69	-56.9	-60.9	3.5	0.00e+00	0	48	104	0	60	130784
2026-01-29 11:28:41.85	293.00	3.52	-56.9	-60.9	3.6	0.00e+00	0	48	104	0	60	130769
2026-01-29 11:28:44.87	292.59	3.36	-57.0	-60.9	3.6	0.00e+00	0	48	104	0	60	130839
2026-01-29 11:28:47.89	292.19	3.20	-57.0	-60.9	3.6	0.00e+00	0	48	104	0	60	131699
2026-01-29 11:28:50.92	291.79	3.04	-57.1	-61.0	3.6	0.00e+00	0	48	104	0	60	133105
2026-01-29 11:28:53.94	291.40	2.88	-57.0	-61.0	3.6	0.00e+00	0	48	104	0	60	132129
2026-01-29 11:28:56.96	291.01	2.72	-57.0	-61.0	3.6	0.00e+00	0	48	104	0	60	132320
2026-01-29 11:28:59.98	290.63	2.55	-57.0	-60.9	3.6	0.00e+00	0	48	104	0	60	131859
2026-01-29 11:29:03.00	290.26	2.39	-57.0	-60.9	3.6	0.00e+00	0	48	104	0	60	131875
2026-01-29 11:29:06.02	289.89	2.23	-57.0	-60.9	3.6	0.00e+00	0	48	104	0	60	131105
2026-01-29 11:29:09.04	289.52	2.07	-56.9	-60.9	3.6	0.00e+00	0	48	104	0	60	130571
2026-01-29 11:29:12.05	289.17	1.91	-56.9	-60.8	3.6	0.00e+00	0	48	104	0	60	129349
2026-01-29 11:29:14.92	288.83	1.76	-56.7	-60.7	3.6	0.00e+00	0	48	104	0	60	128371
2026-01-29 11:29:18.09	288.46	1.60	-56.8	-60.7	3.6	0.00e+00	0	48	104	0	60	128510
2026-01-29 11:29:20.96	288.13	1.44	-56.7	-60.7	3.6	0.00e+00	0	48	104	0	60	128517
2026-01-29 11:29:24.12	287.78	1.28	-56.7	-60.7	3.6	0.00e+00	0	48	104	0	60	128824
2026-01-29 11:29:27.00	287.46	1.13	-56.8	-60.7	3.6	0.00e+00	0	48	104	0	60	128321
2026-01-29 11:29:30.15	287.11	0.96	-56.8	-60.8	3.6	0.00e+00	0	48	104	0	60	129309
2026-01-29 11:29:33.02	286.80	0.81	-56.8	-60.7	3.6	0.00e+00	0	48	104	0	60	128733
2026-01-29 11:29:36.19	286.47	0.65	-56.8	-60.7	3.6	0.00e+00	0	48	104	0	60	128594
2026-01-29 11:29:39.07	286.17	0.50	-56.8	-60.7	3.6	0.00e+00	0	48	104	0	60	128612
2026-01-29 11:29:42.22	285.84	0.34	-56.8	-60.7	3.6	0.00e+00	0	48	104	0	60	127556
2026-01-29 11:29:45.10	285.54	0.19	-56.7	-60.6	3.6	0.00e+00	0	48	104	0	60	127355
2026-01-29 11:29:48.27	285.23	0.03	-56.7	-60.7	3.6	0.00e+00	0	48	104	0	60	127701

#Closed at: 2026-01-29 11:29:49
#Recorded file [0 MB]: D:/Data/35015_260129_142032.dat