passes_logs/2026/01/29/R3.2S-Naryan-Mar/R3.2S-Naryan-Mar__20260129_102637_NOAA_20_JPSS-1_rec.log

#Pass ID: 20260129_102637_NOAA 20 (JPSS-1)
#Satellite: NOAA 20 (JPSS-1)
#Configuration: NOAA 20
#almurnet v.1.7.20240730
#Start time: 2026-01-29 10:26:40

#Version: 2.2.20231116
#Station: R3.2S-Naryan-Mar
#Location: 53.008057 lon 67.646978 lat
#TLE: 1 43013U 17073A   26027.94683596  .00000137  00000+0  85741-4 0  9995
#TLE: 2 43013  98.7648 328.7503 0000940  21.3928 338.7287 14.19541154424576

#Time	Az	El	Level	Level2	SNR	BER	BlckErr	Temp	State	Recorded	gain1	gain2
2026-01-29 10:26:40.91	206.34	0.16	-60.7	-76.7	3.3	1.54e+00	0	44	0	0	60	267908
2026-01-29 10:26:44.93	206.58	0.37	-62.3	-78.7	3.6	1.51e+00	0	44	104	0	60	339110
2026-01-29 10:26:48.97	206.83	0.59	-61.2	-77.8	3.6	1.51e+00	0	44	104	0	60	302561
2026-01-29 10:26:53.00	207.08	0.81	-59.7	-76.2	3.6	1.51e+00	0	44	104	0	60	254289
2026-01-29 10:26:57.03	207.33	1.03	-58.2	-75.0	3.6	1.51e+00	0	45	104	0	60	221153
2026-01-29 10:27:01.06	207.59	1.25	-58.0	-74.9	3.6	1.51e+00	0	45	104	0	60	217700
2026-01-29 10:27:05.10	207.85	1.47	-58.0	-74.9	3.5	1.51e+00	0	45	104	0	60	217071
2026-01-29 10:27:09.13	208.11	1.70	-58.0	-74.8	3.6	1.51e+00	0	44	104	0	60	215574
2026-01-29 10:27:13.16	208.38	1.92	-58.0	-74.8	3.5	1.51e+00	0	45	104	0	60	214207
2026-01-29 10:27:17.19	208.65	2.15	-57.9	-74.8	3.6	1.51e+00	0	45	104	0	60	214677
2026-01-29 10:27:21.22	208.93	2.38	-57.9	-74.8	3.6	1.51e+00	0	45	104	0	60	214212
2026-01-29 10:27:25.25	209.21	2.60	-57.9	-74.7	3.6	1.51e+00	0	45	104	0	60	213180
2026-01-29 10:27:29.29	209.49	2.83	-57.9	-74.8	3.6	1.51e+00	0	45	104	0	60	214184
2026-01-29 10:27:33.31	209.78	3.07	-57.9	-74.8	3.6	1.51e+00	0	45	104	0	60	214307
2026-01-29 10:27:37.34	210.07	3.30	-57.9	-74.6	3.6	1.51e+00	0	45	104	0	60	211209
2026-01-29 10:27:41.37	210.36	3.53	-57.8	-74.7	3.6	1.51e+00	0	45	104	0	60	212343
2026-01-29 10:27:45.40	210.67	3.77	-57.8	-74.6	3.6	1.51e+00	0	45	104	0	60	211314
2026-01-29 10:27:49.43	210.97	4.00	-57.8	-74.6	3.6	1.51e+00	0	45	104	0	60	211334
2026-01-29 10:27:53.45	211.28	4.24	-57.8	-74.6	3.6	1.51e+00	0	45	104	0	60	211096
2026-01-29 10:27:57.48	211.60	4.48	-57.8	-74.5	3.6	1.51e+00	0	45	104	0	60	208278
2026-01-29 10:28:01.51	211.92	4.72	-57.8	-74.5	3.6	1.51e+00	0	45	104	0	60	208585
2026-01-29 10:28:05.54	212.24	4.97	-57.8	-74.5	3.6	1.51e+00	0	45	104	0	60	207506
2026-01-29 10:28:09.56	212.57	5.21	-57.7	-74.1	3.6	1.51e+00	0	45	104	0	60	198965
2026-01-29 10:28:13.58	212.91	5.46	-57.7	-71.7	3.9	1.49e+00	0	45	104	0	60	150213
2026-01-29 10:28:17.61	213.25	5.70	-56.5	-62.3	11.0	6.07e-03	0	45	0	6291456	60	50942
2026-01-29 10:28:21.65	213.59	5.95	-55.0	-58.6	15.0	0.00e+00	0	45	0	13631488	60	33255
2026-01-29 10:28:25.67	213.95	6.20	-56.7	-63.6	5.7	1.51e+00	0	45	104	19922944	60	59213
2026-01-29 10:28:29.68	214.30	6.45	-54.9	-58.1	15.6	0.00e+00	0	45	0	2097152	60	31607
2026-01-29 10:28:33.70	214.67	6.71	-54.3	-57.0	16.8	0.00e+00	0	45	0	9437184	60	27806
2026-01-29 10:28:37.72	215.04	6.96	-53.9	-56.3	17.4	0.00e+00	0	45	0	17825792	60	25639
2026-01-29 10:28:41.75	215.41	7.22	-53.9	-56.1	17.7	0.00e+00	0	45	0	25165824	60	25151
2026-01-29 10:28:45.78	215.79	7.47	-53.8	-56.0	18.0	0.00e+00	0	45	0	32505856	60	24683
2026-01-29 10:28:49.81	216.18	7.73	-53.7	-55.9	18.2	0.00e+00	0	45	0	39845888	60	24392
2026-01-29 10:28:53.83	216.58	7.99	-53.8	-55.9	18.3	0.00e+00	0	45	0	47185920	60	24352
2026-01-29 10:28:57.85	216.98	8.26	-53.9	-56.0	18.1	0.00e+00	0	45	0	54525952	60	24814
2026-01-29 10:29:01.88	217.39	8.52	-53.6	-55.6	18.6	0.00e+00	0	45	0	62914560	60	23702
2026-01-29 10:29:05.88	217.81	8.78	-53.7	-55.8	18.5	0.00e+00	0	45	0	70254592	60	24107
2026-01-29 10:29:09.90	218.23	9.05	-53.8	-55.9	18.5	0.00e+00	0	45	0	77594624	60	24378
2026-01-29 10:29:13.93	218.66	9.32	-53.6	-55.6	18.8	0.00e+00	0	45	0	84934656	60	23548
2026-01-29 10:29:17.95	219.10	9.59	-53.5	-55.3	19.1	0.00e+00	0	45	0	92274688	60	22927
2026-01-29 10:29:21.97	219.55	9.86	-53.4	-55.2	19.4	0.00e+00	0	45	0	100663296	60	22522
2026-01-29 10:29:25.98	220.00	10.13	-53.5	-55.3	19.3	0.00e+00	0	45	0	108003328	60	22818
2026-01-29 10:29:30.00	220.46	10.41	-53.4	-55.2	19.4	0.00e+00	0	45	0	115343360	60	22570
2026-01-29 10:29:34.01	220.93	10.68	-53.4	-55.1	19.5	0.00e+00	0	45	0	122683392	60	22351
2026-01-29 10:29:38.04	221.41	10.96	-53.5	-55.2	19.5	0.00e+00	0	45	0	130023424	60	22551
2026-01-29 10:29:42.06	221.90	11.24	-53.7	-55.5	19.4	0.00e+00	0	45	0	138412032	60	23365
2026-01-29 10:29:46.08	222.40	11.52	-53.9	-55.7	19.1	0.00e+00	0	45	0	145752064	60	23915
2026-01-29 10:29:50.12	222.91	11.80	-53.7	-55.4	19.5	0.00e+00	0	45	0	153092096	60	23195
2026-01-29 10:29:54.14	223.42	12.08	-53.4	-55.0	19.8	0.00e+00	0	45	0	160432128	60	22143
2026-01-29 10:29:58.17	223.95	12.36	-53.5	-55.2	19.8	0.00e+00	0	45	0	167772160	60	22491
2026-01-29 10:30:02.19	224.49	12.65	-53.4	-55.1	20.0	0.00e+00	0	45	0	175112192	60	22232
2026-01-29 10:30:06.21	225.03	12.93	-53.3	-54.9	20.1	0.00e+00	0	45	0	183500800	60	21776
2026-01-29 10:30:10.25	225.59	13.22	-53.5	-55.1	20.0	0.00e+00	0	45	0	190840832	60	22312
2026-01-29 10:30:14.28	226.16	13.51	-53.7	-55.3	19.9	0.00e+00	0	45	0	198180864	60	22822
2026-01-29 10:30:18.29	226.73	13.80	-53.6	-55.3	19.9	0.00e+00	0	45	0	205520896	60	22756
2026-01-29 10:30:22.32	227.32	14.09	-53.6	-55.2	20.0	0.00e+00	0	45	0	213909504	60	22567
2026-01-29 10:30:26.34	227.92	14.38	-53.6	-55.2	20.0	0.00e+00	0	45	0	221249536	60	22597
2026-01-29 10:30:30.37	228.54	14.67	-53.6	-55.2	20.0	0.00e+00	0	45	0	228589568	60	22645
2026-01-29 10:30:34.39	229.16	14.96	-53.4	-55.0	20.3	0.00e+00	0	45	0	235929600	60	22082
2026-01-29 10:30:38.42	229.79	15.25	-53.5	-55.0	20.3	0.00e+00	0	45	0	243269632	60	22130
2026-01-29 10:30:42.43	230.44	15.54	-53.4	-54.9	20.5	0.00e+00	0	45	0	251658240	60	21712
2026-01-29 10:30:46.45	231.10	15.83	-53.2	-54.6	20.7	0.00e+00	0	45	0	258998272	60	21104
2026-01-29 10:30:50.47	231.77	16.12	-53.1	-54.5	20.8	0.00e+00	0	45	0	266338304	60	20874
2026-01-29 10:30:54.48	232.45	16.41	-53.0	-54.5	20.7	0.00e+00	0	45	0	273678336	60	20892
2026-01-29 10:30:58.51	233.15	16.70	-53.4	-54.9	20.5	0.00e+00	0	45	0	281018368	60	21849
2026-01-29 10:31:02.53	233.86	16.99	-53.5	-55.0	20.4	0.00e+00	0	45	0	288358400	60	22096
2026-01-29 10:31:06.55	234.58	17.28	-53.4	-55.0	20.3	0.00e+00	0	45	0	296747008	60	22061
2026-01-29 10:31:10.57	235.32	17.57	-53.1	-54.7	20.5	0.00e+00	0	45	0	304087040	60	21221
2026-01-29 10:31:14.59	236.07	17.85	-52.7	-54.2	20.9	0.00e+00	0	45	0	311427072	60	20010
2026-01-29 10:31:18.61	236.83	18.14	-52.7	-54.1	20.9	0.00e+00	0	45	0	318767104	60	19886
2026-01-29 10:31:22.64	237.61	18.42	-52.3	-53.6	21.2	0.00e+00	0	45	0	326107136	60	18855
2026-01-29 10:31:26.65	238.40	18.70	-52.2	-53.5	21.6	0.00e+00	0	45	0	334495744	60	18607
2026-01-29 10:31:30.67	239.21	18.98	-52.2	-53.5	21.4	0.00e+00	0	45	0	341835776	60	18593
2026-01-29 10:31:34.69	240.03	19.26	-51.9	-53.2	21.6	0.00e+00	0	45	0	349175808	60	17967
2026-01-29 10:31:38.72	240.87	19.53	-52.0	-53.3	21.6	0.00e+00	0	45	0	356515840	60	18038
2026-01-29 10:31:42.73	241.72	19.80	-52.1	-53.5	21.5	0.00e+00	0	45	0	363855872	60	18446
2026-01-29 10:31:46.76	242.58	20.07	-52.0	-53.3	21.6	0.00e+00	0	45	0	372244480	60	18052
2026-01-29 10:31:50.78	243.46	20.33	-52.2	-53.5	21.3	0.00e+00	0	45	0	379584512	60	18627
2026-01-29 10:31:54.81	244.36	20.59	-52.2	-53.5	21.5	0.00e+00	0	45	0	386924544	60	18484
2026-01-29 10:31:58.84	245.27	20.85	-52.4	-53.8	21.3	0.00e+00	0	45	0	394264576	60	19082
2026-01-29 10:32:02.84	246.19	21.10	-52.9	-54.4	20.6	0.00e+00	0	45	0	401604608	60	20459
2026-01-29 10:32:06.86	247.13	21.34	-53.0	-54.5	20.5	0.00e+00	0	45	0	408944640	60	20752
2026-01-29 10:32:10.89	248.08	21.58	-53.3	-54.9	20.0	0.00e+00	0	45	0	417333248	60	21790
2026-01-29 10:32:14.91	249.05	21.81	-53.5	-55.1	20.0	0.00e+00	0	45	0	424673280	60	22347
2026-01-29 10:32:18.94	250.03	22.04	-52.8	-54.3	20.7	0.00e+00	0	45	0	432013312	60	20279
2026-01-29 10:32:22.95	251.02	22.26	-52.8	-54.3	20.5	0.00e+00	0	45	0	439353344	60	20335
2026-01-29 10:32:26.98	252.03	22.48	-53.1	-54.5	20.5	0.00e+00	0	45	0	446693376	60	20901
2026-01-29 10:32:31.00	253.05	22.68	-53.2	-54.7	20.3	0.00e+00	0	45	0	455081984	60	21284
2026-01-29 10:32:35.01	254.09	22.88	-53.2	-54.8	20.2	0.00e+00	0	45	0	462422016	60	21515
2026-01-29 10:32:39.04	255.13	23.07	-53.9	-55.6	19.5	0.00e+00	0	45	0	469762048	60	23620
2026-01-29 10:32:43.07	256.20	23.26	-53.9	-55.7	19.4	0.00e+00	0	45	0	477102080	60	23781
2026-01-29 10:32:47.09	257.27	23.43	-53.2	-54.8	20.2	0.00e+00	0	45	0	484442112	60	21448
2026-01-29 10:32:51.12	258.35	23.59	-53.7	-55.4	19.7	0.00e+00	0	45	0	491782144	60	22950
2026-01-29 10:32:55.14	259.45	23.75	-53.8	-55.5	19.7	0.00e+00	0	45	0	500170752	60	23221
2026-01-29 10:32:59.16	260.55	23.89	-53.7	-55.4	19.7	0.00e+00	0	45	0	507510784	60	23114
2026-01-29 10:33:03.18	261.66	24.03	-54.3	-56.2	18.9	0.00e+00	0	45	0	514850816	60	25331
2026-01-29 10:33:07.20	262.78	24.15	-54.2	-56.1	19.1	0.00e+00	0	45	0	522190848	60	24962
2026-01-29 10:33:11.23	263.92	24.27	-54.2	-56.0	19.3	0.00e+00	0	45	0	530579456	60	24719
2026-01-29 10:33:15.25	265.05	24.37	-54.3	-56.2	19.1	0.00e+00	0	45	0	537919488	60	25345
2026-01-29 10:33:19.28	266.20	24.46	-53.9	-55.6	19.7	0.00e+00	0	45	0	545259520	60	23637
2026-01-29 10:33:23.31	267.35	24.54	-53.2	-54.6	20.7	0.00e+00	0	45	0	552599552	60	21136
2026-01-29 10:33:27.34	268.51	24.61	-53.3	-54.8	20.5	0.00e+00	0	45	0	559939584	60	21500
2026-01-29 10:33:31.36	269.67	24.66	-53.1	-54.6	20.6	0.00e+00	0	45	0	568328192	60	21006
2026-01-29 10:33:35.39	270.84	24.70	-53.5	-55.0	20.3	0.00e+00	0	45	0	575668224	60	22109
2026-01-29 10:33:39.41	272.00	24.74	-54.1	-55.9	19.4	0.00e+00	0	45	0	583008256	60	24377
2026-01-29 10:33:43.42	273.17	24.75	-53.4	-54.9	20.4	0.00e+00	0	45	0	590348288	60	21838
2026-01-29 10:33:47.45	274.34	24.76	-53.4	-55.0	20.2	0.00e+00	0	45	0	597688320	60	22121
2026-01-29 10:33:51.46	275.50	24.76	-53.4	-55.1	20.1	0.00e+00	0	45	0	605028352	60	22299
2026-01-29 10:33:55.47	276.67	24.74	-53.2	-54.8	20.3	0.00e+00	0	45	0	613416960	60	21593
2026-01-29 10:33:59.49	277.83	24.71	-53.3	-55.1	19.9	0.00e+00	0	45	0	620756992	60	22200
2026-01-29 10:34:03.51	278.99	24.66	-53.2	-55.1	19.7	0.00e+00	0	45	0	628097024	60	22403
2026-01-29 10:34:07.52	280.15	24.61	-52.4	-54.1	20.6	0.00e+00	0	45	0	635437056	60	19903
2026-01-29 10:34:11.54	281.31	24.54	-53.2	-55.2	19.7	0.00e+00	0	45	0	642777088	60	22448
2026-01-29 10:34:15.57	282.46	24.47	-53.5	-55.5	19.4	0.00e+00	0	45	0	651165696	60	23271
2026-01-29 10:34:19.60	283.60	24.38	-53.4	-55.2	19.7	0.00e+00	0	45	0	658505728	60	22476
2026-01-29 10:34:23.63	284.74	24.28	-53.2	-54.8	20.0	0.00e+00	0	45	0	665845760	60	21561
2026-01-29 10:34:27.65	285.87	24.16	-53.5	-55.3	19.6	0.00e+00	0	45	0	673185792	60	22715
2026-01-29 10:34:31.67	286.99	24.04	-52.8	-54.5	20.4	0.00e+00	0	45	0	680525824	60	20753
2026-01-29 10:34:35.69	288.10	23.91	-52.8	-54.6	20.2	0.00e+00	0	45	0	688914432	60	21037
2026-01-29 10:34:39.72	289.21	23.76	-52.3	-53.9	20.9	0.00e+00	0	45	0	696254464	60	19433
2026-01-29 10:34:43.75	290.30	23.61	-52.2	-53.8	20.8	0.00e+00	0	45	0	703594496	60	19201
2026-01-29 10:34:47.78	291.38	23.45	-52.3	-53.7	21.1	0.00e+00	0	45	0	710934528	60	19060
2026-01-29 10:34:51.81	292.46	23.28	-52.1	-53.5	21.1	0.00e+00	0	45	0	718274560	60	18475
2026-01-29 10:34:55.84	293.52	23.09	-52.1	-53.4	21.6	0.00e+00	0	45	0	726663168	60	18385
2026-01-29 10:34:59.86	294.56	22.90	-51.6	-52.9	22.1	0.00e+00	0	45	0	734003200	60	17214
2026-01-29 10:35:03.88	295.59	22.71	-51.6	-52.9	22.2	0.00e+00	0	45	0	741343232	60	17209
2026-01-29 10:35:07.91	296.62	22.50	-51.5	-52.7	22.4	0.00e+00	0	45	0	748683264	60	16923
2026-01-29 10:35:11.94	297.62	22.29	-51.9	-53.2	21.9	0.00e+00	0	45	0	756023296	60	17918
2026-01-29 10:35:15.97	298.62	22.07	-52.2	-53.7	21.5	0.00e+00	0	45	0	764411904	60	18918
2026-01-29 10:35:19.99	299.60	21.84	-51.7	-53.0	21.9	0.00e+00	0	45	0	771751936	60	17484
2026-01-29 10:35:24.01	300.56	21.61	-52.0	-53.3	21.7	0.00e+00	0	45	0	779091968	60	18106
2026-01-29 10:35:28.03	301.51	21.37	-52.8	-54.2	21.1	0.00e+00	0	45	0	786432000	60	20038
2026-01-29 10:35:32.04	302.44	21.13	-53.3	-55.1	20.1	0.00e+00	0	45	0	793772032	60	22178
2026-01-29 10:35:36.07	303.37	20.88	-53.3	-55.1	20.0	0.00e+00	0	45	0	802160640	60	22411
2026-01-29 10:35:40.09	304.27	20.63	-52.6	-54.2	21.1	0.00e+00	0	45	0	809500672	60	20051
2026-01-29 10:35:44.11	305.17	20.37	-52.7	-54.1	21.1	0.00e+00	0	45	0	816840704	60	19956
2026-01-29 10:35:48.13	306.04	20.11	-53.2	-54.7	20.5	0.00e+00	0	45	0	824180736	60	21359
2026-01-29 10:35:52.15	306.91	19.85	-53.4	-55.1	20.2	0.00e+00	0	45	0	831520768	60	22210
2026-01-29 10:35:56.17	307.76	19.58	-53.1	-54.8	20.6	0.00e+00	0	45	0	838860800	60	21410
2026-01-29 10:36:00.19	308.59	19.31	-52.6	-54.3	21.0	0.00e+00	0	45	0	847249408	60	20265
2026-01-29 10:36:04.20	309.41	19.03	-53.1	-54.7	20.5	0.00e+00	0	45	0	854589440	60	21252
2026-01-29 10:36:08.21	310.21	18.76	-53.0	-54.5	20.8	0.00e+00	0	45	0	861929472	60	20781
2026-01-29 10:36:12.24	311.00	18.48	-53.2	-54.8	20.5	0.00e+00	0	45	0	869269504	60	21588
2026-01-29 10:36:16.26	311.78	18.20	-53.3	-55.0	20.0	0.00e+00	0	45	0	876609536	60	22092
2026-01-29 10:36:20.28	312.54	17.91	-53.8	-55.9	19.2	0.00e+00	0	45	0	884998144	60	24459
2026-01-29 10:36:24.30	313.29	17.63	-53.0	-54.7	20.4	0.00e+00	0	45	0	892338176	60	21399
2026-01-29 10:36:28.33	314.03	17.34	-53.7	-55.5	19.8	0.00e+00	0	45	0	899678208	60	23238
2026-01-29 10:36:32.35	314.75	17.06	-53.5	-55.7	19.2	0.00e+00	0	45	0	907018240	60	23920
2026-01-29 10:36:36.37	315.46	16.77	-52.9	-54.9	19.8	0.00e+00	0	46	0	914358272	60	21893
2026-01-29 10:36:40.39	316.15	16.48	-53.5	-55.5	19.5	0.00e+00	0	45	0	922746880	60	23382
2026-01-29 10:36:44.42	316.84	16.19	-53.1	-54.9	20.1	0.00e+00	0	45	0	930086912	60	21898
2026-01-29 10:36:48.42	317.51	15.91	-53.3	-55.6	19.3	0.00e+00	0	45	0	937426944	60	23541
2026-01-29 10:36:52.44	318.16	15.62	-53.4	-55.8	18.6	0.00e+00	0	45	0	944766976	60	24131
2026-01-29 10:36:56.47	318.81	15.33	-52.7	-54.8	19.7	0.00e+00	0	45	0	952107008	60	21595
2026-01-29 10:37:00.48	319.44	15.04	-53.4	-55.9	19.0	0.00e+00	0	45	0	959447040	60	24349
2026-01-29 10:37:04.49	320.06	14.75	-53.5	-55.9	19.0	0.00e+00	0	45	0	967835648	60	24444
2026-01-29 10:37:08.51	320.67	14.47	-52.7	-55.4	18.6	0.00e+00	0	46	0	975175680	60	23138
2026-01-29 10:37:12.54	321.27	14.18	-53.2	-56.6	17.5	0.00e+00	0	45	0	982515712	60	26466
2026-01-29 10:37:16.57	321.86	13.89	-53.7	-56.7	17.6	0.00e+00	0	45	0	989855744	60	26864
2026-01-29 10:37:20.59	322.44	13.61	-53.9	-56.5	17.8	0.00e+00	0	45	0	997195776	60	26275
2026-01-29 10:37:24.62	323.01	13.32	-54.5	-57.6	16.5	0.00e+00	0	45	0	1005584384	60	29861
2026-01-29 10:37:28.65	323.57	13.04	-54.4	-58.3	15.4	0.00e+00	0	45	0	1012924416	60	32104
2026-01-29 10:37:32.68	324.11	12.75	-54.1	-58.4	15.1	0.00e+00	0	45	0	1020264448	60	32588
2026-01-29 10:37:36.69	324.65	12.47	-54.8	-59.5	14.1	7.00e-07	0	45	0	1027604480	60	36976
2026-01-29 10:37:40.72	325.17	12.19	-55.8	-60.4	13.2	1.67e-05	0	46	0	1034944512	60	40834
2026-01-29 10:37:44.75	325.69	11.91	-56.2	-60.8	12.6	8.62e-05	0	46	0	1043333120	60	43104
2026-01-29 10:37:48.78	326.20	11.63	-55.8	-61.4	11.7	4.97e-04	0	45	0	1050673152	60	45789
2026-01-29 10:37:52.79	326.70	11.35	-56.0	-62.5	10.3	4.12e-03	0	45	0	1058013184	60	52374
2026-01-29 10:37:56.81	327.19	11.07	-56.6	-63.6	9.0	2.07e-02	0	46	0	1065353216	60	59315
2026-01-29 10:38:00.82	327.67	10.80	-56.8	-64.7	7.8	6.20e-02	0	46	0	1072693248	60	67037
2026-01-29 10:38:04.84	328.14	10.53	-57.1	-65.8	6.5	2.09e-01	0	46	0	1081081856	60	76783
2026-01-29 10:38:08.86	328.60	10.26	-57.6	-70.9	3.7	1.53e+00	0	46	104	1086324736	60	136693
2026-01-29 10:38:12.88	329.06	9.98	-57.5	-68.4	4.4	8.73e-01	0	46	0	4194304	60	102642
2026-01-29 10:38:16.91	329.50	9.71	-57.6	-68.9	4.0	1.33e+00	0	46	0	10485760	60	109030
2026-01-29 10:38:20.93	329.94	9.45	-57.9	-71.7	3.8	1.51e+00	0	45	104	12582912	60	150660
2026-01-29 10:38:24.96	330.38	9.18	-57.9	-72.7	3.6	1.51e+00	0	46	104	12582912	60	168573
2026-01-29 10:38:28.97	330.80	8.92	-57.9	-73.1	3.6	1.51e+00	0	46	104	12582912	60	177807
2026-01-29 10:38:32.99	331.22	8.65	-58.0	-73.8	3.5	1.51e+00	0	46	104	12582912	60	192675
2026-01-29 10:38:37.01	331.63	8.39	-58.0	-74.3	3.6	1.51e+00	0	46	104	12582912	60	204025
2026-01-29 10:38:41.04	332.03	8.13	-57.8	-74.4	3.6	1.51e+00	0	46	104	12582912	60	204915
2026-01-29 10:38:45.06	332.43	7.87	-57.5	-74.4	3.6	1.51e+00	0	46	104	12582912	60	205757
2026-01-29 10:38:49.09	332.82	7.61	-57.4	-74.2	3.6	1.51e+00	0	46	104	12582912	60	200957
2026-01-29 10:38:53.12	333.20	7.36	-57.3	-74.4	3.6	1.51e+00	0	46	104	12582912	60	205899
2026-01-29 10:38:57.15	333.58	7.10	-57.5	-74.5	3.6	1.51e+00	0	46	104	12582912	60	208596
2026-01-29 10:39:01.17	333.95	6.85	-56.2	-73.2	3.6	1.51e+00	0	46	104	12582912	60	179812
2026-01-29 10:39:05.19	334.32	6.60	-57.6	-74.1	3.6	1.51e+00	0	46	104	12582912	60	199129
2026-01-29 10:39:09.22	334.68	6.35	-56.9	-73.8	3.6	1.51e+00	0	46	104	12582912	60	191072
2026-01-29 10:39:13.24	335.03	6.10	-57.1	-73.9	3.6	1.51e+00	0	46	104	12582912	60	193505
2026-01-29 10:39:17.27	335.38	5.85	-59.4	-75.8	3.6	1.51e+00	0	46	104	12582912	60	241126
2026-01-29 10:39:21.29	335.72	5.61	-59.7	-76.8	3.6	1.51e+00	0	46	104	12582912	60	269852
2026-01-29 10:39:25.32	336.06	5.36	-61.1	-77.5	3.6	1.51e+00	0	46	104	12582912	60	294203
2026-01-29 10:39:29.35	336.39	5.12	-61.0	-77.4	3.6	1.51e+00	0	46	104	12582912	60	291366
2026-01-29 10:39:33.38	336.72	4.88	-61.0	-77.3	3.6	1.51e+00	0	46	104	12582912	60	287622
2026-01-29 10:39:37.41	337.04	4.64	-57.6	-74.6	3.6	1.51e+00	0	46	104	12582912	60	211606
2026-01-29 10:39:41.45	337.36	4.40	-58.4	-75.1	3.6	1.51e+00	0	46	104	12582912	60	222022
2026-01-29 10:39:45.48	337.67	4.17	-59.0	-76.7	3.5	1.51e+00	0	46	104	12582912	60	266732
2026-01-29 10:39:49.50	337.98	3.93	-60.7	-77.2	3.6	1.51e+00	0	46	104	12582912	60	283226
2026-01-29 10:39:53.53	338.28	3.70	-61.0	-77.4	3.6	1.51e+00	0	46	104	12582912	60	291725
2026-01-29 10:39:57.56	338.58	3.46	-60.5	-77.4	3.6	1.51e+00	0	46	104	12582912	60	291274
2026-01-29 10:40:01.58	338.87	3.23	-60.8	-77.8	3.6	1.51e+00	0	46	104	12582912	60	303471
2026-01-29 10:40:05.60	339.16	3.00	-59.5	-77.5	3.6	1.51e+00	0	46	104	12582912	60	295300
2026-01-29 10:40:09.62	339.45	2.78	-59.9	-77.8	3.6	1.51e+00	0	46	104	12582912	60	302812
2026-01-29 10:40:13.64	339.73	2.55	-60.0	-77.8	3.6	1.51e+00	0	46	104	12582912	60	303035
2026-01-29 10:40:17.66	340.01	2.32	-60.0	-77.8	3.6	1.51e+00	0	46	104	12582912	60	303285
2026-01-29 10:40:21.69	340.28	2.10	-60.3	-77.9	3.6	1.51e+00	0	46	104	12582912	60	306818
2026-01-29 10:40:25.72	340.55	1.88	-60.4	-77.9	3.6	1.51e+00	0	46	104	12582912	60	308359
2026-01-29 10:40:29.75	340.82	1.65	-60.3	-77.9	3.6	1.51e+00	0	46	104	12582912	60	308215
2026-01-29 10:40:33.78	341.08	1.43	-60.3	-78.0	3.6	1.51e+00	0	46	104	12582912	60	309765
2026-01-29 10:40:37.81	341.34	1.21	-60.3	-77.9	3.6	1.51e+00	0	46	104	12582912	60	308981
2026-01-29 10:40:41.84	341.60	1.00	-60.3	-77.9	3.6	1.51e+00	0	46	104	12582912	60	308751
2026-01-29 10:40:45.87	341.85	0.78	-60.2	-77.9	3.6	1.51e+00	0	46	104	12582912	60	308089
2026-01-29 10:40:49.91	342.10	0.56	-60.3	-77.8	3.6	1.51e+00	0	46	104	12582912	60	305295
2026-01-29 10:40:53.92	342.35	0.35	-60.3	-78.0	3.6	1.51e+00	0	46	104	12582912	60	310744
2026-01-29 10:40:57.94	342.59	0.14	-60.3	-77.9	3.6	1.51e+00	0	46	104	12582912	60	307365

#Closed at: 2026-01-29 10:41:01
#Recorded file [12 MB]: D:/Data/35015_260129_133822.dat