passes_logs/2026/01/29/R3.2S-Naryan-Mar/R3.2S-Naryan-Mar__20260129_092901_AQUA_rec.log

#Pass ID: 20260129_092901_AQUA
#Satellite: AQUA
#Configuration: AQUA
#almurnet v.1.7.20240730
#Start time: 2026-01-29 09:29:03

#Version: 2.2.20231116
#Station: R3.2S-Naryan-Mar
#Location: 53.008057 lon 67.646978 lat
#TLE: 1 27424U 02022A   26027.96263068  .00001625  00000+0  33481-3 0  9997
#TLE: 2 27424  98.4102 354.6095 0001839  63.4368   7.7786 14.61867353262782

#Time	Az	El	Level	Level2	SNR	BER	BlckErr	Temp	State	Recorded	gain1	gain2
2026-01-29 09:29:03.63	139.10	0.11	-59.5	-77.0	3.5	1.51e+00	0	43	0	0	60	278166
2026-01-29 09:29:07.66	139.04	0.36	-57.2	-78.0	3.5	3.01e+01	0	44	104	0	60	302917
2026-01-29 09:29:11.69	138.98	0.62	-58.7	-78.7	3.5	3.01e+01	0	44	104	0	60	329443
2026-01-29 09:29:15.73	138.91	0.87	-58.6	-78.5	3.5	3.01e+01	0	44	104	0	60	321617
2026-01-29 09:29:19.76	138.85	1.13	-57.7	-77.6	3.5	3.01e+01	0	44	104	0	60	289543
2026-01-29 09:29:23.79	138.78	1.39	-55.6	-75.8	3.5	3.01e+01	0	44	104	0	60	235587
2026-01-29 09:29:27.82	138.71	1.65	-55.5	-75.6	3.5	3.01e+01	0	44	104	0	60	228900
2026-01-29 09:29:31.85	138.64	1.91	-55.4	-75.8	3.5	3.01e+01	0	45	104	0	60	234543
2026-01-29 09:29:35.88	138.56	2.18	-55.4	-75.8	3.5	3.01e+01	0	45	104	0	60	233459
2026-01-29 09:29:39.91	138.49	2.45	-55.3	-75.7	3.5	3.01e+01	0	45	104	0	60	232339
2026-01-29 09:29:43.94	138.41	2.72	-55.3	-75.5	3.5	3.01e+01	0	45	104	0	60	227873
2026-01-29 09:29:47.97	138.34	3.00	-55.3	-75.1	3.5	3.01e+01	0	45	104	0	60	217239
2026-01-29 09:29:52.00	138.26	3.28	-55.2	-75.3	3.5	3.01e+01	0	45	104	0	60	220696
2026-01-29 09:29:56.03	138.17	3.56	-55.2	-75.7	3.5	3.01e+01	0	45	104	0	60	231880
2026-01-29 09:30:00.06	138.09	3.84	-55.2	-75.6	3.5	3.01e+01	0	45	104	0	60	229129
2026-01-29 09:30:04.08	138.00	4.13	-55.2	-74.1	3.5	3.01e+01	0	45	104	0	60	191925
2026-01-29 09:30:08.11	137.92	4.42	-55.1	-72.7	3.8	3.01e+01	0	45	104	0	60	164755
2026-01-29 09:30:12.14	137.82	4.72	-54.8	-66.1	8.3	3.01e+01	0	45	0	2097152	60	76962
2026-01-29 09:30:16.17	137.73	5.01	-53.0	-57.9	17.3	3.01e+01	0	45	0	9961472	60	29802
2026-01-29 09:30:20.21	137.64	5.32	-50.7	-53.7	21.5	3.01e+01	0	45	0	17301504	60	18388
2026-01-29 09:30:24.24	137.54	5.62	-50.2	-52.9	22.2	3.01e+01	0	45	0	24641536	60	16754
2026-01-29 09:30:28.27	137.44	5.93	-51.9	-55.6	19.5	3.01e+01	0	45	0	32505856	60	23044
2026-01-29 09:30:32.30	137.34	6.25	-51.4	-54.8	21.4	3.01e+01	0	45	0	39845888	60	20852
2026-01-29 09:30:36.33	137.23	6.57	-53.8	-60.6	15.0	3.01e+01	0	45	104	2097152	60	40759
2026-01-29 09:30:40.37	137.12	6.89	-51.9	-55.7	19.6	3.01e+01	0	45	0	7340032	60	23266
2026-01-29 09:30:44.40	137.01	7.22	-50.0	-52.5	22.7	3.01e+01	0	45	0	15204352	60	16134
2026-01-29 09:30:48.42	136.89	7.55	-49.6	-52.0	23.3	3.01e+01	0	45	0	22544384	60	15113
2026-01-29 09:30:52.45	136.78	7.88	-50.0	-52.3	23.1	3.01e+01	0	45	0	30408704	60	15715
2026-01-29 09:30:56.47	136.66	8.22	-49.3	-51.4	24.0	3.01e+01	0	45	0	37748736	60	14081
2026-01-29 09:31:00.50	136.53	8.57	-49.2	-51.3	24.1	3.01e+01	0	45	0	45088768	60	13922
2026-01-29 09:31:04.52	136.40	8.92	-49.3	-51.5	23.9	3.01e+01	0	45	0	52428800	60	14233
2026-01-29 09:31:08.55	136.27	9.28	-49.8	-52.1	23.5	3.01e+01	0	45	0	60293120	60	15263
2026-01-29 09:31:12.59	136.13	9.64	-50.1	-52.5	22.9	3.01e+01	0	45	0	67633152	60	16036
2026-01-29 09:31:16.62	135.99	10.01	-50.9	-53.6	21.9	3.01e+01	0	45	0	75497472	60	18181
2026-01-29 09:31:20.65	135.85	10.39	-51.7	-54.7	20.8	3.01e+01	0	45	0	82837504	60	20758
2026-01-29 09:31:24.68	135.70	10.77	-52.4	-56.1	19.5	3.01e+01	0	45	0	90701824	60	24265
2026-01-29 09:31:28.72	135.55	11.16	-52.2	-55.9	19.8	3.01e+01	0	45	0	98041856	60	23743
2026-01-29 09:31:32.74	135.39	11.55	-52.9	-57.2	18.3	3.01e+01	0	45	0	105381888	60	27469
2026-01-29 09:31:36.77	135.22	11.95	-54.0	-59.9	16.0	3.01e+01	0	45	0	113246208	60	37403
2026-01-29 09:31:40.80	135.06	12.36	-54.8	-62.2	13.6	3.01e+01	0	45	0	120586240	60	48866
2026-01-29 09:31:44.83	134.88	12.77	-55.2	-63.5	12.2	3.01e+01	0	45	0	128450560	60	57108
2026-01-29 09:31:48.85	134.70	13.20	-55.5	-64.8	10.7	3.01e+01	0	45	0	135790592	60	65925
2026-01-29 09:31:52.88	134.52	13.63	-55.8	-66.0	9.2	3.01e+01	0	45	0	143654912	60	75884
2026-01-29 09:31:56.92	134.32	14.07	-55.9	-66.8	8.2	3.01e+01	0	45	0	150994944	60	82845
2026-01-29 09:32:00.95	134.12	14.52	-56.0	-67.5	7.3	3.01e+01	0	45	0	158859264	60	90291
2026-01-29 09:32:04.98	133.92	14.97	-56.3	-71.6	3.7	3.01e+01	0	45	104	165675008	60	145186
2026-01-29 09:32:09.00	133.70	15.44	-56.1	-69.8	4.8	3.01e+01	0	45	0	5242880	60	117859
2026-01-29 09:32:13.03	133.48	15.92	-51.2	-53.9	22.1	3.01e+01	0	45	0	5242880	60	18749
2026-01-29 09:32:17.06	133.25	16.40	-48.6	-50.3	25.5	3.01e+01	0	45	0	13107200	60	12511
2026-01-29 09:32:21.09	133.02	16.90	-48.2	-49.9	25.8	3.01e+01	0	45	0	20447232	60	11955
2026-01-29 09:32:25.12	132.77	17.41	-47.9	-49.6	26.1	3.01e+01	0	45	0	27787264	60	11468
2026-01-29 09:32:29.14	132.51	17.93	-48.2	-49.9	25.9	3.01e+01	0	45	0	35651584	60	11942
2026-01-29 09:32:33.16	132.25	18.46	-48.6	-50.4	25.5	3.01e+01	0	45	0	42991616	60	12585
2026-01-29 09:32:37.19	131.97	19.00	-49.3	-51.2	24.8	3.01e+01	0	45	0	50855936	60	13845
2026-01-29 09:32:41.22	131.68	19.55	-49.7	-51.8	24.0	3.01e+01	0	45	0	58195968	60	14791
2026-01-29 09:32:45.26	131.38	20.12	-50.5	-52.9	23.0	3.01e+01	0	45	0	65536000	60	16768
2026-01-29 09:32:49.28	131.07	20.70	-51.7	-54.6	21.4	3.01e+01	0	45	0	73400320	60	20326
2026-01-29 09:32:53.31	130.74	21.30	-52.0	-55.0	21.1	3.01e+01	0	45	0	80740352	60	21450
2026-01-29 09:32:57.34	130.40	21.91	-52.8	-56.2	19.7	3.01e+01	0	45	0	88080384	60	24423
2026-01-29 09:33:01.36	130.05	22.54	-54.3	-59.2	16.9	3.01e+01	0	45	0	95944704	60	34729
2026-01-29 09:33:05.39	129.67	23.18	-55.3	-62.1	13.9	3.01e+01	0	45	0	103284736	60	48581
2026-01-29 09:33:09.42	129.29	23.84	-56.0	-64.6	11.1	3.01e+01	0	45	0	111149056	60	64869
2026-01-29 09:33:13.45	128.88	24.51	-56.3	-65.8	9.8	3.01e+01	0	45	0	118489088	60	74305
2026-01-29 09:33:17.48	128.45	25.21	-56.2	-65.5	10.1	3.01e+01	0	45	0	126353408	60	71753
2026-01-29 09:33:21.52	128.01	25.92	-53.6	-57.5	18.8	3.01e+01	0	45	0	133693440	60	28406
2026-01-29 09:33:25.54	127.54	26.65	-49.8	-51.7	24.5	3.01e+01	0	45	0	141033472	60	14657
2026-01-29 09:33:29.56	127.05	27.40	-48.6	-50.3	25.7	3.01e+01	0	45	0	148897792	60	12474
2026-01-29 09:33:33.59	126.53	28.17	-49.3	-51.1	24.9	3.01e+01	0	45	0	156237824	60	13655
2026-01-29 09:33:37.62	125.98	28.96	-49.9	-51.9	24.2	3.01e+01	0	45	0	164102144	60	14970
2026-01-29 09:33:41.65	125.41	29.77	-51.4	-53.8	22.4	3.01e+01	0	45	0	171442176	60	18698
2026-01-29 09:33:45.67	124.80	30.60	-52.1	-54.9	21.3	3.01e+01	0	45	0	179306496	60	21146
2026-01-29 09:33:49.70	124.16	31.46	-52.8	-55.9	20.5	3.01e+01	0	45	0	186646528	60	23814
2026-01-29 09:33:53.73	123.48	32.34	-52.5	-55.5	20.7	3.01e+01	0	45	0	193986560	60	22702
2026-01-29 09:33:57.76	122.76	33.25	-53.9	-57.9	18.2	3.01e+01	0	45	0	201850880	60	30035
2026-01-29 09:34:01.79	122.00	34.17	-54.9	-60.2	15.9	3.01e+01	0	45	0	209190912	60	39147
2026-01-29 09:34:05.80	121.19	35.12	-55.8	-63.3	12.5	3.01e+01	0	46	0	216530944	60	55791
2026-01-29 09:34:09.82	120.33	36.09	-56.6	-67.2	8.6	3.01e+01	0	45	0	224395264	60	87394
2026-01-29 09:34:13.84	119.42	37.09	-56.8	-68.4	7.3	3.01e+01	0	45	0	231735296	60	100061
2026-01-29 09:34:17.86	118.45	38.11	-55.8	-62.7	13.6	3.01e+01	0	45	0	239599616	60	51926
2026-01-29 09:34:21.89	117.40	39.16	-53.6	-57.0	19.9	3.01e+01	0	45	0	1048576	60	27030
2026-01-29 09:34:25.93	116.29	40.24	-53.0	-56.1	20.5	3.01e+01	0	45	0	8912896	60	24382
2026-01-29 09:34:29.95	115.09	41.33	-52.3	-55.1	21.4	3.01e+01	0	45	0	16252928	60	21685
2026-01-29 09:34:33.96	113.82	42.43	-53.2	-56.6	20.2	3.01e+01	0	45	0	24117248	60	25578
2026-01-29 09:34:37.99	112.45	43.56	-54.1	-58.0	18.7	3.01e+01	0	45	0	31457280	60	30276
2026-01-29 09:34:42.02	110.97	44.71	-54.8	-68.1	3.5	3.01e+01	0	45	104	35651584	60	97129
2026-01-29 09:34:46.05	109.37	45.87	-54.4	-68.5	3.4	3.01e+01	0	45	104	35651584	60	101635
2026-01-29 09:34:50.07	107.66	47.03	-52.9	-65.3	3.5	3.01e+01	0	45	104	35651584	60	69923
2026-01-29 09:34:54.11	105.80	48.21	-55.5	-72.8	3.5	3.01e+01	0	46	104	35651584	60	166383
2026-01-29 09:34:58.14	103.80	49.38	-55.3	-70.8	3.7	3.01e+01	0	45	104	35651584	60	132504
2026-01-29 09:35:02.15	101.65	50.53	-55.1	-68.7	3.5	3.01e+01	0	45	104	35651584	60	103526
2026-01-29 09:35:06.17	99.32	51.67	-51.6	-62.8	3.5	3.01e+01	0	45	104	35651584	60	52291
2026-01-29 09:35:10.20	96.80	52.79	-57.1	-73.6	3.5	3.01e+01	0	45	104	35651584	60	183040
2026-01-29 09:35:14.23	94.08	53.87	-52.9	-64.4	3.5	3.01e+01	0	45	104	35651584	60	62820
2026-01-29 09:35:18.27	91.14	54.91	-56.7	-73.1	3.5	3.01e+01	0	46	104	35651584	60	172668
2026-01-29 09:35:22.29	88.00	55.88	-56.7	-73.9	3.5	3.01e+01	0	46	104	35651584	60	188816
2026-01-29 09:35:26.32	84.64	56.78	-56.9	-74.4	3.5	3.01e+01	0	46	104	35651584	60	199477
2026-01-29 09:35:30.35	81.05	57.60	-55.3	-68.5	3.5	3.01e+01	0	46	104	35651584	60	101508
2026-01-29 09:35:34.37	77.26	58.31	-56.6	-71.3	3.5	3.01e+01	0	46	104	35651584	60	139603
2026-01-29 09:35:38.40	73.28	58.90	-56.1	-69.9	3.5	3.01e+01	0	46	104	35651584	60	118376
2026-01-29 09:35:42.43	69.12	59.37	-55.1	-67.6	3.5	3.01e+01	0	45	104	35651584	60	91772
2026-01-29 09:35:46.46	64.84	59.70	-51.7	-62.6	3.5	3.01e+01	0	45	104	35651584	60	51288
2026-01-29 09:35:50.49	60.47	59.88	-56.6	-71.4	3.5	3.01e+01	0	46	104	35651584	60	141190
2026-01-29 09:35:54.52	56.07	59.91	-57.0	-72.3	3.5	3.01e+01	0	45	104	35651584	60	156498
2026-01-29 09:35:58.55	51.68	59.79	-55.8	-69.2	3.5	3.01e+01	0	45	104	35651584	60	109554
2026-01-29 09:36:02.58	47.36	59.52	-54.8	-67.3	3.5	3.01e+01	0	46	104	35651584	60	88628
2026-01-29 09:36:06.61	43.15	59.11	-52.6	-63.7	3.5	3.01e+01	0	46	104	35651584	60	58284
2026-01-29 09:36:10.64	39.10	58.56	-52.4	-63.6	3.5	3.01e+01	0	46	104	35651584	60	57441
2026-01-29 09:36:14.68	35.21	57.90	-52.3	-63.7	3.5	3.01e+01	0	46	104	35651584	60	58528
2026-01-29 09:36:18.71	31.55	57.12	-52.6	-63.9	3.5	3.01e+01	0	46	104	35651584	60	59295
2026-01-29 09:36:22.74	28.09	56.26	-54.1	-66.1	3.5	3.01e+01	0	46	104	35651584	60	76946
2026-01-29 09:36:26.77	24.86	55.31	-51.1	-62.1	3.5	3.01e+01	0	46	104	35651584	60	48577
2026-01-29 09:36:30.80	21.85	54.30	-51.8	-63.1	3.5	3.01e+01	0	46	104	35651584	60	54208
2026-01-29 09:36:34.84	19.04	53.24	-49.6	-60.2	3.5	3.01e+01	0	46	104	35651584	60	39053
2026-01-29 09:36:38.86	16.45	52.14	-53.3	-65.2	3.5	3.01e+01	0	46	104	35651584	60	68919
2026-01-29 09:36:42.89	14.05	51.01	-50.8	-61.6	3.5	3.01e+01	0	46	104	35651584	60	45793
2026-01-29 09:36:46.92	11.82	49.86	-54.1	-66.9	3.5	3.01e+01	0	46	104	35651584	60	84495
2026-01-29 09:36:50.95	9.76	48.69	-50.7	-61.9	3.5	3.01e+01	0	46	104	35651584	60	47272
2026-01-29 09:36:54.98	7.86	47.53	-56.2	-72.4	3.5	3.01e+01	0	46	104	35651584	60	157693
2026-01-29 09:36:59.02	6.08	46.36	-55.6	-71.0	3.5	3.01e+01	0	45	104	35651584	60	135090
2026-01-29 09:37:03.04	4.45	45.20	-54.6	-69.0	3.5	3.01e+01	0	46	104	35651584	60	107010
2026-01-29 09:37:07.07	2.93	44.05	-49.2	-60.0	3.5	3.01e+01	0	46	104	35651584	60	37867
2026-01-29 09:37:11.10	1.52	42.92	-54.8	-72.6	3.5	3.01e+01	0	46	104	35651584	60	162339
2026-01-29 09:37:15.13	0.20	41.80	-49.9	-61.8	3.5	3.01e+01	0	46	104	35651584	60	46712
2026-01-29 09:37:19.15	358.98	40.71	-52.7	-71.7	4.0	3.01e+01	0	46	104	35651584	60	146307
2026-01-29 09:37:23.18	357.84	39.63	-52.5	-73.0	3.6	3.01e+01	0	46	104	35651584	60	169575
2026-01-29 09:37:27.21	356.77	38.58	-52.8	-72.8	3.6	3.01e+01	0	46	104	35651584	60	166311
2026-01-29 09:37:31.25	355.77	37.55	-50.3	-63.2	3.5	3.01e+01	0	46	104	35651584	60	55246
2026-01-29 09:37:35.28	354.83	36.54	-53.3	-73.4	3.6	3.01e+01	0	46	104	35651584	60	178004
2026-01-29 09:37:39.31	353.95	35.56	-53.0	-67.4	3.5	3.01e+01	0	46	104	35651584	60	88768
2026-01-29 09:37:43.34	353.12	34.60	-53.4	-73.1	3.6	3.01e+01	0	46	104	35651584	60	172860
2026-01-29 09:37:47.37	352.35	33.67	-49.8	-61.1	3.5	3.01e+01	0	46	104	35651584	60	43277
2026-01-29 09:37:51.40	351.61	32.75	-55.5	-75.2	3.6	3.01e+01	0	46	104	35651584	60	219800
2026-01-29 09:37:55.43	350.92	31.87	-51.5	-63.2	3.5	3.01e+01	0	46	104	35651584	60	54991
2026-01-29 09:37:59.46	350.27	31.00	-54.9	-72.8	3.5	3.01e+01	0	46	104	35651584	60	166205
2026-01-29 09:38:03.49	349.65	30.16	-49.5	-60.2	3.5	3.01e+01	0	46	104	35651584	60	38864
2026-01-29 09:38:07.51	349.06	29.35	-57.0	-74.5	3.5	3.01e+01	0	46	104	35651584	60	202281
2026-01-29 09:38:11.54	348.51	28.55	-51.6	-62.9	3.5	3.01e+01	0	46	104	35651584	60	52942
2026-01-29 09:38:15.57	347.98	27.78	-56.5	-75.7	3.5	3.01e+01	0	45	104	35651584	60	230706
2026-01-29 09:38:19.60	347.48	27.02	-50.8	-62.1	3.5	3.01e+01	0	45	104	35651584	60	48360
2026-01-29 09:38:23.64	347.00	26.28	-54.5	-71.9	3.5	3.01e+01	0	46	104	35651584	60	149839
2026-01-29 09:38:27.67	346.55	25.57	-55.0	-71.3	3.5	3.01e+01	0	45	104	35651584	60	140225
2026-01-29 09:38:31.70	346.12	24.87	-52.8	-66.0	3.5	3.01e+01	0	45	104	35651584	60	76340
2026-01-29 09:38:35.73	345.71	24.19	-50.5	-61.7	3.5	3.01e+01	0	45	104	35651584	60	46327
2026-01-29 09:38:39.77	345.31	23.52	-55.6	-73.3	3.5	3.01e+01	0	46	104	35651584	60	176609
2026-01-29 09:38:43.80	344.93	22.88	-54.5	-69.3	3.5	3.01e+01	0	46	104	35651584	60	110782
2026-01-29 09:38:47.84	344.57	22.24	-53.9	-68.7	3.5	3.01e+01	0	46	104	35651584	60	104056
2026-01-29 09:38:51.86	344.23	21.63	-53.9	-72.8	3.5	3.01e+01	0	45	104	35651584	60	166262
2026-01-29 09:38:55.89	343.90	21.03	-52.3	-66.2	3.5	3.01e+01	0	46	104	35651584	60	77391
2026-01-29 09:38:59.92	343.58	20.44	-52.7	-67.9	3.5	3.01e+01	0	46	104	35651584	60	94310
2026-01-29 09:39:03.95	343.28	19.87	-51.2	-64.8	3.5	3.01e+01	0	46	104	35651584	60	66356
2026-01-29 09:39:07.98	342.99	19.31	-52.3	-67.6	3.5	3.01e+01	0	45	104	35651584	60	91630
2026-01-29 09:39:12.01	342.71	18.77	-53.9	-70.8	3.5	3.01e+01	0	46	104	35651584	60	131682
2026-01-29 09:39:16.04	342.44	18.23	-55.1	-73.7	3.6	3.01e+01	0	46	104	35651584	60	183925
2026-01-29 09:39:20.06	342.18	17.71	-52.3	-65.7	3.5	3.01e+01	0	45	104	35651584	60	73165
2026-01-29 09:39:24.09	341.94	17.20	-53.9	-70.2	3.5	3.01e+01	0	45	104	35651584	60	122946
2026-01-29 09:39:28.11	341.70	16.70	-52.3	-64.2	3.6	3.01e+01	0	46	104	35651584	60	61829
2026-01-29 09:39:32.14	341.47	16.21	-55.5	-75.3	3.5	3.01e+01	0	45	104	35651584	60	220279
2026-01-29 09:39:36.17	341.24	15.73	-53.9	-67.3	3.5	3.01e+01	0	45	104	35651584	60	88279
2026-01-29 09:39:40.21	341.03	15.26	-55.1	-70.7	3.5	3.01e+01	0	45	104	35651584	60	129908
2026-01-29 09:39:44.24	340.82	14.80	-53.1	-67.0	3.5	3.01e+01	0	45	104	35651584	60	85053
2026-01-29 09:39:48.27	340.62	14.35	-54.7	-71.2	3.5	3.01e+01	0	46	104	35651584	60	138730
2026-01-29 09:39:52.31	340.43	13.91	-52.7	-66.2	3.5	3.01e+01	0	45	104	35651584	60	77744
2026-01-29 09:39:56.34	340.24	13.48	-54.0	-69.6	3.5	3.01e+01	0	46	104	35651584	60	115510
2026-01-29 09:40:00.37	340.06	13.05	-53.1	-66.7	3.5	3.01e+01	0	46	104	35651584	60	81858
2026-01-29 09:40:04.41	339.89	12.63	-54.8	-72.7	3.5	3.01e+01	0	46	104	35651584	60	164722
2026-01-29 09:40:08.44	339.72	12.22	-54.4	-69.9	3.5	3.01e+01	0	46	104	35651584	60	119571
2026-01-29 09:40:12.47	339.56	11.82	-53.9	-69.2	3.5	3.01e+01	0	46	104	35651584	60	109557
2026-01-29 09:40:16.49	339.40	11.42	-54.1	-71.6	3.5	3.01e+01	0	46	104	35651584	60	145414
2026-01-29 09:40:20.52	339.24	11.03	-54.2	-72.7	3.5	3.01e+01	0	46	104	35651584	60	164089
2026-01-29 09:40:24.55	339.10	10.65	-53.8	-71.3	3.5	3.01e+01	0	46	104	35651584	60	139768
2026-01-29 09:40:28.58	338.95	10.28	-53.2	-72.1	3.5	3.01e+01	0	46	104	35651584	60	152350
2026-01-29 09:40:32.61	338.81	9.91	-53.2	-73.4	3.5	3.01e+01	0	46	104	35651584	60	178507
2026-01-29 09:40:36.65	338.68	9.54	-53.1	-73.7	3.5	3.01e+01	0	46	104	35651584	60	183252
2026-01-29 09:40:40.67	338.55	9.18	-53.0	-74.5	3.5	3.01e+01	0	46	104	35651584	60	200892
2026-01-29 09:40:44.70	338.42	8.83	-52.6	-74.8	3.5	3.01e+01	0	46	104	35651584	60	210153
2026-01-29 09:40:48.72	338.30	8.48	-52.8	-74.9	3.5	3.01e+01	0	46	104	35651584	60	210474
2026-01-29 09:40:52.75	338.17	8.14	-53.1	-75.1	3.5	3.01e+01	0	46	104	35651584	60	216475
2026-01-29 09:40:56.78	338.06	7.80	-52.7	-75.0	3.5	3.01e+01	0	46	104	35651584	60	213404
2026-01-29 09:41:00.80	337.94	7.47	-53.4	-75.0	3.5	3.01e+01	0	46	104	35651584	60	213923
2026-01-29 09:41:04.83	337.83	7.14	-53.6	-74.8	3.5	3.01e+01	0	46	104	35651584	60	209488
2026-01-29 09:41:08.86	337.73	6.82	-54.2	-74.3	3.5	3.01e+01	0	46	104	35651584	60	197236
2026-01-29 09:41:12.89	337.62	6.50	-53.5	-74.6	3.5	3.01e+01	0	46	104	35651584	60	203513
2026-01-29 09:41:16.92	337.52	6.18	-53.1	-74.0	3.5	3.01e+01	0	46	104	35651584	60	190057
2026-01-29 09:41:20.96	337.42	5.87	-52.0	-74.8	3.5	3.01e+01	0	46	104	35651584	60	208535
2026-01-29 09:41:24.99	337.33	5.57	-53.2	-73.2	3.7	3.01e+01	0	46	104	35651584	60	173929
2026-01-29 09:41:29.02	337.23	5.26	-54.9	-75.8	3.6	3.01e+01	0	46	104	35651584	60	235822
2026-01-29 09:41:33.04	337.14	4.96	-54.8	-75.8	3.6	3.01e+01	0	46	104	35651584	60	235795
2026-01-29 09:41:37.08	337.05	4.67	-56.0	-77.6	3.5	3.01e+01	0	46	104	35651584	60	288378
2026-01-29 09:41:41.10	336.97	4.38	-57.2	-78.1	3.5	3.01e+01	0	46	104	35651584	60	305453
2026-01-29 09:41:45.13	336.88	4.09	-55.4	-76.5	3.6	3.01e+01	0	46	104	35651584	60	253919
2026-01-29 09:41:49.17	336.80	3.80	-55.8	-77.4	3.6	3.01e+01	0	46	104	35651584	60	281007
2026-01-29 09:41:53.19	336.72	3.52	-55.9	-77.5	3.5	3.01e+01	0	46	104	35651584	60	286540
2026-01-29 09:41:57.22	336.64	3.24	-55.8	-77.1	3.6	3.01e+01	0	46	104	35651584	60	271363
2026-01-29 09:42:01.25	336.57	2.96	-55.6	-77.1	3.5	3.01e+01	0	46	104	35651584	60	272034
2026-01-29 09:42:05.29	336.49	2.69	-55.5	-77.2	3.6	3.01e+01	0	46	104	35651584	60	276706
2026-01-29 09:42:09.32	336.42	2.42	-55.5	-77.0	3.6	3.01e+01	0	46	104	35651584	60	270598
2026-01-29 09:42:13.35	336.35	2.15	-55.5	-77.2	3.6	3.01e+01	0	46	104	35651584	60	275189
2026-01-29 09:42:17.38	336.28	1.89	-55.5	-76.9	3.5	3.01e+01	0	46	104	35651584	60	265821
2026-01-29 09:42:21.41	336.21	1.62	-55.4	-76.8	3.6	3.01e+01	0	46	104	35651584	60	262964
2026-01-29 09:42:25.45	336.15	1.36	-55.3	-76.7	3.5	3.01e+01	0	46	104	35651584	60	261418
2026-01-29 09:42:29.48	336.09	1.11	-55.2	-76.6	3.6	3.01e+01	0	46	104	35651584	60	258330
2026-01-29 09:42:33.50	336.02	0.85	-55.3	-76.7	3.6	3.01e+01	0	46	104	35651584	60	260425
2026-01-29 09:42:37.53	335.96	0.60	-55.3	-76.9	3.6	3.01e+01	0	46	104	35651584	60	267207
2026-01-29 09:42:41.56	335.90	0.35	-55.3	-76.7	3.5	3.01e+01	0	46	104	35651584	60	259225
2026-01-29 09:42:45.59	335.84	0.10	-55.3	-76.7	3.6	3.01e+01	0	46	104	35651584	60	259716

#Closed at: 2026-01-29 09:42:47
#Recorded file [35 MB]: D:/Data/35015_260129_123440.dat