passes_logs/2026/01/29/R3.2S-Naryan-Mar/R3.2S-Naryan-Mar__20260129_114902_SUOMI_NPP_rec.log

#Pass ID: 20260129_114902_SUOMI NPP
#Satellite: SUOMI NPP
#Configuration: NPP
#almurnet v.1.7.20240730
#Start time: 2026-01-29 11:49:05

#Version: 2.2.20231116
#Station: R3.2S-Naryan-Mar
#Location: 53.008057 lon 67.646978 lat
#TLE: 1 37849U 11061A   26027.93236865  .00000148  00000+0  91411-4 0  9991
#TLE: 2 37849  98.7823 329.8704 0002085  41.3231 318.8102 14.19530777738546

#Time	Az	El	Level	Level2	SNR	BER	BlckErr	Temp	State	Recorded	gain1	gain2
2026-01-29 11:49:05.59	241.95	0.14	-56.7	-59.7	3.3	0.00e+00	0	43	0	0	60	113763
2026-01-29 11:49:08.61	242.23	0.27	-60.0	-78.4	3.6	1.51e+00	0	45	104	0	60	324436
2026-01-29 11:49:11.63	242.51	0.39	-59.2	-77.6	3.6	1.51e+00	0	45	104	0	60	296811
2026-01-29 11:49:14.66	242.79	0.52	-60.7	-77.6	3.6	1.51e+00	0	45	104	0	60	296035
2026-01-29 11:49:17.68	243.08	0.65	-60.4	-77.0	3.6	1.51e+00	0	45	104	0	60	278789
2026-01-29 11:49:20.70	243.37	0.78	-60.2	-76.7	3.6	1.51e+00	0	45	104	0	60	268137
2026-01-29 11:49:23.71	243.65	0.91	-59.5	-75.9	3.6	1.51e+00	0	45	104	0	60	245296
2026-01-29 11:49:26.74	243.95	1.03	-59.6	-76.0	3.6	1.51e+00	0	45	104	0	60	246069
2026-01-29 11:49:29.76	244.24	1.16	-59.6	-75.9	3.6	1.51e+00	0	45	104	0	60	245180
2026-01-29 11:49:32.78	244.54	1.29	-59.5	-75.9	3.6	1.51e+00	0	45	104	0	60	243485
2026-01-29 11:49:35.80	244.84	1.42	-59.5	-75.8	3.6	1.51e+00	0	45	104	0	60	242773
2026-01-29 11:49:38.83	245.14	1.55	-59.5	-75.8	3.6	1.51e+00	0	45	104	0	60	241336
2026-01-29 11:49:41.84	245.44	1.67	-59.5	-75.8	3.6	1.51e+00	0	45	104	0	60	242339
2026-01-29 11:49:44.84	245.75	1.80	-59.4	-75.8	3.6	1.51e+00	0	45	104	0	60	240947
2026-01-29 11:49:47.84	246.05	1.93	-59.4	-75.8	3.6	1.51e+00	0	45	104	0	60	240638
2026-01-29 11:49:50.84	246.36	2.06	-59.4	-75.8	3.6	1.51e+00	0	45	104	0	60	241324
2026-01-29 11:49:53.86	246.68	2.18	-59.4	-75.8	3.6	1.51e+00	0	45	104	0	60	240516
2026-01-29 11:49:56.87	246.99	2.31	-59.4	-75.8	3.6	1.51e+00	0	45	104	0	60	240554
2026-01-29 11:49:59.89	247.31	2.44	-59.4	-75.8	3.6	1.51e+00	0	45	104	0	60	240309
2026-01-29 11:50:02.90	247.63	2.56	-59.4	-75.7	3.6	1.51e+00	0	45	104	0	60	238962
2026-01-29 11:50:05.92	247.96	2.69	-59.3	-75.8	3.6	1.51e+00	0	45	104	0	60	240533
2026-01-29 11:50:08.94	248.28	2.82	-59.3	-75.6	3.6	1.51e+00	0	46	104	0	60	237086
2026-01-29 11:50:11.96	248.61	2.94	-59.3	-75.7	3.6	1.51e+00	0	46	104	0	60	238458
2026-01-29 11:50:14.98	248.95	3.07	-59.3	-75.7	3.6	1.51e+00	0	45	104	0	60	238316
2026-01-29 11:50:18.00	249.28	3.20	-59.3	-75.7	3.6	1.51e+00	0	45	104	0	60	238511
2026-01-29 11:50:21.02	249.62	3.32	-59.3	-75.7	3.6	1.51e+00	0	45	104	0	60	237759
2026-01-29 11:50:24.04	249.96	3.45	-59.3	-75.7	3.6	1.51e+00	0	46	104	0	60	238189
2026-01-29 11:50:27.06	250.31	3.58	-59.3	-75.7	3.6	1.51e+00	0	46	104	0	60	239243
2026-01-29 11:50:30.07	250.65	3.70	-59.3	-75.6	3.6	1.51e+00	0	45	104	0	60	237255
2026-01-29 11:50:33.08	251.00	3.82	-59.3	-75.6	3.5	1.51e+00	0	46	104	0	60	237422
2026-01-29 11:50:36.10	251.35	3.95	-59.3	-75.6	3.6	1.51e+00	0	46	104	0	60	236546
2026-01-29 11:50:39.12	251.71	4.07	-59.3	-75.6	3.6	1.51e+00	0	46	104	0	60	235013
2026-01-29 11:50:42.15	252.07	4.20	-59.3	-75.5	3.6	1.51e+00	0	45	104	0	60	233432
2026-01-29 11:50:45.17	252.43	4.32	-59.2	-75.4	3.6	1.51e+00	0	46	104	0	60	231039
2026-01-29 11:50:48.19	252.79	4.45	-59.2	-75.5	3.6	1.51e+00	0	46	104	0	60	233602
2026-01-29 11:50:51.20	253.16	4.57	-59.2	-75.5	3.6	1.51e+00	0	46	104	0	60	234636
2026-01-29 11:50:54.22	253.53	4.69	-59.2	-75.5	3.6	1.51e+00	0	46	104	0	60	233625
2026-01-29 11:50:57.23	253.90	4.81	-59.2	-75.5	3.6	1.51e+00	0	46	104	0	60	232553
2026-01-29 11:51:00.25	254.27	4.93	-59.2	-75.6	3.6	1.51e+00	0	46	104	0	60	235224
2026-01-29 11:51:03.27	254.65	5.06	-59.2	-75.6	3.6	1.51e+00	0	46	104	0	60	235934
2026-01-29 11:51:06.29	255.03	5.18	-59.2	-75.6	3.6	1.51e+00	0	46	104	0	60	234850
2026-01-29 11:51:09.31	255.42	5.30	-59.2	-75.6	3.6	1.51e+00	0	46	104	0	60	236258
2026-01-29 11:51:12.34	255.81	5.42	-59.2	-75.5	3.6	1.51e+00	0	46	104	0	60	234273
2026-01-29 11:51:15.36	256.20	5.54	-59.2	-75.3	3.6	1.51e+00	0	46	104	0	60	226888
2026-01-29 11:51:18.38	256.59	5.66	-59.2	-73.7	3.6	1.51e+00	0	46	104	0	60	190027
2026-01-29 11:51:21.40	256.99	5.77	-58.9	-69.0	4.8	9.08e-01	0	46	0	0	60	110340
2026-01-29 11:51:24.42	257.39	5.89	-57.4	-62.1	12.2	2.35e-03	0	46	0	6291456	60	50112
2026-01-29 11:51:27.44	257.79	6.01	-56.8	-60.8	13.7	3.00e-06	0	46	0	11534336	60	42757
2026-01-29 11:51:30.46	258.20	6.12	-56.6	-60.3	14.1	2.72e-02	0	46	0	17825792	60	40453
2026-01-29 11:51:33.48	258.61	6.24	-58.2	-64.8	8.2	8.82e-02	0	46	0	18874368	60	68286
2026-01-29 11:51:36.49	259.02	6.35	-59.1	-73.5	3.6	1.50e+00	0	46	104	1048576	60	184797
2026-01-29 11:51:39.52	259.44	6.47	-58.7	-75.1	3.6	1.51e+00	0	46	104	1048576	60	222877
2026-01-29 11:51:42.53	259.86	6.58	-58.5	-74.8	3.6	1.51e+00	0	46	104	1048576	60	216404
2026-01-29 11:51:45.55	260.28	6.69	-58.6	-75.2	3.6	1.51e+00	0	46	104	1048576	60	224515
2026-01-29 11:51:48.56	260.70	6.81	-57.8	-74.5	3.6	1.51e+00	0	46	104	1048576	60	208255
2026-01-29 11:51:51.58	261.13	6.92	-57.8	-74.3	3.6	1.51e+00	0	46	104	1048576	60	202166
2026-01-29 11:51:54.60	261.56	7.03	-58.0	-74.6	3.6	1.51e+00	0	46	104	1048576	60	211003
2026-01-29 11:51:57.61	261.99	7.14	-57.7	-74.3	3.6	1.51e+00	0	46	104	1048576	60	203742
2026-01-29 11:52:00.64	262.43	7.24	-57.7	-74.3	3.6	1.51e+00	0	46	104	1048576	60	204083
2026-01-29 11:52:03.64	262.87	7.35	-58.2	-74.8	3.6	1.51e+00	0	46	104	1048576	60	216320
2026-01-29 11:52:06.66	263.31	7.46	-57.7	-74.4	3.6	1.51e+00	0	46	104	1048576	60	204545
2026-01-29 11:52:09.68	263.76	7.56	-58.1	-74.4	3.6	1.51e+00	0	46	104	1048576	60	206673
2026-01-29 11:52:12.70	264.21	7.67	-57.8	-74.2	3.6	1.51e+00	0	46	104	1048576	60	201632
2026-01-29 11:52:15.72	264.66	7.77	-57.9	-74.5	3.6	1.51e+00	0	46	104	1048576	60	207816
2026-01-29 11:52:18.74	265.12	7.87	-58.7	-75.2	3.6	1.51e+00	0	46	104	1048576	60	225276
2026-01-29 11:52:21.76	265.58	7.97	-57.9	-74.5	3.6	1.51e+00	0	46	104	1048576	60	207450
2026-01-29 11:52:24.78	266.04	8.07	-57.9	-74.3	3.6	1.51e+00	0	46	104	1048576	60	204171
2026-01-29 11:52:27.78	266.50	8.17	-58.7	-75.1	3.6	1.51e+00	0	46	104	1048576	60	224152
2026-01-29 11:52:30.80	266.97	8.27	-58.5	-74.8	3.6	1.51e+00	0	46	104	1048576	60	215593
2026-01-29 11:52:33.82	267.44	8.36	-58.1	-74.5	3.6	1.51e+00	0	46	104	1048576	60	208086
2026-01-29 11:52:36.83	267.92	8.46	-58.5	-74.9	3.6	1.51e+00	0	46	104	1048576	60	216931
2026-01-29 11:52:39.84	268.39	8.55	-58.3	-74.8	3.6	1.51e+00	0	46	104	1048576	60	215131
2026-01-29 11:52:42.86	268.87	8.64	-58.9	-75.4	3.6	1.51e+00	0	46	104	1048576	60	229667
2026-01-29 11:52:45.87	269.35	8.73	-57.9	-74.5	3.6	1.51e+00	0	46	104	1048576	60	206933
2026-01-29 11:52:48.89	269.84	8.82	-57.9	-74.4	3.6	1.51e+00	0	46	104	1048576	60	204877
2026-01-29 11:52:51.91	270.33	8.91	-57.9	-74.5	3.6	1.51e+00	0	46	104	1048576	60	207184
2026-01-29 11:52:54.94	270.82	8.99	-57.9	-74.4	3.6	1.51e+00	0	46	104	1048576	60	204931
2026-01-29 11:52:57.96	271.32	9.08	-57.6	-74.2	3.6	1.51e+00	0	46	104	1048576	60	201731
2026-01-29 11:53:00.99	271.81	9.16	-57.7	-74.5	3.6	1.51e+00	0	46	104	1048576	60	207039
2026-01-29 11:53:04.01	272.31	9.24	-55.3	-73.6	3.6	1.51e+00	0	46	104	1048576	60	188114
2026-01-29 11:53:07.03	272.82	9.32	-55.4	-74.8	3.6	1.51e+00	0	46	104	1048576	60	215238
2026-01-29 11:53:10.05	273.32	9.40	-56.2	-74.2	3.6	1.51e+00	0	46	104	1048576	60	201097
2026-01-29 11:53:13.07	273.83	9.48	-56.5	-74.1	3.6	1.51e+00	0	46	104	1048576	60	198467
2026-01-29 11:53:16.09	274.34	9.55	-59.4	-76.0	3.6	1.51e+00	0	46	104	1048576	60	248183
2026-01-29 11:53:19.12	274.85	9.62	-60.6	-77.2	3.6	1.51e+00	0	46	104	1048576	60	282681
2026-01-29 11:53:22.14	275.37	9.70	-61.4	-77.9	3.6	1.51e+00	0	46	104	1048576	60	308115
2026-01-29 11:53:25.16	275.88	9.77	-61.0	-78.1	3.6	1.51e+00	0	46	104	1048576	60	315585
2026-01-29 11:53:28.19	276.41	9.83	-61.1	-78.3	3.6	1.51e+00	0	46	104	1048576	60	323192
2026-01-29 11:53:31.21	276.93	9.90	-61.4	-78.6	3.6	1.51e+00	0	46	104	1048576	60	335200
2026-01-29 11:53:34.23	277.45	9.96	-62.0	-78.6	3.6	1.51e+00	0	46	104	1048576	60	333328
2026-01-29 11:53:37.25	277.98	10.02	-62.1	-78.7	3.6	1.51e+00	0	46	104	1048576	60	335802
2026-01-29 11:53:40.27	278.51	10.08	-60.8	-78.6	3.6	1.51e+00	0	46	104	1048576	60	334431
2026-01-29 11:53:43.29	279.04	10.14	-60.9	-78.6	3.6	1.51e+00	0	46	104	1048576	60	332539
2026-01-29 11:53:46.31	279.57	10.20	-61.0	-78.5	3.6	1.51e+00	0	46	104	1048576	60	330119
2026-01-29 11:53:49.31	280.10	10.25	-60.9	-78.5	3.6	1.51e+00	0	46	104	1048576	60	331074
2026-01-29 11:53:52.32	280.63	10.30	-60.8	-78.6	3.5	1.51e+00	0	46	104	1048576	60	332053
2026-01-29 11:53:55.35	281.17	10.35	-60.2	-78.5	3.6	1.51e+00	0	46	104	1048576	60	329036
2026-01-29 11:53:58.36	281.71	10.40	-59.8	-78.8	3.6	1.51e+00	0	46	104	1048576	60	341648
2026-01-29 11:54:01.39	282.25	10.44	-59.5	-78.5	3.6	1.51e+00	0	46	104	1048576	60	329819
2026-01-29 11:54:04.40	282.79	10.49	-59.8	-78.1	3.6	1.51e+00	0	46	104	1048576	60	313489
2026-01-29 11:54:07.41	283.34	10.53	-60.7	-77.6	3.5	1.51e+00	0	46	104	1048576	60	297058
2026-01-29 11:54:10.42	283.88	10.56	-59.9	-67.8	5.6	1.51e+00	0	46	104	1048576	60	96286
2026-01-29 11:54:13.43	284.42	10.60	-59.5	-67.3	6.9	1.44e-05	0	46	0	3145728	60	90553
2026-01-29 11:54:16.45	284.97	10.63	-58.2	-62.1	13.9	7.41e-02	0	46	0	1048576	60	50007
2026-01-29 11:54:19.47	285.52	10.67	-58.4	-62.7	12.9	3.43e-05	0	46	0	6291456	60	53756
2026-01-29 11:54:22.48	286.07	10.70	-58.1	-62.0	13.8	4.19e-05	0	46	0	12582912	60	49595
2026-01-29 11:54:25.49	286.62	10.72	-57.1	-60.2	15.6	0.00e+00	0	46	0	17825792	60	40250
2026-01-29 11:54:28.50	287.17	10.75	-57.0	-60.0	15.7	0.00e+00	0	46	0	23068672	60	39288
2026-01-29 11:54:31.50	287.72	10.77	-57.4	-61.0	14.8	0.00e+00	0	46	0	29360128	60	43850
2026-01-29 11:54:34.52	288.27	10.79	-57.3	-60.9	14.9	0.00e+00	0	46	0	34603008	60	43594
2026-01-29 11:54:37.53	288.83	10.81	-57.4	-61.3	14.6	0.00e+00	0	46	0	40894464	60	45634
2026-01-29 11:54:40.55	289.38	10.82	-56.1	-59.0	16.7	0.00e+00	0	46	0	46137344	60	34951
2026-01-29 11:54:43.58	289.94	10.84	-55.8	-58.5	17.2	0.00e+00	0	46	0	51380224	60	32814
2026-01-29 11:54:46.59	290.49	10.85	-55.6	-58.0	17.7	0.00e+00	0	46	0	57671680	60	31103
2026-01-29 11:54:49.60	291.05	10.86	-55.8	-58.2	17.5	0.00e+00	0	46	0	62914560	60	31939
2026-01-29 11:54:52.62	291.60	10.86	-55.7	-58.0	17.8	0.00e+00	0	46	0	69206016	60	30966
2026-01-29 11:54:55.64	292.16	10.87	-55.4	-57.5	18.4	0.00e+00	0	46	0	74448896	60	29524
2026-01-29 11:54:58.66	292.72	10.87	-55.5	-57.7	18.2	0.00e+00	0	46	0	79691776	60	29958
2026-01-29 11:55:01.68	293.27	10.87	-55.5	-57.7	18.2	0.00e+00	0	46	0	85983232	60	30172
2026-01-29 11:55:04.69	293.83	10.86	-55.1	-57.2	18.6	0.00e+00	0	46	0	91226112	60	28271
2026-01-29 11:55:07.71	294.38	10.86	-54.9	-57.0	18.5	0.00e+00	0	46	0	97517568	60	27772
2026-01-29 11:55:10.73	294.94	10.85	-54.8	-56.9	18.7	0.00e+00	0	46	0	102760448	60	27518
2026-01-29 11:55:13.74	295.49	10.84	-54.6	-56.5	19.1	0.00e+00	0	46	0	108003328	60	26288
2026-01-29 11:55:16.76	296.05	10.82	-54.7	-56.7	18.9	0.00e+00	0	46	0	114294784	60	26849
2026-01-29 11:55:19.78	296.60	10.81	-55.2	-57.2	18.6	0.00e+00	0	46	0	119537664	60	28382
2026-01-29 11:55:22.80	297.16	10.79	-55.1	-57.1	18.6	0.00e+00	0	46	0	125829120	60	28013
2026-01-29 11:55:25.80	297.71	10.77	-54.9	-56.8	18.8	0.00e+00	0	46	0	131072000	60	26957
2026-01-29 11:55:28.82	298.26	10.75	-54.9	-57.0	18.7	0.00e+00	0	46	0	136314880	60	27634
2026-01-29 11:55:31.84	298.81	10.72	-54.8	-56.9	18.8	0.00e+00	0	46	0	142606336	60	27327
2026-01-29 11:55:34.85	299.36	10.70	-54.4	-56.3	19.1	0.00e+00	0	46	0	147849216	60	25726
2026-01-29 11:55:37.87	299.91	10.67	-54.5	-56.3	19.2	0.00e+00	0	46	0	154140672	60	25670
2026-01-29 11:55:40.89	300.46	10.64	-54.7	-56.6	19.0	0.00e+00	0	46	0	159383552	60	26531
2026-01-29 11:55:43.91	301.01	10.60	-54.5	-56.2	19.4	0.00e+00	0	46	0	164626432	60	25391
2026-01-29 11:55:46.93	301.55	10.57	-54.0	-55.6	19.9	0.00e+00	0	46	0	170917888	60	23714
2026-01-29 11:55:49.94	302.10	10.53	-54.1	-55.8	19.8	0.00e+00	0	46	0	176160768	60	24216
2026-01-29 11:55:52.95	302.64	10.49	-54.5	-56.3	19.3	0.00e+00	0	46	0	182452224	60	25498
2026-01-29 11:55:55.96	303.18	10.45	-54.5	-56.3	19.4	0.00e+00	0	46	0	187695104	60	25572
2026-01-29 11:55:58.98	303.72	10.40	-54.5	-56.2	19.5	0.00e+00	0	46	0	192937984	60	25353
2026-01-29 11:56:02.01	304.26	10.35	-54.7	-56.5	19.1	0.00e+00	0	46	0	199229440	60	26213
2026-01-29 11:56:05.03	304.79	10.30	-54.7	-56.6	18.9	0.00e+00	0	46	0	204472320	60	26496
2026-01-29 11:56:08.06	305.33	10.25	-54.7	-56.6	18.9	0.00e+00	0	46	0	210763776	60	26561
2026-01-29 11:56:11.08	305.86	10.20	-54.9	-56.9	18.7	0.00e+00	0	46	0	216006656	60	27299
2026-01-29 11:56:14.11	306.40	10.14	-55.3	-57.5	18.0	0.00e+00	0	46	0	221249536	60	29424
2026-01-29 11:56:17.13	306.92	10.09	-55.6	-58.0	17.4	0.00e+00	0	46	0	227540992	60	31234
2026-01-29 11:56:20.16	307.45	10.03	-55.3	-57.8	17.4	0.00e+00	0	46	0	232783872	60	30432
2026-01-29 11:56:23.18	307.98	9.97	-55.1	-57.5	17.6	0.00e+00	0	46	0	239075328	60	29421
2026-01-29 11:56:26.20	308.50	9.90	-54.9	-57.3	17.6	0.00e+00	0	46	0	244318208	60	28798
2026-01-29 11:56:29.23	309.02	9.84	-54.7	-57.1	17.8	0.00e+00	0	46	0	249561088	60	28057
2026-01-29 11:56:32.24	309.54	9.77	-54.6	-56.9	18.0	0.00e+00	0	46	0	255852544	60	27405
2026-01-29 11:56:35.27	310.06	9.70	-54.9	-57.3	17.4	0.00e+00	0	46	0	261095424	60	28808
2026-01-29 11:56:38.29	310.57	9.63	-55.3	-58.0	16.7	0.00e+00	0	46	0	267386880	60	31218
2026-01-29 11:56:41.32	311.08	9.56	-55.6	-58.4	16.2	0.00e+00	0	46	0	272629760	60	32752
2026-01-29 11:56:44.34	311.59	9.49	-55.7	-58.8	15.8	0.00e+00	0	46	0	277872640	60	34000
2026-01-29 11:56:47.35	312.10	9.41	-55.8	-59.0	15.4	0.00e+00	0	46	0	284164096	60	34955
2026-01-29 11:56:50.38	312.60	9.33	-56.1	-59.5	14.8	0.00e+00	0	46	0	289406976	60	37122
2026-01-29 11:56:53.40	313.10	9.25	-56.5	-60.4	14.0	3.00e-06	0	46	0	295698432	60	40959
2026-01-29 11:56:56.42	313.60	9.17	-56.4	-60.1	14.1	0.00e+00	0	46	0	300941312	60	39743
2026-01-29 11:56:59.45	314.10	9.09	-56.5	-60.3	13.9	7.00e-07	0	46	0	306184192	60	40781
2026-01-29 11:57:02.47	314.59	9.01	-56.8	-61.1	13.0	1.90e-05	0	46	0	312475648	60	44244
2026-01-29 11:57:05.48	315.08	8.92	-57.2	-62.0	12.0	2.49e-04	0	46	0	317718528	60	49336
2026-01-29 11:57:08.49	315.56	8.83	-57.2	-62.5	11.4	7.13e-04	0	46	0	324009984	60	51994
2026-01-29 11:57:11.52	316.05	8.75	-57.3	-62.8	11.0	1.80e-03	0	46	0	329252864	60	54032
2026-01-29 11:57:14.53	316.53	8.66	-57.4	-63.8	9.7	7.23e-03	0	46	0	334495744	60	60620
2026-01-29 11:57:17.55	317.01	8.57	-57.5	-65.0	8.4	3.12e-02	0	46	0	340787200	60	69537
2026-01-29 11:57:20.57	317.48	8.47	-57.6	-65.8	7.3	1.09e-01	0	46	0	346030080	60	76065
2026-01-29 11:57:23.59	317.95	8.38	-57.7	-66.3	6.7	1.76e-01	0	46	0	352321536	60	81142
2026-01-29 11:57:26.61	318.42	8.28	-58.0	-68.0	4.6	4.42e-01	0	46	0	357564416	60	98480
2026-01-29 11:57:29.64	318.89	8.19	-58.2	-72.1	3.7	1.50e+00	0	46	104	357564416	60	156926
2026-01-29 11:57:32.65	319.35	8.09	-58.2	-69.6	4.0	1.30e+00	0	46	0	2097152	60	118005
2026-01-29 11:57:35.67	319.81	7.99	-58.4	-69.7	4.0	1.16e+00	0	46	0	8388608	60	119074
2026-01-29 11:57:38.69	320.27	7.89	-58.3	-73.5	3.6	1.50e+00	0	46	104	8388608	60	185591
2026-01-29 11:57:41.72	320.73	7.79	-58.4	-71.8	3.7	1.46e+00	0	46	0	8388608	60	151711
2026-01-29 11:57:44.74	321.18	7.69	-58.4	-72.6	3.7	1.48e+00	0	46	104	8388608	60	167285
2026-01-29 11:57:47.76	321.63	7.58	-58.2	-74.0	3.6	1.48e+00	0	46	104	8388608	60	196937
2026-01-29 11:57:50.79	322.07	7.48	-58.2	-74.3	3.6	1.51e+00	0	46	104	8388608	60	204090
2026-01-29 11:57:53.81	322.52	7.37	-58.1	-74.4	3.6	1.51e+00	0	46	104	8388608	60	206264
2026-01-29 11:57:56.84	322.96	7.27	-58.1	-74.6	3.6	1.51e+00	0	46	104	8388608	60	211401
2026-01-29 11:57:59.86	323.39	7.16	-58.3	-74.7	3.6	1.51e+00	0	46	104	8388608	60	213349
2026-01-29 11:58:02.89	323.83	7.05	-58.4	-74.8	3.6	1.51e+00	0	46	104	8388608	60	214748
2026-01-29 11:58:05.91	324.26	6.94	-58.4	-74.5	3.6	1.51e+00	0	46	104	8388608	60	208630
2026-01-29 11:58:08.93	324.68	6.83	-58.0	-74.5	3.6	1.51e+00	0	46	104	8388608	60	209008
2026-01-29 11:58:11.96	325.11	6.72	-58.4	-74.8	3.6	1.51e+00	0	46	104	8388608	60	216010
2026-01-29 11:58:14.98	325.53	6.61	-58.3	-74.9	3.6	1.51e+00	0	46	104	8388608	60	216847
2026-01-29 11:58:18.00	325.95	6.50	-58.5	-74.9	3.6	1.51e+00	0	46	104	8388608	60	218563
2026-01-29 11:58:21.02	326.36	6.38	-58.0	-74.5	3.6	1.51e+00	0	46	104	8388608	60	207535
2026-01-29 11:58:24.05	326.77	6.27	-58.1	-74.6	3.6	1.51e+00	0	46	104	8388608	60	209486
2026-01-29 11:58:27.07	327.18	6.16	-57.8	-74.2	3.6	1.51e+00	0	46	104	8388608	60	201580
2026-01-29 11:58:30.09	327.59	6.04	-57.9	-74.3	3.6	1.51e+00	0	46	104	8388608	60	204193
2026-01-29 11:58:33.11	327.99	5.93	-57.9	-75.0	3.6	1.51e+00	0	46	104	8388608	60	220136
2026-01-29 11:58:36.13	328.39	5.81	-61.2	-77.6	3.6	1.51e+00	0	46	104	8388608	60	297165
2026-01-29 11:58:39.16	328.78	5.69	-61.3	-78.0	3.6	1.51e+00	0	46	104	8388608	60	309917
2026-01-29 11:58:42.18	329.18	5.57	-61.7	-78.3	3.6	1.51e+00	0	46	104	8388608	60	321273
2026-01-29 11:58:45.21	329.57	5.46	-61.9	-78.6	3.6	1.51e+00	0	46	104	8388608	60	333670
2026-01-29 11:58:48.23	329.95	5.34	-60.5	-78.3	3.6	1.51e+00	0	46	104	8388608	60	323116
2026-01-29 11:58:51.25	330.34	5.22	-60.9	-78.6	3.6	1.51e+00	0	46	104	8388608	60	332915
2026-01-29 11:58:54.28	330.72	5.10	-60.9	-78.5	3.6	1.51e+00	0	46	104	8388608	60	327850
2026-01-29 11:58:57.31	331.10	4.98	-60.9	-78.4	3.6	1.51e+00	0	46	104	8388608	60	326342
2026-01-29 11:59:00.32	331.47	4.86	-60.9	-78.4	3.6	1.51e+00	0	46	104	8388608	60	324458
2026-01-29 11:59:03.34	331.84	4.73	-60.9	-78.4	3.6	1.51e+00	0	46	104	8388608	60	327239
2026-01-29 11:59:06.36	332.21	4.61	-60.8	-78.3	3.6	1.51e+00	0	46	104	8388608	60	321302
2026-01-29 11:59:09.39	332.58	4.49	-60.8	-78.5	3.6	1.51e+00	0	46	104	8388608	60	328271
2026-01-29 11:59:12.41	332.94	4.37	-60.8	-78.4	3.6	1.51e+00	0	46	104	8388608	60	324563
2026-01-29 11:59:15.43	333.30	4.25	-60.7	-78.3	3.6	1.51e+00	0	46	104	8388608	60	323839
2026-01-29 11:59:18.46	333.66	4.12	-60.7	-78.1	3.6	1.51e+00	0	46	104	8388608	60	316485
2026-01-29 11:59:21.47	334.01	4.00	-60.6	-78.3	3.6	1.51e+00	0	46	104	8388608	60	323052
2026-01-29 11:59:24.50	334.37	3.88	-60.6	-78.3	3.6	1.51e+00	0	46	104	8388608	60	323144
2026-01-29 11:59:27.51	334.71	3.75	-60.6	-78.3	3.6	1.51e+00	0	46	104	8388608	60	323953
2026-01-29 11:59:30.54	335.06	3.63	-60.7	-78.3	3.6	1.51e+00	0	46	104	8388608	60	321988
2026-01-29 11:59:33.55	335.40	3.50	-60.6	-78.2	3.6	1.51e+00	0	46	104	8388608	60	318245
2026-01-29 11:59:36.58	335.74	3.38	-60.6	-78.1	3.6	1.51e+00	0	46	104	8388608	60	315250
2026-01-29 11:59:39.60	336.08	3.25	-60.6	-78.3	3.6	1.51e+00	0	46	104	8388608	60	320328
2026-01-29 11:59:42.62	336.42	3.13	-60.6	-78.3	3.6	1.51e+00	0	46	104	8388608	60	321345
2026-01-29 11:59:45.64	336.75	3.00	-60.6	-78.3	3.6	1.51e+00	0	46	104	8388608	60	322136
2026-01-29 11:59:48.67	337.08	2.88	-60.5	-78.2	3.6	1.51e+00	0	46	104	8388608	60	317229
2026-01-29 11:59:51.69	337.40	2.75	-60.5	-78.0	3.6	1.51e+00	0	46	104	8388608	60	312330
2026-01-29 11:59:54.72	337.73	2.63	-60.5	-78.2	3.6	1.51e+00	0	46	104	8388608	60	318347
2026-01-29 11:59:57.75	338.05	2.50	-60.5	-78.2	3.6	1.51e+00	0	46	104	8388608	60	317523
2026-01-29 12:00:00.77	338.37	2.37	-60.5	-78.0	3.6	1.51e+00	0	46	104	8388608	60	311586
2026-01-29 12:00:03.79	338.69	2.25	-60.5	-78.2	3.6	1.51e+00	0	46	104	8388608	60	317848
2026-01-29 12:00:06.82	339.00	2.12	-60.6	-78.2	3.6	1.51e+00	0	46	104	8388608	60	318511
2026-01-29 12:00:09.85	339.31	1.99	-60.5	-78.0	3.6	1.51e+00	0	46	104	8388608	60	311521
2026-01-29 12:00:12.87	339.62	1.87	-60.5	-78.1	3.6	1.51e+00	0	46	104	8388608	60	313016
2026-01-29 12:00:15.89	339.93	1.74	-60.5	-78.1	3.6	1.51e+00	0	46	104	8388608	60	315631
2026-01-29 12:00:18.91	340.23	1.61	-60.5	-78.1	3.6	1.51e+00	0	46	104	8388608	60	315571
2026-01-29 12:00:21.94	340.53	1.49	-60.5	-78.2	3.6	1.51e+00	0	46	104	8388608	60	317336
2026-01-29 12:00:24.96	340.83	1.36	-60.5	-78.1	3.6	1.51e+00	0	46	104	8388608	60	313258
2026-01-29 12:00:27.99	341.13	1.23	-60.5	-78.1	3.6	1.51e+00	0	46	104	8388608	60	315895
2026-01-29 12:00:31.01	341.42	1.11	-60.5	-78.1	3.6	1.51e+00	0	46	104	8388608	60	313336
2026-01-29 12:00:34.02	341.71	0.98	-60.5	-78.2	3.6	1.51e+00	0	46	104	8388608	60	317776
2026-01-29 12:00:37.04	342.00	0.85	-60.5	-78.1	3.6	1.51e+00	0	46	104	8388608	60	315260
2026-01-29 12:00:40.06	342.29	0.73	-60.5	-78.1	3.6	1.51e+00	0	46	104	8388608	60	315953
2026-01-29 12:00:43.08	342.58	0.60	-60.5	-78.0	3.5	1.51e+00	0	46	104	8388608	60	312028
2026-01-29 12:00:46.10	342.86	0.47	-60.5	-78.1	3.6	1.51e+00	0	46	104	8388608	60	315264
2026-01-29 12:00:49.12	343.14	0.35	-60.6	-78.1	3.6	1.51e+00	0	46	104	8388608	60	315868
2026-01-29 12:00:52.14	343.42	0.22	-60.5	-78.0	3.6	1.51e+00	0	46	104	8388608	60	311443
2026-01-29 12:00:55.15	343.69	0.09	-60.5	-78.1	3.6	1.51e+00	0	46	104	8388608	60	314257
2026-01-29 12:00:58.16	343.96	-0.03	-60.5	-78.0	3.6	1.51e+00	0	46	104	8388608	60	311877

#Closed at: 2026-01-29 12:00:58
#Recorded file [8 MB]: D:/Data/35015_260129_145747.dat