passes_logs/2026/01/29/R3.2S-Naryan-Mar/R3.2S-Naryan-Mar__20260129_064443_SUOMI_NPP_rec.log

#Pass ID: 20260129_064443_SUOMI NPP
#Satellite: SUOMI NPP
#Configuration: NPP
#almurnet v.1.7.20240730
#Start time: 2026-01-29 06:44:43

#Version: 2.2.20231116
#Station: R3.2S-Naryan-Mar
#Location: 53.008057 lon 67.646978 lat
#TLE: 1 37849U 11061A   26027.93236865  .00000148  00000+0  91411-4 0  9991
#TLE: 2 37849  98.7823 329.8704 0002085  41.3231 318.8102 14.19530777738546

#Time	Az	El	Level	Level2	SNR	BER	BlckErr	Temp	State	Recorded	gain1	gain2
2026-01-29 06:44:43.44	115.71	0.02	-61.1	-75.9	3.4	1.51e+00	0	43	0	0	60	238647
2026-01-29 06:44:47.46	115.57	0.25	-61.0	-78.6	3.6	1.51e+00	0	44	104	0	60	335057
2026-01-29 06:44:51.48	115.44	0.48	-61.9	-78.9	3.6	1.51e+00	0	44	104	0	60	346029
2026-01-29 06:44:55.51	115.30	0.72	-61.2	-78.6	3.6	1.51e+00	0	45	104	0	60	331938
2026-01-29 06:44:59.53	115.16	0.96	-56.9	-76.5	3.5	1.51e+00	0	45	104	0	60	262624
2026-01-29 06:45:03.56	115.01	1.20	-50.1	-72.4	3.6	1.51e+00	0	45	104	0	60	163991
2026-01-29 06:45:07.59	114.86	1.45	-49.8	-72.3	3.6	1.51e+00	0	45	104	0	60	160590
2026-01-29 06:45:11.61	114.72	1.69	-49.7	-72.0	3.6	1.51e+00	0	45	104	0	60	156298
2026-01-29 06:45:15.64	114.56	1.94	-49.7	-71.9	3.6	1.51e+00	0	45	104	0	60	154299
2026-01-29 06:45:19.67	114.41	2.19	-49.7	-72.1	3.6	1.51e+00	0	45	104	0	60	157129
2026-01-29 06:45:23.70	114.25	2.44	-49.6	-71.9	3.6	1.51e+00	0	45	104	0	60	153636
2026-01-29 06:45:27.72	114.09	2.69	-49.5	-71.9	3.6	1.51e+00	0	45	104	0	60	153566
2026-01-29 06:45:31.76	113.92	2.94	-49.3	-71.7	3.5	1.51e+00	0	45	104	0	60	150648
2026-01-29 06:45:35.78	113.76	3.20	-49.2	-71.7	3.6	1.51e+00	0	45	104	0	60	150667
2026-01-29 06:45:39.80	113.59	3.46	-49.3	-70.9	3.5	1.51e+00	0	45	104	0	60	138070
2026-01-29 06:45:43.81	113.42	3.72	-49.3	-71.7	3.6	1.51e+00	0	45	104	0	60	150566
2026-01-29 06:45:47.85	113.24	3.98	-49.1	-71.5	3.6	1.51e+00	0	45	104	0	60	147206
2026-01-29 06:45:51.88	113.06	4.25	-49.4	-71.8	3.6	1.51e+00	0	45	104	0	60	152468
2026-01-29 06:45:55.90	112.87	4.52	-49.4	-70.5	3.6	1.51e+00	0	45	104	0	60	131525
2026-01-29 06:45:59.92	112.69	4.79	-49.1	-71.5	3.6	1.51e+00	0	45	104	0	60	147496
2026-01-29 06:46:03.96	112.49	5.06	-49.1	-70.3	3.6	1.51e+00	0	45	104	0	60	128107
2026-01-29 06:46:07.99	112.30	5.34	-49.0	-71.3	3.6	1.51e+00	0	45	104	0	60	144526
2026-01-29 06:46:12.01	112.10	5.62	-49.1	-71.6	3.6	1.51e+00	0	45	104	0	60	148507
2026-01-29 06:46:16.03	111.90	5.90	-49.0	-71.5	3.6	1.51e+00	0	45	104	0	60	146896
2026-01-29 06:46:20.07	111.69	6.18	-47.9	-67.3	3.6	1.51e+00	0	45	104	0	60	90937
2026-01-29 06:46:24.10	111.48	6.47	-39.3	-62.0	3.6	1.51e+00	0	45	104	0	52	78098
2026-01-29 06:46:28.12	111.26	6.75	-48.5	-71.5	3.6	1.51e+00	0	45	104	0	60	146427
2026-01-29 06:46:32.15	111.04	7.05	-46.0	-70.3	3.6	1.51e+00	0	46	104	0	60	128431
2026-01-29 06:46:36.19	110.82	7.34	-49.4	-74.2	3.6	1.51e+00	0	45	104	0	60	201706
2026-01-29 06:46:40.21	110.59	7.64	-47.6	-71.3	3.6	1.51e+00	0	45	104	0	60	143708
2026-01-29 06:46:44.24	110.35	7.94	-58.4	-75.6	3.6	1.51e+00	0	46	104	0	60	236172
2026-01-29 06:46:48.26	110.11	8.24	-45.9	-70.1	3.6	1.51e+00	0	45	104	0	60	125967
2026-01-29 06:46:52.29	109.86	8.55	-55.5	-73.8	3.6	1.51e+00	0	45	104	0	60	190823
2026-01-29 06:46:56.33	109.61	8.86	-52.4	-72.9	3.6	1.51e+00	0	45	104	0	60	172650
2026-01-29 06:47:00.35	109.35	9.18	-57.4	-75.3	3.6	1.51e+00	0	46	104	0	60	228696
2026-01-29 06:47:04.38	109.09	9.49	-57.7	-75.6	3.6	1.51e+00	0	45	104	0	60	236951
2026-01-29 06:47:08.41	108.82	9.81	-57.9	-75.7	3.6	1.51e+00	0	45	104	0	60	237901
2026-01-29 06:47:12.44	108.55	10.14	-56.0	-75.0	3.6	1.51e+00	0	46	104	0	60	220726
2026-01-29 06:47:16.46	108.27	10.46	-57.5	-75.8	3.6	1.51e+00	0	46	104	0	60	241930
2026-01-29 06:47:20.48	107.98	10.80	-57.1	-75.6	3.6	1.51e+00	0	45	104	0	60	236218
2026-01-29 06:47:24.51	107.68	11.13	-58.7	-76.2	3.6	1.51e+00	0	46	104	0	60	253026
2026-01-29 06:47:28.54	107.38	11.47	-59.2	-76.3	3.6	1.51e+00	0	45	104	0	60	257079
2026-01-29 06:47:32.57	107.07	11.81	-57.3	-75.4	3.6	1.51e+00	0	46	104	0	60	231134
2026-01-29 06:47:36.59	106.75	12.16	-59.1	-76.3	3.6	1.51e+00	0	46	104	0	60	255094
2026-01-29 06:47:40.60	106.43	12.51	-57.8	-75.8	3.6	1.51e+00	0	46	104	0	60	240493
2026-01-29 06:47:44.63	106.09	12.86	-58.7	-76.0	3.6	1.51e+00	0	46	104	0	60	247172
2026-01-29 06:47:48.65	105.75	13.22	-57.8	-75.8	3.6	1.51e+00	0	45	104	0	60	241126
2026-01-29 06:47:52.67	105.40	13.59	-58.6	-76.1	3.6	1.51e+00	0	46	104	0	60	251167
2026-01-29 06:47:56.68	105.04	13.95	-58.1	-75.8	3.6	1.51e+00	0	46	104	0	60	242460
2026-01-29 06:48:00.71	104.67	14.32	-59.1	-76.5	3.6	1.51e+00	0	46	104	0	60	262821
2026-01-29 06:48:04.74	104.29	14.70	-58.7	-76.3	3.6	1.51e+00	0	46	104	0	60	255663
2026-01-29 06:48:08.76	103.91	15.08	-59.9	-76.5	3.6	1.51e+00	0	46	104	0	60	262647
2026-01-29 06:48:12.79	103.51	15.47	-59.4	-76.2	3.6	1.51e+00	0	45	104	0	60	253867
2026-01-29 06:48:16.82	103.10	15.86	-59.3	-76.7	3.6	1.51e+00	0	45	104	0	60	266725
2026-01-29 06:48:20.85	102.67	16.25	-59.3	-76.2	3.5	1.51e+00	0	45	104	0	60	252193
2026-01-29 06:48:24.87	102.24	16.65	-59.0	-76.6	3.6	1.51e+00	0	46	104	0	60	265082
2026-01-29 06:48:28.90	101.80	17.06	-58.6	-76.1	3.6	1.51e+00	0	46	104	0	60	249922
2026-01-29 06:48:32.93	101.34	17.47	-59.8	-76.2	3.6	1.51e+00	0	46	104	0	60	252478
2026-01-29 06:48:36.95	100.87	17.88	-59.0	-75.4	3.6	1.51e+00	0	46	104	0	60	230365
2026-01-29 06:48:40.98	100.38	18.30	-58.4	-75.4	3.6	1.51e+00	0	46	104	0	60	230401
2026-01-29 06:48:45.00	99.89	18.73	-55.4	-74.7	3.6	1.51e+00	0	46	104	0	60	212135
2026-01-29 06:48:49.04	99.37	19.16	-55.1	-74.2	3.6	1.51e+00	0	46	104	0	60	199857
2026-01-29 06:48:53.07	98.84	19.60	-54.9	-73.8	3.6	1.51e+00	0	46	104	0	60	192166
2026-01-29 06:48:57.10	98.30	20.04	-56.8	-76.0	3.6	1.51e+00	0	46	104	0	60	247085
2026-01-29 06:49:01.11	97.74	20.48	-59.8	-76.9	3.6	1.51e+00	0	46	104	0	60	273942
2026-01-29 06:49:05.14	97.17	20.93	-58.1	-75.8	3.6	1.51e+00	0	46	104	0	60	242444
2026-01-29 06:49:09.17	96.57	21.38	-57.6	-76.2	3.6	1.51e+00	0	45	104	0	60	252132
2026-01-29 06:49:13.20	95.96	21.84	-59.4	-76.4	3.6	1.51e+00	0	46	104	0	60	258172
2026-01-29 06:49:17.21	95.33	22.31	-59.3	-76.2	3.6	1.51e+00	0	46	104	0	60	254285
2026-01-29 06:49:21.25	94.68	22.78	-59.1	-75.7	3.6	1.51e+00	0	46	104	0	60	238684
2026-01-29 06:49:25.28	94.01	23.25	-59.2	-76.4	3.6	1.51e+00	0	46	104	0	60	260131
2026-01-29 06:49:29.30	93.32	23.73	-58.8	-76.9	3.6	1.51e+00	0	46	104	0	60	272813
2026-01-29 06:49:33.33	92.61	24.21	-59.7	-76.0	3.6	1.51e+00	0	46	104	0	60	246008
2026-01-29 06:49:37.35	91.87	24.70	-59.5	-76.4	3.6	1.51e+00	0	46	104	0	60	258269
2026-01-29 06:49:41.38	91.11	25.19	-59.9	-76.3	3.6	1.51e+00	0	46	104	0	60	256631
2026-01-29 06:49:45.41	90.33	25.68	-60.4	-76.4	3.6	1.51e+00	0	46	104	0	60	259112
2026-01-29 06:49:49.43	89.52	26.18	-60.2	-76.6	3.6	1.51e+00	0	46	104	0	60	264940
2026-01-29 06:49:53.46	88.68	26.67	-59.7	-76.3	3.6	1.51e+00	0	46	104	0	60	255502
2026-01-29 06:49:57.49	87.82	27.18	-60.5	-76.6	3.6	1.51e+00	0	46	104	0	60	266033
2026-01-29 06:50:01.52	86.93	27.68	-59.8	-76.2	3.6	1.51e+00	0	46	104	0	60	251888
2026-01-29 06:50:05.54	86.02	28.18	-60.0	-76.9	3.6	1.51e+00	0	46	104	0	60	273623
2026-01-29 06:50:09.57	85.07	28.69	-59.1	-76.2	3.6	1.51e+00	0	46	104	0	60	253303
2026-01-29 06:50:13.61	84.09	29.19	-59.2	-76.0	3.6	1.51e+00	0	46	104	0	60	246256
2026-01-29 06:50:17.63	83.08	29.70	-60.5	-77.0	3.6	1.51e+00	0	46	104	0	60	277574
2026-01-29 06:50:21.66	82.04	30.20	-59.5	-77.0	3.6	1.51e+00	0	46	104	0	60	278493
2026-01-29 06:50:25.69	80.96	30.70	-60.1	-77.6	3.6	1.51e+00	0	46	104	0	60	296235
2026-01-29 06:50:29.72	79.85	31.20	-61.2	-77.6	3.6	1.51e+00	0	46	104	0	60	296412
2026-01-29 06:50:33.74	78.71	31.69	-61.0	-77.5	3.6	1.51e+00	0	46	104	0	60	294626
2026-01-29 06:50:37.76	77.53	32.17	-61.3	-76.6	3.6	1.51e+00	0	45	104	0	60	264193
2026-01-29 06:50:41.79	76.31	32.66	-61.2	-78.0	3.6	1.51e+00	0	45	104	0	60	312638
2026-01-29 06:50:45.82	75.06	33.13	-61.5	-78.0	3.6	1.51e+00	0	46	104	0	60	310856
2026-01-29 06:50:49.85	73.77	33.59	-61.6	-78.1	3.6	1.51e+00	0	46	104	0	60	316345
2026-01-29 06:50:53.87	72.45	34.05	-59.8	-77.8	3.6	1.51e+00	0	46	104	0	60	305234
2026-01-29 06:50:57.89	71.09	34.49	-60.4	-78.0	3.6	1.51e+00	0	46	104	0	60	311516
2026-01-29 06:51:01.92	69.69	34.92	-60.9	-78.0	3.6	1.51e+00	0	46	104	0	60	311984
2026-01-29 06:51:05.95	68.25	35.34	-61.3	-77.9	3.6	1.51e+00	0	46	104	0	60	308903
2026-01-29 06:51:09.97	66.78	35.74	-61.3	-77.9	3.6	1.51e+00	0	46	104	0	60	308588
2026-01-29 06:51:14.00	65.27	36.12	-61.6	-78.2	3.6	1.51e+00	0	46	104	0	60	320206
2026-01-29 06:51:18.02	63.73	36.48	-61.5	-77.7	3.6	1.51e+00	0	46	104	0	60	301305
2026-01-29 06:51:22.05	62.15	36.82	-61.6	-77.8	3.6	1.51e+00	0	46	104	0	60	303146
2026-01-29 06:51:26.07	60.54	37.15	-61.1	-78.0	3.6	1.51e+00	0	46	104	0	60	311123
2026-01-29 06:51:30.09	58.91	37.44	-61.2	-77.3	3.6	1.51e+00	0	46	104	0	60	285896
2026-01-29 06:51:34.12	57.24	37.72	-61.7	-78.1	3.6	1.51e+00	0	46	104	0	60	315879
2026-01-29 06:51:38.15	55.54	37.96	-61.2	-76.0	3.8	1.51e+00	0	45	104	0	60	246654
2026-01-29 06:51:42.18	53.81	38.18	-61.3	-77.8	3.6	1.51e+00	0	46	104	0	60	305810
2026-01-29 06:51:46.21	52.07	38.37	-62.1	-76.0	3.7	1.50e+00	0	46	104	0	60	247215
2026-01-29 06:51:50.23	50.31	38.53	-61.4	-78.4	3.6	1.51e+00	0	46	104	0	60	325699
2026-01-29 06:51:54.26	48.53	38.66	-62.0	-76.8	3.6	1.51e+00	0	46	104	0	60	271956
2026-01-29 06:51:58.29	46.74	38.76	-61.2	-78.1	3.6	1.51e+00	0	46	104	0	60	314089
2026-01-29 06:52:02.32	44.94	38.83	-61.9	-75.6	3.8	1.51e+00	0	46	104	0	60	236685
2026-01-29 06:52:06.34	43.14	38.86	-62.0	-78.5	3.6	1.51e+00	0	46	104	0	60	327869
2026-01-29 06:52:10.36	41.33	38.87	-61.0	-77.8	3.6	1.51e+00	0	46	104	0	60	305780
2026-01-29 06:52:14.39	39.53	38.84	-61.0	-78.1	3.6	1.51e+00	0	46	104	0	60	314306
2026-01-29 06:52:18.41	37.73	38.77	-61.7	-76.1	3.6	1.51e+00	0	46	104	0	60	248897
2026-01-29 06:52:22.43	35.94	38.68	-61.6	-78.1	3.6	1.51e+00	0	46	104	0	60	316356
2026-01-29 06:52:26.46	34.16	38.55	-61.6	-77.7	3.6	1.51e+00	0	46	104	0	60	300912
2026-01-29 06:52:30.48	32.40	38.40	-60.7	-77.7	3.6	1.51e+00	0	46	104	0	60	302037
2026-01-29 06:52:34.50	30.66	38.21	-60.2	-76.6	3.6	1.51e+00	0	46	104	0	60	265806
2026-01-29 06:52:38.53	28.94	38.00	-59.3	-77.4	3.6	1.51e+00	0	46	104	0	60	291751
2026-01-29 06:52:42.55	27.24	37.75	-60.0	-77.6	3.6	1.51e+00	0	46	104	0	60	297361
2026-01-29 06:52:46.57	25.57	37.49	-61.5	-77.4	3.6	1.51e+00	0	46	104	0	60	289300
2026-01-29 06:52:50.59	23.93	37.19	-61.7	-76.8	3.6	1.38e+00	0	46	104	0	60	271805
2026-01-29 06:52:54.61	22.32	36.88	-61.3	-77.0	3.6	1.51e+00	0	46	104	0	60	277861
2026-01-29 06:52:58.64	20.74	36.54	-61.1	-77.4	3.6	1.41e+00	0	46	104	0	60	289532
2026-01-29 06:53:02.66	19.20	36.18	-59.5	-77.1	3.6	1.51e+00	0	46	104	0	60	279608
2026-01-29 06:53:06.69	17.68	35.80	-60.2	-77.6	3.6	1.51e+00	0	46	104	0	60	297496
2026-01-29 06:53:10.71	16.21	35.40	-57.4	-76.9	3.5	1.51e+00	0	45	104	0	60	273879
2026-01-29 06:53:14.75	14.77	34.99	-61.2	-77.6	3.6	1.51e+00	0	46	104	0	60	298126
2026-01-29 06:53:18.78	13.36	34.56	-60.6	-77.0	3.6	1.51e+00	0	46	104	0	60	277809
2026-01-29 06:53:22.81	12.00	34.12	-61.0	-77.6	3.6	1.51e+00	0	46	104	0	60	296267
2026-01-29 06:53:26.84	10.67	33.67	-60.2	-77.7	3.6	1.51e+00	0	46	104	0	60	301767
2026-01-29 06:53:30.86	9.38	33.21	-59.9	-77.9	3.6	1.51e+00	0	46	104	0	60	306008
2026-01-29 06:53:34.89	8.13	32.74	-59.4	-77.8	3.6	1.51e+00	0	46	104	0	60	303947
2026-01-29 06:53:38.92	6.91	32.26	-59.4	-77.2	3.6	1.51e+00	0	46	104	0	60	285400
2026-01-29 06:53:42.93	5.73	31.78	-60.9	-77.6	3.6	1.51e+00	0	46	104	0	60	298853
2026-01-29 06:53:46.95	4.59	31.29	-59.5	-77.0	3.6	1.51e+00	0	46	104	0	60	278772
2026-01-29 06:53:50.97	3.48	30.79	-60.5	-77.7	3.6	1.51e+00	0	46	104	0	60	301881
2026-01-29 06:53:54.99	2.40	30.30	-60.5	-77.7	3.6	1.51e+00	0	46	104	0	60	301091
2026-01-29 06:53:59.00	1.36	29.80	-59.2	-77.3	3.6	1.51e+00	0	46	104	0	60	285529
2026-01-29 06:54:03.01	0.35	29.30	-58.4	-77.5	3.6	1.51e+00	0	46	104	0	60	293343
2026-01-29 06:54:07.04	359.37	28.80	-57.1	-76.5	3.6	1.51e+00	0	46	104	0	60	261598
2026-01-29 06:54:11.07	358.42	28.29	-58.3	-77.0	3.6	1.51e+00	0	46	104	0	60	276992
2026-01-29 06:54:15.09	357.50	27.79	-57.8	-76.6	3.6	1.51e+00	0	46	104	0	60	265168
2026-01-29 06:54:19.11	356.61	27.29	-58.9	-77.3	3.6	1.51e+00	0	46	104	0	60	287530
2026-01-29 06:54:23.14	355.75	26.79	-60.0	-77.2	3.6	1.51e+00	0	46	104	0	60	284340
2026-01-29 06:54:27.17	354.91	26.29	-59.7	-77.5	3.6	1.51e+00	0	46	104	0	60	295335
2026-01-29 06:54:31.19	354.10	25.80	-60.7	-77.1	3.6	1.51e+00	0	46	104	0	60	281834
2026-01-29 06:54:35.22	353.32	25.31	-60.9	-77.3	3.6	1.51e+00	0	46	104	0	60	286799
2026-01-29 06:54:39.26	352.55	24.82	-59.3	-77.2	3.6	1.51e+00	0	46	104	0	60	284886
2026-01-29 06:54:43.29	351.82	24.33	-59.6	-77.3	3.6	1.51e+00	0	46	104	0	60	287121
2026-01-29 06:54:47.33	351.10	23.85	-60.2	-77.5	3.6	1.51e+00	0	46	104	0	60	294645
2026-01-29 06:54:51.36	350.41	23.37	-60.8	-77.7	3.6	1.51e+00	0	46	104	0	60	299728
2026-01-29 06:54:55.39	349.74	22.90	-60.0	-77.2	3.6	1.51e+00	0	46	104	0	60	283545
2026-01-29 06:54:59.42	349.08	22.43	-60.1	-77.4	3.5	1.51e+00	0	46	104	0	60	290655
2026-01-29 06:55:03.43	348.46	21.97	-60.2	-77.5	3.6	1.51e+00	0	46	104	0	60	294292
2026-01-29 06:55:07.46	347.84	21.51	-60.8	-77.7	3.6	1.51e+00	0	46	104	0	60	301582
2026-01-29 06:55:11.49	347.25	21.05	-60.9	-77.5	3.6	1.51e+00	0	46	104	0	60	295315
2026-01-29 06:55:15.52	346.67	20.60	-60.5	-77.4	3.6	1.51e+00	0	46	104	0	60	289779
2026-01-29 06:55:19.54	346.11	20.16	-60.4	-77.1	3.6	1.51e+00	0	46	104	0	60	279430
2026-01-29 06:55:23.57	345.57	19.72	-60.7	-77.4	3.6	1.51e+00	0	46	104	0	60	291644
2026-01-29 06:55:27.60	345.04	19.28	-59.8	-77.2	3.6	1.51e+00	0	46	104	0	60	283641
2026-01-29 06:55:31.63	344.53	18.85	-60.0	-77.2	3.6	1.51e+00	0	46	104	0	60	284646
2026-01-29 06:55:35.65	344.03	18.43	-60.4	-77.3	3.6	1.51e+00	0	46	104	0	60	286814
2026-01-29 06:55:39.67	343.55	18.01	-60.9	-77.4	3.5	1.51e+00	0	46	104	0	60	290947
2026-01-29 06:55:43.70	343.08	17.60	-60.7	-77.3	3.6	1.51e+00	0	46	104	0	60	287331
2026-01-29 06:55:47.73	342.62	17.19	-59.7	-77.2	3.6	1.51e+00	0	46	104	0	60	284031
2026-01-29 06:55:51.76	342.17	16.78	-58.6	-77.0	3.6	1.51e+00	0	46	104	0	60	276553
2026-01-29 06:55:55.79	341.74	16.38	-59.5	-77.0	3.6	1.51e+00	0	46	104	0	60	277473
2026-01-29 06:55:59.82	341.32	15.99	-60.7	-77.1	3.6	1.51e+00	0	46	104	0	60	282025
2026-01-29 06:56:03.84	340.91	15.60	-60.8	-77.2	3.6	1.51e+00	0	46	104	0	60	284468
2026-01-29 06:56:07.86	340.51	15.21	-60.8	-77.1	3.6	1.51e+00	0	46	104	0	60	279523
2026-01-29 06:56:11.89	340.12	14.83	-60.8	-77.2	3.6	1.51e+00	0	46	104	0	60	282885
2026-01-29 06:56:15.91	339.74	14.46	-60.6	-77.1	3.6	1.51e+00	0	46	104	0	60	282006
2026-01-29 06:56:19.93	339.38	14.08	-60.4	-77.0	3.6	1.51e+00	0	46	104	0	60	278312
2026-01-29 06:56:23.96	339.02	13.72	-60.0	-76.9	3.6	1.51e+00	0	46	104	0	60	273340
2026-01-29 06:56:27.97	338.67	13.35	-60.1	-76.8	3.6	1.51e+00	0	46	104	0	60	271362
2026-01-29 06:56:31.99	338.33	13.00	-58.9	-76.3	3.6	1.51e+00	0	46	104	0	60	255914
2026-01-29 06:56:36.03	337.99	12.64	-59.6	-75.9	3.6	1.51e+00	0	46	104	0	60	245154
2026-01-29 06:56:40.04	337.67	12.29	-59.5	-75.9	3.6	1.51e+00	0	46	104	0	60	245427
2026-01-29 06:56:44.06	337.35	11.95	-58.0	-76.4	3.6	1.51e+00	0	46	104	0	60	258276
2026-01-29 06:56:48.09	337.04	11.60	-59.2	-75.6	3.6	1.51e+00	0	46	104	0	60	236950
2026-01-29 06:56:52.11	336.74	11.26	-59.0	-76.3	3.6	1.51e+00	0	46	104	0	60	254719
2026-01-29 06:56:56.14	336.45	10.93	-57.8	-75.3	3.6	1.51e+00	0	46	104	0	60	228972
2026-01-29 06:57:00.16	336.16	10.60	-58.6	-75.3	3.6	1.51e+00	0	46	104	0	60	227349
2026-01-29 06:57:04.19	335.88	10.27	-58.6	-75.3	3.6	1.51e+00	0	46	104	0	60	228150
2026-01-29 06:57:08.22	335.61	9.95	-58.1	-75.1	3.6	1.51e+00	0	46	104	0	60	223335
2026-01-29 06:57:12.26	335.34	9.63	-57.7	-75.1	3.6	1.51e+00	0	46	104	0	60	222860
2026-01-29 06:57:16.28	335.08	9.31	-57.7	-74.7	3.6	1.51e+00	0	46	104	0	60	211880
2026-01-29 06:57:20.30	334.82	9.00	-57.2	-74.5	3.6	1.51e+00	0	46	104	0	60	209083
2026-01-29 06:57:24.33	334.57	8.69	-56.3	-74.1	3.6	1.51e+00	0	46	104	0	60	197601
2026-01-29 06:57:28.35	334.33	8.38	-56.4	-74.4	3.6	1.51e+00	0	46	104	0	60	205433
2026-01-29 06:57:32.37	334.09	8.08	-54.8	-73.9	3.6	1.51e+00	0	46	104	0	60	194594
2026-01-29 06:57:36.40	333.85	7.78	-55.2	-74.0	3.6	1.51e+00	0	46	104	0	60	195472
2026-01-29 06:57:40.42	333.63	7.48	-56.2	-74.4	3.6	1.51e+00	0	46	104	0	60	205661
2026-01-29 06:57:44.45	333.40	7.18	-53.4	-72.9	3.6	1.51e+00	0	46	104	0	60	172883
2026-01-29 06:57:48.49	333.18	6.89	-52.8	-72.6	3.6	1.51e+00	0	46	104	0	60	167086
2026-01-29 06:57:52.52	332.97	6.60	-53.2	-72.6	3.6	1.51e+00	0	46	104	0	60	168077
2026-01-29 06:57:56.55	332.76	6.32	-54.4	-73.9	3.6	1.51e+00	0	46	104	0	60	193342
2026-01-29 06:58:00.58	332.55	6.03	-54.6	-73.2	3.6	1.51e+00	0	46	104	0	60	179671
2026-01-29 06:58:04.60	332.35	5.75	-60.5	-77.2	3.6	1.51e+00	0	46	104	0	60	282406
2026-01-29 06:58:08.62	332.15	5.47	-60.8	-77.5	3.6	1.51e+00	0	46	104	0	60	292143
2026-01-29 06:58:12.64	331.96	5.20	-61.7	-78.1	3.6	1.51e+00	0	46	104	0	60	315901
2026-01-29 06:58:16.68	331.77	4.93	-61.8	-78.9	3.6	1.51e+00	0	46	104	0	60	344744
2026-01-29 06:58:20.71	331.58	4.66	-61.2	-79.2	3.6	1.51e+00	0	46	104	0	60	357899
2026-01-29 06:58:24.74	331.40	4.39	-61.1	-79.0	3.6	1.51e+00	0	46	104	0	60	347470
2026-01-29 06:58:28.76	331.22	4.12	-61.0	-79.0	3.6	1.51e+00	0	46	104	0	60	350619
2026-01-29 06:58:32.79	331.05	3.86	-61.0	-78.9	3.6	1.51e+00	0	46	104	0	60	343872
2026-01-29 06:58:36.82	330.88	3.60	-60.8	-78.8	3.6	1.51e+00	0	46	104	0	60	342203
2026-01-29 06:58:40.85	330.71	3.34	-60.9	-78.9	3.6	1.51e+00	0	46	104	0	60	345427
2026-01-29 06:58:44.88	330.54	3.08	-61.0	-78.9	3.6	1.51e+00	0	46	104	0	60	344433
2026-01-29 06:58:48.91	330.38	2.83	-61.0	-78.9	3.6	1.51e+00	0	46	104	0	60	346567
2026-01-29 06:58:52.94	330.22	2.57	-61.1	-78.8	3.6	1.51e+00	0	46	104	0	60	339736
2026-01-29 06:58:56.97	330.07	2.32	-61.1	-78.9	3.6	1.51e+00	0	46	104	0	60	343825
2026-01-29 06:59:00.99	329.92	2.07	-61.0	-78.9	3.6	1.51e+00	0	46	104	0	60	344211
2026-01-29 06:59:05.02	329.77	1.83	-61.0	-78.8	3.6	1.51e+00	0	46	104	0	60	341369
2026-01-29 06:59:09.05	329.62	1.58	-60.9	-78.7	3.6	1.51e+00	0	46	104	0	60	335504
2026-01-29 06:59:13.08	329.47	1.34	-60.9	-78.8	3.6	1.51e+00	0	46	104	0	60	342250
2026-01-29 06:59:17.09	329.33	1.10	-60.9	-78.8	3.6	1.51e+00	0	46	104	0	60	342657
2026-01-29 06:59:21.13	329.19	0.86	-60.8	-78.7	3.6	1.51e+00	0	46	104	0	60	338962
2026-01-29 06:59:25.15	329.05	0.62	-60.8	-78.7	3.6	1.51e+00	0	46	104	0	60	336738
2026-01-29 06:59:29.17	328.92	0.39	-60.8	-78.7	3.6	1.51e+00	0	46	104	0	60	336533
2026-01-29 06:59:33.20	328.79	0.15	-60.8	-78.8	3.6	1.51e+00	0	46	104	0	60	341850

#Closed at: 2026-01-29 06:59:36
#Recorded file [0 MB]: D:/Data/35015_260129_095612.dat