passes_logs/2026/01/29/R3.2S-Naryan-Mar/R3.2S-Naryan-Mar__20260129_032719_SUOMI_NPP_rec.log

#Pass ID: 20260129_032719_SUOMI NPP
#Satellite: SUOMI NPP
#Configuration: NPP
#almurnet v.1.7.20240730
#Start time: 2026-01-29 03:27:22

#Version: 2.2.20231116
#Station: R3.2S-Naryan-Mar
#Location: 53.008057 lon 67.646978 lat
#TLE: 1 37849U 11061A   26027.86188320  .00000172  00000+0  10275-3 0  9990
#TLE: 2 37849  98.7823 329.8005 0002088  41.4184 318.7150 14.19530883738530

#Time	Az	El	Level	Level2	SNR	BER	BlckErr	Temp	State	Recorded	gain1	gain2
2026-01-29 03:27:22.66	55.01	0.17	-61.2	-77.0	3.3	1.54e+00	0	45	0	0	60	277850
2026-01-29 03:27:26.69	54.76	0.38	-61.0	-78.4	3.6	1.51e+00	0	45	104	0	60	326867
2026-01-29 03:27:30.72	54.51	0.60	-59.9	-77.4	3.6	1.51e+00	0	45	104	0	60	291620
2026-01-29 03:27:34.73	54.25	0.81	-52.4	-73.8	3.6	1.51e+00	0	45	104	0	60	190935
2026-01-29 03:27:38.75	53.99	1.03	-58.3	-76.3	3.6	1.51e+00	0	45	104	0	60	255737
2026-01-29 03:27:42.78	53.73	1.24	-57.7	-75.1	3.6	1.51e+00	0	45	104	0	60	222611
2026-01-29 03:27:46.81	53.46	1.46	-57.5	-74.7	3.6	1.51e+00	0	45	104	0	60	212868
2026-01-29 03:27:50.84	53.19	1.68	-57.4	-74.8	3.6	1.51e+00	0	45	104	0	60	216029
2026-01-29 03:27:54.86	52.91	1.90	-57.4	-74.7	3.6	1.51e+00	0	45	104	0	60	213207
2026-01-29 03:27:58.88	52.63	2.12	-57.3	-74.6	3.6	1.51e+00	0	45	104	0	60	209734
2026-01-29 03:28:02.92	52.34	2.35	-57.4	-74.8	3.6	1.51e+00	0	45	104	0	60	215657
2026-01-29 03:28:06.95	52.05	2.57	-57.3	-74.7	3.6	1.51e+00	0	45	104	0	60	212342
2026-01-29 03:28:10.95	51.76	2.79	-57.3	-74.9	3.6	1.51e+00	0	45	104	0	60	217267
2026-01-29 03:28:14.97	51.46	3.02	-57.3	-74.7	3.6	1.51e+00	0	46	104	0	60	212497
2026-01-29 03:28:19.01	51.16	3.25	-57.2	-74.7	3.6	1.51e+00	0	46	104	0	60	213518
2026-01-29 03:28:23.03	50.85	3.47	-57.2	-74.4	3.6	1.51e+00	0	45	104	0	60	206568
2026-01-29 03:28:27.05	50.53	3.70	-57.2	-74.5	3.6	1.51e+00	0	45	104	0	60	207847
2026-01-29 03:28:31.07	50.22	3.93	-57.2	-74.4	3.6	1.51e+00	0	46	104	0	60	206028
2026-01-29 03:28:35.10	49.89	4.16	-57.2	-74.7	3.6	1.51e+00	0	46	104	0	60	213100
2026-01-29 03:28:39.13	49.56	4.40	-57.3	-74.6	3.6	1.51e+00	0	46	104	0	60	210172
2026-01-29 03:28:43.15	49.23	4.63	-57.2	-74.6	3.6	1.51e+00	0	46	104	0	60	210159
2026-01-29 03:28:47.17	48.88	4.86	-57.2	-74.5	3.6	1.51e+00	0	46	104	0	60	207759
2026-01-29 03:28:51.20	48.54	5.10	-57.1	-74.3	3.6	1.51e+00	0	46	104	0	60	203244
2026-01-29 03:28:55.23	48.18	5.34	-57.1	-73.9	3.6	1.51e+00	0	46	104	0	60	193832
2026-01-29 03:28:59.25	47.83	5.57	-57.1	-73.7	3.6	1.51e+00	0	46	104	0	60	190440
2026-01-29 03:29:03.27	47.46	5.81	-57.1	-74.3	3.6	1.51e+00	0	46	104	0	60	203680
2026-01-29 03:29:07.30	47.09	6.05	-57.1	-74.2	3.6	1.51e+00	0	46	104	0	60	200706
2026-01-29 03:29:11.33	46.71	6.29	-57.9	-72.5	3.6	1.51e+00	0	46	104	0	60	164501
2026-01-29 03:29:15.37	46.33	6.54	-58.7	-72.2	3.9	1.46e+00	0	46	104	0	60	159247
2026-01-29 03:29:19.38	45.94	6.78	-58.4	-69.6	4.6	8.88e-01	0	46	0	3145728	60	118070
2026-01-29 03:29:23.41	45.54	7.02	-56.3	-67.5	5.9	4.47e-01	0	46	0	10485760	60	92429
2026-01-29 03:29:27.44	45.13	7.27	-57.5	-67.8	5.8	2.94e-01	0	46	0	18874368	60	96060
2026-01-29 03:29:31.46	44.72	7.51	-58.1	-67.2	6.1	3.09e-01	0	46	0	26214400	60	90136
2026-01-29 03:29:35.48	44.30	7.76	-58.1	-65.3	8.5	4.96e-02	0	46	0	33554432	60	72504
2026-01-29 03:29:39.51	43.88	8.01	-58.2	-65.3	9.3	2.46e-02	0	46	0	40894464	60	71985
2026-01-29 03:29:43.54	43.44	8.25	-58.0	-64.2	10.6	6.89e-03	0	46	0	48234496	60	63636
2026-01-29 03:29:47.56	43.00	8.50	-57.8	-63.4	11.5	8.93e-04	0	46	0	56623104	60	57930
2026-01-29 03:29:51.59	42.55	8.75	-57.6	-64.8	9.8	7.72e-03	0	46	0	63963136	60	67915
2026-01-29 03:29:55.60	42.10	9.00	-57.8	-65.6	8.2	4.01e-02	0	46	0	71303168	60	74476
2026-01-29 03:29:59.63	41.63	9.26	-58.4	-64.8	9.5	1.17e-02	0	46	0	78643200	60	67982
2026-01-29 03:30:03.65	41.16	9.51	-58.7	-65.9	8.8	2.72e-02	0	46	0	85983232	60	77117
2026-01-29 03:30:07.66	40.68	9.76	-58.6	-65.3	9.1	1.30e-02	0	46	0	93323264	60	71765
2026-01-29 03:30:11.68	40.19	10.01	-57.8	-65.2	9.4	3.00e-02	0	46	0	101711872	60	71680
2026-01-29 03:30:15.71	39.69	10.27	-57.9	-65.8	8.7	4.38e-02	0	46	0	109051904	60	76752
2026-01-29 03:30:19.74	39.18	10.52	-59.0	-66.3	7.7	9.07e-02	0	46	0	116391936	60	81149
2026-01-29 03:30:23.76	38.66	10.77	-58.4	-66.9	7.0	1.37e-01	0	46	0	123731968	60	86819
2026-01-29 03:30:27.77	38.14	11.03	-59.1	-67.5	6.8	1.32e-01	0	46	0	131072000	60	92729
2026-01-29 03:30:31.80	37.60	11.28	-59.4	-68.6	5.7	2.58e-01	0	46	0	139460608	60	105382
2026-01-29 03:30:35.83	37.05	11.54	-58.5	-68.3	5.7	3.65e-01	0	46	0	146800640	60	101375
2026-01-29 03:30:39.85	36.50	11.79	-59.4	-68.7	5.8	3.04e-01	0	46	0	154140672	60	106652
2026-01-29 03:30:43.86	35.93	12.05	-56.7	-69.2	4.8	7.00e-01	0	46	0	161480704	60	112889
2026-01-29 03:30:47.89	35.36	12.30	-59.9	-70.1	4.4	9.19e-01	0	46	0	169869312	60	124779
2026-01-29 03:30:51.92	34.77	12.56	-58.3	-70.5	4.0	1.00e+00	0	46	0	177209344	60	130528
2026-01-29 03:30:55.94	34.17	12.81	-59.9	-72.7	3.8	1.33e+00	0	46	104	182452224	60	168237
2026-01-29 03:30:59.95	33.57	13.07	-59.5	-73.5	3.9	1.44e+00	0	46	104	182452224	60	185111
2026-01-29 03:31:03.98	32.95	13.32	-58.2	-73.3	3.6	1.48e+00	0	46	104	182452224	60	180971
2026-01-29 03:31:08.00	32.32	13.57	-59.1	-73.8	3.8	1.49e+00	0	46	104	182452224	60	190818
2026-01-29 03:31:12.02	31.68	13.82	-58.6	-74.3	3.7	1.50e+00	0	46	104	182452224	60	203477
2026-01-29 03:31:16.04	31.03	14.07	-60.0	-74.6	3.7	1.50e+00	0	46	104	182452224	60	210379
2026-01-29 03:31:20.07	30.37	14.32	-58.7	-76.3	3.6	1.51e+00	0	46	104	182452224	60	255225
2026-01-29 03:31:24.09	29.70	14.57	-60.3	-77.0	3.6	1.51e+00	0	46	104	182452224	60	277263
2026-01-29 03:31:28.11	29.01	14.82	-56.9	-76.1	3.6	1.51e+00	0	46	104	182452224	60	249653
2026-01-29 03:31:32.13	28.32	15.06	-58.9	-76.6	3.6	1.51e+00	0	46	104	182452224	60	264858
2026-01-29 03:31:36.17	27.61	15.31	-57.1	-75.6	3.6	1.51e+00	0	46	104	182452224	60	236576
2026-01-29 03:31:40.20	26.89	15.55	-52.4	-75.2	3.6	1.51e+00	0	46	104	182452224	60	226750
2026-01-29 03:31:44.22	26.16	15.78	-53.5	-75.1	3.6	1.51e+00	0	46	104	182452224	60	221788
2026-01-29 03:31:48.25	25.41	16.02	-49.7	-72.7	3.6	1.51e+00	0	46	104	182452224	60	169105
2026-01-29 03:31:52.28	24.66	16.25	-53.2	-74.8	3.6	1.51e+00	0	46	104	182452224	60	214193
2026-01-29 03:31:56.31	23.89	16.48	-50.8	-72.6	3.6	1.51e+00	0	46	104	182452224	60	167958
2026-01-29 03:32:00.33	23.11	16.71	-56.9	-75.6	3.6	1.51e+00	0	46	104	182452224	60	237414
2026-01-29 03:32:04.35	22.32	16.93	-56.8	-75.2	3.6	1.51e+00	0	46	104	182452224	60	224840
2026-01-29 03:32:08.38	21.52	17.15	-58.3	-76.0	3.6	1.51e+00	0	46	104	182452224	60	245804
2026-01-29 03:32:12.41	20.70	17.37	-58.8	-76.1	3.6	1.51e+00	0	46	104	182452224	60	250642
2026-01-29 03:32:16.45	19.87	17.58	-59.4	-76.7	3.6	1.51e+00	0	46	104	182452224	60	266966
2026-01-29 03:32:20.48	19.03	17.79	-56.6	-75.1	3.6	1.51e+00	0	46	104	182452224	60	222900
2026-01-29 03:32:24.51	18.18	17.99	-56.4	-76.3	3.6	1.51e+00	0	46	104	182452224	60	257266
2026-01-29 03:32:28.53	17.32	18.19	-53.9	-73.8	3.6	1.51e+00	0	46	104	182452224	60	191250
2026-01-29 03:32:32.56	16.45	18.38	-55.3	-75.8	3.6	1.51e+00	0	46	104	182452224	60	241499
2026-01-29 03:32:36.58	15.56	18.57	-56.6	-74.6	3.6	1.51e+00	0	46	104	182452224	60	211415
2026-01-29 03:32:40.60	14.67	18.75	-59.8	-76.8	3.6	1.51e+00	0	46	104	182452224	60	271496
2026-01-29 03:32:44.63	13.76	18.92	-58.1	-76.6	3.6	1.51e+00	0	46	104	182452224	60	266139
2026-01-29 03:32:48.64	12.85	19.09	-59.1	-77.1	3.6	1.51e+00	0	46	104	182452224	60	279809
2026-01-29 03:32:52.67	11.92	19.25	-56.8	-75.2	3.6	1.51e+00	0	46	104	182452224	60	224987
2026-01-29 03:32:56.69	10.99	19.41	-54.9	-75.6	3.6	1.51e+00	0	46	104	182452224	60	237442
2026-01-29 03:33:00.73	10.04	19.56	-58.3	-75.5	3.6	1.51e+00	0	46	104	182452224	60	233830
2026-01-29 03:33:04.75	9.09	19.70	-60.3	-77.3	3.6	1.51e+00	0	46	104	182452224	60	288742
2026-01-29 03:33:08.77	8.13	19.83	-58.1	-76.3	3.6	1.51e+00	0	46	104	182452224	60	254695
2026-01-29 03:33:12.80	7.16	19.95	-58.8	-76.4	3.6	1.51e+00	0	46	104	182452224	60	259206
2026-01-29 03:33:16.83	6.18	20.07	-57.7	-76.0	3.6	1.51e+00	0	46	104	182452224	60	247826
2026-01-29 03:33:20.86	5.19	20.18	-58.5	-77.1	3.6	1.51e+00	0	46	104	182452224	60	280299
2026-01-29 03:33:24.88	4.20	20.28	-58.9	-77.1	3.6	1.51e+00	0	46	104	182452224	60	279813
2026-01-29 03:33:28.91	3.20	20.37	-58.1	-76.6	3.6	1.51e+00	0	46	104	182452224	60	263631
2026-01-29 03:33:32.94	2.20	20.45	-58.6	-76.5	3.6	1.51e+00	0	46	104	182452224	60	263298
2026-01-29 03:33:36.97	1.19	20.52	-59.3	-76.5	3.6	1.51e+00	0	46	104	182452224	60	262872
2026-01-29 03:33:41.00	0.17	20.59	-59.5	-76.4	3.6	1.51e+00	0	46	104	182452224	60	258731
2026-01-29 03:33:45.01	359.16	20.64	-60.1	-77.0	3.6	1.51e+00	0	46	104	182452224	60	277177
2026-01-29 03:33:49.04	358.13	20.68	-59.6	-76.8	3.6	1.51e+00	0	46	104	182452224	60	269515
2026-01-29 03:33:53.06	357.11	20.72	-60.3	-76.8	3.6	1.51e+00	0	46	104	182452224	60	271915
2026-01-29 03:33:57.07	356.09	20.74	-58.7	-76.5	3.6	1.51e+00	0	46	104	182452224	60	262965
2026-01-29 03:34:01.08	355.07	20.76	-59.8	-76.4	3.6	1.51e+00	0	47	104	182452224	60	259333
2026-01-29 03:34:05.11	354.04	20.77	-60.0	-76.7	3.6	1.51e+00	0	46	104	182452224	60	267034
2026-01-29 03:34:09.14	353.01	20.76	-60.3	-77.0	3.6	1.51e+00	0	47	104	182452224	60	276009
2026-01-29 03:34:13.16	351.98	20.75	-60.3	-77.0	3.6	1.51e+00	0	46	104	182452224	60	278592
2026-01-29 03:34:17.18	350.96	20.73	-60.2	-76.9	3.6	1.51e+00	0	46	104	182452224	60	275712
2026-01-29 03:34:21.22	349.93	20.69	-60.3	-76.9	3.6	1.51e+00	0	46	104	182452224	60	275473
2026-01-29 03:34:25.24	348.91	20.65	-60.6	-76.9	3.6	1.51e+00	0	46	104	182452224	60	272952
2026-01-29 03:34:29.27	347.89	20.60	-60.5	-76.9	3.6	1.51e+00	0	46	104	182452224	60	272650
2026-01-29 03:34:33.30	346.88	20.54	-60.1	-76.8	3.6	1.51e+00	0	46	104	182452224	60	269783
2026-01-29 03:34:37.33	345.86	20.46	-59.0	-76.7	3.6	1.51e+00	0	46	104	182452224	60	268274
2026-01-29 03:34:41.36	344.86	20.38	-59.9	-76.7	3.6	1.51e+00	0	46	104	182452224	60	268718
2026-01-29 03:34:45.39	343.86	20.30	-59.8	-76.7	3.6	1.51e+00	0	46	104	182452224	60	268484
2026-01-29 03:34:49.42	342.86	20.20	-60.3	-76.7	3.6	1.51e+00	0	46	104	182452224	60	269382
2026-01-29 03:34:53.44	341.88	20.09	-60.1	-76.8	3.6	1.51e+00	0	46	104	182452224	60	269637
2026-01-29 03:34:57.46	340.90	19.98	-60.2	-76.8	3.6	1.51e+00	0	46	104	182452224	60	270513
2026-01-29 03:35:01.49	339.93	19.85	-59.9	-76.8	3.6	1.51e+00	0	46	104	182452224	60	270941
2026-01-29 03:35:05.51	338.96	19.72	-60.6	-76.9	3.6	1.51e+00	0	46	104	182452224	60	275176
2026-01-29 03:35:09.53	338.01	19.59	-60.3	-77.0	3.6	1.51e+00	0	46	104	182452224	60	276432
2026-01-29 03:35:13.57	337.06	19.44	-59.9	-76.9	3.6	1.51e+00	0	46	104	182452224	60	273199
2026-01-29 03:35:17.60	336.12	19.29	-59.4	-76.8	3.6	1.51e+00	0	47	104	182452224	60	270775
2026-01-29 03:35:21.63	335.19	19.12	-59.8	-76.8	3.6	1.51e+00	0	46	104	182452224	60	269705
2026-01-29 03:35:25.64	334.28	18.96	-60.4	-77.0	3.6	1.51e+00	0	46	104	182452224	60	277449
2026-01-29 03:35:29.66	333.37	18.79	-60.3	-76.9	3.6	1.51e+00	0	46	104	182452224	60	273615
2026-01-29 03:35:33.69	332.47	18.61	-60.2	-76.9	3.6	1.51e+00	0	46	104	182452224	60	275321
2026-01-29 03:35:37.71	331.59	18.42	-60.0	-76.9	3.6	1.51e+00	0	46	104	182452224	60	273471
2026-01-29 03:35:41.74	330.71	18.23	-59.7	-76.8	3.6	1.51e+00	0	47	104	182452224	60	272589
2026-01-29 03:35:45.76	329.85	18.03	-59.6	-76.9	3.6	1.51e+00	0	46	104	182452224	60	273256
2026-01-29 03:35:49.79	329.00	17.83	-59.5	-76.7	3.6	1.51e+00	0	46	104	182452224	60	266965
2026-01-29 03:35:53.81	328.16	17.63	-59.6	-76.8	3.6	1.51e+00	0	46	104	182452224	60	269836
2026-01-29 03:35:57.82	327.33	17.42	-60.0	-76.8	3.6	1.51e+00	0	46	104	182452224	60	270758
2026-01-29 03:36:01.84	326.52	17.20	-60.3	-76.8	3.6	1.51e+00	0	47	104	182452224	60	269537
2026-01-29 03:36:05.87	325.71	16.98	-60.1	-76.6	3.6	1.51e+00	0	46	104	182452224	60	265976
2026-01-29 03:36:09.90	324.91	16.76	-60.2	-76.7	3.6	1.51e+00	0	46	104	182452224	60	268371
2026-01-29 03:36:13.93	324.13	16.53	-60.3	-76.7	3.6	1.51e+00	0	46	104	182452224	60	266821
2026-01-29 03:36:17.95	323.36	16.30	-60.4	-76.6	3.6	1.51e+00	0	47	104	182452224	60	266120
2026-01-29 03:36:21.98	322.60	16.07	-60.3	-76.8	3.6	1.51e+00	0	46	104	182452224	60	270003
2026-01-29 03:36:26.00	321.86	15.84	-60.4	-76.8	3.6	1.51e+00	0	46	104	182452224	60	269864
2026-01-29 03:36:30.02	321.12	15.60	-60.4	-76.8	3.6	1.51e+00	0	46	104	182452224	60	270154
2026-01-29 03:36:34.04	320.40	15.36	-60.1	-76.8	3.6	1.51e+00	0	46	104	182452224	60	271048
2026-01-29 03:36:38.07	319.69	15.12	-60.0	-76.7	3.6	1.51e+00	0	46	104	182452224	60	267702
2026-01-29 03:36:42.08	319.00	14.87	-59.9	-76.7	3.6	1.51e+00	0	46	104	182452224	60	267199
2026-01-29 03:36:46.09	318.31	14.63	-59.7	-76.5	3.6	1.51e+00	0	46	104	182452224	60	262731
2026-01-29 03:36:50.11	317.64	14.38	-59.6	-76.5	3.6	1.51e+00	0	46	104	182452224	60	261233
2026-01-29 03:36:54.13	316.97	14.13	-59.4	-76.5	3.6	1.51e+00	0	46	104	182452224	60	260884
2026-01-29 03:36:58.16	316.32	13.88	-59.3	-76.3	3.6	1.51e+00	0	47	104	182452224	60	257119
2026-01-29 03:37:02.18	315.68	13.63	-58.6	-75.9	3.5	1.51e+00	0	47	104	182452224	60	245079
2026-01-29 03:37:06.21	315.04	13.38	-58.4	-75.9	3.6	1.51e+00	0	47	104	182452224	60	245189
2026-01-29 03:37:10.23	314.42	13.13	-58.6	-76.0	3.6	1.51e+00	0	47	104	182452224	60	248319
2026-01-29 03:37:14.25	313.82	12.87	-58.3	-75.9	3.6	1.51e+00	0	47	104	182452224	60	243902
2026-01-29 03:37:18.28	313.22	12.62	-58.2	-75.7	3.6	1.51e+00	0	46	104	182452224	60	239978
2026-01-29 03:37:22.31	312.63	12.36	-59.5	-76.4	3.6	1.51e+00	0	47	104	182452224	60	258998
2026-01-29 03:37:26.34	312.05	12.11	-59.5	-76.5	3.6	1.51e+00	0	46	104	182452224	60	261174
2026-01-29 03:37:30.37	311.48	11.85	-59.6	-76.5	3.6	1.51e+00	0	46	104	182452224	60	262193
2026-01-29 03:37:34.39	310.92	11.60	-59.7	-76.3	3.6	1.51e+00	0	47	104	182452224	60	256272
2026-01-29 03:37:38.41	310.37	11.34	-59.7	-76.2	3.6	1.51e+00	0	47	104	182452224	60	254395
2026-01-29 03:37:42.45	309.83	11.09	-59.7	-76.2	3.6	1.51e+00	0	46	104	182452224	60	253451
2026-01-29 03:37:46.48	309.30	10.83	-59.7	-76.2	3.6	1.51e+00	0	47	104	182452224	60	252973
2026-01-29 03:37:50.51	308.78	10.58	-59.8	-76.2	3.6	1.51e+00	0	47	104	182452224	60	252576
2026-01-29 03:37:54.52	308.27	10.32	-59.6	-76.2	3.6	1.51e+00	0	47	104	182452224	60	253774
2026-01-29 03:37:58.55	307.77	10.07	-59.5	-76.1	3.6	1.51e+00	0	47	104	182452224	60	250262
2026-01-29 03:38:02.58	307.28	9.81	-59.6	-76.1	3.6	1.51e+00	0	47	104	182452224	60	250054
2026-01-29 03:38:06.60	306.79	9.56	-59.6	-76.1	3.6	1.51e+00	0	46	104	182452224	60	249410
2026-01-29 03:38:10.63	306.32	9.31	-59.6	-76.0	3.6	1.51e+00	0	46	104	182452224	60	248408
2026-01-29 03:38:14.65	305.85	9.06	-59.6	-76.0	3.6	1.51e+00	0	47	104	182452224	60	247845
2026-01-29 03:38:18.68	305.39	8.81	-59.5	-75.9	3.6	1.51e+00	0	47	104	182452224	60	245243
2026-01-29 03:38:22.70	304.94	8.56	-59.3	-75.9	3.6	1.51e+00	0	47	104	182452224	60	244883
2026-01-29 03:38:26.72	304.50	8.31	-59.3	-75.8	3.6	1.51e+00	0	46	104	182452224	60	242879
2026-01-29 03:38:30.74	304.06	8.06	-59.2	-75.6	3.6	1.51e+00	0	46	104	182452224	60	237254
2026-01-29 03:38:34.77	303.64	7.81	-59.2	-75.7	3.6	1.51e+00	0	47	104	182452224	60	238201
2026-01-29 03:38:38.80	303.21	7.57	-59.2	-75.6	3.6	1.51e+00	0	47	104	182452224	60	235757
2026-01-29 03:38:42.83	302.80	7.32	-59.1	-75.6	3.6	1.51e+00	0	47	104	182452224	60	236854
2026-01-29 03:38:46.86	302.39	7.07	-59.0	-75.6	3.6	1.51e+00	0	46	104	182452224	60	235139
2026-01-29 03:38:50.88	302.00	6.83	-58.4	-75.1	3.6	1.51e+00	0	47	104	182452224	60	221844
2026-01-29 03:38:54.91	301.60	6.59	-58.9	-75.5	3.6	1.51e+00	0	47	104	182452224	60	233259
2026-01-29 03:38:58.93	301.22	6.35	-58.9	-75.7	3.6	1.51e+00	0	47	104	182452224	60	238787
2026-01-29 03:39:02.96	300.84	6.10	-58.8	-75.6	3.6	1.51e+00	0	47	104	182452224	60	237347
2026-01-29 03:39:06.99	300.46	5.86	-59.7	-76.7	3.6	1.51e+00	0	47	104	182452224	60	266674
2026-01-29 03:39:11.02	300.10	5.63	-60.7	-77.5	3.6	1.51e+00	0	47	104	182452224	60	295152
2026-01-29 03:39:15.05	299.74	5.39	-61.1	-77.8	3.6	1.51e+00	0	46	104	182452224	60	303492
2026-01-29 03:39:19.08	299.38	5.15	-61.6	-78.2	3.6	1.51e+00	0	47	104	182452224	60	317637
2026-01-29 03:39:23.11	299.03	4.91	-60.8	-78.3	3.6	1.51e+00	0	46	104	182452224	60	323587
2026-01-29 03:39:27.13	298.69	4.68	-60.7	-78.3	3.6	1.51e+00	0	47	104	182452224	60	320976
2026-01-29 03:39:31.16	298.35	4.45	-60.7	-78.3	3.6	1.51e+00	0	46	104	182452224	60	322879
2026-01-29 03:39:35.18	298.02	4.21	-60.7	-78.3	3.6	1.51e+00	0	47	104	182452224	60	322721
2026-01-29 03:39:39.21	297.70	3.98	-60.7	-78.3	3.6	1.51e+00	0	47	104	182452224	60	322774
2026-01-29 03:39:43.24	297.38	3.75	-60.8	-78.4	3.6	1.51e+00	0	47	104	182452224	60	325017
2026-01-29 03:39:47.26	297.06	3.52	-60.8	-78.3	3.6	1.51e+00	0	47	104	182452224	60	320453
2026-01-29 03:39:51.27	296.75	3.30	-60.8	-78.3	3.6	1.51e+00	0	47	104	182452224	60	321737
2026-01-29 03:39:55.29	296.45	3.07	-60.7	-78.3	3.6	1.51e+00	0	47	104	182452224	60	321181
2026-01-29 03:39:59.33	296.14	2.84	-60.7	-78.2	3.6	1.51e+00	0	47	104	182452224	60	319663
2026-01-29 03:40:03.35	295.85	2.62	-60.6	-78.2	3.6	1.51e+00	0	46	104	182452224	60	319748
2026-01-29 03:40:07.37	295.56	2.40	-60.7	-78.2	3.6	1.51e+00	0	47	104	182452224	60	317085
2026-01-29 03:40:11.41	295.27	2.17	-60.7	-78.1	3.6	1.51e+00	0	47	104	182452224	60	316200
2026-01-29 03:40:15.44	294.99	1.95	-60.7	-78.2	3.6	1.51e+00	0	46	104	182452224	60	319955
2026-01-29 03:40:19.47	294.71	1.73	-60.6	-78.3	3.5	1.51e+00	0	46	104	182452224	60	322022
2026-01-29 03:40:23.49	294.44	1.51	-60.6	-78.1	3.6	1.51e+00	0	46	104	182452224	60	315655
2026-01-29 03:40:27.51	294.17	1.29	-60.6	-78.2	3.6	1.51e+00	0	46	104	182452224	60	318323
2026-01-29 03:40:31.54	293.90	1.07	-60.6	-78.2	3.6	1.51e+00	0	46	104	182452224	60	319911
2026-01-29 03:40:35.57	293.64	0.86	-60.6	-78.2	3.6	1.51e+00	0	46	104	182452224	60	318644
2026-01-29 03:40:39.60	293.38	0.64	-60.5	-78.2	3.6	1.51e+00	0	46	104	182452224	60	318386
2026-01-29 03:40:43.62	293.13	0.43	-60.5	-78.2	3.6	1.51e+00	0	46	104	182452224	60	318624
2026-01-29 03:40:47.65	292.88	0.21	-60.5	-78.2	3.6	1.51e+00	0	47	104	182452224	60	317885
2026-01-29 03:40:51.68	292.64	0.00	-60.5	-78.1	3.6	1.51e+00	0	47	104	182452224	60	316269

#Closed at: 2026-01-29 03:40:54
#Recorded file [182 MB]: D:/Data/35015_260129_063943.dat