passes_logs/2025/01/10/SPB_Silybum_02/SPB_Silybum_02__20250110_014703_SUOMI_NPP_rec.log

#Pass ID: 20250110_014703_SUOMI NPP
#Satellite: SUOMI NPP
#Configuration: NPP
#Start time: 2025-01-10 01:47:02

#Version: 2.0.20230423
#Station: SPB_Silybum_02
#Location: 30.233357 lon 59.946436 lat
#TLE: 1 37849U 11061A   25009.14008564  .00000193  00000+0  11215-3 0  9999
#TLE: 2 37849  98.7440 310.2032 0001887  50.1400 309.9942 14.19535382684083

#Time	Az	El	Level	Level2	SNR	BER	Gain	Gain2
2025-01-10 01:47:04.37	14.69	4.02	
2025-01-10 01:47:05.60	14.62	4.10	
2025-01-10 01:47:06.85	14.55	4.18	
2025-01-10 01:47:08.09	14.48	4.26	
2025-01-10 01:47:09.32	14.40	4.34	
2025-01-10 01:47:10.56	14.33	4.42	
2025-01-10 01:47:11.78	14.26	4.49	
2025-01-10 01:47:13.02	14.19	4.57	
2025-01-10 01:47:14.25	14.12	4.65	
2025-01-10 01:47:15.48	14.04	4.73	
2025-01-10 01:47:16.71	13.97	4.81	
2025-01-10 01:47:17.94	13.89	4.89	
2025-01-10 01:47:19.18	13.82	4.97	
2025-01-10 01:47:20.41	13.74	5.05	
2025-01-10 01:47:21.65	13.67	5.13	
2025-01-10 01:47:22.88	13.59	5.21	
2025-01-10 01:47:24.11	13.52	5.29	
2025-01-10 01:47:25.34	13.44	5.37	
2025-01-10 01:47:26.57	13.36	5.46	
2025-01-10 01:47:27.80	13.28	5.54	
2025-01-10 01:47:29.02	13.21	5.62	
2025-01-10 01:47:30.26	13.13	5.70	
2025-01-10 01:47:31.49	13.05	5.78	
2025-01-10 01:47:32.73	12.97	5.86	
2025-01-10 01:47:33.97	12.89	5.95	
2025-01-10 01:47:35.20	12.81	6.03	
2025-01-10 01:47:36.43	12.73	6.11	
2025-01-10 01:47:37.66	12.64	6.20	
2025-01-10 01:47:38.89	12.56	6.28	
2025-01-10 01:47:40.15	12.48	6.36	
2025-01-10 01:47:41.39	12.39	6.45	
2025-01-10 01:47:42.61	12.31	6.53	
2025-01-10 01:47:43.84	12.23	6.61	
2025-01-10 01:47:45.07	12.14	6.70	
2025-01-10 01:47:46.30	12.06	6.78	
2025-01-10 01:47:47.53	11.97	6.87	
2025-01-10 01:47:48.76	11.89	6.95	
2025-01-10 01:47:49.99	11.80	7.04	
2025-01-10 01:47:51.22	11.71	7.12	
2025-01-10 01:47:52.46	11.62	7.21	
2025-01-10 01:47:53.69	11.54	7.29	
2025-01-10 01:47:54.92	11.45	7.38	
2025-01-10 01:47:56.15	11.36	7.47	
2025-01-10 01:47:57.38	11.27	7.55	
2025-01-10 01:47:58.61	11.18	7.64	
2025-01-10 01:47:59.84	11.09	7.73	
2025-01-10 01:48:01.09	10.99	7.81	
2025-01-10 01:48:02.32	10.90	7.90	
2025-01-10 01:48:03.56	10.81	7.99	
2025-01-10 01:48:04.79	10.71	8.08	
2025-01-10 01:48:06.03	10.62	8.17	
2025-01-10 01:48:07.27	10.52	8.25	
2025-01-10 01:48:08.50	10.43	8.34	
2025-01-10 01:48:09.73	10.33	8.43	
2025-01-10 01:48:10.98	10.24	8.52	
2025-01-10 01:48:12.21	10.14	8.61	
2025-01-10 01:48:13.44	10.04	8.70	
2025-01-10 01:48:14.67	9.94	8.79	
2025-01-10 01:48:15.90	9.84	8.88	
2025-01-10 01:48:17.14	9.74	8.97	
2025-01-10 01:48:18.38	9.64	9.06	
2025-01-10 01:48:19.62	9.54	9.15	
2025-01-10 01:48:20.86	9.44	9.24	
2025-01-10 01:48:22.09	9.34	9.33	
2025-01-10 01:48:23.33	9.23	9.43	
2025-01-10 01:48:24.56	9.13	9.52	
2025-01-10 01:48:25.79	9.03	9.61	
2025-01-10 01:48:27.03	8.92	9.70	
2025-01-10 01:48:28.26	8.81	9.79	
2025-01-10 01:48:29.49	8.71	9.89	
2025-01-10 01:48:30.72	8.60	9.98	
2025-01-10 01:48:31.95	8.49	10.07	
2025-01-10 01:48:33.19	8.38	10.17	
2025-01-10 01:48:34.42	8.27	10.26	
2025-01-10 01:48:35.65	8.16	10.35	
2025-01-10 01:48:36.88	8.05	10.45	
2025-01-10 01:48:38.11	7.94	10.54	
2025-01-10 01:48:39.34	7.83	10.64	
2025-01-10 01:48:40.58	7.72	10.73	
2025-01-10 01:48:41.80	7.60	10.83	
2025-01-10 01:48:43.04	7.49	10.92	
2025-01-10 01:48:44.28	7.37	11.02	
2025-01-10 01:48:45.52	7.26	11.11	
2025-01-10 01:48:46.75	7.14	11.21	
2025-01-10 01:48:48.00	7.02	11.31	
2025-01-10 01:48:49.23	6.90	11.40	
2025-01-10 01:48:50.46	6.78	11.50	
2025-01-10 01:48:51.69	6.66	11.60	
2025-01-10 01:48:52.93	6.54	11.70	
2025-01-10 01:48:54.16	6.42	11.79	
2025-01-10 01:48:55.40	6.30	11.89	
2025-01-10 01:48:56.63	6.17	11.99	
2025-01-10 01:48:57.86	6.05	12.09	
2025-01-10 01:48:59.09	5.92	12.19	
2025-01-10 01:49:00.32	5.80	12.29	
2025-01-10 01:49:01.55	5.67	12.39	
2025-01-10 01:49:02.79	5.54	12.49	
2025-01-10 01:49:04.02	5.41	12.58	
2025-01-10 01:49:05.25	5.28	12.68	
2025-01-10 01:49:06.48	5.15	12.78	
2025-01-10 01:49:07.71	5.02	12.89	
2025-01-10 01:49:08.94	4.89	12.99	
2025-01-10 01:49:10.17	4.76	13.09	
2025-01-10 01:49:11.40	4.62	13.19	
2025-01-10 01:49:12.63	4.49	13.29	
2025-01-10 01:49:13.86	4.35	13.39	
2025-01-10 01:49:15.09	4.21	13.49	
2025-01-10 01:49:16.32	4.08	13.60	
2025-01-10 01:49:17.57	3.93	13.70	
2025-01-10 01:49:18.80	3.79	13.80	
2025-01-10 01:49:20.04	3.65	13.91	
2025-01-10 01:49:21.27	3.51	14.01	
2025-01-10 01:49:22.51	3.37	14.11	
2025-01-10 01:49:23.74	3.22	14.22	
2025-01-10 01:49:24.97	3.08	14.32	
2025-01-10 01:49:26.20	2.93	14.43	
2025-01-10 01:49:27.44	2.78	14.53	
2025-01-10 01:49:28.68	2.63	14.64	
2025-01-10 01:49:29.93	2.48	14.74	
2025-01-10 01:49:31.16	2.33	14.85	
2025-01-10 01:49:32.39	2.18	14.95	
2025-01-10 01:49:33.64	2.02	15.06	
2025-01-10 01:49:34.87	1.87	15.17	
2025-01-10 01:49:36.12	1.71	15.28	
2025-01-10 01:49:37.35	1.56	15.38	
2025-01-10 01:49:38.58	1.40	15.49	
2025-01-10 01:49:39.83	1.24	15.60	
2025-01-10 01:49:41.06	1.08	15.71	
2025-01-10 01:49:42.29	0.92	15.81	
2025-01-10 01:49:43.52	0.75	15.92	
2025-01-10 01:49:44.75	0.59	16.03	
2025-01-10 01:49:45.99	0.43	16.14	
2025-01-10 01:49:47.21	0.26	16.25	
2025-01-10 01:49:48.45	0.09	16.35	
2025-01-10 01:49:49.70	359.92	16.47	
2025-01-10 01:49:50.93	359.75	16.57	
2025-01-10 01:49:52.17	359.58	16.69	
2025-01-10 01:49:53.41	359.41	16.80	
2025-01-10 01:49:54.64	359.23	16.91	
2025-01-10 01:49:55.87	359.06	17.02	
2025-01-10 01:49:57.11	358.88	17.13	
2025-01-10 01:49:58.35	358.70	17.24	
2025-01-10 01:49:59.58	358.52	17.35	
2025-01-10 01:50:00.81	358.34	17.46	
2025-01-10 01:50:02.04	358.16	17.57	
2025-01-10 01:50:03.27	357.98	17.68	
2025-01-10 01:50:04.50	357.80	17.79	
2025-01-10 01:50:05.73	357.61	17.91	
2025-01-10 01:50:06.96	357.42	18.02	
2025-01-10 01:50:08.19	357.24	18.13	
2025-01-10 01:50:09.42	357.05	18.24	
2025-01-10 01:50:10.65	356.85	18.35	
2025-01-10 01:50:11.88	356.66	18.47	
2025-01-10 01:50:13.12	356.47	18.58	
2025-01-10 01:50:14.35	356.27	18.69	
2025-01-10 01:50:15.58	356.07	18.81	
2025-01-10 01:50:16.81	355.88	18.92	
2025-01-10 01:50:18.04	355.68	19.03	
2025-01-10 01:50:19.28	355.47	19.15	
2025-01-10 01:50:20.51	355.27	19.26	
2025-01-10 01:50:21.75	355.06	19.38	
2025-01-10 01:50:22.98	354.86	19.49	
2025-01-10 01:50:24.21	354.65	19.61	
2025-01-10 01:50:25.45	354.44	19.72	
2025-01-10 01:50:26.68	354.23	19.84	
2025-01-10 01:50:27.91	354.01	19.95	
2025-01-10 01:50:29.14	353.80	20.07	
2025-01-10 01:50:30.37	353.58	20.18	
2025-01-10 01:50:31.61	353.36	20.30	
2025-01-10 01:50:32.84	353.15	20.41	
2025-01-10 01:50:34.07	352.92	20.53	
2025-01-10 01:50:35.30	352.70	20.64	
2025-01-10 01:50:36.53	352.48	20.76	
2025-01-10 01:50:37.76	352.25	20.87	
2025-01-10 01:50:39.00	352.02	20.99	
2025-01-10 01:50:40.23	351.79	21.10	
2025-01-10 01:50:41.46	351.56	21.22	
2025-01-10 01:50:42.70	351.33	21.33	
2025-01-10 01:50:43.92	351.09	21.45	
2025-01-10 01:50:45.16	350.85	21.57	
2025-01-10 01:50:46.39	350.62	21.68	
2025-01-10 01:50:47.62	350.38	21.80	
2025-01-10 01:50:48.86	350.13	21.91	
2025-01-10 01:50:50.09	349.89	22.03	
2025-01-10 01:50:51.32	349.64	22.14	
2025-01-10 01:50:52.55	349.39	22.26	
2025-01-10 01:50:53.78	349.15	22.37	
2025-01-10 01:50:55.01	348.89	22.49	
2025-01-10 01:50:56.25	348.64	22.60	
2025-01-10 01:50:57.48	348.38	22.72	
2025-01-10 01:50:58.72	348.12	22.84	
2025-01-10 01:50:59.96	347.86	22.95	
2025-01-10 01:51:01.18	347.60	23.06	
2025-01-10 01:51:02.41	347.34	23.18	
2025-01-10 01:51:03.65	347.07	23.29	
2025-01-10 01:51:04.88	346.81	23.41	
2025-01-10 01:51:06.11	346.54	23.52	
2025-01-10 01:51:07.36	346.26	23.64	
2025-01-10 01:51:08.59	345.99	23.75	
2025-01-10 01:51:09.82	345.72	23.87	
2025-01-10 01:51:11.07	345.43	23.98	
2025-01-10 01:51:12.30	345.15	24.09	
2025-01-10 01:51:13.53	344.87	24.21	
2025-01-10 01:51:14.76	344.59	24.32	
2025-01-10 01:51:15.99	344.31	24.43	
2025-01-10 01:51:17.22	344.02	24.54	
2025-01-10 01:51:18.46	343.73	24.65	
2025-01-10 01:51:19.69	343.44	24.77	
2025-01-10 01:51:20.93	343.14	24.88	
2025-01-10 01:51:22.16	342.84	24.99	
2025-01-10 01:51:23.39	342.55	25.10	
2025-01-10 01:51:24.62	342.25	25.21	
2025-01-10 01:51:25.85	341.94	25.32	
2025-01-10 01:51:27.09	341.64	25.43	
2025-01-10 01:51:28.33	341.33	25.54	
2025-01-10 01:51:29.58	341.02	25.64	
2025-01-10 01:51:30.81	340.71	25.75	
2025-01-10 01:51:32.04	340.39	25.86	
2025-01-10 01:51:33.28	340.08	25.97	
2025-01-10 01:51:34.52	339.76	26.07	
2025-01-10 01:51:35.75	339.44	26.18	
2025-01-10 01:51:36.99	339.11	26.28	
2025-01-10 01:51:38.22	338.79	26.39	
2025-01-10 01:51:39.45	338.47	26.49	
2025-01-10 01:51:40.68	338.14	26.59	
2025-01-10 01:51:41.91	337.81	26.70	
2025-01-10 01:51:43.14	337.48	26.80	
2025-01-10 01:51:44.37	337.14	26.90	
2025-01-10 01:51:45.60	336.81	27.00	
2025-01-10 01:51:46.83	336.47	27.10	
2025-01-10 01:51:48.06	336.13	27.20	
2025-01-10 01:51:49.30	335.78	27.30	
2025-01-10 01:51:50.53	335.44	27.39	
2025-01-10 01:51:51.76	335.09	27.49	
2025-01-10 01:51:53.00	334.74	27.58	
2025-01-10 01:51:54.23	334.39	27.68	
2025-01-10 01:51:55.46	334.03	27.77	
2025-01-10 01:51:56.69	333.68	27.87	
2025-01-10 01:51:57.93	333.32	27.96	
2025-01-10 01:51:59.18	332.95	28.05	
2025-01-10 01:52:00.41	332.59	28.14	
2025-01-10 01:52:01.64	332.23	28.23	
2025-01-10 01:52:02.87	331.86	28.32	
2025-01-10 01:52:04.10	331.50	28.40	
2025-01-10 01:52:05.33	331.13	28.49	
2025-01-10 01:52:06.56	330.75	28.57	
2025-01-10 01:52:07.79	330.38	28.66	
2025-01-10 01:52:09.02	330.00	28.74	
2025-01-10 01:52:10.26	329.62	28.82	
2025-01-10 01:52:11.49	329.24	28.90	
2025-01-10 01:52:12.72	328.86	28.98	
2025-01-10 01:52:13.97	328.47	29.06	
2025-01-10 01:52:15.20	328.09	29.14	
2025-01-10 01:52:16.44	327.70	29.21	
2025-01-10 01:52:17.67	327.31	29.29	
2025-01-10 01:52:18.92	326.91	29.36	
2025-01-10 01:52:20.16	326.52	29.43	
2025-01-10 01:52:21.39	326.12	29.50	
2025-01-10 01:52:22.63	325.72	29.57	
2025-01-10 01:52:23.86	325.33	29.64	
2025-01-10 01:52:25.09	324.93	29.71	
2025-01-10 01:52:26.32	324.53	29.77	
2025-01-10 01:52:27.55	324.12	29.83	
2025-01-10 01:52:28.78	323.72	29.89	
2025-01-10 01:52:30.02	323.31	29.95	
2025-01-10 01:52:31.25	322.90	30.01	
2025-01-10 01:52:32.49	322.49	30.07	
2025-01-10 01:52:33.72	322.08	30.13	
2025-01-10 01:52:34.95	321.67	30.18	
2025-01-10 01:52:36.18	321.26	30.23	
2025-01-10 01:52:37.41	320.84	30.28	
2025-01-10 01:52:38.65	320.42	30.33	
2025-01-10 01:52:39.88	320.01	30.38	
2025-01-10 01:52:41.11	319.59	30.43	
2025-01-10 01:52:42.36	319.16	30.47	
2025-01-10 01:52:43.58	318.75	30.51	
2025-01-10 01:52:44.81	318.32	30.55	
2025-01-10 01:52:46.05	317.90	30.59	
2025-01-10 01:52:47.28	317.48	30.63	
2025-01-10 01:52:48.51	317.05	30.67	
2025-01-10 01:52:49.74	316.63	30.70	
2025-01-10 01:52:50.97	316.20	30.73	
2025-01-10 01:52:52.22	315.76	30.77	
2025-01-10 01:52:53.45	315.34	30.79	
2025-01-10 01:52:54.68	314.91	30.82	
2025-01-10 01:52:55.92	314.48	30.85	
2025-01-10 01:52:57.15	314.04	30.87	
2025-01-10 01:52:58.38	313.61	30.89	
2025-01-10 01:52:59.61	313.18	30.91	
2025-01-10 01:53:00.85	312.75	30.93	
2025-01-10 01:53:02.08	312.32	30.95	
2025-01-10 01:53:03.31	311.88	30.96	
2025-01-10 01:53:04.54	311.45	30.97	
2025-01-10 01:53:05.77	311.02	30.98	
2025-01-10 01:53:07.00	310.58	30.99	
2025-01-10 01:53:08.23	310.15	31.00	
2025-01-10 01:53:09.46	309.71	31.00	
2025-01-10 01:53:10.71	309.27	31.01	
2025-01-10 01:53:11.94	308.84	31.01	
2025-01-10 01:53:13.19	308.40	31.01	
2025-01-10 01:53:14.43	307.96	31.01	
2025-01-10 01:53:15.66	307.53	31.00	
2025-01-10 01:53:16.89	307.09	31.00	
2025-01-10 01:53:18.12	306.66	30.99	
2025-01-10 01:53:19.35	306.22	30.98	
2025-01-10 01:53:20.59	305.79	30.97	
2025-01-10 01:53:21.83	305.35	30.95	
2025-01-10 01:53:23.07	304.91	30.94	
2025-01-10 01:53:24.32	304.47	30.92	
2025-01-10 01:53:25.56	304.04	30.90	
2025-01-10 01:53:26.79	303.61	30.88	
2025-01-10 01:53:28.02	303.18	30.86	
2025-01-10 01:53:29.25	302.75	30.83	
2025-01-10 01:53:30.48	302.32	30.81	
2025-01-10 01:53:31.73	301.88	30.78	
2025-01-10 01:53:32.96	301.45	30.75	
2025-01-10 01:53:34.19	301.03	30.72	
2025-01-10 01:53:35.42	300.60	30.68	
2025-01-10 01:53:36.65	300.18	30.65	
2025-01-10 01:53:37.88	299.75	30.61	
2025-01-10 01:53:39.12	299.32	30.57	
2025-01-10 01:53:40.35	298.90	30.53	
2025-01-10 01:53:41.57	298.48	30.49	
2025-01-10 01:53:42.80	298.06	30.45	
2025-01-10 01:53:44.03	297.65	30.40	
2025-01-10 01:53:45.27	297.22	30.35	
2025-01-10 01:53:46.50	296.81	30.30	
2025-01-10 01:53:47.73	296.39	30.25	
2025-01-10 01:53:48.96	295.98	30.20	
2025-01-10 01:53:50.19	295.57	30.15	
2025-01-10 01:53:51.43	295.15	30.09	
2025-01-10 01:53:52.66	294.74	30.04	
2025-01-10 01:53:53.89	294.33	29.98	
2025-01-10 01:53:55.13	293.92	29.92	
2025-01-10 01:53:56.37	293.51	29.86	
2025-01-10 01:53:57.60	293.11	29.80	
2025-01-10 01:53:58.85	292.70	29.73	
2025-01-10 01:54:00.08	292.30	29.66	
2025-01-10 01:54:01.31	291.90	29.60	
2025-01-10 01:54:02.55	291.50	29.53	
2025-01-10 01:54:03.78	291.10	29.46	
2025-01-10 01:54:05.01	290.71	29.39	
2025-01-10 01:54:06.25	290.32	29.32	
2025-01-10 01:54:07.48	289.93	29.24	
2025-01-10 01:54:08.71	289.54	29.17	
2025-01-10 01:54:09.94	289.15	29.09	
2025-01-10 01:54:11.18	288.76	29.01	
2025-01-10 01:54:12.41	288.38	28.93	
2025-01-10 01:54:13.64	288.00	28.85	
2025-01-10 01:54:14.87	287.62	28.77	
2025-01-10 01:54:16.10	287.24	28.69	
2025-01-10 01:54:17.33	286.87	28.61	
2025-01-10 01:54:18.56	286.49	28.52	
2025-01-10 01:54:19.79	286.12	28.44	
2025-01-10 01:54:21.02	285.75	28.35	
2025-01-10 01:54:22.27	285.38	28.26	
2025-01-10 01:54:23.50	285.01	28.17	
2025-01-10 01:54:24.74	284.65	28.08	
2025-01-10 01:54:25.97	284.29	27.99	
2025-01-10 01:54:27.20	283.93	27.90	
2025-01-10 01:54:28.43	283.57	27.81	
2025-01-10 01:54:29.67	283.21	27.71	
2025-01-10 01:54:30.90	282.86	27.62	
2025-01-10 01:54:32.14	282.51	27.52	
2025-01-10 01:54:33.39	282.15	27.43	
2025-01-10 01:54:34.62	281.80	27.33	
2025-01-10 01:54:35.85	281.46	27.23	
2025-01-10 01:54:37.09	281.11	27.13	
2025-01-10 01:54:38.32	280.77	27.03	
2025-01-10 01:54:39.56	280.43	26.93	
2025-01-10 01:54:40.79	280.10	26.83	
2025-01-10 01:54:42.02	279.76	26.73	
2025-01-10 01:54:43.25	279.43	26.63	
2025-01-10 01:54:44.49	279.10	26.52	
2025-01-10 01:54:45.72	278.77	26.42	
2025-01-10 01:54:46.95	278.45	26.32	
2025-01-10 01:54:48.18	278.12	26.21	
2025-01-10 01:54:49.43	277.80	26.10	
2025-01-10 01:54:50.67	277.48	26.00	
2025-01-10 01:54:51.90	277.16	25.89	
2025-01-10 01:54:53.15	276.84	25.78	
2025-01-10 01:54:54.38	276.53	25.68	
2025-01-10 01:54:55.61	276.22	25.57	
2025-01-10 01:54:56.85	275.91	25.46	
2025-01-10 01:54:58.08	275.60	25.35	
2025-01-10 01:54:59.31	275.30	25.24	
2025-01-10 01:55:00.54	275.00	25.13	
2025-01-10 01:55:01.77	274.70	25.02	
2025-01-10 01:55:03.01	274.40	24.91	
2025-01-10 01:55:04.24	274.10	24.80	
2025-01-10 01:55:05.47	273.81	24.69	
2025-01-10 01:55:06.72	273.51	24.57	
2025-01-10 01:55:07.94	273.23	24.46	
2025-01-10 01:55:09.17	272.94	24.35	
2025-01-10 01:55:10.42	272.65	24.23	
2025-01-10 01:55:11.66	272.36	24.12	
2025-01-10 01:55:12.89	272.08	24.01	
2025-01-10 01:55:14.12	271.80	23.89	
2025-01-10 01:55:15.35	271.53	23.78	
2025-01-10 01:55:16.58	271.25	23.67	
2025-01-10 01:55:17.81	270.98	23.55	
2025-01-10 01:55:19.05	270.71	23.44	
2025-01-10 01:55:20.28	270.44	23.32	
2025-01-10 01:55:21.51	270.17	23.21	
2025-01-10 01:55:22.74	269.91	23.09	
2025-01-10 01:55:23.97	269.64	22.98	
2025-01-10 01:55:25.20	269.38	22.86	
2025-01-10 01:55:26.45	269.12	22.75	
2025-01-10 01:55:27.67	268.87	22.63	
2025-01-10 01:55:28.91	268.61	22.52	
2025-01-10 01:55:30.14	268.36	22.40	
2025-01-10 01:55:31.37	268.10	22.28	
2025-01-10 01:55:32.60	267.85	22.17	
2025-01-10 01:55:33.85	267.60	22.05	
2025-01-10 01:55:35.08	267.36	21.94	
2025-01-10 01:55:36.31	267.11	21.82	
2025-01-10 01:55:37.54	266.87	21.70	
2025-01-10 01:55:38.78	266.63	21.59	
2025-01-10 01:55:40.00	266.39	21.47	
2025-01-10 01:55:41.23	266.16	21.36	
2025-01-10 01:55:42.46	265.92	21.24	
2025-01-10 01:55:43.69	265.69	21.12	
2025-01-10 01:55:44.92	265.46	21.01	
2025-01-10 01:55:46.16	265.23	20.89	
2025-01-10 01:55:47.39	265.00	20.78	
2025-01-10 01:55:48.62	264.77	20.66	
2025-01-10 01:55:49.86	264.55	20.54	
2025-01-10 01:55:51.09	264.32	20.43	
2025-01-10 01:55:52.33	264.10	20.31	
2025-01-10 01:55:53.56	263.88	20.20	
2025-01-10 01:55:54.80	263.66	20.08	
2025-01-10 01:55:56.05	263.44	19.96	
2025-01-10 01:55:57.27	263.23	19.85	
2025-01-10 01:55:58.50	263.02	19.73	
2025-01-10 01:55:59.73	262.81	19.62	
2025-01-10 01:56:00.96	262.60	19.51	
2025-01-10 01:56:02.19	262.39	19.39	
2025-01-10 01:56:03.43	262.18	19.28	
2025-01-10 01:56:04.66	261.98	19.16	
2025-01-10 01:56:05.89	261.77	19.05	
2025-01-10 01:56:07.12	261.57	18.93	
2025-01-10 01:56:08.35	261.37	18.82	
2025-01-10 01:56:09.58	261.17	18.71	
2025-01-10 01:56:10.82	260.97	18.59	
2025-01-10 01:56:12.05	260.78	18.48	
2025-01-10 01:56:13.28	260.58	18.36	
2025-01-10 01:56:14.51	260.39	18.25	
2025-01-10 01:56:15.74	260.20	18.14	
2025-01-10 01:56:16.98	260.01	18.03	
2025-01-10 01:56:18.20	259.82	17.91	
2025-01-10 01:56:19.45	259.63	17.80	
2025-01-10 01:56:20.68	259.44	17.69	
2025-01-10 01:56:21.91	259.26	17.58	
2025-01-10 01:56:23.14	259.08	17.46	
2025-01-10 01:56:24.37	258.90	17.35	
2025-01-10 01:56:25.60	258.72	17.24	
2025-01-10 01:56:26.84	258.54	17.13	
2025-01-10 01:56:28.07	258.36	17.02	
2025-01-10 01:56:29.30	258.18	16.91	
2025-01-10 01:56:30.55	258.00	16.80	
2025-01-10 01:56:31.78	257.83	16.69	
2025-01-10 01:56:33.01	257.66	16.58	
2025-01-10 01:56:34.24	257.49	16.47	
2025-01-10 01:56:35.48	257.32	16.36	
2025-01-10 01:56:36.71	257.15	16.25	
2025-01-10 01:56:37.94	256.98	16.14	
2025-01-10 01:56:39.17	256.82	16.03	
2025-01-10 01:56:40.41	256.65	15.92	
2025-01-10 01:56:41.64	256.49	15.81	
2025-01-10 01:56:42.88	256.32	15.70	
2025-01-10 01:56:44.10	256.16	15.60	
2025-01-10 01:56:45.34	256.00	15.49	
2025-01-10 01:56:46.57	255.84	15.38	
2025-01-10 01:56:47.82	255.68	15.27	
2025-01-10 01:56:49.06	255.52	15.16	
2025-01-10 01:56:50.30	255.37	15.06	
2025-01-10 01:56:51.53	255.21	14.95	
2025-01-10 01:56:52.77	255.06	14.84	
2025-01-10 01:56:54.00	254.91	14.74	
2025-01-10 01:56:55.24	254.75	14.63	
2025-01-10 01:56:56.47	254.60	14.53	
2025-01-10 01:56:57.71	254.45	14.42	
2025-01-10 01:56:58.94	254.31	14.32	
2025-01-10 01:57:00.18	254.16	14.21	
2025-01-10 01:57:01.42	254.01	14.11	
2025-01-10 01:57:02.66	253.87	14.00	
2025-01-10 01:57:03.88	253.72	13.90	
2025-01-10 01:57:05.13	253.58	13.79	
2025-01-10 01:57:06.36	253.44	13.69	
2025-01-10 01:57:07.59	253.30	13.59	
2025-01-10 01:57:08.82	253.16	13.48	
2025-01-10 01:57:10.05	253.02	13.38	
2025-01-10 01:57:11.28	252.88	13.28	
2025-01-10 01:57:12.52	252.75	13.18	
2025-01-10 01:57:13.75	252.61	13.08	
2025-01-10 01:57:15.00	252.47	12.97	
2025-01-10 01:57:16.25	252.34	12.87	
2025-01-10 01:57:17.48	252.20	12.77	
2025-01-10 01:57:18.72	252.07	12.67	
2025-01-10 01:57:19.95	251.94	12.57	
2025-01-10 01:57:21.18	251.81	12.47	
2025-01-10 01:57:22.41	251.68	12.37	
2025-01-10 01:57:23.64	251.55	12.27	
2025-01-10 01:57:24.89	251.42	12.17	
2025-01-10 01:57:26.12	251.30	12.07	
2025-01-10 01:57:27.35	251.17	11.97	
2025-01-10 01:57:28.58	251.05	11.87	
2025-01-10 01:57:29.81	250.92	11.77	
2025-01-10 01:57:31.05	250.80	11.67	
2025-01-10 01:57:32.31	250.67	11.57	
2025-01-10 01:57:33.54	250.55	11.48	
2025-01-10 01:57:34.78	250.43	11.38	
2025-01-10 01:57:36.01	250.31	11.28	
2025-01-10 01:57:37.24	250.19	11.19	
2025-01-10 01:57:38.48	250.07	11.09	
2025-01-10 01:57:39.71	249.96	10.99	
2025-01-10 01:57:40.94	249.84	10.90	
2025-01-10 01:57:42.18	249.72	10.80	
2025-01-10 01:57:43.41	249.61	10.71	
2025-01-10 01:57:44.64	249.49	10.61	
2025-01-10 01:57:45.88	249.38	10.51	
2025-01-10 01:57:47.12	249.27	10.42	
2025-01-10 01:57:48.36	249.15	10.32	
2025-01-10 01:57:49.60	249.04	10.23	
2025-01-10 01:57:50.83	248.93	10.14	
2025-01-10 01:57:52.06	248.82	10.04	
2025-01-10 01:57:53.29	248.71	9.95	
2025-01-10 01:57:54.52	248.60	9.86	
2025-01-10 01:57:55.76	248.50	9.76	
2025-01-10 01:57:56.99	248.39	9.67	
2025-01-10 01:57:58.23	248.28	9.58	
2025-01-10 01:57:59.47	248.18	9.48	
2025-01-10 01:58:00.69	248.07	9.39	
2025-01-10 01:58:01.93	247.97	9.30	
2025-01-10 01:58:03.16	247.86	9.21	
2025-01-10 01:58:04.39	247.76	9.12	
2025-01-10 01:58:05.62	247.66	9.03	
2025-01-10 01:58:06.85	247.56	8.94	
2025-01-10 01:58:08.08	247.46	8.85	
2025-01-10 01:58:09.31	247.36	8.76	
2025-01-10 01:58:10.54	247.26	8.67	
2025-01-10 01:58:11.77	247.16	8.58	
2025-01-10 01:58:13.01	247.06	8.49	
2025-01-10 01:58:14.24	246.96	8.40	
2025-01-10 01:58:15.47	246.86	8.31	
2025-01-10 01:58:16.72	246.77	8.22	
2025-01-10 01:58:17.96	246.67	8.13	
2025-01-10 01:58:19.20	246.57	8.04	
2025-01-10 01:58:20.43	246.48	7.95	
2025-01-10 01:58:21.66	246.38	7.87	
2025-01-10 01:58:22.92	246.29	7.78	
2025-01-10 01:58:24.16	246.20	7.69	
2025-01-10 01:58:25.40	246.10	7.60	
2025-01-10 01:58:26.63	246.01	7.51	
2025-01-10 01:58:27.86	245.92	7.43	
2025-01-10 01:58:29.11	245.83	7.34	
2025-01-10 01:58:30.34	245.74	7.25	
2025-01-10 01:58:31.58	245.65	7.17	
2025-01-10 01:58:32.82	245.56	7.08	
2025-01-10 01:58:34.05	245.47	6.99	
2025-01-10 01:58:35.29	245.38	6.91	
2025-01-10 01:58:36.52	245.29	6.82	
2025-01-10 01:58:37.76	245.21	6.74	
2025-01-10 01:58:38.99	245.12	6.65	
2025-01-10 01:58:40.22	245.03	6.57	
2025-01-10 01:58:41.45	244.95	6.48	
2025-01-10 01:58:42.68	244.86	6.40	
2025-01-10 01:58:43.91	244.78	6.32	
2025-01-10 01:58:45.14	244.70	6.23	
2025-01-10 01:58:46.37	244.61	6.15	
2025-01-10 01:58:47.61	244.53	6.07	
2025-01-10 01:58:48.84	244.45	5.98	
2025-01-10 01:58:50.07	244.37	5.90	
2025-01-10 01:58:51.30	244.28	5.82	
2025-01-10 01:58:52.53	244.20	5.74	
2025-01-10 01:58:53.77	244.12	5.65	
2025-01-10 01:58:55.00	244.04	5.57	
2025-01-10 01:58:56.23	243.96	5.49	
2025-01-10 01:58:57.46	243.88	5.41	
2025-01-10 01:58:58.70	243.80	5.33	
2025-01-10 01:58:59.93	243.73	5.25	
2025-01-10 01:59:01.16	243.65	5.16	
2025-01-10 01:59:02.41	243.57	5.08	
2025-01-10 01:59:03.65	243.49	5.00	
2025-01-10 01:59:04.88	243.42	4.92	
2025-01-10 01:59:06.11	243.34	4.84	
2025-01-10 01:59:07.34	243.27	4.76	
2025-01-10 01:59:08.57	243.19	4.68	
2025-01-10 01:59:09.81	243.12	4.60	
2025-01-10 01:59:11.04	243.04	4.52	
2025-01-10 01:59:12.26	242.97	4.44	
2025-01-10 01:59:13.50	242.89	4.36	
2025-01-10 01:59:14.74	242.82	4.28	
2025-01-10 01:59:15.97	242.75	4.21	
2025-01-10 01:59:17.21	242.68	4.13	
2025-01-10 01:59:18.44	242.60	4.05	

#Closed at: 2025-01-10 01:59:19