passes_logs/2025/01/10/SPB_Silybum_02/SPB_Silybum_02__20250110_082049_SUOMI_NPP_rec.log

#Pass ID: 20250110_082049_SUOMI NPP
#Satellite: SUOMI NPP
#Configuration: NPP
#Start time: 2025-01-10 08:20:49

#Version: 2.0.20230423
#Station: SPB_Silybum_02
#Location: 30.233357 lon 59.946436 lat
#TLE: 1 37849U 11061A   25009.84493763  .00000180  00000+0  10621-3 0  9991
#TLE: 2 37849  98.7440 310.8990 0001846  48.8747 311.2588 14.19535791684182

#Time	Az	El	Level	Level2	SNR	BER	Gain	Gain2
2025-01-10 08:20:51.10	103.80	4.07	
2025-01-10 08:20:52.33	103.71	4.14	
2025-01-10 08:20:53.56	103.61	4.22	
2025-01-10 08:20:54.82	103.52	4.29	
2025-01-10 08:20:56.05	103.42	4.36	
2025-01-10 08:20:57.28	103.33	4.44	
2025-01-10 08:20:58.51	103.23	4.51	
2025-01-10 08:20:59.75	103.14	4.59	
2025-01-10 08:21:01.00	103.04	4.66	
2025-01-10 08:21:02.22	102.94	4.74	
2025-01-10 08:21:03.45	102.84	4.81	
2025-01-10 08:21:04.69	102.75	4.88	
2025-01-10 08:21:05.91	102.65	4.96	
2025-01-10 08:21:07.15	102.55	5.03	
2025-01-10 08:21:08.38	102.45	5.11	
2025-01-10 08:21:09.61	102.35	5.18	
2025-01-10 08:21:10.84	102.25	5.26	
2025-01-10 08:21:12.07	102.15	5.33	
2025-01-10 08:21:13.30	102.05	5.41	
2025-01-10 08:21:14.53	101.94	5.49	
2025-01-10 08:21:15.77	101.84	5.56	
2025-01-10 08:21:17.00	101.74	5.64	
2025-01-10 08:21:18.22	101.63	5.71	
2025-01-10 08:21:19.46	101.53	5.79	
2025-01-10 08:21:20.69	101.42	5.87	
2025-01-10 08:21:21.91	101.32	5.94	
2025-01-10 08:21:23.16	101.21	6.02	
2025-01-10 08:21:24.39	101.10	6.09	
2025-01-10 08:21:25.62	101.00	6.17	
2025-01-10 08:21:26.87	100.89	6.25	
2025-01-10 08:21:28.10	100.78	6.33	
2025-01-10 08:21:29.33	100.67	6.40	
2025-01-10 08:21:30.56	100.56	6.48	
2025-01-10 08:21:31.79	100.45	6.56	
2025-01-10 08:21:33.02	100.34	6.64	
2025-01-10 08:21:34.25	100.23	6.71	
2025-01-10 08:21:35.48	100.12	6.79	
2025-01-10 08:21:36.72	100.00	6.87	
2025-01-10 08:21:37.97	99.89	6.95	
2025-01-10 08:21:39.20	99.77	7.03	
2025-01-10 08:21:40.43	99.66	7.11	
2025-01-10 08:21:41.67	99.54	7.18	
2025-01-10 08:21:42.91	99.43	7.26	
2025-01-10 08:21:44.14	99.31	7.34	
2025-01-10 08:21:45.39	99.19	7.42	
2025-01-10 08:21:46.62	99.07	7.50	
2025-01-10 08:21:47.85	98.96	7.58	
2025-01-10 08:21:49.08	98.84	7.66	
2025-01-10 08:21:50.31	98.72	7.74	
2025-01-10 08:21:51.54	98.60	7.82	
2025-01-10 08:21:52.78	98.47	7.90	
2025-01-10 08:21:54.02	98.35	7.98	
2025-01-10 08:21:55.25	98.23	8.06	
2025-01-10 08:21:56.49	98.11	8.14	
2025-01-10 08:21:57.72	97.98	8.22	
2025-01-10 08:21:58.96	97.86	8.30	
2025-01-10 08:22:00.20	97.73	8.38	
2025-01-10 08:22:01.44	97.60	8.46	
2025-01-10 08:22:02.68	97.47	8.54	
2025-01-10 08:22:03.92	97.35	8.62	
2025-01-10 08:22:05.15	97.22	8.71	
2025-01-10 08:22:06.37	97.09	8.79	
2025-01-10 08:22:07.60	96.96	8.87	
2025-01-10 08:22:08.83	96.83	8.95	
2025-01-10 08:22:10.06	96.70	9.03	
2025-01-10 08:22:11.29	96.57	9.11	
2025-01-10 08:22:12.54	96.43	9.19	
2025-01-10 08:22:13.77	96.30	9.27	
2025-01-10 08:22:15.00	96.17	9.36	
2025-01-10 08:22:16.23	96.03	9.44	
2025-01-10 08:22:17.46	95.89	9.52	
2025-01-10 08:22:18.70	95.76	9.60	
2025-01-10 08:22:19.93	95.62	9.69	
2025-01-10 08:22:21.16	95.48	9.77	
2025-01-10 08:22:22.39	95.34	9.85	
2025-01-10 08:22:23.62	95.20	9.93	
2025-01-10 08:22:24.85	95.06	10.02	
2025-01-10 08:22:26.11	94.92	10.10	
2025-01-10 08:22:27.33	94.78	10.18	
2025-01-10 08:22:28.57	94.63	10.27	
2025-01-10 08:22:29.80	94.49	10.35	
2025-01-10 08:22:31.02	94.35	10.43	
2025-01-10 08:22:32.26	94.20	10.52	
2025-01-10 08:22:33.49	94.05	10.60	
2025-01-10 08:22:34.72	93.91	10.68	
2025-01-10 08:22:35.95	93.76	10.77	
2025-01-10 08:22:37.18	93.61	10.85	
2025-01-10 08:22:38.41	93.46	10.93	
2025-01-10 08:22:39.64	93.31	11.02	
2025-01-10 08:22:40.88	93.16	11.10	
2025-01-10 08:22:42.12	93.00	11.19	
2025-01-10 08:22:43.35	92.85	11.27	
2025-01-10 08:22:44.59	92.69	11.36	
2025-01-10 08:22:45.82	92.54	11.44	
2025-01-10 08:22:47.04	92.38	11.52	
2025-01-10 08:22:48.28	92.23	11.61	
2025-01-10 08:22:49.50	92.07	11.69	
2025-01-10 08:22:50.73	91.91	11.78	
2025-01-10 08:22:51.96	91.75	11.86	
2025-01-10 08:22:53.21	91.59	11.95	
2025-01-10 08:22:54.44	91.43	12.03	
2025-01-10 08:22:55.67	91.26	12.12	
2025-01-10 08:22:56.91	91.10	12.21	
2025-01-10 08:22:58.15	90.93	12.29	
2025-01-10 08:22:59.40	90.77	12.38	
2025-01-10 08:23:00.62	90.60	12.46	
2025-01-10 08:23:01.85	90.43	12.55	
2025-01-10 08:23:03.08	90.27	12.63	
2025-01-10 08:23:04.32	90.09	12.72	
2025-01-10 08:23:05.56	89.92	12.80	
2025-01-10 08:23:06.79	89.75	12.89	
2025-01-10 08:23:08.03	89.58	12.98	
2025-01-10 08:23:09.25	89.41	13.06	
2025-01-10 08:23:10.51	89.23	13.15	
2025-01-10 08:23:11.74	89.05	13.23	
2025-01-10 08:23:12.97	88.87	13.32	
2025-01-10 08:23:14.19	88.70	13.41	
2025-01-10 08:23:15.42	88.52	13.49	
2025-01-10 08:23:16.67	88.34	13.58	
2025-01-10 08:23:17.93	88.15	13.67	
2025-01-10 08:23:19.17	87.97	13.75	
2025-01-10 08:23:20.41	87.78	13.84	
2025-01-10 08:23:21.64	87.60	13.92	
2025-01-10 08:23:22.87	87.42	14.01	
2025-01-10 08:23:24.11	87.23	14.10	
2025-01-10 08:23:25.33	87.04	14.18	
2025-01-10 08:23:26.56	86.85	14.27	
2025-01-10 08:23:27.80	86.66	14.35	
2025-01-10 08:23:29.03	86.47	14.44	
2025-01-10 08:23:30.26	86.28	14.53	
2025-01-10 08:23:31.49	86.09	14.61	
2025-01-10 08:23:32.72	85.89	14.70	
2025-01-10 08:23:33.95	85.70	14.78	
2025-01-10 08:23:35.20	85.50	14.87	
2025-01-10 08:23:36.44	85.30	14.96	
2025-01-10 08:23:37.67	85.10	15.04	
2025-01-10 08:23:38.90	84.90	15.13	
2025-01-10 08:23:40.13	84.70	15.21	
2025-01-10 08:23:41.36	84.50	15.30	
2025-01-10 08:23:42.59	84.30	15.38	
2025-01-10 08:23:43.82	84.09	15.47	
2025-01-10 08:23:45.06	83.88	15.56	
2025-01-10 08:23:46.30	83.68	15.64	
2025-01-10 08:23:47.55	83.47	15.73	
2025-01-10 08:23:48.78	83.26	15.81	
2025-01-10 08:23:50.01	83.05	15.90	
2025-01-10 08:23:51.25	82.83	15.98	
2025-01-10 08:23:52.48	82.62	16.07	
2025-01-10 08:23:53.71	82.41	16.15	
2025-01-10 08:23:54.94	82.19	16.24	
2025-01-10 08:23:56.17	81.97	16.32	
2025-01-10 08:23:57.40	81.76	16.41	
2025-01-10 08:23:58.63	81.54	16.49	
2025-01-10 08:23:59.86	81.32	16.57	
2025-01-10 08:24:01.11	81.09	16.66	
2025-01-10 08:24:02.35	80.87	16.74	
2025-01-10 08:24:03.58	80.64	16.83	
2025-01-10 08:24:04.81	80.42	16.91	
2025-01-10 08:24:06.03	80.19	16.99	
2025-01-10 08:24:07.28	79.96	17.08	
2025-01-10 08:24:08.51	79.73	17.16	
2025-01-10 08:24:09.74	79.50	17.24	
2025-01-10 08:24:10.97	79.27	17.32	
2025-01-10 08:24:12.20	79.04	17.41	
2025-01-10 08:24:13.43	78.80	17.49	
2025-01-10 08:24:14.66	78.57	17.57	
2025-01-10 08:24:15.89	78.33	17.65	
2025-01-10 08:24:17.12	78.09	17.73	
2025-01-10 08:24:18.35	77.86	17.81	
2025-01-10 08:24:19.60	77.61	17.90	
2025-01-10 08:24:20.82	77.37	17.97	
2025-01-10 08:24:22.06	77.13	18.06	
2025-01-10 08:24:23.29	76.88	18.14	
2025-01-10 08:24:24.52	76.64	18.22	
2025-01-10 08:24:25.75	76.39	18.29	
2025-01-10 08:24:26.99	76.14	18.37	
2025-01-10 08:24:28.21	75.89	18.45	
2025-01-10 08:24:29.46	75.64	18.53	
2025-01-10 08:24:30.71	75.38	18.61	
2025-01-10 08:24:31.94	75.13	18.69	
2025-01-10 08:24:33.16	74.87	18.77	
2025-01-10 08:24:34.39	74.62	18.84	
2025-01-10 08:24:35.62	74.36	18.92	
2025-01-10 08:24:36.85	74.10	19.00	
2025-01-10 08:24:38.08	73.84	19.07	
2025-01-10 08:24:39.30	73.58	19.15	
2025-01-10 08:24:40.54	73.32	19.22	
2025-01-10 08:24:41.78	73.05	19.30	
2025-01-10 08:24:43.02	72.78	19.37	
2025-01-10 08:24:44.25	72.52	19.45	
2025-01-10 08:24:45.49	72.25	19.52	
2025-01-10 08:24:46.71	71.98	19.59	
2025-01-10 08:24:47.94	71.71	19.67	
2025-01-10 08:24:49.19	71.43	19.74	
2025-01-10 08:24:50.42	71.16	19.81	
2025-01-10 08:24:51.65	70.89	19.88	
2025-01-10 08:24:52.87	70.61	19.95	
2025-01-10 08:24:54.10	70.33	20.02	
2025-01-10 08:24:55.33	70.06	20.09	
2025-01-10 08:24:56.56	69.78	20.16	
2025-01-10 08:24:57.79	69.50	20.23	
2025-01-10 08:24:59.03	69.21	20.30	
2025-01-10 08:25:00.25	68.93	20.37	
2025-01-10 08:25:01.48	68.65	20.43	
2025-01-10 08:25:02.71	68.36	20.50	
2025-01-10 08:25:03.94	68.07	20.56	
2025-01-10 08:25:05.17	67.79	20.63	
2025-01-10 08:25:06.40	67.50	20.69	
2025-01-10 08:25:07.63	67.21	20.76	
2025-01-10 08:25:08.87	66.91	20.82	
2025-01-10 08:25:10.09	66.62	20.88	
2025-01-10 08:25:11.33	66.32	20.95	
2025-01-10 08:25:12.56	66.03	21.01	
2025-01-10 08:25:13.79	65.73	21.07	
2025-01-10 08:25:15.02	65.43	21.13	
2025-01-10 08:25:16.25	65.14	21.19	
2025-01-10 08:25:17.48	64.84	21.25	
2025-01-10 08:25:18.71	64.53	21.31	
2025-01-10 08:25:19.93	64.23	21.36	
2025-01-10 08:25:21.16	63.93	21.42	
2025-01-10 08:25:22.39	63.63	21.47	
2025-01-10 08:25:23.62	63.32	21.53	
2025-01-10 08:25:24.85	63.01	21.58	
2025-01-10 08:25:26.08	62.71	21.64	
2025-01-10 08:25:27.31	62.40	21.69	
2025-01-10 08:25:28.54	62.09	21.74	
2025-01-10 08:25:29.77	61.78	21.79	
2025-01-10 08:25:31.00	61.46	21.84	
2025-01-10 08:25:32.24	61.15	21.89	
2025-01-10 08:25:33.46	60.84	21.94	
2025-01-10 08:25:34.69	60.52	21.99	
2025-01-10 08:25:35.92	60.21	22.04	
2025-01-10 08:25:37.15	59.89	22.08	
2025-01-10 08:25:38.38	59.57	22.13	
2025-01-10 08:25:39.61	59.25	22.17	
2025-01-10 08:25:40.83	58.94	22.22	
2025-01-10 08:25:42.06	58.62	22.26	
2025-01-10 08:25:43.29	58.29	22.30	
2025-01-10 08:25:44.52	57.97	22.34	
2025-01-10 08:25:45.76	57.65	22.38	
2025-01-10 08:25:46.98	57.33	22.42	
2025-01-10 08:25:48.23	57.00	22.46	
2025-01-10 08:25:49.46	56.67	22.50	
2025-01-10 08:25:50.69	56.34	22.54	
2025-01-10 08:25:51.91	56.02	22.57	
2025-01-10 08:25:53.14	55.69	22.61	
2025-01-10 08:25:54.39	55.36	22.64	
2025-01-10 08:25:55.62	55.03	22.67	
2025-01-10 08:25:56.87	54.69	22.70	
2025-01-10 08:25:58.10	54.36	22.74	
2025-01-10 08:25:59.33	54.03	22.76	
2025-01-10 08:26:00.57	53.70	22.79	
2025-01-10 08:26:01.80	53.36	22.82	
2025-01-10 08:26:03.04	53.03	22.85	
2025-01-10 08:26:04.26	52.70	22.87	
2025-01-10 08:26:05.51	52.36	22.90	
2025-01-10 08:26:06.74	52.02	22.92	
2025-01-10 08:26:07.97	51.69	22.94	
2025-01-10 08:26:09.20	51.35	22.97	
2025-01-10 08:26:10.43	51.02	22.99	
2025-01-10 08:26:11.66	50.68	23.01	
2025-01-10 08:26:12.89	50.34	23.02	
2025-01-10 08:26:14.12	50.01	23.04	
2025-01-10 08:26:15.35	49.67	23.06	
2025-01-10 08:26:16.58	49.33	23.07	
2025-01-10 08:26:17.81	48.99	23.09	
2025-01-10 08:26:19.04	48.65	23.10	
2025-01-10 08:26:20.27	48.32	23.11	
2025-01-10 08:26:21.50	47.98	23.12	
2025-01-10 08:26:22.73	47.64	23.13	
2025-01-10 08:26:23.96	47.30	23.14	
2025-01-10 08:26:25.19	46.96	23.15	
2025-01-10 08:26:26.42	46.62	23.16	
2025-01-10 08:26:27.66	46.28	23.16	
2025-01-10 08:26:28.89	45.94	23.17	
2025-01-10 08:26:30.12	45.60	23.17	
2025-01-10 08:26:31.36	45.25	23.17	
2025-01-10 08:26:32.60	44.91	23.17	
2025-01-10 08:26:33.85	44.56	23.17	
2025-01-10 08:26:35.08	44.22	23.17	
2025-01-10 08:26:36.31	43.88	23.17	
2025-01-10 08:26:37.54	43.54	23.17	
2025-01-10 08:26:38.77	43.20	23.16	
2025-01-10 08:26:40.00	42.86	23.16	
2025-01-10 08:26:41.23	42.52	23.15	
2025-01-10 08:26:42.46	42.18	23.14	
2025-01-10 08:26:43.69	41.85	23.13	
2025-01-10 08:26:44.92	41.51	23.12	
2025-01-10 08:26:46.15	41.17	23.11	
2025-01-10 08:26:47.38	40.83	23.10	
2025-01-10 08:26:48.61	40.49	23.09	
2025-01-10 08:26:49.86	40.15	23.07	
2025-01-10 08:26:51.09	39.81	23.06	
2025-01-10 08:26:52.31	39.47	23.04	
2025-01-10 08:26:53.55	39.14	23.03	
2025-01-10 08:26:54.80	38.79	23.01	
2025-01-10 08:26:56.04	38.45	22.99	
2025-01-10 08:26:57.27	38.12	22.97	
2025-01-10 08:26:58.50	37.78	22.95	
2025-01-10 08:26:59.74	37.45	22.92	
2025-01-10 08:27:00.96	37.11	22.90	
2025-01-10 08:27:02.20	36.78	22.87	
2025-01-10 08:27:03.43	36.44	22.85	
2025-01-10 08:27:04.66	36.11	22.82	
2025-01-10 08:27:05.90	35.78	22.79	
2025-01-10 08:27:07.12	35.45	22.77	
2025-01-10 08:27:08.36	35.12	22.74	
2025-01-10 08:27:09.59	34.78	22.71	
2025-01-10 08:27:10.82	34.46	22.67	
2025-01-10 08:27:12.05	34.13	22.64	
2025-01-10 08:27:13.29	33.80	22.61	
2025-01-10 08:27:14.52	33.47	22.57	
2025-01-10 08:27:15.77	33.14	22.54	
2025-01-10 08:27:17.00	32.81	22.50	
2025-01-10 08:27:18.23	32.49	22.46	
2025-01-10 08:27:19.46	32.16	22.43	
2025-01-10 08:27:20.71	31.83	22.39	
2025-01-10 08:27:21.94	31.51	22.35	
2025-01-10 08:27:23.19	31.18	22.30	
2025-01-10 08:27:24.42	30.86	22.26	
2025-01-10 08:27:25.65	30.54	22.22	
2025-01-10 08:27:26.89	30.22	22.18	
2025-01-10 08:27:28.11	29.91	22.13	
2025-01-10 08:27:29.35	29.59	22.09	
2025-01-10 08:27:30.59	29.27	22.04	
2025-01-10 08:27:31.82	28.95	21.99	
2025-01-10 08:27:33.05	28.64	21.94	
2025-01-10 08:27:34.28	28.32	21.90	
2025-01-10 08:27:35.52	28.01	21.85	
2025-01-10 08:27:36.76	27.70	21.79	
2025-01-10 08:27:37.99	27.39	21.74	
2025-01-10 08:27:39.22	27.08	21.69	
2025-01-10 08:27:40.48	26.76	21.64	
2025-01-10 08:27:41.71	26.45	21.58	
2025-01-10 08:27:42.94	26.15	21.53	
2025-01-10 08:27:44.19	25.84	21.47	
2025-01-10 08:27:45.42	25.53	21.42	
2025-01-10 08:27:46.65	25.23	21.36	
2025-01-10 08:27:47.88	24.93	21.30	
2025-01-10 08:27:49.11	24.63	21.25	
2025-01-10 08:27:50.33	24.33	21.19	
2025-01-10 08:27:51.56	24.04	21.13	
2025-01-10 08:27:52.79	23.74	21.07	
2025-01-10 08:27:54.02	23.44	21.01	
2025-01-10 08:27:55.26	23.15	20.95	
2025-01-10 08:27:56.49	22.85	20.88	
2025-01-10 08:27:57.72	22.56	20.82	
2025-01-10 08:27:58.95	22.27	20.76	
2025-01-10 08:28:00.20	21.98	20.69	
2025-01-10 08:28:01.43	21.69	20.63	
2025-01-10 08:28:02.66	21.40	20.56	
2025-01-10 08:28:03.89	21.11	20.50	
2025-01-10 08:28:05.12	20.83	20.43	
2025-01-10 08:28:06.35	20.55	20.37	
2025-01-10 08:28:07.58	20.26	20.30	
2025-01-10 08:28:08.81	19.98	20.23	
2025-01-10 08:28:10.06	19.70	20.16	
2025-01-10 08:28:11.29	19.42	20.09	
2025-01-10 08:28:12.52	19.14	20.02	
2025-01-10 08:28:13.75	18.87	19.95	
2025-01-10 08:28:14.98	18.59	19.88	
2025-01-10 08:28:16.21	18.32	19.81	
2025-01-10 08:28:17.44	18.05	19.74	
2025-01-10 08:28:18.67	17.78	19.67	
2025-01-10 08:28:19.90	17.51	19.60	
2025-01-10 08:28:21.13	17.24	19.52	
2025-01-10 08:28:22.36	16.97	19.45	
2025-01-10 08:28:23.58	16.71	19.38	
2025-01-10 08:28:24.81	16.45	19.30	
2025-01-10 08:28:26.05	16.18	19.23	
2025-01-10 08:28:27.28	15.92	19.15	
2025-01-10 08:28:28.51	15.66	19.08	
2025-01-10 08:28:29.74	15.40	19.00	
2025-01-10 08:28:30.97	15.14	18.92	
2025-01-10 08:28:32.22	14.88	18.85	
2025-01-10 08:28:33.45	14.63	18.77	
2025-01-10 08:28:34.68	14.37	18.69	
2025-01-10 08:28:35.91	14.12	18.62	
2025-01-10 08:28:37.15	13.87	18.54	
2025-01-10 08:28:38.40	13.61	18.46	
2025-01-10 08:28:39.63	13.36	18.38	
2025-01-10 08:28:40.87	13.12	18.30	
2025-01-10 08:28:42.10	12.87	18.22	
2025-01-10 08:28:43.33	12.63	18.14	
2025-01-10 08:28:44.56	12.38	18.06	
2025-01-10 08:28:45.79	12.14	17.98	
2025-01-10 08:28:47.02	11.90	17.90	
2025-01-10 08:28:48.25	11.66	17.82	
2025-01-10 08:28:49.48	11.42	17.74	
2025-01-10 08:28:50.71	11.19	17.66	
2025-01-10 08:28:51.94	10.95	17.58	
2025-01-10 08:28:53.17	10.72	17.50	
2025-01-10 08:28:54.41	10.48	17.41	
2025-01-10 08:28:55.64	10.25	17.33	
2025-01-10 08:28:56.87	10.02	17.25	
2025-01-10 08:28:58.10	9.79	17.17	
2025-01-10 08:28:59.33	9.56	17.09	
2025-01-10 08:29:00.57	9.33	17.00	
2025-01-10 08:29:01.80	9.11	16.92	
2025-01-10 08:29:03.03	8.88	16.84	
2025-01-10 08:29:04.27	8.66	16.75	
2025-01-10 08:29:05.49	8.44	16.67	
2025-01-10 08:29:06.72	8.22	16.59	
2025-01-10 08:29:07.95	8.00	16.50	
2025-01-10 08:29:09.18	7.78	16.42	
2025-01-10 08:29:10.41	7.57	16.34	
2025-01-10 08:29:11.64	7.35	16.25	
2025-01-10 08:29:12.87	7.14	16.17	
2025-01-10 08:29:14.12	6.92	16.08	
2025-01-10 08:29:15.35	6.71	16.00	
2025-01-10 08:29:16.58	6.50	15.91	
2025-01-10 08:29:17.81	6.29	15.83	
2025-01-10 08:29:19.04	6.08	15.74	
2025-01-10 08:29:20.27	5.88	15.66	
2025-01-10 08:29:21.50	5.67	15.57	
2025-01-10 08:29:22.73	5.47	15.49	
2025-01-10 08:29:23.96	5.26	15.40	
2025-01-10 08:29:25.19	5.06	15.32	
2025-01-10 08:29:26.43	4.86	15.23	
2025-01-10 08:29:27.67	4.66	15.15	
2025-01-10 08:29:28.89	4.46	15.06	
2025-01-10 08:29:30.12	4.26	14.98	
2025-01-10 08:29:31.35	4.07	14.89	
2025-01-10 08:29:32.59	3.87	14.81	
2025-01-10 08:29:33.82	3.68	14.72	
2025-01-10 08:29:35.05	3.48	14.64	
2025-01-10 08:29:36.28	3.29	14.55	
2025-01-10 08:29:37.51	3.10	14.47	
2025-01-10 08:29:38.75	2.91	14.38	
2025-01-10 08:29:39.98	2.72	14.29	
2025-01-10 08:29:41.21	2.53	14.21	
2025-01-10 08:29:42.44	2.35	14.12	
2025-01-10 08:29:43.66	2.16	14.04	
2025-01-10 08:29:44.89	1.98	13.95	
2025-01-10 08:29:46.14	1.79	13.87	
2025-01-10 08:29:47.37	1.61	13.78	
2025-01-10 08:29:48.60	1.43	13.69	
2025-01-10 08:29:49.83	1.25	13.61	
2025-01-10 08:29:51.07	1.07	13.52	
2025-01-10 08:29:52.30	0.89	13.44	
2025-01-10 08:29:53.53	0.72	13.35	
2025-01-10 08:29:54.76	0.54	13.27	
2025-01-10 08:29:55.99	0.37	13.18	
2025-01-10 08:29:57.22	0.20	13.10	
2025-01-10 08:29:58.44	0.02	13.01	
2025-01-10 08:29:59.69	359.85	12.93	
2025-01-10 08:30:00.92	359.68	12.84	
2025-01-10 08:30:02.15	359.51	12.75	
2025-01-10 08:30:03.38	359.34	12.67	
2025-01-10 08:30:04.61	359.17	12.58	
2025-01-10 08:30:05.86	359.01	12.50	
2025-01-10 08:30:07.09	358.84	12.41	
2025-01-10 08:30:08.32	358.68	12.33	
2025-01-10 08:30:09.55	358.51	12.24	
2025-01-10 08:30:10.78	358.35	12.16	
2025-01-10 08:30:12.01	358.19	12.07	
2025-01-10 08:30:13.24	358.03	11.99	
2025-01-10 08:30:14.47	357.87	11.91	
2025-01-10 08:30:15.70	357.71	11.82	
2025-01-10 08:30:16.93	357.55	11.74	
2025-01-10 08:30:18.16	357.40	11.65	
2025-01-10 08:30:19.39	357.24	11.57	
2025-01-10 08:30:20.62	357.09	11.48	
2025-01-10 08:30:21.86	356.93	11.40	
2025-01-10 08:30:23.09	356.78	11.32	
2025-01-10 08:30:24.32	356.62	11.23	
2025-01-10 08:30:25.55	356.47	11.15	
2025-01-10 08:30:26.79	356.32	11.06	
2025-01-10 08:30:28.02	356.17	10.98	
2025-01-10 08:30:29.25	356.02	10.90	
2025-01-10 08:30:30.48	355.88	10.81	
2025-01-10 08:30:31.72	355.73	10.73	
2025-01-10 08:30:32.95	355.58	10.65	
2025-01-10 08:30:34.18	355.44	10.56	
2025-01-10 08:30:35.41	355.29	10.48	
2025-01-10 08:30:36.64	355.15	10.40	
2025-01-10 08:30:37.88	355.00	10.31	
2025-01-10 08:30:39.12	354.86	10.23	
2025-01-10 08:30:40.34	354.72	10.15	
2025-01-10 08:30:41.57	354.58	10.07	
2025-01-10 08:30:42.80	354.44	9.98	
2025-01-10 08:30:44.04	354.30	9.90	
2025-01-10 08:30:45.27	354.16	9.82	
2025-01-10 08:30:46.50	354.03	9.74	
2025-01-10 08:30:47.73	353.89	9.65	
2025-01-10 08:30:48.97	353.76	9.57	
2025-01-10 08:30:50.20	353.62	9.49	
2025-01-10 08:30:51.43	353.49	9.41	
2025-01-10 08:30:52.67	353.35	9.33	
2025-01-10 08:30:53.90	353.22	9.24	
2025-01-10 08:30:55.13	353.09	9.16	
2025-01-10 08:30:56.36	352.96	9.08	
2025-01-10 08:30:57.59	352.83	9.00	
2025-01-10 08:30:58.84	352.70	8.92	
2025-01-10 08:31:00.07	352.57	8.84	
2025-01-10 08:31:01.29	352.44	8.76	
2025-01-10 08:31:02.52	352.31	8.68	
2025-01-10 08:31:03.77	352.19	8.60	
2025-01-10 08:31:05.01	352.06	8.51	
2025-01-10 08:31:06.25	351.93	8.43	
2025-01-10 08:31:07.48	351.81	8.35	
2025-01-10 08:31:08.71	351.69	8.27	
2025-01-10 08:31:09.94	351.56	8.19	
2025-01-10 08:31:11.17	351.44	8.11	
2025-01-10 08:31:12.41	351.32	8.03	
2025-01-10 08:31:13.64	351.20	7.95	
2025-01-10 08:31:14.87	351.08	7.88	
2025-01-10 08:31:16.11	350.96	7.80	
2025-01-10 08:31:17.34	350.84	7.72	
2025-01-10 08:31:18.57	350.72	7.64	
2025-01-10 08:31:19.81	350.60	7.56	
2025-01-10 08:31:21.04	350.49	7.48	
2025-01-10 08:31:22.29	350.37	7.40	
2025-01-10 08:31:23.52	350.25	7.32	
2025-01-10 08:31:24.75	350.14	7.24	
2025-01-10 08:31:25.98	350.02	7.16	
2025-01-10 08:31:27.22	349.91	7.09	
2025-01-10 08:31:28.45	349.80	7.01	
2025-01-10 08:31:29.68	349.68	6.93	
2025-01-10 08:31:30.92	349.57	6.85	
2025-01-10 08:31:32.18	349.46	6.77	
2025-01-10 08:31:33.41	349.35	6.70	
2025-01-10 08:31:34.64	349.24	6.62	
2025-01-10 08:31:35.87	349.13	6.54	
2025-01-10 08:31:37.11	349.02	6.46	
2025-01-10 08:31:38.34	348.91	6.39	
2025-01-10 08:31:39.58	348.80	6.31	
2025-01-10 08:31:40.81	348.70	6.23	
2025-01-10 08:31:42.04	348.59	6.16	
2025-01-10 08:31:43.27	348.49	6.08	
2025-01-10 08:31:44.50	348.38	6.00	
2025-01-10 08:31:45.73	348.28	5.93	
2025-01-10 08:31:46.96	348.17	5.85	
2025-01-10 08:31:48.19	348.07	5.78	
2025-01-10 08:31:49.43	347.97	5.70	
2025-01-10 08:31:50.66	347.86	5.62	
2025-01-10 08:31:51.89	347.76	5.55	
2025-01-10 08:31:53.13	347.66	5.47	
2025-01-10 08:31:54.36	347.56	5.40	
2025-01-10 08:31:55.59	347.46	5.32	
2025-01-10 08:31:56.82	347.36	5.25	
2025-01-10 08:31:58.05	347.26	5.17	
2025-01-10 08:31:59.30	347.16	5.10	
2025-01-10 08:32:00.53	347.06	5.02	
2025-01-10 08:32:01.76	346.97	4.95	
2025-01-10 08:32:03.00	346.87	4.87	
2025-01-10 08:32:04.22	346.77	4.80	
2025-01-10 08:32:05.46	346.68	4.72	
2025-01-10 08:32:06.70	346.58	4.65	
2025-01-10 08:32:07.93	346.49	4.58	
2025-01-10 08:32:09.16	346.39	4.50	
2025-01-10 08:32:10.39	346.30	4.43	
2025-01-10 08:32:11.62	346.20	4.36	
2025-01-10 08:32:12.85	346.11	4.28	
2025-01-10 08:32:14.08	346.02	4.21	
2025-01-10 08:32:15.31	345.93	4.14	
2025-01-10 08:32:16.54	345.84	4.06	

#Closed at: 2025-01-10 08:32:17