passes_logs/2025/01/10/SPB_Silybum_02/SPB_Silybum_02__20250110_131133_AQUA_rec.log

#Pass ID: 20250110_131133_AQUA
#Satellite: AQUA
#Configuration: AQUA
#Start time: 2025-01-10 13:11:32

#Version: 2.0.20230423
#Station: SPB_Silybum_02
#Location: 30.233357 lon 59.946436 lat
#TLE: 1 27424U 02022A   25009.33792655  .00001838  00000+0  38750-3 0  9996
#TLE: 2 27424  98.3576 325.9512 0001516 117.1765  36.3916 14.60660973206791

#Time	Az	El	Level	Level2	SNR	BER	Gain	Gain2
2025-01-10 13:11:34.17	220.14	4.04	
2025-01-10 13:11:35.19	220.25	4.10	
2025-01-10 13:11:36.22	220.35	4.16	
2025-01-10 13:11:37.24	220.46	4.21	
2025-01-10 13:11:38.27	220.57	4.27	
2025-01-10 13:11:39.29	220.68	4.33	
2025-01-10 13:11:40.32	220.79	4.39	
2025-01-10 13:11:41.35	220.90	4.44	
2025-01-10 13:11:42.38	221.01	4.50	
2025-01-10 13:11:43.41	221.13	4.56	
2025-01-10 13:11:44.43	221.24	4.62	
2025-01-10 13:11:45.46	221.35	4.68	
2025-01-10 13:11:46.48	221.46	4.73	
2025-01-10 13:11:47.51	221.58	4.79	
2025-01-10 13:11:48.54	221.69	4.85	
2025-01-10 13:11:49.56	221.80	4.91	
2025-01-10 13:11:50.59	221.92	4.97	
2025-01-10 13:11:51.62	222.03	5.02	
2025-01-10 13:11:52.64	222.15	5.08	
2025-01-10 13:11:53.67	222.27	5.14	
2025-01-10 13:11:54.71	222.38	5.20	
2025-01-10 13:11:55.74	222.50	5.26	
2025-01-10 13:11:56.77	222.62	5.32	
2025-01-10 13:11:57.80	222.74	5.38	
2025-01-10 13:11:58.84	222.86	5.44	
2025-01-10 13:11:59.86	222.98	5.49	
2025-01-10 13:12:00.89	223.10	5.55	
2025-01-10 13:12:01.92	223.22	5.61	
2025-01-10 13:12:02.94	223.34	5.67	
2025-01-10 13:12:03.96	223.46	5.73	
2025-01-10 13:12:04.99	223.58	5.79	
2025-01-10 13:12:06.02	223.70	5.85	
2025-01-10 13:12:07.06	223.83	5.91	
2025-01-10 13:12:08.09	223.95	5.96	
2025-01-10 13:12:09.12	224.08	6.02	
2025-01-10 13:12:10.14	224.20	6.08	
2025-01-10 13:12:11.17	224.32	6.14	
2025-01-10 13:12:12.20	224.45	6.20	
2025-01-10 13:12:13.23	224.58	6.26	
2025-01-10 13:12:14.26	224.70	6.32	
2025-01-10 13:12:15.28	224.83	6.38	
2025-01-10 13:12:16.31	224.96	6.44	
2025-01-10 13:12:17.33	225.09	6.50	
2025-01-10 13:12:18.36	225.21	6.56	
2025-01-10 13:12:19.39	225.34	6.62	
2025-01-10 13:12:20.41	225.47	6.68	
2025-01-10 13:12:21.45	225.61	6.74	
2025-01-10 13:12:22.47	225.74	6.80	
2025-01-10 13:12:23.51	225.87	6.86	
2025-01-10 13:12:24.54	226.00	6.92	
2025-01-10 13:12:25.56	226.13	6.97	
2025-01-10 13:12:26.59	226.27	7.03	
2025-01-10 13:12:27.61	226.40	7.09	
2025-01-10 13:12:28.64	226.53	7.15	
2025-01-10 13:12:29.66	226.67	7.21	
2025-01-10 13:12:30.69	226.80	7.27	
2025-01-10 13:12:31.72	226.94	7.33	
2025-01-10 13:12:32.74	227.08	7.39	
2025-01-10 13:12:33.77	227.21	7.45	
2025-01-10 13:12:34.80	227.35	7.51	
2025-01-10 13:12:35.82	227.49	7.57	
2025-01-10 13:12:36.85	227.63	7.63	
2025-01-10 13:12:37.87	227.77	7.69	
2025-01-10 13:12:38.90	227.91	7.75	
2025-01-10 13:12:39.93	228.05	7.81	
2025-01-10 13:12:40.96	228.19	7.87	
2025-01-10 13:12:41.98	228.33	7.93	
2025-01-10 13:12:43.02	228.48	7.99	
2025-01-10 13:12:44.05	228.62	8.05	
2025-01-10 13:12:45.09	228.77	8.11	
2025-01-10 13:12:46.12	228.91	8.17	
2025-01-10 13:12:47.15	229.06	8.23	
2025-01-10 13:12:48.17	229.20	8.29	
2025-01-10 13:12:49.20	229.35	8.35	
2025-01-10 13:12:50.23	229.50	8.41	
2025-01-10 13:12:51.26	229.65	8.48	
2025-01-10 13:12:52.30	229.80	8.54	
2025-01-10 13:12:53.33	229.95	8.60	
2025-01-10 13:12:54.35	230.10	8.66	
2025-01-10 13:12:55.37	230.25	8.72	
2025-01-10 13:12:56.40	230.40	8.78	
2025-01-10 13:12:57.43	230.55	8.84	
2025-01-10 13:12:58.45	230.70	8.90	
2025-01-10 13:12:59.48	230.85	8.96	
2025-01-10 13:13:00.50	231.01	9.02	
2025-01-10 13:13:01.54	231.16	9.08	
2025-01-10 13:13:02.57	231.32	9.14	
2025-01-10 13:13:03.60	231.47	9.20	
2025-01-10 13:13:04.64	231.63	9.26	
2025-01-10 13:13:05.66	231.79	9.32	
2025-01-10 13:13:06.69	231.95	9.38	
2025-01-10 13:13:07.71	232.10	9.44	
2025-01-10 13:13:08.75	232.27	9.50	
2025-01-10 13:13:09.78	232.43	9.56	
2025-01-10 13:13:10.80	232.59	9.62	
2025-01-10 13:13:11.83	232.75	9.68	
2025-01-10 13:13:12.86	232.91	9.74	
2025-01-10 13:13:13.88	233.07	9.80	
2025-01-10 13:13:14.91	233.23	9.86	
2025-01-10 13:13:15.94	233.40	9.92	
2025-01-10 13:13:16.96	233.56	9.98	
2025-01-10 13:13:17.99	233.73	10.04	
2025-01-10 13:13:19.02	233.89	10.10	
2025-01-10 13:13:20.04	234.06	10.16	
2025-01-10 13:13:21.07	234.23	10.22	
2025-01-10 13:13:22.10	234.40	10.28	
2025-01-10 13:13:23.12	234.56	10.34	
2025-01-10 13:13:24.15	234.73	10.40	
2025-01-10 13:13:25.17	234.90	10.45	
2025-01-10 13:13:26.21	235.08	10.51	
2025-01-10 13:13:27.23	235.25	10.57	
2025-01-10 13:13:28.26	235.42	10.63	
2025-01-10 13:13:29.30	235.60	10.69	
2025-01-10 13:13:30.33	235.77	10.75	
2025-01-10 13:13:31.36	235.95	10.81	
2025-01-10 13:13:32.39	236.12	10.87	
2025-01-10 13:13:33.42	236.30	10.93	
2025-01-10 13:13:34.45	236.48	10.99	
2025-01-10 13:13:35.49	236.66	11.05	
2025-01-10 13:13:36.51	236.83	11.11	
2025-01-10 13:13:37.54	237.01	11.16	
2025-01-10 13:13:38.57	237.19	11.22	
2025-01-10 13:13:39.59	237.37	11.28	
2025-01-10 13:13:40.62	237.56	11.34	
2025-01-10 13:13:41.64	237.74	11.40	
2025-01-10 13:13:42.69	237.92	11.46	
2025-01-10 13:13:43.71	238.11	11.52	
2025-01-10 13:13:44.74	238.29	11.57	
2025-01-10 13:13:45.77	238.48	11.63	
2025-01-10 13:13:46.80	238.66	11.69	
2025-01-10 13:13:47.83	238.85	11.75	
2025-01-10 13:13:48.85	239.04	11.80	
2025-01-10 13:13:49.88	239.23	11.86	
2025-01-10 13:13:50.90	239.41	11.92	
2025-01-10 13:13:51.93	239.60	11.98	
2025-01-10 13:13:52.96	239.79	12.03	
2025-01-10 13:13:53.99	239.99	12.09	
2025-01-10 13:13:55.01	240.18	12.15	
2025-01-10 13:13:56.04	240.37	12.20	
2025-01-10 13:13:57.08	240.57	12.26	
2025-01-10 13:13:58.11	240.76	12.32	
2025-01-10 13:13:59.13	240.96	12.37	
2025-01-10 13:14:00.16	241.15	12.43	
2025-01-10 13:14:01.19	241.35	12.49	
2025-01-10 13:14:02.21	241.55	12.54	
2025-01-10 13:14:03.25	241.75	12.60	
2025-01-10 13:14:04.28	241.95	12.65	
2025-01-10 13:14:05.30	242.15	12.71	
2025-01-10 13:14:06.33	242.35	12.76	
2025-01-10 13:14:07.36	242.55	12.82	
2025-01-10 13:14:08.39	242.75	12.87	
2025-01-10 13:14:09.41	242.95	12.93	
2025-01-10 13:14:10.44	243.16	12.98	
2025-01-10 13:14:11.48	243.37	13.04	
2025-01-10 13:14:12.50	243.57	13.09	
2025-01-10 13:14:13.53	243.78	13.15	
2025-01-10 13:14:14.57	243.99	13.20	
2025-01-10 13:14:15.60	244.19	13.25	
2025-01-10 13:14:16.62	244.40	13.31	
2025-01-10 13:14:17.65	244.61	13.36	
2025-01-10 13:14:18.69	244.82	13.41	
2025-01-10 13:14:19.73	245.04	13.47	
2025-01-10 13:14:20.76	245.25	13.52	
2025-01-10 13:14:21.78	245.46	13.57	
2025-01-10 13:14:22.81	245.68	13.62	
2025-01-10 13:14:23.84	245.89	13.68	
2025-01-10 13:14:24.86	246.10	13.73	
2025-01-10 13:14:25.89	246.32	13.78	
2025-01-10 13:14:26.91	246.53	13.83	
2025-01-10 13:14:27.93	246.75	13.88	
2025-01-10 13:14:28.96	246.97	13.93	
2025-01-10 13:14:29.99	247.19	13.98	
2025-01-10 13:14:31.01	247.41	14.03	
2025-01-10 13:14:32.04	247.63	14.08	
2025-01-10 13:14:33.08	247.85	14.13	
2025-01-10 13:14:34.10	248.07	14.18	
2025-01-10 13:14:35.13	248.29	14.23	
2025-01-10 13:14:36.16	248.52	14.28	
2025-01-10 13:14:37.19	248.74	14.33	
2025-01-10 13:14:38.22	248.97	14.38	
2025-01-10 13:14:39.25	249.19	14.42	
2025-01-10 13:14:40.27	249.42	14.47	
2025-01-10 13:14:41.30	249.65	14.52	
2025-01-10 13:14:42.33	249.88	14.57	
2025-01-10 13:14:43.37	250.11	14.61	
2025-01-10 13:14:44.39	250.33	14.66	
2025-01-10 13:14:45.42	250.57	14.71	
2025-01-10 13:14:46.45	250.80	14.75	
2025-01-10 13:14:47.47	251.03	14.80	
2025-01-10 13:14:48.50	251.26	14.84	
2025-01-10 13:14:49.54	251.50	14.89	
2025-01-10 13:14:50.57	251.73	14.93	
2025-01-10 13:14:51.59	251.96	14.98	
2025-01-10 13:14:52.62	252.20	15.02	
2025-01-10 13:14:53.65	252.43	15.06	
2025-01-10 13:14:54.67	252.67	15.11	
2025-01-10 13:14:55.71	252.91	15.15	
2025-01-10 13:14:56.76	253.15	15.19	
2025-01-10 13:14:57.78	253.39	15.23	
2025-01-10 13:14:58.81	253.63	15.28	
2025-01-10 13:14:59.83	253.87	15.32	
2025-01-10 13:15:00.86	254.11	15.36	
2025-01-10 13:15:01.89	254.35	15.40	
2025-01-10 13:15:02.91	254.59	15.44	
2025-01-10 13:15:03.94	254.84	15.48	
2025-01-10 13:15:04.97	255.08	15.52	
2025-01-10 13:15:05.99	255.32	15.56	
2025-01-10 13:15:07.02	255.57	15.60	
2025-01-10 13:15:08.05	255.81	15.63	
2025-01-10 13:15:09.07	256.06	15.67	
2025-01-10 13:15:10.10	256.31	15.71	
2025-01-10 13:15:11.12	256.55	15.75	
2025-01-10 13:15:12.15	256.80	15.78	
2025-01-10 13:15:13.17	257.05	15.82	
2025-01-10 13:15:14.20	257.30	15.85	
2025-01-10 13:15:15.22	257.55	15.89	
2025-01-10 13:15:16.25	257.80	15.92	
2025-01-10 13:15:17.27	258.05	15.96	
2025-01-10 13:15:18.30	258.30	15.99	
2025-01-10 13:15:19.33	258.55	16.03	
2025-01-10 13:15:20.35	258.80	16.06	
2025-01-10 13:15:21.38	259.06	16.09	
2025-01-10 13:15:22.41	259.31	16.12	
2025-01-10 13:15:23.43	259.56	16.15	
2025-01-10 13:15:24.46	259.82	16.19	
2025-01-10 13:15:25.49	260.08	16.22	
2025-01-10 13:15:26.51	260.33	16.25	
2025-01-10 13:15:27.55	260.59	16.28	
2025-01-10 13:15:28.58	260.85	16.31	
2025-01-10 13:15:29.61	261.11	16.33	
2025-01-10 13:15:30.63	261.36	16.36	
2025-01-10 13:15:31.66	261.62	16.39	
2025-01-10 13:15:32.69	261.88	16.42	
2025-01-10 13:15:33.72	262.14	16.44	
2025-01-10 13:15:34.75	262.40	16.47	
2025-01-10 13:15:35.77	262.66	16.50	
2025-01-10 13:15:36.80	262.92	16.52	
2025-01-10 13:15:37.82	263.18	16.55	
2025-01-10 13:15:38.85	263.44	16.57	
2025-01-10 13:15:39.88	263.71	16.59	
2025-01-10 13:15:40.90	263.97	16.62	
2025-01-10 13:15:41.93	264.23	16.64	
2025-01-10 13:15:42.95	264.49	16.66	
2025-01-10 13:15:43.98	264.76	16.68	
2025-01-10 13:15:45.01	265.02	16.70	
2025-01-10 13:15:46.04	265.29	16.72	
2025-01-10 13:15:47.06	265.55	16.74	
2025-01-10 13:15:48.09	265.82	16.76	
2025-01-10 13:15:49.12	266.08	16.78	
2025-01-10 13:15:50.16	266.35	16.80	
2025-01-10 13:15:51.18	266.62	16.82	
2025-01-10 13:15:52.21	266.89	16.84	
2025-01-10 13:15:53.25	267.16	16.85	
2025-01-10 13:15:54.27	267.42	16.87	
2025-01-10 13:15:55.30	267.69	16.88	
2025-01-10 13:15:56.32	267.96	16.90	
2025-01-10 13:15:57.35	268.22	16.91	
2025-01-10 13:15:58.38	268.49	16.93	
2025-01-10 13:15:59.42	268.76	16.94	
2025-01-10 13:16:00.46	269.04	16.95	
2025-01-10 13:16:01.48	269.30	16.97	
2025-01-10 13:16:02.51	269.57	16.98	
2025-01-10 13:16:03.54	269.84	16.99	
2025-01-10 13:16:04.56	270.11	17.00	
2025-01-10 13:16:05.59	270.38	17.01	
2025-01-10 13:16:06.61	270.65	17.02	
2025-01-10 13:16:07.64	270.92	17.03	
2025-01-10 13:16:08.66	271.19	17.03	
2025-01-10 13:16:09.69	271.46	17.04	
2025-01-10 13:16:10.73	271.74	17.05	
2025-01-10 13:16:11.76	272.01	17.05	
2025-01-10 13:16:12.79	272.28	17.06	
2025-01-10 13:16:13.82	272.55	17.07	
2025-01-10 13:16:14.84	272.82	17.07	
2025-01-10 13:16:15.88	273.09	17.07	
2025-01-10 13:16:16.91	273.36	17.08	
2025-01-10 13:16:17.94	273.64	17.08	
2025-01-10 13:16:18.97	273.91	17.08	
2025-01-10 13:16:19.99	274.18	17.08	
2025-01-10 13:16:21.02	274.45	17.08	
2025-01-10 13:16:22.05	274.72	17.08	
2025-01-10 13:16:23.07	274.99	17.08	
2025-01-10 13:16:24.10	275.26	17.08	
2025-01-10 13:16:25.13	275.53	17.08	
2025-01-10 13:16:26.16	275.81	17.08	
2025-01-10 13:16:27.19	276.08	17.08	
2025-01-10 13:16:28.21	276.35	17.07	
2025-01-10 13:16:29.23	276.62	17.07	
2025-01-10 13:16:30.25	276.89	17.07	
2025-01-10 13:16:31.28	277.16	17.06	
2025-01-10 13:16:32.31	277.43	17.06	
2025-01-10 13:16:33.33	277.70	17.05	
2025-01-10 13:16:34.36	277.97	17.04	
2025-01-10 13:16:35.38	278.24	17.04	
2025-01-10 13:16:36.40	278.50	17.03	
2025-01-10 13:16:37.43	278.78	17.02	
2025-01-10 13:16:38.45	279.04	17.01	
2025-01-10 13:16:39.48	279.31	17.00	
2025-01-10 13:16:40.51	279.58	16.99	
2025-01-10 13:16:41.53	279.85	16.98	
2025-01-10 13:16:42.55	280.12	16.97	
2025-01-10 13:16:43.58	280.39	16.96	
2025-01-10 13:16:44.61	280.66	16.94	
2025-01-10 13:16:45.63	280.92	16.93	
2025-01-10 13:16:46.66	281.19	16.92	
2025-01-10 13:16:47.69	281.46	16.90	
2025-01-10 13:16:48.71	281.73	16.89	
2025-01-10 13:16:49.74	281.99	16.87	
2025-01-10 13:16:50.77	282.26	16.86	
2025-01-10 13:16:51.80	282.53	16.84	
2025-01-10 13:16:52.84	282.80	16.82	
2025-01-10 13:16:53.88	283.07	16.81	
2025-01-10 13:16:54.90	283.33	16.79	
2025-01-10 13:16:55.93	283.60	16.77	
2025-01-10 13:16:56.95	283.86	16.75	
2025-01-10 13:16:57.98	284.13	16.73	
2025-01-10 13:16:59.00	284.39	16.71	
2025-01-10 13:16:55.47	283.48	16.78	
2025-01-10 13:16:56.51	283.75	16.76	
2025-01-10 13:16:57.54	284.01	16.74	
2025-01-10 13:16:58.56	284.28	16.72	
2025-01-10 13:16:59.59	284.54	16.70	
2025-01-10 13:17:00.62	284.81	16.68	
2025-01-10 13:17:01.64	285.07	16.66	
2025-01-10 13:17:02.67	285.33	16.63	
2025-01-10 13:17:03.69	285.59	16.61	
2025-01-10 13:17:04.72	285.85	16.59	
2025-01-10 13:17:05.76	286.12	16.57	
2025-01-10 13:17:06.78	286.38	16.54	
2025-01-10 13:17:07.81	286.64	16.52	
2025-01-10 13:17:08.84	286.90	16.49	
2025-01-10 13:17:09.87	287.16	16.47	
2025-01-10 13:17:10.90	287.42	16.44	
2025-01-10 13:17:11.92	287.68	16.41	
2025-01-10 13:17:12.95	287.94	16.39	
2025-01-10 13:17:13.97	288.19	16.36	
2025-01-10 13:17:15.00	288.45	16.33	
2025-01-10 13:17:16.03	288.71	16.30	
2025-01-10 13:17:17.05	288.96	16.27	
2025-01-10 13:17:18.08	289.22	16.24	
2025-01-10 13:17:19.10	289.47	16.21	
2025-01-10 13:17:20.13	289.73	16.18	
2025-01-10 13:17:21.15	289.98	16.15	
2025-01-10 13:17:22.18	290.23	16.12	
2025-01-10 13:17:23.21	290.49	16.09	
2025-01-10 13:17:24.23	290.74	16.05	
2025-01-10 13:17:25.26	290.99	16.02	
2025-01-10 13:17:26.28	291.24	15.99	
2025-01-10 13:17:27.31	291.49	15.95	
2025-01-10 13:17:28.33	291.74	15.92	
2025-01-10 13:17:29.36	291.99	15.89	
2025-01-10 13:17:30.38	292.24	15.85	
2025-01-10 13:17:31.42	292.49	15.81	
2025-01-10 13:17:32.47	292.74	15.78	
2025-01-10 13:17:33.51	292.99	15.74	
2025-01-10 13:17:34.53	293.24	15.70	
2025-01-10 13:17:35.55	293.48	15.67	
2025-01-10 13:17:36.58	293.73	15.63	
2025-01-10 13:17:37.60	293.97	15.59	
2025-01-10 13:17:38.64	294.22	15.55	
2025-01-10 13:17:39.68	294.46	15.51	
2025-01-10 13:17:40.71	294.70	15.47	
2025-01-10 13:17:41.73	294.94	15.43	
2025-01-10 13:17:42.76	295.19	15.39	
2025-01-10 13:17:43.79	295.43	15.35	
2025-01-10 13:17:44.82	295.67	15.31	
2025-01-10 13:17:45.84	295.90	15.27	
2025-01-10 13:17:46.87	296.14	15.23	
2025-01-10 13:17:47.89	296.38	15.19	
2025-01-10 13:17:48.92	296.62	15.15	
2025-01-10 13:17:49.95	296.85	15.10	
2025-01-10 13:17:50.97	297.09	15.06	
2025-01-10 13:17:52.00	297.32	15.02	
2025-01-10 13:17:53.02	297.56	14.97	
2025-01-10 13:17:54.05	297.79	14.93	
2025-01-10 13:17:55.08	298.02	14.89	
2025-01-10 13:17:56.11	298.26	14.84	
2025-01-10 13:17:57.13	298.48	14.80	
2025-01-10 13:17:58.16	298.72	14.75	
2025-01-10 13:17:59.19	298.95	14.71	
2025-01-10 13:18:00.21	299.17	14.66	
2025-01-10 13:18:01.24	299.40	14.61	
2025-01-10 13:18:02.26	299.63	14.57	
2025-01-10 13:18:03.29	299.86	14.52	
2025-01-10 13:18:04.31	300.08	14.47	
2025-01-10 13:18:05.34	300.31	14.43	
2025-01-10 13:18:06.36	300.53	14.38	
2025-01-10 13:18:07.38	300.75	14.33	
2025-01-10 13:18:08.40	300.97	14.28	
2025-01-10 13:18:09.43	301.20	14.23	
2025-01-10 13:18:10.46	301.42	14.19	
2025-01-10 13:18:11.49	301.64	14.14	
2025-01-10 13:18:12.51	301.86	14.09	
2025-01-10 13:18:13.54	302.08	14.04	
2025-01-10 13:18:14.57	302.30	13.99	
2025-01-10 13:18:15.59	302.51	13.94	
2025-01-10 13:18:16.62	302.73	13.89	
2025-01-10 13:18:17.65	302.95	13.84	
2025-01-10 13:18:18.67	303.16	13.79	
2025-01-10 13:18:19.70	303.37	13.74	
2025-01-10 13:18:20.73	303.59	13.68	
2025-01-10 13:18:21.76	303.80	13.63	
2025-01-10 13:18:22.79	304.02	13.58	
2025-01-10 13:18:23.81	304.23	13.53	
2025-01-10 13:18:24.84	304.44	13.48	
2025-01-10 13:18:25.87	304.65	13.42	
2025-01-10 13:18:26.89	304.85	13.37	
2025-01-10 13:18:27.92	305.06	13.32	
2025-01-10 13:18:28.95	305.27	13.27	
2025-01-10 13:18:29.97	305.48	13.21	
2025-01-10 13:18:31.00	305.68	13.16	
2025-01-10 13:18:32.02	305.89	13.11	
2025-01-10 13:18:33.05	306.09	13.05	
2025-01-10 13:18:34.08	306.30	13.00	
2025-01-10 13:18:35.11	306.50	12.94	
2025-01-10 13:18:36.13	306.70	12.89	
2025-01-10 13:18:37.15	306.90	12.84	
2025-01-10 13:18:38.18	307.10	12.78	
2025-01-10 13:18:39.21	307.30	12.73	
2025-01-10 13:18:40.24	307.50	12.67	
2025-01-10 13:18:41.27	307.70	12.62	
2025-01-10 13:18:42.30	307.90	12.56	
2025-01-10 13:18:43.33	308.09	12.51	
2025-01-10 13:18:44.35	308.29	12.45	
2025-01-10 13:18:45.38	308.48	12.40	
2025-01-10 13:18:46.41	308.68	12.34	
2025-01-10 13:18:47.45	308.88	12.28	
2025-01-10 13:18:48.48	309.07	12.23	
2025-01-10 13:18:49.51	309.26	12.17	
2025-01-10 13:18:50.53	309.45	12.11	
2025-01-10 13:18:51.56	309.64	12.06	
2025-01-10 13:18:52.59	309.83	12.00	
2025-01-10 13:18:53.62	310.02	11.94	
2025-01-10 13:18:54.64	310.21	11.89	
2025-01-10 13:18:55.67	310.40	11.83	
2025-01-10 13:18:56.70	310.58	11.77	
2025-01-10 13:18:57.72	310.77	11.72	
2025-01-10 13:18:58.76	310.96	11.66	
2025-01-10 13:18:59.80	311.14	11.60	
2025-01-10 13:19:00.84	311.33	11.54	
2025-01-10 13:19:01.87	311.51	11.48	
2025-01-10 13:19:02.90	311.69	11.43	
2025-01-10 13:19:03.93	311.88	11.37	
2025-01-10 13:19:04.95	312.06	11.31	
2025-01-10 13:19:05.98	312.24	11.25	
2025-01-10 13:19:07.00	312.41	11.20	
2025-01-10 13:19:08.03	312.59	11.14	
2025-01-10 13:19:09.06	312.77	11.08	
2025-01-10 13:19:10.08	312.95	11.02	
2025-01-10 13:19:11.11	313.12	10.96	
2025-01-10 13:19:12.14	313.30	10.90	
2025-01-10 13:19:13.16	313.47	10.85	
2025-01-10 13:19:14.19	313.65	10.79	
2025-01-10 13:19:15.21	313.82	10.73	
2025-01-10 13:19:16.24	313.99	10.67	
2025-01-10 13:19:17.27	314.16	10.61	
2025-01-10 13:19:18.30	314.34	10.55	
2025-01-10 13:19:19.32	314.50	10.49	
2025-01-10 13:19:20.36	314.68	10.43	
2025-01-10 13:19:21.38	314.84	10.38	
2025-01-10 13:19:22.41	315.01	10.32	
2025-01-10 13:19:23.44	315.18	10.26	
2025-01-10 13:19:24.46	315.35	10.20	
2025-01-10 13:19:25.49	315.51	10.14	
2025-01-10 13:19:26.51	315.68	10.08	
2025-01-10 13:19:27.54	315.84	10.02	
2025-01-10 13:19:28.58	316.01	9.96	
2025-01-10 13:19:29.60	316.17	9.90	
2025-01-10 13:19:30.63	316.33	9.84	
2025-01-10 13:19:31.66	316.50	9.78	
2025-01-10 13:19:32.70	316.66	9.72	
2025-01-10 13:19:33.73	316.82	9.66	
2025-01-10 13:19:34.75	316.98	9.61	
2025-01-10 13:19:35.78	317.14	9.55	
2025-01-10 13:19:36.82	317.30	9.49	
2025-01-10 13:19:37.85	317.46	9.43	
2025-01-10 13:19:38.87	317.61	9.37	
2025-01-10 13:19:39.92	317.77	9.31	
2025-01-10 13:19:40.94	317.93	9.25	
2025-01-10 13:19:41.97	318.08	9.19	
2025-01-10 13:19:43.00	318.24	9.13	
2025-01-10 13:19:44.02	318.39	9.07	
2025-01-10 13:19:45.06	318.54	9.01	
2025-01-10 13:19:46.08	318.70	8.95	
2025-01-10 13:19:47.11	318.85	8.89	
2025-01-10 13:19:48.14	319.00	8.83	
2025-01-10 13:19:49.16	319.15	8.77	
2025-01-10 13:19:50.19	319.30	8.71	
2025-01-10 13:19:51.22	319.45	8.65	
2025-01-10 13:19:52.25	319.60	8.59	
2025-01-10 13:19:53.28	319.75	8.53	
2025-01-10 13:19:54.30	319.89	8.47	
2025-01-10 13:19:55.33	320.04	8.41	
2025-01-10 13:19:56.36	320.19	8.35	
2025-01-10 13:19:57.39	320.33	8.29	
2025-01-10 13:19:58.42	320.48	8.23	
2025-01-10 13:19:59.44	320.62	8.17	
2025-01-10 13:20:00.47	320.76	8.11	
2025-01-10 13:20:01.50	320.91	8.06	
2025-01-10 13:20:02.52	321.05	8.00	
2025-01-10 13:20:03.55	321.19	7.94	
2025-01-10 13:20:04.58	321.33	7.88	
2025-01-10 13:20:05.60	321.47	7.82	
2025-01-10 13:20:06.63	321.61	7.76	
2025-01-10 13:20:07.67	321.75	7.70	
2025-01-10 13:20:08.70	321.89	7.64	
2025-01-10 13:20:09.72	322.03	7.58	
2025-01-10 13:20:10.75	322.17	7.52	
2025-01-10 13:20:11.77	322.30	7.46	
2025-01-10 13:20:12.80	322.44	7.40	
2025-01-10 13:20:13.82	322.58	7.34	
2025-01-10 13:20:14.85	322.71	7.28	
2025-01-10 13:20:15.88	322.85	7.22	
2025-01-10 13:20:16.92	322.98	7.16	
2025-01-10 13:20:17.94	323.12	7.11	
2025-01-10 13:20:18.97	323.25	7.05	
2025-01-10 13:20:19.99	323.38	6.99	
2025-01-10 13:20:21.02	323.51	6.93	
2025-01-10 13:20:22.07	323.65	6.87	
2025-01-10 13:20:23.10	323.78	6.81	
2025-01-10 13:20:24.12	323.91	6.75	
2025-01-10 13:20:25.15	324.04	6.69	
2025-01-10 13:20:26.18	324.17	6.63	
2025-01-10 13:20:27.21	324.29	6.57	
2025-01-10 13:20:28.23	324.42	6.52	
2025-01-10 13:20:29.26	324.55	6.46	
2025-01-10 13:20:30.29	324.68	6.40	
2025-01-10 13:20:31.33	324.81	6.34	
2025-01-10 13:20:32.36	324.93	6.28	
2025-01-10 13:20:33.38	325.06	6.22	
2025-01-10 13:20:34.42	325.18	6.16	
2025-01-10 13:20:35.45	325.31	6.10	
2025-01-10 13:20:36.48	325.43	6.04	
2025-01-10 13:20:37.50	325.55	5.99	
2025-01-10 13:20:38.53	325.68	5.93	
2025-01-10 13:20:39.56	325.80	5.87	
2025-01-10 13:20:40.59	325.92	5.81	
2025-01-10 13:20:41.62	326.04	5.75	
2025-01-10 13:20:42.65	326.16	5.69	
2025-01-10 13:20:43.67	326.28	5.64	
2025-01-10 13:20:44.71	326.40	5.58	
2025-01-10 13:20:45.75	326.52	5.52	
2025-01-10 13:20:46.78	326.64	5.46	
2025-01-10 13:20:47.80	326.76	5.40	
2025-01-10 13:20:48.83	326.88	5.34	
2025-01-10 13:20:49.85	327.00	5.29	
2025-01-10 13:20:50.88	327.11	5.23	
2025-01-10 13:20:51.91	327.23	5.17	
2025-01-10 13:20:52.93	327.34	5.11	
2025-01-10 13:20:53.96	327.46	5.06	
2025-01-10 13:20:54.99	327.57	5.00	
2025-01-10 13:20:56.02	327.69	4.94	
2025-01-10 13:20:57.06	327.80	4.88	
2025-01-10 13:20:58.08	327.92	4.83	
2025-01-10 13:20:59.11	328.03	4.77	
2025-01-10 13:21:00.15	328.14	4.71	
2025-01-10 13:21:01.17	328.26	4.65	
2025-01-10 13:21:02.20	328.37	4.60	
2025-01-10 13:21:03.23	328.48	4.54	
2025-01-10 13:21:04.26	328.59	4.48	
2025-01-10 13:21:05.28	328.70	4.42	
2025-01-10 13:21:06.32	328.81	4.37	
2025-01-10 13:21:07.36	328.92	4.31	
2025-01-10 13:21:08.39	329.03	4.25	
2025-01-10 13:21:09.41	329.14	4.20	
2025-01-10 13:21:10.44	329.25	4.14	
2025-01-10 13:21:11.47	329.35	4.08	
2025-01-10 13:21:12.49	329.46	4.03	

#Closed at: 2025-01-10 13:21:13