passes_logs/2025/01/10/SPB_Silybum_02/SPB_Silybum_02__20250110_095537_AQUA_rec.log

#Pass ID: 20250110_095537_AQUA
#Satellite: AQUA
#Configuration: AQUA
#Start time: 2025-01-10 09:55:37

#Version: 2.0.20230423
#Station: SPB_Silybum_02
#Location: 30.233357 lon 59.946436 lat
#TLE: 1 27424U 02022A   25009.33792655  .00001838  00000+0  38750-3 0  9996
#TLE: 2 27424  98.3576 325.9512 0001516 117.1765  36.3916 14.60660973206791

#Time	Az	El	Level	Level2	SNR	BER	Gain	Gain2
2025-01-10 09:55:39.66	115.79	4.14	
2025-01-10 09:55:40.89	115.70	4.22	
2025-01-10 09:55:42.12	115.61	4.30	
2025-01-10 09:55:43.35	115.52	4.38	
2025-01-10 09:55:44.58	115.43	4.46	
2025-01-10 09:55:45.81	115.34	4.54	
2025-01-10 09:55:47.04	115.25	4.62	
2025-01-10 09:55:48.27	115.15	4.70	
2025-01-10 09:55:49.50	115.06	4.78	
2025-01-10 09:55:50.73	114.97	4.87	
2025-01-10 09:55:51.97	114.87	4.95	
2025-01-10 09:55:53.20	114.78	5.03	
2025-01-10 09:55:54.43	114.68	5.11	
2025-01-10 09:55:55.66	114.58	5.20	
2025-01-10 09:55:56.89	114.49	5.28	
2025-01-10 09:55:58.12	114.39	5.36	
2025-01-10 09:55:59.35	114.29	5.45	
2025-01-10 09:56:00.58	114.19	5.53	
2025-01-10 09:56:01.81	114.09	5.61	
2025-01-10 09:56:03.04	113.99	5.70	
2025-01-10 09:56:04.29	113.89	5.78	
2025-01-10 09:56:05.53	113.79	5.87	
2025-01-10 09:56:06.76	113.68	5.95	
2025-01-10 09:56:07.99	113.58	6.04	
2025-01-10 09:56:09.22	113.48	6.12	
2025-01-10 09:56:10.46	113.37	6.21	
2025-01-10 09:56:11.69	113.27	6.29	
2025-01-10 09:56:12.93	113.16	6.38	
2025-01-10 09:56:14.16	113.06	6.47	
2025-01-10 09:56:15.40	112.95	6.55	
2025-01-10 09:56:16.63	112.84	6.64	
2025-01-10 09:56:17.87	112.73	6.73	
2025-01-10 09:56:19.11	112.62	6.81	
2025-01-10 09:56:20.34	112.51	6.90	
2025-01-10 09:56:21.57	112.40	6.99	
2025-01-10 09:56:22.80	112.29	7.08	
2025-01-10 09:56:24.03	112.18	7.17	
2025-01-10 09:56:25.26	112.06	7.25	
2025-01-10 09:56:26.49	111.95	7.34	
2025-01-10 09:56:27.72	111.84	7.43	
2025-01-10 09:56:28.96	111.72	7.52	
2025-01-10 09:56:30.19	111.60	7.61	
2025-01-10 09:56:31.42	111.49	7.70	
2025-01-10 09:56:32.65	111.37	7.79	
2025-01-10 09:56:33.88	111.25	7.88	
2025-01-10 09:56:35.11	111.13	7.97	
2025-01-10 09:56:36.36	111.01	8.06	
2025-01-10 09:56:37.60	110.89	8.15	
2025-01-10 09:56:38.83	110.77	8.24	
2025-01-10 09:56:40.07	110.64	8.33	
2025-01-10 09:56:41.31	110.52	8.43	
2025-01-10 09:56:42.54	110.39	8.52	
2025-01-10 09:56:43.77	110.27	8.61	
2025-01-10 09:56:45.00	110.14	8.70	
2025-01-10 09:56:46.23	110.02	8.79	
2025-01-10 09:56:47.47	109.89	8.89	
2025-01-10 09:56:48.70	109.76	8.98	
2025-01-10 09:56:49.93	109.63	9.07	
2025-01-10 09:56:51.16	109.50	9.17	
2025-01-10 09:56:52.39	109.37	9.26	
2025-01-10 09:56:53.62	109.23	9.35	
2025-01-10 09:56:54.86	109.10	9.45	
2025-01-10 09:56:56.09	108.97	9.54	
2025-01-10 09:56:57.33	108.83	9.64	
2025-01-10 09:56:58.56	108.69	9.73	
2025-01-10 09:56:59.79	108.56	9.83	
2025-01-10 09:57:01.02	108.42	9.92	
2025-01-10 09:57:02.25	108.28	10.02	
2025-01-10 09:57:03.50	108.14	10.12	
2025-01-10 09:57:04.73	107.99	10.21	
2025-01-10 09:57:05.96	107.85	10.31	
2025-01-10 09:57:07.20	107.71	10.41	
2025-01-10 09:57:08.43	107.56	10.50	
2025-01-10 09:57:09.66	107.42	10.60	
2025-01-10 09:57:10.91	107.27	10.70	
2025-01-10 09:57:12.15	107.12	10.80	
2025-01-10 09:57:13.38	106.97	10.90	
2025-01-10 09:57:14.62	106.82	11.00	
2025-01-10 09:57:15.86	106.67	11.09	
2025-01-10 09:57:17.09	106.52	11.19	
2025-01-10 09:57:18.32	106.36	11.29	
2025-01-10 09:57:19.55	106.21	11.39	
2025-01-10 09:57:20.78	106.05	11.49	
2025-01-10 09:57:22.01	105.90	11.59	
2025-01-10 09:57:23.24	105.74	11.69	
2025-01-10 09:57:24.47	105.58	11.79	
2025-01-10 09:57:25.70	105.42	11.89	
2025-01-10 09:57:26.94	105.26	11.99	
2025-01-10 09:57:28.18	105.09	12.09	
2025-01-10 09:57:29.41	104.93	12.20	
2025-01-10 09:57:30.64	104.77	12.30	
2025-01-10 09:57:31.87	104.60	12.40	
2025-01-10 09:57:33.10	104.43	12.50	
2025-01-10 09:57:34.33	104.26	12.60	
2025-01-10 09:57:35.56	104.09	12.71	
2025-01-10 09:57:36.81	103.92	12.81	
2025-01-10 09:57:38.07	103.74	12.92	
2025-01-10 09:57:39.30	103.57	13.02	
2025-01-10 09:57:40.53	103.39	13.12	
2025-01-10 09:57:41.76	103.22	13.23	
2025-01-10 09:57:42.99	103.04	13.33	
2025-01-10 09:57:44.22	102.86	13.43	
2025-01-10 09:57:45.45	102.68	13.54	
2025-01-10 09:57:46.69	102.49	13.64	
2025-01-10 09:57:47.92	102.31	13.75	
2025-01-10 09:57:49.15	102.13	13.85	
2025-01-10 09:57:50.38	101.94	13.96	
2025-01-10 09:57:51.61	101.75	14.06	
2025-01-10 09:57:52.84	101.56	14.17	
2025-01-10 09:57:54.08	101.37	14.28	
2025-01-10 09:57:55.32	101.18	14.38	
2025-01-10 09:57:56.55	100.98	14.49	
2025-01-10 09:57:57.78	100.79	14.59	
2025-01-10 09:57:59.02	100.59	14.70	
2025-01-10 09:58:00.24	100.39	14.81	
2025-01-10 09:58:01.49	100.19	14.92	
2025-01-10 09:58:02.72	99.99	15.02	
2025-01-10 09:58:03.97	99.78	15.13	
2025-01-10 09:58:05.20	99.58	15.24	
2025-01-10 09:58:06.43	99.37	15.35	
2025-01-10 09:58:07.66	99.16	15.46	
2025-01-10 09:58:08.91	98.95	15.57	
2025-01-10 09:58:10.15	98.74	15.67	
2025-01-10 09:58:11.39	98.52	15.78	
2025-01-10 09:58:12.62	98.31	15.89	
2025-01-10 09:58:13.85	98.09	16.00	
2025-01-10 09:58:15.08	97.87	16.11	
2025-01-10 09:58:16.31	97.65	16.22	
2025-01-10 09:58:17.54	97.43	16.33	
2025-01-10 09:58:18.77	97.21	16.44	
2025-01-10 09:58:20.01	96.98	16.55	
2025-01-10 09:58:21.25	96.76	16.66	
2025-01-10 09:58:22.49	96.53	16.77	
2025-01-10 09:58:23.71	96.30	16.88	
2025-01-10 09:58:24.94	96.07	16.99	
2025-01-10 09:58:26.17	95.83	17.10	
2025-01-10 09:58:27.40	95.60	17.20	
2025-01-10 09:58:28.63	95.36	17.31	
2025-01-10 09:58:29.86	95.12	17.42	
2025-01-10 09:58:31.09	94.88	17.53	
2025-01-10 09:58:32.33	94.63	17.65	
2025-01-10 09:58:33.56	94.39	17.76	
2025-01-10 09:58:34.79	94.14	17.87	
2025-01-10 09:58:36.02	93.89	17.98	
2025-01-10 09:58:37.25	93.64	18.09	
2025-01-10 09:58:38.48	93.39	18.19	
2025-01-10 09:58:39.71	93.14	18.30	
2025-01-10 09:58:40.95	92.88	18.42	
2025-01-10 09:58:42.18	92.62	18.53	
2025-01-10 09:58:43.41	92.36	18.64	
2025-01-10 09:58:44.64	92.10	18.75	
2025-01-10 09:58:45.87	91.83	18.85	
2025-01-10 09:58:47.10	91.57	18.96	
2025-01-10 09:58:48.35	91.29	19.08	
2025-01-10 09:58:49.58	91.02	19.19	
2025-01-10 09:58:50.81	90.75	19.29	
2025-01-10 09:58:52.05	90.47	19.40	
2025-01-10 09:58:53.29	90.19	19.51	
2025-01-10 09:58:54.52	89.92	19.62	
2025-01-10 09:58:55.75	89.63	19.73	
2025-01-10 09:58:56.98	89.35	19.84	
2025-01-10 09:58:58.21	89.07	19.95	
2025-01-10 09:58:59.45	88.78	20.06	
2025-01-10 09:59:00.68	88.49	20.17	
2025-01-10 09:59:01.91	88.20	20.27	
2025-01-10 09:59:03.14	87.90	20.38	
2025-01-10 09:59:04.39	87.60	20.49	
2025-01-10 09:59:05.62	87.30	20.60	
2025-01-10 09:59:06.85	87.00	20.70	
2025-01-10 09:59:08.09	86.70	20.81	
2025-01-10 09:59:09.33	86.39	20.92	
2025-01-10 09:59:10.57	86.08	21.02	
2025-01-10 09:59:11.80	85.77	21.13	
2025-01-10 09:59:13.03	85.46	21.23	
2025-01-10 09:59:14.26	85.14	21.34	
2025-01-10 09:59:15.49	84.83	21.44	
2025-01-10 09:59:16.73	84.51	21.55	
2025-01-10 09:59:17.96	84.19	21.65	
2025-01-10 09:59:19.19	83.86	21.75	
2025-01-10 09:59:20.43	83.54	21.86	
2025-01-10 09:59:21.66	83.21	21.96	
2025-01-10 09:59:22.89	82.88	22.06	
2025-01-10 09:59:24.13	82.54	22.16	
2025-01-10 09:59:25.36	82.21	22.26	
2025-01-10 09:59:26.59	81.87	22.36	
2025-01-10 09:59:27.82	81.53	22.46	
2025-01-10 09:59:29.05	81.19	22.56	
2025-01-10 09:59:30.28	80.85	22.65	
2025-01-10 09:59:31.51	80.50	22.75	
2025-01-10 09:59:32.74	80.16	22.85	
2025-01-10 09:59:33.99	79.80	22.94	
2025-01-10 09:59:35.22	79.45	23.04	
2025-01-10 09:59:36.47	79.09	23.13	
2025-01-10 09:59:37.70	78.73	23.23	
2025-01-10 09:59:38.93	78.37	23.32	
2025-01-10 09:59:40.16	78.01	23.41	
2025-01-10 09:59:41.39	77.65	23.50	
2025-01-10 09:59:42.62	77.28	23.59	
2025-01-10 09:59:43.85	76.92	23.68	
2025-01-10 09:59:45.09	76.54	23.77	
2025-01-10 09:59:46.33	76.17	23.86	
2025-01-10 09:59:47.56	75.79	23.94	
2025-01-10 09:59:48.79	75.42	24.03	
2025-01-10 09:59:50.02	75.04	24.11	
2025-01-10 09:59:51.25	74.66	24.19	
2025-01-10 09:59:52.48	74.27	24.28	
2025-01-10 09:59:53.72	73.89	24.36	
2025-01-10 09:59:54.95	73.50	24.44	
2025-01-10 09:59:56.18	73.11	24.52	
2025-01-10 09:59:57.42	72.72	24.59	
2025-01-10 09:59:58.65	72.32	24.67	
2025-01-10 09:59:59.88	71.93	24.75	
2025-01-10 10:00:01.11	71.53	24.82	
2025-01-10 10:00:02.34	71.13	24.89	
2025-01-10 10:00:03.59	70.72	24.97	
2025-01-10 10:00:04.82	70.32	25.04	
2025-01-10 10:00:06.05	69.92	25.10	
2025-01-10 10:00:07.28	69.51	25.17	
2025-01-10 10:00:08.52	69.10	25.24	
2025-01-10 10:00:09.75	68.69	25.30	
2025-01-10 10:00:10.97	68.28	25.37	
2025-01-10 10:00:12.20	67.87	25.43	
2025-01-10 10:00:13.44	67.45	25.49	
2025-01-10 10:00:14.67	67.03	25.55	
2025-01-10 10:00:15.91	66.61	25.61	
2025-01-10 10:00:17.14	66.19	25.66	
2025-01-10 10:00:18.37	65.77	25.72	
2025-01-10 10:00:19.60	65.35	25.77	
2025-01-10 10:00:20.83	64.92	25.82	
2025-01-10 10:00:22.06	64.50	25.87	
2025-01-10 10:00:23.30	64.07	25.92	
2025-01-10 10:00:24.54	63.63	25.97	
2025-01-10 10:00:25.77	63.20	26.01	
2025-01-10 10:00:27.00	62.77	26.06	
2025-01-10 10:00:28.24	62.34	26.10	
2025-01-10 10:00:29.47	61.90	26.14	
2025-01-10 10:00:30.70	61.47	26.18	
2025-01-10 10:00:31.93	61.03	26.21	
2025-01-10 10:00:33.17	60.59	26.25	
2025-01-10 10:00:34.42	60.15	26.28	
2025-01-10 10:00:35.65	59.71	26.32	
2025-01-10 10:00:36.88	59.27	26.35	
2025-01-10 10:00:38.12	58.83	26.37	
2025-01-10 10:00:39.35	58.39	26.40	
2025-01-10 10:00:40.59	57.94	26.43	
2025-01-10 10:00:41.82	57.50	26.45	
2025-01-10 10:00:43.05	57.06	26.47	
2025-01-10 10:00:44.29	56.61	26.49	
2025-01-10 10:00:45.52	56.17	26.51	
2025-01-10 10:00:46.74	55.72	26.52	
2025-01-10 10:00:47.98	55.28	26.53	
2025-01-10 10:00:49.21	54.83	26.55	
2025-01-10 10:00:50.47	54.37	26.56	
2025-01-10 10:00:51.70	53.93	26.56	
2025-01-10 10:00:52.93	53.48	26.57	
2025-01-10 10:00:54.17	53.03	26.57	
2025-01-10 10:00:55.41	52.58	26.58	
2025-01-10 10:00:56.64	52.14	26.58	
2025-01-10 10:00:57.87	51.69	26.58	
2025-01-10 10:00:59.10	51.24	26.57	
2025-01-10 10:01:00.33	50.80	26.57	
2025-01-10 10:01:01.57	50.35	26.56	
2025-01-10 10:01:02.81	49.90	26.55	
2025-01-10 10:01:04.04	49.45	26.54	
2025-01-10 10:01:05.29	49.00	26.53	
2025-01-10 10:01:06.52	48.56	26.52	
2025-01-10 10:01:07.75	48.11	26.50	
2025-01-10 10:01:08.98	47.67	26.48	
2025-01-10 10:01:10.22	47.22	26.46	
2025-01-10 10:01:11.46	46.78	26.44	
2025-01-10 10:01:12.70	46.33	26.42	
2025-01-10 10:01:13.94	45.89	26.39	
2025-01-10 10:01:15.17	45.45	26.36	
2025-01-10 10:01:16.40	45.01	26.34	
2025-01-10 10:01:17.65	44.56	26.30	
2025-01-10 10:01:18.88	44.12	26.27	
2025-01-10 10:01:20.13	43.68	26.24	
2025-01-10 10:01:21.36	43.24	26.20	
2025-01-10 10:01:22.59	42.81	26.16	
2025-01-10 10:01:23.83	42.37	26.13	
2025-01-10 10:01:25.06	41.94	26.08	
2025-01-10 10:01:26.29	41.51	26.04	
2025-01-10 10:01:27.54	41.07	26.00	
2025-01-10 10:01:28.78	40.64	25.95	
2025-01-10 10:01:30.00	40.21	25.90	
2025-01-10 10:01:31.24	39.79	25.85	
2025-01-10 10:01:32.47	39.36	25.80	
2025-01-10 10:01:33.70	38.94	25.75	
2025-01-10 10:01:34.93	38.52	25.70	
2025-01-10 10:01:36.16	38.10	25.64	
2025-01-10 10:01:37.39	37.68	25.59	
2025-01-10 10:01:38.64	37.25	25.53	
2025-01-10 10:01:39.88	36.84	25.47	
2025-01-10 10:01:41.11	36.42	25.41	
2025-01-10 10:01:42.34	36.01	25.34	
2025-01-10 10:01:43.57	35.60	25.28	
2025-01-10 10:01:44.80	35.19	25.22	
2025-01-10 10:01:46.05	34.78	25.15	
2025-01-10 10:01:47.28	34.37	25.08	
2025-01-10 10:01:48.51	33.97	25.01	
2025-01-10 10:01:49.74	33.57	24.94	
2025-01-10 10:01:50.97	33.17	24.87	
2025-01-10 10:01:52.22	32.77	24.79	
2025-01-10 10:01:53.46	32.37	24.72	
2025-01-10 10:01:54.70	31.97	24.64	
2025-01-10 10:01:55.93	31.58	24.57	
2025-01-10 10:01:57.17	31.19	24.49	
2025-01-10 10:01:58.40	30.80	24.41	
2025-01-10 10:01:59.63	30.42	24.33	
2025-01-10 10:02:00.88	30.03	24.25	
2025-01-10 10:02:02.10	29.65	24.16	
2025-01-10 10:02:03.34	29.27	24.08	
2025-01-10 10:02:04.58	28.89	24.00	
2025-01-10 10:02:05.81	28.51	23.91	
2025-01-10 10:02:07.05	28.14	23.82	
2025-01-10 10:02:08.29	27.77	23.74	
2025-01-10 10:02:09.52	27.40	23.65	
2025-01-10 10:02:10.75	27.03	23.56	
2025-01-10 10:02:11.98	26.67	23.47	
2025-01-10 10:02:13.21	26.31	23.38	
2025-01-10 10:02:14.44	25.95	23.29	
2025-01-10 10:02:15.67	25.59	23.19	
2025-01-10 10:02:16.90	25.24	23.10	
2025-01-10 10:02:18.14	24.88	23.01	
2025-01-10 10:02:19.37	24.53	22.91	
2025-01-10 10:02:20.60	24.18	22.82	
2025-01-10 10:02:21.83	23.84	22.72	
2025-01-10 10:02:23.06	23.49	22.62	
2025-01-10 10:02:24.29	23.15	22.53	
2025-01-10 10:02:25.53	22.81	22.43	
2025-01-10 10:02:26.77	22.47	22.33	
2025-01-10 10:02:28.00	22.14	22.23	
2025-01-10 10:02:29.24	21.80	22.13	
2025-01-10 10:02:30.47	21.47	22.03	
2025-01-10 10:02:31.70	21.15	21.93	
2025-01-10 10:02:32.93	20.82	21.83	
2025-01-10 10:02:34.16	20.50	21.72	
2025-01-10 10:02:35.39	20.18	21.62	
2025-01-10 10:02:36.63	19.86	21.52	
2025-01-10 10:02:37.86	19.54	21.41	
2025-01-10 10:02:39.09	19.23	21.31	
2025-01-10 10:02:40.32	18.91	21.21	
2025-01-10 10:02:41.54	18.61	21.10	
2025-01-10 10:02:42.79	18.29	21.00	
2025-01-10 10:02:44.01	17.99	20.89	
2025-01-10 10:02:45.24	17.69	20.79	
2025-01-10 10:02:46.47	17.39	20.68	
2025-01-10 10:02:47.70	17.09	20.57	
2025-01-10 10:02:48.93	16.79	20.47	
2025-01-10 10:02:50.17	16.50	20.36	
2025-01-10 10:02:51.40	16.21	20.25	
2025-01-10 10:02:52.65	15.91	20.14	
2025-01-10 10:02:53.88	15.62	20.04	
2025-01-10 10:02:55.11	15.34	19.93	
2025-01-10 10:02:56.34	15.06	19.82	
2025-01-10 10:02:57.57	14.77	19.71	
2025-01-10 10:02:58.80	14.50	19.60	
2025-01-10 10:03:00.04	14.22	19.49	
2025-01-10 10:03:01.27	13.94	19.39	
2025-01-10 10:03:02.50	13.67	19.28	
2025-01-10 10:03:03.73	13.40	19.17	
2025-01-10 10:03:04.96	13.13	19.06	
2025-01-10 10:03:06.20	12.86	18.95	
2025-01-10 10:03:07.44	12.59	18.84	
2025-01-10 10:03:08.67	12.33	18.73	
2025-01-10 10:03:09.90	12.07	18.62	
2025-01-10 10:03:11.14	11.81	18.51	
2025-01-10 10:03:12.37	11.55	18.40	
2025-01-10 10:03:13.60	11.30	18.29	
2025-01-10 10:03:14.83	11.05	18.18	
2025-01-10 10:03:16.08	10.79	18.07	
2025-01-10 10:03:17.32	10.54	17.96	
2025-01-10 10:03:18.55	10.30	17.85	
2025-01-10 10:03:19.78	10.05	17.74	
2025-01-10 10:03:21.01	9.81	17.63	
2025-01-10 10:03:22.24	9.57	17.52	
2025-01-10 10:03:23.47	9.33	17.41	
2025-01-10 10:03:24.70	9.09	17.30	
2025-01-10 10:03:25.93	8.86	17.19	
2025-01-10 10:03:27.18	8.62	17.08	
2025-01-10 10:03:28.42	8.39	16.97	
2025-01-10 10:03:29.66	8.15	16.86	
2025-01-10 10:03:30.89	7.93	16.75	
2025-01-10 10:03:32.12	7.70	16.65	
2025-01-10 10:03:33.35	7.48	16.54	
2025-01-10 10:03:34.58	7.25	16.43	
2025-01-10 10:03:35.81	7.03	16.32	
2025-01-10 10:03:37.05	6.81	16.21	
2025-01-10 10:03:38.28	6.59	16.10	
2025-01-10 10:03:39.51	6.38	15.99	
2025-01-10 10:03:40.75	6.16	15.88	
2025-01-10 10:03:41.98	5.95	15.78	
2025-01-10 10:03:43.21	5.74	15.67	
2025-01-10 10:03:44.45	5.53	15.56	
2025-01-10 10:03:45.68	5.32	15.45	
2025-01-10 10:03:46.92	5.11	15.34	
2025-01-10 10:03:48.15	4.91	15.24	
2025-01-10 10:03:49.39	4.70	15.13	
2025-01-10 10:03:50.63	4.50	15.02	
2025-01-10 10:03:51.86	4.30	14.92	
2025-01-10 10:03:53.09	4.10	14.81	
2025-01-10 10:03:54.32	3.91	14.70	
2025-01-10 10:03:55.56	3.71	14.60	
2025-01-10 10:03:56.80	3.51	14.49	
2025-01-10 10:03:58.03	3.32	14.38	
2025-01-10 10:03:59.27	3.13	14.28	
2025-01-10 10:04:00.49	2.94	14.17	
2025-01-10 10:04:01.72	2.76	14.07	
2025-01-10 10:04:02.96	2.57	13.96	
2025-01-10 10:04:04.19	2.38	13.86	
2025-01-10 10:04:05.42	2.20	13.75	
2025-01-10 10:04:06.67	2.02	13.65	
2025-01-10 10:04:07.91	1.83	13.54	
2025-01-10 10:04:09.15	1.65	13.44	
2025-01-10 10:04:10.39	1.47	13.33	
2025-01-10 10:04:11.63	1.30	13.23	
2025-01-10 10:04:12.86	1.12	13.13	
2025-01-10 10:04:14.09	0.95	13.02	
2025-01-10 10:04:15.32	0.78	12.92	
2025-01-10 10:04:16.55	0.60	12.82	
2025-01-10 10:04:17.78	0.43	12.72	
2025-01-10 10:04:19.01	0.27	12.61	
2025-01-10 10:04:20.24	0.10	12.51	
2025-01-10 10:04:21.48	359.93	12.41	
2025-01-10 10:04:22.70	359.77	12.31	
2025-01-10 10:04:23.94	359.60	12.21	
2025-01-10 10:04:25.16	359.44	12.11	
2025-01-10 10:04:26.39	359.28	12.01	
2025-01-10 10:04:27.63	359.12	11.91	
2025-01-10 10:04:28.86	358.96	11.81	
2025-01-10 10:04:30.09	358.81	11.71	
2025-01-10 10:04:31.32	358.65	11.61	
2025-01-10 10:04:32.56	358.49	11.51	
2025-01-10 10:04:33.81	358.34	11.41	
2025-01-10 10:04:35.04	358.18	11.31	
2025-01-10 10:04:36.28	358.03	11.21	
2025-01-10 10:04:37.51	357.88	11.11	
2025-01-10 10:04:38.74	357.73	11.01	
2025-01-10 10:04:39.97	357.58	10.91	
2025-01-10 10:04:41.20	357.44	10.82	
2025-01-10 10:04:42.44	357.29	10.72	
2025-01-10 10:04:43.67	357.14	10.62	
2025-01-10 10:04:44.91	357.00	10.52	
2025-01-10 10:04:46.13	356.86	10.43	
2025-01-10 10:04:47.36	356.72	10.33	
2025-01-10 10:04:48.60	356.57	10.24	
2025-01-10 10:04:49.82	356.44	10.14	
2025-01-10 10:04:51.05	356.30	10.05	
2025-01-10 10:04:52.28	356.16	9.95	
2025-01-10 10:04:53.51	356.02	9.86	
2025-01-10 10:04:54.74	355.89	9.76	
2025-01-10 10:04:55.98	355.75	9.67	
2025-01-10 10:04:57.21	355.62	9.57	
2025-01-10 10:04:58.44	355.48	9.48	
2025-01-10 10:04:59.68	355.35	9.38	
2025-01-10 10:05:00.91	355.22	9.29	
2025-01-10 10:05:02.14	355.09	9.20	
2025-01-10 10:05:03.37	354.96	9.10	
2025-01-10 10:05:04.60	354.83	9.01	
2025-01-10 10:05:05.84	354.70	8.92	
2025-01-10 10:05:07.08	354.58	8.82	
2025-01-10 10:05:08.31	354.45	8.73	
2025-01-10 10:05:09.54	354.33	8.64	
2025-01-10 10:05:10.77	354.20	8.55	
2025-01-10 10:05:12.01	354.08	8.46	
2025-01-10 10:05:13.23	353.96	8.37	
2025-01-10 10:05:14.46	353.84	8.28	
2025-01-10 10:05:15.70	353.72	8.19	
2025-01-10 10:05:16.93	353.60	8.10	
2025-01-10 10:05:18.16	353.48	8.01	
2025-01-10 10:05:19.40	353.36	7.91	
2025-01-10 10:05:20.63	353.24	7.83	
2025-01-10 10:05:21.86	353.13	7.74	
2025-01-10 10:05:23.09	353.01	7.65	
2025-01-10 10:05:24.33	352.90	7.56	
2025-01-10 10:05:25.57	352.78	7.47	
2025-01-10 10:05:26.82	352.67	7.38	
2025-01-10 10:05:28.05	352.55	7.29	
2025-01-10 10:05:29.28	352.44	7.20	
2025-01-10 10:05:30.51	352.33	7.12	
2025-01-10 10:05:31.74	352.22	7.03	
2025-01-10 10:05:32.98	352.11	6.94	
2025-01-10 10:05:34.21	352.00	6.85	
2025-01-10 10:05:35.44	351.89	6.77	
2025-01-10 10:05:36.67	351.79	6.68	
2025-01-10 10:05:37.90	351.68	6.59	
2025-01-10 10:05:39.13	351.58	6.51	
2025-01-10 10:05:40.36	351.47	6.42	
2025-01-10 10:05:41.59	351.37	6.34	
2025-01-10 10:05:42.83	351.26	6.25	
2025-01-10 10:05:44.06	351.16	6.17	
2025-01-10 10:05:45.28	351.06	6.08	
2025-01-10 10:05:46.53	350.96	6.00	
2025-01-10 10:05:47.76	350.85	5.91	
2025-01-10 10:05:48.99	350.75	5.83	
2025-01-10 10:05:50.22	350.66	5.74	
2025-01-10 10:05:51.46	350.56	5.66	
2025-01-10 10:05:52.68	350.46	5.58	
2025-01-10 10:05:53.91	350.36	5.49	
2025-01-10 10:05:55.15	350.26	5.41	
2025-01-10 10:05:56.38	350.17	5.33	
2025-01-10 10:05:57.61	350.07	5.24	
2025-01-10 10:05:58.86	349.97	5.16	
2025-01-10 10:06:00.11	349.88	5.08	
2025-01-10 10:06:01.35	349.78	4.99	
2025-01-10 10:06:02.58	349.69	4.91	
2025-01-10 10:06:03.81	349.60	4.83	
2025-01-10 10:06:05.04	349.51	4.75	
2025-01-10 10:06:06.28	349.41	4.67	
2025-01-10 10:06:07.50	349.32	4.59	
2025-01-10 10:06:08.74	349.23	4.51	
2025-01-10 10:06:09.98	349.14	4.42	
2025-01-10 10:06:11.21	349.05	4.34	
2025-01-10 10:06:12.44	348.96	4.26	
2025-01-10 10:06:13.67	348.88	4.18	
2025-01-10 10:06:14.90	348.79	4.10	
2025-01-10 10:06:16.13	348.70	4.03	

#Closed at: 2025-01-10 10:06:16