passes_logs/2025/01/10/SPB_Silybum_02/SPB_Silybum_02__20250110_114041_SUOMI_NPP_rec.log

#Pass ID: 20250110_114041_SUOMI NPP
#Satellite: SUOMI NPP
#Configuration: NPP
#Start time: 2025-01-10 11:44:09

#Version: 2.0.20230423
#Station: SPB_Silybum_02
#Location: 30.233357 lon 59.946436 lat
#TLE: 1 37849U 11061A   25009.84493763  .00000180  00000+0  10621-3 0  9991
#TLE: 2 37849  98.7440 310.8990 0001846  48.8747 311.2588 14.19535791684182

#Time	Az	El	Level	Level2	SNR	BER	Gain	Gain2
2025-01-10 11:44:11.65	225.53	19.72	
2025-01-10 11:44:12.68	225.72	19.81	
2025-01-10 11:44:13.70	225.92	19.90	
2025-01-10 11:44:14.73	226.11	19.98	
2025-01-10 11:44:15.76	226.31	20.07	
2025-01-10 11:44:16.78	226.51	20.16	
2025-01-10 11:44:17.81	226.71	20.25	
2025-01-10 11:44:18.85	226.91	20.34	
2025-01-10 11:44:19.87	227.11	20.42	
2025-01-10 11:44:20.90	227.31	20.51	
2025-01-10 11:44:21.93	227.51	20.60	
2025-01-10 11:44:22.95	227.72	20.68	
2025-01-10 11:44:23.99	227.93	20.77	
2025-01-10 11:44:25.02	228.13	20.86	
2025-01-10 11:44:26.04	228.34	20.95	
2025-01-10 11:44:27.07	228.55	21.03	
2025-01-10 11:44:28.10	228.76	21.12	
2025-01-10 11:44:29.13	228.97	21.21	
2025-01-10 11:44:30.15	229.18	21.29	
2025-01-10 11:44:31.18	229.40	21.38	
2025-01-10 11:44:32.21	229.61	21.47	
2025-01-10 11:44:33.25	229.83	21.56	
2025-01-10 11:44:34.28	230.05	21.64	
2025-01-10 11:44:35.30	230.27	21.73	
2025-01-10 11:44:36.33	230.49	21.82	
2025-01-10 11:44:37.36	230.71	21.90	
2025-01-10 11:44:38.38	230.93	21.99	
2025-01-10 11:44:39.41	231.15	22.07	
2025-01-10 11:44:40.43	231.37	22.16	
2025-01-10 11:44:41.46	231.60	22.24	
2025-01-10 11:44:42.48	231.83	22.33	
2025-01-10 11:44:43.50	232.05	22.41	
2025-01-10 11:44:44.53	232.28	22.50	
2025-01-10 11:44:45.56	232.51	22.58	
2025-01-10 11:44:46.59	232.74	22.67	
2025-01-10 11:44:47.62	232.98	22.75	
2025-01-10 11:44:48.64	233.21	22.84	
2025-01-10 11:44:49.67	233.45	22.92	
2025-01-10 11:44:50.69	233.68	23.00	
2025-01-10 11:44:51.72	233.92	23.09	
2025-01-10 11:44:52.75	234.16	23.17	
2025-01-10 11:44:53.78	234.40	23.25	
2025-01-10 11:44:54.81	234.64	23.34	
2025-01-10 11:44:55.84	234.89	23.42	
2025-01-10 11:44:56.88	235.13	23.50	
2025-01-10 11:44:57.92	235.38	23.59	
2025-01-10 11:44:58.95	235.63	23.67	
2025-01-10 11:44:59.98	235.88	23.75	
2025-01-10 11:45:01.01	236.13	23.83	
2025-01-10 11:45:02.04	236.38	23.91	
2025-01-10 11:45:03.06	236.63	23.99	
2025-01-10 11:45:04.09	236.88	24.07	
2025-01-10 11:45:05.11	237.13	24.15	
2025-01-10 11:45:06.13	237.39	24.23	
2025-01-10 11:45:07.15	237.64	24.31	
2025-01-10 11:45:08.18	237.90	24.39	
2025-01-10 11:45:09.21	238.16	24.47	
2025-01-10 11:45:10.23	238.42	24.54	
2025-01-10 11:45:11.26	238.68	24.62	
2025-01-10 11:45:12.28	238.94	24.70	
2025-01-10 11:45:13.31	239.21	24.78	
2025-01-10 11:45:14.33	239.47	24.85	
2025-01-10 11:45:15.36	239.74	24.93	
2025-01-10 11:45:16.38	240.01	25.00	
2025-01-10 11:45:17.42	240.28	25.08	
2025-01-10 11:45:18.45	240.55	25.15	
2025-01-10 11:45:19.48	240.82	25.23	
2025-01-10 11:45:20.50	241.09	25.30	
2025-01-10 11:45:21.53	241.37	25.38	
2025-01-10 11:45:22.56	241.64	25.45	
2025-01-10 11:45:23.59	241.92	25.52	
2025-01-10 11:45:24.62	242.20	25.59	
2025-01-10 11:45:25.65	242.48	25.66	
2025-01-10 11:45:26.67	242.76	25.74	
2025-01-10 11:45:27.70	243.04	25.81	
2025-01-10 11:45:28.74	243.33	25.88	
2025-01-10 11:45:29.77	243.61	25.95	
2025-01-10 11:45:30.80	243.90	26.01	
2025-01-10 11:45:31.83	244.19	26.08	
2025-01-10 11:45:32.85	244.47	26.15	
2025-01-10 11:45:33.88	244.76	26.22	
2025-01-10 11:45:34.90	245.05	26.28	
2025-01-10 11:45:35.93	245.34	26.35	
2025-01-10 11:45:36.96	245.63	26.41	
2025-01-10 11:45:38.00	245.93	26.48	
2025-01-10 11:45:39.02	246.22	26.54	
2025-01-10 11:45:40.06	246.52	26.61	
2025-01-10 11:45:41.09	246.82	26.67	
2025-01-10 11:45:42.12	247.12	26.73	
2025-01-10 11:45:43.16	247.42	26.79	
2025-01-10 11:45:44.20	247.73	26.85	
2025-01-10 11:45:45.22	248.03	26.91	
2025-01-10 11:45:46.25	248.33	26.97	
2025-01-10 11:45:47.28	248.64	27.03	
2025-01-10 11:45:48.30	248.94	27.09	
2025-01-10 11:45:49.33	249.24	27.15	
2025-01-10 11:45:50.35	249.55	27.20	
2025-01-10 11:45:51.40	249.86	27.26	
2025-01-10 11:45:52.42	250.17	27.31	
2025-01-10 11:45:53.44	250.48	27.37	
2025-01-10 11:45:54.47	250.79	27.42	
2025-01-10 11:45:55.49	251.10	27.47	
2025-01-10 11:45:56.53	251.42	27.52	
2025-01-10 11:45:57.56	251.73	27.57	
2025-01-10 11:45:58.59	252.05	27.62	
2025-01-10 11:45:59.61	252.36	27.67	
2025-01-10 11:46:00.63	252.68	27.72	
2025-01-10 11:46:01.66	253.00	27.77	
2025-01-10 11:46:02.70	253.32	27.81	
2025-01-10 11:46:03.73	253.64	27.86	
2025-01-10 11:46:04.75	253.96	27.90	
2025-01-10 11:46:05.78	254.28	27.95	
2025-01-10 11:46:06.81	254.60	27.99	
2025-01-10 11:46:07.84	254.93	28.03	
2025-01-10 11:46:08.87	255.25	28.07	
2025-01-10 11:46:09.90	255.58	28.11	
2025-01-10 11:46:10.93	255.90	28.15	
2025-01-10 11:46:11.95	256.23	28.19	
2025-01-10 11:46:12.98	256.55	28.23	
2025-01-10 11:46:14.00	256.88	28.27	
2025-01-10 11:46:15.04	257.21	28.30	
2025-01-10 11:46:16.07	257.54	28.34	
2025-01-10 11:46:17.10	257.87	28.37	
2025-01-10 11:46:18.12	258.20	28.40	
2025-01-10 11:46:19.15	258.53	28.43	
2025-01-10 11:46:20.19	258.87	28.46	
2025-01-10 11:46:21.22	259.20	28.49	
2025-01-10 11:46:22.24	259.53	28.52	
2025-01-10 11:46:23.28	259.87	28.55	
2025-01-10 11:46:24.31	260.21	28.58	
2025-01-10 11:46:25.33	260.54	28.60	
2025-01-10 11:46:26.36	260.87	28.63	
2025-01-10 11:46:27.38	261.21	28.65	
2025-01-10 11:46:28.41	261.54	28.67	
2025-01-10 11:46:29.43	261.88	28.69	
2025-01-10 11:46:30.46	262.22	28.71	
2025-01-10 11:46:31.49	262.55	28.73	
2025-01-10 11:46:32.52	262.89	28.75	
2025-01-10 11:46:33.55	263.23	28.77	
2025-01-10 11:46:34.58	263.57	28.79	
2025-01-10 11:46:35.61	263.91	28.80	
2025-01-10 11:46:36.65	264.25	28.82	
2025-01-10 11:46:37.68	264.59	28.83	
2025-01-10 11:46:38.70	264.93	28.84	
2025-01-10 11:46:39.73	265.27	28.85	
2025-01-10 11:46:40.75	265.61	28.86	
2025-01-10 11:46:41.78	265.95	28.87	
2025-01-10 11:46:42.81	266.29	28.88	
2025-01-10 11:46:43.83	266.63	28.88	
2025-01-10 11:46:44.86	266.97	28.89	
2025-01-10 11:46:45.89	267.31	28.89	
2025-01-10 11:46:46.91	267.65	28.90	
2025-01-10 11:46:47.93	267.99	28.90	
2025-01-10 11:46:48.96	268.33	28.90	
2025-01-10 11:46:49.98	268.67	28.90	
2025-01-10 11:46:51.03	269.02	28.90	
2025-01-10 11:46:52.05	269.36	28.90	
2025-01-10 11:46:53.08	269.70	28.89	
2025-01-10 11:46:54.10	270.04	28.89	
2025-01-10 11:46:55.13	270.38	28.89	
2025-01-10 11:46:56.15	270.71	28.88	
2025-01-10 11:46:57.18	271.06	28.87	
2025-01-10 11:46:58.21	271.40	28.86	
2025-01-10 11:46:59.24	271.74	28.85	
2025-01-10 11:47:00.26	272.07	28.84	
2025-01-10 11:47:01.29	272.41	28.83	
2025-01-10 11:47:02.31	272.75	28.82	
2025-01-10 11:47:03.34	273.09	28.80	
2025-01-10 11:47:04.37	273.43	28.79	
2025-01-10 11:47:05.39	273.77	28.77	
2025-01-10 11:47:06.41	274.10	28.76	
2025-01-10 11:47:07.44	274.44	28.74	
2025-01-10 11:47:08.47	274.78	28.72	
2025-01-10 11:47:09.49	275.11	28.70	
2025-01-10 11:47:10.52	275.45	28.68	
2025-01-10 11:47:11.54	275.78	28.66	
2025-01-10 11:47:12.57	276.12	28.63	
2025-01-10 11:47:13.60	276.45	28.61	
2025-01-10 11:47:14.64	276.79	28.58	
2025-01-10 11:47:15.67	277.13	28.56	
2025-01-10 11:47:16.71	277.46	28.53	
2025-01-10 11:47:17.74	277.80	28.50	
2025-01-10 11:47:18.76	278.13	28.47	
2025-01-10 11:47:19.79	278.46	28.44	
2025-01-10 11:47:20.81	278.79	28.41	
2025-01-10 11:47:21.84	279.12	28.38	
2025-01-10 11:47:22.87	279.45	28.34	
2025-01-10 11:47:23.89	279.78	28.31	
2025-01-10 11:47:24.92	280.10	28.28	
2025-01-10 11:47:25.95	280.43	28.24	
2025-01-10 11:47:26.97	280.76	28.20	
2025-01-10 11:47:28.00	281.08	28.16	
2025-01-10 11:47:29.03	281.41	28.13	
2025-01-10 11:47:30.06	281.73	28.09	
2025-01-10 11:47:31.08	282.06	28.05	
2025-01-10 11:47:32.12	282.38	28.00	
2025-01-10 11:47:33.15	282.70	27.96	
2025-01-10 11:47:34.17	283.02	27.92	
2025-01-10 11:47:35.20	283.34	27.87	
2025-01-10 11:47:36.23	283.66	27.83	
2025-01-10 11:47:37.25	283.98	27.78	
2025-01-10 11:47:38.28	284.30	27.73	
2025-01-10 11:47:39.30	284.61	27.69	
2025-01-10 11:47:40.33	284.93	27.64	
2025-01-10 11:47:41.36	285.24	27.59	
2025-01-10 11:47:42.38	285.56	27.54	
2025-01-10 11:47:43.41	285.87	27.49	
2025-01-10 11:47:44.44	286.18	27.44	
2025-01-10 11:47:45.47	286.49	27.38	
2025-01-10 11:47:46.50	286.80	27.33	
2025-01-10 11:47:47.53	287.11	27.28	
2025-01-10 11:47:48.56	287.42	27.22	
2025-01-10 11:47:49.59	287.73	27.17	
2025-01-10 11:47:50.61	288.03	27.11	
2025-01-10 11:47:51.64	288.34	27.05	
2025-01-10 11:47:52.68	288.64	26.99	
2025-01-10 11:47:53.72	288.95	26.93	
2025-01-10 11:47:54.75	289.25	26.87	
2025-01-10 11:47:55.78	289.55	26.81	
2025-01-10 11:47:56.79	289.84	26.76	
2025-01-10 11:47:57.82	290.14	26.69	
2025-01-10 11:47:58.86	290.44	26.63	
2025-01-10 11:47:59.89	290.74	26.57	
2025-01-10 11:48:00.91	291.03	26.51	
2025-01-10 11:48:01.94	291.32	26.44	
2025-01-10 11:48:02.97	291.62	26.38	
2025-01-10 11:48:04.00	291.91	26.31	
2025-01-10 11:48:05.02	292.20	26.25	
2025-01-10 11:48:06.05	292.48	26.18	
2025-01-10 11:48:07.07	292.77	26.11	
2025-01-10 11:48:08.10	293.06	26.05	
2025-01-10 11:48:09.13	293.34	25.98	
2025-01-10 11:48:10.15	293.62	25.91	
2025-01-10 11:48:11.18	293.91	25.84	
2025-01-10 11:48:12.21	294.19	25.77	
2025-01-10 11:48:13.23	294.47	25.70	
2025-01-10 11:48:14.26	294.74	25.63	
2025-01-10 11:48:15.29	295.02	25.56	
2025-01-10 11:48:16.31	295.30	25.49	
2025-01-10 11:48:17.34	295.57	25.41	
2025-01-10 11:48:18.37	295.85	25.34	
2025-01-10 11:48:19.39	296.12	25.27	
2025-01-10 11:48:20.42	296.39	25.19	
2025-01-10 11:48:21.44	296.66	25.12	
2025-01-10 11:48:22.47	296.93	25.05	
2025-01-10 11:48:23.51	297.20	24.97	
2025-01-10 11:48:24.53	297.46	24.89	
2025-01-10 11:48:25.56	297.73	24.82	
2025-01-10 11:48:26.59	297.99	24.74	
2025-01-10 11:48:27.62	298.25	24.67	
2025-01-10 11:48:28.64	298.51	24.59	
2025-01-10 11:48:29.67	298.77	24.51	
2025-01-10 11:48:30.69	299.03	24.43	
2025-01-10 11:48:31.72	299.29	24.36	
2025-01-10 11:48:32.74	299.54	24.28	
2025-01-10 11:48:33.77	299.80	24.20	
2025-01-10 11:48:34.80	300.05	24.12	
2025-01-10 11:48:35.82	300.30	24.04	
2025-01-10 11:48:36.85	300.56	23.96	
2025-01-10 11:48:37.89	300.81	23.88	
2025-01-10 11:48:38.93	301.06	23.80	
2025-01-10 11:48:39.97	301.31	23.72	
2025-01-10 11:48:41.00	301.56	23.63	
2025-01-10 11:48:42.03	301.80	23.55	
2025-01-10 11:48:43.05	302.04	23.47	
2025-01-10 11:48:44.08	302.29	23.39	
2025-01-10 11:48:45.11	302.53	23.31	
2025-01-10 11:48:46.13	302.77	23.23	
2025-01-10 11:48:47.16	303.01	23.14	
2025-01-10 11:48:48.19	303.24	23.06	
2025-01-10 11:48:49.23	303.48	22.98	
2025-01-10 11:48:50.25	303.72	22.89	
2025-01-10 11:48:51.28	303.95	22.81	
2025-01-10 11:48:52.30	304.18	22.73	
2025-01-10 11:48:53.32	304.41	22.64	
2025-01-10 11:48:54.35	304.64	22.56	
2025-01-10 11:48:55.37	304.87	22.48	
2025-01-10 11:48:56.42	305.10	22.39	
2025-01-10 11:48:57.44	305.33	22.31	
2025-01-10 11:48:58.46	305.55	22.22	
2025-01-10 11:48:59.49	305.77	22.14	
2025-01-10 11:49:00.52	306.00	22.05	
2025-01-10 11:49:01.54	306.22	21.97	
2025-01-10 11:49:02.57	306.44	21.88	
2025-01-10 11:49:03.59	306.65	21.80	
2025-01-10 11:49:04.62	306.87	21.71	
2025-01-10 11:49:05.66	307.09	21.62	
2025-01-10 11:49:06.69	307.31	21.54	
2025-01-10 11:49:07.71	307.52	21.45	
2025-01-10 11:49:08.74	307.74	21.37	
2025-01-10 11:49:09.77	307.95	21.28	
2025-01-10 11:49:10.79	308.16	21.19	
2025-01-10 11:49:11.82	308.37	21.11	
2025-01-10 11:49:12.84	308.58	21.02	
2025-01-10 11:49:13.87	308.78	20.93	
2025-01-10 11:49:14.90	308.99	20.85	
2025-01-10 11:49:15.93	309.20	20.76	
2025-01-10 11:49:16.95	309.40	20.68	
2025-01-10 11:49:17.98	309.60	20.59	
2025-01-10 11:49:19.01	309.80	20.50	
2025-01-10 11:49:20.04	310.01	20.41	
2025-01-10 11:49:21.06	310.20	20.33	
2025-01-10 11:49:22.09	310.40	20.24	
2025-01-10 11:49:23.12	310.60	20.15	
2025-01-10 11:49:24.14	310.80	20.07	
2025-01-10 11:49:25.17	310.99	19.98	
2025-01-10 11:49:26.20	311.19	19.89	
2025-01-10 11:49:27.22	311.38	19.81	
2025-01-10 11:49:28.25	311.57	19.72	
2025-01-10 11:49:29.28	311.76	19.63	
2025-01-10 11:49:30.31	311.95	19.55	
2025-01-10 11:49:31.34	312.14	19.46	
2025-01-10 11:49:32.36	312.33	19.37	
2025-01-10 11:49:33.39	312.52	19.28	
2025-01-10 11:49:34.42	312.70	19.20	
2025-01-10 11:49:35.45	312.89	19.11	
2025-01-10 11:49:36.49	313.07	19.02	
2025-01-10 11:49:37.52	313.26	18.94	
2025-01-10 11:49:38.55	313.44	18.85	
2025-01-10 11:49:39.57	313.62	18.76	
2025-01-10 11:49:40.60	313.80	18.67	
2025-01-10 11:49:41.62	313.98	18.59	
2025-01-10 11:49:42.65	314.15	18.50	
2025-01-10 11:49:43.68	314.33	18.41	
2025-01-10 11:49:44.70	314.51	18.33	
2025-01-10 11:49:45.75	314.68	18.24	
2025-01-10 11:49:46.77	314.86	18.15	
2025-01-10 11:49:47.80	315.03	18.07	
2025-01-10 11:49:48.83	315.20	17.98	
2025-01-10 11:49:49.86	315.37	17.89	
2025-01-10 11:49:50.88	315.54	17.81	
2025-01-10 11:49:51.91	315.71	17.72	
2025-01-10 11:49:52.93	315.88	17.64	
2025-01-10 11:49:53.96	316.05	17.55	
2025-01-10 11:49:54.99	316.21	17.46	
2025-01-10 11:49:56.02	316.38	17.38	
2025-01-10 11:49:57.06	316.55	17.29	
2025-01-10 11:49:58.09	316.71	17.21	
2025-01-10 11:49:59.12	316.87	17.12	
2025-01-10 11:50:00.14	317.03	17.03	
2025-01-10 11:50:01.18	317.20	16.95	
2025-01-10 11:50:02.21	317.36	16.86	
2025-01-10 11:50:03.25	317.52	16.78	
2025-01-10 11:50:04.27	317.67	16.69	
2025-01-10 11:50:05.30	317.83	16.61	
2025-01-10 11:50:06.32	317.99	16.52	
2025-01-10 11:50:07.35	318.14	16.44	
2025-01-10 11:50:08.39	318.30	16.35	
2025-01-10 11:50:09.42	318.45	16.27	
2025-01-10 11:50:10.44	318.61	16.18	
2025-01-10 11:50:11.47	318.76	16.10	
2025-01-10 11:50:12.49	318.91	16.01	
2025-01-10 11:50:13.52	319.06	15.93	
2025-01-10 11:50:14.54	319.21	15.85	
2025-01-10 11:50:15.57	319.36	15.76	
2025-01-10 11:50:16.59	319.50	15.68	
2025-01-10 11:50:17.62	319.65	15.59	
2025-01-10 11:50:18.64	319.80	15.51	
2025-01-10 11:50:19.67	319.94	15.43	
2025-01-10 11:50:20.69	320.09	15.34	
2025-01-10 11:50:21.72	320.23	15.26	
2025-01-10 11:50:22.75	320.38	15.18	
2025-01-10 11:50:23.78	320.52	15.09	
2025-01-10 11:50:24.81	320.66	15.01	
2025-01-10 11:50:25.83	320.80	14.93	
2025-01-10 11:50:26.85	320.94	14.85	
2025-01-10 11:50:27.88	321.08	14.76	
2025-01-10 11:50:28.91	321.22	14.68	
2025-01-10 11:50:29.93	321.36	14.60	
2025-01-10 11:50:30.96	321.49	14.52	
2025-01-10 11:50:31.98	321.63	14.43	
2025-01-10 11:50:33.02	321.77	14.35	
2025-01-10 11:50:34.05	321.90	14.27	
2025-01-10 11:50:35.09	322.04	14.19	
2025-01-10 11:50:36.11	322.17	14.11	
2025-01-10 11:50:37.14	322.31	14.02	
2025-01-10 11:50:38.17	322.44	13.94	
2025-01-10 11:50:39.21	322.57	13.86	
2025-01-10 11:50:40.25	322.70	13.78	
2025-01-10 11:50:41.27	322.83	13.70	
2025-01-10 11:50:42.30	322.96	13.62	
2025-01-10 11:50:43.33	323.09	13.54	
2025-01-10 11:50:44.36	323.22	13.46	
2025-01-10 11:50:45.38	323.35	13.38	
2025-01-10 11:50:46.43	323.48	13.29	
2025-01-10 11:50:47.45	323.60	13.22	
2025-01-10 11:50:48.48	323.73	13.14	
2025-01-10 11:50:49.51	323.85	13.06	
2025-01-10 11:50:50.54	323.98	12.98	
2025-01-10 11:50:51.57	324.10	12.90	
2025-01-10 11:50:52.59	324.22	12.82	
2025-01-10 11:50:53.62	324.35	12.74	
2025-01-10 11:50:54.66	324.47	12.66	
2025-01-10 11:50:55.68	324.59	12.58	
2025-01-10 11:50:56.71	324.71	12.50	
2025-01-10 11:50:57.74	324.83	12.42	
2025-01-10 11:50:58.77	324.95	12.34	
2025-01-10 11:50:59.79	325.07	12.27	
2025-01-10 11:51:00.85	325.19	12.18	
2025-01-10 11:51:01.87	325.31	12.11	
2025-01-10 11:51:02.90	325.42	12.03	
2025-01-10 11:51:03.93	325.54	11.95	
2025-01-10 11:51:04.96	325.66	11.87	
2025-01-10 11:51:05.98	325.77	11.80	
2025-01-10 11:51:07.01	325.89	11.72	
2025-01-10 11:51:08.04	326.00	11.64	
2025-01-10 11:51:09.06	326.11	11.57	
2025-01-10 11:51:10.10	326.23	11.49	
2025-01-10 11:51:11.13	326.34	11.41	
2025-01-10 11:51:12.17	326.45	11.33	
2025-01-10 11:51:13.20	326.56	11.26	
2025-01-10 11:51:14.22	326.67	11.18	
2025-01-10 11:51:15.24	326.78	11.11	
2025-01-10 11:51:16.27	326.89	11.03	
2025-01-10 11:51:17.29	327.00	10.95	
2025-01-10 11:51:18.32	327.11	10.88	
2025-01-10 11:51:19.35	327.22	10.80	
2025-01-10 11:51:20.37	327.32	10.73	
2025-01-10 11:51:21.40	327.43	10.65	
2025-01-10 11:51:22.44	327.54	10.58	
2025-01-10 11:51:23.47	327.64	10.50	
2025-01-10 11:51:24.50	327.75	10.43	
2025-01-10 11:51:25.54	327.86	10.35	
2025-01-10 11:51:26.56	327.96	10.28	
2025-01-10 11:51:27.60	328.06	10.20	
2025-01-10 11:51:28.63	328.17	10.13	
2025-01-10 11:51:29.65	328.27	10.05	
2025-01-10 11:51:30.68	328.37	9.98	
2025-01-10 11:51:31.71	328.47	9.91	
2025-01-10 11:51:32.73	328.57	9.83	
2025-01-10 11:51:33.77	328.68	9.76	
2025-01-10 11:51:34.80	328.78	9.68	
2025-01-10 11:51:35.82	328.88	9.61	
2025-01-10 11:51:36.85	328.97	9.54	
2025-01-10 11:51:37.88	329.07	9.47	
2025-01-10 11:51:38.91	329.17	9.39	
2025-01-10 11:51:39.93	329.27	9.32	
2025-01-10 11:51:40.96	329.37	9.25	
2025-01-10 11:51:41.99	329.46	9.18	
2025-01-10 11:51:43.03	329.56	9.10	
2025-01-10 11:51:44.05	329.66	9.03	
2025-01-10 11:51:45.07	329.75	8.96	
2025-01-10 11:51:46.10	329.85	8.89	
2025-01-10 11:51:47.12	329.94	8.82	
2025-01-10 11:51:48.15	330.04	8.74	
2025-01-10 11:51:49.18	330.13	8.67	
2025-01-10 11:51:50.21	330.22	8.60	
2025-01-10 11:51:51.23	330.32	8.53	
2025-01-10 11:51:52.26	330.41	8.46	
2025-01-10 11:51:53.29	330.50	8.39	
2025-01-10 11:51:54.32	330.59	8.32	
2025-01-10 11:51:55.34	330.68	8.25	
2025-01-10 11:51:56.36	330.77	8.18	
2025-01-10 11:51:57.39	330.87	8.11	
2025-01-10 11:51:58.41	330.95	8.04	
2025-01-10 11:51:59.44	331.04	7.97	
2025-01-10 11:52:00.47	331.13	7.90	
2025-01-10 11:52:01.49	331.22	7.83	
2025-01-10 11:52:02.51	331.31	7.76	
2025-01-10 11:52:03.54	331.40	7.69	
2025-01-10 11:52:04.56	331.49	7.62	
2025-01-10 11:52:05.60	331.57	7.55	
2025-01-10 11:52:06.62	331.66	7.48	
2025-01-10 11:52:07.65	331.75	7.41	
2025-01-10 11:52:08.67	331.83	7.35	
2025-01-10 11:52:09.71	331.92	7.28	
2025-01-10 11:52:10.74	332.00	7.21	
2025-01-10 11:52:11.77	332.09	7.14	
2025-01-10 11:52:12.79	332.17	7.07	
2025-01-10 11:52:13.82	332.26	7.00	
2025-01-10 11:52:14.85	332.34	6.94	
2025-01-10 11:52:15.87	332.42	6.87	
2025-01-10 11:52:16.90	332.51	6.80	
2025-01-10 11:52:17.92	332.59	6.73	
2025-01-10 11:52:18.94	332.67	6.67	
2025-01-10 11:52:19.99	332.76	6.60	
2025-01-10 11:52:21.01	332.84	6.53	
2025-01-10 11:52:22.04	332.92	6.46	
2025-01-10 11:52:23.07	333.00	6.40	
2025-01-10 11:52:24.09	333.08	6.33	
2025-01-10 11:52:25.11	333.16	6.27	
2025-01-10 11:52:26.14	333.24	6.20	
2025-01-10 11:52:27.17	333.32	6.13	
2025-01-10 11:52:28.19	333.40	6.07	
2025-01-10 11:52:29.21	333.48	6.00	
2025-01-10 11:52:30.24	333.55	5.93	
2025-01-10 11:52:31.26	333.63	5.87	
2025-01-10 11:52:32.29	333.71	5.80	
2025-01-10 11:52:33.31	333.79	5.74	
2025-01-10 11:52:34.34	333.87	5.67	
2025-01-10 11:52:35.38	333.94	5.61	
2025-01-10 11:52:36.41	334.02	5.54	
2025-01-10 11:52:37.44	334.10	5.48	
2025-01-10 11:52:38.46	334.17	5.41	
2025-01-10 11:52:39.50	334.25	5.35	
2025-01-10 11:52:40.53	334.32	5.28	
2025-01-10 11:52:41.56	334.40	5.22	
2025-01-10 11:52:42.60	334.47	5.15	
2025-01-10 11:52:43.64	334.55	5.08	
2025-01-10 11:52:44.67	334.62	5.02	
2025-01-10 11:52:45.70	334.70	4.96	
2025-01-10 11:52:46.72	334.77	4.89	
2025-01-10 11:52:47.75	334.84	4.83	
2025-01-10 11:52:48.77	334.92	4.77	
2025-01-10 11:52:49.80	334.99	4.70	
2025-01-10 11:52:50.83	335.06	4.64	
2025-01-10 11:52:51.85	335.13	4.57	
2025-01-10 11:52:52.88	335.21	4.51	
2025-01-10 11:52:53.91	335.28	4.45	
2025-01-10 11:52:54.93	335.35	4.39	
2025-01-10 11:52:55.96	335.42	4.32	
2025-01-10 11:52:56.98	335.49	4.26	
2025-01-10 11:52:58.01	335.56	4.20	
2025-01-10 11:52:59.04	335.63	4.13	
2025-01-10 11:53:00.06	335.70	4.07	
2025-01-10 11:53:01.09	335.77	4.01	

#Closed at: 2025-01-10 11:53:01