passes_logs/2025/01/10/SPB_Silybum_02/SPB_Silybum_02__20250110_033348_AQUA_rec.log

#Pass ID: 20250110_033348_AQUA
#Satellite: AQUA
#Configuration: AQUA
#Start time: 2025-01-10 03:36:38

#Version: 2.0.20230423
#Station: SPB_Silybum_02
#Location: 30.233357 lon 59.946436 lat
#TLE: 1 27424U 02022A   25009.18250328  .00001819  00000+0  38344-3 0  9993
#TLE: 2 27424  98.3576 325.7944 0001512 117.4139 299.3627 14.60660146206772

#Time	Az	El	Level	Level2	SNR	BER	Gain	Gain2
2025-01-10 03:36:40.96	342.56	13.34	
2025-01-10 03:36:41.78	342.38	13.38	
2025-01-10 03:36:42.62	342.21	13.42	
2025-01-10 03:36:43.43	342.04	13.45	
2025-01-10 03:36:44.25	341.86	13.49	
2025-01-10 03:36:45.08	341.69	13.52	
2025-01-10 03:36:45.89	341.51	13.56	
2025-01-10 03:36:46.72	341.34	13.59	
2025-01-10 03:36:47.54	341.16	13.63	
2025-01-10 03:36:48.36	340.98	13.66	
2025-01-10 03:36:49.19	340.81	13.70	
2025-01-10 03:36:50.01	340.63	13.73	
2025-01-10 03:36:50.83	340.45	13.77	
2025-01-10 03:36:51.66	340.27	13.80	
2025-01-10 03:36:52.48	340.09	13.83	
2025-01-10 03:36:53.30	339.91	13.87	
2025-01-10 03:36:54.12	339.73	13.90	
2025-01-10 03:36:54.94	339.55	13.93	
2025-01-10 03:36:55.76	339.37	13.97	
2025-01-10 03:36:56.60	339.19	14.00	
2025-01-10 03:36:57.41	339.01	14.03	
2025-01-10 03:36:58.24	338.83	14.06	
2025-01-10 03:36:59.06	338.64	14.09	
2025-01-10 03:36:59.88	338.46	14.13	
2025-01-10 03:37:00.71	338.28	14.16	
2025-01-10 03:37:01.53	338.09	14.19	
2025-01-10 03:37:02.35	337.91	14.22	
2025-01-10 03:37:03.17	337.73	14.25	
2025-01-10 03:37:04.01	337.54	14.28	
2025-01-10 03:37:04.83	337.35	14.31	
2025-01-10 03:37:05.65	337.17	14.34	
2025-01-10 03:37:06.49	336.98	14.37	
2025-01-10 03:37:07.31	336.79	14.40	
2025-01-10 03:37:08.13	336.61	14.43	
2025-01-10 03:37:08.95	336.42	14.46	
2025-01-10 03:37:09.77	336.23	14.49	
2025-01-10 03:37:10.60	336.04	14.52	
2025-01-10 03:37:11.42	335.85	14.55	
2025-01-10 03:37:12.24	335.66	14.57	
2025-01-10 03:37:13.06	335.48	14.60	
2025-01-10 03:37:13.90	335.28	14.63	
2025-01-10 03:37:14.72	335.09	14.66	
2025-01-10 03:37:15.53	334.91	14.68	
2025-01-10 03:37:16.36	334.71	14.71	
2025-01-10 03:37:17.18	334.52	14.74	
2025-01-10 03:37:18.00	334.33	14.76	
2025-01-10 03:37:18.82	334.14	14.79	
2025-01-10 03:37:19.63	333.95	14.81	
2025-01-10 03:37:20.46	333.76	14.84	
2025-01-10 03:37:21.27	333.57	14.86	
2025-01-10 03:37:22.10	333.37	14.89	
2025-01-10 03:37:22.92	333.18	14.91	
2025-01-10 03:37:23.74	332.98	14.94	
2025-01-10 03:37:24.56	332.79	14.96	
2025-01-10 03:37:25.38	332.60	14.98	
2025-01-10 03:37:26.20	332.40	15.01	
2025-01-10 03:37:27.02	332.21	15.03	
2025-01-10 03:37:27.84	332.01	15.05	
2025-01-10 03:37:28.66	331.82	15.08	
2025-01-10 03:37:29.48	331.62	15.10	
2025-01-10 03:37:30.30	331.42	15.12	
2025-01-10 03:37:31.12	331.23	15.14	
2025-01-10 03:37:31.94	331.03	15.16	
2025-01-10 03:37:32.76	330.83	15.18	
2025-01-10 03:37:33.58	330.64	15.20	
2025-01-10 03:37:34.40	330.44	15.22	
2025-01-10 03:37:35.22	330.24	15.24	
2025-01-10 03:37:36.04	330.04	15.26	
2025-01-10 03:37:36.86	329.85	15.28	
2025-01-10 03:37:37.69	329.64	15.30	
2025-01-10 03:37:38.51	329.44	15.32	
2025-01-10 03:37:39.33	329.25	15.34	
2025-01-10 03:37:40.15	329.05	15.36	
2025-01-10 03:37:40.97	328.85	15.38	
2025-01-10 03:37:41.80	328.64	15.39	
2025-01-10 03:37:42.62	328.44	15.41	
2025-01-10 03:37:43.44	328.24	15.43	
2025-01-10 03:37:44.25	328.04	15.44	
2025-01-10 03:37:45.08	327.84	15.46	
2025-01-10 03:37:45.90	327.64	15.48	
2025-01-10 03:37:46.74	327.43	15.49	
2025-01-10 03:37:47.56	327.23	15.51	
2025-01-10 03:37:48.38	327.03	15.52	
2025-01-10 03:37:49.21	326.83	15.54	
2025-01-10 03:37:50.03	326.62	15.55	
2025-01-10 03:37:50.85	326.42	15.56	
2025-01-10 03:37:51.67	326.22	15.58	
2025-01-10 03:37:52.49	326.01	15.59	
2025-01-10 03:37:53.32	325.81	15.60	
2025-01-10 03:37:54.14	325.61	15.62	
2025-01-10 03:37:54.97	325.40	15.63	
2025-01-10 03:37:55.80	325.19	15.64	
2025-01-10 03:37:56.61	324.99	15.65	
2025-01-10 03:37:57.44	324.79	15.66	
2025-01-10 03:37:58.25	324.58	15.67	
2025-01-10 03:37:59.07	324.38	15.68	
2025-01-10 03:37:59.89	324.17	15.69	
2025-01-10 03:38:00.71	323.97	15.70	
2025-01-10 03:38:01.53	323.76	15.71	
2025-01-10 03:38:02.35	323.56	15.72	
2025-01-10 03:38:03.17	323.35	15.73	
2025-01-10 03:38:04.00	323.15	15.74	
2025-01-10 03:38:04.82	322.94	15.75	
2025-01-10 03:38:05.64	322.74	15.76	
2025-01-10 03:38:06.46	322.53	15.76	
2025-01-10 03:38:07.29	322.32	15.77	
2025-01-10 03:38:08.11	322.12	15.78	
2025-01-10 03:38:08.94	321.91	15.78	
2025-01-10 03:38:09.76	321.70	15.79	
2025-01-10 03:38:10.58	321.50	15.79	
2025-01-10 03:38:11.41	321.29	15.80	
2025-01-10 03:38:12.23	321.08	15.80	
2025-01-10 03:38:13.04	320.88	15.81	
2025-01-10 03:38:13.87	320.67	15.81	
2025-01-10 03:38:14.70	320.46	15.82	
2025-01-10 03:38:15.52	320.25	15.82	
2025-01-10 03:38:16.34	320.05	15.82	
2025-01-10 03:38:17.16	319.84	15.83	
2025-01-10 03:38:17.98	319.63	15.83	
2025-01-10 03:38:18.80	319.43	15.83	
2025-01-10 03:38:19.62	319.22	15.83	
2025-01-10 03:38:20.44	319.01	15.83	
2025-01-10 03:38:21.26	318.81	15.83	
2025-01-10 03:38:22.09	318.60	15.83	
2025-01-10 03:38:22.91	318.39	15.83	
2025-01-10 03:38:23.73	318.18	15.83	
2025-01-10 03:38:24.56	317.97	15.83	
2025-01-10 03:38:25.38	317.77	15.83	
2025-01-10 03:38:26.20	317.56	15.83	
2025-01-10 03:38:27.02	317.35	15.83	
2025-01-10 03:38:27.84	317.15	15.83	
2025-01-10 03:38:28.67	316.94	15.82	
2025-01-10 03:38:29.49	316.73	15.82	
2025-01-10 03:38:30.31	316.52	15.82	
2025-01-10 03:38:31.13	316.32	15.82	
2025-01-10 03:38:31.95	316.11	15.81	
2025-01-10 03:38:32.78	315.90	15.81	
2025-01-10 03:38:33.62	315.69	15.80	
2025-01-10 03:38:34.44	315.48	15.80	
2025-01-10 03:38:35.26	315.28	15.79	
2025-01-10 03:38:36.09	315.07	15.79	
2025-01-10 03:38:36.91	314.86	15.78	
2025-01-10 03:38:37.73	314.66	15.77	
2025-01-10 03:38:38.55	314.45	15.77	
2025-01-10 03:38:39.37	314.25	15.76	
2025-01-10 03:38:40.20	314.04	15.75	
2025-01-10 03:38:41.02	313.83	15.75	
2025-01-10 03:38:41.85	313.62	15.74	
2025-01-10 03:38:42.67	313.42	15.73	
2025-01-10 03:38:43.49	313.21	15.72	
2025-01-10 03:38:44.31	313.01	15.71	
2025-01-10 03:38:45.14	312.80	15.70	
2025-01-10 03:38:45.96	312.60	15.69	
2025-01-10 03:38:46.77	312.39	15.68	
2025-01-10 03:38:47.60	312.19	15.67	
2025-01-10 03:38:48.42	311.98	15.66	
2025-01-10 03:38:49.24	311.78	15.65	
2025-01-10 03:38:50.06	311.57	15.64	
2025-01-10 03:38:50.88	311.37	15.63	
2025-01-10 03:38:51.70	311.17	15.61	
2025-01-10 03:38:52.52	310.96	15.60	
2025-01-10 03:38:53.34	310.76	15.59	
2025-01-10 03:38:54.16	310.56	15.57	
2025-01-10 03:38:54.99	310.35	15.56	
2025-01-10 03:38:55.84	310.14	15.55	
2025-01-10 03:38:56.65	309.94	15.53	
2025-01-10 03:38:57.47	309.74	15.52	
2025-01-10 03:38:58.29	309.54	15.50	
2025-01-10 03:38:59.10	309.34	15.49	
2025-01-10 03:38:59.93	309.13	15.47	
2025-01-10 03:39:00.76	308.93	15.46	
2025-01-10 03:39:01.58	308.73	15.44	
2025-01-10 03:39:02.41	308.52	15.42	
2025-01-10 03:39:03.23	308.32	15.41	
2025-01-10 03:39:04.05	308.12	15.39	
2025-01-10 03:39:04.87	307.92	15.37	
2025-01-10 03:39:05.69	307.72	15.35	
2025-01-10 03:39:06.51	307.52	15.33	
2025-01-10 03:39:07.33	307.32	15.32	
2025-01-10 03:39:08.17	307.12	15.30	
2025-01-10 03:39:08.99	306.92	15.28	
2025-01-10 03:39:09.81	306.72	15.26	
2025-01-10 03:39:10.63	306.52	15.24	
2025-01-10 03:39:11.46	306.32	15.22	
2025-01-10 03:39:12.27	306.13	15.20	
2025-01-10 03:39:13.09	305.93	15.18	
2025-01-10 03:39:13.91	305.73	15.16	
2025-01-10 03:39:14.73	305.53	15.13	
2025-01-10 03:39:15.55	305.34	15.11	
2025-01-10 03:39:16.37	305.14	15.09	
2025-01-10 03:39:17.19	304.95	15.07	
2025-01-10 03:39:18.02	304.75	15.05	
2025-01-10 03:39:18.84	304.55	15.02	
2025-01-10 03:39:19.66	304.36	15.00	
2025-01-10 03:39:20.48	304.16	14.98	
2025-01-10 03:39:21.30	303.97	14.95	
2025-01-10 03:39:22.12	303.77	14.93	
2025-01-10 03:39:22.94	303.58	14.90	
2025-01-10 03:39:23.76	303.39	14.88	
2025-01-10 03:39:24.58	303.19	14.86	
2025-01-10 03:39:25.40	303.00	14.83	
2025-01-10 03:39:26.22	302.81	14.81	
2025-01-10 03:39:27.04	302.62	14.78	
2025-01-10 03:39:27.86	302.42	14.75	
2025-01-10 03:39:28.68	302.23	14.73	
2025-01-10 03:39:29.50	302.04	14.70	
2025-01-10 03:39:30.32	301.85	14.67	
2025-01-10 03:39:31.14	301.66	14.65	
2025-01-10 03:39:31.96	301.47	14.62	
2025-01-10 03:39:32.77	301.28	14.59	
2025-01-10 03:39:33.61	301.09	14.56	
2025-01-10 03:39:34.43	300.90	14.54	
2025-01-10 03:39:35.26	300.71	14.51	
2025-01-10 03:39:36.08	300.52	14.48	
2025-01-10 03:39:36.91	300.33	14.45	
2025-01-10 03:39:37.72	300.15	14.42	
2025-01-10 03:39:38.54	299.96	14.39	
2025-01-10 03:39:39.37	299.77	14.36	
2025-01-10 03:39:40.19	299.59	14.33	
2025-01-10 03:39:41.01	299.40	14.30	
2025-01-10 03:39:41.82	299.22	14.27	
2025-01-10 03:39:42.64	299.03	14.24	
2025-01-10 03:39:43.47	298.85	14.21	
2025-01-10 03:39:44.28	298.66	14.18	
2025-01-10 03:39:45.10	298.48	14.15	
2025-01-10 03:39:45.92	298.30	14.12	
2025-01-10 03:39:46.74	298.11	14.08	
2025-01-10 03:39:47.56	297.93	14.05	
2025-01-10 03:39:48.38	297.75	14.02	
2025-01-10 03:39:49.20	297.57	13.99	
2025-01-10 03:39:50.02	297.39	13.96	
2025-01-10 03:39:50.84	297.21	13.92	
2025-01-10 03:39:51.66	297.03	13.89	
2025-01-10 03:39:52.48	296.85	13.86	
2025-01-10 03:39:53.30	296.67	13.82	
2025-01-10 03:39:54.12	296.49	13.79	
2025-01-10 03:39:54.96	296.31	13.75	
2025-01-10 03:39:55.78	296.13	13.72	
2025-01-10 03:39:56.61	295.95	13.68	
2025-01-10 03:39:57.45	295.77	13.65	
2025-01-10 03:39:58.27	295.59	13.61	
2025-01-10 03:39:59.09	295.41	13.58	
2025-01-10 03:39:59.90	295.24	13.55	
2025-01-10 03:40:00.72	295.06	13.51	
2025-01-10 03:40:01.54	294.89	13.47	
2025-01-10 03:40:02.36	294.71	13.44	
2025-01-10 03:40:03.18	294.54	13.40	
2025-01-10 03:40:04.00	294.37	13.37	
2025-01-10 03:40:04.83	294.19	13.33	
2025-01-10 03:40:05.65	294.02	13.29	
2025-01-10 03:40:06.47	293.85	13.26	
2025-01-10 03:40:07.29	293.68	13.22	
2025-01-10 03:40:08.11	293.50	13.18	
2025-01-10 03:40:08.93	293.33	13.15	
2025-01-10 03:40:09.74	293.17	13.11	
2025-01-10 03:40:10.57	292.99	13.07	
2025-01-10 03:40:11.39	292.82	13.03	
2025-01-10 03:40:12.21	292.66	12.99	
2025-01-10 03:40:13.03	292.49	12.96	
2025-01-10 03:40:13.85	292.32	12.92	
2025-01-10 03:40:14.67	292.15	12.88	
2025-01-10 03:40:15.49	291.98	12.84	
2025-01-10 03:40:16.31	291.82	12.80	
2025-01-10 03:40:17.14	291.65	12.76	
2025-01-10 03:40:17.96	291.48	12.72	
2025-01-10 03:40:18.78	291.32	12.69	
2025-01-10 03:40:19.60	291.15	12.65	
2025-01-10 03:40:20.42	290.99	12.61	
2025-01-10 03:40:21.25	290.82	12.57	
2025-01-10 03:40:22.08	290.66	12.53	
2025-01-10 03:40:22.89	290.50	12.49	
2025-01-10 03:40:23.72	290.33	12.45	
2025-01-10 03:40:24.54	290.17	12.41	
2025-01-10 03:40:25.36	290.01	12.37	
2025-01-10 03:40:26.18	289.85	12.32	
2025-01-10 03:40:27.00	289.69	12.28	
2025-01-10 03:40:27.83	289.53	12.24	
2025-01-10 03:40:28.65	289.37	12.20	
2025-01-10 03:40:29.49	289.21	12.16	
2025-01-10 03:40:30.31	289.05	12.12	
2025-01-10 03:40:31.13	288.89	12.08	
2025-01-10 03:40:31.95	288.73	12.04	
2025-01-10 03:40:32.78	288.57	11.99	
2025-01-10 03:40:33.60	288.42	11.95	
2025-01-10 03:40:34.42	288.26	11.91	
2025-01-10 03:40:35.24	288.10	11.87	
2025-01-10 03:40:36.06	287.95	11.83	
2025-01-10 03:40:36.88	287.80	11.79	
2025-01-10 03:40:37.70	287.64	11.74	
2025-01-10 03:40:38.52	287.49	11.70	
2025-01-10 03:40:39.34	287.33	11.66	
2025-01-10 03:40:40.16	287.18	11.62	
2025-01-10 03:40:40.99	287.03	11.57	
2025-01-10 03:40:41.80	286.88	11.53	
2025-01-10 03:40:42.63	286.72	11.49	
2025-01-10 03:40:43.44	286.58	11.44	
2025-01-10 03:40:44.28	286.42	11.40	
2025-01-10 03:40:45.10	286.27	11.36	
2025-01-10 03:40:45.92	286.12	11.31	
2025-01-10 03:40:46.74	285.97	11.27	
2025-01-10 03:40:47.56	285.83	11.23	
2025-01-10 03:40:48.38	285.68	11.18	
2025-01-10 03:40:49.22	285.53	11.14	
2025-01-10 03:40:50.05	285.38	11.09	
2025-01-10 03:40:50.87	285.23	11.05	
2025-01-10 03:40:51.69	285.09	11.01	
2025-01-10 03:40:52.51	284.94	10.96	
2025-01-10 03:40:53.34	284.79	10.92	
2025-01-10 03:40:54.16	284.65	10.87	
2025-01-10 03:40:54.98	284.50	10.83	
2025-01-10 03:40:55.81	284.36	10.79	
2025-01-10 03:40:56.63	284.22	10.74	
2025-01-10 03:40:57.45	284.07	10.70	
2025-01-10 03:40:58.27	283.93	10.65	
2025-01-10 03:40:59.09	283.79	10.61	
2025-01-10 03:40:59.91	283.65	10.56	
2025-01-10 03:41:00.73	283.51	10.52	
2025-01-10 03:41:01.55	283.37	10.47	
2025-01-10 03:41:02.37	283.23	10.43	
2025-01-10 03:41:03.19	283.09	10.38	
2025-01-10 03:41:04.01	282.95	10.34	
2025-01-10 03:41:04.83	282.81	10.29	
2025-01-10 03:41:05.65	282.67	10.25	
2025-01-10 03:41:06.47	282.53	10.20	
2025-01-10 03:41:07.29	282.40	10.16	
2025-01-10 03:41:08.11	282.26	10.11	
2025-01-10 03:41:08.93	282.13	10.07	
2025-01-10 03:41:09.75	281.99	10.02	
2025-01-10 03:41:10.57	281.85	9.98	
2025-01-10 03:41:11.39	281.72	9.93	
2025-01-10 03:41:12.21	281.59	9.89	
2025-01-10 03:41:13.03	281.45	9.84	
2025-01-10 03:41:13.85	281.32	9.80	
2025-01-10 03:41:14.67	281.18	9.75	
2025-01-10 03:41:15.50	281.05	9.70	
2025-01-10 03:41:16.33	280.92	9.66	
2025-01-10 03:41:17.15	280.79	9.61	
2025-01-10 03:41:17.97	280.65	9.57	
2025-01-10 03:41:18.79	280.52	9.52	
2025-01-10 03:41:19.61	280.39	9.47	
2025-01-10 03:41:20.45	280.26	9.43	
2025-01-10 03:41:21.27	280.13	9.38	
2025-01-10 03:41:22.09	280.00	9.33	
2025-01-10 03:41:22.91	279.87	9.29	
2025-01-10 03:41:23.73	279.75	9.24	
2025-01-10 03:41:24.55	279.62	9.20	
2025-01-10 03:41:25.37	279.49	9.15	
2025-01-10 03:41:26.20	279.36	9.10	
2025-01-10 03:41:27.02	279.24	9.06	
2025-01-10 03:41:27.87	279.11	9.01	
2025-01-10 03:41:28.68	278.98	8.96	
2025-01-10 03:41:29.50	278.86	8.92	
2025-01-10 03:41:30.33	278.73	8.87	
2025-01-10 03:41:31.15	278.61	8.82	
2025-01-10 03:41:31.97	278.48	8.78	
2025-01-10 03:41:32.80	278.36	8.73	
2025-01-10 03:41:33.63	278.24	8.68	
2025-01-10 03:41:34.45	278.11	8.64	
2025-01-10 03:41:35.27	277.99	8.59	
2025-01-10 03:41:36.09	277.87	8.54	
2025-01-10 03:41:36.91	277.75	8.50	
2025-01-10 03:41:37.73	277.63	8.45	
2025-01-10 03:41:38.55	277.51	8.40	
2025-01-10 03:41:39.37	277.39	8.36	
2025-01-10 03:41:40.19	277.27	8.31	
2025-01-10 03:41:41.01	277.15	8.27	
2025-01-10 03:41:41.83	277.03	8.22	
2025-01-10 03:41:42.65	276.91	8.17	
2025-01-10 03:41:43.47	276.80	8.13	
2025-01-10 03:41:44.29	276.68	8.08	
2025-01-10 03:41:45.11	276.56	8.03	
2025-01-10 03:41:45.94	276.44	7.98	
2025-01-10 03:41:46.76	276.33	7.94	
2025-01-10 03:41:47.58	276.21	7.89	
2025-01-10 03:41:48.42	276.09	7.84	
2025-01-10 03:41:49.25	275.98	7.80	
2025-01-10 03:41:50.07	275.86	7.75	
2025-01-10 03:41:50.89	275.75	7.70	
2025-01-10 03:41:51.71	275.64	7.66	
2025-01-10 03:41:52.53	275.52	7.61	
2025-01-10 03:41:53.35	275.41	7.56	
2025-01-10 03:41:54.18	275.30	7.52	
2025-01-10 03:41:55.01	275.18	7.47	
2025-01-10 03:41:55.84	275.07	7.42	
2025-01-10 03:41:56.66	274.96	7.37	
2025-01-10 03:41:57.48	274.85	7.33	
2025-01-10 03:41:58.30	274.74	7.28	
2025-01-10 03:41:59.12	274.63	7.23	
2025-01-10 03:41:59.94	274.52	7.19	
2025-01-10 03:42:00.76	274.41	7.14	
2025-01-10 03:42:01.58	274.30	7.09	
2025-01-10 03:42:02.40	274.19	7.05	
2025-01-10 03:42:03.22	274.08	7.00	
2025-01-10 03:42:04.03	273.98	6.95	
2025-01-10 03:42:04.85	273.87	6.91	
2025-01-10 03:42:05.67	273.76	6.86	
2025-01-10 03:42:06.49	273.66	6.81	
2025-01-10 03:42:07.31	273.55	6.77	
2025-01-10 03:42:08.13	273.44	6.72	
2025-01-10 03:42:08.95	273.34	6.67	
2025-01-10 03:42:09.77	273.23	6.63	
2025-01-10 03:42:10.59	273.13	6.58	
2025-01-10 03:42:11.41	273.02	6.53	
2025-01-10 03:42:12.23	272.92	6.49	
2025-01-10 03:42:13.05	272.82	6.44	
2025-01-10 03:42:13.87	272.71	6.39	
2025-01-10 03:42:14.68	272.61	6.35	
2025-01-10 03:42:15.50	272.51	6.30	
2025-01-10 03:42:16.33	272.41	6.25	
2025-01-10 03:42:17.15	272.30	6.21	
2025-01-10 03:42:17.97	272.20	6.16	
2025-01-10 03:42:18.79	272.10	6.11	
2025-01-10 03:42:19.61	272.00	6.07	
2025-01-10 03:42:20.44	271.90	6.02	
2025-01-10 03:42:21.26	271.80	5.97	
2025-01-10 03:42:22.09	271.70	5.93	
2025-01-10 03:42:22.93	271.60	5.88	
2025-01-10 03:42:23.75	271.50	5.83	
2025-01-10 03:42:24.57	271.40	5.79	
2025-01-10 03:42:25.40	271.30	5.74	
2025-01-10 03:42:26.22	271.20	5.69	
2025-01-10 03:42:27.04	271.10	5.65	
2025-01-10 03:42:27.86	271.01	5.60	
2025-01-10 03:42:28.68	270.91	5.55	
2025-01-10 03:42:29.50	270.81	5.51	
2025-01-10 03:42:30.32	270.72	5.46	
2025-01-10 03:42:31.14	270.62	5.42	
2025-01-10 03:42:31.96	270.53	5.37	
2025-01-10 03:42:32.80	270.43	5.32	
2025-01-10 03:42:33.63	270.33	5.28	
2025-01-10 03:42:34.45	270.24	5.23	
2025-01-10 03:42:35.27	270.14	5.18	
2025-01-10 03:42:36.09	270.05	5.14	
2025-01-10 03:42:36.91	269.96	5.09	
2025-01-10 03:42:37.74	269.86	5.04	
2025-01-10 03:42:38.56	269.77	5.00	
2025-01-10 03:42:39.39	269.68	4.95	
2025-01-10 03:42:40.21	269.58	4.91	
2025-01-10 03:42:41.03	269.49	4.86	
2025-01-10 03:42:41.86	269.40	4.81	
2025-01-10 03:42:42.67	269.31	4.77	
2025-01-10 03:42:43.49	269.22	4.72	
2025-01-10 03:42:44.31	269.13	4.68	
2025-01-10 03:42:45.14	269.04	4.63	
2025-01-10 03:42:45.95	268.95	4.58	
2025-01-10 03:42:46.77	268.86	4.54	
2025-01-10 03:42:47.60	268.77	4.49	
2025-01-10 03:42:48.42	268.68	4.45	
2025-01-10 03:42:49.23	268.59	4.40	
2025-01-10 03:42:50.05	268.50	4.35	
2025-01-10 03:42:50.87	268.42	4.31	
2025-01-10 03:42:51.69	268.33	4.26	
2025-01-10 03:42:52.51	268.24	4.22	
2025-01-10 03:42:53.33	268.15	4.17	
2025-01-10 03:42:54.16	268.06	4.13	
2025-01-10 03:42:54.97	267.98	4.08	
2025-01-10 03:42:55.80	267.89	4.03	

#Closed at: 2025-01-10 03:42:56