passes_logs/2025/01/10/SPB_Silybum_02/SPB_Silybum_02__20250110_064400_SUOMI_NPP_rec.log

#Pass ID: 20250110_064400_SUOMI NPP
#Satellite: SUOMI NPP
#Configuration: NPP
#Start time: 2025-01-10 06:43:59

#Version: 2.0.20230423
#Station: SPB_Silybum_02
#Location: 30.233357 lon 59.946436 lat
#TLE: 1 37849U 11061A   25009.84493763  .00000180  00000+0  10621-3 0  9991
#TLE: 2 37849  98.7440 310.8990 0001846  48.8747 311.2588 14.19535791684182

#Time	Az	El	Level	Level2	SNR	BER	Gain	Gain2
2025-01-10 06:44:01.90	58.34	4.05	
2025-01-10 06:44:02.72	58.24	4.08	
2025-01-10 06:44:03.54	58.15	4.12	
2025-01-10 06:44:04.36	58.05	4.15	
2025-01-10 06:44:05.18	57.95	4.18	
2025-01-10 06:44:06.00	57.86	4.22	
2025-01-10 06:44:06.82	57.76	4.25	
2025-01-10 06:44:07.64	57.66	4.28	
2025-01-10 06:44:08.46	57.56	4.32	
2025-01-10 06:44:09.29	57.46	4.35	
2025-01-10 06:44:10.11	57.36	4.38	
2025-01-10 06:44:10.93	57.27	4.42	
2025-01-10 06:44:11.75	57.17	4.45	
2025-01-10 06:44:12.57	57.07	4.48	
2025-01-10 06:44:13.39	56.97	4.52	
2025-01-10 06:44:14.23	56.87	4.55	
2025-01-10 06:44:15.05	56.77	4.58	
2025-01-10 06:44:15.86	56.67	4.62	
2025-01-10 06:44:16.68	56.57	4.65	
2025-01-10 06:44:17.51	56.46	4.68	
2025-01-10 06:44:18.33	56.36	4.72	
2025-01-10 06:44:19.15	56.26	4.75	
2025-01-10 06:44:19.97	56.16	4.78	
2025-01-10 06:44:20.79	56.06	4.82	
2025-01-10 06:44:21.61	55.96	4.85	
2025-01-10 06:44:22.43	55.86	4.88	
2025-01-10 06:44:23.25	55.75	4.91	
2025-01-10 06:44:24.08	55.65	4.95	
2025-01-10 06:44:24.91	55.55	4.98	
2025-01-10 06:44:25.72	55.44	5.01	
2025-01-10 06:44:26.54	55.34	5.04	
2025-01-10 06:44:27.36	55.24	5.08	
2025-01-10 06:44:28.19	55.13	5.11	
2025-01-10 06:44:29.01	55.03	5.14	
2025-01-10 06:44:29.83	54.93	5.17	
2025-01-10 06:44:30.65	54.82	5.21	
2025-01-10 06:44:31.47	54.72	5.24	
2025-01-10 06:44:32.29	54.61	5.27	
2025-01-10 06:44:33.11	54.51	5.30	
2025-01-10 06:44:33.95	54.40	5.34	
2025-01-10 06:44:34.77	54.29	5.37	
2025-01-10 06:44:35.59	54.19	5.40	
2025-01-10 06:44:36.41	54.08	5.43	
2025-01-10 06:44:37.23	53.98	5.46	
2025-01-10 06:44:38.06	53.87	5.50	
2025-01-10 06:44:38.88	53.76	5.53	
2025-01-10 06:44:39.70	53.65	5.56	
2025-01-10 06:44:40.52	53.55	5.59	
2025-01-10 06:44:41.33	53.44	5.62	
2025-01-10 06:44:42.15	53.33	5.66	
2025-01-10 06:44:42.97	53.22	5.69	
2025-01-10 06:44:43.79	53.12	5.72	
2025-01-10 06:44:44.61	53.01	5.75	
2025-01-10 06:44:45.43	52.90	5.78	
2025-01-10 06:44:46.26	52.79	5.81	
2025-01-10 06:44:47.08	52.68	5.84	
2025-01-10 06:44:47.90	52.57	5.88	
2025-01-10 06:44:48.72	52.46	5.91	
2025-01-10 06:44:49.54	52.35	5.94	
2025-01-10 06:44:50.36	52.24	5.97	
2025-01-10 06:44:51.19	52.13	6.00	
2025-01-10 06:44:52.01	52.02	6.03	
2025-01-10 06:44:52.83	51.91	6.06	
2025-01-10 06:44:53.65	51.80	6.09	
2025-01-10 06:44:54.47	51.69	6.12	
2025-01-10 06:44:55.29	51.58	6.15	
2025-01-10 06:44:56.11	51.46	6.18	
2025-01-10 06:44:56.93	51.35	6.21	
2025-01-10 06:44:57.76	51.24	6.25	
2025-01-10 06:44:58.58	51.13	6.28	
2025-01-10 06:44:59.40	51.01	6.31	
2025-01-10 06:45:00.22	50.90	6.34	
2025-01-10 06:45:01.04	50.79	6.37	
2025-01-10 06:45:01.86	50.67	6.40	
2025-01-10 06:45:02.68	50.56	6.43	
2025-01-10 06:45:03.50	50.45	6.46	
2025-01-10 06:45:04.32	50.33	6.49	
2025-01-10 06:45:05.14	50.22	6.52	
2025-01-10 06:45:05.96	50.10	6.55	
2025-01-10 06:45:06.79	49.99	6.58	
2025-01-10 06:45:07.61	49.87	6.61	
2025-01-10 06:45:08.43	49.76	6.63	
2025-01-10 06:45:09.25	49.64	6.66	
2025-01-10 06:45:10.07	49.53	6.69	
2025-01-10 06:45:10.89	49.41	6.72	
2025-01-10 06:45:11.73	49.29	6.75	
2025-01-10 06:45:12.54	49.18	6.78	
2025-01-10 06:45:13.37	49.06	6.81	
2025-01-10 06:45:14.19	48.94	6.84	
2025-01-10 06:45:15.01	48.82	6.87	
2025-01-10 06:45:15.83	48.71	6.90	
2025-01-10 06:45:16.65	48.59	6.93	
2025-01-10 06:45:17.46	48.47	6.95	
2025-01-10 06:45:18.29	48.35	6.98	
2025-01-10 06:45:19.11	48.23	7.01	
2025-01-10 06:45:19.93	48.11	7.04	
2025-01-10 06:45:20.75	48.00	7.07	
2025-01-10 06:45:21.57	47.88	7.10	
2025-01-10 06:45:22.40	47.76	7.13	
2025-01-10 06:45:23.22	47.64	7.15	
2025-01-10 06:45:24.04	47.52	7.18	
2025-01-10 06:45:24.86	47.40	7.21	
2025-01-10 06:45:25.69	47.27	7.24	
2025-01-10 06:45:26.51	47.15	7.27	
2025-01-10 06:45:27.33	47.03	7.29	
2025-01-10 06:45:28.17	46.91	7.32	
2025-01-10 06:45:28.99	46.79	7.35	
2025-01-10 06:45:29.81	46.67	7.38	
2025-01-10 06:45:30.63	46.55	7.40	
2025-01-10 06:45:31.45	46.42	7.43	
2025-01-10 06:45:32.27	46.30	7.46	
2025-01-10 06:45:33.09	46.18	7.48	
2025-01-10 06:45:33.91	46.06	7.51	
2025-01-10 06:45:34.73	45.93	7.54	
2025-01-10 06:45:35.55	45.81	7.56	
2025-01-10 06:45:36.37	45.69	7.59	
2025-01-10 06:45:37.19	45.56	7.62	
2025-01-10 06:45:38.01	45.44	7.64	
2025-01-10 06:45:38.84	45.32	7.67	
2025-01-10 06:45:39.66	45.19	7.70	
2025-01-10 06:45:40.48	45.07	7.72	
2025-01-10 06:45:41.30	44.94	7.75	
2025-01-10 06:45:42.13	44.82	7.78	
2025-01-10 06:45:42.96	44.69	7.80	
2025-01-10 06:45:43.78	44.56	7.83	
2025-01-10 06:45:44.59	44.44	7.85	
2025-01-10 06:45:45.41	44.31	7.88	
2025-01-10 06:45:46.23	44.19	7.90	
2025-01-10 06:45:47.05	44.06	7.93	
2025-01-10 06:45:47.87	43.94	7.95	
2025-01-10 06:45:48.69	43.81	7.98	
2025-01-10 06:45:49.51	43.68	8.00	
2025-01-10 06:45:50.33	43.55	8.03	
2025-01-10 06:45:51.15	43.43	8.05	
2025-01-10 06:45:51.97	43.30	8.08	
2025-01-10 06:45:52.79	43.17	8.10	
2025-01-10 06:45:53.61	43.04	8.13	
2025-01-10 06:45:54.44	42.91	8.15	
2025-01-10 06:45:55.26	42.79	8.18	
2025-01-10 06:45:56.08	42.66	8.20	
2025-01-10 06:45:56.89	42.53	8.22	
2025-01-10 06:45:57.71	42.40	8.25	
2025-01-10 06:45:58.53	42.27	8.27	
2025-01-10 06:45:59.35	42.14	8.29	
2025-01-10 06:46:00.17	42.01	8.32	
2025-01-10 06:46:00.99	41.88	8.34	
2025-01-10 06:46:01.82	41.75	8.36	
2025-01-10 06:46:02.64	41.62	8.39	
2025-01-10 06:46:03.46	41.49	8.41	
2025-01-10 06:46:04.28	41.36	8.43	
2025-01-10 06:46:05.10	41.23	8.46	
2025-01-10 06:46:05.93	41.10	8.48	
2025-01-10 06:46:06.74	40.97	8.50	
2025-01-10 06:46:07.56	40.84	8.52	
2025-01-10 06:46:08.39	40.70	8.55	
2025-01-10 06:46:09.20	40.57	8.57	
2025-01-10 06:46:10.04	40.44	8.59	
2025-01-10 06:46:10.86	40.30	8.61	
2025-01-10 06:46:11.68	40.17	8.63	
2025-01-10 06:46:12.50	40.04	8.66	
2025-01-10 06:46:13.33	39.90	8.68	
2025-01-10 06:46:14.15	39.77	8.70	
2025-01-10 06:46:14.97	39.64	8.72	
2025-01-10 06:46:15.79	39.50	8.74	
2025-01-10 06:46:16.61	39.37	8.76	
2025-01-10 06:46:17.43	39.24	8.78	
2025-01-10 06:46:18.25	39.10	8.80	
2025-01-10 06:46:19.08	38.97	8.82	
2025-01-10 06:46:19.90	38.83	8.85	
2025-01-10 06:46:20.72	38.70	8.87	
2025-01-10 06:46:21.54	38.56	8.89	
2025-01-10 06:46:22.36	38.43	8.91	
2025-01-10 06:46:23.18	38.29	8.93	
2025-01-10 06:46:24.00	38.16	8.95	
2025-01-10 06:46:24.82	38.02	8.97	
2025-01-10 06:46:25.64	37.89	8.98	
2025-01-10 06:46:26.46	37.75	9.00	
2025-01-10 06:46:27.30	37.61	9.02	
2025-01-10 06:46:28.12	37.47	9.04	
2025-01-10 06:46:28.94	37.34	9.06	
2025-01-10 06:46:29.76	37.20	9.08	
2025-01-10 06:46:30.58	37.06	9.10	
2025-01-10 06:46:31.40	36.93	9.12	
2025-01-10 06:46:32.22	36.79	9.14	
2025-01-10 06:46:33.04	36.65	9.15	
2025-01-10 06:46:33.86	36.51	9.17	
2025-01-10 06:46:34.68	36.38	9.19	
2025-01-10 06:46:35.50	36.24	9.21	
2025-01-10 06:46:36.33	36.10	9.23	
2025-01-10 06:46:37.16	35.96	9.24	
2025-01-10 06:46:38.00	35.82	9.26	
2025-01-10 06:46:38.82	35.68	9.28	
2025-01-10 06:46:39.64	35.54	9.30	
2025-01-10 06:46:40.47	35.40	9.31	
2025-01-10 06:46:41.30	35.26	9.33	
2025-01-10 06:46:42.11	35.12	9.35	
2025-01-10 06:46:42.94	34.98	9.36	
2025-01-10 06:46:43.76	34.84	9.38	
2025-01-10 06:46:44.58	34.70	9.40	
2025-01-10 06:46:45.40	34.56	9.41	
2025-01-10 06:46:46.22	34.42	9.43	
2025-01-10 06:46:47.04	34.28	9.44	
2025-01-10 06:46:47.86	34.14	9.46	
2025-01-10 06:46:48.68	34.00	9.47	
2025-01-10 06:46:49.52	33.85	9.49	
2025-01-10 06:46:50.34	33.71	9.51	
2025-01-10 06:46:51.16	33.57	9.52	
2025-01-10 06:46:51.98	33.43	9.53	
2025-01-10 06:46:52.80	33.29	9.55	
2025-01-10 06:46:53.64	33.15	9.56	
2025-01-10 06:46:54.46	33.00	9.58	
2025-01-10 06:46:55.29	32.86	9.59	
2025-01-10 06:46:56.11	32.72	9.61	
2025-01-10 06:46:56.93	32.58	9.62	
2025-01-10 06:46:57.75	32.43	9.63	
2025-01-10 06:46:58.57	32.29	9.65	
2025-01-10 06:46:59.39	32.15	9.66	
2025-01-10 06:47:00.21	32.01	9.67	
2025-01-10 06:47:01.04	31.86	9.69	
2025-01-10 06:47:01.87	31.72	9.70	
2025-01-10 06:47:02.69	31.58	9.71	
2025-01-10 06:47:03.51	31.43	9.73	
2025-01-10 06:47:04.33	31.29	9.74	
2025-01-10 06:47:05.15	31.15	9.75	
2025-01-10 06:47:05.97	31.00	9.76	
2025-01-10 06:47:06.79	30.86	9.77	
2025-01-10 06:47:07.61	30.72	9.79	
2025-01-10 06:47:08.43	30.57	9.80	
2025-01-10 06:47:09.25	30.43	9.81	
2025-01-10 06:47:10.07	30.29	9.82	
2025-01-10 06:47:10.89	30.14	9.83	
2025-01-10 06:47:11.71	30.00	9.84	
2025-01-10 06:47:12.53	29.85	9.85	
2025-01-10 06:47:13.35	29.71	9.86	
2025-01-10 06:47:14.17	29.56	9.87	
2025-01-10 06:47:14.99	29.42	9.88	
2025-01-10 06:47:15.81	29.27	9.89	
2025-01-10 06:47:16.63	29.13	9.90	
2025-01-10 06:47:17.45	28.99	9.91	
2025-01-10 06:47:18.27	28.84	9.92	
2025-01-10 06:47:19.09	28.70	9.93	
2025-01-10 06:47:19.91	28.55	9.94	
2025-01-10 06:47:20.73	28.40	9.95	
2025-01-10 06:47:21.55	28.26	9.96	
2025-01-10 06:47:22.37	28.11	9.97	
2025-01-10 06:47:23.19	27.97	9.98	
2025-01-10 06:47:24.01	27.82	9.98	
2025-01-10 06:47:24.83	27.68	9.99	
2025-01-10 06:47:25.65	27.53	10.00	
2025-01-10 06:47:26.48	27.38	10.01	
2025-01-10 06:47:27.29	27.24	10.01	
2025-01-10 06:47:28.12	27.09	10.02	
2025-01-10 06:47:28.93	26.95	10.03	
2025-01-10 06:47:29.76	26.80	10.04	
2025-01-10 06:47:30.58	26.65	10.04	
2025-01-10 06:47:31.41	26.51	10.05	
2025-01-10 06:47:32.23	26.36	10.06	
2025-01-10 06:47:33.05	26.21	10.06	
2025-01-10 06:47:33.87	26.07	10.07	
2025-01-10 06:47:34.69	25.92	10.07	
2025-01-10 06:47:35.51	25.77	10.08	
2025-01-10 06:47:36.33	25.63	10.09	
2025-01-10 06:47:37.16	25.48	10.09	
2025-01-10 06:47:37.98	25.33	10.10	
2025-01-10 06:47:38.80	25.19	10.10	
2025-01-10 06:47:39.62	25.04	10.11	
2025-01-10 06:47:40.44	24.89	10.11	
2025-01-10 06:47:41.27	24.74	10.12	
2025-01-10 06:47:42.09	24.60	10.12	
2025-01-10 06:47:42.91	24.45	10.12	
2025-01-10 06:47:43.73	24.30	10.13	
2025-01-10 06:47:44.55	24.16	10.13	
2025-01-10 06:47:45.37	24.01	10.14	
2025-01-10 06:47:46.19	23.86	10.14	
2025-01-10 06:47:47.00	23.72	10.14	
2025-01-10 06:47:47.82	23.57	10.15	
2025-01-10 06:47:48.64	23.42	10.15	
2025-01-10 06:47:49.47	23.27	10.15	
2025-01-10 06:47:50.29	23.12	10.15	
2025-01-10 06:47:51.11	22.98	10.16	
2025-01-10 06:47:51.93	22.83	10.16	
2025-01-10 06:47:52.75	22.68	10.16	
2025-01-10 06:47:53.57	22.54	10.16	
2025-01-10 06:47:54.39	22.39	10.16	
2025-01-10 06:47:55.21	22.24	10.17	
2025-01-10 06:47:56.03	22.09	10.17	
2025-01-10 06:47:56.85	21.95	10.17	
2025-01-10 06:47:57.67	21.80	10.17	
2025-01-10 06:47:58.49	21.65	10.17	
2025-01-10 06:47:59.31	21.50	10.17	
2025-01-10 06:48:00.12	21.36	10.17	
2025-01-10 06:48:00.95	21.21	10.17	
2025-01-10 06:48:01.77	21.06	10.17	
2025-01-10 06:48:02.59	20.91	10.17	
2025-01-10 06:48:03.41	20.77	10.17	
2025-01-10 06:48:04.25	20.62	10.17	
2025-01-10 06:48:05.07	20.47	10.17	
2025-01-10 06:48:05.89	20.32	10.17	
2025-01-10 06:48:06.71	20.17	10.17	
2025-01-10 06:48:07.53	20.03	10.17	
2025-01-10 06:48:08.35	19.88	10.16	
2025-01-10 06:48:09.17	19.73	10.16	
2025-01-10 06:48:09.99	19.58	10.16	
2025-01-10 06:48:10.81	19.44	10.16	
2025-01-10 06:48:11.63	19.29	10.16	
2025-01-10 06:48:12.46	19.14	10.15	
2025-01-10 06:48:13.28	18.99	10.15	
2025-01-10 06:48:14.10	18.85	10.15	
2025-01-10 06:48:14.92	18.70	10.15	
2025-01-10 06:48:15.74	18.55	10.14	
2025-01-10 06:48:16.56	18.40	10.14	
2025-01-10 06:48:17.38	18.26	10.14	
2025-01-10 06:48:18.21	18.11	10.13	
2025-01-10 06:48:19.03	17.96	10.13	
2025-01-10 06:48:19.86	17.81	10.12	
2025-01-10 06:48:20.69	17.66	10.12	
2025-01-10 06:48:21.53	17.51	10.12	
2025-01-10 06:48:22.34	17.37	10.11	
2025-01-10 06:48:23.16	17.22	10.11	
2025-01-10 06:48:23.98	17.07	10.10	
2025-01-10 06:48:24.80	16.93	10.10	
2025-01-10 06:48:25.62	16.78	10.09	
2025-01-10 06:48:26.44	16.63	10.08	
2025-01-10 06:48:27.26	16.49	10.08	
2025-01-10 06:48:28.08	16.34	10.07	
2025-01-10 06:48:28.90	16.20	10.07	
2025-01-10 06:48:29.73	16.05	10.06	
2025-01-10 06:48:30.55	15.90	10.05	
2025-01-10 06:48:31.37	15.75	10.05	
2025-01-10 06:48:32.21	15.60	10.04	
2025-01-10 06:48:33.02	15.46	10.03	
2025-01-10 06:48:33.85	15.31	10.03	
2025-01-10 06:48:34.67	15.17	10.02	
2025-01-10 06:48:35.50	15.02	10.01	
2025-01-10 06:48:36.32	14.87	10.01	
2025-01-10 06:48:37.14	14.73	10.00	
2025-01-10 06:48:37.97	14.58	9.99	
2025-01-10 06:48:38.79	14.43	9.98	
2025-01-10 06:48:39.62	14.29	9.97	
2025-01-10 06:48:40.44	14.14	9.96	
2025-01-10 06:48:41.26	14.00	9.96	
2025-01-10 06:48:42.08	13.85	9.95	
2025-01-10 06:48:42.90	13.71	9.94	
2025-01-10 06:48:43.73	13.56	9.93	
2025-01-10 06:48:44.55	13.42	9.92	
2025-01-10 06:48:45.37	13.27	9.91	
2025-01-10 06:48:46.20	13.12	9.90	
2025-01-10 06:48:47.02	12.98	9.89	
2025-01-10 06:48:47.84	12.83	9.88	
2025-01-10 06:48:48.66	12.69	9.87	
2025-01-10 06:48:49.48	12.55	9.86	
2025-01-10 06:48:50.30	12.40	9.85	
2025-01-10 06:48:51.13	12.26	9.84	
2025-01-10 06:48:51.94	12.11	9.83	
2025-01-10 06:48:52.76	11.97	9.82	
2025-01-10 06:48:53.59	11.82	9.80	
2025-01-10 06:48:54.41	11.68	9.79	
2025-01-10 06:48:55.23	11.54	9.78	
2025-01-10 06:48:56.05	11.39	9.77	
2025-01-10 06:48:56.87	11.25	9.76	
2025-01-10 06:48:57.69	11.11	9.75	
2025-01-10 06:48:58.51	10.96	9.73	
2025-01-10 06:48:59.33	10.82	9.72	
2025-01-10 06:49:00.15	10.68	9.71	
2025-01-10 06:49:01.02	10.53	9.70	
2025-01-10 06:49:01.84	10.38	9.68	
2025-01-10 06:49:02.67	10.24	9.67	
2025-01-10 06:49:03.49	10.10	9.66	
2025-01-10 06:49:04.32	9.95	9.64	
2025-01-10 06:49:05.14	9.81	9.63	
2025-01-10 06:49:05.95	9.67	9.62	
2025-01-10 06:49:06.77	9.53	9.60	
2025-01-10 06:49:07.60	9.39	9.59	
2025-01-10 06:49:08.42	9.25	9.57	
2025-01-10 06:49:09.23	9.11	9.56	
2025-01-10 06:49:10.06	8.96	9.54	
2025-01-10 06:49:10.88	8.82	9.53	
2025-01-10 06:49:11.69	8.68	9.52	
2025-01-10 06:49:12.51	8.54	9.50	
2025-01-10 06:49:13.35	8.40	9.49	
2025-01-10 06:49:14.17	8.26	9.47	
2025-01-10 06:49:15.01	8.11	9.45	
2025-01-10 06:49:15.83	7.97	9.44	
2025-01-10 06:49:16.65	7.83	9.42	
2025-01-10 06:49:17.47	7.69	9.41	
2025-01-10 06:49:18.30	7.55	9.39	
2025-01-10 06:49:19.12	7.41	9.37	
2025-01-10 06:49:19.94	7.27	9.36	
2025-01-10 06:49:20.77	7.13	9.34	
2025-01-10 06:49:21.60	6.99	9.32	
2025-01-10 06:49:22.43	6.85	9.31	
2025-01-10 06:49:23.25	6.71	9.29	
2025-01-10 06:49:24.07	6.58	9.27	
2025-01-10 06:49:24.89	6.44	9.26	
2025-01-10 06:49:25.73	6.30	9.24	
2025-01-10 06:49:26.54	6.16	9.22	
2025-01-10 06:49:27.36	6.02	9.20	
2025-01-10 06:49:28.18	5.88	9.19	
2025-01-10 06:49:29.01	5.74	9.17	
2025-01-10 06:49:29.83	5.61	9.15	
2025-01-10 06:49:30.65	5.47	9.13	
2025-01-10 06:49:31.47	5.33	9.11	
2025-01-10 06:49:32.29	5.20	9.09	
2025-01-10 06:49:33.11	5.06	9.07	
2025-01-10 06:49:33.93	4.92	9.06	
2025-01-10 06:49:34.75	4.79	9.04	
2025-01-10 06:49:35.57	4.65	9.02	
2025-01-10 06:49:36.39	4.51	9.00	
2025-01-10 06:49:37.21	4.38	8.98	
2025-01-10 06:49:38.04	4.24	8.96	
2025-01-10 06:49:38.86	4.11	8.94	
2025-01-10 06:49:39.68	3.97	8.92	
2025-01-10 06:49:40.51	3.83	8.90	
2025-01-10 06:49:41.33	3.70	8.88	
2025-01-10 06:49:42.14	3.57	8.86	
2025-01-10 06:49:42.96	3.43	8.84	
2025-01-10 06:49:43.80	3.30	8.82	
2025-01-10 06:49:44.62	3.16	8.80	
2025-01-10 06:49:45.44	3.03	8.78	
2025-01-10 06:49:46.26	2.89	8.76	
2025-01-10 06:49:47.08	2.76	8.74	
2025-01-10 06:49:47.90	2.63	8.71	
2025-01-10 06:49:48.72	2.49	8.69	
2025-01-10 06:49:49.54	2.36	8.67	
2025-01-10 06:49:50.36	2.23	8.65	
2025-01-10 06:49:51.18	2.10	8.63	
2025-01-10 06:49:52.00	1.96	8.61	
2025-01-10 06:49:52.82	1.83	8.58	
2025-01-10 06:49:53.64	1.70	8.56	
2025-01-10 06:49:54.47	1.57	8.54	
2025-01-10 06:49:55.30	1.43	8.52	
2025-01-10 06:49:56.12	1.30	8.50	
2025-01-10 06:49:56.94	1.17	8.47	
2025-01-10 06:49:57.76	1.04	8.45	
2025-01-10 06:49:58.58	0.91	8.43	
2025-01-10 06:49:59.41	0.78	8.40	
2025-01-10 06:50:00.23	0.65	8.38	
2025-01-10 06:50:01.05	0.52	8.36	
2025-01-10 06:50:01.87	0.39	8.33	
2025-01-10 06:50:02.69	0.26	8.31	
2025-01-10 06:50:03.51	0.13	8.29	
2025-01-10 06:50:04.33	0.00	8.26	
2025-01-10 06:50:05.15	359.87	8.24	
2025-01-10 06:50:05.97	359.74	8.22	
2025-01-10 06:50:06.79	359.62	8.19	
2025-01-10 06:50:07.61	359.49	8.17	
2025-01-10 06:50:08.43	359.36	8.14	
2025-01-10 06:50:09.25	359.23	8.12	
2025-01-10 06:50:10.07	359.10	8.10	
2025-01-10 06:50:10.89	358.98	8.07	
2025-01-10 06:50:11.72	358.85	8.05	
2025-01-10 06:50:12.54	358.72	8.02	
2025-01-10 06:50:13.36	358.59	8.00	
2025-01-10 06:50:14.18	358.47	7.97	
2025-01-10 06:50:15.00	358.34	7.95	
2025-01-10 06:50:15.82	358.22	7.92	
2025-01-10 06:50:16.63	358.09	7.90	
2025-01-10 06:50:17.46	357.96	7.87	
2025-01-10 06:50:18.28	357.84	7.85	
2025-01-10 06:50:19.10	357.71	7.82	
2025-01-10 06:50:19.92	357.59	7.79	
2025-01-10 06:50:20.74	357.46	7.77	
2025-01-10 06:50:21.56	357.34	7.74	
2025-01-10 06:50:22.38	357.21	7.72	
2025-01-10 06:50:23.20	357.09	7.69	
2025-01-10 06:50:24.02	356.97	7.66	
2025-01-10 06:50:24.84	356.84	7.64	
2025-01-10 06:50:25.66	356.72	7.61	
2025-01-10 06:50:26.49	356.60	7.58	
2025-01-10 06:50:27.32	356.47	7.56	
2025-01-10 06:50:28.14	356.35	7.53	
2025-01-10 06:50:28.96	356.23	7.50	
2025-01-10 06:50:29.79	356.10	7.48	
2025-01-10 06:50:30.61	355.98	7.45	
2025-01-10 06:50:31.44	355.86	7.42	
2025-01-10 06:50:32.26	355.74	7.40	
2025-01-10 06:50:33.08	355.61	7.37	
2025-01-10 06:50:33.90	355.49	7.34	
2025-01-10 06:50:34.72	355.37	7.31	
2025-01-10 06:50:35.55	355.25	7.29	
2025-01-10 06:50:36.37	355.13	7.26	
2025-01-10 06:50:37.21	355.01	7.23	
2025-01-10 06:50:38.03	354.89	7.20	
2025-01-10 06:50:38.85	354.77	7.17	
2025-01-10 06:50:39.68	354.65	7.15	
2025-01-10 06:50:40.50	354.53	7.12	
2025-01-10 06:50:41.32	354.41	7.09	
2025-01-10 06:50:42.14	354.29	7.06	
2025-01-10 06:50:42.96	354.17	7.03	
2025-01-10 06:50:43.78	354.05	7.00	
2025-01-10 06:50:44.60	353.94	6.98	
2025-01-10 06:50:45.43	353.82	6.95	
2025-01-10 06:50:46.26	353.70	6.92	
2025-01-10 06:50:47.09	353.58	6.89	
2025-01-10 06:50:47.91	353.46	6.86	
2025-01-10 06:50:48.74	353.34	6.83	
2025-01-10 06:50:49.56	353.23	6.80	
2025-01-10 06:50:50.39	353.11	6.77	
2025-01-10 06:50:51.21	352.99	6.74	
2025-01-10 06:50:52.03	352.88	6.71	
2025-01-10 06:50:52.85	352.76	6.69	
2025-01-10 06:50:53.67	352.65	6.66	
2025-01-10 06:50:54.49	352.53	6.63	
2025-01-10 06:50:55.31	352.42	6.60	
2025-01-10 06:50:56.13	352.30	6.57	
2025-01-10 06:50:56.95	352.19	6.54	
2025-01-10 06:50:57.77	352.07	6.51	
2025-01-10 06:50:58.59	351.96	6.48	
2025-01-10 06:50:59.42	351.85	6.45	
2025-01-10 06:51:00.24	351.73	6.42	
2025-01-10 06:51:01.07	351.62	6.39	
2025-01-10 06:51:01.90	351.50	6.36	
2025-01-10 06:51:02.72	351.39	6.33	
2025-01-10 06:51:03.54	351.28	6.30	
2025-01-10 06:51:04.37	351.16	6.27	
2025-01-10 06:51:05.19	351.05	6.24	
2025-01-10 06:51:06.01	350.94	6.21	
2025-01-10 06:51:06.83	350.83	6.18	
2025-01-10 06:51:07.65	350.72	6.14	
2025-01-10 06:51:08.47	350.61	6.11	
2025-01-10 06:51:09.30	350.49	6.08	
2025-01-10 06:51:10.13	350.38	6.05	
2025-01-10 06:51:10.96	350.27	6.02	
2025-01-10 06:51:11.78	350.16	5.99	
2025-01-10 06:51:12.61	350.05	5.96	
2025-01-10 06:51:13.43	349.94	5.93	
2025-01-10 06:51:14.25	349.83	5.90	
2025-01-10 06:51:15.07	349.72	5.87	
2025-01-10 06:51:15.89	349.61	5.83	
2025-01-10 06:51:16.71	349.50	5.80	
2025-01-10 06:51:17.54	349.40	5.77	
2025-01-10 06:51:18.36	349.29	5.74	
2025-01-10 06:51:19.18	349.18	5.71	
2025-01-10 06:51:20.00	349.07	5.68	
2025-01-10 06:51:20.81	348.97	5.65	
2025-01-10 06:51:21.63	348.86	5.61	
2025-01-10 06:51:22.47	348.75	5.58	
2025-01-10 06:51:23.29	348.64	5.55	
2025-01-10 06:51:24.11	348.54	5.52	
2025-01-10 06:51:24.93	348.43	5.49	
2025-01-10 06:51:25.75	348.32	5.45	
2025-01-10 06:51:26.57	348.22	5.42	
2025-01-10 06:51:27.39	348.11	5.39	
2025-01-10 06:51:28.21	348.01	5.36	
2025-01-10 06:51:29.04	347.90	5.33	
2025-01-10 06:51:29.86	347.80	5.29	
2025-01-10 06:51:30.68	347.69	5.26	
2025-01-10 06:51:31.51	347.59	5.23	
2025-01-10 06:51:32.33	347.48	5.20	
2025-01-10 06:51:33.15	347.38	5.17	
2025-01-10 06:51:33.97	347.27	5.13	
2025-01-10 06:51:34.79	347.17	5.10	
2025-01-10 06:51:35.61	347.07	5.07	
2025-01-10 06:51:36.43	346.96	5.04	
2025-01-10 06:51:37.25	346.86	5.00	
2025-01-10 06:51:38.07	346.76	4.97	
2025-01-10 06:51:38.89	346.66	4.94	
2025-01-10 06:51:39.71	346.56	4.91	
2025-01-10 06:51:40.53	346.45	4.87	
2025-01-10 06:51:41.35	346.35	4.84	
2025-01-10 06:51:42.17	346.25	4.81	
2025-01-10 06:51:43.00	346.15	4.77	
2025-01-10 06:51:43.82	346.05	4.74	
2025-01-10 06:51:44.64	345.95	4.71	
2025-01-10 06:51:45.46	345.85	4.67	
2025-01-10 06:51:46.28	345.75	4.64	
2025-01-10 06:51:47.10	345.65	4.61	
2025-01-10 06:51:47.92	345.55	4.58	
2025-01-10 06:51:48.75	345.45	4.54	
2025-01-10 06:51:49.58	345.35	4.51	
2025-01-10 06:51:50.41	345.25	4.47	
2025-01-10 06:51:51.24	345.15	4.44	
2025-01-10 06:51:52.06	345.05	4.41	
2025-01-10 06:51:52.89	344.95	4.37	
2025-01-10 06:51:53.71	344.85	4.34	
2025-01-10 06:51:54.53	344.75	4.31	
2025-01-10 06:51:55.35	344.65	4.27	
2025-01-10 06:51:56.18	344.56	4.24	
2025-01-10 06:51:57.00	344.46	4.21	
2025-01-10 06:51:57.82	344.36	4.17	
2025-01-10 06:51:58.64	344.27	4.14	
2025-01-10 06:51:59.46	344.17	4.11	
2025-01-10 06:52:00.28	344.07	4.07	
2025-01-10 06:52:01.10	343.98	4.04	
2025-01-10 06:52:01.92	343.88	4.00	

#Closed at: 2025-01-10 06:52:02