passes_logs/2025/01/10/SPB_Silybum_02/SPB_Silybum_02__20250110_191122_TERRA_rec.log

#Pass ID: 20250110_191122_TERRA
#Satellite: TERRA
#Configuration: TERRA
#Start time: 2025-01-10 19:11:21

#Version: 2.0.20230423
#Station: SPB_Silybum_02
#Location: 30.233357 lon 59.946436 lat
#TLE: 1 25994U 99068A   25009.84464495  .00000861  00000+0  18726-3 0  9992
#TLE: 2 25994  98.0226  73.0387 0003560  82.8900 338.1382 14.60385144333325

#Time	Az	El	Level	Level2	SNR	BER	Gain	Gain2
2025-01-10 19:11:23.07	182.07	4.05	
2025-01-10 19:11:24.30	182.12	4.13	
2025-01-10 19:11:25.53	182.17	4.22	
2025-01-10 19:11:26.76	182.23	4.31	
2025-01-10 19:11:28.00	182.28	4.39	
2025-01-10 19:11:29.24	182.33	4.48	
2025-01-10 19:11:30.46	182.38	4.57	
2025-01-10 19:11:31.70	182.44	4.66	
2025-01-10 19:11:32.93	182.49	4.75	
2025-01-10 19:11:34.16	182.54	4.84	
2025-01-10 19:11:35.39	182.60	4.92	
2025-01-10 19:11:36.62	182.65	5.01	
2025-01-10 19:11:37.86	182.71	5.10	
2025-01-10 19:11:39.09	182.76	5.19	
2025-01-10 19:11:40.32	182.82	5.28	
2025-01-10 19:11:41.55	182.87	5.37	
2025-01-10 19:11:42.78	182.93	5.47	
2025-01-10 19:11:44.01	182.99	5.56	
2025-01-10 19:11:45.24	183.04	5.65	
2025-01-10 19:11:46.47	183.10	5.74	
2025-01-10 19:11:47.70	183.16	5.83	
2025-01-10 19:11:48.93	183.22	5.92	
2025-01-10 19:11:50.17	183.27	6.02	
2025-01-10 19:11:51.40	183.33	6.11	
2025-01-10 19:11:52.63	183.39	6.21	
2025-01-10 19:11:53.86	183.45	6.30	
2025-01-10 19:11:55.09	183.51	6.39	
2025-01-10 19:11:56.33	183.57	6.49	
2025-01-10 19:11:57.56	183.63	6.58	
2025-01-10 19:11:58.79	183.69	6.68	
2025-01-10 19:12:00.02	183.75	6.77	
2025-01-10 19:12:01.26	183.82	6.87	
2025-01-10 19:12:02.49	183.88	6.97	
2025-01-10 19:12:03.72	183.94	7.07	
2025-01-10 19:12:04.95	184.00	7.16	
2025-01-10 19:12:06.20	184.07	7.26	
2025-01-10 19:12:07.45	184.13	7.36	
2025-01-10 19:12:08.68	184.20	7.46	
2025-01-10 19:12:09.91	184.26	7.56	
2025-01-10 19:12:11.16	184.33	7.66	
2025-01-10 19:12:12.39	184.40	7.76	
2025-01-10 19:12:13.61	184.46	7.86	
2025-01-10 19:12:14.84	184.53	7.96	
2025-01-10 19:12:16.08	184.60	8.06	
2025-01-10 19:12:17.30	184.66	8.16	
2025-01-10 19:12:18.54	184.73	8.26	
2025-01-10 19:12:19.77	184.80	8.37	
2025-01-10 19:12:21.00	184.87	8.47	
2025-01-10 19:12:22.23	184.94	8.57	
2025-01-10 19:12:23.46	185.01	8.68	
2025-01-10 19:12:24.69	185.08	8.78	
2025-01-10 19:12:25.92	185.15	8.88	
2025-01-10 19:12:27.15	185.22	8.99	
2025-01-10 19:12:28.38	185.29	9.09	
2025-01-10 19:12:29.63	185.37	9.20	
2025-01-10 19:12:30.86	185.44	9.31	
2025-01-10 19:12:32.09	185.52	9.41	
2025-01-10 19:12:33.33	185.59	9.52	
2025-01-10 19:12:34.56	185.67	9.63	
2025-01-10 19:12:35.80	185.74	9.74	
2025-01-10 19:12:37.04	185.82	9.85	
2025-01-10 19:12:38.27	185.89	9.96	
2025-01-10 19:12:39.50	185.97	10.07	
2025-01-10 19:12:40.73	186.05	10.18	
2025-01-10 19:12:41.96	186.13	10.29	
2025-01-10 19:12:43.19	186.21	10.40	
2025-01-10 19:12:44.42	186.29	10.51	
2025-01-10 19:12:45.66	186.37	10.62	
2025-01-10 19:12:46.88	186.45	10.74	
2025-01-10 19:12:48.11	186.53	10.85	
2025-01-10 19:12:49.34	186.61	10.96	
2025-01-10 19:12:50.58	186.70	11.08	
2025-01-10 19:12:51.81	186.78	11.19	
2025-01-10 19:12:53.05	186.86	11.31	
2025-01-10 19:12:54.28	186.95	11.43	
2025-01-10 19:12:55.54	187.04	11.55	
2025-01-10 19:12:56.77	187.12	11.66	
2025-01-10 19:12:58.02	187.21	11.78	
2025-01-10 19:12:59.25	187.30	11.90	
2025-01-10 19:13:00.48	187.39	12.02	
2025-01-10 19:13:01.72	187.48	12.14	
2025-01-10 19:13:02.95	187.57	12.26	
2025-01-10 19:13:04.19	187.66	12.38	
2025-01-10 19:13:05.42	187.75	12.50	
2025-01-10 19:13:06.67	187.84	12.63	
2025-01-10 19:13:07.90	187.94	12.75	
2025-01-10 19:13:09.14	188.03	12.87	
2025-01-10 19:13:10.37	188.13	13.00	
2025-01-10 19:13:11.59	188.22	13.12	
2025-01-10 19:13:12.83	188.32	13.25	
2025-01-10 19:13:14.06	188.41	13.37	
2025-01-10 19:13:15.29	188.51	13.50	
2025-01-10 19:13:16.52	188.61	13.63	
2025-01-10 19:13:17.75	188.71	13.75	
2025-01-10 19:13:18.98	188.81	13.88	
2025-01-10 19:13:20.21	188.91	14.01	
2025-01-10 19:13:21.44	189.02	14.14	
2025-01-10 19:13:22.68	189.12	14.27	
2025-01-10 19:13:23.91	189.22	14.40	
2025-01-10 19:13:25.14	189.33	14.54	
2025-01-10 19:13:26.37	189.44	14.67	
2025-01-10 19:13:27.60	189.54	14.80	
2025-01-10 19:13:28.83	189.65	14.94	
2025-01-10 19:13:30.07	189.76	15.07	
2025-01-10 19:13:31.31	189.87	15.21	
2025-01-10 19:13:32.54	189.98	15.34	
2025-01-10 19:13:33.77	190.09	15.48	
2025-01-10 19:13:35.03	190.21	15.62	
2025-01-10 19:13:36.26	190.32	15.76	
2025-01-10 19:13:37.49	190.44	15.90	
2025-01-10 19:13:38.72	190.56	16.04	
2025-01-10 19:13:39.95	190.67	16.18	
2025-01-10 19:13:41.18	190.79	16.32	
2025-01-10 19:13:42.41	190.91	16.47	
2025-01-10 19:13:43.64	191.03	16.61	
2025-01-10 19:13:44.87	191.16	16.75	
2025-01-10 19:13:46.10	191.28	16.90	
2025-01-10 19:13:47.33	191.40	17.04	
2025-01-10 19:13:48.57	191.53	17.19	
2025-01-10 19:13:49.79	191.66	17.34	
2025-01-10 19:13:51.02	191.79	17.49	
2025-01-10 19:13:52.25	191.92	17.64	
2025-01-10 19:13:53.48	192.05	17.79	
2025-01-10 19:13:54.72	192.18	17.94	
2025-01-10 19:13:55.96	192.32	18.09	
2025-01-10 19:13:57.19	192.45	18.24	
2025-01-10 19:13:58.42	192.59	18.40	
2025-01-10 19:13:59.65	192.73	18.55	
2025-01-10 19:14:00.88	192.87	18.71	
2025-01-10 19:14:02.11	193.01	18.86	
2025-01-10 19:14:03.34	193.15	19.02	
2025-01-10 19:14:04.57	193.29	19.18	
2025-01-10 19:14:05.80	193.44	19.34	
2025-01-10 19:14:07.03	193.59	19.50	
2025-01-10 19:14:08.26	193.73	19.66	
2025-01-10 19:14:09.49	193.88	19.82	
2025-01-10 19:14:10.74	194.04	19.99	
2025-01-10 19:14:11.97	194.19	20.15	
2025-01-10 19:14:13.20	194.35	20.32	
2025-01-10 19:14:14.43	194.50	20.48	
2025-01-10 19:14:15.66	194.66	20.65	
2025-01-10 19:14:16.89	194.82	20.82	
2025-01-10 19:14:18.13	194.99	20.99	
2025-01-10 19:14:19.36	195.15	21.16	
2025-01-10 19:14:20.59	195.32	21.33	
2025-01-10 19:14:21.82	195.48	21.50	
2025-01-10 19:14:23.05	195.65	21.67	
2025-01-10 19:14:24.28	195.83	21.85	
2025-01-10 19:14:25.53	196.00	22.03	
2025-01-10 19:14:26.77	196.18	22.20	
2025-01-10 19:14:28.02	196.36	22.39	
2025-01-10 19:14:29.25	196.54	22.56	
2025-01-10 19:14:30.49	196.72	22.74	
2025-01-10 19:14:31.71	196.91	22.92	
2025-01-10 19:14:32.95	197.09	23.11	
2025-01-10 19:14:34.18	197.28	23.29	
2025-01-10 19:14:35.41	197.47	23.47	
2025-01-10 19:14:36.64	197.67	23.66	
2025-01-10 19:14:37.87	197.86	23.85	
2025-01-10 19:14:39.12	198.06	24.04	
2025-01-10 19:14:40.35	198.26	24.23	
2025-01-10 19:14:41.59	198.47	24.42	
2025-01-10 19:14:42.82	198.67	24.61	
2025-01-10 19:14:44.05	198.88	24.80	
2025-01-10 19:14:45.28	199.09	24.99	
2025-01-10 19:14:46.51	199.30	25.19	
2025-01-10 19:14:47.75	199.52	25.38	
2025-01-10 19:14:48.98	199.74	25.58	
2025-01-10 19:14:50.21	199.96	25.78	
2025-01-10 19:14:51.44	200.18	25.98	
2025-01-10 19:14:52.67	200.41	26.18	
2025-01-10 19:14:53.92	200.65	26.38	
2025-01-10 19:14:55.14	200.88	26.58	
2025-01-10 19:14:56.39	201.12	26.79	
2025-01-10 19:14:57.62	201.36	26.99	
2025-01-10 19:14:58.86	201.60	27.20	
2025-01-10 19:15:00.09	201.84	27.41	
2025-01-10 19:15:01.32	202.09	27.62	
2025-01-10 19:15:02.55	202.35	27.83	
2025-01-10 19:15:03.78	202.60	28.04	
2025-01-10 19:15:05.01	202.86	28.25	
2025-01-10 19:15:06.24	203.12	28.46	
2025-01-10 19:15:07.47	203.39	28.68	
2025-01-10 19:15:08.70	203.66	28.89	
2025-01-10 19:15:09.93	203.93	29.11	
2025-01-10 19:15:11.17	204.21	29.33	
2025-01-10 19:15:12.42	204.49	29.55	
2025-01-10 19:15:13.65	204.78	29.77	
2025-01-10 19:15:14.88	205.07	29.99	
2025-01-10 19:15:16.11	205.36	30.21	
2025-01-10 19:15:17.34	205.66	30.43	
2025-01-10 19:15:18.57	205.96	30.66	
2025-01-10 19:15:19.80	206.26	30.88	
2025-01-10 19:15:21.05	206.58	31.11	
2025-01-10 19:15:22.28	206.89	31.34	
2025-01-10 19:15:23.51	207.21	31.56	
2025-01-10 19:15:24.74	207.53	31.79	
2025-01-10 19:15:25.97	207.86	32.02	
2025-01-10 19:15:27.20	208.19	32.25	
2025-01-10 19:15:28.43	208.53	32.48	
2025-01-10 19:15:29.67	208.88	32.72	
2025-01-10 19:15:30.90	209.22	32.95	
2025-01-10 19:15:32.13	209.57	33.18	
2025-01-10 19:15:33.36	209.93	33.42	
2025-01-10 19:15:34.59	210.29	33.65	
2025-01-10 19:15:35.82	210.66	33.89	
2025-01-10 19:15:37.05	211.04	34.13	
2025-01-10 19:15:38.29	211.42	34.37	
2025-01-10 19:15:39.52	211.80	34.60	
2025-01-10 19:15:40.76	212.20	34.84	
2025-01-10 19:15:41.99	212.59	35.08	
2025-01-10 19:15:43.23	213.00	35.32	
2025-01-10 19:15:44.46	213.40	35.56	
2025-01-10 19:15:45.69	213.82	35.80	
2025-01-10 19:15:46.93	214.24	36.04	
2025-01-10 19:15:48.19	214.68	36.29	
2025-01-10 19:15:49.42	215.11	36.53	
2025-01-10 19:15:50.65	215.55	36.77	
2025-01-10 19:15:51.88	216.00	37.01	
2025-01-10 19:15:53.11	216.45	37.25	
2025-01-10 19:15:54.34	216.91	37.49	
2025-01-10 19:15:55.58	217.38	37.73	
2025-01-10 19:15:56.81	217.85	37.97	
2025-01-10 19:15:58.04	218.33	38.21	
2025-01-10 19:15:59.27	218.82	38.45	
2025-01-10 19:16:00.50	219.32	38.69	
2025-01-10 19:16:01.74	219.82	38.93	
2025-01-10 19:16:02.99	220.34	39.17	
2025-01-10 19:16:04.22	220.86	39.41	
2025-01-10 19:16:05.45	221.38	39.64	
2025-01-10 19:16:06.68	221.92	39.88	
2025-01-10 19:16:07.91	222.46	40.11	
2025-01-10 19:16:09.14	223.00	40.34	
2025-01-10 19:16:10.37	223.56	40.57	
2025-01-10 19:16:11.60	224.13	40.80	
2025-01-10 19:16:12.84	224.70	41.03	
2025-01-10 19:16:14.07	225.28	41.26	
2025-01-10 19:16:15.30	225.87	41.49	
2025-01-10 19:16:16.53	226.47	41.71	
2025-01-10 19:16:17.76	227.07	41.93	
2025-01-10 19:16:19.01	227.70	42.15	
2025-01-10 19:16:20.24	228.32	42.37	
2025-01-10 19:16:21.47	228.95	42.58	
2025-01-10 19:16:22.70	229.59	42.79	
2025-01-10 19:16:23.93	230.24	43.00	
2025-01-10 19:16:25.16	230.89	43.21	
2025-01-10 19:16:26.39	231.56	43.41	
2025-01-10 19:16:27.62	232.23	43.61	
2025-01-10 19:16:28.86	232.92	43.81	
2025-01-10 19:16:30.10	233.61	44.00	
2025-01-10 19:16:31.33	234.31	44.19	
2025-01-10 19:16:32.56	235.01	44.38	
2025-01-10 19:16:33.78	235.72	44.56	
2025-01-10 19:16:35.02	236.45	44.74	
2025-01-10 19:16:36.25	237.18	44.91	
2025-01-10 19:16:37.48	237.92	45.08	
2025-01-10 19:16:38.71	238.67	45.25	
2025-01-10 19:16:39.96	239.43	45.41	
2025-01-10 19:16:41.19	240.20	45.57	
2025-01-10 19:16:42.42	240.97	45.72	
2025-01-10 19:16:43.66	241.75	45.86	
2025-01-10 19:16:44.89	242.53	46.01	
2025-01-10 19:16:46.12	243.32	46.14	
2025-01-10 19:16:47.36	244.13	46.27	
2025-01-10 19:16:48.59	244.93	46.40	
2025-01-10 19:16:49.82	245.74	46.52	
2025-01-10 19:16:51.05	246.56	46.63	
2025-01-10 19:16:52.28	247.38	46.74	
2025-01-10 19:16:53.52	248.21	46.84	
2025-01-10 19:16:54.74	249.04	46.93	
2025-01-10 19:16:55.97	249.88	47.02	
2025-01-10 19:16:57.20	250.72	47.10	
2025-01-10 19:16:58.44	251.57	47.18	
2025-01-10 19:16:59.67	252.42	47.25	
2025-01-10 19:17:00.90	253.28	47.31	
2025-01-10 19:17:02.13	254.13	47.37	
2025-01-10 19:17:03.36	254.99	47.42	
2025-01-10 19:17:04.58	255.85	47.46	
2025-01-10 19:17:05.81	256.71	47.49	
2025-01-10 19:17:07.04	257.58	47.52	
2025-01-10 19:17:08.29	258.46	47.54	
2025-01-10 19:17:09.52	259.33	47.56	
2025-01-10 19:17:10.75	260.20	47.57	
2025-01-10 19:17:11.99	261.08	47.57	
2025-01-10 19:17:13.22	261.95	47.56	
2025-01-10 19:17:14.45	262.82	47.55	
2025-01-10 19:17:15.68	263.68	47.53	
2025-01-10 19:17:16.91	264.55	47.50	
2025-01-10 19:17:18.15	265.42	47.47	
2025-01-10 19:17:19.39	266.29	47.43	
2025-01-10 19:17:20.63	267.16	47.38	
2025-01-10 19:17:21.86	268.02	47.32	
2025-01-10 19:17:23.09	268.87	47.26	
2025-01-10 19:17:24.32	269.72	47.20	
2025-01-10 19:17:25.56	270.57	47.12	
2025-01-10 19:17:26.79	271.42	47.04	
2025-01-10 19:17:28.02	272.25	46.95	
2025-01-10 19:17:29.25	273.09	46.86	
2025-01-10 19:17:30.48	273.91	46.76	
2025-01-10 19:17:31.71	274.74	46.65	
2025-01-10 19:17:32.95	275.56	46.54	
2025-01-10 19:17:34.18	276.37	46.42	
2025-01-10 19:17:35.43	277.19	46.30	
2025-01-10 19:17:36.66	277.99	46.17	
2025-01-10 19:17:37.89	278.78	46.04	
2025-01-10 19:17:39.12	279.56	45.90	
2025-01-10 19:17:40.35	280.34	45.75	
2025-01-10 19:17:41.58	281.11	45.60	
2025-01-10 19:17:42.81	281.87	45.45	
2025-01-10 19:17:44.04	282.62	45.29	
2025-01-10 19:17:45.29	283.38	45.12	
2025-01-10 19:17:46.53	284.13	44.95	
2025-01-10 19:17:47.76	284.86	44.78	
2025-01-10 19:17:48.99	285.58	44.60	
2025-01-10 19:17:50.23	286.30	44.42	
2025-01-10 19:17:51.46	287.01	44.24	
2025-01-10 19:17:52.69	287.71	44.05	
2025-01-10 19:17:53.93	288.40	43.86	
2025-01-10 19:17:55.17	289.09	43.66	
2025-01-10 19:17:56.40	289.76	43.46	
2025-01-10 19:17:57.63	290.43	43.26	
2025-01-10 19:17:58.85	291.08	43.06	
2025-01-10 19:18:00.08	291.72	42.85	
2025-01-10 19:18:01.31	292.36	42.64	
2025-01-10 19:18:02.54	292.99	42.43	
2025-01-10 19:18:03.79	293.63	42.21	
2025-01-10 19:18:05.02	294.24	41.99	
2025-01-10 19:18:06.25	294.85	41.77	
2025-01-10 19:18:07.50	295.45	41.55	
2025-01-10 19:18:08.73	296.04	41.32	
2025-01-10 19:18:09.96	296.62	41.10	
2025-01-10 19:18:11.19	297.20	40.87	
2025-01-10 19:18:12.42	297.76	40.64	
2025-01-10 19:18:13.67	298.33	40.41	
2025-01-10 19:18:14.91	298.88	40.18	
2025-01-10 19:18:16.16	299.43	39.94	
2025-01-10 19:18:17.40	299.96	39.71	
2025-01-10 19:18:18.63	300.49	39.47	
2025-01-10 19:18:19.86	301.01	39.24	
2025-01-10 19:18:21.09	301.52	39.00	
2025-01-10 19:18:22.32	302.02	38.77	
2025-01-10 19:18:23.56	302.52	38.53	
2025-01-10 19:18:24.81	303.01	38.28	
2025-01-10 19:18:26.04	303.49	38.05	
2025-01-10 19:18:27.27	303.97	37.81	
2025-01-10 19:18:28.50	304.43	37.57	
2025-01-10 19:18:29.73	304.89	37.33	
2025-01-10 19:18:30.96	305.35	37.09	
2025-01-10 19:18:32.19	305.79	36.85	
2025-01-10 19:18:33.42	306.23	36.61	
2025-01-10 19:18:34.65	306.67	36.37	
2025-01-10 19:18:35.90	307.10	36.13	
2025-01-10 19:18:37.14	307.52	35.89	
2025-01-10 19:18:38.37	307.94	35.65	
2025-01-10 19:18:39.60	308.35	35.41	
2025-01-10 19:18:40.83	308.75	35.18	
2025-01-10 19:18:42.07	309.15	34.94	
2025-01-10 19:18:43.30	309.54	34.70	
2025-01-10 19:18:44.54	309.92	34.46	
2025-01-10 19:18:45.77	310.30	34.23	
2025-01-10 19:18:47.00	310.68	33.99	
2025-01-10 19:18:48.23	311.05	33.76	
2025-01-10 19:18:49.46	311.41	33.52	
2025-01-10 19:18:50.69	311.77	33.29	
2025-01-10 19:18:51.94	312.12	33.05	
2025-01-10 19:18:53.17	312.47	32.82	
2025-01-10 19:18:54.41	312.82	32.59	
2025-01-10 19:18:55.64	313.15	32.36	
2025-01-10 19:18:56.88	313.49	32.13	
2025-01-10 19:18:58.12	313.82	31.90	
2025-01-10 19:18:59.35	314.14	31.67	
2025-01-10 19:19:00.60	314.47	31.44	
2025-01-10 19:19:01.83	314.78	31.21	
2025-01-10 19:19:03.06	315.09	30.99	
2025-01-10 19:19:04.29	315.40	30.76	
2025-01-10 19:19:05.52	315.70	30.54	
2025-01-10 19:19:06.75	315.99	30.32	
2025-01-10 19:19:07.98	316.29	30.10	
2025-01-10 19:19:09.22	316.58	29.88	
2025-01-10 19:19:10.44	316.86	29.66	
2025-01-10 19:19:11.68	317.14	29.44	
2025-01-10 19:19:12.91	317.42	29.23	
2025-01-10 19:19:14.14	317.69	29.01	
2025-01-10 19:19:15.37	317.96	28.80	
2025-01-10 19:19:16.60	318.23	28.58	
2025-01-10 19:19:17.83	318.49	28.37	
2025-01-10 19:19:19.06	318.75	28.16	
2025-01-10 19:19:20.30	319.01	27.95	
2025-01-10 19:19:21.53	319.26	27.74	
2025-01-10 19:19:22.75	319.51	27.54	
2025-01-10 19:19:23.99	319.76	27.33	
2025-01-10 19:19:25.22	320.00	27.12	
2025-01-10 19:19:26.45	320.24	26.92	
2025-01-10 19:19:27.68	320.48	26.72	
2025-01-10 19:19:28.91	320.71	26.52	
2025-01-10 19:19:30.14	320.94	26.32	
2025-01-10 19:19:31.37	321.17	26.12	
2025-01-10 19:19:32.60	321.39	25.92	
2025-01-10 19:19:33.83	321.61	25.72	
2025-01-10 19:19:35.06	321.83	25.52	
2025-01-10 19:19:36.29	322.05	25.33	
2025-01-10 19:19:37.52	322.26	25.14	
2025-01-10 19:19:38.75	322.47	24.94	
2025-01-10 19:19:39.98	322.68	24.75	
2025-01-10 19:19:41.21	322.89	24.56	
2025-01-10 19:19:42.45	323.09	24.37	
2025-01-10 19:19:43.69	323.29	24.18	
2025-01-10 19:19:44.92	323.49	24.00	
2025-01-10 19:19:46.15	323.69	23.81	
2025-01-10 19:19:47.38	323.88	23.63	
2025-01-10 19:19:48.61	324.07	23.44	
2025-01-10 19:19:49.84	324.26	23.26	
2025-01-10 19:19:51.07	324.45	23.08	
2025-01-10 19:19:52.30	324.63	22.90	
2025-01-10 19:19:53.53	324.82	22.72	
2025-01-10 19:19:54.77	325.00	22.54	
2025-01-10 19:19:56.01	325.18	22.36	
2025-01-10 19:19:57.24	325.35	22.19	
2025-01-10 19:19:58.47	325.53	22.01	
2025-01-10 19:19:59.71	325.70	21.84	
2025-01-10 19:20:00.94	325.87	21.66	
2025-01-10 19:20:02.17	326.04	21.49	
2025-01-10 19:20:03.40	326.21	21.32	
2025-01-10 19:20:04.63	326.37	21.15	
2025-01-10 19:20:05.86	326.54	20.98	
2025-01-10 19:20:07.09	326.70	20.82	
2025-01-10 19:20:08.32	326.86	20.65	
2025-01-10 19:20:09.55	327.01	20.49	
2025-01-10 19:20:10.78	327.17	20.32	
2025-01-10 19:20:12.01	327.32	20.16	
2025-01-10 19:20:13.24	327.48	19.99	
2025-01-10 19:20:14.47	327.63	19.83	
2025-01-10 19:20:15.70	327.78	19.67	
2025-01-10 19:20:16.93	327.92	19.51	
2025-01-10 19:20:18.16	328.07	19.35	
2025-01-10 19:20:19.39	328.22	19.20	
2025-01-10 19:20:20.63	328.36	19.04	
2025-01-10 19:20:21.86	328.50	18.88	
2025-01-10 19:20:23.09	328.64	18.73	
2025-01-10 19:20:24.32	328.78	18.57	
2025-01-10 19:20:25.55	328.92	18.42	
2025-01-10 19:20:26.78	329.05	18.27	
2025-01-10 19:20:28.01	329.19	18.12	
2025-01-10 19:20:29.24	329.32	17.97	
2025-01-10 19:20:30.48	329.46	17.82	
2025-01-10 19:20:31.71	329.59	17.67	
2025-01-10 19:20:32.95	329.72	17.52	
2025-01-10 19:20:34.18	329.84	17.37	
2025-01-10 19:20:35.41	329.97	17.23	
2025-01-10 19:20:36.65	330.10	17.08	
2025-01-10 19:20:37.90	330.22	16.93	
2025-01-10 19:20:39.13	330.35	16.79	
2025-01-10 19:20:40.36	330.47	16.65	
2025-01-10 19:20:41.61	330.59	16.50	
2025-01-10 19:20:42.84	330.71	16.36	
2025-01-10 19:20:44.07	330.83	16.22	
2025-01-10 19:20:45.30	330.95	16.08	
2025-01-10 19:20:46.53	331.06	15.94	
2025-01-10 19:20:47.76	331.18	15.80	
2025-01-10 19:20:48.99	331.29	15.67	
2025-01-10 19:20:50.22	331.41	15.53	
2025-01-10 19:20:51.46	331.52	15.39	
2025-01-10 19:20:52.68	331.63	15.26	
2025-01-10 19:20:53.91	331.74	15.12	
2025-01-10 19:20:55.14	331.85	14.99	
2025-01-10 19:20:56.37	331.96	14.86	
2025-01-10 19:20:57.61	332.06	14.72	
2025-01-10 19:20:58.83	332.17	14.59	
2025-01-10 19:21:00.06	332.27	14.46	
2025-01-10 19:21:01.29	332.38	14.33	
2025-01-10 19:21:02.51	332.48	14.20	
2025-01-10 19:21:03.75	332.58	14.07	
2025-01-10 19:21:04.98	332.68	13.95	
2025-01-10 19:21:06.21	332.79	13.82	
2025-01-10 19:21:07.44	332.88	13.69	
2025-01-10 19:21:08.68	332.98	13.57	
2025-01-10 19:21:09.91	333.08	13.44	
2025-01-10 19:21:11.14	333.18	13.32	
2025-01-10 19:21:12.37	333.28	13.19	
2025-01-10 19:21:13.62	333.37	13.07	
2025-01-10 19:21:14.85	333.47	12.94	
2025-01-10 19:21:16.10	333.56	12.82	
2025-01-10 19:21:17.33	333.66	12.70	
2025-01-10 19:21:18.56	333.75	12.58	
2025-01-10 19:21:19.79	333.84	12.46	
2025-01-10 19:21:21.02	333.93	12.34	
2025-01-10 19:21:22.25	334.02	12.22	
2025-01-10 19:21:23.49	334.11	12.10	
2025-01-10 19:21:24.72	334.20	11.98	
2025-01-10 19:21:25.95	334.29	11.86	
2025-01-10 19:21:27.18	334.38	11.74	
2025-01-10 19:21:28.42	334.46	11.63	
2025-01-10 19:21:29.65	334.55	11.51	
2025-01-10 19:21:30.89	334.63	11.40	
2025-01-10 19:21:32.12	334.72	11.28	
2025-01-10 19:21:33.36	334.80	11.17	
2025-01-10 19:21:34.59	334.89	11.05	
2025-01-10 19:21:35.82	334.97	10.94	
2025-01-10 19:21:37.05	335.05	10.83	
2025-01-10 19:21:38.28	335.13	10.72	
2025-01-10 19:21:39.51	335.21	10.60	
2025-01-10 19:21:40.74	335.29	10.49	
2025-01-10 19:21:41.97	335.37	10.38	
2025-01-10 19:21:43.21	335.45	10.27	
2025-01-10 19:21:44.44	335.53	10.16	
2025-01-10 19:21:45.67	335.61	10.05	
2025-01-10 19:21:46.92	335.69	9.94	
2025-01-10 19:21:48.15	335.76	9.84	
2025-01-10 19:21:49.38	335.84	9.73	
2025-01-10 19:21:50.61	335.91	9.62	
2025-01-10 19:21:51.84	335.99	9.52	
2025-01-10 19:21:53.08	336.06	9.41	
2025-01-10 19:21:54.31	336.14	9.30	
2025-01-10 19:21:55.54	336.21	9.20	
2025-01-10 19:21:56.77	336.28	9.09	
2025-01-10 19:21:58.00	336.36	8.99	
2025-01-10 19:21:59.23	336.43	8.89	
2025-01-10 19:22:00.46	336.50	8.78	
2025-01-10 19:22:01.69	336.57	8.68	
2025-01-10 19:22:02.93	336.64	8.58	
2025-01-10 19:22:04.16	336.71	8.47	
2025-01-10 19:22:05.39	336.78	8.37	
2025-01-10 19:22:06.63	336.85	8.27	
2025-01-10 19:22:07.86	336.92	8.17	
2025-01-10 19:22:09.09	336.98	8.07	
2025-01-10 19:22:10.32	337.05	7.97	
2025-01-10 19:22:11.55	337.12	7.87	
2025-01-10 19:22:12.79	337.19	7.77	
2025-01-10 19:22:14.04	337.25	7.67	
2025-01-10 19:22:15.26	337.32	7.57	
2025-01-10 19:22:16.49	337.38	7.48	
2025-01-10 19:22:17.72	337.45	7.38	
2025-01-10 19:22:18.96	337.51	7.28	
2025-01-10 19:22:20.18	337.58	7.18	
2025-01-10 19:22:21.41	337.64	7.09	
2025-01-10 19:22:22.64	337.70	6.99	
2025-01-10 19:22:23.87	337.77	6.90	
2025-01-10 19:22:25.10	337.83	6.80	
2025-01-10 19:22:26.33	337.89	6.71	
2025-01-10 19:22:27.57	337.95	6.61	
2025-01-10 19:22:28.82	338.01	6.52	
2025-01-10 19:22:30.05	338.07	6.42	
2025-01-10 19:22:31.28	338.13	6.33	
2025-01-10 19:22:32.52	338.19	6.24	
2025-01-10 19:22:33.75	338.25	6.14	
2025-01-10 19:22:34.99	338.31	6.05	
2025-01-10 19:22:36.22	338.37	5.96	
2025-01-10 19:22:37.45	338.43	5.87	
2025-01-10 19:22:38.68	338.49	5.77	
2025-01-10 19:22:39.93	338.55	5.68	
2025-01-10 19:22:41.17	338.60	5.59	
2025-01-10 19:22:42.41	338.66	5.50	
2025-01-10 19:22:43.64	338.72	5.41	
2025-01-10 19:22:44.87	338.77	5.32	
2025-01-10 19:22:46.11	338.83	5.23	
2025-01-10 19:22:47.34	338.89	5.14	
2025-01-10 19:22:48.57	338.94	5.05	
2025-01-10 19:22:49.80	339.00	4.96	
2025-01-10 19:22:51.03	339.05	4.88	
2025-01-10 19:22:52.27	339.11	4.79	
2025-01-10 19:22:53.50	339.16	4.70	
2025-01-10 19:22:54.73	339.21	4.61	
2025-01-10 19:22:55.96	339.27	4.53	
2025-01-10 19:22:57.19	339.32	4.44	
2025-01-10 19:22:58.42	339.37	4.35	
2025-01-10 19:22:59.65	339.43	4.27	
2025-01-10 19:23:00.88	339.48	4.18	
2025-01-10 19:23:02.11	339.53	4.10	
2025-01-10 19:23:03.34	339.58	4.01	

#Closed at: 2025-01-10 19:23:03