passes_logs/2025/01/10/SPB_Silybum_02/SPB_Silybum_02__20250110_000635_SUOMI_NPP_rec.log

#Pass ID: 20250110_000635_SUOMI NPP
#Satellite: SUOMI NPP
#Configuration: NPP
#Start time: 2025-01-10 00:06:34

#Version: 2.0.20230423
#Station: SPB_Silybum_02
#Location: 30.233357 lon 59.946436 lat
#TLE: 1 37849U 11061A   25009.14008564  .00000193  00000+0  11215-3 0  9999
#TLE: 2 37849  98.7440 310.2032 0001887  50.1400 309.9942 14.19535382684083

#Time	Az	El	Level	Level2	SNR	BER	Gain	Gain2
2025-01-10 00:06:36.98	18.63	4.10	
2025-01-10 00:06:38.42	18.65	4.20	
2025-01-10 00:06:39.85	18.67	4.30	
2025-01-10 00:06:41.29	18.69	4.40	
2025-01-10 00:06:42.74	18.71	4.50	
2025-01-10 00:06:44.17	18.73	4.60	
2025-01-10 00:06:45.61	18.75	4.70	
2025-01-10 00:06:47.05	18.77	4.80	
2025-01-10 00:06:48.49	18.79	4.90	
2025-01-10 00:06:49.94	18.81	5.00	
2025-01-10 00:06:51.38	18.83	5.11	
2025-01-10 00:06:52.81	18.85	5.21	
2025-01-10 00:06:54.25	18.87	5.31	
2025-01-10 00:06:55.70	18.89	5.41	
2025-01-10 00:06:57.14	18.91	5.52	
2025-01-10 00:06:58.58	18.93	5.62	
2025-01-10 00:07:00.02	18.95	5.73	
2025-01-10 00:07:01.47	18.97	5.83	
2025-01-10 00:07:02.91	18.99	5.94	
2025-01-10 00:07:04.36	19.01	6.04	
2025-01-10 00:07:05.80	19.03	6.15	
2025-01-10 00:07:07.24	19.06	6.26	
2025-01-10 00:07:08.67	19.08	6.36	
2025-01-10 00:07:10.10	19.10	6.47	
2025-01-10 00:07:11.54	19.12	6.58	
2025-01-10 00:07:12.97	19.14	6.69	
2025-01-10 00:07:14.42	19.16	6.80	
2025-01-10 00:07:15.86	19.18	6.91	
2025-01-10 00:07:17.31	19.21	7.02	
2025-01-10 00:07:18.74	19.23	7.13	
2025-01-10 00:07:20.18	19.25	7.24	
2025-01-10 00:07:21.62	19.27	7.35	
2025-01-10 00:07:23.05	19.30	7.46	
2025-01-10 00:07:24.49	19.32	7.57	
2025-01-10 00:07:25.93	19.34	7.68	
2025-01-10 00:07:27.37	19.36	7.80	
2025-01-10 00:07:28.80	19.39	7.91	
2025-01-10 00:07:30.24	19.41	8.03	
2025-01-10 00:07:31.68	19.43	8.14	
2025-01-10 00:07:33.12	19.46	8.26	
2025-01-10 00:07:34.55	19.48	8.37	
2025-01-10 00:07:35.99	19.50	8.49	
2025-01-10 00:07:37.44	19.53	8.61	
2025-01-10 00:07:38.88	19.55	8.72	
2025-01-10 00:07:40.32	19.57	8.84	
2025-01-10 00:07:41.76	19.60	8.96	
2025-01-10 00:07:43.21	19.62	9.08	
2025-01-10 00:07:44.64	19.65	9.20	
2025-01-10 00:07:46.08	19.67	9.32	
2025-01-10 00:07:47.52	19.70	9.44	
2025-01-10 00:07:48.96	19.72	9.56	
2025-01-10 00:07:50.40	19.75	9.68	
2025-01-10 00:07:51.86	19.77	9.81	
2025-01-10 00:07:53.31	19.80	9.93	
2025-01-10 00:07:54.74	19.82	10.05	
2025-01-10 00:07:56.18	19.85	10.18	
2025-01-10 00:07:57.62	19.87	10.30	
2025-01-10 00:07:59.05	19.90	10.43	
2025-01-10 00:08:00.49	19.93	10.56	
2025-01-10 00:08:01.93	19.95	10.68	
2025-01-10 00:08:03.37	19.98	10.81	
2025-01-10 00:08:04.81	20.01	10.94	
2025-01-10 00:08:06.25	20.03	11.07	
2025-01-10 00:08:07.69	20.06	11.20	
2025-01-10 00:08:09.12	20.09	11.33	
2025-01-10 00:08:10.56	20.11	11.46	
2025-01-10 00:08:12.00	20.14	11.59	
2025-01-10 00:08:13.44	20.17	11.72	
2025-01-10 00:08:14.88	20.20	11.86	
2025-01-10 00:08:16.31	20.23	11.99	
2025-01-10 00:08:17.76	20.25	12.13	
2025-01-10 00:08:19.20	20.28	12.26	
2025-01-10 00:08:20.64	20.31	12.40	
2025-01-10 00:08:22.07	20.34	12.53	
2025-01-10 00:08:23.51	20.37	12.67	
2025-01-10 00:08:24.95	20.40	12.81	
2025-01-10 00:08:26.38	20.43	12.95	
2025-01-10 00:08:27.82	20.46	13.09	
2025-01-10 00:08:29.26	20.49	13.23	
2025-01-10 00:08:30.70	20.52	13.37	
2025-01-10 00:08:32.15	20.55	13.52	
2025-01-10 00:08:33.59	20.58	13.66	
2025-01-10 00:08:35.04	20.61	13.80	
2025-01-10 00:08:36.49	20.64	13.95	
2025-01-10 00:08:37.93	20.68	14.10	
2025-01-10 00:08:39.36	20.71	14.24	
2025-01-10 00:08:40.80	20.74	14.39	
2025-01-10 00:08:42.24	20.77	14.54	
2025-01-10 00:08:43.68	20.80	14.69	
2025-01-10 00:08:45.11	20.84	14.84	
2025-01-10 00:08:46.55	20.87	14.99	
2025-01-10 00:08:47.99	20.90	15.14	
2025-01-10 00:08:49.43	20.94	15.30	
2025-01-10 00:08:50.86	20.97	15.45	
2025-01-10 00:08:52.30	21.01	15.60	
2025-01-10 00:08:53.73	21.04	15.76	
2025-01-10 00:08:55.17	21.08	15.92	
2025-01-10 00:08:56.60	21.11	16.07	
2025-01-10 00:08:58.05	21.15	16.23	
2025-01-10 00:08:59.50	21.18	16.40	
2025-01-10 00:09:00.95	21.22	16.56	
2025-01-10 00:09:02.39	21.25	16.72	
2025-01-10 00:09:03.82	21.29	16.88	
2025-01-10 00:09:05.27	21.33	17.05	
2025-01-10 00:09:06.70	21.37	17.22	
2025-01-10 00:09:08.14	21.40	17.38	
2025-01-10 00:09:09.58	21.44	17.55	
2025-01-10 00:09:11.03	21.48	17.72	
2025-01-10 00:09:12.47	21.52	17.89	
2025-01-10 00:09:13.92	21.56	18.06	
2025-01-10 00:09:15.36	21.60	18.24	
2025-01-10 00:09:16.80	21.64	18.41	
2025-01-10 00:09:18.25	21.68	18.59	
2025-01-10 00:09:19.69	21.72	18.76	
2025-01-10 00:09:21.13	21.76	18.94	
2025-01-10 00:09:22.56	21.80	19.12	
2025-01-10 00:09:24.00	21.85	19.30	
2025-01-10 00:09:25.43	21.89	19.48	
2025-01-10 00:09:26.87	21.93	19.66	
2025-01-10 00:09:28.31	21.97	19.85	
2025-01-10 00:09:29.74	22.02	20.03	
2025-01-10 00:09:31.18	22.06	20.22	
2025-01-10 00:09:32.62	22.11	20.41	
2025-01-10 00:09:34.07	22.15	20.60	
2025-01-10 00:09:35.51	22.20	20.79	
2025-01-10 00:09:36.95	22.24	20.98	
2025-01-10 00:09:38.40	22.29	21.18	
2025-01-10 00:09:39.84	22.34	21.38	
2025-01-10 00:09:41.28	22.39	21.57	
2025-01-10 00:09:42.71	22.43	21.77	
2025-01-10 00:09:44.15	22.48	21.97	
2025-01-10 00:09:45.59	22.53	22.17	
2025-01-10 00:09:47.04	22.58	22.38	
2025-01-10 00:09:48.48	22.63	22.58	
2025-01-10 00:09:49.92	22.68	22.79	
2025-01-10 00:09:51.36	22.74	23.00	
2025-01-10 00:09:52.79	22.79	23.21	
2025-01-10 00:09:54.23	22.84	23.42	
2025-01-10 00:09:55.67	22.90	23.63	
2025-01-10 00:09:57.11	22.95	23.85	
2025-01-10 00:09:58.55	23.00	24.07	
2025-01-10 00:09:59.98	23.06	24.28	
2025-01-10 00:10:01.42	23.12	24.51	
2025-01-10 00:10:02.86	23.17	24.73	
2025-01-10 00:10:04.30	23.23	24.95	
2025-01-10 00:10:05.74	23.29	25.18	
2025-01-10 00:10:07.19	23.35	25.41	
2025-01-10 00:10:08.63	23.41	25.64	
2025-01-10 00:10:10.07	23.47	25.87	
2025-01-10 00:10:11.51	23.53	26.11	
2025-01-10 00:10:12.95	23.60	26.34	
2025-01-10 00:10:14.38	23.66	26.58	
2025-01-10 00:10:15.82	23.72	26.82	
2025-01-10 00:10:17.28	23.79	27.07	
2025-01-10 00:10:18.72	23.85	27.31	
2025-01-10 00:10:20.16	23.92	27.56	
2025-01-10 00:10:21.59	23.99	27.81	
2025-01-10 00:10:23.03	24.06	28.06	
2025-01-10 00:10:24.46	24.13	28.31	
2025-01-10 00:10:25.90	24.20	28.57	
2025-01-10 00:10:27.33	24.27	28.83	
2025-01-10 00:10:28.76	24.34	29.08	
2025-01-10 00:10:30.20	24.42	29.35	
2025-01-10 00:10:31.64	24.49	29.61	
2025-01-10 00:10:33.09	24.57	29.88	
2025-01-10 00:10:34.53	24.65	30.16	
2025-01-10 00:10:35.96	24.73	30.43	
2025-01-10 00:10:37.40	24.81	30.70	
2025-01-10 00:10:38.83	24.89	30.98	
2025-01-10 00:10:40.27	24.97	31.26	
2025-01-10 00:10:41.71	25.05	31.54	
2025-01-10 00:10:43.14	25.14	31.83	
2025-01-10 00:10:44.58	25.23	32.12	
2025-01-10 00:10:46.02	25.31	32.41	
2025-01-10 00:10:47.46	25.40	32.70	
2025-01-10 00:10:48.90	25.50	33.00	
2025-01-10 00:10:50.34	25.59	33.30	
2025-01-10 00:10:51.77	25.68	33.60	
2025-01-10 00:10:53.22	25.78	33.91	
2025-01-10 00:10:54.66	25.88	34.22	
2025-01-10 00:10:56.10	25.98	34.54	
2025-01-10 00:10:57.53	26.08	34.85	
2025-01-10 00:10:58.97	26.18	35.17	
2025-01-10 00:11:00.42	26.29	35.49	
2025-01-10 00:11:01.86	26.40	35.82	
2025-01-10 00:11:03.30	26.51	36.15	
2025-01-10 00:11:04.73	26.62	36.48	
2025-01-10 00:11:06.16	26.73	36.81	
2025-01-10 00:11:07.61	26.85	37.15	
2025-01-10 00:11:09.08	26.97	37.50	
2025-01-10 00:11:10.51	27.09	37.84	
2025-01-10 00:11:11.97	27.21	38.19	
2025-01-10 00:11:13.41	27.34	38.55	
2025-01-10 00:11:14.85	27.47	38.90	
2025-01-10 00:11:16.29	27.60	39.26	
2025-01-10 00:11:17.72	27.73	39.62	
2025-01-10 00:11:19.17	27.87	39.99	
2025-01-10 00:11:20.61	28.01	40.36	
2025-01-10 00:11:22.04	28.15	40.73	
2025-01-10 00:11:23.48	28.30	41.11	
2025-01-10 00:11:24.92	28.45	41.49	
2025-01-10 00:11:26.36	28.60	41.88	
2025-01-10 00:11:27.79	28.76	42.27	
2025-01-10 00:11:29.23	28.92	42.66	
2025-01-10 00:11:30.67	29.08	43.06	
2025-01-10 00:11:32.11	29.25	43.46	
2025-01-10 00:11:33.55	29.42	43.86	
2025-01-10 00:11:34.98	29.60	44.27	
2025-01-10 00:11:36.42	29.78	44.68	
2025-01-10 00:11:37.86	29.97	45.10	
2025-01-10 00:11:39.30	30.16	45.52	
2025-01-10 00:11:40.74	30.35	45.95	
2025-01-10 00:11:42.17	30.55	46.38	
2025-01-10 00:11:43.61	30.76	46.81	
2025-01-10 00:11:45.04	30.97	47.25	
2025-01-10 00:11:46.48	31.19	47.69	
2025-01-10 00:11:47.94	31.42	48.14	
2025-01-10 00:11:49.37	31.64	48.59	
2025-01-10 00:11:50.81	31.88	49.04	
2025-01-10 00:11:52.24	32.12	49.50	
2025-01-10 00:11:53.69	32.38	49.97	
2025-01-10 00:11:55.15	32.64	50.44	
2025-01-10 00:11:56.58	32.91	50.91	
2025-01-10 00:11:58.02	33.18	51.38	
2025-01-10 00:11:59.45	33.46	51.86	
2025-01-10 00:12:00.88	33.76	52.34	
2025-01-10 00:12:02.32	34.06	52.83	
2025-01-10 00:12:03.76	34.37	53.32	
2025-01-10 00:12:05.22	34.70	53.83	
2025-01-10 00:12:06.66	35.04	54.33	
2025-01-10 00:12:08.11	35.39	54.84	
2025-01-10 00:12:09.54	35.74	55.34	
2025-01-10 00:12:10.98	36.12	55.85	
2025-01-10 00:12:12.42	36.50	56.37	
2025-01-10 00:12:13.86	36.90	56.89	
2025-01-10 00:12:15.29	37.32	57.41	
2025-01-10 00:12:16.73	37.75	57.93	
2025-01-10 00:12:18.17	38.20	58.46	
2025-01-10 00:12:19.60	38.66	58.99	
2025-01-10 00:12:21.04	39.15	59.53	
2025-01-10 00:12:22.48	39.65	60.07	
2025-01-10 00:12:23.91	40.18	60.60	
2025-01-10 00:12:25.34	40.73	61.14	
2025-01-10 00:12:26.78	41.30	61.69	
2025-01-10 00:12:28.22	41.90	62.23	
2025-01-10 00:12:29.65	42.52	62.78	
2025-01-10 00:12:31.09	43.18	63.33	
2025-01-10 00:12:32.54	43.87	63.89	
2025-01-10 00:12:33.98	44.60	64.44	
2025-01-10 00:12:35.42	45.35	64.99	
2025-01-10 00:12:36.85	46.14	65.54	
2025-01-10 00:12:38.29	46.98	66.09	
2025-01-10 00:12:39.73	47.85	66.64	
2025-01-10 00:12:41.17	48.78	67.19	
2025-01-10 00:12:42.61	49.75	67.74	
2025-01-10 00:12:44.04	50.77	68.28	
2025-01-10 00:12:45.48	51.86	68.82	
2025-01-10 00:12:46.92	53.00	69.36	
2025-01-10 00:12:48.35	54.21	69.89	
2025-01-10 00:12:49.79	55.49	70.42	
2025-01-10 00:12:51.23	56.84	70.94	
2025-01-10 00:12:52.68	58.28	71.45	
2025-01-10 00:12:54.13	59.82	71.96	
2025-01-10 00:12:55.57	61.43	72.45	
2025-01-10 00:12:57.00	63.13	72.93	
2025-01-10 00:12:58.44	64.94	73.40	
2025-01-10 00:12:59.89	66.87	73.85	
2025-01-10 00:13:01.32	68.89	74.29	
2025-01-10 00:13:02.77	71.06	74.71	
2025-01-10 00:13:04.22	73.35	75.11	
2025-01-10 00:13:05.66	75.75	75.48	
2025-01-10 00:13:07.09	78.26	75.83	
2025-01-10 00:13:08.54	80.93	76.15	
2025-01-10 00:13:09.99	83.73	76.45	
2025-01-10 00:13:11.43	86.63	76.71	
2025-01-10 00:13:12.87	89.64	76.94	
2025-01-10 00:13:14.31	92.75	77.13	
2025-01-10 00:13:15.75	95.95	77.28	
2025-01-10 00:13:17.18	99.20	77.40	
2025-01-10 00:13:18.62	102.52	77.47	
2025-01-10 00:13:20.06	105.87	77.50	
2025-01-10 00:13:21.49	109.20	77.50	
2025-01-10 00:13:22.92	112.52	77.45	
2025-01-10 00:13:24.36	115.83	77.36	
2025-01-10 00:13:25.81	119.10	77.23	
2025-01-10 00:13:27.25	122.27	77.06	
2025-01-10 00:13:28.68	125.32	76.85	
2025-01-10 00:13:30.12	128.29	76.61	
2025-01-10 00:13:31.56	131.15	76.34	
2025-01-10 00:13:32.99	133.86	76.04	
2025-01-10 00:13:34.45	136.51	75.70	
2025-01-10 00:13:35.89	138.99	75.34	
2025-01-10 00:13:37.33	141.34	74.95	
2025-01-10 00:13:38.76	143.56	74.55	
2025-01-10 00:13:40.20	145.66	74.13	
2025-01-10 00:13:41.64	147.66	73.68	
2025-01-10 00:13:43.07	149.53	73.23	
2025-01-10 00:13:44.51	151.30	72.75	
2025-01-10 00:13:45.95	152.98	72.27	
2025-01-10 00:13:47.38	154.54	71.77	
2025-01-10 00:13:48.82	156.04	71.27	
2025-01-10 00:13:50.25	157.43	70.76	
2025-01-10 00:13:51.70	158.77	70.23	
2025-01-10 00:13:53.14	160.03	69.70	
2025-01-10 00:13:54.58	161.22	69.16	
2025-01-10 00:13:56.01	162.33	68.63	
2025-01-10 00:13:57.45	163.40	68.08	
2025-01-10 00:13:58.88	164.40	67.54	
2025-01-10 00:14:00.33	165.36	66.99	
2025-01-10 00:14:01.77	166.27	66.43	
2025-01-10 00:14:03.21	167.14	65.88	
2025-01-10 00:14:04.66	167.96	65.32	
2025-01-10 00:14:06.10	168.74	64.77	
2025-01-10 00:14:07.54	169.49	64.22	
2025-01-10 00:14:08.98	170.20	63.66	
2025-01-10 00:14:10.41	170.87	63.11	
2025-01-10 00:14:11.87	171.53	62.55	
2025-01-10 00:14:13.31	172.14	62.00	
2025-01-10 00:14:14.74	172.73	61.46	
2025-01-10 00:14:16.18	173.30	60.91	
2025-01-10 00:14:17.62	173.84	60.37	
2025-01-10 00:14:19.06	174.36	59.83	
2025-01-10 00:14:20.49	174.85	59.29	
2025-01-10 00:14:21.93	175.33	58.76	
2025-01-10 00:14:23.37	175.79	58.22	
2025-01-10 00:14:24.82	176.24	57.69	
2025-01-10 00:14:26.25	176.66	57.17	
2025-01-10 00:14:27.70	177.07	56.64	
2025-01-10 00:14:29.14	177.47	56.12	
2025-01-10 00:14:30.57	177.85	55.61	
2025-01-10 00:14:32.01	178.21	55.10	
2025-01-10 00:14:33.46	178.57	54.59	
2025-01-10 00:14:34.90	178.91	54.08	
2025-01-10 00:14:36.34	179.24	53.58	
2025-01-10 00:14:37.77	179.56	53.09	
2025-01-10 00:14:39.21	179.87	52.60	
2025-01-10 00:14:40.65	180.17	52.11	
2025-01-10 00:14:42.10	180.46	51.62	
2025-01-10 00:14:43.54	180.74	51.14	
2025-01-10 00:14:44.98	181.02	50.66	
2025-01-10 00:14:46.42	181.28	50.19	
2025-01-10 00:14:47.86	181.54	49.72	
2025-01-10 00:14:49.29	181.78	49.26	
2025-01-10 00:14:50.73	182.02	48.80	
2025-01-10 00:14:52.17	182.26	48.35	
2025-01-10 00:14:53.61	182.49	47.90	
2025-01-10 00:14:55.06	182.71	47.45	
2025-01-10 00:14:56.50	182.92	47.01	
2025-01-10 00:14:57.94	183.13	46.57	
2025-01-10 00:14:59.38	183.34	46.13	
2025-01-10 00:15:00.83	183.54	45.70	
2025-01-10 00:15:02.26	183.73	45.28	
2025-01-10 00:15:03.70	183.92	44.86	
2025-01-10 00:15:05.15	184.10	44.44	
2025-01-10 00:15:06.59	184.28	44.02	
2025-01-10 00:15:08.03	184.46	43.62	
2025-01-10 00:15:09.47	184.63	43.21	
2025-01-10 00:15:10.92	184.80	42.81	
2025-01-10 00:15:12.37	184.96	42.41	
2025-01-10 00:15:13.80	185.12	42.02	
2025-01-10 00:15:15.24	185.27	41.63	
2025-01-10 00:15:16.67	185.42	41.24	
2025-01-10 00:15:18.11	185.57	40.86	
2025-01-10 00:15:19.55	185.71	40.49	
2025-01-10 00:15:20.99	185.86	40.11	
2025-01-10 00:15:22.43	185.99	39.74	
2025-01-10 00:15:23.87	186.13	39.38	
2025-01-10 00:15:25.30	186.26	39.01	
2025-01-10 00:15:26.74	186.39	38.66	
2025-01-10 00:15:28.18	186.52	38.30	
2025-01-10 00:15:29.63	186.64	37.95	
2025-01-10 00:15:31.08	186.77	37.59	
2025-01-10 00:15:32.52	186.89	37.25	
2025-01-10 00:15:33.96	187.00	36.91	
2025-01-10 00:15:35.40	187.12	36.57	
2025-01-10 00:15:36.83	187.23	36.24	
2025-01-10 00:15:38.27	187.34	35.91	
2025-01-10 00:15:39.71	187.45	35.58	
2025-01-10 00:15:41.14	187.55	35.26	
2025-01-10 00:15:42.58	187.66	34.93	
2025-01-10 00:15:44.02	187.76	34.61	
2025-01-10 00:15:45.46	187.86	34.30	
2025-01-10 00:15:46.91	187.96	33.98	
2025-01-10 00:15:48.35	188.06	33.68	
2025-01-10 00:15:49.79	188.15	33.37	
2025-01-10 00:15:51.22	188.24	33.07	
2025-01-10 00:15:52.66	188.34	32.77	
2025-01-10 00:15:54.09	188.43	32.47	
2025-01-10 00:15:55.53	188.52	32.18	
2025-01-10 00:15:56.97	188.60	31.88	
2025-01-10 00:15:58.41	188.69	31.60	
2025-01-10 00:15:59.85	188.77	31.31	
2025-01-10 00:16:01.29	188.86	31.03	
2025-01-10 00:16:02.72	188.94	30.75	
2025-01-10 00:16:04.16	189.02	30.47	
2025-01-10 00:16:05.60	189.10	30.19	
2025-01-10 00:16:07.05	189.17	29.92	
2025-01-10 00:16:08.48	189.25	29.65	
2025-01-10 00:16:09.92	189.33	29.38	
2025-01-10 00:16:11.35	189.40	29.12	
2025-01-10 00:16:12.79	189.47	28.85	
2025-01-10 00:16:14.23	189.54	28.59	
2025-01-10 00:16:15.66	189.62	28.34	
2025-01-10 00:16:17.10	189.69	28.08	
2025-01-10 00:16:18.53	189.75	27.83	
2025-01-10 00:16:19.97	189.82	27.58	
2025-01-10 00:16:21.42	189.89	27.32	
2025-01-10 00:16:22.86	189.96	27.08	
2025-01-10 00:16:24.29	190.02	26.83	
2025-01-10 00:16:25.73	190.08	26.59	
2025-01-10 00:16:27.16	190.15	26.35	
2025-01-10 00:16:28.59	190.21	26.12	
2025-01-10 00:16:30.03	190.27	25.88	
2025-01-10 00:16:31.47	190.33	25.64	
2025-01-10 00:16:32.90	190.39	25.41	
2025-01-10 00:16:34.36	190.45	25.18	
2025-01-10 00:16:35.79	190.51	24.95	
2025-01-10 00:16:37.23	190.57	24.73	
2025-01-10 00:16:38.66	190.62	24.50	
2025-01-10 00:16:40.10	190.68	24.28	
2025-01-10 00:16:41.54	190.73	24.06	
2025-01-10 00:16:42.98	190.79	23.84	
2025-01-10 00:16:44.42	190.84	23.62	
2025-01-10 00:16:45.85	190.90	23.41	
2025-01-10 00:16:47.29	190.95	23.20	
2025-01-10 00:16:48.72	191.00	22.99	
2025-01-10 00:16:50.16	191.05	22.78	
2025-01-10 00:16:51.62	191.10	22.56	
2025-01-10 00:16:53.06	191.15	22.36	
2025-01-10 00:16:54.50	191.20	22.15	
2025-01-10 00:16:55.93	191.25	21.95	
2025-01-10 00:16:57.37	191.30	21.75	
2025-01-10 00:16:58.82	191.35	21.55	
2025-01-10 00:17:00.27	191.39	21.35	
2025-01-10 00:17:01.70	191.44	21.15	
2025-01-10 00:17:03.14	191.49	20.95	
2025-01-10 00:17:04.58	191.53	20.76	
2025-01-10 00:17:06.02	191.58	20.57	
2025-01-10 00:17:07.46	191.62	20.37	
2025-01-10 00:17:08.90	191.67	20.18	
2025-01-10 00:17:10.36	191.71	19.99	
2025-01-10 00:17:11.80	191.75	19.81	
2025-01-10 00:17:13.24	191.80	19.62	
2025-01-10 00:17:14.67	191.84	19.44	
2025-01-10 00:17:16.12	191.88	19.25	
2025-01-10 00:17:17.56	191.92	19.07	
2025-01-10 00:17:19.01	191.96	18.89	
2025-01-10 00:17:20.45	192.00	18.71	
2025-01-10 00:17:21.88	192.04	18.53	
2025-01-10 00:17:23.32	192.08	18.36	
2025-01-10 00:17:24.75	192.12	18.18	
2025-01-10 00:17:26.19	192.16	18.01	
2025-01-10 00:17:27.63	192.20	17.84	
2025-01-10 00:17:29.06	192.24	17.67	
2025-01-10 00:17:30.50	192.28	17.50	
2025-01-10 00:17:31.95	192.31	17.33	
2025-01-10 00:17:33.39	192.35	17.16	
2025-01-10 00:17:34.82	192.39	16.99	
2025-01-10 00:17:36.27	192.42	16.82	
2025-01-10 00:17:37.72	192.46	16.66	
2025-01-10 00:17:39.16	192.50	16.49	
2025-01-10 00:17:40.59	192.53	16.33	
2025-01-10 00:17:42.03	192.57	16.17	
2025-01-10 00:17:43.47	192.60	16.01	
2025-01-10 00:17:44.90	192.63	15.85	
2025-01-10 00:17:46.34	192.67	15.69	
2025-01-10 00:17:47.78	192.70	15.54	
2025-01-10 00:17:49.22	192.74	15.38	
2025-01-10 00:17:50.65	192.77	15.23	
2025-01-10 00:17:52.09	192.80	15.07	
2025-01-10 00:17:53.53	192.83	14.92	
2025-01-10 00:17:54.96	192.87	14.77	
2025-01-10 00:17:56.40	192.90	14.62	
2025-01-10 00:17:57.83	192.93	14.47	
2025-01-10 00:17:59.28	192.96	14.32	
2025-01-10 00:18:00.73	192.99	14.17	
2025-01-10 00:18:02.17	193.02	14.02	
2025-01-10 00:18:03.60	193.05	13.87	
2025-01-10 00:18:05.04	193.08	13.73	
2025-01-10 00:18:06.47	193.11	13.58	
2025-01-10 00:18:07.91	193.14	13.44	
2025-01-10 00:18:09.35	193.17	13.29	
2025-01-10 00:18:10.80	193.20	13.15	
2025-01-10 00:18:12.23	193.23	13.01	
2025-01-10 00:18:13.68	193.26	12.87	
2025-01-10 00:18:15.12	193.29	12.73	
2025-01-10 00:18:16.56	193.32	12.59	
2025-01-10 00:18:18.00	193.35	12.45	
2025-01-10 00:18:19.43	193.37	12.31	
2025-01-10 00:18:20.87	193.40	12.17	
2025-01-10 00:18:22.32	193.43	12.04	
2025-01-10 00:18:23.77	193.46	11.90	
2025-01-10 00:18:25.21	193.48	11.77	
2025-01-10 00:18:26.65	193.51	11.63	
2025-01-10 00:18:28.10	193.54	11.50	
2025-01-10 00:18:29.54	193.56	11.36	
2025-01-10 00:18:30.97	193.59	11.23	
2025-01-10 00:18:32.43	193.62	11.10	
2025-01-10 00:18:33.88	193.64	10.97	
2025-01-10 00:18:35.32	193.67	10.84	
2025-01-10 00:18:36.76	193.69	10.71	
2025-01-10 00:18:38.20	193.72	10.58	
2025-01-10 00:18:39.63	193.75	10.45	
2025-01-10 00:18:41.07	193.77	10.33	
2025-01-10 00:18:42.50	193.80	10.20	
2025-01-10 00:18:43.94	193.82	10.08	
2025-01-10 00:18:45.39	193.84	9.95	
2025-01-10 00:18:46.83	193.87	9.83	
2025-01-10 00:18:48.29	193.89	9.70	
2025-01-10 00:18:49.74	193.92	9.58	
2025-01-10 00:18:51.19	193.94	9.45	
2025-01-10 00:18:52.63	193.96	9.33	
2025-01-10 00:18:54.07	193.99	9.21	
2025-01-10 00:18:55.52	194.01	9.09	
2025-01-10 00:18:56.97	194.04	8.96	
2025-01-10 00:18:58.41	194.06	8.85	
2025-01-10 00:18:59.83	194.08	8.73	
2025-01-10 00:19:01.24	194.10	8.61	
2025-01-10 00:19:02.66	194.13	8.49	
2025-01-10 00:19:04.08	194.15	8.38	
2025-01-10 00:19:05.54	194.17	8.26	
2025-01-10 00:19:06.98	194.19	8.14	
2025-01-10 00:19:08.42	194.21	8.03	
2025-01-10 00:19:09.84	194.24	7.91	
2025-01-10 00:19:11.32	194.26	7.80	
2025-01-10 00:19:12.78	194.28	7.68	
2025-01-10 00:19:14.23	194.30	7.57	
2025-01-10 00:19:15.67	194.32	7.45	
2025-01-10 00:19:17.17	194.34	7.33	
2025-01-10 00:19:18.66	194.37	7.22	
2025-01-10 00:19:20.15	194.39	7.10	
2025-01-10 00:19:21.62	194.41	6.99	
2025-01-10 00:19:23.09	194.43	6.88	
2025-01-10 00:19:24.52	194.45	6.77	
2025-01-10 00:19:25.94	194.47	6.66	
2025-01-10 00:19:27.37	194.49	6.55	
2025-01-10 00:19:28.79	194.51	6.44	
2025-01-10 00:19:30.21	194.53	6.33	
2025-01-10 00:19:31.64	194.55	6.23	
2025-01-10 00:19:33.07	194.57	6.12	
2025-01-10 00:19:34.48	194.59	6.02	
2025-01-10 00:19:35.90	194.61	5.91	
2025-01-10 00:19:37.32	194.63	5.81	
2025-01-10 00:19:38.73	194.65	5.70	
2025-01-10 00:19:40.15	194.67	5.60	
2025-01-10 00:19:41.56	194.68	5.49	
2025-01-10 00:19:42.98	194.70	5.39	
2025-01-10 00:19:44.44	194.72	5.29	
2025-01-10 00:19:45.94	194.74	5.18	
2025-01-10 00:19:47.35	194.76	5.08	
2025-01-10 00:19:48.77	194.78	4.97	
2025-01-10 00:19:50.20	194.80	4.87	
2025-01-10 00:19:51.62	194.82	4.77	
2025-01-10 00:19:53.05	194.83	4.67	
2025-01-10 00:19:54.47	194.85	4.57	
2025-01-10 00:19:55.92	194.87	4.47	
2025-01-10 00:19:57.35	194.89	4.37	
2025-01-10 00:19:58.76	194.90	4.27	
2025-01-10 00:20:00.21	194.92	4.17	
2025-01-10 00:20:01.62	194.94	4.07	

#Closed at: 2025-01-10 00:20:02