passes_logs/2025/01/10/SPB_Silybum_02/SPB_Silybum_02__20250110_062008_TERRA_rec.log

#Pass ID: 20250110_062008_TERRA
#Satellite: TERRA
#Configuration: TERRA
#Start time: 2025-01-10 06:20:07

#Version: 2.0.20230423
#Station: SPB_Silybum_02
#Location: 30.233357 lon 59.946436 lat
#TLE: 1 25994U 99068A   25009.84464495  .00000861  00000+0  18726-3 0  9992
#TLE: 2 25994  98.0226  73.0387 0003560  82.8900 338.1382 14.60385144333325

#Time	Az	El	Level	Level2	SNR	BER	Gain	Gain2
2025-01-10 06:20:09.75	33.34	4.07	
2025-01-10 06:20:10.78	33.47	4.12	
2025-01-10 06:20:11.80	33.59	4.17	
2025-01-10 06:20:12.83	33.71	4.22	
2025-01-10 06:20:13.85	33.83	4.27	
2025-01-10 06:20:14.88	33.96	4.32	
2025-01-10 06:20:15.90	34.08	4.37	
2025-01-10 06:20:16.93	34.21	4.42	
2025-01-10 06:20:17.96	34.33	4.47	
2025-01-10 06:20:18.98	34.46	4.52	
2025-01-10 06:20:20.01	34.58	4.57	
2025-01-10 06:20:21.05	34.71	4.63	
2025-01-10 06:20:22.08	34.84	4.68	
2025-01-10 06:20:23.10	34.97	4.73	
2025-01-10 06:20:24.13	35.10	4.78	
2025-01-10 06:20:25.15	35.22	4.83	
2025-01-10 06:20:26.18	35.35	4.88	
2025-01-10 06:20:27.20	35.48	4.93	
2025-01-10 06:20:28.23	35.61	4.98	
2025-01-10 06:20:29.25	35.74	5.03	
2025-01-10 06:20:30.27	35.87	5.08	
2025-01-10 06:20:31.30	36.00	5.13	
2025-01-10 06:20:32.33	36.13	5.18	
2025-01-10 06:20:33.35	36.27	5.23	
2025-01-10 06:20:34.37	36.40	5.28	
2025-01-10 06:20:35.40	36.53	5.34	
2025-01-10 06:20:36.43	36.67	5.39	
2025-01-10 06:20:37.45	36.80	5.44	
2025-01-10 06:20:38.49	36.94	5.49	
2025-01-10 06:20:39.52	37.07	5.54	
2025-01-10 06:20:40.54	37.21	5.59	
2025-01-10 06:20:41.56	37.34	5.64	
2025-01-10 06:20:42.59	37.48	5.69	
2025-01-10 06:20:43.61	37.61	5.74	
2025-01-10 06:20:44.64	37.75	5.79	
2025-01-10 06:20:45.67	37.89	5.84	
2025-01-10 06:20:46.70	38.03	5.89	
2025-01-10 06:20:47.74	38.17	5.94	
2025-01-10 06:20:48.77	38.31	5.99	
2025-01-10 06:20:49.79	38.45	6.04	
2025-01-10 06:20:50.82	38.59	6.09	
2025-01-10 06:20:51.84	38.73	6.14	
2025-01-10 06:20:52.88	38.88	6.20	
2025-01-10 06:20:53.91	39.02	6.25	
2025-01-10 06:20:54.94	39.16	6.30	
2025-01-10 06:20:55.97	39.30	6.35	
2025-01-10 06:20:56.99	39.45	6.40	
2025-01-10 06:20:58.03	39.59	6.45	
2025-01-10 06:20:59.06	39.74	6.50	
2025-01-10 06:21:00.08	39.88	6.55	
2025-01-10 06:21:01.11	40.03	6.60	
2025-01-10 06:21:02.13	40.18	6.65	
2025-01-10 06:21:03.17	40.32	6.70	
2025-01-10 06:21:04.20	40.47	6.75	
2025-01-10 06:21:05.24	40.62	6.80	
2025-01-10 06:21:06.26	40.77	6.85	
2025-01-10 06:21:07.29	40.92	6.90	
2025-01-10 06:21:08.31	41.07	6.95	
2025-01-10 06:21:09.34	41.22	7.00	
2025-01-10 06:21:10.37	41.37	7.05	
2025-01-10 06:21:11.39	41.52	7.10	
2025-01-10 06:21:12.42	41.67	7.15	
2025-01-10 06:21:13.44	41.82	7.20	
2025-01-10 06:21:14.49	41.98	7.25	
2025-01-10 06:21:15.53	42.14	7.30	
2025-01-10 06:21:16.56	42.29	7.35	
2025-01-10 06:21:17.59	42.45	7.40	
2025-01-10 06:21:18.62	42.60	7.44	
2025-01-10 06:21:19.64	42.76	7.49	
2025-01-10 06:21:20.67	42.91	7.54	
2025-01-10 06:21:21.71	43.07	7.59	
2025-01-10 06:21:22.74	43.23	7.64	
2025-01-10 06:21:23.76	43.39	7.69	
2025-01-10 06:21:24.79	43.54	7.74	
2025-01-10 06:21:25.82	43.70	7.79	
2025-01-10 06:21:26.84	43.86	7.84	
2025-01-10 06:21:27.89	44.03	7.89	
2025-01-10 06:21:28.93	44.19	7.94	
2025-01-10 06:21:29.95	44.35	7.98	
2025-01-10 06:21:30.99	44.51	8.03	
2025-01-10 06:21:32.02	44.68	8.08	
2025-01-10 06:21:33.04	44.84	8.13	
2025-01-10 06:21:34.09	45.01	8.18	
2025-01-10 06:21:35.12	45.17	8.23	
2025-01-10 06:21:36.16	45.34	8.28	
2025-01-10 06:21:37.18	45.50	8.32	
2025-01-10 06:21:38.21	45.67	8.37	
2025-01-10 06:21:39.24	45.83	8.42	
2025-01-10 06:21:40.26	46.00	8.47	
2025-01-10 06:21:41.29	46.17	8.51	
2025-01-10 06:21:42.32	46.34	8.56	
2025-01-10 06:21:43.35	46.51	8.61	
2025-01-10 06:21:44.37	46.67	8.66	
2025-01-10 06:21:45.40	46.85	8.70	
2025-01-10 06:21:46.43	47.02	8.75	
2025-01-10 06:21:47.45	47.19	8.80	
2025-01-10 06:21:48.47	47.36	8.84	
2025-01-10 06:21:49.50	47.53	8.89	
2025-01-10 06:21:50.52	47.70	8.94	
2025-01-10 06:21:51.55	47.88	8.98	
2025-01-10 06:21:52.59	48.05	9.03	
2025-01-10 06:21:53.61	48.22	9.08	
2025-01-10 06:21:54.64	48.40	9.12	
2025-01-10 06:21:55.67	48.58	9.17	
2025-01-10 06:21:56.69	48.75	9.21	
2025-01-10 06:21:57.72	48.93	9.26	
2025-01-10 06:21:58.74	49.11	9.30	
2025-01-10 06:21:59.77	49.28	9.35	
2025-01-10 06:22:00.81	49.47	9.40	
2025-01-10 06:22:01.83	49.64	9.44	
2025-01-10 06:22:02.86	49.82	9.49	
2025-01-10 06:22:03.89	50.00	9.53	
2025-01-10 06:22:04.93	50.19	9.58	
2025-01-10 06:22:05.96	50.37	9.62	
2025-01-10 06:22:06.98	50.55	9.67	
2025-01-10 06:22:08.01	50.73	9.71	
2025-01-10 06:22:09.04	50.92	9.75	
2025-01-10 06:22:10.07	51.10	9.80	
2025-01-10 06:22:11.10	51.29	9.84	
2025-01-10 06:22:12.12	51.47	9.89	
2025-01-10 06:22:13.15	51.66	9.93	
2025-01-10 06:22:14.17	51.84	9.97	
2025-01-10 06:22:15.20	52.03	10.02	
2025-01-10 06:22:16.23	52.22	10.06	
2025-01-10 06:22:17.25	52.40	10.10	
2025-01-10 06:22:18.28	52.59	10.14	
2025-01-10 06:22:19.31	52.78	10.19	
2025-01-10 06:22:20.34	52.97	10.23	
2025-01-10 06:22:21.36	53.16	10.27	
2025-01-10 06:22:22.38	53.35	10.31	
2025-01-10 06:22:23.41	53.54	10.35	
2025-01-10 06:22:24.44	53.74	10.40	
2025-01-10 06:22:25.47	53.93	10.44	
2025-01-10 06:22:26.50	54.12	10.48	
2025-01-10 06:22:27.52	54.32	10.52	
2025-01-10 06:22:28.55	54.51	10.56	
2025-01-10 06:22:29.57	54.71	10.60	
2025-01-10 06:22:30.62	54.91	10.64	
2025-01-10 06:22:31.64	55.10	10.68	
2025-01-10 06:22:32.67	55.30	10.72	
2025-01-10 06:22:33.69	55.49	10.76	
2025-01-10 06:22:34.71	55.69	10.80	
2025-01-10 06:22:35.74	55.89	10.84	
2025-01-10 06:22:36.76	56.09	10.88	
2025-01-10 06:22:37.79	56.29	10.92	
2025-01-10 06:22:38.82	56.49	10.96	
2025-01-10 06:22:39.84	56.69	10.99	
2025-01-10 06:22:40.87	56.89	11.03	
2025-01-10 06:22:41.90	57.09	11.07	
2025-01-10 06:22:42.92	57.29	11.11	
2025-01-10 06:22:43.95	57.49	11.15	
2025-01-10 06:22:44.97	57.70	11.18	
2025-01-10 06:22:46.01	57.90	11.22	
2025-01-10 06:22:47.05	58.11	11.26	
2025-01-10 06:22:48.08	58.32	11.29	
2025-01-10 06:22:49.10	58.52	11.33	
2025-01-10 06:22:50.14	58.73	11.37	
2025-01-10 06:22:51.17	58.93	11.40	
2025-01-10 06:22:52.19	59.14	11.44	
2025-01-10 06:22:53.22	59.35	11.47	
2025-01-10 06:22:54.25	59.56	11.51	
2025-01-10 06:22:55.28	59.77	11.54	
2025-01-10 06:22:56.31	59.98	11.58	
2025-01-10 06:22:57.34	60.19	11.61	
2025-01-10 06:22:58.36	60.40	11.64	
2025-01-10 06:22:59.39	60.61	11.68	
2025-01-10 06:23:00.43	60.82	11.71	
2025-01-10 06:23:01.46	61.03	11.75	
2025-01-10 06:23:02.49	61.25	11.78	
2025-01-10 06:23:03.51	61.46	11.81	
2025-01-10 06:23:04.53	61.67	11.84	
2025-01-10 06:23:05.56	61.88	11.87	
2025-01-10 06:23:06.58	62.10	11.91	
2025-01-10 06:23:07.61	62.31	11.94	
2025-01-10 06:23:08.63	62.53	11.97	
2025-01-10 06:23:09.66	62.74	12.00	
2025-01-10 06:23:10.68	62.96	12.03	
2025-01-10 06:23:11.71	63.17	12.06	
2025-01-10 06:23:12.74	63.39	12.09	
2025-01-10 06:23:13.76	63.61	12.12	
2025-01-10 06:23:14.79	63.83	12.15	
2025-01-10 06:23:15.82	64.05	12.18	
2025-01-10 06:23:16.85	64.26	12.20	
2025-01-10 06:23:17.88	64.48	12.23	
2025-01-10 06:23:18.92	64.71	12.26	
2025-01-10 06:23:19.94	64.93	12.29	
2025-01-10 06:23:20.96	65.15	12.32	
2025-01-10 06:23:21.99	65.37	12.34	
2025-01-10 06:23:23.02	65.59	12.37	
2025-01-10 06:23:24.04	65.81	12.40	
2025-01-10 06:23:25.07	66.03	12.42	
2025-01-10 06:23:26.09	66.25	12.45	
2025-01-10 06:23:27.11	66.48	12.47	
2025-01-10 06:23:28.14	66.70	12.50	
2025-01-10 06:23:29.16	66.92	12.52	
2025-01-10 06:23:30.19	67.15	12.54	
2025-01-10 06:23:31.23	67.37	12.57	
2025-01-10 06:23:32.26	67.60	12.59	
2025-01-10 06:23:33.28	67.82	12.62	
2025-01-10 06:23:34.31	68.05	12.64	
2025-01-10 06:23:35.34	68.28	12.66	
2025-01-10 06:23:36.37	68.50	12.68	
2025-01-10 06:23:37.39	68.73	12.70	
2025-01-10 06:23:38.42	68.96	12.73	
2025-01-10 06:23:39.45	69.19	12.75	
2025-01-10 06:23:40.47	69.41	12.77	
2025-01-10 06:23:41.50	69.64	12.79	
2025-01-10 06:23:42.53	69.87	12.81	
2025-01-10 06:23:43.55	70.10	12.83	
2025-01-10 06:23:44.58	70.33	12.84	
2025-01-10 06:23:45.60	70.56	12.86	
2025-01-10 06:23:46.63	70.79	12.88	
2025-01-10 06:23:47.67	71.02	12.90	
2025-01-10 06:23:48.69	71.25	12.92	
2025-01-10 06:23:49.71	71.48	12.93	
2025-01-10 06:23:50.74	71.71	12.95	
2025-01-10 06:23:51.76	71.94	12.97	
2025-01-10 06:23:52.80	72.17	12.98	
2025-01-10 06:23:53.84	72.41	13.00	
2025-01-10 06:23:54.87	72.64	13.01	
2025-01-10 06:23:55.90	72.88	13.03	
2025-01-10 06:23:56.93	73.11	13.04	
2025-01-10 06:23:57.95	73.34	13.06	
2025-01-10 06:23:58.98	73.57	13.07	
2025-01-10 06:24:00.00	73.81	13.08	
2025-01-10 06:24:01.02	74.04	13.09	
2025-01-10 06:24:02.05	74.27	13.11	
2025-01-10 06:24:03.07	74.50	13.12	
2025-01-10 06:24:04.10	74.74	13.13	
2025-01-10 06:24:05.13	74.97	13.14	
2025-01-10 06:24:06.15	75.21	13.15	
2025-01-10 06:24:07.18	75.44	13.16	
2025-01-10 06:24:08.21	75.68	13.17	
2025-01-10 06:24:09.24	75.91	13.18	
2025-01-10 06:24:10.27	76.15	13.19	
2025-01-10 06:24:11.29	76.38	13.20	
2025-01-10 06:24:12.33	76.62	13.21	
2025-01-10 06:24:13.35	76.86	13.21	
2025-01-10 06:24:14.38	77.09	13.22	
2025-01-10 06:24:15.41	77.33	13.23	
2025-01-10 06:24:16.43	77.56	13.24	
2025-01-10 06:24:17.47	77.80	13.24	
2025-01-10 06:24:18.50	78.04	13.25	
2025-01-10 06:24:19.52	78.27	13.25	
2025-01-10 06:24:20.55	78.51	13.26	
2025-01-10 06:24:21.59	78.75	13.26	
2025-01-10 06:24:22.62	78.99	13.26	
2025-01-10 06:24:23.64	79.22	13.27	
2025-01-10 06:24:24.66	79.46	13.27	
2025-01-10 06:24:25.69	79.70	13.27	
2025-01-10 06:24:26.73	79.94	13.28	
2025-01-10 06:24:27.76	80.17	13.28	
2025-01-10 06:24:28.78	80.41	13.28	
2025-01-10 06:24:29.81	80.65	13.28	
2025-01-10 06:24:30.84	80.88	13.28	
2025-01-10 06:24:31.86	81.12	13.28	
2025-01-10 06:24:32.89	81.36	13.28	
2025-01-10 06:24:33.92	81.59	13.28	
2025-01-10 06:24:34.94	81.83	13.28	
2025-01-10 06:24:35.97	82.07	13.28	
2025-01-10 06:24:36.99	82.30	13.27	
2025-01-10 06:24:38.02	82.54	13.27	
2025-01-10 06:24:39.05	82.78	13.27	
2025-01-10 06:24:40.09	83.02	13.27	
2025-01-10 06:24:41.12	83.25	13.26	
2025-01-10 06:24:42.14	83.49	13.26	
2025-01-10 06:24:43.17	83.73	13.25	
2025-01-10 06:24:44.20	83.96	13.25	
2025-01-10 06:24:45.23	84.20	13.24	
2025-01-10 06:24:46.27	84.44	13.24	
2025-01-10 06:24:47.30	84.68	13.23	
2025-01-10 06:24:48.33	84.91	13.22	
2025-01-10 06:24:49.37	85.15	13.22	
2025-01-10 06:24:50.39	85.39	13.21	
2025-01-10 06:24:51.43	85.63	13.20	
2025-01-10 06:24:52.46	85.86	13.19	
2025-01-10 06:24:53.48	86.10	13.18	
2025-01-10 06:24:54.51	86.33	13.17	
2025-01-10 06:24:55.55	86.57	13.16	
2025-01-10 06:24:56.57	86.80	13.15	
2025-01-10 06:24:57.60	87.04	13.14	
2025-01-10 06:24:58.62	87.27	13.13	
2025-01-10 06:24:59.65	87.51	13.12	
2025-01-10 06:25:00.68	87.74	13.11	
2025-01-10 06:25:01.70	87.97	13.10	
2025-01-10 06:25:02.73	88.21	13.08	
2025-01-10 06:25:03.75	88.44	13.07	
2025-01-10 06:25:04.78	88.67	13.06	
2025-01-10 06:25:05.80	88.91	13.04	
2025-01-10 06:25:06.84	89.14	13.03	
2025-01-10 06:25:07.87	89.38	13.01	
2025-01-10 06:25:08.89	89.61	13.00	
2025-01-10 06:25:09.91	89.84	12.98	
2025-01-10 06:25:10.94	90.07	12.97	
2025-01-10 06:25:11.97	90.30	12.95	
2025-01-10 06:25:12.99	90.53	12.93	
2025-01-10 06:25:14.02	90.76	12.92	
2025-01-10 06:25:15.04	90.99	12.90	
2025-01-10 06:25:16.07	91.23	12.88	
2025-01-10 06:25:17.09	91.45	12.86	
2025-01-10 06:25:18.12	91.69	12.85	
2025-01-10 06:25:19.14	91.91	12.83	
2025-01-10 06:25:20.16	92.14	12.81	
2025-01-10 06:25:21.19	92.37	12.79	
2025-01-10 06:25:22.23	92.60	12.77	
2025-01-10 06:25:23.25	92.83	12.75	
2025-01-10 06:25:24.28	93.06	12.73	
2025-01-10 06:25:25.30	93.29	12.70	
2025-01-10 06:25:26.32	93.51	12.68	
2025-01-10 06:25:27.35	93.74	12.66	
2025-01-10 06:25:28.38	93.97	12.64	
2025-01-10 06:25:29.41	94.19	12.62	
2025-01-10 06:25:30.43	94.42	12.59	
2025-01-10 06:25:31.46	94.64	12.57	
2025-01-10 06:25:32.48	94.87	12.55	
2025-01-10 06:25:33.51	95.09	12.52	
2025-01-10 06:25:34.55	95.32	12.50	
2025-01-10 06:25:35.59	95.55	12.47	
2025-01-10 06:25:36.63	95.78	12.45	
2025-01-10 06:25:37.66	96.00	12.42	
2025-01-10 06:25:38.68	96.22	12.39	
2025-01-10 06:25:39.71	96.44	12.37	
2025-01-10 06:25:40.75	96.67	12.34	
2025-01-10 06:25:41.79	96.89	12.31	
2025-01-10 06:25:42.82	97.12	12.29	
2025-01-10 06:25:43.85	97.34	12.26	
2025-01-10 06:25:44.88	97.56	12.23	
2025-01-10 06:25:45.90	97.78	12.20	
2025-01-10 06:25:46.93	98.00	12.17	
2025-01-10 06:25:47.96	98.22	12.14	
2025-01-10 06:25:48.98	98.43	12.12	
2025-01-10 06:25:50.01	98.65	12.09	
2025-01-10 06:25:51.04	98.87	12.06	
2025-01-10 06:25:52.06	99.09	12.03	
2025-01-10 06:25:53.09	99.31	12.00	
2025-01-10 06:25:54.11	99.52	11.96	
2025-01-10 06:25:55.14	99.74	11.93	
2025-01-10 06:25:56.17	99.95	11.90	
2025-01-10 06:25:57.21	100.17	11.87	
2025-01-10 06:25:58.24	100.39	11.84	
2025-01-10 06:25:59.27	100.60	11.81	
2025-01-10 06:26:00.30	100.81	11.77	
2025-01-10 06:26:01.33	101.03	11.74	
2025-01-10 06:26:02.36	101.24	11.71	
2025-01-10 06:26:03.38	101.45	11.67	
2025-01-10 06:26:04.40	101.66	11.64	
2025-01-10 06:26:05.43	101.87	11.61	
2025-01-10 06:26:06.45	102.08	11.57	
2025-01-10 06:26:07.48	102.29	11.54	
2025-01-10 06:26:08.51	102.50	11.50	
2025-01-10 06:26:09.54	102.71	11.47	
2025-01-10 06:26:10.56	102.92	11.43	
2025-01-10 06:26:11.59	103.13	11.39	
2025-01-10 06:26:12.61	103.33	11.36	
2025-01-10 06:26:13.64	103.54	11.32	
2025-01-10 06:26:14.66	103.75	11.29	
2025-01-10 06:26:15.69	103.95	11.25	
2025-01-10 06:26:16.71	104.16	11.21	
2025-01-10 06:26:17.74	104.36	11.18	
2025-01-10 06:26:18.76	104.57	11.14	
2025-01-10 06:26:19.79	104.77	11.10	
2025-01-10 06:26:20.81	104.97	11.06	
2025-01-10 06:26:21.84	105.17	11.02	
2025-01-10 06:26:22.87	105.38	10.99	
2025-01-10 06:26:23.89	105.58	10.95	
2025-01-10 06:26:24.92	105.78	10.91	
2025-01-10 06:26:25.98	105.99	10.87	
2025-01-10 06:26:27.00	106.18	10.83	
2025-01-10 06:26:28.03	106.38	10.79	
2025-01-10 06:26:29.05	106.58	10.75	
2025-01-10 06:26:30.08	106.78	10.71	
2025-01-10 06:26:31.10	106.98	10.67	
2025-01-10 06:26:32.13	107.17	10.63	
2025-01-10 06:26:33.16	107.37	10.59	
2025-01-10 06:26:34.18	107.56	10.55	
2025-01-10 06:26:35.20	107.76	10.51	
2025-01-10 06:26:36.23	107.95	10.47	
2025-01-10 06:26:37.25	108.15	10.42	
2025-01-10 06:26:38.29	108.34	10.38	
2025-01-10 06:26:39.31	108.53	10.34	
2025-01-10 06:26:40.34	108.73	10.30	
2025-01-10 06:26:41.38	108.92	10.26	
2025-01-10 06:26:42.42	109.11	10.21	
2025-01-10 06:26:43.46	109.31	10.17	
2025-01-10 06:26:44.48	109.50	10.13	
2025-01-10 06:26:45.50	109.68	10.08	
2025-01-10 06:26:46.53	109.87	10.04	
2025-01-10 06:26:47.57	110.06	10.00	
2025-01-10 06:26:48.60	110.25	9.95	
2025-01-10 06:26:49.64	110.44	9.91	
2025-01-10 06:26:50.66	110.63	9.87	
2025-01-10 06:26:51.68	110.81	9.82	
2025-01-10 06:26:52.72	111.00	9.78	
2025-01-10 06:26:53.75	111.18	9.73	
2025-01-10 06:26:54.78	111.37	9.69	
2025-01-10 06:26:55.80	111.55	9.64	
2025-01-10 06:26:56.82	111.73	9.60	
2025-01-10 06:26:57.85	111.92	9.55	
2025-01-10 06:26:58.88	112.10	9.51	
2025-01-10 06:26:59.90	112.28	9.46	
2025-01-10 06:27:00.93	112.46	9.42	
2025-01-10 06:27:01.95	112.64	9.37	
2025-01-10 06:27:02.99	112.82	9.33	
2025-01-10 06:27:04.01	113.00	9.28	
2025-01-10 06:27:05.05	113.18	9.23	
2025-01-10 06:27:06.08	113.36	9.19	
2025-01-10 06:27:07.10	113.53	9.14	
2025-01-10 06:27:08.13	113.71	9.10	
2025-01-10 06:27:09.17	113.89	9.05	
2025-01-10 06:27:10.20	114.06	9.00	
2025-01-10 06:27:11.22	114.24	8.96	
2025-01-10 06:27:12.24	114.41	8.91	
2025-01-10 06:27:13.28	114.59	8.86	
2025-01-10 06:27:14.31	114.76	8.81	
2025-01-10 06:27:15.34	114.93	8.77	
2025-01-10 06:27:16.37	115.10	8.72	
2025-01-10 06:27:17.41	115.28	8.67	
2025-01-10 06:27:18.43	115.45	8.62	
2025-01-10 06:27:19.46	115.62	8.58	
2025-01-10 06:27:20.49	115.79	8.53	
2025-01-10 06:27:21.51	115.96	8.48	
2025-01-10 06:27:22.53	116.12	8.43	
2025-01-10 06:27:23.57	116.29	8.38	
2025-01-10 06:27:24.60	116.46	8.34	
2025-01-10 06:27:25.63	116.63	8.29	
2025-01-10 06:27:26.65	116.79	8.24	
2025-01-10 06:27:27.68	116.96	8.19	
2025-01-10 06:27:28.72	117.13	8.14	
2025-01-10 06:27:29.74	117.29	8.09	
2025-01-10 06:27:30.78	117.45	8.04	
2025-01-10 06:27:31.80	117.62	8.00	
2025-01-10 06:27:32.83	117.78	7.95	
2025-01-10 06:27:33.85	117.94	7.90	
2025-01-10 06:27:34.88	118.10	7.85	
2025-01-10 06:27:35.90	118.26	7.80	
2025-01-10 06:27:36.93	118.42	7.75	
2025-01-10 06:27:37.97	118.58	7.70	
2025-01-10 06:27:39.01	118.75	7.65	
2025-01-10 06:27:40.03	118.90	7.60	
2025-01-10 06:27:41.06	119.06	7.55	
2025-01-10 06:27:42.08	119.22	7.50	
2025-01-10 06:27:43.10	119.37	7.45	
2025-01-10 06:27:44.13	119.53	7.40	
2025-01-10 06:27:45.16	119.69	7.35	
2025-01-10 06:27:46.18	119.84	7.30	
2025-01-10 06:27:47.21	120.00	7.25	
2025-01-10 06:27:48.24	120.15	7.20	
2025-01-10 06:27:49.27	120.30	7.15	
2025-01-10 06:27:50.29	120.46	7.10	
2025-01-10 06:27:51.32	120.61	7.05	
2025-01-10 06:27:52.34	120.76	7.00	
2025-01-10 06:27:53.37	120.91	6.95	
2025-01-10 06:27:54.40	121.06	6.90	
2025-01-10 06:27:55.42	121.21	6.85	
2025-01-10 06:27:56.46	121.36	6.80	
2025-01-10 06:27:57.48	121.51	6.75	
2025-01-10 06:27:58.51	121.66	6.70	
2025-01-10 06:27:59.54	121.81	6.65	
2025-01-10 06:28:00.57	121.96	6.60	
2025-01-10 06:28:01.61	122.11	6.55	
2025-01-10 06:28:02.64	122.25	6.50	
2025-01-10 06:28:03.67	122.40	6.45	
2025-01-10 06:28:04.69	122.54	6.40	
2025-01-10 06:28:05.72	122.69	6.35	
2025-01-10 06:28:06.76	122.84	6.30	
2025-01-10 06:28:07.79	122.98	6.24	
2025-01-10 06:28:08.81	123.12	6.19	
2025-01-10 06:28:09.84	123.26	6.14	
2025-01-10 06:28:10.88	123.41	6.09	
2025-01-10 06:28:11.90	123.55	6.04	
2025-01-10 06:28:12.92	123.69	5.99	
2025-01-10 06:28:13.95	123.83	5.94	
2025-01-10 06:28:14.97	123.97	5.89	
2025-01-10 06:28:16.00	124.11	5.84	
2025-01-10 06:28:17.03	124.25	5.79	
2025-01-10 06:28:18.05	124.39	5.74	
2025-01-10 06:28:19.08	124.53	5.68	
2025-01-10 06:28:20.10	124.66	5.63	
2025-01-10 06:28:21.13	124.80	5.58	
2025-01-10 06:28:22.15	124.94	5.53	
2025-01-10 06:28:23.17	125.07	5.48	
2025-01-10 06:28:24.20	125.21	5.43	
2025-01-10 06:28:25.23	125.34	5.38	
2025-01-10 06:28:26.25	125.48	5.33	
2025-01-10 06:28:27.27	125.61	5.28	
2025-01-10 06:28:28.29	125.74	5.23	
2025-01-10 06:28:29.32	125.88	5.17	
2025-01-10 06:28:30.35	126.01	5.12	
2025-01-10 06:28:31.37	126.14	5.07	
2025-01-10 06:28:32.40	126.27	5.02	
2025-01-10 06:28:33.43	126.40	4.97	
2025-01-10 06:28:34.45	126.53	4.92	
2025-01-10 06:28:35.49	126.66	4.87	
2025-01-10 06:28:36.51	126.79	4.82	
2025-01-10 06:28:37.54	126.92	4.76	
2025-01-10 06:28:38.56	127.05	4.71	
2025-01-10 06:28:39.59	127.18	4.66	
2025-01-10 06:28:40.61	127.31	4.61	
2025-01-10 06:28:41.65	127.44	4.56	
2025-01-10 06:28:42.68	127.56	4.51	
2025-01-10 06:28:43.70	127.69	4.46	
2025-01-10 06:28:44.73	127.81	4.41	
2025-01-10 06:28:45.75	127.94	4.35	
2025-01-10 06:28:46.78	128.06	4.30	
2025-01-10 06:28:47.81	128.19	4.25	
2025-01-10 06:28:48.83	128.31	4.20	
2025-01-10 06:28:49.86	128.44	4.15	
2025-01-10 06:28:50.90	128.56	4.10	
2025-01-10 06:28:51.92	128.68	4.05	

#Closed at: 2025-01-10 06:28:52