passes_logs/2025/01/10/SPB_Silybum_02/SPB_Silybum_02__20250110_173400_TERRA_rec.log

#Pass ID: 20250110_173400_TERRA
#Satellite: TERRA
#Configuration: TERRA
#Start time: 2025-01-10 17:34:00

#Version: 2.0.20230423
#Station: SPB_Silybum_02
#Location: 30.233357 lon 59.946436 lat
#TLE: 1 25994U 99068A   25009.84464495  .00000861  00000+0  18726-3 0  9992
#TLE: 2 25994  98.0226  73.0387 0003560  82.8900 338.1382 14.60385144333325

#Time	Az	El	Level	Level2	SNR	BER	Gain	Gain2
2025-01-10 17:34:02.80	131.68	4.15	
2025-01-10 17:34:04.04	131.62	4.24	
2025-01-10 17:34:05.27	131.56	4.33	
2025-01-10 17:34:06.50	131.50	4.41	
2025-01-10 17:34:07.73	131.44	4.50	
2025-01-10 17:34:08.96	131.38	4.58	
2025-01-10 17:34:10.21	131.32	4.67	
2025-01-10 17:34:11.45	131.25	4.76	
2025-01-10 17:34:12.68	131.19	4.85	
2025-01-10 17:34:13.91	131.13	4.94	
2025-01-10 17:34:15.14	131.06	5.02	
2025-01-10 17:34:16.38	131.00	5.11	
2025-01-10 17:34:17.62	130.93	5.20	
2025-01-10 17:34:18.85	130.87	5.29	
2025-01-10 17:34:20.09	130.80	5.38	
2025-01-10 17:34:21.31	130.74	5.47	
2025-01-10 17:34:22.54	130.67	5.56	
2025-01-10 17:34:23.77	130.61	5.65	
2025-01-10 17:34:25.01	130.54	5.74	
2025-01-10 17:34:26.24	130.47	5.83	
2025-01-10 17:34:27.47	130.40	5.92	
2025-01-10 17:34:28.70	130.33	6.01	
2025-01-10 17:34:29.93	130.27	6.11	
2025-01-10 17:34:31.16	130.20	6.20	
2025-01-10 17:34:32.39	130.13	6.29	
2025-01-10 17:34:33.62	130.06	6.38	
2025-01-10 17:34:34.85	129.99	6.48	
2025-01-10 17:34:36.09	129.91	6.57	
2025-01-10 17:34:37.33	129.84	6.66	
2025-01-10 17:34:38.56	129.77	6.76	
2025-01-10 17:34:39.79	129.69	6.85	
2025-01-10 17:34:41.02	129.62	6.95	
2025-01-10 17:34:42.24	129.55	7.04	
2025-01-10 17:34:43.49	129.47	7.14	
2025-01-10 17:34:44.72	129.40	7.23	
2025-01-10 17:34:45.95	129.32	7.33	
2025-01-10 17:34:47.18	129.24	7.43	
2025-01-10 17:34:48.41	129.17	7.52	
2025-01-10 17:34:49.64	129.09	7.62	
2025-01-10 17:34:50.87	129.01	7.72	
2025-01-10 17:34:52.10	128.93	7.82	
2025-01-10 17:34:53.34	128.85	7.92	
2025-01-10 17:34:54.58	128.77	8.02	
2025-01-10 17:34:55.80	128.69	8.11	
2025-01-10 17:34:57.04	128.61	8.21	
2025-01-10 17:34:58.28	128.53	8.31	
2025-01-10 17:34:59.51	128.45	8.41	
2025-01-10 17:35:00.74	128.36	8.52	
2025-01-10 17:35:01.96	128.28	8.62	
2025-01-10 17:35:03.21	128.19	8.72	
2025-01-10 17:35:04.44	128.11	8.82	
2025-01-10 17:35:05.67	128.02	8.92	
2025-01-10 17:35:06.90	127.94	9.03	
2025-01-10 17:35:08.13	127.85	9.13	
2025-01-10 17:35:09.38	127.76	9.23	
2025-01-10 17:35:10.61	127.67	9.34	
2025-01-10 17:35:11.85	127.58	9.44	
2025-01-10 17:35:13.08	127.49	9.55	
2025-01-10 17:35:14.30	127.40	9.65	
2025-01-10 17:35:15.53	127.31	9.76	
2025-01-10 17:35:16.76	127.22	9.86	
2025-01-10 17:35:17.99	127.12	9.97	
2025-01-10 17:35:19.22	127.03	10.08	
2025-01-10 17:35:20.45	126.94	10.18	
2025-01-10 17:35:21.68	126.84	10.29	
2025-01-10 17:35:22.91	126.75	10.40	
2025-01-10 17:35:24.14	126.65	10.51	
2025-01-10 17:35:25.37	126.55	10.62	
2025-01-10 17:35:26.62	126.45	10.73	
2025-01-10 17:35:27.85	126.35	10.84	
2025-01-10 17:35:29.08	126.25	10.95	
2025-01-10 17:35:30.31	126.15	11.06	
2025-01-10 17:35:31.54	126.05	11.17	
2025-01-10 17:35:32.77	125.95	11.28	
2025-01-10 17:35:34.00	125.84	11.40	
2025-01-10 17:35:35.23	125.74	11.51	
2025-01-10 17:35:36.46	125.63	11.62	
2025-01-10 17:35:37.69	125.53	11.74	
2025-01-10 17:35:38.92	125.42	11.85	
2025-01-10 17:35:40.16	125.31	11.97	
2025-01-10 17:35:41.40	125.20	12.08	
2025-01-10 17:35:42.64	125.09	12.20	
2025-01-10 17:35:43.87	124.98	12.32	
2025-01-10 17:35:45.10	124.87	12.43	
2025-01-10 17:35:46.33	124.75	12.55	
2025-01-10 17:35:47.57	124.64	12.67	
2025-01-10 17:35:48.79	124.53	12.79	
2025-01-10 17:35:50.02	124.41	12.91	
2025-01-10 17:35:51.25	124.29	13.03	
2025-01-10 17:35:52.48	124.17	13.15	
2025-01-10 17:35:53.71	124.06	13.27	
2025-01-10 17:35:54.94	123.94	13.39	
2025-01-10 17:35:56.18	123.81	13.51	
2025-01-10 17:35:57.41	123.69	13.63	
2025-01-10 17:35:58.64	123.57	13.76	
2025-01-10 17:35:59.88	123.44	13.88	
2025-01-10 17:36:01.12	123.31	14.01	
2025-01-10 17:36:02.35	123.19	14.13	
2025-01-10 17:36:03.58	123.06	14.26	
2025-01-10 17:36:04.82	122.93	14.38	
2025-01-10 17:36:06.06	122.80	14.51	
2025-01-10 17:36:07.29	122.67	14.64	
2025-01-10 17:36:08.53	122.53	14.76	
2025-01-10 17:36:09.78	122.40	14.89	
2025-01-10 17:36:11.01	122.26	15.02	
2025-01-10 17:36:12.26	122.12	15.15	
2025-01-10 17:36:13.49	121.98	15.28	
2025-01-10 17:36:14.73	121.84	15.42	
2025-01-10 17:36:15.96	121.70	15.55	
2025-01-10 17:36:17.19	121.56	15.68	
2025-01-10 17:36:18.43	121.42	15.81	
2025-01-10 17:36:19.66	121.27	15.95	
2025-01-10 17:36:20.89	121.12	16.08	
2025-01-10 17:36:22.12	120.98	16.21	
2025-01-10 17:36:23.37	120.83	16.35	
2025-01-10 17:36:24.60	120.67	16.49	
2025-01-10 17:36:25.83	120.52	16.62	
2025-01-10 17:36:27.06	120.37	16.76	
2025-01-10 17:36:28.28	120.22	16.89	
2025-01-10 17:36:29.52	120.06	17.03	
2025-01-10 17:36:30.75	119.90	17.17	
2025-01-10 17:36:31.98	119.74	17.31	
2025-01-10 17:36:33.21	119.58	17.45	
2025-01-10 17:36:34.44	119.42	17.59	
2025-01-10 17:36:35.67	119.25	17.73	
2025-01-10 17:36:36.90	119.08	17.88	
2025-01-10 17:36:38.13	118.92	18.02	
2025-01-10 17:36:39.36	118.75	18.16	
2025-01-10 17:36:40.59	118.58	18.31	
2025-01-10 17:36:41.83	118.40	18.45	
2025-01-10 17:36:43.08	118.22	18.60	
2025-01-10 17:36:44.32	118.04	18.75	
2025-01-10 17:36:45.57	117.86	18.90	
2025-01-10 17:36:46.80	117.68	19.04	
2025-01-10 17:36:48.03	117.50	19.19	
2025-01-10 17:36:49.27	117.31	19.34	
2025-01-10 17:36:50.51	117.13	19.49	
2025-01-10 17:36:51.76	116.94	19.64	
2025-01-10 17:36:53.00	116.74	19.80	
2025-01-10 17:36:54.23	116.55	19.95	
2025-01-10 17:36:55.46	116.36	20.10	
2025-01-10 17:36:56.71	116.16	20.25	
2025-01-10 17:36:57.94	115.96	20.41	
2025-01-10 17:36:59.17	115.76	20.56	
2025-01-10 17:37:00.40	115.56	20.72	
2025-01-10 17:37:01.64	115.35	20.87	
2025-01-10 17:37:02.87	115.14	21.03	
2025-01-10 17:37:04.10	114.93	21.19	
2025-01-10 17:37:05.33	114.72	21.34	
2025-01-10 17:37:06.56	114.51	21.50	
2025-01-10 17:37:07.81	114.29	21.66	
2025-01-10 17:37:09.04	114.07	21.82	
2025-01-10 17:37:10.27	113.85	21.98	
2025-01-10 17:37:11.51	113.62	22.14	
2025-01-10 17:37:12.74	113.39	22.31	
2025-01-10 17:37:13.97	113.17	22.47	
2025-01-10 17:37:15.20	112.93	22.63	
2025-01-10 17:37:16.43	112.70	22.79	
2025-01-10 17:37:17.66	112.46	22.96	
2025-01-10 17:37:18.90	112.22	23.12	
2025-01-10 17:37:20.13	111.98	23.29	
2025-01-10 17:37:21.37	111.74	23.46	
2025-01-10 17:37:22.62	111.48	23.62	
2025-01-10 17:37:23.84	111.24	23.79	
2025-01-10 17:37:25.07	110.98	23.96	
2025-01-10 17:37:26.31	110.73	24.13	
2025-01-10 17:37:27.53	110.47	24.29	
2025-01-10 17:37:28.77	110.21	24.47	
2025-01-10 17:37:30.00	109.94	24.63	
2025-01-10 17:37:31.24	109.67	24.81	
2025-01-10 17:37:32.47	109.40	24.98	
2025-01-10 17:37:33.70	109.13	25.15	
2025-01-10 17:37:34.95	108.84	25.32	
2025-01-10 17:37:36.18	108.56	25.50	
2025-01-10 17:37:37.40	108.28	25.67	
2025-01-10 17:37:38.63	108.00	25.84	
2025-01-10 17:37:39.87	107.71	26.02	
2025-01-10 17:37:41.10	107.41	26.19	
2025-01-10 17:37:42.33	107.12	26.36	
2025-01-10 17:37:43.56	106.82	26.54	
2025-01-10 17:37:44.79	106.51	26.71	
2025-01-10 17:37:46.02	106.20	26.89	
2025-01-10 17:37:47.25	105.89	27.07	
2025-01-10 17:37:48.49	105.58	27.24	
2025-01-10 17:37:49.72	105.26	27.42	
2025-01-10 17:37:50.95	104.94	27.60	
2025-01-10 17:37:52.20	104.61	27.78	
2025-01-10 17:37:53.43	104.28	27.95	
2025-01-10 17:37:54.66	103.94	28.13	
2025-01-10 17:37:55.89	103.61	28.31	
2025-01-10 17:37:57.12	103.27	28.49	
2025-01-10 17:37:58.36	102.92	28.67	
2025-01-10 17:37:59.59	102.57	28.85	
2025-01-10 17:38:00.81	102.22	29.02	
2025-01-10 17:38:02.06	101.86	29.20	
2025-01-10 17:38:03.29	101.50	29.38	
2025-01-10 17:38:04.52	101.13	29.56	
2025-01-10 17:38:05.75	100.76	29.74	
2025-01-10 17:38:06.99	100.39	29.92	
2025-01-10 17:38:08.22	100.01	30.09	
2025-01-10 17:38:09.44	99.63	30.27	
2025-01-10 17:38:10.68	99.24	30.45	
2025-01-10 17:38:11.91	98.85	30.62	
2025-01-10 17:38:13.14	98.45	30.80	
2025-01-10 17:38:14.37	98.05	30.98	
2025-01-10 17:38:15.60	97.65	31.15	
2025-01-10 17:38:16.83	97.24	31.33	
2025-01-10 17:38:18.07	96.82	31.50	
2025-01-10 17:38:19.30	96.40	31.68	
2025-01-10 17:38:20.54	95.98	31.85	
2025-01-10 17:38:21.76	95.55	32.02	
2025-01-10 17:38:23.00	95.12	32.20	
2025-01-10 17:38:24.23	94.68	32.37	
2025-01-10 17:38:25.46	94.24	32.54	
2025-01-10 17:38:26.69	93.79	32.71	
2025-01-10 17:38:27.92	93.34	32.88	
2025-01-10 17:38:29.15	92.88	33.04	
2025-01-10 17:38:30.38	92.42	33.21	
2025-01-10 17:38:31.61	91.95	33.38	
2025-01-10 17:38:32.84	91.48	33.54	
2025-01-10 17:38:34.09	91.00	33.71	
2025-01-10 17:38:35.32	90.52	33.87	
2025-01-10 17:38:36.55	90.03	34.03	
2025-01-10 17:38:37.78	89.54	34.19	
2025-01-10 17:38:39.01	89.05	34.34	
2025-01-10 17:38:40.24	88.55	34.50	
2025-01-10 17:38:41.48	88.04	34.66	
2025-01-10 17:38:42.70	87.53	34.81	
2025-01-10 17:38:43.93	87.01	34.96	
2025-01-10 17:38:45.16	86.49	35.11	
2025-01-10 17:38:46.39	85.97	35.25	
2025-01-10 17:38:47.62	85.44	35.40	
2025-01-10 17:38:48.85	84.90	35.54	
2025-01-10 17:38:50.09	84.36	35.68	
2025-01-10 17:38:51.33	83.81	35.82	
2025-01-10 17:38:52.56	83.26	35.96	
2025-01-10 17:38:53.80	82.70	36.09	
2025-01-10 17:38:55.04	82.14	36.23	
2025-01-10 17:38:56.28	81.57	36.36	
2025-01-10 17:38:57.50	81.01	36.48	
2025-01-10 17:38:58.73	80.44	36.60	
2025-01-10 17:38:59.96	79.86	36.72	
2025-01-10 17:39:01.19	79.28	36.84	
2025-01-10 17:39:02.42	78.70	36.96	
2025-01-10 17:39:03.65	78.11	37.07	
2025-01-10 17:39:04.88	77.51	37.18	
2025-01-10 17:39:06.13	76.91	37.29	
2025-01-10 17:39:07.36	76.31	37.39	
2025-01-10 17:39:08.60	75.70	37.49	
2025-01-10 17:39:09.83	75.09	37.59	
2025-01-10 17:39:11.06	74.48	37.68	
2025-01-10 17:39:12.29	73.86	37.77	
2025-01-10 17:39:13.52	73.24	37.85	
2025-01-10 17:39:14.76	72.61	37.94	
2025-01-10 17:39:16.00	71.98	38.02	
2025-01-10 17:39:17.24	71.35	38.09	
2025-01-10 17:39:18.47	70.72	38.16	
2025-01-10 17:39:19.70	70.08	38.23	
2025-01-10 17:39:20.93	69.44	38.30	
2025-01-10 17:39:22.16	68.80	38.36	
2025-01-10 17:39:23.39	68.16	38.41	
2025-01-10 17:39:24.62	67.52	38.46	
2025-01-10 17:39:25.85	66.87	38.51	
2025-01-10 17:39:27.09	66.22	38.56	
2025-01-10 17:39:28.32	65.57	38.60	
2025-01-10 17:39:29.55	64.92	38.63	
2025-01-10 17:39:30.78	64.27	38.66	
2025-01-10 17:39:32.03	63.60	38.69	
2025-01-10 17:39:33.26	62.95	38.72	
2025-01-10 17:39:34.49	62.29	38.74	
2025-01-10 17:39:35.72	61.64	38.75	
2025-01-10 17:39:36.95	60.98	38.76	
2025-01-10 17:39:38.18	60.32	38.77	
2025-01-10 17:39:39.42	59.66	38.77	
2025-01-10 17:39:40.67	58.99	38.77	
2025-01-10 17:39:41.90	58.33	38.76	
2025-01-10 17:39:43.13	57.68	38.75	
2025-01-10 17:39:44.36	57.02	38.74	
2025-01-10 17:39:45.61	56.36	38.72	
2025-01-10 17:39:46.84	55.70	38.70	
2025-01-10 17:39:48.07	55.05	38.67	
2025-01-10 17:39:49.30	54.39	38.64	
2025-01-10 17:39:50.53	53.74	38.60	
2025-01-10 17:39:51.76	53.09	38.56	
2025-01-10 17:39:52.99	52.45	38.52	
2025-01-10 17:39:54.22	51.80	38.47	
2025-01-10 17:39:55.45	51.16	38.42	
2025-01-10 17:39:56.68	50.52	38.37	
2025-01-10 17:39:57.91	49.88	38.31	
2025-01-10 17:39:59.14	49.24	38.24	
2025-01-10 17:40:00.37	48.61	38.18	
2025-01-10 17:40:01.60	47.97	38.11	
2025-01-10 17:40:02.83	47.35	38.03	
2025-01-10 17:40:04.06	46.72	37.95	
2025-01-10 17:40:05.30	46.09	37.87	
2025-01-10 17:40:06.55	45.46	37.79	
2025-01-10 17:40:07.78	44.85	37.70	
2025-01-10 17:40:09.02	44.23	37.60	
2025-01-10 17:40:10.24	43.63	37.51	
2025-01-10 17:40:11.48	43.02	37.41	
2025-01-10 17:40:12.71	42.42	37.31	
2025-01-10 17:40:13.94	41.82	37.20	
2025-01-10 17:40:15.17	41.23	37.09	
2025-01-10 17:40:16.40	40.64	36.98	
2025-01-10 17:40:17.63	40.05	36.87	
2025-01-10 17:40:18.86	39.47	36.75	
2025-01-10 17:40:20.09	38.90	36.63	
2025-01-10 17:40:21.32	38.33	36.51	
2025-01-10 17:40:22.56	37.75	36.38	
2025-01-10 17:40:23.81	37.18	36.25	
2025-01-10 17:40:25.04	36.62	36.12	
2025-01-10 17:40:26.27	36.07	35.99	
2025-01-10 17:40:27.50	35.52	35.85	
2025-01-10 17:40:28.73	34.98	35.72	
2025-01-10 17:40:29.96	34.44	35.58	
2025-01-10 17:40:31.19	33.90	35.43	
2025-01-10 17:40:32.43	33.37	35.29	
2025-01-10 17:40:33.67	32.84	35.14	
2025-01-10 17:40:34.89	32.33	35.00	
2025-01-10 17:40:36.13	31.81	34.84	
2025-01-10 17:40:37.36	31.30	34.69	
2025-01-10 17:40:38.59	30.79	34.54	
2025-01-10 17:40:39.81	30.30	34.39	
2025-01-10 17:40:41.04	29.80	34.23	
2025-01-10 17:40:42.29	29.30	34.07	
2025-01-10 17:40:43.51	28.82	33.91	
2025-01-10 17:40:44.75	28.34	33.75	
2025-01-10 17:40:45.98	27.86	33.59	
2025-01-10 17:40:47.21	27.39	33.42	
2025-01-10 17:40:48.44	26.92	33.26	
2025-01-10 17:40:49.67	26.46	33.09	
2025-01-10 17:40:50.90	26.01	32.93	
2025-01-10 17:40:52.13	25.56	32.76	
2025-01-10 17:40:53.36	25.11	32.59	
2025-01-10 17:40:54.59	24.67	32.42	
2025-01-10 17:40:55.83	24.23	32.25	
2025-01-10 17:40:57.06	23.80	32.08	
2025-01-10 17:40:58.29	23.37	31.91	
2025-01-10 17:40:59.51	22.95	31.73	
2025-01-10 17:41:00.74	22.53	31.56	
2025-01-10 17:41:01.98	22.12	31.39	
2025-01-10 17:41:03.21	21.71	31.21	
2025-01-10 17:41:04.43	21.31	31.04	
2025-01-10 17:41:05.66	20.91	30.86	
2025-01-10 17:41:06.89	20.51	30.69	
2025-01-10 17:41:08.12	20.12	30.51	
2025-01-10 17:41:09.35	19.73	30.33	
2025-01-10 17:41:10.58	19.35	30.16	
2025-01-10 17:41:11.81	18.98	29.98	
2025-01-10 17:41:13.05	18.60	29.80	
2025-01-10 17:41:14.28	18.23	29.63	
2025-01-10 17:41:15.52	17.86	29.45	
2025-01-10 17:41:16.77	17.50	29.27	
2025-01-10 17:41:18.00	17.14	29.09	
2025-01-10 17:41:19.24	16.78	28.91	
2025-01-10 17:41:20.47	16.44	28.73	
2025-01-10 17:41:21.70	16.09	28.56	
2025-01-10 17:41:22.93	15.75	28.38	
2025-01-10 17:41:24.15	15.42	28.21	
2025-01-10 17:41:25.39	15.08	28.03	
2025-01-10 17:41:26.62	14.75	27.85	
2025-01-10 17:41:27.85	14.43	27.67	
2025-01-10 17:41:29.09	14.11	27.50	
2025-01-10 17:41:30.32	13.79	27.32	
2025-01-10 17:41:31.56	13.47	27.14	
2025-01-10 17:41:32.79	13.16	26.97	
2025-01-10 17:41:34.02	12.86	26.79	
2025-01-10 17:41:35.26	12.55	26.62	
2025-01-10 17:41:36.49	12.25	26.44	
2025-01-10 17:41:37.71	11.96	26.27	
2025-01-10 17:41:38.96	11.66	26.09	
2025-01-10 17:41:40.19	11.37	25.92	
2025-01-10 17:41:41.43	11.08	25.75	
2025-01-10 17:41:42.66	10.80	25.58	
2025-01-10 17:41:43.89	10.52	25.40	
2025-01-10 17:41:45.12	10.24	25.23	
2025-01-10 17:41:46.35	9.97	25.06	
2025-01-10 17:41:47.58	9.70	24.89	
2025-01-10 17:41:48.81	9.43	24.72	
2025-01-10 17:41:50.04	9.17	24.55	
2025-01-10 17:41:51.28	8.91	24.38	
2025-01-10 17:41:52.51	8.65	24.21	
2025-01-10 17:41:53.73	8.39	24.05	
2025-01-10 17:41:54.98	8.14	23.88	
2025-01-10 17:41:56.21	7.89	23.71	
2025-01-10 17:41:57.44	7.64	23.55	
2025-01-10 17:41:58.67	7.40	23.38	
2025-01-10 17:41:59.91	7.15	23.22	
2025-01-10 17:42:01.14	6.92	23.05	
2025-01-10 17:42:02.37	6.68	22.89	
2025-01-10 17:42:03.60	6.45	22.73	
2025-01-10 17:42:04.83	6.22	22.56	
2025-01-10 17:42:06.06	5.99	22.40	
2025-01-10 17:42:07.29	5.76	22.24	
2025-01-10 17:42:08.51	5.54	22.08	
2025-01-10 17:42:09.74	5.32	21.92	
2025-01-10 17:42:10.98	5.10	21.76	
2025-01-10 17:42:12.21	4.88	21.60	
2025-01-10 17:42:13.44	4.67	21.45	
2025-01-10 17:42:14.67	4.46	21.29	
2025-01-10 17:42:15.90	4.25	21.13	
2025-01-10 17:42:17.13	4.04	20.98	
2025-01-10 17:42:18.36	3.84	20.82	
2025-01-10 17:42:19.59	3.64	20.67	
2025-01-10 17:42:20.82	3.44	20.52	
2025-01-10 17:42:22.04	3.24	20.36	
2025-01-10 17:42:23.28	3.04	20.21	
2025-01-10 17:42:24.52	2.85	20.06	
2025-01-10 17:42:25.75	2.66	19.91	
2025-01-10 17:42:26.98	2.47	19.76	
2025-01-10 17:42:28.22	2.28	19.61	
2025-01-10 17:42:29.45	2.09	19.46	
2025-01-10 17:42:30.68	1.91	19.31	
2025-01-10 17:42:31.92	1.72	19.16	
2025-01-10 17:42:33.15	1.54	19.01	
2025-01-10 17:42:34.39	1.36	18.87	
2025-01-10 17:42:35.62	1.19	18.72	
2025-01-10 17:42:36.86	1.01	18.57	
2025-01-10 17:42:38.09	0.84	18.43	
2025-01-10 17:42:39.33	0.67	18.29	
2025-01-10 17:42:40.57	0.50	18.14	
2025-01-10 17:42:41.80	0.33	18.00	
2025-01-10 17:42:43.03	0.16	17.86	
2025-01-10 17:42:44.26	360.00	17.72	
2025-01-10 17:42:45.51	359.83	17.57	
2025-01-10 17:42:46.75	359.67	17.43	
2025-01-10 17:42:47.98	359.51	17.29	
2025-01-10 17:42:49.22	359.35	17.15	
2025-01-10 17:42:50.44	359.20	17.02	
2025-01-10 17:42:51.68	359.04	16.88	
2025-01-10 17:42:52.93	358.89	16.74	
2025-01-10 17:42:54.15	358.74	16.61	
2025-01-10 17:42:55.38	358.59	16.47	
2025-01-10 17:42:56.63	358.44	16.34	
2025-01-10 17:42:57.86	358.29	16.20	
2025-01-10 17:42:59.09	358.14	16.07	
2025-01-10 17:43:00.32	358.00	15.94	
2025-01-10 17:43:01.55	357.86	15.80	
2025-01-10 17:43:02.78	357.72	15.67	
2025-01-10 17:43:04.01	357.58	15.54	
2025-01-10 17:43:05.24	357.44	15.41	
2025-01-10 17:43:06.47	357.30	15.28	
2025-01-10 17:43:07.70	357.16	15.15	
2025-01-10 17:43:08.94	357.03	15.02	
2025-01-10 17:43:10.19	356.89	14.89	
2025-01-10 17:43:11.42	356.76	14.77	
2025-01-10 17:43:12.65	356.63	14.64	
2025-01-10 17:43:13.88	356.50	14.51	
2025-01-10 17:43:15.11	356.37	14.39	
2025-01-10 17:43:16.35	356.24	14.26	
2025-01-10 17:43:17.58	356.12	14.14	
2025-01-10 17:43:18.82	355.99	14.01	
2025-01-10 17:43:20.05	355.87	13.89	
2025-01-10 17:43:21.28	355.74	13.77	
2025-01-10 17:43:22.52	355.62	13.64	
2025-01-10 17:43:23.75	355.50	13.52	
2025-01-10 17:43:24.98	355.38	13.40	
2025-01-10 17:43:26.21	355.26	13.28	
2025-01-10 17:43:27.44	355.14	13.16	
2025-01-10 17:43:28.67	355.03	13.04	
2025-01-10 17:43:29.90	354.91	12.92	
2025-01-10 17:43:31.15	354.80	12.80	
2025-01-10 17:43:32.37	354.68	12.69	
2025-01-10 17:43:33.60	354.57	12.57	
2025-01-10 17:43:34.84	354.46	12.45	
2025-01-10 17:43:36.08	354.35	12.33	
2025-01-10 17:43:37.31	354.24	12.22	
2025-01-10 17:43:38.54	354.13	12.10	
2025-01-10 17:43:39.77	354.02	11.99	
2025-01-10 17:43:41.00	353.92	11.87	
2025-01-10 17:43:42.23	353.81	11.76	
2025-01-10 17:43:43.46	353.71	11.65	
2025-01-10 17:43:44.69	353.60	11.53	
2025-01-10 17:43:45.92	353.50	11.42	
2025-01-10 17:43:47.15	353.40	11.31	
2025-01-10 17:43:48.38	353.30	11.20	
2025-01-10 17:43:49.61	353.20	11.09	
2025-01-10 17:43:50.84	353.10	10.98	
2025-01-10 17:43:52.07	353.00	10.87	
2025-01-10 17:43:53.31	352.90	10.76	
2025-01-10 17:43:54.54	352.80	10.65	
2025-01-10 17:43:55.77	352.71	10.54	
2025-01-10 17:43:57.00	352.61	10.43	
2025-01-10 17:43:58.25	352.52	10.32	
2025-01-10 17:43:59.47	352.42	10.22	
2025-01-10 17:44:00.70	352.33	10.11	
2025-01-10 17:44:01.93	352.24	10.00	
2025-01-10 17:44:03.16	352.15	9.90	
2025-01-10 17:44:04.39	352.06	9.79	
2025-01-10 17:44:05.62	351.97	9.69	
2025-01-10 17:44:06.85	351.88	9.58	
2025-01-10 17:44:08.10	351.79	9.48	
2025-01-10 17:44:09.33	351.70	9.37	
2025-01-10 17:44:10.56	351.61	9.27	
2025-01-10 17:44:11.79	351.53	9.17	
2025-01-10 17:44:13.03	351.44	9.06	
2025-01-10 17:44:14.27	351.36	8.96	
2025-01-10 17:44:15.51	351.27	8.86	
2025-01-10 17:44:16.74	351.19	8.76	
2025-01-10 17:44:17.99	351.10	8.66	
2025-01-10 17:44:19.22	351.02	8.56	
2025-01-10 17:44:20.45	350.94	8.46	
2025-01-10 17:44:21.69	350.86	8.35	
2025-01-10 17:44:22.92	350.78	8.26	
2025-01-10 17:44:24.15	350.70	8.16	
2025-01-10 17:44:25.38	350.62	8.06	
2025-01-10 17:44:26.61	350.54	7.96	
2025-01-10 17:44:27.85	350.46	7.86	
2025-01-10 17:44:29.09	350.38	7.76	
2025-01-10 17:44:30.34	350.31	7.66	
2025-01-10 17:44:31.57	350.23	7.57	
2025-01-10 17:44:32.81	350.15	7.47	
2025-01-10 17:44:34.04	350.08	7.37	
2025-01-10 17:44:35.28	350.00	7.28	
2025-01-10 17:44:36.50	349.93	7.18	
2025-01-10 17:44:37.75	349.86	7.09	
2025-01-10 17:44:38.98	349.78	6.99	
2025-01-10 17:44:40.21	349.71	6.90	
2025-01-10 17:44:41.44	349.64	6.80	
2025-01-10 17:44:42.67	349.57	6.71	
2025-01-10 17:44:43.90	349.50	6.62	
2025-01-10 17:44:45.13	349.43	6.53	
2025-01-10 17:44:46.36	349.36	6.43	
2025-01-10 17:44:47.60	349.29	6.34	
2025-01-10 17:44:48.84	349.22	6.25	
2025-01-10 17:44:50.07	349.15	6.16	
2025-01-10 17:44:51.31	349.08	6.06	
2025-01-10 17:44:52.55	349.02	5.97	
2025-01-10 17:44:53.78	348.95	5.88	
2025-01-10 17:44:55.02	348.88	5.79	
2025-01-10 17:44:56.25	348.82	5.70	
2025-01-10 17:44:57.49	348.75	5.61	
2025-01-10 17:44:58.72	348.69	5.52	
2025-01-10 17:44:59.95	348.62	5.43	
2025-01-10 17:45:01.18	348.56	5.34	
2025-01-10 17:45:02.41	348.50	5.25	
2025-01-10 17:45:03.64	348.43	5.17	
2025-01-10 17:45:04.87	348.37	5.08	
2025-01-10 17:45:06.10	348.31	4.99	
2025-01-10 17:45:07.33	348.25	4.90	
2025-01-10 17:45:08.56	348.19	4.82	
2025-01-10 17:45:09.79	348.13	4.73	
2025-01-10 17:45:11.03	348.07	4.64	
2025-01-10 17:45:12.26	348.01	4.56	
2025-01-10 17:45:13.51	347.95	4.47	
2025-01-10 17:45:14.74	347.89	4.38	
2025-01-10 17:45:15.97	347.83	4.30	
2025-01-10 17:45:17.20	347.77	4.21	
2025-01-10 17:45:18.43	347.71	4.13	
2025-01-10 17:45:19.66	347.66	4.04	

#Closed at: 2025-01-10 17:45:20