passes_logs/2025/01/10/SPB_Silybum_02/SPB_Silybum_02__20250110_032728_SUOMI_NPP_rec.log

#Pass ID: 20250110_032728_SUOMI NPP
#Satellite: SUOMI NPP
#Configuration: NPP
#Start time: 2025-01-10 03:27:26

#Version: 2.0.20230423
#Station: SPB_Silybum_02
#Location: 30.233357 lon 59.946436 lat
#TLE: 1 37849U 11061A   25009.14008564  .00000193  00000+0  11215-3 0  9999
#TLE: 2 37849  98.7440 310.2032 0001887  50.1400 309.9942 14.19535382684083

#Time	Az	El	Level	Level2	SNR	BER	Gain	Gain2
2025-01-10 03:27:28.64	14.74	4.03	
2025-01-10 03:27:29.67	14.63	4.07	
2025-01-10 03:27:30.71	14.52	4.12	
2025-01-10 03:27:31.74	14.41	4.17	
2025-01-10 03:27:32.77	14.30	4.22	
2025-01-10 03:27:33.79	14.19	4.26	
2025-01-10 03:27:34.82	14.07	4.31	
2025-01-10 03:27:35.84	13.96	4.36	
2025-01-10 03:27:36.87	13.85	4.41	
2025-01-10 03:27:37.89	13.74	4.46	
2025-01-10 03:27:38.92	13.62	4.50	
2025-01-10 03:27:39.94	13.51	4.55	
2025-01-10 03:27:40.97	13.39	4.60	
2025-01-10 03:27:41.99	13.28	4.64	
2025-01-10 03:27:43.02	13.16	4.69	
2025-01-10 03:27:44.05	13.05	4.74	
2025-01-10 03:27:45.07	12.93	4.79	
2025-01-10 03:27:46.10	12.82	4.83	
2025-01-10 03:27:47.15	12.70	4.88	
2025-01-10 03:27:48.17	12.58	4.93	
2025-01-10 03:27:49.20	12.46	4.98	
2025-01-10 03:27:50.22	12.35	5.02	
2025-01-10 03:27:51.25	12.23	5.07	
2025-01-10 03:27:52.29	12.11	5.12	
2025-01-10 03:27:53.33	11.99	5.17	
2025-01-10 03:27:54.35	11.87	5.21	
2025-01-10 03:27:55.38	11.75	5.26	
2025-01-10 03:27:56.41	11.63	5.31	
2025-01-10 03:27:57.43	11.51	5.36	
2025-01-10 03:27:58.46	11.38	5.40	
2025-01-10 03:27:59.49	11.26	5.45	
2025-01-10 03:28:00.51	11.14	5.50	
2025-01-10 03:28:01.54	11.02	5.54	
2025-01-10 03:28:02.57	10.89	5.59	
2025-01-10 03:28:03.60	10.77	5.64	
2025-01-10 03:28:04.64	10.65	5.69	
2025-01-10 03:28:05.67	10.52	5.73	
2025-01-10 03:28:06.69	10.40	5.78	
2025-01-10 03:28:07.74	10.27	5.83	
2025-01-10 03:28:08.76	10.15	5.87	
2025-01-10 03:28:09.78	10.02	5.92	
2025-01-10 03:28:10.81	9.89	5.97	
2025-01-10 03:28:11.83	9.77	6.01	
2025-01-10 03:28:12.86	9.64	6.06	
2025-01-10 03:28:13.88	9.51	6.10	
2025-01-10 03:28:14.91	9.39	6.15	
2025-01-10 03:28:15.93	9.26	6.20	
2025-01-10 03:28:16.95	9.13	6.24	
2025-01-10 03:28:17.98	9.00	6.29	
2025-01-10 03:28:19.01	8.87	6.33	
2025-01-10 03:28:20.03	8.74	6.38	
2025-01-10 03:28:21.06	8.61	6.43	
2025-01-10 03:28:22.08	8.48	6.47	
2025-01-10 03:28:23.11	8.35	6.52	
2025-01-10 03:28:24.13	8.22	6.56	
2025-01-10 03:28:25.16	8.09	6.61	
2025-01-10 03:28:26.18	7.96	6.66	
2025-01-10 03:28:27.21	7.82	6.70	
2025-01-10 03:28:28.25	7.69	6.75	
2025-01-10 03:28:29.29	7.55	6.79	
2025-01-10 03:28:30.32	7.42	6.84	
2025-01-10 03:28:31.35	7.28	6.88	
2025-01-10 03:28:32.37	7.15	6.93	
2025-01-10 03:28:33.40	7.01	6.97	
2025-01-10 03:28:34.42	6.88	7.02	
2025-01-10 03:28:35.45	6.74	7.06	
2025-01-10 03:28:36.47	6.61	7.11	
2025-01-10 03:28:37.50	6.47	7.15	
2025-01-10 03:28:38.54	6.33	7.20	
2025-01-10 03:28:39.57	6.19	7.24	
2025-01-10 03:28:40.60	6.05	7.29	
2025-01-10 03:28:41.62	5.91	7.33	
2025-01-10 03:28:42.66	5.77	7.38	
2025-01-10 03:28:43.68	5.63	7.42	
2025-01-10 03:28:44.70	5.49	7.47	
2025-01-10 03:28:45.73	5.35	7.51	
2025-01-10 03:28:46.76	5.21	7.56	
2025-01-10 03:28:47.80	5.07	7.60	
2025-01-10 03:28:48.83	4.93	7.64	
2025-01-10 03:28:49.85	4.78	7.69	
2025-01-10 03:28:50.88	4.64	7.73	
2025-01-10 03:28:51.92	4.50	7.78	
2025-01-10 03:28:52.95	4.35	7.82	
2025-01-10 03:28:53.97	4.21	7.86	
2025-01-10 03:28:55.00	4.06	7.91	
2025-01-10 03:28:56.03	3.92	7.95	
2025-01-10 03:28:57.05	3.77	7.99	
2025-01-10 03:28:58.08	3.63	8.04	
2025-01-10 03:28:59.12	3.48	8.08	
2025-01-10 03:29:00.15	3.33	8.12	
2025-01-10 03:29:01.17	3.19	8.17	
2025-01-10 03:29:02.19	3.04	8.21	
2025-01-10 03:29:03.22	2.89	8.25	
2025-01-10 03:29:04.24	2.74	8.29	
2025-01-10 03:29:05.28	2.59	8.34	
2025-01-10 03:29:06.32	2.44	8.38	
2025-01-10 03:29:07.34	2.29	8.42	
2025-01-10 03:29:08.37	2.14	8.46	
2025-01-10 03:29:09.40	1.99	8.50	
2025-01-10 03:29:10.42	1.84	8.55	
2025-01-10 03:29:11.44	1.69	8.59	
2025-01-10 03:29:12.47	1.54	8.63	
2025-01-10 03:29:13.49	1.38	8.67	
2025-01-10 03:29:14.53	1.23	8.71	
2025-01-10 03:29:15.57	1.07	8.75	
2025-01-10 03:29:16.60	0.92	8.79	
2025-01-10 03:29:17.64	0.76	8.84	
2025-01-10 03:29:18.66	0.61	8.88	
2025-01-10 03:29:19.69	0.45	8.92	
2025-01-10 03:29:20.73	0.30	8.96	
2025-01-10 03:29:21.75	0.14	9.00	
2025-01-10 03:29:22.78	359.98	9.04	
2025-01-10 03:29:23.80	359.83	9.08	
2025-01-10 03:29:24.82	359.67	9.12	
2025-01-10 03:29:25.85	359.51	9.16	
2025-01-10 03:29:26.88	359.35	9.20	
2025-01-10 03:29:27.90	359.20	9.24	
2025-01-10 03:29:28.92	359.04	9.28	
2025-01-10 03:29:29.95	358.88	9.32	
2025-01-10 03:29:30.97	358.72	9.35	
2025-01-10 03:29:32.00	358.56	9.39	
2025-01-10 03:29:33.02	358.40	9.43	
2025-01-10 03:29:34.07	358.23	9.47	
2025-01-10 03:29:35.09	358.07	9.51	
2025-01-10 03:29:36.11	357.91	9.55	
2025-01-10 03:29:37.14	357.75	9.59	
2025-01-10 03:29:38.16	357.59	9.62	
2025-01-10 03:29:39.19	357.42	9.66	
2025-01-10 03:29:40.21	357.26	9.70	
2025-01-10 03:29:41.24	357.09	9.74	
2025-01-10 03:29:42.27	356.93	9.77	
2025-01-10 03:29:43.29	356.76	9.81	
2025-01-10 03:29:44.32	356.60	9.85	
2025-01-10 03:29:45.35	356.43	9.88	
2025-01-10 03:29:46.37	356.27	9.92	
2025-01-10 03:29:47.40	356.10	9.96	
2025-01-10 03:29:48.43	355.93	9.99	
2025-01-10 03:29:49.46	355.76	10.03	
2025-01-10 03:29:50.49	355.59	10.06	
2025-01-10 03:29:51.51	355.43	10.10	
2025-01-10 03:29:52.55	355.26	10.14	
2025-01-10 03:29:53.58	355.09	10.17	
2025-01-10 03:29:54.60	354.92	10.21	
2025-01-10 03:29:55.62	354.75	10.24	
2025-01-10 03:29:56.65	354.58	10.28	
2025-01-10 03:29:57.67	354.41	10.31	
2025-01-10 03:29:58.71	354.23	10.34	
2025-01-10 03:29:59.74	354.06	10.38	
2025-01-10 03:30:00.78	353.88	10.41	
2025-01-10 03:30:01.80	353.71	10.45	
2025-01-10 03:30:02.84	353.54	10.48	
2025-01-10 03:30:03.87	353.36	10.51	
2025-01-10 03:30:04.89	353.19	10.55	
2025-01-10 03:30:05.92	353.02	10.58	
2025-01-10 03:30:06.94	352.84	10.61	
2025-01-10 03:30:07.97	352.67	10.64	
2025-01-10 03:30:09.01	352.49	10.68	
2025-01-10 03:30:10.03	352.31	10.71	
2025-01-10 03:30:11.06	352.14	10.74	
2025-01-10 03:30:12.08	351.96	10.77	
2025-01-10 03:30:13.11	351.78	10.80	
2025-01-10 03:30:14.14	351.61	10.83	
2025-01-10 03:30:15.19	351.42	10.87	
2025-01-10 03:30:16.21	351.25	10.90	
2025-01-10 03:30:17.23	351.07	10.93	
2025-01-10 03:30:18.26	350.89	10.96	
2025-01-10 03:30:19.29	350.71	10.99	
2025-01-10 03:30:20.31	350.53	11.02	
2025-01-10 03:30:21.33	350.35	11.04	
2025-01-10 03:30:22.37	350.17	11.07	
2025-01-10 03:30:23.41	349.99	11.10	
2025-01-10 03:30:24.44	349.80	11.13	
2025-01-10 03:30:25.46	349.62	11.16	
2025-01-10 03:30:26.49	349.44	11.19	
2025-01-10 03:30:27.51	349.26	11.22	
2025-01-10 03:30:28.53	349.08	11.24	
2025-01-10 03:30:29.56	348.89	11.27	
2025-01-10 03:30:30.59	348.71	11.30	
2025-01-10 03:30:31.62	348.53	11.33	
2025-01-10 03:30:32.64	348.34	11.35	
2025-01-10 03:30:33.67	348.16	11.38	
2025-01-10 03:30:34.70	347.97	11.41	
2025-01-10 03:30:35.73	347.79	11.43	
2025-01-10 03:30:36.76	347.60	11.46	
2025-01-10 03:30:37.78	347.42	11.48	
2025-01-10 03:30:38.81	347.23	11.51	
2025-01-10 03:30:39.85	347.04	11.53	
2025-01-10 03:30:40.87	346.86	11.56	
2025-01-10 03:30:41.90	346.67	11.58	
2025-01-10 03:30:42.92	346.48	11.60	
2025-01-10 03:30:43.95	346.29	11.63	
2025-01-10 03:30:44.98	346.11	11.65	
2025-01-10 03:30:46.01	345.92	11.68	
2025-01-10 03:30:47.04	345.73	11.70	
2025-01-10 03:30:48.06	345.54	11.72	
2025-01-10 03:30:49.09	345.35	11.74	
2025-01-10 03:30:50.11	345.16	11.76	
2025-01-10 03:30:51.14	344.97	11.79	
2025-01-10 03:30:52.16	344.78	11.81	
2025-01-10 03:30:53.19	344.59	11.83	
2025-01-10 03:30:54.23	344.40	11.85	
2025-01-10 03:30:55.26	344.21	11.87	
2025-01-10 03:30:56.30	344.01	11.89	
2025-01-10 03:30:57.33	343.82	11.91	
2025-01-10 03:30:58.35	343.63	11.93	
2025-01-10 03:30:59.38	343.44	11.95	
2025-01-10 03:31:00.40	343.25	11.97	
2025-01-10 03:31:01.43	343.05	11.99	
2025-01-10 03:31:02.45	342.86	12.01	
2025-01-10 03:31:03.49	342.67	12.02	
2025-01-10 03:31:04.51	342.48	12.04	
2025-01-10 03:31:05.54	342.28	12.06	
2025-01-10 03:31:06.56	342.09	12.08	
2025-01-10 03:31:07.61	341.89	12.09	
2025-01-10 03:31:08.63	341.70	12.11	
2025-01-10 03:31:09.66	341.50	12.13	
2025-01-10 03:31:10.68	341.31	12.14	
2025-01-10 03:31:11.71	341.11	12.16	
2025-01-10 03:31:12.73	340.92	12.17	
2025-01-10 03:31:13.76	340.73	12.19	
2025-01-10 03:31:14.78	340.53	12.20	
2025-01-10 03:31:15.81	340.34	12.22	
2025-01-10 03:31:16.83	340.14	12.23	
2025-01-10 03:31:17.86	339.94	12.25	
2025-01-10 03:31:18.89	339.75	12.26	
2025-01-10 03:31:19.91	339.55	12.27	
2025-01-10 03:31:20.94	339.36	12.29	
2025-01-10 03:31:21.98	339.16	12.30	
2025-01-10 03:31:23.00	338.96	12.31	
2025-01-10 03:31:24.03	338.76	12.32	
2025-01-10 03:31:25.05	338.57	12.33	
2025-01-10 03:31:26.08	338.37	12.35	
2025-01-10 03:31:27.11	338.17	12.36	
2025-01-10 03:31:28.13	337.97	12.37	
2025-01-10 03:31:29.15	337.78	12.38	
2025-01-10 03:31:30.18	337.58	12.39	
2025-01-10 03:31:31.20	337.38	12.40	
2025-01-10 03:31:32.23	337.18	12.41	
2025-01-10 03:31:33.27	336.98	12.41	
2025-01-10 03:31:34.29	336.79	12.42	
2025-01-10 03:31:35.33	336.59	12.43	
2025-01-10 03:31:36.36	336.39	12.44	
2025-01-10 03:31:37.38	336.19	12.45	
2025-01-10 03:31:38.41	335.99	12.45	
2025-01-10 03:31:39.44	335.79	12.46	
2025-01-10 03:31:40.46	335.59	12.47	
2025-01-10 03:31:41.49	335.39	12.47	
2025-01-10 03:31:42.51	335.19	12.48	
2025-01-10 03:31:43.53	335.00	12.49	
2025-01-10 03:31:44.56	334.80	12.49	
2025-01-10 03:31:45.58	334.60	12.50	
2025-01-10 03:31:46.60	334.40	12.50	
2025-01-10 03:31:47.62	334.20	12.50	
2025-01-10 03:31:48.67	334.00	12.51	
2025-01-10 03:31:49.71	333.79	12.51	
2025-01-10 03:31:50.74	333.59	12.51	
2025-01-10 03:31:51.76	333.40	12.52	
2025-01-10 03:31:52.79	333.20	12.52	
2025-01-10 03:31:53.82	333.00	12.52	
2025-01-10 03:31:54.85	332.79	12.52	
2025-01-10 03:31:55.89	332.59	12.53	
2025-01-10 03:31:56.93	332.39	12.53	
2025-01-10 03:31:57.95	332.19	12.53	
2025-01-10 03:31:58.97	331.99	12.53	
2025-01-10 03:32:00.00	331.79	12.53	
2025-01-10 03:32:01.04	331.59	12.53	
2025-01-10 03:32:02.06	331.39	12.53	
2025-01-10 03:32:03.08	331.19	12.53	
2025-01-10 03:32:04.11	330.99	12.52	
2025-01-10 03:32:05.15	330.79	12.52	
2025-01-10 03:32:06.17	330.59	12.52	
2025-01-10 03:32:07.20	330.39	12.52	
2025-01-10 03:32:08.22	330.19	12.52	
2025-01-10 03:32:09.25	329.99	12.51	
2025-01-10 03:32:10.28	329.79	12.51	
2025-01-10 03:32:11.30	329.59	12.51	
2025-01-10 03:32:12.33	329.39	12.50	
2025-01-10 03:32:13.36	329.19	12.50	
2025-01-10 03:32:14.39	328.99	12.49	
2025-01-10 03:32:15.41	328.79	12.49	
2025-01-10 03:32:16.44	328.59	12.48	
2025-01-10 03:32:17.46	328.40	12.48	
2025-01-10 03:32:18.49	328.20	12.47	
2025-01-10 03:32:19.51	328.00	12.46	
2025-01-10 03:32:20.54	327.80	12.46	
2025-01-10 03:32:21.56	327.60	12.45	
2025-01-10 03:32:22.58	327.40	12.44	
2025-01-10 03:32:23.60	327.21	12.43	
2025-01-10 03:32:24.63	327.01	12.43	
2025-01-10 03:32:25.67	326.81	12.42	
2025-01-10 03:32:26.70	326.61	12.41	
2025-01-10 03:32:27.72	326.41	12.40	
2025-01-10 03:32:28.74	326.21	12.39	
2025-01-10 03:32:29.77	326.01	12.38	
2025-01-10 03:32:30.80	325.82	12.37	
2025-01-10 03:32:31.82	325.62	12.36	
2025-01-10 03:32:32.86	325.42	12.35	
2025-01-10 03:32:33.89	325.22	12.34	
2025-01-10 03:32:34.91	325.02	12.33	
2025-01-10 03:32:35.94	324.83	12.32	
2025-01-10 03:32:36.97	324.63	12.30	
2025-01-10 03:32:37.99	324.43	12.29	
2025-01-10 03:32:39.02	324.24	12.28	
2025-01-10 03:32:40.04	324.04	12.27	
2025-01-10 03:32:41.07	323.84	12.25	
2025-01-10 03:32:42.10	323.65	12.24	
2025-01-10 03:32:43.14	323.45	12.22	
2025-01-10 03:32:44.16	323.25	12.21	
2025-01-10 03:32:45.19	323.06	12.20	
2025-01-10 03:32:46.22	322.86	12.18	
2025-01-10 03:32:47.24	322.67	12.17	
2025-01-10 03:32:48.28	322.47	12.15	
2025-01-10 03:32:49.30	322.28	12.13	
2025-01-10 03:32:50.33	322.08	12.12	
2025-01-10 03:32:51.36	321.89	12.10	
2025-01-10 03:32:52.38	321.69	12.08	
2025-01-10 03:32:53.41	321.50	12.07	
2025-01-10 03:32:54.44	321.30	12.05	
2025-01-10 03:32:55.46	321.11	12.03	
2025-01-10 03:32:56.49	320.92	12.01	
2025-01-10 03:32:57.51	320.73	12.00	
2025-01-10 03:32:58.54	320.53	11.98	
2025-01-10 03:32:59.56	320.34	11.96	
2025-01-10 03:33:00.60	320.15	11.94	
2025-01-10 03:33:01.63	319.96	11.92	
2025-01-10 03:33:02.65	319.76	11.90	
2025-01-10 03:33:03.68	319.57	11.88	
2025-01-10 03:33:04.71	319.38	11.86	
2025-01-10 03:33:05.75	319.19	11.84	
2025-01-10 03:33:06.77	319.00	11.82	
2025-01-10 03:33:07.80	318.81	11.79	
2025-01-10 03:33:08.82	318.62	11.77	
2025-01-10 03:33:09.84	318.43	11.75	
2025-01-10 03:33:10.87	318.24	11.73	
2025-01-10 03:33:11.89	318.05	11.71	
2025-01-10 03:33:12.92	317.86	11.68	
2025-01-10 03:33:13.95	317.67	11.66	
2025-01-10 03:33:14.98	317.48	11.64	
2025-01-10 03:33:16.00	317.30	11.61	
2025-01-10 03:33:17.03	317.11	11.59	
2025-01-10 03:33:18.05	316.92	11.57	
2025-01-10 03:33:19.08	316.74	11.54	
2025-01-10 03:33:20.14	316.54	11.52	
2025-01-10 03:33:21.17	316.36	11.49	
2025-01-10 03:33:22.19	316.17	11.47	
2025-01-10 03:33:23.21	315.99	11.44	
2025-01-10 03:33:24.24	315.80	11.41	
2025-01-10 03:33:25.26	315.62	11.39	
2025-01-10 03:33:26.29	315.43	11.36	
2025-01-10 03:33:27.31	315.25	11.34	
2025-01-10 03:33:28.34	315.06	11.31	
2025-01-10 03:33:29.36	314.88	11.28	
2025-01-10 03:33:30.39	314.70	11.25	
2025-01-10 03:33:31.41	314.51	11.23	
2025-01-10 03:33:32.44	314.33	11.20	
2025-01-10 03:33:33.47	314.15	11.17	
2025-01-10 03:33:34.49	313.97	11.14	
2025-01-10 03:33:35.53	313.78	11.11	
2025-01-10 03:33:36.56	313.60	11.08	
2025-01-10 03:33:37.58	313.42	11.06	
2025-01-10 03:33:38.61	313.24	11.03	
2025-01-10 03:33:39.64	313.06	11.00	
2025-01-10 03:33:40.68	312.88	10.97	
2025-01-10 03:33:41.70	312.70	10.94	
2025-01-10 03:33:42.73	312.52	10.91	
2025-01-10 03:33:43.75	312.34	10.88	
2025-01-10 03:33:44.78	312.16	10.85	
2025-01-10 03:33:45.81	311.98	10.81	
2025-01-10 03:33:46.85	311.80	10.78	
2025-01-10 03:33:47.87	311.63	10.75	
2025-01-10 03:33:48.91	311.45	10.72	
2025-01-10 03:33:49.94	311.27	10.69	
2025-01-10 03:33:50.96	311.10	10.66	
2025-01-10 03:33:52.00	310.92	10.62	
2025-01-10 03:33:53.02	310.74	10.59	
2025-01-10 03:33:54.05	310.57	10.56	
2025-01-10 03:33:55.07	310.40	10.52	
2025-01-10 03:33:56.10	310.22	10.49	
2025-01-10 03:33:57.12	310.05	10.46	
2025-01-10 03:33:58.15	309.87	10.42	
2025-01-10 03:33:59.17	309.70	10.39	
2025-01-10 03:34:00.20	309.53	10.36	
2025-01-10 03:34:01.23	309.36	10.32	
2025-01-10 03:34:02.25	309.19	10.29	
2025-01-10 03:34:03.29	309.01	10.25	
2025-01-10 03:34:04.32	308.84	10.22	
2025-01-10 03:34:05.34	308.67	10.18	
2025-01-10 03:34:06.37	308.50	10.15	
2025-01-10 03:34:07.39	308.33	10.11	
2025-01-10 03:34:08.43	308.16	10.08	
2025-01-10 03:34:09.46	307.99	10.04	
2025-01-10 03:34:10.48	307.83	10.01	
2025-01-10 03:34:11.50	307.66	9.97	
2025-01-10 03:34:12.53	307.49	9.93	
2025-01-10 03:34:13.57	307.32	9.90	
2025-01-10 03:34:14.59	307.16	9.86	
2025-01-10 03:34:15.63	306.99	9.82	
2025-01-10 03:34:16.67	306.82	9.79	
2025-01-10 03:34:17.70	306.65	9.75	
2025-01-10 03:34:18.72	306.49	9.71	
2025-01-10 03:34:19.75	306.32	9.67	
2025-01-10 03:34:20.77	306.16	9.64	
2025-01-10 03:34:21.81	306.00	9.60	
2025-01-10 03:34:22.84	305.83	9.56	
2025-01-10 03:34:23.86	305.67	9.52	
2025-01-10 03:34:24.89	305.51	9.48	
2025-01-10 03:34:25.91	305.35	9.44	
2025-01-10 03:34:26.94	305.18	9.41	
2025-01-10 03:34:27.96	305.02	9.37	
2025-01-10 03:34:28.99	304.86	9.33	
2025-01-10 03:34:30.02	304.70	9.29	
2025-01-10 03:34:31.04	304.54	9.25	
2025-01-10 03:34:32.07	304.38	9.21	
2025-01-10 03:34:33.09	304.23	9.17	
2025-01-10 03:34:34.12	304.07	9.13	
2025-01-10 03:34:35.14	303.91	9.09	
2025-01-10 03:34:36.19	303.75	9.05	
2025-01-10 03:34:37.21	303.59	9.01	
2025-01-10 03:34:38.25	303.43	8.97	
2025-01-10 03:34:39.28	303.28	8.93	
2025-01-10 03:34:40.30	303.12	8.89	
2025-01-10 03:34:41.33	302.97	8.85	
2025-01-10 03:34:42.35	302.81	8.81	
2025-01-10 03:34:43.39	302.66	8.77	
2025-01-10 03:34:44.41	302.50	8.72	
2025-01-10 03:34:45.44	302.35	8.68	
2025-01-10 03:34:46.47	302.20	8.64	
2025-01-10 03:34:47.50	302.04	8.60	
2025-01-10 03:34:48.52	301.89	8.56	
2025-01-10 03:34:49.55	301.74	8.52	
2025-01-10 03:34:50.57	301.59	8.48	
2025-01-10 03:34:51.60	301.44	8.43	
2025-01-10 03:34:52.64	301.28	8.39	
2025-01-10 03:34:53.68	301.13	8.35	
2025-01-10 03:34:54.70	300.98	8.31	
2025-01-10 03:34:55.73	300.83	8.26	
2025-01-10 03:34:56.75	300.69	8.22	
2025-01-10 03:34:57.79	300.54	8.18	
2025-01-10 03:34:58.81	300.39	8.13	
2025-01-10 03:34:59.85	300.24	8.09	
2025-01-10 03:35:00.89	300.09	8.05	
2025-01-10 03:35:01.92	299.94	8.00	
2025-01-10 03:35:02.94	299.80	7.96	
2025-01-10 03:35:03.97	299.65	7.92	
2025-01-10 03:35:04.99	299.51	7.87	
2025-01-10 03:35:06.01	299.36	7.83	
2025-01-10 03:35:07.04	299.22	7.79	
2025-01-10 03:35:08.06	299.08	7.74	
2025-01-10 03:35:09.09	298.93	7.70	
2025-01-10 03:35:10.13	298.79	7.66	
2025-01-10 03:35:11.16	298.64	7.61	
2025-01-10 03:35:12.19	298.50	7.57	
2025-01-10 03:35:13.22	298.36	7.52	
2025-01-10 03:35:14.25	298.22	7.48	
2025-01-10 03:35:15.27	298.08	7.43	
2025-01-10 03:35:16.30	297.94	7.39	
2025-01-10 03:35:17.32	297.80	7.35	
2025-01-10 03:35:18.35	297.66	7.30	
2025-01-10 03:35:19.38	297.52	7.26	
2025-01-10 03:35:20.41	297.38	7.21	
2025-01-10 03:35:21.43	297.24	7.17	
2025-01-10 03:35:22.46	297.10	7.12	
2025-01-10 03:35:23.48	296.97	7.08	
2025-01-10 03:35:24.51	296.83	7.03	
2025-01-10 03:35:25.54	296.69	6.99	
2025-01-10 03:35:26.56	296.56	6.94	
2025-01-10 03:35:27.58	296.42	6.90	
2025-01-10 03:35:28.61	296.29	6.85	
2025-01-10 03:35:29.65	296.15	6.81	
2025-01-10 03:35:30.68	296.02	6.76	
2025-01-10 03:35:31.71	295.88	6.71	
2025-01-10 03:35:32.73	295.75	6.67	
2025-01-10 03:35:33.76	295.62	6.62	
2025-01-10 03:35:34.79	295.48	6.58	
2025-01-10 03:35:35.81	295.35	6.53	
2025-01-10 03:35:36.84	295.22	6.49	
2025-01-10 03:35:37.86	295.09	6.44	
2025-01-10 03:35:38.89	294.96	6.39	
2025-01-10 03:35:39.91	294.83	6.35	
2025-01-10 03:35:40.94	294.70	6.30	
2025-01-10 03:35:41.98	294.57	6.25	
2025-01-10 03:35:43.00	294.44	6.21	
2025-01-10 03:35:44.04	294.31	6.16	
2025-01-10 03:35:45.06	294.18	6.12	
2025-01-10 03:35:46.08	294.05	6.07	
2025-01-10 03:35:47.13	293.92	6.02	
2025-01-10 03:35:48.15	293.80	5.98	
2025-01-10 03:35:49.18	293.67	5.93	
2025-01-10 03:35:50.20	293.54	5.88	
2025-01-10 03:35:51.24	293.42	5.84	
2025-01-10 03:35:52.27	293.29	5.79	
2025-01-10 03:35:53.29	293.17	5.74	
2025-01-10 03:35:54.33	293.04	5.70	
2025-01-10 03:35:55.36	292.91	5.65	
2025-01-10 03:35:56.39	292.79	5.60	
2025-01-10 03:35:57.42	292.67	5.55	
2025-01-10 03:35:58.44	292.54	5.51	
2025-01-10 03:35:59.47	292.42	5.46	
2025-01-10 03:36:00.50	292.30	5.41	
2025-01-10 03:36:01.52	292.18	5.37	
2025-01-10 03:36:02.55	292.05	5.32	
2025-01-10 03:36:03.57	291.93	5.27	
2025-01-10 03:36:04.60	291.81	5.23	
2025-01-10 03:36:05.62	291.69	5.18	
2025-01-10 03:36:06.64	291.58	5.13	
2025-01-10 03:36:07.66	291.46	5.08	
2025-01-10 03:36:08.69	291.34	5.04	
2025-01-10 03:36:09.72	291.22	4.99	
2025-01-10 03:36:10.74	291.10	4.94	
2025-01-10 03:36:11.76	290.98	4.90	
2025-01-10 03:36:12.79	290.87	4.85	
2025-01-10 03:36:13.83	290.75	4.80	
2025-01-10 03:36:14.86	290.63	4.75	
2025-01-10 03:36:15.88	290.51	4.71	
2025-01-10 03:36:16.92	290.40	4.66	
2025-01-10 03:36:17.95	290.28	4.61	
2025-01-10 03:36:18.97	290.17	4.56	
2025-01-10 03:36:19.99	290.05	4.52	
2025-01-10 03:36:21.02	289.94	4.47	
2025-01-10 03:36:22.04	289.82	4.42	
2025-01-10 03:36:23.07	289.71	4.37	
2025-01-10 03:36:24.09	289.60	4.32	
2025-01-10 03:36:25.13	289.48	4.28	
2025-01-10 03:36:26.16	289.37	4.23	
2025-01-10 03:36:27.19	289.26	4.18	
2025-01-10 03:36:28.21	289.15	4.13	
2025-01-10 03:36:29.25	289.03	4.09	
2025-01-10 03:36:30.27	288.92	4.04	

#Closed at: 2025-01-10 03:36:31