passes_logs/2025/01/10/SPB_Silybum_02/SPB_Silybum_02__20250110_232029_AQUA_rec.log

#Pass ID: 20250110_232029_AQUA
#Satellite: AQUA
#Configuration: AQUA
#Start time: 2025-01-10 23:20:29

#Version: 2.0.20230423
#Station: SPB_Silybum_02
#Location: 30.233357 lon 59.946436 lat
#TLE: 1 27424U 02022A   25010.14776733  .00002050  00000+0  43097-3 0  9993
#TLE: 2 27424  98.3581 326.7682 0001515 116.0773 333.4276 14.60663937206917

#Time	Az	El	Level	Level2	SNR	BER	Gain	Gain2
2025-01-10 23:20:31.62	33.12	4.10	
2025-01-10 23:20:32.65	33.24	4.16	
2025-01-10 23:20:33.67	33.36	4.21	
2025-01-10 23:20:34.70	33.48	4.26	
2025-01-10 23:20:35.72	33.60	4.31	
2025-01-10 23:20:36.75	33.72	4.36	
2025-01-10 23:20:37.77	33.84	4.42	
2025-01-10 23:20:38.80	33.96	4.47	
2025-01-10 23:20:39.84	34.08	4.52	
2025-01-10 23:20:40.86	34.20	4.58	
2025-01-10 23:20:41.89	34.33	4.63	
2025-01-10 23:20:42.91	34.45	4.68	
2025-01-10 23:20:43.94	34.57	4.73	
2025-01-10 23:20:44.96	34.69	4.79	
2025-01-10 23:20:45.99	34.82	4.84	
2025-01-10 23:20:47.01	34.94	4.89	
2025-01-10 23:20:48.04	35.07	4.94	
2025-01-10 23:20:49.07	35.19	5.00	
2025-01-10 23:20:50.09	35.32	5.05	
2025-01-10 23:20:51.12	35.45	5.10	
2025-01-10 23:20:52.14	35.57	5.15	
2025-01-10 23:20:53.17	35.70	5.21	
2025-01-10 23:20:54.19	35.83	5.26	
2025-01-10 23:20:55.22	35.96	5.31	
2025-01-10 23:20:56.24	36.09	5.36	
2025-01-10 23:20:57.26	36.22	5.42	
2025-01-10 23:20:58.29	36.35	5.47	
2025-01-10 23:20:59.32	36.48	5.52	
2025-01-10 23:21:00.35	36.61	5.58	
2025-01-10 23:21:01.38	36.74	5.63	
2025-01-10 23:21:02.41	36.87	5.68	
2025-01-10 23:21:03.44	37.01	5.73	
2025-01-10 23:21:04.46	37.14	5.79	
2025-01-10 23:21:05.49	37.27	5.84	
2025-01-10 23:21:06.51	37.41	5.89	
2025-01-10 23:21:07.55	37.54	5.95	
2025-01-10 23:21:08.58	37.68	6.00	
2025-01-10 23:21:09.60	37.81	6.05	
2025-01-10 23:21:10.62	37.95	6.10	
2025-01-10 23:21:11.66	38.09	6.16	
2025-01-10 23:21:12.69	38.22	6.21	
2025-01-10 23:21:13.71	38.36	6.26	
2025-01-10 23:21:14.74	38.50	6.32	
2025-01-10 23:21:15.76	38.64	6.37	
2025-01-10 23:21:16.79	38.78	6.42	
2025-01-10 23:21:17.83	38.92	6.47	
2025-01-10 23:21:18.86	39.06	6.53	
2025-01-10 23:21:19.88	39.20	6.58	
2025-01-10 23:21:20.91	39.34	6.63	
2025-01-10 23:21:21.93	39.48	6.68	
2025-01-10 23:21:22.96	39.63	6.74	
2025-01-10 23:21:23.98	39.77	6.79	
2025-01-10 23:21:25.01	39.91	6.84	
2025-01-10 23:21:26.04	40.06	6.89	
2025-01-10 23:21:27.06	40.20	6.95	
2025-01-10 23:21:28.09	40.35	7.00	
2025-01-10 23:21:29.11	40.49	7.05	
2025-01-10 23:21:30.14	40.64	7.10	
2025-01-10 23:21:31.18	40.79	7.16	
2025-01-10 23:21:32.21	40.94	7.21	
2025-01-10 23:21:33.23	41.08	7.26	
2025-01-10 23:21:34.25	41.23	7.31	
2025-01-10 23:21:35.29	41.38	7.37	
2025-01-10 23:21:36.31	41.53	7.42	
2025-01-10 23:21:37.34	41.68	7.47	
2025-01-10 23:21:38.36	41.83	7.52	
2025-01-10 23:21:39.39	41.98	7.58	
2025-01-10 23:21:40.42	42.14	7.63	
2025-01-10 23:21:41.46	42.29	7.68	
2025-01-10 23:21:42.49	42.44	7.73	
2025-01-10 23:21:43.51	42.60	7.78	
2025-01-10 23:21:44.54	42.75	7.84	
2025-01-10 23:21:45.56	42.91	7.89	
2025-01-10 23:21:46.59	43.06	7.94	
2025-01-10 23:21:47.63	43.22	7.99	
2025-01-10 23:21:48.66	43.38	8.04	
2025-01-10 23:21:49.68	43.53	8.10	
2025-01-10 23:21:50.70	43.69	8.15	
2025-01-10 23:21:51.72	43.85	8.20	
2025-01-10 23:21:52.75	44.01	8.25	
2025-01-10 23:21:53.77	44.17	8.30	
2025-01-10 23:21:54.80	44.33	8.35	
2025-01-10 23:21:55.82	44.49	8.40	
2025-01-10 23:21:56.85	44.65	8.45	
2025-01-10 23:21:57.87	44.81	8.51	
2025-01-10 23:21:58.90	44.97	8.56	
2025-01-10 23:21:59.93	45.14	8.61	
2025-01-10 23:22:00.95	45.30	8.66	
2025-01-10 23:22:01.98	45.46	8.71	
2025-01-10 23:22:03.00	45.63	8.76	
2025-01-10 23:22:04.03	45.79	8.81	
2025-01-10 23:22:05.05	45.96	8.86	
2025-01-10 23:22:06.07	46.12	8.91	
2025-01-10 23:22:07.10	46.29	8.96	
2025-01-10 23:22:08.13	46.46	9.01	
2025-01-10 23:22:09.15	46.63	9.06	
2025-01-10 23:22:10.20	46.80	9.11	
2025-01-10 23:22:11.22	46.97	9.16	
2025-01-10 23:22:12.25	47.14	9.21	
2025-01-10 23:22:13.27	47.31	9.26	
2025-01-10 23:22:14.30	47.48	9.31	
2025-01-10 23:22:15.34	47.66	9.36	
2025-01-10 23:22:16.37	47.83	9.41	
2025-01-10 23:22:17.39	48.00	9.46	
2025-01-10 23:22:18.44	48.18	9.51	
2025-01-10 23:22:19.46	48.36	9.56	
2025-01-10 23:22:20.49	48.53	9.61	
2025-01-10 23:22:21.51	48.71	9.66	
2025-01-10 23:22:22.53	48.88	9.71	
2025-01-10 23:22:23.56	49.06	9.76	
2025-01-10 23:22:24.59	49.24	9.81	
2025-01-10 23:22:25.61	49.42	9.86	
2025-01-10 23:22:26.63	49.60	9.90	
2025-01-10 23:22:27.66	49.78	9.95	
2025-01-10 23:22:28.69	49.96	10.00	
2025-01-10 23:22:29.71	50.14	10.05	
2025-01-10 23:22:30.74	50.32	10.10	
2025-01-10 23:22:31.77	50.50	10.14	
2025-01-10 23:22:32.81	50.69	10.19	
2025-01-10 23:22:33.84	50.87	10.24	
2025-01-10 23:22:34.86	51.05	10.29	
2025-01-10 23:22:35.89	51.24	10.33	
2025-01-10 23:22:36.91	51.42	10.38	
2025-01-10 23:22:37.94	51.61	10.43	
2025-01-10 23:22:38.97	51.80	10.48	
2025-01-10 23:22:40.00	51.99	10.52	
2025-01-10 23:22:41.03	52.17	10.57	
2025-01-10 23:22:42.06	52.36	10.62	
2025-01-10 23:22:43.09	52.55	10.66	
2025-01-10 23:22:44.11	52.74	10.71	
2025-01-10 23:22:45.14	52.93	10.75	
2025-01-10 23:22:46.17	53.13	10.80	
2025-01-10 23:22:47.19	53.32	10.84	
2025-01-10 23:22:48.22	53.51	10.89	
2025-01-10 23:22:49.25	53.70	10.93	
2025-01-10 23:22:50.28	53.90	10.98	
2025-01-10 23:22:51.31	54.09	11.02	
2025-01-10 23:22:52.34	54.29	11.07	
2025-01-10 23:22:53.36	54.48	11.11	
2025-01-10 23:22:54.39	54.68	11.16	
2025-01-10 23:22:55.42	54.88	11.20	
2025-01-10 23:22:56.44	55.07	11.25	
2025-01-10 23:22:57.47	55.27	11.29	
2025-01-10 23:22:58.50	55.47	11.33	
2025-01-10 23:22:59.52	55.67	11.38	
2025-01-10 23:23:00.55	55.87	11.42	
2025-01-10 23:23:01.57	56.07	11.46	
2025-01-10 23:23:02.60	56.27	11.50	
2025-01-10 23:23:03.62	56.47	11.55	
2025-01-10 23:23:04.64	56.67	11.59	
2025-01-10 23:23:05.67	56.88	11.63	
2025-01-10 23:23:06.71	57.08	11.67	
2025-01-10 23:23:07.73	57.28	11.71	
2025-01-10 23:23:08.77	57.49	11.75	
2025-01-10 23:23:09.79	57.70	11.80	
2025-01-10 23:23:10.82	57.90	11.84	
2025-01-10 23:23:11.84	58.11	11.88	
2025-01-10 23:23:12.88	58.32	11.92	
2025-01-10 23:23:13.91	58.53	11.96	
2025-01-10 23:23:14.94	58.74	12.00	
2025-01-10 23:23:15.96	58.94	12.04	
2025-01-10 23:23:16.99	59.15	12.08	
2025-01-10 23:23:18.01	59.36	12.11	
2025-01-10 23:23:19.04	59.57	12.15	
2025-01-10 23:23:20.06	59.78	12.19	
2025-01-10 23:23:21.09	60.00	12.23	
2025-01-10 23:23:22.12	60.21	12.27	
2025-01-10 23:23:23.15	60.42	12.31	
2025-01-10 23:23:24.18	60.64	12.34	
2025-01-10 23:23:25.21	60.85	12.38	
2025-01-10 23:23:26.23	61.07	12.42	
2025-01-10 23:23:27.26	61.28	12.45	
2025-01-10 23:23:28.29	61.50	12.49	
2025-01-10 23:23:29.31	61.71	12.53	
2025-01-10 23:23:30.35	61.93	12.56	
2025-01-10 23:23:31.37	62.15	12.60	
2025-01-10 23:23:32.40	62.37	12.63	
2025-01-10 23:23:33.43	62.59	12.67	
2025-01-10 23:23:34.45	62.81	12.70	
2025-01-10 23:23:35.47	63.02	12.73	
2025-01-10 23:23:36.50	63.24	12.77	
2025-01-10 23:23:37.53	63.47	12.80	
2025-01-10 23:23:38.55	63.69	12.84	
2025-01-10 23:23:39.58	63.91	12.87	
2025-01-10 23:23:40.61	64.13	12.90	
2025-01-10 23:23:41.65	64.36	12.93	
2025-01-10 23:23:42.67	64.58	12.96	
2025-01-10 23:23:43.70	64.80	13.00	
2025-01-10 23:23:44.72	65.03	13.03	
2025-01-10 23:23:45.75	65.25	13.06	
2025-01-10 23:23:46.77	65.48	13.09	
2025-01-10 23:23:47.79	65.70	13.12	
2025-01-10 23:23:48.83	65.93	13.15	
2025-01-10 23:23:49.85	66.16	13.18	
2025-01-10 23:23:50.87	66.38	13.21	
2025-01-10 23:23:51.90	66.61	13.24	
2025-01-10 23:23:52.93	66.84	13.26	
2025-01-10 23:23:53.95	67.07	13.29	
2025-01-10 23:23:54.98	67.30	13.32	
2025-01-10 23:23:56.02	67.53	13.35	
2025-01-10 23:23:57.06	67.76	13.37	
2025-01-10 23:23:58.08	67.99	13.40	
2025-01-10 23:23:59.11	68.22	13.43	
2025-01-10 23:24:00.13	68.45	13.45	
2025-01-10 23:24:01.16	68.69	13.48	
2025-01-10 23:24:02.18	68.92	13.50	
2025-01-10 23:24:03.21	69.15	13.53	
2025-01-10 23:24:04.23	69.38	13.55	
2025-01-10 23:24:05.26	69.62	13.58	
2025-01-10 23:24:06.28	69.85	13.60	
2025-01-10 23:24:07.31	70.08	13.62	
2025-01-10 23:24:08.34	70.32	13.65	
2025-01-10 23:24:09.36	70.55	13.67	
2025-01-10 23:24:10.40	70.79	13.69	
2025-01-10 23:24:11.43	71.03	13.71	
2025-01-10 23:24:12.47	71.27	13.73	
2025-01-10 23:24:13.49	71.50	13.75	
2025-01-10 23:24:14.53	71.74	13.77	
2025-01-10 23:24:15.56	71.98	13.79	
2025-01-10 23:24:16.58	72.22	13.81	
2025-01-10 23:24:17.61	72.46	13.83	
2025-01-10 23:24:18.63	72.69	13.85	
2025-01-10 23:24:19.66	72.93	13.87	
2025-01-10 23:24:20.68	73.17	13.89	
2025-01-10 23:24:21.71	73.41	13.90	
2025-01-10 23:24:22.73	73.65	13.92	
2025-01-10 23:24:23.77	73.89	13.94	
2025-01-10 23:24:24.80	74.13	13.95	
2025-01-10 23:24:25.82	74.37	13.97	
2025-01-10 23:24:26.85	74.61	13.98	
2025-01-10 23:24:27.87	74.85	14.00	
2025-01-10 23:24:28.90	75.09	14.01	
2025-01-10 23:24:29.92	75.33	14.03	
2025-01-10 23:24:30.95	75.57	14.04	
2025-01-10 23:24:31.98	75.82	14.05	
2025-01-10 23:24:33.00	76.06	14.07	
2025-01-10 23:24:34.03	76.30	14.08	
2025-01-10 23:24:35.07	76.54	14.09	
2025-01-10 23:24:36.12	76.79	14.10	
2025-01-10 23:24:37.16	77.04	14.11	
2025-01-10 23:24:38.19	77.28	14.12	
2025-01-10 23:24:39.22	77.53	14.13	
2025-01-10 23:24:40.24	77.77	14.14	
2025-01-10 23:24:41.29	78.02	14.15	
2025-01-10 23:24:42.31	78.26	14.16	
2025-01-10 23:24:43.34	78.50	14.17	
2025-01-10 23:24:44.36	78.75	14.18	
2025-01-10 23:24:45.39	78.99	14.18	
2025-01-10 23:24:46.41	79.23	14.19	
2025-01-10 23:24:47.44	79.48	14.20	
2025-01-10 23:24:48.48	79.73	14.20	
2025-01-10 23:24:49.51	79.97	14.21	
2025-01-10 23:24:50.53	80.22	14.21	
2025-01-10 23:24:51.56	80.46	14.22	
2025-01-10 23:24:52.58	80.70	14.22	
2025-01-10 23:24:53.61	80.95	14.22	
2025-01-10 23:24:54.63	81.19	14.23	
2025-01-10 23:24:55.66	81.44	14.23	
2025-01-10 23:24:56.69	81.69	14.23	
2025-01-10 23:24:57.72	81.93	14.23	
2025-01-10 23:24:58.75	82.18	14.23	
2025-01-10 23:24:59.77	82.42	14.23	
2025-01-10 23:25:00.79	82.66	14.23	
2025-01-10 23:25:01.82	82.91	14.23	
2025-01-10 23:25:02.84	83.15	14.23	
2025-01-10 23:25:03.87	83.40	14.23	
2025-01-10 23:25:04.90	83.65	14.23	
2025-01-10 23:25:05.92	83.89	14.23	
2025-01-10 23:25:06.94	84.13	14.23	
2025-01-10 23:25:07.97	84.38	14.22	
2025-01-10 23:25:09.01	84.63	14.22	
2025-01-10 23:25:10.03	84.87	14.22	
2025-01-10 23:25:11.05	85.11	14.21	
2025-01-10 23:25:12.08	85.36	14.21	
2025-01-10 23:25:13.11	85.60	14.20	
2025-01-10 23:25:14.15	85.85	14.20	
2025-01-10 23:25:15.17	86.10	14.19	
2025-01-10 23:25:16.20	86.34	14.18	
2025-01-10 23:25:17.22	86.58	14.18	
2025-01-10 23:25:18.25	86.83	14.17	
2025-01-10 23:25:19.27	87.07	14.16	
2025-01-10 23:25:20.32	87.32	14.15	
2025-01-10 23:25:21.34	87.56	14.14	
2025-01-10 23:25:22.38	87.81	14.13	
2025-01-10 23:25:23.41	88.05	14.12	
2025-01-10 23:25:24.44	88.30	14.11	
2025-01-10 23:25:25.48	88.54	14.10	
2025-01-10 23:25:26.50	88.79	14.09	
2025-01-10 23:25:27.53	89.03	14.08	
2025-01-10 23:25:28.56	89.27	14.07	
2025-01-10 23:25:29.58	89.51	14.05	
2025-01-10 23:25:30.61	89.76	14.04	
2025-01-10 23:25:31.63	90.00	14.03	
2025-01-10 23:25:32.66	90.24	14.01	
2025-01-10 23:25:33.68	90.48	14.00	
2025-01-10 23:25:34.71	90.72	13.98	
2025-01-10 23:25:35.73	90.96	13.97	
2025-01-10 23:25:36.76	91.20	13.95	
2025-01-10 23:25:37.78	91.44	13.94	
2025-01-10 23:25:38.81	91.68	13.92	
2025-01-10 23:25:39.83	91.92	13.90	
2025-01-10 23:25:40.85	92.16	13.89	
2025-01-10 23:25:41.88	92.40	13.87	
2025-01-10 23:25:42.90	92.64	13.85	
2025-01-10 23:25:43.93	92.88	13.83	
2025-01-10 23:25:44.95	93.11	13.81	
2025-01-10 23:25:45.97	93.35	13.79	
2025-01-10 23:25:47.00	93.59	13.77	
2025-01-10 23:25:48.02	93.82	13.75	
2025-01-10 23:25:49.05	94.06	13.73	
2025-01-10 23:25:50.07	94.30	13.71	
2025-01-10 23:25:51.10	94.53	13.69	
2025-01-10 23:25:52.13	94.77	13.67	
2025-01-10 23:25:53.15	95.00	13.64	
2025-01-10 23:25:54.18	95.24	13.62	
2025-01-10 23:25:55.20	95.47	13.60	
2025-01-10 23:25:56.23	95.71	13.57	
2025-01-10 23:25:57.26	95.94	13.55	
2025-01-10 23:25:58.28	96.18	13.53	
2025-01-10 23:25:59.30	96.41	13.50	
2025-01-10 23:26:00.33	96.64	13.48	
2025-01-10 23:26:01.35	96.87	13.45	
2025-01-10 23:26:02.39	97.11	13.42	
2025-01-10 23:26:03.41	97.34	13.40	
2025-01-10 23:26:04.44	97.57	13.37	
2025-01-10 23:26:05.47	97.80	13.34	
2025-01-10 23:26:06.50	98.03	13.32	
2025-01-10 23:26:07.52	98.26	13.29	
2025-01-10 23:26:08.56	98.49	13.26	
2025-01-10 23:26:09.60	98.73	13.23	
2025-01-10 23:26:10.62	98.95	13.20	
2025-01-10 23:26:11.65	99.18	13.17	
2025-01-10 23:26:12.67	99.41	13.14	
2025-01-10 23:26:13.69	99.63	13.11	
2025-01-10 23:26:14.73	99.86	13.08	
2025-01-10 23:26:15.76	100.09	13.05	
2025-01-10 23:26:16.78	100.32	13.02	
2025-01-10 23:26:17.81	100.54	12.99	
2025-01-10 23:26:18.83	100.76	12.96	
2025-01-10 23:26:19.86	100.99	12.93	
2025-01-10 23:26:20.89	101.21	12.89	
2025-01-10 23:26:21.91	101.44	12.86	
2025-01-10 23:26:22.93	101.66	12.83	
2025-01-10 23:26:23.96	101.88	12.79	
2025-01-10 23:26:24.99	102.10	12.76	
2025-01-10 23:26:26.01	102.32	12.73	
2025-01-10 23:26:27.04	102.54	12.69	
2025-01-10 23:26:28.07	102.76	12.66	
2025-01-10 23:26:29.09	102.98	12.62	
2025-01-10 23:26:30.12	103.20	12.59	
2025-01-10 23:26:31.14	103.42	12.55	
2025-01-10 23:26:32.17	103.64	12.52	
2025-01-10 23:26:33.19	103.85	12.48	
2025-01-10 23:26:34.22	104.07	12.44	
2025-01-10 23:26:35.24	104.29	12.41	
2025-01-10 23:26:36.27	104.50	12.37	
2025-01-10 23:26:37.29	104.72	12.33	
2025-01-10 23:26:38.32	104.93	12.30	
2025-01-10 23:26:39.35	105.15	12.26	
2025-01-10 23:26:40.37	105.36	12.22	
2025-01-10 23:26:41.43	105.58	12.18	
2025-01-10 23:26:42.45	105.79	12.14	
2025-01-10 23:26:43.48	106.00	12.10	
2025-01-10 23:26:44.50	106.21	12.06	
2025-01-10 23:26:45.53	106.42	12.02	
2025-01-10 23:26:46.55	106.63	11.98	
2025-01-10 23:26:47.58	106.84	11.94	
2025-01-10 23:26:48.60	107.05	11.90	
2025-01-10 23:26:49.64	107.26	11.86	
2025-01-10 23:26:50.67	107.47	11.82	
2025-01-10 23:26:51.71	107.68	11.78	
2025-01-10 23:26:52.75	107.89	11.74	
2025-01-10 23:26:53.77	108.09	11.70	
2025-01-10 23:26:54.80	108.30	11.66	
2025-01-10 23:26:55.82	108.50	11.61	
2025-01-10 23:26:56.85	108.70	11.57	
2025-01-10 23:26:57.87	108.91	11.53	
2025-01-10 23:26:58.90	109.11	11.49	
2025-01-10 23:26:59.92	109.31	11.44	
2025-01-10 23:27:00.95	109.51	11.40	
2025-01-10 23:27:01.97	109.71	11.36	
2025-01-10 23:27:03.00	109.91	11.31	
2025-01-10 23:27:04.04	110.12	11.27	
2025-01-10 23:27:05.08	110.32	11.22	
2025-01-10 23:27:06.12	110.52	11.18	
2025-01-10 23:27:07.14	110.71	11.14	
2025-01-10 23:27:08.16	110.91	11.09	
2025-01-10 23:27:09.18	111.11	11.05	
2025-01-10 23:27:10.22	111.30	11.00	
2025-01-10 23:27:11.24	111.50	10.96	
2025-01-10 23:27:12.27	111.69	10.91	
2025-01-10 23:27:13.29	111.89	10.87	
2025-01-10 23:27:14.32	112.08	10.82	
2025-01-10 23:27:15.34	112.27	10.77	
2025-01-10 23:27:16.37	112.46	10.73	
2025-01-10 23:27:17.40	112.66	10.68	
2025-01-10 23:27:18.42	112.85	10.64	
2025-01-10 23:27:19.45	113.04	10.59	
2025-01-10 23:27:20.48	113.23	10.54	
2025-01-10 23:27:21.50	113.41	10.50	
2025-01-10 23:27:22.53	113.60	10.45	
2025-01-10 23:27:23.56	113.79	10.40	
2025-01-10 23:27:24.58	113.98	10.35	
2025-01-10 23:27:25.60	114.16	10.31	
2025-01-10 23:27:26.63	114.35	10.26	
2025-01-10 23:27:27.65	114.53	10.21	
2025-01-10 23:27:28.68	114.72	10.16	
2025-01-10 23:27:29.70	114.90	10.11	
2025-01-10 23:27:30.73	115.08	10.07	
2025-01-10 23:27:31.75	115.27	10.02	
2025-01-10 23:27:32.77	115.45	9.97	
2025-01-10 23:27:33.80	115.63	9.92	
2025-01-10 23:27:34.83	115.81	9.87	
2025-01-10 23:27:35.85	115.99	9.82	
2025-01-10 23:27:36.87	116.17	9.77	
2025-01-10 23:27:37.90	116.35	9.73	
2025-01-10 23:27:38.93	116.53	9.68	
2025-01-10 23:27:39.95	116.70	9.63	
2025-01-10 23:27:40.99	116.88	9.58	
2025-01-10 23:27:42.02	117.06	9.53	
2025-01-10 23:27:43.04	117.23	9.48	
2025-01-10 23:27:44.07	117.41	9.43	
2025-01-10 23:27:45.09	117.58	9.38	
2025-01-10 23:27:46.13	117.76	9.33	
2025-01-10 23:27:47.17	117.93	9.28	
2025-01-10 23:27:48.20	118.11	9.23	
2025-01-10 23:27:49.24	118.28	9.17	
2025-01-10 23:27:50.26	118.45	9.12	
2025-01-10 23:27:51.29	118.62	9.07	
2025-01-10 23:27:52.33	118.79	9.02	
2025-01-10 23:27:53.35	118.96	8.97	
2025-01-10 23:27:54.38	119.13	8.92	
2025-01-10 23:27:55.40	119.30	8.87	
2025-01-10 23:27:56.43	119.47	8.82	
2025-01-10 23:27:57.46	119.63	8.77	
2025-01-10 23:27:58.49	119.80	8.72	
2025-01-10 23:27:59.52	119.97	8.66	
2025-01-10 23:28:00.56	120.14	8.61	
2025-01-10 23:28:01.59	120.30	8.56	
2025-01-10 23:28:02.61	120.46	8.51	
2025-01-10 23:28:03.65	120.63	8.46	
2025-01-10 23:28:04.68	120.79	8.41	
2025-01-10 23:28:05.71	120.95	8.35	
2025-01-10 23:28:06.73	121.12	8.30	
2025-01-10 23:28:07.76	121.28	8.25	
2025-01-10 23:28:08.79	121.44	8.20	
2025-01-10 23:28:09.81	121.60	8.15	
2025-01-10 23:28:10.84	121.76	8.09	
2025-01-10 23:28:11.86	121.91	8.04	
2025-01-10 23:28:12.88	122.07	7.99	
2025-01-10 23:28:13.91	122.23	7.94	
2025-01-10 23:28:14.93	122.38	7.89	
2025-01-10 23:28:15.96	122.54	7.83	
2025-01-10 23:28:16.98	122.69	7.78	
2025-01-10 23:28:18.01	122.85	7.73	
2025-01-10 23:28:19.03	123.00	7.68	
2025-01-10 23:28:20.06	123.16	7.62	
2025-01-10 23:28:21.08	123.31	7.57	
2025-01-10 23:28:22.11	123.46	7.52	
2025-01-10 23:28:23.13	123.61	7.47	
2025-01-10 23:28:24.16	123.77	7.41	
2025-01-10 23:28:25.18	123.92	7.36	
2025-01-10 23:28:26.20	124.07	7.31	
2025-01-10 23:28:27.23	124.22	7.26	
2025-01-10 23:28:28.26	124.37	7.20	
2025-01-10 23:28:29.28	124.51	7.15	
2025-01-10 23:28:30.31	124.66	7.10	
2025-01-10 23:28:31.33	124.81	7.04	
2025-01-10 23:28:32.36	124.96	6.99	
2025-01-10 23:28:33.38	125.10	6.94	
2025-01-10 23:28:34.41	125.25	6.88	
2025-01-10 23:28:35.43	125.39	6.83	
2025-01-10 23:28:36.46	125.54	6.78	
2025-01-10 23:28:37.49	125.68	6.73	
2025-01-10 23:28:38.52	125.83	6.67	
2025-01-10 23:28:39.54	125.97	6.62	
2025-01-10 23:28:40.56	126.11	6.57	
2025-01-10 23:28:41.60	126.25	6.51	
2025-01-10 23:28:42.63	126.40	6.46	
2025-01-10 23:28:43.67	126.54	6.40	
2025-01-10 23:28:44.70	126.68	6.35	
2025-01-10 23:28:45.72	126.82	6.30	
2025-01-10 23:28:46.74	126.96	6.25	
2025-01-10 23:28:47.77	127.10	6.19	
2025-01-10 23:28:48.81	127.24	6.14	
2025-01-10 23:28:49.83	127.37	6.09	
2025-01-10 23:28:50.86	127.51	6.03	
2025-01-10 23:28:51.88	127.65	5.98	
2025-01-10 23:28:52.91	127.78	5.93	
2025-01-10 23:28:53.94	127.92	5.87	
2025-01-10 23:28:54.98	128.05	5.82	
2025-01-10 23:28:56.00	128.19	5.76	
2025-01-10 23:28:57.03	128.32	5.71	
2025-01-10 23:28:58.05	128.46	5.66	
2025-01-10 23:28:59.09	128.59	5.60	
2025-01-10 23:29:00.11	128.72	5.55	
2025-01-10 23:29:01.13	128.85	5.50	
2025-01-10 23:29:02.17	128.99	5.44	
2025-01-10 23:29:03.19	129.12	5.39	
2025-01-10 23:29:04.22	129.25	5.34	
2025-01-10 23:29:05.24	129.38	5.28	
2025-01-10 23:29:06.27	129.51	5.23	
2025-01-10 23:29:07.31	129.64	5.18	
2025-01-10 23:29:08.35	129.77	5.12	
2025-01-10 23:29:09.38	129.90	5.07	
2025-01-10 23:29:10.41	130.02	5.02	
2025-01-10 23:29:11.43	130.15	4.96	
2025-01-10 23:29:12.47	130.28	4.91	
2025-01-10 23:29:13.49	130.40	4.86	
2025-01-10 23:29:14.52	130.53	4.80	
2025-01-10 23:29:15.55	130.65	4.75	
2025-01-10 23:29:16.57	130.78	4.70	
2025-01-10 23:29:17.60	130.90	4.64	
2025-01-10 23:29:18.62	131.03	4.59	
2025-01-10 23:29:19.65	131.15	4.54	
2025-01-10 23:29:20.68	131.27	4.48	
2025-01-10 23:29:21.71	131.39	4.43	
2025-01-10 23:29:22.73	131.52	4.38	
2025-01-10 23:29:23.76	131.64	4.32	
2025-01-10 23:29:24.78	131.76	4.27	
2025-01-10 23:29:25.81	131.88	4.22	
2025-01-10 23:29:26.83	132.00	4.16	
2025-01-10 23:29:27.87	132.12	4.11	
2025-01-10 23:29:28.90	132.24	4.06	
2025-01-10 23:29:29.92	132.35	4.00	

#Closed at: 2025-01-10 23:29:30