passes_logs/2025/01/10/SPB_Silybum_02/SPB_Silybum_02__20250110_113207_AQUA_rec.log

#Pass ID: 20250110_113207_AQUA
#Satellite: AQUA
#Configuration: AQUA
#Start time: 2025-01-10 11:32:08

#Version: 2.0.20230423
#Station: SPB_Silybum_02
#Location: 30.233357 lon 59.946436 lat
#TLE: 1 27424U 02022A   25009.33792655  .00001838  00000+0  38750-3 0  9996
#TLE: 2 27424  98.3576 325.9512 0001516 117.1765  36.3916 14.60660973206791

#Time	Az	El	Level	Level2	SNR	BER	Gain	Gain2
2025-01-10 11:32:10.87	165.36	4.22	
2025-01-10 11:32:12.10	165.37	4.31	
2025-01-10 11:32:13.32	165.39	4.40	
2025-01-10 11:32:14.57	165.40	4.49	
2025-01-10 11:32:15.80	165.42	4.58	
2025-01-10 11:32:17.03	165.44	4.67	
2025-01-10 11:32:18.27	165.45	4.76	
2025-01-10 11:32:19.50	165.47	4.86	
2025-01-10 11:32:20.74	165.49	4.95	
2025-01-10 11:32:21.97	165.50	5.04	
2025-01-10 11:32:23.20	165.52	5.13	
2025-01-10 11:32:24.45	165.53	5.23	
2025-01-10 11:32:25.68	165.55	5.32	
2025-01-10 11:32:26.92	165.57	5.42	
2025-01-10 11:32:28.15	165.58	5.51	
2025-01-10 11:32:29.38	165.60	5.60	
2025-01-10 11:32:30.61	165.62	5.70	
2025-01-10 11:32:31.84	165.63	5.79	
2025-01-10 11:32:33.07	165.65	5.89	
2025-01-10 11:32:34.31	165.67	5.99	
2025-01-10 11:32:35.54	165.69	6.08	
2025-01-10 11:32:36.78	165.70	6.18	
2025-01-10 11:32:38.01	165.72	6.28	
2025-01-10 11:32:39.25	165.74	6.38	
2025-01-10 11:32:40.49	165.76	6.47	
2025-01-10 11:32:41.73	165.77	6.57	
2025-01-10 11:32:42.96	165.79	6.67	
2025-01-10 11:32:44.19	165.81	6.77	
2025-01-10 11:32:45.44	165.83	6.87	
2025-01-10 11:32:46.67	165.85	6.97	
2025-01-10 11:32:47.90	165.87	7.07	
2025-01-10 11:32:49.13	165.88	7.17	
2025-01-10 11:32:50.36	165.90	7.28	
2025-01-10 11:32:51.61	165.92	7.38	
2025-01-10 11:32:52.84	165.94	7.48	
2025-01-10 11:32:54.07	165.96	7.58	
2025-01-10 11:32:55.30	165.98	7.69	
2025-01-10 11:32:56.53	166.00	7.79	
2025-01-10 11:32:57.76	166.02	7.89	
2025-01-10 11:32:58.99	166.04	8.00	
2025-01-10 11:33:00.22	166.05	8.10	
2025-01-10 11:33:01.45	166.07	8.21	
2025-01-10 11:33:02.69	166.09	8.32	
2025-01-10 11:33:03.93	166.11	8.42	
2025-01-10 11:33:05.16	166.13	8.53	
2025-01-10 11:33:06.40	166.15	8.64	
2025-01-10 11:33:07.65	166.17	8.75	
2025-01-10 11:33:08.87	166.19	8.86	
2025-01-10 11:33:10.10	166.22	8.97	
2025-01-10 11:33:11.33	166.24	9.08	
2025-01-10 11:33:12.56	166.26	9.19	
2025-01-10 11:33:13.81	166.28	9.30	
2025-01-10 11:33:15.04	166.30	9.41	
2025-01-10 11:33:16.29	166.32	9.52	
2025-01-10 11:33:17.52	166.34	9.64	
2025-01-10 11:33:18.75	166.36	9.75	
2025-01-10 11:33:19.98	166.38	9.86	
2025-01-10 11:33:21.21	166.41	9.98	
2025-01-10 11:33:22.46	166.43	10.09	
2025-01-10 11:33:23.70	166.45	10.21	
2025-01-10 11:33:24.93	166.47	10.33	
2025-01-10 11:33:26.16	166.50	10.44	
2025-01-10 11:33:27.39	166.52	10.56	
2025-01-10 11:33:28.62	166.54	10.68	
2025-01-10 11:33:29.85	166.56	10.80	
2025-01-10 11:33:31.07	166.59	10.92	
2025-01-10 11:33:32.30	166.61	11.04	
2025-01-10 11:33:33.53	166.63	11.16	
2025-01-10 11:33:34.77	166.66	11.28	
2025-01-10 11:33:36.00	166.68	11.40	
2025-01-10 11:33:37.24	166.71	11.52	
2025-01-10 11:33:38.49	166.73	11.65	
2025-01-10 11:33:39.72	166.75	11.77	
2025-01-10 11:33:40.95	166.78	11.90	
2025-01-10 11:33:42.19	166.80	12.02	
2025-01-10 11:33:43.42	166.83	12.15	
2025-01-10 11:33:44.65	166.85	12.27	
2025-01-10 11:33:45.88	166.88	12.40	
2025-01-10 11:33:47.11	166.90	12.53	
2025-01-10 11:33:48.34	166.93	12.66	
2025-01-10 11:33:49.58	166.96	12.79	
2025-01-10 11:33:50.81	166.98	12.92	
2025-01-10 11:33:52.05	167.01	13.05	
2025-01-10 11:33:53.29	167.03	13.19	
2025-01-10 11:33:54.53	167.06	13.32	
2025-01-10 11:33:55.76	167.09	13.45	
2025-01-10 11:33:56.99	167.12	13.59	
2025-01-10 11:33:58.21	167.14	13.72	
2025-01-10 11:33:59.45	167.17	13.86	
2025-01-10 11:34:00.68	167.20	13.99	
2025-01-10 11:34:01.91	167.23	14.13	
2025-01-10 11:34:03.16	167.26	14.27	
2025-01-10 11:34:04.38	167.28	14.41	
2025-01-10 11:34:05.62	167.31	14.55	
2025-01-10 11:34:06.85	167.34	14.69	
2025-01-10 11:34:08.08	167.37	14.84	
2025-01-10 11:34:09.31	167.40	14.98	
2025-01-10 11:34:10.54	167.43	15.12	
2025-01-10 11:34:11.77	167.46	15.27	
2025-01-10 11:34:13.03	167.49	15.42	
2025-01-10 11:34:14.26	167.52	15.56	
2025-01-10 11:34:15.49	167.55	15.71	
2025-01-10 11:34:16.72	167.58	15.86	
2025-01-10 11:34:17.95	167.62	16.01	
2025-01-10 11:34:19.19	167.65	16.16	
2025-01-10 11:34:20.41	167.68	16.31	
2025-01-10 11:34:21.64	167.71	16.47	
2025-01-10 11:34:22.88	167.75	16.62	
2025-01-10 11:34:24.12	167.78	16.78	
2025-01-10 11:34:25.35	167.81	16.93	
2025-01-10 11:34:26.58	167.85	17.09	
2025-01-10 11:34:27.81	167.88	17.25	
2025-01-10 11:34:29.05	167.92	17.41	
2025-01-10 11:34:30.28	167.95	17.57	
2025-01-10 11:34:31.51	167.98	17.73	
2025-01-10 11:34:32.74	168.02	17.90	
2025-01-10 11:34:33.97	168.06	18.06	
2025-01-10 11:34:35.21	168.09	18.23	
2025-01-10 11:34:36.44	168.13	18.39	
2025-01-10 11:34:37.66	168.17	18.56	
2025-01-10 11:34:38.89	168.20	18.73	
2025-01-10 11:34:40.12	168.24	18.90	
2025-01-10 11:34:41.36	168.28	19.07	
2025-01-10 11:34:42.59	168.32	19.25	
2025-01-10 11:34:43.82	168.36	19.42	
2025-01-10 11:34:45.05	168.40	19.60	
2025-01-10 11:34:46.29	168.44	19.77	
2025-01-10 11:34:47.53	168.48	19.95	
2025-01-10 11:34:48.76	168.52	20.13	
2025-01-10 11:34:49.99	168.56	20.31	
2025-01-10 11:34:51.22	168.60	20.50	
2025-01-10 11:34:52.45	168.64	20.68	
2025-01-10 11:34:53.68	168.68	20.87	
2025-01-10 11:34:54.91	168.73	21.05	
2025-01-10 11:34:56.15	168.77	21.24	
2025-01-10 11:34:57.38	168.81	21.43	
2025-01-10 11:34:58.61	168.86	21.62	
2025-01-10 11:34:59.84	168.90	21.82	
2025-01-10 11:35:01.09	168.95	22.02	
2025-01-10 11:35:02.32	169.00	22.21	
2025-01-10 11:35:03.55	169.04	22.41	
2025-01-10 11:35:04.78	169.09	22.61	
2025-01-10 11:35:06.02	169.14	22.81	
2025-01-10 11:35:07.25	169.19	23.02	
2025-01-10 11:35:08.48	169.24	23.22	
2025-01-10 11:35:09.71	169.29	23.43	
2025-01-10 11:35:10.94	169.34	23.64	
2025-01-10 11:35:12.17	169.39	23.85	
2025-01-10 11:35:13.41	169.44	24.06	
2025-01-10 11:35:14.64	169.49	24.27	
2025-01-10 11:35:15.87	169.54	24.49	
2025-01-10 11:35:17.10	169.60	24.71	
2025-01-10 11:35:18.34	169.65	24.93	
2025-01-10 11:35:19.57	169.71	25.15	
2025-01-10 11:35:20.80	169.76	25.37	
2025-01-10 11:35:22.04	169.82	25.60	
2025-01-10 11:35:23.27	169.88	25.83	
2025-01-10 11:35:24.50	169.94	26.06	
2025-01-10 11:35:25.74	170.00	26.29	
2025-01-10 11:35:26.98	170.06	26.53	
2025-01-10 11:35:28.21	170.12	26.77	
2025-01-10 11:35:29.44	170.18	27.00	
2025-01-10 11:35:30.66	170.24	27.24	
2025-01-10 11:35:31.89	170.31	27.49	
2025-01-10 11:35:33.12	170.37	27.73	
2025-01-10 11:35:34.35	170.44	27.98	
2025-01-10 11:35:35.59	170.50	28.23	
2025-01-10 11:35:36.84	170.57	28.49	
2025-01-10 11:35:38.07	170.64	28.74	
2025-01-10 11:35:39.30	170.71	29.00	
2025-01-10 11:35:40.52	170.78	29.26	
2025-01-10 11:35:41.75	170.85	29.52	
2025-01-10 11:35:42.99	170.92	29.79	
2025-01-10 11:35:44.22	171.00	30.05	
2025-01-10 11:35:45.45	171.07	30.32	
2025-01-10 11:35:46.69	171.15	30.60	
2025-01-10 11:35:47.92	171.23	30.88	
2025-01-10 11:35:49.15	171.31	31.15	
2025-01-10 11:35:50.38	171.39	31.43	
2025-01-10 11:35:51.62	171.47	31.72	
2025-01-10 11:35:52.85	171.55	32.01	
2025-01-10 11:35:54.09	171.64	32.30	
2025-01-10 11:35:55.32	171.73	32.59	
2025-01-10 11:35:56.55	171.81	32.89	
2025-01-10 11:35:57.78	171.90	33.19	
2025-01-10 11:35:59.01	171.99	33.49	
2025-01-10 11:36:00.24	172.09	33.80	
2025-01-10 11:36:01.48	172.18	34.11	
2025-01-10 11:36:02.71	172.28	34.42	
2025-01-10 11:36:03.95	172.38	34.74	
2025-01-10 11:36:05.18	172.48	35.05	
2025-01-10 11:36:06.43	172.58	35.38	
2025-01-10 11:36:07.65	172.68	35.70	
2025-01-10 11:36:08.88	172.79	36.03	
2025-01-10 11:36:10.11	172.90	36.36	
2025-01-10 11:36:11.36	173.01	36.70	
2025-01-10 11:36:12.61	173.12	37.05	
2025-01-10 11:36:13.84	173.24	37.39	
2025-01-10 11:36:15.07	173.35	37.74	
2025-01-10 11:36:16.30	173.47	38.09	
2025-01-10 11:36:17.53	173.60	38.44	
2025-01-10 11:36:18.76	173.72	38.80	
2025-01-10 11:36:20.00	173.85	39.16	
2025-01-10 11:36:21.22	173.98	39.53	
2025-01-10 11:36:22.47	174.12	39.90	
2025-01-10 11:36:23.70	174.25	40.28	
2025-01-10 11:36:24.95	174.39	40.66	
2025-01-10 11:36:26.18	174.54	41.04	
2025-01-10 11:36:27.41	174.68	41.43	
2025-01-10 11:36:28.65	174.83	41.82	
2025-01-10 11:36:29.89	174.99	42.22	
2025-01-10 11:36:31.12	175.15	42.61	
2025-01-10 11:36:32.35	175.31	43.02	
2025-01-10 11:36:33.58	175.47	43.42	
2025-01-10 11:36:34.81	175.64	43.83	
2025-01-10 11:36:36.04	175.82	44.25	
2025-01-10 11:36:37.27	175.99	44.67	
2025-01-10 11:36:38.50	176.18	45.09	
2025-01-10 11:36:39.73	176.37	45.52	
2025-01-10 11:36:40.96	176.56	45.96	
2025-01-10 11:36:42.20	176.76	46.40	
2025-01-10 11:36:43.43	176.96	46.84	
2025-01-10 11:36:44.67	177.17	47.29	
2025-01-10 11:36:45.90	177.39	47.74	
2025-01-10 11:36:47.13	177.61	48.20	
2025-01-10 11:36:48.36	177.84	48.66	
2025-01-10 11:36:49.60	178.08	49.13	
2025-01-10 11:36:50.83	178.32	49.60	
2025-01-10 11:36:52.09	178.58	50.08	
2025-01-10 11:36:53.32	178.84	50.56	
2025-01-10 11:36:54.55	179.11	51.04	
2025-01-10 11:36:55.79	179.38	51.54	
2025-01-10 11:36:57.02	179.67	52.03	
2025-01-10 11:36:58.26	179.97	52.53	
2025-01-10 11:36:59.48	180.27	53.03	
2025-01-10 11:37:00.71	180.58	53.53	
2025-01-10 11:37:01.95	180.91	54.05	
2025-01-10 11:37:03.19	181.26	54.57	
2025-01-10 11:37:04.42	181.61	55.09	
2025-01-10 11:37:05.65	181.97	55.61	
2025-01-10 11:37:06.88	182.35	56.14	
2025-01-10 11:37:08.11	182.74	56.67	
2025-01-10 11:37:09.34	183.15	57.21	
2025-01-10 11:37:10.57	183.57	57.75	
2025-01-10 11:37:11.80	184.01	58.29	
2025-01-10 11:37:13.03	184.47	58.84	
2025-01-10 11:37:14.27	184.96	59.39	
2025-01-10 11:37:15.50	185.46	59.95	
2025-01-10 11:37:16.73	185.98	60.50	
2025-01-10 11:37:17.96	186.52	61.06	
2025-01-10 11:37:19.19	187.09	61.63	
2025-01-10 11:37:20.42	187.69	62.19	
2025-01-10 11:37:21.66	188.32	62.76	
2025-01-10 11:37:22.90	188.98	63.34	
2025-01-10 11:37:24.13	189.67	63.91	
2025-01-10 11:37:25.36	190.39	64.48	
2025-01-10 11:37:26.60	191.15	65.06	
2025-01-10 11:37:27.83	191.95	65.63	
2025-01-10 11:37:29.07	192.80	66.21	
2025-01-10 11:37:30.30	193.69	66.78	
2025-01-10 11:37:31.54	194.63	67.35	
2025-01-10 11:37:32.77	195.62	67.92	
2025-01-10 11:37:34.01	196.68	68.49	
2025-01-10 11:37:35.25	197.80	69.06	
2025-01-10 11:37:36.48	198.97	69.62	
2025-01-10 11:37:37.72	200.22	70.18	
2025-01-10 11:37:38.95	201.54	70.72	
2025-01-10 11:37:40.18	202.95	71.26	
2025-01-10 11:37:41.42	204.45	71.80	
2025-01-10 11:37:42.66	206.05	72.33	
2025-01-10 11:37:43.90	207.75	72.84	
2025-01-10 11:37:45.13	209.55	73.34	
2025-01-10 11:37:46.36	211.46	73.83	
2025-01-10 11:37:47.60	213.50	74.30	
2025-01-10 11:37:48.84	215.68	74.75	
2025-01-10 11:37:50.08	217.99	75.18	
2025-01-10 11:37:51.31	220.42	75.59	
2025-01-10 11:37:52.54	223.00	75.97	
2025-01-10 11:37:53.77	225.71	76.32	
2025-01-10 11:37:55.00	228.57	76.65	
2025-01-10 11:37:56.23	231.57	76.93	
2025-01-10 11:37:57.46	234.70	77.19	
2025-01-10 11:37:58.69	237.94	77.40	
2025-01-10 11:37:59.94	241.35	77.58	
2025-01-10 11:38:01.16	244.76	77.71	
2025-01-10 11:38:02.39	248.26	77.80	
2025-01-10 11:38:03.63	251.83	77.85	
2025-01-10 11:38:04.87	255.42	77.85	
2025-01-10 11:38:06.11	258.99	77.80	
2025-01-10 11:38:07.35	262.51	77.70	
2025-01-10 11:38:08.59	265.97	77.57	
2025-01-10 11:38:09.82	269.31	77.39	
2025-01-10 11:38:11.05	272.55	77.17	
2025-01-10 11:38:12.28	275.67	76.91	
2025-01-10 11:38:13.51	278.65	76.62	
2025-01-10 11:38:14.74	281.50	76.30	
2025-01-10 11:38:15.97	284.20	75.94	
2025-01-10 11:38:17.21	286.78	75.56	
2025-01-10 11:38:18.44	289.20	75.15	
2025-01-10 11:38:19.69	291.52	74.71	
2025-01-10 11:38:20.92	293.66	74.26	
2025-01-10 11:38:22.15	295.68	73.79	
2025-01-10 11:38:23.38	297.58	73.31	
2025-01-10 11:38:24.64	299.41	72.80	
2025-01-10 11:38:25.87	301.08	72.28	
2025-01-10 11:38:27.10	302.66	71.76	
2025-01-10 11:38:28.33	304.14	71.23	
2025-01-10 11:38:29.56	305.54	70.69	
2025-01-10 11:38:30.79	306.85	70.14	
2025-01-10 11:38:32.03	308.10	69.59	
2025-01-10 11:38:33.26	309.27	69.03	
2025-01-10 11:38:34.50	310.38	68.46	
2025-01-10 11:38:35.72	311.41	67.90	
2025-01-10 11:38:36.95	312.40	67.33	
2025-01-10 11:38:38.18	313.33	66.76	
2025-01-10 11:38:39.41	314.22	66.19	
2025-01-10 11:38:40.64	315.05	65.62	
2025-01-10 11:38:41.88	315.86	65.05	
2025-01-10 11:38:43.11	316.61	64.48	
2025-01-10 11:38:44.35	317.34	63.90	
2025-01-10 11:38:45.58	318.03	63.33	
2025-01-10 11:38:46.81	318.68	62.76	
2025-01-10 11:38:48.06	319.31	62.19	
2025-01-10 11:38:49.29	319.91	61.63	
2025-01-10 11:38:50.52	320.48	61.07	
2025-01-10 11:38:51.75	321.02	60.51	
2025-01-10 11:38:52.98	321.54	59.95	
2025-01-10 11:38:54.23	322.05	59.39	
2025-01-10 11:38:55.45	322.52	58.85	
2025-01-10 11:38:56.69	322.98	58.30	
2025-01-10 11:38:57.92	323.42	57.76	
2025-01-10 11:38:59.16	323.85	57.21	
2025-01-10 11:39:00.40	324.26	56.68	
2025-01-10 11:39:01.64	324.65	56.14	
2025-01-10 11:39:02.87	325.03	55.62	
2025-01-10 11:39:04.11	325.40	55.09	
2025-01-10 11:39:05.34	325.75	54.57	
2025-01-10 11:39:06.57	326.08	54.06	
2025-01-10 11:39:07.81	326.41	53.55	
2025-01-10 11:39:09.03	326.72	53.05	
2025-01-10 11:39:10.27	327.03	52.54	
2025-01-10 11:39:11.50	327.32	52.05	
2025-01-10 11:39:12.73	327.61	51.56	
2025-01-10 11:39:13.97	327.89	51.07	
2025-01-10 11:39:15.20	328.15	50.58	
2025-01-10 11:39:16.43	328.41	50.11	
2025-01-10 11:39:17.66	328.66	49.63	
2025-01-10 11:39:18.90	328.91	49.16	
2025-01-10 11:39:20.13	329.14	48.70	
2025-01-10 11:39:21.36	329.37	48.24	
2025-01-10 11:39:22.59	329.59	47.79	
2025-01-10 11:39:23.82	329.81	47.34	
2025-01-10 11:39:25.05	330.02	46.89	
2025-01-10 11:39:26.28	330.22	46.45	
2025-01-10 11:39:27.51	330.42	46.02	
2025-01-10 11:39:28.75	330.62	45.58	
2025-01-10 11:39:29.98	330.80	45.15	
2025-01-10 11:39:31.21	330.99	44.73	
2025-01-10 11:39:32.44	331.17	44.31	
2025-01-10 11:39:33.67	331.34	43.90	
2025-01-10 11:39:34.91	331.51	43.49	
2025-01-10 11:39:36.14	331.68	43.08	
2025-01-10 11:39:37.39	331.84	42.67	
2025-01-10 11:39:38.63	332.00	42.27	
2025-01-10 11:39:39.86	332.15	41.88	
2025-01-10 11:39:41.10	332.30	41.49	
2025-01-10 11:39:42.33	332.45	41.11	
2025-01-10 11:39:43.56	332.59	40.73	
2025-01-10 11:39:44.80	332.73	40.35	
2025-01-10 11:39:46.03	332.87	39.98	
2025-01-10 11:39:47.26	333.00	39.61	
2025-01-10 11:39:48.50	333.13	39.24	
2025-01-10 11:39:49.74	333.26	38.88	
2025-01-10 11:39:50.97	333.39	38.52	
2025-01-10 11:39:52.20	333.51	38.17	
2025-01-10 11:39:53.45	333.63	37.82	
2025-01-10 11:39:54.68	333.75	37.47	
2025-01-10 11:39:55.91	333.87	37.13	
2025-01-10 11:39:57.15	333.98	36.79	
2025-01-10 11:39:58.37	334.09	36.46	
2025-01-10 11:39:59.61	334.20	36.12	
2025-01-10 11:40:00.84	334.30	35.80	
2025-01-10 11:40:02.07	334.41	35.47	
2025-01-10 11:40:03.30	334.51	35.15	
2025-01-10 11:40:04.53	334.61	34.84	
2025-01-10 11:40:05.77	334.71	34.52	
2025-01-10 11:40:07.00	334.81	34.21	
2025-01-10 11:40:08.23	334.90	33.90	
2025-01-10 11:40:09.46	334.99	33.60	
2025-01-10 11:40:10.70	335.08	33.29	
2025-01-10 11:40:11.95	335.18	32.99	
2025-01-10 11:40:13.19	335.26	32.70	
2025-01-10 11:40:14.42	335.35	32.40	
2025-01-10 11:40:15.65	335.44	32.11	
2025-01-10 11:40:16.88	335.52	31.83	
2025-01-10 11:40:18.11	335.60	31.55	
2025-01-10 11:40:19.34	335.68	31.27	
2025-01-10 11:40:20.57	335.76	30.99	
2025-01-10 11:40:21.80	335.84	30.71	
2025-01-10 11:40:23.05	335.92	30.44	
2025-01-10 11:40:24.28	335.99	30.17	
2025-01-10 11:40:25.52	336.07	29.90	
2025-01-10 11:40:26.75	336.14	29.63	
2025-01-10 11:40:28.00	336.22	29.37	
2025-01-10 11:40:29.25	336.29	29.11	
2025-01-10 11:40:30.48	336.36	28.85	
2025-01-10 11:40:31.71	336.43	28.60	
2025-01-10 11:40:32.94	336.50	28.34	
2025-01-10 11:40:34.18	336.56	28.09	
2025-01-10 11:40:35.42	336.63	27.84	
2025-01-10 11:40:36.65	336.69	27.60	
2025-01-10 11:40:37.88	336.76	27.36	
2025-01-10 11:40:39.11	336.82	27.12	
2025-01-10 11:40:40.36	336.88	26.88	
2025-01-10 11:40:41.59	336.95	26.64	
2025-01-10 11:40:42.82	337.01	26.41	
2025-01-10 11:40:44.05	337.07	26.18	
2025-01-10 11:40:45.28	337.12	25.95	
2025-01-10 11:40:46.52	337.18	25.72	
2025-01-10 11:40:47.75	337.24	25.50	
2025-01-10 11:40:48.99	337.30	25.27	
2025-01-10 11:40:50.22	337.35	25.05	
2025-01-10 11:40:51.46	337.41	24.83	
2025-01-10 11:40:52.69	337.46	24.61	
2025-01-10 11:40:53.93	337.52	24.40	
2025-01-10 11:40:55.16	337.57	24.18	
2025-01-10 11:40:56.39	337.62	23.97	
2025-01-10 11:40:57.62	337.67	23.76	
2025-01-10 11:40:58.85	337.72	23.55	
2025-01-10 11:41:00.08	337.77	23.35	
2025-01-10 11:41:01.31	337.82	23.14	
2025-01-10 11:41:02.54	337.87	22.94	
2025-01-10 11:41:03.79	337.92	22.74	
2025-01-10 11:41:05.02	337.97	22.54	
2025-01-10 11:41:06.25	338.02	22.34	
2025-01-10 11:41:07.48	338.06	22.15	
2025-01-10 11:41:08.71	338.11	21.95	
2025-01-10 11:41:09.94	338.15	21.76	
2025-01-10 11:41:11.17	338.20	21.57	
2025-01-10 11:41:12.40	338.24	21.38	
2025-01-10 11:41:13.64	338.29	21.19	
2025-01-10 11:41:14.87	338.33	21.00	
2025-01-10 11:41:16.09	338.37	20.82	
2025-01-10 11:41:17.34	338.42	20.63	
2025-01-10 11:41:18.58	338.46	20.45	
2025-01-10 11:41:19.81	338.50	20.27	
2025-01-10 11:41:21.04	338.54	20.09	
2025-01-10 11:41:22.27	338.58	19.91	
2025-01-10 11:41:23.52	338.63	19.73	
2025-01-10 11:41:24.75	338.67	19.56	
2025-01-10 11:41:25.99	338.71	19.38	
2025-01-10 11:41:27.22	338.74	19.21	
2025-01-10 11:41:28.46	338.78	19.04	
2025-01-10 11:41:29.70	338.82	18.87	
2025-01-10 11:41:30.93	338.86	18.70	
2025-01-10 11:41:32.16	338.90	18.53	
2025-01-10 11:41:33.39	338.93	18.37	
2025-01-10 11:41:34.63	338.97	18.20	
2025-01-10 11:41:35.88	339.01	18.04	
2025-01-10 11:41:37.11	339.05	17.87	
2025-01-10 11:41:38.34	339.08	17.71	
2025-01-10 11:41:39.58	339.12	17.55	
2025-01-10 11:41:40.81	339.15	17.39	
2025-01-10 11:41:42.04	339.19	17.23	
2025-01-10 11:41:43.27	339.22	17.08	
2025-01-10 11:41:44.50	339.25	16.92	
2025-01-10 11:41:45.73	339.29	16.77	
2025-01-10 11:41:46.96	339.32	16.61	
2025-01-10 11:41:48.19	339.36	16.46	
2025-01-10 11:41:49.43	339.39	16.31	
2025-01-10 11:41:50.66	339.42	16.16	
2025-01-10 11:41:51.90	339.45	16.01	
2025-01-10 11:41:53.13	339.49	15.86	
2025-01-10 11:41:54.38	339.52	15.71	
2025-01-10 11:41:55.59	339.55	15.57	
2025-01-10 11:41:56.83	339.58	15.42	
2025-01-10 11:41:58.06	339.61	15.27	
2025-01-10 11:41:59.29	339.64	15.13	
2025-01-10 11:42:00.52	339.67	14.99	
2025-01-10 11:42:01.75	339.70	14.85	
2025-01-10 11:42:02.98	339.73	14.71	
2025-01-10 11:42:04.21	339.76	14.57	
2025-01-10 11:42:05.44	339.79	14.43	
2025-01-10 11:42:06.67	339.82	14.29	
2025-01-10 11:42:07.91	339.85	14.15	
2025-01-10 11:42:09.14	339.88	14.01	
2025-01-10 11:42:10.38	339.91	13.88	
2025-01-10 11:42:11.61	339.94	13.74	
2025-01-10 11:42:12.84	339.96	13.61	
2025-01-10 11:42:14.08	339.99	13.47	
2025-01-10 11:42:15.31	340.02	13.34	
2025-01-10 11:42:16.55	340.05	13.21	
2025-01-10 11:42:17.78	340.07	13.08	
2025-01-10 11:42:19.01	340.10	12.95	
2025-01-10 11:42:20.24	340.13	12.82	
2025-01-10 11:42:21.47	340.15	12.69	
2025-01-10 11:42:22.70	340.18	12.56	
2025-01-10 11:42:23.93	340.21	12.44	
2025-01-10 11:42:25.17	340.23	12.31	
2025-01-10 11:42:26.40	340.26	12.18	
2025-01-10 11:42:27.64	340.28	12.06	
2025-01-10 11:42:28.89	340.31	11.93	
2025-01-10 11:42:30.12	340.33	11.81	
2025-01-10 11:42:31.36	340.36	11.69	
2025-01-10 11:42:32.60	340.38	11.56	
2025-01-10 11:42:33.84	340.41	11.44	
2025-01-10 11:42:35.07	340.43	11.32	
2025-01-10 11:42:36.30	340.46	11.20	
2025-01-10 11:42:37.53	340.48	11.08	
2025-01-10 11:42:38.77	340.51	10.96	
2025-01-10 11:42:40.00	340.53	10.84	
2025-01-10 11:42:41.23	340.55	10.72	
2025-01-10 11:42:42.47	340.58	10.61	
2025-01-10 11:42:43.70	340.60	10.49	
2025-01-10 11:42:44.93	340.62	10.37	
2025-01-10 11:42:46.16	340.65	10.26	
2025-01-10 11:42:47.39	340.67	10.15	
2025-01-10 11:42:48.62	340.69	10.03	
2025-01-10 11:42:49.86	340.72	9.92	
2025-01-10 11:42:51.12	340.74	9.80	
2025-01-10 11:42:52.36	340.76	9.69	
2025-01-10 11:42:53.59	340.78	9.58	
2025-01-10 11:42:54.84	340.81	9.46	
2025-01-10 11:42:56.07	340.83	9.35	
2025-01-10 11:42:57.31	340.85	9.24	
2025-01-10 11:42:58.54	340.87	9.13	
2025-01-10 11:42:59.77	340.89	9.02	
2025-01-10 11:43:01.00	340.91	8.92	
2025-01-10 11:43:02.23	340.94	8.81	
2025-01-10 11:43:03.46	340.96	8.70	
2025-01-10 11:43:04.70	340.98	8.59	
2025-01-10 11:43:05.92	341.00	8.49	
2025-01-10 11:43:07.16	341.02	8.38	
2025-01-10 11:43:08.39	341.04	8.28	
2025-01-10 11:43:09.64	341.06	8.17	
2025-01-10 11:43:10.89	341.08	8.06	
2025-01-10 11:43:12.12	341.10	7.96	
2025-01-10 11:43:13.35	341.12	7.86	
2025-01-10 11:43:14.58	341.14	7.75	
2025-01-10 11:43:15.82	341.16	7.65	
2025-01-10 11:43:17.05	341.18	7.55	
2025-01-10 11:43:18.28	341.20	7.45	
2025-01-10 11:43:19.52	341.22	7.34	
2025-01-10 11:43:20.75	341.24	7.24	
2025-01-10 11:43:22.00	341.26	7.14	
2025-01-10 11:43:23.23	341.28	7.04	
2025-01-10 11:43:24.47	341.30	6.94	
2025-01-10 11:43:25.71	341.32	6.84	
2025-01-10 11:43:26.94	341.34	6.74	
2025-01-10 11:43:28.17	341.36	6.65	
2025-01-10 11:43:29.40	341.38	6.55	
2025-01-10 11:43:30.63	341.39	6.45	
2025-01-10 11:43:31.86	341.41	6.35	
2025-01-10 11:43:33.10	341.43	6.26	
2025-01-10 11:43:34.33	341.45	6.16	
2025-01-10 11:43:35.56	341.47	6.07	
2025-01-10 11:43:36.79	341.49	5.97	
2025-01-10 11:43:38.02	341.50	5.88	
2025-01-10 11:43:39.26	341.52	5.78	
2025-01-10 11:43:40.48	341.54	5.69	
2025-01-10 11:43:41.73	341.56	5.59	
2025-01-10 11:43:42.96	341.58	5.50	
2025-01-10 11:43:44.19	341.59	5.41	
2025-01-10 11:43:45.42	341.61	5.31	
2025-01-10 11:43:46.65	341.63	5.22	
2025-01-10 11:43:47.90	341.65	5.13	
2025-01-10 11:43:49.13	341.66	5.04	
2025-01-10 11:43:50.36	341.68	4.94	
2025-01-10 11:43:51.60	341.70	4.85	
2025-01-10 11:43:52.83	341.72	4.76	
2025-01-10 11:43:54.08	341.73	4.67	
2025-01-10 11:43:55.32	341.75	4.58	
2025-01-10 11:43:56.54	341.77	4.49	
2025-01-10 11:43:57.78	341.78	4.40	
2025-01-10 11:43:59.01	341.80	4.31	
2025-01-10 11:44:00.24	341.82	4.22	
2025-01-10 11:44:01.46	341.83	4.14	
2025-01-10 11:44:02.70	341.85	4.05	

#Closed at: 2025-01-10 11:44:03