passes_logs/2025/01/10/SPB_Silybum_02/SPB_Silybum_02__20250110_155904_TERRA_rec.log

#Pass ID: 20250110_155904_TERRA
#Satellite: TERRA
#Configuration: TERRA
#Start time: 2025-01-10 15:59:02

#Version: 2.0.20230423
#Station: SPB_Silybum_02
#Location: 30.233357 lon 59.946436 lat
#TLE: 1 25994U 99068A   25009.84464495  .00000861  00000+0  18726-3 0  9992
#TLE: 2 25994  98.0226  73.0387 0003560  82.8900 338.1382 14.60385144333325

#Time	Az	El	Level	Level2	SNR	BER	Gain	Gain2
2025-01-10 15:59:04.54	81.94	4.01	
2025-01-10 15:59:05.36	81.84	4.05	
2025-01-10 15:59:06.18	81.75	4.10	
2025-01-10 15:59:07.00	81.65	4.14	
2025-01-10 15:59:07.83	81.55	4.18	
2025-01-10 15:59:08.65	81.45	4.22	
2025-01-10 15:59:09.48	81.35	4.26	
2025-01-10 15:59:10.30	81.25	4.30	
2025-01-10 15:59:11.12	81.15	4.34	
2025-01-10 15:59:11.94	81.05	4.38	
2025-01-10 15:59:12.78	80.95	4.43	
2025-01-10 15:59:13.60	80.85	4.47	
2025-01-10 15:59:14.42	80.75	4.51	
2025-01-10 15:59:15.24	80.65	4.55	
2025-01-10 15:59:16.06	80.55	4.59	
2025-01-10 15:59:16.89	80.45	4.63	
2025-01-10 15:59:17.71	80.35	4.67	
2025-01-10 15:59:18.53	80.24	4.71	
2025-01-10 15:59:19.35	80.14	4.75	
2025-01-10 15:59:20.17	80.04	4.79	
2025-01-10 15:59:20.99	79.94	4.84	
2025-01-10 15:59:21.81	79.83	4.88	
2025-01-10 15:59:22.63	79.73	4.92	
2025-01-10 15:59:23.47	79.62	4.96	
2025-01-10 15:59:24.29	79.52	5.00	
2025-01-10 15:59:25.11	79.41	5.04	
2025-01-10 15:59:25.93	79.31	5.08	
2025-01-10 15:59:26.75	79.20	5.12	
2025-01-10 15:59:27.57	79.10	5.16	
2025-01-10 15:59:28.39	78.99	5.20	
2025-01-10 15:59:29.22	78.89	5.25	
2025-01-10 15:59:30.06	78.78	5.29	
2025-01-10 15:59:30.88	78.67	5.33	
2025-01-10 15:59:31.70	78.56	5.37	
2025-01-10 15:59:32.52	78.45	5.41	
2025-01-10 15:59:33.34	78.35	5.45	
2025-01-10 15:59:34.16	78.24	5.49	
2025-01-10 15:59:34.98	78.13	5.53	
2025-01-10 15:59:35.81	78.02	5.57	
2025-01-10 15:59:36.63	77.91	5.61	
2025-01-10 15:59:37.46	77.80	5.65	
2025-01-10 15:59:38.29	77.69	5.70	
2025-01-10 15:59:39.11	77.58	5.74	
2025-01-10 15:59:39.95	77.47	5.78	
2025-01-10 15:59:40.77	77.35	5.82	
2025-01-10 15:59:41.60	77.24	5.86	
2025-01-10 15:59:42.42	77.13	5.90	
2025-01-10 15:59:43.24	77.02	5.94	
2025-01-10 15:59:44.06	76.91	5.98	
2025-01-10 15:59:44.87	76.79	6.02	
2025-01-10 15:59:45.69	76.68	6.06	
2025-01-10 15:59:46.51	76.57	6.10	
2025-01-10 15:59:47.33	76.45	6.14	
2025-01-10 15:59:48.15	76.34	6.18	
2025-01-10 15:59:48.99	76.22	6.22	
2025-01-10 15:59:49.82	76.11	6.26	
2025-01-10 15:59:50.64	75.99	6.30	
2025-01-10 15:59:51.46	75.88	6.34	
2025-01-10 15:59:52.28	75.76	6.38	
2025-01-10 15:59:53.10	75.65	6.42	
2025-01-10 15:59:53.92	75.53	6.46	
2025-01-10 15:59:54.74	75.41	6.50	
2025-01-10 15:59:55.57	75.29	6.54	
2025-01-10 15:59:56.39	75.18	6.58	
2025-01-10 15:59:57.21	75.06	6.62	
2025-01-10 15:59:58.03	74.94	6.66	
2025-01-10 15:59:58.86	74.82	6.70	
2025-01-10 15:59:59.70	74.70	6.74	
2025-01-10 16:00:00.52	74.58	6.78	
2025-01-10 16:00:01.34	74.46	6.82	
2025-01-10 16:00:02.16	74.34	6.86	
2025-01-10 16:00:02.98	74.22	6.90	
2025-01-10 16:00:03.80	74.10	6.94	
2025-01-10 16:00:04.62	73.98	6.98	
2025-01-10 16:00:05.44	73.85	7.02	
2025-01-10 16:00:06.26	73.73	7.06	
2025-01-10 16:00:07.09	73.61	7.10	
2025-01-10 16:00:07.91	73.49	7.14	
2025-01-10 16:00:08.73	73.36	7.18	
2025-01-10 16:00:09.55	73.24	7.22	
2025-01-10 16:00:10.38	73.12	7.26	
2025-01-10 16:00:11.20	72.99	7.30	
2025-01-10 16:00:12.02	72.87	7.34	
2025-01-10 16:00:12.84	72.74	7.38	
2025-01-10 16:00:13.66	72.62	7.41	
2025-01-10 16:00:14.48	72.49	7.45	
2025-01-10 16:00:15.30	72.37	7.49	
2025-01-10 16:00:16.12	72.24	7.53	
2025-01-10 16:00:16.96	72.11	7.57	
2025-01-10 16:00:17.78	71.98	7.61	
2025-01-10 16:00:18.60	71.85	7.65	
2025-01-10 16:00:19.42	71.73	7.69	
2025-01-10 16:00:20.24	71.60	7.72	
2025-01-10 16:00:21.07	71.47	7.76	
2025-01-10 16:00:21.88	71.34	7.80	
2025-01-10 16:00:22.72	71.21	7.84	
2025-01-10 16:00:23.54	71.08	7.88	
2025-01-10 16:00:24.36	70.95	7.92	
2025-01-10 16:00:25.18	70.82	7.96	
2025-01-10 16:00:26.01	70.69	7.99	
2025-01-10 16:00:26.83	70.56	8.03	
2025-01-10 16:00:27.65	70.42	8.07	
2025-01-10 16:00:28.47	70.29	8.11	
2025-01-10 16:00:29.29	70.16	8.15	
2025-01-10 16:00:30.11	70.03	8.18	
2025-01-10 16:00:30.93	69.89	8.22	
2025-01-10 16:00:31.75	69.76	8.26	
2025-01-10 16:00:32.57	69.63	8.30	
2025-01-10 16:00:33.39	69.49	8.33	
2025-01-10 16:00:34.21	69.36	8.37	
2025-01-10 16:00:35.03	69.22	8.41	
2025-01-10 16:00:35.85	69.09	8.44	
2025-01-10 16:00:36.67	68.95	8.48	
2025-01-10 16:00:37.49	68.82	8.52	
2025-01-10 16:00:38.31	68.68	8.56	
2025-01-10 16:00:39.13	68.54	8.59	
2025-01-10 16:00:39.95	68.41	8.63	
2025-01-10 16:00:40.77	68.27	8.67	
2025-01-10 16:00:41.59	68.13	8.70	
2025-01-10 16:00:42.43	67.99	8.74	
2025-01-10 16:00:43.26	67.85	8.78	
2025-01-10 16:00:44.08	67.71	8.81	
2025-01-10 16:00:44.91	67.57	8.85	
2025-01-10 16:00:45.73	67.43	8.88	
2025-01-10 16:00:46.56	67.29	8.92	
2025-01-10 16:00:47.37	67.15	8.96	
2025-01-10 16:00:48.20	67.01	8.99	
2025-01-10 16:00:49.03	66.86	9.03	
2025-01-10 16:00:49.85	66.72	9.06	
2025-01-10 16:00:50.67	66.58	9.10	
2025-01-10 16:00:51.49	66.44	9.14	
2025-01-10 16:00:52.31	66.29	9.17	
2025-01-10 16:00:53.13	66.15	9.21	
2025-01-10 16:00:53.95	66.01	9.24	
2025-01-10 16:00:54.77	65.86	9.28	
2025-01-10 16:00:55.59	65.72	9.31	
2025-01-10 16:00:56.41	65.57	9.35	
2025-01-10 16:00:57.23	65.43	9.38	
2025-01-10 16:00:58.04	65.28	9.41	
2025-01-10 16:00:58.87	65.14	9.45	
2025-01-10 16:00:59.69	64.99	9.48	
2025-01-10 16:01:00.51	64.84	9.52	
2025-01-10 16:01:01.33	64.70	9.55	
2025-01-10 16:01:02.15	64.55	9.58	
2025-01-10 16:01:02.97	64.40	9.62	
2025-01-10 16:01:03.79	64.25	9.65	
2025-01-10 16:01:04.62	64.10	9.69	
2025-01-10 16:01:05.46	63.95	9.72	
2025-01-10 16:01:06.28	63.80	9.75	
2025-01-10 16:01:07.10	63.65	9.79	
2025-01-10 16:01:07.92	63.50	9.82	
2025-01-10 16:01:08.74	63.35	9.85	
2025-01-10 16:01:09.56	63.20	9.89	
2025-01-10 16:01:10.39	63.05	9.92	
2025-01-10 16:01:11.21	62.90	9.95	
2025-01-10 16:01:12.03	62.75	9.98	
2025-01-10 16:01:12.85	62.59	10.02	
2025-01-10 16:01:13.68	62.44	10.05	
2025-01-10 16:01:14.50	62.29	10.08	
2025-01-10 16:01:15.33	62.13	10.11	
2025-01-10 16:01:16.16	61.98	10.14	
2025-01-10 16:01:16.98	61.82	10.18	
2025-01-10 16:01:17.80	61.67	10.21	
2025-01-10 16:01:18.62	61.51	10.24	
2025-01-10 16:01:19.45	61.36	10.27	
2025-01-10 16:01:20.27	61.20	10.30	
2025-01-10 16:01:21.09	61.04	10.33	
2025-01-10 16:01:21.91	60.89	10.36	
2025-01-10 16:01:22.73	60.73	10.39	
2025-01-10 16:01:23.55	60.57	10.42	
2025-01-10 16:01:24.37	60.42	10.45	
2025-01-10 16:01:25.19	60.26	10.48	
2025-01-10 16:01:26.01	60.10	10.51	
2025-01-10 16:01:26.83	59.94	10.54	
2025-01-10 16:01:27.65	59.78	10.57	
2025-01-10 16:01:28.47	59.63	10.60	
2025-01-10 16:01:29.29	59.47	10.63	
2025-01-10 16:01:30.10	59.31	10.66	
2025-01-10 16:01:30.93	59.15	10.69	
2025-01-10 16:01:31.76	58.98	10.72	
2025-01-10 16:01:32.58	58.82	10.75	
2025-01-10 16:01:33.39	58.66	10.78	
2025-01-10 16:01:34.22	58.50	10.80	
2025-01-10 16:01:35.04	58.34	10.83	
2025-01-10 16:01:35.86	58.18	10.86	
2025-01-10 16:01:36.68	58.02	10.89	
2025-01-10 16:01:37.50	57.85	10.92	
2025-01-10 16:01:38.32	57.69	10.94	
2025-01-10 16:01:39.14	57.53	10.97	
2025-01-10 16:01:39.96	57.36	11.00	
2025-01-10 16:01:40.78	57.20	11.02	
2025-01-10 16:01:41.60	57.03	11.05	
2025-01-10 16:01:42.44	56.87	11.08	
2025-01-10 16:01:43.27	56.70	11.10	
2025-01-10 16:01:44.10	56.53	11.13	
2025-01-10 16:01:44.92	56.37	11.16	
2025-01-10 16:01:45.73	56.20	11.18	
2025-01-10 16:01:46.55	56.04	11.21	
2025-01-10 16:01:47.37	55.87	11.23	
2025-01-10 16:01:48.19	55.70	11.26	
2025-01-10 16:01:49.01	55.53	11.28	
2025-01-10 16:01:49.83	55.37	11.31	
2025-01-10 16:01:50.66	55.20	11.33	
2025-01-10 16:01:51.49	55.03	11.36	
2025-01-10 16:01:52.31	54.86	11.38	
2025-01-10 16:01:53.13	54.69	11.41	
2025-01-10 16:01:53.95	54.52	11.43	
2025-01-10 16:01:54.77	54.35	11.45	
2025-01-10 16:01:55.59	54.18	11.48	
2025-01-10 16:01:56.41	54.01	11.50	
2025-01-10 16:01:57.23	53.84	11.52	
2025-01-10 16:01:58.05	53.67	11.54	
2025-01-10 16:01:58.87	53.50	11.57	
2025-01-10 16:01:59.70	53.33	11.59	
2025-01-10 16:02:00.52	53.16	11.61	
2025-01-10 16:02:01.36	52.98	11.63	
2025-01-10 16:02:02.18	52.81	11.66	
2025-01-10 16:02:03.00	52.64	11.68	
2025-01-10 16:02:03.84	52.46	11.70	
2025-01-10 16:02:04.66	52.29	11.72	
2025-01-10 16:02:05.47	52.12	11.74	
2025-01-10 16:02:06.29	51.94	11.76	
2025-01-10 16:02:07.12	51.77	11.78	
2025-01-10 16:02:07.93	51.60	11.80	
2025-01-10 16:02:08.75	51.42	11.82	
2025-01-10 16:02:09.57	51.25	11.84	
2025-01-10 16:02:10.39	51.07	11.86	
2025-01-10 16:02:11.21	50.90	11.88	
2025-01-10 16:02:12.03	50.72	11.90	
2025-01-10 16:02:12.85	50.55	11.92	
2025-01-10 16:02:13.68	50.37	11.94	
2025-01-10 16:02:14.50	50.20	11.95	
2025-01-10 16:02:15.31	50.02	11.97	
2025-01-10 16:02:16.13	49.85	11.99	
2025-01-10 16:02:16.96	49.67	12.01	
2025-01-10 16:02:17.78	49.49	12.03	
2025-01-10 16:02:18.60	49.31	12.04	
2025-01-10 16:02:19.42	49.14	12.06	
2025-01-10 16:02:20.24	48.96	12.08	
2025-01-10 16:02:21.06	48.78	12.09	
2025-01-10 16:02:21.88	48.60	12.11	
2025-01-10 16:02:22.70	48.43	12.12	
2025-01-10 16:02:23.53	48.25	12.14	
2025-01-10 16:02:24.36	48.07	12.16	
2025-01-10 16:02:25.19	47.89	12.17	
2025-01-10 16:02:26.01	47.71	12.19	
2025-01-10 16:02:26.83	47.53	12.20	
2025-01-10 16:02:27.65	47.35	12.21	
2025-01-10 16:02:28.47	47.17	12.23	
2025-01-10 16:02:29.29	46.99	12.24	
2025-01-10 16:02:30.11	46.81	12.26	
2025-01-10 16:02:30.93	46.63	12.27	
2025-01-10 16:02:31.75	46.45	12.28	
2025-01-10 16:02:32.57	46.27	12.30	
2025-01-10 16:02:33.39	46.09	12.31	
2025-01-10 16:02:34.21	45.91	12.32	
2025-01-10 16:02:35.04	45.73	12.33	
2025-01-10 16:02:35.85	45.55	12.34	
2025-01-10 16:02:36.68	45.37	12.36	
2025-01-10 16:02:37.51	45.18	12.37	
2025-01-10 16:02:38.33	45.00	12.38	
2025-01-10 16:02:39.15	44.82	12.39	
2025-01-10 16:02:39.97	44.64	12.40	
2025-01-10 16:02:40.79	44.46	12.41	
2025-01-10 16:02:41.61	44.27	12.42	
2025-01-10 16:02:42.43	44.09	12.43	
2025-01-10 16:02:43.25	43.91	12.44	
2025-01-10 16:02:44.07	43.73	12.45	
2025-01-10 16:02:44.89	43.55	12.46	
2025-01-10 16:02:45.70	43.37	12.47	
2025-01-10 16:02:46.52	43.18	12.48	
2025-01-10 16:02:47.34	43.00	12.48	
2025-01-10 16:02:48.16	42.82	12.49	
2025-01-10 16:02:48.99	42.63	12.50	
2025-01-10 16:02:49.81	42.45	12.51	
2025-01-10 16:02:50.63	42.27	12.51	
2025-01-10 16:02:51.44	42.09	12.52	
2025-01-10 16:02:52.26	41.90	12.53	
2025-01-10 16:02:53.08	41.72	12.53	
2025-01-10 16:02:53.90	41.54	12.54	
2025-01-10 16:02:54.73	41.35	12.55	
2025-01-10 16:02:55.54	41.17	12.55	
2025-01-10 16:02:56.37	40.98	12.56	
2025-01-10 16:02:57.18	40.80	12.56	
2025-01-10 16:02:58.00	40.62	12.57	
2025-01-10 16:02:58.82	40.43	12.57	
2025-01-10 16:02:59.65	40.25	12.57	
2025-01-10 16:03:00.46	40.07	12.58	
2025-01-10 16:03:01.28	39.88	12.58	
2025-01-10 16:03:02.10	39.70	12.59	
2025-01-10 16:03:02.93	39.51	12.59	
2025-01-10 16:03:03.75	39.33	12.59	
2025-01-10 16:03:04.57	39.14	12.59	
2025-01-10 16:03:05.40	38.96	12.60	
2025-01-10 16:03:06.22	38.77	12.60	
2025-01-10 16:03:07.04	38.59	12.60	
2025-01-10 16:03:07.86	38.41	12.60	
2025-01-10 16:03:08.68	38.22	12.60	
2025-01-10 16:03:09.52	38.03	12.60	
2025-01-10 16:03:10.34	37.85	12.60	
2025-01-10 16:03:11.16	37.66	12.60	
2025-01-10 16:03:11.98	37.48	12.60	
2025-01-10 16:03:12.80	37.30	12.60	
2025-01-10 16:03:13.62	37.11	12.60	
2025-01-10 16:03:14.44	36.93	12.60	
2025-01-10 16:03:15.26	36.74	12.60	
2025-01-10 16:03:16.08	36.56	12.60	
2025-01-10 16:03:16.90	36.37	12.60	
2025-01-10 16:03:17.73	36.19	12.60	
2025-01-10 16:03:18.55	36.00	12.59	
2025-01-10 16:03:19.38	35.82	12.59	
2025-01-10 16:03:20.20	35.63	12.59	
2025-01-10 16:03:21.02	35.45	12.59	
2025-01-10 16:03:21.84	35.27	12.58	
2025-01-10 16:03:22.68	35.08	12.58	
2025-01-10 16:03:23.49	34.90	12.58	
2025-01-10 16:03:24.32	34.71	12.57	
2025-01-10 16:03:25.15	34.52	12.57	
2025-01-10 16:03:25.97	34.34	12.56	
2025-01-10 16:03:26.79	34.16	12.56	
2025-01-10 16:03:27.62	33.97	12.55	
2025-01-10 16:03:28.45	33.78	12.55	
2025-01-10 16:03:29.26	33.60	12.54	
2025-01-10 16:03:30.08	33.42	12.53	
2025-01-10 16:03:30.89	33.24	12.53	
2025-01-10 16:03:31.72	33.05	12.52	
2025-01-10 16:03:32.54	32.87	12.51	
2025-01-10 16:03:33.36	32.69	12.51	
2025-01-10 16:03:34.18	32.51	12.50	
2025-01-10 16:03:35.00	32.32	12.49	
2025-01-10 16:03:35.82	32.14	12.48	
2025-01-10 16:03:36.63	31.96	12.48	
2025-01-10 16:03:37.45	31.78	12.47	
2025-01-10 16:03:38.27	31.60	12.46	
2025-01-10 16:03:39.10	31.41	12.45	
2025-01-10 16:03:39.92	31.23	12.44	
2025-01-10 16:03:40.74	31.05	12.43	
2025-01-10 16:03:41.56	30.87	12.42	
2025-01-10 16:03:42.38	30.68	12.41	
2025-01-10 16:03:43.20	30.50	12.40	
2025-01-10 16:03:44.02	30.32	12.39	
2025-01-10 16:03:44.84	30.14	12.38	
2025-01-10 16:03:45.66	29.96	12.37	
2025-01-10 16:03:46.50	29.77	12.36	
2025-01-10 16:03:47.32	29.59	12.35	
2025-01-10 16:03:48.14	29.41	12.33	
2025-01-10 16:03:48.95	29.23	12.32	
2025-01-10 16:03:49.78	29.05	12.31	
2025-01-10 16:03:50.60	28.87	12.30	
2025-01-10 16:03:51.42	28.69	12.28	
2025-01-10 16:03:52.24	28.51	12.27	
2025-01-10 16:03:53.06	28.33	12.26	
2025-01-10 16:03:53.88	28.15	12.24	
2025-01-10 16:03:54.70	27.97	12.23	
2025-01-10 16:03:55.52	27.79	12.22	
2025-01-10 16:03:56.34	27.62	12.20	
2025-01-10 16:03:57.18	27.43	12.19	
2025-01-10 16:03:58.00	27.25	12.17	
2025-01-10 16:03:58.82	27.08	12.16	
2025-01-10 16:03:59.63	26.90	12.14	
2025-01-10 16:04:00.45	26.72	12.13	
2025-01-10 16:04:01.27	26.54	12.11	
2025-01-10 16:04:02.09	26.37	12.09	
2025-01-10 16:04:02.91	26.19	12.08	
2025-01-10 16:04:03.73	26.01	12.06	
2025-01-10 16:04:04.55	25.84	12.04	
2025-01-10 16:04:05.37	25.66	12.03	
2025-01-10 16:04:06.19	25.48	12.01	
2025-01-10 16:04:07.02	25.30	11.99	
2025-01-10 16:04:07.84	25.13	11.97	
2025-01-10 16:04:08.65	24.96	11.96	
2025-01-10 16:04:09.48	24.78	11.94	
2025-01-10 16:04:10.29	24.60	11.92	
2025-01-10 16:04:11.12	24.43	11.90	
2025-01-10 16:04:11.94	24.25	11.88	
2025-01-10 16:04:12.76	24.08	11.86	
2025-01-10 16:04:13.57	23.91	11.84	
2025-01-10 16:04:14.39	23.73	11.82	
2025-01-10 16:04:15.21	23.56	11.81	
2025-01-10 16:04:16.03	23.39	11.79	
2025-01-10 16:04:16.85	23.21	11.76	
2025-01-10 16:04:17.67	23.04	11.74	
2025-01-10 16:04:18.51	22.86	11.72	
2025-01-10 16:04:19.33	22.69	11.70	
2025-01-10 16:04:20.15	22.52	11.68	
2025-01-10 16:04:20.97	22.35	11.66	
2025-01-10 16:04:21.79	22.18	11.64	
2025-01-10 16:04:22.61	22.00	11.62	
2025-01-10 16:04:23.43	21.83	11.59	
2025-01-10 16:04:24.25	21.66	11.57	
2025-01-10 16:04:25.07	21.49	11.55	
2025-01-10 16:04:25.89	21.32	11.53	
2025-01-10 16:04:26.71	21.15	11.50	
2025-01-10 16:04:27.53	20.98	11.48	
2025-01-10 16:04:28.35	20.81	11.46	
2025-01-10 16:04:29.17	20.64	11.43	
2025-01-10 16:04:29.99	20.48	11.41	
2025-01-10 16:04:30.81	20.31	11.39	
2025-01-10 16:04:31.63	20.14	11.36	
2025-01-10 16:04:32.45	19.97	11.34	
2025-01-10 16:04:33.29	19.80	11.31	
2025-01-10 16:04:34.12	19.63	11.29	
2025-01-10 16:04:34.94	19.46	11.26	
2025-01-10 16:04:35.77	19.30	11.24	
2025-01-10 16:04:36.59	19.13	11.21	
2025-01-10 16:04:37.40	18.97	11.19	
2025-01-10 16:04:38.23	18.80	11.16	
2025-01-10 16:04:39.05	18.63	11.14	
2025-01-10 16:04:39.88	18.47	11.11	
2025-01-10 16:04:40.70	18.30	11.08	
2025-01-10 16:04:41.55	18.13	11.06	
2025-01-10 16:04:42.37	17.97	11.03	
2025-01-10 16:04:43.19	17.80	11.00	
2025-01-10 16:04:44.02	17.64	10.98	
2025-01-10 16:04:44.84	17.48	10.95	
2025-01-10 16:04:45.67	17.31	10.92	
2025-01-10 16:04:46.50	17.15	10.89	
2025-01-10 16:04:47.31	16.99	10.87	
2025-01-10 16:04:48.13	16.83	10.84	
2025-01-10 16:04:48.95	16.66	10.81	
2025-01-10 16:04:49.78	16.50	10.78	
2025-01-10 16:04:50.60	16.34	10.75	
2025-01-10 16:04:51.42	16.18	10.72	
2025-01-10 16:04:52.24	16.02	10.70	
2025-01-10 16:04:53.06	15.86	10.67	
2025-01-10 16:04:53.88	15.70	10.64	
2025-01-10 16:04:54.70	15.54	10.61	
2025-01-10 16:04:55.52	15.38	10.58	
2025-01-10 16:04:56.34	15.23	10.55	
2025-01-10 16:04:57.16	15.07	10.52	
2025-01-10 16:04:57.98	14.91	10.49	
2025-01-10 16:04:58.81	14.75	10.46	
2025-01-10 16:04:59.63	14.60	10.43	
2025-01-10 16:05:00.45	14.44	10.40	
2025-01-10 16:05:01.27	14.28	10.37	
2025-01-10 16:05:02.11	14.12	10.34	
2025-01-10 16:05:02.93	13.97	10.31	
2025-01-10 16:05:03.75	13.81	10.28	
2025-01-10 16:05:04.57	13.66	10.25	
2025-01-10 16:05:05.39	13.50	10.21	
2025-01-10 16:05:06.21	13.35	10.18	
2025-01-10 16:05:07.02	13.20	10.15	
2025-01-10 16:05:07.86	13.04	10.12	
2025-01-10 16:05:08.68	12.89	10.09	
2025-01-10 16:05:09.50	12.74	10.06	
2025-01-10 16:05:10.31	12.59	10.02	
2025-01-10 16:05:11.13	12.44	9.99	
2025-01-10 16:05:11.95	12.28	9.96	
2025-01-10 16:05:12.77	12.13	9.93	
2025-01-10 16:05:13.59	11.98	9.89	
2025-01-10 16:05:14.41	11.83	9.86	
2025-01-10 16:05:15.23	11.68	9.83	
2025-01-10 16:05:16.05	11.53	9.80	
2025-01-10 16:05:16.87	11.38	9.76	
2025-01-10 16:05:17.70	11.23	9.73	
2025-01-10 16:05:18.53	11.08	9.70	
2025-01-10 16:05:19.35	10.94	9.66	
2025-01-10 16:05:20.17	10.79	9.63	
2025-01-10 16:05:20.99	10.64	9.60	
2025-01-10 16:05:21.81	10.49	9.56	
2025-01-10 16:05:22.63	10.35	9.53	
2025-01-10 16:05:23.45	10.20	9.49	
2025-01-10 16:05:24.28	10.05	9.46	
2025-01-10 16:05:25.12	9.90	9.42	
2025-01-10 16:05:25.94	9.76	9.39	
2025-01-10 16:05:26.76	9.62	9.35	
2025-01-10 16:05:27.58	9.47	9.32	
2025-01-10 16:05:28.39	9.33	9.29	
2025-01-10 16:05:29.22	9.18	9.25	
2025-01-10 16:05:30.04	9.04	9.22	
2025-01-10 16:05:30.86	8.90	9.18	
2025-01-10 16:05:31.68	8.76	9.15	
2025-01-10 16:05:32.50	8.61	9.11	
2025-01-10 16:05:33.32	8.47	9.07	
2025-01-10 16:05:34.14	8.33	9.04	
2025-01-10 16:05:34.96	8.19	9.00	
2025-01-10 16:05:35.79	8.05	8.97	
2025-01-10 16:05:36.61	7.91	8.93	
2025-01-10 16:05:37.44	7.77	8.90	
2025-01-10 16:05:38.26	7.63	8.86	
2025-01-10 16:05:39.10	7.49	8.82	
2025-01-10 16:05:39.92	7.35	8.79	
2025-01-10 16:05:40.74	7.21	8.75	
2025-01-10 16:05:41.56	7.07	8.71	
2025-01-10 16:05:42.38	6.93	8.68	
2025-01-10 16:05:43.20	6.80	8.64	
2025-01-10 16:05:44.02	6.66	8.60	
2025-01-10 16:05:44.84	6.52	8.57	
2025-01-10 16:05:45.66	6.39	8.53	
2025-01-10 16:05:46.48	6.25	8.49	
2025-01-10 16:05:47.30	6.12	8.46	
2025-01-10 16:05:48.12	5.98	8.42	
2025-01-10 16:05:48.94	5.85	8.38	
2025-01-10 16:05:49.76	5.71	8.35	
2025-01-10 16:05:50.59	5.58	8.31	
2025-01-10 16:05:51.41	5.45	8.27	
2025-01-10 16:05:52.22	5.32	8.23	
2025-01-10 16:05:53.06	5.18	8.20	
2025-01-10 16:05:53.88	5.05	8.16	
2025-01-10 16:05:54.70	4.92	8.12	
2025-01-10 16:05:55.53	4.78	8.08	
2025-01-10 16:05:56.35	4.65	8.04	
2025-01-10 16:05:57.19	4.52	8.01	
2025-01-10 16:05:58.01	4.39	7.97	
2025-01-10 16:05:58.83	4.26	7.93	
2025-01-10 16:05:59.65	4.13	7.89	
2025-01-10 16:06:00.47	4.00	7.85	
2025-01-10 16:06:01.30	3.87	7.82	
2025-01-10 16:06:02.13	3.74	7.78	
2025-01-10 16:06:02.95	3.61	7.74	
2025-01-10 16:06:03.77	3.48	7.70	
2025-01-10 16:06:04.60	3.36	7.66	
2025-01-10 16:06:05.43	3.23	7.62	
2025-01-10 16:06:06.25	3.10	7.58	
2025-01-10 16:06:07.07	2.97	7.54	
2025-01-10 16:06:07.89	2.85	7.51	
2025-01-10 16:06:08.71	2.72	7.47	
2025-01-10 16:06:09.53	2.60	7.43	
2025-01-10 16:06:10.35	2.47	7.39	
2025-01-10 16:06:11.16	2.35	7.35	
2025-01-10 16:06:11.99	2.23	7.31	
2025-01-10 16:06:12.82	2.10	7.27	
2025-01-10 16:06:13.64	1.98	7.23	
2025-01-10 16:06:14.47	1.85	7.19	
2025-01-10 16:06:15.28	1.73	7.16	
2025-01-10 16:06:16.10	1.61	7.12	
2025-01-10 16:06:16.92	1.49	7.08	
2025-01-10 16:06:17.74	1.37	7.04	
2025-01-10 16:06:18.57	1.25	7.00	
2025-01-10 16:06:19.40	1.12	6.96	
2025-01-10 16:06:20.21	1.01	6.92	
2025-01-10 16:06:21.03	0.89	6.88	
2025-01-10 16:06:21.85	0.77	6.84	
2025-01-10 16:06:22.68	0.65	6.80	
2025-01-10 16:06:23.50	0.53	6.76	
2025-01-10 16:06:24.32	0.41	6.72	
2025-01-10 16:06:25.14	0.29	6.68	
2025-01-10 16:06:25.96	0.17	6.64	
2025-01-10 16:06:26.78	0.06	6.60	
2025-01-10 16:06:27.60	359.94	6.56	
2025-01-10 16:06:28.42	359.82	6.52	
2025-01-10 16:06:29.24	359.71	6.48	
2025-01-10 16:06:30.06	359.59	6.44	
2025-01-10 16:06:30.88	359.47	6.40	
2025-01-10 16:06:31.70	359.36	6.36	
2025-01-10 16:06:32.52	359.24	6.32	
2025-01-10 16:06:33.34	359.13	6.28	
2025-01-10 16:06:34.18	359.01	6.24	
2025-01-10 16:06:35.01	358.90	6.20	
2025-01-10 16:06:35.83	358.78	6.16	
2025-01-10 16:06:36.65	358.67	6.12	
2025-01-10 16:06:37.47	358.56	6.08	
2025-01-10 16:06:38.29	358.45	6.04	
2025-01-10 16:06:39.11	358.33	6.00	
2025-01-10 16:06:39.93	358.22	5.96	
2025-01-10 16:06:40.75	358.11	5.92	
2025-01-10 16:06:41.57	358.00	5.88	
2025-01-10 16:06:42.39	357.89	5.84	
2025-01-10 16:06:43.21	357.78	5.80	
2025-01-10 16:06:44.03	357.67	5.76	
2025-01-10 16:06:44.85	357.56	5.72	
2025-01-10 16:06:45.67	357.45	5.68	
2025-01-10 16:06:46.49	357.34	5.64	
2025-01-10 16:06:47.31	357.23	5.60	
2025-01-10 16:06:48.13	357.13	5.55	
2025-01-10 16:06:48.95	357.02	5.51	
2025-01-10 16:06:49.76	356.91	5.47	
2025-01-10 16:06:50.58	356.80	5.43	
2025-01-10 16:06:51.40	356.70	5.39	
2025-01-10 16:06:52.22	356.59	5.35	
2025-01-10 16:06:53.04	356.48	5.31	
2025-01-10 16:06:53.86	356.38	5.27	
2025-01-10 16:06:54.68	356.27	5.23	
2025-01-10 16:06:55.50	356.17	5.19	
2025-01-10 16:06:56.32	356.06	5.15	
2025-01-10 16:06:57.16	355.96	5.11	
2025-01-10 16:06:57.98	355.85	5.07	
2025-01-10 16:06:58.80	355.75	5.03	
2025-01-10 16:06:59.62	355.64	4.99	
2025-01-10 16:07:00.44	355.54	4.94	
2025-01-10 16:07:01.26	355.44	4.90	
2025-01-10 16:07:02.08	355.33	4.86	
2025-01-10 16:07:02.90	355.23	4.82	
2025-01-10 16:07:03.72	355.13	4.78	
2025-01-10 16:07:04.54	355.03	4.74	
2025-01-10 16:07:05.36	354.93	4.70	
2025-01-10 16:07:06.18	354.83	4.66	
2025-01-10 16:07:07.01	354.72	4.62	
2025-01-10 16:07:07.85	354.62	4.58	
2025-01-10 16:07:08.67	354.52	4.53	
2025-01-10 16:07:09.49	354.42	4.49	
2025-01-10 16:07:10.31	354.32	4.45	
2025-01-10 16:07:11.13	354.22	4.41	
2025-01-10 16:07:11.94	354.13	4.37	
2025-01-10 16:07:12.76	354.03	4.33	
2025-01-10 16:07:13.59	353.93	4.29	
2025-01-10 16:07:14.40	353.83	4.25	
2025-01-10 16:07:15.22	353.73	4.21	
2025-01-10 16:07:16.05	353.63	4.17	
2025-01-10 16:07:16.87	353.54	4.13	
2025-01-10 16:07:17.69	353.44	4.08	
2025-01-10 16:07:18.51	353.34	4.04	
2025-01-10 16:07:19.33	353.25	4.00	

#Closed at: 2025-01-10 16:07:19