passes_logs/2025/01/10/SPB_Silybum_02/SPB_Silybum_02__20250110_205209_TERRA_rec.log

#Pass ID: 20250110_205209_TERRA
#Satellite: TERRA
#Configuration: TERRA
#Start time: 2025-01-10 20:52:08

#Version: 2.0.20230423
#Station: SPB_Silybum_02
#Location: 30.233357 lon 59.946436 lat
#TLE: 1 25994U 99068A   25009.84464495  .00000861  00000+0  18726-3 0  9992
#TLE: 2 25994  98.0226  73.0387 0003560  82.8900 338.1382 14.60385144333325

#Time	Az	El	Level	Level2	SNR	BER	Gain	Gain2
2025-01-10 20:52:10.81	242.20	4.07	
2025-01-10 20:52:11.63	242.31	4.10	
2025-01-10 20:52:12.45	242.42	4.14	
2025-01-10 20:52:13.27	242.53	4.17	
2025-01-10 20:52:14.09	242.64	4.21	
2025-01-10 20:52:14.91	242.75	4.24	
2025-01-10 20:52:15.73	242.86	4.28	
2025-01-10 20:52:16.54	242.97	4.31	
2025-01-10 20:52:17.37	243.08	4.35	
2025-01-10 20:52:18.18	243.19	4.38	
2025-01-10 20:52:19.00	243.30	4.42	
2025-01-10 20:52:19.82	243.41	4.45	
2025-01-10 20:52:20.66	243.53	4.49	
2025-01-10 20:52:21.49	243.64	4.53	
2025-01-10 20:52:22.31	243.75	4.56	
2025-01-10 20:52:23.13	243.87	4.59	
2025-01-10 20:52:23.96	243.98	4.63	
2025-01-10 20:52:24.78	244.09	4.66	
2025-01-10 20:52:25.61	244.21	4.70	
2025-01-10 20:52:26.43	244.32	4.73	
2025-01-10 20:52:27.25	244.44	4.77	
2025-01-10 20:52:28.07	244.55	4.80	
2025-01-10 20:52:28.89	244.67	4.84	
2025-01-10 20:52:29.71	244.78	4.87	
2025-01-10 20:52:30.54	244.90	4.91	
2025-01-10 20:52:31.36	245.01	4.94	
2025-01-10 20:52:32.17	245.13	4.98	
2025-01-10 20:52:33.00	245.25	5.01	
2025-01-10 20:52:33.81	245.36	5.04	
2025-01-10 20:52:34.64	245.48	5.08	
2025-01-10 20:52:35.46	245.60	5.11	
2025-01-10 20:52:36.28	245.71	5.15	
2025-01-10 20:52:37.10	245.83	5.18	
2025-01-10 20:52:37.92	245.95	5.22	
2025-01-10 20:52:38.74	246.07	5.25	
2025-01-10 20:52:39.56	246.19	5.28	
2025-01-10 20:52:40.38	246.31	5.32	
2025-01-10 20:52:41.21	246.43	5.35	
2025-01-10 20:52:42.03	246.55	5.39	
2025-01-10 20:52:42.85	246.67	5.42	
2025-01-10 20:52:43.67	246.79	5.45	
2025-01-10 20:52:44.49	246.91	5.49	
2025-01-10 20:52:45.31	247.03	5.52	
2025-01-10 20:52:46.13	247.15	5.55	
2025-01-10 20:52:46.97	247.27	5.59	
2025-01-10 20:52:47.78	247.39	5.62	
2025-01-10 20:52:48.61	247.52	5.65	
2025-01-10 20:52:49.43	247.64	5.69	
2025-01-10 20:52:50.24	247.76	5.72	
2025-01-10 20:52:51.06	247.88	5.75	
2025-01-10 20:52:51.89	248.01	5.79	
2025-01-10 20:52:52.71	248.13	5.82	
2025-01-10 20:52:53.53	248.25	5.85	
2025-01-10 20:52:54.34	248.38	5.89	
2025-01-10 20:52:55.16	248.50	5.92	
2025-01-10 20:52:55.99	248.63	5.95	
2025-01-10 20:52:56.82	248.75	5.99	
2025-01-10 20:52:57.64	248.88	6.02	
2025-01-10 20:52:58.46	249.00	6.05	
2025-01-10 20:52:59.28	249.13	6.08	
2025-01-10 20:53:00.10	249.26	6.12	
2025-01-10 20:53:00.92	249.38	6.15	
2025-01-10 20:53:01.74	249.51	6.18	
2025-01-10 20:53:02.56	249.64	6.21	
2025-01-10 20:53:03.38	249.76	6.25	
2025-01-10 20:53:04.22	249.89	6.28	
2025-01-10 20:53:05.04	250.02	6.31	
2025-01-10 20:53:05.86	250.15	6.34	
2025-01-10 20:53:06.68	250.28	6.37	
2025-01-10 20:53:07.50	250.41	6.41	
2025-01-10 20:53:08.32	250.54	6.44	
2025-01-10 20:53:09.14	250.66	6.47	
2025-01-10 20:53:09.96	250.79	6.50	
2025-01-10 20:53:10.78	250.92	6.53	
2025-01-10 20:53:11.59	251.05	6.56	
2025-01-10 20:53:12.41	251.18	6.60	
2025-01-10 20:53:13.24	251.32	6.63	
2025-01-10 20:53:14.06	251.45	6.66	
2025-01-10 20:53:14.88	251.58	6.69	
2025-01-10 20:53:15.70	251.71	6.72	
2025-01-10 20:53:16.52	251.84	6.75	
2025-01-10 20:53:17.34	251.97	6.78	
2025-01-10 20:53:18.16	252.11	6.81	
2025-01-10 20:53:18.98	252.24	6.85	
2025-01-10 20:53:19.80	252.37	6.88	
2025-01-10 20:53:20.63	252.51	6.91	
2025-01-10 20:53:21.45	252.64	6.94	
2025-01-10 20:53:22.27	252.78	6.97	
2025-01-10 20:53:23.08	252.91	7.00	
2025-01-10 20:53:23.90	253.04	7.03	
2025-01-10 20:53:24.73	253.18	7.06	
2025-01-10 20:53:25.55	253.31	7.09	
2025-01-10 20:53:26.37	253.45	7.12	
2025-01-10 20:53:27.19	253.59	7.15	
2025-01-10 20:53:28.01	253.72	7.18	
2025-01-10 20:53:28.83	253.86	7.21	
2025-01-10 20:53:29.66	254.00	7.24	
2025-01-10 20:53:30.48	254.13	7.27	
2025-01-10 20:53:31.30	254.27	7.30	
2025-01-10 20:53:32.12	254.41	7.33	
2025-01-10 20:53:32.94	254.55	7.36	
2025-01-10 20:53:33.76	254.68	7.39	
2025-01-10 20:53:34.58	254.82	7.42	
2025-01-10 20:53:35.40	254.96	7.44	
2025-01-10 20:53:36.22	255.10	7.47	
2025-01-10 20:53:37.04	255.24	7.50	
2025-01-10 20:53:37.87	255.38	7.53	
2025-01-10 20:53:38.69	255.52	7.56	
2025-01-10 20:53:39.51	255.66	7.59	
2025-01-10 20:53:40.33	255.80	7.62	
2025-01-10 20:53:41.15	255.94	7.65	
2025-01-10 20:53:41.97	256.08	7.67	
2025-01-10 20:53:42.79	256.22	7.70	
2025-01-10 20:53:43.61	256.37	7.73	
2025-01-10 20:53:44.43	256.51	7.76	
2025-01-10 20:53:45.25	256.65	7.79	
2025-01-10 20:53:46.07	256.79	7.81	
2025-01-10 20:53:46.89	256.93	7.84	
2025-01-10 20:53:47.71	257.08	7.87	
2025-01-10 20:53:48.53	257.22	7.90	
2025-01-10 20:53:49.35	257.36	7.92	
2025-01-10 20:53:50.18	257.51	7.95	
2025-01-10 20:53:51.00	257.65	7.98	
2025-01-10 20:53:51.82	257.80	8.00	
2025-01-10 20:53:52.64	257.94	8.03	
2025-01-10 20:53:53.45	258.09	8.06	
2025-01-10 20:53:54.27	258.23	8.08	
2025-01-10 20:53:55.09	258.38	8.11	
2025-01-10 20:53:55.92	258.52	8.14	
2025-01-10 20:53:56.74	258.67	8.16	
2025-01-10 20:53:57.56	258.82	8.19	
2025-01-10 20:53:58.38	258.96	8.21	
2025-01-10 20:53:59.20	259.11	8.24	
2025-01-10 20:54:00.02	259.26	8.27	
2025-01-10 20:54:00.84	259.40	8.29	
2025-01-10 20:54:01.66	259.55	8.32	
2025-01-10 20:54:02.49	259.70	8.34	
2025-01-10 20:54:03.31	259.85	8.37	
2025-01-10 20:54:04.13	260.00	8.39	
2025-01-10 20:54:04.95	260.15	8.42	
2025-01-10 20:54:05.76	260.29	8.44	
2025-01-10 20:54:06.59	260.45	8.47	
2025-01-10 20:54:07.41	260.60	8.49	
2025-01-10 20:54:08.23	260.75	8.52	
2025-01-10 20:54:09.04	260.89	8.54	
2025-01-10 20:54:09.87	261.05	8.56	
2025-01-10 20:54:10.70	261.20	8.59	
2025-01-10 20:54:11.52	261.35	8.61	
2025-01-10 20:54:12.33	261.50	8.64	
2025-01-10 20:54:13.15	261.65	8.66	
2025-01-10 20:54:13.98	261.80	8.68	
2025-01-10 20:54:14.80	261.95	8.71	
2025-01-10 20:54:15.62	262.11	8.73	
2025-01-10 20:54:16.43	262.26	8.75	
2025-01-10 20:54:17.25	262.41	8.78	
2025-01-10 20:54:18.07	262.56	8.80	
2025-01-10 20:54:18.91	262.72	8.82	
2025-01-10 20:54:19.73	262.87	8.84	
2025-01-10 20:54:20.55	263.03	8.87	
2025-01-10 20:54:21.37	263.18	8.89	
2025-01-10 20:54:22.19	263.33	8.91	
2025-01-10 20:54:23.01	263.49	8.93	
2025-01-10 20:54:23.83	263.64	8.95	
2025-01-10 20:54:24.65	263.80	8.97	
2025-01-10 20:54:25.47	263.95	9.00	
2025-01-10 20:54:26.29	264.11	9.02	
2025-01-10 20:54:27.11	264.26	9.04	
2025-01-10 20:54:27.93	264.42	9.06	
2025-01-10 20:54:28.75	264.58	9.08	
2025-01-10 20:54:29.58	264.73	9.10	
2025-01-10 20:54:30.39	264.89	9.12	
2025-01-10 20:54:31.22	265.05	9.14	
2025-01-10 20:54:32.04	265.20	9.16	
2025-01-10 20:54:32.86	265.36	9.18	
2025-01-10 20:54:33.68	265.52	9.20	
2025-01-10 20:54:34.50	265.68	9.22	
2025-01-10 20:54:35.32	265.83	9.24	
2025-01-10 20:54:36.14	265.99	9.26	
2025-01-10 20:54:36.96	266.15	9.28	
2025-01-10 20:54:37.78	266.31	9.30	
2025-01-10 20:54:38.60	266.47	9.32	
2025-01-10 20:54:39.42	266.63	9.34	
2025-01-10 20:54:40.24	266.79	9.35	
2025-01-10 20:54:41.08	266.95	9.37	
2025-01-10 20:54:41.90	267.11	9.39	
2025-01-10 20:54:42.72	267.27	9.41	
2025-01-10 20:54:43.54	267.43	9.43	
2025-01-10 20:54:44.37	267.59	9.44	
2025-01-10 20:54:45.19	267.75	9.46	
2025-01-10 20:54:46.01	267.91	9.48	
2025-01-10 20:54:46.83	268.07	9.50	
2025-01-10 20:54:47.65	268.23	9.51	
2025-01-10 20:54:48.47	268.39	9.53	
2025-01-10 20:54:49.29	268.55	9.55	
2025-01-10 20:54:50.11	268.72	9.56	
2025-01-10 20:54:50.94	268.88	9.58	
2025-01-10 20:54:51.76	269.04	9.60	
2025-01-10 20:54:52.58	269.20	9.61	
2025-01-10 20:54:53.41	269.37	9.63	
2025-01-10 20:54:54.23	269.53	9.64	
2025-01-10 20:54:55.04	269.69	9.66	
2025-01-10 20:54:55.87	269.86	9.67	
2025-01-10 20:54:56.69	270.02	9.69	
2025-01-10 20:54:57.51	270.18	9.70	
2025-01-10 20:54:58.33	270.34	9.72	
2025-01-10 20:54:59.15	270.51	9.73	
2025-01-10 20:54:59.98	270.67	9.75	
2025-01-10 20:55:00.80	270.84	9.76	
2025-01-10 20:55:01.61	271.00	9.77	
2025-01-10 20:55:02.43	271.16	9.79	
2025-01-10 20:55:03.25	271.33	9.80	
2025-01-10 20:55:04.08	271.49	9.81	
2025-01-10 20:55:04.89	271.66	9.83	
2025-01-10 20:55:05.72	271.82	9.84	
2025-01-10 20:55:06.55	271.99	9.85	
2025-01-10 20:55:07.38	272.16	9.87	
2025-01-10 20:55:08.20	272.32	9.88	
2025-01-10 20:55:09.03	272.49	9.89	
2025-01-10 20:55:09.85	272.65	9.90	
2025-01-10 20:55:10.68	272.82	9.91	
2025-01-10 20:55:11.49	272.99	9.93	
2025-01-10 20:55:12.31	273.15	9.94	
2025-01-10 20:55:13.15	273.32	9.95	
2025-01-10 20:55:13.97	273.49	9.96	
2025-01-10 20:55:14.79	273.65	9.97	
2025-01-10 20:55:15.63	273.82	9.98	
2025-01-10 20:55:16.45	273.99	9.99	
2025-01-10 20:55:17.27	274.16	10.00	
2025-01-10 20:55:18.09	274.32	10.01	
2025-01-10 20:55:18.92	274.49	10.02	
2025-01-10 20:55:19.75	274.66	10.03	
2025-01-10 20:55:20.57	274.83	10.04	
2025-01-10 20:55:21.40	275.00	10.05	
2025-01-10 20:55:22.24	275.17	10.06	
2025-01-10 20:55:23.05	275.34	10.07	
2025-01-10 20:55:23.88	275.50	10.08	
2025-01-10 20:55:24.70	275.67	10.08	
2025-01-10 20:55:25.52	275.84	10.09	
2025-01-10 20:55:26.34	276.01	10.10	
2025-01-10 20:55:27.16	276.18	10.11	
2025-01-10 20:55:27.98	276.34	10.12	
2025-01-10 20:55:28.80	276.51	10.12	
2025-01-10 20:55:29.62	276.68	10.13	
2025-01-10 20:55:30.44	276.85	10.14	
2025-01-10 20:55:31.26	277.02	10.14	
2025-01-10 20:55:32.08	277.18	10.15	
2025-01-10 20:55:32.90	277.35	10.16	
2025-01-10 20:55:33.72	277.52	10.16	
2025-01-10 20:55:34.54	277.69	10.17	
2025-01-10 20:55:35.37	277.86	10.17	
2025-01-10 20:55:36.19	278.03	10.18	
2025-01-10 20:55:37.01	278.20	10.19	
2025-01-10 20:55:37.83	278.37	10.19	
2025-01-10 20:55:38.65	278.54	10.20	
2025-01-10 20:55:39.47	278.70	10.20	
2025-01-10 20:55:40.29	278.87	10.20	
2025-01-10 20:55:41.11	279.04	10.21	
2025-01-10 20:55:41.93	279.21	10.21	
2025-01-10 20:55:42.75	279.38	10.22	
2025-01-10 20:55:43.57	279.55	10.22	
2025-01-10 20:55:44.39	279.72	10.22	
2025-01-10 20:55:45.21	279.89	10.23	
2025-01-10 20:55:46.04	280.06	10.23	
2025-01-10 20:55:46.86	280.23	10.23	
2025-01-10 20:55:47.68	280.40	10.24	
2025-01-10 20:55:48.49	280.57	10.24	
2025-01-10 20:55:49.33	280.74	10.24	
2025-01-10 20:55:50.15	280.91	10.24	
2025-01-10 20:55:50.97	281.08	10.24	
2025-01-10 20:55:51.79	281.25	10.25	
2025-01-10 20:55:52.61	281.42	10.25	
2025-01-10 20:55:53.43	281.59	10.25	
2025-01-10 20:55:54.26	281.76	10.25	
2025-01-10 20:55:55.08	281.93	10.25	
2025-01-10 20:55:55.89	282.09	10.25	
2025-01-10 20:55:56.71	282.26	10.25	
2025-01-10 20:55:57.53	282.43	10.25	
2025-01-10 20:55:58.35	282.60	10.25	
2025-01-10 20:55:59.18	282.77	10.25	
2025-01-10 20:56:00.01	282.95	10.25	
2025-01-10 20:56:00.84	283.12	10.25	
2025-01-10 20:56:01.65	283.29	10.25	
2025-01-10 20:56:02.48	283.46	10.25	
2025-01-10 20:56:03.30	283.63	10.24	
2025-01-10 20:56:04.12	283.80	10.24	
2025-01-10 20:56:04.94	283.96	10.24	
2025-01-10 20:56:05.76	284.13	10.24	
2025-01-10 20:56:06.60	284.31	10.24	
2025-01-10 20:56:07.42	284.48	10.23	
2025-01-10 20:56:08.24	284.65	10.23	
2025-01-10 20:56:09.06	284.82	10.23	
2025-01-10 20:56:09.89	284.99	10.23	
2025-01-10 20:56:10.72	285.16	10.22	
2025-01-10 20:56:11.55	285.33	10.22	
2025-01-10 20:56:12.38	285.50	10.21	
2025-01-10 20:56:13.20	285.67	10.21	
2025-01-10 20:56:14.02	285.84	10.21	
2025-01-10 20:56:14.84	286.01	10.20	
2025-01-10 20:56:15.66	286.18	10.20	
2025-01-10 20:56:16.49	286.35	10.19	
2025-01-10 20:56:17.31	286.52	10.19	
2025-01-10 20:56:18.13	286.68	10.18	
2025-01-10 20:56:18.96	286.85	10.18	
2025-01-10 20:56:19.78	287.02	10.17	
2025-01-10 20:56:20.60	287.19	10.17	
2025-01-10 20:56:21.41	287.36	10.16	
2025-01-10 20:56:22.24	287.53	10.15	
2025-01-10 20:56:23.06	287.70	10.15	
2025-01-10 20:56:23.88	287.86	10.14	
2025-01-10 20:56:24.70	288.03	10.13	
2025-01-10 20:56:25.52	288.20	10.13	
2025-01-10 20:56:26.34	288.37	10.12	
2025-01-10 20:56:27.17	288.54	10.11	
2025-01-10 20:56:27.99	288.71	10.10	
2025-01-10 20:56:28.81	288.87	10.10	
2025-01-10 20:56:29.64	289.04	10.09	
2025-01-10 20:56:30.46	289.21	10.08	
2025-01-10 20:56:31.28	289.38	10.07	
2025-01-10 20:56:32.10	289.54	10.06	
2025-01-10 20:56:32.92	289.71	10.05	
2025-01-10 20:56:33.74	289.88	10.05	
2025-01-10 20:56:34.56	290.04	10.04	
2025-01-10 20:56:35.38	290.21	10.03	
2025-01-10 20:56:36.20	290.38	10.02	
2025-01-10 20:56:37.02	290.54	10.01	
2025-01-10 20:56:37.84	290.71	10.00	
2025-01-10 20:56:38.66	290.88	9.99	
2025-01-10 20:56:39.48	291.04	9.98	
2025-01-10 20:56:40.30	291.21	9.97	
2025-01-10 20:56:41.11	291.37	9.95	
2025-01-10 20:56:41.94	291.54	9.94	
2025-01-10 20:56:42.76	291.71	9.93	
2025-01-10 20:56:43.58	291.87	9.92	
2025-01-10 20:56:44.42	292.04	9.91	
2025-01-10 20:56:45.24	292.21	9.90	
2025-01-10 20:56:46.06	292.37	9.89	
2025-01-10 20:56:46.88	292.54	9.87	
2025-01-10 20:56:47.70	292.70	9.86	
2025-01-10 20:56:48.52	292.86	9.85	
2025-01-10 20:56:49.36	293.03	9.84	
2025-01-10 20:56:50.20	293.20	9.82	
2025-01-10 20:56:51.02	293.37	9.81	
2025-01-10 20:56:51.86	293.53	9.80	
2025-01-10 20:56:52.68	293.70	9.78	
2025-01-10 20:56:53.50	293.86	9.77	
2025-01-10 20:56:54.32	294.02	9.75	
2025-01-10 20:56:55.14	294.19	9.74	
2025-01-10 20:56:55.96	294.35	9.73	
2025-01-10 20:56:56.78	294.51	9.71	
2025-01-10 20:56:57.60	294.68	9.70	
2025-01-10 20:56:58.42	294.84	9.68	
2025-01-10 20:56:59.25	295.00	9.67	
2025-01-10 20:57:00.06	295.16	9.65	
2025-01-10 20:57:00.88	295.33	9.64	
2025-01-10 20:57:01.70	295.49	9.62	
2025-01-10 20:57:02.54	295.65	9.60	
2025-01-10 20:57:03.36	295.81	9.59	
2025-01-10 20:57:04.20	295.98	9.57	
2025-01-10 20:57:05.02	296.14	9.56	
2025-01-10 20:57:05.84	296.30	9.54	
2025-01-10 20:57:06.66	296.46	9.52	
2025-01-10 20:57:07.49	296.62	9.51	
2025-01-10 20:57:08.31	296.78	9.49	
2025-01-10 20:57:09.13	296.94	9.47	
2025-01-10 20:57:09.95	297.10	9.45	
2025-01-10 20:57:10.78	297.27	9.44	
2025-01-10 20:57:11.61	297.43	9.42	
2025-01-10 20:57:12.43	297.59	9.40	
2025-01-10 20:57:13.25	297.75	9.38	
2025-01-10 20:57:14.07	297.90	9.37	
2025-01-10 20:57:14.89	298.06	9.35	
2025-01-10 20:57:15.71	298.22	9.33	
2025-01-10 20:57:16.53	298.38	9.31	
2025-01-10 20:57:17.35	298.54	9.29	
2025-01-10 20:57:18.17	298.70	9.27	
2025-01-10 20:57:18.99	298.85	9.25	
2025-01-10 20:57:19.82	299.01	9.23	
2025-01-10 20:57:20.64	299.17	9.21	
2025-01-10 20:57:21.46	299.33	9.19	
2025-01-10 20:57:22.27	299.48	9.18	
2025-01-10 20:57:23.09	299.64	9.16	
2025-01-10 20:57:23.91	299.79	9.14	
2025-01-10 20:57:24.75	299.95	9.11	
2025-01-10 20:57:25.57	300.11	9.09	
2025-01-10 20:57:26.40	300.27	9.07	
2025-01-10 20:57:27.22	300.42	9.05	
2025-01-10 20:57:28.04	300.58	9.03	
2025-01-10 20:57:28.86	300.73	9.01	
2025-01-10 20:57:29.68	300.89	8.99	
2025-01-10 20:57:30.51	301.04	8.97	
2025-01-10 20:57:31.34	301.20	8.95	
2025-01-10 20:57:32.16	301.35	8.92	
2025-01-10 20:57:33.00	301.51	8.90	
2025-01-10 20:57:33.82	301.66	8.88	
2025-01-10 20:57:34.64	301.82	8.86	
2025-01-10 20:57:35.46	301.97	8.84	
2025-01-10 20:57:36.28	302.12	8.81	
2025-01-10 20:57:37.11	302.28	8.79	
2025-01-10 20:57:37.94	302.43	8.77	
2025-01-10 20:57:38.77	302.58	8.74	
2025-01-10 20:57:39.59	302.74	8.72	
2025-01-10 20:57:40.41	302.89	8.70	
2025-01-10 20:57:41.23	303.04	8.68	
2025-01-10 20:57:42.06	303.19	8.65	
2025-01-10 20:57:42.88	303.34	8.63	
2025-01-10 20:57:43.70	303.49	8.61	
2025-01-10 20:57:44.52	303.64	8.58	
2025-01-10 20:57:45.34	303.79	8.56	
2025-01-10 20:57:46.16	303.94	8.53	
2025-01-10 20:57:46.98	304.09	8.51	
2025-01-10 20:57:47.80	304.24	8.48	
2025-01-10 20:57:48.62	304.39	8.46	
2025-01-10 20:57:49.45	304.54	8.44	
2025-01-10 20:57:50.29	304.69	8.41	
2025-01-10 20:57:51.11	304.84	8.39	
2025-01-10 20:57:51.93	304.99	8.36	
2025-01-10 20:57:52.75	305.13	8.34	
2025-01-10 20:57:53.57	305.28	8.31	
2025-01-10 20:57:54.39	305.43	8.29	
2025-01-10 20:57:55.21	305.57	8.26	
2025-01-10 20:57:56.03	305.72	8.23	
2025-01-10 20:57:56.86	305.87	8.21	
2025-01-10 20:57:57.68	306.01	8.18	
2025-01-10 20:57:58.50	306.16	8.16	
2025-01-10 20:57:59.32	306.30	8.13	
2025-01-10 20:58:00.16	306.45	8.10	
2025-01-10 20:58:00.98	306.60	8.08	
2025-01-10 20:58:01.80	306.74	8.05	
2025-01-10 20:58:02.62	306.89	8.02	
2025-01-10 20:58:03.44	307.03	8.00	
2025-01-10 20:58:04.26	307.17	7.97	
2025-01-10 20:58:05.10	307.32	7.94	
2025-01-10 20:58:05.92	307.46	7.92	
2025-01-10 20:58:06.74	307.61	7.89	
2025-01-10 20:58:07.56	307.75	7.86	
2025-01-10 20:58:08.39	307.89	7.83	
2025-01-10 20:58:09.21	308.03	7.81	
2025-01-10 20:58:10.03	308.18	7.78	
2025-01-10 20:58:10.85	308.32	7.75	
2025-01-10 20:58:11.67	308.46	7.72	
2025-01-10 20:58:12.49	308.60	7.70	
2025-01-10 20:58:13.31	308.74	7.67	
2025-01-10 20:58:14.14	308.88	7.64	
2025-01-10 20:58:14.96	309.02	7.61	
2025-01-10 20:58:15.79	309.16	7.58	
2025-01-10 20:58:16.61	309.30	7.55	
2025-01-10 20:58:17.43	309.44	7.53	
2025-01-10 20:58:18.25	309.58	7.50	
2025-01-10 20:58:19.07	309.72	7.47	
2025-01-10 20:58:19.89	309.86	7.44	
2025-01-10 20:58:20.71	309.99	7.41	
2025-01-10 20:58:21.53	310.13	7.38	
2025-01-10 20:58:22.35	310.27	7.35	
2025-01-10 20:58:23.18	310.41	7.32	
2025-01-10 20:58:24.00	310.54	7.30	
2025-01-10 20:58:24.82	310.68	7.27	
2025-01-10 20:58:25.65	310.82	7.24	
2025-01-10 20:58:26.46	310.95	7.21	
2025-01-10 20:58:27.28	311.09	7.18	
2025-01-10 20:58:28.11	311.22	7.15	
2025-01-10 20:58:28.93	311.36	7.12	
2025-01-10 20:58:29.75	311.49	7.09	
2025-01-10 20:58:30.58	311.63	7.06	
2025-01-10 20:58:31.41	311.77	7.03	
2025-01-10 20:58:32.23	311.90	7.00	
2025-01-10 20:58:33.05	312.03	6.97	
2025-01-10 20:58:33.87	312.17	6.94	
2025-01-10 20:58:34.69	312.30	6.91	
2025-01-10 20:58:35.51	312.43	6.88	
2025-01-10 20:58:36.33	312.56	6.84	
2025-01-10 20:58:37.15	312.70	6.81	
2025-01-10 20:58:37.97	312.83	6.78	
2025-01-10 20:58:38.79	312.96	6.75	
2025-01-10 20:58:39.62	313.09	6.72	
2025-01-10 20:58:40.45	313.22	6.69	
2025-01-10 20:58:41.27	313.35	6.66	
2025-01-10 20:58:42.09	313.48	6.63	
2025-01-10 20:58:42.92	313.62	6.60	
2025-01-10 20:58:43.74	313.75	6.57	
2025-01-10 20:58:44.56	313.87	6.53	
2025-01-10 20:58:45.38	314.00	6.50	
2025-01-10 20:58:46.20	314.13	6.47	
2025-01-10 20:58:47.02	314.26	6.44	
2025-01-10 20:58:47.84	314.39	6.41	
2025-01-10 20:58:48.66	314.52	6.38	
2025-01-10 20:58:49.48	314.64	6.34	
2025-01-10 20:58:50.31	314.77	6.31	
2025-01-10 20:58:51.14	314.90	6.28	
2025-01-10 20:58:51.96	315.03	6.25	
2025-01-10 20:58:52.78	315.15	6.22	
2025-01-10 20:58:53.60	315.28	6.18	
2025-01-10 20:58:54.43	315.41	6.15	
2025-01-10 20:58:55.24	315.53	6.12	
2025-01-10 20:58:56.07	315.66	6.09	
2025-01-10 20:58:56.89	315.78	6.06	
2025-01-10 20:58:57.71	315.91	6.02	
2025-01-10 20:58:58.53	316.03	5.99	
2025-01-10 20:58:59.36	316.16	5.96	
2025-01-10 20:59:00.20	316.28	5.92	
2025-01-10 20:59:01.02	316.41	5.89	
2025-01-10 20:59:01.84	316.53	5.86	
2025-01-10 20:59:02.66	316.65	5.83	
2025-01-10 20:59:03.48	316.78	5.79	
2025-01-10 20:59:04.30	316.90	5.76	
2025-01-10 20:59:05.12	317.02	5.73	
2025-01-10 20:59:05.94	317.14	5.69	
2025-01-10 20:59:06.76	317.26	5.66	
2025-01-10 20:59:07.57	317.38	5.63	
2025-01-10 20:59:08.42	317.51	5.59	
2025-01-10 20:59:09.23	317.63	5.56	
2025-01-10 20:59:10.07	317.75	5.53	
2025-01-10 20:59:10.91	317.87	5.49	
2025-01-10 20:59:11.73	317.99	5.46	
2025-01-10 20:59:12.55	318.11	5.43	
2025-01-10 20:59:13.37	318.23	5.39	
2025-01-10 20:59:14.19	318.35	5.36	
2025-01-10 20:59:15.01	318.47	5.33	
2025-01-10 20:59:15.83	318.59	5.29	
2025-01-10 20:59:16.68	318.71	5.26	
2025-01-10 20:59:17.52	318.83	5.22	
2025-01-10 20:59:18.34	318.95	5.19	
2025-01-10 20:59:19.17	319.07	5.16	
2025-01-10 20:59:20.01	319.19	5.12	
2025-01-10 20:59:20.82	319.30	5.09	
2025-01-10 20:59:21.65	319.42	5.05	
2025-01-10 20:59:22.47	319.53	5.02	
2025-01-10 20:59:23.29	319.65	4.99	
2025-01-10 20:59:24.12	319.77	4.95	
2025-01-10 20:59:24.94	319.88	4.92	
2025-01-10 20:59:25.76	320.00	4.88	
2025-01-10 20:59:26.59	320.11	4.85	
2025-01-10 20:59:27.41	320.23	4.81	
2025-01-10 20:59:28.23	320.34	4.78	
2025-01-10 20:59:29.05	320.45	4.75	
2025-01-10 20:59:29.87	320.57	4.71	
2025-01-10 20:59:30.70	320.68	4.68	
2025-01-10 20:59:31.52	320.79	4.64	
2025-01-10 20:59:32.34	320.91	4.61	
2025-01-10 20:59:33.16	321.02	4.57	
2025-01-10 20:59:33.98	321.13	4.54	
2025-01-10 20:59:34.80	321.24	4.50	
2025-01-10 20:59:35.62	321.35	4.47	
2025-01-10 20:59:36.44	321.47	4.44	
2025-01-10 20:59:37.26	321.58	4.40	
2025-01-10 20:59:38.08	321.69	4.37	
2025-01-10 20:59:38.90	321.80	4.33	
2025-01-10 20:59:39.71	321.91	4.30	
2025-01-10 20:59:40.53	322.02	4.26	
2025-01-10 20:59:41.35	322.13	4.23	
2025-01-10 20:59:42.18	322.24	4.19	
2025-01-10 20:59:42.99	322.34	4.16	
2025-01-10 20:59:43.82	322.45	4.12	
2025-01-10 20:59:44.64	322.56	4.09	
2025-01-10 20:59:45.46	322.67	4.05	
2025-01-10 20:59:46.28	322.78	4.02	

#Closed at: 2025-01-10 20:59:46