passes_logs/2025/01/10/SPB_Silybum_02/SPB_Silybum_02__20250110_075708_TERRA_rec.log

#Pass ID: 20250110_075708_TERRA
#Satellite: TERRA
#Configuration: TERRA
#Start time: 2025-01-10 07:57:08

#Version: 2.0.20230423
#Station: SPB_Silybum_02
#Location: 30.233357 lon 59.946436 lat
#TLE: 1 25994U 99068A   25009.84464495  .00000861  00000+0  18726-3 0  9992
#TLE: 2 25994  98.0226  73.0387 0003560  82.8900 338.1382 14.60385144333325

#Time	Az	El	Level	Level2	SNR	BER	Gain	Gain2
2025-01-10 07:57:10.88	18.98	4.17	
2025-01-10 07:57:12.12	19.02	4.26	
2025-01-10 07:57:13.36	19.05	4.35	
2025-01-10 07:57:14.59	19.09	4.44	
2025-01-10 07:57:15.82	19.12	4.53	
2025-01-10 07:57:17.05	19.16	4.61	
2025-01-10 07:57:18.28	19.19	4.70	
2025-01-10 07:57:19.52	19.23	4.79	
2025-01-10 07:57:20.75	19.27	4.88	
2025-01-10 07:57:21.98	19.30	4.97	
2025-01-10 07:57:23.22	19.34	5.06	
2025-01-10 07:57:24.45	19.38	5.15	
2025-01-10 07:57:25.68	19.41	5.25	
2025-01-10 07:57:26.91	19.45	5.34	
2025-01-10 07:57:28.14	19.49	5.43	
2025-01-10 07:57:29.39	19.53	5.52	
2025-01-10 07:57:30.61	19.56	5.61	
2025-01-10 07:57:31.84	19.60	5.71	
2025-01-10 07:57:33.07	19.64	5.80	
2025-01-10 07:57:34.30	19.68	5.89	
2025-01-10 07:57:35.52	19.72	5.99	
2025-01-10 07:57:36.75	19.76	6.08	
2025-01-10 07:57:37.97	19.79	6.17	
2025-01-10 07:57:39.22	19.83	6.27	
2025-01-10 07:57:40.46	19.87	6.37	
2025-01-10 07:57:41.69	19.91	6.46	
2025-01-10 07:57:42.92	19.96	6.56	
2025-01-10 07:57:44.15	20.00	6.65	
2025-01-10 07:57:45.38	20.04	6.75	
2025-01-10 07:57:46.61	20.08	6.85	
2025-01-10 07:57:47.84	20.12	6.95	
2025-01-10 07:57:49.07	20.16	7.04	
2025-01-10 07:57:50.30	20.20	7.14	
2025-01-10 07:57:51.53	20.24	7.24	
2025-01-10 07:57:52.76	20.29	7.34	
2025-01-10 07:57:53.99	20.33	7.44	
2025-01-10 07:57:55.22	20.37	7.54	
2025-01-10 07:57:56.46	20.41	7.64	
2025-01-10 07:57:57.70	20.46	7.74	
2025-01-10 07:57:58.94	20.50	7.84	
2025-01-10 07:58:00.17	20.55	7.95	
2025-01-10 07:58:01.41	20.59	8.05	
2025-01-10 07:58:02.66	20.64	8.15	
2025-01-10 07:58:03.89	20.68	8.26	
2025-01-10 07:58:05.13	20.73	8.36	
2025-01-10 07:58:06.36	20.77	8.47	
2025-01-10 07:58:07.59	20.82	8.57	
2025-01-10 07:58:08.81	20.86	8.67	
2025-01-10 07:58:10.04	20.91	8.78	
2025-01-10 07:58:11.27	20.96	8.89	
2025-01-10 07:58:12.50	21.00	8.99	
2025-01-10 07:58:13.73	21.05	9.10	
2025-01-10 07:58:14.96	21.10	9.21	
2025-01-10 07:58:16.19	21.15	9.32	
2025-01-10 07:58:17.42	21.20	9.42	
2025-01-10 07:58:18.66	21.25	9.53	
2025-01-10 07:58:19.89	21.29	9.64	
2025-01-10 07:58:21.12	21.34	9.75	
2025-01-10 07:58:22.35	21.39	9.86	
2025-01-10 07:58:23.58	21.44	9.98	
2025-01-10 07:58:24.81	21.50	10.09	
2025-01-10 07:58:26.04	21.55	10.20	
2025-01-10 07:58:27.27	21.60	10.31	
2025-01-10 07:58:28.50	21.65	10.43	
2025-01-10 07:58:29.74	21.70	10.54	
2025-01-10 07:58:30.98	21.75	10.66	
2025-01-10 07:58:32.21	21.81	10.77	
2025-01-10 07:58:33.44	21.86	10.89	
2025-01-10 07:58:34.67	21.91	11.00	
2025-01-10 07:58:35.92	21.97	11.12	
2025-01-10 07:58:37.15	22.02	11.24	
2025-01-10 07:58:38.38	22.08	11.36	
2025-01-10 07:58:39.60	22.13	11.47	
2025-01-10 07:58:40.84	22.19	11.60	
2025-01-10 07:58:42.07	22.25	11.72	
2025-01-10 07:58:43.30	22.30	11.84	
2025-01-10 07:58:44.54	22.36	11.96	
2025-01-10 07:58:45.78	22.42	12.08	
2025-01-10 07:58:47.02	22.48	12.20	
2025-01-10 07:58:48.25	22.54	12.33	
2025-01-10 07:58:49.48	22.60	12.45	
2025-01-10 07:58:50.71	22.66	12.58	
2025-01-10 07:58:51.95	22.72	12.70	
2025-01-10 07:58:53.19	22.78	12.83	
2025-01-10 07:58:54.43	22.84	12.96	
2025-01-10 07:58:55.66	22.90	13.08	
2025-01-10 07:58:56.89	22.96	13.21	
2025-01-10 07:58:58.12	23.03	13.34	
2025-01-10 07:58:59.35	23.09	13.47	
2025-01-10 07:59:00.58	23.15	13.60	
2025-01-10 07:59:01.81	23.22	13.73	
2025-01-10 07:59:03.03	23.28	13.86	
2025-01-10 07:59:04.26	23.35	14.00	
2025-01-10 07:59:05.49	23.41	14.13	
2025-01-10 07:59:06.74	23.48	14.27	
2025-01-10 07:59:07.97	23.55	14.40	
2025-01-10 07:59:09.19	23.62	14.54	
2025-01-10 07:59:10.43	23.69	14.67	
2025-01-10 07:59:11.65	23.75	14.81	
2025-01-10 07:59:12.90	23.82	14.95	
2025-01-10 07:59:14.13	23.89	15.09	
2025-01-10 07:59:15.37	23.97	15.23	
2025-01-10 07:59:16.60	24.04	15.37	
2025-01-10 07:59:17.83	24.11	15.51	
2025-01-10 07:59:19.06	24.18	15.66	
2025-01-10 07:59:20.29	24.26	15.80	
2025-01-10 07:59:21.53	24.33	15.94	
2025-01-10 07:59:22.76	24.41	16.09	
2025-01-10 07:59:23.99	24.48	16.24	
2025-01-10 07:59:25.25	24.56	16.39	
2025-01-10 07:59:26.48	24.64	16.53	
2025-01-10 07:59:27.70	24.72	16.68	
2025-01-10 07:59:28.93	24.80	16.83	
2025-01-10 07:59:30.18	24.88	16.99	
2025-01-10 07:59:31.40	24.96	17.14	
2025-01-10 07:59:32.63	25.04	17.29	
2025-01-10 07:59:33.86	25.12	17.44	
2025-01-10 07:59:35.11	25.20	17.60	
2025-01-10 07:59:36.34	25.29	17.76	
2025-01-10 07:59:37.57	25.37	17.91	
2025-01-10 07:59:38.80	25.46	18.07	
2025-01-10 07:59:40.03	25.55	18.23	
2025-01-10 07:59:41.26	25.63	18.39	
2025-01-10 07:59:42.49	25.72	18.55	
2025-01-10 07:59:43.72	25.81	18.72	
2025-01-10 07:59:44.95	25.90	18.88	
2025-01-10 07:59:46.19	25.99	19.05	
2025-01-10 07:59:47.42	26.09	19.21	
2025-01-10 07:59:48.64	26.18	19.38	
2025-01-10 07:59:49.87	26.27	19.55	
2025-01-10 07:59:51.11	26.37	19.72	
2025-01-10 07:59:52.33	26.46	19.89	
2025-01-10 07:59:53.56	26.56	20.06	
2025-01-10 07:59:54.79	26.66	20.23	
2025-01-10 07:59:56.02	26.76	20.41	
2025-01-10 07:59:57.26	26.86	20.58	
2025-01-10 07:59:58.49	26.96	20.76	
2025-01-10 07:59:59.72	27.07	20.94	
2025-01-10 08:00:00.95	27.17	21.12	
2025-01-10 08:00:02.18	27.28	21.30	
2025-01-10 08:00:03.42	27.38	21.48	
2025-01-10 08:00:04.65	27.49	21.67	
2025-01-10 08:00:05.88	27.60	21.85	
2025-01-10 08:00:07.11	27.71	22.04	
2025-01-10 08:00:08.34	27.82	22.22	
2025-01-10 08:00:09.57	27.94	22.41	
2025-01-10 08:00:10.80	28.05	22.60	
2025-01-10 08:00:12.03	28.17	22.80	
2025-01-10 08:00:13.28	28.29	22.99	
2025-01-10 08:00:14.51	28.41	23.19	
2025-01-10 08:00:15.74	28.53	23.38	
2025-01-10 08:00:16.98	28.65	23.58	
2025-01-10 08:00:18.21	28.77	23.78	
2025-01-10 08:00:19.44	28.90	23.98	
2025-01-10 08:00:20.66	29.02	24.19	
2025-01-10 08:00:21.90	29.15	24.39	
2025-01-10 08:00:23.14	29.29	24.60	
2025-01-10 08:00:24.39	29.42	24.81	
2025-01-10 08:00:25.62	29.55	25.02	
2025-01-10 08:00:26.85	29.69	25.23	
2025-01-10 08:00:28.08	29.83	25.44	
2025-01-10 08:00:29.31	29.97	25.66	
2025-01-10 08:00:30.54	30.11	25.87	
2025-01-10 08:00:31.77	30.25	26.09	
2025-01-10 08:00:33.00	30.40	26.31	
2025-01-10 08:00:34.23	30.54	26.53	
2025-01-10 08:00:35.48	30.69	26.76	
2025-01-10 08:00:36.72	30.85	26.98	
2025-01-10 08:00:37.95	31.00	27.21	
2025-01-10 08:00:39.18	31.16	27.44	
2025-01-10 08:00:40.41	31.31	27.67	
2025-01-10 08:00:41.64	31.47	27.90	
2025-01-10 08:00:42.87	31.64	28.14	
2025-01-10 08:00:44.10	31.80	28.37	
2025-01-10 08:00:45.33	31.97	28.61	
2025-01-10 08:00:46.56	32.14	28.85	
2025-01-10 08:00:47.79	32.31	29.09	
2025-01-10 08:00:49.02	32.49	29.34	
2025-01-10 08:00:50.25	32.67	29.58	
2025-01-10 08:00:51.48	32.85	29.83	
2025-01-10 08:00:52.72	33.03	30.08	
2025-01-10 08:00:53.95	33.22	30.33	
2025-01-10 08:00:55.18	33.41	30.59	
2025-01-10 08:00:56.42	33.60	30.85	
2025-01-10 08:00:57.64	33.80	31.10	
2025-01-10 08:00:58.87	33.99	31.36	
2025-01-10 08:01:00.10	34.20	31.62	
2025-01-10 08:01:01.33	34.40	31.89	
2025-01-10 08:01:02.58	34.61	32.16	
2025-01-10 08:01:03.81	34.83	32.43	
2025-01-10 08:01:05.03	35.04	32.70	
2025-01-10 08:01:06.26	35.26	32.97	
2025-01-10 08:01:07.50	35.48	33.25	
2025-01-10 08:01:08.73	35.71	33.53	
2025-01-10 08:01:09.96	35.94	33.81	
2025-01-10 08:01:11.20	36.18	34.09	
2025-01-10 08:01:12.43	36.42	34.38	
2025-01-10 08:01:13.66	36.66	34.67	
2025-01-10 08:01:14.90	36.91	34.96	
2025-01-10 08:01:16.13	37.16	35.25	
2025-01-10 08:01:17.36	37.42	35.54	
2025-01-10 08:01:18.59	37.68	35.84	
2025-01-10 08:01:19.84	37.95	36.14	
2025-01-10 08:01:21.07	38.22	36.44	
2025-01-10 08:01:22.30	38.50	36.75	
2025-01-10 08:01:23.53	38.78	37.05	
2025-01-10 08:01:24.76	39.07	37.36	
2025-01-10 08:01:25.99	39.36	37.67	
2025-01-10 08:01:27.22	39.66	37.98	
2025-01-10 08:01:28.45	39.97	38.29	
2025-01-10 08:01:29.70	40.28	38.62	
2025-01-10 08:01:30.93	40.60	38.94	
2025-01-10 08:01:32.17	40.92	39.26	
2025-01-10 08:01:33.40	41.25	39.58	
2025-01-10 08:01:34.63	41.59	39.91	
2025-01-10 08:01:35.87	41.93	40.24	
2025-01-10 08:01:37.12	42.29	40.57	
2025-01-10 08:01:38.35	42.65	40.90	
2025-01-10 08:01:39.58	43.01	41.24	
2025-01-10 08:01:40.81	43.38	41.57	
2025-01-10 08:01:42.06	43.77	41.92	
2025-01-10 08:01:43.29	44.16	42.26	
2025-01-10 08:01:44.52	44.55	42.60	
2025-01-10 08:01:45.75	44.96	42.94	
2025-01-10 08:01:46.98	45.37	43.29	
2025-01-10 08:01:48.21	45.80	43.63	
2025-01-10 08:01:49.44	46.23	43.98	
2025-01-10 08:01:50.67	46.67	44.33	
2025-01-10 08:01:51.90	47.12	44.68	
2025-01-10 08:01:53.13	47.59	45.04	
2025-01-10 08:01:54.36	48.06	45.39	
2025-01-10 08:01:55.60	48.55	45.75	
2025-01-10 08:01:56.84	49.04	46.11	
2025-01-10 08:01:58.09	49.56	46.47	
2025-01-10 08:01:59.32	50.08	46.83	
2025-01-10 08:02:00.55	50.61	47.19	
2025-01-10 08:02:01.78	51.15	47.55	
2025-01-10 08:02:03.02	51.71	47.91	
2025-01-10 08:02:04.25	52.28	48.27	
2025-01-10 08:02:05.48	52.86	48.63	
2025-01-10 08:02:06.71	53.45	48.99	
2025-01-10 08:02:07.94	54.06	49.35	
2025-01-10 08:02:09.18	54.69	49.71	
2025-01-10 08:02:10.42	55.34	50.07	
2025-01-10 08:02:11.65	55.99	50.43	
2025-01-10 08:02:12.90	56.67	50.80	
2025-01-10 08:02:14.12	57.35	51.15	
2025-01-10 08:02:15.35	58.06	51.50	
2025-01-10 08:02:16.58	58.78	51.86	
2025-01-10 08:02:17.81	59.51	52.21	
2025-01-10 08:02:19.04	60.27	52.55	
2025-01-10 08:02:20.27	61.04	52.90	
2025-01-10 08:02:21.50	61.83	53.24	
2025-01-10 08:02:22.73	62.64	53.58	
2025-01-10 08:02:23.96	63.47	53.92	
2025-01-10 08:02:25.19	64.32	54.25	
2025-01-10 08:02:26.44	65.20	54.59	
2025-01-10 08:02:27.68	66.10	54.91	
2025-01-10 08:02:28.92	67.02	55.23	
2025-01-10 08:02:30.16	67.96	55.55	
2025-01-10 08:02:31.39	68.91	55.86	
2025-01-10 08:02:32.62	69.88	56.16	
2025-01-10 08:02:33.85	70.88	56.46	
2025-01-10 08:02:35.09	71.90	56.75	
2025-01-10 08:02:36.32	72.94	57.03	
2025-01-10 08:02:37.55	73.99	57.31	
2025-01-10 08:02:38.78	75.07	57.57	
2025-01-10 08:02:40.02	76.18	57.83	
2025-01-10 08:02:41.25	77.31	58.08	
2025-01-10 08:02:42.48	78.45	58.32	
2025-01-10 08:02:43.71	79.61	58.55	
2025-01-10 08:02:44.95	80.80	58.78	
2025-01-10 08:02:46.18	82.01	58.99	
2025-01-10 08:02:47.41	83.23	59.18	
2025-01-10 08:02:48.66	84.49	59.37	
2025-01-10 08:02:49.89	85.75	59.55	
2025-01-10 08:02:51.12	87.02	59.71	
2025-01-10 08:02:52.35	88.31	59.87	
2025-01-10 08:02:53.58	89.62	60.00	
2025-01-10 08:02:54.81	90.93	60.13	
2025-01-10 08:02:56.04	92.26	60.24	
2025-01-10 08:02:57.29	93.63	60.34	
2025-01-10 08:02:58.53	94.99	60.43	
2025-01-10 08:02:59.76	96.35	60.50	
2025-01-10 08:03:00.99	97.72	60.56	
2025-01-10 08:03:02.22	99.09	60.60	
2025-01-10 08:03:03.45	100.46	60.63	
2025-01-10 08:03:04.68	101.84	60.64	
2025-01-10 08:03:05.90	103.21	60.64	
2025-01-10 08:03:07.13	104.59	60.63	
2025-01-10 08:03:08.36	105.97	60.60	
2025-01-10 08:03:09.59	107.34	60.55	
2025-01-10 08:03:10.82	108.70	60.49	
2025-01-10 08:03:12.05	110.06	60.42	
2025-01-10 08:03:13.29	111.43	60.33	
2025-01-10 08:03:14.52	112.77	60.23	
2025-01-10 08:03:15.75	114.10	60.12	
2025-01-10 08:03:16.98	115.41	59.99	
2025-01-10 08:03:18.22	116.73	59.85	
2025-01-10 08:03:19.45	118.02	59.70	
2025-01-10 08:03:20.67	119.28	59.54	
2025-01-10 08:03:21.90	120.54	59.36	
2025-01-10 08:03:23.13	121.78	59.17	
2025-01-10 08:03:24.37	123.01	58.97	
2025-01-10 08:03:25.59	124.20	58.76	
2025-01-10 08:03:26.82	125.39	58.54	
2025-01-10 08:03:28.05	126.55	58.31	
2025-01-10 08:03:29.28	127.69	58.06	
2025-01-10 08:03:30.51	128.82	57.81	
2025-01-10 08:03:31.74	129.92	57.55	
2025-01-10 08:03:32.97	131.00	57.29	
2025-01-10 08:03:34.22	132.07	57.01	
2025-01-10 08:03:35.46	133.12	56.72	
2025-01-10 08:03:36.70	134.14	56.43	
2025-01-10 08:03:37.93	135.13	56.13	
2025-01-10 08:03:39.16	136.11	55.83	
2025-01-10 08:03:40.39	137.06	55.52	
2025-01-10 08:03:41.62	137.99	55.20	
2025-01-10 08:03:42.85	138.90	54.88	
2025-01-10 08:03:44.08	139.79	54.56	
2025-01-10 08:03:45.32	140.67	54.22	
2025-01-10 08:03:46.55	141.51	53.89	
2025-01-10 08:03:47.78	142.34	53.55	
2025-01-10 08:03:49.01	143.15	53.21	
2025-01-10 08:03:50.26	143.96	52.86	
2025-01-10 08:03:51.49	144.73	52.51	
2025-01-10 08:03:52.72	145.49	52.16	
2025-01-10 08:03:53.96	146.23	51.81	
2025-01-10 08:03:55.19	146.95	51.46	
2025-01-10 08:03:56.42	147.65	51.10	
2025-01-10 08:03:57.65	148.34	50.74	
2025-01-10 08:03:58.88	149.01	50.38	
2025-01-10 08:04:00.10	149.66	50.03	
2025-01-10 08:04:01.33	150.30	49.67	
2025-01-10 08:04:02.56	150.92	49.31	
2025-01-10 08:04:03.79	151.53	48.95	
2025-01-10 08:04:05.04	152.14	48.58	
2025-01-10 08:04:06.28	152.72	48.21	
2025-01-10 08:04:07.52	153.30	47.85	
2025-01-10 08:04:08.76	153.86	47.49	
2025-01-10 08:04:09.99	154.40	47.12	
2025-01-10 08:04:11.24	154.94	46.76	
2025-01-10 08:04:12.47	155.45	46.40	
2025-01-10 08:04:13.70	155.96	46.04	
2025-01-10 08:04:14.93	156.45	45.68	
2025-01-10 08:04:16.16	156.94	45.33	
2025-01-10 08:04:17.40	157.41	44.97	
2025-01-10 08:04:18.62	157.87	44.62	
2025-01-10 08:04:19.86	158.33	44.26	
2025-01-10 08:04:21.09	158.77	43.91	
2025-01-10 08:04:22.32	159.20	43.56	
2025-01-10 08:04:23.55	159.62	43.21	
2025-01-10 08:04:24.78	160.04	42.87	
2025-01-10 08:04:26.01	160.44	42.52	
2025-01-10 08:04:27.24	160.84	42.18	
2025-01-10 08:04:28.47	161.23	41.84	
2025-01-10 08:04:29.70	161.61	41.50	
2025-01-10 08:04:30.93	161.98	41.16	
2025-01-10 08:04:32.16	162.35	40.83	
2025-01-10 08:04:33.40	162.71	40.49	
2025-01-10 08:04:34.65	163.06	40.15	
2025-01-10 08:04:35.88	163.40	39.82	
2025-01-10 08:04:37.11	163.74	39.50	
2025-01-10 08:04:38.34	164.07	39.17	
2025-01-10 08:04:39.57	164.39	38.85	
2025-01-10 08:04:40.80	164.71	38.53	
2025-01-10 08:04:42.03	165.02	38.21	
2025-01-10 08:04:43.26	165.32	37.90	
2025-01-10 08:04:44.50	165.62	37.58	
2025-01-10 08:04:45.73	165.91	37.27	
2025-01-10 08:04:46.96	166.20	36.96	
2025-01-10 08:04:48.19	166.48	36.66	
2025-01-10 08:04:49.42	166.76	36.35	
2025-01-10 08:04:50.67	167.04	36.04	
2025-01-10 08:04:51.89	167.30	35.75	
2025-01-10 08:04:53.12	167.56	35.45	
2025-01-10 08:04:54.36	167.82	35.15	
2025-01-10 08:04:55.59	168.07	34.86	
2025-01-10 08:04:56.82	168.32	34.57	
2025-01-10 08:04:58.06	168.56	34.28	
2025-01-10 08:04:59.29	168.80	33.99	
2025-01-10 08:05:00.51	169.04	33.71	
2025-01-10 08:05:01.74	169.27	33.43	
2025-01-10 08:05:02.98	169.50	33.15	
2025-01-10 08:05:04.21	169.72	32.87	
2025-01-10 08:05:05.44	169.94	32.60	
2025-01-10 08:05:06.67	170.15	32.33	
2025-01-10 08:05:07.90	170.37	32.06	
2025-01-10 08:05:09.13	170.57	31.79	
2025-01-10 08:05:10.37	170.78	31.52	
2025-01-10 08:05:11.61	170.98	31.25	
2025-01-10 08:05:12.83	171.18	30.99	
2025-01-10 08:05:14.07	171.38	30.73	
2025-01-10 08:05:15.30	171.57	30.48	
2025-01-10 08:05:16.53	171.76	30.22	
2025-01-10 08:05:17.76	171.95	29.97	
2025-01-10 08:05:18.99	172.13	29.72	
2025-01-10 08:05:20.22	172.31	29.47	
2025-01-10 08:05:21.45	172.49	29.22	
2025-01-10 08:05:22.67	172.66	28.98	
2025-01-10 08:05:23.90	172.83	28.74	
2025-01-10 08:05:25.14	173.00	28.49	
2025-01-10 08:05:26.37	173.17	28.25	
2025-01-10 08:05:27.61	173.34	28.02	
2025-01-10 08:05:28.84	173.50	27.78	
2025-01-10 08:05:30.08	173.66	27.55	
2025-01-10 08:05:31.32	173.82	27.31	
2025-01-10 08:05:32.55	173.98	27.08	
2025-01-10 08:05:33.80	174.13	26.85	
2025-01-10 08:05:35.02	174.28	26.63	
2025-01-10 08:05:36.25	174.43	26.40	
2025-01-10 08:05:37.48	174.58	26.18	
2025-01-10 08:05:38.71	174.72	25.96	
2025-01-10 08:05:39.94	174.86	25.74	
2025-01-10 08:05:41.17	175.00	25.53	
2025-01-10 08:05:42.40	175.14	25.31	
2025-01-10 08:05:43.63	175.28	25.10	
2025-01-10 08:05:44.87	175.42	24.89	
2025-01-10 08:05:46.10	175.55	24.68	
2025-01-10 08:05:47.32	175.68	24.47	
2025-01-10 08:05:48.55	175.81	24.26	
2025-01-10 08:05:49.79	175.94	24.06	
2025-01-10 08:05:51.02	176.06	23.85	
2025-01-10 08:05:52.26	176.19	23.65	
2025-01-10 08:05:53.49	176.31	23.45	
2025-01-10 08:05:54.73	176.44	23.25	
2025-01-10 08:05:55.96	176.56	23.05	
2025-01-10 08:05:57.19	176.68	22.86	
2025-01-10 08:05:58.42	176.79	22.66	
2025-01-10 08:05:59.65	176.91	22.47	
2025-01-10 08:06:00.88	177.02	22.28	
2025-01-10 08:06:02.11	177.13	22.09	
2025-01-10 08:06:03.34	177.25	21.90	
2025-01-10 08:06:04.58	177.36	21.71	
2025-01-10 08:06:05.82	177.47	21.52	
2025-01-10 08:06:07.05	177.57	21.34	
2025-01-10 08:06:08.28	177.68	21.16	
2025-01-10 08:06:09.51	177.79	20.98	
2025-01-10 08:06:10.73	177.89	20.80	
2025-01-10 08:06:11.97	177.99	20.62	
2025-01-10 08:06:13.20	178.09	20.44	
2025-01-10 08:06:14.43	178.19	20.26	
2025-01-10 08:06:15.66	178.29	20.09	
2025-01-10 08:06:16.89	178.39	19.91	
2025-01-10 08:06:18.13	178.49	19.74	
2025-01-10 08:06:19.37	178.58	19.57	
2025-01-10 08:06:20.60	178.68	19.40	
2025-01-10 08:06:21.83	178.77	19.23	
2025-01-10 08:06:23.06	178.87	19.06	
2025-01-10 08:06:24.29	178.96	18.90	
2025-01-10 08:06:25.52	179.05	18.73	
2025-01-10 08:06:26.75	179.14	18.57	
2025-01-10 08:06:27.98	179.23	18.40	
2025-01-10 08:06:29.21	179.31	18.24	
2025-01-10 08:06:30.46	179.40	18.08	
2025-01-10 08:06:31.69	179.49	17.92	
2025-01-10 08:06:32.92	179.57	17.76	
2025-01-10 08:06:34.15	179.66	17.60	
2025-01-10 08:06:35.37	179.74	17.45	
2025-01-10 08:06:36.62	179.82	17.29	
2025-01-10 08:06:37.85	179.90	17.13	
2025-01-10 08:06:39.08	179.98	16.98	
2025-01-10 08:06:40.31	180.06	16.83	
2025-01-10 08:06:41.54	180.14	16.68	
2025-01-10 08:06:42.76	180.22	16.53	
2025-01-10 08:06:43.99	180.30	16.38	
2025-01-10 08:06:45.22	180.37	16.23	
2025-01-10 08:06:46.45	180.45	16.08	
2025-01-10 08:06:47.68	180.53	15.93	
2025-01-10 08:06:48.91	180.60	15.79	
2025-01-10 08:06:50.14	180.67	15.64	
2025-01-10 08:06:51.37	180.75	15.50	
2025-01-10 08:06:52.60	180.82	15.36	
2025-01-10 08:06:53.84	180.89	15.21	
2025-01-10 08:06:55.09	180.96	15.07	
2025-01-10 08:06:56.31	181.03	14.93	
2025-01-10 08:06:57.55	181.10	14.79	
2025-01-10 08:06:58.79	181.17	14.65	
2025-01-10 08:07:00.02	181.24	14.51	
2025-01-10 08:07:01.26	181.31	14.37	
2025-01-10 08:07:02.49	181.38	14.24	
2025-01-10 08:07:03.72	181.44	14.10	
2025-01-10 08:07:04.95	181.51	13.97	
2025-01-10 08:07:06.18	181.57	13.83	
2025-01-10 08:07:07.41	181.64	13.70	
2025-01-10 08:07:08.64	181.70	13.57	
2025-01-10 08:07:09.88	181.77	13.44	
2025-01-10 08:07:11.11	181.83	13.31	
2025-01-10 08:07:12.35	181.89	13.18	
2025-01-10 08:07:13.58	181.95	13.05	
2025-01-10 08:07:14.81	182.02	12.92	
2025-01-10 08:07:16.04	182.08	12.79	
2025-01-10 08:07:17.27	182.14	12.66	
2025-01-10 08:07:18.50	182.20	12.54	
2025-01-10 08:07:19.75	182.26	12.41	
2025-01-10 08:07:20.99	182.32	12.28	
2025-01-10 08:07:22.22	182.37	12.16	
2025-01-10 08:07:23.46	182.43	12.03	
2025-01-10 08:07:24.69	182.49	11.91	
2025-01-10 08:07:25.92	182.55	11.79	
2025-01-10 08:07:27.14	182.60	11.67	
2025-01-10 08:07:28.37	182.66	11.55	
2025-01-10 08:07:29.60	182.71	11.43	
2025-01-10 08:07:30.85	182.77	11.31	
2025-01-10 08:07:32.08	182.82	11.19	
2025-01-10 08:07:33.31	182.88	11.07	
2025-01-10 08:07:34.53	182.93	10.95	
2025-01-10 08:07:35.76	182.99	10.83	
2025-01-10 08:07:36.99	183.04	10.72	
2025-01-10 08:07:38.22	183.09	10.60	
2025-01-10 08:07:39.45	183.14	10.49	
2025-01-10 08:07:40.68	183.19	10.37	
2025-01-10 08:07:41.91	183.25	10.26	
2025-01-10 08:07:43.14	183.30	10.14	
2025-01-10 08:07:44.38	183.35	10.03	
2025-01-10 08:07:45.62	183.40	9.92	
2025-01-10 08:07:46.85	183.45	9.80	
2025-01-10 08:07:48.08	183.50	9.69	
2025-01-10 08:07:49.31	183.55	9.58	
2025-01-10 08:07:50.54	183.59	9.47	
2025-01-10 08:07:51.77	183.64	9.36	
2025-01-10 08:07:53.00	183.69	9.25	
2025-01-10 08:07:54.23	183.74	9.14	
2025-01-10 08:07:55.47	183.78	9.03	
2025-01-10 08:07:56.71	183.83	8.92	
2025-01-10 08:07:57.94	183.88	8.82	
2025-01-10 08:07:59.17	183.92	8.71	
2025-01-10 08:08:00.40	183.97	8.60	
2025-01-10 08:08:01.63	184.02	8.50	
2025-01-10 08:08:02.86	184.06	8.39	
2025-01-10 08:08:04.09	184.11	8.29	
2025-01-10 08:08:05.33	184.15	8.18	
2025-01-10 08:08:06.56	184.19	8.08	
2025-01-10 08:08:07.79	184.24	7.98	
2025-01-10 08:08:09.02	184.28	7.87	
2025-01-10 08:08:10.24	184.32	7.77	
2025-01-10 08:08:11.48	184.37	7.67	
2025-01-10 08:08:12.71	184.41	7.57	
2025-01-10 08:08:13.94	184.45	7.46	
2025-01-10 08:08:15.17	184.49	7.36	
2025-01-10 08:08:16.40	184.54	7.26	
2025-01-10 08:08:17.62	184.58	7.16	
2025-01-10 08:08:18.87	184.62	7.06	
2025-01-10 08:08:20.10	184.66	6.96	
2025-01-10 08:08:21.33	184.70	6.87	
2025-01-10 08:08:22.57	184.74	6.77	
2025-01-10 08:08:23.81	184.78	6.67	
2025-01-10 08:08:25.03	184.82	6.57	
2025-01-10 08:08:26.27	184.86	6.47	
2025-01-10 08:08:27.52	184.90	6.37	
2025-01-10 08:08:28.75	184.94	6.28	
2025-01-10 08:08:29.98	184.98	6.18	
2025-01-10 08:08:31.21	185.02	6.09	
2025-01-10 08:08:32.45	185.06	5.99	
2025-01-10 08:08:33.67	185.09	5.90	
2025-01-10 08:08:34.92	185.13	5.80	
2025-01-10 08:08:36.15	185.17	5.71	
2025-01-10 08:08:37.38	185.21	5.61	
2025-01-10 08:08:38.62	185.25	5.52	
2025-01-10 08:08:39.86	185.28	5.43	
2025-01-10 08:08:41.08	185.32	5.33	
2025-01-10 08:08:42.31	185.36	5.24	
2025-01-10 08:08:43.54	185.39	5.15	
2025-01-10 08:08:44.79	185.43	5.06	
2025-01-10 08:08:46.00	185.46	4.97	
2025-01-10 08:08:47.24	185.50	4.88	
2025-01-10 08:08:48.48	185.53	4.79	
2025-01-10 08:08:49.71	185.57	4.69	
2025-01-10 08:08:50.96	185.61	4.60	
2025-01-10 08:08:52.19	185.64	4.51	
2025-01-10 08:08:53.42	185.67	4.43	
2025-01-10 08:08:54.65	185.71	4.34	
2025-01-10 08:08:55.87	185.74	4.25	
2025-01-10 08:08:57.11	185.78	4.16	
2025-01-10 08:08:58.33	185.81	4.07	

#Closed at: 2025-01-10 08:08:59