passes_logs/2025/01/10/SPB_Silybum_02/SPB_Silybum_02__20250110_001821_AQUA_rec.log

#Pass ID: 20250110_001821_AQUA
#Satellite: AQUA
#Configuration: AQUA
#Start time: 2025-01-10 00:20:08

#Version: 2.0.20230423
#Station: SPB_Silybum_02
#Location: 30.233357 lon 59.946436 lat
#TLE: 1 27424U 02022A   25009.18250328  .00001819  00000+0  38344-3 0  9993
#TLE: 2 27424  98.3576 325.7944 0001512 117.4139 299.3627 14.60660146206772

#Time	Az	El	Level	Level2	SNR	BER	Gain	Gain2
2025-01-10 00:20:10.89	32.26	12.45	
2025-01-10 00:20:11.90	32.37	12.55	
2025-01-10 00:20:12.96	32.49	12.64	
2025-01-10 00:20:13.98	32.60	12.73	
2025-01-10 00:20:14.99	32.71	12.83	
2025-01-10 00:20:16.04	32.83	12.92	
2025-01-10 00:20:17.06	32.95	13.02	
2025-01-10 00:20:18.09	33.07	13.11	
2025-01-10 00:20:19.10	33.18	13.20	
2025-01-10 00:20:20.12	33.30	13.30	
2025-01-10 00:20:21.15	33.42	13.39	
2025-01-10 00:20:22.18	33.54	13.49	
2025-01-10 00:20:23.21	33.66	13.59	
2025-01-10 00:20:24.25	33.78	13.69	
2025-01-10 00:20:25.29	33.91	13.78	
2025-01-10 00:20:26.31	34.03	13.88	
2025-01-10 00:20:27.34	34.16	13.98	
2025-01-10 00:20:28.38	34.28	14.08	
2025-01-10 00:20:29.40	34.41	14.17	
2025-01-10 00:20:30.41	34.53	14.27	
2025-01-10 00:20:31.45	34.66	14.37	
2025-01-10 00:20:32.47	34.79	14.47	
2025-01-10 00:20:33.49	34.92	14.57	
2025-01-10 00:20:34.51	35.05	14.67	
2025-01-10 00:20:35.54	35.18	14.77	
2025-01-10 00:20:36.56	35.31	14.87	
2025-01-10 00:20:37.59	35.44	14.97	
2025-01-10 00:20:38.63	35.58	15.07	
2025-01-10 00:20:39.67	35.72	15.17	
2025-01-10 00:20:40.70	35.85	15.27	
2025-01-10 00:20:41.73	35.99	15.38	
2025-01-10 00:20:42.76	36.13	15.48	
2025-01-10 00:20:43.79	36.27	15.58	
2025-01-10 00:20:44.81	36.41	15.69	
2025-01-10 00:20:45.84	36.55	15.79	
2025-01-10 00:20:46.87	36.69	15.89	
2025-01-10 00:20:47.89	36.83	16.00	
2025-01-10 00:20:48.92	36.98	16.10	
2025-01-10 00:20:49.94	37.12	16.20	
2025-01-10 00:20:50.97	37.27	16.31	
2025-01-10 00:20:52.00	37.41	16.42	
2025-01-10 00:20:53.03	37.56	16.52	
2025-01-10 00:20:54.05	37.71	16.63	
2025-01-10 00:20:55.08	37.86	16.73	
2025-01-10 00:20:56.11	38.01	16.84	
2025-01-10 00:20:57.14	38.17	16.95	
2025-01-10 00:20:58.17	38.32	17.06	
2025-01-10 00:20:59.19	38.47	17.16	
2025-01-10 00:21:00.22	38.63	17.27	
2025-01-10 00:21:01.24	38.79	17.38	
2025-01-10 00:21:02.27	38.95	17.49	
2025-01-10 00:21:03.29	39.10	17.60	
2025-01-10 00:21:04.32	39.26	17.71	
2025-01-10 00:21:05.35	39.43	17.82	
2025-01-10 00:21:06.37	39.59	17.92	
2025-01-10 00:21:07.40	39.75	18.04	
2025-01-10 00:21:08.42	39.92	18.15	
2025-01-10 00:21:09.45	40.09	18.26	
2025-01-10 00:21:10.47	40.25	18.37	
2025-01-10 00:21:11.50	40.42	18.48	
2025-01-10 00:21:12.53	40.59	18.59	
2025-01-10 00:21:13.55	40.76	18.70	
2025-01-10 00:21:14.58	40.94	18.82	
2025-01-10 00:21:15.60	41.11	18.93	
2025-01-10 00:21:16.63	41.29	19.04	
2025-01-10 00:21:17.66	41.46	19.16	
2025-01-10 00:21:18.68	41.64	19.27	
2025-01-10 00:21:19.71	41.82	19.38	
2025-01-10 00:21:20.73	42.00	19.50	
2025-01-10 00:21:21.76	42.18	19.61	
2025-01-10 00:21:22.79	42.37	19.73	
2025-01-10 00:21:23.82	42.56	19.84	
2025-01-10 00:21:24.85	42.74	19.96	
2025-01-10 00:21:25.89	42.93	20.08	
2025-01-10 00:21:26.93	43.13	20.20	
2025-01-10 00:21:27.97	43.32	20.31	
2025-01-10 00:21:28.99	43.51	20.43	
2025-01-10 00:21:30.02	43.71	20.55	
2025-01-10 00:21:31.05	43.90	20.67	
2025-01-10 00:21:32.07	44.10	20.78	
2025-01-10 00:21:33.10	44.30	20.90	
2025-01-10 00:21:34.13	44.50	21.02	
2025-01-10 00:21:35.15	44.70	21.14	
2025-01-10 00:21:36.18	44.91	21.26	
2025-01-10 00:21:37.21	45.11	21.38	
2025-01-10 00:21:38.23	45.32	21.50	
2025-01-10 00:21:39.26	45.53	21.62	
2025-01-10 00:21:40.28	45.74	21.74	
2025-01-10 00:21:41.30	45.95	21.86	
2025-01-10 00:21:42.33	46.16	21.98	
2025-01-10 00:21:43.35	46.37	22.10	
2025-01-10 00:21:44.38	46.59	22.22	
2025-01-10 00:21:45.41	46.81	22.34	
2025-01-10 00:21:46.43	47.03	22.46	
2025-01-10 00:21:47.46	47.25	22.58	
2025-01-10 00:21:48.48	47.48	22.70	
2025-01-10 00:21:49.51	47.70	22.83	
2025-01-10 00:21:50.54	47.93	22.95	
2025-01-10 00:21:51.57	48.16	23.07	
2025-01-10 00:21:52.59	48.39	23.19	
2025-01-10 00:21:53.62	48.63	23.32	
2025-01-10 00:21:54.65	48.86	23.44	
2025-01-10 00:21:55.67	49.10	23.56	
2025-01-10 00:21:56.69	49.34	23.68	
2025-01-10 00:21:57.72	49.58	23.81	
2025-01-10 00:21:58.75	49.82	23.93	
2025-01-10 00:21:59.77	50.06	24.06	
2025-01-10 00:22:00.81	50.31	24.18	
2025-01-10 00:22:01.83	50.56	24.30	
2025-01-10 00:22:02.87	50.82	24.43	
2025-01-10 00:22:03.90	51.07	24.55	
2025-01-10 00:22:04.93	51.33	24.68	
2025-01-10 00:22:05.96	51.58	24.80	
2025-01-10 00:22:06.98	51.84	24.93	
2025-01-10 00:22:08.02	52.11	25.05	
2025-01-10 00:22:09.05	52.37	25.18	
2025-01-10 00:22:10.08	52.64	25.30	
2025-01-10 00:22:11.11	52.91	25.43	
2025-01-10 00:22:12.14	53.18	25.55	
2025-01-10 00:22:13.16	53.45	25.68	
2025-01-10 00:22:14.19	53.72	25.80	
2025-01-10 00:22:15.22	54.00	25.93	
2025-01-10 00:22:16.26	54.28	26.05	
2025-01-10 00:22:17.29	54.56	26.18	
2025-01-10 00:22:18.31	54.85	26.30	
2025-01-10 00:22:19.34	55.13	26.42	
2025-01-10 00:22:20.36	55.42	26.55	
2025-01-10 00:22:21.39	55.71	26.67	
2025-01-10 00:22:22.41	56.00	26.79	
2025-01-10 00:22:23.44	56.30	26.92	
2025-01-10 00:22:24.47	56.59	27.04	
2025-01-10 00:22:25.50	56.89	27.17	
2025-01-10 00:22:26.52	57.19	27.29	
2025-01-10 00:22:27.55	57.50	27.41	
2025-01-10 00:22:28.57	57.80	27.53	
2025-01-10 00:22:29.60	58.11	27.66	
2025-01-10 00:22:30.62	58.42	27.78	
2025-01-10 00:22:31.66	58.74	27.90	
2025-01-10 00:22:32.69	59.06	28.02	
2025-01-10 00:22:33.72	59.38	28.14	
2025-01-10 00:22:34.75	59.70	28.26	
2025-01-10 00:22:35.78	60.03	28.39	
2025-01-10 00:22:36.82	60.36	28.51	
2025-01-10 00:22:37.85	60.69	28.63	
2025-01-10 00:22:38.88	61.02	28.75	
2025-01-10 00:22:39.92	61.36	28.87	
2025-01-10 00:22:40.94	61.69	28.98	
2025-01-10 00:22:41.97	62.03	29.10	
2025-01-10 00:22:42.99	62.37	29.22	
2025-01-10 00:22:44.02	62.72	29.33	
2025-01-10 00:22:45.05	63.07	29.45	
2025-01-10 00:22:46.08	63.42	29.57	
2025-01-10 00:22:47.10	63.77	29.68	
2025-01-10 00:22:48.13	64.12	29.80	
2025-01-10 00:22:49.15	64.48	29.91	
2025-01-10 00:22:50.19	64.84	30.02	
2025-01-10 00:22:51.21	65.20	30.13	
2025-01-10 00:22:52.24	65.57	30.25	
2025-01-10 00:22:53.27	65.93	30.36	
2025-01-10 00:22:54.29	66.30	30.47	
2025-01-10 00:22:55.32	66.67	30.57	
2025-01-10 00:22:56.35	67.05	30.68	
2025-01-10 00:22:57.37	67.43	30.79	
2025-01-10 00:22:58.40	67.81	30.90	
2025-01-10 00:22:59.42	68.19	31.00	
2025-01-10 00:23:00.45	68.57	31.11	
2025-01-10 00:23:01.47	68.96	31.21	
2025-01-10 00:23:02.49	69.35	31.31	
2025-01-10 00:23:03.52	69.74	31.41	
2025-01-10 00:23:04.55	70.14	31.51	
2025-01-10 00:23:05.57	70.53	31.61	
2025-01-10 00:23:06.60	70.93	31.71	
2025-01-10 00:23:07.62	71.33	31.81	
2025-01-10 00:23:08.65	71.74	31.90	
2025-01-10 00:23:09.67	72.14	32.00	
2025-01-10 00:23:10.70	72.56	32.09	
2025-01-10 00:23:11.73	72.97	32.18	
2025-01-10 00:23:12.76	73.38	32.27	
2025-01-10 00:23:13.79	73.80	32.36	
2025-01-10 00:23:14.81	74.22	32.45	
2025-01-10 00:23:15.84	74.64	32.54	
2025-01-10 00:23:16.86	75.06	32.62	
2025-01-10 00:23:17.89	75.49	32.71	
2025-01-10 00:23:18.93	75.93	32.79	
2025-01-10 00:23:19.98	76.37	32.88	
2025-01-10 00:23:21.01	76.80	32.96	
2025-01-10 00:23:22.03	77.23	33.03	
2025-01-10 00:23:23.05	77.67	33.11	
2025-01-10 00:23:24.07	78.10	33.18	
2025-01-10 00:23:25.10	78.55	33.26	
2025-01-10 00:23:26.13	78.99	33.33	
2025-01-10 00:23:27.16	79.44	33.40	
2025-01-10 00:23:28.18	79.88	33.47	
2025-01-10 00:23:29.21	80.33	33.53	
2025-01-10 00:23:30.24	80.79	33.60	
2025-01-10 00:23:31.26	81.24	33.66	
2025-01-10 00:23:32.29	81.69	33.72	
2025-01-10 00:23:33.32	82.15	33.78	
2025-01-10 00:23:34.36	82.61	33.84	
2025-01-10 00:23:35.39	83.07	33.90	
2025-01-10 00:23:36.42	83.54	33.95	
2025-01-10 00:23:37.45	84.00	34.00	
2025-01-10 00:23:38.47	84.46	34.05	
2025-01-10 00:23:39.50	84.93	34.10	
2025-01-10 00:23:40.55	85.41	34.15	
2025-01-10 00:23:41.57	85.87	34.19	
2025-01-10 00:23:42.60	86.34	34.23	
2025-01-10 00:23:43.63	86.82	34.27	
2025-01-10 00:23:44.65	87.29	34.31	
2025-01-10 00:23:45.67	87.76	34.35	
2025-01-10 00:23:46.70	88.23	34.38	
2025-01-10 00:23:47.73	88.71	34.41	
2025-01-10 00:23:48.76	89.19	34.44	
2025-01-10 00:23:49.78	89.66	34.47	
2025-01-10 00:23:50.82	90.14	34.50	
2025-01-10 00:23:51.85	90.62	34.52	
2025-01-10 00:23:52.87	91.10	34.54	
2025-01-10 00:23:53.91	91.59	34.56	
2025-01-10 00:23:54.93	92.06	34.58	
2025-01-10 00:23:55.96	92.55	34.59	
2025-01-10 00:23:56.99	93.03	34.60	
2025-01-10 00:23:58.01	93.51	34.61	
2025-01-10 00:23:59.05	94.00	34.62	
2025-01-10 00:24:00.08	94.48	34.63	
2025-01-10 00:24:01.10	94.96	34.63	
2025-01-10 00:24:02.13	95.44	34.63	
2025-01-10 00:24:03.16	95.93	34.63	
2025-01-10 00:24:04.18	96.41	34.63	
2025-01-10 00:24:05.21	96.89	34.63	
2025-01-10 00:24:06.24	97.38	34.62	
2025-01-10 00:24:07.26	97.85	34.61	
2025-01-10 00:24:08.29	98.34	34.60	
2025-01-10 00:24:09.32	98.82	34.58	
2025-01-10 00:24:10.36	99.31	34.57	
2025-01-10 00:24:11.39	99.79	34.55	
2025-01-10 00:24:12.42	100.27	34.53	
2025-01-10 00:24:13.44	100.75	34.51	
2025-01-10 00:24:14.47	101.23	34.48	
2025-01-10 00:24:15.50	101.71	34.46	
2025-01-10 00:24:16.54	102.19	34.43	
2025-01-10 00:24:17.57	102.67	34.40	
2025-01-10 00:24:18.59	103.14	34.36	
2025-01-10 00:24:19.62	103.62	34.33	
2025-01-10 00:24:20.66	104.10	34.29	
2025-01-10 00:24:21.69	104.57	34.25	
2025-01-10 00:24:22.71	105.04	34.21	
2025-01-10 00:24:23.74	105.51	34.17	
2025-01-10 00:24:24.76	105.97	34.12	
2025-01-10 00:24:25.79	106.44	34.07	
2025-01-10 00:24:26.83	106.91	34.02	
2025-01-10 00:24:27.86	107.38	33.97	
2025-01-10 00:24:28.89	107.84	33.92	
2025-01-10 00:24:29.91	108.30	33.87	
2025-01-10 00:24:30.94	108.76	33.81	
2025-01-10 00:24:31.98	109.23	33.75	
2025-01-10 00:24:33.01	109.69	33.69	
2025-01-10 00:24:34.03	110.14	33.63	
2025-01-10 00:24:35.06	110.59	33.56	
2025-01-10 00:24:36.08	111.04	33.50	
2025-01-10 00:24:37.12	111.49	33.43	
2025-01-10 00:24:38.15	111.94	33.36	
2025-01-10 00:24:39.18	112.39	33.29	
2025-01-10 00:24:40.20	112.83	33.21	
2025-01-10 00:24:41.23	113.27	33.14	
2025-01-10 00:24:42.26	113.71	33.06	
2025-01-10 00:24:43.29	114.15	32.98	
2025-01-10 00:24:44.31	114.58	32.91	
2025-01-10 00:24:45.34	115.02	32.83	
2025-01-10 00:24:46.36	115.45	32.74	
2025-01-10 00:24:47.39	115.88	32.66	
2025-01-10 00:24:48.41	116.30	32.57	
2025-01-10 00:24:49.44	116.72	32.49	
2025-01-10 00:24:50.47	117.15	32.40	
2025-01-10 00:24:51.49	117.56	32.31	
2025-01-10 00:24:52.52	117.98	32.22	
2025-01-10 00:24:53.55	118.40	32.13	
2025-01-10 00:24:54.57	118.81	32.03	
2025-01-10 00:24:55.59	119.22	31.94	
2025-01-10 00:24:56.62	119.62	31.84	
2025-01-10 00:24:57.65	120.03	31.75	
2025-01-10 00:24:58.67	120.43	31.65	
2025-01-10 00:24:59.69	120.83	31.55	
2025-01-10 00:25:00.72	121.23	31.45	
2025-01-10 00:25:01.75	121.62	31.35	
2025-01-10 00:25:02.77	122.01	31.25	
2025-01-10 00:25:03.81	122.41	31.14	
2025-01-10 00:25:04.85	122.80	31.04	
2025-01-10 00:25:05.88	123.19	30.93	
2025-01-10 00:25:06.92	123.57	30.82	
2025-01-10 00:25:07.94	123.95	30.72	
2025-01-10 00:25:08.97	124.33	30.61	
2025-01-10 00:25:10.00	124.71	30.50	
2025-01-10 00:25:11.04	125.08	30.39	
2025-01-10 00:25:12.07	125.45	30.27	
2025-01-10 00:25:13.10	125.82	30.16	
2025-01-10 00:25:14.13	126.19	30.05	
2025-01-10 00:25:15.16	126.55	29.94	
2025-01-10 00:25:16.20	126.91	29.82	
2025-01-10 00:25:17.24	127.28	29.70	
2025-01-10 00:25:18.26	127.63	29.59	
2025-01-10 00:25:19.29	127.98	29.47	
2025-01-10 00:25:20.32	128.33	29.36	
2025-01-10 00:25:21.34	128.67	29.24	
2025-01-10 00:25:22.37	129.02	29.12	
2025-01-10 00:25:23.40	129.36	29.00	
2025-01-10 00:25:24.42	129.70	28.89	
2025-01-10 00:25:25.45	130.03	28.77	
2025-01-10 00:25:26.48	130.37	28.65	
2025-01-10 00:25:27.51	130.70	28.53	
2025-01-10 00:25:28.53	131.03	28.41	
2025-01-10 00:25:29.56	131.36	28.28	
2025-01-10 00:25:30.59	131.68	28.16	
2025-01-10 00:25:31.62	132.00	28.04	
2025-01-10 00:25:32.63	132.32	27.92	
2025-01-10 00:25:33.65	132.63	27.80	
2025-01-10 00:25:34.68	132.94	27.68	
2025-01-10 00:25:35.71	133.26	27.55	
2025-01-10 00:25:36.74	133.57	27.43	
2025-01-10 00:25:37.76	133.87	27.31	
2025-01-10 00:25:38.80	134.18	27.18	
2025-01-10 00:25:39.82	134.48	27.06	
2025-01-10 00:25:40.85	134.78	26.93	
2025-01-10 00:25:41.87	135.07	26.81	
2025-01-10 00:25:42.90	135.37	26.68	
2025-01-10 00:25:43.94	135.67	26.56	
2025-01-10 00:25:44.96	135.95	26.43	
2025-01-10 00:25:45.99	136.24	26.31	
2025-01-10 00:25:47.01	136.53	26.18	
2025-01-10 00:25:48.04	136.81	26.06	
2025-01-10 00:25:49.07	137.09	25.93	
2025-01-10 00:25:50.09	137.37	25.81	
2025-01-10 00:25:51.12	137.65	25.68	
2025-01-10 00:25:52.14	137.92	25.56	
2025-01-10 00:25:53.17	138.19	25.43	
2025-01-10 00:25:54.19	138.46	25.31	
2025-01-10 00:25:55.22	138.73	25.18	
2025-01-10 00:25:56.25	138.99	25.06	
2025-01-10 00:25:57.27	139.25	24.93	
2025-01-10 00:25:58.30	139.52	24.81	
2025-01-10 00:25:59.33	139.78	24.68	
2025-01-10 00:26:00.36	140.03	24.56	
2025-01-10 00:26:01.38	140.29	24.43	
2025-01-10 00:26:02.41	140.54	24.31	
2025-01-10 00:26:03.43	140.79	24.18	
2025-01-10 00:26:04.46	141.04	24.06	
2025-01-10 00:26:05.49	141.29	23.93	
2025-01-10 00:26:06.51	141.53	23.81	
2025-01-10 00:26:07.53	141.77	23.68	
2025-01-10 00:26:08.57	142.01	23.56	
2025-01-10 00:26:09.59	142.25	23.44	
2025-01-10 00:26:10.62	142.49	23.31	
2025-01-10 00:26:11.65	142.73	23.19	
2025-01-10 00:26:12.67	142.96	23.06	
2025-01-10 00:26:13.71	143.19	22.94	
2025-01-10 00:26:14.74	143.42	22.82	
2025-01-10 00:26:15.77	143.65	22.69	
2025-01-10 00:26:16.80	143.88	22.57	
2025-01-10 00:26:17.82	144.10	22.45	
2025-01-10 00:26:18.86	144.32	22.32	
2025-01-10 00:26:19.88	144.54	22.20	
2025-01-10 00:26:20.91	144.76	22.08	
2025-01-10 00:26:21.94	144.98	21.96	
2025-01-10 00:26:22.96	145.19	21.84	
2025-01-10 00:26:23.99	145.41	21.71	
2025-01-10 00:26:25.02	145.62	21.59	
2025-01-10 00:26:26.04	145.83	21.47	
2025-01-10 00:26:27.06	146.03	21.35	
2025-01-10 00:26:28.09	146.24	21.23	
2025-01-10 00:26:29.12	146.45	21.11	
2025-01-10 00:26:30.14	146.65	20.99	
2025-01-10 00:26:31.18	146.85	20.87	
2025-01-10 00:26:32.20	147.05	20.75	
2025-01-10 00:26:33.23	147.25	20.63	
2025-01-10 00:26:34.26	147.45	20.52	
2025-01-10 00:26:35.29	147.65	20.40	
2025-01-10 00:26:36.31	147.84	20.28	
2025-01-10 00:26:37.34	148.03	20.16	
2025-01-10 00:26:38.36	148.22	20.04	
2025-01-10 00:26:39.39	148.41	19.93	
2025-01-10 00:26:40.41	148.60	19.81	
2025-01-10 00:26:41.44	148.78	19.69	
2025-01-10 00:26:42.48	148.97	19.58	
2025-01-10 00:26:43.52	149.16	19.46	
2025-01-10 00:26:44.55	149.34	19.34	
2025-01-10 00:26:45.58	149.52	19.23	
2025-01-10 00:26:46.61	149.70	19.11	
2025-01-10 00:26:47.64	149.88	19.00	
2025-01-10 00:26:48.67	150.06	18.88	
2025-01-10 00:26:49.71	150.24	18.77	
2025-01-10 00:26:50.73	150.41	18.65	
2025-01-10 00:26:51.76	150.58	18.54	
2025-01-10 00:26:52.79	150.75	18.43	
2025-01-10 00:26:53.82	150.92	18.31	
2025-01-10 00:26:54.86	151.09	18.20	
2025-01-10 00:26:55.88	151.26	18.09	
2025-01-10 00:26:56.91	151.43	17.98	
2025-01-10 00:26:57.93	151.59	17.87	
2025-01-10 00:26:58.96	151.75	17.76	
2025-01-10 00:26:59.98	151.92	17.65	
2025-01-10 00:27:01.01	152.08	17.54	
2025-01-10 00:27:02.03	152.24	17.43	
2025-01-10 00:27:03.06	152.40	17.32	
2025-01-10 00:27:04.09	152.55	17.21	
2025-01-10 00:27:05.12	152.71	17.10	
2025-01-10 00:27:06.14	152.87	16.99	
2025-01-10 00:27:07.17	153.02	16.88	
2025-01-10 00:27:08.19	153.17	16.77	
2025-01-10 00:27:09.22	153.32	16.67	
2025-01-10 00:27:10.25	153.48	16.56	
2025-01-10 00:27:11.28	153.63	16.45	
2025-01-10 00:27:12.30	153.77	16.34	
2025-01-10 00:27:13.33	153.92	16.24	
2025-01-10 00:27:14.37	154.07	16.13	
2025-01-10 00:27:15.41	154.22	16.02	
2025-01-10 00:27:16.43	154.36	15.92	
2025-01-10 00:27:17.46	154.50	15.81	
2025-01-10 00:27:18.49	154.65	15.71	
2025-01-10 00:27:19.51	154.79	15.61	
2025-01-10 00:27:20.56	154.93	15.50	
2025-01-10 00:27:21.58	155.07	15.40	
2025-01-10 00:27:22.60	155.21	15.29	
2025-01-10 00:27:23.63	155.34	15.19	
2025-01-10 00:27:24.65	155.48	15.09	
2025-01-10 00:27:25.68	155.61	14.99	
2025-01-10 00:27:26.71	155.75	14.88	
2025-01-10 00:27:27.74	155.88	14.78	
2025-01-10 00:27:28.76	156.01	14.68	
2025-01-10 00:27:29.79	156.15	14.58	
2025-01-10 00:27:30.81	156.28	14.48	
2025-01-10 00:27:31.86	156.41	14.38	
2025-01-10 00:27:32.88	156.54	14.28	
2025-01-10 00:27:33.91	156.67	14.18	
2025-01-10 00:27:34.94	156.79	14.08	
2025-01-10 00:27:35.96	156.92	13.98	
2025-01-10 00:27:36.99	157.04	13.88	
2025-01-10 00:27:38.04	157.17	13.78	
2025-01-10 00:27:39.06	157.29	13.69	
2025-01-10 00:27:40.09	157.42	13.59	
2025-01-10 00:27:41.11	157.54	13.49	
2025-01-10 00:27:42.14	157.66	13.39	
2025-01-10 00:27:43.17	157.78	13.30	
2025-01-10 00:27:44.19	157.90	13.20	
2025-01-10 00:27:45.22	158.02	13.11	
2025-01-10 00:27:46.24	158.14	13.01	
2025-01-10 00:27:47.27	158.25	12.91	
2025-01-10 00:27:48.29	158.37	12.82	
2025-01-10 00:27:49.32	158.48	12.73	
2025-01-10 00:27:50.36	158.60	12.63	
2025-01-10 00:27:51.39	158.71	12.54	
2025-01-10 00:27:52.44	158.83	12.44	
2025-01-10 00:27:53.48	158.94	12.34	
2025-01-10 00:27:54.52	159.06	12.25	
2025-01-10 00:27:55.56	159.17	12.16	
2025-01-10 00:27:56.58	159.28	12.06	
2025-01-10 00:27:57.61	159.39	11.97	
2025-01-10 00:27:58.63	159.50	11.88	
2025-01-10 00:27:59.67	159.61	11.79	
2025-01-10 00:28:00.70	159.72	11.70	
2025-01-10 00:28:01.72	159.82	11.60	
2025-01-10 00:28:02.75	159.93	11.51	
2025-01-10 00:28:03.79	160.03	11.42	
2025-01-10 00:28:04.82	160.14	11.33	
2025-01-10 00:28:05.84	160.24	11.24	
2025-01-10 00:28:06.88	160.35	11.15	
2025-01-10 00:28:07.92	160.45	11.06	
2025-01-10 00:28:08.95	160.55	10.97	
2025-01-10 00:28:09.98	160.66	10.88	
2025-01-10 00:28:11.00	160.76	10.79	
2025-01-10 00:28:12.03	160.86	10.71	
2025-01-10 00:28:13.05	160.96	10.62	
2025-01-10 00:28:14.08	161.06	10.53	
2025-01-10 00:28:15.11	161.15	10.44	
2025-01-10 00:28:16.13	161.25	10.36	
2025-01-10 00:28:17.16	161.35	10.27	
2025-01-10 00:28:18.19	161.45	10.18	
2025-01-10 00:28:19.21	161.54	10.10	
2025-01-10 00:28:20.24	161.64	10.01	
2025-01-10 00:28:21.26	161.73	9.93	
2025-01-10 00:28:22.29	161.83	9.84	
2025-01-10 00:28:23.32	161.92	9.75	
2025-01-10 00:28:24.34	162.01	9.67	
2025-01-10 00:28:25.37	162.10	9.58	
2025-01-10 00:28:26.41	162.20	9.50	
2025-01-10 00:28:27.43	162.29	9.42	
2025-01-10 00:28:28.46	162.38	9.33	
2025-01-10 00:28:29.48	162.47	9.25	
2025-01-10 00:28:30.51	162.56	9.16	
2025-01-10 00:28:31.53	162.65	9.08	
2025-01-10 00:28:32.55	162.74	9.00	
2025-01-10 00:28:33.58	162.83	8.92	
2025-01-10 00:28:34.62	162.91	8.83	
2025-01-10 00:28:35.65	163.00	8.75	
2025-01-10 00:28:36.67	163.09	8.67	
2025-01-10 00:28:37.70	163.17	8.59	
2025-01-10 00:28:38.72	163.26	8.51	
2025-01-10 00:28:39.74	163.34	8.43	
2025-01-10 00:28:40.78	163.43	8.34	
2025-01-10 00:28:41.81	163.51	8.26	
2025-01-10 00:28:42.83	163.60	8.18	
2025-01-10 00:28:43.86	163.68	8.10	
2025-01-10 00:28:44.89	163.76	8.02	
2025-01-10 00:28:45.91	163.85	7.94	
2025-01-10 00:28:46.95	163.93	7.86	
2025-01-10 00:28:47.98	164.01	7.78	
2025-01-10 00:28:49.00	164.09	7.70	
2025-01-10 00:28:50.03	164.17	7.63	
2025-01-10 00:28:51.06	164.25	7.55	
2025-01-10 00:28:52.08	164.33	7.47	
2025-01-10 00:28:53.11	164.41	7.39	
2025-01-10 00:28:54.13	164.49	7.31	
2025-01-10 00:28:55.16	164.57	7.24	
2025-01-10 00:28:56.18	164.65	7.16	
2025-01-10 00:28:57.22	164.72	7.08	
2025-01-10 00:28:58.25	164.80	7.00	
2025-01-10 00:28:59.27	164.88	6.93	
2025-01-10 00:29:00.30	164.95	6.85	
2025-01-10 00:29:01.32	165.03	6.77	
2025-01-10 00:29:02.35	165.10	6.70	
2025-01-10 00:29:03.38	165.18	6.62	
2025-01-10 00:29:04.40	165.25	6.55	
2025-01-10 00:29:05.43	165.33	6.47	
2025-01-10 00:29:06.46	165.40	6.39	
2025-01-10 00:29:07.48	165.48	6.32	
2025-01-10 00:29:08.51	165.55	6.24	
2025-01-10 00:29:09.54	165.62	6.17	
2025-01-10 00:29:10.58	165.69	6.09	
2025-01-10 00:29:11.61	165.77	6.02	
2025-01-10 00:29:12.63	165.84	5.95	
2025-01-10 00:29:13.66	165.91	5.87	
2025-01-10 00:29:14.69	165.98	5.80	
2025-01-10 00:29:15.73	166.05	5.72	
2025-01-10 00:29:16.75	166.12	5.65	
2025-01-10 00:29:17.78	166.19	5.58	
2025-01-10 00:29:18.81	166.26	5.50	
2025-01-10 00:29:19.84	166.33	5.43	
2025-01-10 00:29:20.86	166.40	5.36	
2025-01-10 00:29:21.89	166.47	5.29	
2025-01-10 00:29:22.91	166.53	5.22	
2025-01-10 00:29:23.94	166.60	5.14	
2025-01-10 00:29:24.97	166.67	5.07	
2025-01-10 00:29:26.00	166.74	5.00	
2025-01-10 00:29:27.03	166.80	4.93	
2025-01-10 00:29:28.05	166.87	4.86	
2025-01-10 00:29:29.08	166.93	4.79	
2025-01-10 00:29:30.11	167.00	4.71	
2025-01-10 00:29:31.13	167.06	4.64	
2025-01-10 00:29:32.17	167.13	4.57	
2025-01-10 00:29:33.20	167.19	4.50	
2025-01-10 00:29:34.22	167.26	4.43	
2025-01-10 00:29:35.25	167.32	4.36	
2025-01-10 00:29:36.27	167.39	4.29	
2025-01-10 00:29:37.31	167.45	4.22	
2025-01-10 00:29:38.34	167.51	4.15	
2025-01-10 00:29:39.36	167.57	4.08	
2025-01-10 00:29:40.39	167.64	4.01	

#Closed at: 2025-01-10 00:29:40