passes_logs/2025/01/10/SPB_Silybum_02/SPB_Silybum_02__20250110_095925_SUOMI_NPP_rec.log

#Pass ID: 20250110_095925_SUOMI NPP
#Satellite: SUOMI NPP
#Configuration: NPP
#Start time: 2025-01-10 10:06:23

#Version: 2.0.20230423
#Station: SPB_Silybum_02
#Location: 30.233357 lon 59.946436 lat
#TLE: 1 37849U 11061A   25009.84493763  .00000180  00000+0  10621-3 0  9991
#TLE: 2 37849  98.7440 310.8990 0001846  48.8747 311.2588 14.19535791684182

#Time	Az	El	Level	Level2	SNR	BER	Gain	Gain2
2025-01-10 10:06:25.40	35.38	70.53	
2025-01-10 10:06:26.22	34.37	70.33	
2025-01-10 10:06:27.06	33.35	70.11	
2025-01-10 10:06:27.88	32.38	69.90	
2025-01-10 10:06:28.71	31.43	69.68	
2025-01-10 10:06:29.53	30.50	69.45	
2025-01-10 10:06:30.35	29.60	69.22	
2025-01-10 10:06:31.17	28.72	68.99	
2025-01-10 10:06:31.99	27.86	68.76	
2025-01-10 10:06:32.82	27.01	68.51	
2025-01-10 10:06:33.64	26.19	68.27	
2025-01-10 10:06:34.46	25.39	68.02	
2025-01-10 10:06:35.29	24.60	67.77	
2025-01-10 10:06:36.12	23.83	67.52	
2025-01-10 10:06:36.94	23.09	67.26	
2025-01-10 10:06:37.76	22.36	67.00	
2025-01-10 10:06:38.59	21.65	66.74	
2025-01-10 10:06:39.41	20.96	66.48	
2025-01-10 10:06:40.23	20.29	66.21	
2025-01-10 10:06:41.05	19.63	65.94	
2025-01-10 10:06:41.86	19.00	65.68	
2025-01-10 10:06:42.69	18.37	65.40	
2025-01-10 10:06:43.51	17.76	65.13	
2025-01-10 10:06:44.34	17.16	64.85	
2025-01-10 10:06:45.17	16.57	64.57	
2025-01-10 10:06:45.99	16.01	64.30	
2025-01-10 10:06:46.82	15.45	64.02	
2025-01-10 10:06:47.64	14.91	63.74	
2025-01-10 10:06:48.47	14.38	63.45	
2025-01-10 10:06:49.30	13.86	63.17	
2025-01-10 10:06:50.12	13.36	62.89	
2025-01-10 10:06:50.94	12.87	62.61	
2025-01-10 10:06:51.76	12.40	62.32	
2025-01-10 10:06:52.59	11.92	62.04	
2025-01-10 10:06:53.41	11.47	61.75	
2025-01-10 10:06:54.24	11.02	61.47	
2025-01-10 10:06:55.08	10.57	61.18	
2025-01-10 10:06:55.90	10.15	60.89	
2025-01-10 10:06:56.72	9.73	60.61	
2025-01-10 10:06:57.54	9.33	60.32	
2025-01-10 10:06:58.36	8.93	60.04	
2025-01-10 10:06:59.20	8.53	59.75	
2025-01-10 10:07:00.02	8.15	59.46	
2025-01-10 10:07:00.84	7.78	59.18	
2025-01-10 10:07:01.67	7.41	58.89	
2025-01-10 10:07:02.49	7.06	58.61	
2025-01-10 10:07:03.31	6.71	58.32	
2025-01-10 10:07:04.14	6.37	58.04	
2025-01-10 10:07:04.96	6.03	57.75	
2025-01-10 10:07:05.78	5.71	57.47	
2025-01-10 10:07:06.61	5.38	57.19	
2025-01-10 10:07:07.43	5.07	56.91	
2025-01-10 10:07:08.25	4.76	56.63	
2025-01-10 10:07:09.07	4.46	56.35	
2025-01-10 10:07:09.89	4.17	56.07	
2025-01-10 10:07:10.71	3.88	55.79	
2025-01-10 10:07:11.53	3.60	55.51	
2025-01-10 10:07:12.35	3.32	55.24	
2025-01-10 10:07:13.19	3.04	54.95	
2025-01-10 10:07:14.01	2.78	54.68	
2025-01-10 10:07:14.83	2.52	54.40	
2025-01-10 10:07:15.66	2.26	54.13	
2025-01-10 10:07:16.48	2.01	53.85	
2025-01-10 10:07:17.31	1.76	53.58	
2025-01-10 10:07:18.13	1.52	53.31	
2025-01-10 10:07:18.95	1.28	53.04	
2025-01-10 10:07:19.77	1.05	52.77	
2025-01-10 10:07:20.59	0.82	52.50	
2025-01-10 10:07:21.41	0.59	52.23	
2025-01-10 10:07:22.23	0.37	51.97	
2025-01-10 10:07:23.05	0.16	51.70	
2025-01-10 10:07:23.87	359.95	51.44	
2025-01-10 10:07:24.69	359.74	51.18	
2025-01-10 10:07:25.52	359.53	50.91	
2025-01-10 10:07:26.35	359.33	50.65	
2025-01-10 10:07:27.17	359.13	50.39	
2025-01-10 10:07:27.99	358.93	50.13	
2025-01-10 10:07:28.82	358.74	49.87	
2025-01-10 10:07:29.64	358.55	49.61	
2025-01-10 10:07:30.46	358.37	49.36	
2025-01-10 10:07:31.28	358.19	49.10	
2025-01-10 10:07:32.10	358.01	48.85	
2025-01-10 10:07:32.92	357.83	48.60	
2025-01-10 10:07:33.74	357.66	48.35	
2025-01-10 10:07:34.58	357.49	48.09	
2025-01-10 10:07:35.40	357.32	47.85	
2025-01-10 10:07:36.22	357.16	47.60	
2025-01-10 10:07:37.04	356.99	47.35	
2025-01-10 10:07:37.86	356.83	47.11	
2025-01-10 10:07:38.69	356.68	46.86	
2025-01-10 10:07:39.51	356.52	46.62	
2025-01-10 10:07:40.34	356.37	46.38	
2025-01-10 10:07:41.16	356.22	46.14	
2025-01-10 10:07:41.99	356.07	45.89	
2025-01-10 10:07:42.83	355.92	45.65	
2025-01-10 10:07:43.65	355.78	45.41	
2025-01-10 10:07:44.46	355.64	45.18	
2025-01-10 10:07:45.28	355.50	44.95	
2025-01-10 10:07:46.10	355.37	44.72	
2025-01-10 10:07:46.92	355.23	44.48	
2025-01-10 10:07:47.75	355.10	44.25	
2025-01-10 10:07:48.57	354.97	44.02	
2025-01-10 10:07:49.39	354.84	43.79	
2025-01-10 10:07:50.21	354.71	43.57	
2025-01-10 10:07:51.03	354.59	43.34	
2025-01-10 10:07:51.85	354.47	43.12	
2025-01-10 10:07:52.68	354.34	42.89	
2025-01-10 10:07:53.51	354.22	42.67	
2025-01-10 10:07:54.33	354.10	42.45	
2025-01-10 10:07:55.15	353.99	42.23	
2025-01-10 10:07:55.97	353.87	42.01	
2025-01-10 10:07:56.80	353.76	41.79	
2025-01-10 10:07:57.62	353.65	41.57	
2025-01-10 10:07:58.45	353.54	41.35	
2025-01-10 10:07:59.27	353.43	41.14	
2025-01-10 10:08:00.09	353.32	40.93	
2025-01-10 10:08:00.91	353.22	40.72	
2025-01-10 10:08:01.73	353.11	40.50	
2025-01-10 10:08:02.56	353.01	40.29	
2025-01-10 10:08:03.39	352.91	40.08	
2025-01-10 10:08:04.21	352.81	39.88	
2025-01-10 10:08:05.03	352.71	39.67	
2025-01-10 10:08:05.85	352.61	39.46	
2025-01-10 10:08:06.67	352.51	39.26	
2025-01-10 10:08:07.50	352.42	39.06	
2025-01-10 10:08:08.32	352.32	38.85	
2025-01-10 10:08:09.14	352.23	38.65	
2025-01-10 10:08:09.98	352.14	38.45	
2025-01-10 10:08:10.80	352.05	38.25	
2025-01-10 10:08:11.62	351.96	38.05	
2025-01-10 10:08:12.44	351.87	37.86	
2025-01-10 10:08:13.26	351.78	37.66	
2025-01-10 10:08:14.08	351.70	37.47	
2025-01-10 10:08:14.90	351.61	37.28	
2025-01-10 10:08:15.73	351.53	37.08	
2025-01-10 10:08:16.55	351.45	36.89	
2025-01-10 10:08:17.38	351.36	36.70	
2025-01-10 10:08:18.20	351.28	36.51	
2025-01-10 10:08:19.03	351.20	36.32	
2025-01-10 10:08:19.85	351.12	36.13	
2025-01-10 10:08:20.66	351.05	35.95	
2025-01-10 10:08:21.49	350.97	35.76	
2025-01-10 10:08:22.30	350.89	35.58	
2025-01-10 10:08:23.12	350.82	35.40	
2025-01-10 10:08:23.95	350.74	35.22	
2025-01-10 10:08:24.77	350.67	35.04	
2025-01-10 10:08:25.59	350.60	34.86	
2025-01-10 10:08:26.41	350.53	34.68	
2025-01-10 10:08:27.24	350.45	34.50	
2025-01-10 10:08:28.06	350.38	34.32	
2025-01-10 10:08:28.89	350.31	34.14	
2025-01-10 10:08:29.72	350.24	33.97	
2025-01-10 10:08:30.54	350.18	33.79	
2025-01-10 10:08:31.36	350.11	33.62	
2025-01-10 10:08:32.19	350.04	33.44	
2025-01-10 10:08:33.01	349.98	33.27	
2025-01-10 10:08:33.83	349.91	33.10	
2025-01-10 10:08:34.65	349.85	32.93	
2025-01-10 10:08:35.47	349.79	32.77	
2025-01-10 10:08:36.29	349.72	32.60	
2025-01-10 10:08:37.11	349.66	32.43	
2025-01-10 10:08:37.93	349.60	32.27	
2025-01-10 10:08:38.75	349.54	32.10	
2025-01-10 10:08:39.58	349.48	31.93	
2025-01-10 10:08:40.40	349.42	31.77	
2025-01-10 10:08:41.22	349.36	31.61	
2025-01-10 10:08:42.03	349.30	31.45	
2025-01-10 10:08:42.85	349.24	31.29	
2025-01-10 10:08:43.67	349.19	31.13	
2025-01-10 10:08:44.50	349.13	30.97	
2025-01-10 10:08:45.32	349.07	30.81	
2025-01-10 10:08:46.14	349.02	30.65	
2025-01-10 10:08:46.96	348.96	30.50	
2025-01-10 10:08:47.78	348.91	30.34	
2025-01-10 10:08:48.60	348.86	30.19	
2025-01-10 10:08:49.42	348.80	30.03	
2025-01-10 10:08:50.25	348.75	29.88	
2025-01-10 10:08:51.07	348.70	29.73	
2025-01-10 10:08:51.90	348.65	29.57	
2025-01-10 10:08:52.72	348.59	29.42	
2025-01-10 10:08:53.56	348.54	29.27	
2025-01-10 10:08:54.38	348.49	29.12	
2025-01-10 10:08:55.20	348.44	28.97	
2025-01-10 10:08:56.03	348.39	28.82	
2025-01-10 10:08:56.85	348.35	28.67	
2025-01-10 10:08:57.67	348.30	28.53	
2025-01-10 10:08:58.49	348.25	28.38	
2025-01-10 10:08:59.31	348.20	28.24	
2025-01-10 10:09:00.13	348.16	28.09	
2025-01-10 10:09:00.95	348.11	27.95	
2025-01-10 10:09:01.77	348.06	27.81	
2025-01-10 10:09:02.59	348.02	27.67	
2025-01-10 10:09:03.41	347.97	27.53	
2025-01-10 10:09:04.23	347.93	27.39	
2025-01-10 10:09:05.05	347.88	27.25	
2025-01-10 10:09:05.87	347.84	27.11	
2025-01-10 10:09:06.69	347.80	26.97	
2025-01-10 10:09:07.51	347.75	26.83	
2025-01-10 10:09:08.35	347.71	26.69	
2025-01-10 10:09:09.17	347.67	26.55	
2025-01-10 10:09:09.99	347.63	26.42	
2025-01-10 10:09:10.81	347.59	26.28	
2025-01-10 10:09:11.64	347.54	26.15	
2025-01-10 10:09:12.46	347.50	26.01	
2025-01-10 10:09:13.28	347.46	25.88	
2025-01-10 10:09:14.10	347.42	25.75	
2025-01-10 10:09:14.92	347.38	25.62	
2025-01-10 10:09:15.74	347.35	25.49	
2025-01-10 10:09:16.57	347.31	25.35	
2025-01-10 10:09:17.39	347.27	25.23	
2025-01-10 10:09:18.21	347.23	25.10	
2025-01-10 10:09:19.03	347.19	24.97	
2025-01-10 10:09:19.86	347.15	24.84	
2025-01-10 10:09:20.68	347.12	24.71	
2025-01-10 10:09:21.50	347.08	24.58	
2025-01-10 10:09:22.32	347.04	24.46	
2025-01-10 10:09:23.14	347.01	24.33	
2025-01-10 10:09:23.96	346.97	24.21	
2025-01-10 10:09:24.79	346.94	24.08	
2025-01-10 10:09:25.62	346.90	23.96	
2025-01-10 10:09:26.43	346.87	23.83	
2025-01-10 10:09:27.26	346.83	23.71	
2025-01-10 10:09:28.08	346.80	23.59	
2025-01-10 10:09:28.91	346.76	23.47	
2025-01-10 10:09:29.76	346.73	23.34	
2025-01-10 10:09:30.58	346.69	23.22	
2025-01-10 10:09:31.40	346.66	23.10	
2025-01-10 10:09:32.22	346.63	22.98	
2025-01-10 10:09:33.04	346.59	22.86	
2025-01-10 10:09:33.86	346.56	22.74	
2025-01-10 10:09:34.68	346.53	22.63	
2025-01-10 10:09:35.52	346.50	22.51	
2025-01-10 10:09:36.34	346.47	22.39	
2025-01-10 10:09:37.17	346.43	22.27	
2025-01-10 10:09:38.00	346.40	22.16	
2025-01-10 10:09:38.82	346.37	22.04	
2025-01-10 10:09:39.64	346.34	21.93	
2025-01-10 10:09:40.47	346.31	21.81	
2025-01-10 10:09:41.29	346.28	21.70	
2025-01-10 10:09:42.11	346.25	21.58	
2025-01-10 10:09:42.93	346.22	21.47	
2025-01-10 10:09:43.75	346.19	21.36	
2025-01-10 10:09:44.58	346.16	21.25	
2025-01-10 10:09:45.40	346.13	21.14	
2025-01-10 10:09:46.22	346.10	21.03	
2025-01-10 10:09:47.04	346.08	20.91	
2025-01-10 10:09:47.86	346.05	20.81	
2025-01-10 10:09:48.68	346.02	20.70	
2025-01-10 10:09:49.50	345.99	20.59	
2025-01-10 10:09:50.32	345.97	20.48	
2025-01-10 10:09:51.14	345.94	20.37	
2025-01-10 10:09:51.97	345.91	20.26	
2025-01-10 10:09:52.80	345.88	20.15	
2025-01-10 10:09:53.62	345.86	20.05	
2025-01-10 10:09:54.44	345.83	19.94	
2025-01-10 10:09:55.26	345.80	19.84	
2025-01-10 10:09:56.08	345.78	19.73	
2025-01-10 10:09:56.90	345.75	19.63	
2025-01-10 10:09:57.72	345.73	19.52	
2025-01-10 10:09:58.56	345.70	19.42	
2025-01-10 10:09:59.38	345.68	19.31	
2025-01-10 10:10:00.20	345.65	19.21	
2025-01-10 10:10:01.02	345.63	19.11	
2025-01-10 10:10:01.84	345.60	19.01	
2025-01-10 10:10:02.67	345.58	18.90	
2025-01-10 10:10:03.49	345.55	18.80	
2025-01-10 10:10:04.31	345.53	18.70	
2025-01-10 10:10:05.13	345.50	18.60	
2025-01-10 10:10:05.95	345.48	18.50	
2025-01-10 10:10:06.77	345.46	18.40	
2025-01-10 10:10:07.59	345.43	18.30	
2025-01-10 10:10:08.41	345.41	18.20	
2025-01-10 10:10:09.25	345.39	18.10	
2025-01-10 10:10:10.07	345.36	18.00	
2025-01-10 10:10:10.89	345.34	17.91	
2025-01-10 10:10:11.71	345.32	17.81	
2025-01-10 10:10:12.53	345.30	17.71	
2025-01-10 10:10:13.36	345.27	17.61	
2025-01-10 10:10:14.18	345.25	17.52	
2025-01-10 10:10:15.00	345.23	17.42	
2025-01-10 10:10:15.82	345.21	17.33	
2025-01-10 10:10:16.65	345.18	17.23	
2025-01-10 10:10:17.47	345.16	17.14	
2025-01-10 10:10:18.29	345.14	17.04	
2025-01-10 10:10:19.13	345.12	16.95	
2025-01-10 10:10:19.95	345.10	16.85	
2025-01-10 10:10:20.78	345.08	16.76	
2025-01-10 10:10:21.60	345.06	16.67	
2025-01-10 10:10:22.43	345.04	16.57	
2025-01-10 10:10:23.25	345.02	16.48	
2025-01-10 10:10:24.07	345.00	16.39	
2025-01-10 10:10:24.91	344.98	16.29	
2025-01-10 10:10:25.74	344.96	16.20	
2025-01-10 10:10:26.57	344.94	16.11	
2025-01-10 10:10:27.39	344.92	16.02	
2025-01-10 10:10:28.21	344.90	15.93	
2025-01-10 10:10:29.03	344.88	15.84	
2025-01-10 10:10:29.85	344.86	15.75	
2025-01-10 10:10:30.68	344.84	15.66	
2025-01-10 10:10:31.50	344.82	15.57	
2025-01-10 10:10:32.32	344.80	15.48	
2025-01-10 10:10:33.14	344.78	15.39	
2025-01-10 10:10:33.96	344.76	15.31	
2025-01-10 10:10:34.78	344.74	15.22	
2025-01-10 10:10:35.60	344.73	15.13	
2025-01-10 10:10:36.43	344.71	15.04	
2025-01-10 10:10:37.25	344.69	14.96	
2025-01-10 10:10:38.08	344.67	14.87	
2025-01-10 10:10:38.90	344.65	14.78	
2025-01-10 10:10:39.73	344.64	14.70	
2025-01-10 10:10:40.55	344.62	14.61	
2025-01-10 10:10:41.36	344.60	14.53	
2025-01-10 10:10:42.19	344.58	14.44	
2025-01-10 10:10:43.02	344.57	14.36	
2025-01-10 10:10:43.84	344.55	14.27	
2025-01-10 10:10:44.66	344.53	14.19	
2025-01-10 10:10:45.48	344.52	14.10	
2025-01-10 10:10:46.30	344.50	14.02	
2025-01-10 10:10:47.12	344.48	13.94	
2025-01-10 10:10:47.96	344.46	13.85	
2025-01-10 10:10:48.78	344.45	13.77	
2025-01-10 10:10:49.60	344.43	13.69	
2025-01-10 10:10:50.42	344.42	13.61	
2025-01-10 10:10:51.24	344.40	13.52	
2025-01-10 10:10:52.07	344.38	13.44	
2025-01-10 10:10:52.89	344.37	13.36	
2025-01-10 10:10:53.71	344.35	13.28	
2025-01-10 10:10:54.54	344.34	13.20	
2025-01-10 10:10:55.36	344.32	13.12	
2025-01-10 10:10:56.20	344.30	13.04	
2025-01-10 10:10:57.02	344.29	12.96	
2025-01-10 10:10:57.84	344.27	12.88	
2025-01-10 10:10:58.66	344.26	12.80	
2025-01-10 10:10:59.48	344.24	12.72	
2025-01-10 10:11:00.30	344.23	12.64	
2025-01-10 10:11:01.14	344.21	12.56	
2025-01-10 10:11:01.96	344.20	12.48	
2025-01-10 10:11:02.78	344.18	12.40	
2025-01-10 10:11:03.60	344.17	12.32	
2025-01-10 10:11:04.43	344.15	12.25	
2025-01-10 10:11:05.25	344.14	12.17	
2025-01-10 10:11:06.07	344.13	12.09	
2025-01-10 10:11:06.89	344.11	12.02	
2025-01-10 10:11:07.71	344.10	11.94	
2025-01-10 10:11:08.53	344.08	11.86	
2025-01-10 10:11:09.35	344.07	11.79	
2025-01-10 10:11:10.19	344.06	11.71	
2025-01-10 10:11:11.01	344.04	11.63	
2025-01-10 10:11:11.83	344.03	11.56	
2025-01-10 10:11:12.65	344.01	11.48	
2025-01-10 10:11:13.47	344.00	11.41	
2025-01-10 10:11:14.29	343.99	11.33	
2025-01-10 10:11:15.11	343.97	11.26	
2025-01-10 10:11:15.94	343.96	11.18	
2025-01-10 10:11:16.75	343.95	11.11	
2025-01-10 10:11:17.57	343.93	11.04	
2025-01-10 10:11:18.40	343.92	10.96	
2025-01-10 10:11:19.21	343.91	10.89	
2025-01-10 10:11:20.04	343.90	10.81	
2025-01-10 10:11:20.85	343.88	10.74	
2025-01-10 10:11:21.68	343.87	10.67	
2025-01-10 10:11:22.51	343.86	10.60	
2025-01-10 10:11:23.34	343.85	10.52	
2025-01-10 10:11:24.16	343.83	10.45	
2025-01-10 10:11:24.97	343.82	10.38	
2025-01-10 10:11:25.79	343.81	10.31	
2025-01-10 10:11:26.61	343.80	10.24	
2025-01-10 10:11:27.43	343.78	10.16	
2025-01-10 10:11:28.25	343.77	10.09	
2025-01-10 10:11:29.08	343.76	10.02	
2025-01-10 10:11:29.90	343.75	9.95	
2025-01-10 10:11:30.72	343.74	9.88	
2025-01-10 10:11:31.56	343.72	9.81	
2025-01-10 10:11:32.38	343.71	9.74	
2025-01-10 10:11:33.21	343.70	9.67	
2025-01-10 10:11:34.05	343.69	9.60	
2025-01-10 10:11:34.87	343.68	9.53	
2025-01-10 10:11:35.69	343.67	9.46	
2025-01-10 10:11:36.51	343.65	9.39	
2025-01-10 10:11:37.33	343.64	9.32	
2025-01-10 10:11:38.15	343.63	9.25	
2025-01-10 10:11:38.97	343.62	9.18	
2025-01-10 10:11:39.80	343.61	9.11	
2025-01-10 10:11:40.61	343.60	9.05	
2025-01-10 10:11:41.44	343.59	8.98	
2025-01-10 10:11:42.26	343.58	8.91	
2025-01-10 10:11:43.08	343.57	8.84	
2025-01-10 10:11:43.90	343.56	8.77	
2025-01-10 10:11:44.73	343.55	8.71	
2025-01-10 10:11:45.55	343.53	8.64	
2025-01-10 10:11:46.38	343.52	8.57	
2025-01-10 10:11:47.20	343.51	8.51	
2025-01-10 10:11:48.03	343.50	8.44	
2025-01-10 10:11:48.85	343.49	8.37	
2025-01-10 10:11:49.67	343.48	8.31	
2025-01-10 10:11:50.50	343.47	8.24	
2025-01-10 10:11:51.32	343.46	8.17	
2025-01-10 10:11:52.14	343.45	8.11	
2025-01-10 10:11:52.96	343.44	8.04	
2025-01-10 10:11:53.78	343.43	7.98	
2025-01-10 10:11:54.60	343.42	7.91	
2025-01-10 10:11:55.44	343.41	7.84	
2025-01-10 10:11:56.25	343.40	7.78	
2025-01-10 10:11:57.08	343.39	7.71	
2025-01-10 10:11:57.90	343.38	7.65	
2025-01-10 10:11:58.72	343.37	7.59	
2025-01-10 10:11:59.54	343.36	7.52	
2025-01-10 10:12:00.36	343.35	7.46	
2025-01-10 10:12:01.18	343.34	7.39	
2025-01-10 10:12:02.00	343.34	7.33	
2025-01-10 10:12:02.82	343.33	7.27	
2025-01-10 10:12:03.64	343.32	7.20	
2025-01-10 10:12:04.47	343.31	7.14	
2025-01-10 10:12:05.31	343.30	7.07	
2025-01-10 10:12:06.13	343.29	7.01	
2025-01-10 10:12:06.95	343.28	6.95	
2025-01-10 10:12:07.76	343.27	6.89	
2025-01-10 10:12:08.58	343.26	6.83	
2025-01-10 10:12:09.40	343.25	6.76	
2025-01-10 10:12:10.24	343.24	6.70	
2025-01-10 10:12:11.06	343.24	6.64	
2025-01-10 10:12:11.88	343.23	6.58	
2025-01-10 10:12:12.70	343.22	6.51	
2025-01-10 10:12:13.52	343.21	6.45	
2025-01-10 10:12:14.34	343.20	6.39	
2025-01-10 10:12:15.17	343.19	6.33	
2025-01-10 10:12:15.99	343.18	6.27	
2025-01-10 10:12:16.81	343.18	6.21	
2025-01-10 10:12:17.63	343.17	6.15	
2025-01-10 10:12:18.45	343.16	6.08	
2025-01-10 10:12:19.27	343.15	6.02	
2025-01-10 10:12:20.09	343.14	5.96	
2025-01-10 10:12:20.91	343.13	5.90	
2025-01-10 10:12:21.73	343.13	5.84	
2025-01-10 10:12:22.55	343.12	5.78	
2025-01-10 10:12:23.37	343.11	5.72	
2025-01-10 10:12:24.19	343.10	5.66	
2025-01-10 10:12:25.01	343.09	5.60	
2025-01-10 10:12:25.84	343.09	5.54	
2025-01-10 10:12:26.67	343.08	5.48	
2025-01-10 10:12:27.50	343.07	5.42	
2025-01-10 10:12:28.32	343.06	5.37	
2025-01-10 10:12:29.14	343.06	5.31	
2025-01-10 10:12:29.97	343.05	5.25	
2025-01-10 10:12:30.79	343.04	5.19	
2025-01-10 10:12:31.61	343.03	5.13	
2025-01-10 10:12:32.43	343.02	5.07	
2025-01-10 10:12:33.25	343.02	5.01	
2025-01-10 10:12:34.08	343.01	4.95	
2025-01-10 10:12:34.89	343.00	4.90	
2025-01-10 10:12:35.71	343.00	4.84	
2025-01-10 10:12:36.54	342.99	4.78	
2025-01-10 10:12:37.35	342.98	4.72	
2025-01-10 10:12:38.17	342.97	4.67	
2025-01-10 10:12:39.00	342.97	4.61	
2025-01-10 10:12:39.82	342.96	4.55	
2025-01-10 10:12:40.64	342.95	4.49	
2025-01-10 10:12:41.46	342.95	4.44	
2025-01-10 10:12:42.28	342.94	4.38	
2025-01-10 10:12:43.11	342.93	4.32	
2025-01-10 10:12:43.93	342.92	4.27	
2025-01-10 10:12:44.75	342.92	4.21	
2025-01-10 10:12:45.57	342.91	4.15	
2025-01-10 10:12:46.41	342.90	4.09	
2025-01-10 10:12:47.23	342.90	4.04	

#Closed at: 2025-01-10 10:12:47