passes_logs/2025/01/10/SPB_Silybum_02/SPB_Silybum_02__20250110_015554_AQUA_rec.log

#Pass ID: 20250110_015554_AQUA
#Satellite: AQUA
#Configuration: AQUA
#Start time: 2025-01-10 01:59:27

#Version: 2.0.20230423
#Station: SPB_Silybum_02
#Location: 30.233357 lon 59.946436 lat
#TLE: 1 27424U 02022A   25009.18250328  .00001819  00000+0  38344-3 0  9993
#TLE: 2 27424  98.3576 325.7944 0001512 117.4139 299.3627 14.60660146206772

#Time	Az	El	Level	Level2	SNR	BER	Gain	Gain2
2025-01-10 01:59:29.07	359.14	27.53	
2025-01-10 01:59:29.89	359.00	27.68	
2025-01-10 01:59:30.71	358.86	27.82	
2025-01-10 01:59:31.53	358.72	27.97	
2025-01-10 01:59:32.35	358.58	28.12	
2025-01-10 01:59:33.17	358.44	28.27	
2025-01-10 01:59:34.00	358.29	28.42	
2025-01-10 01:59:34.82	358.14	28.57	
2025-01-10 01:59:35.64	357.99	28.72	
2025-01-10 01:59:36.46	357.84	28.87	
2025-01-10 01:59:37.28	357.69	29.02	
2025-01-10 01:59:38.10	357.54	29.18	
2025-01-10 01:59:38.94	357.38	29.33	
2025-01-10 01:59:39.77	357.22	29.49	
2025-01-10 01:59:40.59	357.06	29.64	
2025-01-10 01:59:41.42	356.90	29.80	
2025-01-10 01:59:42.24	356.74	29.96	
2025-01-10 01:59:43.06	356.58	30.11	
2025-01-10 01:59:43.88	356.41	30.27	
2025-01-10 01:59:44.71	356.25	30.43	
2025-01-10 01:59:45.53	356.08	30.59	
2025-01-10 01:59:46.36	355.91	30.75	
2025-01-10 01:59:47.18	355.74	30.91	
2025-01-10 01:59:48.00	355.56	31.07	
2025-01-10 01:59:48.82	355.39	31.23	
2025-01-10 01:59:49.65	355.21	31.40	
2025-01-10 01:59:50.47	355.03	31.56	
2025-01-10 01:59:51.29	354.85	31.72	
2025-01-10 01:59:52.12	354.67	31.89	
2025-01-10 01:59:52.94	354.48	32.05	
2025-01-10 01:59:53.76	354.30	32.22	
2025-01-10 01:59:54.59	354.10	32.39	
2025-01-10 01:59:55.42	353.91	32.56	
2025-01-10 01:59:56.24	353.72	32.72	
2025-01-10 01:59:57.06	353.53	32.89	
2025-01-10 01:59:57.90	353.32	33.06	
2025-01-10 01:59:58.72	353.13	33.23	
2025-01-10 01:59:59.54	352.92	33.40	
2025-01-10 02:00:00.37	352.72	33.58	
2025-01-10 02:00:01.19	352.51	33.75	
2025-01-10 02:00:02.02	352.30	33.92	
2025-01-10 02:00:02.84	352.09	34.09	
2025-01-10 02:00:03.66	351.88	34.27	
2025-01-10 02:00:04.48	351.67	34.44	
2025-01-10 02:00:05.30	351.45	34.61	
2025-01-10 02:00:06.13	351.23	34.79	
2025-01-10 02:00:06.95	351.00	34.97	
2025-01-10 02:00:07.77	350.78	35.14	
2025-01-10 02:00:08.59	350.55	35.32	
2025-01-10 02:00:09.41	350.32	35.49	
2025-01-10 02:00:10.23	350.09	35.67	
2025-01-10 02:00:11.05	349.86	35.85	
2025-01-10 02:00:11.89	349.61	36.03	
2025-01-10 02:00:12.71	349.37	36.21	
2025-01-10 02:00:13.53	349.13	36.39	
2025-01-10 02:00:14.35	348.88	36.57	
2025-01-10 02:00:15.17	348.64	36.75	
2025-01-10 02:00:15.99	348.38	36.93	
2025-01-10 02:00:16.82	348.13	37.11	
2025-01-10 02:00:17.65	347.87	37.30	
2025-01-10 02:00:18.47	347.61	37.48	
2025-01-10 02:00:19.28	347.35	37.66	
2025-01-10 02:00:20.10	347.08	37.84	
2025-01-10 02:00:20.92	346.81	38.02	
2025-01-10 02:00:21.75	346.53	38.21	
2025-01-10 02:00:22.57	346.26	38.39	
2025-01-10 02:00:23.39	345.98	38.58	
2025-01-10 02:00:24.21	345.70	38.76	
2025-01-10 02:00:25.03	345.41	38.95	
2025-01-10 02:00:25.85	345.12	39.13	
2025-01-10 02:00:26.69	344.82	39.32	
2025-01-10 02:00:27.52	344.52	39.51	
2025-01-10 02:00:28.34	344.22	39.69	
2025-01-10 02:00:29.17	343.92	39.88	
2025-01-10 02:00:29.99	343.61	40.07	
2025-01-10 02:00:30.81	343.30	40.25	
2025-01-10 02:00:31.63	342.99	40.44	
2025-01-10 02:00:32.45	342.67	40.62	
2025-01-10 02:00:33.27	342.35	40.81	
2025-01-10 02:00:34.11	342.01	41.00	
2025-01-10 02:00:34.94	341.68	41.19	
2025-01-10 02:00:35.76	341.35	41.37	
2025-01-10 02:00:36.59	341.01	41.56	
2025-01-10 02:00:37.41	340.66	41.75	
2025-01-10 02:00:38.24	340.32	41.93	
2025-01-10 02:00:39.06	339.97	42.12	
2025-01-10 02:00:39.88	339.61	42.30	
2025-01-10 02:00:40.71	339.25	42.49	
2025-01-10 02:00:41.53	338.89	42.68	
2025-01-10 02:00:42.35	338.52	42.86	
2025-01-10 02:00:43.18	338.15	43.05	
2025-01-10 02:00:44.00	337.77	43.23	
2025-01-10 02:00:44.82	337.39	43.41	
2025-01-10 02:00:45.64	337.01	43.59	
2025-01-10 02:00:46.46	336.62	43.78	
2025-01-10 02:00:47.29	336.22	43.96	
2025-01-10 02:00:48.11	335.83	44.14	
2025-01-10 02:00:48.93	335.42	44.32	
2025-01-10 02:00:49.75	335.02	44.50	
2025-01-10 02:00:50.57	334.61	44.68	
2025-01-10 02:00:51.39	334.19	44.85	
2025-01-10 02:00:52.21	333.77	45.03	
2025-01-10 02:00:53.03	333.34	45.21	
2025-01-10 02:00:53.86	332.91	45.38	
2025-01-10 02:00:54.68	332.47	45.56	
2025-01-10 02:00:55.50	332.03	45.73	
2025-01-10 02:00:56.32	331.59	45.90	
2025-01-10 02:00:57.14	331.14	46.07	
2025-01-10 02:00:57.96	330.68	46.24	
2025-01-10 02:00:58.79	330.21	46.41	
2025-01-10 02:00:59.61	329.75	46.58	
2025-01-10 02:01:00.44	329.27	46.75	
2025-01-10 02:01:01.26	328.80	46.91	
2025-01-10 02:01:02.08	328.32	47.07	
2025-01-10 02:01:02.91	327.82	47.24	
2025-01-10 02:01:03.73	327.33	47.40	
2025-01-10 02:01:04.55	326.84	47.55	
2025-01-10 02:01:05.37	326.34	47.71	
2025-01-10 02:01:06.19	325.83	47.86	
2025-01-10 02:01:07.01	325.32	48.02	
2025-01-10 02:01:07.84	324.80	48.17	
2025-01-10 02:01:08.68	324.26	48.32	
2025-01-10 02:01:09.52	323.72	48.47	
2025-01-10 02:01:10.35	323.18	48.61	
2025-01-10 02:01:11.17	322.65	48.76	
2025-01-10 02:01:12.00	322.10	48.90	
2025-01-10 02:01:12.82	321.55	49.03	
2025-01-10 02:01:13.64	321.00	49.17	
2025-01-10 02:01:14.46	320.44	49.30	
2025-01-10 02:01:15.28	319.88	49.43	
2025-01-10 02:01:16.10	319.31	49.56	
2025-01-10 02:01:16.92	318.74	49.68	
2025-01-10 02:01:17.74	318.16	49.81	
2025-01-10 02:01:18.57	317.58	49.93	
2025-01-10 02:01:19.40	316.98	50.04	
2025-01-10 02:01:20.22	316.39	50.16	
2025-01-10 02:01:21.05	315.79	50.27	
2025-01-10 02:01:21.87	315.19	50.38	
2025-01-10 02:01:22.69	314.59	50.48	
2025-01-10 02:01:23.52	313.97	50.58	
2025-01-10 02:01:24.34	313.36	50.68	
2025-01-10 02:01:25.16	312.75	50.78	
2025-01-10 02:01:25.99	312.12	50.87	
2025-01-10 02:01:26.81	311.50	50.96	
2025-01-10 02:01:27.63	310.87	51.04	
2025-01-10 02:01:28.47	310.22	51.13	
2025-01-10 02:01:29.29	309.59	51.20	
2025-01-10 02:01:30.11	308.95	51.28	
2025-01-10 02:01:30.93	308.31	51.35	
2025-01-10 02:01:31.75	307.67	51.42	
2025-01-10 02:01:32.57	307.02	51.48	
2025-01-10 02:01:33.39	306.37	51.54	
2025-01-10 02:01:34.21	305.72	51.59	
2025-01-10 02:01:35.03	305.07	51.65	
2025-01-10 02:01:35.85	304.41	51.69	
2025-01-10 02:01:36.67	303.75	51.74	
2025-01-10 02:01:37.49	303.09	51.78	
2025-01-10 02:01:38.32	302.42	51.82	
2025-01-10 02:01:39.14	301.76	51.85	
2025-01-10 02:01:39.96	301.09	51.88	
2025-01-10 02:01:40.78	300.42	51.90	
2025-01-10 02:01:41.62	299.74	51.92	
2025-01-10 02:01:42.45	299.06	51.94	
2025-01-10 02:01:43.26	298.40	51.95	
2025-01-10 02:01:44.09	297.73	51.96	
2025-01-10 02:01:44.91	297.06	51.97	
2025-01-10 02:01:45.73	296.39	51.97	
2025-01-10 02:01:46.56	295.71	51.96	
2025-01-10 02:01:47.38	295.04	51.96	
2025-01-10 02:01:48.22	294.35	51.94	
2025-01-10 02:01:49.05	293.68	51.93	
2025-01-10 02:01:49.87	293.01	51.91	
2025-01-10 02:01:50.69	292.34	51.88	
2025-01-10 02:01:51.51	291.68	51.86	
2025-01-10 02:01:52.33	291.01	51.82	
2025-01-10 02:01:53.15	290.35	51.79	
2025-01-10 02:01:53.99	289.67	51.75	
2025-01-10 02:01:54.81	289.01	51.70	
2025-01-10 02:01:55.64	288.35	51.65	
2025-01-10 02:01:56.46	287.69	51.60	
2025-01-10 02:01:57.27	287.05	51.55	
2025-01-10 02:01:58.09	286.40	51.49	
2025-01-10 02:01:58.93	285.73	51.43	
2025-01-10 02:01:59.76	285.08	51.36	
2025-01-10 02:02:00.58	284.44	51.29	
2025-01-10 02:02:01.40	283.80	51.21	
2025-01-10 02:02:02.22	283.17	51.14	
2025-01-10 02:02:03.04	282.53	51.06	
2025-01-10 02:02:03.86	281.91	50.97	
2025-01-10 02:02:04.69	281.27	50.88	
2025-01-10 02:02:05.51	280.65	50.79	
2025-01-10 02:02:06.33	280.04	50.70	
2025-01-10 02:02:07.17	279.41	50.60	
2025-01-10 02:02:07.99	278.80	50.50	
2025-01-10 02:02:08.81	278.19	50.39	
2025-01-10 02:02:09.63	277.59	50.28	
2025-01-10 02:02:10.45	277.00	50.17	
2025-01-10 02:02:11.30	276.38	50.06	
2025-01-10 02:02:12.12	275.80	49.94	
2025-01-10 02:02:12.95	275.21	49.82	
2025-01-10 02:02:13.77	274.63	49.70	
2025-01-10 02:02:14.59	274.05	49.57	
2025-01-10 02:02:15.41	273.49	49.45	
2025-01-10 02:02:16.23	272.92	49.32	
2025-01-10 02:02:17.05	272.36	49.18	
2025-01-10 02:02:17.87	271.81	49.05	
2025-01-10 02:02:18.69	271.26	48.91	
2025-01-10 02:02:19.51	270.72	48.77	
2025-01-10 02:02:20.33	270.18	48.63	
2025-01-10 02:02:21.15	269.64	48.49	
2025-01-10 02:02:21.97	269.12	48.34	
2025-01-10 02:02:22.80	268.59	48.19	
2025-01-10 02:02:23.62	268.07	48.04	
2025-01-10 02:02:24.45	267.55	47.89	
2025-01-10 02:02:25.27	267.04	47.73	
2025-01-10 02:02:26.10	266.53	47.57	
2025-01-10 02:02:26.92	266.03	47.42	
2025-01-10 02:02:27.74	265.54	47.26	
2025-01-10 02:02:28.57	265.04	47.09	
2025-01-10 02:02:29.39	264.56	46.93	
2025-01-10 02:02:30.21	264.08	46.77	
2025-01-10 02:02:31.04	263.61	46.60	
2025-01-10 02:02:31.86	263.14	46.43	
2025-01-10 02:02:32.68	262.68	46.26	
2025-01-10 02:02:33.49	262.22	46.10	
2025-01-10 02:02:34.32	261.77	45.92	
2025-01-10 02:02:35.14	261.32	45.75	
2025-01-10 02:02:35.97	260.87	45.58	
2025-01-10 02:02:36.80	260.43	45.40	
2025-01-10 02:02:37.62	260.00	45.22	
2025-01-10 02:02:38.44	259.57	45.05	
2025-01-10 02:02:39.26	259.15	44.87	
2025-01-10 02:02:40.09	258.72	44.69	
2025-01-10 02:02:40.91	258.31	44.51	
2025-01-10 02:02:41.73	257.90	44.33	
2025-01-10 02:02:42.55	257.50	44.15	
2025-01-10 02:02:43.37	257.10	43.97	
2025-01-10 02:02:44.20	256.70	43.79	
2025-01-10 02:02:45.03	256.30	43.60	
2025-01-10 02:02:45.85	255.92	43.42	
2025-01-10 02:02:46.69	255.53	43.23	
2025-01-10 02:02:47.51	255.15	43.05	
2025-01-10 02:02:48.33	254.78	42.86	
2025-01-10 02:02:49.16	254.41	42.68	
2025-01-10 02:02:49.99	254.04	42.49	
2025-01-10 02:02:50.81	253.68	42.30	
2025-01-10 02:02:51.63	253.32	42.12	
2025-01-10 02:02:52.46	252.97	41.93	
2025-01-10 02:02:53.28	252.62	41.74	
2025-01-10 02:02:54.10	252.28	41.56	
2025-01-10 02:02:54.92	251.94	41.37	
2025-01-10 02:02:55.74	251.61	41.18	
2025-01-10 02:02:56.56	251.28	41.00	
2025-01-10 02:02:57.38	250.95	40.81	
2025-01-10 02:02:58.20	250.63	40.62	
2025-01-10 02:02:59.03	250.30	40.44	
2025-01-10 02:02:59.85	249.99	40.25	
2025-01-10 02:03:00.69	249.67	40.06	
2025-01-10 02:03:01.51	249.36	39.87	
2025-01-10 02:03:02.34	249.05	39.68	
2025-01-10 02:03:03.16	248.75	39.50	
2025-01-10 02:03:03.98	248.45	39.31	
2025-01-10 02:03:04.80	248.16	39.12	
2025-01-10 02:03:05.63	247.87	38.94	
2025-01-10 02:03:06.45	247.58	38.75	
2025-01-10 02:03:07.28	247.29	38.56	
2025-01-10 02:03:08.11	247.01	38.38	
2025-01-10 02:03:08.93	246.73	38.19	
2025-01-10 02:03:09.75	246.46	38.01	
2025-01-10 02:03:10.58	246.18	37.82	
2025-01-10 02:03:11.40	245.92	37.64	
2025-01-10 02:03:12.22	245.65	37.46	
2025-01-10 02:03:13.05	245.39	37.27	
2025-01-10 02:03:13.87	245.13	37.09	
2025-01-10 02:03:14.69	244.87	36.91	
2025-01-10 02:03:15.51	244.62	36.73	
2025-01-10 02:03:16.33	244.37	36.54	
2025-01-10 02:03:17.16	244.12	36.36	
2025-01-10 02:03:17.98	243.88	36.18	
2025-01-10 02:03:18.81	243.63	36.00	
2025-01-10 02:03:19.65	243.39	35.82	
2025-01-10 02:03:20.47	243.15	35.64	
2025-01-10 02:03:21.30	242.91	35.46	
2025-01-10 02:03:22.11	242.69	35.28	
2025-01-10 02:03:22.93	242.46	35.11	
2025-01-10 02:03:23.75	242.23	34.93	
2025-01-10 02:03:24.57	242.01	34.75	
2025-01-10 02:03:25.40	241.79	34.58	
2025-01-10 02:03:26.22	241.57	34.40	
2025-01-10 02:03:27.05	241.35	34.22	
2025-01-10 02:03:27.87	241.14	34.05	
2025-01-10 02:03:28.69	240.93	33.88	
2025-01-10 02:03:29.53	240.71	33.70	
2025-01-10 02:03:30.35	240.51	33.53	
2025-01-10 02:03:31.18	240.30	33.36	
2025-01-10 02:03:32.00	240.10	33.18	
2025-01-10 02:03:32.82	239.90	33.01	
2025-01-10 02:03:33.65	239.70	32.84	
2025-01-10 02:03:34.47	239.50	32.67	
2025-01-10 02:03:35.29	239.31	32.51	
2025-01-10 02:03:36.11	239.12	32.34	
2025-01-10 02:03:36.93	238.93	32.17	
2025-01-10 02:03:37.76	238.74	32.00	
2025-01-10 02:03:38.59	238.55	31.84	
2025-01-10 02:03:39.41	238.37	31.67	
2025-01-10 02:03:40.23	238.19	31.51	
2025-01-10 02:03:41.06	238.01	31.34	
2025-01-10 02:03:41.88	237.83	31.18	
2025-01-10 02:03:42.70	237.65	31.02	
2025-01-10 02:03:43.52	237.48	30.86	
2025-01-10 02:03:44.34	237.31	30.69	
2025-01-10 02:03:45.16	237.14	30.53	
2025-01-10 02:03:45.98	236.97	30.37	
2025-01-10 02:03:46.82	236.80	30.21	
2025-01-10 02:03:47.64	236.63	30.05	
2025-01-10 02:03:48.46	236.47	29.90	
2025-01-10 02:03:49.28	236.31	29.74	
2025-01-10 02:03:50.10	236.15	29.58	
2025-01-10 02:03:50.92	235.99	29.43	
2025-01-10 02:03:51.74	235.83	29.27	
2025-01-10 02:03:52.56	235.68	29.12	
2025-01-10 02:03:53.38	235.52	28.97	
2025-01-10 02:03:54.20	235.37	28.81	
2025-01-10 02:03:55.02	235.22	28.66	
2025-01-10 02:03:55.84	235.07	28.51	
2025-01-10 02:03:56.67	234.92	28.36	
2025-01-10 02:03:57.49	234.77	28.21	
2025-01-10 02:03:58.31	234.63	28.06	
2025-01-10 02:03:59.13	234.49	27.91	
2025-01-10 02:03:59.95	234.34	27.76	
2025-01-10 02:04:00.78	234.20	27.61	
2025-01-10 02:04:01.61	234.06	27.46	
2025-01-10 02:04:02.44	233.92	27.31	
2025-01-10 02:04:03.26	233.78	27.17	
2025-01-10 02:04:04.09	233.65	27.02	
2025-01-10 02:04:04.91	233.51	26.88	
2025-01-10 02:04:05.73	233.38	26.73	
2025-01-10 02:04:06.56	233.25	26.59	
2025-01-10 02:04:07.38	233.12	26.45	
2025-01-10 02:04:08.20	232.99	26.31	
2025-01-10 02:04:09.02	232.86	26.16	
2025-01-10 02:04:09.84	232.73	26.02	
2025-01-10 02:04:10.67	232.61	25.88	
2025-01-10 02:04:11.49	232.48	25.74	
2025-01-10 02:04:12.31	232.36	25.61	
2025-01-10 02:04:13.13	232.24	25.47	
2025-01-10 02:04:13.96	232.11	25.33	
2025-01-10 02:04:14.78	231.99	25.19	
2025-01-10 02:04:15.61	231.87	25.05	
2025-01-10 02:04:16.43	231.76	24.92	
2025-01-10 02:04:17.25	231.64	24.78	
2025-01-10 02:04:18.06	231.53	24.65	
2025-01-10 02:04:18.89	231.41	24.52	
2025-01-10 02:04:19.71	231.30	24.38	
2025-01-10 02:04:20.53	231.18	24.25	
2025-01-10 02:04:21.35	231.07	24.12	
2025-01-10 02:04:22.19	230.96	23.99	
2025-01-10 02:04:23.01	230.85	23.86	
2025-01-10 02:04:23.83	230.74	23.73	
2025-01-10 02:04:24.65	230.63	23.60	
2025-01-10 02:04:25.47	230.53	23.47	
2025-01-10 02:04:26.30	230.42	23.34	
2025-01-10 02:04:27.11	230.32	23.21	
2025-01-10 02:04:27.93	230.21	23.09	
2025-01-10 02:04:28.76	230.11	22.96	
2025-01-10 02:04:29.58	230.01	22.83	
2025-01-10 02:04:30.40	229.90	22.71	
2025-01-10 02:04:31.22	229.80	22.58	
2025-01-10 02:04:32.04	229.70	22.46	
2025-01-10 02:04:32.87	229.60	22.33	
2025-01-10 02:04:33.69	229.51	22.21	
2025-01-10 02:04:34.51	229.41	22.09	
2025-01-10 02:04:35.33	229.31	21.97	
2025-01-10 02:04:36.15	229.22	21.85	
2025-01-10 02:04:36.97	229.12	21.72	
2025-01-10 02:04:37.79	229.03	21.60	
2025-01-10 02:04:38.61	228.94	21.48	
2025-01-10 02:04:39.44	228.84	21.36	
2025-01-10 02:04:40.26	228.75	21.25	
2025-01-10 02:04:41.09	228.66	21.13	
2025-01-10 02:04:41.91	228.57	21.01	
2025-01-10 02:04:42.73	228.48	20.89	
2025-01-10 02:04:43.55	228.39	20.77	
2025-01-10 02:04:44.37	228.30	20.66	
2025-01-10 02:04:45.19	228.22	20.54	
2025-01-10 02:04:46.01	228.13	20.43	
2025-01-10 02:04:46.84	228.04	20.31	
2025-01-10 02:04:47.67	227.96	20.20	
2025-01-10 02:04:48.49	227.87	20.08	
2025-01-10 02:04:49.31	227.79	19.97	
2025-01-10 02:04:50.13	227.71	19.86	
2025-01-10 02:04:50.95	227.62	19.75	
2025-01-10 02:04:51.78	227.54	19.63	
2025-01-10 02:04:52.60	227.46	19.52	
2025-01-10 02:04:53.42	227.38	19.41	
2025-01-10 02:04:54.24	227.30	19.30	
2025-01-10 02:04:55.06	227.22	19.19	
2025-01-10 02:04:55.88	227.14	19.08	
2025-01-10 02:04:56.70	227.06	18.98	
2025-01-10 02:04:57.53	226.98	18.87	
2025-01-10 02:04:58.36	226.91	18.76	
2025-01-10 02:04:59.18	226.83	18.65	
2025-01-10 02:05:00.00	226.75	18.54	
2025-01-10 02:05:00.82	226.68	18.44	
2025-01-10 02:05:01.64	226.60	18.33	
2025-01-10 02:05:02.48	226.53	18.22	
2025-01-10 02:05:03.30	226.46	18.12	
2025-01-10 02:05:04.12	226.38	18.01	
2025-01-10 02:05:04.94	226.31	17.91	
2025-01-10 02:05:05.76	226.24	17.81	
2025-01-10 02:05:06.58	226.17	17.70	
2025-01-10 02:05:07.42	226.10	17.60	
2025-01-10 02:05:08.24	226.02	17.49	
2025-01-10 02:05:09.06	225.96	17.39	
2025-01-10 02:05:09.88	225.89	17.29	
2025-01-10 02:05:10.70	225.82	17.19	
2025-01-10 02:05:11.52	225.75	17.09	
2025-01-10 02:05:12.35	225.68	16.99	
2025-01-10 02:05:13.18	225.61	16.89	
2025-01-10 02:05:14.00	225.55	16.79	
2025-01-10 02:05:14.82	225.48	16.69	
2025-01-10 02:05:15.64	225.41	16.59	
2025-01-10 02:05:16.46	225.35	16.49	
2025-01-10 02:05:17.28	225.28	16.39	
2025-01-10 02:05:18.10	225.22	16.30	
2025-01-10 02:05:18.92	225.16	16.20	
2025-01-10 02:05:19.76	225.09	16.10	
2025-01-10 02:05:20.58	225.03	16.00	
2025-01-10 02:05:21.41	224.96	15.91	
2025-01-10 02:05:22.23	224.90	15.81	
2025-01-10 02:05:23.06	224.84	15.72	
2025-01-10 02:05:23.88	224.78	15.62	
2025-01-10 02:05:24.70	224.72	15.53	
2025-01-10 02:05:25.52	224.66	15.43	
2025-01-10 02:05:26.34	224.60	15.34	
2025-01-10 02:05:27.16	224.54	15.25	
2025-01-10 02:05:27.99	224.48	15.15	
2025-01-10 02:05:28.81	224.42	15.06	
2025-01-10 02:05:29.63	224.36	14.97	
2025-01-10 02:05:30.45	224.30	14.87	
2025-01-10 02:05:31.27	224.25	14.78	
2025-01-10 02:05:32.09	224.19	14.69	
2025-01-10 02:05:32.91	224.13	14.60	
2025-01-10 02:05:33.73	224.08	14.51	
2025-01-10 02:05:34.55	224.02	14.42	
2025-01-10 02:05:35.37	223.96	14.33	
2025-01-10 02:05:36.19	223.91	14.24	
2025-01-10 02:05:37.01	223.85	14.15	
2025-01-10 02:05:37.83	223.80	14.06	
2025-01-10 02:05:38.66	223.74	13.97	
2025-01-10 02:05:39.48	223.69	13.89	
2025-01-10 02:05:40.30	223.64	13.80	
2025-01-10 02:05:41.12	223.58	13.71	
2025-01-10 02:05:41.94	223.53	13.62	
2025-01-10 02:05:42.75	223.48	13.54	
2025-01-10 02:05:43.58	223.43	13.45	
2025-01-10 02:05:44.40	223.38	13.36	
2025-01-10 02:05:45.22	223.32	13.28	
2025-01-10 02:05:46.04	223.27	13.19	
2025-01-10 02:05:46.88	223.22	13.11	
2025-01-10 02:05:47.70	223.17	13.02	
2025-01-10 02:05:48.53	223.12	12.94	
2025-01-10 02:05:49.35	223.07	12.85	
2025-01-10 02:05:50.17	223.02	12.77	
2025-01-10 02:05:50.99	222.97	12.68	
2025-01-10 02:05:51.81	222.92	12.60	
2025-01-10 02:05:52.63	222.87	12.52	
2025-01-10 02:05:53.45	222.83	12.43	
2025-01-10 02:05:54.28	222.78	12.35	
2025-01-10 02:05:55.10	222.73	12.27	
2025-01-10 02:05:55.92	222.68	12.19	
2025-01-10 02:05:56.74	222.64	12.11	
2025-01-10 02:05:57.58	222.59	12.02	
2025-01-10 02:05:58.40	222.54	11.94	
2025-01-10 02:05:59.22	222.50	11.86	
2025-01-10 02:06:00.05	222.45	11.78	
2025-01-10 02:06:00.88	222.40	11.70	
2025-01-10 02:06:01.70	222.36	11.62	
2025-01-10 02:06:02.52	222.31	11.54	
2025-01-10 02:06:03.34	222.27	11.46	
2025-01-10 02:06:04.17	222.22	11.38	
2025-01-10 02:06:04.99	222.18	11.30	
2025-01-10 02:06:05.81	222.13	11.22	
2025-01-10 02:06:06.63	222.09	11.14	
2025-01-10 02:06:07.45	222.05	11.06	
2025-01-10 02:06:08.27	222.00	10.99	
2025-01-10 02:06:09.10	221.96	10.91	
2025-01-10 02:06:09.93	221.92	10.83	
2025-01-10 02:06:10.75	221.88	10.75	
2025-01-10 02:06:11.57	221.83	10.68	
2025-01-10 02:06:12.39	221.79	10.60	
2025-01-10 02:06:13.21	221.75	10.52	
2025-01-10 02:06:14.05	221.71	10.44	
2025-01-10 02:06:14.87	221.67	10.37	
2025-01-10 02:06:15.69	221.63	10.29	
2025-01-10 02:06:16.53	221.58	10.22	
2025-01-10 02:06:17.35	221.54	10.14	
2025-01-10 02:06:18.17	221.50	10.07	
2025-01-10 02:06:18.98	221.46	9.99	
2025-01-10 02:06:19.81	221.42	9.92	
2025-01-10 02:06:20.63	221.38	9.84	
2025-01-10 02:06:21.45	221.35	9.77	
2025-01-10 02:06:22.28	221.31	9.69	
2025-01-10 02:06:23.10	221.27	9.62	
2025-01-10 02:06:23.92	221.23	9.55	
2025-01-10 02:06:24.74	221.19	9.47	
2025-01-10 02:06:25.57	221.15	9.40	
2025-01-10 02:06:26.39	221.11	9.33	
2025-01-10 02:06:27.21	221.08	9.26	
2025-01-10 02:06:28.05	221.04	9.18	
2025-01-10 02:06:28.89	221.00	9.11	
2025-01-10 02:06:29.71	220.96	9.04	
2025-01-10 02:06:30.54	220.93	8.97	
2025-01-10 02:06:31.36	220.89	8.89	
2025-01-10 02:06:32.18	220.85	8.82	
2025-01-10 02:06:33.00	220.82	8.75	
2025-01-10 02:06:33.82	220.78	8.68	
2025-01-10 02:06:34.65	220.74	8.61	
2025-01-10 02:06:35.47	220.71	8.54	
2025-01-10 02:06:36.28	220.67	8.47	
2025-01-10 02:06:37.10	220.64	8.40	
2025-01-10 02:06:37.93	220.60	8.33	
2025-01-10 02:06:38.75	220.57	8.26	
2025-01-10 02:06:39.57	220.53	8.19	
2025-01-10 02:06:40.39	220.50	8.12	
2025-01-10 02:06:41.21	220.46	8.05	
2025-01-10 02:06:42.02	220.43	7.99	
2025-01-10 02:06:42.85	220.40	7.92	
2025-01-10 02:06:43.67	220.36	7.85	
2025-01-10 02:06:44.49	220.33	7.78	
2025-01-10 02:06:45.31	220.30	7.71	
2025-01-10 02:06:46.14	220.26	7.65	
2025-01-10 02:06:46.96	220.23	7.58	
2025-01-10 02:06:47.79	220.20	7.51	
2025-01-10 02:06:48.61	220.16	7.44	
2025-01-10 02:06:49.43	220.13	7.38	
2025-01-10 02:06:50.25	220.10	7.31	
2025-01-10 02:06:51.07	220.07	7.24	
2025-01-10 02:06:51.89	220.03	7.18	
2025-01-10 02:06:52.71	220.00	7.11	
2025-01-10 02:06:53.53	219.97	7.05	
2025-01-10 02:06:54.36	219.94	6.98	
2025-01-10 02:06:55.18	219.91	6.91	
2025-01-10 02:06:56.00	219.88	6.85	
2025-01-10 02:06:56.82	219.85	6.78	
2025-01-10 02:06:57.64	219.81	6.72	
2025-01-10 02:06:58.46	219.78	6.65	
2025-01-10 02:06:59.28	219.75	6.59	
2025-01-10 02:07:00.10	219.72	6.52	
2025-01-10 02:07:00.92	219.69	6.46	
2025-01-10 02:07:01.73	219.66	6.40	
2025-01-10 02:07:02.57	219.63	6.33	
2025-01-10 02:07:03.39	219.60	6.27	
2025-01-10 02:07:04.21	219.57	6.20	
2025-01-10 02:07:05.03	219.54	6.14	
2025-01-10 02:07:05.85	219.51	6.08	
2025-01-10 02:07:06.67	219.49	6.01	
2025-01-10 02:07:07.50	219.46	5.95	
2025-01-10 02:07:08.32	219.43	5.89	
2025-01-10 02:07:09.14	219.40	5.82	
2025-01-10 02:07:09.96	219.37	5.76	
2025-01-10 02:07:10.79	219.34	5.70	
2025-01-10 02:07:11.60	219.31	5.64	
2025-01-10 02:07:12.43	219.28	5.57	
2025-01-10 02:07:13.25	219.26	5.51	
2025-01-10 02:07:14.07	219.23	5.45	
2025-01-10 02:07:14.89	219.20	5.39	
2025-01-10 02:07:15.71	219.17	5.33	
2025-01-10 02:07:16.54	219.15	5.27	
2025-01-10 02:07:17.37	219.12	5.20	
2025-01-10 02:07:18.19	219.09	5.14	
2025-01-10 02:07:19.01	219.06	5.08	
2025-01-10 02:07:19.84	219.04	5.02	
2025-01-10 02:07:20.66	219.01	4.96	
2025-01-10 02:07:21.48	218.98	4.90	
2025-01-10 02:07:22.30	218.96	4.84	
2025-01-10 02:07:23.14	218.93	4.78	
2025-01-10 02:07:23.96	218.90	4.72	
2025-01-10 02:07:24.79	218.88	4.66	
2025-01-10 02:07:25.61	218.85	4.60	
2025-01-10 02:07:26.43	218.83	4.54	
2025-01-10 02:07:27.26	218.80	4.48	
2025-01-10 02:07:28.08	218.77	4.42	
2025-01-10 02:07:28.89	218.75	4.36	
2025-01-10 02:07:29.72	218.72	4.30	
2025-01-10 02:07:30.54	218.70	4.24	
2025-01-10 02:07:31.36	218.67	4.18	
2025-01-10 02:07:32.18	218.65	4.13	
2025-01-10 02:07:33.00	218.62	4.07	

#Closed at: 2025-01-10 02:07:33