passes_logs/2025/01/10/SPB_Silybum_02/SPB_Silybum_02__20250110_093455_TERRA_rec.log

#Pass ID: 20250110_093455_TERRA
#Satellite: TERRA
#Configuration: TERRA
#Start time: 2025-01-10 09:34:55

#Version: 2.0.20230423
#Station: SPB_Silybum_02
#Location: 30.233357 lon 59.946436 lat
#TLE: 1 25994U 99068A   25009.84464495  .00000861  00000+0  18726-3 0  9992
#TLE: 2 25994  98.0226  73.0387 0003560  82.8900 338.1382 14.60385144333325

#Time	Az	El	Level	Level2	SNR	BER	Gain	Gain2
2025-01-10 09:34:57.43	11.31	4.13	
2025-01-10 09:34:58.68	11.24	4.21	
2025-01-10 09:34:59.91	11.16	4.29	
2025-01-10 09:35:01.14	11.09	4.38	
2025-01-10 09:35:02.37	11.02	4.46	
2025-01-10 09:35:03.61	10.94	4.54	
2025-01-10 09:35:04.85	10.86	4.63	
2025-01-10 09:35:06.08	10.79	4.71	
2025-01-10 09:35:07.33	10.71	4.80	
2025-01-10 09:35:08.56	10.63	4.88	
2025-01-10 09:35:09.79	10.56	4.97	
2025-01-10 09:35:11.02	10.48	5.05	
2025-01-10 09:35:12.25	10.40	5.14	
2025-01-10 09:35:13.48	10.32	5.22	
2025-01-10 09:35:14.72	10.24	5.31	
2025-01-10 09:35:15.95	10.16	5.40	
2025-01-10 09:35:17.18	10.08	5.48	
2025-01-10 09:35:18.41	10.00	5.57	
2025-01-10 09:35:19.64	9.92	5.66	
2025-01-10 09:35:20.87	9.84	5.74	
2025-01-10 09:35:22.11	9.75	5.83	
2025-01-10 09:35:23.34	9.67	5.92	
2025-01-10 09:35:24.57	9.58	6.01	
2025-01-10 09:35:25.81	9.50	6.09	
2025-01-10 09:35:27.04	9.41	6.18	
2025-01-10 09:35:28.27	9.33	6.27	
2025-01-10 09:35:29.50	9.24	6.36	
2025-01-10 09:35:30.73	9.15	6.45	
2025-01-10 09:35:31.96	9.07	6.54	
2025-01-10 09:35:33.20	8.98	6.63	
2025-01-10 09:35:34.44	8.89	6.72	
2025-01-10 09:35:35.66	8.80	6.81	
2025-01-10 09:35:36.89	8.71	6.90	
2025-01-10 09:35:38.14	8.62	6.99	
2025-01-10 09:35:39.37	8.53	7.09	
2025-01-10 09:35:40.60	8.43	7.18	
2025-01-10 09:35:41.83	8.34	7.27	
2025-01-10 09:35:43.07	8.25	7.36	
2025-01-10 09:35:44.30	8.15	7.45	
2025-01-10 09:35:45.55	8.06	7.55	
2025-01-10 09:35:46.78	7.96	7.64	
2025-01-10 09:35:48.01	7.86	7.74	
2025-01-10 09:35:49.24	7.77	7.83	
2025-01-10 09:35:50.48	7.67	7.92	
2025-01-10 09:35:51.71	7.57	8.02	
2025-01-10 09:35:52.94	7.47	8.11	
2025-01-10 09:35:54.18	7.37	8.21	
2025-01-10 09:35:55.41	7.27	8.30	
2025-01-10 09:35:56.64	7.17	8.40	
2025-01-10 09:35:57.87	7.07	8.50	
2025-01-10 09:35:59.11	6.96	8.59	
2025-01-10 09:36:00.33	6.86	8.69	
2025-01-10 09:36:01.57	6.75	8.79	
2025-01-10 09:36:02.80	6.65	8.88	
2025-01-10 09:36:04.03	6.54	8.98	
2025-01-10 09:36:05.25	6.44	9.08	
2025-01-10 09:36:06.49	6.33	9.18	
2025-01-10 09:36:07.72	6.22	9.28	
2025-01-10 09:36:08.95	6.11	9.37	
2025-01-10 09:36:10.18	6.00	9.47	
2025-01-10 09:36:11.41	5.89	9.57	
2025-01-10 09:36:12.65	5.78	9.67	
2025-01-10 09:36:13.88	5.67	9.77	
2025-01-10 09:36:15.11	5.55	9.87	
2025-01-10 09:36:16.34	5.44	9.98	
2025-01-10 09:36:17.57	5.32	10.08	
2025-01-10 09:36:18.80	5.21	10.18	
2025-01-10 09:36:20.04	5.09	10.28	
2025-01-10 09:36:21.27	4.97	10.38	
2025-01-10 09:36:22.50	4.85	10.49	
2025-01-10 09:36:23.75	4.73	10.59	
2025-01-10 09:36:24.99	4.61	10.70	
2025-01-10 09:36:26.22	4.48	10.80	
2025-01-10 09:36:27.45	4.36	10.90	
2025-01-10 09:36:28.68	4.24	11.01	
2025-01-10 09:36:29.91	4.11	11.11	
2025-01-10 09:36:31.15	3.99	11.22	
2025-01-10 09:36:32.38	3.86	11.32	
2025-01-10 09:36:33.61	3.73	11.43	
2025-01-10 09:36:34.84	3.60	11.54	
2025-01-10 09:36:36.08	3.47	11.65	
2025-01-10 09:36:37.30	3.34	11.75	
2025-01-10 09:36:38.54	3.21	11.86	
2025-01-10 09:36:39.78	3.07	11.97	
2025-01-10 09:36:41.01	2.94	12.08	
2025-01-10 09:36:42.24	2.81	12.19	
2025-01-10 09:36:43.48	2.67	12.30	
2025-01-10 09:36:44.71	2.53	12.41	
2025-01-10 09:36:45.94	2.39	12.51	
2025-01-10 09:36:47.18	2.25	12.63	
2025-01-10 09:36:48.41	2.11	12.74	
2025-01-10 09:36:49.64	1.97	12.85	
2025-01-10 09:36:50.87	1.82	12.96	
2025-01-10 09:36:52.11	1.68	13.07	
2025-01-10 09:36:53.35	1.53	13.19	
2025-01-10 09:36:54.59	1.38	13.30	
2025-01-10 09:36:55.82	1.23	13.41	
2025-01-10 09:36:57.05	1.08	13.53	
2025-01-10 09:36:58.28	0.93	13.64	
2025-01-10 09:36:59.51	0.78	13.75	
2025-01-10 09:37:00.76	0.63	13.87	
2025-01-10 09:37:01.99	0.47	13.98	
2025-01-10 09:37:03.22	0.31	14.10	
2025-01-10 09:37:04.45	0.16	14.22	
2025-01-10 09:37:05.69	360.00	14.33	
2025-01-10 09:37:06.92	359.84	14.45	
2025-01-10 09:37:08.15	359.67	14.57	
2025-01-10 09:37:09.38	359.51	14.68	
2025-01-10 09:37:10.61	359.35	14.80	
2025-01-10 09:37:11.86	359.18	14.92	
2025-01-10 09:37:13.10	359.01	15.04	
2025-01-10 09:37:14.33	358.84	15.16	
2025-01-10 09:37:15.56	358.67	15.28	
2025-01-10 09:37:16.81	358.50	15.40	
2025-01-10 09:37:18.04	358.32	15.52	
2025-01-10 09:37:19.27	358.15	15.64	
2025-01-10 09:37:20.50	357.97	15.76	
2025-01-10 09:37:21.73	357.79	15.89	
2025-01-10 09:37:22.98	357.61	16.01	
2025-01-10 09:37:24.21	357.43	16.13	
2025-01-10 09:37:25.44	357.25	16.25	
2025-01-10 09:37:26.68	357.06	16.38	
2025-01-10 09:37:27.91	356.88	16.50	
2025-01-10 09:37:29.13	356.69	16.62	
2025-01-10 09:37:30.37	356.50	16.75	
2025-01-10 09:37:31.62	356.30	16.88	
2025-01-10 09:37:32.85	356.11	17.00	
2025-01-10 09:37:34.08	355.92	17.13	
2025-01-10 09:37:35.31	355.72	17.25	
2025-01-10 09:37:36.54	355.52	17.38	
2025-01-10 09:37:37.79	355.32	17.51	
2025-01-10 09:37:39.01	355.12	17.63	
2025-01-10 09:37:40.26	354.91	17.76	
2025-01-10 09:37:41.49	354.71	17.89	
2025-01-10 09:37:42.72	354.50	18.02	
2025-01-10 09:37:43.95	354.29	18.15	
2025-01-10 09:37:45.19	354.08	18.28	
2025-01-10 09:37:46.43	353.86	18.41	
2025-01-10 09:37:47.66	353.65	18.54	
2025-01-10 09:37:48.89	353.43	18.67	
2025-01-10 09:37:50.14	353.21	18.80	
2025-01-10 09:37:51.38	352.98	18.93	
2025-01-10 09:37:52.62	352.76	19.06	
2025-01-10 09:37:53.85	352.53	19.19	
2025-01-10 09:37:55.08	352.31	19.32	
2025-01-10 09:37:56.33	352.07	19.46	
2025-01-10 09:37:57.56	351.84	19.59	
2025-01-10 09:37:58.79	351.61	19.72	
2025-01-10 09:38:00.02	351.37	19.85	
2025-01-10 09:38:01.25	351.13	19.99	
2025-01-10 09:38:02.48	350.89	20.12	
2025-01-10 09:38:03.71	350.65	20.25	
2025-01-10 09:38:04.94	350.40	20.39	
2025-01-10 09:38:06.18	350.16	20.52	
2025-01-10 09:38:07.41	349.91	20.65	
2025-01-10 09:38:08.64	349.65	20.79	
2025-01-10 09:38:09.88	349.40	20.92	
2025-01-10 09:38:11.11	349.14	21.06	
2025-01-10 09:38:12.34	348.88	21.19	
2025-01-10 09:38:13.59	348.62	21.33	
2025-01-10 09:38:14.82	348.35	21.47	
2025-01-10 09:38:16.05	348.09	21.60	
2025-01-10 09:38:17.28	347.82	21.74	
2025-01-10 09:38:18.51	347.55	21.87	
2025-01-10 09:38:19.74	347.27	22.01	
2025-01-10 09:38:20.97	346.99	22.14	
2025-01-10 09:38:22.20	346.72	22.28	
2025-01-10 09:38:23.44	346.43	22.42	
2025-01-10 09:38:24.67	346.15	22.55	
2025-01-10 09:38:25.91	345.86	22.69	
2025-01-10 09:38:27.15	345.57	22.83	
2025-01-10 09:38:28.40	345.27	22.97	
2025-01-10 09:38:29.63	344.97	23.10	
2025-01-10 09:38:30.86	344.67	23.24	
2025-01-10 09:38:32.11	344.37	23.38	
2025-01-10 09:38:33.33	344.07	23.51	
2025-01-10 09:38:34.56	343.76	23.65	
2025-01-10 09:38:35.80	343.45	23.78	
2025-01-10 09:38:37.02	343.14	23.92	
2025-01-10 09:38:38.27	342.82	24.06	
2025-01-10 09:38:39.52	342.50	24.20	
2025-01-10 09:38:40.75	342.18	24.33	
2025-01-10 09:38:41.99	341.85	24.47	
2025-01-10 09:38:43.22	341.52	24.60	
2025-01-10 09:38:44.45	341.19	24.74	
2025-01-10 09:38:45.68	340.86	24.87	
2025-01-10 09:38:46.91	340.53	25.00	
2025-01-10 09:38:48.14	340.19	25.14	
2025-01-10 09:38:49.38	339.84	25.27	
2025-01-10 09:38:50.61	339.50	25.41	
2025-01-10 09:38:51.84	339.15	25.54	
2025-01-10 09:38:53.08	338.80	25.67	
2025-01-10 09:38:54.32	338.44	25.81	
2025-01-10 09:38:55.57	338.08	25.94	
2025-01-10 09:38:56.80	337.72	26.07	
2025-01-10 09:38:58.03	337.35	26.20	
2025-01-10 09:38:59.26	336.99	26.33	
2025-01-10 09:39:00.49	336.62	26.46	
2025-01-10 09:39:01.73	336.24	26.59	
2025-01-10 09:39:02.96	335.86	26.72	
2025-01-10 09:39:04.20	335.48	26.84	
2025-01-10 09:39:05.44	335.10	26.97	
2025-01-10 09:39:06.67	334.71	27.10	
2025-01-10 09:39:07.90	334.32	27.22	
2025-01-10 09:39:09.14	333.93	27.35	
2025-01-10 09:39:10.37	333.53	27.47	
2025-01-10 09:39:11.60	333.13	27.59	
2025-01-10 09:39:12.84	332.73	27.72	
2025-01-10 09:39:14.07	332.32	27.84	
2025-01-10 09:39:15.31	331.91	27.96	
2025-01-10 09:39:16.54	331.50	28.08	
2025-01-10 09:39:17.77	331.09	28.19	
2025-01-10 09:39:19.00	330.67	28.31	
2025-01-10 09:39:20.24	330.24	28.42	
2025-01-10 09:39:21.48	329.82	28.54	
2025-01-10 09:39:22.73	329.38	28.65	
2025-01-10 09:39:23.96	328.95	28.77	
2025-01-10 09:39:25.20	328.51	28.88	
2025-01-10 09:39:26.43	328.08	28.99	
2025-01-10 09:39:27.66	327.64	29.09	
2025-01-10 09:39:28.89	327.20	29.20	
2025-01-10 09:39:30.12	326.75	29.30	
2025-01-10 09:39:31.35	326.30	29.41	
2025-01-10 09:39:32.58	325.85	29.51	
2025-01-10 09:39:33.82	325.39	29.61	
2025-01-10 09:39:35.06	324.93	29.71	
2025-01-10 09:39:36.29	324.47	29.81	
2025-01-10 09:39:37.52	324.00	29.90	
2025-01-10 09:39:38.75	323.54	29.99	
2025-01-10 09:39:40.00	323.06	30.09	
2025-01-10 09:39:41.23	322.59	30.18	
2025-01-10 09:39:42.46	322.11	30.26	
2025-01-10 09:39:43.70	321.63	30.35	
2025-01-10 09:39:44.93	321.15	30.43	
2025-01-10 09:39:46.16	320.67	30.52	
2025-01-10 09:39:47.39	320.19	30.60	
2025-01-10 09:39:48.62	319.70	30.67	
2025-01-10 09:39:49.85	319.21	30.75	
2025-01-10 09:39:51.09	318.71	30.83	
2025-01-10 09:39:52.32	318.22	30.90	
2025-01-10 09:39:53.55	317.72	30.97	
2025-01-10 09:39:54.80	317.21	31.04	
2025-01-10 09:39:56.04	316.71	31.10	
2025-01-10 09:39:57.27	316.20	31.16	
2025-01-10 09:39:58.51	315.69	31.22	
2025-01-10 09:39:59.74	315.19	31.28	
2025-01-10 09:40:00.97	314.68	31.34	
2025-01-10 09:40:02.20	314.17	31.39	
2025-01-10 09:40:03.43	313.65	31.44	
2025-01-10 09:40:04.68	313.13	31.49	
2025-01-10 09:40:05.92	312.61	31.54	
2025-01-10 09:40:07.15	312.09	31.58	
2025-01-10 09:40:08.39	311.57	31.62	
2025-01-10 09:40:09.61	311.05	31.66	
2025-01-10 09:40:10.84	310.53	31.70	
2025-01-10 09:40:12.07	310.01	31.73	
2025-01-10 09:40:13.31	309.48	31.76	
2025-01-10 09:40:14.54	308.96	31.79	
2025-01-10 09:40:15.77	308.43	31.82	
2025-01-10 09:40:17.00	307.91	31.84	
2025-01-10 09:40:18.23	307.38	31.86	
2025-01-10 09:40:19.46	306.85	31.88	
2025-01-10 09:40:20.69	306.32	31.89	
2025-01-10 09:40:21.93	305.79	31.90	
2025-01-10 09:40:23.16	305.26	31.91	
2025-01-10 09:40:24.40	304.73	31.92	
2025-01-10 09:40:25.63	304.20	31.92	
2025-01-10 09:40:26.87	303.66	31.93	
2025-01-10 09:40:28.10	303.13	31.92	
2025-01-10 09:40:29.33	302.60	31.92	
2025-01-10 09:40:30.58	302.06	31.91	
2025-01-10 09:40:31.83	301.52	31.90	
2025-01-10 09:40:33.06	301.00	31.89	
2025-01-10 09:40:34.29	300.47	31.88	
2025-01-10 09:40:35.52	299.94	31.86	
2025-01-10 09:40:36.75	299.41	31.84	
2025-01-10 09:40:37.99	298.88	31.82	
2025-01-10 09:40:39.22	298.35	31.79	
2025-01-10 09:40:40.45	297.83	31.76	
2025-01-10 09:40:41.69	297.30	31.73	
2025-01-10 09:40:42.92	296.78	31.70	
2025-01-10 09:40:44.16	296.25	31.66	
2025-01-10 09:40:45.39	295.73	31.62	
2025-01-10 09:40:46.62	295.21	31.58	
2025-01-10 09:40:47.85	294.69	31.54	
2025-01-10 09:40:49.08	294.18	31.49	
2025-01-10 09:40:50.31	293.66	31.44	
2025-01-10 09:40:51.55	293.14	31.39	
2025-01-10 09:40:52.79	292.63	31.34	
2025-01-10 09:40:54.02	292.12	31.28	
2025-01-10 09:40:55.27	291.60	31.22	
2025-01-10 09:40:56.50	291.10	31.16	
2025-01-10 09:40:57.74	290.59	31.10	
2025-01-10 09:40:58.97	290.08	31.03	
2025-01-10 09:41:00.20	289.58	30.97	
2025-01-10 09:41:01.43	289.09	30.90	
2025-01-10 09:41:02.66	288.59	30.83	
2025-01-10 09:41:03.89	288.10	30.75	
2025-01-10 09:41:05.13	287.60	30.68	
2025-01-10 09:41:06.37	287.11	30.60	
2025-01-10 09:41:07.59	286.63	30.52	
2025-01-10 09:41:08.83	286.14	30.43	
2025-01-10 09:41:10.07	285.66	30.35	
2025-01-10 09:41:11.30	285.18	30.26	
2025-01-10 09:41:12.53	284.70	30.17	
2025-01-10 09:41:13.77	284.23	30.08	
2025-01-10 09:41:15.00	283.76	29.99	
2025-01-10 09:41:16.24	283.28	29.90	
2025-01-10 09:41:17.48	282.82	29.80	
2025-01-10 09:41:18.71	282.35	29.70	
2025-01-10 09:41:19.94	281.90	29.61	
2025-01-10 09:41:21.17	281.44	29.51	
2025-01-10 09:41:22.42	280.98	29.40	
2025-01-10 09:41:23.65	280.53	29.30	
2025-01-10 09:41:24.88	280.08	29.19	
2025-01-10 09:41:26.11	279.64	29.09	
2025-01-10 09:41:27.34	279.20	28.98	
2025-01-10 09:41:28.58	278.76	28.87	
2025-01-10 09:41:29.81	278.32	28.76	
2025-01-10 09:41:31.04	277.89	28.65	
2025-01-10 09:41:32.28	277.46	28.53	
2025-01-10 09:41:33.51	277.03	28.42	
2025-01-10 09:41:34.74	276.61	28.30	
2025-01-10 09:41:35.97	276.19	28.19	
2025-01-10 09:41:37.20	275.78	28.07	
2025-01-10 09:41:38.45	275.36	27.95	
2025-01-10 09:41:39.70	274.94	27.83	
2025-01-10 09:41:40.94	274.53	27.71	
2025-01-10 09:41:42.18	274.12	27.58	
2025-01-10 09:41:43.40	273.73	27.46	
2025-01-10 09:41:44.66	273.32	27.33	
2025-01-10 09:41:45.89	272.93	27.21	
2025-01-10 09:41:47.13	272.54	27.08	
2025-01-10 09:41:48.37	272.15	26.96	
2025-01-10 09:41:49.61	271.76	26.83	
2025-01-10 09:41:50.84	271.38	26.70	
2025-01-10 09:41:52.10	270.99	26.57	
2025-01-10 09:41:53.33	270.62	26.44	
2025-01-10 09:41:54.55	270.25	26.31	
2025-01-10 09:41:55.79	269.88	26.18	
2025-01-10 09:41:57.03	269.51	26.05	
2025-01-10 09:41:58.26	269.15	25.92	
2025-01-10 09:41:59.48	268.79	25.79	
2025-01-10 09:42:00.71	268.44	25.65	
2025-01-10 09:42:01.96	268.08	25.52	
2025-01-10 09:42:03.21	267.73	25.38	
2025-01-10 09:42:04.44	267.38	25.25	
2025-01-10 09:42:05.67	267.04	25.11	
2025-01-10 09:42:06.90	266.70	24.98	
2025-01-10 09:42:08.15	266.36	24.84	
2025-01-10 09:42:09.39	266.02	24.71	
2025-01-10 09:42:10.62	265.69	24.57	
2025-01-10 09:42:11.86	265.36	24.44	
2025-01-10 09:42:13.09	265.03	24.30	
2025-01-10 09:42:14.32	264.71	24.16	
2025-01-10 09:42:15.56	264.39	24.03	
2025-01-10 09:42:16.79	264.07	23.89	
2025-01-10 09:42:18.02	263.76	23.75	
2025-01-10 09:42:19.27	263.44	23.62	
2025-01-10 09:42:20.50	263.14	23.48	
2025-01-10 09:42:21.74	262.83	23.34	
2025-01-10 09:42:22.97	262.53	23.20	
2025-01-10 09:42:24.20	262.23	23.07	
2025-01-10 09:42:25.43	261.93	22.93	
2025-01-10 09:42:26.66	261.64	22.79	
2025-01-10 09:42:27.91	261.34	22.66	
2025-01-10 09:42:29.14	261.06	22.52	
2025-01-10 09:42:30.39	260.77	22.38	
2025-01-10 09:42:31.62	260.48	22.24	
2025-01-10 09:42:32.87	260.20	22.10	
2025-01-10 09:42:34.13	259.91	21.97	
2025-01-10 09:42:35.37	259.64	21.83	
2025-01-10 09:42:36.60	259.36	21.69	
2025-01-10 09:42:37.83	259.09	21.56	
2025-01-10 09:42:39.07	258.82	21.42	
2025-01-10 09:42:40.30	258.56	21.28	
2025-01-10 09:42:41.54	258.29	21.15	
2025-01-10 09:42:42.78	258.03	21.01	
2025-01-10 09:42:44.01	257.77	20.87	
2025-01-10 09:42:45.24	257.52	20.74	
2025-01-10 09:42:46.46	257.27	20.61	
2025-01-10 09:42:47.69	257.02	20.47	
2025-01-10 09:42:48.92	256.77	20.34	
2025-01-10 09:42:50.15	256.52	20.20	
2025-01-10 09:42:51.39	256.28	20.07	
2025-01-10 09:42:52.62	256.04	19.93	
2025-01-10 09:42:53.85	255.80	19.80	
2025-01-10 09:42:55.08	255.56	19.67	
2025-01-10 09:42:56.33	255.32	19.53	
2025-01-10 09:42:57.56	255.09	19.40	
2025-01-10 09:42:58.80	254.86	19.27	
2025-01-10 09:43:00.03	254.63	19.14	
2025-01-10 09:43:01.26	254.40	19.00	
2025-01-10 09:43:02.50	254.18	18.87	
2025-01-10 09:43:03.73	253.95	18.74	
2025-01-10 09:43:04.96	253.73	18.61	
2025-01-10 09:43:06.20	253.51	18.48	
2025-01-10 09:43:07.46	253.29	18.35	
2025-01-10 09:43:08.71	253.07	18.21	
2025-01-10 09:43:09.94	252.86	18.09	
2025-01-10 09:43:11.17	252.65	17.96	
2025-01-10 09:43:12.40	252.44	17.83	
2025-01-10 09:43:13.63	252.24	17.70	
2025-01-10 09:43:14.86	252.03	17.57	
2025-01-10 09:43:16.10	251.83	17.44	
2025-01-10 09:43:17.33	251.63	17.32	
2025-01-10 09:43:18.56	251.43	17.19	
2025-01-10 09:43:19.82	251.23	17.06	
2025-01-10 09:43:21.05	251.03	16.94	
2025-01-10 09:43:22.29	250.84	16.81	
2025-01-10 09:43:23.52	250.64	16.68	
2025-01-10 09:43:24.76	250.45	16.56	
2025-01-10 09:43:26.01	250.26	16.43	
2025-01-10 09:43:27.25	250.07	16.31	
2025-01-10 09:43:28.48	249.89	16.18	
2025-01-10 09:43:29.71	249.70	16.06	
2025-01-10 09:43:30.94	249.52	15.94	
2025-01-10 09:43:32.17	249.34	15.82	
2025-01-10 09:43:33.42	249.16	15.69	
2025-01-10 09:43:34.65	248.98	15.57	
2025-01-10 09:43:35.87	248.81	15.45	
2025-01-10 09:43:37.10	248.63	15.33	
2025-01-10 09:43:38.34	248.46	15.21	
2025-01-10 09:43:39.57	248.29	15.09	
2025-01-10 09:43:40.82	248.11	14.97	
2025-01-10 09:43:42.07	247.94	14.85	
2025-01-10 09:43:43.29	247.78	14.73	
2025-01-10 09:43:44.52	247.61	14.61	
2025-01-10 09:43:45.75	247.45	14.49	
2025-01-10 09:43:46.99	247.29	14.37	
2025-01-10 09:43:48.23	247.12	14.26	
2025-01-10 09:43:49.45	246.96	14.14	
2025-01-10 09:43:50.68	246.81	14.02	
2025-01-10 09:43:51.91	246.65	13.91	
2025-01-10 09:43:53.14	246.49	13.79	
2025-01-10 09:43:54.37	246.34	13.68	
2025-01-10 09:43:55.63	246.18	13.56	
2025-01-10 09:43:56.86	246.03	13.45	
2025-01-10 09:43:58.09	245.88	13.33	
2025-01-10 09:43:59.32	245.73	13.22	
2025-01-10 09:44:00.56	245.58	13.11	
2025-01-10 09:44:01.80	245.43	12.99	
2025-01-10 09:44:03.04	245.29	12.88	
2025-01-10 09:44:04.27	245.14	12.77	
2025-01-10 09:44:05.50	245.00	12.66	
2025-01-10 09:44:06.73	244.86	12.54	
2025-01-10 09:44:07.96	244.72	12.43	
2025-01-10 09:44:09.19	244.58	12.32	
2025-01-10 09:44:10.43	244.44	12.21	
2025-01-10 09:44:11.68	244.30	12.10	
2025-01-10 09:44:12.91	244.16	11.99	
2025-01-10 09:44:14.14	244.03	11.88	
2025-01-10 09:44:15.37	243.89	11.78	
2025-01-10 09:44:16.62	243.76	11.67	
2025-01-10 09:44:17.86	243.62	11.56	
2025-01-10 09:44:19.10	243.49	11.45	
2025-01-10 09:44:20.33	243.36	11.34	
2025-01-10 09:44:21.57	243.23	11.24	
2025-01-10 09:44:22.80	243.10	11.13	
2025-01-10 09:44:24.04	242.98	11.02	
2025-01-10 09:44:25.27	242.85	10.92	
2025-01-10 09:44:26.51	242.73	10.81	
2025-01-10 09:44:27.74	242.60	10.71	
2025-01-10 09:44:28.97	242.48	10.60	
2025-01-10 09:44:30.20	242.36	10.50	
2025-01-10 09:44:31.44	242.24	10.40	
2025-01-10 09:44:32.67	242.12	10.29	
2025-01-10 09:44:33.90	242.00	10.19	
2025-01-10 09:44:35.13	241.88	10.09	
2025-01-10 09:44:36.38	241.76	9.98	
2025-01-10 09:44:37.61	241.64	9.88	
2025-01-10 09:44:38.83	241.53	9.78	
2025-01-10 09:44:40.07	241.41	9.68	
2025-01-10 09:44:41.30	241.30	9.58	
2025-01-10 09:44:42.53	241.19	9.48	
2025-01-10 09:44:43.76	241.07	9.38	
2025-01-10 09:44:44.99	240.96	9.28	
2025-01-10 09:44:46.23	240.85	9.18	
2025-01-10 09:44:47.47	240.74	9.08	
2025-01-10 09:44:48.70	240.63	8.98	
2025-01-10 09:44:49.93	240.53	8.88	
2025-01-10 09:44:51.16	240.42	8.79	
2025-01-10 09:44:52.39	240.31	8.69	
2025-01-10 09:44:53.63	240.21	8.59	
2025-01-10 09:44:54.87	240.10	8.49	
2025-01-10 09:44:56.10	240.00	8.40	
2025-01-10 09:44:57.34	239.89	8.30	
2025-01-10 09:44:58.57	239.79	8.20	
2025-01-10 09:44:59.80	239.69	8.11	
2025-01-10 09:45:01.03	239.59	8.01	
2025-01-10 09:45:02.28	239.49	7.92	
2025-01-10 09:45:03.51	239.39	7.82	
2025-01-10 09:45:04.74	239.29	7.73	
2025-01-10 09:45:05.97	239.19	7.63	
2025-01-10 09:45:07.22	239.09	7.54	
2025-01-10 09:45:08.46	239.00	7.45	
2025-01-10 09:45:09.70	238.90	7.35	
2025-01-10 09:45:10.92	238.80	7.26	
2025-01-10 09:45:12.17	238.71	7.17	
2025-01-10 09:45:13.41	238.61	7.07	
2025-01-10 09:45:14.64	238.52	6.98	
2025-01-10 09:45:15.87	238.43	6.89	
2025-01-10 09:45:17.10	238.34	6.80	
2025-01-10 09:45:18.35	238.24	6.71	
2025-01-10 09:45:19.58	238.15	6.62	
2025-01-10 09:45:20.83	238.06	6.52	
2025-01-10 09:45:22.06	237.97	6.43	
2025-01-10 09:45:23.29	237.88	6.34	
2025-01-10 09:45:24.52	237.80	6.25	
2025-01-10 09:45:25.75	237.71	6.17	
2025-01-10 09:45:26.98	237.62	6.08	
2025-01-10 09:45:28.22	237.54	5.99	
2025-01-10 09:45:29.45	237.45	5.90	
2025-01-10 09:45:30.68	237.36	5.81	
2025-01-10 09:45:31.91	237.28	5.72	
2025-01-10 09:45:33.14	237.20	5.64	
2025-01-10 09:45:34.37	237.11	5.55	
2025-01-10 09:45:35.60	237.03	5.46	
2025-01-10 09:45:36.83	236.95	5.37	
2025-01-10 09:45:38.06	236.87	5.29	
2025-01-10 09:45:39.29	236.79	5.20	
2025-01-10 09:45:40.52	236.70	5.12	
2025-01-10 09:45:41.75	236.62	5.03	
2025-01-10 09:45:42.99	236.54	4.94	
2025-01-10 09:45:44.22	236.47	4.86	
2025-01-10 09:45:45.46	236.39	4.77	
2025-01-10 09:45:46.69	236.31	4.69	
2025-01-10 09:45:47.93	236.23	4.60	
2025-01-10 09:45:49.15	236.15	4.52	
2025-01-10 09:45:50.39	236.08	4.44	
2025-01-10 09:45:51.63	236.00	4.35	
2025-01-10 09:45:52.86	235.93	4.27	
2025-01-10 09:45:54.09	235.85	4.19	
2025-01-10 09:45:55.33	235.78	4.10	
2025-01-10 09:45:56.57	235.70	4.02	

#Closed at: 2025-01-10 09:45:56