passes_logs/2025/01/10/SPB_Silybum_02/SPB_Silybum_02__20250110_111258_TERRA_rec.log

#Pass ID: 20250110_111258_TERRA
#Satellite: TERRA
#Configuration: TERRA
#Start time: 2025-01-10 11:12:57

#Version: 2.0.20230423
#Station: SPB_Silybum_02
#Location: 30.233357 lon 59.946436 lat
#TLE: 1 25994U 99068A   25009.84464495  .00000861  00000+0  18726-3 0  9992
#TLE: 2 25994  98.0226  73.0387 0003560  82.8900 338.1382 14.60385144333325

#Time	Az	El	Level	Level2	SNR	BER	Gain	Gain2
2025-01-10 11:12:59.20	5.86	4.05	
2025-01-10 11:13:00.03	5.75	4.09	
2025-01-10 11:13:00.84	5.65	4.13	
2025-01-10 11:13:01.66	5.55	4.17	
2025-01-10 11:13:02.48	5.44	4.20	
2025-01-10 11:13:03.30	5.34	4.24	
2025-01-10 11:13:04.12	5.23	4.28	
2025-01-10 11:13:04.95	5.13	4.32	
2025-01-10 11:13:05.77	5.02	4.35	
2025-01-10 11:13:06.59	4.92	4.39	
2025-01-10 11:13:07.41	4.81	4.43	
2025-01-10 11:13:08.23	4.70	4.47	
2025-01-10 11:13:09.05	4.60	4.50	
2025-01-10 11:13:09.87	4.49	4.54	
2025-01-10 11:13:10.69	4.38	4.58	
2025-01-10 11:13:11.51	4.28	4.62	
2025-01-10 11:13:12.33	4.17	4.65	
2025-01-10 11:13:13.15	4.06	4.69	
2025-01-10 11:13:13.97	3.95	4.73	
2025-01-10 11:13:14.79	3.84	4.76	
2025-01-10 11:13:15.61	3.73	4.80	
2025-01-10 11:13:16.43	3.62	4.84	
2025-01-10 11:13:17.26	3.51	4.88	
2025-01-10 11:13:18.08	3.40	4.91	
2025-01-10 11:13:18.91	3.29	4.95	
2025-01-10 11:13:19.73	3.18	4.99	
2025-01-10 11:13:20.55	3.07	5.02	
2025-01-10 11:13:21.37	2.96	5.06	
2025-01-10 11:13:22.18	2.85	5.10	
2025-01-10 11:13:23.01	2.73	5.13	
2025-01-10 11:13:23.83	2.62	5.17	
2025-01-10 11:13:24.65	2.51	5.21	
2025-01-10 11:13:25.47	2.40	5.24	
2025-01-10 11:13:26.29	2.28	5.28	
2025-01-10 11:13:27.11	2.17	5.32	
2025-01-10 11:13:27.93	2.06	5.35	
2025-01-10 11:13:28.75	1.94	5.39	
2025-01-10 11:13:29.57	1.83	5.43	
2025-01-10 11:13:30.39	1.71	5.46	
2025-01-10 11:13:31.21	1.60	5.50	
2025-01-10 11:13:32.03	1.48	5.53	
2025-01-10 11:13:32.86	1.36	5.57	
2025-01-10 11:13:33.68	1.25	5.61	
2025-01-10 11:13:34.50	1.13	5.64	
2025-01-10 11:13:35.32	1.02	5.68	
2025-01-10 11:13:36.16	0.90	5.72	
2025-01-10 11:13:36.98	0.78	5.75	
2025-01-10 11:13:37.82	0.66	5.79	
2025-01-10 11:13:38.64	0.54	5.83	
2025-01-10 11:13:39.46	0.42	5.86	
2025-01-10 11:13:40.28	0.30	5.90	
2025-01-10 11:13:41.11	0.18	5.93	
2025-01-10 11:13:41.94	0.06	5.97	
2025-01-10 11:13:42.78	359.94	6.01	
2025-01-10 11:13:43.60	359.82	6.04	
2025-01-10 11:13:44.43	359.70	6.08	
2025-01-10 11:13:45.25	359.58	6.11	
2025-01-10 11:13:46.07	359.46	6.15	
2025-01-10 11:13:46.89	359.33	6.18	
2025-01-10 11:13:47.72	359.21	6.22	
2025-01-10 11:13:48.55	359.09	6.25	
2025-01-10 11:13:49.38	358.96	6.29	
2025-01-10 11:13:50.20	358.84	6.32	
2025-01-10 11:13:51.02	358.72	6.36	
2025-01-10 11:13:51.85	358.59	6.39	
2025-01-10 11:13:52.67	358.47	6.43	
2025-01-10 11:13:53.49	358.35	6.46	
2025-01-10 11:13:54.31	358.22	6.50	
2025-01-10 11:13:55.14	358.10	6.53	
2025-01-10 11:13:55.96	357.97	6.57	
2025-01-10 11:13:56.78	357.85	6.60	
2025-01-10 11:13:57.60	357.72	6.64	
2025-01-10 11:13:58.42	357.59	6.67	
2025-01-10 11:13:59.24	357.47	6.71	
2025-01-10 11:14:00.06	357.34	6.74	
2025-01-10 11:14:00.89	357.21	6.78	
2025-01-10 11:14:01.70	357.09	6.81	
2025-01-10 11:14:02.53	356.96	6.84	
2025-01-10 11:14:03.35	356.83	6.88	
2025-01-10 11:14:04.18	356.70	6.91	
2025-01-10 11:14:05.00	356.57	6.95	
2025-01-10 11:14:05.83	356.44	6.98	
2025-01-10 11:14:06.64	356.31	7.01	
2025-01-10 11:14:07.46	356.18	7.05	
2025-01-10 11:14:08.29	356.05	7.08	
2025-01-10 11:14:09.12	355.92	7.11	
2025-01-10 11:14:09.94	355.79	7.15	
2025-01-10 11:14:10.75	355.66	7.18	
2025-01-10 11:14:11.58	355.53	7.21	
2025-01-10 11:14:12.40	355.40	7.25	
2025-01-10 11:14:13.22	355.27	7.28	
2025-01-10 11:14:14.03	355.13	7.31	
2025-01-10 11:14:14.86	355.00	7.35	
2025-01-10 11:14:15.68	354.87	7.38	
2025-01-10 11:14:16.50	354.73	7.41	
2025-01-10 11:14:17.32	354.60	7.44	
2025-01-10 11:14:18.15	354.47	7.48	
2025-01-10 11:14:18.96	354.33	7.51	
2025-01-10 11:14:19.79	354.20	7.54	
2025-01-10 11:14:20.61	354.06	7.57	
2025-01-10 11:14:21.43	353.93	7.60	
2025-01-10 11:14:22.25	353.79	7.64	
2025-01-10 11:14:23.06	353.66	7.67	
2025-01-10 11:14:23.88	353.52	7.70	
2025-01-10 11:14:24.72	353.38	7.73	
2025-01-10 11:14:25.55	353.24	7.76	
2025-01-10 11:14:26.37	353.11	7.80	
2025-01-10 11:14:27.20	352.97	7.83	
2025-01-10 11:14:28.02	352.83	7.86	
2025-01-10 11:14:28.84	352.69	7.89	
2025-01-10 11:14:29.66	352.55	7.92	
2025-01-10 11:14:30.48	352.41	7.95	
2025-01-10 11:14:31.31	352.27	7.98	
2025-01-10 11:14:32.12	352.13	8.01	
2025-01-10 11:14:32.96	351.99	8.04	
2025-01-10 11:14:33.78	351.85	8.07	
2025-01-10 11:14:34.61	351.71	8.11	
2025-01-10 11:14:35.43	351.57	8.14	
2025-01-10 11:14:36.25	351.43	8.17	
2025-01-10 11:14:37.07	351.29	8.20	
2025-01-10 11:14:37.89	351.14	8.23	
2025-01-10 11:14:38.71	351.00	8.26	
2025-01-10 11:14:39.53	350.86	8.28	
2025-01-10 11:14:40.37	350.71	8.32	
2025-01-10 11:14:41.19	350.57	8.34	
2025-01-10 11:14:42.02	350.43	8.37	
2025-01-10 11:14:42.84	350.28	8.40	
2025-01-10 11:14:43.67	350.14	8.43	
2025-01-10 11:14:44.49	349.99	8.46	
2025-01-10 11:14:45.31	349.85	8.49	
2025-01-10 11:14:46.14	349.70	8.52	
2025-01-10 11:14:46.96	349.56	8.55	
2025-01-10 11:14:47.79	349.41	8.58	
2025-01-10 11:14:48.61	349.26	8.61	
2025-01-10 11:14:49.43	349.12	8.63	
2025-01-10 11:14:50.26	348.97	8.66	
2025-01-10 11:14:51.09	348.82	8.69	
2025-01-10 11:14:51.91	348.67	8.72	
2025-01-10 11:14:52.74	348.52	8.75	
2025-01-10 11:14:53.56	348.38	8.77	
2025-01-10 11:14:54.38	348.23	8.80	
2025-01-10 11:14:55.20	348.08	8.83	
2025-01-10 11:14:56.03	347.93	8.85	
2025-01-10 11:14:56.85	347.78	8.88	
2025-01-10 11:14:57.68	347.63	8.91	
2025-01-10 11:14:58.51	347.48	8.94	
2025-01-10 11:14:59.33	347.33	8.96	
2025-01-10 11:15:00.15	347.18	8.99	
2025-01-10 11:15:00.97	347.03	9.01	
2025-01-10 11:15:01.79	346.88	9.04	
2025-01-10 11:15:02.61	346.72	9.07	
2025-01-10 11:15:03.44	346.57	9.09	
2025-01-10 11:15:04.26	346.42	9.12	
2025-01-10 11:15:05.08	346.27	9.14	
2025-01-10 11:15:05.90	346.12	9.17	
2025-01-10 11:15:06.72	345.96	9.19	
2025-01-10 11:15:07.54	345.81	9.22	
2025-01-10 11:15:08.38	345.65	9.24	
2025-01-10 11:15:09.20	345.50	9.27	
2025-01-10 11:15:10.02	345.35	9.29	
2025-01-10 11:15:10.84	345.19	9.32	
2025-01-10 11:15:11.66	345.04	9.34	
2025-01-10 11:15:12.48	344.88	9.37	
2025-01-10 11:15:13.30	344.73	9.39	
2025-01-10 11:15:14.12	344.57	9.41	
2025-01-10 11:15:14.96	344.41	9.44	
2025-01-10 11:15:15.79	344.26	9.46	
2025-01-10 11:15:16.61	344.10	9.48	
2025-01-10 11:15:17.44	343.94	9.51	
2025-01-10 11:15:18.26	343.79	9.53	
2025-01-10 11:15:19.09	343.63	9.55	
2025-01-10 11:15:19.91	343.47	9.58	
2025-01-10 11:15:20.74	343.31	9.60	
2025-01-10 11:15:21.56	343.15	9.62	
2025-01-10 11:15:22.38	343.00	9.64	
2025-01-10 11:15:23.20	342.84	9.66	
2025-01-10 11:15:24.02	342.68	9.69	
2025-01-10 11:15:24.86	342.52	9.71	
2025-01-10 11:15:25.68	342.36	9.73	
2025-01-10 11:15:26.52	342.20	9.75	
2025-01-10 11:15:27.34	342.04	9.77	
2025-01-10 11:15:28.17	341.88	9.79	
2025-01-10 11:15:28.99	341.72	9.81	
2025-01-10 11:15:29.81	341.56	9.83	
2025-01-10 11:15:30.63	341.39	9.85	
2025-01-10 11:15:31.46	341.23	9.87	
2025-01-10 11:15:32.29	341.07	9.89	
2025-01-10 11:15:33.11	340.91	9.91	
2025-01-10 11:15:33.93	340.75	9.93	
2025-01-10 11:15:34.75	340.59	9.95	
2025-01-10 11:15:35.57	340.42	9.97	
2025-01-10 11:15:36.39	340.26	9.99	
2025-01-10 11:15:37.22	340.10	10.01	
2025-01-10 11:15:38.04	339.94	10.03	
2025-01-10 11:15:38.86	339.77	10.05	
2025-01-10 11:15:39.69	339.61	10.06	
2025-01-10 11:15:40.51	339.44	10.08	
2025-01-10 11:15:41.34	339.28	10.10	
2025-01-10 11:15:42.16	339.12	10.12	
2025-01-10 11:15:42.98	338.95	10.14	
2025-01-10 11:15:43.80	338.79	10.15	
2025-01-10 11:15:44.62	338.62	10.17	
2025-01-10 11:15:45.45	338.46	10.19	
2025-01-10 11:15:46.28	338.29	10.20	
2025-01-10 11:15:47.11	338.12	10.22	
2025-01-10 11:15:47.93	337.96	10.24	
2025-01-10 11:15:48.76	337.79	10.25	
2025-01-10 11:15:49.58	337.63	10.27	
2025-01-10 11:15:50.41	337.46	10.28	
2025-01-10 11:15:51.23	337.29	10.30	
2025-01-10 11:15:52.07	337.12	10.31	
2025-01-10 11:15:52.89	336.96	10.33	
2025-01-10 11:15:53.71	336.79	10.34	
2025-01-10 11:15:54.53	336.62	10.36	
2025-01-10 11:15:55.35	336.46	10.37	
2025-01-10 11:15:56.17	336.29	10.39	
2025-01-10 11:15:57.00	336.12	10.40	
2025-01-10 11:15:57.82	335.95	10.41	
2025-01-10 11:15:58.64	335.79	10.43	
2025-01-10 11:15:59.46	335.62	10.44	
2025-01-10 11:16:00.27	335.45	10.45	
2025-01-10 11:16:01.09	335.28	10.47	
2025-01-10 11:16:01.92	335.11	10.48	
2025-01-10 11:16:02.74	334.95	10.49	
2025-01-10 11:16:03.56	334.78	10.50	
2025-01-10 11:16:04.38	334.61	10.51	
2025-01-10 11:16:05.20	334.44	10.53	
2025-01-10 11:16:06.02	334.27	10.54	
2025-01-10 11:16:06.84	334.10	10.55	
2025-01-10 11:16:07.66	333.93	10.56	
2025-01-10 11:16:08.49	333.76	10.57	
2025-01-10 11:16:09.31	333.59	10.58	
2025-01-10 11:16:10.13	333.42	10.59	
2025-01-10 11:16:10.95	333.25	10.60	
2025-01-10 11:16:11.77	333.08	10.61	
2025-01-10 11:16:12.59	332.91	10.62	
2025-01-10 11:16:13.41	332.74	10.63	
2025-01-10 11:16:14.24	332.57	10.64	
2025-01-10 11:16:15.06	332.40	10.65	
2025-01-10 11:16:15.88	332.23	10.66	
2025-01-10 11:16:16.69	332.06	10.66	
2025-01-10 11:16:17.52	331.89	10.67	
2025-01-10 11:16:18.34	331.72	10.68	
2025-01-10 11:16:19.16	331.55	10.69	
2025-01-10 11:16:19.98	331.38	10.70	
2025-01-10 11:16:20.81	331.20	10.70	
2025-01-10 11:16:21.64	331.03	10.71	
2025-01-10 11:16:22.46	330.86	10.72	
2025-01-10 11:16:23.28	330.69	10.72	
2025-01-10 11:16:24.10	330.52	10.73	
2025-01-10 11:16:24.93	330.34	10.74	
2025-01-10 11:16:25.75	330.17	10.74	
2025-01-10 11:16:26.57	330.00	10.75	
2025-01-10 11:16:27.39	329.83	10.75	
2025-01-10 11:16:28.21	329.66	10.76	
2025-01-10 11:16:29.04	329.48	10.76	
2025-01-10 11:16:29.86	329.31	10.77	
2025-01-10 11:16:30.68	329.14	10.77	
2025-01-10 11:16:31.50	328.97	10.78	
2025-01-10 11:16:32.32	328.79	10.78	
2025-01-10 11:16:33.15	328.62	10.79	
2025-01-10 11:16:33.97	328.45	10.79	
2025-01-10 11:16:34.79	328.28	10.79	
2025-01-10 11:16:35.61	328.10	10.80	
2025-01-10 11:16:36.43	327.93	10.80	
2025-01-10 11:16:37.25	327.76	10.80	
2025-01-10 11:16:38.07	327.59	10.80	
2025-01-10 11:16:38.89	327.41	10.81	
2025-01-10 11:16:39.71	327.24	10.81	
2025-01-10 11:16:40.53	327.07	10.81	
2025-01-10 11:16:41.35	326.90	10.81	
2025-01-10 11:16:42.18	326.72	10.81	
2025-01-10 11:16:43.00	326.55	10.81	
2025-01-10 11:16:43.82	326.38	10.81	
2025-01-10 11:16:44.65	326.20	10.82	
2025-01-10 11:16:45.47	326.03	10.82	
2025-01-10 11:16:46.29	325.86	10.82	
2025-01-10 11:16:47.11	325.69	10.82	
2025-01-10 11:16:47.94	325.51	10.81	
2025-01-10 11:16:48.78	325.33	10.81	
2025-01-10 11:16:49.60	325.16	10.81	
2025-01-10 11:16:50.42	324.99	10.81	
2025-01-10 11:16:51.24	324.82	10.81	
2025-01-10 11:16:52.07	324.64	10.81	
2025-01-10 11:16:52.88	324.47	10.81	
2025-01-10 11:16:53.71	324.30	10.81	
2025-01-10 11:16:54.53	324.12	10.80	
2025-01-10 11:16:55.35	323.95	10.80	
2025-01-10 11:16:56.17	323.78	10.80	
2025-01-10 11:16:56.99	323.61	10.79	
2025-01-10 11:16:57.81	323.43	10.79	
2025-01-10 11:16:54.07	324.22	10.80	
2025-01-10 11:16:54.89	324.05	10.80	
2025-01-10 11:16:55.71	323.88	10.80	
2025-01-10 11:16:56.54	323.70	10.80	
2025-01-10 11:16:57.36	323.53	10.79	
2025-01-10 11:16:58.18	323.36	10.79	
2025-01-10 11:16:59.00	323.18	10.79	
2025-01-10 11:16:59.83	323.01	10.78	
2025-01-10 11:17:00.64	322.84	10.78	
2025-01-10 11:17:01.46	322.67	10.77	
2025-01-10 11:17:02.28	322.50	10.77	
2025-01-10 11:17:03.11	322.32	10.76	
2025-01-10 11:17:03.93	322.15	10.76	
2025-01-10 11:17:04.75	321.98	10.75	
2025-01-10 11:17:05.57	321.81	10.75	
2025-01-10 11:17:06.39	321.63	10.74	
2025-01-10 11:17:07.21	321.46	10.74	
2025-01-10 11:17:08.03	321.29	10.73	
2025-01-10 11:17:08.85	321.12	10.72	
2025-01-10 11:17:09.67	320.95	10.72	
2025-01-10 11:17:10.49	320.78	10.71	
2025-01-10 11:17:11.31	320.61	10.70	
2025-01-10 11:17:12.13	320.44	10.70	
2025-01-10 11:17:12.95	320.26	10.69	
2025-01-10 11:17:13.78	320.09	10.68	
2025-01-10 11:17:14.60	319.92	10.67	
2025-01-10 11:17:15.44	319.75	10.66	
2025-01-10 11:17:16.27	319.57	10.66	
2025-01-10 11:17:17.09	319.40	10.65	
2025-01-10 11:17:17.91	319.23	10.64	
2025-01-10 11:17:18.73	319.06	10.63	
2025-01-10 11:17:19.55	318.89	10.62	
2025-01-10 11:17:20.38	318.72	10.61	
2025-01-10 11:17:21.20	318.55	10.60	
2025-01-10 11:17:22.02	318.38	10.59	
2025-01-10 11:17:22.84	318.21	10.58	
2025-01-10 11:17:23.66	318.04	10.57	
2025-01-10 11:17:24.49	317.87	10.56	
2025-01-10 11:17:25.31	317.70	10.55	
2025-01-10 11:17:26.13	317.53	10.54	
2025-01-10 11:17:26.95	317.36	10.52	
2025-01-10 11:17:27.77	317.19	10.51	
2025-01-10 11:17:28.59	317.02	10.50	
2025-01-10 11:17:29.41	316.85	10.49	
2025-01-10 11:17:30.23	316.69	10.48	
2025-01-10 11:17:31.05	316.52	10.46	
2025-01-10 11:17:31.87	316.35	10.45	
2025-01-10 11:17:32.69	316.18	10.44	
2025-01-10 11:17:33.51	316.01	10.43	
2025-01-10 11:17:34.34	315.84	10.41	
2025-01-10 11:17:35.16	315.68	10.40	
2025-01-10 11:17:35.98	315.51	10.38	
2025-01-10 11:17:36.80	315.34	10.37	
2025-01-10 11:17:37.62	315.18	10.36	
2025-01-10 11:17:38.44	315.01	10.34	
2025-01-10 11:17:39.27	314.84	10.33	
2025-01-10 11:17:40.09	314.67	10.31	
2025-01-10 11:17:40.93	314.50	10.30	
2025-01-10 11:17:41.75	314.34	10.28	
2025-01-10 11:17:42.57	314.17	10.27	
2025-01-10 11:17:43.39	314.01	10.25	
2025-01-10 11:17:44.21	313.84	10.23	
2025-01-10 11:17:45.03	313.68	10.22	
2025-01-10 11:17:45.85	313.51	10.20	
2025-01-10 11:17:46.67	313.35	10.19	
2025-01-10 11:17:47.49	313.18	10.17	
2025-01-10 11:17:48.31	313.02	10.15	
2025-01-10 11:17:49.13	312.85	10.14	
2025-01-10 11:17:49.95	312.69	10.12	
2025-01-10 11:17:50.78	312.52	10.10	
2025-01-10 11:17:51.61	312.36	10.08	
2025-01-10 11:17:52.43	312.19	10.06	
2025-01-10 11:17:53.26	312.03	10.05	
2025-01-10 11:17:54.08	311.86	10.03	
2025-01-10 11:17:54.90	311.70	10.01	
2025-01-10 11:17:55.72	311.54	9.99	
2025-01-10 11:17:56.54	311.38	9.97	
2025-01-10 11:17:57.36	311.22	9.95	
2025-01-10 11:17:58.18	311.05	9.93	
2025-01-10 11:17:59.00	310.89	9.91	
2025-01-10 11:17:59.83	310.73	9.89	
2025-01-10 11:18:00.65	310.57	9.87	
2025-01-10 11:18:01.47	310.41	9.85	
2025-01-10 11:18:02.29	310.25	9.83	
2025-01-10 11:18:03.11	310.09	9.81	
2025-01-10 11:18:03.93	309.93	9.79	
2025-01-10 11:18:04.75	309.77	9.77	
2025-01-10 11:18:05.57	309.61	9.75	
2025-01-10 11:18:06.40	309.44	9.73	
2025-01-10 11:18:07.22	309.29	9.71	
2025-01-10 11:18:08.05	309.12	9.69	
2025-01-10 11:18:08.88	308.96	9.66	
2025-01-10 11:18:09.70	308.81	9.64	
2025-01-10 11:18:10.52	308.65	9.62	
2025-01-10 11:18:11.34	308.49	9.60	
2025-01-10 11:18:12.16	308.33	9.58	
2025-01-10 11:18:12.98	308.17	9.55	
2025-01-10 11:18:13.80	308.02	9.53	
2025-01-10 11:18:14.62	307.86	9.51	
2025-01-10 11:18:15.44	307.70	9.49	
2025-01-10 11:18:16.26	307.55	9.46	
2025-01-10 11:18:17.09	307.39	9.44	
2025-01-10 11:18:17.91	307.23	9.41	
2025-01-10 11:18:18.74	307.08	9.39	
2025-01-10 11:18:19.56	306.92	9.37	
2025-01-10 11:18:20.39	306.76	9.34	
2025-01-10 11:18:21.21	306.61	9.32	
2025-01-10 11:18:22.03	306.46	9.29	
2025-01-10 11:18:22.85	306.30	9.27	
2025-01-10 11:18:23.67	306.15	9.24	
2025-01-10 11:18:24.49	305.99	9.22	
2025-01-10 11:18:25.32	305.84	9.19	
2025-01-10 11:18:26.14	305.69	9.17	
2025-01-10 11:18:26.96	305.53	9.14	
2025-01-10 11:18:27.78	305.38	9.12	
2025-01-10 11:18:28.60	305.23	9.09	
2025-01-10 11:18:29.42	305.08	9.07	
2025-01-10 11:18:30.24	304.93	9.04	
2025-01-10 11:18:31.06	304.77	9.02	
2025-01-10 11:18:31.88	304.62	8.99	
2025-01-10 11:18:32.70	304.47	8.96	
2025-01-10 11:18:33.52	304.32	8.94	
2025-01-10 11:18:34.34	304.17	8.91	
2025-01-10 11:18:35.17	304.02	8.88	
2025-01-10 11:18:35.99	303.87	8.86	
2025-01-10 11:18:36.81	303.72	8.83	
2025-01-10 11:18:37.63	303.57	8.80	
2025-01-10 11:18:38.47	303.42	8.77	
2025-01-10 11:18:39.29	303.27	8.75	
2025-01-10 11:18:40.11	303.13	8.72	
2025-01-10 11:18:40.94	302.98	8.69	
2025-01-10 11:18:41.76	302.83	8.66	
2025-01-10 11:18:42.58	302.68	8.63	
2025-01-10 11:18:43.40	302.54	8.61	
2025-01-10 11:18:44.22	302.39	8.58	
2025-01-10 11:18:45.05	302.24	8.55	
2025-01-10 11:18:45.88	302.09	8.52	
2025-01-10 11:18:46.71	301.95	8.49	
2025-01-10 11:18:47.53	301.80	8.46	
2025-01-10 11:18:48.35	301.66	8.43	
2025-01-10 11:18:49.17	301.51	8.40	
2025-01-10 11:18:49.99	301.37	8.38	
2025-01-10 11:18:50.81	301.22	8.35	
2025-01-10 11:18:51.63	301.08	8.32	
2025-01-10 11:18:52.45	300.94	8.29	
2025-01-10 11:18:53.27	300.80	8.26	
2025-01-10 11:18:54.09	300.65	8.23	
2025-01-10 11:18:54.91	300.51	8.20	
2025-01-10 11:18:55.74	300.37	8.17	
2025-01-10 11:18:56.56	300.23	8.14	
2025-01-10 11:18:57.38	300.08	8.11	
2025-01-10 11:18:58.19	299.94	8.08	
2025-01-10 11:18:59.02	299.80	8.05	
2025-01-10 11:18:59.84	299.66	8.02	
2025-01-10 11:19:00.67	299.52	7.98	
2025-01-10 11:19:01.49	299.38	7.95	
2025-01-10 11:19:02.31	299.24	7.92	
2025-01-10 11:19:03.13	299.10	7.89	
2025-01-10 11:19:03.96	298.96	7.86	
2025-01-10 11:19:04.78	298.82	7.83	
2025-01-10 11:19:05.60	298.69	7.80	
2025-01-10 11:19:06.42	298.55	7.77	
2025-01-10 11:19:07.25	298.41	7.73	
2025-01-10 11:19:08.07	298.27	7.70	
2025-01-10 11:19:08.89	298.14	7.67	
2025-01-10 11:19:09.71	298.00	7.64	
2025-01-10 11:19:10.53	297.86	7.61	
2025-01-10 11:19:11.35	297.73	7.57	
2025-01-10 11:19:12.17	297.59	7.54	
2025-01-10 11:19:12.99	297.46	7.51	
2025-01-10 11:19:13.81	297.32	7.48	
2025-01-10 11:19:14.63	297.19	7.45	
2025-01-10 11:19:15.46	297.05	7.41	
2025-01-10 11:19:16.28	296.92	7.38	
2025-01-10 11:19:17.11	296.78	7.35	
2025-01-10 11:19:17.95	296.65	7.31	
2025-01-10 11:19:18.77	296.51	7.28	
2025-01-10 11:19:19.61	296.38	7.25	
2025-01-10 11:19:20.43	296.25	7.21	
2025-01-10 11:19:21.25	296.11	7.18	
2025-01-10 11:19:22.07	295.98	7.15	
2025-01-10 11:19:22.89	295.85	7.11	
2025-01-10 11:19:23.71	295.72	7.08	
2025-01-10 11:19:24.54	295.59	7.05	
2025-01-10 11:19:25.36	295.46	7.01	
2025-01-10 11:19:26.18	295.33	6.98	
2025-01-10 11:19:27.00	295.20	6.94	
2025-01-10 11:19:27.82	295.07	6.91	
2025-01-10 11:19:28.64	294.94	6.88	
2025-01-10 11:19:29.46	294.81	6.84	
2025-01-10 11:19:30.28	294.69	6.81	
2025-01-10 11:19:31.10	294.56	6.78	
2025-01-10 11:19:31.92	294.43	6.74	
2025-01-10 11:19:32.74	294.30	6.71	
2025-01-10 11:19:33.56	294.18	6.67	
2025-01-10 11:19:34.39	294.05	6.64	
2025-01-10 11:19:35.21	293.92	6.60	
2025-01-10 11:19:36.03	293.80	6.57	
2025-01-10 11:19:36.86	293.67	6.53	
2025-01-10 11:19:37.68	293.54	6.50	
2025-01-10 11:19:38.51	293.42	6.46	
2025-01-10 11:19:39.33	293.29	6.43	
2025-01-10 11:19:40.16	293.17	6.39	
2025-01-10 11:19:40.98	293.04	6.36	
2025-01-10 11:19:41.80	292.92	6.32	
2025-01-10 11:19:42.62	292.80	6.29	
2025-01-10 11:19:43.45	292.67	6.25	
2025-01-10 11:19:44.27	292.55	6.22	
2025-01-10 11:19:45.09	292.43	6.18	
2025-01-10 11:19:45.91	292.31	6.15	
2025-01-10 11:19:46.72	292.19	6.11	
2025-01-10 11:19:47.55	292.06	6.08	
2025-01-10 11:19:48.37	291.94	6.04	
2025-01-10 11:19:49.19	291.82	6.00	
2025-01-10 11:19:50.01	291.70	5.97	
2025-01-10 11:19:50.83	291.58	5.93	
2025-01-10 11:19:51.65	291.46	5.90	
2025-01-10 11:19:52.47	291.34	5.86	
2025-01-10 11:19:53.29	291.22	5.83	
2025-01-10 11:19:54.11	291.11	5.79	
2025-01-10 11:19:54.93	290.99	5.75	
2025-01-10 11:19:55.75	290.87	5.72	
2025-01-10 11:19:56.59	290.75	5.68	
2025-01-10 11:19:57.41	290.63	5.64	
2025-01-10 11:19:58.23	290.52	5.61	
2025-01-10 11:19:59.06	290.40	5.57	
2025-01-10 11:19:59.88	290.28	5.54	
2025-01-10 11:20:00.70	290.16	5.50	
2025-01-10 11:20:01.52	290.05	5.46	
2025-01-10 11:20:02.34	289.93	5.43	
2025-01-10 11:20:03.17	289.82	5.39	
2025-01-10 11:20:03.99	289.70	5.35	
2025-01-10 11:20:04.81	289.59	5.32	
2025-01-10 11:20:05.63	289.47	5.28	
2025-01-10 11:20:06.45	289.36	5.24	
2025-01-10 11:20:07.27	289.25	5.21	
2025-01-10 11:20:08.09	289.13	5.17	
2025-01-10 11:20:08.91	289.02	5.13	
2025-01-10 11:20:09.74	288.91	5.10	
2025-01-10 11:20:10.56	288.79	5.06	
2025-01-10 11:20:11.38	288.68	5.02	
2025-01-10 11:20:12.21	288.57	4.99	
2025-01-10 11:20:13.03	288.46	4.95	
2025-01-10 11:20:13.85	288.35	4.91	
2025-01-10 11:20:14.67	288.24	4.87	
2025-01-10 11:20:15.49	288.13	4.84	
2025-01-10 11:20:16.31	288.02	4.80	
2025-01-10 11:20:17.14	287.91	4.76	
2025-01-10 11:20:17.95	287.80	4.73	
2025-01-10 11:20:18.77	287.69	4.69	
2025-01-10 11:20:19.59	287.58	4.65	
2025-01-10 11:20:20.41	287.47	4.61	
2025-01-10 11:20:21.23	287.36	4.58	
2025-01-10 11:20:22.06	287.25	4.54	
2025-01-10 11:20:22.88	287.15	4.50	
2025-01-10 11:20:23.70	287.04	4.46	
2025-01-10 11:20:24.52	286.93	4.43	
2025-01-10 11:20:25.34	286.83	4.39	
2025-01-10 11:20:26.17	286.72	4.35	
2025-01-10 11:20:27.00	286.61	4.31	
2025-01-10 11:20:27.82	286.50	4.28	
2025-01-10 11:20:28.65	286.40	4.24	
2025-01-10 11:20:29.46	286.29	4.20	
2025-01-10 11:20:30.29	286.19	4.16	
2025-01-10 11:20:31.11	286.08	4.13	
2025-01-10 11:20:31.93	285.98	4.09	
2025-01-10 11:20:32.75	285.88	4.05	
2025-01-10 11:20:33.57	285.77	4.01	

#Closed at: 2025-01-10 11:20:33