passes_logs/2025/01/10/SPB_Silybum_02/SPB_Silybum_02__20250110_220800_SUOMI_NPP_rec.log

#Pass ID: 20250110_220800_SUOMI NPP
#Satellite: SUOMI NPP
#Configuration: NPP
#Start time: 2025-01-10 22:07:59

#Version: 2.0.20230423
#Station: SPB_Silybum_02
#Location: 30.233357 lon 59.946436 lat
#TLE: 1 37849U 11061A   25009.91542277  .00000197  00000+0  11407-3 0  9995
#TLE: 2 37849  98.7440 310.9686 0001842  48.7836 311.3498 14.19535939684207

#Time	Az	El	Level	Level2	SNR	BER	Gain	Gain2
2025-01-10 22:08:01.83	30.97	4.09	
2025-01-10 22:08:02.86	31.08	4.14	
2025-01-10 22:08:03.90	31.19	4.19	
2025-01-10 22:08:04.92	31.29	4.24	
2025-01-10 22:08:05.95	31.40	4.29	
2025-01-10 22:08:06.97	31.51	4.33	
2025-01-10 22:08:08.00	31.62	4.38	
2025-01-10 22:08:09.02	31.72	4.43	
2025-01-10 22:08:10.04	31.83	4.48	
2025-01-10 22:08:11.07	31.94	4.53	
2025-01-10 22:08:12.09	32.05	4.58	
2025-01-10 22:08:13.12	32.16	4.63	
2025-01-10 22:08:14.14	32.27	4.68	
2025-01-10 22:08:15.17	32.38	4.73	
2025-01-10 22:08:16.20	32.49	4.78	
2025-01-10 22:08:17.23	32.60	4.83	
2025-01-10 22:08:18.25	32.72	4.88	
2025-01-10 22:08:19.28	32.83	4.93	
2025-01-10 22:08:20.31	32.94	4.98	
2025-01-10 22:08:21.35	33.05	5.03	
2025-01-10 22:08:22.38	33.17	5.09	
2025-01-10 22:08:23.40	33.28	5.13	
2025-01-10 22:08:24.42	33.39	5.18	
2025-01-10 22:08:25.45	33.51	5.23	
2025-01-10 22:08:26.49	33.62	5.29	
2025-01-10 22:08:27.52	33.74	5.34	
2025-01-10 22:08:28.56	33.86	5.39	
2025-01-10 22:08:29.58	33.97	5.44	
2025-01-10 22:08:30.61	34.09	5.49	
2025-01-10 22:08:31.64	34.20	5.54	
2025-01-10 22:08:32.67	34.32	5.59	
2025-01-10 22:08:33.69	34.44	5.64	
2025-01-10 22:08:34.72	34.56	5.69	
2025-01-10 22:08:35.75	34.67	5.74	
2025-01-10 22:08:36.77	34.79	5.79	
2025-01-10 22:08:37.80	34.91	5.84	
2025-01-10 22:08:38.82	35.03	5.89	
2025-01-10 22:08:39.85	35.15	5.94	
2025-01-10 22:08:40.88	35.27	5.99	
2025-01-10 22:08:41.90	35.39	6.04	
2025-01-10 22:08:42.93	35.51	6.09	
2025-01-10 22:08:43.96	35.63	6.14	
2025-01-10 22:08:44.99	35.75	6.19	
2025-01-10 22:08:46.02	35.88	6.24	
2025-01-10 22:08:47.04	36.00	6.29	
2025-01-10 22:08:48.07	36.12	6.34	
2025-01-10 22:08:49.11	36.25	6.39	
2025-01-10 22:08:50.13	36.37	6.44	
2025-01-10 22:08:51.16	36.49	6.49	
2025-01-10 22:08:52.18	36.62	6.54	
2025-01-10 22:08:53.21	36.74	6.59	
2025-01-10 22:08:54.24	36.87	6.64	
2025-01-10 22:08:55.26	36.99	6.69	
2025-01-10 22:08:56.29	37.12	6.74	
2025-01-10 22:08:57.31	37.24	6.79	
2025-01-10 22:08:58.34	37.37	6.84	
2025-01-10 22:08:59.36	37.50	6.89	
2025-01-10 22:09:00.40	37.63	6.94	
2025-01-10 22:09:01.42	37.75	6.99	
2025-01-10 22:09:02.45	37.88	7.04	
2025-01-10 22:09:03.48	38.01	7.09	
2025-01-10 22:09:04.50	38.14	7.14	
2025-01-10 22:09:05.54	38.27	7.19	
2025-01-10 22:09:06.56	38.40	7.24	
2025-01-10 22:09:07.59	38.53	7.28	
2025-01-10 22:09:08.61	38.66	7.33	
2025-01-10 22:09:09.64	38.80	7.38	
2025-01-10 22:09:10.66	38.93	7.43	
2025-01-10 22:09:11.69	39.06	7.48	
2025-01-10 22:09:12.72	39.19	7.53	
2025-01-10 22:09:13.74	39.32	7.58	
2025-01-10 22:09:14.77	39.46	7.63	
2025-01-10 22:09:15.81	39.59	7.68	
2025-01-10 22:09:16.84	39.73	7.73	
2025-01-10 22:09:17.87	39.87	7.78	
2025-01-10 22:09:18.91	40.00	7.83	
2025-01-10 22:09:19.93	40.14	7.88	
2025-01-10 22:09:20.96	40.27	7.93	
2025-01-10 22:09:21.98	40.41	7.98	
2025-01-10 22:09:23.01	40.55	8.03	
2025-01-10 22:09:24.05	40.69	8.08	
2025-01-10 22:09:25.07	40.82	8.12	
2025-01-10 22:09:26.10	40.96	8.17	
2025-01-10 22:09:27.12	41.10	8.22	
2025-01-10 22:09:28.15	41.24	8.27	
2025-01-10 22:09:29.18	41.38	8.32	
2025-01-10 22:09:30.22	41.52	8.37	
2025-01-10 22:09:31.25	41.67	8.42	
2025-01-10 22:09:32.27	41.81	8.47	
2025-01-10 22:09:33.30	41.95	8.52	
2025-01-10 22:09:34.33	42.09	8.57	
2025-01-10 22:09:35.35	42.23	8.61	
2025-01-10 22:09:36.38	42.38	8.66	
2025-01-10 22:09:37.41	42.52	8.71	
2025-01-10 22:09:38.43	42.66	8.76	
2025-01-10 22:09:39.46	42.81	8.81	
2025-01-10 22:09:40.49	42.95	8.86	
2025-01-10 22:09:41.51	43.10	8.90	
2025-01-10 22:09:42.54	43.24	8.95	
2025-01-10 22:09:43.56	43.39	9.00	
2025-01-10 22:09:44.59	43.54	9.05	
2025-01-10 22:09:45.62	43.69	9.10	
2025-01-10 22:09:46.64	43.83	9.14	
2025-01-10 22:09:47.67	43.98	9.19	
2025-01-10 22:09:48.70	44.13	9.24	
2025-01-10 22:09:49.72	44.28	9.29	
2025-01-10 22:09:50.75	44.43	9.33	
2025-01-10 22:09:51.78	44.58	9.38	
2025-01-10 22:09:52.80	44.73	9.43	
2025-01-10 22:09:53.84	44.88	9.48	
2025-01-10 22:09:54.86	45.03	9.52	
2025-01-10 22:09:55.89	45.18	9.57	
2025-01-10 22:09:56.91	45.34	9.62	
2025-01-10 22:09:57.94	45.49	9.66	
2025-01-10 22:09:58.97	45.64	9.71	
2025-01-10 22:09:59.99	45.80	9.76	
2025-01-10 22:10:01.02	45.95	9.80	
2025-01-10 22:10:02.05	46.11	9.85	
2025-01-10 22:10:03.07	46.26	9.90	
2025-01-10 22:10:04.11	46.42	9.94	
2025-01-10 22:10:05.14	46.58	9.99	
2025-01-10 22:10:06.17	46.73	10.04	
2025-01-10 22:10:07.20	46.89	10.08	
2025-01-10 22:10:08.22	47.05	10.13	
2025-01-10 22:10:09.25	47.21	10.18	
2025-01-10 22:10:10.27	47.36	10.22	
2025-01-10 22:10:11.30	47.52	10.27	
2025-01-10 22:10:12.32	47.68	10.31	
2025-01-10 22:10:13.35	47.84	10.36	
2025-01-10 22:10:14.37	48.00	10.40	
2025-01-10 22:10:15.40	48.16	10.45	
2025-01-10 22:10:16.42	48.33	10.49	
2025-01-10 22:10:17.46	48.49	10.54	
2025-01-10 22:10:18.49	48.65	10.58	
2025-01-10 22:10:19.52	48.82	10.63	
2025-01-10 22:10:20.54	48.98	10.67	
2025-01-10 22:10:21.57	49.14	10.72	
2025-01-10 22:10:22.59	49.31	10.76	
2025-01-10 22:10:23.62	49.47	10.81	
2025-01-10 22:10:24.65	49.64	10.85	
2025-01-10 22:10:25.67	49.80	10.89	
2025-01-10 22:10:26.69	49.97	10.94	
2025-01-10 22:10:27.73	50.14	10.98	
2025-01-10 22:10:28.75	50.30	11.03	
2025-01-10 22:10:29.78	50.47	11.07	
2025-01-10 22:10:30.81	50.64	11.11	
2025-01-10 22:10:31.84	50.81	11.16	
2025-01-10 22:10:32.87	50.98	11.20	
2025-01-10 22:10:33.90	51.15	11.24	
2025-01-10 22:10:34.92	51.32	11.29	
2025-01-10 22:10:35.94	51.49	11.33	
2025-01-10 22:10:36.97	51.66	11.37	
2025-01-10 22:10:37.99	51.83	11.41	
2025-01-10 22:10:39.01	52.00	11.45	
2025-01-10 22:10:40.04	52.18	11.50	
2025-01-10 22:10:41.08	52.35	11.54	
2025-01-10 22:10:42.12	52.53	11.58	
2025-01-10 22:10:43.15	52.70	11.62	
2025-01-10 22:10:44.17	52.88	11.66	
2025-01-10 22:10:45.20	53.05	11.70	
2025-01-10 22:10:46.23	53.23	11.75	
2025-01-10 22:10:47.25	53.41	11.79	
2025-01-10 22:10:48.28	53.58	11.83	
2025-01-10 22:10:49.32	53.76	11.87	
2025-01-10 22:10:50.35	53.94	11.91	
2025-01-10 22:10:51.38	54.12	11.95	
2025-01-10 22:10:52.41	54.30	11.99	
2025-01-10 22:10:53.44	54.48	12.03	
2025-01-10 22:10:54.47	54.66	12.07	
2025-01-10 22:10:55.49	54.84	12.11	
2025-01-10 22:10:56.51	55.02	12.15	
2025-01-10 22:10:57.54	55.20	12.19	
2025-01-10 22:10:58.57	55.38	12.23	
2025-01-10 22:10:59.60	55.56	12.26	
2025-01-10 22:11:00.62	55.74	12.30	
2025-01-10 22:11:01.65	55.93	12.34	
2025-01-10 22:11:02.68	56.11	12.38	
2025-01-10 22:11:03.70	56.29	12.42	
2025-01-10 22:11:04.73	56.48	12.45	
2025-01-10 22:11:05.75	56.66	12.49	
2025-01-10 22:11:06.78	56.85	12.53	
2025-01-10 22:11:07.80	57.03	12.57	
2025-01-10 22:11:08.83	57.22	12.60	
2025-01-10 22:11:09.86	57.40	12.64	
2025-01-10 22:11:10.88	57.59	12.67	
2025-01-10 22:11:11.92	57.78	12.71	
2025-01-10 22:11:12.94	57.97	12.75	
2025-01-10 22:11:13.97	58.16	12.78	
2025-01-10 22:11:15.00	58.34	12.82	
2025-01-10 22:11:16.03	58.53	12.85	
2025-01-10 22:11:17.05	58.72	12.89	
2025-01-10 22:11:18.08	58.91	12.92	
2025-01-10 22:11:19.11	59.10	12.96	
2025-01-10 22:11:20.13	59.29	12.99	
2025-01-10 22:11:21.16	59.49	13.03	
2025-01-10 22:11:22.19	59.68	13.06	
2025-01-10 22:11:23.21	59.87	13.09	
2025-01-10 22:11:24.24	60.06	13.13	
2025-01-10 22:11:25.26	60.25	13.16	
2025-01-10 22:11:26.29	60.45	13.19	
2025-01-10 22:11:27.32	60.64	13.23	
2025-01-10 22:11:28.35	60.84	13.26	
2025-01-10 22:11:29.38	61.03	13.29	
2025-01-10 22:11:30.41	61.23	13.32	
2025-01-10 22:11:31.43	61.42	13.35	
2025-01-10 22:11:32.46	61.62	13.38	
2025-01-10 22:11:33.48	61.81	13.42	
2025-01-10 22:11:34.51	62.01	13.45	
2025-01-10 22:11:35.53	62.21	13.48	
2025-01-10 22:11:36.57	62.41	13.51	
2025-01-10 22:11:37.59	62.60	13.54	
2025-01-10 22:11:38.63	62.81	13.57	
2025-01-10 22:11:39.65	63.00	13.60	
2025-01-10 22:11:40.68	63.20	13.63	
2025-01-10 22:11:41.71	63.40	13.65	
2025-01-10 22:11:42.73	63.60	13.68	
2025-01-10 22:11:43.76	63.80	13.71	
2025-01-10 22:11:44.78	64.00	13.74	
2025-01-10 22:11:45.81	64.20	13.77	
2025-01-10 22:11:46.83	64.40	13.79	
2025-01-10 22:11:47.87	64.61	13.82	
2025-01-10 22:11:48.92	64.81	13.85	
2025-01-10 22:11:49.95	65.02	13.87	
2025-01-10 22:11:50.97	65.22	13.90	
2025-01-10 22:11:52.00	65.42	13.93	
2025-01-10 22:11:53.02	65.62	13.95	
2025-01-10 22:11:54.05	65.83	13.98	
2025-01-10 22:11:55.08	66.03	14.00	
2025-01-10 22:11:56.12	66.24	14.03	
2025-01-10 22:11:57.14	66.44	14.05	
2025-01-10 22:11:58.17	66.65	14.08	
2025-01-10 22:11:59.21	66.86	14.10	
2025-01-10 22:12:00.23	67.06	14.12	
2025-01-10 22:12:01.26	67.27	14.15	
2025-01-10 22:12:02.28	67.47	14.17	
2025-01-10 22:12:03.31	67.68	14.19	
2025-01-10 22:12:04.34	67.89	14.21	
2025-01-10 22:12:05.37	68.10	14.23	
2025-01-10 22:12:06.40	68.31	14.26	
2025-01-10 22:12:07.44	68.52	14.28	
2025-01-10 22:12:08.48	68.73	14.30	
2025-01-10 22:12:09.52	68.94	14.32	
2025-01-10 22:12:10.54	69.15	14.34	
2025-01-10 22:12:11.58	69.36	14.36	
2025-01-10 22:12:12.61	69.57	14.38	
2025-01-10 22:12:13.63	69.78	14.40	
2025-01-10 22:12:14.65	69.99	14.42	
2025-01-10 22:12:15.68	70.20	14.44	
2025-01-10 22:12:16.71	70.41	14.45	
2025-01-10 22:12:17.73	70.62	14.47	
2025-01-10 22:12:18.76	70.83	14.49	
2025-01-10 22:12:19.80	71.04	14.51	
2025-01-10 22:12:20.83	71.25	14.52	
2025-01-10 22:12:21.86	71.47	14.54	
2025-01-10 22:12:22.90	71.68	14.55	
2025-01-10 22:12:23.92	71.89	14.57	
2025-01-10 22:12:24.95	72.11	14.59	
2025-01-10 22:12:25.98	72.32	14.60	
2025-01-10 22:12:27.00	72.53	14.62	
2025-01-10 22:12:28.03	72.74	14.63	
2025-01-10 22:12:29.05	72.96	14.64	
2025-01-10 22:12:30.08	73.17	14.66	
2025-01-10 22:12:31.11	73.38	14.67	
2025-01-10 22:12:32.14	73.60	14.68	
2025-01-10 22:12:33.16	73.81	14.69	
2025-01-10 22:12:34.20	74.03	14.71	
2025-01-10 22:12:35.24	74.24	14.72	
2025-01-10 22:12:36.27	74.46	14.73	
2025-01-10 22:12:37.29	74.67	14.74	
2025-01-10 22:12:38.33	74.89	14.75	
2025-01-10 22:12:39.36	75.11	14.76	
2025-01-10 22:12:40.38	75.32	14.77	
2025-01-10 22:12:41.40	75.53	14.78	
2025-01-10 22:12:42.43	75.75	14.79	
2025-01-10 22:12:43.45	75.96	14.80	
2025-01-10 22:12:44.49	76.18	14.81	
2025-01-10 22:12:45.53	76.40	14.82	
2025-01-10 22:12:46.55	76.61	14.82	
2025-01-10 22:12:47.57	76.83	14.83	
2025-01-10 22:12:48.60	77.05	14.84	
2025-01-10 22:12:49.62	77.26	14.84	
2025-01-10 22:12:50.67	77.48	14.85	
2025-01-10 22:12:51.69	77.70	14.85	
2025-01-10 22:12:52.72	77.91	14.86	
2025-01-10 22:12:53.75	78.13	14.87	
2025-01-10 22:12:54.77	78.35	14.87	
2025-01-10 22:12:55.80	78.56	14.87	
2025-01-10 22:12:56.82	78.78	14.88	
2025-01-10 22:12:57.86	79.00	14.88	
2025-01-10 22:12:58.89	79.22	14.88	
2025-01-10 22:12:59.91	79.43	14.89	
2025-01-10 22:13:00.94	79.65	14.89	
2025-01-10 22:13:01.97	79.87	14.89	
2025-01-10 22:13:02.99	80.08	14.89	
2025-01-10 22:13:04.03	80.30	14.89	
2025-01-10 22:13:05.05	80.52	14.89	
2025-01-10 22:13:06.08	80.73	14.89	
2025-01-10 22:13:07.11	80.95	14.89	
2025-01-10 22:13:08.13	81.17	14.89	
2025-01-10 22:13:09.17	81.39	14.89	
2025-01-10 22:13:10.20	81.61	14.89	
2025-01-10 22:13:11.23	81.82	14.89	
2025-01-10 22:13:12.25	82.04	14.89	
2025-01-10 22:13:13.28	82.26	14.89	
2025-01-10 22:13:14.30	82.47	14.88	
2025-01-10 22:13:15.33	82.69	14.88	
2025-01-10 22:13:16.36	82.91	14.88	
2025-01-10 22:13:17.38	83.12	14.87	
2025-01-10 22:13:18.41	83.34	14.87	
2025-01-10 22:13:19.43	83.55	14.86	
2025-01-10 22:13:20.46	83.77	14.86	
2025-01-10 22:13:21.49	83.99	14.85	
2025-01-10 22:13:22.51	84.20	14.85	
2025-01-10 22:13:23.54	84.42	14.84	
2025-01-10 22:13:24.56	84.64	14.84	
2025-01-10 22:13:25.60	84.85	14.83	
2025-01-10 22:13:26.62	85.07	14.82	
2025-01-10 22:13:27.65	85.29	14.81	
2025-01-10 22:13:28.67	85.50	14.81	
2025-01-10 22:13:29.70	85.72	14.80	
2025-01-10 22:13:30.73	85.93	14.79	
2025-01-10 22:13:31.75	86.15	14.78	
2025-01-10 22:13:32.78	86.36	14.77	
2025-01-10 22:13:33.80	86.58	14.76	
2025-01-10 22:13:34.83	86.79	14.75	
2025-01-10 22:13:35.87	87.01	14.74	
2025-01-10 22:13:36.90	87.23	14.73	
2025-01-10 22:13:37.92	87.44	14.72	
2025-01-10 22:13:38.95	87.65	14.70	
2025-01-10 22:13:39.97	87.87	14.69	
2025-01-10 22:13:41.01	88.08	14.68	
2025-01-10 22:13:42.04	88.30	14.67	
2025-01-10 22:13:43.06	88.51	14.65	
2025-01-10 22:13:44.08	88.72	14.64	
2025-01-10 22:13:45.11	88.94	14.63	
2025-01-10 22:13:46.13	89.15	14.61	
2025-01-10 22:13:47.16	89.36	14.60	
2025-01-10 22:13:48.18	89.58	14.58	
2025-01-10 22:13:49.21	89.79	14.57	
2025-01-10 22:13:50.23	90.00	14.55	
2025-01-10 22:13:51.26	90.21	14.54	
2025-01-10 22:13:52.30	90.43	14.52	
2025-01-10 22:13:53.33	90.64	14.50	
2025-01-10 22:13:54.35	90.85	14.49	
2025-01-10 22:13:55.38	91.06	14.47	
2025-01-10 22:13:56.40	91.27	14.45	
2025-01-10 22:13:57.42	91.48	14.43	
2025-01-10 22:13:58.45	91.69	14.41	
2025-01-10 22:13:59.47	91.90	14.39	
2025-01-10 22:14:00.49	92.11	14.38	
2025-01-10 22:14:01.51	92.32	14.36	
2025-01-10 22:14:02.54	92.53	14.34	
2025-01-10 22:14:03.58	92.74	14.32	
2025-01-10 22:14:04.60	92.95	14.30	
2025-01-10 22:14:05.65	93.16	14.27	
2025-01-10 22:14:06.67	93.37	14.25	
2025-01-10 22:14:07.69	93.58	14.23	
2025-01-10 22:14:08.72	93.78	14.21	
2025-01-10 22:14:09.76	93.99	14.19	
2025-01-10 22:14:10.79	94.20	14.16	
2025-01-10 22:14:11.82	94.41	14.14	
2025-01-10 22:14:12.84	94.62	14.12	
2025-01-10 22:14:13.87	94.82	14.09	
2025-01-10 22:14:14.89	95.03	14.07	
2025-01-10 22:14:15.92	95.23	14.05	
2025-01-10 22:14:16.94	95.44	14.02	
2025-01-10 22:14:17.97	95.64	14.00	
2025-01-10 22:14:19.00	95.85	13.97	
2025-01-10 22:14:20.02	96.05	13.95	
2025-01-10 22:14:21.05	96.26	13.92	
2025-01-10 22:14:22.07	96.46	13.90	
2025-01-10 22:14:23.10	96.66	13.87	
2025-01-10 22:14:24.12	96.86	13.84	
2025-01-10 22:14:25.16	97.07	13.82	
2025-01-10 22:14:26.19	97.27	13.79	
2025-01-10 22:14:27.21	97.47	13.76	
2025-01-10 22:14:28.24	97.68	13.73	
2025-01-10 22:14:29.27	97.88	13.70	
2025-01-10 22:14:30.29	98.08	13.68	
2025-01-10 22:14:31.32	98.28	13.65	
2025-01-10 22:14:32.35	98.48	13.62	
2025-01-10 22:14:33.37	98.68	13.59	
2025-01-10 22:14:34.40	98.88	13.56	
2025-01-10 22:14:35.43	99.08	13.53	
2025-01-10 22:14:36.45	99.27	13.50	
2025-01-10 22:14:37.47	99.47	13.47	
2025-01-10 22:14:38.51	99.67	13.44	
2025-01-10 22:14:39.54	99.87	13.41	
2025-01-10 22:14:40.56	100.06	13.38	
2025-01-10 22:14:41.59	100.26	13.35	
2025-01-10 22:14:42.61	100.46	13.31	
2025-01-10 22:14:43.63	100.65	13.28	
2025-01-10 22:14:44.66	100.85	13.25	
2025-01-10 22:14:45.68	101.04	13.22	
2025-01-10 22:14:46.72	101.24	13.18	
2025-01-10 22:14:47.74	101.43	13.15	
2025-01-10 22:14:48.76	101.62	13.12	
2025-01-10 22:14:49.79	101.82	13.08	
2025-01-10 22:14:50.82	102.01	13.05	
2025-01-10 22:14:51.84	102.20	13.02	
2025-01-10 22:14:52.87	102.39	12.98	
2025-01-10 22:14:53.89	102.58	12.95	
2025-01-10 22:14:54.92	102.78	12.91	
2025-01-10 22:14:55.95	102.97	12.88	
2025-01-10 22:14:56.99	103.16	12.84	
2025-01-10 22:14:58.01	103.35	12.81	
2025-01-10 22:14:59.04	103.54	12.77	
2025-01-10 22:15:00.06	103.73	12.74	
2025-01-10 22:15:01.09	103.92	12.70	
2025-01-10 22:15:02.11	104.10	12.66	
2025-01-10 22:15:03.14	104.29	12.63	
2025-01-10 22:15:04.17	104.48	12.59	
2025-01-10 22:15:05.19	104.66	12.55	
2025-01-10 22:15:06.22	104.85	12.52	
2025-01-10 22:15:07.25	105.04	12.48	
2025-01-10 22:15:08.27	105.22	12.44	
2025-01-10 22:15:09.29	105.40	12.40	
2025-01-10 22:15:10.33	105.59	12.36	
2025-01-10 22:15:11.36	105.78	12.33	
2025-01-10 22:15:12.40	105.96	12.29	
2025-01-10 22:15:13.43	106.15	12.25	
2025-01-10 22:15:14.45	106.33	12.21	
2025-01-10 22:15:15.48	106.51	12.17	
2025-01-10 22:15:16.52	106.69	12.13	
2025-01-10 22:15:17.55	106.87	12.09	
2025-01-10 22:15:18.57	107.05	12.05	
2025-01-10 22:15:19.60	107.23	12.01	
2025-01-10 22:15:20.63	107.42	11.97	
2025-01-10 22:15:21.65	107.59	11.93	
2025-01-10 22:15:22.68	107.77	11.89	
2025-01-10 22:15:23.70	107.95	11.85	
2025-01-10 22:15:24.73	108.13	11.81	
2025-01-10 22:15:25.75	108.30	11.77	
2025-01-10 22:15:26.78	108.48	11.73	
2025-01-10 22:15:27.81	108.66	11.68	
2025-01-10 22:15:28.83	108.83	11.64	
2025-01-10 22:15:29.86	109.01	11.60	
2025-01-10 22:15:30.89	109.18	11.56	
2025-01-10 22:15:31.91	109.36	11.52	
2025-01-10 22:15:32.94	109.53	11.48	
2025-01-10 22:15:33.97	109.71	11.43	
2025-01-10 22:15:35.00	109.88	11.39	
2025-01-10 22:15:36.02	110.05	11.35	
2025-01-10 22:15:37.05	110.22	11.31	
2025-01-10 22:15:38.08	110.40	11.26	
2025-01-10 22:15:39.11	110.57	11.22	
2025-01-10 22:15:40.13	110.74	11.18	
2025-01-10 22:15:41.16	110.91	11.13	
2025-01-10 22:15:42.18	111.08	11.09	
2025-01-10 22:15:43.21	111.25	11.04	
2025-01-10 22:15:44.25	111.42	11.00	
2025-01-10 22:15:45.27	111.58	10.96	
2025-01-10 22:15:46.30	111.75	10.91	
2025-01-10 22:15:47.32	111.92	10.87	
2025-01-10 22:15:48.35	112.08	10.82	
2025-01-10 22:15:49.37	112.25	10.78	
2025-01-10 22:15:50.40	112.42	10.73	
2025-01-10 22:15:51.43	112.58	10.69	
2025-01-10 22:15:52.45	112.75	10.64	
2025-01-10 22:15:53.48	112.91	10.60	
2025-01-10 22:15:54.51	113.07	10.55	
2025-01-10 22:15:55.54	113.24	10.51	
2025-01-10 22:15:56.56	113.40	10.46	
2025-01-10 22:15:57.59	113.56	10.42	
2025-01-10 22:15:58.63	113.73	10.37	
2025-01-10 22:15:59.66	113.89	10.33	
2025-01-10 22:16:00.68	114.05	10.28	
2025-01-10 22:16:01.70	114.21	10.23	
2025-01-10 22:16:02.73	114.37	10.19	
2025-01-10 22:16:03.75	114.53	10.14	
2025-01-10 22:16:04.78	114.69	10.10	
2025-01-10 22:16:05.81	114.84	10.05	
2025-01-10 22:16:06.85	115.00	10.00	
2025-01-10 22:16:07.87	115.16	9.96	
2025-01-10 22:16:08.90	115.32	9.91	
2025-01-10 22:16:09.92	115.47	9.86	
2025-01-10 22:16:10.95	115.63	9.81	
2025-01-10 22:16:11.97	115.78	9.77	
2025-01-10 22:16:13.00	115.94	9.72	
2025-01-10 22:16:14.02	116.09	9.67	
2025-01-10 22:16:15.05	116.25	9.63	
2025-01-10 22:16:16.08	116.40	9.58	
2025-01-10 22:16:17.11	116.55	9.53	
2025-01-10 22:16:18.13	116.71	9.48	
2025-01-10 22:16:19.16	116.86	9.44	
2025-01-10 22:16:20.18	117.01	9.39	
2025-01-10 22:16:21.21	117.16	9.34	
2025-01-10 22:16:22.23	117.31	9.29	
2025-01-10 22:16:23.26	117.46	9.24	
2025-01-10 22:16:24.28	117.61	9.20	
2025-01-10 22:16:25.32	117.76	9.15	
2025-01-10 22:16:26.35	117.91	9.10	
2025-01-10 22:16:27.37	118.06	9.05	
2025-01-10 22:16:28.40	118.21	9.00	
2025-01-10 22:16:29.42	118.35	8.96	
2025-01-10 22:16:30.45	118.50	8.91	
2025-01-10 22:16:31.47	118.64	8.86	
2025-01-10 22:16:32.50	118.79	8.81	
2025-01-10 22:16:33.52	118.94	8.76	
2025-01-10 22:16:34.55	119.08	8.71	
2025-01-10 22:16:35.58	119.23	8.66	
2025-01-10 22:16:36.60	119.37	8.61	
2025-01-10 22:16:37.63	119.51	8.57	
2025-01-10 22:16:38.66	119.66	8.52	
2025-01-10 22:16:39.69	119.80	8.47	
2025-01-10 22:16:40.71	119.94	8.42	
2025-01-10 22:16:41.74	120.08	8.37	
2025-01-10 22:16:42.76	120.22	8.32	
2025-01-10 22:16:43.79	120.36	8.27	
2025-01-10 22:16:44.81	120.50	8.22	
2025-01-10 22:16:45.84	120.64	8.17	
2025-01-10 22:16:46.88	120.79	8.12	
2025-01-10 22:16:47.91	120.93	8.07	
2025-01-10 22:16:48.93	121.06	8.02	
2025-01-10 22:16:49.96	121.20	7.97	
2025-01-10 22:16:50.99	121.34	7.92	
2025-01-10 22:16:52.03	121.48	7.87	
2025-01-10 22:16:53.05	121.61	7.82	
2025-01-10 22:16:54.07	121.75	7.77	
2025-01-10 22:16:55.10	121.89	7.72	
2025-01-10 22:16:56.13	122.02	7.67	
2025-01-10 22:16:57.15	122.16	7.62	
2025-01-10 22:16:58.18	122.29	7.57	
2025-01-10 22:16:59.20	122.42	7.52	
2025-01-10 22:17:00.23	122.56	7.47	
2025-01-10 22:17:01.25	122.69	7.43	
2025-01-10 22:17:02.29	122.82	7.37	
2025-01-10 22:17:03.33	122.96	7.32	
2025-01-10 22:17:04.35	123.09	7.27	
2025-01-10 22:17:05.38	123.22	7.22	
2025-01-10 22:17:06.41	123.35	7.17	
2025-01-10 22:17:07.44	123.48	7.12	
2025-01-10 22:17:08.47	123.61	7.07	
2025-01-10 22:17:09.49	123.74	7.02	
2025-01-10 22:17:10.52	123.87	6.97	
2025-01-10 22:17:11.54	124.00	6.92	
2025-01-10 22:17:12.56	124.13	6.87	
2025-01-10 22:17:13.59	124.26	6.82	
2025-01-10 22:17:14.61	124.38	6.77	
2025-01-10 22:17:15.64	124.51	6.72	
2025-01-10 22:17:16.67	124.64	6.67	
2025-01-10 22:17:17.70	124.76	6.62	
2025-01-10 22:17:18.74	124.89	6.57	
2025-01-10 22:17:19.76	125.02	6.52	
2025-01-10 22:17:20.79	125.14	6.47	
2025-01-10 22:17:21.81	125.26	6.42	
2025-01-10 22:17:22.86	125.39	6.37	
2025-01-10 22:17:23.88	125.51	6.32	
2025-01-10 22:17:24.90	125.64	6.27	
2025-01-10 22:17:25.93	125.76	6.22	
2025-01-10 22:17:26.97	125.88	6.16	
2025-01-10 22:17:28.00	126.01	6.11	
2025-01-10 22:17:29.02	126.13	6.06	
2025-01-10 22:17:30.05	126.25	6.01	
2025-01-10 22:17:31.07	126.37	5.96	
2025-01-10 22:17:32.10	126.49	5.91	
2025-01-10 22:17:33.13	126.61	5.86	
2025-01-10 22:17:34.15	126.73	5.81	
2025-01-10 22:17:35.17	126.85	5.76	
2025-01-10 22:17:36.20	126.97	5.71	
2025-01-10 22:17:37.23	127.09	5.66	
2025-01-10 22:17:38.25	127.20	5.61	
2025-01-10 22:17:39.27	127.32	5.56	
2025-01-10 22:17:40.30	127.44	5.51	
2025-01-10 22:17:41.34	127.56	5.46	
2025-01-10 22:17:42.36	127.67	5.41	
2025-01-10 22:17:43.41	127.79	5.35	
2025-01-10 22:17:44.44	127.91	5.30	
2025-01-10 22:17:45.47	128.02	5.25	
2025-01-10 22:17:46.49	128.14	5.20	
2025-01-10 22:17:47.52	128.25	5.15	
2025-01-10 22:17:48.54	128.37	5.10	
2025-01-10 22:17:49.57	128.48	5.05	
2025-01-10 22:17:50.59	128.59	5.00	
2025-01-10 22:17:51.62	128.71	4.95	
2025-01-10 22:17:52.65	128.82	4.90	
2025-01-10 22:17:53.68	128.93	4.85	
2025-01-10 22:17:54.70	129.04	4.80	
2025-01-10 22:17:55.73	129.15	4.75	
2025-01-10 22:17:56.76	129.27	4.70	
2025-01-10 22:17:57.78	129.38	4.65	
2025-01-10 22:17:58.81	129.49	4.60	
2025-01-10 22:17:59.83	129.60	4.55	
2025-01-10 22:18:00.87	129.71	4.49	
2025-01-10 22:18:01.90	129.82	4.44	
2025-01-10 22:18:02.92	129.93	4.39	
2025-01-10 22:18:03.96	130.04	4.34	
2025-01-10 22:18:04.99	130.14	4.29	
2025-01-10 22:18:06.01	130.25	4.24	
2025-01-10 22:18:07.06	130.36	4.19	
2025-01-10 22:18:08.08	130.47	4.14	
2025-01-10 22:18:09.11	130.58	4.09	
2025-01-10 22:18:10.13	130.68	4.04	

#Closed at: 2025-01-10 22:18:10