passes_logs/2025/01/10/SPB_Silybum_02/SPB_Silybum_02__20250110_234747_SUOMI_NPP_rec.log

#Pass ID: 20250110_234747_SUOMI NPP
#Satellite: SUOMI NPP
#Configuration: NPP
#Start time: 2025-01-10 23:47:46

#Version: 2.0.20230423
#Station: SPB_Silybum_02
#Location: 30.233357 lon 59.946436 lat
#TLE: 1 37849U 11061A   25009.91542277  .00000197  00000+0  11407-3 0  9995
#TLE: 2 37849  98.7440 310.9686 0001842  48.7836 311.3498 14.19535939684207

#Time	Az	El	Level	Level2	SNR	BER	Gain	Gain2
2025-01-10 23:47:48.72	19.82	4.07	
2025-01-10 23:47:50.17	19.86	4.17	
2025-01-10 23:47:51.61	19.90	4.27	
2025-01-10 23:47:53.04	19.94	4.37	
2025-01-10 23:47:54.49	19.98	4.46	
2025-01-10 23:47:55.94	20.02	4.56	
2025-01-10 23:47:57.37	20.06	4.66	
2025-01-10 23:47:58.82	20.10	4.76	
2025-01-10 23:48:00.25	20.14	4.86	
2025-01-10 23:48:01.69	20.18	4.96	
2025-01-10 23:48:03.12	20.23	5.06	
2025-01-10 23:48:04.55	20.27	5.16	
2025-01-10 23:48:05.99	20.31	5.26	
2025-01-10 23:48:07.42	20.35	5.36	
2025-01-10 23:48:08.85	20.40	5.47	
2025-01-10 23:48:10.29	20.44	5.57	
2025-01-10 23:48:11.72	20.48	5.67	
2025-01-10 23:48:13.16	20.53	5.77	
2025-01-10 23:48:14.59	20.57	5.88	
2025-01-10 23:48:16.03	20.61	5.98	
2025-01-10 23:48:17.46	20.66	6.08	
2025-01-10 23:48:18.89	20.70	6.19	
2025-01-10 23:48:20.33	20.75	6.29	
2025-01-10 23:48:21.78	20.79	6.40	
2025-01-10 23:48:23.23	20.84	6.51	
2025-01-10 23:48:24.66	20.88	6.61	
2025-01-10 23:48:26.10	20.93	6.72	
2025-01-10 23:48:27.55	20.98	6.83	
2025-01-10 23:48:28.99	21.02	6.93	
2025-01-10 23:48:30.43	21.07	7.04	
2025-01-10 23:48:31.87	21.12	7.15	
2025-01-10 23:48:33.31	21.17	7.26	
2025-01-10 23:48:34.75	21.21	7.37	
2025-01-10 23:48:36.19	21.26	7.48	
2025-01-10 23:48:37.62	21.31	7.59	
2025-01-10 23:48:39.06	21.36	7.70	
2025-01-10 23:48:40.51	21.41	7.81	
2025-01-10 23:48:41.96	21.46	7.93	
2025-01-10 23:48:43.40	21.51	8.04	
2025-01-10 23:48:44.83	21.56	8.15	
2025-01-10 23:48:46.26	21.61	8.26	
2025-01-10 23:48:47.70	21.66	8.38	
2025-01-10 23:48:49.14	21.71	8.49	
2025-01-10 23:48:50.57	21.76	8.60	
2025-01-10 23:48:52.02	21.81	8.72	
2025-01-10 23:48:53.45	21.87	8.84	
2025-01-10 23:48:54.89	21.92	8.95	
2025-01-10 23:48:56.34	21.97	9.07	
2025-01-10 23:48:57.78	22.02	9.19	
2025-01-10 23:48:59.22	22.08	9.31	
2025-01-10 23:49:00.65	22.13	9.42	
2025-01-10 23:49:02.10	22.19	9.54	
2025-01-10 23:49:03.54	22.24	9.66	
2025-01-10 23:49:04.97	22.30	9.78	
2025-01-10 23:49:06.41	22.35	9.90	
2025-01-10 23:49:07.85	22.41	10.03	
2025-01-10 23:49:09.28	22.47	10.15	
2025-01-10 23:49:10.72	22.52	10.27	
2025-01-10 23:49:12.16	22.58	10.39	
2025-01-10 23:49:13.59	22.64	10.51	
2025-01-10 23:49:15.03	22.70	10.64	
2025-01-10 23:49:16.48	22.75	10.76	
2025-01-10 23:49:17.91	22.81	10.89	
2025-01-10 23:49:19.35	22.87	11.02	
2025-01-10 23:49:20.79	22.93	11.14	
2025-01-10 23:49:22.22	22.99	11.27	
2025-01-10 23:49:23.65	23.05	11.40	
2025-01-10 23:49:25.08	23.12	11.52	
2025-01-10 23:49:26.53	23.18	11.65	
2025-01-10 23:49:27.97	23.24	11.78	
2025-01-10 23:49:29.41	23.30	11.92	
2025-01-10 23:49:30.85	23.37	12.05	
2025-01-10 23:49:32.30	23.43	12.18	
2025-01-10 23:49:33.73	23.50	12.31	
2025-01-10 23:49:35.16	23.56	12.44	
2025-01-10 23:49:36.59	23.63	12.58	
2025-01-10 23:49:38.04	23.69	12.71	
2025-01-10 23:49:39.49	23.76	12.85	
2025-01-10 23:49:40.92	23.83	12.99	
2025-01-10 23:49:42.36	23.89	13.12	
2025-01-10 23:49:43.79	23.96	13.26	
2025-01-10 23:49:45.22	24.03	13.40	
2025-01-10 23:49:46.66	24.10	13.54	
2025-01-10 23:49:48.09	24.17	13.68	
2025-01-10 23:49:49.52	24.24	13.82	
2025-01-10 23:49:50.95	24.31	13.96	
2025-01-10 23:49:52.39	24.38	14.10	
2025-01-10 23:49:53.83	24.45	14.24	
2025-01-10 23:49:55.26	24.53	14.39	
2025-01-10 23:49:56.71	24.60	14.53	
2025-01-10 23:49:58.14	24.68	14.68	
2025-01-10 23:49:59.58	24.75	14.82	
2025-01-10 23:50:01.01	24.83	14.97	
2025-01-10 23:50:02.45	24.90	15.12	
2025-01-10 23:50:03.91	24.98	15.27	
2025-01-10 23:50:05.34	25.06	15.42	
2025-01-10 23:50:06.78	25.14	15.57	
2025-01-10 23:50:08.21	25.22	15.72	
2025-01-10 23:50:09.65	25.30	15.87	
2025-01-10 23:50:11.09	25.38	16.03	
2025-01-10 23:50:12.52	25.46	16.18	
2025-01-10 23:50:13.96	25.54	16.34	
2025-01-10 23:50:15.39	25.63	16.49	
2025-01-10 23:50:16.82	25.71	16.65	
2025-01-10 23:50:18.26	25.79	16.81	
2025-01-10 23:50:19.71	25.88	16.97	
2025-01-10 23:50:21.15	25.97	17.13	
2025-01-10 23:50:22.58	26.05	17.29	
2025-01-10 23:50:24.01	26.14	17.45	
2025-01-10 23:50:25.45	26.23	17.61	
2025-01-10 23:50:26.88	26.32	17.77	
2025-01-10 23:50:28.31	26.41	17.94	
2025-01-10 23:50:29.75	26.50	18.11	
2025-01-10 23:50:31.19	26.60	18.27	
2025-01-10 23:50:32.62	26.69	18.44	
2025-01-10 23:50:34.06	26.78	18.61	
2025-01-10 23:50:35.50	26.88	18.78	
2025-01-10 23:50:36.94	26.98	18.95	
2025-01-10 23:50:38.37	27.07	19.13	
2025-01-10 23:50:39.80	27.17	19.30	
2025-01-10 23:50:41.24	27.27	19.47	
2025-01-10 23:50:42.68	27.37	19.65	
2025-01-10 23:50:44.12	27.48	19.83	
2025-01-10 23:50:45.55	27.58	20.01	
2025-01-10 23:50:46.99	27.68	20.19	
2025-01-10 23:50:48.42	27.79	20.37	
2025-01-10 23:50:49.85	27.89	20.55	
2025-01-10 23:50:51.30	28.00	20.73	
2025-01-10 23:50:52.75	28.11	20.92	
2025-01-10 23:50:54.18	28.22	21.11	
2025-01-10 23:50:55.61	28.33	21.29	
2025-01-10 23:50:57.06	28.45	21.48	
2025-01-10 23:50:58.49	28.56	21.67	
2025-01-10 23:50:59.93	28.68	21.86	
2025-01-10 23:51:01.36	28.79	22.06	
2025-01-10 23:51:02.79	28.91	22.25	
2025-01-10 23:51:04.24	29.03	22.45	
2025-01-10 23:51:05.67	29.15	22.64	
2025-01-10 23:51:07.12	29.28	22.84	
2025-01-10 23:51:08.56	29.40	23.04	
2025-01-10 23:51:10.00	29.53	23.24	
2025-01-10 23:51:11.44	29.65	23.45	
2025-01-10 23:51:12.89	29.78	23.65	
2025-01-10 23:51:14.34	29.92	23.86	
2025-01-10 23:51:15.77	30.05	24.07	
2025-01-10 23:51:17.21	30.18	24.27	
2025-01-10 23:51:18.65	30.32	24.48	
2025-01-10 23:51:20.08	30.45	24.70	
2025-01-10 23:51:21.51	30.59	24.91	
2025-01-10 23:51:22.94	30.73	25.12	
2025-01-10 23:51:24.38	30.87	25.34	
2025-01-10 23:51:25.81	31.02	25.56	
2025-01-10 23:51:27.25	31.17	25.78	
2025-01-10 23:51:28.68	31.31	26.00	
2025-01-10 23:51:30.13	31.46	26.22	
2025-01-10 23:51:31.57	31.62	26.45	
2025-01-10 23:51:33.00	31.77	26.67	
2025-01-10 23:51:34.44	31.93	26.90	
2025-01-10 23:51:35.89	32.09	27.13	
2025-01-10 23:51:37.32	32.25	27.36	
2025-01-10 23:51:38.77	32.41	27.60	
2025-01-10 23:51:40.20	32.58	27.83	
2025-01-10 23:51:41.64	32.75	28.07	
2025-01-10 23:51:43.08	32.92	28.31	
2025-01-10 23:51:44.51	33.09	28.55	
2025-01-10 23:51:45.95	33.27	28.79	
2025-01-10 23:51:47.38	33.44	29.03	
2025-01-10 23:51:48.82	33.62	29.28	
2025-01-10 23:51:50.25	33.81	29.52	
2025-01-10 23:51:51.68	33.99	29.77	
2025-01-10 23:51:53.14	34.18	30.03	
2025-01-10 23:51:54.57	34.37	30.28	
2025-01-10 23:51:56.01	34.57	30.54	
2025-01-10 23:51:57.45	34.77	30.79	
2025-01-10 23:51:58.88	34.97	31.05	
2025-01-10 23:52:00.32	35.17	31.31	
2025-01-10 23:52:01.76	35.38	31.58	
2025-01-10 23:52:03.19	35.59	31.84	
2025-01-10 23:52:04.62	35.80	32.11	
2025-01-10 23:52:06.05	36.02	32.37	
2025-01-10 23:52:07.49	36.24	32.65	
2025-01-10 23:52:08.92	36.46	32.92	
2025-01-10 23:52:10.37	36.69	33.19	
2025-01-10 23:52:11.80	36.92	33.47	
2025-01-10 23:52:13.23	37.16	33.75	
2025-01-10 23:52:14.67	37.40	34.03	
2025-01-10 23:52:16.10	37.64	34.31	
2025-01-10 23:52:17.55	37.89	34.60	
2025-01-10 23:52:18.98	38.14	34.89	
2025-01-10 23:52:20.43	38.40	35.18	
2025-01-10 23:52:21.87	38.66	35.47	
2025-01-10 23:52:23.30	38.93	35.76	
2025-01-10 23:52:24.73	39.20	36.06	
2025-01-10 23:52:26.17	39.47	36.36	
2025-01-10 23:52:27.61	39.76	36.66	
2025-01-10 23:52:29.04	40.04	36.96	
2025-01-10 23:52:30.48	40.33	37.26	
2025-01-10 23:52:31.93	40.63	37.57	
2025-01-10 23:52:33.37	40.93	37.88	
2025-01-10 23:52:34.81	41.24	38.19	
2025-01-10 23:52:36.24	41.55	38.50	
2025-01-10 23:52:37.68	41.87	38.81	
2025-01-10 23:52:39.12	42.20	39.13	
2025-01-10 23:52:40.54	42.53	39.44	
2025-01-10 23:52:41.98	42.87	39.76	
2025-01-10 23:52:43.41	43.21	40.08	
2025-01-10 23:52:44.86	43.56	40.41	
2025-01-10 23:52:46.30	43.92	40.73	
2025-01-10 23:52:47.73	44.29	41.06	
2025-01-10 23:52:49.17	44.66	41.39	
2025-01-10 23:52:50.60	45.04	41.71	
2025-01-10 23:52:52.04	45.43	42.05	
2025-01-10 23:52:53.47	45.82	42.38	
2025-01-10 23:52:54.90	46.22	42.71	
2025-01-10 23:52:56.34	46.64	43.05	
2025-01-10 23:52:57.77	47.06	43.38	
2025-01-10 23:52:59.21	47.49	43.72	
2025-01-10 23:53:00.65	47.93	44.06	
2025-01-10 23:53:02.09	48.38	44.41	
2025-01-10 23:53:03.53	48.84	44.75	
2025-01-10 23:53:04.97	49.31	45.09	
2025-01-10 23:53:06.41	49.79	45.44	
2025-01-10 23:53:07.85	50.28	45.78	
2025-01-10 23:53:09.28	50.77	46.13	
2025-01-10 23:53:10.72	51.28	46.47	
2025-01-10 23:53:12.17	51.81	46.82	
2025-01-10 23:53:13.60	52.34	47.17	
2025-01-10 23:53:15.04	52.89	47.51	
2025-01-10 23:53:16.47	53.44	47.86	
2025-01-10 23:53:17.91	54.01	48.21	
2025-01-10 23:53:19.34	54.59	48.55	
2025-01-10 23:53:20.78	55.19	48.90	
2025-01-10 23:53:22.21	55.79	49.24	
2025-01-10 23:53:23.64	56.41	49.59	
2025-01-10 23:53:25.08	57.05	49.93	
2025-01-10 23:53:26.52	57.70	50.27	
2025-01-10 23:53:27.95	58.37	50.61	
2025-01-10 23:53:29.39	59.05	50.95	
2025-01-10 23:53:30.83	59.75	51.29	
2025-01-10 23:53:32.26	60.46	51.63	
2025-01-10 23:53:33.69	61.18	51.96	
2025-01-10 23:53:35.13	61.93	52.29	
2025-01-10 23:53:36.57	62.69	52.62	
2025-01-10 23:53:38.00	63.46	52.94	
2025-01-10 23:53:39.44	64.26	53.27	
2025-01-10 23:53:40.87	65.07	53.58	
2025-01-10 23:53:42.32	65.91	53.90	
2025-01-10 23:53:43.76	66.76	54.21	
2025-01-10 23:53:45.21	67.63	54.52	
2025-01-10 23:53:46.64	68.51	54.82	
2025-01-10 23:53:48.07	69.41	55.12	
2025-01-10 23:53:49.51	70.34	55.41	
2025-01-10 23:53:50.94	71.28	55.69	
2025-01-10 23:53:52.38	72.24	55.97	
2025-01-10 23:53:53.83	73.23	56.24	
2025-01-10 23:53:55.29	74.24	56.51	
2025-01-10 23:53:56.72	75.26	56.77	
2025-01-10 23:53:58.16	76.30	57.02	
2025-01-10 23:53:59.59	77.35	57.26	
2025-01-10 23:54:01.04	78.43	57.50	
2025-01-10 23:54:02.49	79.54	57.73	
2025-01-10 23:54:03.93	80.65	57.94	
2025-01-10 23:54:05.36	81.77	58.15	
2025-01-10 23:54:06.80	82.92	58.35	
2025-01-10 23:54:08.24	84.09	58.54	
2025-01-10 23:54:09.67	85.26	58.71	
2025-01-10 23:54:11.10	86.45	58.88	
2025-01-10 23:54:12.54	87.66	59.03	
2025-01-10 23:54:13.97	88.88	59.18	
2025-01-10 23:54:15.40	90.11	59.31	
2025-01-10 23:54:16.84	91.36	59.43	
2025-01-10 23:54:18.28	92.62	59.54	
2025-01-10 23:54:19.71	93.88	59.63	
2025-01-10 23:54:21.14	95.15	59.72	
2025-01-10 23:54:22.58	96.44	59.79	
2025-01-10 23:54:24.01	97.72	59.85	
2025-01-10 23:54:25.45	99.02	59.89	
2025-01-10 23:54:26.88	100.32	59.92	
2025-01-10 23:54:28.31	101.61	59.94	
2025-01-10 23:54:29.75	102.92	59.95	
2025-01-10 23:54:31.18	104.22	59.94	
2025-01-10 23:54:32.61	105.51	59.92	
2025-01-10 23:54:34.06	106.83	59.89	
2025-01-10 23:54:35.51	108.13	59.84	
2025-01-10 23:54:36.94	109.42	59.78	
2025-01-10 23:54:38.38	110.71	59.71	
2025-01-10 23:54:39.82	111.99	59.62	
2025-01-10 23:54:41.26	113.26	59.52	
2025-01-10 23:54:42.69	114.51	59.41	
2025-01-10 23:54:44.13	115.76	59.29	
2025-01-10 23:54:45.56	116.99	59.16	
2025-01-10 23:54:47.00	118.21	59.01	
2025-01-10 23:54:48.44	119.42	58.86	
2025-01-10 23:54:49.88	120.62	58.69	
2025-01-10 23:54:51.31	121.79	58.51	
2025-01-10 23:54:52.75	122.95	58.32	
2025-01-10 23:54:54.18	124.09	58.12	
2025-01-10 23:54:55.63	125.23	57.91	
2025-01-10 23:54:57.07	126.34	57.69	
2025-01-10 23:54:58.51	127.44	57.46	
2025-01-10 23:54:59.94	128.51	57.23	
2025-01-10 23:55:01.37	129.56	56.99	
2025-01-10 23:55:02.82	130.60	56.73	
2025-01-10 23:55:04.26	131.62	56.47	
2025-01-10 23:55:05.69	132.62	56.21	
2025-01-10 23:55:07.13	133.60	55.93	
2025-01-10 23:55:08.58	134.57	55.65	
2025-01-10 23:55:10.01	135.50	55.36	
2025-01-10 23:55:11.44	136.42	55.07	
2025-01-10 23:55:12.88	137.33	54.78	
2025-01-10 23:55:14.31	138.21	54.47	
2025-01-10 23:55:15.75	139.08	54.17	
2025-01-10 23:55:17.18	139.92	53.86	
2025-01-10 23:55:18.62	140.75	53.54	
2025-01-10 23:55:20.07	141.57	53.22	
2025-01-10 23:55:21.50	142.36	52.89	
2025-01-10 23:55:22.94	143.14	52.57	
2025-01-10 23:55:24.37	143.90	52.24	
2025-01-10 23:55:25.80	144.64	51.91	
2025-01-10 23:55:27.24	145.37	51.57	
2025-01-10 23:55:28.67	146.08	51.24	
2025-01-10 23:55:30.11	146.77	50.90	
2025-01-10 23:55:31.55	147.45	50.55	
2025-01-10 23:55:32.98	148.12	50.21	
2025-01-10 23:55:34.41	148.76	49.87	
2025-01-10 23:55:35.85	149.40	49.52	
2025-01-10 23:55:37.28	150.02	49.18	
2025-01-10 23:55:38.72	150.63	48.83	
2025-01-10 23:55:40.15	151.22	48.49	
2025-01-10 23:55:41.59	151.80	48.14	
2025-01-10 23:55:43.03	152.38	47.79	
2025-01-10 23:55:44.46	152.93	47.44	
2025-01-10 23:55:45.89	153.47	47.10	
2025-01-10 23:55:47.32	154.00	46.75	
2025-01-10 23:55:48.76	154.52	46.40	
2025-01-10 23:55:50.19	155.03	46.06	
2025-01-10 23:55:51.62	155.53	45.71	
2025-01-10 23:55:53.06	156.02	45.36	
2025-01-10 23:55:54.49	156.49	45.02	
2025-01-10 23:55:55.93	156.96	44.67	
2025-01-10 23:55:57.38	157.42	44.33	
2025-01-10 23:55:58.82	157.87	43.99	
2025-01-10 23:56:00.25	158.31	43.65	
2025-01-10 23:56:01.69	158.74	43.31	
2025-01-10 23:56:03.13	159.16	42.97	
2025-01-10 23:56:04.57	159.58	42.63	
2025-01-10 23:56:06.00	159.98	42.29	
2025-01-10 23:56:07.43	160.37	41.96	
2025-01-10 23:56:08.87	160.76	41.63	
2025-01-10 23:56:10.31	161.14	41.30	
2025-01-10 23:56:11.74	161.51	40.97	
2025-01-10 23:56:13.19	161.88	40.64	
2025-01-10 23:56:14.62	162.24	40.31	
2025-01-10 23:56:16.06	162.59	39.99	
2025-01-10 23:56:17.50	162.93	39.66	
2025-01-10 23:56:18.93	163.27	39.35	
2025-01-10 23:56:20.36	163.60	39.03	
2025-01-10 23:56:21.80	163.92	38.71	
2025-01-10 23:56:23.23	164.24	38.40	
2025-01-10 23:56:24.67	164.55	38.08	
2025-01-10 23:56:26.10	164.86	37.77	
2025-01-10 23:56:27.54	165.16	37.47	
2025-01-10 23:56:28.97	165.46	37.16	
2025-01-10 23:56:30.41	165.75	36.85	
2025-01-10 23:56:31.85	166.03	36.55	
2025-01-10 23:56:33.29	166.31	36.25	
2025-01-10 23:56:34.72	166.59	35.95	
2025-01-10 23:56:36.17	166.86	35.65	
2025-01-10 23:56:37.61	167.13	35.36	
2025-01-10 23:56:39.05	167.39	35.06	
2025-01-10 23:56:40.48	167.64	34.77	
2025-01-10 23:56:41.91	167.89	34.49	
2025-01-10 23:56:43.36	168.14	34.20	
2025-01-10 23:56:44.79	168.39	33.92	
2025-01-10 23:56:46.23	168.63	33.63	
2025-01-10 23:56:47.67	168.86	33.35	
2025-01-10 23:56:49.12	169.10	33.07	
2025-01-10 23:56:50.56	169.32	32.79	
2025-01-10 23:56:51.99	169.55	32.52	
2025-01-10 23:56:53.43	169.77	32.25	
2025-01-10 23:56:54.86	169.98	31.98	
2025-01-10 23:56:56.29	170.20	31.71	
2025-01-10 23:56:57.73	170.41	31.45	
2025-01-10 23:56:59.16	170.61	31.18	
2025-01-10 23:57:00.60	170.81	30.92	
2025-01-10 23:57:02.03	171.01	30.66	
2025-01-10 23:57:03.47	171.21	30.40	
2025-01-10 23:57:04.90	171.40	30.15	
2025-01-10 23:57:06.35	171.60	29.89	
2025-01-10 23:57:07.79	171.79	29.64	
2025-01-10 23:57:09.22	171.97	29.39	
2025-01-10 23:57:10.67	172.16	29.14	
2025-01-10 23:57:12.10	172.33	28.89	
2025-01-10 23:57:13.53	172.51	28.65	
2025-01-10 23:57:14.97	172.69	28.41	
2025-01-10 23:57:16.42	172.86	28.16	
2025-01-10 23:57:17.85	173.03	27.93	
2025-01-10 23:57:19.29	173.20	27.69	
2025-01-10 23:57:20.73	173.36	27.45	
2025-01-10 23:57:22.16	173.52	27.22	
2025-01-10 23:57:23.60	173.68	26.99	
2025-01-10 23:57:25.03	173.84	26.76	
2025-01-10 23:57:26.47	174.00	26.53	
2025-01-10 23:57:27.91	174.15	26.30	
2025-01-10 23:57:29.34	174.30	26.08	
2025-01-10 23:57:30.78	174.45	25.85	
2025-01-10 23:57:32.22	174.60	25.63	
2025-01-10 23:57:33.67	174.75	25.41	
2025-01-10 23:57:35.11	174.89	25.19	
2025-01-10 23:57:36.55	175.03	24.97	
2025-01-10 23:57:37.99	175.17	24.75	
2025-01-10 23:57:39.42	175.31	24.54	
2025-01-10 23:57:40.86	175.45	24.33	
2025-01-10 23:57:42.29	175.58	24.12	
2025-01-10 23:57:43.74	175.72	23.91	
2025-01-10 23:57:45.18	175.85	23.70	
2025-01-10 23:57:46.61	175.98	23.49	
2025-01-10 23:57:48.04	176.10	23.29	
2025-01-10 23:57:49.48	176.23	23.09	
2025-01-10 23:57:50.91	176.35	22.89	
2025-01-10 23:57:52.35	176.48	22.69	
2025-01-10 23:57:53.78	176.60	22.49	
2025-01-10 23:57:55.24	176.72	22.29	
2025-01-10 23:57:56.69	176.84	22.09	
2025-01-10 23:57:58.12	176.96	21.90	
2025-01-10 23:57:59.56	177.07	21.70	
2025-01-10 23:58:00.99	177.19	21.51	
2025-01-10 23:58:02.45	177.30	21.32	
2025-01-10 23:58:03.89	177.42	21.13	
2025-01-10 23:58:05.33	177.53	20.94	
2025-01-10 23:58:06.76	177.64	20.75	
2025-01-10 23:58:08.20	177.74	20.57	
2025-01-10 23:58:09.64	177.85	20.38	
2025-01-10 23:58:11.07	177.96	20.20	
2025-01-10 23:58:12.51	178.06	20.02	
2025-01-10 23:58:13.94	178.16	19.84	
2025-01-10 23:58:15.39	178.27	19.66	
2025-01-10 23:58:16.82	178.37	19.48	
2025-01-10 23:58:18.26	178.47	19.30	
2025-01-10 23:58:19.70	178.57	19.13	
2025-01-10 23:58:21.14	178.67	18.95	
2025-01-10 23:58:22.57	178.76	18.78	
2025-01-10 23:58:24.02	178.86	18.61	
2025-01-10 23:58:25.46	178.95	18.44	
2025-01-10 23:58:26.90	179.05	18.27	
2025-01-10 23:58:28.35	179.14	18.10	
2025-01-10 23:58:29.79	179.23	17.93	
2025-01-10 23:58:31.22	179.32	17.76	
2025-01-10 23:58:32.66	179.41	17.60	
2025-01-10 23:58:34.09	179.50	17.43	
2025-01-10 23:58:35.52	179.59	17.27	
2025-01-10 23:58:36.95	179.68	17.11	
2025-01-10 23:58:38.39	179.76	16.95	
2025-01-10 23:58:39.82	179.85	16.79	
2025-01-10 23:58:41.27	179.93	16.63	
2025-01-10 23:58:42.71	180.02	16.47	
2025-01-10 23:58:44.14	180.10	16.31	
2025-01-10 23:58:45.57	180.18	16.15	
2025-01-10 23:58:47.00	180.26	16.00	
2025-01-10 23:58:48.44	180.34	15.84	
2025-01-10 23:58:49.88	180.42	15.69	
2025-01-10 23:58:51.32	180.50	15.54	
2025-01-10 23:58:52.75	180.58	15.39	
2025-01-10 23:58:54.19	180.66	15.23	
2025-01-10 23:58:55.62	180.73	15.08	
2025-01-10 23:58:57.05	180.81	14.94	
2025-01-10 23:58:58.49	180.89	14.79	
2025-01-10 23:58:59.93	180.96	14.64	
2025-01-10 23:59:01.37	181.03	14.49	
2025-01-10 23:59:02.81	181.11	14.35	
2025-01-10 23:59:04.25	181.18	14.20	
2025-01-10 23:59:05.69	181.25	14.06	
2025-01-10 23:59:07.13	181.32	13.91	
2025-01-10 23:59:08.56	181.39	13.77	
2025-01-10 23:59:10.00	181.46	13.63	
2025-01-10 23:59:11.43	181.53	13.49	
2025-01-10 23:59:12.90	181.60	13.35	
2025-01-10 23:59:14.34	181.67	13.21	
2025-01-10 23:59:15.77	181.74	13.07	
2025-01-10 23:59:17.22	181.81	12.93	
2025-01-10 23:59:18.65	181.87	12.79	
2025-01-10 23:59:20.08	181.94	12.66	
2025-01-10 23:59:21.52	182.00	12.52	
2025-01-10 23:59:22.97	182.07	12.38	
2025-01-10 23:59:24.40	182.13	12.25	
2025-01-10 23:59:25.85	182.20	12.12	
2025-01-10 23:59:27.29	182.26	11.98	
2025-01-10 23:59:28.72	182.32	11.85	
2025-01-10 23:59:30.15	182.39	11.72	
2025-01-10 23:59:31.59	182.45	11.59	
2025-01-10 23:59:33.02	182.51	11.46	
2025-01-10 23:59:34.46	182.57	11.33	
2025-01-10 23:59:35.91	182.63	11.20	
2025-01-10 23:59:37.35	182.69	11.07	
2025-01-10 23:59:38.78	182.75	10.94	
2025-01-10 23:59:40.22	182.81	10.82	
2025-01-10 23:59:41.66	182.87	10.69	
2025-01-10 23:59:43.10	182.92	10.56	
2025-01-10 23:59:44.54	182.98	10.44	
2025-01-10 23:59:45.97	183.04	10.32	
2025-01-10 23:59:47.40	183.09	10.19	
2025-01-10 23:59:48.84	183.15	10.07	
2025-01-10 23:59:50.29	183.21	9.95	
2025-01-10 23:59:51.72	183.26	9.82	
2025-01-10 23:59:53.16	183.32	9.70	
2025-01-10 23:59:54.60	183.37	9.58	
2025-01-10 23:59:56.05	183.42	9.46	
2025-01-10 23:59:57.48	183.48	9.34	
2025-01-10 23:59:58.93	183.53	9.22	
2025-01-11 00:00:00.38	183.58	9.10	
2025-01-11 00:00:01.82	183.64	8.98	
2025-01-11 00:00:03.26	183.69	8.86	
2025-01-11 00:00:04.69	183.74	8.75	
2025-01-11 00:00:06.13	183.79	8.63	
2025-01-11 00:00:07.56	183.84	8.52	
2025-01-11 00:00:09.00	183.89	8.40	
2025-01-11 00:00:10.45	183.94	8.28	
2025-01-11 00:00:11.89	183.99	8.17	
2025-01-11 00:00:13.33	184.04	8.06	
2025-01-11 00:00:14.77	184.09	7.94	
2025-01-11 00:00:16.20	184.14	7.83	
2025-01-11 00:00:17.63	184.19	7.72	
2025-01-11 00:00:19.06	184.23	7.61	
2025-01-11 00:00:20.50	184.28	7.49	
2025-01-11 00:00:21.94	184.33	7.38	
2025-01-11 00:00:23.38	184.38	7.27	
2025-01-11 00:00:24.82	184.42	7.16	
2025-01-11 00:00:26.25	184.47	7.05	
2025-01-11 00:00:27.70	184.52	6.94	
2025-01-11 00:00:29.13	184.56	6.83	
2025-01-11 00:00:30.57	184.61	6.73	
2025-01-11 00:00:32.00	184.65	6.62	
2025-01-11 00:00:33.43	184.70	6.51	
2025-01-11 00:00:34.87	184.74	6.41	
2025-01-11 00:00:36.31	184.79	6.30	
2025-01-11 00:00:37.74	184.83	6.19	
2025-01-11 00:00:39.20	184.87	6.09	
2025-01-11 00:00:40.66	184.92	5.98	
2025-01-11 00:00:42.10	184.96	5.87	
2025-01-11 00:00:43.53	185.00	5.77	
2025-01-11 00:00:44.98	185.05	5.66	
2025-01-11 00:00:46.42	185.09	5.56	
2025-01-11 00:00:47.85	185.13	5.46	
2025-01-11 00:00:49.29	185.17	5.35	
2025-01-11 00:00:50.72	185.21	5.25	
2025-01-11 00:00:52.16	185.25	5.15	
2025-01-11 00:00:53.59	185.30	5.05	
2025-01-11 00:00:55.03	185.34	4.95	
2025-01-11 00:00:56.47	185.38	4.85	
2025-01-11 00:00:57.90	185.42	4.75	
2025-01-11 00:00:59.34	185.46	4.65	
2025-01-11 00:01:00.80	185.50	4.54	
2025-01-11 00:01:02.23	185.54	4.45	
2025-01-11 00:01:03.67	185.58	4.35	
2025-01-11 00:01:05.11	185.61	4.25	
2025-01-11 00:01:06.55	185.65	4.15	
2025-01-11 00:01:07.98	185.69	4.05	

#Closed at: 2025-01-11 00:01:08