passes_logs/2026/01/12/XPeterburg/XPeterburg__20260112_145440_FENGYUN_3E_rec.log

#Pass ID: 20260112_145440_FENGYUN 3E
#Satellite: FENGYUN 3E
#Configuration: FENGYUN 3E
#Start time: 2026-01-12 14:54:34

#Version: 1.5.20200625
#Station: XPeterburg
#Location: 30.318091 lon 59.932769 lat
#TLE: 1 49008U 21062A   26011.97558190  .00000066  00000+0  51928-4 0  9996
#TLE: 2 49008  98.7491  17.1395 0001916 144.4283 215.7021 14.19885193234411

#Time	Az	El	Level	Level2	SNR	BER	Gain	Gain2
2026-01-12 14:54:34.03	206.88	68.04	-37.7	-40.3	3.3	8390396	93	6592
2026-01-12 14:54:34.23	207.06	68.11	-38.0	-47.8	3.6	8058723	81	15138
2026-01-12 14:54:34.43	207.24	68.18	-37.7	-41.8	3.5	8447822	92	7814
2026-01-12 14:54:34.63	207.42	68.24	-37.7	-41.0	3.3	8429569	92	7155
2026-01-12 14:54:34.83	207.60	68.31	-37.8	-40.9	3.3	8405101	92	7037
2026-01-12 14:54:35.03	207.79	68.37	-37.7	-42.3	3.6	8401508	92	8365
2026-01-12 14:54:35.23	207.97	68.44	-37.8	-42.1	3.6	8452983	92	8125
2026-01-12 14:54:35.43	208.16	68.50	-37.7	-41.0	3.4	8452983	92	7185
2026-01-12 14:54:35.64	208.35	68.57	-37.7	-40.9	3.3	8422863	92	7102
2026-01-12 14:54:35.84	208.54	68.64	-37.8	-42.4	3.6	8380680	92	8360
2026-01-12 14:54:36.04	208.73	68.70	-37.8	-42.4	3.6	8412277	92	8339
2026-01-12 14:54:36.24	208.92	68.77	-37.7	-40.8	3.4	8391448	93	7006
2026-01-12 14:54:36.44	209.11	68.83	-37.7	-40.3	3.3	8408763	93	6594
2026-01-12 14:54:36.64	209.30	68.90	-37.7	-40.4	3.3	8393291	93	6648
2026-01-12 14:54:36.84	209.50	68.96	-37.8	-41.9	3.6	8359863	93	7924
2026-01-12 14:54:37.04	209.69	69.02	-37.8	-41.1	3.5	8432155	93	7244
2026-01-12 14:54:37.24	209.89	69.09	-37.7	-40.4	3.3	8432155	93	6681
2026-01-12 14:54:37.44	210.09	69.15	-37.7	-40.3	3.3	8406005	93	6636
2026-01-12 14:54:37.64	210.29	69.21	-37.7	-41.7	3.6	8395317	93	7761
2026-01-12 14:54:37.85	210.50	69.28	-37.7	-41.2	3.5	8447467	93	7356
2026-01-12 14:54:38.05	210.70	69.34	-37.7	-40.2	3.3	8377178	93	6559
2026-01-12 14:54:38.25	210.90	69.41	-37.6	-39.8	3.3	8401519	93	6338
2026-01-12 14:54:38.45	211.11	69.47	-37.4	-40.6	3.6	8344905	93	7109
2026-01-12 14:54:38.65	211.31	69.53	-37.1	-40.1	3.2	8439273	92	6983
2026-01-12 14:54:38.85	211.52	69.59	-37.0	-38.7	3.4	8439273	92	5998
2026-01-12 14:54:39.05	211.73	69.66	-36.8	-38.2	3.4	8362895	91	5799
2026-01-12 14:54:39.25	211.94	69.72	-36.5	-37.3	3.4	8394287	91	5399
2026-01-12 14:54:39.45	212.15	69.78	-36.3	-37.9	3.7	8338989	91	5941
2026-01-12 14:54:39.66	212.38	69.84	-35.7	-36.8	4.1	8407276	89	5545
2026-01-12 14:54:39.86	212.59	69.90	-35.4	-35.3	4.3	8249164	89	4898
2026-01-12 14:54:40.06	212.81	69.97	-35.0	-34.8	4.6	8013107	88	4808
2026-01-12 14:54:40.26	213.02	70.03	-34.7	-34.4	5.0	7677772	87	4754
2026-01-12 14:54:40.46	213.24	70.09	-34.0	-33.4	5.5	6697631	86	4604
2026-01-12 14:54:40.66	213.46	70.15	-33.8	-33.5	5.8	6697631	85	4767
2026-01-12 14:54:40.86	213.68	70.21	-33.4	-32.6	6.3	4046768	85	4524
2026-01-12 14:54:41.06	213.90	70.27	-32.9	-32.0	6.9	2712821	84	4472
2026-01-12 14:54:41.26	214.13	70.33	-32.6	-31.9	7.3	1768547	83	4582
2026-01-12 14:54:41.46	214.35	70.39	-32.3	-31.3	7.7	1213348	83	4424
2026-01-12 14:54:41.66	214.58	70.44	-32.0	-31.2	8.2	773323	82	4522
2026-01-12 14:54:41.86	214.81	70.50	-31.5	-30.9	8.7	511253	81	4547
2026-01-12 14:54:42.07	215.05	70.56	-31.2	-30.6	9.2	292442	80	4607
2026-01-12 14:54:42.27	215.28	70.62	-31.0	-30.3	9.4	172760	80	4537
2026-01-12 14:54:42.47	215.52	70.68	-31.2	-30.7	9.2	188255	80	4651
2026-01-12 14:54:42.67	215.75	70.74	-31.1	-30.4	9.4	188255	80	4569
2026-01-12 14:54:42.87	215.99	70.80	-31.1	-30.6	9.3	172061	80	4602
2026-01-12 14:54:43.07	216.22	70.85	-31.2	-30.8	9.2	180530	80	4662
2026-01-12 14:54:43.27	216.46	70.91	-31.3	-30.8	9.1	205410	80	4686
2026-01-12 14:54:43.47	216.70	70.97	-31.3	-30.9	9.1	224235	80	4704
2026-01-12 14:54:43.67	216.95	71.02	-31.2	-30.6	9.2	220619	80	4614
2026-01-12 14:54:43.88	217.20	71.08	-31.3	-30.9	9.0	206439	80	4687
2026-01-12 14:54:44.08	217.45	71.14	-31.1	-30.4	9.3	234981	80	4554
2026-01-12 14:54:44.28	217.69	71.19	-31.2	-30.8	9.1	234981	80	4668
2026-01-12 14:54:44.48	217.94	71.25	-31.3	-30.9	9.0	194950	80	4696
2026-01-12 14:54:44.68	218.19	71.30	-31.0	-30.2	9.4	238174	80	4501
2026-01-12 14:54:44.88	218.44	71.36	-31.2	-30.5	9.1	187694	80	4584
2026-01-12 14:54:45.08	218.69	71.41	-31.2	-30.5	9.1	231880	80	4564
2026-01-12 14:54:45.28	218.95	71.46	-31.2	-30.7	9.0	219955	80	4616
2026-01-12 14:54:45.48	219.21	71.52	-31.0	-30.2	9.2	233814	80	4488
2026-01-12 14:54:45.69	219.48	71.57	-31.1	-30.4	9.1	212768	80	4525
2026-01-12 14:54:45.89	219.73	71.63	-31.1	-30.3	9.2	222702	80	4505
2026-01-12 14:54:46.09	220.00	71.68	-31.1	-30.5	9.1	222702	80	4556
2026-01-12 14:54:46.29	220.26	71.73	-31.0	-30.2	9.2	232910	80	4501
2026-01-12 14:54:46.49	220.52	71.78	-31.2	-30.5	9.0	203235	80	4574
2026-01-12 14:54:46.69	220.79	71.83	-30.9	-29.8	9.3	255432	80	4355
2026-01-12 14:54:46.89	221.05	71.89	-31.1	-30.4	9.0	217369	80	4531
2026-01-12 14:54:47.09	221.32	71.94	-31.1	-30.4	9.1	233722	80	4542
2026-01-12 14:54:47.29	221.59	71.99	-31.0	-30.2	9.2	202182	80	4472
2026-01-12 14:54:47.49	221.86	72.04	-30.9	-30.1	9.3	212356	80	4448
2026-01-12 14:54:47.69	222.14	72.09	-31.1	-30.3	9.2	212356	80	4510
2026-01-12 14:54:47.89	222.41	72.14	-31.1	-30.3	9.1	212265	80	4507
2026-01-12 14:54:48.09	222.69	72.19	-31.1	-30.4	9.2	219165	80	4553
2026-01-12 14:54:48.30	222.98	72.24	-31.1	-30.3	9.2	214771	80	4516
2026-01-12 14:54:48.50	223.26	72.28	-31.0	-30.2	9.3	211566	80	4495
2026-01-12 14:54:48.70	223.54	72.33	-31.1	-30.5	9.2	194252	80	4553
2026-01-12 14:54:48.90	223.83	72.38	-31.1	-30.4	9.2	233299	80	4522
2026-01-12 14:54:49.10	224.11	72.43	-31.1	-30.4	9.3	183700	80	4538
2026-01-12 14:54:49.30	224.40	72.47	-31.0	-30.2	9.3	183700	80	4490
2026-01-12 14:54:49.50	224.68	72.52	-31.1	-30.4	9.3	219497	80	4562
2026-01-12 14:54:49.70	224.97	72.57	-31.0	-30.1	9.4	178493	80	4459
2026-01-12 14:54:49.91	225.28	72.61	-30.9	-30.0	9.5	202205	80	4437
2026-01-12 14:54:50.11	225.57	72.66	-30.6	-30.0	9.6	138576	79	4568
2026-01-12 14:54:50.31	225.87	72.70	-30.4	-29.5	9.9	133220	79	4440
2026-01-12 14:54:50.51	226.16	72.75	-30.4	-29.5	9.9	107231	79	4442
2026-01-12 14:54:50.71	226.46	72.79	-30.5	-29.7	9.8	94848	79	4473
2026-01-12 14:54:50.91	226.76	72.84	-30.6	-29.9	9.8	93223	79	4554
2026-01-12 14:54:51.11	227.06	72.88	-30.4	-29.4	10.0	93223	79	4399
2026-01-12 14:54:51.31	227.36	72.92	-30.7	-30.2	9.7	98201	79	4618
2026-01-12 14:54:51.51	227.67	72.96	-30.5	-29.7	10.0	105583	79	4474
2026-01-12 14:54:51.71	227.97	73.01	-30.7	-30.0	9.8	94585	79	4565
2026-01-12 14:54:51.91	228.28	73.05	-30.8	-30.3	9.7	111717	79	4662
2026-01-12 14:54:52.11	228.59	73.09	-30.8	-30.3	9.6	121044	79	4638
2026-01-12 14:54:52.32	228.91	73.13	-30.8	-30.4	9.6	138313	79	4672
2026-01-12 14:54:52.52	229.22	73.17	-31.0	-30.7	9.5	153259	79	4753
2026-01-12 14:54:52.72	229.54	73.21	-31.1	-31.0	9.3	151576	79	4865
2026-01-12 14:54:52.92	229.85	73.25	-30.9	-30.5	9.6	182842	79	4698
2026-01-12 14:54:53.12	230.17	73.29	-31.3	-31.5	9.1	182842	79	5014
2026-01-12 14:54:53.32	230.49	73.32	-31.0	-30.7	9.5	186080	79	4785
2026-01-12 14:54:53.52	230.81	73.36	-31.4	-31.6	8.9	187168	79	5040
2026-01-12 14:54:53.72	231.13	73.40	-31.1	-30.9	9.4	223537	79	4825
2026-01-12 14:54:53.93	231.47	73.44	-31.2	-31.2	9.2	168914	79	4937
2026-01-12 14:54:54.13	231.79	73.47	-31.1	-31.0	9.4	190212	79	4846
2026-01-12 14:54:54.33	232.11	73.51	-31.2	-31.1	9.3	189388	79	4892
2026-01-12 14:54:54.53	232.44	73.54	-31.1	-31.1	9.3	161407	79	4886
2026-01-12 14:54:54.73	232.77	73.58	-31.0	-30.8	9.4	180461	79	4797
2026-01-12 14:54:54.93	233.10	73.61	-31.1	-31.0	9.3	180461	79	4834
2026-01-12 14:54:55.13	233.43	73.65	-31.0	-30.8	9.4	162414	79	4793
2026-01-12 14:54:55.33	233.76	73.68	-31.1	-31.0	9.3	170207	79	4837
2026-01-12 14:54:55.53	234.10	73.71	-31.1	-30.9	9.3	185543	79	4826
2026-01-12 14:54:55.74	234.45	73.75	-31.1	-30.8	9.3	172611	79	4787
2026-01-12 14:54:55.94	234.79	73.78	-31.2	-31.1	9.2	179031	79	4893
2026-01-12 14:54:56.14	235.12	73.81	-31.2	-31.1	9.2	195762	79	4869
2026-01-12 14:54:56.34	235.46	73.84	-31.2	-31.0	9.3	202182	79	4860
2026-01-12 14:54:56.54	235.80	73.87	-31.1	-30.9	9.3	202182	79	4820
2026-01-12 14:54:56.74	236.15	73.90	-31.2	-31.1	9.2	200809	79	4898
2026-01-12 14:54:56.94	236.49	73.93	-31.2	-31.1	9.2	200672	79	4878
2026-01-12 14:54:57.15	236.85	73.96	-31.4	-31.5	9.0	203235	79	5003
2026-01-12 14:54:57.35	237.20	73.98	-31.6	-31.9	8.7	246059	79	5128
2026-01-12 14:54:57.55	237.54	74.01	-31.6	-31.5	8.9	293552	80	4870
2026-01-12 14:54:57.75	237.89	74.04	-31.6	-31.4	8.9	309722	80	4822
2026-01-12 14:54:57.95	238.24	74.06	-31.7	-31.7	8.8	330642	80	4920
2026-01-12 14:54:58.15	238.59	74.09	-31.8	-31.9	8.6	330642	80	4989
2026-01-12 14:54:58.35	238.94	74.11	-31.9	-31.7	8.4	377471	81	4792
2026-01-12 14:54:58.55	239.30	74.14	-31.9	-31.6	8.5	409812	81	4761
2026-01-12 14:54:58.75	239.65	74.16	-32.0	-31.8	8.3	455223	81	4826
2026-01-12 14:54:58.95	240.01	74.18	-32.0	-31.8	8.3	517982	81	4801
2026-01-12 14:54:59.16	240.38	74.21	-32.0	-31.8	8.3	513519	81	4821
2026-01-12 14:54:59.36	240.74	74.23	-32.1	-32.0	8.2	516231	81	4871
2026-01-12 14:54:59.56	241.10	74.25	-31.8	-31.4	8.6	486293	81	4690
2026-01-12 14:54:59.76	241.46	74.27	-31.8	-31.4	8.6	404079	81	4698
2026-01-12 14:54:59.96	241.82	74.29	-31.7	-31.2	8.7	404079	81	4635
2026-01-12 14:55:00.16	242.18	74.31	-31.8	-31.4	8.6	376235	81	4687
2026-01-12 14:55:00.36	242.54	74.33	-31.8	-31.4	8.5	390781	81	4702
2026-01-12 14:55:00.56	242.90	74.35	-31.7	-31.2	8.7	400302	81	4631
2026-01-12 14:55:00.77	243.28	74.37	-31.8	-31.3	8.6	382164	81	4681
2026-01-12 14:55:00.97	243.65	74.38	-31.9	-31.5	8.4	401412	81	4734
2026-01-12 14:55:01.17	244.02	74.40	-31.8	-31.4	8.6	408657	81	4689
2026-01-12 14:55:01.37	244.38	74.42	-31.9	-31.6	8.3	437324	81	4764
2026-01-12 14:55:01.57	244.75	74.43	-31.9	-31.7	8.4	428089	81	4796
2026-01-12 14:55:01.77	245.12	74.45	-31.8	-31.3	8.6	439189	81	4659
2026-01-12 14:55:01.97	245.49	74.46	-31.9	-31.6	8.5	439189	81	4749
2026-01-12 14:55:02.17	245.85	74.48	-31.7	-31.3	8.6	405715	81	4668
2026-01-12 14:55:02.37	246.22	74.49	-31.8	-31.4	8.5	390357	81	4695
2026-01-12 14:55:02.58	246.61	74.50	-31.9	-31.6	8.5	428592	81	4742
2026-01-12 14:55:02.78	246.99	74.51	-31.8	-31.3	8.6	436603	81	4657
2026-01-12 14:55:02.98	247.36	74.52	-32.0	-31.7	8.4	433708	81	4775
2026-01-12 14:55:03.18	247.73	74.53	-32.1	-31.9	8.3	487781	81	4854
2026-01-12 14:55:03.38	248.10	74.54	-32.1	-32.1	8.2	551387	81	4896
2026-01-12 14:55:03.58	248.48	74.55	-32.3	-32.3	8.0	551387	81	4969
2026-01-12 14:55:03.78	248.85	74.56	-32.3	-32.3	8.0	587162	81	4957
2026-01-12 14:55:03.98	249.22	74.57	-32.3	-32.4	8.0	677764	81	4986
2026-01-12 14:55:04.19	249.62	74.58	-32.4	-32.7	7.8	689907	81	5089
2026-01-12 14:55:04.39	249.99	74.58	-32.2	-31.7	8.0	784400	82	4645
2026-01-12 14:55:04.59	250.37	74.59	-32.3	-32.0	7.9	706363	82	4739
2026-01-12 14:55:04.79	250.74	74.59	-32.3	-31.9	8.0	689861	82	4701
2026-01-12 14:55:04.99	251.12	74.60	-32.3	-32.0	7.9	701511	82	4730
2026-01-12 14:55:05.19	251.49	74.60	-32.4	-32.2	7.8	668678	82	4782
2026-01-12 14:55:05.39	251.87	74.61	-32.1	-31.5	8.2	668678	82	4571
2026-01-12 14:55:05.59	252.25	74.61	-32.5	-32.2	7.7	740169	82	4786
2026-01-12 14:55:05.79	252.62	74.61	-32.3	-31.9	8.0	754577	82	4688
2026-01-12 14:55:06.00	253.02	74.61	-32.5	-32.3	7.7	731792	82	4839
2026-01-12 14:55:06.20	253.40	74.61	-32.7	-32.7	7.5	819854	82	4945
2026-01-12 14:55:06.40	253.77	74.61	-32.4	-32.1	7.8	973731	82	4748
2026-01-12 14:55:06.60	254.15	74.61	-32.7	-32.8	7.5	848659	82	4991
2026-01-12 14:55:06.80	254.53	74.61	-32.6	-32.5	7.7	967266	82	4863
2026-01-12 14:55:07.00	254.90	74.61	-32.8	-32.9	7.4	967266	82	5010
2026-01-12 14:55:07.20	255.28	74.61	-33.0	-33.4	7.2	1116050	82	5146
2026-01-12 14:55:07.40	255.66	74.61	-32.7	-32.1	7.4	1124015	83	4635
2026-01-12 14:55:07.60	256.03	74.60	-33.0	-32.9	7.1	1218429	83	4893
2026-01-12 14:55:07.81	256.43	74.60	-32.7	-32.3	7.4	1297496	83	4670
2026-01-12 14:55:08.01	256.80	74.59	-32.9	-32.6	7.2	1291145	83	4768
2026-01-12 14:55:08.21	257.18	74.59	-32.8	-32.6	7.2	1359626	83	4772
2026-01-12 14:55:08.41	257.55	74.58	-32.6	-32.0	7.4	1392253	83	4594
2026-01-12 14:55:08.61	257.93	74.58	-33.1	-33.1	6.9	1178295	83	4931
2026-01-12 14:55:08.81	258.30	74.57	-32.7	-32.2	7.4	1178295	83	4649
2026-01-12 14:55:09.01	258.68	74.56	-33.3	-33.5	6.6	1351867	83	5060
2026-01-12 14:55:09.21	259.05	74.55	-33.0	-32.9	7.0	1698600	83	4859
2026-01-12 14:55:09.41	259.42	74.54	-33.2	-33.2	6.7	1528999	83	4940
2026-01-12 14:55:09.61	259.80	74.53	-33.4	-33.9	6.5	1835071	83	5171
2026-01-12 14:55:09.81	260.17	74.52	-33.1	-32.5	6.9	2105918	84	4598
2026-01-12 14:55:10.01	260.54	74.51	-33.5	-33.5	6.4	1791549	84	4914
2026-01-12 14:55:10.21	260.91	74.50	-33.0	-32.5	6.9	1927265	84	4629
2026-01-12 14:55:10.42	261.30	74.49	-33.4	-33.3	6.5	1927265	84	4847
2026-01-12 14:55:10.62	261.67	74.47	-33.4	-33.2	6.6	2098777	84	4822
2026-01-12 14:55:10.82	262.04	74.46	-33.3	-33.0	6.7	1983776	84	4769
2026-01-12 14:55:11.02	262.41	74.44	-33.6	-33.8	6.3	2364944	84	5002
2026-01-12 14:55:11.22	262.77	74.43	-33.6	-33.6	6.3	2294734	84	4952
2026-01-12 14:55:11.42	263.14	74.41	-33.7	-34.0	6.1	2562973	84	5070
2026-01-12 14:55:11.62	263.51	74.40	-33.6	-33.7	6.3	2702934	84	4961
2026-01-12 14:55:11.82	263.87	74.38	-33.6	-33.8	6.2	2552764	84	4992
2026-01-12 14:55:12.02	264.24	74.36	-33.6	-33.7	6.2	2353683	84	4983
2026-01-12 14:55:12.22	264.60	74.35	-33.7	-33.8	6.2	2425231	84	4984
2026-01-12 14:55:12.43	264.98	74.33	-33.6	-33.6	6.3	2425231	84	4928
2026-01-12 14:55:12.63	265.34	74.31	-33.5	-33.5	6.4	2764778	84	4896
2026-01-12 14:55:12.83	265.70	74.29	-33.7	-33.8	6.2	2203754	84	4994
2026-01-12 14:55:13.03	266.06	74.27	-33.5	-33.5	6.4	2541217	84	4899
2026-01-12 14:55:13.23	266.42	74.25	-33.6	-33.5	6.4	2510330	84	4883
2026-01-12 14:55:13.43	266.78	74.22	-33.5	-33.4	6.5	2453590	84	4863
2026-01-12 14:55:13.63	267.14	74.20	-33.6	-33.5	6.4	2410732	84	4899
2026-01-12 14:55:13.83	267.49	74.18	-33.7	-33.8	6.3	2365242	84	5000
2026-01-12 14:55:14.03	267.85	74.16	-33.7	-33.8	6.2	2761093	84	4978
2026-01-12 14:55:14.23	268.20	74.13	-33.9	-34.4	6.0	2761093	84	5201
2026-01-12 14:55:14.44	268.57	74.11	-33.7	-33.9	6.1	2782745	84	4995
2026-01-12 14:55:14.64	268.92	74.08	-34.1	-34.2	5.8	3130073	85	4982
2026-01-12 14:55:14.84	269.28	74.06	-33.8	-33.6	6.1	3275814	85	4791
2026-01-12 14:55:15.04	269.62	74.03	-33.8	-33.7	6.0	2896224	85	4836
2026-01-12 14:55:15.24	269.97	74.00	-33.7	-33.4	6.2	2996017	85	4725
2026-01-12 14:55:15.44	270.32	73.98	-34.1	-34.2	5.7	2973106	85	4985
2026-01-12 14:55:15.64	270.66	73.95	-33.8	-33.4	6.1	3264770	85	4728
2026-01-12 14:55:15.84	271.01	73.92	-34.2	-34.3	5.7	3264770	85	5019
2026-01-12 14:55:16.04	271.35	73.89	-33.9	-33.7	6.0	3310638	85	4813
2026-01-12 14:55:16.24	271.69	73.86	-34.1	-34.1	5.7	3282337	85	4927
2026-01-12 14:55:16.45	272.05	73.83	-33.6	-33.1	6.2	3431716	85	4618
2026-01-12 14:55:16.65	272.39	73.80	-34.0	-33.9	5.9	2594146	85	4862
2026-01-12 14:55:16.85	272.73	73.77	-33.7	-33.2	6.2	3014396	85	4672
2026-01-12 14:55:17.05	273.06	73.74	-33.8	-33.4	6.0	2723533	85	4728
2026-01-12 14:55:17.25	273.40	73.71	-33.6	-33.2	6.3	2535736	85	4665
2026-01-12 14:55:17.45	273.73	73.67	-33.9	-33.6	5.9	3214118	85	4775
2026-01-12 14:55:17.65	274.06	73.64	-33.8	-33.4	6.1	3214118	85	4722
2026-01-12 14:55:17.85	274.39	73.61	-33.3	-32.3	6.6	2501907	85	4406
2026-01-12 14:55:18.05	274.72	73.57	-33.8	-34.0	6.0	2423961	84	5072
2026-01-12 14:55:18.25	275.05	73.54	-33.1	-32.5	6.8	2479579	84	4584
2026-01-12 14:55:18.45	275.38	73.50	-33.8	-33.9	6.0	2107223	84	4996
2026-01-12 14:55:18.66	275.72	73.47	-33.3	-32.9	6.6	2699684	84	4712
2026-01-12 14:55:18.86	276.04	73.43	-34.0	-33.9	5.8	2702487	85	4861
2026-01-12 14:55:19.06	276.36	73.39	-33.4	-32.6	6.5	2576671	85	4484
2026-01-12 14:55:19.26	276.68	73.36	-33.5	-32.6	6.4	2576671	85	4476
2026-01-12 14:55:19.46	277.00	73.32	-33.5	-33.3	6.3	2548404	84	4822
2026-01-12 14:55:19.66	277.32	73.28	-33.4	-33.0	6.4	1931179	84	4711
2026-01-12 14:55:19.86	277.64	73.24	-33.7	-33.8	6.1	2584247	84	4959
2026-01-12 14:55:20.06	277.95	73.20	-33.6	-33.5	6.1	2700061	84	4848
2026-01-12 14:55:20.26	278.26	73.16	-34.2	-34.5	5.5	3066490	85	5049
2026-01-12 14:55:20.46	278.57	73.12	-33.3	-32.2	6.5	4687602	85	4344
2026-01-12 14:55:20.67	278.90	73.08	-33.8	-33.9	5.9	2430656	84	4989
2026-01-12 14:55:20.87	279.21	73.04	-33.2	-32.6	6.5	2430656	84	4603
2026-01-12 14:55:21.07	279.51	73.00	-33.8	-33.9	5.9	2515594	84	5010
2026-01-12 14:55:21.27	279.82	72.96	-33.6	-33.5	6.2	2515594	84	4872
2026-01-12 14:55:21.47	280.12	72.91	-34.2	-34.3	5.4	2948696	85	4987
2026-01-12 14:55:21.67	280.42	72.87	-33.7	-33.2	6.1	4811908	85	4646
2026-01-12 14:55:21.87	280.72	72.83	-34.0	-34.1	5.6	3279624	85	4926
2026-01-12 14:55:22.07	281.02	72.79	-33.9	-33.7	5.8	3974418	85	4821
2026-01-12 14:55:22.27	281.32	72.74	-34.0	-33.9	5.6	4675403	85	4854
2026-01-12 14:55:22.48	281.63	72.70	-34.0	-34.0	5.6	4531791	85	4911
2026-01-12 14:55:22.68	281.92	72.65	-34.3	-34.6	5.2	6042606	85	5070
2026-01-12 14:55:22.88	282.22	72.61	-34.1	-34.2	5.5	5708747	85	4959
2026-01-12 14:55:23.08	282.51	72.56	-34.1	-34.0	5.5	5708747	85	4875
2026-01-12 14:55:23.28	282.80	72.51	-34.3	-34.6	5.3	6247203	85	5103
2026-01-12 14:55:23.48	283.08	72.47	-34.2	-33.8	5.3	4924976	86	4713
2026-01-12 14:55:23.68	283.37	72.42	-34.4	-34.5	5.1	6991046	86	4944
2026-01-12 14:55:23.88	283.65	72.37	-34.6	-34.7	5.0	6793888	86	4980
2026-01-12 14:55:24.09	283.95	72.32	-34.8	-35.2	4.7	7468517	86	5167
2026-01-12 14:55:24.29	284.23	72.28	-34.1	-33.6	5.5	7441566	86	4650
2026-01-12 14:55:24.49	284.51	72.23	-34.4	-34.5	5.1	5820796	86	4942
2026-01-12 14:55:24.69	284.79	72.18	-34.0	-33.5	5.6	5820796	86	4615
2026-01-12 14:55:24.89	285.06	72.13	-34.3	-34.1	5.3	6669387	86	4820
2026-01-12 14:55:25.09	285.34	72.08	-34.1	-33.7	5.5	5081611	86	4694
2026-01-12 14:55:25.29	285.61	72.03	-34.3	-34.3	5.3	6036632	86	4905
2026-01-12 14:55:25.49	285.88	71.98	-33.9	-33.3	5.8	6690502	86	4573
2026-01-12 14:55:25.69	286.15	71.93	-34.2	-34.6	5.5	3929328	85	5129
2026-01-12 14:55:25.89	286.42	71.88	-34.0	-34.0	5.7	5735778	85	4910
2026-01-12 14:55:26.10	286.70	71.83	-34.2	-34.5	5.5	3705493	85	5102
2026-01-12 14:55:26.30	286.96	71.77	-34.4	-34.4	5.2	6798099	86	4904
2026-01-12 14:55:26.50	287.23	71.72	-33.9	-33.3	5.8	6798099	86	4569
2026-01-12 14:55:26.70	287.49	71.67	-34.0	-33.4	5.7	4806667	86	4630
2026-01-12 14:55:26.90	287.75	71.62	-33.9	-33.3	5.8	3653869	86	4593
2026-01-12 14:55:27.10	288.01	71.56	-33.9	-33.4	5.7	3533935	86	4613
2026-01-12 14:55:27.30	288.27	71.51	-34.3	-34.1	5.4	4337734	86	4844
2026-01-12 14:55:27.50	288.52	71.46	-33.8	-33.4	6.0	5621349	85	4715
2026-01-12 14:55:27.70	288.77	71.40	-33.9	-33.8	5.9	2957382	85	4852
2026-01-12 14:55:27.90	289.03	71.35	-33.8	-33.5	6.0	3316566	85	4782
2026-01-12 14:55:28.10	289.28	71.29	-33.7	-33.4	6.1	3316566	85	4748
2026-01-12 14:55:28.30	289.53	71.24	-34.1	-34.2	5.5	2886760	85	4959
2026-01-12 14:55:28.51	289.79	71.18	-33.3	-32.4	6.5	3895820	85	4423
2026-01-12 14:55:28.71	290.03	71.13	-34.1	-34.3	5.7	2546848	85	5021
2026-01-12 14:55:28.91	290.28	71.07	-33.6	-33.0	6.1	3494625	85	4617
2026-01-12 14:55:29.11	290.52	71.02	-34.4	-35.0	5.3	3091186	85	5275
2026-01-12 14:55:29.31	290.76	70.96	-33.2	-32.8	5.9	6561504	85	4690
2026-01-12 14:55:29.51	291.00	70.90	-33.8	-34.2	5.9	2797668	84	5165
2026-01-12 14:55:29.71	291.24	70.85	-34.3	-34.2	5.1	2797668	86	4869
2026-01-12 14:55:29.91	291.48	70.79	-34.1	-34.1	5.6	6619628	85	4939
2026-01-12 14:55:30.11	291.71	70.73	-34.3	-34.1	5.1	4461639	86	4815
2026-01-12 14:55:30.31	291.95	70.67	-34.1	-34.2	5.4	7090850	85	4984
2026-01-12 14:55:30.51	292.18	70.62	-35.3	-35.9	4.4	5485507	87	5252
2026-01-12 14:55:30.71	292.41	70.56	-33.7	-33.1	5.9	7770835	85	4622
2026-01-12 14:55:30.92	292.65	70.50	-35.4	-36.2	4.3	5198959	87	5381
2026-01-12 14:55:31.12	292.88	70.44	-33.9	-33.1	5.5	7859539	86	4472
2026-01-12 14:55:31.32	293.11	70.38	-28.3	-26.9	12.2	1979129	75	4218
2026-01-12 14:55:31.52	293.33	70.32	-29.7	-29.6	10.8	8720	76	4845
2026-01-12 14:55:31.72	293.55	70.26	-34.4	-35.4	5.4	698341	85	5499
2026-01-12 14:55:31.92	293.78	70.20	-37.0	-40.7	3.6	698341	90	7493
2026-01-12 14:55:32.12	294.00	70.14	-37.4	-40.8	3.6	8304771	91	7338

#Closed at: 2026-01-12 14:55:32