passes_logs/2026/01/12/XPeterburg/XPeterburg__20260112_102915_SUOMI_NPP_rec.log

#Pass ID: 20260112_102915_SUOMI NPP
#Satellite: SUOMI NPP
#Configuration: NPP
#Start time: 2026-01-12 10:29:09

#Version: 1.5.20200625
#Station: XPeterburg
#Location: 30.318091 lon 59.932769 lat
#TLE: 1 37849U 11061A   26011.93213985  .00000107  00000+0  71660-4 0  9991
#TLE: 2 37849  98.7807 314.0072 0002512  68.9429 291.2016 14.19524668736279

#Time	Az	El	Level	Level2	SNR	BER	Gain	Gain2
2026-01-12 10:29:09.53	166.97	67.45	-37.9	-43.7	3.3	15351028	94	2412
2026-01-12 10:29:09.94	167.03	67.64	-37.9	-46.3	3.6	15106544	92	3207
2026-01-12 10:29:10.34	167.09	67.82	-38.0	-45.5	3.4	15149795	92	2916
2026-01-12 10:29:10.74	167.14	68.00	-38.0	-46.7	3.6	15214012	92	3357
2026-01-12 10:29:11.14	167.20	68.18	-38.0	-45.7	3.4	15167732	92	2980
2026-01-12 10:29:11.55	167.27	68.37	-37.9	-46.6	3.6	15167732	92	3324
2026-01-12 10:29:11.95	167.33	68.55	-37.9	-45.4	3.4	15206962	92	2911
2026-01-12 10:29:12.35	167.39	68.73	-37.9	-46.2	3.6	15170532	92	3216
2026-01-12 10:29:12.75	167.45	68.91	-37.9	-45.2	3.4	15202995	92	2870
2026-01-12 10:29:13.15	167.52	69.10	-37.8	-45.6	3.6	15181320	92	3031
2026-01-12 10:29:13.55	167.58	69.28	-37.9	-44.6	3.5	15169631	93	2653
2026-01-12 10:29:13.96	167.65	69.47	-37.7	-42.6	3.4	15142608	93	2156
2026-01-12 10:29:14.36	167.72	69.65	-37.3	-42.5	4.0	15096679	92	2241
2026-01-12 10:29:14.76	167.79	69.84	-36.9	-40.0	4.3	13776771	92	1772
2026-01-12 10:29:15.16	167.86	70.02	-36.8	-40.0	4.5	9306182	91	1775
2026-01-12 10:29:15.56	167.93	70.21	-36.5	-38.9	5.0	7134490	91	1629
2026-01-12 10:29:15.96	168.01	70.39	-36.3	-38.5	5.2	5266326	91	1585
2026-01-12 10:29:16.37	168.09	70.59	-36.1	-38.4	5.4	5266326	90	1620
2026-01-12 10:29:16.77	168.16	70.77	-36.1	-38.5	5.5	4651603	90	1628
2026-01-12 10:29:17.17	168.24	70.96	-36.2	-38.8	5.2	4580238	90	1664
2026-01-12 10:29:17.57	168.32	71.15	-36.1	-38.4	5.5	4960418	90	1604
2026-01-12 10:29:17.97	168.40	71.33	-35.8	-37.6	5.9	4323348	90	1504
2026-01-12 10:29:18.37	168.49	71.52	-36.1	-38.4	5.5	3184257	90	1610
2026-01-12 10:29:18.77	168.57	71.71	-35.9	-37.8	5.9	3798561	90	1536
2026-01-12 10:29:19.17	168.66	71.90	-36.0	-37.9	5.8	3271881	90	1542
2026-01-12 10:29:19.57	168.75	72.08	-35.9	-37.7	6.0	3145004	90	1512
2026-01-12 10:29:19.97	168.84	72.27	-36.0	-38.0	6.0	2903778	90	1551
2026-01-12 10:29:20.38	168.94	72.47	-35.5	-37.2	7.0	2222427	89	1490
2026-01-12 10:29:20.78	169.03	72.66	-35.3	-36.8	7.4	1438072	89	1451
2026-01-12 10:29:21.18	169.13	72.85	-34.9	-36.4	8.2	1438072	88	1455
2026-01-12 10:29:21.58	169.23	73.04	-34.8	-36.1	8.7	739517	88	1426
2026-01-12 10:29:21.98	169.33	73.23	-34.6	-36.0	9.2	431144	87	1452
2026-01-12 10:29:22.38	169.44	73.42	-34.5	-35.8	9.3	251586	87	1431
2026-01-12 10:29:22.78	169.54	73.61	-34.5	-35.8	9.5	185203	87	1430
2026-01-12 10:29:23.18	169.65	73.80	-34.7	-36.4	9.1	137763	87	1502
2026-01-12 10:29:23.58	169.76	73.99	-34.8	-36.8	9.0	196678	87	1542
2026-01-12 10:29:23.99	169.88	74.18	-35.0	-37.1	8.7	269226	87	1567
2026-01-12 10:29:24.39	170.00	74.38	-35.0	-37.2	8.5	364471	87	1578
2026-01-12 10:29:24.79	170.12	74.57	-35.2	-37.6	8.0	444648	87	1624
2026-01-12 10:29:25.19	170.25	74.76	-35.2	-37.7	8.1	538902	87	1625
2026-01-12 10:29:25.59	170.37	74.95	-35.2	-37.4	8.3	556289	87	1590
2026-01-12 10:29:25.99	170.51	75.14	-35.3	-37.3	8.0	657943	88	1539
2026-01-12 10:29:26.40	170.64	75.34	-35.7	-38.2	7.3	657943	88	1636
2026-01-12 10:29:26.80	170.78	75.53	-35.8	-38.5	6.9	1064834	88	1668
2026-01-12 10:29:27.20	170.92	75.73	-36.2	-38.8	6.3	1475875	89	1659
2026-01-12 10:29:27.60	171.07	75.92	-36.3	-39.2	6.0	2140388	89	1711
2026-01-12 10:29:28.00	171.22	76.11	-36.3	-39.2	5.8	2711654	89	1706
2026-01-12 10:29:28.40	171.37	76.31	-36.3	-39.1	5.8	3218360	89	1694
2026-01-12 10:29:28.81	171.54	76.51	-36.2	-38.9	6.0	3310920	89	1662
2026-01-12 10:29:29.21	171.70	76.70	-36.1	-38.4	6.3	2911087	89	1613
2026-01-12 10:29:29.61	171.87	76.89	-35.6	-37.3	7.1	2162185	89	1484
2026-01-12 10:29:30.01	172.05	77.09	-35.5	-36.9	7.5	1332328	89	1450
2026-01-12 10:29:30.41	172.22	77.28	-34.8	-36.2	8.7	688690	87	1453
2026-01-12 10:29:30.81	172.41	77.48	-34.6	-35.8	9.0	272323	87	1413
2026-01-12 10:29:31.21	172.60	77.67	-34.7	-36.1	9.0	272323	87	1452
2026-01-12 10:29:31.61	172.80	77.87	-35.0	-37.0	8.5	235771	87	1536
2026-01-12 10:29:32.01	173.00	78.06	-35.5	-38.2	8.0	321311	87	1679
2026-01-12 10:29:32.42	173.22	78.26	-36.1	-38.8	7.0	563621	89	1676
2026-01-12 10:29:32.82	173.44	78.46	-36.7	-40.1	5.8	1208717	90	1821
2026-01-12 10:29:33.22	173.66	78.65	-36.9	-40.5	5.4	2798156	90	1864
2026-01-12 10:29:33.62	173.90	78.85	-36.7	-39.9	5.6	4395660	90	1783
2026-01-12 10:29:34.02	174.14	79.04	-36.6	-39.5	5.8	4084098	90	1722
2026-01-12 10:29:34.42	174.39	79.23	-36.3	-38.8	6.4	3144645	90	1637
2026-01-12 10:29:34.82	174.65	79.43	-36.4	-39.0	6.5	2168579	90	1669
2026-01-12 10:29:35.22	174.92	79.62	-36.4	-39.2	6.5	2025932	90	1696
2026-01-12 10:29:35.62	175.20	79.82	-36.4	-39.2	6.3	2119331	90	1701
2026-01-12 10:29:36.03	175.50	80.02	-36.2	-38.7	6.7	2119331	90	1630
2026-01-12 10:29:36.43	175.81	80.21	-36.4	-39.2	6.4	2028739	90	1704
2026-01-12 10:29:36.83	176.12	80.41	-36.1	-38.4	6.9	1972595	90	1592
2026-01-12 10:29:37.23	176.45	80.60	-36.0	-38.0	7.0	1783554	90	1551
2026-01-12 10:29:37.63	176.80	80.80	-36.1	-38.4	6.9	1545013	90	1591
2026-01-12 10:29:38.03	177.16	80.99	-36.4	-39.2	6.3	1527351	90	1702
2026-01-12 10:29:38.43	177.53	81.19	-36.5	-39.5	6.2	2137489	90	1729
2026-01-12 10:29:38.83	177.93	81.38	-36.8	-40.2	5.5	2986030	90	1833
2026-01-12 10:29:39.23	178.34	81.57	-37.4	-41.5	5.0	4413536	91	1980
2026-01-12 10:29:39.64	178.78	81.77	-37.5	-41.4	4.5	6588081	92	1917
2026-01-12 10:29:40.04	179.23	81.97	-37.7	-41.9	4.4	7973182	92	2010
2026-01-12 10:29:40.44	179.70	82.16	-37.8	-42.8	4.0	10340110	92	2171
2026-01-12 10:29:40.84	180.20	82.35	-37.7	-42.0	4.0	11726173	92	2025
2026-01-12 10:29:41.24	180.72	82.54	-37.7	-42.3	4.1	11726173	92	2089
2026-01-12 10:29:41.64	181.27	82.73	-37.7	-42.1	4.2	10576850	92	2044
2026-01-12 10:29:42.04	181.86	82.92	-37.5	-41.3	4.5	9904373	92	1903
2026-01-12 10:29:42.45	182.49	83.12	-37.4	-40.9	4.8	8444465	92	1839
2026-01-12 10:29:42.85	183.13	83.31	-37.0	-39.5	5.4	7205886	92	1650
2026-01-12 10:29:43.25	183.82	83.50	-36.8	-39.3	6.0	4506103	91	1654
2026-01-12 10:29:43.65	184.55	83.68	-36.4	-38.5	6.7	2938682	91	1554
2026-01-12 10:29:44.05	185.32	83.87	-36.4	-38.5	6.7	2026428	91	1561
2026-01-12 10:29:44.45	186.15	84.06	-36.4	-38.6	6.6	1961006	91	1570
2026-01-12 10:29:44.85	187.02	84.24	-36.5	-38.8	6.4	1963134	91	1599
2026-01-12 10:29:45.25	187.95	84.42	-36.5	-38.7	6.4	2226310	91	1583
2026-01-12 10:29:45.66	188.98	84.61	-36.4	-38.5	6.7	2036148	91	1555
2026-01-12 10:29:46.06	190.04	84.79	-36.1	-38.3	6.8	2036148	90	1585
2026-01-12 10:29:46.46	191.19	84.97	-35.8	-37.4	7.4	1598655	90	1481
2026-01-12 10:29:46.86	192.41	85.15	-35.8	-37.8	7.6	1172943	89	1555
2026-01-12 10:29:47.26	193.73	85.32	-35.7	-37.7	7.8	917625	89	1550
2026-01-12 10:29:47.66	195.16	85.49	-35.6	-37.5	7.9	793754	89	1521
2026-01-12 10:29:48.06	196.69	85.66	-35.7	-37.6	7.7	714630	89	1532
2026-01-12 10:29:48.46	198.34	85.82	-35.9	-38.2	7.4	823944	89	1605
2026-01-12 10:29:48.87	200.18	85.99	-36.2	-39.0	6.8	1113082	89	1706
2026-01-12 10:29:49.27	202.12	86.15	-36.1	-38.7	7.0	1716796	89	1652
2026-01-12 10:29:49.67	204.22	86.30	-36.5	-39.8	6.3	1733444	89	1798
2026-01-12 10:29:50.07	206.51	86.45	-36.4	-38.9	6.4	2214607	90	1649
2026-01-12 10:29:50.47	208.98	86.59	-36.7	-39.8	5.8	2592269	90	1771
2026-01-12 10:29:50.87	211.66	86.72	-36.9	-40.4	5.5	2592269	90	1844
2026-01-12 10:29:51.27	214.57	86.85	-37.0	-40.8	5.4	3836250	90	1896
2026-01-12 10:29:51.67	217.71	86.96	-37.3	-40.8	5.2	4648818	91	1839
2026-01-12 10:29:52.07	221.09	87.07	-37.3	-40.3	5.0	5123382	92	1744
2026-01-12 10:29:52.48	224.81	87.17	-37.0	-39.3	5.9	5523826	92	1608
2026-01-12 10:29:52.88	228.68	87.26	-37.0	-39.4	5.7	3667587	92	1629
2026-01-12 10:29:53.28	232.78	87.33	-37.1	-39.9	5.6	3801177	92	1688
2026-01-12 10:29:53.68	237.07	87.38	-37.2	-40.0	5.5	3978584	92	1695
2026-01-12 10:29:54.08	241.54	87.43	-37.1	-39.6	5.5	4001197	92	1648
2026-01-12 10:29:54.48	246.12	87.45	-36.8	-38.9	6.1	3520042	92	1560
2026-01-12 10:29:54.88	250.76	87.46	-36.9	-39.6	6.3	2242660	91	1686
2026-01-12 10:29:55.28	255.41	87.45	-36.8	-39.3	6.3	2590744	91	1643
2026-01-12 10:29:55.68	260.00	87.43	-37.1	-40.1	5.8	3141441	91	1744
2026-01-12 10:29:56.08	264.47	87.39	-37.1	-40.2	5.9	3141441	91	1755
2026-01-12 10:29:56.49	268.89	87.33	-37.1	-40.2	5.9	3268806	91	1766
2026-01-12 10:29:56.89	273.00	87.26	-36.4	-38.3	7.2	3472534	91	1520
2026-01-12 10:29:57.29	276.88	87.18	-35.9	-37.5	7.6	1912399	90	1482
2026-01-12 10:29:57.69	280.53	87.08	-35.5	-37.1	8.5	1070434	89	1465
2026-01-12 10:29:58.09	283.93	86.97	-35.6	-37.3	8.4	439620	89	1493
2026-01-12 10:29:58.49	287.08	86.86	-36.0	-38.4	7.8	478118	89	1618
2026-01-12 10:29:58.90	290.08	86.73	-36.5	-39.6	6.9	821571	89	1771
2026-01-12 10:29:59.30	292.77	86.59	-37.0	-40.7	5.7	1910858	90	1882
2026-01-12 10:29:59.70	295.26	86.45	-37.4	-40.9	5.2	4262672	92	1823
2026-01-12 10:30:00.10	297.55	86.31	-37.3	-40.4	5.3	4783020	92	1754
2026-01-12 10:30:00.50	299.66	86.15	-37.1	-39.7	5.7	4430358	92	1651
2026-01-12 10:30:00.90	301.61	86.00	-36.8	-38.7	6.2	4430358	92	1532
2026-01-12 10:30:01.30	303.41	85.84	-36.6	-38.8	6.7	2753974	91	1582
2026-01-12 10:30:01.70	305.08	85.67	-36.6	-38.9	6.7	1937103	91	1593
2026-01-12 10:30:02.10	306.62	85.50	-36.6	-39.0	6.7	1693954	91	1608
2026-01-12 10:30:02.51	308.08	85.33	-36.6	-38.9	6.7	1719680	91	1599
2026-01-12 10:30:02.91	309.41	85.16	-36.5	-38.6	7.0	1664299	91	1571
2026-01-12 10:30:03.31	310.64	84.98	-36.5	-38.6	7.0	1460678	91	1570
2026-01-12 10:30:03.71	311.79	84.80	-36.5	-38.6	7.1	1345558	91	1565
2026-01-12 10:30:04.11	312.86	84.62	-36.3	-38.2	7.4	1358345	91	1523
2026-01-12 10:30:04.51	313.86	84.44	-36.2	-38.5	7.2	1057518	90	1608
2026-01-12 10:30:04.91	314.80	84.26	-36.1	-38.3	7.4	1282417	90	1581
2026-01-12 10:30:05.31	315.68	84.07	-36.2	-38.5	7.2	1206779	90	1603
2026-01-12 10:30:05.71	316.50	83.89	-36.0	-37.8	7.5	1206779	90	1525
2026-01-12 10:30:06.11	317.28	83.70	-36.1	-38.1	7.2	1293571	90	1557
2026-01-12 10:30:06.52	318.03	83.51	-35.9	-37.8	7.5	1144386	90	1525
2026-01-12 10:30:06.92	318.72	83.32	-35.8	-38.0	7.8	942840	89	1582
2026-01-12 10:30:07.32	319.37	83.13	-35.7	-37.6	8.0	786323	89	1530
2026-01-12 10:30:07.72	319.99	82.94	-35.7	-37.7	8.0	747222	89	1539
2026-01-12 10:30:08.12	320.57	82.75	-35.9	-38.1	7.6	735321	89	1587
2026-01-12 10:30:08.52	321.12	82.56	-35.9	-38.3	7.5	907798	89	1609
2026-01-12 10:30:08.92	321.65	82.37	-36.0	-38.3	7.6	1057563	89	1610
2026-01-12 10:30:09.32	322.15	82.18	-36.0	-38.3	7.5	868377	89	1607
2026-01-12 10:30:09.73	322.64	81.98	-36.1	-38.6	7.4	998023	89	1644
2026-01-12 10:30:10.13	323.09	81.79	-36.5	-39.7	6.5	998023	89	1788
2026-01-12 10:30:10.53	323.52	81.59	-37.0	-40.8	5.5	1759750	90	1914
2026-01-12 10:30:10.93	323.93	81.40	-37.0	-40.1	5.7	3638236	91	1745
2026-01-12 10:30:11.33	324.32	81.21	-36.7	-39.1	6.2	4047348	91	1612
2026-01-12 10:30:11.73	324.70	81.01	-35.8	-37.3	7.3	2733123	90	1455
2026-01-12 10:30:12.13	325.06	80.82	-35.4	-36.7	8.5	1230766	89	1431
2026-01-12 10:30:12.54	325.42	80.62	-35.1	-36.5	8.9	460304	88	1443
2026-01-12 10:30:12.94	325.75	80.42	-35.0	-36.3	8.9	281051	88	1431
2026-01-12 10:30:13.34	326.06	80.23	-34.9	-36.2	9.0	285476	88	1417
2026-01-12 10:30:13.74	326.37	80.04	-35.1	-36.6	8.7	234062	88	1460
2026-01-12 10:30:14.14	326.66	79.84	-34.6	-35.8	9.4	248306	87	1414
2026-01-12 10:30:14.54	326.94	79.65	-34.3	-35.2	9.7	142257	87	1362
2026-01-12 10:30:14.94	327.22	79.45	-34.5	-35.7	9.4	137138	87	1406
2026-01-12 10:30:15.34	327.48	79.26	-34.9	-36.5	8.6	226165	87	1482
2026-01-12 10:30:15.74	327.73	79.06	-35.4	-37.8	7.7	226165	87	1625
2026-01-12 10:30:16.14	327.97	78.87	-36.2	-38.9	6.2	570472	89	1671
2026-01-12 10:30:16.55	328.21	78.67	-36.5	-39.3	5.6	1877593	90	1687
2026-01-12 10:30:16.95	328.44	78.47	-36.5	-39.1	5.5	3768150	90	1665
2026-01-12 10:30:17.35	328.66	78.28	-35.8	-37.5	6.9	3870925	89	1500
2026-01-12 10:30:17.75	328.87	78.08	-35.5	-37.0	7.4	1768455	89	1455
2026-01-12 10:30:18.15	329.07	77.89	-35.0	-36.3	8.1	1027015	88	1432
2026-01-12 10:30:18.55	329.27	77.69	-35.4	-37.5	7.8	628639	88	1559
2026-01-12 10:30:18.95	329.46	77.50	-35.9	-38.7	7.1	877212	88	1709
2026-01-12 10:30:19.35	329.65	77.31	-36.4	-39.4	6.1	1728416	90	1728
2026-01-12 10:30:19.76	329.83	77.11	-36.7	-40.2	5.6	3353256	90	1837
2026-01-12 10:30:20.16	330.01	76.91	-36.4	-39.2	6.1	3353256	90	1704
2026-01-12 10:30:20.56	330.18	76.72	-36.0	-38.0	7.0	3499618	90	1551
2026-01-12 10:30:20.96	330.34	76.53	-35.5	-37.3	8.0	1978752	89	1506
2026-01-12 10:30:21.36	330.50	76.33	-35.3	-36.9	8.3	885414	89	1465
2026-01-12 10:30:21.76	330.66	76.14	-35.1	-36.7	8.7	487945	88	1484
2026-01-12 10:30:22.16	330.81	75.95	-34.9	-36.2	9.0	312263	88	1438
2026-01-12 10:30:22.57	330.96	75.75	-34.8	-36.5	9.2	252143	87	1499
2026-01-12 10:30:22.97	331.10	75.56	-35.1	-37.2	8.8	219017	87	1575
2026-01-12 10:30:23.37	331.24	75.36	-35.3	-37.9	8.2	401115	87	1661
2026-01-12 10:30:23.77	331.37	75.17	-35.5	-37.7	7.8	583267	88	1598
2026-01-12 10:30:24.17	331.50	74.98	-35.6	-38.2	7.6	697860	88	1657
2026-01-12 10:30:24.57	331.63	74.79	-36.0	-39.1	6.9	1101165	88	1767
2026-01-12 10:30:24.97	331.76	74.60	-36.4	-39.7	6.2	1101165	89	1799
2026-01-12 10:30:25.37	331.88	74.40	-36.4	-39.3	6.0	2026268	90	1722
2026-01-12 10:30:25.78	332.00	74.21	-36.4	-39.2	6.0	3163459	90	1696
2026-01-12 10:30:26.18	332.12	74.02	-36.3	-38.9	6.3	3125755	90	1662
2026-01-12 10:30:26.58	332.23	73.83	-35.7	-37.8	7.2	2430938	89	1559
2026-01-12 10:30:26.98	332.34	73.64	-35.6	-37.4	7.7	1318275	89	1519
2026-01-12 10:30:27.38	332.44	73.45	-35.3	-36.7	8.1	847427	89	1456
2026-01-12 10:30:27.78	332.55	73.26	-35.3	-37.5	7.9	603111	88	1572
2026-01-12 10:30:28.19	332.65	73.06	-35.8	-38.7	7.0	787704	88	1722
2026-01-12 10:30:28.59	332.75	72.87	-36.4	-39.9	6.0	1606391	89	1842
2026-01-12 10:30:28.99	332.85	72.68	-36.7	-40.5	5.0	3448455	90	1900
2026-01-12 10:30:29.39	332.95	72.49	-36.9	-41.0	4.8	6009719	90	1968
2026-01-12 10:30:29.79	333.04	72.30	-37.0	-41.4	4.5	6584274	90	2048
2026-01-12 10:30:30.19	333.13	72.12	-37.0	-40.5	4.8	6584274	91	1843
2026-01-12 10:30:30.59	333.22	71.93	-37.0	-40.5	4.9	6867256	91	1839
2026-01-12 10:30:30.99	333.31	71.74	-36.8	-40.1	5.2	6324035	91	1786
2026-01-12 10:30:31.40	333.40	71.55	-36.8	-40.1	5.2	4966156	91	1796
2026-01-12 10:30:31.80	333.48	71.36	-36.8	-40.2	5.2	4929252	91	1804
2026-01-12 10:30:32.20	333.56	71.17	-37.2	-41.3	4.6	5169952	91	1989
2026-01-12 10:30:32.60	333.64	70.99	-37.2	-41.4	4.4	7708404	91	2001
2026-01-12 10:30:33.00	333.72	70.80	-37.4	-42.3	4.0	9622650	91	2165
2026-01-12 10:30:33.40	333.80	70.62	-38.3	-47.6	3.6	13082069	93	3590
2026-01-12 10:30:33.80	333.88	70.43	-38.3	-46.7	3.4	15159263	93	3212
2026-01-12 10:30:34.21	333.95	70.24	-38.4	-47.7	3.6	15216003	93	3602
2026-01-12 10:30:34.61	334.02	70.06	-38.5	-46.5	3.4	15149429	93	3121

#Closed at: 2026-01-12 10:30:34