passes_logs/2026/01/12/XPeterburg/XPeterburg__20260112_021202_AQUA_rec.log

#Pass ID: 20260112_021202_AQUA
#Satellite: AQUA
#Configuration: AQUA
#Start time: 2026-01-12 02:11:57

#Version: 1.5.20200625
#Station: XPeterburg
#Location: 30.318091 lon 59.932769 lat
#TLE: 1 27424U 02022A   25358.80455341  .00000926  00000+0  19561-3 0  9999
#TLE: 2 27424  98.4055 319.8810 0001809 102.1365 317.5475 14.61757572257795

#Time	Az	El	Level	Level2	SNR	BER	Gain	Gain2
2026-01-12 02:11:57.86	357.33	67.68	-34.6	-44.8	3.3	7662811	86	1936
2026-01-12 02:11:58.27	357.08	67.89	-34.6	-45.6	3.5	7597961	86	2139
2026-01-12 02:11:58.67	356.84	68.09	-34.6	-45.1	3.4	7637939	86	2014
2026-01-12 02:11:59.07	356.59	68.29	-34.6	-45.8	3.5	7536773	86	2180
2026-01-12 02:11:59.47	356.33	68.49	-34.6	-45.5	3.4	7645721	86	2093
2026-01-12 02:11:59.88	356.06	68.70	-34.6	-46.2	3.5	7536468	86	2279
2026-01-12 02:12:00.28	355.80	68.90	-34.6	-45.7	3.4	7633666	86	2158
2026-01-12 02:12:00.68	355.53	69.11	-34.6	-46.1	3.5	7572631	86	2252
2026-01-12 02:12:01.08	355.25	69.31	-34.5	-45.7	3.4	7668151	86	2151
2026-01-12 02:12:01.48	354.97	69.51	-34.6	-45.9	3.5	7552185	86	2213
2026-01-12 02:12:01.88	354.68	69.71	-34.6	-45.7	3.5	7630157	86	2155
2026-01-12 02:12:02.29	354.38	69.92	-34.6	-46.2	3.4	7547912	86	2282
2026-01-12 02:12:02.69	354.07	70.12	-34.6	-46.0	3.5	7585906	86	2220
2026-01-12 02:12:03.09	353.77	70.32	-34.6	-46.2	3.2	7561798	86	2275
2026-01-12 02:12:03.49	353.45	70.52	-34.6	-45.9	3.5	7591857	86	2194
2026-01-12 02:12:03.89	353.13	70.72	-34.6	-45.4	3.4	7598571	86	2088
2026-01-12 02:12:04.30	352.79	70.93	-34.5	-46.1	3.5	7550201	86	2261
2026-01-12 02:12:04.70	352.45	71.13	-34.5	-45.8	3.4	7662963	86	2192
2026-01-12 02:12:05.10	352.11	71.33	-34.5	-46.5	3.5	7581787	86	2359
2026-01-12 02:12:05.50	351.75	71.53	-34.6	-46.0	3.4	7627258	86	2226
2026-01-12 02:12:05.90	351.39	71.73	-34.6	-46.5	3.5	7557983	86	2329
2026-01-12 02:12:06.31	351.01	71.94	-34.7	-45.9	3.4	7640686	86	2166
2026-01-12 02:12:06.71	350.63	72.14	-34.8	-46.4	3.5	7598419	86	2296
2026-01-12 02:12:07.11	350.24	72.34	-34.8	-45.6	3.4	7613983	86	2067
2026-01-12 02:12:07.51	349.85	72.54	-34.8	-46.2	3.5	7589111	86	2209
2026-01-12 02:12:07.91	349.44	72.73	-34.8	-45.6	3.4	7624359	86	2060
2026-01-12 02:12:08.32	349.01	72.94	-34.9	-46.1	3.5	7558898	86	2183
2026-01-12 02:12:08.72	348.58	73.13	-34.9	-45.7	3.4	7601928	86	2070
2026-01-12 02:12:09.12	348.14	73.33	-34.9	-46.2	3.5	7578430	86	2182
2026-01-12 02:12:09.52	347.69	73.53	-34.9	-46.0	3.5	7592468	86	2143
2026-01-12 02:12:09.93	347.22	73.73	-34.9	-46.4	3.5	7589263	86	2245
2026-01-12 02:12:10.33	346.75	73.92	-35.2	-46.2	3.5	7599792	87	2111
2026-01-12 02:12:10.73	346.26	74.12	-35.3	-46.6	3.2	7560119	87	2208
2026-01-12 02:12:11.13	345.76	74.31	-35.3	-46.5	3.5	7601623	87	2163
2026-01-12 02:12:11.53	345.25	74.50	-35.3	-46.0	3.4	7671813	87	2051
2026-01-12 02:12:11.93	344.73	74.69	-35.2	-46.4	3.5	7575225	87	2167
2026-01-12 02:12:12.34	344.18	74.89	-35.3	-46.1	3.4	7614898	87	2077
2026-01-12 02:12:12.74	343.62	75.08	-35.3	-46.8	3.5	7562408	87	2250
2026-01-12 02:12:13.14	343.06	75.26	-35.3	-46.4	3.4	7631378	87	2150
2026-01-12 02:12:13.54	342.47	75.45	-35.3	-46.8	3.5	7555541	87	2261
2026-01-12 02:12:13.95	341.86	75.64	-35.3	-46.3	3.4	7657470	87	2128
2026-01-12 02:12:14.35	341.24	75.83	-35.3	-46.8	3.5	7546081	87	2237
2026-01-12 02:12:14.75	340.61	76.01	-35.3	-46.2	3.4	7638854	87	2103
2026-01-12 02:12:15.15	339.96	76.19	-35.3	-46.6	3.5	7534484	87	2188
2026-01-12 02:12:15.55	339.29	76.37	-35.4	-46.1	3.4	7612457	87	2057
2026-01-12 02:12:15.96	338.59	76.55	-35.4	-46.5	3.5	7571563	87	2152
2026-01-12 02:12:16.36	337.89	76.73	-35.4	-46.0	3.5	7610626	87	2038
2026-01-12 02:12:16.76	337.16	76.91	-35.4	-46.4	3.5	7554473	87	2131
2026-01-12 02:12:17.16	336.42	77.08	-35.4	-46.2	3.5	7590026	87	2076
2026-01-12 02:12:17.56	335.65	77.25	-35.4	-46.6	3.4	7563018	87	2182
2026-01-12 02:12:17.97	334.84	77.42	-35.4	-46.2	3.5	7587585	87	2081
2026-01-12 02:12:18.37	334.03	77.59	-35.4	-46.7	3.3	7570648	87	2203
2026-01-12 02:12:18.77	333.20	77.76	-35.3	-46.3	3.5	7582397	87	2119
2026-01-12 02:12:19.17	332.35	77.92	-35.3	-46.1	3.4	7642059	87	2059
2026-01-12 02:12:19.57	331.47	78.08	-35.3	-46.6	3.5	7588195	87	2193
2026-01-12 02:12:19.97	330.56	78.23	-35.4	-46.2	3.4	7635040	87	2092
2026-01-12 02:12:20.38	329.61	78.39	-35.3	-46.8	3.5	7583465	87	2234
2026-01-12 02:12:20.78	328.66	78.54	-35.3	-46.2	3.4	7640533	87	2111
2026-01-12 02:12:21.18	327.68	78.69	-35.3	-46.9	3.5	7547454	87	2280
2026-01-12 02:12:21.58	326.67	78.84	-35.3	-46.5	3.4	7619934	87	2165
2026-01-12 02:12:21.98	325.64	78.98	-35.3	-47.1	3.5	7548217	87	2330
2026-01-12 02:12:22.39	324.55	79.12	-35.3	-46.5	3.4	7603912	87	2183
2026-01-12 02:12:22.79	323.46	79.25	-35.3	-47.1	3.5	7553253	87	2340
2026-01-12 02:12:23.19	322.34	79.38	-35.3	-46.7	3.4	7632751	87	2213
2026-01-12 02:12:23.59	321.20	79.51	-35.3	-47.2	3.5	7561798	87	2339
2026-01-12 02:12:23.99	320.03	79.63	-35.3	-46.9	3.5	7620544	87	2253
2026-01-12 02:12:24.40	318.80	79.75	-35.3	-47.2	3.5	7594146	87	2351
2026-01-12 02:12:24.80	317.57	79.87	-35.3	-46.9	3.5	7611236	87	2260
2026-01-12 02:12:25.20	316.31	79.98	-35.4	-47.3	3.2	7611083	87	2367
2026-01-12 02:12:25.60	315.03	80.08	-35.4	-47.0	3.5	7592926	87	2277
2026-01-12 02:12:26.00	313.71	80.18	-35.4	-46.5	3.4	7619018	87	2162
2026-01-12 02:12:26.41	312.34	80.27	-35.4	-46.9	3.5	7592468	87	2256
2026-01-12 02:12:26.81	310.98	80.36	-35.4	-46.4	3.4	7631072	87	2110
2026-01-12 02:12:27.21	309.59	80.45	-35.4	-46.7	3.5	7597961	87	2203
2026-01-12 02:12:27.61	308.18	80.52	-35.4	-46.4	3.4	7624511	87	2110
2026-01-12 02:12:28.02	306.70	80.60	-35.5	-46.5	3.5	7600860	88	2122
2026-01-12 02:12:28.42	305.24	80.66	-35.5	-46.1	3.4	7641296	88	2040
2026-01-12 02:12:28.82	303.77	80.72	-35.5	-46.7	3.5	7584686	88	2160
2026-01-12 02:12:29.22	302.27	80.78	-35.5	-46.2	3.4	7623748	88	2045
2026-01-12 02:12:29.62	300.76	80.82	-35.5	-46.6	3.5	7581634	88	2165
2026-01-12 02:12:30.03	299.19	80.87	-35.4	-46.2	3.4	7621307	88	2052
2026-01-12 02:12:30.43	297.65	80.90	-35.5	-46.7	3.5	7614746	88	2164
2026-01-12 02:12:30.83	296.10	80.93	-35.5	-46.2	3.4	7604675	88	2043
2026-01-12 02:12:31.23	294.53	80.95	-35.4	-46.6	3.5	7587738	88	2155
2026-01-12 02:12:31.63	292.97	80.96	-35.5	-46.2	3.5	7609100	88	2069
2026-01-12 02:12:32.03	291.40	80.97	-35.4	-46.7	3.5	7569122	88	2176
2026-01-12 02:12:32.44	289.78	80.97	-35.4	-46.3	3.5	7578735	88	2090
2026-01-12 02:12:32.84	288.21	80.97	-35.4	-46.6	3.2	7591705	88	2172
2026-01-12 02:12:33.24	286.64	80.95	-35.5	-46.4	3.5	7597808	88	2113
2026-01-12 02:12:33.64	285.08	80.93	-35.5	-46.0	3.4	7643890	88	1991
2026-01-12 02:12:34.04	283.53	80.91	-35.5	-46.5	3.5	7586517	88	2116
2026-01-12 02:12:34.45	281.94	80.87	-35.5	-46.0	3.4	7676239	88	1995
2026-01-12 02:12:34.85	280.41	80.84	-35.5	-46.5	3.5	7551574	88	2119
2026-01-12 02:12:35.25	278.89	80.79	-35.6	-46.0	3.4	7616271	88	1987
2026-01-12 02:12:35.65	277.39	80.74	-35.6	-46.7	3.5	7565460	88	2150
2026-01-12 02:12:36.05	275.91	80.68	-35.5	-46.1	3.4	7589416	88	2033
2026-01-12 02:12:36.45	274.44	80.62	-35.5	-46.6	3.5	7589111	88	2144
2026-01-12 02:12:36.86	272.96	80.54	-35.5	-46.1	3.4	7601318	88	2012
2026-01-12 02:12:37.26	271.54	80.47	-35.5	-46.5	3.5	7574005	88	2124
2026-01-12 02:12:37.66	270.15	80.39	-35.5	-46.0	3.4	7642364	88	2000
2026-01-12 02:12:38.06	268.78	80.30	-35.5	-46.4	3.5	7570495	88	2093
2026-01-12 02:12:38.46	267.43	80.21	-35.4	-46.0	3.4	7595214	88	2013
2026-01-12 02:12:38.87	266.08	80.11	-35.5	-46.4	3.5	7560882	88	2097
2026-01-12 02:12:39.27	264.79	80.00	-35.4	-45.9	3.5	7591857	88	1990
2026-01-12 02:12:39.67	263.52	79.90	-35.4	-46.2	3.5	7546997	88	2081
2026-01-12 02:12:40.07	262.28	79.78	-35.4	-46.0	3.5	7604827	88	2019
2026-01-12 02:12:40.47	261.07	79.67	-35.4	-46.3	3.2	7552490	88	2086
2026-01-12 02:12:40.88	259.86	79.54	-35.4	-46.0	3.5	7607574	88	2017
2026-01-12 02:12:41.28	258.71	79.42	-35.4	-45.6	3.4	7619781	88	1919
2026-01-12 02:12:41.68	257.59	79.29	-35.4	-46.1	3.5	7634887	88	2046
2026-01-12 02:12:42.08	256.49	79.15	-35.4	-45.7	3.4	7634887	88	1942
2026-01-12 02:12:42.48	255.42	79.02	-35.4	-46.2	3.5	7583007	88	2064
2026-01-12 02:12:42.89	254.35	78.87	-35.4	-45.7	3.4	7646026	88	1946
2026-01-12 02:12:43.29	253.34	78.73	-35.5	-46.4	3.5	7552337	88	2118
2026-01-12 02:12:43.69	252.35	78.58	-35.4	-46.0	3.4	7606658	88	2030
2026-01-12 02:12:44.09	251.39	78.43	-35.4	-46.4	3.5	7587280	88	2121
2026-01-12 02:12:44.49	250.45	78.28	-35.4	-45.8	3.4	7637939	88	1992
2026-01-12 02:12:44.90	249.52	78.12	-35.3	-46.5	3.5	7601776	88	2157
2026-01-12 02:12:45.30	248.63	77.96	-35.3	-46.0	3.4	7610931	88	2048
2026-01-12 02:12:45.70	247.77	77.80	-35.3	-46.4	3.5	7569274	88	2146
2026-01-12 02:12:46.10	246.93	77.63	-35.3	-46.2	3.5	7592620	88	2089
2026-01-12 02:12:46.50	246.12	77.47	-35.3	-46.5	3.4	7575683	88	2184
2026-01-12 02:12:46.91	245.30	77.29	-35.2	-46.1	3.5	7630920	88	2088
2026-01-12 02:12:47.31	244.53	77.12	-35.2	-46.4	3.5	7584228	88	2184
2026-01-12 02:12:47.71	243.78	76.95	-35.1	-46.3	3.5	7613220	88	2156
2026-01-12 02:12:48.11	243.05	76.78	-35.2	-46.8	3.3	7563476	88	2281
2026-01-12 02:12:48.52	242.32	76.59	-35.1	-46.5	3.5	7595214	88	2210
2026-01-12 02:12:48.92	241.63	76.42	-35.1	-46.1	3.4	7627868	88	2110
2026-01-12 02:12:49.32	240.96	76.24	-35.2	-46.4	3.5	7559967	88	2181
2026-01-12 02:12:49.72	240.30	76.06	-35.2	-45.8	3.4	7599182	88	2043
2026-01-12 02:12:50.13	239.65	75.87	-35.1	-46.4	3.5	7578277	88	2190
2026-01-12 02:12:50.53	239.03	75.68	-35.2	-45.7	3.4	7635498	88	2012
2026-01-12 02:12:50.93	238.43	75.50	-35.1	-46.2	3.5	7564849	88	2139
2026-01-12 02:12:51.33	237.84	75.31	-35.1	-45.8	3.4	7619628	88	2049
2026-01-12 02:12:51.73	237.27	75.12	-35.1	-46.3	3.5	7536163	88	2161
2026-01-12 02:12:52.14	236.70	74.93	-35.1	-45.6	3.4	7608947	88	2004
2026-01-12 02:12:52.54	236.15	74.74	-35.1	-46.0	3.5	7621154	88	2111
2026-01-12 02:12:52.94	235.63	74.55	-35.1	-45.3	3.5	7579345	88	1950
2026-01-12 02:12:53.34	235.11	74.35	-35.1	-45.6	3.5	7600250	88	2022
2026-01-12 02:12:53.74	234.61	74.16	-35.0	-45.4	3.5	7602844	88	1963
2026-01-12 02:12:54.14	234.12	73.97	-35.0	-45.6	3.5	7537078	88	2028
2026-01-12 02:12:54.55	233.63	73.77	-35.0	-45.2	3.5	7589111	88	1944
2026-01-12 02:12:54.95	233.17	73.57	-35.0	-45.5	3.2	7551879	88	1997
2026-01-12 02:12:55.35	232.71	73.38	-35.0	-45.2	3.5	7621154	88	1938
2026-01-12 02:12:55.75	232.27	73.18	-35.0	-44.8	3.4	7622985	88	1849
2026-01-12 02:12:56.15	231.84	72.98	-34.9	-45.2	3.5	7577972	88	1963
2026-01-12 02:12:56.56	231.41	72.78	-34.9	-44.7	3.4	7602386	88	1843
2026-01-12 02:12:56.96	231.00	72.58	-35.0	-45.3	3.5	7623748	88	1960
2026-01-12 02:12:57.36	230.60	72.38	-34.9	-44.9	3.4	7627868	88	1880
2026-01-12 02:12:57.76	230.21	72.18	-34.9	-45.6	3.5	7600250	88	2055
2026-01-12 02:12:58.16	229.83	71.98	-34.9	-45.1	3.4	7640533	88	1935
2026-01-12 02:12:58.57	229.44	71.78	-34.8	-45.6	3.5	7592620	88	2063
2026-01-12 02:12:58.97	229.08	71.58	-34.8	-45.3	3.4	7595672	88	2016
2026-01-12 02:12:59.37	228.72	71.37	-34.8	-46.3	3.5	7591552	87	2236
2026-01-12 02:12:59.77	228.38	71.17	-34.8	-45.7	3.5	7608337	87	2084
2026-01-12 02:13:00.17	228.04	70.97	-34.8	-46.0	3.5	7562255	87	2152
2026-01-12 02:13:00.58	227.70	70.77	-34.8	-45.3	3.4	7645263	87	1996
2026-01-12 02:13:00.98	227.37	70.56	-34.8	-45.6	3.5	7619171	87	2059
2026-01-12 02:13:01.38	227.05	70.36	-34.8	-45.3	3.5	7627868	87	2012

#Closed at: 2026-01-12 02:13:01