passes_logs/2026/01/12/XPeterburg/XPeterburg__20260112_003635_SUOMI_NPP_rec.log

#Pass ID: 20260112_003635_SUOMI NPP
#Satellite: SUOMI NPP
#Configuration: NPP
#Start time: 2026-01-12 00:36:29

#Version: 1.5.20200625
#Station: XPeterburg
#Location: 30.318091 lon 59.932769 lat
#TLE: 1 37849U 11061A   25356.63219598  .00000089  00000+0  63407-4 0  9994
#TLE: 2 37849  98.7787 293.8852 0002488 103.0781 257.0673 14.19516903733392

#Time	Az	El	Level	Level2	SNR	BER	Gain	Gain2
2026-01-12 00:36:29.39	4.01	67.35	-37.9	-43.2	3.3	15341712	94	2262
2026-01-12 00:36:29.79	3.87	67.53	-37.6	-43.4	4.0	14908287	92	2399
2026-01-12 00:36:30.19	3.72	67.70	-37.6	-42.5	3.8	14254493	92	2178
2026-01-12 00:36:30.59	3.57	67.87	-37.6	-43.6	3.9	14444061	92	2460
2026-01-12 00:36:31.00	3.42	68.05	-37.6	-42.5	3.9	13989593	92	2169
2026-01-12 00:36:31.40	3.26	68.22	-37.3	-40.9	4.2	13989593	92	1862
2026-01-12 00:36:31.80	3.10	68.40	-37.0	-39.8	4.7	11637710	92	1700
2026-01-12 00:36:32.20	2.94	68.57	-36.8	-39.1	5.0	8127304	92	1611
2026-01-12 00:36:32.60	2.78	68.75	-36.6	-38.9	5.6	6766448	91	1617
2026-01-12 00:36:33.01	2.61	68.93	-36.6	-39.1	5.6	4056770	91	1645
2026-01-12 00:36:33.41	2.44	69.10	-36.3	-38.3	5.9	3545989	91	1535
2026-01-12 00:36:33.81	2.27	69.27	-36.8	-39.9	5.2	3548240	91	1751
2026-01-12 00:36:34.21	2.09	69.45	-37.3	-41.4	4.5	5293022	91	1986
2026-01-12 00:36:34.61	1.92	69.63	-37.5	-41.9	3.9	9394454	92	2046
2026-01-12 00:36:35.02	1.73	69.80	-37.9	-45.3	3.7	14115325	92	2883
2026-01-12 00:36:35.42	1.54	69.98	-38.2	-45.4	3.3	15123100	93	2823
2026-01-12 00:36:35.82	1.35	70.16	-38.3	-47.2	3.6	15196121	93	3446
2026-01-12 00:36:36.22	1.16	70.33	-38.3	-46.1	3.4	15196121	93	3032
2026-01-12 00:36:36.62	0.96	70.51	-38.2	-46.7	3.6	15171974	93	3285
2026-01-12 00:36:37.03	0.76	70.69	-38.0	-44.7	3.4	15186103	93	2662
2026-01-12 00:36:37.43	0.55	70.86	-38.0	-45.4	3.6	15177612	93	2894
2026-01-12 00:36:37.83	0.35	71.04	-38.0	-44.1	3.5	15155593	93	2491
2026-01-12 00:36:38.23	0.13	71.22	-38.0	-45.2	3.6	15117034	93	2826
2026-01-12 00:36:38.63	359.92	71.39	-38.0	-44.1	3.6	15096176	93	2489
2026-01-12 00:36:39.04	359.69	71.57	-38.0	-45.0	3.6	15079551	93	2767
2026-01-12 00:36:39.44	359.46	71.75	-38.0	-44.3	3.6	15061119	93	2544
2026-01-12 00:36:39.84	359.23	71.92	-38.0	-45.4	3.3	15044502	93	2868
2026-01-12 00:36:40.24	359.00	72.10	-38.1	-45.2	3.6	15058685	93	2776
2026-01-12 00:36:40.64	358.76	72.28	-38.1	-44.6	3.4	15147209	93	2587
2026-01-12 00:36:41.05	358.50	72.46	-38.2	-45.6	3.5	15101387	93	2899
2026-01-12 00:36:41.45	358.25	72.63	-38.2	-45.0	3.4	15222824	93	2692
2026-01-12 00:36:41.85	358.00	72.81	-38.2	-46.3	3.6	15222824	93	3122
2026-01-12 00:36:42.25	357.73	72.99	-38.2	-45.2	3.4	15105575	93	2762
2026-01-12 00:36:42.65	357.47	73.16	-38.2	-46.5	3.6	15238601	93	3196
2026-01-12 00:36:43.05	357.19	73.34	-38.2	-45.5	3.4	15091247	93	2853
2026-01-12 00:36:43.46	356.90	73.52	-38.2	-46.9	3.6	15270256	93	3322
2026-01-12 00:36:43.86	356.62	73.69	-38.3	-45.9	3.4	15105468	93	2958
2026-01-12 00:36:44.26	356.32	73.87	-38.3	-47.1	3.6	15274909	93	3378
2026-01-12 00:36:44.66	356.02	74.04	-38.5	-46.1	3.4	15065208	94	2964
2026-01-12 00:36:45.06	355.72	74.22	-38.5	-46.7	3.6	15216796	95	3162
2026-01-12 00:36:45.47	355.40	74.40	-38.5	-45.8	3.4	15086875	95	2850
2026-01-12 00:36:45.87	355.07	74.57	-38.6	-46.6	3.4	15275611	95	3090
2026-01-12 00:36:46.27	354.74	74.75	-38.6	-45.8	3.5	15275611	95	2816
2026-01-12 00:36:46.67	354.41	74.92	-38.6	-44.7	3.3	15095092	95	2504
2026-01-12 00:36:47.08	354.05	75.10	-38.6	-45.5	3.5	15263023	95	2726
2026-01-12 00:36:47.48	353.70	75.27	-38.6	-44.4	3.4	15100082	95	2416
2026-01-12 00:36:47.88	353.33	75.45	-38.9	-46.3	3.6	15247810	95	2885
2026-01-12 00:36:48.28	352.96	75.62	-38.9	-45.5	3.4	15069618	95	2612
2026-01-12 00:36:48.68	352.58	75.79	-38.8	-46.2	3.6	15218566	95	2895
2026-01-12 00:36:49.09	352.18	75.97	-38.8	-45.1	3.4	15113327	95	2551
2026-01-12 00:36:49.49	351.78	76.14	-38.8	-46.5	3.6	15241394	95	3009
2026-01-12 00:36:49.89	351.36	76.31	-38.8	-45.2	3.4	15131568	95	2580
2026-01-12 00:36:50.29	350.94	76.48	-38.7	-46.4	3.6	15240051	95	2968
2026-01-12 00:36:50.69	350.51	76.65	-38.7	-45.3	3.4	15143920	95	2611
2026-01-12 00:36:51.10	350.05	76.83	-38.7	-46.6	3.6	15221298	95	3033
2026-01-12 00:36:51.50	349.59	76.99	-38.7	-45.7	3.4	15157402	95	2735
2026-01-12 00:36:51.90	349.12	77.16	-38.7	-46.7	3.6	15157402	95	3090
2026-01-12 00:36:52.30	348.64	77.33	-38.8	-46.0	3.4	15222938	95	2842
2026-01-12 00:36:52.71	348.13	77.50	-38.7	-46.9	3.6	15160064	95	3143
2026-01-12 00:36:53.11	347.62	77.67	-38.7	-46.1	3.4	15213088	95	2890
2026-01-12 00:36:53.51	347.09	77.83	-38.7	-46.9	3.4	15172904	95	3166
2026-01-12 00:36:53.91	346.55	78.00	-38.8	-46.5	3.5	15201644	95	2991
2026-01-12 00:36:54.31	345.99	78.16	-38.8	-45.9	3.3	15181106	95	2786
2026-01-12 00:36:54.72	345.41	78.33	-38.9	-46.9	3.5	15177993	96	3090
2026-01-12 00:36:55.12	344.82	78.49	-38.9	-46.1	3.4	15158027	96	2811
2026-01-12 00:36:55.52	344.21	78.65	-38.7	-47.2	3.6	15135658	95	3248
2026-01-12 00:36:55.92	343.59	78.81	-38.7	-46.3	3.4	15201713	95	2924
2026-01-12 00:36:56.32	342.95	78.97	-38.7	-47.2	3.6	15201713	95	3269
2026-01-12 00:36:56.73	342.27	79.13	-38.7	-46.1	3.4	15145851	95	2880
2026-01-12 00:36:57.13	341.59	79.28	-38.7	-47.5	3.6	15226104	95	3363
2026-01-12 00:36:57.53	340.89	79.44	-38.8	-46.6	3.4	15135200	95	3020
2026-01-12 00:36:57.93	340.16	79.59	-38.8	-47.5	3.6	15222320	95	3359
2026-01-12 00:36:58.33	339.42	79.74	-38.8	-46.2	3.4	15137840	95	2888
2026-01-12 00:36:58.73	338.65	79.89	-38.8	-47.0	3.6	15252609	95	3187
2026-01-12 00:36:59.14	337.84	80.04	-38.9	-46.0	3.4	15085906	95	2777
2026-01-12 00:36:59.54	337.03	80.19	-38.7	-46.0	3.6	15238784	95	2875
2026-01-12 00:36:59.94	336.19	80.33	-38.8	-45.2	3.5	15029243	96	2568
2026-01-12 00:37:00.34	335.32	80.47	-38.7	-45.9	3.0	15251785	95	2826
2026-01-12 00:37:00.74	334.43	80.61	-38.7	-45.4	3.5	15064002	95	2668
2026-01-12 00:37:01.15	333.49	80.75	-38.7	-44.6	3.4	15231369	95	2431
2026-01-12 00:37:01.55	332.54	80.89	-38.7	-45.7	3.5	15096427	95	2744
2026-01-12 00:37:01.95	331.56	81.02	-38.8	-45.0	3.4	15096427	95	2510
2026-01-12 00:37:02.35	330.56	81.15	-38.8	-46.0	3.6	15248802	95	2821
2026-01-12 00:37:02.75	329.52	81.28	-38.8	-45.1	3.4	15092941	95	2542
2026-01-12 00:37:03.16	328.43	81.41	-38.8	-46.4	3.6	15261238	95	2957
2026-01-12 00:37:03.56	327.33	81.53	-38.9	-45.7	3.4	15083427	95	2685
2026-01-12 00:37:03.96	326.19	81.65	-38.9	-46.9	3.6	15276374	95	3104
2026-01-12 00:37:04.36	325.03	81.76	-38.9	-45.8	3.4	15106803	95	2737
2026-01-12 00:37:04.76	323.83	81.87	-38.9	-47.2	3.6	15259315	95	3172
2026-01-12 00:37:05.16	322.60	81.98	-39.1	-46.1	3.4	15071334	96	2753
2026-01-12 00:37:05.57	321.31	82.09	-38.9	-46.9	3.6	15254623	96	3070
2026-01-12 00:37:05.97	320.01	82.19	-39.0	-46.3	3.5	15088768	96	2869
2026-01-12 00:37:06.37	318.68	82.29	-39.0	-47.1	3.5	15088768	96	3146
2026-01-12 00:37:06.77	317.31	82.38	-39.0	-46.6	3.5	15269912	96	2937
2026-01-12 00:37:07.17	315.91	82.47	-39.0	-45.8	3.3	15122589	96	2680
2026-01-12 00:37:07.58	314.45	82.55	-38.9	-46.5	3.5	15256370	96	2929
2026-01-12 00:37:07.98	312.98	82.63	-38.9	-45.5	3.3	15117752	96	2625
2026-01-12 00:37:08.38	311.49	82.70	-38.9	-46.0	3.5	15257759	96	2813
2026-01-12 00:37:08.78	309.97	82.77	-38.9	-45.2	3.4	15124473	96	2543
2026-01-12 00:37:09.18	308.41	82.84	-38.9	-46.4	3.6	15241493	96	2918
2026-01-12 00:37:09.59	306.79	82.90	-38.9	-45.5	3.4	15126441	96	2635
2026-01-12 00:37:09.99	305.19	82.95	-38.9	-46.8	3.6	15233123	96	3041
2026-01-12 00:37:10.39	303.56	83.00	-38.9	-45.8	3.4	15147781	96	2709
2026-01-12 00:37:10.79	301.91	83.04	-38.9	-46.9	3.6	15222450	96	3088
2026-01-12 00:37:11.19	300.24	83.07	-38.9	-45.7	3.4	15151046	96	2705
2026-01-12 00:37:11.60	298.52	83.10	-38.9	-46.8	3.6	15210189	96	3050
2026-01-12 00:37:12.00	296.82	83.13	-38.8	-45.4	3.4	15210189	96	2612
2026-01-12 00:37:12.40	295.11	83.15	-38.8	-46.6	3.6	15165908	96	2987
2026-01-12 00:37:12.80	293.40	83.16	-39.0	-46.2	3.5	15200897	96	2795
2026-01-12 00:37:13.20	291.68	83.16	-38.8	-46.6	3.6	15135948	96	2988
2026-01-12 00:37:13.60	289.96	83.16	-38.8	-45.9	3.5	15143241	96	2782
2026-01-12 00:37:14.01	288.20	83.15	-38.9	-46.9	3.5	15186401	96	3095
2026-01-12 00:37:14.41	286.49	83.14	-38.9	-46.3	3.5	15172729	96	2905
2026-01-12 00:37:14.81	284.78	83.12	-38.9	-45.7	3.3	15194801	96	2688
2026-01-12 00:37:15.21	283.09	83.10	-38.9	-46.5	3.5	15162132	96	2964
2026-01-12 00:37:15.62	281.36	83.07	-38.8	-45.5	3.3	15221786	96	2643
2026-01-12 00:37:16.02	279.70	83.03	-39.0	-47.0	3.6	15117729	96	3099
2026-01-12 00:37:16.42	278.06	82.99	-39.0	-45.9	3.4	15117729	96	2722
2026-01-12 00:37:16.82	276.43	82.94	-38.8	-46.9	3.6	15228012	96	3122
2026-01-12 00:37:17.22	274.83	82.88	-38.8	-45.9	3.4	15102485	96	2771
2026-01-12 00:37:17.62	273.26	82.82	-38.9	-47.3	3.6	15241371	96	3239
2026-01-12 00:37:18.03	271.68	82.76	-38.9	-46.3	3.4	15160499	96	2900
2026-01-12 00:37:18.43	270.16	82.69	-38.9	-47.4	3.6	15233306	96	3281
2026-01-12 00:37:18.83	268.67	82.61	-38.9	-46.3	3.4	15147521	96	2889
2026-01-12 00:37:19.24	267.18	82.53	-38.9	-47.3	3.6	15239685	96	3237
2026-01-12 00:37:19.64	265.76	82.45	-38.9	-46.4	3.4	15123962	96	2909
2026-01-12 00:37:20.04	264.37	82.36	-38.9	-47.3	3.6	15253837	96	3239
2026-01-12 00:37:20.44	263.01	82.26	-38.9	-46.5	3.5	15121421	96	2957
2026-01-12 00:37:20.84	261.69	82.17	-38.9	-47.2	3.2	15264450	96	3221
2026-01-12 00:37:21.25	260.36	82.06	-38.9	-46.6	3.5	15113121	96	2998
2026-01-12 00:37:21.65	259.11	81.96	-38.8	-45.7	3.3	15276496	96	2724
2026-01-12 00:37:22.05	257.89	81.85	-38.8	-46.5	3.5	15276496	96	2985
2026-01-12 00:37:22.45	256.70	81.73	-38.9	-45.6	3.4	15096984	96	2667
2026-01-12 00:37:22.85	255.54	81.62	-38.9	-46.5	3.6	15276092	96	2967
2026-01-12 00:37:23.26	254.39	81.50	-38.9	-45.6	3.4	15091880	96	2653
2026-01-12 00:37:23.66	253.30	81.37	-39.1	-47.1	3.5	15274780	96	3113
2026-01-12 00:37:24.06	252.24	81.25	-39.0	-46.0	3.4	15062438	96	2728
2026-01-12 00:37:24.46	251.21	81.12	-38.8	-46.7	3.6	15230575	96	3035
2026-01-12 00:37:24.86	250.21	80.99	-38.8	-45.5	3.4	15098106	96	2669
2026-01-12 00:37:25.27	249.22	80.85	-38.8	-46.6	3.6	15241714	96	3014
2026-01-12 00:37:25.67	248.28	80.72	-38.8	-46.1	3.4	15122756	95	2852
2026-01-12 00:37:26.07	247.36	80.58	-38.8	-47.1	3.6	15239723	95	3217
2026-01-12 00:37:26.47	246.48	80.44	-38.8	-46.1	3.4	15239723	95	2870
2026-01-12 00:37:26.87	245.62	80.29	-38.8	-46.9	3.6	15128837	95	3131
2026-01-12 00:37:27.27	244.78	80.15	-38.9	-46.4	3.4	15240074	95	2917
2026-01-12 00:37:27.68	243.96	80.00	-38.7	-46.7	2.9	15106826	95	3088
2026-01-12 00:37:28.08	243.17	79.85	-38.7	-46.1	3.5	15180961	95	2880
2026-01-12 00:37:28.48	242.41	79.70	-38.7	-46.5	3.3	15147338	95	3019
2026-01-12 00:37:28.88	241.67	79.55	-38.7	-46.0	3.5	15212646	95	2849
2026-01-12 00:37:29.28	240.95	79.40	-38.7	-45.2	3.3	15169342	95	2597
2026-01-12 00:37:29.69	240.24	79.24	-38.7	-46.0	3.5	15197212	95	2871
2026-01-12 00:37:30.09	239.56	79.08	-38.6	-45.0	3.3	15180015	95	2572
2026-01-12 00:37:30.49	238.91	78.93	-38.6	-45.8	3.6	15181861	95	2816
2026-01-12 00:37:30.89	238.27	78.77	-38.6	-44.7	3.4	15191215	95	2479
2026-01-12 00:37:31.29	237.65	78.61	-38.7	-46.1	3.1	15174232	95	2877
2026-01-12 00:37:31.70	237.03	78.44	-38.7	-44.9	3.4	15149246	95	2509
2026-01-12 00:37:32.10	236.45	78.28	-38.4	-45.3	3.6	15149246	95	2700
2026-01-12 00:37:32.50	235.88	78.12	-38.6	-44.7	3.4	15129859	95	2472
2026-01-12 00:37:32.90	235.33	77.95	-38.3	-44.9	3.6	15154144	95	2613
2026-01-12 00:37:33.30	234.79	77.79	-38.3	-44.0	3.4	15139297	95	2366
2026-01-12 00:37:33.70	234.27	77.62	-38.3	-44.7	3.3	15167839	95	2571
2026-01-12 00:37:34.11	233.75	77.45	-38.0	-44.0	3.5	15178085	94	2458
2026-01-12 00:37:34.51	233.26	77.28	-37.9	-43.1	3.4	15164009	94	2220
2026-01-12 00:37:34.91	232.78	77.12	-37.9	-43.9	3.7	15143226	94	2448
2026-01-12 00:37:35.31	232.31	76.95	-37.9	-42.8	3.6	14994476	94	2170
2026-01-12 00:37:35.72	231.84	76.77	-37.8	-44.1	3.9	14954605	93	2525
2026-01-12 00:37:36.12	231.40	76.60	-37.7	-42.8	3.8	14243995	93	2198
2026-01-12 00:37:36.52	230.97	76.43	-37.7	-44.0	3.7	14243995	93	2532
2026-01-12 00:37:36.92	230.55	76.26	-37.7	-43.0	4.0	14181907	93	2265
2026-01-12 00:37:37.32	230.14	76.09	-37.7	-42.4	3.9	13823120	93	2138
2026-01-12 00:37:37.73	229.73	75.91	-37.7	-42.7	3.8	13623390	93	2180
2026-01-12 00:37:38.13	229.34	75.74	-37.8	-44.3	3.7	13956413	93	2616
2026-01-12 00:37:38.53	228.96	75.57	-37.7	-43.1	3.9	14538673	93	2306
2026-01-12 00:37:38.93	228.59	75.40	-37.5	-41.9	4.1	13684249	93	2039
2026-01-12 00:37:39.33	228.23	75.22	-37.4	-41.4	4.3	11804840	93	1939
2026-01-12 00:37:39.74	227.87	75.04	-37.3	-40.8	4.5	8929695	93	1835
2026-01-12 00:37:40.14	227.52	74.87	-37.3	-40.8	4.5	7857162	93	1833
2026-01-12 00:37:40.54	227.19	74.70	-37.4	-41.0	4.4	8258331	93	1859
2026-01-12 00:37:40.94	226.86	74.52	-37.4	-40.9	4.3	8600814	93	1843
2026-01-12 00:37:41.34	226.54	74.35	-37.3	-40.8	4.3	8767356	93	1829
2026-01-12 00:37:41.74	226.23	74.17	-37.3	-41.0	4.4	8571495	92	1890
2026-01-12 00:37:42.15	225.91	73.99	-37.0	-40.1	4.7	8571495	92	1760
2026-01-12 00:37:42.55	225.61	73.82	-37.0	-40.3	4.7	7479133	92	1783
2026-01-12 00:37:42.95	225.32	73.64	-37.1	-40.4	4.6	6692115	92	1799
2026-01-12 00:37:43.35	225.04	73.46	-37.0	-40.1	4.7	7240562	92	1750
2026-01-12 00:37:43.75	224.76	73.29	-37.0	-39.9	4.7	6931594	92	1721
2026-01-12 00:37:44.16	224.48	73.11	-37.1	-40.5	4.5	7191299	92	1814
2026-01-12 00:37:44.56	224.21	72.93	-37.2	-41.0	4.3	7870628	92	1907
2026-01-12 00:37:44.96	223.95	72.75	-37.4	-41.9	3.9	10376853	92	2056
2026-01-12 00:37:45.36	223.70	72.58	-37.6	-42.7	3.7	13807914	92	2218
2026-01-12 00:37:45.76	223.45	72.40	-37.8	-44.6	3.7	14800140	92	2720
2026-01-12 00:37:46.16	223.20	72.23	-37.8	-43.6	3.5	15027557	92	2402
2026-01-12 00:37:46.57	222.96	72.04	-37.8	-44.4	3.7	15027557	92	2644
2026-01-12 00:37:46.97	222.72	71.87	-37.6	-42.4	3.7	15008796	92	2139
2026-01-12 00:37:47.37	222.49	71.69	-37.4	-42.6	3.8	14791748	92	2237
2026-01-12 00:37:47.77	222.27	71.52	-37.3	-41.4	4.2	14404365	92	1966
2026-01-12 00:37:48.17	222.05	71.34	-37.3	-40.8	4.1	11511566	92	1853
2026-01-12 00:37:48.58	221.82	71.16	-37.2	-40.6	4.1	11224174	92	1813
2026-01-12 00:37:48.98	221.61	70.98	-37.3	-40.8	4.3	10056159	92	1839
2026-01-12 00:37:49.38	221.40	70.81	-37.2	-40.6	4.3	9166748	92	1828
2026-01-12 00:37:49.78	221.20	70.63	-37.1	-40.4	4.7	8835212	92	1818
2026-01-12 00:37:50.18	221.00	70.45	-37.6	-42.6	3.9	6942176	92	2194

#Closed at: 2026-01-12 00:37:50