passes_logs/2025/01/29/planumMaritime01/planumMaritime01__20250129_160209_METEOR-M2_3_rec.log

#Pass ID: 20250129_160209_METEOR-M2 3
#Satellite: METEOR-M2 3
#Configuration: METEOR-M2 3
#Start time: 2025-01-29 16:02:14.726296

#LorettStation: 1.0.0 05.05.2024
#Station: planumMaritime01
#Location: 37.49445 lon 55.92918 lat
#TLE: 1 57166U 23091A   25029.16654809  .00000092  00000+0  59122-4 0  9990
#TLE: 2 57166  98.6824  87.4554 0003948 179.5250 180.5933 14.23972903 82784

#Time	Az	El	Level	SNR
2025-01-29 16:02:16.885106	95.8	10.1	-71.5	0.0
2025-01-29 16:02:18.014435	95.6	10.2	-70.1	0.0
2025-01-29 16:02:19.147348	95.5	10.3	-73.9	0.0
2025-01-29 16:02:20.278120	95.3	10.4	-72.4	0.0
2025-01-29 16:02:21.409689	95.2	10.4	-72.4	0.0
2025-01-29 16:02:22.542513	95.0	10.5	-71.2	0.0
2025-01-29 16:02:23.675783	94.9	10.6	-72.0	0.0
2025-01-29 16:02:24.808018	94.7	10.6	-70.6	0.0
2025-01-29 16:02:25.936721	94.6	10.7	-71.4	0.0
2025-01-29 16:02:27.068114	94.4	10.8	-72.8	0.0
2025-01-29 16:02:28.200373	94.3	10.9	-70.9	0.0
2025-01-29 16:02:29.331006	94.1	10.9	-70.8	0.0
2025-01-29 16:02:30.466089	94.0	11.0	-71.0	0.0
2025-01-29 16:02:31.596846	93.8	11.1	-69.5	0.0
2025-01-29 16:02:32.727740	93.7	11.1	-69.1	0.0
2025-01-29 16:02:33.857301	93.5	11.2	-69.0	0.0
2025-01-29 16:02:34.989323	93.4	11.3	-69.7	0.0
2025-01-29 16:02:36.120047	93.2	11.4	-69.7	0.0
2025-01-29 16:02:37.253420	93.1	11.4	-72.0	0.0
2025-01-29 16:02:38.391534	92.9	11.5	-72.9	0.0
2025-01-29 16:02:39.529726	92.8	11.6	-72.8	0.0
2025-01-29 16:02:40.666268	92.6	11.7	-72.5	0.0
2025-01-29 16:02:41.802384	92.4	11.7	-72.6	0.0
2025-01-29 16:02:42.936258	92.3	11.8	-74.8	0.0
2025-01-29 16:02:44.069912	92.1	11.9	-74.7	0.0
2025-01-29 16:02:45.206176	92.0	11.9	-72.1	0.0
2025-01-29 16:02:46.339665	91.8	12.0	-70.9	0.0
2025-01-29 16:02:47.476075	91.6	12.1	-72.6	0.0
2025-01-29 16:02:48.611592	91.5	12.2	-73.2	0.0
2025-01-29 16:02:49.746004	91.3	12.2	-70.7	0.0
2025-01-29 16:02:50.875566	91.1	12.3	-72.8	0.0
2025-01-29 16:02:52.009664	91.0	12.4	-72.3	0.0
2025-01-29 16:02:53.145888	90.8	12.5	-73.3	0.0
2025-01-29 16:02:54.281641	90.6	12.5	-72.5	0.0
2025-01-29 16:02:55.413091	90.5	12.6	-70.7	0.0
2025-01-29 16:02:56.547863	90.3	12.7	-75.8	0.0
2025-01-29 16:02:57.678485	90.1	12.7	-72.1	0.0
2025-01-29 16:02:58.810296	89.9	12.8	-72.7	0.0
2025-01-29 16:02:59.945904	89.8	12.9	-72.9	0.0
2025-01-29 16:03:01.077420	89.6	13.0	-74.5	0.0
2025-01-29 16:03:02.210406	89.4	13.0	-74.0	0.0
2025-01-29 16:03:03.342633	89.2	13.1	-72.7	0.0
2025-01-29 16:03:04.482634	89.1	13.2	-74.7	0.0
2025-01-29 16:03:05.616510	88.9	13.3	-73.9	0.0
2025-01-29 16:03:06.748138	88.7	13.3	-74.0	0.0
2025-01-29 16:03:07.880898	88.5	13.4	-73.8	0.0
2025-01-29 16:03:09.011305	88.4	13.5	-73.6	0.0
2025-01-29 16:03:10.140576	88.2	13.5	-74.9	0.0
2025-01-29 16:03:11.276011	88.0	13.6	-74.3	0.0
2025-01-29 16:03:12.407911	87.8	13.7	-73.3	0.0
2025-01-29 16:03:13.544659	87.6	13.8	-73.0	0.0
2025-01-29 16:03:14.677169	87.4	13.8	-74.8	0.0
2025-01-29 16:03:15.810660	87.3	13.9	-73.4	0.0
2025-01-29 16:03:16.944744	87.1	14.0	-73.8	0.0
2025-01-29 16:03:18.076406	86.9	14.0	-76.1	0.0
2025-01-29 16:03:19.210277	86.7	14.1	-75.7	0.0
2025-01-29 16:03:20.343951	86.5	14.2	-76.5	0.0
2025-01-29 16:03:21.481232	86.3	14.3	-77.0	0.0
2025-01-29 16:03:22.615088	86.1	14.3	-76.1	0.0
2025-01-29 16:03:23.744337	85.9	14.4	-76.8	0.0
2025-01-29 16:03:24.877828	85.7	14.5	-76.2	0.0
2025-01-29 16:03:26.009897	85.5	14.5	-74.8	0.0
2025-01-29 16:03:27.142240	85.4	14.6	-76.3	0.0
2025-01-29 16:03:28.274556	85.2	14.7	-74.7	0.0
2025-01-29 16:03:29.409366	85.0	14.8	-77.0	0.0
2025-01-29 16:03:30.543967	84.8	14.8	-77.2	0.0
2025-01-29 16:03:31.673212	84.6	14.9	-77.5	0.0
2025-01-29 16:03:32.802721	84.4	15.0	-75.1	0.0
2025-01-29 16:03:33.932538	84.2	15.0	-77.1	0.0
2025-01-29 16:03:35.062048	84.0	15.1	-75.5	0.0
2025-01-29 16:03:36.195249	83.8	15.2	-77.4	0.0
2025-01-29 16:03:37.326848	83.6	15.2	-77.1	0.0
2025-01-29 16:03:38.455914	83.4	15.3	-77.5	0.0
2025-01-29 16:03:39.584857	83.2	15.4	-77.1	0.0
2025-01-29 16:03:40.714152	82.9	15.4	-74.4	0.0
2025-01-29 16:03:41.845310	82.7	15.5	-73.1	0.0
2025-01-29 16:03:42.977675	82.5	15.6	-76.2	0.0
2025-01-29 16:03:44.104645	82.3	15.6	-77.4	0.0
2025-01-29 16:03:45.236088	82.1	15.7	-76.7	0.0
2025-01-29 16:03:46.371620	81.9	15.8	-77.3	0.0
2025-01-29 16:03:47.502711	81.7	15.9	-75.0	0.0
2025-01-29 16:03:48.631627	81.5	15.9	-76.2	0.0
2025-01-29 16:03:49.761250	81.3	16.0	-77.7	0.0
2025-01-29 16:03:50.891639	81.1	16.1	-73.6	0.0
2025-01-29 16:03:52.023953	80.8	16.1	-76.5	0.0
2025-01-29 16:03:53.155640	80.6	16.2	-73.1	0.0
2025-01-29 16:03:54.284190	80.4	16.3	-76.2	0.0
2025-01-29 16:03:55.410836	80.2	16.3	-75.9	0.0
2025-01-29 16:03:56.541065	80.0	16.4	-74.1	0.0
2025-01-29 16:03:57.669912	79.7	16.4	-69.5	0.0
2025-01-29 16:03:58.796131	79.5	16.5	-73.3	0.0
2025-01-29 16:03:59.923962	79.3	16.6	-74.6	0.0
2025-01-29 16:04:01.050840	79.1	16.6	-75.8	0.0
2025-01-29 16:04:02.179054	78.9	16.7	-76.0	0.0
2025-01-29 16:04:03.309240	78.6	16.8	-72.4	0.0
2025-01-29 16:04:04.442328	78.4	16.8	-74.5	0.0
2025-01-29 16:04:05.570442	78.2	16.9	-74.4	0.0
2025-01-29 16:04:06.699561	78.0	17.0	-75.3	0.0
2025-01-29 16:04:07.830746	77.7	17.0	-75.3	0.0
2025-01-29 16:04:08.959340	77.5	17.1	-74.0	0.0
2025-01-29 16:04:10.085761	77.3	17.1	-74.2	0.0
2025-01-29 16:04:11.213255	77.0	17.2	-72.5	0.0
2025-01-29 16:04:12.344758	76.8	17.3	-74.5	0.0
2025-01-29 16:04:13.474829	76.6	17.3	-71.5	0.0
2025-01-29 16:04:14.604980	76.3	17.4	-72.1	0.0
2025-01-29 16:04:15.737229	76.1	17.5	-70.0	0.0
2025-01-29 16:04:16.867470	75.9	17.5	-70.6	0.0
2025-01-29 16:04:18.004234	75.6	17.6	-71.6	0.0
2025-01-29 16:04:19.138876	75.4	17.6	-71.9	0.0
2025-01-29 16:04:20.269415	75.2	17.7	-69.7	0.0
2025-01-29 16:04:21.400548	74.9	17.8	-71.1	0.0
2025-01-29 16:04:22.530389	74.7	17.8	-73.6	0.0
2025-01-29 16:04:23.661575	74.4	17.9	-70.2	0.0
2025-01-29 16:04:24.794816	74.2	17.9	-69.5	0.0
2025-01-29 16:04:25.927446	73.9	18.0	-68.7	0.0
2025-01-29 16:04:27.059054	73.7	18.0	-71.2	0.0
2025-01-29 16:04:28.188634	73.4	18.1	-68.7	0.0
2025-01-29 16:04:29.318018	73.2	18.2	-69.8	0.0
2025-01-29 16:04:30.450824	73.0	18.2	-67.5	0.0
2025-01-29 16:04:31.579422	72.7	18.3	-69.1	0.0
2025-01-29 16:04:32.710658	72.5	18.3	-69.3	0.0
2025-01-29 16:04:33.840578	72.2	18.4	-67.5	0.0
2025-01-29 16:04:34.974834	72.0	18.4	-68.4	0.0
2025-01-29 16:04:36.106172	71.7	18.5	-71.5	0.0
2025-01-29 16:04:37.237560	71.4	18.5	-71.9	0.0
2025-01-29 16:04:38.366709	71.2	18.6	-71.2	0.0
2025-01-29 16:04:39.497798	70.9	18.6	-72.5	0.0
2025-01-29 16:04:40.631852	70.7	18.7	-69.1	0.0
2025-01-29 16:04:41.769762	70.4	18.7	-71.5	0.0
2025-01-29 16:04:42.904238	70.2	18.8	-69.9	0.0
2025-01-29 16:04:44.036968	69.9	18.8	-71.3	0.0
2025-01-29 16:04:45.169466	69.6	18.9	-64.9	0.0
2025-01-29 16:04:46.302641	69.4	18.9	-71.7	0.0
2025-01-29 16:04:47.436283	69.1	19.0	-70.5	0.0
2025-01-29 16:04:48.568824	68.9	19.0	-72.0	0.0
2025-01-29 16:04:49.701566	68.6	19.1	-68.6	0.0
2025-01-29 16:04:50.833411	68.3	19.1	-68.0	0.0
2025-01-29 16:04:51.964956	68.1	19.2	-70.6	0.0
2025-01-29 16:04:53.098936	67.8	19.2	-67.6	0.0
2025-01-29 16:04:54.233976	67.5	19.3	-70.3	0.0
2025-01-29 16:04:55.365731	67.3	19.3	-73.6	0.0
2025-01-29 16:04:56.497072	67.0	19.4	-72.3	0.0
2025-01-29 16:04:57.633244	66.7	19.4	-72.8	0.0
2025-01-29 16:04:58.766594	66.5	19.4	-70.5	0.0
2025-01-29 16:04:59.900556	66.2	19.5	-71.7	0.0
2025-01-29 16:05:01.033829	65.9	19.5	-71.2	0.0
2025-01-29 16:05:02.171289	65.7	19.6	-65.6	0.0
2025-01-29 16:05:03.304461	65.4	19.6	-70.5	0.0
2025-01-29 16:05:04.434871	65.1	19.7	-72.1	0.0
2025-01-29 16:05:05.566764	64.8	19.7	-71.2	0.0
2025-01-29 16:05:06.699964	64.6	19.7	-71.1	0.0
2025-01-29 16:05:07.837342	64.3	19.8	-69.6	0.0
2025-01-29 16:05:08.969730	64.0	19.8	-69.6	0.0
2025-01-29 16:05:10.102711	63.7	19.8	-71.6	0.0
2025-01-29 16:05:11.234201	63.5	19.9	-72.4	0.0
2025-01-29 16:05:12.364000	63.2	19.9	-71.3	0.0
2025-01-29 16:05:13.499187	62.9	20.0	-71.9	0.0
2025-01-29 16:05:14.630109	62.6	20.0	-72.0	0.0
2025-01-29 16:05:15.761342	62.3	20.0	-69.5	0.0
2025-01-29 16:05:16.895220	62.1	20.1	-69.4	0.0
2025-01-29 16:05:18.026703	61.8	20.1	-71.1	0.0
2025-01-29 16:05:19.159439	61.5	20.1	-69.5	0.0
2025-01-29 16:05:20.293857	61.2	20.2	-69.0	0.0
2025-01-29 16:05:21.425484	60.9	20.2	-71.3	0.0
2025-01-29 16:05:22.558541	60.6	20.2	-66.3	0.0
2025-01-29 16:05:23.689919	60.4	20.2	-66.9	0.0
2025-01-29 16:05:24.822323	60.1	20.3	-69.6	0.0
2025-01-29 16:05:25.958401	59.8	20.3	-70.9	0.0
2025-01-29 16:05:27.094016	59.5	20.3	-72.3	0.0
2025-01-29 16:05:28.230185	59.2	20.3	-71.1	0.0
2025-01-29 16:05:29.357880	58.9	20.4	-71.1	0.0
2025-01-29 16:05:30.490095	58.7	20.4	-70.7	0.0
2025-01-29 16:05:31.624488	58.4	20.4	-68.5	0.0
2025-01-29 16:05:32.757345	58.1	20.4	-70.1	0.0
2025-01-29 16:05:33.887660	57.8	20.5	-70.2	0.0
2025-01-29 16:05:35.023628	57.5	20.5	-70.1	0.0
2025-01-29 16:05:36.154910	57.2	20.5	-69.2	0.0
2025-01-29 16:05:37.288772	56.9	20.5	-69.6	0.0
2025-01-29 16:05:38.417455	56.6	20.6	-69.9	0.0
2025-01-29 16:05:39.551942	56.3	20.6	-71.4	0.0
2025-01-29 16:05:40.682866	56.1	20.6	-70.5	0.0
2025-01-29 16:05:41.814150	55.8	20.6	-72.2	0.0
2025-01-29 16:05:42.942668	55.5	20.6	-73.1	0.0
2025-01-29 16:05:44.074682	55.2	20.6	-73.8	0.0
2025-01-29 16:05:45.208229	54.9	20.7	-72.5	0.0
2025-01-29 16:05:46.343698	54.6	20.7	-72.7	0.0
2025-01-29 16:05:47.477753	54.3	20.7	-74.7	0.0
2025-01-29 16:05:48.608544	54.0	20.7	-73.2	0.0
2025-01-29 16:05:49.744418	53.7	20.7	-71.8	0.0
2025-01-29 16:05:50.878583	53.4	20.7	-73.5	0.0
2025-01-29 16:05:52.008877	53.1	20.7	-75.1	0.0
2025-01-29 16:05:53.143696	52.8	20.7	-74.1	0.0
2025-01-29 16:05:54.275135	52.5	20.7	-74.9	0.0
2025-01-29 16:05:55.407842	52.2	20.8	-74.6	0.0
2025-01-29 16:05:56.542807	52.0	20.8	-70.8	0.0
2025-01-29 16:05:57.678070	51.7	20.8	-72.1	0.0
2025-01-29 16:05:58.807009	51.4	20.8	-73.1	0.0
2025-01-29 16:05:59.938298	51.1	20.8	-75.1	0.0
2025-01-29 16:06:01.068827	50.8	20.8	-73.3	0.0
2025-01-29 16:06:02.199296	50.5	20.8	-72.4	0.0
2025-01-29 16:06:03.330652	50.2	20.8	-73.9	0.0
2025-01-29 16:06:04.464187	49.9	20.8	-71.2	0.0
2025-01-29 16:06:05.595959	49.6	20.8	-72.5	0.0
2025-01-29 16:06:06.727252	49.3	20.8	-72.2	0.0
2025-01-29 16:06:07.857863	49.0	20.8	-72.0	0.0
2025-01-29 16:06:08.987712	48.7	20.8	-72.4	0.0
2025-01-29 16:06:10.115576	48.4	20.8	-73.8	0.0
2025-01-29 16:06:11.245581	48.1	20.8	-71.2	0.0
2025-01-29 16:06:12.377905	47.8	20.8	-73.6	0.0
2025-01-29 16:06:13.511634	47.5	20.8	-73.2	0.0
2025-01-29 16:06:14.641157	47.3	20.8	-73.5	0.0
2025-01-29 16:06:15.774760	47.0	20.8	-74.2	0.0
2025-01-29 16:06:16.906801	46.7	20.8	-72.6	0.0
2025-01-29 16:06:18.036729	46.4	20.7	-72.7	0.0
2025-01-29 16:06:19.169990	46.1	20.7	-66.9	0.0
2025-01-29 16:06:20.301082	45.8	20.7	-67.3	0.0
2025-01-29 16:06:21.430176	45.5	20.7	-73.9	0.0
2025-01-29 16:06:22.558869	45.2	20.7	-73.4	0.0
2025-01-29 16:06:23.687440	44.9	20.7	-74.0	0.0
2025-01-29 16:06:24.814613	44.6	20.7	-68.8	0.0
2025-01-29 16:06:25.944202	44.3	20.7	-70.7	0.0
2025-01-29 16:06:27.072834	44.0	20.7	-70.1	0.0
2025-01-29 16:06:28.201987	43.7	20.6	-72.5	0.0
2025-01-29 16:06:29.329180	43.5	20.6	-72.6	0.0
2025-01-29 16:06:30.457163	43.2	20.6	-73.2	0.0
2025-01-29 16:06:31.584995	42.9	20.6	-72.0	0.0
2025-01-29 16:06:32.714472	42.6	20.6	-74.8	0.0
2025-01-29 16:06:33.843509	42.3	20.6	-74.5	0.0
2025-01-29 16:06:34.970605	42.0	20.5	-70.8	0.0
2025-01-29 16:06:36.099299	41.7	20.5	-70.8	0.0
2025-01-29 16:06:37.229010	41.4	20.5	-71.6	0.0
2025-01-29 16:06:38.358150	41.1	20.5	-72.6	0.0
2025-01-29 16:06:39.485941	40.9	20.4	-64.3	0.0
2025-01-29 16:06:40.616143	40.6	20.4	-65.5	0.0
2025-01-29 16:06:41.743660	40.3	20.4	-68.9	0.0
2025-01-29 16:06:42.873730	40.0	20.4	-67.8	0.0
2025-01-29 16:06:44.004907	39.7	20.4	-65.1	0.0
2025-01-29 16:06:45.134581	39.4	20.3	-68.6	0.0
2025-01-29 16:06:46.263121	39.1	20.3	-70.7	0.0
2025-01-29 16:06:47.395107	38.9	20.3	-71.6	0.0
2025-01-29 16:06:48.527812	38.6	20.2	-70.7	0.0
2025-01-29 16:06:49.657658	38.3	20.2	-68.9	0.0
2025-01-29 16:06:50.784916	38.0	20.2	-68.5	0.0
2025-01-29 16:06:51.915662	37.7	20.2	-70.2	0.0
2025-01-29 16:06:53.044854	37.5	20.1	-68.0	0.0
2025-01-29 16:06:54.178242	37.2	20.1	-66.6	0.0
2025-01-29 16:06:55.307200	36.9	20.1	-68.0	0.0
2025-01-29 16:06:56.438839	36.6	20.0	-69.3	0.0
2025-01-29 16:06:57.569447	36.3	20.0	-68.9	0.0
2025-01-29 16:06:58.699441	36.1	20.0	-68.6	0.0
2025-01-29 16:06:59.829705	35.8	19.9	-69.0	0.0
2025-01-29 16:07:00.958763	35.5	19.9	-69.8	0.0
2025-01-29 16:07:02.088727	35.2	19.9	-70.0	0.0
2025-01-29 16:07:03.217951	34.9	19.8	-67.7	0.0
2025-01-29 16:07:04.346788	34.7	19.8	-68.0	0.0
2025-01-29 16:07:05.477066	34.4	19.7	-70.0	0.0
2025-01-29 16:07:06.605986	34.1	19.7	-67.2	0.0
2025-01-29 16:07:07.735493	33.9	19.7	-70.5	0.0
2025-01-29 16:07:08.867573	33.6	19.6	-69.2	0.0
2025-01-29 16:07:09.999904	33.3	19.6	-68.3	0.0
2025-01-29 16:07:11.129585	33.0	19.5	-65.5	0.0
2025-01-29 16:07:12.262163	32.8	19.5	-67.8	0.0
2025-01-29 16:07:13.393849	32.5	19.5	-67.5	0.0
2025-01-29 16:07:14.525644	32.2	19.4	-67.0	0.0
2025-01-29 16:07:15.658138	32.0	19.4	-70.6	0.0
2025-01-29 16:07:16.790723	31.7	19.3	-70.0	0.0
2025-01-29 16:07:17.922120	31.4	19.3	-67.4	0.0
2025-01-29 16:07:19.053835	31.2	19.2	-64.5	0.0
2025-01-29 16:07:20.187081	30.9	19.2	-66.2	0.0
2025-01-29 16:07:21.319523	30.6	19.1	-70.3	0.0
2025-01-29 16:07:22.451769	30.4	19.1	-67.5	0.0
2025-01-29 16:07:23.586984	30.1	19.0	-70.0	0.0
2025-01-29 16:07:24.720684	29.8	19.0	-71.9	0.0
2025-01-29 16:07:25.850523	29.6	19.0	-69.1	0.0
2025-01-29 16:07:26.983831	29.3	18.9	-70.0	0.0
2025-01-29 16:07:28.116279	29.1	18.9	-70.0	0.0
2025-01-29 16:07:29.246805	28.8	18.8	-68.0	0.0
2025-01-29 16:07:30.379072	28.6	18.8	-70.2	0.0
2025-01-29 16:07:31.511056	28.3	18.7	-71.8	0.0
2025-01-29 16:07:32.645317	28.0	18.7	-72.7	0.0
2025-01-29 16:07:33.776007	27.8	18.6	-68.7	0.0
2025-01-29 16:07:34.907587	27.5	18.5	-70.2	0.0
2025-01-29 16:07:36.038269	27.3	18.5	-70.6	0.0
2025-01-29 16:07:37.170217	27.0	18.4	-71.2	0.0
2025-01-29 16:07:38.303953	26.8	18.4	-69.8	0.0
2025-01-29 16:07:39.437604	26.5	18.3	-72.1	0.0
2025-01-29 16:07:40.566929	26.3	18.3	-71.4	0.0
2025-01-29 16:07:41.698639	26.0	18.2	-72.4	0.0
2025-01-29 16:07:42.830728	25.8	18.2	-71.7	0.0
2025-01-29 16:07:43.965122	25.5	18.1	-73.7	0.0
2025-01-29 16:07:45.095509	25.3	18.1	-73.0	0.0
2025-01-29 16:07:46.226820	25.0	18.0	-71.5	0.0
2025-01-29 16:07:47.357779	24.8	17.9	-70.7	0.0
2025-01-29 16:07:48.490601	24.6	17.9	-71.7	0.0
2025-01-29 16:07:49.625193	24.3	17.8	-73.1	0.0
2025-01-29 16:07:50.760646	24.1	17.8	-74.0	0.0
2025-01-29 16:07:51.893882	23.8	17.7	-72.1	0.0
2025-01-29 16:07:53.028854	23.6	17.6	-73.2	0.0
2025-01-29 16:07:54.161570	23.4	17.6	-74.3	0.0
2025-01-29 16:07:55.298840	23.1	17.5	-74.8	0.0
2025-01-29 16:07:56.434291	22.9	17.5	-71.3	0.0
2025-01-29 16:07:57.562596	22.6	17.4	-72.4	0.0
2025-01-29 16:07:58.692111	22.4	17.3	-72.0	0.0
2025-01-29 16:07:59.824556	22.2	17.3	-71.3	0.0
2025-01-29 16:08:00.952079	22.0	17.2	-74.1	0.0
2025-01-29 16:08:02.085666	21.7	17.2	-71.9	0.0
2025-01-29 16:08:03.218087	21.5	17.1	-74.5	0.0
2025-01-29 16:08:04.349418	21.3	17.0	-73.9	0.0
2025-01-29 16:08:05.485288	21.0	17.0	-76.0	0.0
2025-01-29 16:08:06.618946	20.8	16.9	-74.5	0.0
2025-01-29 16:08:07.747858	20.6	16.8	-74.2	0.0
2025-01-29 16:08:08.878307	20.4	16.8	-75.3	0.0
2025-01-29 16:08:10.007294	20.1	16.7	-73.2	0.0
2025-01-29 16:08:11.143246	19.9	16.7	-75.8	0.0
2025-01-29 16:08:12.275250	19.7	16.6	-73.0	0.0
2025-01-29 16:08:13.407441	19.5	16.5	-73.9	0.0
2025-01-29 16:08:14.540906	19.2	16.5	-72.8	0.0
2025-01-29 16:08:15.674173	19.0	16.4	-72.7	0.0
2025-01-29 16:08:16.806296	18.8	16.3	-71.2	0.0
2025-01-29 16:08:17.938727	18.6	16.3	-72.8	0.0
2025-01-29 16:08:19.070763	18.4	16.2	-74.3	0.0
2025-01-29 16:08:20.203991	18.2	16.1	-74.4	0.0
2025-01-29 16:08:21.338055	17.9	16.1	-73.2	0.0
2025-01-29 16:08:22.469635	17.7	16.0	-73.5	0.0
2025-01-29 16:08:23.602755	17.5	15.9	-74.7	0.0
2025-01-29 16:08:24.734119	17.3	15.9	-75.2	0.0
2025-01-29 16:08:25.867334	17.1	15.8	-75.8	0.0
2025-01-29 16:08:27.000678	16.9	15.7	-72.8	0.0
2025-01-29 16:08:28.132879	16.7	15.7	-74.9	0.0
2025-01-29 16:08:29.267423	16.5	15.6	-71.7	0.0
2025-01-29 16:08:30.405606	16.3	15.5	-74.9	0.0
2025-01-29 16:08:31.542757	16.0	15.5	-74.8	0.0
2025-01-29 16:08:32.673813	15.8	15.4	-74.4	0.0
2025-01-29 16:08:33.806042	15.6	15.3	-74.9	0.0
2025-01-29 16:08:34.940380	15.4	15.3	-73.6	0.0
2025-01-29 16:08:36.076773	15.2	15.2	-74.6	0.0
2025-01-29 16:08:37.208265	15.0	15.1	-73.9	0.0
2025-01-29 16:08:38.340242	14.8	15.0	-73.9	0.0
2025-01-29 16:08:39.471835	14.6	15.0	-72.1	0.0
2025-01-29 16:08:40.601912	14.4	14.9	-74.5	0.0
2025-01-29 16:08:41.735064	14.2	14.8	-74.6	0.0
2025-01-29 16:08:42.868595	14.0	14.8	-74.6	0.0
2025-01-29 16:08:44.001271	13.8	14.7	-71.4	0.0
2025-01-29 16:08:45.137359	13.6	14.6	-72.8	0.0
2025-01-29 16:08:46.271051	13.5	14.6	-76.1	0.0
2025-01-29 16:08:47.402120	13.3	14.5	-68.4	0.0
2025-01-29 16:08:48.537689	13.1	14.4	-72.6	0.0
2025-01-29 16:08:49.669015	12.9	14.3	-70.5	0.0
2025-01-29 16:08:50.801567	12.7	14.3	-71.8	0.0
2025-01-29 16:08:51.934028	12.5	14.2	-74.1	0.0
2025-01-29 16:08:53.063676	12.3	14.1	-75.7	0.0
2025-01-29 16:08:54.195496	12.1	14.1	-74.5	0.0
2025-01-29 16:08:55.326628	11.9	14.0	-69.9	0.0
2025-01-29 16:08:56.459454	11.8	13.9	-72.3	0.0
2025-01-29 16:08:57.591648	11.6	13.8	-73.3	0.0
2025-01-29 16:08:58.722687	11.4	13.8	-71.7	0.0
2025-01-29 16:08:59.854407	11.2	13.7	-71.5	0.0
2025-01-29 16:09:00.985832	11.0	13.6	-76.0	0.0
2025-01-29 16:09:02.117544	10.8	13.6	-71.3	0.0
2025-01-29 16:09:03.247522	10.7	13.5	-75.7	0.0
2025-01-29 16:09:04.379421	10.5	13.4	-72.4	0.0
2025-01-29 16:09:05.511392	10.3	13.3	-72.4	0.0
2025-01-29 16:09:06.641040	10.1	13.3	-75.5	0.0
2025-01-29 16:09:07.772638	10.0	13.2	-76.2	0.0
2025-01-29 16:09:08.905866	9.8	13.1	-76.6	0.0
2025-01-29 16:09:10.041288	9.6	13.1	-73.0	0.0
2025-01-29 16:09:11.175319	9.4	13.0	-73.6	0.0
2025-01-29 16:09:12.306488	9.3	12.9	-74.2	0.0
2025-01-29 16:09:13.440791	9.1	12.8	-74.3	0.0
2025-01-29 16:09:14.574989	8.9	12.8	-70.7	0.0
2025-01-29 16:09:15.707748	8.7	12.7	-74.6	0.0
2025-01-29 16:09:16.843358	8.6	12.6	-72.2	0.0
2025-01-29 16:09:17.978163	8.4	12.6	-67.5	0.0
2025-01-29 16:09:19.110986	8.2	12.5	-71.0	0.0
2025-01-29 16:09:20.245209	8.1	12.4	-68.4	0.0
2025-01-29 16:09:21.376687	7.9	12.3	-73.2	0.0
2025-01-29 16:09:22.509826	7.7	12.3	-72.1	0.0
2025-01-29 16:09:23.643676	7.6	12.2	-75.7	0.0
2025-01-29 16:09:24.775327	7.4	12.1	-71.1	0.0
2025-01-29 16:09:25.908387	7.2	12.0	-70.9	0.0
2025-01-29 16:09:27.043534	7.1	12.0	-77.1	0.0
2025-01-29 16:09:28.176283	6.9	11.9	-74.6	0.0
2025-01-29 16:09:29.308051	6.8	11.8	-66.8	0.0
2025-01-29 16:09:30.444187	6.6	11.8	-70.0	0.0
2025-01-29 16:09:31.578670	6.4	11.7	-73.4	0.0
2025-01-29 16:09:32.715058	6.3	11.6	-75.1	0.0
2025-01-29 16:09:33.848986	6.1	11.5	-73.8	0.0
2025-01-29 16:09:34.986946	6.0	11.5	-74.8	0.0
2025-01-29 16:09:36.122417	5.8	11.4	-73.9	0.0
2025-01-29 16:09:37.259041	5.7	11.3	-76.5	0.0
2025-01-29 16:09:38.390357	5.5	11.2	-73.9	0.0
2025-01-29 16:09:39.526148	5.4	11.2	-72.1	0.0
2025-01-29 16:09:40.659865	5.2	11.1	-72.8	0.0
2025-01-29 16:09:41.791816	5.1	11.0	-76.3	0.0
2025-01-29 16:09:42.924502	4.9	11.0	-75.2	0.0
2025-01-29 16:09:44.059275	4.8	10.9	-70.7	0.0
2025-01-29 16:09:45.195207	4.6	10.8	-78.9	0.0
2025-01-29 16:09:46.328421	4.5	10.7	-81.7	0.0
2025-01-29 16:09:47.461070	4.3	10.7	-84.1	0.0
2025-01-29 16:09:48.595159	4.2	10.6	-84.4	0.0
2025-01-29 16:09:49.725365	4.0	10.5	-85.1	0.0
2025-01-29 16:09:50.859067	3.9	10.5	-84.9	0.0
2025-01-29 16:09:51.991743	3.7	10.4	-85.7	0.0
2025-01-29 16:09:53.125799	3.6	10.3	-85.3	0.0
2025-01-29 16:09:54.258166	3.4	10.2	-84.5	0.0
2025-01-29 16:09:55.387253	3.3	10.2	-86.2	0.0
2025-01-29 16:09:56.522025	3.2	10.1	-85.2	0.0
2025-01-29 16:09:57.654266	3.0	10.0	-85.4	0.0
#Closed at: 2025-01-29 16:02:09.731290