passes_logs/2025/01/06/SPB_Silybum_02/SPB_Silybum_02__20250106_235820_AQUA_rec.log

#Pass ID: 20250106_235820_AQUA
#Satellite: AQUA
#Configuration: AQUA
#Start time: 2025-01-06 23:58:18

#Version: 2.0.20230423
#Station: SPB_Silybum_02
#Location: 30.233357 lon 59.946436 lat
#TLE: 1 27424U 02022A   25006.18177887  .00003054  00000+0  63725-3 0  9992
#TLE: 2 27424  98.3578 322.7671 0001358 119.7965   7.4247 14.60646386206336

#Time	Az	El	Level	Level2	SNR	BER	Gain	Gain2
2025-01-06 23:58:20.49	26.03	4.03	
2025-01-06 23:58:21.72	26.12	4.11	
2025-01-06 23:58:22.95	26.22	4.18	
2025-01-06 23:58:24.18	26.32	4.26	
2025-01-06 23:58:25.42	26.42	4.34	
2025-01-06 23:58:26.64	26.52	4.42	
2025-01-06 23:58:27.88	26.62	4.50	
2025-01-06 23:58:29.11	26.72	4.57	
2025-01-06 23:58:30.35	26.82	4.65	
2025-01-06 23:58:31.58	26.93	4.73	
2025-01-06 23:58:32.81	27.03	4.81	
2025-01-06 23:58:34.05	27.13	4.89	
2025-01-06 23:58:35.28	27.24	4.97	
2025-01-06 23:58:36.51	27.34	5.05	
2025-01-06 23:58:37.75	27.45	5.13	
2025-01-06 23:58:38.97	27.55	5.21	
2025-01-06 23:58:40.21	27.66	5.29	
2025-01-06 23:58:41.44	27.76	5.37	
2025-01-06 23:58:42.67	27.87	5.45	
2025-01-06 23:58:43.90	27.98	5.53	
2025-01-06 23:58:45.13	28.09	5.61	
2025-01-06 23:58:46.36	28.20	5.69	
2025-01-06 23:58:47.59	28.31	5.77	
2025-01-06 23:58:48.82	28.42	5.85	
2025-01-06 23:58:50.05	28.53	5.93	
2025-01-06 23:58:51.29	28.64	6.02	
2025-01-06 23:58:52.52	28.75	6.10	
2025-01-06 23:58:53.75	28.87	6.18	
2025-01-06 23:58:54.99	28.98	6.26	
2025-01-06 23:58:56.22	29.09	6.35	
2025-01-06 23:58:57.45	29.21	6.43	
2025-01-06 23:58:58.68	29.33	6.51	
2025-01-06 23:58:59.92	29.44	6.59	
2025-01-06 23:59:01.16	29.56	6.68	
2025-01-06 23:59:02.39	29.68	6.76	
2025-01-06 23:59:03.62	29.80	6.85	
2025-01-06 23:59:04.85	29.92	6.93	
2025-01-06 23:59:06.08	30.04	7.01	
2025-01-06 23:59:07.31	30.16	7.10	
2025-01-06 23:59:08.55	30.28	7.18	
2025-01-06 23:59:09.79	30.40	7.27	
2025-01-06 23:59:11.03	30.53	7.36	
2025-01-06 23:59:12.26	30.65	7.44	
2025-01-06 23:59:13.50	30.77	7.53	
2025-01-06 23:59:14.73	30.90	7.61	
2025-01-06 23:59:15.96	31.03	7.70	
2025-01-06 23:59:17.19	31.15	7.78	
2025-01-06 23:59:18.42	31.28	7.87	
2025-01-06 23:59:19.65	31.41	7.96	
2025-01-06 23:59:20.88	31.54	8.04	
2025-01-06 23:59:22.12	31.67	8.13	
2025-01-06 23:59:23.35	31.80	8.22	
2025-01-06 23:59:24.60	31.93	8.31	
2025-01-06 23:59:25.84	32.06	8.40	
2025-01-06 23:59:27.08	32.20	8.48	
2025-01-06 23:59:28.31	32.33	8.57	
2025-01-06 23:59:29.54	32.47	8.66	
2025-01-06 23:59:30.79	32.60	8.75	
2025-01-06 23:59:32.02	32.74	8.84	
2025-01-06 23:59:33.25	32.88	8.93	
2025-01-06 23:59:34.49	33.02	9.02	
2025-01-06 23:59:35.72	33.16	9.11	
2025-01-06 23:59:36.96	33.30	9.20	
2025-01-06 23:59:38.19	33.44	9.29	
2025-01-06 23:59:39.42	33.58	9.38	
2025-01-06 23:59:40.65	33.72	9.47	
2025-01-06 23:59:41.88	33.87	9.56	
2025-01-06 23:59:43.11	34.01	9.65	
2025-01-06 23:59:44.34	34.16	9.74	
2025-01-06 23:59:45.57	34.30	9.83	
2025-01-06 23:59:46.80	34.45	9.92	
2025-01-06 23:59:48.04	34.60	10.02	
2025-01-06 23:59:49.28	34.75	10.11	
2025-01-06 23:59:50.51	34.90	10.20	
2025-01-06 23:59:51.75	35.05	10.29	
2025-01-06 23:59:52.98	35.21	10.39	
2025-01-06 23:59:54.21	35.36	10.48	
2025-01-06 23:59:55.45	35.51	10.57	
2025-01-06 23:59:56.68	35.67	10.67	
2025-01-06 23:59:57.90	35.82	10.76	
2025-01-06 23:59:59.14	35.98	10.85	
2025-01-07 00:00:00.37	36.14	10.95	
2025-01-07 00:00:01.61	36.30	11.04	
2025-01-07 00:00:02.85	36.46	11.14	
2025-01-07 00:00:04.08	36.63	11.23	
2025-01-07 00:00:05.31	36.79	11.33	
2025-01-07 00:00:06.56	36.96	11.42	
2025-01-07 00:00:07.80	37.12	11.52	
2025-01-07 00:00:09.04	37.29	11.62	
2025-01-07 00:00:10.27	37.46	11.71	
2025-01-07 00:00:11.50	37.62	11.81	
2025-01-07 00:00:12.73	37.79	11.90	
2025-01-07 00:00:13.96	37.96	12.00	
2025-01-07 00:00:15.21	38.14	12.10	
2025-01-07 00:00:16.44	38.31	12.19	
2025-01-07 00:00:17.67	38.49	12.29	
2025-01-07 00:00:18.91	38.66	12.39	
2025-01-07 00:00:20.14	38.84	12.49	
2025-01-07 00:00:21.37	39.02	12.58	
2025-01-07 00:00:22.61	39.20	12.68	
2025-01-07 00:00:23.84	39.38	12.78	
2025-01-07 00:00:25.08	39.56	12.88	
2025-01-07 00:00:26.30	39.74	12.98	
2025-01-07 00:00:27.53	39.93	13.07	
2025-01-07 00:00:28.76	40.11	13.17	
2025-01-07 00:00:30.00	40.30	13.27	
2025-01-07 00:00:31.23	40.49	13.37	
2025-01-07 00:00:32.47	40.68	13.47	
2025-01-07 00:00:33.70	40.87	13.57	
2025-01-07 00:00:34.93	41.06	13.67	
2025-01-07 00:00:36.16	41.26	13.77	
2025-01-07 00:00:37.39	41.45	13.87	
2025-01-07 00:00:38.62	41.65	13.97	
2025-01-07 00:00:39.85	41.84	14.07	
2025-01-07 00:00:41.09	42.04	14.17	
2025-01-07 00:00:42.31	42.24	14.27	
2025-01-07 00:00:43.55	42.45	14.37	
2025-01-07 00:00:44.78	42.65	14.47	
2025-01-07 00:00:46.01	42.85	14.58	
2025-01-07 00:00:47.26	43.06	14.68	
2025-01-07 00:00:48.49	43.27	14.78	
2025-01-07 00:00:49.72	43.48	14.88	
2025-01-07 00:00:50.95	43.69	14.98	
2025-01-07 00:00:52.18	43.90	15.08	
2025-01-07 00:00:53.41	44.11	15.19	
2025-01-07 00:00:54.64	44.33	15.29	
2025-01-07 00:00:55.87	44.55	15.39	
2025-01-07 00:00:57.10	44.76	15.49	
2025-01-07 00:00:58.33	44.98	15.59	
2025-01-07 00:00:59.56	45.20	15.70	
2025-01-07 00:01:00.80	45.43	15.80	
2025-01-07 00:01:02.04	45.65	15.90	
2025-01-07 00:01:03.29	45.88	16.01	
2025-01-07 00:01:04.52	46.11	16.11	
2025-01-07 00:01:05.75	46.34	16.21	
2025-01-07 00:01:06.98	46.57	16.32	
2025-01-07 00:01:08.22	46.81	16.42	
2025-01-07 00:01:09.46	47.04	16.52	
2025-01-07 00:01:10.70	47.28	16.63	
2025-01-07 00:01:11.93	47.52	16.73	
2025-01-07 00:01:13.16	47.76	16.83	
2025-01-07 00:01:14.39	48.00	16.94	
2025-01-07 00:01:15.62	48.24	17.04	
2025-01-07 00:01:16.86	48.49	17.14	
2025-01-07 00:01:18.10	48.73	17.25	
2025-01-07 00:01:19.33	48.98	17.35	
2025-01-07 00:01:20.56	49.23	17.46	
2025-01-07 00:01:21.80	49.49	17.56	
2025-01-07 00:01:23.03	49.74	17.66	
2025-01-07 00:01:24.26	49.99	17.77	
2025-01-07 00:01:25.50	50.25	17.87	
2025-01-07 00:01:26.73	50.51	17.97	
2025-01-07 00:01:27.96	50.77	18.08	
2025-01-07 00:01:29.20	51.04	18.18	
2025-01-07 00:01:30.43	51.30	18.28	
2025-01-07 00:01:31.66	51.57	18.38	
2025-01-07 00:01:32.89	51.83	18.49	
2025-01-07 00:01:34.13	52.11	18.59	
2025-01-07 00:01:35.36	52.38	18.69	
2025-01-07 00:01:36.60	52.65	18.80	
2025-01-07 00:01:37.83	52.93	18.90	
2025-01-07 00:01:39.06	53.21	19.00	
2025-01-07 00:01:40.29	53.49	19.10	
2025-01-07 00:01:41.52	53.77	19.20	
2025-01-07 00:01:42.75	54.05	19.30	
2025-01-07 00:01:43.98	54.33	19.41	
2025-01-07 00:01:45.22	54.62	19.51	
2025-01-07 00:01:46.46	54.92	19.61	
2025-01-07 00:01:47.69	55.21	19.71	
2025-01-07 00:01:48.92	55.50	19.81	
2025-01-07 00:01:50.16	55.80	19.91	
2025-01-07 00:01:51.39	56.09	20.01	
2025-01-07 00:01:52.64	56.40	20.11	
2025-01-07 00:01:53.88	56.70	20.21	
2025-01-07 00:01:55.11	57.00	20.31	
2025-01-07 00:01:56.34	57.31	20.41	
2025-01-07 00:01:57.59	57.62	20.51	
2025-01-07 00:01:58.82	57.93	20.60	
2025-01-07 00:02:00.05	58.24	20.70	
2025-01-07 00:02:01.30	58.56	20.80	
2025-01-07 00:02:02.53	58.88	20.90	
2025-01-07 00:02:03.76	59.19	20.99	
2025-01-07 00:02:04.99	59.51	21.09	
2025-01-07 00:02:06.22	59.83	21.18	
2025-01-07 00:02:07.45	60.16	21.28	
2025-01-07 00:02:08.68	60.48	21.37	
2025-01-07 00:02:09.93	60.82	21.47	
2025-01-07 00:02:11.17	61.15	21.56	
2025-01-07 00:02:12.40	61.48	21.65	
2025-01-07 00:02:13.65	61.82	21.75	
2025-01-07 00:02:14.89	62.16	21.84	
2025-01-07 00:02:16.14	62.50	21.93	
2025-01-07 00:02:17.37	62.84	22.02	
2025-01-07 00:02:18.60	63.18	22.11	
2025-01-07 00:02:19.83	63.53	22.20	
2025-01-07 00:02:21.06	63.87	22.29	
2025-01-07 00:02:22.31	64.23	22.37	
2025-01-07 00:02:23.55	64.58	22.46	
2025-01-07 00:02:24.78	64.93	22.55	
2025-01-07 00:02:26.03	65.29	22.63	
2025-01-07 00:02:27.27	65.65	22.72	
2025-01-07 00:02:28.50	66.01	22.80	
2025-01-07 00:02:29.73	66.37	22.89	
2025-01-07 00:02:30.96	66.73	22.97	
2025-01-07 00:02:32.20	67.10	23.05	
2025-01-07 00:02:33.43	67.47	23.13	
2025-01-07 00:02:34.66	67.84	23.21	
2025-01-07 00:02:35.90	68.21	23.29	
2025-01-07 00:02:37.14	68.58	23.37	
2025-01-07 00:02:38.37	68.96	23.44	
2025-01-07 00:02:39.60	69.33	23.52	
2025-01-07 00:02:40.83	69.71	23.59	
2025-01-07 00:02:42.06	70.09	23.67	
2025-01-07 00:02:43.30	70.47	23.74	
2025-01-07 00:02:44.54	70.86	23.81	
2025-01-07 00:02:45.77	71.25	23.88	
2025-01-07 00:02:47.00	71.63	23.95	
2025-01-07 00:02:48.23	72.02	24.02	
2025-01-07 00:02:49.46	72.41	24.09	
2025-01-07 00:02:50.70	72.81	24.15	
2025-01-07 00:02:51.94	73.20	24.22	
2025-01-07 00:02:53.17	73.60	24.28	
2025-01-07 00:02:54.40	74.00	24.34	
2025-01-07 00:02:55.63	74.39	24.40	
2025-01-07 00:02:56.88	74.80	24.47	
2025-01-07 00:02:58.11	75.20	24.52	
2025-01-07 00:02:59.34	75.61	24.58	
2025-01-07 00:03:00.57	76.01	24.64	
2025-01-07 00:03:01.80	76.42	24.69	
2025-01-07 00:03:03.03	76.82	24.75	
2025-01-07 00:03:04.26	77.23	24.80	
2025-01-07 00:03:05.50	77.65	24.85	
2025-01-07 00:03:06.74	78.06	24.90	
2025-01-07 00:03:07.97	78.48	24.95	
2025-01-07 00:03:09.20	78.89	24.99	
2025-01-07 00:03:10.43	79.31	25.04	
2025-01-07 00:03:11.66	79.72	25.08	
2025-01-07 00:03:12.89	80.14	25.12	
2025-01-07 00:03:14.13	80.56	25.16	
2025-01-07 00:03:15.36	80.98	25.20	
2025-01-07 00:03:16.59	81.41	25.24	
2025-01-07 00:03:17.82	81.83	25.28	
2025-01-07 00:03:19.05	82.25	25.31	
2025-01-07 00:03:20.29	82.68	25.35	
2025-01-07 00:03:21.52	83.10	25.38	
2025-01-07 00:03:22.76	83.53	25.41	
2025-01-07 00:03:24.00	83.97	25.44	
2025-01-07 00:03:25.23	84.39	25.46	
2025-01-07 00:03:26.46	84.82	25.49	
2025-01-07 00:03:27.69	85.25	25.51	
2025-01-07 00:03:28.92	85.68	25.53	
2025-01-07 00:03:30.15	86.11	25.55	
2025-01-07 00:03:31.40	86.55	25.57	
2025-01-07 00:03:32.64	86.98	25.59	
2025-01-07 00:03:33.87	87.42	25.61	
2025-01-07 00:03:35.10	87.85	25.62	
2025-01-07 00:03:36.33	88.28	25.63	
2025-01-07 00:03:37.56	88.71	25.64	
2025-01-07 00:03:38.79	89.15	25.65	
2025-01-07 00:03:40.02	89.58	25.66	
2025-01-07 00:03:41.26	90.02	25.66	
2025-01-07 00:03:42.51	90.46	25.67	
2025-01-07 00:03:43.74	90.89	25.67	
2025-01-07 00:03:44.97	91.33	25.67	
2025-01-07 00:03:46.21	91.77	25.67	
2025-01-07 00:03:47.44	92.20	25.67	
2025-01-07 00:03:48.67	92.64	25.66	
2025-01-07 00:03:49.90	93.07	25.65	
2025-01-07 00:03:51.13	93.50	25.65	
2025-01-07 00:03:52.36	93.94	25.64	
2025-01-07 00:03:53.61	94.38	25.63	
2025-01-07 00:03:54.86	94.82	25.61	
2025-01-07 00:03:56.09	95.25	25.60	
2025-01-07 00:03:57.32	95.68	25.58	
2025-01-07 00:03:58.55	96.11	25.56	
2025-01-07 00:03:59.80	96.55	25.54	
2025-01-07 00:04:01.03	96.98	25.52	
2025-01-07 00:04:02.28	97.42	25.50	
2025-01-07 00:04:03.51	97.85	25.48	
2025-01-07 00:04:04.73	98.27	25.45	
2025-01-07 00:04:05.97	98.71	25.42	
2025-01-07 00:04:07.20	99.13	25.39	
2025-01-07 00:04:08.43	99.56	25.36	
2025-01-07 00:04:09.66	99.98	25.33	
2025-01-07 00:04:10.89	100.41	25.30	
2025-01-07 00:04:12.12	100.83	25.26	
2025-01-07 00:04:13.35	101.26	25.22	
2025-01-07 00:04:14.59	101.68	25.18	
2025-01-07 00:04:15.82	102.10	25.14	
2025-01-07 00:04:17.07	102.53	25.10	
2025-01-07 00:04:18.30	102.95	25.06	
2025-01-07 00:04:19.53	103.36	25.01	
2025-01-07 00:04:20.76	103.78	24.97	
2025-01-07 00:04:21.99	104.19	24.92	
2025-01-07 00:04:23.22	104.61	24.87	
2025-01-07 00:04:24.46	105.02	24.82	
2025-01-07 00:04:25.69	105.43	24.77	
2025-01-07 00:04:26.92	105.84	24.72	
2025-01-07 00:04:28.15	106.25	24.66	
2025-01-07 00:04:29.38	106.66	24.61	
2025-01-07 00:04:30.62	107.07	24.55	
2025-01-07 00:04:31.84	107.47	24.49	
2025-01-07 00:04:33.07	107.87	24.43	
2025-01-07 00:04:34.30	108.27	24.37	
2025-01-07 00:04:35.54	108.67	24.31	
2025-01-07 00:04:36.77	109.07	24.25	
2025-01-07 00:04:38.00	109.47	24.18	
2025-01-07 00:04:39.23	109.86	24.12	
2025-01-07 00:04:40.46	110.25	24.05	
2025-01-07 00:04:41.69	110.64	23.98	
2025-01-07 00:04:42.93	111.04	23.91	
2025-01-07 00:04:44.16	111.42	23.84	
2025-01-07 00:04:45.41	111.81	23.77	
2025-01-07 00:04:46.64	112.20	23.70	
2025-01-07 00:04:47.88	112.58	23.62	
2025-01-07 00:04:49.11	112.96	23.55	
2025-01-07 00:04:50.36	113.35	23.47	
2025-01-07 00:04:51.59	113.72	23.40	
2025-01-07 00:04:52.83	114.10	23.32	
2025-01-07 00:04:54.07	114.48	23.24	
2025-01-07 00:04:55.30	114.85	23.16	
2025-01-07 00:04:56.53	115.22	23.08	
2025-01-07 00:04:57.76	115.58	23.00	
2025-01-07 00:04:58.99	115.95	22.92	
2025-01-07 00:05:00.24	116.31	22.83	
2025-01-07 00:05:01.47	116.68	22.75	
2025-01-07 00:05:02.70	117.03	22.66	
2025-01-07 00:05:03.95	117.40	22.58	
2025-01-07 00:05:05.18	117.75	22.49	
2025-01-07 00:05:06.41	118.10	22.41	
2025-01-07 00:05:07.64	118.45	22.32	
2025-01-07 00:05:08.87	118.80	22.23	
2025-01-07 00:05:10.10	119.15	22.14	
2025-01-07 00:05:11.34	119.50	22.05	
2025-01-07 00:05:12.57	119.84	21.96	
2025-01-07 00:05:13.80	120.18	21.87	
2025-01-07 00:05:15.04	120.52	21.78	
2025-01-07 00:05:16.27	120.86	21.68	
2025-01-07 00:05:17.50	121.19	21.59	
2025-01-07 00:05:18.75	121.53	21.50	
2025-01-07 00:05:19.98	121.86	21.40	
2025-01-07 00:05:21.21	122.19	21.31	
2025-01-07 00:05:22.44	122.51	21.21	
2025-01-07 00:05:23.68	122.84	21.12	
2025-01-07 00:05:24.90	123.16	21.02	
2025-01-07 00:05:26.14	123.48	20.92	
2025-01-07 00:05:27.37	123.80	20.83	
2025-01-07 00:05:28.60	124.12	20.73	
2025-01-07 00:05:29.85	124.44	20.63	
2025-01-07 00:05:31.08	124.75	20.53	
2025-01-07 00:05:32.31	125.06	20.43	
2025-01-07 00:05:33.54	125.36	20.34	
2025-01-07 00:05:34.78	125.67	20.24	
2025-01-07 00:05:36.01	125.98	20.14	
2025-01-07 00:05:37.24	126.28	20.04	
2025-01-07 00:05:38.48	126.58	19.93	
2025-01-07 00:05:39.71	126.88	19.83	
2025-01-07 00:05:40.94	127.17	19.73	
2025-01-07 00:05:42.17	127.47	19.63	
2025-01-07 00:05:43.40	127.76	19.53	
2025-01-07 00:05:44.63	128.05	19.43	
2025-01-07 00:05:45.88	128.34	19.33	
2025-01-07 00:05:47.11	128.62	19.22	
2025-01-07 00:05:48.34	128.91	19.12	
2025-01-07 00:05:49.58	129.19	19.02	
2025-01-07 00:05:50.80	129.47	18.92	
2025-01-07 00:05:52.05	129.75	18.81	
2025-01-07 00:05:53.30	130.03	18.71	
2025-01-07 00:05:54.53	130.31	18.60	
2025-01-07 00:05:55.76	130.58	18.50	
2025-01-07 00:05:56.99	130.85	18.40	
2025-01-07 00:05:58.23	131.12	18.29	
2025-01-07 00:05:59.46	131.38	18.19	
2025-01-07 00:06:00.70	131.65	18.09	
2025-01-07 00:06:01.93	131.91	17.98	
2025-01-07 00:06:03.16	132.17	17.88	
2025-01-07 00:06:04.39	132.43	17.77	
2025-01-07 00:06:05.62	132.69	17.67	
2025-01-07 00:06:06.85	132.95	17.57	
2025-01-07 00:06:08.08	133.20	17.46	
2025-01-07 00:06:09.32	133.45	17.36	
2025-01-07 00:06:10.55	133.70	17.25	
2025-01-07 00:06:11.78	133.95	17.15	
2025-01-07 00:06:13.01	134.20	17.04	
2025-01-07 00:06:14.24	134.44	16.94	
2025-01-07 00:06:15.48	134.69	16.84	
2025-01-07 00:06:16.71	134.93	16.73	
2025-01-07 00:06:17.94	135.17	16.63	
2025-01-07 00:06:19.17	135.40	16.52	
2025-01-07 00:06:20.41	135.64	16.42	
2025-01-07 00:06:21.64	135.88	16.31	
2025-01-07 00:06:22.87	136.11	16.21	
2025-01-07 00:06:24.11	136.34	16.11	
2025-01-07 00:06:25.34	136.57	16.00	
2025-01-07 00:06:26.57	136.80	15.90	
2025-01-07 00:06:27.80	137.02	15.80	
2025-01-07 00:06:29.03	137.25	15.69	
2025-01-07 00:06:30.26	137.47	15.59	
2025-01-07 00:06:31.49	137.69	15.49	
2025-01-07 00:06:32.72	137.91	15.38	
2025-01-07 00:06:33.95	138.13	15.28	
2025-01-07 00:06:35.18	138.35	15.18	
2025-01-07 00:06:36.42	138.56	15.07	
2025-01-07 00:06:37.66	138.78	14.97	
2025-01-07 00:06:38.90	138.99	14.87	
2025-01-07 00:06:40.13	139.20	14.76	
2025-01-07 00:06:41.36	139.41	14.66	
2025-01-07 00:06:42.59	139.62	14.56	
2025-01-07 00:06:43.83	139.83	14.46	
2025-01-07 00:06:45.06	140.03	14.35	
2025-01-07 00:06:46.30	140.24	14.25	
2025-01-07 00:06:47.53	140.44	14.15	
2025-01-07 00:06:48.76	140.64	14.05	
2025-01-07 00:06:49.99	140.84	13.95	
2025-01-07 00:06:51.23	141.04	13.85	
2025-01-07 00:06:52.45	141.23	13.75	
2025-01-07 00:06:53.69	141.43	13.64	
2025-01-07 00:06:54.92	141.62	13.54	
2025-01-07 00:06:56.15	141.81	13.44	
2025-01-07 00:06:57.40	142.01	13.34	
2025-01-07 00:06:58.64	142.20	13.24	
2025-01-07 00:06:59.87	142.38	13.14	
2025-01-07 00:07:01.09	142.57	13.04	
2025-01-07 00:07:02.33	142.76	12.94	
2025-01-07 00:07:03.57	142.94	12.84	
2025-01-07 00:07:04.80	143.12	12.74	
2025-01-07 00:07:06.03	143.30	12.64	
2025-01-07 00:07:07.26	143.49	12.54	
2025-01-07 00:07:08.50	143.67	12.45	
2025-01-07 00:07:09.73	143.84	12.35	
2025-01-07 00:07:10.97	144.02	12.25	
2025-01-07 00:07:12.20	144.20	12.15	
2025-01-07 00:07:13.43	144.37	12.05	
2025-01-07 00:07:14.66	144.54	11.96	
2025-01-07 00:07:15.89	144.71	11.86	
2025-01-07 00:07:17.14	144.89	11.76	
2025-01-07 00:07:18.37	145.06	11.66	
2025-01-07 00:07:19.60	145.22	11.57	
2025-01-07 00:07:20.83	145.39	11.47	
2025-01-07 00:07:22.06	145.56	11.37	
2025-01-07 00:07:23.29	145.72	11.28	
2025-01-07 00:07:24.52	145.89	11.18	
2025-01-07 00:07:25.76	146.05	11.09	
2025-01-07 00:07:26.99	146.21	10.99	
2025-01-07 00:07:28.22	146.37	10.90	
2025-01-07 00:07:29.45	146.53	10.80	
2025-01-07 00:07:30.68	146.69	10.71	
2025-01-07 00:07:31.91	146.85	10.61	
2025-01-07 00:07:33.14	147.00	10.52	
2025-01-07 00:07:34.37	147.16	10.42	
2025-01-07 00:07:35.60	147.31	10.33	
2025-01-07 00:07:36.83	147.46	10.24	
2025-01-07 00:07:38.06	147.61	10.14	
2025-01-07 00:07:39.29	147.77	10.05	
2025-01-07 00:07:40.54	147.92	9.96	
2025-01-07 00:07:41.79	148.07	9.86	
2025-01-07 00:07:43.02	148.22	9.77	
2025-01-07 00:07:44.26	148.37	9.68	
2025-01-07 00:07:45.49	148.51	9.58	
2025-01-07 00:07:46.74	148.66	9.49	
2025-01-07 00:07:47.98	148.80	9.40	
2025-01-07 00:07:49.21	148.95	9.31	
2025-01-07 00:07:50.45	149.09	9.22	
2025-01-07 00:07:51.68	149.23	9.13	
2025-01-07 00:07:52.93	149.37	9.03	
2025-01-07 00:07:54.17	149.51	8.94	
2025-01-07 00:07:55.40	149.65	8.85	
2025-01-07 00:07:56.64	149.79	8.76	
2025-01-07 00:07:57.87	149.93	8.67	
2025-01-07 00:07:59.10	150.06	8.58	
2025-01-07 00:08:00.33	150.20	8.49	
2025-01-07 00:08:01.56	150.33	8.40	
2025-01-07 00:08:02.80	150.47	8.32	
2025-01-07 00:08:04.03	150.60	8.23	
2025-01-07 00:08:05.26	150.73	8.14	
2025-01-07 00:08:06.48	150.86	8.05	
2025-01-07 00:08:07.72	150.99	7.96	
2025-01-07 00:08:08.95	151.12	7.87	
2025-01-07 00:08:10.20	151.25	7.79	
2025-01-07 00:08:11.43	151.38	7.70	
2025-01-07 00:08:12.68	151.51	7.61	
2025-01-07 00:08:13.91	151.63	7.52	
2025-01-07 00:08:15.16	151.76	7.44	
2025-01-07 00:08:16.39	151.89	7.35	
2025-01-07 00:08:17.62	152.01	7.26	
2025-01-07 00:08:18.85	152.13	7.18	
2025-01-07 00:08:20.08	152.25	7.09	
2025-01-07 00:08:21.31	152.38	7.01	
2025-01-07 00:08:22.54	152.50	6.92	
2025-01-07 00:08:23.77	152.62	6.84	
2025-01-07 00:08:25.01	152.74	6.75	
2025-01-07 00:08:26.23	152.85	6.67	
2025-01-07 00:08:27.46	152.97	6.58	
2025-01-07 00:08:28.71	153.09	6.50	
2025-01-07 00:08:29.94	153.21	6.41	
2025-01-07 00:08:31.17	153.32	6.33	
2025-01-07 00:08:32.40	153.44	6.25	
2025-01-07 00:08:33.63	153.55	6.16	
2025-01-07 00:08:34.86	153.67	6.08	
2025-01-07 00:08:36.09	153.78	6.00	
2025-01-07 00:08:37.34	153.89	5.91	
2025-01-07 00:08:38.57	154.00	5.83	
2025-01-07 00:08:39.80	154.11	5.75	
2025-01-07 00:08:41.03	154.22	5.67	
2025-01-07 00:08:42.26	154.33	5.58	
2025-01-07 00:08:43.49	154.44	5.50	
2025-01-07 00:08:44.72	154.55	5.42	
2025-01-07 00:08:45.95	154.66	5.34	
2025-01-07 00:08:47.18	154.77	5.26	
2025-01-07 00:08:48.41	154.87	5.18	
2025-01-07 00:08:49.66	154.98	5.10	
2025-01-07 00:08:50.89	155.09	5.02	
2025-01-07 00:08:52.13	155.19	4.94	
2025-01-07 00:08:53.36	155.29	4.86	
2025-01-07 00:08:54.59	155.40	4.78	
2025-01-07 00:08:55.82	155.50	4.70	
2025-01-07 00:08:57.05	155.60	4.62	
2025-01-07 00:08:58.29	155.71	4.54	
2025-01-07 00:08:59.52	155.81	4.46	
2025-01-07 00:09:00.78	155.91	4.38	
2025-01-07 00:09:02.02	156.01	4.30	
2025-01-07 00:09:03.24	156.11	4.22	
2025-01-07 00:09:04.48	156.21	4.14	
2025-01-07 00:09:05.71	156.31	4.06	

#Closed at: 2025-01-07 00:09:06