passes_logs/2025/01/06/SPB_Silybum_02/SPB_Silybum_02__20250106_194912_TERRA_rec.log

#Pass ID: 20250106_194912_TERRA
#Satellite: TERRA
#Configuration: TERRA
#Start time: 2025-01-06 19:49:10

#Version: 2.0.20230423
#Station: SPB_Silybum_02
#Location: 30.233357 lon 59.946436 lat
#TLE: 1 25994U 99068A   25005.80302029  .00001467  00000+0  31252-3 0  9990
#TLE: 2 25994  98.0232  69.1253 0003583  90.8779 334.4790 14.60375524332735

#Time	Az	El	Level	Level2	SNR	BER	Gain	Gain2
2025-01-06 19:49:12.44	202.52	4.01	
2025-01-06 19:49:13.69	202.62	4.09	
2025-01-06 19:49:14.93	202.71	4.16	
2025-01-06 19:49:16.16	202.81	4.24	
2025-01-06 19:49:17.40	202.91	4.32	
2025-01-06 19:49:18.62	203.00	4.40	
2025-01-06 19:49:19.86	203.10	4.48	
2025-01-06 19:49:21.09	203.20	4.56	
2025-01-06 19:49:22.32	203.30	4.64	
2025-01-06 19:49:23.56	203.39	4.72	
2025-01-06 19:49:24.80	203.49	4.81	
2025-01-06 19:49:26.03	203.59	4.89	
2025-01-06 19:49:27.26	203.69	4.97	
2025-01-06 19:49:28.49	203.80	5.05	
2025-01-06 19:49:29.72	203.90	5.13	
2025-01-06 19:49:30.96	204.00	5.21	
2025-01-06 19:49:32.19	204.10	5.29	
2025-01-06 19:49:33.42	204.21	5.38	
2025-01-06 19:49:34.67	204.31	5.46	
2025-01-06 19:49:35.90	204.42	5.54	
2025-01-06 19:49:37.13	204.52	5.62	
2025-01-06 19:49:38.37	204.63	5.71	
2025-01-06 19:49:39.61	204.74	5.79	
2025-01-06 19:49:40.84	204.84	5.88	
2025-01-06 19:49:42.08	204.95	5.96	
2025-01-06 19:49:43.32	205.06	6.04	
2025-01-06 19:49:44.55	205.17	6.13	
2025-01-06 19:49:45.78	205.28	6.21	
2025-01-06 19:49:47.01	205.39	6.30	
2025-01-06 19:49:48.24	205.50	6.38	
2025-01-06 19:49:49.47	205.61	6.47	
2025-01-06 19:49:50.70	205.73	6.55	
2025-01-06 19:49:51.93	205.84	6.64	
2025-01-06 19:49:53.16	205.95	6.72	
2025-01-06 19:49:54.39	206.07	6.81	
2025-01-06 19:49:55.63	206.18	6.89	
2025-01-06 19:49:56.86	206.30	6.98	
2025-01-06 19:49:58.09	206.42	7.07	
2025-01-06 19:49:59.32	206.53	7.15	
2025-01-06 19:50:00.55	206.65	7.24	
2025-01-06 19:50:01.78	206.77	7.33	
2025-01-06 19:50:03.01	206.89	7.42	
2025-01-06 19:50:04.25	207.01	7.50	
2025-01-06 19:50:05.48	207.13	7.59	
2025-01-06 19:50:06.71	207.25	7.68	
2025-01-06 19:50:07.95	207.38	7.77	
2025-01-06 19:50:09.17	207.50	7.86	
2025-01-06 19:50:10.40	207.62	7.95	
2025-01-06 19:50:11.64	207.75	8.04	
2025-01-06 19:50:12.87	207.88	8.12	
2025-01-06 19:50:14.12	208.01	8.22	
2025-01-06 19:50:15.35	208.13	8.31	
2025-01-06 19:50:16.59	208.26	8.40	
2025-01-06 19:50:17.82	208.39	8.49	
2025-01-06 19:50:19.06	208.52	8.58	
2025-01-06 19:50:20.29	208.65	8.67	
2025-01-06 19:50:21.53	208.79	8.76	
2025-01-06 19:50:22.78	208.92	8.85	
2025-01-06 19:50:24.01	209.05	8.94	
2025-01-06 19:50:25.26	209.19	9.04	
2025-01-06 19:50:26.49	209.33	9.13	
2025-01-06 19:50:27.72	209.46	9.22	
2025-01-06 19:50:28.96	209.60	9.32	
2025-01-06 19:50:30.21	209.74	9.41	
2025-01-06 19:50:31.44	209.88	9.50	
2025-01-06 19:50:32.67	210.02	9.60	
2025-01-06 19:50:33.91	210.16	9.69	
2025-01-06 19:50:35.14	210.30	9.78	
2025-01-06 19:50:36.37	210.44	9.88	
2025-01-06 19:50:37.60	210.59	9.97	
2025-01-06 19:50:38.82	210.73	10.07	
2025-01-06 19:50:40.08	210.88	10.16	
2025-01-06 19:50:41.31	211.03	10.26	
2025-01-06 19:50:42.55	211.18	10.36	
2025-01-06 19:50:43.78	211.32	10.45	
2025-01-06 19:50:45.02	211.48	10.55	
2025-01-06 19:50:46.25	211.63	10.64	
2025-01-06 19:50:47.48	211.78	10.74	
2025-01-06 19:50:48.71	211.93	10.84	
2025-01-06 19:50:49.94	212.08	10.93	
2025-01-06 19:50:51.17	212.24	11.03	
2025-01-06 19:50:52.40	212.39	11.13	
2025-01-06 19:50:53.63	212.55	11.23	
2025-01-06 19:50:54.86	212.71	11.32	
2025-01-06 19:50:56.09	212.87	11.42	
2025-01-06 19:50:57.32	213.03	11.52	
2025-01-06 19:50:58.57	213.19	11.62	
2025-01-06 19:50:59.80	213.36	11.72	
2025-01-06 19:51:01.03	213.52	11.82	
2025-01-06 19:51:02.26	213.68	11.92	
2025-01-06 19:51:03.49	213.85	12.02	
2025-01-06 19:51:04.73	214.02	12.12	
2025-01-06 19:51:05.97	214.19	12.22	
2025-01-06 19:51:07.20	214.36	12.32	
2025-01-06 19:51:08.43	214.53	12.42	
2025-01-06 19:51:09.67	214.70	12.52	
2025-01-06 19:51:10.89	214.87	12.62	
2025-01-06 19:51:12.12	215.05	12.72	
2025-01-06 19:51:13.35	215.22	12.82	
2025-01-06 19:51:14.59	215.40	12.93	
2025-01-06 19:51:15.82	215.58	13.03	
2025-01-06 19:51:17.05	215.76	13.13	
2025-01-06 19:51:18.28	215.94	13.23	
2025-01-06 19:51:19.51	216.12	13.34	
2025-01-06 19:51:20.75	216.31	13.44	
2025-01-06 19:51:21.98	216.49	13.54	
2025-01-06 19:51:23.21	216.68	13.65	
2025-01-06 19:51:24.45	216.87	13.75	
2025-01-06 19:51:25.68	217.06	13.85	
2025-01-06 19:51:26.91	217.25	13.96	
2025-01-06 19:51:28.15	217.44	14.06	
2025-01-06 19:51:29.37	217.63	14.17	
2025-01-06 19:51:30.60	217.82	14.27	
2025-01-06 19:51:31.84	218.02	14.38	
2025-01-06 19:51:33.06	218.22	14.48	
2025-01-06 19:51:34.29	218.42	14.59	
2025-01-06 19:51:35.52	218.62	14.69	
2025-01-06 19:51:36.77	218.82	14.80	
2025-01-06 19:51:38.01	219.03	14.91	
2025-01-06 19:51:39.24	219.23	15.01	
2025-01-06 19:51:40.47	219.44	15.12	
2025-01-06 19:51:41.70	219.65	15.23	
2025-01-06 19:51:42.94	219.86	15.33	
2025-01-06 19:51:44.17	220.07	15.44	
2025-01-06 19:51:45.40	220.28	15.55	
2025-01-06 19:51:46.63	220.49	15.65	
2025-01-06 19:51:47.87	220.71	15.76	
2025-01-06 19:51:49.10	220.93	15.87	
2025-01-06 19:51:50.33	221.15	15.98	
2025-01-06 19:51:51.58	221.37	16.09	
2025-01-06 19:51:52.82	221.60	16.20	
2025-01-06 19:51:54.07	221.82	16.31	
2025-01-06 19:51:55.30	222.05	16.41	
2025-01-06 19:51:56.53	222.28	16.52	
2025-01-06 19:51:57.76	222.50	16.63	
2025-01-06 19:51:58.99	222.74	16.74	
2025-01-06 19:52:00.22	222.97	16.85	
2025-01-06 19:52:01.45	223.20	16.96	
2025-01-06 19:52:02.68	223.44	17.07	
2025-01-06 19:52:03.91	223.68	17.18	
2025-01-06 19:52:05.16	223.92	17.29	
2025-01-06 19:52:06.39	224.16	17.39	
2025-01-06 19:52:07.62	224.40	17.50	
2025-01-06 19:52:08.85	224.65	17.61	
2025-01-06 19:52:10.09	224.90	17.72	
2025-01-06 19:52:11.32	225.14	17.83	
2025-01-06 19:52:12.56	225.40	17.94	
2025-01-06 19:52:13.79	225.65	18.05	
2025-01-06 19:52:15.03	225.91	18.16	
2025-01-06 19:52:16.26	226.16	18.27	
2025-01-06 19:52:17.50	226.42	18.38	
2025-01-06 19:52:18.73	226.68	18.49	
2025-01-06 19:52:19.97	226.95	18.60	
2025-01-06 19:52:21.21	227.21	18.71	
2025-01-06 19:52:22.44	227.48	18.82	
2025-01-06 19:52:23.67	227.74	18.93	
2025-01-06 19:52:24.90	228.01	19.04	
2025-01-06 19:52:26.13	228.29	19.15	
2025-01-06 19:52:27.37	228.56	19.26	
2025-01-06 19:52:28.61	228.84	19.37	
2025-01-06 19:52:29.85	229.12	19.48	
2025-01-06 19:52:31.08	229.40	19.59	
2025-01-06 19:52:32.31	229.68	19.69	
2025-01-06 19:52:33.54	229.97	19.80	
2025-01-06 19:52:34.76	230.25	19.91	
2025-01-06 19:52:36.01	230.54	20.02	
2025-01-06 19:52:37.24	230.83	20.13	
2025-01-06 19:52:38.47	231.13	20.24	
2025-01-06 19:52:39.70	231.42	20.34	
2025-01-06 19:52:40.94	231.72	20.45	
2025-01-06 19:52:42.17	232.02	20.56	
2025-01-06 19:52:43.40	232.32	20.67	
2025-01-06 19:52:44.63	232.62	20.77	
2025-01-06 19:52:45.86	232.93	20.88	
2025-01-06 19:52:47.09	233.23	20.98	
2025-01-06 19:52:48.34	233.55	21.09	
2025-01-06 19:52:49.57	233.86	21.20	
2025-01-06 19:52:50.81	234.18	21.30	
2025-01-06 19:52:52.04	234.49	21.41	
2025-01-06 19:52:53.28	234.81	21.51	
2025-01-06 19:52:54.51	235.13	21.62	
2025-01-06 19:52:55.74	235.46	21.72	
2025-01-06 19:52:56.97	235.78	21.82	
2025-01-06 19:52:58.21	236.11	21.92	
2025-01-06 19:52:59.44	236.44	22.03	
2025-01-06 19:53:00.69	236.78	22.13	
2025-01-06 19:53:01.92	237.11	22.23	
2025-01-06 19:53:03.17	237.45	22.33	
2025-01-06 19:53:04.40	237.79	22.43	
2025-01-06 19:53:05.63	238.13	22.53	
2025-01-06 19:53:06.86	238.47	22.63	
2025-01-06 19:53:08.09	238.82	22.73	
2025-01-06 19:53:09.34	239.17	22.83	
2025-01-06 19:53:10.57	239.52	22.92	
2025-01-06 19:53:11.80	239.87	23.02	
2025-01-06 19:53:13.03	240.23	23.12	
2025-01-06 19:53:14.26	240.58	23.21	
2025-01-06 19:53:15.50	240.94	23.31	
2025-01-06 19:53:16.75	241.31	23.40	
2025-01-06 19:53:17.99	241.68	23.49	
2025-01-06 19:53:19.24	242.05	23.59	
2025-01-06 19:53:20.47	242.41	23.68	
2025-01-06 19:53:21.70	242.78	23.77	
2025-01-06 19:53:22.94	243.16	23.86	
2025-01-06 19:53:24.17	243.53	23.95	
2025-01-06 19:53:25.41	243.91	24.03	
2025-01-06 19:53:26.64	244.29	24.12	
2025-01-06 19:53:27.87	244.67	24.21	
2025-01-06 19:53:29.11	245.05	24.29	
2025-01-06 19:53:30.34	245.44	24.38	
2025-01-06 19:53:31.57	245.82	24.46	
2025-01-06 19:53:32.80	246.21	24.54	
2025-01-06 19:53:34.03	246.60	24.62	
2025-01-06 19:53:35.28	247.00	24.70	
2025-01-06 19:53:36.51	247.40	24.78	
2025-01-06 19:53:37.75	247.80	24.86	
2025-01-06 19:53:38.98	248.19	24.93	
2025-01-06 19:53:40.22	248.60	25.01	
2025-01-06 19:53:41.45	249.00	25.08	
2025-01-06 19:53:42.69	249.41	25.15	
2025-01-06 19:53:43.92	249.81	25.23	
2025-01-06 19:53:45.15	250.22	25.30	
2025-01-06 19:53:46.40	250.64	25.37	
2025-01-06 19:53:47.64	251.05	25.43	
2025-01-06 19:53:48.88	251.47	25.50	
2025-01-06 19:53:50.11	251.89	25.56	
2025-01-06 19:53:51.34	252.30	25.63	
2025-01-06 19:53:52.58	252.72	25.69	
2025-01-06 19:53:53.82	253.15	25.75	
2025-01-06 19:53:55.05	253.57	25.81	
2025-01-06 19:53:56.29	254.00	25.87	
2025-01-06 19:53:57.52	254.42	25.92	
2025-01-06 19:53:58.75	254.85	25.98	
2025-01-06 19:53:59.98	255.28	26.03	
2025-01-06 19:54:01.22	255.71	26.08	
2025-01-06 19:54:02.46	256.14	26.13	
2025-01-06 19:54:03.70	256.58	26.18	
2025-01-06 19:54:04.93	257.01	26.23	
2025-01-06 19:54:06.16	257.45	26.27	
2025-01-06 19:54:07.40	257.89	26.32	
2025-01-06 19:54:08.63	258.32	26.36	
2025-01-06 19:54:09.86	258.76	26.40	
2025-01-06 19:54:11.09	259.20	26.44	
2025-01-06 19:54:12.32	259.64	26.48	
2025-01-06 19:54:13.55	260.08	26.51	
2025-01-06 19:54:14.80	260.53	26.55	
2025-01-06 19:54:16.03	260.98	26.58	
2025-01-06 19:54:17.27	261.42	26.61	
2025-01-06 19:54:18.50	261.87	26.64	
2025-01-06 19:54:19.74	262.32	26.66	
2025-01-06 19:54:20.97	262.77	26.69	
2025-01-06 19:54:22.23	263.22	26.71	
2025-01-06 19:54:23.46	263.67	26.73	
2025-01-06 19:54:24.69	264.12	26.75	
2025-01-06 19:54:25.92	264.57	26.77	
2025-01-06 19:54:27.15	265.02	26.79	
2025-01-06 19:54:28.38	265.47	26.80	
2025-01-06 19:54:29.61	265.92	26.81	
2025-01-06 19:54:30.84	266.37	26.82	
2025-01-06 19:54:32.09	266.83	26.83	
2025-01-06 19:54:33.33	267.28	26.84	
2025-01-06 19:54:34.56	267.73	26.84	
2025-01-06 19:54:35.79	268.18	26.85	
2025-01-06 19:54:37.02	268.64	26.85	
2025-01-06 19:54:38.26	269.09	26.85	
2025-01-06 19:54:39.49	269.54	26.85	
2025-01-06 19:54:40.72	269.99	26.84	
2025-01-06 19:54:41.95	270.44	26.84	
2025-01-06 19:54:43.19	270.90	26.83	
2025-01-06 19:54:44.42	271.35	26.82	
2025-01-06 19:54:45.64	271.80	26.81	
2025-01-06 19:54:46.89	272.25	26.79	
2025-01-06 19:54:48.12	272.70	26.78	
2025-01-06 19:54:49.36	273.15	26.76	
2025-01-06 19:54:50.59	273.60	26.74	
2025-01-06 19:54:51.82	274.05	26.72	
2025-01-06 19:54:53.05	274.50	26.70	
2025-01-06 19:54:54.29	274.95	26.68	
2025-01-06 19:54:55.54	275.40	26.65	
2025-01-06 19:54:56.77	275.85	26.62	
2025-01-06 19:54:58.00	276.29	26.60	
2025-01-06 19:54:59.23	276.73	26.56	
2025-01-06 19:55:00.46	277.18	26.53	
2025-01-06 19:55:01.69	277.62	26.50	
2025-01-06 19:55:02.92	278.06	26.46	
2025-01-06 19:55:04.15	278.50	26.42	
2025-01-06 19:55:05.39	278.94	26.38	
2025-01-06 19:55:06.62	279.38	26.34	
2025-01-06 19:55:07.85	279.81	26.30	
2025-01-06 19:55:09.08	280.25	26.26	
2025-01-06 19:55:10.33	280.69	26.21	
2025-01-06 19:55:11.56	281.12	26.16	
2025-01-06 19:55:12.81	281.56	26.11	
2025-01-06 19:55:14.04	281.99	26.06	
2025-01-06 19:55:15.27	282.41	26.01	
2025-01-06 19:55:16.50	282.84	25.96	
2025-01-06 19:55:17.73	283.27	25.90	
2025-01-06 19:55:18.96	283.69	25.85	
2025-01-06 19:55:20.20	284.11	25.79	
2025-01-06 19:55:21.43	284.53	25.73	
2025-01-06 19:55:22.66	284.95	25.67	
2025-01-06 19:55:23.89	285.37	25.60	
2025-01-06 19:55:25.11	285.78	25.54	
2025-01-06 19:55:26.34	286.19	25.48	
2025-01-06 19:55:27.59	286.61	25.41	
2025-01-06 19:55:28.83	287.03	25.34	
2025-01-06 19:55:30.07	287.44	25.27	
2025-01-06 19:55:31.31	287.85	25.20	
2025-01-06 19:55:32.54	288.25	25.13	
2025-01-06 19:55:33.77	288.65	25.06	
2025-01-06 19:55:35.01	289.06	24.98	
2025-01-06 19:55:36.24	289.46	24.91	
2025-01-06 19:55:37.47	289.85	24.83	
2025-01-06 19:55:38.71	290.25	24.75	
2025-01-06 19:55:39.94	290.64	24.68	
2025-01-06 19:55:41.17	291.03	24.60	
2025-01-06 19:55:42.40	291.42	24.52	
2025-01-06 19:55:43.65	291.81	24.43	
2025-01-06 19:55:44.88	292.20	24.35	
2025-01-06 19:55:46.11	292.58	24.27	
2025-01-06 19:55:47.34	292.96	24.18	
2025-01-06 19:55:48.56	293.34	24.10	
2025-01-06 19:55:49.80	293.71	24.01	
2025-01-06 19:55:51.03	294.09	23.92	
2025-01-06 19:55:52.26	294.46	23.84	
2025-01-06 19:55:53.50	294.83	23.75	
2025-01-06 19:55:54.73	295.20	23.66	
2025-01-06 19:55:55.96	295.56	23.57	
2025-01-06 19:55:57.19	295.93	23.47	
2025-01-06 19:55:58.42	296.29	23.38	
2025-01-06 19:55:59.66	296.65	23.29	
2025-01-06 19:56:00.88	297.00	23.19	
2025-01-06 19:56:02.13	297.36	23.10	
2025-01-06 19:56:03.37	297.72	23.00	
2025-01-06 19:56:04.60	298.07	22.91	
2025-01-06 19:56:05.85	298.42	22.81	
2025-01-06 19:56:07.08	298.76	22.71	
2025-01-06 19:56:08.31	299.11	22.61	
2025-01-06 19:56:09.54	299.45	22.52	
2025-01-06 19:56:10.79	299.79	22.42	
2025-01-06 19:56:12.02	300.13	22.32	
2025-01-06 19:56:13.25	300.46	22.22	
2025-01-06 19:56:14.48	300.79	22.12	
2025-01-06 19:56:15.71	301.12	22.02	
2025-01-06 19:56:16.95	301.45	21.91	
2025-01-06 19:56:18.18	301.78	21.81	
2025-01-06 19:56:19.41	302.10	21.71	
2025-01-06 19:56:20.64	302.42	21.61	
2025-01-06 19:56:21.87	302.74	21.50	
2025-01-06 19:56:23.11	303.06	21.40	
2025-01-06 19:56:24.35	303.38	21.29	
2025-01-06 19:56:25.58	303.69	21.19	
2025-01-06 19:56:26.81	304.00	21.08	
2025-01-06 19:56:28.04	304.31	20.98	
2025-01-06 19:56:29.27	304.61	20.87	
2025-01-06 19:56:30.50	304.91	20.77	
2025-01-06 19:56:31.73	305.22	20.66	
2025-01-06 19:56:32.97	305.52	20.56	
2025-01-06 19:56:34.21	305.82	20.45	
2025-01-06 19:56:35.45	306.11	20.34	
2025-01-06 19:56:36.67	306.40	20.24	
2025-01-06 19:56:37.91	306.70	20.13	
2025-01-06 19:56:39.14	306.98	20.02	
2025-01-06 19:56:40.37	307.27	19.91	
2025-01-06 19:56:41.61	307.56	19.81	
2025-01-06 19:56:42.84	307.84	19.70	
2025-01-06 19:56:44.07	308.12	19.59	
2025-01-06 19:56:45.31	308.40	19.48	
2025-01-06 19:56:46.54	308.68	19.37	
2025-01-06 19:56:47.77	308.95	19.27	
2025-01-06 19:56:49.02	309.23	19.16	
2025-01-06 19:56:50.25	309.50	19.05	
2025-01-06 19:56:51.50	309.77	18.94	
2025-01-06 19:56:52.74	310.04	18.83	
2025-01-06 19:56:53.97	310.30	18.72	
2025-01-06 19:56:55.22	310.57	18.61	
2025-01-06 19:56:56.45	310.83	18.50	
2025-01-06 19:56:57.68	311.09	18.39	
2025-01-06 19:56:58.91	311.34	18.28	
2025-01-06 19:57:00.14	311.60	18.18	
2025-01-06 19:57:01.41	311.86	18.06	
2025-01-06 19:57:02.64	312.11	17.95	
2025-01-06 19:57:03.87	312.36	17.85	
2025-01-06 19:57:05.10	312.61	17.74	
2025-01-06 19:57:06.33	312.85	17.63	
2025-01-06 19:57:07.57	313.10	17.52	
2025-01-06 19:57:08.80	313.34	17.41	
2025-01-06 19:57:10.03	313.58	17.30	
2025-01-06 19:57:11.27	313.82	17.20	
2025-01-06 19:57:12.50	314.05	17.09	
2025-01-06 19:57:13.74	314.29	16.98	
2025-01-06 19:57:14.98	314.52	16.87	
2025-01-06 19:57:16.21	314.76	16.76	
2025-01-06 19:57:17.44	314.98	16.65	
2025-01-06 19:57:18.67	315.21	16.55	
2025-01-06 19:57:19.91	315.44	16.44	
2025-01-06 19:57:21.14	315.66	16.33	
2025-01-06 19:57:22.37	315.89	16.22	
2025-01-06 19:57:23.60	316.11	16.12	
2025-01-06 19:57:24.84	316.33	16.01	
2025-01-06 19:57:26.07	316.55	15.90	
2025-01-06 19:57:27.30	316.76	15.80	
2025-01-06 19:57:28.53	316.98	15.69	
2025-01-06 19:57:29.77	317.19	15.58	
2025-01-06 19:57:31.00	317.40	15.48	
2025-01-06 19:57:32.23	317.61	15.37	
2025-01-06 19:57:33.46	317.82	15.26	
2025-01-06 19:57:34.69	318.03	15.16	
2025-01-06 19:57:35.92	318.23	15.05	
2025-01-06 19:57:37.15	318.44	14.95	
2025-01-06 19:57:38.39	318.64	14.84	
2025-01-06 19:57:39.62	318.84	14.74	
2025-01-06 19:57:40.84	319.04	14.63	
2025-01-06 19:57:42.08	319.24	14.53	
2025-01-06 19:57:43.32	319.44	14.42	
2025-01-06 19:57:44.56	319.63	14.32	
2025-01-06 19:57:45.78	319.83	14.22	
2025-01-06 19:57:47.02	320.02	14.11	
2025-01-06 19:57:48.25	320.21	14.01	
2025-01-06 19:57:49.48	320.40	13.90	
2025-01-06 19:57:50.72	320.59	13.80	
2025-01-06 19:57:51.96	320.78	13.70	
2025-01-06 19:57:53.19	320.96	13.59	
2025-01-06 19:57:54.42	321.15	13.49	
2025-01-06 19:57:55.65	321.33	13.39	
2025-01-06 19:57:56.88	321.51	13.29	
2025-01-06 19:57:58.13	321.69	13.18	
2025-01-06 19:57:59.36	321.87	13.08	
2025-01-06 19:58:00.59	322.05	12.98	
2025-01-06 19:58:01.82	322.23	12.88	
2025-01-06 19:58:03.05	322.40	12.78	
2025-01-06 19:58:04.28	322.58	12.68	
2025-01-06 19:58:05.51	322.75	12.58	
2025-01-06 19:58:06.75	322.92	12.48	
2025-01-06 19:58:07.98	323.09	12.38	
2025-01-06 19:58:09.21	323.26	12.28	
2025-01-06 19:58:10.45	323.43	12.18	
2025-01-06 19:58:11.68	323.60	12.08	
2025-01-06 19:58:12.91	323.76	11.98	
2025-01-06 19:58:14.14	323.93	11.88	
2025-01-06 19:58:15.38	324.09	11.78	
2025-01-06 19:58:16.61	324.25	11.69	
2025-01-06 19:58:17.84	324.41	11.59	
2025-01-06 19:58:19.08	324.58	11.49	
2025-01-06 19:58:20.31	324.73	11.39	
2025-01-06 19:58:21.54	324.89	11.30	
2025-01-06 19:58:22.77	325.05	11.20	
2025-01-06 19:58:24.01	325.20	11.10	
2025-01-06 19:58:25.24	325.36	11.01	
2025-01-06 19:58:26.49	325.52	10.91	
2025-01-06 19:58:27.73	325.67	10.81	
2025-01-06 19:58:28.96	325.82	10.72	
2025-01-06 19:58:30.19	325.97	10.62	
2025-01-06 19:58:31.42	326.12	10.53	
2025-01-06 19:58:32.66	326.27	10.43	
2025-01-06 19:58:33.90	326.42	10.34	
2025-01-06 19:58:35.13	326.56	10.24	
2025-01-06 19:58:36.37	326.71	10.15	
2025-01-06 19:58:37.60	326.85	10.05	
2025-01-06 19:58:38.83	327.00	9.96	
2025-01-06 19:58:40.06	327.14	9.87	
2025-01-06 19:58:41.29	327.28	9.77	
2025-01-06 19:58:42.52	327.42	9.68	
2025-01-06 19:58:43.77	327.56	9.59	
2025-01-06 19:58:45.00	327.70	9.49	
2025-01-06 19:58:46.23	327.84	9.40	
2025-01-06 19:58:47.46	327.98	9.31	
2025-01-06 19:58:48.70	328.12	9.22	
2025-01-06 19:58:49.93	328.25	9.13	
2025-01-06 19:58:51.16	328.38	9.04	
2025-01-06 19:58:52.39	328.52	8.94	
2025-01-06 19:58:53.63	328.65	8.85	
2025-01-06 19:58:54.86	328.78	8.76	
2025-01-06 19:58:56.09	328.91	8.67	
2025-01-06 19:58:57.33	329.05	8.58	
2025-01-06 19:58:58.56	329.17	8.49	
2025-01-06 19:58:59.79	329.30	8.40	
2025-01-06 19:59:01.03	329.43	8.31	
2025-01-06 19:59:02.26	329.56	8.22	
2025-01-06 19:59:03.49	329.68	8.14	
2025-01-06 19:59:04.72	329.81	8.05	
2025-01-06 19:59:05.95	329.93	7.96	
2025-01-06 19:59:07.20	330.06	7.87	
2025-01-06 19:59:08.43	330.18	7.78	
2025-01-06 19:59:09.67	330.31	7.69	
2025-01-06 19:59:10.92	330.43	7.61	
2025-01-06 19:59:12.16	330.55	7.52	
2025-01-06 19:59:13.39	330.67	7.43	
2025-01-06 19:59:14.62	330.79	7.35	
2025-01-06 19:59:15.85	330.91	7.26	
2025-01-06 19:59:17.08	331.03	7.17	
2025-01-06 19:59:18.33	331.14	7.09	
2025-01-06 19:59:19.56	331.26	7.00	
2025-01-06 19:59:20.79	331.38	6.91	
2025-01-06 19:59:22.02	331.49	6.83	
2025-01-06 19:59:23.26	331.61	6.74	
2025-01-06 19:59:24.51	331.72	6.66	
2025-01-06 19:59:25.74	331.83	6.57	
2025-01-06 19:59:26.97	331.95	6.49	
2025-01-06 19:59:28.20	332.06	6.41	
2025-01-06 19:59:29.43	332.17	6.32	
2025-01-06 19:59:30.66	332.28	6.24	
2025-01-06 19:59:31.90	332.39	6.15	
2025-01-06 19:59:33.13	332.50	6.07	
2025-01-06 19:59:34.36	332.61	5.99	
2025-01-06 19:59:35.59	332.71	5.91	
2025-01-06 19:59:36.83	332.82	5.82	
2025-01-06 19:59:38.08	332.93	5.74	
2025-01-06 19:59:39.31	333.03	5.66	
2025-01-06 19:59:40.54	333.14	5.58	
2025-01-06 19:59:41.77	333.24	5.49	
2025-01-06 19:59:43.01	333.35	5.41	
2025-01-06 19:59:44.24	333.45	5.33	
2025-01-06 19:59:45.47	333.55	5.25	
2025-01-06 19:59:46.70	333.66	5.17	
2025-01-06 19:59:47.94	333.76	5.09	
2025-01-06 19:59:49.17	333.86	5.01	
2025-01-06 19:59:50.40	333.96	4.93	
2025-01-06 19:59:51.63	334.06	4.85	
2025-01-06 19:59:52.87	334.16	4.77	
2025-01-06 19:59:54.10	334.26	4.69	
2025-01-06 19:59:55.33	334.36	4.61	
2025-01-06 19:59:56.56	334.45	4.53	
2025-01-06 19:59:57.81	334.55	4.45	
2025-01-06 19:59:59.06	334.65	4.37	
2025-01-06 20:00:00.28	334.75	4.29	
2025-01-06 20:00:01.53	334.84	4.21	
2025-01-06 20:00:02.76	334.94	4.13	
2025-01-06 20:00:04.00	335.03	4.05	

#Closed at: 2025-01-06 20:00:04