passes_logs/2025/01/06/SPB_Silybum_02/SPB_Silybum_02__20250106_214320_SUOMI_NPP_rec.log

#Pass ID: 20250106_214320_SUOMI NPP
#Satellite: SUOMI NPP
#Configuration: NPP
#Start time: 2025-01-06 21:43:20

#Version: 2.0.20230423
#Station: SPB_Silybum_02
#Location: 30.233357 lon 59.946436 lat
#TLE: 1 37849U 11061A   25006.17970494  .00000315  00000+0  17023-3 0  9998
#TLE: 2 37849  98.7437 307.2805 0001982  54.5030 305.6331 14.19533747683667

#Time	Az	El	Level	Level2	SNR	BER	Gain	Gain2
2025-01-06 21:43:22.07	36.58	4.05	
2025-01-06 21:43:22.90	36.68	4.08	
2025-01-06 21:43:23.72	36.78	4.11	
2025-01-06 21:43:24.54	36.88	4.14	
2025-01-06 21:43:25.36	36.98	4.18	
2025-01-06 21:43:26.17	37.08	4.21	
2025-01-06 21:43:27.00	37.18	4.24	
2025-01-06 21:43:27.81	37.28	4.27	
2025-01-06 21:43:28.64	37.38	4.30	
2025-01-06 21:43:29.47	37.48	4.33	
2025-01-06 21:43:30.30	37.58	4.36	
2025-01-06 21:43:31.12	37.69	4.40	
2025-01-06 21:43:31.94	37.79	4.43	
2025-01-06 21:43:32.76	37.89	4.46	
2025-01-06 21:43:33.58	37.99	4.49	
2025-01-06 21:43:34.42	38.09	4.52	
2025-01-06 21:43:35.24	38.20	4.55	
2025-01-06 21:43:36.06	38.30	4.58	
2025-01-06 21:43:36.87	38.40	4.61	
2025-01-06 21:43:37.70	38.51	4.64	
2025-01-06 21:43:38.52	38.61	4.68	
2025-01-06 21:43:39.36	38.71	4.71	
2025-01-06 21:43:40.18	38.82	4.74	
2025-01-06 21:43:41.00	38.92	4.77	
2025-01-06 21:43:41.82	39.03	4.80	
2025-01-06 21:43:42.64	39.13	4.83	
2025-01-06 21:43:43.46	39.23	4.86	
2025-01-06 21:43:44.28	39.34	4.89	
2025-01-06 21:43:45.11	39.45	4.92	
2025-01-06 21:43:45.93	39.55	4.95	
2025-01-06 21:43:46.75	39.66	4.98	
2025-01-06 21:43:47.58	39.76	5.01	
2025-01-06 21:43:48.40	39.87	5.04	
2025-01-06 21:43:49.22	39.97	5.07	
2025-01-06 21:43:50.04	40.08	5.10	
2025-01-06 21:43:50.86	40.19	5.13	
2025-01-06 21:43:51.69	40.29	5.17	
2025-01-06 21:43:52.51	40.40	5.20	
2025-01-06 21:43:53.33	40.51	5.23	
2025-01-06 21:43:54.16	40.62	5.26	
2025-01-06 21:43:54.99	40.72	5.29	
2025-01-06 21:43:55.81	40.83	5.32	
2025-01-06 21:43:56.63	40.94	5.35	
2025-01-06 21:43:57.45	41.05	5.38	
2025-01-06 21:43:58.27	41.16	5.41	
2025-01-06 21:43:59.09	41.26	5.44	
2025-01-06 21:43:59.91	41.37	5.47	
2025-01-06 21:44:00.74	41.48	5.50	
2025-01-06 21:44:01.56	41.59	5.52	
2025-01-06 21:44:02.38	41.70	5.55	
2025-01-06 21:44:03.20	41.81	5.58	
2025-01-06 21:44:04.02	41.92	5.61	
2025-01-06 21:44:04.84	42.03	5.64	
2025-01-06 21:44:05.66	42.14	5.67	
2025-01-06 21:44:06.48	42.25	5.70	
2025-01-06 21:44:07.31	42.36	5.73	
2025-01-06 21:44:08.13	42.47	5.76	
2025-01-06 21:44:08.95	42.59	5.79	
2025-01-06 21:44:09.78	42.70	5.82	
2025-01-06 21:44:10.59	42.81	5.85	
2025-01-06 21:44:11.42	42.92	5.88	
2025-01-06 21:44:12.24	43.03	5.91	
2025-01-06 21:44:13.06	43.15	5.93	
2025-01-06 21:44:13.88	43.26	5.96	
2025-01-06 21:44:14.70	43.37	5.99	
2025-01-06 21:44:15.52	43.48	6.02	
2025-01-06 21:44:16.35	43.60	6.05	
2025-01-06 21:44:17.17	43.71	6.08	
2025-01-06 21:44:17.99	43.82	6.11	
2025-01-06 21:44:18.82	43.94	6.13	
2025-01-06 21:44:19.65	44.05	6.16	
2025-01-06 21:44:20.47	44.17	6.19	
2025-01-06 21:44:21.29	44.28	6.22	
2025-01-06 21:44:22.11	44.40	6.25	
2025-01-06 21:44:22.93	44.51	6.28	
2025-01-06 21:44:23.75	44.63	6.30	
2025-01-06 21:44:24.58	44.74	6.33	
2025-01-06 21:44:25.40	44.86	6.36	
2025-01-06 21:44:26.22	44.97	6.39	
2025-01-06 21:44:27.04	45.09	6.42	
2025-01-06 21:44:27.86	45.21	6.44	
2025-01-06 21:44:28.68	45.32	6.47	
2025-01-06 21:44:29.50	45.44	6.50	
2025-01-06 21:44:30.33	45.56	6.53	
2025-01-06 21:44:31.15	45.67	6.55	
2025-01-06 21:44:31.97	45.79	6.58	
2025-01-06 21:44:32.80	45.91	6.61	
2025-01-06 21:44:33.63	46.03	6.64	
2025-01-06 21:44:34.45	46.14	6.66	
2025-01-06 21:44:35.27	46.26	6.69	
2025-01-06 21:44:36.09	46.38	6.72	
2025-01-06 21:44:36.91	46.50	6.74	
2025-01-06 21:44:37.73	46.62	6.77	
2025-01-06 21:44:38.55	46.74	6.80	
2025-01-06 21:44:39.37	46.86	6.82	
2025-01-06 21:44:40.19	46.97	6.85	
2025-01-06 21:44:41.01	47.09	6.88	
2025-01-06 21:44:41.84	47.21	6.90	
2025-01-06 21:44:42.66	47.33	6.93	
2025-01-06 21:44:43.48	47.45	6.96	
2025-01-06 21:44:44.30	47.57	6.98	
2025-01-06 21:44:45.12	47.70	7.01	
2025-01-06 21:44:45.95	47.82	7.04	
2025-01-06 21:44:46.77	47.94	7.06	
2025-01-06 21:44:47.59	48.06	7.09	
2025-01-06 21:44:48.42	48.18	7.11	
2025-01-06 21:44:49.24	48.30	7.14	
2025-01-06 21:44:50.06	48.43	7.17	
2025-01-06 21:44:50.88	48.55	7.19	
2025-01-06 21:44:51.70	48.67	7.22	
2025-01-06 21:44:52.54	48.79	7.24	
2025-01-06 21:44:53.37	48.92	7.27	
2025-01-06 21:44:54.22	49.05	7.29	
2025-01-06 21:44:55.04	49.17	7.32	
2025-01-06 21:44:55.86	49.29	7.34	
2025-01-06 21:44:56.69	49.42	7.37	
2025-01-06 21:44:57.51	49.54	7.39	
2025-01-06 21:44:58.33	49.66	7.42	
2025-01-06 21:44:59.15	49.79	7.44	
2025-01-06 21:44:59.97	49.91	7.47	
2025-01-06 21:45:00.79	50.04	7.49	
2025-01-06 21:45:01.61	50.16	7.52	
2025-01-06 21:45:02.44	50.29	7.54	
2025-01-06 21:45:03.27	50.41	7.57	
2025-01-06 21:45:04.10	50.54	7.59	
2025-01-06 21:45:04.92	50.67	7.62	
2025-01-06 21:45:05.76	50.79	7.64	
2025-01-06 21:45:06.58	50.92	7.66	
2025-01-06 21:45:07.40	51.05	7.69	
2025-01-06 21:45:08.22	51.17	7.71	
2025-01-06 21:45:09.05	51.30	7.74	
2025-01-06 21:45:09.87	51.43	7.76	
2025-01-06 21:45:10.69	51.55	7.78	
2025-01-06 21:45:11.51	51.68	7.81	
2025-01-06 21:45:12.33	51.81	7.83	
2025-01-06 21:45:13.15	51.94	7.85	
2025-01-06 21:45:13.97	52.06	7.87	
2025-01-06 21:45:14.79	52.19	7.90	
2025-01-06 21:45:15.61	52.32	7.92	
2025-01-06 21:45:16.43	52.45	7.94	
2025-01-06 21:45:17.26	52.58	7.97	
2025-01-06 21:45:18.08	52.71	7.99	
2025-01-06 21:45:18.90	52.83	8.01	
2025-01-06 21:45:19.72	52.96	8.03	
2025-01-06 21:45:20.54	53.09	8.06	
2025-01-06 21:45:21.36	53.22	8.08	
2025-01-06 21:45:22.18	53.35	8.10	
2025-01-06 21:45:23.00	53.48	8.12	
2025-01-06 21:45:23.83	53.61	8.14	
2025-01-06 21:45:24.65	53.74	8.17	
2025-01-06 21:45:25.47	53.87	8.19	
2025-01-06 21:45:26.30	54.00	8.21	
2025-01-06 21:45:27.13	54.14	8.23	
2025-01-06 21:45:27.95	54.27	8.25	
2025-01-06 21:45:28.77	54.40	8.27	
2025-01-06 21:45:29.59	54.53	8.29	
2025-01-06 21:45:30.42	54.66	8.31	
2025-01-06 21:45:31.24	54.79	8.34	
2025-01-06 21:45:32.06	54.93	8.36	
2025-01-06 21:45:32.88	55.06	8.38	
2025-01-06 21:45:33.70	55.19	8.40	
2025-01-06 21:45:34.53	55.32	8.42	
2025-01-06 21:45:35.36	55.46	8.44	
2025-01-06 21:45:36.20	55.59	8.46	
2025-01-06 21:45:37.02	55.73	8.48	
2025-01-06 21:45:37.84	55.86	8.50	
2025-01-06 21:45:38.66	55.99	8.52	
2025-01-06 21:45:39.49	56.13	8.54	
2025-01-06 21:45:40.31	56.26	8.56	
2025-01-06 21:45:41.13	56.40	8.58	
2025-01-06 21:45:41.95	56.53	8.60	
2025-01-06 21:45:42.77	56.66	8.62	
2025-01-06 21:45:43.59	56.80	8.63	
2025-01-06 21:45:44.41	56.93	8.65	
2025-01-06 21:45:45.24	57.07	8.67	
2025-01-06 21:45:46.06	57.20	8.69	
2025-01-06 21:45:46.88	57.34	8.71	
2025-01-06 21:45:47.70	57.47	8.73	
2025-01-06 21:45:48.52	57.61	8.75	
2025-01-06 21:45:49.34	57.74	8.76	
2025-01-06 21:45:50.16	57.88	8.78	
2025-01-06 21:45:50.98	58.01	8.80	
2025-01-06 21:45:51.80	58.15	8.82	
2025-01-06 21:45:52.63	58.29	8.84	
2025-01-06 21:45:53.45	58.42	8.85	
2025-01-06 21:45:54.27	58.56	8.87	
2025-01-06 21:45:55.09	58.70	8.89	
2025-01-06 21:45:55.91	58.83	8.91	
2025-01-06 21:45:56.73	58.97	8.92	
2025-01-06 21:45:57.57	59.11	8.94	
2025-01-06 21:45:58.39	59.25	8.96	
2025-01-06 21:45:59.21	59.39	8.97	
2025-01-06 21:46:00.03	59.52	8.99	
2025-01-06 21:46:00.86	59.66	9.01	
2025-01-06 21:46:01.69	59.80	9.02	
2025-01-06 21:46:02.51	59.94	9.04	
2025-01-06 21:46:03.33	60.08	9.06	
2025-01-06 21:46:04.15	60.22	9.07	
2025-01-06 21:46:04.97	60.36	9.09	
2025-01-06 21:46:05.79	60.49	9.10	
2025-01-06 21:46:06.61	60.63	9.12	
2025-01-06 21:46:07.44	60.77	9.13	
2025-01-06 21:46:08.26	60.91	9.15	
2025-01-06 21:46:09.09	61.05	9.16	
2025-01-06 21:46:09.91	61.19	9.18	
2025-01-06 21:46:10.73	61.33	9.19	
2025-01-06 21:46:11.55	61.47	9.21	
2025-01-06 21:46:12.37	61.61	9.22	
2025-01-06 21:46:13.19	61.75	9.24	
2025-01-06 21:46:14.01	61.89	9.25	
2025-01-06 21:46:14.83	62.03	9.27	
2025-01-06 21:46:15.66	62.17	9.28	
2025-01-06 21:46:16.48	62.31	9.29	
2025-01-06 21:46:17.30	62.45	9.31	
2025-01-06 21:46:18.12	62.59	9.32	
2025-01-06 21:46:18.95	62.74	9.33	
2025-01-06 21:46:19.78	62.88	9.35	
2025-01-06 21:46:20.60	63.02	9.36	
2025-01-06 21:46:21.43	63.16	9.37	
2025-01-06 21:46:22.25	63.30	9.39	
2025-01-06 21:46:23.07	63.45	9.40	
2025-01-06 21:46:23.89	63.59	9.41	
2025-01-06 21:46:24.71	63.73	9.42	
2025-01-06 21:46:25.54	63.87	9.44	
2025-01-06 21:46:26.36	64.01	9.45	
2025-01-06 21:46:27.18	64.16	9.46	
2025-01-06 21:46:28.00	64.30	9.47	
2025-01-06 21:46:28.83	64.44	9.48	
2025-01-06 21:46:29.64	64.58	9.49	
2025-01-06 21:46:30.46	64.72	9.51	
2025-01-06 21:46:31.29	64.87	9.52	
2025-01-06 21:46:32.11	65.01	9.53	
2025-01-06 21:46:32.93	65.15	9.54	
2025-01-06 21:46:33.75	65.30	9.55	
2025-01-06 21:46:34.58	65.44	9.56	
2025-01-06 21:46:35.40	65.58	9.57	
2025-01-06 21:46:36.22	65.73	9.58	
2025-01-06 21:46:37.05	65.87	9.59	
2025-01-06 21:46:37.87	66.02	9.60	
2025-01-06 21:46:38.69	66.16	9.61	
2025-01-06 21:46:39.51	66.30	9.62	
2025-01-06 21:46:40.34	66.45	9.63	
2025-01-06 21:46:41.15	66.59	9.64	
2025-01-06 21:46:41.97	66.73	9.65	
2025-01-06 21:46:42.79	66.88	9.66	
2025-01-06 21:46:43.62	67.02	9.67	
2025-01-06 21:46:44.44	67.17	9.68	
2025-01-06 21:46:45.27	67.31	9.68	
2025-01-06 21:46:46.09	67.46	9.69	
2025-01-06 21:46:46.91	67.60	9.70	
2025-01-06 21:46:47.73	67.75	9.71	
2025-01-06 21:46:48.55	67.89	9.72	
2025-01-06 21:46:49.38	68.04	9.72	
2025-01-06 21:46:50.20	68.18	9.73	
2025-01-06 21:46:51.02	68.33	9.74	
2025-01-06 21:46:51.84	68.47	9.75	
2025-01-06 21:46:52.66	68.62	9.75	
2025-01-06 21:46:53.49	68.76	9.76	
2025-01-06 21:46:54.31	68.91	9.77	
2025-01-06 21:46:55.13	69.05	9.78	
2025-01-06 21:46:55.95	69.20	9.78	
2025-01-06 21:46:56.77	69.34	9.79	
2025-01-06 21:46:57.61	69.49	9.79	
2025-01-06 21:46:58.43	69.64	9.80	
2025-01-06 21:46:59.25	69.78	9.81	
2025-01-06 21:47:00.07	69.93	9.81	
2025-01-06 21:47:00.89	70.07	9.82	
2025-01-06 21:47:01.71	70.22	9.82	
2025-01-06 21:47:02.54	70.37	9.83	
2025-01-06 21:47:03.35	70.51	9.83	
2025-01-06 21:47:04.18	70.66	9.84	
2025-01-06 21:47:05.00	70.80	9.84	
2025-01-06 21:47:05.82	70.95	9.85	
2025-01-06 21:47:06.64	71.10	9.85	
2025-01-06 21:47:07.47	71.24	9.86	
2025-01-06 21:47:08.29	71.39	9.86	
2025-01-06 21:47:09.11	71.53	9.86	
2025-01-06 21:47:09.93	71.68	9.87	
2025-01-06 21:47:10.75	71.83	9.87	
2025-01-06 21:47:11.57	71.97	9.88	
2025-01-06 21:47:12.38	72.12	9.88	
2025-01-06 21:47:13.22	72.27	9.88	
2025-01-06 21:47:14.04	72.41	9.88	
2025-01-06 21:47:14.86	72.56	9.89	
2025-01-06 21:47:15.69	72.71	9.89	
2025-01-06 21:47:16.51	72.85	9.89	
2025-01-06 21:47:17.33	73.00	9.90	
2025-01-06 21:47:18.15	73.15	9.90	
2025-01-06 21:47:18.98	73.29	9.90	
2025-01-06 21:47:19.79	73.44	9.90	
2025-01-06 21:47:20.61	73.59	9.90	
2025-01-06 21:47:21.43	73.73	9.90	
2025-01-06 21:47:22.25	73.88	9.91	
2025-01-06 21:47:23.07	74.02	9.91	
2025-01-06 21:47:23.89	74.17	9.91	
2025-01-06 21:47:24.73	74.32	9.91	
2025-01-06 21:47:25.55	74.47	9.91	
2025-01-06 21:47:26.37	74.61	9.91	
2025-01-06 21:47:27.19	74.76	9.91	
2025-01-06 21:47:28.01	74.91	9.91	
2025-01-06 21:47:28.83	75.05	9.91	
2025-01-06 21:47:29.65	75.20	9.91	
2025-01-06 21:47:30.48	75.35	9.91	
2025-01-06 21:47:31.30	75.49	9.91	
2025-01-06 21:47:32.12	75.64	9.91	
2025-01-06 21:47:32.94	75.79	9.91	
2025-01-06 21:47:33.76	75.93	9.91	
2025-01-06 21:47:34.59	76.08	9.91	
2025-01-06 21:47:35.42	76.23	9.90	
2025-01-06 21:47:36.24	76.38	9.90	
2025-01-06 21:47:37.06	76.52	9.90	
2025-01-06 21:47:37.88	76.67	9.90	
2025-01-06 21:47:38.71	76.82	9.90	
2025-01-06 21:47:39.54	76.97	9.90	
2025-01-06 21:47:40.36	77.11	9.89	
2025-01-06 21:47:41.18	77.26	9.89	
2025-01-06 21:47:42.02	77.41	9.89	
2025-01-06 21:47:42.84	77.55	9.89	
2025-01-06 21:47:43.66	77.70	9.88	
2025-01-06 21:47:44.49	77.85	9.88	
2025-01-06 21:47:45.31	78.00	9.88	
2025-01-06 21:47:46.13	78.14	9.87	
2025-01-06 21:47:46.95	78.29	9.87	
2025-01-06 21:47:47.77	78.43	9.87	
2025-01-06 21:47:48.59	78.58	9.86	
2025-01-06 21:47:49.42	78.73	9.86	
2025-01-06 21:47:50.23	78.87	9.85	
2025-01-06 21:47:51.05	79.02	9.85	
2025-01-06 21:47:51.88	79.17	9.84	
2025-01-06 21:47:52.70	79.31	9.84	
2025-01-06 21:47:53.52	79.46	9.83	
2025-01-06 21:47:54.34	79.60	9.83	
2025-01-06 21:47:55.16	79.75	9.82	
2025-01-06 21:47:55.98	79.89	9.82	
2025-01-06 21:47:56.82	80.04	9.81	
2025-01-06 21:47:57.64	80.19	9.81	
2025-01-06 21:47:58.46	80.33	9.80	
2025-01-06 21:47:59.28	80.48	9.80	
2025-01-06 21:48:00.10	80.63	9.79	
2025-01-06 21:48:00.93	80.77	9.78	
2025-01-06 21:48:01.75	80.92	9.78	
2025-01-06 21:48:02.57	81.06	9.77	
2025-01-06 21:48:03.39	81.21	9.76	
2025-01-06 21:48:04.21	81.35	9.76	
2025-01-06 21:48:05.04	81.50	9.75	
2025-01-06 21:48:05.86	81.65	9.74	
2025-01-06 21:48:06.69	81.79	9.73	
2025-01-06 21:48:07.51	81.94	9.73	
2025-01-06 21:48:08.33	82.08	9.72	
2025-01-06 21:48:09.15	82.23	9.71	
2025-01-06 21:48:09.98	82.37	9.70	
2025-01-06 21:48:10.80	82.52	9.69	
2025-01-06 21:48:11.62	82.66	9.69	
2025-01-06 21:48:12.44	82.81	9.68	
2025-01-06 21:48:13.26	82.95	9.67	
2025-01-06 21:48:14.10	83.10	9.66	
2025-01-06 21:48:14.92	83.24	9.65	
2025-01-06 21:48:15.74	83.39	9.64	
2025-01-06 21:48:16.56	83.53	9.63	
2025-01-06 21:48:17.39	83.68	9.62	
2025-01-06 21:48:18.21	83.82	9.61	
2025-01-06 21:48:19.03	83.96	9.60	
2025-01-06 21:48:19.85	84.11	9.59	
2025-01-06 21:48:20.67	84.25	9.58	
2025-01-06 21:48:21.49	84.39	9.57	
2025-01-06 21:48:22.31	84.54	9.56	
2025-01-06 21:48:23.13	84.68	9.55	
2025-01-06 21:48:23.97	84.83	9.54	
2025-01-06 21:48:24.79	84.97	9.53	
2025-01-06 21:48:25.61	85.11	9.52	
2025-01-06 21:48:26.43	85.26	9.51	
2025-01-06 21:48:27.27	85.40	9.50	
2025-01-06 21:48:28.09	85.55	9.49	
2025-01-06 21:48:28.90	85.69	9.47	
2025-01-06 21:48:29.73	85.83	9.46	
2025-01-06 21:48:30.55	85.97	9.45	
2025-01-06 21:48:31.38	86.12	9.44	
2025-01-06 21:48:32.20	86.26	9.43	
2025-01-06 21:48:33.02	86.40	9.41	
2025-01-06 21:48:33.84	86.54	9.40	
2025-01-06 21:48:34.66	86.68	9.39	
2025-01-06 21:48:35.50	86.83	9.38	
2025-01-06 21:48:36.34	86.97	9.36	
2025-01-06 21:48:37.16	87.12	9.35	
2025-01-06 21:48:37.98	87.26	9.34	
2025-01-06 21:48:38.80	87.40	9.32	
2025-01-06 21:48:39.63	87.54	9.31	
2025-01-06 21:48:40.46	87.68	9.29	
2025-01-06 21:48:41.29	87.83	9.28	
2025-01-06 21:48:42.13	87.97	9.27	
2025-01-06 21:48:42.95	88.11	9.25	
2025-01-06 21:48:43.77	88.25	9.24	
2025-01-06 21:48:44.59	88.39	9.22	
2025-01-06 21:48:45.41	88.53	9.21	
2025-01-06 21:48:46.23	88.67	9.19	
2025-01-06 21:48:47.06	88.81	9.18	
2025-01-06 21:48:47.88	88.95	9.16	
2025-01-06 21:48:48.70	89.09	9.15	
2025-01-06 21:48:49.52	89.23	9.13	
2025-01-06 21:48:50.34	89.37	9.12	
2025-01-06 21:48:51.16	89.51	9.10	
2025-01-06 21:48:51.98	89.65	9.09	
2025-01-06 21:48:52.80	89.79	9.07	
2025-01-06 21:48:53.62	89.93	9.06	
2025-01-06 21:48:54.45	90.07	9.04	
2025-01-06 21:48:55.27	90.20	9.02	
2025-01-06 21:48:56.08	90.34	9.01	
2025-01-06 21:48:56.91	90.48	8.99	
2025-01-06 21:48:57.73	90.62	8.97	
2025-01-06 21:48:58.55	90.76	8.96	
2025-01-06 21:48:59.37	90.89	8.94	
2025-01-06 21:49:00.21	91.03	8.92	
2025-01-06 21:49:01.03	91.17	8.91	
2025-01-06 21:49:01.85	91.31	8.89	
2025-01-06 21:49:02.67	91.45	8.87	
2025-01-06 21:49:03.49	91.58	8.85	
2025-01-06 21:49:04.32	91.72	8.84	
2025-01-06 21:49:05.14	91.86	8.82	
2025-01-06 21:49:05.97	92.00	8.80	
2025-01-06 21:49:06.81	92.14	8.78	
2025-01-06 21:49:07.63	92.27	8.76	
2025-01-06 21:49:08.45	92.41	8.75	
2025-01-06 21:49:09.27	92.54	8.73	
2025-01-06 21:49:10.09	92.68	8.71	
2025-01-06 21:49:10.92	92.82	8.69	
2025-01-06 21:49:11.74	92.95	8.67	
2025-01-06 21:49:12.57	93.09	8.65	
2025-01-06 21:49:13.39	93.22	8.63	
2025-01-06 21:49:14.22	93.36	8.61	
2025-01-06 21:49:15.04	93.49	8.59	
2025-01-06 21:49:15.86	93.63	8.58	
2025-01-06 21:49:16.68	93.76	8.56	
2025-01-06 21:49:17.50	93.90	8.54	
2025-01-06 21:49:18.32	94.03	8.52	
2025-01-06 21:49:19.14	94.16	8.50	
2025-01-06 21:49:19.96	94.30	8.48	
2025-01-06 21:49:20.78	94.43	8.46	
2025-01-06 21:49:21.60	94.56	8.44	
2025-01-06 21:49:22.42	94.70	8.42	
2025-01-06 21:49:23.25	94.83	8.40	
2025-01-06 21:49:24.07	94.96	8.37	
2025-01-06 21:49:24.89	95.10	8.35	
2025-01-06 21:49:25.71	95.23	8.33	
2025-01-06 21:49:26.53	95.36	8.31	
2025-01-06 21:49:27.35	95.49	8.29	
2025-01-06 21:49:28.17	95.62	8.27	
2025-01-06 21:49:29.01	95.76	8.25	
2025-01-06 21:49:29.83	95.89	8.23	
2025-01-06 21:49:30.65	96.02	8.21	
2025-01-06 21:49:31.47	96.15	8.18	
2025-01-06 21:49:32.29	96.28	8.16	
2025-01-06 21:49:33.11	96.41	8.14	
2025-01-06 21:49:33.93	96.54	8.12	
2025-01-06 21:49:34.75	96.67	8.10	
2025-01-06 21:49:35.57	96.80	8.07	
2025-01-06 21:49:36.39	96.93	8.05	
2025-01-06 21:49:37.21	97.06	8.03	
2025-01-06 21:49:38.04	97.19	8.01	
2025-01-06 21:49:38.86	97.32	7.98	
2025-01-06 21:49:39.68	97.45	7.96	
2025-01-06 21:49:40.50	97.58	7.94	
2025-01-06 21:49:41.32	97.71	7.92	
2025-01-06 21:49:42.15	97.84	7.89	
2025-01-06 21:49:42.98	97.97	7.87	
2025-01-06 21:49:43.80	98.10	7.85	
2025-01-06 21:49:44.63	98.23	7.82	
2025-01-06 21:49:45.45	98.36	7.80	
2025-01-06 21:49:46.27	98.48	7.78	
2025-01-06 21:49:47.09	98.61	7.75	
2025-01-06 21:49:47.92	98.74	7.73	
2025-01-06 21:49:48.74	98.87	7.70	
2025-01-06 21:49:49.57	98.99	7.68	
2025-01-06 21:49:50.40	99.12	7.66	
2025-01-06 21:49:51.22	99.25	7.63	
2025-01-06 21:49:52.04	99.37	7.61	
2025-01-06 21:49:52.86	99.50	7.58	
2025-01-06 21:49:53.68	99.63	7.56	
2025-01-06 21:49:54.52	99.75	7.53	
2025-01-06 21:49:55.35	99.88	7.51	
2025-01-06 21:49:56.18	100.01	7.48	
2025-01-06 21:49:57.01	100.13	7.46	
2025-01-06 21:49:57.83	100.26	7.43	
2025-01-06 21:49:58.65	100.38	7.41	
2025-01-06 21:49:59.47	100.51	7.38	
2025-01-06 21:50:00.29	100.63	7.36	
2025-01-06 21:50:01.11	100.76	7.33	
2025-01-06 21:50:01.93	100.88	7.31	
2025-01-06 21:50:02.75	101.00	7.28	
2025-01-06 21:50:03.57	101.13	7.26	
2025-01-06 21:50:04.40	101.25	7.23	
2025-01-06 21:50:05.23	101.37	7.21	
2025-01-06 21:50:06.06	101.50	7.18	
2025-01-06 21:50:06.88	101.62	7.16	
2025-01-06 21:50:07.70	101.74	7.13	
2025-01-06 21:50:08.52	101.87	7.10	
2025-01-06 21:50:09.34	101.99	7.08	
2025-01-06 21:50:10.16	102.11	7.05	
2025-01-06 21:50:10.99	102.23	7.02	
2025-01-06 21:50:11.81	102.35	7.00	
2025-01-06 21:50:12.63	102.47	6.97	
2025-01-06 21:50:13.46	102.60	6.95	
2025-01-06 21:50:14.28	102.72	6.92	
2025-01-06 21:50:15.11	102.84	6.89	
2025-01-06 21:50:15.92	102.96	6.87	
2025-01-06 21:50:16.74	103.08	6.84	
2025-01-06 21:50:17.57	103.20	6.81	
2025-01-06 21:50:18.39	103.32	6.78	
2025-01-06 21:50:19.21	103.44	6.76	
2025-01-06 21:50:20.03	103.56	6.73	
2025-01-06 21:50:20.85	103.67	6.70	
2025-01-06 21:50:21.67	103.79	6.68	
2025-01-06 21:50:22.49	103.91	6.65	
2025-01-06 21:50:23.31	104.03	6.62	
2025-01-06 21:50:24.13	104.15	6.59	
2025-01-06 21:50:24.95	104.26	6.57	
2025-01-06 21:50:25.77	104.38	6.54	
2025-01-06 21:50:26.59	104.50	6.51	
2025-01-06 21:50:27.41	104.62	6.48	
2025-01-06 21:50:28.24	104.74	6.46	
2025-01-06 21:50:29.08	104.85	6.43	
2025-01-06 21:50:29.90	104.97	6.40	
2025-01-06 21:50:30.72	105.09	6.37	
2025-01-06 21:50:31.54	105.20	6.34	
2025-01-06 21:50:32.36	105.32	6.31	
2025-01-06 21:50:33.18	105.43	6.29	
2025-01-06 21:50:34.00	105.55	6.26	
2025-01-06 21:50:34.82	105.67	6.23	
2025-01-06 21:50:35.65	105.78	6.20	
2025-01-06 21:50:36.47	105.90	6.17	
2025-01-06 21:50:37.29	106.01	6.14	
2025-01-06 21:50:38.11	106.12	6.12	
2025-01-06 21:50:38.93	106.24	6.09	
2025-01-06 21:50:39.75	106.35	6.06	
2025-01-06 21:50:40.57	106.47	6.03	
2025-01-06 21:50:41.39	106.58	6.00	
2025-01-06 21:50:42.21	106.69	5.97	
2025-01-06 21:50:43.04	106.81	5.94	
2025-01-06 21:50:43.86	106.92	5.91	
2025-01-06 21:50:44.68	107.03	5.88	
2025-01-06 21:50:45.50	107.15	5.86	
2025-01-06 21:50:46.33	107.26	5.83	
2025-01-06 21:50:47.15	107.37	5.80	
2025-01-06 21:50:47.97	107.48	5.77	
2025-01-06 21:50:48.79	107.59	5.74	
2025-01-06 21:50:49.62	107.71	5.71	
2025-01-06 21:50:50.44	107.82	5.68	
2025-01-06 21:50:51.26	107.93	5.65	
2025-01-06 21:50:52.08	108.04	5.62	
2025-01-06 21:50:52.90	108.15	5.59	
2025-01-06 21:50:53.72	108.26	5.56	
2025-01-06 21:50:54.54	108.37	5.53	
2025-01-06 21:50:55.36	108.48	5.50	
2025-01-06 21:50:56.18	108.59	5.47	
2025-01-06 21:50:57.01	108.70	5.44	
2025-01-06 21:50:57.84	108.81	5.41	
2025-01-06 21:50:58.66	108.92	5.38	
2025-01-06 21:50:59.48	109.03	5.35	
2025-01-06 21:51:00.30	109.14	5.32	
2025-01-06 21:51:01.13	109.25	5.29	
2025-01-06 21:51:01.94	109.35	5.26	
2025-01-06 21:51:02.77	109.46	5.23	
2025-01-06 21:51:03.60	109.57	5.20	
2025-01-06 21:51:04.43	109.68	5.17	
2025-01-06 21:51:05.25	109.79	5.14	
2025-01-06 21:51:06.07	109.89	5.11	
2025-01-06 21:51:06.90	110.00	5.07	
2025-01-06 21:51:07.72	110.11	5.04	
2025-01-06 21:51:08.55	110.21	5.01	
2025-01-06 21:51:09.37	110.32	4.98	
2025-01-06 21:51:10.19	110.43	4.95	
2025-01-06 21:51:11.01	110.53	4.92	
2025-01-06 21:51:11.83	110.64	4.89	
2025-01-06 21:51:12.65	110.74	4.86	
2025-01-06 21:51:13.47	110.85	4.83	
2025-01-06 21:51:14.30	110.95	4.80	
2025-01-06 21:51:15.12	111.06	4.77	
2025-01-06 21:51:15.94	111.16	4.74	
2025-01-06 21:51:16.76	111.27	4.70	
2025-01-06 21:51:17.59	111.37	4.67	
2025-01-06 21:51:18.41	111.48	4.64	
2025-01-06 21:51:19.23	111.58	4.61	
2025-01-06 21:51:20.05	111.68	4.58	
2025-01-06 21:51:20.87	111.79	4.55	
2025-01-06 21:51:21.69	111.89	4.52	
2025-01-06 21:51:22.51	111.99	4.49	
2025-01-06 21:51:23.33	112.09	4.45	
2025-01-06 21:51:24.15	112.20	4.42	
2025-01-06 21:51:24.97	112.30	4.39	
2025-01-06 21:51:25.79	112.40	4.36	
2025-01-06 21:51:26.61	112.50	4.33	
2025-01-06 21:51:27.43	112.60	4.30	
2025-01-06 21:51:28.25	112.70	4.26	
2025-01-06 21:51:29.07	112.81	4.23	
2025-01-06 21:51:29.90	112.91	4.20	
2025-01-06 21:51:30.73	113.01	4.17	
2025-01-06 21:51:31.55	113.11	4.14	
2025-01-06 21:51:32.38	113.21	4.10	
2025-01-06 21:51:33.20	113.31	4.07	
2025-01-06 21:51:34.02	113.41	4.04	
2025-01-06 21:51:34.84	113.51	4.01	

#Closed at: 2025-01-06 21:51:35