passes_logs/2025/01/06/SPB_Silybum_02/SPB_Silybum_02__20250106_135148_AQUA_rec.log

#Pass ID: 20250106_135148_AQUA
#Satellite: AQUA
#Configuration: AQUA
#Start time: 2025-01-06 13:51:48

#Version: 2.0.20230423
#Station: SPB_Silybum_02
#Location: 30.233357 lon 59.946436 lat
#TLE: 1 27424U 02022A   25005.82080434  .00002926  00000+0  61100-3 0  9995
#TLE: 2 27424  98.3578 322.4029 0001351 120.4633 269.7583 14.60643938206284

#Time	Az	El	Level	Level2	SNR	BER	Gain	Gain2
2025-01-06 13:51:50.77	247.94	4.08	
2025-01-06 13:51:51.61	248.06	4.12	
2025-01-06 13:51:52.42	248.17	4.15	
2025-01-06 13:51:53.24	248.29	4.18	
2025-01-06 13:51:54.06	248.40	4.21	
2025-01-06 13:51:54.89	248.52	4.24	
2025-01-06 13:51:55.71	248.63	4.27	
2025-01-06 13:51:56.53	248.75	4.30	
2025-01-06 13:51:57.35	248.87	4.33	
2025-01-06 13:51:58.16	248.98	4.37	
2025-01-06 13:51:58.99	249.10	4.40	
2025-01-06 13:51:59.81	249.22	4.43	
2025-01-06 13:52:00.62	249.33	4.46	
2025-01-06 13:52:01.45	249.45	4.49	
2025-01-06 13:52:02.27	249.57	4.52	
2025-01-06 13:52:03.09	249.69	4.55	
2025-01-06 13:52:03.91	249.81	4.58	
2025-01-06 13:52:04.73	249.93	4.61	
2025-01-06 13:52:05.55	250.05	4.64	
2025-01-06 13:52:06.37	250.17	4.67	
2025-01-06 13:52:07.18	250.29	4.70	
2025-01-06 13:52:08.02	250.41	4.74	
2025-01-06 13:52:08.84	250.53	4.77	
2025-01-06 13:52:09.67	250.65	4.80	
2025-01-06 13:52:10.48	250.77	4.83	
2025-01-06 13:52:11.30	250.89	4.86	
2025-01-06 13:52:12.13	251.01	4.89	
2025-01-06 13:52:12.96	251.14	4.92	
2025-01-06 13:52:13.78	251.26	4.95	
2025-01-06 13:52:14.60	251.38	4.98	
2025-01-06 13:52:15.42	251.50	5.01	
2025-01-06 13:52:16.24	251.63	5.04	
2025-01-06 13:52:17.06	251.75	5.07	
2025-01-06 13:52:17.88	251.87	5.10	
2025-01-06 13:52:18.70	251.99	5.13	
2025-01-06 13:52:19.52	252.12	5.16	
2025-01-06 13:52:20.34	252.24	5.19	
2025-01-06 13:52:21.16	252.37	5.21	
2025-01-06 13:52:21.98	252.49	5.24	
2025-01-06 13:52:22.82	252.62	5.27	
2025-01-06 13:52:23.65	252.74	5.30	
2025-01-06 13:52:24.48	252.87	5.33	
2025-01-06 13:52:25.30	253.00	5.36	
2025-01-06 13:52:26.13	253.12	5.39	
2025-01-06 13:52:26.95	253.25	5.42	
2025-01-06 13:52:27.77	253.38	5.45	
2025-01-06 13:52:28.59	253.50	5.48	
2025-01-06 13:52:29.41	253.63	5.51	
2025-01-06 13:52:30.23	253.76	5.54	
2025-01-06 13:52:31.05	253.88	5.56	
2025-01-06 13:52:31.87	254.01	5.59	
2025-01-06 13:52:32.69	254.14	5.62	
2025-01-06 13:52:33.51	254.27	5.65	
2025-01-06 13:52:34.33	254.40	5.68	
2025-01-06 13:52:35.16	254.53	5.71	
2025-01-06 13:52:35.98	254.66	5.73	
2025-01-06 13:52:36.80	254.78	5.76	
2025-01-06 13:52:37.62	254.91	5.79	
2025-01-06 13:52:38.44	255.04	5.82	
2025-01-06 13:52:39.26	255.17	5.85	
2025-01-06 13:52:40.08	255.30	5.87	
2025-01-06 13:52:40.90	255.43	5.90	
2025-01-06 13:52:41.72	255.57	5.93	
2025-01-06 13:52:42.54	255.70	5.96	
2025-01-06 13:52:43.36	255.83	5.98	
2025-01-06 13:52:44.18	255.96	6.01	
2025-01-06 13:52:45.00	256.09	6.04	
2025-01-06 13:52:45.82	256.22	6.06	
2025-01-06 13:52:46.64	256.36	6.09	
2025-01-06 13:52:47.47	256.49	6.12	
2025-01-06 13:52:48.29	256.62	6.14	
2025-01-06 13:52:49.11	256.76	6.17	
2025-01-06 13:52:49.93	256.89	6.20	
2025-01-06 13:52:50.75	257.02	6.22	
2025-01-06 13:52:51.57	257.16	6.25	
2025-01-06 13:52:52.39	257.29	6.28	
2025-01-06 13:52:53.21	257.42	6.30	
2025-01-06 13:52:54.03	257.56	6.33	
2025-01-06 13:52:54.85	257.69	6.36	
2025-01-06 13:52:55.67	257.83	6.38	
2025-01-06 13:52:56.49	257.96	6.41	
2025-01-06 13:52:57.31	258.10	6.43	
2025-01-06 13:52:58.14	258.24	6.46	
2025-01-06 13:52:58.95	258.37	6.48	
2025-01-06 13:52:59.78	258.51	6.51	
2025-01-06 13:53:00.61	258.65	6.54	
2025-01-06 13:53:01.43	258.78	6.56	
2025-01-06 13:53:02.25	258.92	6.59	
2025-01-06 13:53:03.08	259.06	6.61	
2025-01-06 13:53:03.90	259.20	6.64	
2025-01-06 13:53:04.72	259.34	6.66	
2025-01-06 13:53:05.55	259.48	6.69	
2025-01-06 13:53:06.39	259.62	6.71	
2025-01-06 13:53:07.21	259.76	6.74	
2025-01-06 13:53:08.03	259.89	6.76	
2025-01-06 13:53:08.85	260.03	6.78	
2025-01-06 13:53:09.67	260.17	6.81	
2025-01-06 13:53:10.50	260.31	6.83	
2025-01-06 13:53:11.31	260.45	6.86	
2025-01-06 13:53:12.17	260.60	6.88	
2025-01-06 13:53:12.99	260.74	6.90	
2025-01-06 13:53:13.81	260.88	6.93	
2025-01-06 13:53:14.63	261.02	6.95	
2025-01-06 13:53:15.45	261.16	6.97	
2025-01-06 13:53:16.27	261.30	7.00	
2025-01-06 13:53:17.09	261.44	7.02	
2025-01-06 13:53:17.91	261.59	7.04	
2025-01-06 13:53:18.73	261.73	7.07	
2025-01-06 13:53:19.57	261.87	7.09	
2025-01-06 13:53:20.40	262.02	7.11	
2025-01-06 13:53:21.23	262.16	7.14	
2025-01-06 13:53:22.05	262.30	7.16	
2025-01-06 13:53:22.87	262.45	7.18	
2025-01-06 13:53:23.69	262.59	7.20	
2025-01-06 13:53:24.51	262.73	7.22	
2025-01-06 13:53:25.33	262.88	7.25	
2025-01-06 13:53:26.15	263.02	7.27	
2025-01-06 13:53:26.97	263.17	7.29	
2025-01-06 13:53:27.79	263.31	7.31	
2025-01-06 13:53:28.61	263.46	7.33	
2025-01-06 13:53:29.43	263.60	7.35	
2025-01-06 13:53:30.25	263.75	7.38	
2025-01-06 13:53:31.08	263.89	7.40	
2025-01-06 13:53:31.90	264.04	7.42	
2025-01-06 13:53:32.72	264.18	7.44	
2025-01-06 13:53:33.55	264.33	7.46	
2025-01-06 13:53:34.37	264.48	7.48	
2025-01-06 13:53:35.19	264.62	7.50	
2025-01-06 13:53:36.01	264.77	7.52	
2025-01-06 13:53:36.84	264.92	7.54	
2025-01-06 13:53:37.65	265.06	7.56	
2025-01-06 13:53:38.48	265.21	7.58	
2025-01-06 13:53:39.30	265.36	7.60	
2025-01-06 13:53:40.12	265.51	7.62	
2025-01-06 13:53:40.94	265.66	7.64	
2025-01-06 13:53:41.76	265.80	7.66	
2025-01-06 13:53:42.58	265.95	7.68	
2025-01-06 13:53:43.40	266.10	7.70	
2025-01-06 13:53:44.22	266.25	7.71	
2025-01-06 13:53:45.04	266.40	7.73	
2025-01-06 13:53:45.86	266.55	7.75	
2025-01-06 13:53:46.68	266.70	7.77	
2025-01-06 13:53:47.50	266.85	7.79	
2025-01-06 13:53:48.32	267.00	7.81	
2025-01-06 13:53:49.14	267.15	7.82	
2025-01-06 13:53:49.96	267.30	7.84	
2025-01-06 13:53:50.77	267.44	7.86	
2025-01-06 13:53:51.61	267.60	7.88	
2025-01-06 13:53:52.44	267.75	7.90	
2025-01-06 13:53:53.28	267.90	7.91	
2025-01-06 13:53:54.09	268.05	7.93	
2025-01-06 13:53:54.92	268.21	7.95	
2025-01-06 13:53:55.73	268.36	7.96	
2025-01-06 13:53:56.56	268.51	7.98	
2025-01-06 13:53:57.38	268.66	8.00	
2025-01-06 13:53:58.20	268.81	8.01	
2025-01-06 13:53:59.02	268.97	8.03	
2025-01-06 13:53:59.84	269.12	8.05	
2025-01-06 13:54:00.66	269.27	8.06	
2025-01-06 13:54:01.48	269.42	8.08	
2025-01-06 13:54:02.30	269.58	8.09	
2025-01-06 13:54:03.12	269.73	8.11	
2025-01-06 13:54:03.94	269.88	8.12	
2025-01-06 13:54:04.77	270.04	8.14	
2025-01-06 13:54:05.59	270.19	8.15	
2025-01-06 13:54:06.40	270.34	8.17	
2025-01-06 13:54:07.22	270.50	8.18	
2025-01-06 13:54:08.04	270.65	8.20	
2025-01-06 13:54:08.86	270.80	8.21	
2025-01-06 13:54:09.68	270.96	8.23	
2025-01-06 13:54:10.50	271.11	8.24	
2025-01-06 13:54:11.32	271.27	8.25	
2025-01-06 13:54:12.14	271.42	8.27	
2025-01-06 13:54:12.97	271.58	8.28	
2025-01-06 13:54:13.81	271.74	8.29	
2025-01-06 13:54:14.63	271.89	8.31	
2025-01-06 13:54:15.45	272.05	8.32	
2025-01-06 13:54:16.29	272.21	8.33	
2025-01-06 13:54:17.11	272.36	8.35	
2025-01-06 13:54:17.93	272.52	8.36	
2025-01-06 13:54:18.76	272.67	8.37	
2025-01-06 13:54:19.58	272.83	8.38	
2025-01-06 13:54:20.40	272.99	8.40	
2025-01-06 13:54:21.22	273.14	8.41	
2025-01-06 13:54:22.04	273.30	8.42	
2025-01-06 13:54:22.87	273.46	8.43	
2025-01-06 13:54:23.69	273.61	8.44	
2025-01-06 13:54:24.51	273.77	8.45	
2025-01-06 13:54:25.34	273.93	8.46	
2025-01-06 13:54:26.16	274.09	8.47	
2025-01-06 13:54:26.98	274.24	8.49	
2025-01-06 13:54:27.80	274.40	8.50	
2025-01-06 13:54:28.62	274.56	8.51	
2025-01-06 13:54:29.45	274.72	8.52	
2025-01-06 13:54:30.27	274.88	8.53	
2025-01-06 13:54:31.09	275.03	8.54	
2025-01-06 13:54:31.91	275.19	8.55	
2025-01-06 13:54:32.73	275.35	8.55	
2025-01-06 13:54:33.55	275.51	8.56	
2025-01-06 13:54:34.37	275.66	8.57	
2025-01-06 13:54:35.19	275.82	8.58	
2025-01-06 13:54:36.01	275.98	8.59	
2025-01-06 13:54:36.84	276.14	8.60	
2025-01-06 13:54:37.66	276.30	8.61	
2025-01-06 13:54:38.48	276.46	8.62	
2025-01-06 13:54:39.30	276.62	8.62	
2025-01-06 13:54:40.12	276.78	8.63	
2025-01-06 13:54:40.94	276.93	8.64	
2025-01-06 13:54:41.76	277.09	8.65	
2025-01-06 13:54:42.58	277.25	8.65	
2025-01-06 13:54:43.41	277.41	8.66	
2025-01-06 13:54:44.23	277.57	8.67	
2025-01-06 13:54:45.05	277.73	8.67	
2025-01-06 13:54:45.87	277.89	8.68	
2025-01-06 13:54:46.70	278.05	8.69	
2025-01-06 13:54:47.51	278.21	8.69	
2025-01-06 13:54:48.35	278.37	8.70	
2025-01-06 13:54:49.16	278.53	8.71	
2025-01-06 13:54:49.99	278.69	8.71	
2025-01-06 13:54:50.81	278.85	8.72	
2025-01-06 13:54:51.63	279.01	8.72	
2025-01-06 13:54:52.45	279.17	8.73	
2025-01-06 13:54:53.27	279.33	8.73	
2025-01-06 13:54:54.10	279.49	8.74	
2025-01-06 13:54:54.92	279.65	8.74	
2025-01-06 13:54:55.74	279.81	8.75	
2025-01-06 13:54:56.56	279.97	8.75	
2025-01-06 13:54:57.38	280.13	8.75	
2025-01-06 13:54:58.21	280.29	8.76	
2025-01-06 13:54:59.03	280.46	8.76	
2025-01-06 13:54:59.87	280.62	8.77	
2025-01-06 13:55:00.69	280.78	8.77	
2025-01-06 13:55:01.51	280.94	8.77	
2025-01-06 13:55:02.33	281.10	8.77	
2025-01-06 13:55:03.15	281.26	8.78	
2025-01-06 13:55:03.97	281.42	8.78	
2025-01-06 13:55:04.80	281.58	8.78	
2025-01-06 13:55:05.62	281.74	8.78	
2025-01-06 13:55:06.44	281.90	8.79	
2025-01-06 13:55:07.26	282.06	8.79	
2025-01-06 13:55:08.08	282.22	8.79	
2025-01-06 13:55:08.90	282.39	8.79	
2025-01-06 13:55:09.73	282.55	8.79	
2025-01-06 13:55:10.55	282.71	8.79	
2025-01-06 13:55:11.37	282.87	8.79	
2025-01-06 13:55:12.19	283.03	8.80	
2025-01-06 13:55:13.02	283.19	8.80	
2025-01-06 13:55:13.86	283.36	8.80	
2025-01-06 13:55:14.68	283.52	8.80	
2025-01-06 13:55:15.50	283.68	8.80	
2025-01-06 13:55:16.33	283.84	8.80	
2025-01-06 13:55:17.17	284.00	8.80	
2025-01-06 13:55:17.99	284.16	8.79	
2025-01-06 13:55:18.81	284.33	8.79	
2025-01-06 13:55:19.63	284.49	8.79	
2025-01-06 13:55:20.45	284.65	8.79	
2025-01-06 13:55:21.27	284.81	8.79	
2025-01-06 13:55:22.09	284.97	8.79	
2025-01-06 13:55:22.92	285.13	8.79	
2025-01-06 13:55:23.73	285.29	8.79	
2025-01-06 13:55:24.56	285.45	8.78	
2025-01-06 13:55:25.38	285.61	8.78	
2025-01-06 13:55:26.20	285.77	8.78	
2025-01-06 13:55:27.02	285.93	8.78	
2025-01-06 13:55:27.84	286.09	8.77	
2025-01-06 13:55:28.67	286.25	8.77	
2025-01-06 13:55:29.50	286.42	8.77	
2025-01-06 13:55:30.32	286.58	8.76	
2025-01-06 13:55:31.14	286.74	8.76	
2025-01-06 13:55:31.96	286.90	8.76	
2025-01-06 13:55:32.79	287.06	8.75	
2025-01-06 13:55:33.62	287.22	8.75	
2025-01-06 13:55:34.44	287.38	8.74	
2025-01-06 13:55:35.26	287.54	8.74	
2025-01-06 13:55:36.08	287.70	8.73	
2025-01-06 13:55:36.90	287.86	8.73	
2025-01-06 13:55:37.72	288.02	8.72	
2025-01-06 13:55:38.54	288.18	8.72	
2025-01-06 13:55:39.36	288.34	8.71	
2025-01-06 13:55:40.18	288.50	8.71	
2025-01-06 13:55:41.00	288.66	8.70	
2025-01-06 13:55:41.82	288.82	8.70	
2025-01-06 13:55:42.65	288.98	8.69	
2025-01-06 13:55:43.46	289.13	8.68	
2025-01-06 13:55:44.29	289.29	8.68	
2025-01-06 13:55:45.11	289.45	8.67	
2025-01-06 13:55:45.93	289.61	8.66	
2025-01-06 13:55:46.74	289.77	8.66	
2025-01-06 13:55:47.57	289.93	8.65	
2025-01-06 13:55:48.39	290.09	8.64	
2025-01-06 13:55:49.21	290.25	8.63	
2025-01-06 13:55:50.03	290.41	8.63	
2025-01-06 13:55:50.85	290.56	8.62	
2025-01-06 13:55:51.67	290.72	8.61	
2025-01-06 13:55:52.49	290.88	8.60	
2025-01-06 13:55:53.31	291.04	8.59	
2025-01-06 13:55:54.13	291.20	8.59	
2025-01-06 13:55:54.95	291.36	8.58	
2025-01-06 13:55:55.77	291.51	8.57	
2025-01-06 13:55:56.59	291.67	8.56	
2025-01-06 13:55:57.41	291.83	8.55	
2025-01-06 13:55:58.23	291.99	8.54	
2025-01-06 13:55:59.06	292.15	8.53	
2025-01-06 13:55:59.89	292.30	8.52	
2025-01-06 13:56:00.70	292.46	8.51	
2025-01-06 13:56:01.52	292.62	8.50	
2025-01-06 13:56:02.34	292.77	8.49	
2025-01-06 13:56:03.16	292.93	8.48	
2025-01-06 13:56:04.00	293.09	8.47	
2025-01-06 13:56:04.82	293.25	8.46	
2025-01-06 13:56:05.64	293.40	8.45	
2025-01-06 13:56:06.46	293.56	8.44	
2025-01-06 13:56:07.28	293.72	8.42	
2025-01-06 13:56:08.10	293.87	8.41	
2025-01-06 13:56:08.92	294.03	8.40	
2025-01-06 13:56:09.74	294.18	8.39	
2025-01-06 13:56:10.56	294.34	8.38	
2025-01-06 13:56:11.40	294.50	8.36	
2025-01-06 13:56:12.22	294.65	8.35	
2025-01-06 13:56:13.04	294.81	8.34	
2025-01-06 13:56:13.86	294.96	8.33	
2025-01-06 13:56:14.68	295.12	8.31	
2025-01-06 13:56:15.49	295.27	8.30	
2025-01-06 13:56:16.31	295.43	8.29	
2025-01-06 13:56:17.13	295.58	8.27	
2025-01-06 13:56:17.95	295.74	8.26	
2025-01-06 13:56:18.78	295.89	8.25	
2025-01-06 13:56:19.60	296.05	8.23	
2025-01-06 13:56:20.42	296.20	8.22	
2025-01-06 13:56:21.24	296.35	8.21	
2025-01-06 13:56:22.06	296.51	8.19	
2025-01-06 13:56:22.88	296.66	8.18	
2025-01-06 13:56:23.70	296.81	8.16	
2025-01-06 13:56:24.52	296.97	8.15	
2025-01-06 13:56:25.34	297.12	8.13	
2025-01-06 13:56:26.16	297.27	8.12	
2025-01-06 13:56:26.98	297.42	8.10	
2025-01-06 13:56:27.80	297.58	8.09	
2025-01-06 13:56:28.63	297.73	8.07	
2025-01-06 13:56:29.45	297.88	8.05	
2025-01-06 13:56:30.27	298.03	8.04	
2025-01-06 13:56:31.09	298.19	8.02	
2025-01-06 13:56:31.91	298.34	8.01	
2025-01-06 13:56:32.73	298.49	7.99	
2025-01-06 13:56:33.56	298.64	7.97	
2025-01-06 13:56:34.38	298.79	7.96	
2025-01-06 13:56:35.20	298.94	7.94	
2025-01-06 13:56:36.04	299.10	7.92	
2025-01-06 13:56:36.85	299.25	7.91	
2025-01-06 13:56:37.68	299.40	7.89	
2025-01-06 13:56:38.50	299.55	7.87	
2025-01-06 13:56:39.32	299.70	7.85	
2025-01-06 13:56:40.14	299.85	7.84	
2025-01-06 13:56:40.97	300.00	7.82	
2025-01-06 13:56:41.79	300.15	7.80	
2025-01-06 13:56:42.61	300.30	7.78	
2025-01-06 13:56:43.43	300.45	7.76	
2025-01-06 13:56:44.25	300.59	7.75	
2025-01-06 13:56:45.08	300.74	7.73	
2025-01-06 13:56:45.90	300.89	7.71	
2025-01-06 13:56:46.72	301.04	7.69	
2025-01-06 13:56:47.54	301.19	7.67	
2025-01-06 13:56:48.36	301.34	7.65	
2025-01-06 13:56:49.18	301.48	7.63	
2025-01-06 13:56:50.00	301.63	7.61	
2025-01-06 13:56:50.83	301.78	7.59	
2025-01-06 13:56:51.67	301.93	7.57	
2025-01-06 13:56:52.49	302.08	7.55	
2025-01-06 13:56:53.31	302.22	7.53	
2025-01-06 13:56:54.13	302.37	7.51	
2025-01-06 13:56:54.95	302.51	7.49	
2025-01-06 13:56:55.77	302.66	7.47	
2025-01-06 13:56:56.60	302.81	7.45	
2025-01-06 13:56:57.43	302.95	7.43	
2025-01-06 13:56:58.25	303.10	7.41	
2025-01-06 13:56:59.07	303.24	7.39	
2025-01-06 13:56:59.89	303.39	7.37	
2025-01-06 13:57:00.74	303.54	7.35	
2025-01-06 13:57:01.56	303.68	7.33	
2025-01-06 13:57:02.38	303.83	7.31	
2025-01-06 13:57:03.20	303.97	7.28	
2025-01-06 13:57:04.02	304.11	7.26	
2025-01-06 13:57:04.84	304.26	7.24	
2025-01-06 13:57:05.66	304.40	7.22	
2025-01-06 13:57:06.48	304.54	7.20	
2025-01-06 13:57:07.31	304.69	7.17	
2025-01-06 13:57:08.13	304.83	7.15	
2025-01-06 13:57:08.95	304.97	7.13	
2025-01-06 13:57:09.77	305.11	7.11	
2025-01-06 13:57:10.60	305.26	7.08	
2025-01-06 13:57:11.42	305.40	7.06	
2025-01-06 13:57:12.23	305.54	7.04	
2025-01-06 13:57:13.08	305.68	7.02	
2025-01-06 13:57:13.90	305.82	6.99	
2025-01-06 13:57:14.72	305.96	6.97	
2025-01-06 13:57:15.54	306.10	6.95	
2025-01-06 13:57:16.37	306.25	6.92	
2025-01-06 13:57:17.19	306.39	6.90	
2025-01-06 13:57:18.01	306.53	6.88	
2025-01-06 13:57:18.83	306.66	6.85	
2025-01-06 13:57:19.65	306.80	6.83	
2025-01-06 13:57:20.47	306.94	6.80	
2025-01-06 13:57:21.30	307.08	6.78	
2025-01-06 13:57:22.11	307.22	6.76	
2025-01-06 13:57:22.93	307.36	6.73	
2025-01-06 13:57:23.76	307.50	6.71	
2025-01-06 13:57:24.58	307.63	6.68	
2025-01-06 13:57:25.40	307.77	6.66	
2025-01-06 13:57:26.22	307.91	6.63	
2025-01-06 13:57:27.04	308.05	6.61	
2025-01-06 13:57:27.86	308.18	6.58	
2025-01-06 13:57:28.68	308.32	6.56	
2025-01-06 13:57:29.51	308.46	6.53	
2025-01-06 13:57:30.33	308.59	6.51	
2025-01-06 13:57:31.15	308.73	6.48	
2025-01-06 13:57:31.97	308.86	6.46	
2025-01-06 13:57:32.79	309.00	6.43	
2025-01-06 13:57:33.62	309.13	6.41	
2025-01-06 13:57:34.44	309.27	6.38	
2025-01-06 13:57:35.26	309.40	6.36	
2025-01-06 13:57:36.08	309.54	6.33	
2025-01-06 13:57:36.90	309.67	6.30	
2025-01-06 13:57:37.74	309.81	6.28	
2025-01-06 13:57:38.56	309.94	6.25	
2025-01-06 13:57:39.38	310.07	6.23	
2025-01-06 13:57:40.20	310.21	6.20	
2025-01-06 13:57:41.02	310.34	6.17	
2025-01-06 13:57:41.85	310.47	6.15	
2025-01-06 13:57:42.67	310.61	6.12	
2025-01-06 13:57:43.48	310.74	6.09	
2025-01-06 13:57:44.30	310.87	6.07	
2025-01-06 13:57:45.12	311.00	6.04	
2025-01-06 13:57:45.94	311.13	6.01	
2025-01-06 13:57:46.76	311.26	5.99	
2025-01-06 13:57:47.60	311.39	5.96	
2025-01-06 13:57:48.42	311.52	5.93	
2025-01-06 13:57:49.24	311.65	5.90	
2025-01-06 13:57:50.06	311.78	5.88	
2025-01-06 13:57:50.88	311.91	5.85	
2025-01-06 13:57:51.71	312.04	5.82	
2025-01-06 13:57:52.53	312.17	5.79	
2025-01-06 13:57:53.35	312.30	5.76	
2025-01-06 13:57:54.17	312.43	5.74	
2025-01-06 13:57:54.99	312.56	5.71	
2025-01-06 13:57:55.81	312.69	5.68	
2025-01-06 13:57:56.64	312.81	5.65	
2025-01-06 13:57:57.46	312.94	5.62	
2025-01-06 13:57:58.28	313.07	5.60	
2025-01-06 13:57:59.10	313.20	5.57	
2025-01-06 13:57:59.92	313.32	5.54	
2025-01-06 13:58:00.75	313.45	5.51	
2025-01-06 13:58:01.56	313.58	5.48	
2025-01-06 13:58:02.39	313.70	5.45	
2025-01-06 13:58:03.21	313.83	5.43	
2025-01-06 13:58:04.03	313.95	5.40	
2025-01-06 13:58:04.85	314.08	5.37	
2025-01-06 13:58:05.67	314.20	5.34	
2025-01-06 13:58:06.50	314.33	5.31	
2025-01-06 13:58:07.32	314.45	5.28	
2025-01-06 13:58:08.14	314.58	5.25	
2025-01-06 13:58:08.96	314.70	5.22	
2025-01-06 13:58:09.78	314.82	5.19	
2025-01-06 13:58:10.60	314.95	5.16	
2025-01-06 13:58:11.43	315.07	5.14	
2025-01-06 13:58:12.25	315.19	5.11	
2025-01-06 13:58:13.07	315.32	5.08	
2025-01-06 13:58:13.89	315.44	5.05	
2025-01-06 13:58:14.71	315.56	5.02	
2025-01-06 13:58:15.53	315.68	4.99	
2025-01-06 13:58:16.35	315.80	4.96	
2025-01-06 13:58:17.17	315.93	4.93	
2025-01-06 13:58:17.99	316.05	4.90	
2025-01-06 13:58:18.81	316.17	4.87	
2025-01-06 13:58:19.63	316.29	4.84	
2025-01-06 13:58:20.45	316.41	4.81	
2025-01-06 13:58:21.27	316.53	4.78	
2025-01-06 13:58:22.09	316.65	4.75	
2025-01-06 13:58:22.92	316.77	4.72	
2025-01-06 13:58:23.73	316.88	4.69	
2025-01-06 13:58:24.55	317.00	4.66	
2025-01-06 13:58:25.38	317.12	4.63	
2025-01-06 13:58:26.20	317.24	4.60	
2025-01-06 13:58:27.02	317.36	4.57	
2025-01-06 13:58:27.84	317.48	4.54	
2025-01-06 13:58:28.66	317.59	4.51	
2025-01-06 13:58:29.48	317.71	4.47	
2025-01-06 13:58:30.31	317.83	4.44	
2025-01-06 13:58:31.13	317.95	4.41	
2025-01-06 13:58:31.95	318.06	4.38	
2025-01-06 13:58:32.77	318.18	4.35	
2025-01-06 13:58:33.60	318.30	4.32	
2025-01-06 13:58:34.41	318.41	4.29	
2025-01-06 13:58:35.24	318.53	4.26	
2025-01-06 13:58:36.06	318.64	4.23	
2025-01-06 13:58:36.88	318.76	4.20	
2025-01-06 13:58:37.70	318.87	4.16	
2025-01-06 13:58:38.52	318.99	4.13	
2025-01-06 13:58:39.34	319.10	4.10	
2025-01-06 13:58:40.16	319.21	4.07	
2025-01-06 13:58:40.98	319.33	4.04	
2025-01-06 13:58:41.80	319.44	4.01	

#Closed at: 2025-01-06 13:58:42