passes_logs/2025/01/06/SPB_Silybum_02/SPB_Silybum_02__20250106_181044_TERRA_rec.log

#Pass ID: 20250106_181044_TERRA
#Satellite: TERRA
#Configuration: TERRA
#Start time: 2025-01-06 18:10:44

#Version: 2.0.20230423
#Station: SPB_Silybum_02
#Location: 30.233357 lon 59.946436 lat
#TLE: 1 25994U 99068A   25005.80302029  .00001467  00000+0  31252-3 0  9990
#TLE: 2 25994  98.0232  69.1253 0003583  90.8779 334.4790 14.60375524332735

#Time	Az	El	Level	Level2	SNR	BER	Gain	Gain2
2025-01-06 18:10:46.06	150.44	4.08	
2025-01-06 18:10:47.30	150.42	4.17	
2025-01-06 18:10:48.54	150.40	4.26	
2025-01-06 18:10:49.77	150.38	4.35	
2025-01-06 18:10:51.00	150.36	4.44	
2025-01-06 18:10:52.23	150.34	4.53	
2025-01-06 18:10:53.47	150.32	4.62	
2025-01-06 18:10:54.70	150.30	4.71	
2025-01-06 18:10:55.93	150.28	4.80	
2025-01-06 18:10:57.16	150.26	4.89	
2025-01-06 18:10:58.39	150.24	4.98	
2025-01-06 18:10:59.62	150.22	5.07	
2025-01-06 18:11:00.84	150.20	5.17	
2025-01-06 18:11:02.08	150.18	5.26	
2025-01-06 18:11:03.31	150.15	5.35	
2025-01-06 18:11:04.54	150.13	5.45	
2025-01-06 18:11:05.78	150.11	5.54	
2025-01-06 18:11:07.01	150.09	5.64	
2025-01-06 18:11:08.24	150.07	5.73	
2025-01-06 18:11:09.47	150.05	5.83	
2025-01-06 18:11:10.70	150.02	5.92	
2025-01-06 18:11:11.93	150.00	6.02	
2025-01-06 18:11:13.16	149.98	6.11	
2025-01-06 18:11:14.41	149.95	6.21	
2025-01-06 18:11:15.66	149.93	6.31	
2025-01-06 18:11:16.92	149.91	6.41	
2025-01-06 18:11:18.15	149.88	6.51	
2025-01-06 18:11:19.38	149.86	6.60	
2025-01-06 18:11:20.61	149.84	6.70	
2025-01-06 18:11:21.84	149.81	6.80	
2025-01-06 18:11:23.09	149.79	6.90	
2025-01-06 18:11:24.32	149.76	7.00	
2025-01-06 18:11:25.55	149.74	7.10	
2025-01-06 18:11:26.78	149.71	7.20	
2025-01-06 18:11:28.01	149.69	7.31	
2025-01-06 18:11:29.25	149.66	7.41	
2025-01-06 18:11:30.48	149.64	7.51	
2025-01-06 18:11:31.71	149.61	7.61	
2025-01-06 18:11:32.96	149.58	7.72	
2025-01-06 18:11:34.19	149.56	7.82	
2025-01-06 18:11:35.41	149.53	7.92	
2025-01-06 18:11:36.64	149.50	8.03	
2025-01-06 18:11:37.88	149.48	8.13	
2025-01-06 18:11:39.12	149.45	8.24	
2025-01-06 18:11:40.36	149.42	8.35	
2025-01-06 18:11:41.60	149.39	8.45	
2025-01-06 18:11:42.84	149.37	8.56	
2025-01-06 18:11:44.07	149.34	8.67	
2025-01-06 18:11:45.30	149.31	8.78	
2025-01-06 18:11:46.53	149.28	8.89	
2025-01-06 18:11:47.77	149.25	9.00	
2025-01-06 18:11:49.00	149.22	9.10	
2025-01-06 18:11:50.23	149.19	9.21	
2025-01-06 18:11:51.46	149.16	9.32	
2025-01-06 18:11:52.69	149.13	9.44	
2025-01-06 18:11:53.92	149.10	9.55	
2025-01-06 18:11:55.15	149.07	9.66	
2025-01-06 18:11:56.38	149.04	9.77	
2025-01-06 18:11:57.61	149.01	9.89	
2025-01-06 18:11:58.84	148.98	10.00	
2025-01-06 18:12:00.08	148.95	10.11	
2025-01-06 18:12:01.31	148.91	10.23	
2025-01-06 18:12:02.55	148.88	10.35	
2025-01-06 18:12:03.78	148.85	10.46	
2025-01-06 18:12:05.00	148.82	10.58	
2025-01-06 18:12:06.23	148.78	10.70	
2025-01-06 18:12:07.46	148.75	10.81	
2025-01-06 18:12:08.71	148.71	10.93	
2025-01-06 18:12:09.94	148.68	11.05	
2025-01-06 18:12:11.17	148.65	11.17	
2025-01-06 18:12:12.40	148.61	11.29	
2025-01-06 18:12:13.63	148.57	11.41	
2025-01-06 18:12:14.87	148.54	11.54	
2025-01-06 18:12:16.10	148.50	11.66	
2025-01-06 18:12:17.34	148.47	11.78	
2025-01-06 18:12:18.57	148.43	11.91	
2025-01-06 18:12:19.81	148.39	12.03	
2025-01-06 18:12:21.04	148.35	12.16	
2025-01-06 18:12:22.27	148.32	12.28	
2025-01-06 18:12:23.51	148.28	12.41	
2025-01-06 18:12:24.75	148.24	12.54	
2025-01-06 18:12:25.98	148.20	12.67	
2025-01-06 18:12:27.21	148.16	12.80	
2025-01-06 18:12:28.44	148.12	12.93	
2025-01-06 18:12:29.66	148.08	13.06	
2025-01-06 18:12:30.90	148.04	13.19	
2025-01-06 18:12:32.12	148.00	13.32	
2025-01-06 18:12:33.35	147.96	13.45	
2025-01-06 18:12:34.58	147.92	13.59	
2025-01-06 18:12:35.81	147.87	13.72	
2025-01-06 18:12:37.05	147.83	13.86	
2025-01-06 18:12:38.28	147.79	13.99	
2025-01-06 18:12:39.52	147.74	14.13	
2025-01-06 18:12:40.75	147.70	14.27	
2025-01-06 18:12:41.98	147.65	14.40	
2025-01-06 18:12:43.23	147.61	14.55	
2025-01-06 18:12:44.45	147.56	14.69	
2025-01-06 18:12:45.68	147.52	14.83	
2025-01-06 18:12:46.91	147.47	14.97	
2025-01-06 18:12:48.15	147.42	15.11	
2025-01-06 18:12:49.38	147.37	15.26	
2025-01-06 18:12:50.61	147.33	15.40	
2025-01-06 18:12:51.83	147.28	15.54	
2025-01-06 18:12:53.06	147.23	15.69	
2025-01-06 18:12:54.31	147.18	15.84	
2025-01-06 18:12:55.54	147.13	15.99	
2025-01-06 18:12:56.78	147.08	16.14	
2025-01-06 18:12:58.00	147.02	16.29	
2025-01-06 18:12:59.24	146.97	16.44	
2025-01-06 18:13:00.46	146.92	16.59	
2025-01-06 18:13:01.69	146.87	16.75	
2025-01-06 18:13:02.92	146.81	16.90	
2025-01-06 18:13:04.17	146.76	17.06	
2025-01-06 18:13:05.40	146.70	17.22	
2025-01-06 18:13:06.62	146.65	17.37	
2025-01-06 18:13:07.85	146.59	17.53	
2025-01-06 18:13:09.08	146.53	17.69	
2025-01-06 18:13:10.30	146.47	17.85	
2025-01-06 18:13:11.53	146.42	18.01	
2025-01-06 18:13:12.76	146.36	18.18	
2025-01-06 18:13:13.99	146.30	18.34	
2025-01-06 18:13:15.22	146.23	18.51	
2025-01-06 18:13:16.47	146.17	18.68	
2025-01-06 18:13:17.72	146.11	18.85	
2025-01-06 18:13:18.96	146.05	19.02	
2025-01-06 18:13:20.20	145.98	19.19	
2025-01-06 18:13:21.43	145.92	19.36	
2025-01-06 18:13:22.66	145.85	19.53	
2025-01-06 18:13:23.89	145.78	19.71	
2025-01-06 18:13:25.11	145.72	19.88	
2025-01-06 18:13:26.34	145.65	20.06	
2025-01-06 18:13:27.57	145.58	20.24	
2025-01-06 18:13:28.81	145.51	20.42	
2025-01-06 18:13:30.05	145.44	20.60	
2025-01-06 18:13:31.28	145.37	20.78	
2025-01-06 18:13:32.53	145.29	20.97	
2025-01-06 18:13:33.75	145.22	21.15	
2025-01-06 18:13:35.00	145.14	21.34	
2025-01-06 18:13:36.23	145.07	21.53	
2025-01-06 18:13:37.46	144.99	21.72	
2025-01-06 18:13:38.70	144.91	21.92	
2025-01-06 18:13:39.93	144.83	22.11	
2025-01-06 18:13:41.16	144.75	22.30	
2025-01-06 18:13:42.39	144.67	22.50	
2025-01-06 18:13:43.62	144.59	22.70	
2025-01-06 18:13:44.86	144.51	22.90	
2025-01-06 18:13:46.09	144.42	23.10	
2025-01-06 18:13:47.32	144.34	23.30	
2025-01-06 18:13:48.55	144.25	23.50	
2025-01-06 18:13:49.78	144.16	23.71	
2025-01-06 18:13:51.01	144.07	23.92	
2025-01-06 18:13:52.24	143.98	24.12	
2025-01-06 18:13:53.47	143.89	24.34	
2025-01-06 18:13:54.72	143.80	24.55	
2025-01-06 18:13:55.95	143.70	24.77	
2025-01-06 18:13:57.18	143.61	24.98	
2025-01-06 18:13:58.42	143.51	25.20	
2025-01-06 18:13:59.65	143.41	25.42	
2025-01-06 18:14:00.89	143.31	25.65	
2025-01-06 18:14:02.12	143.20	25.87	
2025-01-06 18:14:03.36	143.10	26.10	
2025-01-06 18:14:04.58	143.00	26.32	
2025-01-06 18:14:05.82	142.89	26.55	
2025-01-06 18:14:07.05	142.78	26.79	
2025-01-06 18:14:08.28	142.67	27.02	
2025-01-06 18:14:09.51	142.56	27.25	
2025-01-06 18:14:10.76	142.44	27.50	
2025-01-06 18:14:11.99	142.33	27.74	
2025-01-06 18:14:13.22	142.21	27.98	
2025-01-06 18:14:14.46	142.09	28.22	
2025-01-06 18:14:15.70	141.97	28.47	
2025-01-06 18:14:16.93	141.84	28.72	
2025-01-06 18:14:18.16	141.72	28.97	
2025-01-06 18:14:19.39	141.59	29.23	
2025-01-06 18:14:20.62	141.46	29.48	
2025-01-06 18:14:21.87	141.33	29.74	
2025-01-06 18:14:23.13	141.19	30.01	
2025-01-06 18:14:24.36	141.05	30.27	
2025-01-06 18:14:25.59	140.91	30.54	
2025-01-06 18:14:26.82	140.77	30.80	
2025-01-06 18:14:28.06	140.63	31.08	
2025-01-06 18:14:29.28	140.48	31.35	
2025-01-06 18:14:30.53	140.33	31.63	
2025-01-06 18:14:31.76	140.18	31.90	
2025-01-06 18:14:32.99	140.02	32.18	
2025-01-06 18:14:34.22	139.86	32.47	
2025-01-06 18:14:35.45	139.70	32.75	
2025-01-06 18:14:36.68	139.54	33.04	
2025-01-06 18:14:37.91	139.37	33.33	
2025-01-06 18:14:39.14	139.20	33.62	
2025-01-06 18:14:40.38	139.03	33.92	
2025-01-06 18:14:41.61	138.85	34.22	
2025-01-06 18:14:42.84	138.67	34.52	
2025-01-06 18:14:44.07	138.49	34.82	
2025-01-06 18:14:45.32	138.30	35.14	
2025-01-06 18:14:46.55	138.11	35.45	
2025-01-06 18:14:47.78	137.92	35.76	
2025-01-06 18:14:49.01	137.72	36.07	
2025-01-06 18:14:50.25	137.51	36.39	
2025-01-06 18:14:51.50	137.30	36.72	
2025-01-06 18:14:52.74	137.09	37.05	
2025-01-06 18:14:53.97	136.88	37.38	
2025-01-06 18:14:55.20	136.66	37.71	
2025-01-06 18:14:56.42	136.43	38.04	
2025-01-06 18:14:57.65	136.20	38.37	
2025-01-06 18:14:58.88	135.97	38.71	
2025-01-06 18:15:00.10	135.73	39.05	
2025-01-06 18:15:01.34	135.49	39.40	
2025-01-06 18:15:02.56	135.24	39.75	
2025-01-06 18:15:03.80	134.98	40.10	
2025-01-06 18:15:05.03	134.72	40.45	
2025-01-06 18:15:06.26	134.45	40.81	
2025-01-06 18:15:07.49	134.18	41.17	
2025-01-06 18:15:08.72	133.90	41.54	
2025-01-06 18:15:09.97	133.61	41.91	
2025-01-06 18:15:11.20	133.31	42.28	
2025-01-06 18:15:12.43	133.01	42.65	
2025-01-06 18:15:13.66	132.70	43.03	
2025-01-06 18:15:14.89	132.39	43.41	
2025-01-06 18:15:16.11	132.07	43.78	
2025-01-06 18:15:17.36	131.73	44.18	
2025-01-06 18:15:18.59	131.39	44.56	
2025-01-06 18:15:19.82	131.04	44.95	
2025-01-06 18:15:21.05	130.68	45.35	
2025-01-06 18:15:22.29	130.32	45.75	
2025-01-06 18:15:23.54	129.93	46.15	
2025-01-06 18:15:24.76	129.55	46.55	
2025-01-06 18:15:26.00	129.15	46.96	
2025-01-06 18:15:27.24	128.74	47.37	
2025-01-06 18:15:28.47	128.32	47.78	
2025-01-06 18:15:29.70	127.89	48.19	
2025-01-06 18:15:30.93	127.45	48.60	
2025-01-06 18:15:32.16	127.00	49.02	
2025-01-06 18:15:33.39	126.53	49.44	
2025-01-06 18:15:34.62	126.05	49.86	
2025-01-06 18:15:35.85	125.56	50.28	
2025-01-06 18:15:37.08	125.05	50.70	
2025-01-06 18:15:38.31	124.53	51.13	
2025-01-06 18:15:39.56	123.98	51.56	
2025-01-06 18:15:40.79	123.43	51.99	
2025-01-06 18:15:42.02	122.86	52.42	
2025-01-06 18:15:43.27	122.26	52.86	
2025-01-06 18:15:44.51	121.65	53.29	
2025-01-06 18:15:45.74	121.03	53.72	
2025-01-06 18:15:46.97	120.39	54.16	
2025-01-06 18:15:48.20	119.72	54.59	
2025-01-06 18:15:49.45	119.03	55.03	
2025-01-06 18:15:50.68	118.32	55.46	
2025-01-06 18:15:51.91	117.60	55.89	
2025-01-06 18:15:53.15	116.84	56.32	
2025-01-06 18:15:54.38	116.07	56.75	
2025-01-06 18:15:55.61	115.27	57.17	
2025-01-06 18:15:56.84	114.44	57.59	
2025-01-06 18:15:58.07	113.59	58.02	
2025-01-06 18:15:59.30	112.72	58.43	
2025-01-06 18:16:00.53	111.81	58.85	
2025-01-06 18:16:01.76	110.88	59.26	
2025-01-06 18:16:02.99	109.91	59.66	
2025-01-06 18:16:04.22	108.92	60.06	
2025-01-06 18:16:05.45	107.89	60.46	
2025-01-06 18:16:06.68	106.83	60.85	
2025-01-06 18:16:07.91	105.74	61.23	
2025-01-06 18:16:09.14	104.61	61.61	
2025-01-06 18:16:10.37	103.45	61.98	
2025-01-06 18:16:11.60	102.25	62.34	
2025-01-06 18:16:12.83	101.02	62.69	
2025-01-06 18:16:14.06	99.75	63.03	
2025-01-06 18:16:15.29	98.45	63.36	
2025-01-06 18:16:16.52	97.11	63.68	
2025-01-06 18:16:17.77	95.71	63.99	
2025-01-06 18:16:18.99	94.30	64.29	
2025-01-06 18:16:20.23	92.84	64.57	
2025-01-06 18:16:21.46	91.35	64.84	
2025-01-06 18:16:22.69	89.83	65.09	
2025-01-06 18:16:23.92	88.27	65.33	
2025-01-06 18:16:25.16	86.67	65.55	
2025-01-06 18:16:26.40	85.04	65.76	
2025-01-06 18:16:27.64	83.38	65.95	
2025-01-06 18:16:28.87	81.70	66.12	
2025-01-06 18:16:30.10	80.00	66.27	
2025-01-06 18:16:31.33	78.27	66.40	
2025-01-06 18:16:32.56	76.53	66.52	
2025-01-06 18:16:33.79	74.77	66.61	
2025-01-06 18:16:35.04	72.96	66.68	
2025-01-06 18:16:36.27	71.18	66.73	
2025-01-06 18:16:37.50	69.39	66.76	
2025-01-06 18:16:38.73	67.59	66.77	
2025-01-06 18:16:39.96	65.79	66.76	
2025-01-06 18:16:41.19	64.00	66.73	
2025-01-06 18:16:42.41	62.23	66.68	
2025-01-06 18:16:43.66	60.43	66.60	
2025-01-06 18:16:44.89	58.67	66.51	
2025-01-06 18:16:46.12	56.93	66.40	
2025-01-06 18:16:47.35	55.20	66.27	
2025-01-06 18:16:48.58	53.50	66.11	
2025-01-06 18:16:49.82	51.81	65.94	
2025-01-06 18:16:51.05	50.17	65.75	
2025-01-06 18:16:52.28	48.55	65.55	
2025-01-06 18:16:53.51	46.96	65.33	
2025-01-06 18:16:54.74	45.41	65.09	
2025-01-06 18:16:55.97	43.89	64.84	
2025-01-06 18:16:57.20	42.40	64.57	
2025-01-06 18:16:58.43	40.95	64.29	
2025-01-06 18:16:59.66	39.54	63.99	
2025-01-06 18:17:00.90	38.15	63.68	
2025-01-06 18:17:02.13	36.81	63.36	
2025-01-06 18:17:03.35	35.52	63.03	
2025-01-06 18:17:04.58	34.26	62.69	
2025-01-06 18:17:05.82	33.02	62.34	
2025-01-06 18:17:07.04	31.83	61.98	
2025-01-06 18:17:08.27	30.67	61.62	
2025-01-06 18:17:09.50	29.55	61.24	
2025-01-06 18:17:10.73	28.46	60.86	
2025-01-06 18:17:11.96	27.40	60.47	
2025-01-06 18:17:13.20	26.36	60.07	
2025-01-06 18:17:14.44	25.36	59.67	
2025-01-06 18:17:15.66	24.41	59.27	
2025-01-06 18:17:16.90	23.47	58.85	
2025-01-06 18:17:18.13	22.56	58.44	
2025-01-06 18:17:19.36	21.69	58.02	
2025-01-06 18:17:20.59	20.84	57.60	
2025-01-06 18:17:21.82	20.02	57.18	
2025-01-06 18:17:23.07	19.21	56.75	
2025-01-06 18:17:24.30	18.44	56.32	
2025-01-06 18:17:25.53	17.69	55.90	
2025-01-06 18:17:26.76	16.96	55.47	
2025-01-06 18:17:27.99	16.26	55.04	
2025-01-06 18:17:29.23	15.57	54.60	
2025-01-06 18:17:30.47	14.90	54.17	
2025-01-06 18:17:31.70	14.26	53.74	
2025-01-06 18:17:32.93	13.64	53.31	
2025-01-06 18:17:34.16	13.04	52.88	
2025-01-06 18:17:35.39	12.45	52.45	
2025-01-06 18:17:36.62	11.88	52.02	
2025-01-06 18:17:37.85	11.33	51.60	
2025-01-06 18:17:39.08	10.79	51.17	
2025-01-06 18:17:40.32	10.27	50.74	
2025-01-06 18:17:41.55	9.76	50.32	
2025-01-06 18:17:42.78	9.27	49.90	
2025-01-06 18:17:44.01	8.79	49.48	
2025-01-06 18:17:45.25	8.32	49.06	
2025-01-06 18:17:46.47	7.87	48.65	
2025-01-06 18:17:47.70	7.43	48.24	
2025-01-06 18:17:48.94	7.00	47.82	
2025-01-06 18:17:50.18	6.58	47.41	
2025-01-06 18:17:51.41	6.17	47.01	
2025-01-06 18:17:52.65	5.77	46.60	
2025-01-06 18:17:53.88	5.39	46.20	
2025-01-06 18:17:55.11	5.01	45.80	
2025-01-06 18:17:56.33	4.65	45.41	
2025-01-06 18:17:57.56	4.29	45.02	
2025-01-06 18:17:58.79	3.94	44.63	
2025-01-06 18:18:00.03	3.60	44.24	
2025-01-06 18:18:01.26	3.27	43.86	
2025-01-06 18:18:02.49	2.95	43.48	
2025-01-06 18:18:03.72	2.63	43.10	
2025-01-06 18:18:04.95	2.32	42.72	
2025-01-06 18:18:06.18	2.02	42.35	
2025-01-06 18:18:07.41	1.73	41.98	
2025-01-06 18:18:08.64	1.44	41.62	
2025-01-06 18:18:09.87	1.16	41.26	
2025-01-06 18:18:11.10	0.89	40.90	
2025-01-06 18:18:12.33	0.62	40.54	
2025-01-06 18:18:13.55	0.36	40.19	
2025-01-06 18:18:14.78	0.11	39.84	
2025-01-06 18:18:16.01	359.86	39.49	
2025-01-06 18:18:17.24	359.61	39.15	
2025-01-06 18:18:18.47	359.38	38.81	
2025-01-06 18:18:19.70	359.14	38.47	
2025-01-06 18:18:20.92	358.91	38.13	
2025-01-06 18:18:22.15	358.69	37.80	
2025-01-06 18:18:23.38	358.47	37.47	
2025-01-06 18:18:24.61	358.26	37.15	
2025-01-06 18:18:25.84	358.04	36.82	
2025-01-06 18:18:27.07	357.84	36.50	
2025-01-06 18:18:28.30	357.64	36.19	
2025-01-06 18:18:29.54	357.44	35.87	
2025-01-06 18:18:30.77	357.24	35.56	
2025-01-06 18:18:32.00	357.05	35.25	
2025-01-06 18:18:33.23	356.87	34.94	
2025-01-06 18:18:34.46	356.68	34.64	
2025-01-06 18:18:35.69	356.50	34.34	
2025-01-06 18:18:36.92	356.33	34.04	
2025-01-06 18:18:38.15	356.16	33.74	
2025-01-06 18:18:39.38	355.99	33.45	
2025-01-06 18:18:40.61	355.82	33.16	
2025-01-06 18:18:41.84	355.66	32.87	
2025-01-06 18:18:43.07	355.50	32.59	
2025-01-06 18:18:44.30	355.34	32.31	
2025-01-06 18:18:45.53	355.18	32.03	
2025-01-06 18:18:46.77	355.03	31.75	
2025-01-06 18:18:48.00	354.88	31.48	
2025-01-06 18:18:49.23	354.74	31.20	
2025-01-06 18:18:50.49	354.59	30.93	
2025-01-06 18:18:51.72	354.45	30.66	
2025-01-06 18:18:52.94	354.31	30.40	
2025-01-06 18:18:54.18	354.17	30.14	
2025-01-06 18:18:55.41	354.04	29.88	
2025-01-06 18:18:56.64	353.91	29.62	
2025-01-06 18:18:57.88	353.78	29.36	
2025-01-06 18:18:59.12	353.65	29.11	
2025-01-06 18:19:00.35	353.52	28.86	
2025-01-06 18:19:01.58	353.40	28.61	
2025-01-06 18:19:02.81	353.28	28.36	
2025-01-06 18:19:04.05	353.16	28.12	
2025-01-06 18:19:05.28	353.04	27.88	
2025-01-06 18:19:06.51	352.93	27.64	
2025-01-06 18:19:07.74	352.81	27.40	
2025-01-06 18:19:08.98	352.70	27.16	
2025-01-06 18:19:10.21	352.59	26.93	
2025-01-06 18:19:11.44	352.48	26.70	
2025-01-06 18:19:12.67	352.38	26.47	
2025-01-06 18:19:13.90	352.27	26.24	
2025-01-06 18:19:15.13	352.17	26.02	
2025-01-06 18:19:16.36	352.07	25.79	
2025-01-06 18:19:17.60	351.97	25.57	
2025-01-06 18:19:18.84	351.87	25.35	
2025-01-06 18:19:20.07	351.77	25.13	
2025-01-06 18:19:21.30	351.67	24.92	
2025-01-06 18:19:22.53	351.58	24.70	
2025-01-06 18:19:23.78	351.49	24.49	
2025-01-06 18:19:25.02	351.39	24.27	
2025-01-06 18:19:26.25	351.30	24.06	
2025-01-06 18:19:27.48	351.21	23.86	
2025-01-06 18:19:28.71	351.13	23.65	
2025-01-06 18:19:29.94	351.04	23.45	
2025-01-06 18:19:31.17	350.96	23.25	
2025-01-06 18:19:32.40	350.87	23.05	
2025-01-06 18:19:33.63	350.79	22.85	
2025-01-06 18:19:34.85	350.71	22.65	
2025-01-06 18:19:36.09	350.63	22.46	
2025-01-06 18:19:37.32	350.55	22.26	
2025-01-06 18:19:38.55	350.47	22.07	
2025-01-06 18:19:39.79	350.39	21.88	
2025-01-06 18:19:41.02	350.32	21.69	
2025-01-06 18:19:42.25	350.24	21.50	
2025-01-06 18:19:43.48	350.17	21.31	
2025-01-06 18:19:44.71	350.09	21.13	
2025-01-06 18:19:45.94	350.02	20.94	
2025-01-06 18:19:47.17	349.95	20.76	
2025-01-06 18:19:48.40	349.88	20.58	
2025-01-06 18:19:49.63	349.81	20.40	
2025-01-06 18:19:50.88	349.74	20.22	
2025-01-06 18:19:52.12	349.67	20.04	
2025-01-06 18:19:53.36	349.61	19.87	
2025-01-06 18:19:54.59	349.54	19.69	
2025-01-06 18:19:55.83	349.47	19.52	
2025-01-06 18:19:57.07	349.41	19.35	
2025-01-06 18:19:58.31	349.35	19.17	
2025-01-06 18:19:59.54	349.28	19.00	
2025-01-06 18:20:00.77	349.22	18.84	
2025-01-06 18:20:02.00	349.16	18.67	
2025-01-06 18:20:03.23	349.10	18.50	
2025-01-06 18:20:04.46	349.04	18.34	
2025-01-06 18:20:05.69	348.98	18.18	
2025-01-06 18:20:06.92	348.92	18.02	
2025-01-06 18:20:08.14	348.87	17.86	
2025-01-06 18:20:09.37	348.81	17.70	
2025-01-06 18:20:10.60	348.75	17.54	
2025-01-06 18:20:11.83	348.70	17.38	
2025-01-06 18:20:13.06	348.64	17.22	
2025-01-06 18:20:14.30	348.59	17.07	
2025-01-06 18:20:15.54	348.54	16.91	
2025-01-06 18:20:16.77	348.48	16.76	
2025-01-06 18:20:18.00	348.43	16.61	
2025-01-06 18:20:19.25	348.38	16.45	
2025-01-06 18:20:20.48	348.33	16.30	
2025-01-06 18:20:21.70	348.28	16.15	
2025-01-06 18:20:22.93	348.23	16.01	
2025-01-06 18:20:24.17	348.18	15.86	
2025-01-06 18:20:25.40	348.13	15.71	
2025-01-06 18:20:26.63	348.08	15.57	
2025-01-06 18:20:27.86	348.03	15.42	
2025-01-06 18:20:29.09	347.99	15.28	
2025-01-06 18:20:30.32	347.94	15.14	
2025-01-06 18:20:31.55	347.89	14.99	
2025-01-06 18:20:32.78	347.85	14.85	
2025-01-06 18:20:34.01	347.80	14.71	
2025-01-06 18:20:35.24	347.76	14.57	
2025-01-06 18:20:36.49	347.72	14.43	
2025-01-06 18:20:37.72	347.67	14.30	
2025-01-06 18:20:38.95	347.63	14.16	
2025-01-06 18:20:40.19	347.59	14.02	
2025-01-06 18:20:41.42	347.54	13.89	
2025-01-06 18:20:42.64	347.50	13.76	
2025-01-06 18:20:43.89	347.46	13.62	
2025-01-06 18:20:45.12	347.42	13.49	
2025-01-06 18:20:46.35	347.38	13.36	
2025-01-06 18:20:47.58	347.34	13.22	
2025-01-06 18:20:48.81	347.30	13.09	
2025-01-06 18:20:50.03	347.26	12.97	
2025-01-06 18:20:51.28	347.22	12.84	
2025-01-06 18:20:52.50	347.18	12.71	
2025-01-06 18:20:53.73	347.15	12.58	
2025-01-06 18:20:54.96	347.11	12.45	
2025-01-06 18:20:56.19	347.07	12.33	
2025-01-06 18:20:57.42	347.04	12.20	
2025-01-06 18:20:58.65	347.00	12.08	
2025-01-06 18:20:59.88	346.96	11.96	
2025-01-06 18:21:01.11	346.93	11.83	
2025-01-06 18:21:02.34	346.89	11.71	
2025-01-06 18:21:03.57	346.86	11.59	
2025-01-06 18:21:04.80	346.82	11.47	
2025-01-06 18:21:06.03	346.79	11.35	
2025-01-06 18:21:07.26	346.76	11.23	
2025-01-06 18:21:08.49	346.72	11.11	
2025-01-06 18:21:09.72	346.69	10.99	
2025-01-06 18:21:10.97	346.66	10.87	
2025-01-06 18:21:12.20	346.62	10.75	
2025-01-06 18:21:13.43	346.59	10.64	
2025-01-06 18:21:14.65	346.56	10.52	
2025-01-06 18:21:15.89	346.53	10.41	
2025-01-06 18:21:17.12	346.50	10.29	
2025-01-06 18:21:18.35	346.47	10.18	
2025-01-06 18:21:19.58	346.44	10.06	
2025-01-06 18:21:20.81	346.40	9.95	
2025-01-06 18:21:22.04	346.37	9.84	
2025-01-06 18:21:23.29	346.34	9.72	
2025-01-06 18:21:24.52	346.32	9.61	
2025-01-06 18:21:25.75	346.29	9.50	
2025-01-06 18:21:26.98	346.26	9.39	
2025-01-06 18:21:28.21	346.23	9.28	
2025-01-06 18:21:29.44	346.20	9.17	
2025-01-06 18:21:30.67	346.17	9.06	
2025-01-06 18:21:31.90	346.14	8.95	
2025-01-06 18:21:33.13	346.12	8.85	
2025-01-06 18:21:34.36	346.09	8.74	
2025-01-06 18:21:35.59	346.06	8.63	
2025-01-06 18:21:36.82	346.04	8.53	
2025-01-06 18:21:38.05	346.01	8.42	
2025-01-06 18:21:39.30	345.98	8.31	
2025-01-06 18:21:40.52	345.96	8.21	
2025-01-06 18:21:41.75	345.93	8.11	
2025-01-06 18:21:42.98	345.91	8.00	
2025-01-06 18:21:44.21	345.88	7.90	
2025-01-06 18:21:45.46	345.86	7.79	
2025-01-06 18:21:46.69	345.83	7.69	
2025-01-06 18:21:47.91	345.81	7.59	
2025-01-06 18:21:49.15	345.78	7.49	
2025-01-06 18:21:50.38	345.76	7.39	
2025-01-06 18:21:51.61	345.73	7.29	
2025-01-06 18:21:52.85	345.71	7.19	
2025-01-06 18:21:54.08	345.69	7.09	
2025-01-06 18:21:55.32	345.66	6.99	
2025-01-06 18:21:56.55	345.64	6.89	
2025-01-06 18:21:57.79	345.62	6.79	
2025-01-06 18:21:59.02	345.59	6.69	
2025-01-06 18:22:00.25	345.57	6.59	
2025-01-06 18:22:01.48	345.55	6.49	
2025-01-06 18:22:02.71	345.53	6.40	
2025-01-06 18:22:03.94	345.51	6.30	
2025-01-06 18:22:05.17	345.48	6.20	
2025-01-06 18:22:06.41	345.46	6.11	
2025-01-06 18:22:07.65	345.44	6.01	
2025-01-06 18:22:08.88	345.42	5.92	
2025-01-06 18:22:10.11	345.40	5.82	
2025-01-06 18:22:11.34	345.38	5.73	
2025-01-06 18:22:12.58	345.36	5.63	
2025-01-06 18:22:13.81	345.34	5.54	
2025-01-06 18:22:15.04	345.32	5.45	
2025-01-06 18:22:16.27	345.30	5.35	
2025-01-06 18:22:17.50	345.28	5.26	
2025-01-06 18:22:18.73	345.26	5.17	
2025-01-06 18:22:19.96	345.24	5.08	
2025-01-06 18:22:21.19	345.22	4.99	
2025-01-06 18:22:22.42	345.20	4.90	
2025-01-06 18:22:23.65	345.18	4.81	
2025-01-06 18:22:24.88	345.16	4.72	
2025-01-06 18:22:26.11	345.14	4.63	
2025-01-06 18:22:27.34	345.12	4.54	
2025-01-06 18:22:28.57	345.11	4.45	
2025-01-06 18:22:29.80	345.09	4.36	
2025-01-06 18:22:31.03	345.07	4.27	
2025-01-06 18:22:32.27	345.05	4.18	
2025-01-06 18:22:33.50	345.03	4.09	
2025-01-06 18:22:34.73	345.02	4.00	

#Closed at: 2025-01-06 18:22:34