passes_logs/2025/01/06/SPB_Silybum_02/SPB_Silybum_02__20250106_163457_TERRA_rec.log

#Pass ID: 20250106_163457_TERRA
#Satellite: TERRA
#Configuration: TERRA
#Start time: 2025-01-06 16:34:56

#Version: 2.0.20230423
#Station: SPB_Silybum_02
#Location: 30.233357 lon 59.946436 lat
#TLE: 1 25994U 99068A   25005.80302029  .00001467  00000+0  31252-3 0  9990
#TLE: 2 25994  98.0232  69.1253 0003583  90.8779 334.4790 14.60375524332735

#Time	Az	El	Level	Level2	SNR	BER	Gain	Gain2
2025-01-06 16:34:58.61	100.88	4.07	
2025-01-06 16:34:59.63	100.78	4.13	
2025-01-06 16:35:00.66	100.68	4.19	
2025-01-06 16:35:01.68	100.59	4.25	
2025-01-06 16:35:02.72	100.49	4.31	
2025-01-06 16:35:03.75	100.39	4.37	
2025-01-06 16:35:04.77	100.29	4.43	
2025-01-06 16:35:05.80	100.19	4.49	
2025-01-06 16:35:06.82	100.09	4.55	
2025-01-06 16:35:07.85	99.98	4.62	
2025-01-06 16:35:08.89	99.88	4.68	
2025-01-06 16:35:09.93	99.78	4.74	
2025-01-06 16:35:10.95	99.67	4.80	
2025-01-06 16:35:11.98	99.57	4.86	
2025-01-06 16:35:13.00	99.47	4.92	
2025-01-06 16:35:14.03	99.36	4.99	
2025-01-06 16:35:15.07	99.26	5.05	
2025-01-06 16:35:16.09	99.15	5.11	
2025-01-06 16:35:17.12	99.05	5.17	
2025-01-06 16:35:18.14	98.94	5.23	
2025-01-06 16:35:19.17	98.83	5.30	
2025-01-06 16:35:20.19	98.73	5.36	
2025-01-06 16:35:21.22	98.62	5.42	
2025-01-06 16:35:22.25	98.51	5.48	
2025-01-06 16:35:23.27	98.40	5.55	
2025-01-06 16:35:24.30	98.29	5.61	
2025-01-06 16:35:25.32	98.18	5.67	
2025-01-06 16:35:26.35	98.07	5.73	
2025-01-06 16:35:27.37	97.96	5.79	
2025-01-06 16:35:28.40	97.85	5.86	
2025-01-06 16:35:29.42	97.74	5.92	
2025-01-06 16:35:30.45	97.63	5.98	
2025-01-06 16:35:31.47	97.51	6.05	
2025-01-06 16:35:32.50	97.40	6.11	
2025-01-06 16:35:33.53	97.28	6.17	
2025-01-06 16:35:34.55	97.17	6.23	
2025-01-06 16:35:35.58	97.05	6.30	
2025-01-06 16:35:36.60	96.94	6.36	
2025-01-06 16:35:37.63	96.82	6.42	
2025-01-06 16:35:38.65	96.71	6.49	
2025-01-06 16:35:39.68	96.59	6.55	
2025-01-06 16:35:40.73	96.47	6.62	
2025-01-06 16:35:41.78	96.35	6.68	
2025-01-06 16:35:42.82	96.23	6.75	
2025-01-06 16:35:43.86	96.10	6.81	
2025-01-06 16:35:44.88	95.98	6.87	
2025-01-06 16:35:45.91	95.86	6.94	
2025-01-06 16:35:46.93	95.74	7.00	
2025-01-06 16:35:47.97	95.62	7.07	
2025-01-06 16:35:48.99	95.50	7.13	
2025-01-06 16:35:50.02	95.37	7.19	
2025-01-06 16:35:51.04	95.25	7.26	
2025-01-06 16:35:52.07	95.12	7.32	
2025-01-06 16:35:53.09	95.00	7.39	
2025-01-06 16:35:54.12	94.87	7.45	
2025-01-06 16:35:55.14	94.75	7.52	
2025-01-06 16:35:56.17	94.62	7.58	
2025-01-06 16:35:57.20	94.49	7.64	
2025-01-06 16:35:58.22	94.36	7.71	
2025-01-06 16:35:59.25	94.23	7.77	
2025-01-06 16:36:00.27	94.11	7.84	
2025-01-06 16:36:01.30	93.97	7.90	
2025-01-06 16:36:02.33	93.84	7.97	
2025-01-06 16:36:03.37	93.71	8.03	
2025-01-06 16:36:04.40	93.58	8.10	
2025-01-06 16:36:05.43	93.44	8.16	
2025-01-06 16:36:06.45	93.31	8.23	
2025-01-06 16:36:07.48	93.18	8.29	
2025-01-06 16:36:08.50	93.04	8.36	
2025-01-06 16:36:09.53	92.91	8.42	
2025-01-06 16:36:10.55	92.77	8.49	
2025-01-06 16:36:11.58	92.63	8.55	
2025-01-06 16:36:12.61	92.50	8.62	
2025-01-06 16:36:13.63	92.36	8.68	
2025-01-06 16:36:14.67	92.22	8.75	
2025-01-06 16:36:15.70	92.08	8.82	
2025-01-06 16:36:16.72	91.94	8.88	
2025-01-06 16:36:17.74	91.80	8.95	
2025-01-06 16:36:18.77	91.66	9.01	
2025-01-06 16:36:19.79	91.52	9.08	
2025-01-06 16:36:20.81	91.37	9.14	
2025-01-06 16:36:21.85	91.23	9.21	
2025-01-06 16:36:22.88	91.08	9.27	
2025-01-06 16:36:23.90	90.94	9.34	
2025-01-06 16:36:24.93	90.79	9.41	
2025-01-06 16:36:25.95	90.65	9.47	
2025-01-06 16:36:26.99	90.50	9.54	
2025-01-06 16:36:28.03	90.35	9.60	
2025-01-06 16:36:29.07	90.20	9.67	
2025-01-06 16:36:30.10	90.05	9.74	
2025-01-06 16:36:31.13	89.90	9.80	
2025-01-06 16:36:32.15	89.75	9.87	
2025-01-06 16:36:33.18	89.59	9.93	
2025-01-06 16:36:34.20	89.44	10.00	
2025-01-06 16:36:35.23	89.29	10.06	
2025-01-06 16:36:36.25	89.14	10.13	
2025-01-06 16:36:37.28	88.98	10.20	
2025-01-06 16:36:38.31	88.82	10.26	
2025-01-06 16:36:39.33	88.67	10.33	
2025-01-06 16:36:40.36	88.51	10.39	
2025-01-06 16:36:41.39	88.35	10.46	
2025-01-06 16:36:42.42	88.19	10.53	
2025-01-06 16:36:43.44	88.03	10.59	
2025-01-06 16:36:44.47	87.87	10.66	
2025-01-06 16:36:45.50	87.71	10.72	
2025-01-06 16:36:46.52	87.55	10.79	
2025-01-06 16:36:47.56	87.39	10.86	
2025-01-06 16:36:48.59	87.22	10.92	
2025-01-06 16:36:49.62	87.06	10.99	
2025-01-06 16:36:50.64	86.89	11.05	
2025-01-06 16:36:51.67	86.73	11.12	
2025-01-06 16:36:52.69	86.56	11.18	
2025-01-06 16:36:53.72	86.39	11.25	
2025-01-06 16:36:54.75	86.23	11.32	
2025-01-06 16:36:55.78	86.06	11.38	
2025-01-06 16:36:56.81	85.89	11.45	
2025-01-06 16:36:57.83	85.72	11.51	
2025-01-06 16:36:58.86	85.54	11.58	
2025-01-06 16:36:59.88	85.37	11.64	
2025-01-06 16:37:00.91	85.20	11.71	
2025-01-06 16:37:01.94	85.02	11.77	
2025-01-06 16:37:02.96	84.85	11.84	
2025-01-06 16:37:03.99	84.67	11.90	
2025-01-06 16:37:05.01	84.50	11.97	
2025-01-06 16:37:06.05	84.32	12.03	
2025-01-06 16:37:07.08	84.14	12.10	
2025-01-06 16:37:08.10	83.96	12.16	
2025-01-06 16:37:09.14	83.78	12.23	
2025-01-06 16:37:10.17	83.60	12.29	
2025-01-06 16:37:11.19	83.42	12.36	
2025-01-06 16:37:12.22	83.23	12.42	
2025-01-06 16:37:13.25	83.05	12.49	
2025-01-06 16:37:14.27	82.87	12.55	
2025-01-06 16:37:15.31	82.68	12.62	
2025-01-06 16:37:16.34	82.49	12.68	
2025-01-06 16:37:17.36	82.31	12.75	
2025-01-06 16:37:18.39	82.12	12.81	
2025-01-06 16:37:19.42	81.93	12.87	
2025-01-06 16:37:20.44	81.74	12.94	
2025-01-06 16:37:21.48	81.55	13.00	
2025-01-06 16:37:22.50	81.36	13.07	
2025-01-06 16:37:23.53	81.16	13.13	
2025-01-06 16:37:24.55	80.97	13.19	
2025-01-06 16:37:25.58	80.78	13.26	
2025-01-06 16:37:26.60	80.58	13.32	
2025-01-06 16:37:27.63	80.39	13.38	
2025-01-06 16:37:28.66	80.19	13.45	
2025-01-06 16:37:29.68	79.99	13.51	
2025-01-06 16:37:30.71	79.79	13.57	
2025-01-06 16:37:31.74	79.59	13.63	
2025-01-06 16:37:32.77	79.39	13.70	
2025-01-06 16:37:33.79	79.19	13.76	
2025-01-06 16:37:34.82	78.99	13.82	
2025-01-06 16:37:35.85	78.79	13.88	
2025-01-06 16:37:36.87	78.58	13.94	
2025-01-06 16:37:37.90	78.38	14.01	
2025-01-06 16:37:38.94	78.17	14.07	
2025-01-06 16:37:39.96	77.96	14.13	
2025-01-06 16:37:40.98	77.76	14.19	
2025-01-06 16:37:42.01	77.55	14.25	
2025-01-06 16:37:43.05	77.33	14.31	
2025-01-06 16:37:44.07	77.13	14.37	
2025-01-06 16:37:45.10	76.91	14.43	
2025-01-06 16:37:46.12	76.70	14.49	
2025-01-06 16:37:47.15	76.49	14.55	
2025-01-06 16:37:48.17	76.28	14.61	
2025-01-06 16:37:49.21	76.06	14.67	
2025-01-06 16:37:50.24	75.84	14.73	
2025-01-06 16:37:51.26	75.63	14.79	
2025-01-06 16:37:52.29	75.41	14.85	
2025-01-06 16:37:53.32	75.19	14.91	
2025-01-06 16:37:54.34	74.97	14.96	
2025-01-06 16:37:55.37	74.75	15.02	
2025-01-06 16:37:56.39	74.53	15.08	
2025-01-06 16:37:57.42	74.30	15.14	
2025-01-06 16:37:58.45	74.08	15.19	
2025-01-06 16:37:59.48	73.85	15.25	
2025-01-06 16:38:00.50	73.63	15.31	
2025-01-06 16:38:01.53	73.40	15.36	
2025-01-06 16:38:02.55	73.18	15.42	
2025-01-06 16:38:03.58	72.95	15.47	
2025-01-06 16:38:04.60	72.72	15.53	
2025-01-06 16:38:05.63	72.49	15.58	
2025-01-06 16:38:06.65	72.26	15.64	
2025-01-06 16:38:07.68	72.03	15.69	
2025-01-06 16:38:08.72	71.79	15.75	
2025-01-06 16:38:09.76	71.56	15.80	
2025-01-06 16:38:10.79	71.32	15.86	
2025-01-06 16:38:11.81	71.09	15.91	
2025-01-06 16:38:12.84	70.85	15.96	
2025-01-06 16:38:13.87	70.61	16.02	
2025-01-06 16:38:14.89	70.38	16.07	
2025-01-06 16:38:15.91	70.14	16.12	
2025-01-06 16:38:16.95	69.90	16.17	
2025-01-06 16:38:17.99	69.65	16.22	
2025-01-06 16:38:19.01	69.41	16.27	
2025-01-06 16:38:20.04	69.17	16.32	
2025-01-06 16:38:21.06	68.93	16.37	
2025-01-06 16:38:22.09	68.69	16.42	
2025-01-06 16:38:23.13	68.44	16.47	
2025-01-06 16:38:24.16	68.19	16.52	
2025-01-06 16:38:25.19	67.94	16.57	
2025-01-06 16:38:26.21	67.70	16.62	
2025-01-06 16:38:27.24	67.45	16.66	
2025-01-06 16:38:28.26	67.20	16.71	
2025-01-06 16:38:29.28	66.95	16.76	
2025-01-06 16:38:30.32	66.70	16.80	
2025-01-06 16:38:31.35	66.45	16.85	
2025-01-06 16:38:32.37	66.20	16.90	
2025-01-06 16:38:33.40	65.94	16.94	
2025-01-06 16:38:34.42	65.69	16.98	
2025-01-06 16:38:35.47	65.43	17.03	
2025-01-06 16:38:36.49	65.18	17.07	
2025-01-06 16:38:37.51	64.92	17.11	
2025-01-06 16:38:38.54	64.66	17.16	
2025-01-06 16:38:39.57	64.40	17.20	
2025-01-06 16:38:40.60	64.14	17.24	
2025-01-06 16:38:41.62	63.89	17.28	
2025-01-06 16:38:42.65	63.63	17.32	
2025-01-06 16:38:43.68	63.36	17.36	
2025-01-06 16:38:44.70	63.10	17.40	
2025-01-06 16:38:45.73	62.84	17.44	
2025-01-06 16:38:46.75	62.58	17.48	
2025-01-06 16:38:47.78	62.32	17.52	
2025-01-06 16:38:48.81	62.05	17.56	
2025-01-06 16:38:49.83	61.79	17.59	
2025-01-06 16:38:50.86	61.52	17.63	
2025-01-06 16:38:51.89	61.25	17.66	
2025-01-06 16:38:52.91	60.99	17.70	
2025-01-06 16:38:53.94	60.72	17.73	
2025-01-06 16:38:54.96	60.45	17.77	
2025-01-06 16:38:55.99	60.18	17.80	
2025-01-06 16:38:57.03	59.91	17.84	
2025-01-06 16:38:58.05	59.64	17.87	
2025-01-06 16:38:59.08	59.37	17.90	
2025-01-06 16:39:00.10	59.10	17.93	
2025-01-06 16:39:01.13	58.83	17.96	
2025-01-06 16:39:02.16	58.55	17.99	
2025-01-06 16:39:03.18	58.28	18.02	
2025-01-06 16:39:04.20	58.01	18.05	
2025-01-06 16:39:05.23	57.73	18.08	
2025-01-06 16:39:06.25	57.46	18.10	
2025-01-06 16:39:07.28	57.18	18.13	
2025-01-06 16:39:08.31	56.91	18.16	
2025-01-06 16:39:09.33	56.63	18.18	
2025-01-06 16:39:10.36	56.36	18.21	
2025-01-06 16:39:11.38	56.08	18.23	
2025-01-06 16:39:12.42	55.80	18.26	
2025-01-06 16:39:13.45	55.52	18.28	
2025-01-06 16:39:14.47	55.24	18.30	
2025-01-06 16:39:15.50	54.96	18.33	
2025-01-06 16:39:16.52	54.68	18.35	
2025-01-06 16:39:17.55	54.40	18.37	
2025-01-06 16:39:18.58	54.12	18.39	
2025-01-06 16:39:19.61	53.84	18.41	
2025-01-06 16:39:20.63	53.56	18.43	
2025-01-06 16:39:21.65	53.28	18.44	
2025-01-06 16:39:22.67	53.00	18.46	
2025-01-06 16:39:23.71	52.72	18.48	
2025-01-06 16:39:24.76	52.43	18.49	
2025-01-06 16:39:25.78	52.15	18.51	
2025-01-06 16:39:26.81	51.86	18.52	
2025-01-06 16:39:27.83	51.58	18.54	
2025-01-06 16:39:28.85	51.30	18.55	
2025-01-06 16:39:29.89	51.01	18.56	
2025-01-06 16:39:30.91	50.73	18.57	
2025-01-06 16:39:31.94	50.44	18.59	
2025-01-06 16:39:32.96	50.16	18.60	
2025-01-06 16:39:34.00	49.87	18.61	
2025-01-06 16:39:35.04	49.58	18.62	
2025-01-06 16:39:36.07	49.30	18.62	
2025-01-06 16:39:37.09	49.02	18.63	
2025-01-06 16:39:38.12	48.73	18.64	
2025-01-06 16:39:39.14	48.45	18.64	
2025-01-06 16:39:40.17	48.16	18.65	
2025-01-06 16:39:41.19	47.88	18.65	
2025-01-06 16:39:42.21	47.59	18.66	
2025-01-06 16:39:43.23	47.31	18.66	
2025-01-06 16:39:44.26	47.02	18.66	
2025-01-06 16:39:45.29	46.73	18.67	
2025-01-06 16:39:46.32	46.45	18.67	
2025-01-06 16:39:47.34	46.16	18.67	
2025-01-06 16:39:48.37	45.88	18.67	
2025-01-06 16:39:49.39	45.59	18.67	
2025-01-06 16:39:50.42	45.30	18.67	
2025-01-06 16:39:51.45	45.02	18.66	
2025-01-06 16:39:52.49	44.73	18.66	
2025-01-06 16:39:53.53	44.44	18.66	
2025-01-06 16:39:54.55	44.16	18.65	
2025-01-06 16:39:55.57	43.87	18.65	
2025-01-06 16:39:56.61	43.58	18.64	
2025-01-06 16:39:57.64	43.30	18.64	
2025-01-06 16:39:58.66	43.01	18.63	
2025-01-06 16:39:59.68	42.73	18.62	
2025-01-06 16:40:00.71	42.44	18.61	
2025-01-06 16:40:01.73	42.16	18.60	
2025-01-06 16:40:02.76	41.88	18.59	
2025-01-06 16:40:03.79	41.59	18.58	
2025-01-06 16:40:04.82	41.31	18.57	
2025-01-06 16:40:05.84	41.02	18.56	
2025-01-06 16:40:06.88	40.74	18.55	
2025-01-06 16:40:07.91	40.45	18.53	
2025-01-06 16:40:08.95	40.17	18.52	
2025-01-06 16:40:09.99	39.88	18.50	
2025-01-06 16:40:11.01	39.60	18.49	
2025-01-06 16:40:12.04	39.32	18.47	
2025-01-06 16:40:13.06	39.04	18.46	
2025-01-06 16:40:14.09	38.75	18.44	
2025-01-06 16:40:15.11	38.47	18.42	
2025-01-06 16:40:16.14	38.19	18.40	
2025-01-06 16:40:17.17	37.91	18.38	
2025-01-06 16:40:18.19	37.63	18.36	
2025-01-06 16:40:19.22	37.35	18.34	
2025-01-06 16:40:20.25	37.07	18.32	
2025-01-06 16:40:21.28	36.79	18.30	
2025-01-06 16:40:22.31	36.51	18.27	
2025-01-06 16:40:23.33	36.24	18.25	
2025-01-06 16:40:24.37	35.96	18.23	
2025-01-06 16:40:25.40	35.68	18.20	
2025-01-06 16:40:26.42	35.40	18.18	
2025-01-06 16:40:27.45	35.13	18.15	
2025-01-06 16:40:28.48	34.85	18.12	
2025-01-06 16:40:29.50	34.58	18.10	
2025-01-06 16:40:30.53	34.30	18.07	
2025-01-06 16:40:31.55	34.03	18.04	
2025-01-06 16:40:32.57	33.76	18.01	
2025-01-06 16:40:33.60	33.49	17.98	
2025-01-06 16:40:34.63	33.21	17.95	
2025-01-06 16:40:35.65	32.94	17.92	
2025-01-06 16:40:36.68	32.67	17.89	
2025-01-06 16:40:37.70	32.40	17.86	
2025-01-06 16:40:38.72	32.14	17.83	
2025-01-06 16:40:39.76	31.86	17.79	
2025-01-06 16:40:40.78	31.60	17.76	
2025-01-06 16:40:41.82	31.33	17.72	
2025-01-06 16:40:42.84	31.06	17.69	
2025-01-06 16:40:43.86	30.80	17.65	
2025-01-06 16:40:44.89	30.53	17.62	
2025-01-06 16:40:45.91	30.27	17.58	
2025-01-06 16:40:46.94	30.00	17.55	
2025-01-06 16:40:47.96	29.74	17.51	
2025-01-06 16:40:48.99	29.48	17.47	
2025-01-06 16:40:50.01	29.22	17.43	
2025-01-06 16:40:51.04	28.95	17.39	
2025-01-06 16:40:52.06	28.69	17.35	
2025-01-06 16:40:53.09	28.43	17.31	
2025-01-06 16:40:54.11	28.18	17.27	
2025-01-06 16:40:55.14	27.92	17.23	
2025-01-06 16:40:56.18	27.66	17.19	
2025-01-06 16:40:57.21	27.40	17.15	
2025-01-06 16:40:58.23	27.14	17.10	
2025-01-06 16:40:59.25	26.89	17.06	
2025-01-06 16:41:00.28	26.63	17.02	
2025-01-06 16:41:01.30	26.38	16.97	
2025-01-06 16:41:02.33	26.13	16.93	
2025-01-06 16:41:03.35	25.88	16.89	
2025-01-06 16:41:04.37	25.63	16.84	
2025-01-06 16:41:05.40	25.38	16.79	
2025-01-06 16:41:06.43	25.13	16.75	
2025-01-06 16:41:07.45	24.88	16.70	
2025-01-06 16:41:08.49	24.63	16.65	
2025-01-06 16:41:09.52	24.38	16.61	
2025-01-06 16:41:10.56	24.13	16.56	
2025-01-06 16:41:11.58	23.89	16.51	
2025-01-06 16:41:12.61	23.64	16.46	
2025-01-06 16:41:13.64	23.40	16.41	
2025-01-06 16:41:14.66	23.15	16.36	
2025-01-06 16:41:15.69	22.91	16.31	
2025-01-06 16:41:16.71	22.67	16.26	
2025-01-06 16:41:17.74	22.43	16.21	
2025-01-06 16:41:18.77	22.19	16.16	
2025-01-06 16:41:19.79	21.95	16.11	
2025-01-06 16:41:20.82	21.71	16.06	
2025-01-06 16:41:21.84	21.48	16.01	
2025-01-06 16:41:22.86	21.25	15.95	
2025-01-06 16:41:23.89	21.01	15.90	
2025-01-06 16:41:24.92	20.77	15.85	
2025-01-06 16:41:25.94	20.54	15.80	
2025-01-06 16:41:26.96	20.31	15.74	
2025-01-06 16:41:28.00	20.08	15.69	
2025-01-06 16:41:29.03	19.85	15.63	
2025-01-06 16:41:30.07	19.61	15.58	
2025-01-06 16:41:31.10	19.38	15.52	
2025-01-06 16:41:32.12	19.16	15.47	
2025-01-06 16:41:33.15	18.93	15.41	
2025-01-06 16:41:34.18	18.70	15.36	
2025-01-06 16:41:35.20	18.48	15.30	
2025-01-06 16:41:36.23	18.25	15.24	
2025-01-06 16:41:37.25	18.03	15.19	
2025-01-06 16:41:38.28	17.81	15.13	
2025-01-06 16:41:39.30	17.59	15.07	
2025-01-06 16:41:40.33	17.37	15.01	
2025-01-06 16:41:41.36	17.15	14.96	
2025-01-06 16:41:42.39	16.93	14.90	
2025-01-06 16:41:43.41	16.71	14.84	
2025-01-06 16:41:44.44	16.50	14.78	
2025-01-06 16:41:45.48	16.28	14.72	
2025-01-06 16:41:46.50	16.06	14.66	
2025-01-06 16:41:47.53	15.85	14.60	
2025-01-06 16:41:48.55	15.64	14.55	
2025-01-06 16:41:49.58	15.42	14.49	
2025-01-06 16:41:50.61	15.21	14.43	
2025-01-06 16:41:51.63	15.00	14.37	
2025-01-06 16:41:52.65	14.79	14.31	
2025-01-06 16:41:53.68	14.59	14.25	
2025-01-06 16:41:54.70	14.38	14.19	
2025-01-06 16:41:55.73	14.17	14.12	
2025-01-06 16:41:56.76	13.97	14.06	
2025-01-06 16:41:57.78	13.76	14.00	
2025-01-06 16:41:58.81	13.56	13.94	
2025-01-06 16:41:59.83	13.36	13.88	
2025-01-06 16:42:00.86	13.15	13.82	
2025-01-06 16:42:01.88	12.95	13.76	
2025-01-06 16:42:02.91	12.75	13.69	
2025-01-06 16:42:03.94	12.55	13.63	
2025-01-06 16:42:04.96	12.36	13.57	
2025-01-06 16:42:05.99	12.16	13.51	
2025-01-06 16:42:07.02	11.96	13.44	
2025-01-06 16:42:08.05	11.76	13.38	
2025-01-06 16:42:09.07	11.57	13.32	
2025-01-06 16:42:10.10	11.38	13.26	
2025-01-06 16:42:11.13	11.18	13.19	
2025-01-06 16:42:12.15	10.99	13.13	
2025-01-06 16:42:13.18	10.80	13.07	
2025-01-06 16:42:14.22	10.61	13.00	
2025-01-06 16:42:15.25	10.42	12.94	
2025-01-06 16:42:16.27	10.23	12.88	
2025-01-06 16:42:17.29	10.04	12.81	
2025-01-06 16:42:18.31	9.86	12.75	
2025-01-06 16:42:19.34	9.67	12.68	
2025-01-06 16:42:20.37	9.48	12.62	
2025-01-06 16:42:21.39	9.30	12.56	
2025-01-06 16:42:22.42	9.12	12.49	
2025-01-06 16:42:23.44	8.94	12.43	
2025-01-06 16:42:24.47	8.75	12.36	
2025-01-06 16:42:25.49	8.58	12.30	
2025-01-06 16:42:26.52	8.39	12.23	
2025-01-06 16:42:27.54	8.22	12.17	
2025-01-06 16:42:28.57	8.04	12.10	
2025-01-06 16:42:29.59	7.86	12.04	
2025-01-06 16:42:30.62	7.69	11.98	
2025-01-06 16:42:31.64	7.51	11.91	
2025-01-06 16:42:32.67	7.34	11.85	
2025-01-06 16:42:33.70	7.16	11.78	
2025-01-06 16:42:34.73	6.99	11.72	
2025-01-06 16:42:35.77	6.81	11.65	
2025-01-06 16:42:36.79	6.64	11.58	
2025-01-06 16:42:37.81	6.47	11.52	
2025-01-06 16:42:38.84	6.30	11.45	
2025-01-06 16:42:39.88	6.13	11.39	
2025-01-06 16:42:40.91	5.96	11.32	
2025-01-06 16:42:41.95	5.80	11.26	
2025-01-06 16:42:42.98	5.63	11.19	
2025-01-06 16:42:44.00	5.46	11.13	
2025-01-06 16:42:45.02	5.30	11.06	
2025-01-06 16:42:46.05	5.14	10.99	
2025-01-06 16:42:47.07	4.97	10.93	
2025-01-06 16:42:48.10	4.81	10.86	
2025-01-06 16:42:49.13	4.65	10.80	
2025-01-06 16:42:50.16	4.49	10.73	
2025-01-06 16:42:51.20	4.33	10.67	
2025-01-06 16:42:52.23	4.17	10.60	
2025-01-06 16:42:53.25	4.01	10.54	
2025-01-06 16:42:54.28	3.85	10.47	
2025-01-06 16:42:55.30	3.69	10.40	
2025-01-06 16:42:56.35	3.54	10.34	
2025-01-06 16:42:57.39	3.38	10.27	
2025-01-06 16:42:58.43	3.22	10.20	
2025-01-06 16:42:59.45	3.07	10.14	
2025-01-06 16:43:00.48	2.92	10.07	
2025-01-06 16:43:01.51	2.76	10.01	
2025-01-06 16:43:02.55	2.61	9.94	
2025-01-06 16:43:03.57	2.46	9.88	
2025-01-06 16:43:04.60	2.31	9.81	
2025-01-06 16:43:05.62	2.16	9.75	
2025-01-06 16:43:06.65	2.01	9.68	
2025-01-06 16:43:07.67	1.87	9.61	
2025-01-06 16:43:08.69	1.72	9.55	
2025-01-06 16:43:09.71	1.57	9.48	
2025-01-06 16:43:10.74	1.43	9.42	
2025-01-06 16:43:11.77	1.28	9.35	
2025-01-06 16:43:12.79	1.14	9.29	
2025-01-06 16:43:13.82	1.00	9.22	
2025-01-06 16:43:14.84	0.85	9.16	
2025-01-06 16:43:15.88	0.71	9.09	
2025-01-06 16:43:16.90	0.57	9.03	
2025-01-06 16:43:17.93	0.43	8.96	
2025-01-06 16:43:18.95	0.29	8.90	
2025-01-06 16:43:19.99	0.15	8.83	
2025-01-06 16:43:21.02	0.01	8.76	
2025-01-06 16:43:22.04	359.87	8.70	
2025-01-06 16:43:23.08	359.73	8.63	
2025-01-06 16:43:24.10	359.60	8.57	
2025-01-06 16:43:25.13	359.46	8.50	
2025-01-06 16:43:26.16	359.33	8.44	
2025-01-06 16:43:27.19	359.19	8.37	
2025-01-06 16:43:28.21	359.06	8.31	
2025-01-06 16:43:29.24	358.93	8.24	
2025-01-06 16:43:30.28	358.79	8.18	
2025-01-06 16:43:31.31	358.66	8.11	
2025-01-06 16:43:32.33	358.53	8.05	
2025-01-06 16:43:33.35	358.40	7.99	
2025-01-06 16:43:34.38	358.27	7.92	
2025-01-06 16:43:35.40	358.14	7.86	
2025-01-06 16:43:36.43	358.01	7.79	
2025-01-06 16:43:37.46	357.88	7.73	
2025-01-06 16:43:38.48	357.76	7.66	
2025-01-06 16:43:39.51	357.63	7.60	
2025-01-06 16:43:40.53	357.51	7.54	
2025-01-06 16:43:41.57	357.38	7.47	
2025-01-06 16:43:42.60	357.25	7.41	
2025-01-06 16:43:43.64	357.13	7.34	
2025-01-06 16:43:44.66	357.00	7.28	
2025-01-06 16:43:45.69	356.88	7.21	
2025-01-06 16:43:46.72	356.76	7.15	
2025-01-06 16:43:47.76	356.64	7.08	
2025-01-06 16:43:48.78	356.51	7.02	
2025-01-06 16:43:49.80	356.39	6.96	
2025-01-06 16:43:50.83	356.27	6.89	
2025-01-06 16:43:51.86	356.15	6.83	
2025-01-06 16:43:52.90	356.03	6.77	
2025-01-06 16:43:53.93	355.92	6.70	
2025-01-06 16:43:54.96	355.80	6.64	
2025-01-06 16:43:55.98	355.68	6.58	
2025-01-06 16:43:57.01	355.56	6.51	
2025-01-06 16:43:58.03	355.45	6.45	
2025-01-06 16:43:59.07	355.33	6.39	
2025-01-06 16:44:00.10	355.22	6.32	
2025-01-06 16:44:01.12	355.10	6.26	
2025-01-06 16:44:02.16	354.99	6.20	
2025-01-06 16:44:03.18	354.88	6.13	
2025-01-06 16:44:04.21	354.76	6.07	
2025-01-06 16:44:05.24	354.65	6.01	
2025-01-06 16:44:06.26	354.54	5.94	
2025-01-06 16:44:07.29	354.43	5.88	
2025-01-06 16:44:08.31	354.32	5.82	
2025-01-06 16:44:09.34	354.21	5.76	
2025-01-06 16:44:10.36	354.10	5.70	
2025-01-06 16:44:11.39	353.99	5.63	
2025-01-06 16:44:12.41	353.88	5.57	
2025-01-06 16:44:13.43	353.78	5.51	
2025-01-06 16:44:14.47	353.67	5.45	
2025-01-06 16:44:15.50	353.56	5.38	
2025-01-06 16:44:16.52	353.45	5.32	
2025-01-06 16:44:17.55	353.35	5.26	
2025-01-06 16:44:18.57	353.24	5.20	
2025-01-06 16:44:19.60	353.14	5.14	
2025-01-06 16:44:20.62	353.04	5.08	
2025-01-06 16:44:21.66	352.93	5.01	
2025-01-06 16:44:22.69	352.83	4.95	
2025-01-06 16:44:23.71	352.72	4.89	
2025-01-06 16:44:24.76	352.62	4.83	
2025-01-06 16:44:25.80	352.52	4.77	
2025-01-06 16:44:26.83	352.42	4.70	
2025-01-06 16:44:27.86	352.31	4.64	
2025-01-06 16:44:28.88	352.21	4.58	
2025-01-06 16:44:29.91	352.11	4.52	
2025-01-06 16:44:30.94	352.01	4.46	
2025-01-06 16:44:31.98	351.91	4.40	
2025-01-06 16:44:33.00	351.82	4.34	
2025-01-06 16:44:34.02	351.72	4.28	
2025-01-06 16:44:35.05	351.62	4.22	
2025-01-06 16:44:36.08	351.52	4.16	
2025-01-06 16:44:37.11	351.43	4.10	
2025-01-06 16:44:38.13	351.33	4.04	

#Closed at: 2025-01-06 16:44:38