passes_logs/2025/01/06/SPB_Silybum_02/SPB_Silybum_02__20250106_232241_SUOMI_NPP_rec.log

#Pass ID: 20250106_232241_SUOMI NPP
#Satellite: SUOMI NPP
#Configuration: NPP
#Start time: 2025-01-06 23:22:42

#Version: 2.0.20230423
#Station: SPB_Silybum_02
#Location: 30.233357 lon 59.946436 lat
#TLE: 1 37849U 11061A   25006.17970494  .00000315  00000+0  17023-3 0  9998
#TLE: 2 37849  98.7437 307.2805 0001982  54.5030 305.6331 14.19533747683667

#Time	Az	El	Level	Level2	SNR	BER	Gain	Gain2
2025-01-06 23:22:44.34	21.79	4.18	
2025-01-06 23:22:45.77	21.86	4.27	
2025-01-06 23:22:47.21	21.93	4.37	
2025-01-06 23:22:48.65	21.99	4.46	
2025-01-06 23:22:50.09	22.06	4.56	
2025-01-06 23:22:51.53	22.13	4.65	
2025-01-06 23:22:52.96	22.20	4.75	
2025-01-06 23:22:54.40	22.27	4.84	
2025-01-06 23:22:55.84	22.34	4.94	
2025-01-06 23:22:57.28	22.42	5.04	
2025-01-06 23:22:58.72	22.49	5.13	
2025-01-06 23:23:00.16	22.56	5.23	
2025-01-06 23:23:01.60	22.63	5.33	
2025-01-06 23:23:03.05	22.71	5.43	
2025-01-06 23:23:04.49	22.78	5.53	
2025-01-06 23:23:05.93	22.85	5.62	
2025-01-06 23:23:07.36	22.93	5.72	
2025-01-06 23:23:08.81	23.00	5.82	
2025-01-06 23:23:10.25	23.08	5.92	
2025-01-06 23:23:11.68	23.15	6.02	
2025-01-06 23:23:13.13	23.23	6.12	
2025-01-06 23:23:14.57	23.31	6.22	
2025-01-06 23:23:16.01	23.38	6.32	
2025-01-06 23:23:17.45	23.46	6.43	
2025-01-06 23:23:18.88	23.54	6.53	
2025-01-06 23:23:20.32	23.62	6.63	
2025-01-06 23:23:21.78	23.70	6.73	
2025-01-06 23:23:23.21	23.78	6.83	
2025-01-06 23:23:24.65	23.86	6.94	
2025-01-06 23:23:26.08	23.94	7.04	
2025-01-06 23:23:27.53	24.02	7.15	
2025-01-06 23:23:28.97	24.10	7.25	
2025-01-06 23:23:30.41	24.18	7.35	
2025-01-06 23:23:31.85	24.27	7.46	
2025-01-06 23:23:33.30	24.35	7.57	
2025-01-06 23:23:34.74	24.43	7.67	
2025-01-06 23:23:36.17	24.52	7.78	
2025-01-06 23:23:37.61	24.60	7.88	
2025-01-06 23:23:39.06	24.69	7.99	
2025-01-06 23:23:40.51	24.78	8.10	
2025-01-06 23:23:41.95	24.86	8.21	
2025-01-06 23:23:43.40	24.95	8.32	
2025-01-06 23:23:44.84	25.04	8.43	
2025-01-06 23:23:46.28	25.13	8.54	
2025-01-06 23:23:47.71	25.22	8.64	
2025-01-06 23:23:49.16	25.31	8.76	
2025-01-06 23:23:50.60	25.40	8.87	
2025-01-06 23:23:52.04	25.49	8.98	
2025-01-06 23:23:53.48	25.58	9.09	
2025-01-06 23:23:54.92	25.67	9.20	
2025-01-06 23:23:56.35	25.77	9.31	
2025-01-06 23:23:57.79	25.86	9.42	
2025-01-06 23:23:59.23	25.96	9.54	
2025-01-06 23:24:00.67	26.05	9.65	
2025-01-06 23:24:02.10	26.15	9.76	
2025-01-06 23:24:03.54	26.24	9.88	
2025-01-06 23:24:04.97	26.34	9.99	
2025-01-06 23:24:06.41	26.44	10.11	
2025-01-06 23:24:07.85	26.54	10.22	
2025-01-06 23:24:09.29	26.64	10.34	
2025-01-06 23:24:10.72	26.74	10.46	
2025-01-06 23:24:12.16	26.84	10.57	
2025-01-06 23:24:13.60	26.94	10.69	
2025-01-06 23:24:15.04	27.04	10.81	
2025-01-06 23:24:16.48	27.14	10.93	
2025-01-06 23:24:17.93	27.25	11.05	
2025-01-06 23:24:19.37	27.35	11.17	
2025-01-06 23:24:20.80	27.46	11.29	
2025-01-06 23:24:22.24	27.57	11.41	
2025-01-06 23:24:23.67	27.67	11.53	
2025-01-06 23:24:25.11	27.78	11.65	
2025-01-06 23:24:26.55	27.89	11.77	
2025-01-06 23:24:27.98	28.00	11.90	
2025-01-06 23:24:29.43	28.11	12.02	
2025-01-06 23:24:30.87	28.22	12.15	
2025-01-06 23:24:32.31	28.33	12.27	
2025-01-06 23:24:33.74	28.45	12.39	
2025-01-06 23:24:35.18	28.56	12.52	
2025-01-06 23:24:36.62	28.68	12.65	
2025-01-06 23:24:38.06	28.79	12.77	
2025-01-06 23:24:39.50	28.91	12.90	
2025-01-06 23:24:40.94	29.03	13.03	
2025-01-06 23:24:42.38	29.15	13.16	
2025-01-06 23:24:43.81	29.27	13.29	
2025-01-06 23:24:45.26	29.39	13.42	
2025-01-06 23:24:46.69	29.51	13.55	
2025-01-06 23:24:48.13	29.63	13.68	
2025-01-06 23:24:49.56	29.76	13.81	
2025-01-06 23:24:51.00	29.88	13.94	
2025-01-06 23:24:52.44	30.01	14.07	
2025-01-06 23:24:53.89	30.14	14.21	
2025-01-06 23:24:55.33	30.27	14.34	
2025-01-06 23:24:56.76	30.39	14.47	
2025-01-06 23:24:58.20	30.52	14.61	
2025-01-06 23:24:59.64	30.66	14.74	
2025-01-06 23:25:01.07	30.79	14.88	
2025-01-06 23:25:02.50	30.92	15.02	
2025-01-06 23:25:03.94	31.06	15.15	
2025-01-06 23:25:05.37	31.19	15.29	
2025-01-06 23:25:06.81	31.33	15.43	
2025-01-06 23:25:08.25	31.47	15.57	
2025-01-06 23:25:09.69	31.61	15.71	
2025-01-06 23:25:11.12	31.75	15.85	
2025-01-06 23:25:12.56	31.89	15.99	
2025-01-06 23:25:14.01	32.04	16.13	
2025-01-06 23:25:15.45	32.18	16.28	
2025-01-06 23:25:16.89	32.33	16.42	
2025-01-06 23:25:18.33	32.48	16.56	
2025-01-06 23:25:19.78	32.63	16.71	
2025-01-06 23:25:21.22	32.78	16.86	
2025-01-06 23:25:22.65	32.93	17.00	
2025-01-06 23:25:24.09	33.08	17.15	
2025-01-06 23:25:25.53	33.24	17.30	
2025-01-06 23:25:26.96	33.39	17.44	
2025-01-06 23:25:28.40	33.55	17.59	
2025-01-06 23:25:29.83	33.71	17.74	
2025-01-06 23:25:31.30	33.87	17.89	
2025-01-06 23:25:32.73	34.04	18.04	
2025-01-06 23:25:34.17	34.20	18.20	
2025-01-06 23:25:35.61	34.36	18.35	
2025-01-06 23:25:37.04	34.53	18.50	
2025-01-06 23:25:38.49	34.70	18.66	
2025-01-06 23:25:39.93	34.87	18.81	
2025-01-06 23:25:41.37	35.04	18.97	
2025-01-06 23:25:42.82	35.22	19.13	
2025-01-06 23:25:44.25	35.39	19.28	
2025-01-06 23:25:45.69	35.57	19.44	
2025-01-06 23:25:47.12	35.75	19.60	
2025-01-06 23:25:48.56	35.93	19.76	
2025-01-06 23:25:50.01	36.11	19.92	
2025-01-06 23:25:51.45	36.30	20.08	
2025-01-06 23:25:52.89	36.49	20.24	
2025-01-06 23:25:54.34	36.68	20.40	
2025-01-06 23:25:55.78	36.87	20.57	
2025-01-06 23:25:57.21	37.06	20.73	
2025-01-06 23:25:58.66	37.25	20.90	
2025-01-06 23:26:00.11	37.45	21.06	
2025-01-06 23:26:01.55	37.65	21.23	
2025-01-06 23:26:02.98	37.85	21.39	
2025-01-06 23:26:04.42	38.05	21.56	
2025-01-06 23:26:05.86	38.26	21.73	
2025-01-06 23:26:07.29	38.46	21.90	
2025-01-06 23:26:08.73	38.67	22.07	
2025-01-06 23:26:10.17	38.88	22.24	
2025-01-06 23:26:11.61	39.10	22.41	
2025-01-06 23:26:13.04	39.31	22.58	
2025-01-06 23:26:14.48	39.53	22.76	
2025-01-06 23:26:15.92	39.75	22.93	
2025-01-06 23:26:17.37	39.97	23.11	
2025-01-06 23:26:18.81	40.20	23.28	
2025-01-06 23:26:20.24	40.43	23.46	
2025-01-06 23:26:21.69	40.66	23.63	
2025-01-06 23:26:23.13	40.89	23.81	
2025-01-06 23:26:24.57	41.13	23.99	
2025-01-06 23:26:26.02	41.37	24.17	
2025-01-06 23:26:27.45	41.61	24.35	
2025-01-06 23:26:28.89	41.85	24.53	
2025-01-06 23:26:30.33	42.10	24.71	
2025-01-06 23:26:31.76	42.34	24.89	
2025-01-06 23:26:33.20	42.60	25.08	
2025-01-06 23:26:34.66	42.85	25.26	
2025-01-06 23:26:36.10	43.11	25.45	
2025-01-06 23:26:37.54	43.37	25.63	
2025-01-06 23:26:38.98	43.64	25.82	
2025-01-06 23:26:40.43	43.91	26.00	
2025-01-06 23:26:41.87	44.18	26.19	
2025-01-06 23:26:43.30	44.45	26.38	
2025-01-06 23:26:44.73	44.72	26.56	
2025-01-06 23:26:46.17	45.00	26.75	
2025-01-06 23:26:47.62	45.29	26.94	
2025-01-06 23:26:49.06	45.57	27.13	
2025-01-06 23:26:50.49	45.86	27.32	
2025-01-06 23:26:51.93	46.15	27.51	
2025-01-06 23:26:53.37	46.45	27.71	
2025-01-06 23:26:54.80	46.75	27.90	
2025-01-06 23:26:56.24	47.05	28.09	
2025-01-06 23:26:57.69	47.36	28.28	
2025-01-06 23:26:59.12	47.67	28.48	
2025-01-06 23:27:00.56	47.98	28.67	
2025-01-06 23:27:02.00	48.30	28.87	
2025-01-06 23:27:03.43	48.62	29.06	
2025-01-06 23:27:04.87	48.94	29.26	
2025-01-06 23:27:06.31	49.27	29.45	
2025-01-06 23:27:07.74	49.60	29.65	
2025-01-06 23:27:09.20	49.95	29.85	
2025-01-06 23:27:10.64	50.29	30.04	
2025-01-06 23:27:12.07	50.63	30.24	
2025-01-06 23:27:13.51	50.98	30.44	
2025-01-06 23:27:14.95	51.33	30.63	
2025-01-06 23:27:16.40	51.70	30.83	
2025-01-06 23:27:17.84	52.06	31.03	
2025-01-06 23:27:19.28	52.42	31.23	
2025-01-06 23:27:20.73	52.80	31.43	
2025-01-06 23:27:22.17	53.17	31.63	
2025-01-06 23:27:23.60	53.55	31.82	
2025-01-06 23:27:25.06	53.94	32.02	
2025-01-06 23:27:26.49	54.33	32.22	
2025-01-06 23:27:27.92	54.72	32.42	
2025-01-06 23:27:29.36	55.12	32.62	
2025-01-06 23:27:30.80	55.53	32.81	
2025-01-06 23:27:32.24	55.93	33.01	
2025-01-06 23:27:33.67	56.35	33.21	
2025-01-06 23:27:35.11	56.76	33.40	
2025-01-06 23:27:36.55	57.19	33.60	
2025-01-06 23:27:37.98	57.61	33.79	
2025-01-06 23:27:39.42	58.05	33.99	
2025-01-06 23:27:40.86	58.49	34.18	
2025-01-06 23:27:42.30	58.93	34.38	
2025-01-06 23:27:43.74	59.38	34.57	
2025-01-06 23:27:45.17	59.83	34.76	
2025-01-06 23:27:46.61	60.29	34.95	
2025-01-06 23:27:48.05	60.76	35.14	
2025-01-06 23:27:49.50	61.23	35.34	
2025-01-06 23:27:50.94	61.71	35.53	
2025-01-06 23:27:52.37	62.19	35.71	
2025-01-06 23:27:53.81	62.67	35.90	
2025-01-06 23:27:55.25	63.17	36.08	
2025-01-06 23:27:56.70	63.67	36.27	
2025-01-06 23:27:58.14	64.17	36.45	
2025-01-06 23:27:59.58	64.68	36.63	
2025-01-06 23:28:01.02	65.20	36.81	
2025-01-06 23:28:02.46	65.72	36.99	
2025-01-06 23:28:03.90	66.25	37.17	
2025-01-06 23:28:05.33	66.77	37.34	
2025-01-06 23:28:06.77	67.31	37.52	
2025-01-06 23:28:08.21	67.86	37.69	
2025-01-06 23:28:09.65	68.40	37.86	
2025-01-06 23:28:11.10	68.96	38.03	
2025-01-06 23:28:12.54	69.52	38.19	
2025-01-06 23:28:13.98	70.09	38.35	
2025-01-06 23:28:15.42	70.66	38.52	
2025-01-06 23:28:16.85	71.23	38.67	
2025-01-06 23:28:18.29	71.82	38.83	
2025-01-06 23:28:19.72	72.40	38.98	
2025-01-06 23:28:21.16	72.99	39.13	
2025-01-06 23:28:22.61	73.60	39.28	
2025-01-06 23:28:24.04	74.20	39.42	
2025-01-06 23:28:25.50	74.82	39.57	
2025-01-06 23:28:26.94	75.43	39.71	
2025-01-06 23:28:28.37	76.05	39.84	
2025-01-06 23:28:29.81	76.67	39.97	
2025-01-06 23:28:31.24	77.30	40.10	
2025-01-06 23:28:32.69	77.94	40.23	
2025-01-06 23:28:34.13	78.58	40.35	
2025-01-06 23:28:35.56	79.22	40.47	
2025-01-06 23:28:37.00	79.87	40.58	
2025-01-06 23:28:38.45	80.53	40.70	
2025-01-06 23:28:39.89	81.19	40.80	
2025-01-06 23:28:41.33	81.85	40.91	
2025-01-06 23:28:42.76	82.51	41.01	
2025-01-06 23:28:44.20	83.18	41.10	
2025-01-06 23:28:45.63	83.85	41.19	
2025-01-06 23:28:47.07	84.53	41.28	
2025-01-06 23:28:48.50	85.21	41.37	
2025-01-06 23:28:49.94	85.89	41.44	
2025-01-06 23:28:51.38	86.58	41.52	
2025-01-06 23:28:52.81	87.27	41.59	
2025-01-06 23:28:54.25	87.96	41.66	
2025-01-06 23:28:55.69	88.66	41.72	
2025-01-06 23:28:57.12	89.36	41.77	
2025-01-06 23:28:58.56	90.06	41.83	
2025-01-06 23:29:00.00	90.76	41.87	
2025-01-06 23:29:01.43	91.47	41.92	
2025-01-06 23:29:02.88	92.18	41.95	
2025-01-06 23:29:04.32	92.89	41.99	
2025-01-06 23:29:05.75	93.60	42.02	
2025-01-06 23:29:07.20	94.31	42.04	
2025-01-06 23:29:08.65	95.03	42.06	
2025-01-06 23:29:10.08	95.74	42.07	
2025-01-06 23:29:11.52	96.46	42.08	
2025-01-06 23:29:12.96	97.17	42.09	
2025-01-06 23:29:14.39	97.88	42.09	
2025-01-06 23:29:15.83	98.60	42.08	
2025-01-06 23:29:17.27	99.31	42.07	
2025-01-06 23:29:18.71	100.03	42.06	
2025-01-06 23:29:20.16	100.74	42.04	
2025-01-06 23:29:21.60	101.46	42.01	
2025-01-06 23:29:23.04	102.17	41.98	
2025-01-06 23:29:24.47	102.87	41.95	
2025-01-06 23:29:25.92	103.59	41.91	
2025-01-06 23:29:27.36	104.29	41.86	
2025-01-06 23:29:28.79	104.99	41.81	
2025-01-06 23:29:30.23	105.70	41.76	
2025-01-06 23:29:31.67	106.40	41.70	
2025-01-06 23:29:33.10	107.09	41.64	
2025-01-06 23:29:34.54	107.78	41.57	
2025-01-06 23:29:35.98	108.48	41.50	
2025-01-06 23:29:37.41	109.16	41.43	
2025-01-06 23:29:38.85	109.85	41.35	
2025-01-06 23:29:40.29	110.53	41.26	
2025-01-06 23:29:41.72	111.20	41.17	
2025-01-06 23:29:43.15	111.87	41.08	
2025-01-06 23:29:44.59	112.54	40.98	
2025-01-06 23:29:46.03	113.21	40.88	
2025-01-06 23:29:47.47	113.87	40.78	
2025-01-06 23:29:48.92	114.54	40.67	
2025-01-06 23:29:50.38	115.20	40.55	
2025-01-06 23:29:51.82	115.85	40.44	
2025-01-06 23:29:53.25	116.49	40.32	
2025-01-06 23:29:54.69	117.13	40.19	
2025-01-06 23:29:56.13	117.76	40.07	
2025-01-06 23:29:57.57	118.39	39.94	
2025-01-06 23:29:59.00	119.02	39.80	
2025-01-06 23:30:00.45	119.64	39.66	
2025-01-06 23:30:01.91	120.26	39.52	
2025-01-06 23:30:03.34	120.87	39.38	
2025-01-06 23:30:04.78	121.47	39.23	
2025-01-06 23:30:06.21	122.07	39.09	
2025-01-06 23:30:07.64	122.66	38.94	
2025-01-06 23:30:09.08	123.25	38.78	
2025-01-06 23:30:10.52	123.83	38.62	
2025-01-06 23:30:11.97	124.41	38.46	
2025-01-06 23:30:13.40	124.98	38.30	
2025-01-06 23:30:14.84	125.54	38.14	
2025-01-06 23:30:16.28	126.10	37.97	
2025-01-06 23:30:17.71	126.65	37.80	
2025-01-06 23:30:19.15	127.20	37.63	
2025-01-06 23:30:20.59	127.75	37.46	
2025-01-06 23:30:22.02	128.28	37.29	
2025-01-06 23:30:23.46	128.81	37.11	
2025-01-06 23:30:24.90	129.34	36.93	
2025-01-06 23:30:26.33	129.86	36.75	
2025-01-06 23:30:27.79	130.38	36.57	
2025-01-06 23:30:29.22	130.88	36.39	
2025-01-06 23:30:30.66	131.39	36.21	
2025-01-06 23:30:32.10	131.89	36.02	
2025-01-06 23:30:33.55	132.38	35.83	
2025-01-06 23:30:34.99	132.87	35.64	
2025-01-06 23:30:36.42	133.35	35.46	
2025-01-06 23:30:37.86	133.82	35.27	
2025-01-06 23:30:39.30	134.30	35.07	
2025-01-06 23:30:40.74	134.76	34.88	
2025-01-06 23:30:42.17	135.22	34.69	
2025-01-06 23:30:43.62	135.68	34.49	
2025-01-06 23:30:45.06	136.12	34.30	
2025-01-06 23:30:46.49	136.57	34.11	
2025-01-06 23:30:47.93	137.00	33.91	
2025-01-06 23:30:49.37	137.44	33.71	
2025-01-06 23:30:50.80	137.86	33.52	
2025-01-06 23:30:52.24	138.29	33.32	
2025-01-06 23:30:53.67	138.70	33.12	
2025-01-06 23:30:55.11	139.12	32.93	
2025-01-06 23:30:56.54	139.52	32.73	
2025-01-06 23:30:57.98	139.93	32.53	
2025-01-06 23:30:59.41	140.32	32.33	
2025-01-06 23:31:00.85	140.72	32.13	
2025-01-06 23:31:02.29	141.11	31.93	
2025-01-06 23:31:03.72	141.49	31.74	
2025-01-06 23:31:05.16	141.87	31.54	
2025-01-06 23:31:06.60	142.25	31.34	
2025-01-06 23:31:08.04	142.62	31.14	
2025-01-06 23:31:09.47	142.98	30.94	
2025-01-06 23:31:10.92	143.35	30.74	
2025-01-06 23:31:12.35	143.70	30.54	
2025-01-06 23:31:13.80	144.06	30.34	
2025-01-06 23:31:15.24	144.41	30.14	
2025-01-06 23:31:16.68	144.75	29.95	
2025-01-06 23:31:18.12	145.09	29.75	
2025-01-06 23:31:19.56	145.43	29.55	
2025-01-06 23:31:21.01	145.77	29.35	
2025-01-06 23:31:22.45	146.10	29.15	
2025-01-06 23:31:23.88	146.42	28.96	
2025-01-06 23:31:25.31	146.74	28.76	
2025-01-06 23:31:26.76	147.06	28.57	
2025-01-06 23:31:28.20	147.37	28.37	
2025-01-06 23:31:29.63	147.68	28.18	
2025-01-06 23:31:31.07	147.99	27.98	
2025-01-06 23:31:32.51	148.29	27.79	
2025-01-06 23:31:33.96	148.59	27.59	
2025-01-06 23:31:35.40	148.89	27.40	
2025-01-06 23:31:36.84	149.18	27.21	
2025-01-06 23:31:38.29	149.47	27.02	
2025-01-06 23:31:39.73	149.76	26.83	
2025-01-06 23:31:41.17	150.04	26.64	
2025-01-06 23:31:42.60	150.32	26.45	
2025-01-06 23:31:44.05	150.59	26.26	
2025-01-06 23:31:45.50	150.87	26.07	
2025-01-06 23:31:46.94	151.14	25.88	
2025-01-06 23:31:48.37	151.40	25.69	
2025-01-06 23:31:49.81	151.66	25.51	
2025-01-06 23:31:51.25	151.93	25.32	
2025-01-06 23:31:52.69	152.18	25.13	
2025-01-06 23:31:54.12	152.44	24.95	
2025-01-06 23:31:55.56	152.69	24.77	
2025-01-06 23:31:56.99	152.93	24.59	
2025-01-06 23:31:58.43	153.18	24.40	
2025-01-06 23:31:59.87	153.42	24.22	
2025-01-06 23:32:01.31	153.66	24.04	
2025-01-06 23:32:02.76	153.90	23.86	
2025-01-06 23:32:04.19	154.14	23.68	
2025-01-06 23:32:05.63	154.37	23.50	
2025-01-06 23:32:07.06	154.60	23.33	
2025-01-06 23:32:08.50	154.82	23.15	
2025-01-06 23:32:09.94	155.05	22.97	
2025-01-06 23:32:11.38	155.27	22.80	
2025-01-06 23:32:12.81	155.49	22.62	
2025-01-06 23:32:14.24	155.71	22.45	
2025-01-06 23:32:15.68	155.92	22.28	
2025-01-06 23:32:17.12	156.14	22.11	
2025-01-06 23:32:18.56	156.35	21.93	
2025-01-06 23:32:20.00	156.56	21.76	
2025-01-06 23:32:21.44	156.76	21.59	
2025-01-06 23:32:22.87	156.96	21.42	
2025-01-06 23:32:24.31	157.17	21.26	
2025-01-06 23:32:25.74	157.37	21.09	
2025-01-06 23:32:27.19	157.56	20.92	
2025-01-06 23:32:28.63	157.76	20.75	
2025-01-06 23:32:30.07	157.95	20.59	
2025-01-06 23:32:31.52	158.15	20.42	
2025-01-06 23:32:32.96	158.34	20.26	
2025-01-06 23:32:34.39	158.52	20.10	
2025-01-06 23:32:35.85	158.71	19.93	
2025-01-06 23:32:37.29	158.90	19.77	
2025-01-06 23:32:38.73	159.08	19.61	
2025-01-06 23:32:40.16	159.26	19.45	
2025-01-06 23:32:41.60	159.44	19.29	
2025-01-06 23:32:43.03	159.61	19.13	
2025-01-06 23:32:44.47	159.79	18.98	
2025-01-06 23:32:45.90	159.96	18.82	
2025-01-06 23:32:47.34	160.13	18.66	
2025-01-06 23:32:48.78	160.30	18.51	
2025-01-06 23:32:50.22	160.47	18.35	
2025-01-06 23:32:51.67	160.64	18.20	
2025-01-06 23:32:53.10	160.80	18.05	
2025-01-06 23:32:54.54	160.96	17.89	
2025-01-06 23:32:55.98	161.12	17.74	
2025-01-06 23:32:57.42	161.28	17.59	
2025-01-06 23:32:58.86	161.44	17.44	
2025-01-06 23:33:00.29	161.60	17.29	
2025-01-06 23:33:01.73	161.76	17.14	
2025-01-06 23:33:03.16	161.91	16.99	
2025-01-06 23:33:04.60	162.06	16.85	
2025-01-06 23:33:06.04	162.21	16.70	
2025-01-06 23:33:07.47	162.36	16.55	
2025-01-06 23:33:08.90	162.51	16.41	
2025-01-06 23:33:10.34	162.66	16.26	
2025-01-06 23:33:11.78	162.80	16.12	
2025-01-06 23:33:13.21	162.95	15.98	
2025-01-06 23:33:14.65	163.09	15.83	
2025-01-06 23:33:16.09	163.23	15.69	
2025-01-06 23:33:17.53	163.37	15.55	
2025-01-06 23:33:18.96	163.51	15.41	
2025-01-06 23:33:20.40	163.65	15.27	
2025-01-06 23:33:21.83	163.78	15.13	
2025-01-06 23:33:23.27	163.92	14.99	
2025-01-06 23:33:24.70	164.05	14.86	
2025-01-06 23:33:26.14	164.19	14.72	
2025-01-06 23:33:27.58	164.32	14.58	
2025-01-06 23:33:29.01	164.45	14.45	
2025-01-06 23:33:30.45	164.58	14.31	
2025-01-06 23:33:31.89	164.71	14.17	
2025-01-06 23:33:33.32	164.83	14.04	
2025-01-06 23:33:34.76	164.96	13.91	
2025-01-06 23:33:36.20	165.08	13.77	
2025-01-06 23:33:37.65	165.21	13.64	
2025-01-06 23:33:39.09	165.33	13.51	
2025-01-06 23:33:40.53	165.45	13.38	
2025-01-06 23:33:41.96	165.58	13.25	
2025-01-06 23:33:43.40	165.70	13.12	
2025-01-06 23:33:44.83	165.81	12.99	
2025-01-06 23:33:46.29	165.93	12.86	
2025-01-06 23:33:47.72	166.05	12.73	
2025-01-06 23:33:49.15	166.17	12.60	
2025-01-06 23:33:50.59	166.28	12.47	
2025-01-06 23:33:52.04	166.40	12.35	
2025-01-06 23:33:53.47	166.51	12.22	
2025-01-06 23:33:54.91	166.62	12.10	
2025-01-06 23:33:56.35	166.73	11.97	
2025-01-06 23:33:57.80	166.84	11.85	
2025-01-06 23:33:59.23	166.95	11.72	
2025-01-06 23:34:00.67	167.06	11.60	
2025-01-06 23:34:02.10	167.17	11.48	
2025-01-06 23:34:03.54	167.28	11.35	
2025-01-06 23:34:04.98	167.38	11.23	
2025-01-06 23:34:06.41	167.49	11.11	
2025-01-06 23:34:07.86	167.59	10.99	
2025-01-06 23:34:09.30	167.70	10.87	
2025-01-06 23:34:10.74	167.80	10.75	
2025-01-06 23:34:12.17	167.90	10.63	
2025-01-06 23:34:13.61	168.00	10.51	
2025-01-06 23:34:15.05	168.10	10.39	
2025-01-06 23:34:16.48	168.20	10.28	
2025-01-06 23:34:17.92	168.30	10.16	
2025-01-06 23:34:19.35	168.40	10.04	
2025-01-06 23:34:20.79	168.50	9.93	
2025-01-06 23:34:22.23	168.59	9.81	
2025-01-06 23:34:23.66	168.69	9.70	
2025-01-06 23:34:25.10	168.78	9.58	
2025-01-06 23:34:26.53	168.88	9.47	
2025-01-06 23:34:27.97	168.97	9.35	
2025-01-06 23:34:29.41	169.07	9.24	
2025-01-06 23:34:30.84	169.16	9.13	
2025-01-06 23:34:32.30	169.25	9.01	
2025-01-06 23:34:33.74	169.34	8.90	
2025-01-06 23:34:35.18	169.43	8.79	
2025-01-06 23:34:36.62	169.52	8.68	
2025-01-06 23:34:38.07	169.61	8.57	
2025-01-06 23:34:39.52	169.70	8.45	
2025-01-06 23:34:40.96	169.79	8.34	
2025-01-06 23:34:42.40	169.88	8.23	
2025-01-06 23:34:43.85	169.96	8.12	
2025-01-06 23:34:45.30	170.05	8.01	
2025-01-06 23:34:46.75	170.14	7.91	
2025-01-06 23:34:48.19	170.22	7.80	
2025-01-06 23:34:49.62	170.31	7.69	
2025-01-06 23:34:51.06	170.39	7.58	
2025-01-06 23:34:52.50	170.47	7.48	
2025-01-06 23:34:53.94	170.56	7.37	
2025-01-06 23:34:55.37	170.64	7.27	
2025-01-06 23:34:56.82	170.72	7.16	
2025-01-06 23:34:58.26	170.80	7.05	
2025-01-06 23:34:59.70	170.88	6.95	
2025-01-06 23:35:01.15	170.96	6.84	
2025-01-06 23:35:02.58	171.04	6.74	
2025-01-06 23:35:04.02	171.12	6.64	
2025-01-06 23:35:05.45	171.20	6.53	
2025-01-06 23:35:06.90	171.28	6.43	
2025-01-06 23:35:08.35	171.35	6.33	
2025-01-06 23:35:09.79	171.43	6.23	
2025-01-06 23:35:11.22	171.51	6.12	
2025-01-06 23:35:12.67	171.58	6.02	
2025-01-06 23:35:14.11	171.66	5.92	
2025-01-06 23:35:15.54	171.73	5.82	
2025-01-06 23:35:16.99	171.81	5.72	
2025-01-06 23:35:18.43	171.88	5.62	
2025-01-06 23:35:19.87	171.95	5.52	
2025-01-06 23:35:21.31	172.03	5.42	
2025-01-06 23:35:22.75	172.10	5.32	
2025-01-06 23:35:24.19	172.17	5.22	
2025-01-06 23:35:25.62	172.24	5.12	
2025-01-06 23:35:27.06	172.31	5.03	
2025-01-06 23:35:28.51	172.38	4.93	
2025-01-06 23:35:29.95	172.46	4.83	
2025-01-06 23:35:31.38	172.52	4.73	
2025-01-06 23:35:32.82	172.59	4.64	
2025-01-06 23:35:34.27	172.66	4.54	
2025-01-06 23:35:35.70	172.73	4.45	
2025-01-06 23:35:37.14	172.80	4.35	
2025-01-06 23:35:38.58	172.87	4.25	
2025-01-06 23:35:40.02	172.93	4.16	
2025-01-06 23:35:41.45	173.00	4.06	

#Closed at: 2025-01-06 23:35:42