passes_logs/2026/01/01/XPeterburg/XPeterburg__20260101_103519_SUOMI_NPP_rec.log

#Pass ID: 20260101_103519_SUOMI NPP
#Satellite: SUOMI NPP
#Configuration: NPP
#Start time: 2026-01-01 10:35:13

#Version: 1.5.20200625
#Station: XPeterburg
#Location: 30.318091 lon 59.932769 lat
#TLE: 1 37849U 11061A   25356.63219598  .00000089  00000+0  63407-4 0  9994
#TLE: 2 37849  98.7787 293.8852 0002488 103.0781 257.0673 14.19516903733392

#Time	Az	El	Level	Level2	SNR	BER	Gain	Gain2
2026-01-01 10:35:13.00	184.69	67.46	-37.9	-45.0	3.3	15354438	94	2792
2026-01-01 10:35:13.40	184.89	67.63	-38.1	-47.6	3.6	15139289	93	3643
2026-01-01 10:35:13.80	185.09	67.80	-38.1	-46.5	3.3	15124107	93	3217
2026-01-01 10:35:14.21	185.30	67.97	-37.9	-46.4	3.6	15206184	94	3279
2026-01-01 10:35:14.61	185.50	68.14	-37.8	-44.9	3.4	15143684	94	2774
2026-01-01 10:35:15.01	185.71	68.31	-37.8	-45.7	3.6	15228851	93	3081
2026-01-01 10:35:15.41	185.92	68.47	-37.8	-44.2	3.5	15228851	93	2576
2026-01-01 10:35:15.81	186.14	68.64	-37.3	-43.1	2.8	15078651	93	2391
2026-01-01 10:35:16.22	186.37	68.81	-36.9	-41.3	4.6	15098472	92	2031
2026-01-01 10:35:16.62	186.59	68.98	-36.7	-40.3	5.0	11031776	91	1853
2026-01-01 10:35:17.02	186.82	69.15	-36.6	-39.9	5.1	6531929	91	1788
2026-01-01 10:35:17.42	187.05	69.32	-36.5	-39.4	5.4	5356849	91	1717
2026-01-01 10:35:17.82	187.28	69.48	-36.4	-39.0	5.6	4344207	91	1663
2026-01-01 10:35:18.23	187.53	69.66	-36.1	-38.9	5.8	3586463	90	1702
2026-01-01 10:35:18.63	187.77	69.82	-36.2	-39.4	5.5	3555618	90	1778
2026-01-01 10:35:19.03	188.02	69.99	-36.3	-39.6	5.3	4398086	90	1806
2026-01-01 10:35:19.43	188.28	70.16	-36.5	-40.3	4.9	5417327	90	1913
2026-01-01 10:35:19.84	188.54	70.33	-36.7	-41.0	4.5	6502571	90	2019
2026-01-01 10:35:20.24	188.80	70.50	-36.7	-41.0	4.5	6502571	90	2007
2026-01-01 10:35:20.64	189.07	70.67	-36.8	-41.4	4.3	7759307	90	2087
2026-01-01 10:35:21.04	189.34	70.83	-36.7	-40.9	4.5	8871063	90	1992
2026-01-01 10:35:21.44	189.62	71.00	-36.8	-41.0	4.4	8305580	90	2009
2026-01-01 10:35:21.85	189.91	71.17	-36.8	-41.1	4.4	8899879	90	2029
2026-01-01 10:35:22.25	190.20	71.34	-36.7	-40.7	4.6	8518508	90	1953
2026-01-01 10:35:22.65	190.49	71.50	-36.6	-40.4	4.7	7222236	90	1907
2026-01-01 10:35:23.05	190.79	71.67	-36.7	-40.6	4.7	6880027	90	1935
2026-01-01 10:35:23.46	191.10	71.84	-36.4	-39.7	5.2	6218719	90	1796
2026-01-01 10:35:23.86	191.41	72.01	-36.3	-39.1	5.5	5063781	90	1710
2026-01-01 10:35:24.26	191.73	72.17	-36.0	-38.4	6.1	3505073	90	1623
2026-01-01 10:35:24.66	192.05	72.34	-35.5	-37.5	7.2	2130661	89	1539
2026-01-01 10:35:25.06	192.38	72.50	-35.0	-36.7	8.1	962097	88	1488
2026-01-01 10:35:25.46	192.72	72.67	-34.9	-36.6	8.3	962097	88	1488
2026-01-01 10:35:25.87	193.07	72.84	-34.8	-36.7	8.6	523559	87	1538
2026-01-01 10:35:26.27	193.42	73.00	-34.8	-36.9	8.5	381271	87	1556
2026-01-01 10:35:26.67	193.78	73.16	-35.2	-37.9	7.9	382812	87	1673
2026-01-01 10:35:27.07	194.14	73.33	-35.6	-38.5	7.0	640808	88	1717
2026-01-01 10:35:27.48	194.52	73.50	-35.8	-39.1	6.7	1298370	88	1797
2026-01-01 10:35:27.88	194.90	73.66	-36.2	-39.7	6.0	2055915	89	1832
2026-01-01 10:35:28.28	195.29	73.82	-36.2	-39.4	6.1	2925598	89	1784
2026-01-01 10:35:28.68	195.69	73.98	-35.9	-38.7	6.7	2668334	89	1688
2026-01-01 10:35:29.08	196.09	74.14	-35.8	-38.4	6.9	1806724	89	1647
2026-01-01 10:35:29.49	196.52	74.31	-35.8	-38.3	6.9	1573814	89	1646
2026-01-01 10:35:29.89	196.94	74.47	-35.4	-37.2	7.7	1133041	89	1506
2026-01-01 10:35:30.29	197.37	74.63	-35.2	-36.7	7.8	1133041	89	1468
2026-01-01 10:35:30.69	197.81	74.78	-35.0	-36.8	8.3	744338	88	1508
2026-01-01 10:35:31.09	198.26	74.94	-35.2	-37.2	7.9	603408	88	1548
2026-01-01 10:35:31.50	198.73	75.10	-35.3	-37.5	7.7	721687	88	1583
2026-01-01 10:35:31.90	199.20	75.26	-35.2	-37.2	7.8	745674	88	1551
2026-01-01 10:35:32.30	199.68	75.41	-35.2	-37.3	7.7	782974	88	1557
2026-01-01 10:35:32.70	200.17	75.57	-35.2	-37.2	7.7	797302	88	1543
2026-01-01 10:35:33.10	200.68	75.72	-35.3	-37.4	7.5	879554	88	1561
2026-01-01 10:35:33.50	201.19	75.88	-35.4	-37.7	7.3	1052467	88	1594
2026-01-01 10:35:33.91	201.73	76.03	-35.4	-37.4	7.5	1121948	88	1556
2026-01-01 10:35:34.31	202.26	76.18	-35.7	-38.3	6.9	1147621	88	1662
2026-01-01 10:35:34.71	202.81	76.33	-35.8	-38.7	6.5	1615295	88	1709
2026-01-01 10:35:35.11	203.38	76.48	-36.1	-38.6	6.2	2418479	89	1658
2026-01-01 10:35:35.51	203.95	76.63	-36.0	-38.6	6.1	2418479	89	1648
2026-01-01 10:35:35.92	204.55	76.78	-36.2	-38.6	5.7	2788589	90	1617
2026-01-01 10:35:36.32	205.16	76.92	-36.3	-39.0	5.5	3739692	90	1663
2026-01-01 10:35:36.72	205.77	77.07	-36.0	-37.9	6.2	3656654	90	1539
2026-01-01 10:35:37.12	206.40	77.21	-35.8	-37.5	6.4	2638549	90	1488
2026-01-01 10:35:37.52	207.05	77.35	-36.0	-38.3	6.5	2140098	89	1616
2026-01-01 10:35:37.93	207.72	77.50	-35.9	-38.2	6.6	1728569	89	1609
2026-01-01 10:35:38.33	208.40	77.63	-36.0	-38.3	6.5	1850296	89	1618
2026-01-01 10:35:38.73	209.09	77.77	-36.3	-39.4	6.0	2256607	89	1753
2026-01-01 10:35:39.13	209.79	77.91	-36.3	-39.3	6.0	2947486	89	1735
2026-01-01 10:35:39.53	210.51	78.04	-36.4	-39.4	5.8	3181266	89	1752
2026-01-01 10:35:39.93	211.25	78.17	-36.2	-39.0	6.1	3006660	89	1701
2026-01-01 10:35:40.34	212.03	78.30	-36.0	-38.4	6.5	3006660	89	1623
2026-01-01 10:35:40.74	212.80	78.43	-35.9	-38.1	6.9	2485534	89	1592
2026-01-01 10:35:41.14	213.59	78.56	-35.7	-37.6	7.3	1607902	89	1533
2026-01-01 10:35:41.54	214.40	78.68	-35.7	-37.7	7.4	1303840	89	1550
2026-01-01 10:35:41.94	215.23	78.80	-35.9	-38.1	7.1	1168594	89	1599
2026-01-01 10:35:42.35	216.09	78.92	-36.3	-39.3	6.3	1406105	89	1745
2026-01-01 10:35:42.75	216.96	79.04	-36.4	-39.3	5.8	2259674	90	1715
2026-01-01 10:35:43.15	217.84	79.16	-36.6	-39.9	5.4	3661331	90	1798
2026-01-01 10:35:43.55	218.74	79.27	-36.9	-40.9	5.1	4773849	90	1950
2026-01-01 10:35:43.95	219.66	79.38	-37.1	-40.5	5.2	6087982	91	1835
2026-01-01 10:35:44.36	220.62	79.49	-37.0	-40.1	5.3	5459312	91	1770
2026-01-01 10:35:44.76	221.58	79.59	-36.9	-40.1	5.4	4728805	91	1767
2026-01-01 10:35:45.16	222.56	79.69	-36.7	-39.3	6.0	3642272	91	1665
2026-01-01 10:35:45.56	223.56	79.79	-36.6	-39.1	6.1	3642272	91	1642
2026-01-01 10:35:45.96	224.58	79.88	-36.7	-39.6	5.9	2638427	91	1708
2026-01-01 10:35:46.37	225.64	79.98	-36.8	-39.8	5.8	2799385	91	1735
2026-01-01 10:35:46.77	226.70	80.07	-37.1	-40.7	5.2	3564056	91	1868
2026-01-01 10:35:47.17	227.77	80.15	-37.1	-40.8	5.0	5092201	91	1881
2026-01-01 10:35:47.57	228.87	80.23	-37.3	-41.4	4.6	5730964	91	1963
2026-01-01 10:35:47.97	229.98	80.31	-37.3	-41.4	4.7	6594375	91	1963
2026-01-01 10:35:48.37	231.11	80.39	-37.2	-41.0	4.8	6622375	91	1894
2026-01-01 10:35:48.78	232.29	80.46	-37.1	-40.5	5.1	5785095	91	1821
2026-01-01 10:35:49.18	233.45	80.52	-37.2	-40.9	5.0	5578941	91	1883
2026-01-01 10:35:49.58	234.63	80.59	-37.2	-41.0	5.0	5700126	91	1900
2026-01-01 10:35:49.98	235.83	80.65	-37.4	-41.4	4.8	6491500	91	1953
2026-01-01 10:35:50.38	237.04	80.70	-37.4	-41.1	4.5	6491500	92	1894
2026-01-01 10:35:50.79	238.30	80.75	-37.3	-40.8	4.7	7822418	92	1829
2026-01-01 10:35:51.19	239.54	80.80	-37.2	-40.3	5.0	6914962	92	1754
2026-01-01 10:35:51.59	240.79	80.84	-36.9	-39.5	5.4	5788154	92	1645
2026-01-01 10:35:51.99	242.05	80.88	-36.8	-39.2	5.7	4471496	92	1616
2026-01-01 10:35:52.39	243.33	80.91	-36.6	-39.1	6.2	3428756	91	1627
2026-01-01 10:35:52.80	244.64	80.94	-36.7	-39.3	6.0	2720108	91	1660
2026-01-01 10:35:53.20	245.93	80.97	-37.0	-40.2	5.7	2996658	91	1781
2026-01-01 10:35:53.60	247.23	80.99	-36.9	-40.1	5.5	3790885	91	1763
2026-01-01 10:35:54.00	248.53	81.01	-37.2	-40.9	5.2	4117698	91	1884
2026-01-01 10:35:54.40	249.83	81.02	-37.1	-40.4	5.4	4899276	91	1809
2026-01-01 10:35:54.81	251.17	81.02	-36.9	-39.9	5.6	4351119	91	1730
2026-01-01 10:35:55.21	252.48	81.02	-37.0	-40.1	5.5	4120429	91	1767
2026-01-01 10:35:55.61	253.79	81.02	-37.0	-40.3	5.5	4120429	91	1792
2026-01-01 10:35:56.01	255.10	81.01	-36.9	-39.9	5.7	3823326	91	1732
2026-01-01 10:35:56.41	256.40	81.00	-37.1	-40.3	5.4	3996765	91	1790
2026-01-01 10:35:56.82	257.74	80.98	-37.4	-41.3	4.8	4640655	91	1940
2026-01-01 10:35:57.22	259.03	80.96	-37.4	-41.5	4.7	6098854	91	1974
2026-01-01 10:35:57.62	260.32	80.94	-37.5	-41.5	4.4	7577781	92	1947
2026-01-01 10:35:58.02	261.60	80.91	-37.6	-41.8	4.2	8518310	92	1998
2026-01-01 10:35:58.42	262.87	80.87	-37.6	-41.8	4.3	9176383	92	1992
2026-01-01 10:35:58.82	264.13	80.83	-37.5	-41.4	4.4	9205863	92	1935
2026-01-01 10:35:59.23	265.41	80.79	-37.6	-41.7	4.3	8457206	92	1981
2026-01-01 10:35:59.63	266.64	80.74	-37.5	-41.5	4.4	8680831	92	1954
2026-01-01 10:36:00.03	267.86	80.69	-37.5	-41.5	4.3	8850166	92	1951
2026-01-01 10:36:00.43	269.07	80.63	-37.7	-42.5	4.0	8850166	92	2128
2026-01-01 10:36:00.84	270.29	80.57	-37.9	-44.7	3.5	10664596	92	2688
2026-01-01 10:36:01.24	271.47	80.51	-37.9	-43.9	4.0	13911178	92	2454
2026-01-01 10:36:01.64	272.63	80.44	-37.8	-42.7	4.0	14268913	92	2174
2026-01-01 10:36:02.04	273.77	80.37	-37.6	-41.9	4.1	13482658	92	2017
2026-01-01 10:36:02.44	274.90	80.29	-37.5	-41.2	4.4	10371978	92	1894
2026-01-01 10:36:02.85	276.03	80.21	-37.4	-40.9	4.5	8264106	92	1849
2026-01-01 10:36:03.25	277.12	80.13	-37.5	-41.3	4.4	7536643	92	1908
2026-01-01 10:36:03.65	278.19	80.04	-37.6	-41.6	4.2	8822631	92	1954
2026-01-01 10:36:04.05	279.24	79.95	-37.6	-41.8	4.1	9589248	92	1992
2026-01-01 10:36:04.45	280.27	79.86	-37.8	-42.5	3.9	12362190	92	2112
2026-01-01 10:36:04.86	281.31	79.76	-37.9	-44.5	3.3	13846900	92	2633
2026-01-01 10:36:05.26	282.30	79.66	-37.9	-43.6	3.9	14542686	92	2376
2026-01-01 10:36:05.66	283.28	79.56	-37.8	-42.6	3.9	14542686	92	2134
2026-01-01 10:36:06.06	284.23	79.46	-37.7	-42.2	4.0	13883522	92	2050
2026-01-01 10:36:06.46	285.16	79.35	-37.8	-42.4	3.9	13250541	92	2089
2026-01-01 10:36:06.87	286.10	79.24	-37.8	-42.4	3.9	13442031	92	2104
2026-01-01 10:36:07.27	287.00	79.12	-37.8	-42.3	3.9	13536796	92	2085
2026-01-01 10:36:07.67	287.87	79.01	-37.6	-41.5	4.2	13272193	92	1941
2026-01-01 10:36:08.07	288.73	78.89	-37.6	-41.6	4.1	10278541	92	1962
2026-01-01 10:36:08.48	289.59	78.77	-37.6	-41.8	4.1	9966308	92	1987
2026-01-01 10:36:08.88	290.41	78.65	-37.5	-41.2	4.3	9680938	92	1893
2026-01-01 10:36:09.28	291.22	78.52	-37.4	-41.1	4.3	9138603	92	1880
2026-01-01 10:36:09.68	292.00	78.40	-37.5	-41.2	4.3	8852012	92	1892
2026-01-01 10:36:10.09	292.79	78.27	-37.6	-41.6	4.1	10185142	92	1960
2026-01-01 10:36:10.49	293.54	78.14	-37.7	-42.0	3.9	10185142	92	2032
2026-01-01 10:36:10.89	294.27	78.00	-37.7	-42.2	3.9	12745910	92	2062
2026-01-01 10:36:11.29	294.99	77.87	-37.5	-41.3	4.2	12179000	92	1905
2026-01-01 10:36:11.69	295.69	77.73	-37.6	-41.7	4.1	10190139	92	1973
2026-01-01 10:36:12.10	296.39	77.59	-37.6	-41.8	4.1	10487106	92	1999
2026-01-01 10:36:12.50	297.06	77.46	-37.7	-42.2	4.0	11184600	92	2066
2026-01-01 10:36:12.90	297.72	77.32	-37.6	-42.1	4.0	12886978	92	2063
2026-01-01 10:36:13.30	298.36	77.17	-37.4	-41.3	4.3	12693840	92	1928
2026-01-01 10:36:13.71	299.00	77.03	-37.2	-40.4	4.6	8824661	92	1777
2026-01-01 10:36:14.11	299.61	76.88	-36.8	-39.6	5.5	6797370	91	1691
2026-01-01 10:36:14.51	300.20	76.74	-36.5	-38.6	6.1	3366600	91	1577
2026-01-01 10:36:14.91	300.79	76.59	-36.0	-38.1	6.7	2252723	90	1561
2026-01-01 10:36:15.31	301.36	76.44	-36.0	-38.0	6.7	1873039	90	1560
2026-01-01 10:36:15.72	301.93	76.29	-36.1	-38.4	6.5	1873039	90	1607
2026-01-01 10:36:16.12	302.48	76.14	-36.3	-39.1	6.0	1906364	90	1694
2026-01-01 10:36:16.52	303.01	75.99	-36.5	-39.7	5.5	2629226	90	1768
2026-01-01 10:36:16.92	303.53	75.84	-36.6	-39.8	5.5	3554542	90	1792
2026-01-01 10:36:17.32	304.04	75.68	-36.6	-39.9	5.4	3923431	90	1796
2026-01-01 10:36:17.73	304.55	75.53	-36.6	-40.0	5.2	4618690	90	1815
2026-01-01 10:36:18.13	305.04	75.37	-36.9	-40.8	4.9	5179519	90	1936
2026-01-01 10:36:18.53	305.52	75.22	-37.3	-41.4	4.5	6317062	91	1967
2026-01-01 10:36:18.93	305.98	75.06	-37.5	-42.1	4.2	8108978	91	2092
2026-01-01 10:36:19.34	306.45	74.90	-37.5	-41.8	4.0	10694732	92	2022
2026-01-01 10:36:19.74	306.90	74.74	-37.6	-43.7	4.0	13881683	92	2458
2026-01-01 10:36:20.14	307.34	74.58	-37.6	-42.4	4.0	13964454	92	2134
2026-01-01 10:36:20.54	307.77	74.42	-37.6	-42.0	3.9	13964454	92	2048
2026-01-01 10:36:20.94	308.18	74.26	-37.4	-41.2	4.0	13708099	92	1904
2026-01-01 10:36:21.35	308.60	74.10	-37.5	-41.7	4.0	12529594	92	1987
2026-01-01 10:36:21.75	309.01	73.94	-37.4	-41.3	4.2	12529869	92	1926
2026-01-01 10:36:22.15	309.40	73.78	-37.4	-41.4	4.1	10169136	92	1944
2026-01-01 10:36:22.55	309.78	73.62	-37.1	-40.0	4.6	10083717	92	1732
2026-01-01 10:36:22.95	310.16	73.45	-37.0	-39.8	4.8	7463912	92	1707
2026-01-01 10:36:23.36	310.54	73.29	-36.9	-39.5	4.9	6431015	92	1668
2026-01-01 10:36:23.76	310.90	73.12	-36.8	-39.3	5.1	5705520	92	1634
2026-01-01 10:36:24.16	311.26	72.96	-36.9	-39.6	4.9	5657974	92	1681
2026-01-01 10:36:24.56	311.61	72.80	-37.1	-40.3	4.6	6088470	92	1786
2026-01-01 10:36:24.97	311.95	72.63	-37.2	-40.6	4.5	7165908	92	1835
2026-01-01 10:36:25.37	312.29	72.46	-37.3	-41.3	4.2	9238639	92	1947
2026-01-01 10:36:25.77	312.62	72.30	-37.5	-42.2	3.9	9238639	92	2111
2026-01-01 10:36:26.17	312.94	72.13	-37.6	-44.1	3.7	12056747	92	2599
2026-01-01 10:36:26.58	313.26	71.96	-37.7	-43.6	3.8	13988250	92	2426
2026-01-01 10:36:26.98	313.57	71.80	-37.6	-44.1	3.6	14590950	92	2600
2026-01-01 10:36:27.38	313.87	71.63	-37.7	-44.0	3.8	14542137	92	2533
2026-01-01 10:36:27.78	314.17	71.47	-37.7	-43.2	3.6	14783363	92	2330
2026-01-01 10:36:28.18	314.46	71.30	-37.9	-45.2	3.6	14924705	92	2862
2026-01-01 10:36:28.58	314.75	71.13	-38.0	-44.4	3.4	15120964	93	2573
2026-01-01 10:36:28.99	315.03	70.96	-38.0	-45.6	3.6	15193099	93	2934
2026-01-01 10:36:29.39	315.31	70.79	-38.0	-44.5	3.4	15182792	93	2614
2026-01-01 10:36:29.79	315.58	70.63	-37.9	-45.2	3.6	15173652	93	2847
2026-01-01 10:36:30.19	315.85	70.46	-37.6	-42.3	3.5	15174339	93	2112
2026-01-01 10:36:30.59	316.11	70.29	-37.8	-44.7	3.6	15174339	93	2707
2026-01-01 10:36:30.99	316.36	70.13	-38.2	-45.8	3.4	15079383	93	2938

#Closed at: 2026-01-01 10:36:31