passes_logs/2026/01/01/XPeterburg/XPeterburg__20260101_004240_SUOMI_NPP_rec.log

#Pass ID: 20260101_004240_SUOMI NPP
#Satellite: SUOMI NPP
#Configuration: NPP
#Start time: 2026-01-01 00:42:36

#Version: 1.5.20200625
#Station: XPeterburg
#Location: 30.318091 lon 59.932769 lat
#TLE: 1 37849U 11061A   25356.63219598  .00000089  00000+0  63407-4 0  9994
#TLE: 2 37849  98.7787 293.8852 0002488 103.0781 257.0673 14.19516903733392

#Time	Az	El	Level	Level2	SNR	BER	Gain	Gain2
2026-01-01 00:42:36.24	346.07	68.52	-37.9	-44.2	3.3	15347373	94	2527
2026-01-01 00:42:36.64	345.75	68.67	-37.9	-46.4	3.6	15089012	92	3282
2026-01-01 00:42:37.04	345.44	68.82	-37.9	-44.6	3.3	15149276	92	2680
2026-01-01 00:42:37.44	345.11	68.97	-37.8	-45.5	3.6	15197280	92	3012
2026-01-01 00:42:37.85	344.78	69.12	-37.7	-44.1	3.5	15113723	92	2572
2026-01-01 00:42:38.25	344.44	69.26	-37.6	-44.6	3.6	15069671	92	2769
2026-01-01 00:42:38.65	344.10	69.41	-37.4	-42.9	3.7	15069671	92	2311
2026-01-01 00:42:39.05	343.76	69.55	-37.2	-41.6	4.0	14689956	92	2039
2026-01-01 00:42:39.45	343.41	69.70	-36.9	-40.4	4.4	13466957	92	1831
2026-01-01 00:42:39.85	343.06	69.84	-36.7	-39.9	4.9	8994621	91	1781
2026-01-01 00:42:40.26	342.69	69.99	-36.5	-39.1	5.4	6483589	91	1658
2026-01-01 00:42:40.66	342.32	70.13	-36.3	-38.7	5.8	4898208	91	1618
2026-01-01 00:42:41.06	341.95	70.28	-36.3	-38.7	5.7	3647308	91	1609
2026-01-01 00:42:41.46	341.58	70.42	-36.7	-39.7	5.2	4026687	91	1754
2026-01-01 00:42:41.86	341.19	70.56	-36.9	-40.5	4.4	5830657	91	1846
2026-01-01 00:42:42.27	340.80	70.71	-37.5	-44.0	3.7	10302391	92	2592
2026-01-01 00:42:42.67	340.40	70.85	-37.3	-42.3	3.9	14464881	92	2183
2026-01-01 00:42:43.07	340.00	70.99	-37.3	-42.9	3.7	14479217	92	2349
2026-01-01 00:42:43.47	339.59	71.13	-37.4	-42.6	3.9	14479217	92	2250
2026-01-01 00:42:43.87	339.18	71.26	-37.4	-42.0	3.8	14381278	92	2086
2026-01-01 00:42:44.28	338.75	71.40	-37.4	-43.2	3.7	14107299	92	2417
2026-01-01 00:42:44.68	338.32	71.54	-37.4	-43.1	3.8	14175376	92	2347
2026-01-01 00:42:45.08	337.88	71.68	-37.4	-43.9	3.7	14215858	92	2577
2026-01-01 00:42:45.48	337.44	71.81	-37.5	-43.3	3.7	14630493	92	2415
2026-01-01 00:42:45.89	336.98	71.95	-37.6	-44.5	3.5	14487548	92	2741
2026-01-01 00:42:46.29	336.53	72.08	-37.6	-44.1	3.7	14866737	92	2588
2026-01-01 00:42:46.69	336.07	72.21	-37.7	-43.8	3.4	14881271	92	2479
2026-01-01 00:42:47.09	335.60	72.35	-37.7	-44.3	3.7	15084320	92	2644
2026-01-01 00:42:47.49	335.12	72.48	-37.8	-43.8	3.5	15041351	92	2466
2026-01-01 00:42:47.90	334.62	72.61	-37.8	-44.9	3.7	15051040	92	2783
2026-01-01 00:42:48.30	334.13	72.74	-37.8	-43.8	3.5	15077514	92	2473
2026-01-01 00:42:48.70	333.63	72.86	-37.8	-44.9	3.7	15077514	92	2786
2026-01-01 00:42:49.10	333.12	72.99	-37.7	-43.5	3.6	15009269	92	2389
2026-01-01 00:42:49.51	332.59	73.12	-37.5	-43.9	3.7	14935501	92	2556
2026-01-01 00:42:49.91	332.07	73.24	-37.4	-42.1	4.0	14630981	92	2118
2026-01-01 00:42:50.31	331.54	73.36	-37.2	-41.2	4.2	13739883	92	1936
2026-01-01 00:42:50.71	330.99	73.49	-37.1	-40.4	4.5	11763214	92	1802
2026-01-01 00:42:51.11	330.45	73.60	-37.1	-40.2	4.5	8066566	92	1778
2026-01-01 00:42:51.52	329.87	73.73	-37.0	-39.9	4.6	7678688	92	1727
2026-01-01 00:42:51.92	329.31	73.84	-37.0	-40.0	4.5	7167846	92	1746
2026-01-01 00:42:52.32	328.73	73.96	-37.0	-40.0	4.5	7467010	92	1735
2026-01-01 00:42:52.72	328.15	74.07	-37.1	-40.4	4.4	8122497	92	1792
2026-01-01 00:42:53.12	327.56	74.19	-37.1	-40.4	4.3	9037033	92	1792
2026-01-01 00:42:53.53	326.94	74.30	-37.2	-40.9	4.1	9037033	92	1873
2026-01-01 00:42:53.93	326.33	74.41	-37.3	-41.1	4.1	9555435	92	1904
2026-01-01 00:42:54.33	325.71	74.52	-37.3	-41.0	4.1	10539848	92	1893
2026-01-01 00:42:54.73	325.08	74.62	-37.3	-41.1	4.2	11026771	92	1906
2026-01-01 00:42:55.13	324.44	74.73	-37.3	-41.3	4.2	9980903	92	1935
2026-01-01 00:42:55.53	323.80	74.83	-37.3	-41.2	4.2	10303306	92	1936
2026-01-01 00:42:55.94	323.13	74.93	-37.4	-41.5	4.1	9815345	92	1983
2026-01-01 00:42:56.34	322.46	75.03	-37.4	-41.8	4.0	10029518	92	2030
2026-01-01 00:42:56.74	321.79	75.13	-37.3	-41.2	4.2	11088172	92	1943
2026-01-01 00:42:57.14	321.10	75.22	-37.2	-41.0	4.4	9730766	92	1895
2026-01-01 00:42:57.55	320.39	75.32	-37.3	-41.3	4.3	8932044	92	1958
2026-01-01 00:42:57.95	319.69	75.41	-37.3	-41.3	4.4	8961990	92	1951
2026-01-01 00:42:58.35	318.98	75.50	-37.4	-41.7	4.2	9166992	92	2018
2026-01-01 00:42:58.75	318.26	75.59	-37.5	-42.1	4.1	9166992	92	2090
2026-01-01 00:42:59.15	317.53	75.67	-37.4	-41.9	4.1	9951202	92	2061
2026-01-01 00:42:59.56	316.78	75.76	-37.3	-41.6	4.2	10596092	92	2002
2026-01-01 00:42:59.96	316.03	75.84	-37.4	-41.6	4.3	10539680	92	2014
2026-01-01 00:43:00.36	315.28	75.91	-37.4	-41.9	4.2	9351425	92	2062
2026-01-01 00:43:00.76	314.51	75.99	-37.4	-42.1	4.1	9760406	92	2115
2026-01-01 00:43:01.16	313.74	76.06	-37.5	-42.4	4.0	10322769	92	2164
2026-01-01 00:43:01.57	312.94	76.13	-37.7	-44.8	3.5	12993217	92	2781
2026-01-01 00:43:01.97	312.15	76.20	-37.7	-44.4	3.8	14584571	92	2646
2026-01-01 00:43:02.37	311.36	76.27	-37.8	-43.9	3.6	14624130	92	2494
2026-01-01 00:43:02.77	310.55	76.33	-37.8	-44.2	3.5	14908287	92	2560
2026-01-01 00:43:03.17	309.74	76.39	-37.8	-45.6	3.6	14971305	92	2997
2026-01-01 00:43:03.57	308.92	76.45	-37.7	-43.7	3.7	14971305	92	2456
2026-01-01 00:43:03.98	308.07	76.50	-37.8	-45.0	3.7	14747062	92	2818
2026-01-01 00:43:04.38	307.24	76.56	-37.9	-44.6	3.6	14760940	92	2658
2026-01-01 00:43:04.78	306.40	76.61	-38.0	-46.1	3.6	14952140	92	3130
2026-01-01 00:43:05.18	305.55	76.65	-38.0	-45.0	3.4	15076446	92	2766
2026-01-01 00:43:05.58	304.70	76.70	-38.0	-45.6	3.6	15174568	93	2942
2026-01-01 00:43:05.99	303.82	76.74	-38.0	-45.0	3.5	15124153	93	2745
2026-01-01 00:43:06.39	302.96	76.78	-38.0	-45.3	3.6	15159912	93	2855
2026-01-01 00:43:06.79	302.09	76.81	-38.1	-45.2	3.5	15085159	93	2805
2026-01-01 00:43:07.19	301.22	76.84	-38.1	-46.3	3.4	15195930	93	3143
2026-01-01 00:43:07.60	300.32	76.87	-38.1	-45.6	3.5	15108543	93	2924
2026-01-01 00:43:08.00	299.44	76.90	-38.0	-44.2	3.4	15242546	93	2497
2026-01-01 00:43:08.40	298.55	76.92	-37.9	-44.1	3.7	15005119	93	2515
2026-01-01 00:43:08.80	297.67	76.94	-37.7	-42.7	3.8	15005119	93	2169
2026-01-01 00:43:09.21	296.76	76.96	-37.6	-41.8	3.9	14536529	93	1991
2026-01-01 00:43:09.61	295.86	76.97	-37.6	-41.9	3.9	13745285	93	2013
2026-01-01 00:43:10.01	294.97	76.98	-37.7	-42.5	3.7	13262672	93	2121
2026-01-01 00:43:10.41	294.08	76.99	-37.8	-44.0	3.9	14336853	93	2505
2026-01-01 00:43:10.81	293.18	77.00	-37.9	-43.6	3.6	14703880	93	2380
2026-01-01 00:43:11.22	292.26	77.00	-37.9	-44.9	3.6	14943145	93	2738
2026-01-01 00:43:11.62	291.37	76.99	-37.9	-43.6	3.6	14917121	93	2368
2026-01-01 00:43:12.02	290.47	76.99	-37.9	-44.5	3.6	14998939	93	2635
2026-01-01 00:43:12.42	289.57	76.98	-37.8	-43.2	3.7	14883453	93	2297
2026-01-01 00:43:12.83	288.66	76.97	-37.9	-45.0	3.6	14886123	93	2771
2026-01-01 00:43:13.23	287.77	76.96	-38.0	-44.3	3.5	14977714	93	2552
2026-01-01 00:43:13.63	286.88	76.94	-38.1	-45.6	3.6	15188140	93	2920
2026-01-01 00:43:14.03	285.99	76.92	-38.1	-44.9	3.5	15188140	93	2711
2026-01-01 00:43:14.43	285.11	76.89	-38.0	-45.1	3.6	15125495	93	2803
2026-01-01 00:43:14.84	284.21	76.87	-37.9	-43.9	3.7	15211250	93	2460
2026-01-01 00:43:15.24	283.33	76.84	-37.8	-44.1	3.4	14950042	93	2561
2026-01-01 00:43:15.64	282.46	76.81	-37.7	-43.4	3.8	14824462	93	2352
2026-01-01 00:43:16.04	281.59	76.77	-37.7	-42.4	3.8	14398544	93	2115
2026-01-01 00:43:16.44	280.73	76.73	-37.6	-43.1	4.0	14485252	93	2306
2026-01-01 00:43:16.84	279.87	76.69	-37.6	-42.1	3.9	14302818	93	2072
2026-01-01 00:43:17.25	279.00	76.64	-37.7	-42.2	3.8	13776191	93	2068
2026-01-01 00:43:17.65	278.15	76.60	-37.5	-41.3	4.0	13582046	93	1917
2026-01-01 00:43:18.05	277.31	76.55	-37.5	-41.3	4.1	11303932	93	1927
2026-01-01 00:43:18.45	276.48	76.50	-37.5	-41.3	4.1	11325462	93	1917
2026-01-01 00:43:18.86	275.64	76.44	-37.7	-42.3	3.8	11325462	93	2097
2026-01-01 00:43:19.26	274.82	76.38	-37.8	-44.5	3.7	13352844	93	2656
2026-01-01 00:43:19.66	274.01	76.32	-37.8	-43.6	3.7	14484802	93	2378
2026-01-01 00:43:20.06	273.20	76.26	-37.9	-44.4	3.4	14832847	93	2602
2026-01-01 00:43:20.46	272.41	76.19	-37.9	-44.0	3.7	14926170	93	2498
2026-01-01 00:43:20.87	271.60	76.12	-37.9	-43.2	3.6	14862579	93	2262
2026-01-01 00:43:21.27	270.82	76.05	-37.8	-43.7	3.8	14860977	93	2430
2026-01-01 00:43:21.67	270.05	75.98	-37.7	-42.7	3.7	14697547	93	2178
2026-01-01 00:43:22.07	269.29	75.90	-37.7	-43.5	4.0	14737312	93	2400
2026-01-01 00:43:22.47	268.53	75.82	-37.6	-42.1	3.9	14247489	93	2063
2026-01-01 00:43:22.88	267.77	75.74	-37.5	-41.7	3.9	13802330	93	1989
2026-01-01 00:43:23.28	267.03	75.66	-37.3	-40.8	4.2	11113616	93	1827
2026-01-01 00:43:23.68	266.31	75.57	-37.1	-40.4	4.5	8687278	92	1786
2026-01-01 00:43:24.08	265.59	75.48	-37.1	-40.4	4.6	8687278	92	1796
2026-01-01 00:43:24.48	264.88	75.39	-37.1	-40.4	4.5	7609687	92	1801
2026-01-01 00:43:24.89	264.16	75.30	-37.3	-41.3	4.1	7857246	92	1944
2026-01-01 00:43:25.29	263.47	75.21	-37.4	-41.8	4.0	9962638	92	2043
2026-01-01 00:43:25.69	262.79	75.11	-37.6	-42.6	3.7	12954437	92	2203
2026-01-01 00:43:26.09	262.11	75.01	-37.7	-43.8	3.8	14345352	92	2503
2026-01-01 00:43:26.50	261.43	74.91	-37.6	-43.1	3.7	14737686	92	2318
2026-01-01 00:43:26.90	260.78	74.81	-37.6	-44.0	3.9	14779876	92	2553
2026-01-01 00:43:27.30	260.13	74.71	-37.6	-42.8	3.7	14601600	92	2248
2026-01-01 00:43:27.70	259.50	74.60	-37.7	-44.6	3.7	14738662	92	2726
2026-01-01 00:43:28.10	258.87	74.50	-37.8	-44.1	3.5	15013069	92	2540
2026-01-01 00:43:28.51	258.24	74.39	-37.7	-44.9	3.6	15093147	92	2826
2026-01-01 00:43:28.91	257.63	74.28	-37.7	-43.9	3.5	15093147	92	2507
2026-01-01 00:43:29.31	257.03	74.16	-37.7	-44.7	3.6	15078643	92	2757
2026-01-01 00:43:29.71	256.44	74.05	-37.5	-43.0	3.7	15087654	92	2318
2026-01-01 00:43:30.11	255.86	73.94	-37.4	-41.7	3.8	14709152	92	2020
2026-01-01 00:43:30.52	255.27	73.82	-37.2	-40.8	4.1	13970085	92	1861
2026-01-01 00:43:30.92	254.70	73.70	-37.2	-40.9	4.1	11547668	92	1888
2026-01-01 00:43:31.32	254.15	73.58	-37.2	-40.9	4.0	11516197	92	1888
2026-01-01 00:43:31.72	253.60	73.46	-37.3	-41.4	3.8	12971763	92	1972
2026-01-01 00:43:32.13	253.04	73.34	-37.4	-41.9	3.7	14160476	92	2060
2026-01-01 00:43:32.53	252.51	73.21	-37.5	-43.8	3.8	14622543	92	2524
2026-01-01 00:43:32.93	251.99	73.09	-37.5	-42.5	3.7	14856109	92	2195
2026-01-01 00:43:33.33	251.47	72.96	-37.6	-44.1	3.8	14839782	92	2583
2026-01-01 00:43:33.73	250.97	72.84	-37.5	-42.6	3.7	14810638	92	2222
2026-01-01 00:43:34.13	250.47	72.71	-37.5	-43.8	3.7	14810638	92	2531
2026-01-01 00:43:34.54	249.96	72.58	-37.4	-42.2	3.8	14898162	92	2144
2026-01-01 00:43:34.94	249.48	72.45	-37.3	-42.8	3.7	14550086	92	2335
2026-01-01 00:43:35.34	249.00	72.32	-37.1	-41.2	4.2	14443023	92	1984
2026-01-01 00:43:35.74	248.54	72.19	-37.1	-40.8	4.0	12204765	92	1882
2026-01-01 00:43:36.14	248.07	72.05	-37.2	-40.9	4.0	11721893	92	1885
2026-01-01 00:43:36.55	247.61	71.92	-37.3	-41.7	3.8	11642944	92	2041
2026-01-01 00:43:36.95	247.16	71.78	-37.4	-43.6	3.3	13932060	92	2527
2026-01-01 00:43:37.35	246.72	71.65	-37.3	-42.8	3.9	14598533	92	2321
2026-01-01 00:43:37.75	246.29	71.51	-37.3	-41.8	3.8	14176353	92	2080
2026-01-01 00:43:38.15	245.86	71.37	-37.2	-42.4	4.1	14304969	92	2252
2026-01-01 00:43:38.56	245.43	71.23	-37.2	-41.7	3.9	13016799	92	2071
2026-01-01 00:43:38.96	245.02	71.09	-37.2	-41.7	3.8	13016799	92	2062
2026-01-01 00:43:39.36	244.61	70.95	-37.2	-41.9	3.8	13705154	92	2106
2026-01-01 00:43:39.76	244.21	70.81	-37.2	-43.2	3.5	13716743	92	2445
2026-01-01 00:43:40.16	243.82	70.67	-37.1	-42.1	4.0	14141189	92	2197
2026-01-01 00:43:40.57	243.42	70.53	-37.0	-41.1	4.2	13337593	92	1976
2026-01-01 00:43:40.97	243.04	70.39	-36.9	-40.7	4.2	10316383	92	1901
2026-01-01 00:43:41.37	242.66	70.24	-36.8	-40.8	4.7	9632095	91	1948
2026-01-01 00:43:41.77	242.29	70.10	-37.8	-47.5	3.6	11442153	92	3762

#Closed at: 2026-01-01 00:43:41