passes_logs/2026/01/07/PlanumMoscow/PlanumMoscow__20260107_173221_METOP-C_rec.log

#Pass ID: 20260107_173221_METOP-C
#Satellite: METOP-C
#Configuration: METOP-C
#Start time: 2026-01-07 17:32:26.944201

#LorettStation: 1.0.0 05.05.2024
#Station: PlanumMoscow
#Location: 37.6253844 lon 55.6713361 lat
#TLE: 1 43689U 18087A   25293.88981035  .00000265  00000+0  14109-3 0  9997
#TLE: 2 43689  98.7006 352.4487 0002041 122.1097 238.0279 14.21482740360838

#Time	Az	El	Level	SNR
2026-01-07 17:36:05.402166	132.7	28.4	-64.3	5.2
2026-01-07 17:36:07.639174	132.4	28.8	-65.4	4.1
2026-01-07 17:36:09.877687	132.1	29.2	-65.2	3.2
2026-01-07 17:36:12.119201	131.8	29.6	-65.2	4.4
2026-01-07 17:36:14.356713	131.5	30.0	-66.2	5.8
2026-01-07 17:36:16.597226	131.2	30.4	-65.8	3.8
2026-01-07 17:36:18.841245	130.8	30.8	-66.1	4.5
2026-01-07 17:36:21.085254	130.5	31.2	-65.9	3.5
2026-01-07 17:36:23.329264	130.2	31.6	-66.1	4.9
2026-01-07 17:36:25.573274	129.8	32.0	-65.2	3.6
2026-01-07 17:36:27.816787	129.4	32.4	-65.5	5.0
2026-01-07 17:36:30.059310	129.1	32.9	-65.8	4.0
2026-01-07 17:36:32.302823	128.7	33.3	-65.6	5.5
2026-01-07 17:36:34.539336	128.3	33.7	-64.7	2.2
2026-01-07 17:36:36.776848	127.9	34.2	-66.1	4.9
2026-01-07 17:36:39.012856	127.5	34.6	-65.8	0.8
2026-01-07 17:36:41.246367	127.1	35.1	-65.9	2.4
2026-01-07 17:36:43.485872	126.6	35.5	-66.4	4.3
2026-01-07 17:36:45.724393	126.2	36.0	-65.9	3.8
2026-01-07 17:36:47.963401	125.7	36.4	-66.5	4.0
2026-01-07 17:36:50.200418	125.3	36.9	-66.7	3.5
2026-01-07 17:36:52.437445	124.8	37.4	-65.4	0.0
2026-01-07 17:36:54.675958	124.3	37.8	-65.7	0.2
2026-01-07 17:36:56.909461	123.7	38.3	-65.5	0.0
2026-01-07 17:36:59.141483	123.2	38.8	-64.8	0.0
2026-01-07 17:37:01.373985	122.7	39.3	-65.4	0.7
2026-01-07 17:37:03.608505	122.1	39.8	-65.9	1.3
2026-01-07 17:37:05.845513	121.5	40.3	-66.7	1.5
2026-01-07 17:37:08.077527	120.9	40.8	-66.4	0.8
2026-01-07 17:37:10.313039	120.3	41.3	-67.0	2.3
2026-01-07 17:37:12.547542	119.7	41.8	-66.9	1.5
2026-01-07 17:37:14.785551	119.0	42.3	-64.4	0.0
2026-01-07 17:37:17.018053	118.3	42.8	-66.7	2.3
2026-01-07 17:37:19.248556	117.6	43.3	-65.8	1.1
2026-01-07 17:37:21.481579	116.9	43.8	-65.7	0.0
2026-01-07 17:37:23.714090	116.1	44.3	-65.7	0.0
2026-01-07 17:37:25.950107	115.4	44.8	-64.6	0.0
2026-01-07 17:37:28.183610	114.6	45.3	-65.3	0.0
2026-01-07 17:37:30.421122	113.7	45.8	-64.7	0.0
2026-01-07 17:37:32.660131	112.9	46.4	-66.8	0.0
2026-01-07 17:37:34.903149	112.0	46.9	-68.1	0.0
2026-01-07 17:37:37.147159	111.1	47.4	-68.0	0.0
2026-01-07 17:37:39.390169	110.1	47.9	-66.6	0.0
2026-01-07 17:37:41.634179	109.1	48.4	-68.5	0.0
2026-01-07 17:37:43.882694	108.1	48.9	-67.8	0.0
2026-01-07 17:37:46.126211	107.1	49.4	-67.5	0.0
2026-01-07 17:37:48.368724	106.0	49.9	-65.7	0.0
2026-01-07 17:37:50.600746	104.9	50.4	-67.3	0.0
2026-01-07 17:37:52.834257	103.7	50.9	-67.8	0.0
2026-01-07 17:37:55.067760	102.6	51.3	-67.9	0.0
2026-01-07 17:37:57.298263	101.3	51.8	-65.7	0.0
2026-01-07 17:37:59.531774	100.1	52.3	-66.0	0.0
2026-01-07 17:38:01.766277	98.8	52.7	-66.6	0.0
2026-01-07 17:38:04.001285	97.4	53.1	-64.5	0.0
2026-01-07 17:38:06.234796	96.1	53.6	-67.9	0.0
2026-01-07 17:38:08.467306	94.6	54.0	-68.0	0.0
2026-01-07 17:38:10.700818	93.2	54.4	-68.0	0.0
2026-01-07 17:38:12.937331	91.7	54.7	-68.6	0.0
2026-01-07 17:38:15.172347	90.1	55.1	-67.6	0.0
2026-01-07 17:38:17.410355	88.6	55.4	-66.7	0.0
2026-01-07 17:38:19.644372	87.0	55.7	-65.4	0.0
2026-01-07 17:38:21.877387	85.3	56.0	-66.4	0.0
2026-01-07 17:38:24.113891	83.6	56.3	-66.7	0.0
2026-01-07 17:38:26.347403	81.9	56.6	-65.3	0.0
2026-01-07 17:38:28.586411	80.2	56.8	-66.4	0.0
2026-01-07 17:38:30.820933	78.4	57.0	-68.2	0.0
2026-01-07 17:38:33.058951	76.6	57.2	-66.4	0.0
2026-01-07 17:38:35.295959	74.8	57.3	-65.2	0.0
2026-01-07 17:38:37.531967	72.9	57.4	-65.7	0.0
2026-01-07 17:38:39.766470	71.1	57.5	-64.4	0.0
2026-01-07 17:38:42.000486	69.2	57.6	-67.3	0.0
2026-01-07 17:38:44.233997	67.4	57.6	-66.9	0.0
2026-01-07 17:38:46.470013	65.5	57.6	-65.5	0.0
2026-01-07 17:38:48.712031	63.6	57.6	-65.3	0.0
2026-01-07 17:38:50.950040	61.7	57.6	-66.5	0.0
2026-01-07 17:38:53.193059	59.9	57.5	-65.3	0.0
2026-01-07 17:38:55.436573	58.0	57.4	-65.6	0.0
2026-01-07 17:38:57.680104	56.2	57.2	-65.3	0.0
2026-01-07 17:38:59.924610	54.4	57.1	-64.5	0.0
2026-01-07 17:39:02.168620	52.6	56.9	-64.3	0.0
2026-01-07 17:39:04.411142	50.8	56.7	-63.8	0.0
2026-01-07 17:39:06.652672	49.1	56.4	-63.9	0.0
2026-01-07 17:39:08.889680	47.4	56.2	-62.4	0.0
2026-01-07 17:39:11.124687	45.7	55.9	-63.6	0.0
2026-01-07 17:39:13.358694	44.1	55.6	-65.4	0.0
2026-01-07 17:39:15.597711	42.5	55.2	-62.8	0.0
2026-01-07 17:39:17.830736	41.0	54.9	-66.4	0.0
2026-01-07 17:39:20.067240	39.5	54.5	-63.6	0.0
2026-01-07 17:39:22.300752	38.0	54.1	-62.1	0.0
2026-01-07 17:39:24.539769	36.5	53.7	-62.1	0.0
2026-01-07 17:39:26.776283	35.1	53.3	-62.3	0.0
2026-01-07 17:39:29.010786	33.8	52.9	-64.6	0.0
2026-01-07 17:39:31.243297	32.5	52.5	-62.2	0.0
2026-01-07 17:39:33.476312	31.2	52.0	-59.3	0.0
2026-01-07 17:39:35.710815	30.0	51.6	-62.6	0.0
2026-01-07 17:39:37.945832	28.8	51.1	-60.6	0.0
2026-01-07 17:39:40.178334	27.6	50.6	-60.9	0.0
2026-01-07 17:39:42.411838	26.5	50.1	-63.5	0.0
2026-01-07 17:39:44.647357	25.4	49.6	-63.1	0.0
2026-01-07 17:39:46.881868	24.3	49.1	-62.7	0.0
2026-01-07 17:39:49.115886	23.3	48.6	-60.3	0.0
2026-01-07 17:39:51.348397	22.3	48.1	-61.3	0.0
2026-01-07 17:39:53.580900	21.4	47.6	-61.1	0.0
2026-01-07 17:39:55.813411	20.5	47.1	-64.8	0.0
2026-01-07 17:39:58.045418	19.6	46.6	-62.0	0.0
2026-01-07 17:40:00.276921	18.7	46.1	-60.6	0.0
2026-01-07 17:40:02.508937	17.9	45.6	-63.7	0.0
2026-01-07 17:40:04.744449	17.1	45.1	-61.9	0.0
2026-01-07 17:40:06.983953	16.3	44.6	-61.1	0.0
2026-01-07 17:40:09.227962	15.5	44.1	-59.3	0.0
2026-01-07 17:40:11.470475	14.8	43.6	-60.5	0.0
2026-01-07 17:40:13.713989	14.1	43.0	-60.8	0.0
2026-01-07 17:40:15.957999	13.4	42.5	-62.3	0.0
2026-01-07 17:40:18.202008	12.7	42.0	-64.2	0.0
2026-01-07 17:40:20.445035	12.0	41.5	-63.7	0.0
2026-01-07 17:40:22.685053	11.4	41.0	-60.8	0.0
2026-01-07 17:40:24.925062	10.8	40.5	-61.6	0.0
2026-01-07 17:40:27.160565	10.2	40.0	-63.4	0.0
2026-01-07 17:40:29.394068	9.6	39.6	-61.2	0.0
2026-01-07 17:40:31.628580	9.1	39.1	-64.2	0.0
2026-01-07 17:40:33.862083	8.6	38.6	-63.4	0.0
2026-01-07 17:40:36.096602	8.0	38.1	-62.9	0.0
2026-01-07 17:40:38.330610	7.5	37.6	-62.7	0.0
2026-01-07 17:40:40.568618	7.0	37.2	-64.0	0.0
2026-01-07 17:40:42.804122	6.5	36.7	-64.0	0.0
2026-01-07 17:40:45.037137	6.1	36.2	-62.0	0.0
2026-01-07 17:40:47.273658	5.6	35.8	-62.4	0.0
2026-01-07 17:40:49.507170	5.2	35.3	-62.4	0.0
2026-01-07 17:40:51.739681	4.8	34.9	-61.8	0.0
2026-01-07 17:40:53.973184	4.4	34.4	-61.2	0.0
2026-01-07 17:40:56.206687	4.0	34.0	-62.0	0.0
2026-01-07 17:40:58.440694	3.6	33.6	-62.3	0.0
2026-01-07 17:41:00.677215	3.2	33.1	-63.7	0.0
2026-01-07 17:41:02.914231	2.8	32.7	-63.0	0.0
2026-01-07 17:41:05.149248	2.4	32.3	-60.9	0.0
2026-01-07 17:41:07.383255	2.1	31.9	-62.9	0.0
2026-01-07 17:41:09.621768	1.7	31.5	-63.1	0.0
2026-01-07 17:41:11.860281	1.4	31.1	-63.7	0.0
2026-01-07 17:41:14.100785	1.1	30.7	-64.6	0.0
2026-01-07 17:41:16.333801	0.8	30.3	-65.0	0.0
2026-01-07 17:41:18.572826	0.4	29.9	-63.6	0.0
2026-01-07 17:41:20.808842	0.1	29.5	-63.6	0.0
2026-01-07 17:41:23.044345	359.8	29.1	-62.5	0.0
2026-01-07 17:41:25.282867	359.6	28.7	-63.3	1.9
2026-01-07 17:41:27.522371	359.3	28.4	-62.4	0.0
2026-01-07 17:41:29.756884	359.0	28.0	-61.6	0.0
2026-01-07 17:41:31.993396	358.7	27.6	-60.6	0.0
2026-01-07 17:41:34.238406	358.5	27.3	-63.6	5.0
2026-01-07 17:41:36.481919	358.2	26.9	-62.3	0.0
2026-01-07 17:41:38.725433	358.0	26.5	-63.4	5.1
2026-01-07 17:41:40.969948	357.7	26.2	-64.2	4.3
2026-01-07 17:41:43.212966	357.5	25.8	-62.6	4.1
2026-01-07 17:41:45.456985	357.2	25.5	-63.6	3.6
2026-01-07 17:41:47.697507	357.0	25.2	-62.9	0.7
2026-01-07 17:41:49.937539	356.8	24.8	-62.5	1.8
2026-01-07 17:41:52.176061	356.6	24.5	-63.6	5.8
2026-01-07 17:41:54.414069	356.4	24.2	-62.0	0.0
2026-01-07 17:41:56.650582	356.1	23.8	-61.8	4.0
2026-01-07 17:41:58.889600	355.9	23.5	-61.6	0.2
2026-01-07 17:42:01.131105	355.7	23.2	-62.1	3.1
2026-01-07 17:42:03.365633	355.5	22.9	-63.0	1.4
2026-01-07 17:42:05.602136	355.3	22.6	-63.7	5.6
2026-01-07 17:42:07.842649	355.2	22.3	-62.2	2.8
2026-01-07 17:42:10.088172	355.0	22.0	-64.4	6.3
2026-01-07 17:42:12.324693	354.8	21.7	-62.9	1.4
2026-01-07 17:42:14.565206	354.6	21.4	-64.2	4.4
2026-01-07 17:42:16.805215	354.4	21.1	-63.3	5.4
2026-01-07 17:42:19.046224	354.3	20.8	-64.2	6.9
2026-01-07 17:42:21.282240	354.1	20.5	-63.2	4.0
2026-01-07 17:42:23.520760	353.9	20.2	-62.5	1.7
2026-01-07 17:42:25.759786	353.8	19.9	-63.5	5.3
2026-01-07 17:42:27.997803	353.6	19.7	-62.8	0.6
2026-01-07 17:42:30.236332	353.5	19.4	-63.7	4.0
2026-01-07 17:42:32.474845	353.3	19.1	-64.4	4.7
2026-01-07 17:42:34.717358	353.2	18.8	-64.0	3.9
2026-01-07 17:42:36.955862	353.0	18.6	-62.9	3.8
2026-01-07 17:42:39.194880	352.9	18.3	-62.5	2.9
2026-01-07 17:42:41.434393	352.7	18.0	-63.4	3.1
2026-01-07 17:42:43.675409	352.6	17.8	-63.9	6.1
2026-01-07 17:42:45.913922	352.4	17.5	-62.9	1.6
2026-01-07 17:42:48.154427	352.3	17.3	-63.4	2.5
2026-01-07 17:42:50.391931	352.2	17.0	-63.8	2.4
2026-01-07 17:42:52.630948	352.1	16.8	-63.4	1.6
2026-01-07 17:42:54.869469	351.9	16.5	-63.6	2.8
2026-01-07 17:42:57.106485	351.8	16.3	-63.0	3.2
2026-01-07 17:42:59.343502	351.7	16.0	-63.9	5.2
2026-01-07 17:43:01.579510	351.6	15.8	-63.3	4.2
2026-01-07 17:43:03.816030	351.4	15.6	-63.7	5.6
2026-01-07 17:43:06.055047	351.3	15.3	-63.6	1.2
2026-01-07 17:43:08.295569	351.2	15.1	-65.0	3.4
2026-01-07 17:43:10.537578	351.1	14.9	-64.2	2.5
2026-01-07 17:43:12.780605	351.0	14.6	-62.8	1.6
2026-01-07 17:43:15.023623	350.9	14.4	-63.1	2.5
2026-01-07 17:43:17.266640	350.8	14.2	-62.1	1.8
2026-01-07 17:43:19.510155	350.7	14.0	-62.7	4.3
2026-01-07 17:43:21.754165	350.6	13.7	-62.6	1.2
2026-01-07 17:43:23.999688	350.5	13.5	-63.4	0.0
2026-01-07 17:43:26.242209	350.4	13.3	-63.7	0.7
2026-01-07 17:43:28.483731	350.3	13.1	-63.6	0.9
2026-01-07 17:43:30.722243	350.2	12.9	-63.7	0.0
2026-01-07 17:43:32.963270	350.1	12.7	-63.5	1.5
2026-01-07 17:43:35.197774	350.0	12.4	-63.4	2.5
2026-01-07 17:43:37.433789	349.9	12.2	-63.7	2.7
2026-01-07 17:43:39.673294	349.8	12.0	-63.7	4.0
2026-01-07 17:43:41.912798	349.7	11.8	-63.3	1.4
2026-01-07 17:43:44.146814	349.6	11.6	-63.7	0.4
2026-01-07 17:43:46.385823	349.5	11.4	-62.5	0.0
2026-01-07 17:43:48.622849	349.4	11.2	-63.6	4.7
2026-01-07 17:43:50.860362	349.4	11.0	-63.6	2.5
2026-01-07 17:43:53.100875	349.3	10.8	-64.1	3.2
2026-01-07 17:43:55.337379	349.2	10.6	-64.0	1.9
2026-01-07 17:43:57.571899	349.1	10.4	-64.3	2.1
2026-01-07 17:43:59.811908	349.0	10.2	-63.8	1.0
2026-01-07 17:44:02.044928	348.9	10.0	-64.8	0.7
2026-01-07 17:44:04.276936	348.9	9.9	-64.0	0.0
2026-01-07 17:44:06.510448	348.8	9.7	-63.7	0.0
2026-01-07 17:44:08.746455	348.7	9.5	-62.7	0.0
2026-01-07 17:44:10.980976	348.6	9.3	-62.7	0.0
2026-01-07 17:44:13.214479	348.6	9.1	-61.2	0.0
2026-01-07 17:44:15.450495	348.5	8.9	-61.5	0.0
2026-01-07 17:44:17.690008	348.4	8.7	-61.5	0.0
2026-01-07 17:44:19.929016	348.4	8.6	-63.5	0.8
2026-01-07 17:44:22.159536	348.3	8.4	-63.7	3.7
2026-01-07 17:44:24.395543	348.2	8.2	-61.9	0.3
2026-01-07 17:44:26.634057	348.2	8.0	-63.6	3.0
2026-01-07 17:44:28.874065	348.1	7.9	-63.9	3.3
2026-01-07 17:44:31.118075	348.0	7.7	-63.8	2.9
2026-01-07 17:44:33.361092	348.0	7.5	-63.8	1.2
2026-01-07 17:44:35.606606	347.9	7.3	-64.7	2.9
2026-01-07 17:44:37.850616	347.8	7.2	-63.4	0.0
2026-01-07 17:44:40.093634	347.8	7.0	-63.7	0.0
2026-01-07 17:44:42.333138	347.7	6.8	-63.8	0.9
2026-01-07 17:44:44.573643	347.6	6.7	-63.8	0.0
2026-01-07 17:44:46.816165	347.6	6.5	-63.5	0.0
2026-01-07 17:44:49.056685	347.5	6.3	-63.4	0.0
2026-01-07 17:44:51.291197	347.5	6.2	-63.2	0.0
2026-01-07 17:44:53.527717	347.4	6.0	-65.3	4.2
2026-01-07 17:44:55.763228	347.4	5.8	-69.1	0.0
2026-01-07 17:44:57.994235	347.3	5.7	-69.1	0.0
2026-01-07 17:45:00.233243	347.2	5.5	-70.6	0.0
2026-01-07 17:45:02.465258	347.2	5.4	-69.9	0.0
2026-01-07 17:45:04.696761	347.1	5.2	-71.3	0.0
2026-01-07 17:45:06.930768	347.1	5.0	-71.8	0.0
#Closed at: 2026-01-07 17:32:21.945355