passes_logs/2026/01/07/PlanumMoscow/PlanumMoscow__20260107_165358_METOP-B_rec.log

#Pass ID: 20260107_165358_METOP-B
#Satellite: METOP-B
#Configuration: METOP-B
#Start time: 2026-01-07 16:54:03.476952

#LorettStation: 1.0.0 05.05.2024
#Station: PlanumMoscow
#Location: 37.6253844 lon 55.6713361 lat
#TLE: 1 38771U 12049A   25293.92766658  .00000266  00000+0  14193-3 0  9996
#TLE: 2 38771  98.6882 344.7603 0001609 341.5209  18.5909 14.21379342679275

#Time	Az	El	Level	SNR
2026-01-07 16:57:41.911655	126.2	27.8	-63.3	9.8
2026-01-07 16:57:44.147663	125.9	28.1	-63.6	8.6
2026-01-07 16:57:46.382671	125.5	28.5	-63.6	8.7
2026-01-07 16:57:48.619183	125.2	28.8	-62.9	9.0
2026-01-07 16:57:50.856703	124.8	29.2	-63.1	8.0
2026-01-07 16:57:53.091710	124.5	29.6	-63.3	8.0
2026-01-07 16:57:55.328222	124.1	29.9	-63.3	8.4
2026-01-07 16:57:57.567274	123.7	30.3	-63.4	6.3
2026-01-07 16:57:59.804785	123.3	30.7	-63.2	6.7
2026-01-07 16:58:02.040819	122.9	31.1	-63.2	8.1
2026-01-07 16:58:04.274826	122.5	31.5	-63.2	9.5
2026-01-07 16:58:06.510329	122.0	31.8	-63.1	9.7
2026-01-07 16:58:08.747841	121.6	32.2	-63.0	10.0
2026-01-07 16:58:10.986366	121.1	32.6	-63.5	10.0
2026-01-07 16:58:13.221381	120.7	33.0	-63.3	10.2
2026-01-07 16:58:15.464390	120.2	33.4	-63.1	9.1
2026-01-07 16:58:17.706415	119.7	33.8	-62.2	9.7
2026-01-07 16:58:19.949937	119.2	34.3	-63.1	9.5
2026-01-07 16:58:22.193946	118.7	34.7	-63.0	9.9
2026-01-07 16:58:24.434459	118.2	35.1	-62.9	8.8
2026-01-07 16:58:26.677973	117.6	35.5	-62.6	8.8
2026-01-07 16:58:28.919010	117.1	35.9	-62.8	10.1
2026-01-07 16:58:31.162027	116.5	36.3	-62.5	9.8
2026-01-07 16:58:33.400590	115.9	36.8	-62.8	10.1
2026-01-07 16:58:35.638159	115.3	37.2	-63.3	9.8
2026-01-07 16:58:37.874175	114.7	37.6	-63.6	9.1
2026-01-07 16:58:40.111220	114.1	38.0	-63.5	9.3
2026-01-07 16:58:42.348274	113.4	38.5	-63.9	9.2
2026-01-07 16:58:44.581786	112.8	38.9	-63.8	9.8
2026-01-07 16:58:46.818830	112.1	39.3	-63.7	10.6
2026-01-07 16:58:49.054837	111.4	39.8	-63.1	8.7
2026-01-07 16:58:51.291845	110.7	40.2	-63.5	10.0
2026-01-07 16:58:53.529853	109.9	40.6	-63.7	9.0
2026-01-07 16:58:55.768880	109.2	41.1	-64.2	10.3
2026-01-07 16:58:58.007896	108.4	41.5	-63.6	10.2
2026-01-07 16:59:00.244904	107.6	41.9	-64.1	9.2
2026-01-07 16:59:02.483425	106.8	42.3	-63.7	10.0
2026-01-07 16:59:04.720945	105.9	42.8	-63.6	9.1
2026-01-07 16:59:06.956953	105.1	43.2	-62.2	6.0
2026-01-07 16:59:09.196464	104.2	43.6	-63.4	9.8
2026-01-07 16:59:11.436978	103.3	44.0	-63.2	9.0
2026-01-07 16:59:13.677490	102.3	44.5	-63.6	10.3
2026-01-07 16:59:15.916508	101.3	44.9	-63.4	9.2
2026-01-07 16:59:18.153020	100.4	45.3	-63.2	9.4
2026-01-07 16:59:20.390532	99.3	45.7	-63.2	10.5
2026-01-07 16:59:22.629035	98.3	46.1	-63.1	10.0
2026-01-07 16:59:24.867043	97.2	46.5	-63.5	11.5
2026-01-07 16:59:27.101547	96.1	46.8	-63.2	9.1
2026-01-07 16:59:29.341556	95.0	47.2	-63.1	10.5
2026-01-07 16:59:31.578069	93.9	47.6	-62.8	9.4
2026-01-07 16:59:33.821589	92.7	47.9	-62.8	9.5
2026-01-07 16:59:36.064637	91.5	48.3	-62.4	9.8
2026-01-07 16:59:38.308195	90.3	48.6	-62.6	8.1
2026-01-07 16:59:40.551709	89.0	48.9	-62.8	9.8
2026-01-07 16:59:42.795717	87.7	49.2	-62.2	9.1
2026-01-07 16:59:45.037743	86.4	49.5	-62.3	7.3
2026-01-07 16:59:47.281753	85.1	49.8	-62.9	9.3
2026-01-07 16:59:49.521265	83.7	50.0	-62.0	7.6
2026-01-07 16:59:51.761273	82.4	50.3	-61.8	6.6
2026-01-07 16:59:54.002787	81.0	50.5	-61.7	8.5
2026-01-07 16:59:56.241795	79.6	50.7	-62.2	10.3
2026-01-07 16:59:58.482300	78.1	50.9	-61.8	8.5
2026-01-07 17:00:00.724309	76.7	51.1	-60.6	5.4
2026-01-07 17:00:02.951067	75.2	51.2	-61.9	8.2
2026-01-07 17:00:05.189076	73.7	51.4	-62.2	6.4
2026-01-07 17:00:07.426595	72.2	51.5	-61.7	8.9
2026-01-07 17:00:09.667114	70.7	51.6	-61.4	7.1
2026-01-07 17:00:11.906627	69.2	51.7	-62.0	7.9
2026-01-07 17:00:14.145635	67.7	51.7	-61.1	6.5
2026-01-07 17:00:16.386644	66.2	51.8	-60.5	5.2
2026-01-07 17:00:18.623163	64.6	51.8	-61.3	8.0
2026-01-07 17:00:20.866173	63.1	51.8	-60.1	3.8
2026-01-07 17:00:23.099684	61.6	51.7	-59.5	5.9
2026-01-07 17:00:25.338196	60.1	51.7	-60.2	5.2
2026-01-07 17:00:27.579205	58.5	51.6	-59.7	5.5
2026-01-07 17:00:29.815726	57.0	51.5	-59.5	6.3
2026-01-07 17:00:32.049742	55.5	51.4	-59.2	3.4
2026-01-07 17:00:34.284245	54.1	51.3	-59.9	5.3
2026-01-07 17:00:36.517748	52.6	51.1	-59.1	2.4
2026-01-07 17:00:38.756757	51.1	50.9	-59.0	3.4
2026-01-07 17:00:40.989260	49.7	50.7	-58.6	3.1
2026-01-07 17:00:43.224771	48.3	50.5	-59.2	5.0
2026-01-07 17:00:45.454777	46.9	50.3	-57.8	0.8
2026-01-07 17:00:47.689298	45.5	50.1	-58.3	1.3
2026-01-07 17:00:49.924801	44.2	49.8	-59.8	4.7
2026-01-07 17:00:52.157816	42.8	49.5	-59.1	2.7
2026-01-07 17:00:54.391823	41.5	49.3	-58.8	2.3
2026-01-07 17:00:56.633833	40.3	49.0	-60.2	5.8
2026-01-07 17:00:58.875360	39.0	48.6	-58.4	3.6
2026-01-07 17:01:01.118381	37.8	48.3	-61.2	6.1
2026-01-07 17:01:03.361894	36.6	48.0	-60.4	5.6
2026-01-07 17:01:05.608408	35.4	47.6	-59.7	3.8
2026-01-07 17:01:07.851417	34.2	47.3	-60.2	5.5
2026-01-07 17:01:10.094435	33.1	46.9	-60.7	6.9
2026-01-07 17:01:12.337949	32.0	46.5	-60.9	6.3
2026-01-07 17:01:14.576974	30.9	46.1	-59.4	3.4
2026-01-07 17:01:16.817983	29.9	45.7	-60.0	5.4
2026-01-07 17:01:19.057497	28.9	45.3	-59.7	5.2
2026-01-07 17:01:21.297504	27.9	44.9	-59.7	0.0
2026-01-07 17:01:23.537513	26.9	44.5	-61.2	4.6
2026-01-07 17:01:25.779026	26.0	44.1	-61.6	5.1
2026-01-07 17:01:28.016058	25.1	43.7	-60.5	0.0
2026-01-07 17:01:30.253571	24.2	43.3	-59.8	0.0
2026-01-07 17:01:32.492580	23.3	42.9	-60.4	2.7
2026-01-07 17:01:34.732588	22.5	42.4	-61.1	4.4
2026-01-07 17:01:36.972597	21.6	42.0	-60.7	5.9
2026-01-07 17:01:39.205612	20.8	41.6	-58.7	1.7
2026-01-07 17:01:41.439620	20.1	41.2	-59.9	2.0
2026-01-07 17:01:43.674132	19.3	40.7	-60.3	0.8
2026-01-07 17:01:45.909635	18.6	40.3	-58.4	0.0
2026-01-07 17:01:48.143153	17.8	39.9	-60.4	3.3
2026-01-07 17:01:50.376161	17.1	39.4	-59.8	2.8
2026-01-07 17:01:52.610664	16.5	39.0	-59.4	4.9
2026-01-07 17:01:54.846176	15.8	38.6	-60.2	5.1
2026-01-07 17:01:57.081694	15.1	38.1	-61.1	4.0
2026-01-07 17:01:59.314713	14.5	37.7	-60.7	0.2
2026-01-07 17:02:01.549728	13.9	37.3	-60.7	2.2
2026-01-07 17:02:03.783735	13.3	36.9	-60.3	4.0
2026-01-07 17:02:06.017742	12.7	36.5	-61.1	6.2
2026-01-07 17:02:08.256751	12.2	36.0	-61.2	8.1
2026-01-07 17:02:10.503776	11.6	35.6	-60.1	4.4
2026-01-07 17:02:12.744793	11.1	35.2	-60.9	4.6
2026-01-07 17:02:14.988802	10.5	34.8	-60.9	5.5
2026-01-07 17:02:17.232316	10.0	34.4	-60.3	2.6
2026-01-07 17:02:19.475830	9.5	34.0	-59.1	3.8
2026-01-07 17:02:21.719344	9.0	33.6	-59.7	3.6
2026-01-07 17:02:23.960849	8.6	33.2	-60.8	6.3
2026-01-07 17:02:26.204362	8.1	32.8	-61.4	5.1
2026-01-07 17:02:28.447382	7.6	32.4	-61.7	4.9
2026-01-07 17:02:30.688887	7.2	32.0	-61.1	3.0
2026-01-07 17:02:32.924399	6.8	31.6	-62.0	3.7
2026-01-07 17:02:35.161425	6.4	31.2	-61.5	3.9
2026-01-07 17:02:37.399953	5.9	30.8	-61.1	6.6
2026-01-07 17:02:39.638457	5.5	30.4	-62.1	6.2
2026-01-07 17:02:41.874977	5.2	30.1	-62.1	3.8
2026-01-07 17:02:44.110488	4.8	29.7	-61.4	5.2
2026-01-07 17:02:46.346500	4.4	29.3	-62.2	3.4
2026-01-07 17:02:48.587009	4.0	29.0	-62.0	3.9
2026-01-07 17:02:50.823520	3.7	28.6	-61.9	2.8
2026-01-07 17:02:53.060032	3.3	28.3	-63.9	6.7
2026-01-07 17:02:55.298040	3.0	27.9	-62.8	4.4
2026-01-07 17:02:57.537561	2.7	27.5	-63.0	6.8
2026-01-07 17:02:59.774065	2.3	27.2	-60.0	2.0
2026-01-07 17:03:02.013073	2.0	26.9	-61.9	4.3
2026-01-07 17:03:04.251585	1.7	26.5	-60.7	3.5
2026-01-07 17:03:06.491594	1.4	26.2	-62.4	7.2
2026-01-07 17:03:08.731619	1.1	25.8	-61.3	3.3
2026-01-07 17:03:10.970628	0.8	25.5	-62.6	5.1
2026-01-07 17:03:13.208132	0.5	25.2	-62.3	6.2
2026-01-07 17:03:15.445138	0.3	24.9	-62.2	4.9
2026-01-07 17:03:17.682659	360.0	24.5	-63.1	5.6
2026-01-07 17:03:19.917171	359.7	24.2	-61.5	1.4
2026-01-07 17:03:22.156179	359.4	23.9	-63.1	3.2
2026-01-07 17:03:24.392187	359.2	23.6	-61.6	1.5
2026-01-07 17:03:26.629699	358.9	23.3	-61.6	1.6
2026-01-07 17:03:28.869220	358.7	23.0	-61.9	3.1
2026-01-07 17:03:31.111750	358.5	22.7	-61.7	4.2
2026-01-07 17:03:33.353775	358.2	22.4	-61.7	2.3
2026-01-07 17:03:35.597801	358.0	22.1	-61.8	3.8
2026-01-07 17:03:37.840322	357.8	21.8	-62.6	2.2
2026-01-07 17:03:40.084836	357.5	21.5	-60.8	0.0
2026-01-07 17:03:42.328846	357.3	21.2	-62.7	2.2
2026-01-07 17:03:44.569860	357.1	20.9	-62.2	7.2
2026-01-07 17:03:46.810870	356.9	20.7	-62.4	3.9
2026-01-07 17:03:49.046381	356.7	20.4	-61.6	0.5
2026-01-07 17:03:51.284908	356.5	20.1	-63.2	4.0
2026-01-07 17:03:53.523412	356.3	19.8	-63.9	2.2
2026-01-07 17:03:55.760420	356.1	19.6	-62.4	1.4
2026-01-07 17:03:57.992923	355.9	19.3	-61.9	0.5
2026-01-07 17:04:00.227426	355.7	19.0	-62.0	2.3
2026-01-07 17:04:02.471948	355.5	18.8	-62.7	4.4
2026-01-07 17:04:04.709964	355.3	18.5	-61.8	3.5
2026-01-07 17:04:06.950981	355.2	18.2	-61.2	0.8
2026-01-07 17:04:09.187996	355.0	18.0	-61.2	0.0
2026-01-07 17:04:11.427005	354.8	17.7	-62.9	3.0
2026-01-07 17:04:13.666524	354.6	17.5	-62.8	0.1
2026-01-07 17:04:15.905532	354.5	17.2	-63.0	1.4
2026-01-07 17:04:18.145045	354.3	17.0	-64.1	4.8
2026-01-07 17:04:20.381556	354.1	16.7	-62.9	2.7
2026-01-07 17:04:22.618068	354.0	16.5	-63.3	2.0
2026-01-07 17:04:24.858077	353.8	16.3	-63.1	2.3
2026-01-07 17:04:27.094588	353.7	16.0	-63.1	2.6
2026-01-07 17:04:29.336110	353.5	15.8	-63.4	2.2
2026-01-07 17:04:31.572622	353.4	15.5	-63.4	2.6
2026-01-07 17:04:33.808134	353.2	15.3	-63.2	2.0
2026-01-07 17:04:36.043646	353.1	15.1	-63.7	1.4
2026-01-07 17:04:38.277660	353.0	14.9	-63.8	1.9
2026-01-07 17:04:40.513676	352.8	14.6	-63.5	1.7
2026-01-07 17:04:42.751186	352.7	14.4	-62.5	0.0
2026-01-07 17:04:44.987698	352.5	14.2	-63.7	0.0
2026-01-07 17:04:47.223210	352.4	14.0	-64.4	1.1
2026-01-07 17:04:49.459722	352.3	13.7	-63.2	0.0
2026-01-07 17:04:51.691233	352.2	13.5	-63.7	0.0
2026-01-07 17:04:53.934739	352.0	13.3	-64.3	0.0
2026-01-07 17:04:56.178252	351.9	13.1	-63.8	2.2
2026-01-07 17:04:58.421765	351.8	12.9	-63.9	2.6
2026-01-07 17:05:00.666280	351.7	12.7	-64.1	2.7
2026-01-07 17:05:02.909793	351.5	12.5	-63.7	2.8
2026-01-07 17:05:05.153298	351.4	12.3	-64.4	2.1
2026-01-07 17:05:07.387809	351.3	12.1	-64.6	3.4
2026-01-07 17:05:09.624322	351.2	11.9	-63.8	3.1
2026-01-07 17:05:11.867339	351.1	11.7	-64.0	1.6
2026-01-07 17:05:14.111349	351.0	11.5	-63.9	2.8
2026-01-07 17:05:16.351357	350.9	11.3	-64.4	0.8
2026-01-07 17:05:18.588879	350.8	11.1	-64.1	2.3
2026-01-07 17:05:20.828896	350.7	10.9	-62.9	0.0
2026-01-07 17:05:23.064415	350.6	10.7	-61.9	0.0
2026-01-07 17:05:25.300927	350.5	10.5	-63.7	0.0
2026-01-07 17:05:27.538448	350.4	10.3	-64.1	0.0
2026-01-07 17:05:29.774455	350.3	10.1	-64.3	0.0
2026-01-07 17:05:32.012463	350.2	9.9	-63.7	0.0
2026-01-07 17:05:34.250975	350.1	9.7	-64.5	0.0
2026-01-07 17:05:36.488488	350.0	9.5	-64.1	0.0
2026-01-07 17:05:38.730009	349.9	9.3	-65.2	0.0
2026-01-07 17:05:40.970522	349.8	9.2	-64.5	0.0
2026-01-07 17:05:43.210035	349.7	9.0	-63.9	0.0
2026-01-07 17:05:45.449540	349.6	8.8	-64.5	0.0
2026-01-07 17:05:47.689052	349.5	8.6	-64.2	0.0
2026-01-07 17:05:49.923067	349.4	8.4	-64.4	0.0
2026-01-07 17:05:52.156074	349.3	8.3	-65.1	0.0
2026-01-07 17:05:54.390585	349.3	8.1	-65.1	0.0
2026-01-07 17:05:56.628098	349.2	7.9	-65.6	0.0
2026-01-07 17:05:58.869116	349.1	7.7	-65.6	0.0
2026-01-07 17:06:01.104619	349.0	7.6	-65.2	0.0
2026-01-07 17:06:03.339636	348.9	7.4	-64.6	0.0
2026-01-07 17:06:05.577644	348.8	7.2	-65.4	0.0
2026-01-07 17:06:07.813155	348.8	7.1	-65.8	0.0
2026-01-07 17:06:10.048171	348.7	6.9	-66.4	0.0
2026-01-07 17:06:12.279682	348.6	6.7	-65.8	0.0
2026-01-07 17:06:14.512688	348.5	6.6	-64.4	0.0
2026-01-07 17:06:16.757698	348.5	6.4	-65.3	0.0
2026-01-07 17:06:19.001218	348.4	6.2	-65.2	0.0
2026-01-07 17:06:21.233225	348.3	6.1	-65.0	0.0
2026-01-07 17:06:23.476746	348.2	5.9	-68.7	0.0
2026-01-07 17:06:25.719268	348.2	5.7	-69.7	0.0
2026-01-07 17:06:27.963277	348.1	5.6	-69.3	0.0
2026-01-07 17:06:30.207287	348.0	5.4	-68.8	0.0
2026-01-07 17:06:32.451304	348.0	5.3	-69.8	0.0
2026-01-07 17:06:34.692324	347.9	5.1	-72.2	0.0
#Closed at: 2026-01-07 16:53:58.478485