passes_logs/2026/01/07/PlanumMoscow/PlanumMoscow__20260107_070358_METOP-B_rec.log

#Pass ID: 20260107_070358_METOP-B
#Satellite: METOP-B
#Configuration: METOP-B
#Start time: 2026-01-07 07:04:03.468511

#LorettStation: 1.0.0 05.05.2024
#Station: PlanumMoscow
#Location: 37.6253844 lon 55.6713361 lat
#TLE: 1 38771U 12049A   25293.92766658  .00000266  00000+0  14193-3 0  9996
#TLE: 2 38771  98.6882 344.7603 0001609 341.5209  18.5909 14.21379342679275

#Time	Az	El	Level	SNR
2026-01-07 07:08:19.915038	25.3	37.2	-61.3	3.3
2026-01-07 07:08:22.147045	25.5	37.7	-60.0	1.7
2026-01-07 07:08:24.378548	25.6	38.2	-60.6	2.4
2026-01-07 07:08:26.610050	25.8	38.8	-58.9	2.3
2026-01-07 07:08:28.846067	26.0	39.4	-60.3	5.3
2026-01-07 07:08:31.081074	26.2	39.9	-60.9	5.9
2026-01-07 07:08:33.315082	26.5	40.5	-60.3	3.7
2026-01-07 07:08:35.548089	26.7	41.1	-57.6	0.0
2026-01-07 07:08:37.783104	26.9	41.7	-60.4	2.0
2026-01-07 07:08:40.016616	27.2	42.3	-60.2	0.5
2026-01-07 07:08:42.248623	27.4	42.9	-61.3	2.6
2026-01-07 07:08:44.485135	27.7	43.5	-62.2	3.0
2026-01-07 07:08:46.734658	27.9	44.2	-61.7	6.1
2026-01-07 07:08:48.978668	28.2	44.8	-61.2	4.7
2026-01-07 07:08:51.220693	28.5	45.5	-60.1	1.6
2026-01-07 07:08:53.464711	28.8	46.2	-59.8	3.2
2026-01-07 07:08:55.714218	29.1	46.9	-60.9	7.2
2026-01-07 07:08:57.958228	29.5	47.6	-61.4	4.4
2026-01-07 07:09:00.200237	29.8	48.3	-59.1	4.0
2026-01-07 07:09:02.436244	30.2	49.0	-60.9	6.0
2026-01-07 07:09:04.672757	30.5	49.7	-61.0	5.3
2026-01-07 07:09:06.908269	30.9	50.4	-61.5	3.2
2026-01-07 07:09:09.143285	31.3	51.2	-61.1	3.6
2026-01-07 07:09:11.375805	31.8	51.9	-61.8	5.0
2026-01-07 07:09:13.607820	32.2	52.7	-62.1	5.6
2026-01-07 07:09:15.842324	32.7	53.5	-63.3	7.2
2026-01-07 07:09:18.075835	33.2	54.2	-63.2	6.8
2026-01-07 07:09:20.309346	33.8	55.0	-62.4	4.5
2026-01-07 07:09:22.545858	34.3	55.8	-61.6	5.4
2026-01-07 07:09:24.782874	34.9	56.6	-62.9	8.1
2026-01-07 07:09:27.015882	35.6	57.5	-62.6	6.1
2026-01-07 07:09:29.249890	36.2	58.3	-62.4	5.2
2026-01-07 07:09:31.488402	36.9	59.1	-63.0	7.5
2026-01-07 07:09:33.722913	37.7	60.0	-63.3	8.0
2026-01-07 07:09:35.956424	38.5	60.8	-63.5	6.9
2026-01-07 07:09:38.190440	39.4	61.7	-63.7	7.4
2026-01-07 07:09:40.425456	40.3	62.5	-64.9	9.4
2026-01-07 07:09:42.666465	41.3	63.4	-64.6	9.2
2026-01-07 07:09:44.898472	42.4	64.3	-64.1	7.7
2026-01-07 07:09:47.131983	43.6	65.2	-64.3	9.5
2026-01-07 07:09:49.366502	44.8	66.0	-64.3	8.2
2026-01-07 07:09:51.609511	46.2	66.9	-65.0	9.1
2026-01-07 07:09:53.844519	47.7	67.8	-65.3	9.4
2026-01-07 07:09:56.080527	49.3	68.6	-65.2	7.4
2026-01-07 07:09:58.313076	51.0	69.5	-64.9	9.7
2026-01-07 07:10:00.547091	52.9	70.3	-64.5	9.3
2026-01-07 07:10:02.784611	55.0	71.1	-65.1	10.2
2026-01-07 07:10:05.019114	57.3	71.9	-65.2	9.8
2026-01-07 07:10:07.254618	59.9	72.7	-65.4	10.0
2026-01-07 07:10:09.493131	62.6	73.5	-65.3	9.9
2026-01-07 07:10:11.735653	65.7	74.2	-66.1	9.1
2026-01-07 07:10:13.975166	69.0	74.9	-66.5	9.1
2026-01-07 07:10:16.217687	72.7	75.5	-66.8	9.2
2026-01-07 07:10:18.458704	76.6	76.1	-66.5	9.2
2026-01-07 07:10:20.696729	80.9	76.6	-66.7	9.6
2026-01-07 07:10:22.939747	85.5	77.0	-66.4	8.5
2026-01-07 07:10:25.183260	90.4	77.3	-66.3	8.8
2026-01-07 07:10:27.425286	95.6	77.6	-66.5	10.2
2026-01-07 07:10:29.661302	100.9	77.7	-66.1	10.6
2026-01-07 07:10:31.894814	106.2	77.8	-66.4	10.8
2026-01-07 07:10:34.126821	111.6	77.7	-66.5	9.7
2026-01-07 07:10:36.360333	116.8	77.5	-67.3	9.6
2026-01-07 07:10:38.597341	121.9	77.3	-66.8	10.6
2026-01-07 07:10:40.830853	126.7	76.9	-66.4	10.5
2026-01-07 07:10:43.063363	131.2	76.5	-67.0	9.9
2026-01-07 07:10:45.295378	135.4	75.9	-67.2	9.1
2026-01-07 07:10:47.532883	139.3	75.4	-67.5	9.0
2026-01-07 07:10:49.762897	142.9	74.7	-67.0	9.6
2026-01-07 07:10:51.996904	146.1	74.0	-67.2	10.0
2026-01-07 07:10:54.225910	149.1	73.3	-67.3	9.1
2026-01-07 07:10:56.456917	151.8	72.5	-67.3	9.4
2026-01-07 07:10:58.690925	154.3	71.8	-66.8	10.4
2026-01-07 07:11:00.923438	156.5	70.9	-66.6	10.1
2026-01-07 07:11:03.158950	158.6	70.1	-67.0	10.3
2026-01-07 07:11:05.389957	160.4	69.3	-66.8	10.7
2026-01-07 07:11:07.625461	162.2	68.4	-66.4	10.9
2026-01-07 07:11:09.861476	163.7	67.5	-66.7	10.7
2026-01-07 07:11:12.095484	165.2	66.7	-67.2	9.5
2026-01-07 07:11:14.328499	166.5	65.8	-66.9	10.0
2026-01-07 07:11:16.560506	167.8	64.9	-66.9	9.8
2026-01-07 07:11:18.801011	168.9	64.1	-67.2	10.4
2026-01-07 07:11:21.035514	170.0	63.2	-67.1	10.6
2026-01-07 07:11:23.267033	171.0	62.3	-66.6	10.9
2026-01-07 07:11:25.501552	171.9	61.5	-66.5	10.6
2026-01-07 07:11:27.737064	172.7	60.6	-66.4	10.7
2026-01-07 07:11:29.971576	173.5	59.7	-66.3	11.0
2026-01-07 07:11:32.206584	174.3	58.9	-66.2	11.5
2026-01-07 07:11:34.444592	175.0	58.1	-65.9	10.7
2026-01-07 07:11:36.686618	175.7	57.2	-65.9	11.2
2026-01-07 07:11:38.929635	176.3	56.4	-65.6	11.3
2026-01-07 07:11:41.174141	176.9	55.6	-65.1	11.2
2026-01-07 07:11:43.417655	177.4	54.8	-65.0	11.6
2026-01-07 07:11:45.661169	178.0	54.0	-65.4	12.2
2026-01-07 07:11:47.904682	178.5	53.2	-65.2	11.4
2026-01-07 07:11:50.148187	178.9	52.4	-65.1	11.4
2026-01-07 07:11:52.384195	179.4	51.7	-65.4	11.5
2026-01-07 07:11:54.619699	179.8	50.9	-65.6	10.4
2026-01-07 07:11:56.850211	180.2	50.2	-65.7	10.8
2026-01-07 07:11:59.082226	180.6	49.4	-65.2	11.1
2026-01-07 07:12:01.313728	181.0	48.7	-65.4	11.5
2026-01-07 07:12:03.547241	181.3	48.0	-65.1	10.8
2026-01-07 07:12:05.784753	181.7	47.3	-65.2	12.0
2026-01-07 07:12:08.018265	182.0	46.6	-64.7	11.5
2026-01-07 07:12:10.252289	182.3	45.9	-64.2	11.8
2026-01-07 07:12:12.486297	182.6	45.3	-64.8	11.7
2026-01-07 07:12:14.720809	182.9	44.6	-64.7	11.0
2026-01-07 07:12:16.953815	183.2	44.0	-65.0	10.8
2026-01-07 07:12:19.186327	183.4	43.3	-64.9	10.9
2026-01-07 07:12:21.418333	183.7	42.7	-64.9	10.7
2026-01-07 07:12:23.652349	183.9	42.1	-64.6	9.2
2026-01-07 07:12:25.885374	184.2	41.5	-64.8	10.7
2026-01-07 07:12:28.119381	184.4	40.9	-64.6	10.2
2026-01-07 07:12:30.349893	184.6	40.3	-64.2	10.9
2026-01-07 07:12:32.580909	184.8	39.7	-64.2	11.0
2026-01-07 07:12:34.814428	185.1	39.1	-64.2	11.8
2026-01-07 07:12:37.053450	185.3	38.6	-64.1	12.0
2026-01-07 07:12:39.285464	185.4	38.0	-64.0	11.8
2026-01-07 07:12:41.518977	185.6	37.5	-64.1	11.5
2026-01-07 07:12:43.750983	185.8	36.9	-63.4	11.2
2026-01-07 07:12:45.986495	186.0	36.4	-63.9	11.2
2026-01-07 07:12:48.221511	186.2	35.9	-64.1	11.0
2026-01-07 07:12:50.456527	186.3	35.4	-64.1	10.1
2026-01-07 07:12:52.699050	186.5	34.8	-64.7	11.1
2026-01-07 07:12:54.943573	186.6	34.3	-63.5	8.3
2026-01-07 07:12:57.192079	186.8	33.9	-64.6	11.3
2026-01-07 07:12:59.428601	186.9	33.4	-64.2	10.9
2026-01-07 07:13:01.663609	187.1	32.9	-64.4	10.8
2026-01-07 07:13:03.907122	187.2	32.4	-64.6	11.0
2026-01-07 07:13:06.150140	187.4	32.0	-64.1	9.9
2026-01-07 07:13:08.392661	187.5	31.5	-64.3	10.0
2026-01-07 07:13:10.628164	187.6	31.1	-64.5	11.2
2026-01-07 07:13:12.861667	187.7	30.6	-64.6	10.6
2026-01-07 07:13:15.095179	187.9	30.2	-64.7	11.2
2026-01-07 07:13:17.326718	188.0	29.8	-64.4	10.9
2026-01-07 07:13:19.560725	188.1	29.4	-64.0	9.9
2026-01-07 07:13:21.794237	188.2	28.9	-64.7	10.8
2026-01-07 07:13:24.031244	188.3	28.5	-64.7	10.2
2026-01-07 07:13:26.265259	188.4	28.1	-64.8	9.5
2026-01-07 07:13:28.495265	188.5	27.7	-64.9	9.8
2026-01-07 07:13:30.728831	188.6	27.3	-64.8	8.9
2026-01-07 07:13:32.961334	188.7	27.0	-64.9	8.9
2026-01-07 07:13:35.198341	188.8	26.6	-65.0	9.1
2026-01-07 07:13:37.429852	188.9	26.2	-64.9	8.9
2026-01-07 07:13:39.663355	189.0	25.8	-63.4	6.5
2026-01-07 07:13:41.894362	189.1	25.5	-64.8	9.9
2026-01-07 07:13:44.126874	189.2	25.1	-63.9	9.5
2026-01-07 07:13:46.361882	189.3	24.7	-64.8	8.7
2026-01-07 07:13:48.594393	189.4	24.4	-64.5	8.7
2026-01-07 07:13:50.827905	189.5	24.0	-64.7	8.5
2026-01-07 07:13:53.061408	189.5	23.7	-63.4	6.3
2026-01-07 07:13:55.295423	189.6	23.4	-63.5	6.4
2026-01-07 07:13:57.530934	189.7	23.0	-65.1	9.0
2026-01-07 07:13:59.767446	189.8	22.7	-65.0	9.3
2026-01-07 07:14:02.002463	189.9	22.4	-64.2	9.0
2026-01-07 07:14:04.235966	189.9	22.1	-63.2	5.0
2026-01-07 07:14:06.472486	190.0	21.7	-65.0	6.8
2026-01-07 07:14:08.707006	190.1	21.4	-64.4	7.9
2026-01-07 07:14:10.940517	190.2	21.1	-65.0	9.5
2026-01-07 07:14:13.176525	190.2	20.8	-64.8	9.5
2026-01-07 07:14:15.420038	190.3	20.5	-65.0	9.4
2026-01-07 07:14:17.662551	190.4	20.2	-65.0	9.2
2026-01-07 07:14:19.907057	190.4	19.9	-64.8	8.4
2026-01-07 07:14:22.151076	190.5	19.6	-62.7	4.6
2026-01-07 07:14:24.399591	190.6	19.3	-65.0	8.5
2026-01-07 07:14:26.643601	190.6	19.1	-63.4	2.6
2026-01-07 07:14:28.888106	190.7	18.8	-64.4	5.1
2026-01-07 07:14:31.121617	190.7	18.5	-64.1	6.2
2026-01-07 07:14:33.357120	190.8	18.2	-65.4	8.6
2026-01-07 07:14:35.590640	190.9	17.9	-65.3	8.2
2026-01-07 07:14:37.827153	190.9	17.7	-64.6	7.4
2026-01-07 07:14:40.060664	191.0	17.4	-65.0	7.3
2026-01-07 07:14:42.297689	191.0	17.1	-65.4	7.4
2026-01-07 07:14:44.532208	191.1	16.9	-64.5	7.2
2026-01-07 07:14:46.766720	191.1	16.6	-64.7	6.1
2026-01-07 07:14:49.010233	191.2	16.4	-64.9	7.3
2026-01-07 07:14:51.243745	191.3	16.1	-65.3	7.5
2026-01-07 07:14:53.477248	191.3	15.9	-65.2	7.6
2026-01-07 07:14:55.709255	191.4	15.6	-65.1	6.1
2026-01-07 07:14:57.943767	191.4	15.4	-65.5	7.5
2026-01-07 07:15:00.180832	191.5	15.1	-66.0	7.2
2026-01-07 07:15:02.412858	191.5	14.9	-65.5	6.4
2026-01-07 07:15:04.648362	191.6	14.7	-65.4	6.7
2026-01-07 07:15:06.885380	191.6	14.4	-64.8	5.4
2026-01-07 07:15:09.120396	191.7	14.2	-65.2	6.4
2026-01-07 07:15:11.356411	191.7	14.0	-64.8	5.7
2026-01-07 07:15:13.589426	191.7	13.7	-64.8	6.0
2026-01-07 07:15:15.825434	191.8	13.5	-64.4	4.9
2026-01-07 07:15:18.058441	191.8	13.3	-64.1	4.1
2026-01-07 07:15:20.292467	191.9	13.1	-64.5	3.8
2026-01-07 07:15:22.527474	191.9	12.8	-64.5	3.4
2026-01-07 07:15:24.764482	192.0	12.6	-65.4	4.1
2026-01-07 07:15:26.996489	192.0	12.4	-65.7	0.5
2026-01-07 07:15:29.230504	192.1	12.2	-66.1	2.5
2026-01-07 07:15:31.460007	192.1	12.0	-64.2	0.0
2026-01-07 07:15:33.691013	192.1	11.8	-63.3	3.4
2026-01-07 07:15:35.925039	192.2	11.6	-65.5	4.0
2026-01-07 07:15:38.167067	192.2	11.4	-65.1	4.4
2026-01-07 07:15:40.411077	192.3	11.1	-64.9	2.9
2026-01-07 07:15:42.654094	192.3	10.9	-65.6	4.0
2026-01-07 07:15:44.897629	192.3	10.7	-62.7	0.0
2026-01-07 07:15:47.141642	192.4	10.5	-64.7	3.5
2026-01-07 07:15:49.384164	192.4	10.3	-65.3	2.9
2026-01-07 07:15:51.622693	192.5	10.1	-64.8	4.2
2026-01-07 07:15:53.857196	192.5	9.9	-64.7	2.6
2026-01-07 07:15:56.088707	192.5	9.8	-64.5	3.6
2026-01-07 07:15:58.318714	192.6	9.6	-64.6	4.8
2026-01-07 07:16:00.551217	192.6	9.4	-65.1	2.0
2026-01-07 07:16:02.789234	192.6	9.2	-65.8	2.8
2026-01-07 07:16:05.023241	192.7	9.0	-65.0	4.2
2026-01-07 07:16:07.256248	192.7	8.8	-64.2	0.0
2026-01-07 07:16:09.487751	192.7	8.6	-64.4	2.8
2026-01-07 07:16:11.721766	192.8	8.4	-65.0	0.8
2026-01-07 07:16:13.955773	192.8	8.3	-63.9	1.2
2026-01-07 07:16:16.187788	192.8	8.1	-64.6	0.0
2026-01-07 07:16:18.416794	192.9	7.9	-64.7	3.3
2026-01-07 07:16:20.652298	192.9	7.7	-62.7	0.0
2026-01-07 07:16:22.885305	192.9	7.5	-65.1	0.0
2026-01-07 07:16:25.118321	193.0	7.4	-64.0	0.0
2026-01-07 07:16:27.351345	193.0	7.2	-63.9	1.0
2026-01-07 07:16:29.586857	193.0	7.0	-65.4	1.2
2026-01-07 07:16:31.818872	193.1	6.8	-65.7	0.0
2026-01-07 07:16:34.052888	193.1	6.7	-65.9	0.0
2026-01-07 07:16:36.284390	193.1	6.5	-63.9	0.0
2026-01-07 07:16:38.515901	193.2	6.3	-63.9	0.0
2026-01-07 07:16:40.749420	193.2	6.2	-64.1	0.0
2026-01-07 07:16:42.981931	193.2	6.0	-66.0	3.2
2026-01-07 07:16:45.219444	193.2	5.8	-70.8	0.0
2026-01-07 07:16:47.447946	193.3	5.7	-71.3	0.0
2026-01-07 07:16:49.679457	193.3	5.5	-72.9	0.0
2026-01-07 07:16:51.911464	193.3	5.3	-72.7	0.0
2026-01-07 07:16:54.142470	193.4	5.2	-73.1	0.0
2026-01-07 07:16:56.373982	193.4	5.0	-72.8	0.0
#Closed at: 2026-01-07 07:03:58.469110