passes_logs/2026/01/07/PlanumMoscow/PlanumMoscow__20260107_092302_METOP-C_rec.log

#Pass ID: 20260107_092302_METOP-C
#Satellite: METOP-C
#Configuration: METOP-C
#Start time: 2026-01-07 09:23:07.527818

#LorettStation: 1.0.0 05.05.2024
#Station: PlanumMoscow
#Location: 37.6253844 lon 55.6713361 lat
#TLE: 1 43689U 18087A   25293.88981035  .00000265  00000+0  14109-3 0  9997
#TLE: 2 43689  98.7006 352.4487 0002041 122.1097 238.0279 14.21482740360838

#Time	Az	El	Level	SNR
2026-01-07 09:26:45.995824	336.6	19.8	-64.1	6.3
2026-01-07 09:26:47.113076	336.4	19.8	-65.2	4.5
2026-01-07 09:26:48.231335	336.2	19.9	-65.2	5.5
2026-01-07 09:26:49.350091	335.9	20.0	-65.8	6.2
2026-01-07 09:26:50.466848	335.7	20.0	-65.9	5.9
2026-01-07 09:26:51.585100	335.4	20.1	-65.4	5.8
2026-01-07 09:26:52.703351	335.2	20.2	-65.3	4.9
2026-01-07 09:26:53.821603	334.9	20.2	-65.5	5.2
2026-01-07 09:26:54.939360	334.7	20.3	-64.9	5.0
2026-01-07 09:26:56.058612	334.4	20.4	-64.7	4.8
2026-01-07 09:26:57.176368	334.2	20.4	-64.9	5.2
2026-01-07 09:26:58.293132	333.9	20.5	-64.7	3.5
2026-01-07 09:26:59.409888	333.6	20.6	-64.6	4.5
2026-01-07 09:27:00.528140	333.4	20.6	-65.0	4.9
2026-01-07 09:27:01.647392	333.1	20.7	-65.0	5.0
2026-01-07 09:27:02.768644	332.9	20.8	-65.0	5.7
2026-01-07 09:27:03.885409	332.6	20.8	-65.4	5.4
2026-01-07 09:27:05.005165	332.3	20.9	-65.0	5.0
2026-01-07 09:27:06.124921	332.1	21.0	-64.9	4.1
2026-01-07 09:27:07.243678	331.8	21.0	-65.3	6.0
2026-01-07 09:27:08.362442	331.5	21.1	-65.0	6.0
2026-01-07 09:27:09.478693	331.3	21.1	-64.7	4.5
2026-01-07 09:27:10.596448	331.0	21.2	-64.8	3.7
2026-01-07 09:27:11.715204	330.7	21.3	-65.0	6.2
2026-01-07 09:27:12.831464	330.5	21.3	-64.7	4.9
2026-01-07 09:27:13.951219	330.2	21.4	-64.4	4.0
2026-01-07 09:27:15.071472	329.9	21.4	-64.5	4.4
2026-01-07 09:27:16.190724	329.7	21.5	-64.5	4.6
2026-01-07 09:27:17.309976	329.4	21.5	-64.4	5.7
2026-01-07 09:27:18.430228	329.1	21.6	-64.8	5.1
2026-01-07 09:27:19.548984	328.8	21.7	-65.5	6.5
2026-01-07 09:27:20.665740	328.6	21.7	-64.4	5.7
2026-01-07 09:27:21.785001	328.3	21.8	-64.4	3.3
2026-01-07 09:27:22.902253	328.0	21.8	-63.5	3.9
2026-01-07 09:27:24.022505	327.7	21.9	-63.9	4.2
2026-01-07 09:27:25.143270	327.4	21.9	-64.5	4.3
2026-01-07 09:27:26.262522	327.2	22.0	-64.0	5.3
2026-01-07 09:27:27.379774	326.9	22.0	-64.4	4.3
2026-01-07 09:27:28.498025	326.6	22.1	-65.6	6.9
2026-01-07 09:27:29.615285	326.3	22.1	-64.7	3.9
2026-01-07 09:27:30.733049	326.0	22.2	-64.2	3.3
2026-01-07 09:27:31.852806	325.7	22.2	-64.9	5.5
2026-01-07 09:27:32.970562	325.4	22.3	-64.1	2.9
2026-01-07 09:27:34.092319	325.2	22.3	-64.3	4.9
2026-01-07 09:27:35.209570	324.9	22.4	-64.8	4.8
2026-01-07 09:27:36.328822	324.6	22.4	-64.7	2.9
2026-01-07 09:27:37.448082	324.3	22.5	-65.1	4.0
2026-01-07 09:27:38.565334	324.0	22.5	-64.8	3.9
2026-01-07 09:27:39.683585	323.7	22.6	-65.6	4.4
2026-01-07 09:27:40.800837	323.4	22.6	-65.1	3.5
2026-01-07 09:27:41.920594	323.1	22.6	-64.7	4.2
2026-01-07 09:27:43.037854	322.8	22.7	-64.6	2.9
2026-01-07 09:27:44.158113	322.5	22.7	-65.1	3.2
2026-01-07 09:27:45.280366	322.2	22.8	-64.9	3.9
2026-01-07 09:27:46.402123	321.9	22.8	-65.3	5.5
2026-01-07 09:27:47.524376	321.6	22.9	-65.4	4.7
2026-01-07 09:27:48.644133	321.3	22.9	-65.3	5.1
2026-01-07 09:27:49.765890	321.0	22.9	-65.5	5.0
2026-01-07 09:27:50.891153	320.7	23.0	-65.5	4.4
2026-01-07 09:27:52.012413	320.4	23.0	-65.1	4.8
2026-01-07 09:27:53.132674	320.1	23.0	-65.4	4.2
2026-01-07 09:27:54.254935	319.8	23.1	-64.4	1.8
2026-01-07 09:27:55.376692	319.5	23.1	-65.4	3.4
2026-01-07 09:27:56.498449	319.2	23.1	-65.1	4.6
2026-01-07 09:27:57.620206	318.9	23.2	-65.2	4.7
2026-01-07 09:27:58.740970	318.6	23.2	-64.8	2.9
2026-01-07 09:27:59.863222	318.3	23.2	-65.0	5.5
2026-01-07 09:28:00.984484	318.0	23.3	-64.8	3.9
2026-01-07 09:28:02.102736	317.7	23.3	-64.1	5.1
2026-01-07 09:28:03.221987	317.4	23.3	-64.9	5.5
2026-01-07 09:28:04.340743	317.0	23.3	-64.7	4.7
2026-01-07 09:28:05.457996	316.7	23.4	-64.5	3.7
2026-01-07 09:28:06.577256	316.4	23.4	-65.7	6.3
2026-01-07 09:28:07.696021	316.1	23.4	-65.6	5.3
2026-01-07 09:28:08.814777	315.8	23.4	-64.7	1.5
2026-01-07 09:28:09.931532	315.5	23.5	-65.0	5.7
2026-01-07 09:28:11.047791	315.2	23.5	-65.5	5.4
2026-01-07 09:28:12.164547	314.9	23.5	-66.0	6.4
2026-01-07 09:28:13.282798	314.6	23.5	-66.0	4.6
2026-01-07 09:28:14.401059	314.3	23.5	-66.3	5.4
2026-01-07 09:28:15.518310	313.9	23.6	-66.4	6.6
2026-01-07 09:28:16.635065	313.6	23.6	-66.0	4.9
2026-01-07 09:28:17.752821	313.3	23.6	-65.4	5.4
2026-01-07 09:28:18.870578	313.0	23.6	-65.5	6.5
2026-01-07 09:28:19.988830	312.7	23.6	-65.8	0.3
2026-01-07 09:28:21.106081	312.4	23.6	-65.6	4.4
2026-01-07 09:28:22.223333	312.1	23.7	-65.1	4.4
2026-01-07 09:28:23.341088	311.7	23.7	-65.6	2.5
2026-01-07 09:28:24.456844	311.4	23.7	-65.6	5.4
2026-01-07 09:28:25.575097	311.1	23.7	-65.7	2.5
2026-01-07 09:28:26.694854	310.8	23.7	-66.0	5.2
2026-01-07 09:28:27.812609	310.5	23.7	-66.2	5.2
2026-01-07 09:28:28.934366	310.2	23.7	-65.1	5.7
2026-01-07 09:28:30.051618	309.8	23.7	-65.3	4.9
2026-01-07 09:28:31.168373	309.5	23.7	-65.3	3.3
2026-01-07 09:28:32.285128	309.2	23.7	-65.9	6.8
2026-01-07 09:28:33.400379	308.9	23.7	-65.9	5.6
2026-01-07 09:28:34.518640	308.6	23.7	-65.9	4.8
2026-01-07 09:28:35.637405	308.3	23.7	-66.3	6.7
2026-01-07 09:28:36.754170	307.9	23.7	-66.2	5.3
2026-01-07 09:28:37.872421	307.6	23.7	-65.9	3.6
2026-01-07 09:28:38.988685	307.3	23.7	-65.6	1.5
2026-01-07 09:28:40.104936	307.0	23.7	-66.3	5.6
2026-01-07 09:28:41.222188	306.7	23.7	-66.0	5.8
2026-01-07 09:28:42.339449	306.4	23.7	-65.5	4.5
2026-01-07 09:28:43.454700	306.1	23.7	-66.2	5.5
2026-01-07 09:28:44.572952	305.7	23.7	-66.0	4.9
2026-01-07 09:28:45.690203	305.4	23.7	-65.9	5.6
2026-01-07 09:28:46.807960	305.1	23.7	-65.9	5.7
2026-01-07 09:28:47.925220	304.8	23.7	-66.0	2.9
2026-01-07 09:28:49.044472	304.5	23.7	-65.4	3.9
2026-01-07 09:28:50.161724	304.2	23.7	-65.5	3.3
2026-01-07 09:28:51.279976	303.8	23.6	-66.0	5.9
2026-01-07 09:28:52.396740	303.5	23.6	-66.3	6.3
2026-01-07 09:28:53.512496	303.2	23.6	-65.9	6.7
2026-01-07 09:28:54.631251	302.9	23.6	-65.9	5.4
2026-01-07 09:28:55.747503	302.6	23.6	-65.7	5.0
2026-01-07 09:28:56.865755	302.3	23.6	-65.6	5.8
2026-01-07 09:28:57.984007	302.0	23.6	-64.9	4.5
2026-01-07 09:28:59.100763	301.6	23.5	-66.0	6.2
2026-01-07 09:29:00.217023	301.3	23.5	-65.3	4.1
2026-01-07 09:29:01.338275	301.0	23.5	-66.1	5.3
2026-01-07 09:29:02.460528	300.7	23.5	-65.6	5.9
2026-01-07 09:29:03.582285	300.4	23.5	-66.1	6.6
2026-01-07 09:29:04.705041	300.1	23.4	-66.0	5.1
2026-01-07 09:29:05.826856	299.8	23.4	-65.9	5.4
2026-01-07 09:29:06.948117	299.5	23.4	-65.5	5.8
2026-01-07 09:29:08.069378	299.1	23.4	-66.0	5.7
2026-01-07 09:29:09.191134	298.8	23.3	-65.4	3.0
2026-01-07 09:29:10.313386	298.5	23.3	-65.7	6.7
2026-01-07 09:29:11.435144	298.2	23.3	-65.8	6.0
2026-01-07 09:29:12.557397	297.9	23.2	-65.8	6.1
2026-01-07 09:29:13.679649	297.6	23.2	-65.1	5.1
2026-01-07 09:29:14.802407	297.3	23.2	-66.1	6.5
2026-01-07 09:29:15.927171	297.0	23.1	-66.1	4.8
2026-01-07 09:29:17.045423	296.7	23.1	-65.7	4.2
2026-01-07 09:29:18.163186	296.4	23.1	-65.3	6.4
2026-01-07 09:29:19.279446	296.1	23.0	-66.0	7.4
2026-01-07 09:29:20.378964	295.8	23.0	-65.2	5.1
2026-01-07 09:29:21.497216	295.5	23.0	-65.8	5.8
2026-01-07 09:29:22.612467	295.2	22.9	-65.5	5.2
2026-01-07 09:29:23.730719	294.9	22.9	-65.9	7.1
2026-01-07 09:29:24.854972	294.6	22.9	-65.5	4.4
2026-01-07 09:29:25.971728	294.3	22.8	-66.0	6.4
2026-01-07 09:29:27.089980	294.0	22.8	-65.8	5.1
2026-01-07 09:29:28.206231	293.7	22.7	-65.5	6.8
2026-01-07 09:29:29.324987	293.4	22.7	-65.7	6.8
2026-01-07 09:29:30.442239	293.1	22.7	-65.8	7.7
2026-01-07 09:29:31.559498	292.8	22.6	-65.8	5.7
2026-01-07 09:29:32.676254	292.5	22.6	-65.6	7.3
2026-01-07 09:29:33.799011	292.2	22.5	-65.7	6.8
2026-01-07 09:29:34.917263	291.9	22.5	-65.5	7.0
2026-01-07 09:29:36.035020	291.6	22.4	-65.5	6.6
2026-01-07 09:29:37.150775	291.3	22.4	-66.0	7.2
2026-01-07 09:29:38.268027	291.0	22.4	-65.3	5.6
2026-01-07 09:29:39.386279	290.7	22.3	-66.0	6.4
2026-01-07 09:29:40.505531	290.5	22.3	-65.5	6.1
2026-01-07 09:29:41.622782	290.2	22.2	-65.4	6.6
2026-01-07 09:29:42.740034	289.9	22.2	-64.7	4.8
2026-01-07 09:29:43.858797	289.6	22.1	-65.1	5.1
2026-01-07 09:29:44.977554	289.3	22.1	-64.1	3.3
2026-01-07 09:29:46.096310	289.0	22.0	-65.0	5.1
2026-01-07 09:29:47.213562	288.7	22.0	-64.6	4.5
2026-01-07 09:29:48.334318	288.5	21.9	-65.3	3.5
2026-01-07 09:29:49.452073	288.2	21.8	-65.0	6.3
2026-01-07 09:29:50.570829	287.9	21.8	-65.6	6.6
2026-01-07 09:29:51.689584	287.6	21.7	-64.8	4.6
2026-01-07 09:29:52.804845	287.3	21.7	-65.2	7.1
2026-01-07 09:29:53.924601	287.1	21.6	-65.1	5.9
2026-01-07 09:29:55.043861	286.8	21.6	-65.1	6.2
2026-01-07 09:29:56.163114	286.5	21.5	-65.1	5.3
2026-01-07 09:29:57.281366	286.2	21.5	-64.3	4.8
2026-01-07 09:29:58.400618	286.0	21.4	-64.7	5.5
2026-01-07 09:29:59.518879	285.7	21.3	-64.8	6.7
2026-01-07 09:30:00.639140	285.4	21.3	-64.2	4.3
2026-01-07 09:30:01.756896	285.1	21.2	-64.5	7.3
2026-01-07 09:30:02.875157	284.9	21.2	-64.5	4.7
2026-01-07 09:30:03.994912	284.6	21.1	-65.0	5.1
2026-01-07 09:30:05.113669	284.3	21.0	-64.8	5.8
2026-01-07 09:30:06.232921	284.1	21.0	-64.2	3.0
2026-01-07 09:30:07.353173	283.8	20.9	-64.3	4.6
2026-01-07 09:30:08.474426	283.5	20.8	-64.1	5.3
2026-01-07 09:30:09.597679	283.3	20.8	-63.9	4.2
2026-01-07 09:30:10.715434	283.0	20.7	-64.4	3.8
2026-01-07 09:30:11.833687	282.8	20.7	-64.4	5.6
2026-01-07 09:30:12.952443	282.5	20.6	-64.3	5.8
2026-01-07 09:30:14.074695	282.2	20.5	-64.5	5.9
2026-01-07 09:30:15.194948	282.0	20.5	-64.3	5.0
2026-01-07 09:30:16.312704	281.7	20.4	-64.9	5.9
2026-01-07 09:30:17.430956	281.5	20.3	-64.5	6.4
2026-01-07 09:30:18.550712	281.2	20.3	-64.5	5.5
2026-01-07 09:30:19.667979	281.0	20.2	-64.7	6.0
2026-01-07 09:30:20.786231	280.7	20.1	-63.7	4.3
2026-01-07 09:30:21.903491	280.5	20.1	-63.9	4.1
2026-01-07 09:30:23.021246	280.2	20.0	-63.7	3.8
2026-01-07 09:30:24.143011	280.0	19.9	-64.7	4.6
2026-01-07 09:30:25.265264	279.7	19.8	-63.4	2.6
2026-01-07 09:30:26.387517	279.5	19.8	-64.5	5.6
2026-01-07 09:30:27.510770	279.2	19.7	-64.0	4.7
2026-01-07 09:30:28.632527	279.0	19.6	-63.7	2.3
2026-01-07 09:30:29.753787	278.7	19.6	-64.5	5.5
2026-01-07 09:30:30.876040	278.5	19.5	-64.7	6.7
2026-01-07 09:30:31.997796	278.3	19.4	-64.2	4.4
2026-01-07 09:30:33.119057	278.0	19.3	-64.1	3.3
2026-01-07 09:30:34.240317	277.8	19.3	-63.6	1.8
2026-01-07 09:30:35.361073	277.5	19.2	-63.9	3.3
2026-01-07 09:30:36.484326	277.3	19.1	-64.3	5.1
2026-01-07 09:30:37.606579	277.1	19.1	-64.1	3.8
2026-01-07 09:30:38.728832	276.8	19.0	-64.1	3.9
2026-01-07 09:30:39.848589	276.6	18.9	-64.5	6.4
2026-01-07 09:30:40.965848	276.4	18.8	-64.7	5.9
2026-01-07 09:30:42.085100	276.1	18.8	-64.3	3.8
2026-01-07 09:30:43.207361	275.9	18.7	-63.0	1.4
2026-01-07 09:30:44.324613	275.7	18.6	-64.6	4.5
2026-01-07 09:30:45.441873	275.5	18.5	-64.0	3.1
2026-01-07 09:30:46.559125	275.2	18.5	-65.5	4.9
2026-01-07 09:30:47.676889	275.0	18.4	-64.7	5.0
2026-01-07 09:30:48.796141	274.8	18.3	-64.7	5.8
2026-01-07 09:30:49.913392	274.6	18.2	-64.8	3.8
2026-01-07 09:30:51.034149	274.3	18.2	-63.7	2.2
2026-01-07 09:30:52.152401	274.1	18.1	-64.3	4.0
2026-01-07 09:30:53.270156	273.9	18.0	-64.3	4.4
2026-01-07 09:30:54.384920	273.7	17.9	-64.0	5.9
2026-01-07 09:30:55.503172	273.5	17.9	-64.5	5.7
2026-01-07 09:30:56.622424	273.2	17.8	-64.3	7.0
2026-01-07 09:30:57.740179	273.0	17.7	-64.4	5.9
2026-01-07 09:30:58.859431	272.8	17.6	-63.5	2.8
2026-01-07 09:30:59.976683	272.6	17.5	-62.9	2.9
2026-01-07 09:31:01.093943	272.4	17.5	-63.3	2.0
2026-01-07 09:31:02.211699	272.2	17.4	-64.1	4.6
2026-01-07 09:31:03.332960	272.0	17.3	-63.3	2.8
2026-01-07 09:31:04.450212	271.8	17.2	-63.0	4.1
2026-01-07 09:31:05.570464	271.6	17.2	-63.3	4.3
2026-01-07 09:31:06.690717	271.4	17.1	-63.1	3.4
2026-01-07 09:31:07.807968	271.2	17.0	-62.9	2.3
2026-01-07 09:31:08.922227	270.9	16.9	-63.4	2.5
2026-01-07 09:31:10.040487	270.7	16.8	-63.4	4.7
2026-01-07 09:31:11.158738	270.5	16.8	-62.5	2.8
2026-01-07 09:31:12.276494	270.3	16.7	-62.8	0.9
2026-01-07 09:31:13.392257	270.1	16.6	-63.5	4.0
2026-01-07 09:31:14.511013	269.9	16.5	-63.3	3.5
2026-01-07 09:31:15.627273	269.8	16.5	-63.6	3.5
2026-01-07 09:31:16.745029	269.6	16.4	-64.0	3.6
2026-01-07 09:31:17.863281	269.4	16.3	-63.4	3.2
2026-01-07 09:31:18.981036	269.2	16.2	-63.2	1.6
2026-01-07 09:31:20.097800	269.0	16.1	-63.7	3.8
2026-01-07 09:31:21.215556	268.8	16.1	-63.4	3.7
2026-01-07 09:31:22.331312	268.6	16.0	-62.5	2.1
2026-01-07 09:31:23.449069	268.4	15.9	-62.2	1.1
2026-01-07 09:31:24.566825	268.2	15.8	-62.3	5.3
2026-01-07 09:31:25.685086	268.0	15.7	-62.3	2.5
2026-01-07 09:31:26.802842	267.8	15.7	-62.0	0.0
2026-01-07 09:31:27.920094	267.6	15.6	-62.2	0.0
2026-01-07 09:31:29.037345	267.5	15.5	-61.8	3.0
2026-01-07 09:31:30.153596	267.3	15.4	-61.9	0.0
2026-01-07 09:31:31.270848	267.1	15.3	-62.3	0.0
2026-01-07 09:31:32.389100	266.9	15.3	-63.7	3.8
2026-01-07 09:31:33.508352	266.7	15.2	-63.6	4.4
2026-01-07 09:31:34.624604	266.6	15.1	-62.6	1.3
2026-01-07 09:31:35.743359	266.4	15.0	-61.1	1.5
2026-01-07 09:31:36.859618	266.2	14.9	-62.7	2.6
2026-01-07 09:31:37.978873	266.0	14.9	-62.1	4.3
2026-01-07 09:31:39.099122	265.8	14.8	-61.4	0.0
2026-01-07 09:31:40.218879	265.7	14.7	-62.4	0.0
2026-01-07 09:31:41.337130	265.5	14.6	-62.2	2.2
2026-01-07 09:31:42.453886	265.3	14.5	-61.5	0.0
2026-01-07 09:31:43.568641	265.2	14.5	-62.3	2.9
2026-01-07 09:31:44.686893	265.0	14.4	-63.6	3.8
2026-01-07 09:31:45.802648	264.8	14.3	-62.4	2.9
2026-01-07 09:31:46.919900	264.6	14.2	-62.2	1.4
2026-01-07 09:31:48.037151	264.5	14.1	-62.7	0.9
2026-01-07 09:31:49.155411	264.3	14.1	-63.1	0.0
2026-01-07 09:31:50.276169	264.1	14.0	-62.1	0.0
2026-01-07 09:31:51.397926	264.0	13.9	-63.1	4.2
2026-01-07 09:31:52.521188	263.8	13.8	-61.4	0.0
2026-01-07 09:31:53.640944	263.6	13.7	-62.9	0.0
2026-01-07 09:31:54.761701	263.5	13.7	-62.6	1.8
2026-01-07 09:31:55.883467	263.3	13.6	-63.0	1.7
2026-01-07 09:31:57.005720	263.2	13.5	-62.6	3.4
2026-01-07 09:31:58.129973	263.0	13.4	-62.2	0.8
2026-01-07 09:31:59.246224	262.8	13.3	-62.7	4.2
2026-01-07 09:32:00.363987	262.7	13.3	-62.8	0.4
2026-01-07 09:32:01.481744	262.5	13.2	-61.0	0.0
2026-01-07 09:32:02.597995	262.4	13.1	-62.2	2.9
2026-01-07 09:32:03.717751	262.2	13.0	-62.1	0.2
2026-01-07 09:32:04.839003	262.0	12.9	-62.1	2.6
2026-01-07 09:32:05.960263	261.9	12.9	-61.3	0.0
2026-01-07 09:32:07.082516	261.7	12.8	-59.9	0.7
2026-01-07 09:32:08.204769	261.6	12.7	-62.7	1.9
2026-01-07 09:32:09.326526	261.4	12.6	-62.4	1.0
2026-01-07 09:32:10.448779	261.3	12.5	-63.3	3.9
2026-01-07 09:32:11.568534	261.1	12.5	-62.0	3.1
2026-01-07 09:32:12.686786	261.0	12.4	-61.5	0.0
2026-01-07 09:32:13.802557	260.8	12.3	-61.6	0.0
2026-01-07 09:32:14.919808	260.7	12.2	-60.9	1.8
2026-01-07 09:32:16.038060	260.5	12.1	-60.9	0.0
2026-01-07 09:32:17.153312	260.4	12.1	-61.8	2.4
2026-01-07 09:32:18.269571	260.2	12.0	-61.7	0.0
2026-01-07 09:32:19.390327	260.1	11.9	-61.8	0.0
2026-01-07 09:32:20.505586	260.0	11.8	-61.1	0.0
2026-01-07 09:32:21.620341	259.8	11.8	-61.7	0.6
2026-01-07 09:32:22.737097	259.7	11.7	-61.2	0.0
2026-01-07 09:32:23.854348	259.5	11.6	-59.8	0.0
2026-01-07 09:32:24.972617	259.4	11.5	-59.4	0.0
2026-01-07 09:32:26.088373	259.2	11.4	-62.5	3.5
2026-01-07 09:32:27.202633	259.1	11.4	-59.7	0.0
2026-01-07 09:32:28.319884	259.0	11.3	-60.3	0.0
2026-01-07 09:32:29.436649	258.8	11.2	-60.1	0.0
2026-01-07 09:32:30.553412	258.7	11.1	-60.6	0.0
2026-01-07 09:32:31.669167	258.6	11.1	-61.1	0.0
2026-01-07 09:32:32.785419	258.4	11.0	-62.1	1.9
2026-01-07 09:32:33.903671	258.3	10.9	-61.0	0.0
2026-01-07 09:32:35.021923	258.2	10.8	-62.7	0.0
2026-01-07 09:32:36.138678	258.0	10.7	-60.9	0.0
2026-01-07 09:32:37.255929	257.9	10.7	-63.5	2.9
2026-01-07 09:32:38.375686	257.8	10.6	-59.7	0.0
2026-01-07 09:32:39.491440	257.6	10.5	-61.1	0.0
2026-01-07 09:32:40.606691	257.5	10.4	-63.6	3.5
2026-01-07 09:32:41.724944	257.4	10.4	-61.9	0.0
2026-01-07 09:32:42.841195	257.2	10.3	-60.9	0.3
2026-01-07 09:32:43.959447	257.1	10.2	-60.9	0.0
2026-01-07 09:32:45.076202	257.0	10.1	-60.1	0.0
2026-01-07 09:32:46.192454	256.9	10.1	-61.5	0.0
2026-01-07 09:32:47.308705	256.7	10.0	-63.1	2.7
2026-01-07 09:32:48.426965	256.6	9.9	-60.9	0.0
2026-01-07 09:32:49.545225	256.5	9.8	-61.8	0.0
2026-01-07 09:32:50.662477	256.4	9.7	-62.2	0.6
2026-01-07 09:32:51.781729	256.2	9.7	-62.3	0.0
2026-01-07 09:32:52.897989	256.1	9.6	-60.0	0.0
2026-01-07 09:32:54.016241	256.0	9.5	-60.4	0.0
2026-01-07 09:32:55.132492	255.9	9.4	-60.6	0.0
2026-01-07 09:32:56.249753	255.7	9.4	-62.3	0.0
2026-01-07 09:32:57.367004	255.6	9.3	-59.3	0.0
2026-01-07 09:32:58.486761	255.5	9.2	-62.4	0.8
2026-01-07 09:32:59.603021	255.4	9.1	-62.8	0.0
2026-01-07 09:33:00.720272	255.3	9.1	-61.1	0.0
2026-01-07 09:33:01.839029	255.1	9.0	-60.4	0.0
2026-01-07 09:33:02.955280	255.0	8.9	-62.2	0.9
2026-01-07 09:33:04.073532	254.9	8.8	-62.6	0.0
2026-01-07 09:33:05.190288	254.8	8.8	-60.2	0.0
2026-01-07 09:33:06.308043	254.7	8.7	-61.4	0.0
2026-01-07 09:33:07.426304	254.6	8.6	-59.5	0.0
2026-01-07 09:33:08.543555	254.4	8.5	-62.6	0.3
2026-01-07 09:33:09.660815	254.3	8.5	-60.6	0.0
2026-01-07 09:33:10.777066	254.2	8.4	-61.7	0.0
2026-01-07 09:33:11.895318	254.1	8.3	-62.8	1.6
2026-01-07 09:33:13.012570	254.0	8.3	-61.9	0.0
2026-01-07 09:33:14.131326	253.9	8.2	-61.9	0.0
2026-01-07 09:33:15.250082	253.8	8.1	-60.9	0.0
2026-01-07 09:33:16.367334	253.7	8.0	-63.4	0.0
2026-01-07 09:33:17.484090	253.6	8.0	-61.3	0.0
2026-01-07 09:33:18.601846	253.4	7.9	-61.2	0.0
2026-01-07 09:33:19.721611	253.3	7.8	-62.8	0.0
2026-01-07 09:33:20.839367	253.2	7.7	-62.3	0.0
2026-01-07 09:33:21.956618	253.1	7.7	-59.6	0.0
2026-01-07 09:33:23.074375	253.0	7.6	-57.7	0.0
2026-01-07 09:33:24.191131	252.9	7.5	-59.9	0.0
2026-01-07 09:33:25.311392	252.8	7.4	-62.1	0.6
2026-01-07 09:33:26.433645	252.7	7.4	-59.0	0.0
2026-01-07 09:33:27.554904	252.6	7.3	-62.2	0.0
2026-01-07 09:33:28.672660	252.5	7.2	-61.4	0.0
2026-01-07 09:33:29.795417	252.4	7.2	-60.3	0.0
2026-01-07 09:33:30.917669	252.3	7.1	-59.3	0.0
2026-01-07 09:33:32.039922	252.2	7.0	-60.9	0.0
2026-01-07 09:33:33.160679	252.1	6.9	-61.8	0.0
2026-01-07 09:33:34.282435	252.0	6.9	-57.3	0.0
2026-01-07 09:33:35.403696	251.9	6.8	-61.4	0.0
2026-01-07 09:33:36.525453	251.8	6.7	-60.0	0.0
2026-01-07 09:33:37.642713	251.7	6.7	-60.8	0.0
2026-01-07 09:33:38.759965	251.6	6.6	-60.2	0.0
2026-01-07 09:33:39.875720	251.5	6.5	-61.1	0.0
2026-01-07 09:33:40.991476	251.4	6.4	-61.2	0.0
2026-01-07 09:33:42.106736	251.3	6.4	-60.1	0.0
2026-01-07 09:33:43.224988	251.2	6.3	-60.1	0.0
2026-01-07 09:33:44.343240	251.1	6.2	-61.7	0.0
2026-01-07 09:33:45.460491	251.0	6.2	-61.2	0.0
2026-01-07 09:33:46.581744	250.9	6.1	-59.5	0.0
2026-01-07 09:33:47.698500	250.8	6.0	-60.4	0.0
2026-01-07 09:33:48.815768	250.7	5.9	-63.9	0.0
2026-01-07 09:33:49.934037	250.6	5.9	-65.5	0.0
2026-01-07 09:33:51.054803	250.5	5.8	-65.4	0.0
2026-01-07 09:33:52.176559	250.4	5.7	-63.4	0.0
2026-01-07 09:33:53.298316	250.3	5.7	-65.8	0.0
2026-01-07 09:33:54.414574	250.2	5.6	-69.1	0.0
2026-01-07 09:33:55.536827	250.1	5.5	-69.2	0.0
2026-01-07 09:33:56.653079	250.0	5.5	-70.3	0.0
2026-01-07 09:33:57.769348	249.9	5.4	-70.6	0.0
2026-01-07 09:33:58.885103	249.9	5.3	-71.8	0.0
2026-01-07 09:34:00.001354	249.8	5.2	-72.3	0.0
2026-01-07 09:34:01.118110	249.7	5.2	-72.8	0.0
2026-01-07 09:34:02.233361	249.6	5.1	-72.7	0.0
2026-01-07 09:34:03.349620	249.5	5.0	-72.6	0.0
2026-01-07 09:34:04.463376	249.4	5.0	-72.3	0.0
#Closed at: 2026-01-07 09:23:02.528861