passes_logs/2026/01/07/PlanumMoscow/PlanumMoscow__20260107_010921_METEOR-M2_4_rec.log

#Pass ID: 20260107_010921_METEOR-M2 4
#Satellite: METEOR-M2 4
#Configuration: METEOR-M2 4
#Start time: 2026-01-07 01:09:26.993758

#LorettStation: 1.0.0 05.05.2024
#Station: PlanumMoscow
#Location: 37.6253844 lon 55.6713361 lat
#TLE: 1 59051U 24039A   25293.94737965  .00000087  00000+0  58459-4 0  9998
#TLE: 2 59051  98.6671 251.7071 0007726 135.4772 224.7028 14.22388966 85257

#Time	Az	El	Level	SNR
2026-01-07 01:13:05.459921	12.8	29.3	-60.9	7.7
2026-01-07 01:13:07.704940	12.7	29.7	-62.9	9.8
2026-01-07 01:13:09.948491	12.7	30.1	-62.4	8.0
2026-01-07 01:13:12.192996	12.6	30.6	-63.2	9.6
2026-01-07 01:13:14.429012	12.5	31.0	-63.2	9.8
2026-01-07 01:13:16.673021	12.4	31.4	-62.6	9.5
2026-01-07 01:13:18.917031	12.4	31.9	-62.8	10.7
2026-01-07 01:13:21.161536	12.3	32.3	-63.2	10.5
2026-01-07 01:13:23.403057	12.2	32.8	-62.5	9.7
2026-01-07 01:13:25.641074	12.1	33.3	-61.8	8.5
2026-01-07 01:13:27.876578	12.0	33.8	-63.1	9.4
2026-01-07 01:13:30.112098	11.9	34.2	-61.6	8.4
2026-01-07 01:13:32.347105	11.8	34.7	-63.3	11.2
2026-01-07 01:13:34.580626	11.7	35.2	-63.3	10.7
2026-01-07 01:13:36.815633	11.6	35.8	-62.9	8.7
2026-01-07 01:13:39.049641	11.5	36.3	-62.8	10.3
2026-01-07 01:13:41.283648	11.4	36.8	-63.3	10.0
2026-01-07 01:13:43.517655	11.3	37.3	-62.1	7.4
2026-01-07 01:13:45.754670	11.2	37.9	-63.4	9.1
2026-01-07 01:13:47.988693	11.0	38.4	-63.7	9.9
2026-01-07 01:13:50.226709	10.9	39.0	-62.1	6.7
2026-01-07 01:13:52.460717	10.8	39.6	-64.1	10.1
2026-01-07 01:13:54.698237	10.6	40.1	-61.2	7.4
2026-01-07 01:13:56.934254	10.5	40.7	-61.9	8.0
2026-01-07 01:13:59.170767	10.3	41.3	-63.4	10.8
2026-01-07 01:14:01.406280	10.2	41.9	-63.1	8.1
2026-01-07 01:14:03.645287	10.0	42.6	-61.5	5.8
2026-01-07 01:14:05.880799	9.9	43.2	-63.4	9.7
2026-01-07 01:14:08.116311	9.7	43.8	-64.3	9.7
2026-01-07 01:14:10.349325	9.5	44.5	-63.9	10.4
2026-01-07 01:14:12.582339	9.3	45.1	-64.0	9.7
2026-01-07 01:14:14.821357	9.1	45.8	-63.5	8.5
2026-01-07 01:14:17.056373	8.9	46.5	-63.7	9.3
2026-01-07 01:14:19.290876	8.7	47.2	-64.2	10.3
2026-01-07 01:14:21.526379	8.4	47.9	-64.5	8.7
2026-01-07 01:14:23.766904	8.2	48.6	-64.7	9.3
2026-01-07 01:14:26.009922	8.0	49.3	-64.8	9.7
2026-01-07 01:14:28.254940	7.7	50.1	-64.1	8.8
2026-01-07 01:14:30.498949	7.4	50.8	-65.0	8.8
2026-01-07 01:14:32.741473	7.1	51.6	-64.7	7.4
2026-01-07 01:14:34.982987	6.8	52.4	-65.2	8.4
2026-01-07 01:14:37.224995	6.5	53.2	-65.2	8.1
2026-01-07 01:14:39.468013	6.1	54.0	-65.4	8.0
2026-01-07 01:14:41.703028	5.8	54.8	-65.5	8.1
2026-01-07 01:14:43.941037	5.4	55.6	-65.4	8.5
2026-01-07 01:14:46.178044	5.0	56.4	-65.5	8.3
2026-01-07 01:14:48.411052	4.5	57.3	-65.6	9.0
2026-01-07 01:14:50.646059	4.0	58.1	-65.7	8.9
2026-01-07 01:14:52.879065	3.5	59.0	-65.0	8.2
2026-01-07 01:14:55.112073	3.0	59.9	-65.4	8.6
2026-01-07 01:14:57.341583	2.4	60.7	-65.2	9.1
2026-01-07 01:14:59.573590	1.8	61.6	-65.7	8.9
2026-01-07 01:15:01.809102	1.2	62.5	-65.6	7.9
2026-01-07 01:15:04.041110	0.5	63.4	-65.8	7.8
2026-01-07 01:15:06.271612	359.7	64.4	-66.0	8.4
2026-01-07 01:15:08.503115	358.9	65.3	-66.0	8.3
2026-01-07 01:15:10.735617	357.9	66.2	-66.1	7.6
2026-01-07 01:15:12.968151	356.9	67.1	-66.1	8.4
2026-01-07 01:15:15.198660	355.9	68.1	-65.7	9.7
2026-01-07 01:15:17.429667	354.7	69.0	-65.5	10.2
2026-01-07 01:15:19.663170	353.4	70.0	-65.7	11.0
2026-01-07 01:15:21.899682	351.9	70.9	-65.6	11.1
2026-01-07 01:15:24.135185	350.3	71.8	-65.9	11.3
2026-01-07 01:15:26.371193	348.5	72.8	-66.0	11.0
2026-01-07 01:15:28.605201	346.5	73.7	-66.1	10.7
2026-01-07 01:15:30.839208	344.2	74.6	-66.2	11.5
2026-01-07 01:15:33.081721	341.6	75.5	-66.2	11.7
2026-01-07 01:15:35.312727	338.7	76.3	-66.5	11.8
2026-01-07 01:15:37.545229	335.4	77.2	-66.3	12.8
2026-01-07 01:15:39.776741	331.6	77.9	-66.0	13.3
2026-01-07 01:15:42.009747	327.4	78.7	-65.9	12.7
2026-01-07 01:15:44.244259	322.5	79.3	-66.6	13.4
2026-01-07 01:15:46.483276	317.1	79.9	-66.9	12.9
2026-01-07 01:15:48.726790	311.0	80.4	-67.3	12.6
2026-01-07 01:15:50.970304	304.3	80.7	-67.4	12.4
2026-01-07 01:15:53.214321	297.2	81.0	-67.4	13.1
2026-01-07 01:15:55.457347	289.9	81.1	-66.8	13.2
2026-01-07 01:15:57.700861	282.5	81.0	-66.9	14.1
2026-01-07 01:15:59.941375	275.3	80.8	-66.9	14.2
2026-01-07 01:16:02.176885	268.6	80.5	-66.6	14.8
2026-01-07 01:16:04.413902	262.4	80.0	-66.9	14.7
2026-01-07 01:16:06.650910	256.9	79.4	-67.4	13.8
2026-01-07 01:16:08.885917	251.9	78.8	-67.3	14.2
2026-01-07 01:16:11.127926	247.5	78.1	-67.4	14.4
2026-01-07 01:16:13.361934	243.6	77.3	-67.5	14.1
2026-01-07 01:16:15.595948	240.3	76.5	-67.2	14.8
2026-01-07 01:16:17.832459	237.3	75.6	-67.4	15.1
2026-01-07 01:16:20.068475	234.6	74.8	-67.4	14.8
2026-01-07 01:16:22.301979	232.3	73.9	-67.4	15.1
2026-01-07 01:16:24.537491	230.2	72.9	-67.6	15.4
2026-01-07 01:16:26.774507	228.4	72.0	-67.8	14.8
2026-01-07 01:16:29.010515	226.8	71.1	-67.9	14.8
2026-01-07 01:16:31.244027	225.3	70.1	-68.0	15.4
2026-01-07 01:16:33.478035	223.9	69.2	-67.8	15.5
2026-01-07 01:16:35.712538	222.7	68.2	-67.8	16.0
2026-01-07 01:16:37.947041	221.6	67.3	-67.0	14.8
2026-01-07 01:16:40.181553	220.6	66.3	-67.5	15.6
2026-01-07 01:16:42.413560	219.7	65.4	-68.0	14.7
2026-01-07 01:16:44.645567	218.8	64.5	-68.2	14.3
2026-01-07 01:16:46.878070	218.0	63.6	-68.3	14.3
2026-01-07 01:16:49.112581	217.3	62.6	-68.4	14.0
2026-01-07 01:16:51.344597	216.6	61.7	-68.2	13.9
2026-01-07 01:16:53.575115	216.0	60.8	-68.7	13.0
2026-01-07 01:16:55.806137	215.4	60.0	-68.3	13.5
2026-01-07 01:16:58.039649	214.9	59.1	-68.4	12.6
2026-01-07 01:17:00.272655	214.4	58.2	-68.5	12.1
2026-01-07 01:17:02.511680	213.9	57.4	-68.6	11.7
2026-01-07 01:17:04.756214	213.5	56.5	-68.4	11.5
2026-01-07 01:17:06.999758	213.1	55.7	-68.8	11.9
2026-01-07 01:17:09.243767	212.7	54.8	-68.4	9.9
2026-01-07 01:17:11.487777	212.3	54.0	-68.6	10.4
2026-01-07 01:17:13.731787	211.9	53.2	-68.2	11.0
2026-01-07 01:17:15.976301	211.6	52.4	-67.6	10.6
2026-01-07 01:17:18.219319	211.3	51.6	-68.4	11.4
2026-01-07 01:17:20.459328	211.0	50.9	-68.2	11.0
2026-01-07 01:17:22.698345	210.7	50.1	-68.0	11.2
2026-01-07 01:17:24.933857	210.4	49.4	-67.4	9.1
2026-01-07 01:17:27.167360	210.2	48.6	-67.4	10.9
2026-01-07 01:17:29.401871	209.9	47.9	-67.7	11.5
2026-01-07 01:17:31.638375	209.7	47.2	-67.1	10.5
2026-01-07 01:17:33.874383	209.5	46.5	-66.4	11.5
2026-01-07 01:17:36.109895	209.3	45.8	-66.9	11.1
2026-01-07 01:17:38.344406	209.1	45.1	-67.0	11.6
2026-01-07 01:17:40.576909	208.9	44.5	-67.0	12.7
2026-01-07 01:17:42.810916	208.7	43.8	-66.7	12.3
2026-01-07 01:17:45.043932	208.5	43.2	-67.0	12.9
2026-01-07 01:17:47.276451	208.3	42.5	-67.2	13.0
2026-01-07 01:17:49.512459	208.2	41.9	-67.2	12.4
2026-01-07 01:17:51.747476	208.0	41.3	-67.0	11.8
2026-01-07 01:17:53.981483	207.9	40.7	-66.1	11.8
2026-01-07 01:17:56.212986	207.7	40.1	-66.4	12.8
2026-01-07 01:17:58.446000	207.6	39.5	-66.5	13.4
2026-01-07 01:18:00.681007	207.4	39.0	-66.4	13.4
2026-01-07 01:18:02.914527	207.3	38.4	-65.4	11.2
2026-01-07 01:18:05.147535	207.2	37.8	-65.6	12.7
2026-01-07 01:18:07.380046	207.1	37.3	-66.1	13.3
2026-01-07 01:18:09.615566	207.0	36.7	-65.2	12.2
2026-01-07 01:18:11.852069	206.8	36.2	-65.5	12.1
2026-01-07 01:18:14.085580	206.7	35.7	-65.3	12.3
2026-01-07 01:18:16.318588	206.6	35.2	-65.5	13.3
2026-01-07 01:18:18.555603	206.5	34.7	-65.6	13.4
2026-01-07 01:18:20.787609	206.4	34.2	-65.2	13.4
2026-01-07 01:18:23.019112	206.3	33.7	-62.3	11.6
2026-01-07 01:18:25.255616	206.2	33.2	-65.1	12.7
2026-01-07 01:18:27.499638	206.1	32.7	-65.7	12.4
2026-01-07 01:18:29.745674	206.1	32.3	-64.9	12.8
2026-01-07 01:18:31.989188	206.0	31.8	-65.4	10.5
2026-01-07 01:18:34.231710	205.9	31.3	-64.9	12.8
2026-01-07 01:18:36.474719	205.8	30.9	-65.6	12.2
2026-01-07 01:18:38.718729	205.7	30.5	-64.0	8.3
2026-01-07 01:18:40.960738	205.7	30.0	-64.1	9.0
2026-01-07 01:18:43.193257	205.6	29.6	-64.5	11.0
2026-01-07 01:18:45.427775	205.5	29.2	-65.1	10.7
2026-01-07 01:18:47.659781	205.4	28.8	-64.5	10.5
2026-01-07 01:18:49.891788	205.4	28.4	-65.1	11.7
2026-01-07 01:18:52.126796	205.3	28.0	-66.2	13.0
2026-01-07 01:18:54.363300	205.2	27.6	-65.8	12.6
2026-01-07 01:18:56.597817	205.2	27.2	-65.0	12.5
2026-01-07 01:18:58.831824	205.1	26.8	-65.3	13.1
2026-01-07 01:19:01.067335	205.1	26.4	-65.9	12.8
2026-01-07 01:19:03.299846	205.0	26.0	-66.4	13.3
2026-01-07 01:19:05.539855	205.0	25.7	-65.5	11.5
2026-01-07 01:19:07.772871	204.9	25.3	-66.2	14.1
2026-01-07 01:19:10.007374	204.8	24.9	-65.7	14.3
2026-01-07 01:19:12.243390	204.8	24.6	-65.5	14.0
2026-01-07 01:19:14.475397	204.7	24.2	-65.8	12.9
2026-01-07 01:19:16.710405	204.7	23.9	-66.1	14.4
2026-01-07 01:19:18.944916	204.6	23.5	-66.1	13.0
2026-01-07 01:19:21.179924	204.6	23.2	-63.1	8.3
2026-01-07 01:19:23.414941	204.6	22.9	-65.0	8.1
2026-01-07 01:19:25.648956	204.5	22.5	-66.0	13.3
2026-01-07 01:19:27.883476	204.5	22.2	-66.5	13.6
2026-01-07 01:19:30.117979	204.4	21.9	-66.3	13.8
2026-01-07 01:19:32.351491	204.4	21.6	-66.2	13.1
2026-01-07 01:19:34.583994	204.3	21.3	-66.1	12.9
2026-01-07 01:19:36.821497	204.3	21.0	-65.7	11.5
2026-01-07 01:19:39.056001	204.3	20.7	-65.9	13.7
2026-01-07 01:19:41.293505	204.2	20.4	-63.3	10.2
2026-01-07 01:19:43.532009	204.2	20.1	-64.1	8.4
2026-01-07 01:19:45.777019	204.2	19.8	-63.0	6.6
2026-01-07 01:19:48.021030	204.1	19.5	-65.8	12.1
2026-01-07 01:19:50.264544	204.1	19.2	-65.8	9.7
2026-01-07 01:19:52.508058	204.1	18.9	-66.7	12.5
2026-01-07 01:19:54.754571	204.0	18.6	-65.9	11.7
2026-01-07 01:19:56.996590	204.0	18.3	-65.6	11.3
2026-01-07 01:19:59.234102	204.0	18.1	-65.0	7.3
2026-01-07 01:20:01.478120	203.9	17.8	-64.7	9.7
2026-01-07 01:20:03.722626	203.9	17.5	-65.5	9.7
2026-01-07 01:20:05.965139	203.9	17.3	-64.0	4.9
2026-01-07 01:20:08.201659	203.8	17.0	-66.0	12.9
2026-01-07 01:20:10.440180	203.8	16.7	-65.3	11.1
2026-01-07 01:20:12.681702	203.8	16.5	-65.4	11.4
2026-01-07 01:20:14.921727	203.8	16.2	-65.6	11.5
2026-01-07 01:20:17.159247	203.7	16.0	-62.9	4.3
2026-01-07 01:20:19.398759	203.7	15.7	-64.5	5.1
2026-01-07 01:20:21.634766	203.7	15.5	-65.4	12.0
2026-01-07 01:20:23.868277	203.6	15.2	-65.3	10.7
2026-01-07 01:20:26.103781	203.6	15.0	-66.2	10.5
2026-01-07 01:20:28.337795	203.6	14.7	-65.2	10.6
2026-01-07 01:20:30.573308	203.6	14.5	-66.5	11.9
2026-01-07 01:20:32.812323	203.6	14.3	-65.9	11.2
2026-01-07 01:20:35.047330	203.5	14.0	-63.4	9.4
2026-01-07 01:20:37.280345	203.5	13.8	-64.3	10.3
2026-01-07 01:20:39.520354	203.5	13.6	-63.7	7.0
2026-01-07 01:20:41.753864	203.5	13.4	-65.5	10.5
2026-01-07 01:20:43.988872	203.4	13.1	-64.8	5.9
2026-01-07 01:20:46.222881	203.4	12.9	-65.6	9.7
2026-01-07 01:20:48.461404	203.4	12.7	-61.7	4.3
2026-01-07 01:20:50.693411	203.4	12.5	-64.6	4.5
2026-01-07 01:20:52.928914	203.4	12.3	-66.0	10.4
2026-01-07 01:20:55.162930	203.3	12.0	-65.7	8.7
2026-01-07 01:20:57.395944	203.3	11.8	-65.4	8.0
2026-01-07 01:20:59.630464	203.3	11.6	-66.1	8.1
2026-01-07 01:21:01.863472	203.3	11.4	-64.8	7.1
2026-01-07 01:21:04.097985	203.3	11.2	-66.0	9.6
2026-01-07 01:21:06.332513	203.3	11.0	-65.3	9.5
2026-01-07 01:21:08.576531	203.2	10.8	-65.3	9.7
2026-01-07 01:21:10.820037	203.2	10.6	-65.1	9.8
2026-01-07 01:21:13.064542	203.2	10.4	-63.0	6.3
2026-01-07 01:21:15.307558	203.2	10.2	-65.2	7.8
2026-01-07 01:21:17.551568	203.2	10.0	-64.0	5.6
2026-01-07 01:21:19.795082	203.2	9.8	-63.1	6.2
2026-01-07 01:21:22.033586	203.1	9.6	-64.7	7.8
2026-01-07 01:21:24.269602	203.1	9.4	-65.7	2.0
2026-01-07 01:21:26.503112	203.1	9.2	-64.4	3.5
2026-01-07 01:21:28.736615	203.1	9.0	-66.0	6.4
2026-01-07 01:21:30.970118	203.1	8.9	-65.8	7.6
2026-01-07 01:21:33.204142	203.1	8.7	-65.8	8.7
2026-01-07 01:21:35.434661	203.1	8.5	-64.4	5.8
2026-01-07 01:21:37.665172	203.0	8.3	-63.1	4.3
2026-01-07 01:21:39.896683	203.0	8.1	-62.0	0.0
2026-01-07 01:21:42.129187	203.0	7.9	-62.4	0.0
2026-01-07 01:21:44.363698	203.0	7.8	-65.4	5.7
2026-01-07 01:21:46.598714	203.0	7.6	-61.7	1.1
2026-01-07 01:21:48.836730	203.0	7.4	-65.2	5.5
2026-01-07 01:21:51.071241	203.0	7.2	-63.8	5.7
2026-01-07 01:21:53.305752	203.0	7.0	-62.8	0.0
2026-01-07 01:21:55.541264	202.9	6.9	-64.7	0.2
2026-01-07 01:21:57.777280	202.9	6.7	-63.9	6.0
2026-01-07 01:22:00.015289	202.9	6.5	-63.8	0.0
2026-01-07 01:22:02.247792	202.9	6.4	-65.3	6.0
2026-01-07 01:22:04.487808	202.9	6.2	-65.2	3.4
2026-01-07 01:22:06.720815	202.9	6.0	-64.2	4.4
2026-01-07 01:22:08.954838	202.9	5.9	-65.9	0.0
2026-01-07 01:22:11.187341	202.9	5.7	-70.5	0.0
2026-01-07 01:22:13.417356	202.9	5.5	-71.3	0.0
2026-01-07 01:22:15.654866	202.9	5.4	-72.6	0.0
2026-01-07 01:22:17.885874	202.8	5.2	-72.3	0.0
2026-01-07 01:22:20.118889	202.8	5.0	-72.1	0.0
#Closed at: 2026-01-07 01:09:21.994563