passes_logs/2026/01/07/PlanumMoscow/PlanumMoscow__20260107_182210_METEOR-M2_3_rec.log

#Pass ID: 20260107_182210_METEOR-M2 3
#Satellite: METEOR-M2 3
#Configuration: METEOR-M2 3
#Start time: 2026-01-07 18:22:15.974711

#LorettStation: 1.0.0 05.05.2024
#Station: PlanumMoscow
#Location: 37.6253844 lon 55.6713361 lat
#TLE: 1 57166U 23091A   25293.99389264  .00000062  00000+0  46113-4 0  9997
#TLE: 2 57166  98.6457 348.4330 0004759 135.3141 224.8422 14.24016546120475

#Time	Az	El	Level	SNR
2026-01-07 18:25:54.422898	196.8	27.7	-63.3	10.9
2026-01-07 18:25:56.667908	197.2	28.0	-63.1	9.9
2026-01-07 18:25:58.912413	197.5	28.4	-63.1	10.6
2026-01-07 18:26:01.156423	197.9	28.7	-63.1	11.0
2026-01-07 18:26:03.398945	198.3	29.1	-63.7	10.5
2026-01-07 18:26:05.642955	198.6	29.5	-64.1	11.3
2026-01-07 18:26:07.883467	199.0	29.8	-64.3	11.8
2026-01-07 18:26:10.119993	199.4	30.2	-64.8	12.2
2026-01-07 18:26:12.354515	199.8	30.6	-62.9	11.8
2026-01-07 18:26:14.593019	200.3	31.0	-60.5	9.8
2026-01-07 18:26:16.828035	200.7	31.3	-63.8	12.1
2026-01-07 18:26:19.063547	201.1	31.7	-64.3	11.6
2026-01-07 18:26:21.299050	201.6	32.1	-63.4	11.9
2026-01-07 18:26:23.534562	202.0	32.5	-61.8	7.3
2026-01-07 18:26:25.770570	202.5	32.9	-64.4	12.4
2026-01-07 18:26:28.006091	203.0	33.3	-63.1	11.8
2026-01-07 18:26:30.245613	203.5	33.7	-64.1	12.4
2026-01-07 18:26:32.480620	204.0	34.1	-63.9	10.8
2026-01-07 18:26:34.715132	204.5	34.5	-60.6	6.3
2026-01-07 18:26:36.950645	205.0	34.9	-59.9	3.1
2026-01-07 18:26:39.185149	205.6	35.4	-61.7	6.6
2026-01-07 18:26:41.415660	206.1	35.8	-63.1	11.4
2026-01-07 18:26:43.653676	206.7	36.2	-64.5	11.6
2026-01-07 18:26:45.888692	207.3	36.6	-63.9	10.8
2026-01-07 18:26:48.123709	207.9	37.0	-64.7	13.0
2026-01-07 18:26:50.355716	208.5	37.5	-62.8	10.8
2026-01-07 18:26:52.588228	209.2	37.9	-65.3	13.1
2026-01-07 18:26:54.821739	209.8	38.3	-64.0	8.7
2026-01-07 18:26:57.056251	210.5	38.8	-65.1	12.9
2026-01-07 18:26:59.286258	211.2	39.2	-64.8	12.0
2026-01-07 18:27:01.523274	211.9	39.6	-64.9	10.9
2026-01-07 18:27:03.757777	212.6	40.0	-65.1	10.7
2026-01-07 18:27:05.993785	213.3	40.5	-64.1	9.2
2026-01-07 18:27:08.227800	214.1	40.9	-64.9	11.6
2026-01-07 18:27:10.469827	214.9	41.3	-64.8	10.7
2026-01-07 18:27:12.713846	215.7	41.8	-64.2	11.0
2026-01-07 18:27:14.957358	216.5	42.2	-63.9	8.8
2026-01-07 18:27:17.200873	217.4	42.6	-64.4	11.4
2026-01-07 18:27:19.445378	218.2	43.1	-64.6	9.5
2026-01-07 18:27:21.688892	219.1	43.5	-63.3	7.4
2026-01-07 18:27:23.931910	220.0	43.9	-64.9	10.1
2026-01-07 18:27:26.176920	221.0	44.3	-63.4	6.7
2026-01-07 18:27:28.414424	222.0	44.7	-62.5	8.2
2026-01-07 18:27:30.654442	223.0	45.2	-65.5	9.0
2026-01-07 18:27:32.894459	224.0	45.6	-65.3	8.8
2026-01-07 18:27:35.127466	225.0	46.0	-65.6	9.2
2026-01-07 18:27:37.365980	226.1	46.3	-65.5	9.4
2026-01-07 18:27:39.603484	227.2	46.7	-65.2	8.8
2026-01-07 18:27:41.843493	228.3	47.1	-65.3	8.6
2026-01-07 18:27:44.079004	229.4	47.5	-62.9	5.5
2026-01-07 18:27:46.315508	230.6	47.8	-64.1	6.5
2026-01-07 18:27:48.555517	231.8	48.2	-64.4	6.1
2026-01-07 18:27:50.790541	233.0	48.5	-64.2	4.4
2026-01-07 18:27:53.026045	234.3	48.8	-64.2	6.6
2026-01-07 18:27:55.258052	235.6	49.1	-63.9	6.6
2026-01-07 18:27:57.495078	236.9	49.4	-63.1	3.9
2026-01-07 18:27:59.731086	238.2	49.7	-64.0	5.3
2026-01-07 18:28:01.965606	239.6	50.0	-65.5	8.1
2026-01-07 18:28:04.203118	240.9	50.2	-64.1	6.0
2026-01-07 18:28:06.441631	242.3	50.5	-63.8	5.9
2026-01-07 18:28:08.680640	243.8	50.7	-65.5	7.1
2026-01-07 18:28:10.918648	245.2	50.9	-64.8	7.5
2026-01-07 18:28:13.156161	246.6	51.1	-64.7	3.6
2026-01-07 18:28:15.395691	248.1	51.3	-64.4	5.8
2026-01-07 18:28:17.631212	249.6	51.4	-65.2	7.8
2026-01-07 18:28:19.870228	251.1	51.5	-64.6	5.9
2026-01-07 18:28:22.105740	252.6	51.7	-64.2	5.4
2026-01-07 18:28:24.344261	254.2	51.7	-64.2	5.3
2026-01-07 18:28:26.587287	255.7	51.8	-65.1	6.3
2026-01-07 18:28:28.830801	257.2	51.9	-65.4	6.6
2026-01-07 18:28:31.074811	258.8	51.9	-65.9	6.3
2026-01-07 18:28:33.319325	260.3	51.9	-65.1	8.2
2026-01-07 18:28:35.563335	261.9	51.9	-65.6	6.9
2026-01-07 18:28:37.806354	263.4	51.8	-66.3	7.1
2026-01-07 18:28:40.049859	265.0	51.8	-66.7	7.5
2026-01-07 18:28:42.290868	266.5	51.7	-66.8	7.8
2026-01-07 18:28:44.533887	268.0	51.6	-67.1	8.0
2026-01-07 18:28:46.767903	269.5	51.5	-66.7	8.1
2026-01-07 18:28:49.005912	271.0	51.3	-65.9	8.8
2026-01-07 18:28:51.242928	272.5	51.2	-65.6	8.6
2026-01-07 18:28:53.480440	274.0	51.0	-66.6	10.5
2026-01-07 18:28:55.714943	275.4	50.8	-67.2	9.9
2026-01-07 18:28:57.947960	276.8	50.6	-66.0	9.2
2026-01-07 18:29:00.180471	278.2	50.3	-66.1	9.7
2026-01-07 18:29:02.417975	279.6	50.1	-66.5	10.8
2026-01-07 18:29:04.654496	281.0	49.8	-66.8	9.1
2026-01-07 18:29:06.892017	282.3	49.5	-66.8	10.7
2026-01-07 18:29:09.126529	283.6	49.2	-66.6	10.4
2026-01-07 18:29:11.362545	284.9	48.9	-66.4	10.4
2026-01-07 18:29:13.595564	286.2	48.6	-65.9	10.2
2026-01-07 18:29:15.835065	287.4	48.3	-66.4	9.2
2026-01-07 18:29:18.070577	288.6	47.9	-65.5	6.9
2026-01-07 18:29:20.302583	289.8	47.6	-65.7	9.0
2026-01-07 18:29:22.541600	290.9	47.2	-65.0	8.2
2026-01-07 18:29:24.781105	292.0	46.9	-65.4	9.3
2026-01-07 18:29:27.017617	293.1	46.5	-66.4	9.7
2026-01-07 18:29:29.254624	294.2	46.1	-65.7	8.9
2026-01-07 18:29:31.488632	295.3	45.7	-65.3	9.2
2026-01-07 18:29:33.721655	296.3	45.3	-65.0	7.1
2026-01-07 18:29:35.957158	297.3	44.9	-64.6	9.0
2026-01-07 18:29:38.194166	298.3	44.5	-64.9	9.2
2026-01-07 18:29:40.432679	299.2	44.1	-65.8	9.2
2026-01-07 18:29:42.675698	300.1	43.7	-65.6	8.1
2026-01-07 18:29:44.919707	301.0	43.2	-65.9	9.2
2026-01-07 18:29:47.163221	301.9	42.8	-64.6	4.9
2026-01-07 18:29:49.407232	302.8	42.4	-65.6	9.1
2026-01-07 18:29:51.651242	303.6	42.0	-65.7	8.7
2026-01-07 18:29:53.896260	304.4	41.5	-66.4	8.0
2026-01-07 18:29:56.140270	305.2	41.1	-66.2	9.2
2026-01-07 18:29:58.379278	306.0	40.7	-65.8	8.8
2026-01-07 18:30:00.617295	306.7	40.2	-64.8	8.8
2026-01-07 18:30:02.857808	307.4	39.8	-65.5	9.9
2026-01-07 18:30:05.096331	308.1	39.4	-64.3	7.2
2026-01-07 18:30:07.330346	308.8	38.9	-64.0	9.1
2026-01-07 18:30:09.547662	309.5	38.5	-65.6	10.3
2026-01-07 18:30:11.785166	310.2	38.1	-64.4	8.7
2026-01-07 18:30:14.025182	310.8	37.7	-65.3	10.3
2026-01-07 18:30:16.263710	311.4	37.2	-65.1	9.6
2026-01-07 18:30:18.499727	312.0	36.8	-65.4	9.3
2026-01-07 18:30:20.737735	312.6	36.4	-63.3	8.2
2026-01-07 18:30:22.975743	313.2	36.0	-65.8	11.4
2026-01-07 18:30:25.211759	313.8	35.6	-65.2	11.1
2026-01-07 18:30:27.446278	314.3	35.2	-65.1	9.9
2026-01-07 18:30:29.687792	314.8	34.7	-65.2	11.1
2026-01-07 18:30:31.927313	315.4	34.3	-65.6	10.4
2026-01-07 18:30:34.166826	315.9	33.9	-63.9	9.3
2026-01-07 18:30:36.405834	316.4	33.5	-65.5	10.2
2026-01-07 18:30:38.640346	316.9	33.1	-65.3	9.8
2026-01-07 18:30:40.875858	317.3	32.7	-65.8	10.9
2026-01-07 18:30:43.112883	317.8	32.3	-66.1	11.0
2026-01-07 18:30:45.348891	318.2	32.0	-65.5	11.0
2026-01-07 18:30:47.584404	318.7	31.6	-65.2	10.7
2026-01-07 18:30:49.821916	319.1	31.2	-65.8	11.1
2026-01-07 18:30:52.057419	319.5	30.8	-66.5	11.8
2026-01-07 18:30:54.290922	319.9	30.4	-66.5	11.6
2026-01-07 18:30:56.528930	320.4	30.1	-65.8	11.4
2026-01-07 18:30:58.762442	320.7	29.7	-65.4	11.2
2026-01-07 18:31:01.003467	321.1	29.3	-66.0	10.9
2026-01-07 18:31:03.247981	321.5	29.0	-65.8	11.6
2026-01-07 18:31:05.491991	321.9	28.6	-66.0	11.7
2026-01-07 18:31:07.736000	322.2	28.3	-65.5	11.0
2026-01-07 18:31:09.978524	322.6	27.9	-64.7	9.7
2026-01-07 18:31:12.221545	322.9	27.6	-66.7	12.7
2026-01-07 18:31:14.464571	323.3	27.2	-65.9	11.4
2026-01-07 18:31:16.708085	323.6	26.9	-65.6	11.1
2026-01-07 18:31:18.947598	323.9	26.5	-65.6	11.4
2026-01-07 18:31:21.186111	324.3	26.2	-63.5	6.4
2026-01-07 18:31:23.418613	324.6	25.9	-65.3	10.7
2026-01-07 18:31:25.654117	324.9	25.5	-66.3	11.6
2026-01-07 18:31:27.894125	325.2	25.2	-66.4	11.2
2026-01-07 18:31:30.127133	325.5	24.9	-65.5	9.5
2026-01-07 18:31:32.359636	325.7	24.6	-65.4	9.7
2026-01-07 18:31:34.595653	326.0	24.2	-64.7	7.6
2026-01-07 18:31:36.830661	326.3	23.9	-65.1	9.1
2026-01-07 18:31:39.065685	326.6	23.6	-66.0	9.5
2026-01-07 18:31:41.298188	326.8	23.3	-65.0	10.3
2026-01-07 18:31:43.533196	327.1	23.0	-65.4	9.1
2026-01-07 18:31:45.768720	327.4	22.7	-65.7	10.2
2026-01-07 18:31:48.002240	327.6	22.4	-65.5	6.9
2026-01-07 18:31:50.233743	327.9	22.1	-64.7	7.6
2026-01-07 18:31:52.466750	328.1	21.8	-66.5	10.6
2026-01-07 18:31:54.703767	328.3	21.5	-65.7	9.3
2026-01-07 18:31:56.936774	328.6	21.3	-65.2	7.8
2026-01-07 18:31:59.174286	328.8	21.0	-65.5	8.0
2026-01-07 18:32:01.404293	329.0	20.7	-67.1	9.4
2026-01-07 18:32:03.640796	329.2	20.4	-65.4	8.2
2026-01-07 18:32:05.878300	329.5	20.2	-67.2	10.6
2026-01-07 18:32:08.113308	329.7	19.9	-66.2	9.6
2026-01-07 18:32:10.347820	329.9	19.6	-65.6	8.7
2026-01-07 18:32:12.584323	330.1	19.3	-66.0	9.1
2026-01-07 18:32:14.821836	330.3	19.1	-65.7	9.2
2026-01-07 18:32:17.065350	330.5	18.8	-66.1	10.1
2026-01-07 18:32:19.301863	330.7	18.6	-65.6	9.3
2026-01-07 18:32:21.541880	330.9	18.3	-66.1	8.6
2026-01-07 18:32:23.780897	331.1	18.0	-66.6	10.3
2026-01-07 18:32:26.018914	331.3	17.8	-64.8	6.3
2026-01-07 18:32:28.262428	331.5	17.5	-65.3	7.7
2026-01-07 18:32:30.504950	331.6	17.3	-66.0	8.6
2026-01-07 18:32:32.748464	331.8	17.0	-66.2	9.9
2026-01-07 18:32:34.991978	332.0	16.8	-66.2	9.2
2026-01-07 18:32:37.235996	332.2	16.6	-66.6	10.2
2026-01-07 18:32:39.480501	332.3	16.3	-66.9	10.2
2026-01-07 18:32:41.724511	332.5	16.1	-66.3	9.2
2026-01-07 18:32:43.963023	332.7	15.9	-66.0	8.9
2026-01-07 18:32:46.200039	332.8	15.6	-66.1	9.0
2026-01-07 18:32:48.439552	333.0	15.4	-65.8	9.1
2026-01-07 18:32:50.676064	333.2	15.2	-66.4	9.1
2026-01-07 18:32:52.916089	333.3	14.9	-66.4	9.6
2026-01-07 18:32:55.150600	333.5	14.7	-66.4	8.8
2026-01-07 18:32:57.384615	333.6	14.5	-66.7	8.7
2026-01-07 18:32:59.621127	333.8	14.3	-65.7	8.5
2026-01-07 18:33:01.860145	333.9	14.0	-65.6	7.4
2026-01-07 18:33:04.093665	334.1	13.8	-66.1	9.3
2026-01-07 18:33:06.327672	334.2	13.6	-65.5	6.5
2026-01-07 18:33:08.562176	334.4	13.4	-64.9	6.9
2026-01-07 18:33:10.795191	334.5	13.2	-64.6	6.6
2026-01-07 18:33:13.029694	334.6	13.0	-65.0	6.6
2026-01-07 18:33:15.266215	334.8	12.8	-66.2	9.1
2026-01-07 18:33:17.504719	334.9	12.6	-66.0	8.6
2026-01-07 18:33:19.743744	335.0	12.4	-65.8	7.5
2026-01-07 18:33:21.979752	335.2	12.2	-66.0	8.1
2026-01-07 18:33:24.213255	335.3	12.0	-65.8	7.3
2026-01-07 18:33:26.450280	335.4	11.8	-65.6	5.9
2026-01-07 18:33:28.692801	335.6	11.6	-65.8	6.2
2026-01-07 18:33:30.932314	335.7	11.4	-66.3	8.0
2026-01-07 18:33:33.169827	335.8	11.2	-65.1	6.6
2026-01-07 18:33:35.403330	335.9	11.0	-64.9	4.6
2026-01-07 18:33:37.638354	336.0	10.8	-64.5	3.4
2026-01-07 18:33:39.877867	336.2	10.6	-64.6	7.0
2026-01-07 18:33:42.120380	336.3	10.4	-65.9	6.8
2026-01-07 18:33:44.363894	336.4	10.2	-64.8	6.1
2026-01-07 18:33:46.609923	336.5	10.0	-65.0	4.8
2026-01-07 18:33:48.853932	336.6	9.8	-65.4	4.7
2026-01-07 18:33:51.098438	336.7	9.6	-65.3	5.2
2026-01-07 18:33:53.342456	336.8	9.5	-65.3	5.6
2026-01-07 18:33:55.584986	337.0	9.3	-65.3	4.9
2026-01-07 18:33:57.826508	337.1	9.1	-65.8	4.2
2026-01-07 18:34:00.066038	337.2	8.9	-65.0	3.7
2026-01-07 18:34:02.306063	337.3	8.7	-65.4	5.0
2026-01-07 18:34:04.545072	337.4	8.6	-64.3	5.0
2026-01-07 18:34:06.783585	337.5	8.4	-65.1	6.4
2026-01-07 18:34:09.019096	337.6	8.2	-65.4	5.9
2026-01-07 18:34:11.258112	337.7	8.0	-64.4	6.3
2026-01-07 18:34:13.494120	337.8	7.9	-64.8	2.6
2026-01-07 18:34:15.730137	337.9	7.7	-64.0	4.3
2026-01-07 18:34:17.968657	338.0	7.5	-64.5	4.2
2026-01-07 18:34:20.204169	338.1	7.4	-64.6	4.6
2026-01-07 18:34:22.439177	338.2	7.2	-64.3	5.0
2026-01-07 18:34:24.681682	338.3	7.0	-65.4	4.8
2026-01-07 18:34:26.920208	338.4	6.9	-64.1	5.6
2026-01-07 18:34:29.156716	338.5	6.7	-63.3	2.3
2026-01-07 18:34:31.392732	338.6	6.5	-65.2	5.1
2026-01-07 18:34:33.626747	338.6	6.4	-64.8	2.9
2026-01-07 18:34:35.865756	338.7	6.2	-63.3	2.0
2026-01-07 18:34:38.103773	338.8	6.0	-65.8	7.6
2026-01-07 18:34:40.338276	338.9	5.9	-68.0	0.0
2026-01-07 18:34:42.571292	339.0	5.7	-67.5	0.0
2026-01-07 18:34:44.803804	339.1	5.6	-69.4	0.0
2026-01-07 18:34:47.037324	339.2	5.4	-69.9	0.0
2026-01-07 18:34:49.272835	339.3	5.2	-70.7	0.0
2026-01-07 18:34:51.504842	339.3	5.1	-71.1	0.0
#Closed at: 2026-01-07 18:22:10.975868