passes_logs/2026/01/07/PlanumMoscow/PlanumMoscow__20260107_074230_METOP-C_rec.log

#Pass ID: 20260107_074230_METOP-C
#Satellite: METOP-C
#Configuration: METOP-C
#Start time: 2026-01-07 07:42:35.147952

#LorettStation: 1.0.0 05.05.2024
#Station: PlanumMoscow
#Location: 37.6253844 lon 55.6713361 lat
#TLE: 1 43689U 18087A   25293.88981035  .00000265  00000+0  14109-3 0  9997
#TLE: 2 43689  98.7006 352.4487 0002041 122.1097 238.0279 14.21482740360838

#Time	Az	El	Level	SNR
2026-01-07 07:46:13.582556	18.9	29.3	-62.4	0.0
2026-01-07 07:46:15.826155	19.0	29.7	-62.3	0.0
2026-01-07 07:46:18.069174	19.0	30.2	-63.6	0.0
2026-01-07 07:46:20.312191	19.0	30.6	-61.1	0.0
2026-01-07 07:46:22.556219	19.1	31.1	-63.9	0.0
2026-01-07 07:46:24.791236	19.1	31.5	-63.6	0.2
2026-01-07 07:46:27.029740	19.2	32.0	-61.4	0.0
2026-01-07 07:46:29.260251	19.2	32.4	-60.7	0.0
2026-01-07 07:46:31.498764	19.3	32.9	-61.6	0.0
2026-01-07 07:46:33.731780	19.3	33.4	-61.9	0.0
2026-01-07 07:46:35.964796	19.4	33.8	-61.8	0.0
2026-01-07 07:46:38.203804	19.4	34.3	-62.0	0.0
2026-01-07 07:46:40.435315	19.5	34.8	-61.5	0.0
2026-01-07 07:46:42.665826	19.6	35.3	-63.8	0.0
2026-01-07 07:46:44.897328	19.6	35.8	-63.1	0.0
2026-01-07 07:46:47.127848	19.7	36.4	-62.2	0.0
2026-01-07 07:46:49.362367	19.7	36.9	-61.0	0.0
2026-01-07 07:46:51.593870	19.8	37.4	-59.7	0.0
2026-01-07 07:46:53.825372	19.9	38.0	-62.3	0.0
2026-01-07 07:46:56.054379	19.9	38.5	-62.7	0.0
2026-01-07 07:46:58.281889	20.0	39.1	-62.1	0.0
2026-01-07 07:47:00.513896	20.1	39.7	-62.5	0.0
2026-01-07 07:47:02.748920	20.1	40.3	-62.6	0.0
2026-01-07 07:47:04.979439	20.2	40.9	-61.1	0.0
2026-01-07 07:47:07.211456	20.3	41.5	-62.8	0.0
2026-01-07 07:47:09.443958	20.4	42.1	-63.0	0.0
2026-01-07 07:47:11.682471	20.5	42.7	-62.7	0.0
2026-01-07 07:47:13.913478	20.5	43.3	-61.0	0.0
2026-01-07 07:47:16.145494	20.6	44.0	-61.8	0.0
2026-01-07 07:47:18.376006	20.7	44.7	-63.7	0.0
2026-01-07 07:47:20.609022	20.8	45.3	-59.3	0.0
2026-01-07 07:47:22.842542	20.9	46.0	-61.6	0.0
2026-01-07 07:47:25.084047	21.0	46.7	-61.0	0.0
2026-01-07 07:47:27.327561	21.1	47.4	-62.6	0.0
2026-01-07 07:47:29.570579	21.2	48.1	-62.7	0.0
2026-01-07 07:47:31.818611	21.4	48.9	-60.5	0.0
2026-01-07 07:47:34.062122	21.5	49.6	-62.9	0.0
2026-01-07 07:47:36.306131	21.6	50.4	-63.5	0.0
2026-01-07 07:47:38.555142	21.8	51.1	-65.4	0.0
2026-01-07 07:47:40.790159	21.9	51.9	-63.9	0.0
2026-01-07 07:47:43.020165	22.1	52.7	-63.6	0.0
2026-01-07 07:47:45.250676	22.2	53.5	-63.9	0.0
2026-01-07 07:47:47.486684	22.4	54.3	-63.2	0.0
2026-01-07 07:47:49.717194	22.6	55.2	-63.0	0.0
2026-01-07 07:47:51.946715	22.7	56.0	-64.2	0.0
2026-01-07 07:47:54.177217	22.9	56.9	-64.1	0.0
2026-01-07 07:47:56.407719	23.2	57.7	-64.9	0.0
2026-01-07 07:47:58.639735	23.4	58.6	-66.9	0.0
2026-01-07 07:48:00.871246	23.6	59.5	-67.4	0.0
2026-01-07 07:48:03.103253	23.9	60.4	-66.3	0.0
2026-01-07 07:48:05.334260	24.1	61.3	-66.9	0.0
2026-01-07 07:48:07.565771	24.4	62.3	-66.3	0.0
2026-01-07 07:48:09.796777	24.8	63.2	-66.6	0.0
2026-01-07 07:48:12.029793	25.1	64.2	-68.1	0.0
2026-01-07 07:48:14.260295	25.5	65.1	-68.6	0.0
2026-01-07 07:48:16.489309	25.9	66.1	-68.8	0.0
2026-01-07 07:48:18.720317	26.3	67.1	-67.8	0.0
2026-01-07 07:48:20.950829	26.8	68.1	-67.8	0.0
2026-01-07 07:48:23.189333	27.4	69.1	-68.1	0.0
2026-01-07 07:48:25.419844	28.0	70.2	-69.8	0.0
2026-01-07 07:48:27.650355	28.6	71.2	-69.8	0.0
2026-01-07 07:48:29.880361	29.4	72.2	-69.7	0.0
2026-01-07 07:48:32.111368	30.2	73.3	-69.4	0.0
2026-01-07 07:48:34.345880	31.2	74.3	-69.6	0.0
2026-01-07 07:48:36.576896	32.3	75.4	-69.4	0.0
2026-01-07 07:48:38.809407	33.6	76.4	-68.8	0.0
2026-01-07 07:48:41.041414	35.1	77.5	-69.9	1.7
2026-01-07 07:48:43.272926	36.9	78.5	-69.9	1.0
2026-01-07 07:48:45.507947	39.0	79.6	-69.8	0.2
2026-01-07 07:48:47.739963	41.7	80.6	-69.7	2.7
2026-01-07 07:48:49.968465	45.0	81.6	-70.1	0.0
2026-01-07 07:48:52.197968	49.2	82.6	-69.5	0.8
2026-01-07 07:48:54.428491	54.8	83.6	-69.9	0.0
2026-01-07 07:48:56.672004	62.1	84.4	-69.7	0.0
2026-01-07 07:48:58.907012	71.9	85.2	-70.6	0.0
2026-01-07 07:49:01.137020	84.8	85.7	-70.5	0.5
2026-01-07 07:49:03.366522	100.4	86.0	-70.5	0.4
2026-01-07 07:49:05.598040	117.1	86.0	-70.5	2.8
2026-01-07 07:49:07.830047	132.2	85.6	-70.7	2.3
2026-01-07 07:49:10.058557	144.4	85.0	-70.5	1.9
2026-01-07 07:49:12.287564	153.6	84.3	-70.6	3.3
2026-01-07 07:49:14.518074	160.5	83.4	-70.6	3.9
2026-01-07 07:49:16.749081	165.7	82.4	-69.9	4.1
2026-01-07 07:49:18.978583	169.7	81.4	-70.3	3.5
2026-01-07 07:49:21.212598	172.9	80.4	-70.9	1.8
2026-01-07 07:49:23.450102	175.4	79.4	-71.6	0.0
2026-01-07 07:49:25.693616	177.5	78.3	-71.9	0.0
2026-01-07 07:49:27.936626	179.3	77.3	-72.0	0.0
2026-01-07 07:49:30.179635	180.7	76.2	-71.9	0.0
2026-01-07 07:49:32.423150	182.0	75.1	-71.6	0.0
2026-01-07 07:49:34.663655	183.1	74.1	-71.8	0.0
2026-01-07 07:49:36.895165	184.0	73.0	-71.7	0.0
2026-01-07 07:49:39.131678	184.8	72.0	-71.4	0.0
2026-01-07 07:49:41.363180	185.5	70.9	-71.2	0.0
2026-01-07 07:49:43.592691	186.2	69.9	-70.7	3.7
2026-01-07 07:49:45.825698	186.8	68.9	-70.2	4.3
2026-01-07 07:49:48.066716	187.3	67.9	-70.6	3.2
2026-01-07 07:49:50.296722	187.8	66.8	-70.8	3.9
2026-01-07 07:49:52.528233	188.2	65.9	-70.6	3.8
2026-01-07 07:49:54.759248	188.6	64.9	-70.7	2.2
2026-01-07 07:49:56.988750	189.0	63.9	-69.8	2.1
2026-01-07 07:49:59.218765	189.3	63.0	-70.7	3.1
2026-01-07 07:50:01.449277	189.6	62.0	-70.7	0.7
2026-01-07 07:50:03.678780	189.9	61.1	-69.7	0.7
2026-01-07 07:50:05.907290	190.2	60.2	-70.0	0.4
2026-01-07 07:50:08.140297	190.4	59.2	-70.5	0.7
2026-01-07 07:50:10.369312	190.7	58.4	-70.6	0.0
2026-01-07 07:50:12.603815	190.9	57.5	-69.7	0.7
2026-01-07 07:50:14.833822	191.1	56.6	-70.3	0.4
2026-01-07 07:50:17.066333	191.3	55.7	-69.8	0.3
2026-01-07 07:50:19.297340	191.5	54.9	-69.4	0.0
2026-01-07 07:50:21.529843	191.6	54.1	-70.1	0.0
2026-01-07 07:50:23.761857	191.8	53.3	-69.9	0.0
2026-01-07 07:50:25.994369	192.0	52.4	-70.3	0.0
2026-01-07 07:50:28.225375	192.1	51.7	-69.7	0.0
2026-01-07 07:50:30.454382	192.3	50.9	-69.3	0.0
2026-01-07 07:50:32.685389	192.4	50.1	-69.5	0.0
2026-01-07 07:50:34.917412	192.5	49.4	-69.8	0.0
2026-01-07 07:50:37.149419	192.6	48.6	-69.6	0.0
2026-01-07 07:50:39.387932	192.8	47.9	-70.0	0.0
2026-01-07 07:50:41.631445	192.9	47.2	-69.8	0.0
2026-01-07 07:50:43.876960	193.0	46.5	-69.3	0.0
2026-01-07 07:50:46.118969	193.1	45.8	-69.0	0.0
2026-01-07 07:50:48.361474	193.2	45.1	-69.8	0.0
2026-01-07 07:50:50.601987	193.3	44.4	-68.8	0.0
2026-01-07 07:50:52.843022	193.4	43.7	-68.7	0.0
2026-01-07 07:50:55.079047	193.5	43.1	-69.4	0.0
2026-01-07 07:50:57.314085	193.5	42.5	-68.1	0.0
2026-01-07 07:50:59.547597	193.6	41.8	-67.0	0.0
2026-01-07 07:51:01.780615	193.7	41.2	-67.7	0.0
2026-01-07 07:51:04.009135	193.8	40.6	-67.4	0.0
2026-01-07 07:51:06.239141	193.9	40.0	-66.9	0.0
2026-01-07 07:51:08.470660	193.9	39.4	-68.2	0.0
2026-01-07 07:51:10.701163	194.0	38.8	-66.3	0.0
2026-01-07 07:51:12.937675	194.1	38.3	-66.1	0.0
2026-01-07 07:51:15.167681	194.1	37.7	-68.6	0.0
2026-01-07 07:51:17.397688	194.2	37.2	-66.9	0.0
2026-01-07 07:51:19.631199	194.3	36.6	-66.4	0.0
2026-01-07 07:51:21.861206	194.3	36.1	-65.6	0.0
2026-01-07 07:51:24.095709	194.4	35.6	-67.1	0.0
2026-01-07 07:51:26.323723	194.4	35.1	-66.1	0.0
2026-01-07 07:51:28.551729	194.5	34.6	-66.6	0.8
2026-01-07 07:51:30.780746	194.5	34.1	-64.6	0.0
2026-01-07 07:51:33.009752	194.6	33.6	-66.2	0.2
2026-01-07 07:51:35.239767	194.6	33.1	-64.6	0.0
2026-01-07 07:51:37.475280	194.7	32.6	-66.8	0.8
2026-01-07 07:51:39.704791	194.7	32.2	-65.9	0.0
2026-01-07 07:51:41.933303	194.8	31.7	-65.2	0.0
2026-01-07 07:51:44.161309	194.8	31.2	-65.2	4.2
2026-01-07 07:51:46.394820	194.9	30.8	-65.0	0.0
2026-01-07 07:51:48.625826	194.9	30.4	-66.4	1.3
2026-01-07 07:51:50.856337	195.0	29.9	-66.4	6.2
2026-01-07 07:51:53.087344	195.0	29.5	-65.2	4.2
2026-01-07 07:51:55.317350	195.0	29.1	-64.7	6.4
2026-01-07 07:51:57.549366	195.1	28.7	-66.1	5.9
2026-01-07 07:51:59.791888	195.1	28.3	-65.0	5.4
2026-01-07 07:52:02.034409	195.2	27.9	-65.4	5.4
2026-01-07 07:52:04.277427	195.2	27.5	-64.7	5.6
2026-01-07 07:52:06.520951	195.2	27.1	-65.0	0.3
2026-01-07 07:52:08.765970	195.3	26.7	-64.2	3.0
2026-01-07 07:52:11.009979	195.3	26.3	-65.5	3.8
2026-01-07 07:52:13.252997	195.3	25.9	-65.4	7.0
2026-01-07 07:52:15.490027	195.4	25.6	-63.2	4.8
2026-01-07 07:52:17.725041	195.4	25.2	-65.3	6.6
2026-01-07 07:52:19.958563	195.4	24.8	-66.2	7.6
2026-01-07 07:52:22.189571	195.5	24.5	-65.5	6.6
2026-01-07 07:52:24.422092	195.5	24.1	-65.2	5.5
2026-01-07 07:52:26.653099	195.5	23.8	-65.1	7.5
2026-01-07 07:52:28.886106	195.6	23.4	-63.9	0.0
2026-01-07 07:52:31.116616	195.6	23.1	-64.6	7.4
2026-01-07 07:52:33.347119	195.6	22.8	-64.3	7.5
2026-01-07 07:52:35.579631	195.7	22.4	-62.9	2.3
2026-01-07 07:52:37.811646	195.7	22.1	-61.8	2.7
2026-01-07 07:52:40.044166	195.7	21.8	-64.7	8.5
2026-01-07 07:52:42.273179	195.7	21.5	-63.7	6.4
2026-01-07 07:52:44.502699	195.8	21.2	-60.1	2.0
2026-01-07 07:52:46.735202	195.8	20.9	-64.1	5.0
2026-01-07 07:52:48.967715	195.8	20.6	-63.9	3.4
2026-01-07 07:52:51.198739	195.9	20.3	-64.1	6.9
2026-01-07 07:52:53.429746	195.9	20.0	-63.6	7.3
2026-01-07 07:52:55.661248	195.9	19.7	-63.1	8.6
2026-01-07 07:52:57.892760	195.9	19.4	-64.7	5.7
2026-01-07 07:53:00.123776	196.0	19.1	-64.8	0.0
2026-01-07 07:53:02.357297	196.0	18.8	-64.8	7.6
2026-01-07 07:53:04.586799	196.0	18.5	-64.4	6.6
2026-01-07 07:53:06.818310	196.0	18.3	-64.2	6.4
2026-01-07 07:53:09.049813	196.1	18.0	-65.1	8.8
2026-01-07 07:53:11.280819	196.1	17.7	-64.3	6.2
2026-01-07 07:53:13.510835	196.1	17.5	-64.2	4.0
2026-01-07 07:53:15.742842	196.1	17.2	-63.8	6.1
2026-01-07 07:53:17.974849	196.1	16.9	-61.3	2.7
2026-01-07 07:53:20.206856	196.2	16.7	-60.4	0.0
2026-01-07 07:53:22.436367	196.2	16.4	-61.7	0.7
2026-01-07 07:53:24.673880	196.2	16.2	-62.3	0.0
2026-01-07 07:53:26.904887	196.2	15.9	-64.4	8.2
2026-01-07 07:53:29.138902	196.2	15.7	-62.8	3.8
2026-01-07 07:53:31.382416	196.3	15.4	-61.8	2.3
2026-01-07 07:53:33.625442	196.3	15.2	-63.9	1.7
2026-01-07 07:53:35.869958	196.3	14.9	-65.0	7.2
2026-01-07 07:53:38.112480	196.3	14.7	-64.7	6.5
2026-01-07 07:53:40.355489	196.4	14.5	-64.2	6.7
2026-01-07 07:53:42.598499	196.4	14.2	-63.0	1.5
2026-01-07 07:53:44.842519	196.4	14.0	-63.4	3.2
2026-01-07 07:53:47.075526	196.4	13.8	-63.2	5.6
2026-01-07 07:53:49.310038	196.4	13.5	-64.7	5.4
2026-01-07 07:53:51.541541	196.4	13.3	-64.3	5.4
2026-01-07 07:53:53.772557	196.5	13.1	-65.0	5.8
2026-01-07 07:53:56.005060	196.5	12.9	-64.4	6.3
2026-01-07 07:53:58.236562	196.5	12.6	-64.3	7.4
2026-01-07 07:54:00.469577	196.5	12.4	-64.0	5.0
2026-01-07 07:54:02.703088	196.5	12.2	-63.4	5.4
2026-01-07 07:54:04.934591	196.6	12.0	-63.3	4.4
2026-01-07 07:54:07.167094	196.6	11.8	-63.0	1.9
2026-01-07 07:54:09.397596	196.6	11.6	-64.3	4.5
2026-01-07 07:54:11.630603	196.6	11.4	-61.4	0.4
2026-01-07 07:54:13.862618	196.6	11.2	-64.9	3.6
2026-01-07 07:54:16.094642	196.6	11.0	-61.1	0.0
2026-01-07 07:54:18.326658	196.7	10.8	-62.9	0.0
2026-01-07 07:54:20.559170	196.7	10.6	-63.4	2.0
2026-01-07 07:54:22.791681	196.7	10.4	-63.1	0.0
2026-01-07 07:54:25.023192	196.7	10.2	-63.9	4.4
2026-01-07 07:54:27.254199	196.7	10.0	-59.0	0.0
2026-01-07 07:54:29.481709	196.7	9.8	-61.8	0.0
2026-01-07 07:54:31.714731	196.8	9.6	-62.3	0.9
2026-01-07 07:54:33.945738	196.8	9.4	-60.8	0.0
2026-01-07 07:54:36.176779	196.8	9.2	-58.9	3.4
2026-01-07 07:54:38.405280	196.8	9.0	-61.5	0.0
2026-01-07 07:54:40.637792	196.8	8.8	-61.7	0.0
2026-01-07 07:54:42.868294	196.8	8.6	-61.4	0.0
2026-01-07 07:54:45.100320	196.9	8.4	-59.8	0.0
2026-01-07 07:54:47.334336	196.9	8.3	-58.2	0.0
2026-01-07 07:54:49.566343	196.9	8.1	-62.4	0.0
2026-01-07 07:54:51.796349	196.9	7.9	-60.7	0.0
2026-01-07 07:54:54.025355	196.9	7.7	-62.8	0.0
2026-01-07 07:54:56.256857	196.9	7.5	-58.2	0.0
2026-01-07 07:54:58.501876	196.9	7.4	-59.7	0.0
2026-01-07 07:55:00.745382	197.0	7.2	-60.2	0.0
2026-01-07 07:55:02.989391	197.0	7.0	-62.1	1.2
2026-01-07 07:55:05.232905	197.0	6.8	-60.3	0.0
2026-01-07 07:55:07.479411	197.0	6.7	-64.7	0.0
2026-01-07 07:55:09.720436	197.0	6.5	-64.2	0.0
2026-01-07 07:55:11.964445	197.0	6.3	-65.4	0.0
2026-01-07 07:55:14.201461	197.0	6.2	-65.1	0.0
2026-01-07 07:55:16.434983	197.1	6.0	-63.7	0.0
2026-01-07 07:55:18.665991	197.1	5.8	-68.3	2.4
2026-01-07 07:55:20.895493	197.1	5.7	-70.8	0.0
2026-01-07 07:55:23.126005	197.1	5.5	-72.0	0.0
2026-01-07 07:55:25.361516	197.1	5.3	-72.7	0.0
2026-01-07 07:55:27.589027	197.1	5.2	-72.6	0.0
2026-01-07 07:55:29.820034	197.1	5.0	-72.3	0.0
#Closed at: 2026-01-07 07:42:30.149190