passes_logs/2025/01/20/SPB_Silybum_02/SPB_Silybum_02__20250120_034004_SUOMI_NPP_rec.log

#Pass ID: 20250120_034004_SUOMI NPP
#Satellite: SUOMI NPP
#Configuration: NPP
#Start time: 2025-01-20 03:44:45

#Version: 2.0.20230423
#Station: SPB_Silybum_02
#Location: 30.233357 lon 59.946436 lat
#TLE: 1 37849U 11061A   25019.14897053  .00000245  00000+0  13701-3 0  9999
#TLE: 2 37849  98.7451 320.0850 0001518  34.7008 325.4267 14.19540506685500

#Time	Az	El	Level	Level2	SNR	BER	Gain	Gain2
2025-01-20 03:44:47.74	330.26	11.32	
2025-01-20 03:44:48.15	330.18	11.32	
2025-01-20 03:44:48.55	330.10	11.32	
2025-01-20 03:44:48.96	330.03	11.31	
2025-01-20 03:44:49.37	329.95	11.31	
2025-01-20 03:44:49.77	329.88	11.31	
2025-01-20 03:44:50.18	329.80	11.30	
2025-01-20 03:44:50.58	329.73	11.30	
2025-01-20 03:44:50.99	329.65	11.30	
2025-01-20 03:44:51.40	329.57	11.29	
2025-01-20 03:44:51.80	329.50	11.29	
2025-01-20 03:44:52.21	329.42	11.29	
2025-01-20 03:44:52.61	329.35	11.28	
2025-01-20 03:44:53.02	329.27	11.28	
2025-01-20 03:44:53.43	329.20	11.28	
2025-01-20 03:44:53.83	329.12	11.27	
2025-01-20 03:44:54.24	329.05	11.27	
2025-01-20 03:44:54.64	328.97	11.27	
2025-01-20 03:44:55.05	328.90	11.26	
2025-01-20 03:44:55.45	328.82	11.26	
2025-01-20 03:44:55.86	328.75	11.25	
2025-01-20 03:44:56.27	328.67	11.25	
2025-01-20 03:44:56.67	328.60	11.25	
2025-01-20 03:44:57.08	328.52	11.24	
2025-01-20 03:44:57.48	328.45	11.24	
2025-01-20 03:44:57.89	328.37	11.23	
2025-01-20 03:44:58.30	328.29	11.23	
2025-01-20 03:44:58.70	328.22	11.22	
2025-01-20 03:44:59.11	328.14	11.22	
2025-01-20 03:44:59.51	328.07	11.22	
2025-01-20 03:44:59.92	327.99	11.21	
2025-01-20 03:45:00.33	327.92	11.21	
2025-01-20 03:45:00.73	327.84	11.20	
2025-01-20 03:45:01.14	327.77	11.20	
2025-01-20 03:45:01.54	327.69	11.19	
2025-01-20 03:45:01.95	327.62	11.19	
2025-01-20 03:45:02.36	327.54	11.18	
2025-01-20 03:45:02.76	327.47	11.18	
2025-01-20 03:45:03.17	327.39	11.18	
2025-01-20 03:45:03.57	327.32	11.17	
2025-01-20 03:45:03.98	327.24	11.17	
2025-01-20 03:45:04.38	327.17	11.16	
2025-01-20 03:45:04.79	327.10	11.16	
2025-01-20 03:45:05.20	327.02	11.15	
2025-01-20 03:45:05.60	326.95	11.15	
2025-01-20 03:45:06.01	326.87	11.14	
2025-01-20 03:45:06.41	326.80	11.14	
2025-01-20 03:45:06.82	326.72	11.13	
2025-01-20 03:45:07.23	326.65	11.13	
2025-01-20 03:45:07.63	326.57	11.12	
2025-01-20 03:45:08.04	326.50	11.11	
2025-01-20 03:45:08.44	326.42	11.11	
2025-01-20 03:45:08.85	326.35	11.10	
2025-01-20 03:45:09.26	326.27	11.10	
2025-01-20 03:45:09.66	326.20	11.09	
2025-01-20 03:45:10.07	326.13	11.09	
2025-01-20 03:45:10.47	326.05	11.08	
2025-01-20 03:45:10.88	325.98	11.08	
2025-01-20 03:45:11.29	325.90	11.07	
2025-01-20 03:45:11.69	325.83	11.07	
2025-01-20 03:45:12.10	325.75	11.06	
2025-01-20 03:45:12.50	325.68	11.05	
2025-01-20 03:45:12.91	325.61	11.05	
2025-01-20 03:45:13.31	325.53	11.04	
2025-01-20 03:45:13.72	325.46	11.04	
2025-01-20 03:45:14.13	325.38	11.03	
2025-01-20 03:45:14.53	325.31	11.02	
2025-01-20 03:45:14.94	325.23	11.02	
2025-01-20 03:45:15.34	325.16	11.01	
2025-01-20 03:45:15.75	325.09	11.01	
2025-01-20 03:45:16.16	325.01	11.00	
2025-01-20 03:45:16.56	324.94	10.99	
2025-01-20 03:45:16.97	324.86	10.99	
2025-01-20 03:45:17.37	324.79	10.98	
2025-01-20 03:45:17.78	324.72	10.97	
2025-01-20 03:45:18.19	324.64	10.97	
2025-01-20 03:45:18.59	324.57	10.96	
2025-01-20 03:45:19.00	324.49	10.95	
2025-01-20 03:45:19.40	324.42	10.95	
2025-01-20 03:45:19.81	324.35	10.94	
2025-01-20 03:45:20.22	324.27	10.94	
2025-01-20 03:45:20.62	324.20	10.93	
2025-01-20 03:45:21.03	324.13	10.92	
2025-01-20 03:45:21.43	324.05	10.91	
2025-01-20 03:45:21.84	323.98	10.91	
2025-01-20 03:45:22.25	323.91	10.90	
2025-01-20 03:45:22.65	323.83	10.89	
2025-01-20 03:45:23.06	323.76	10.89	
2025-01-20 03:45:23.46	323.69	10.88	
2025-01-20 03:45:23.87	323.61	10.87	
2025-01-20 03:45:24.27	323.54	10.87	
2025-01-20 03:45:24.68	323.47	10.86	
2025-01-20 03:45:25.09	323.39	10.85	
2025-01-20 03:45:25.49	323.32	10.84	
2025-01-20 03:45:25.90	323.25	10.84	
2025-01-20 03:45:26.30	323.17	10.83	
2025-01-20 03:45:26.71	323.10	10.82	
2025-01-20 03:45:27.12	323.03	10.82	
2025-01-20 03:45:27.52	322.95	10.81	
2025-01-20 03:45:27.93	322.88	10.80	
2025-01-20 03:45:28.33	322.81	10.79	
2025-01-20 03:45:28.74	322.74	10.79	
2025-01-20 03:45:29.15	322.66	10.78	
2025-01-20 03:45:29.55	322.59	10.77	
2025-01-20 03:45:29.96	322.52	10.76	
2025-01-20 03:45:30.36	322.44	10.75	
2025-01-20 03:45:30.77	322.37	10.75	
2025-01-20 03:45:31.18	322.30	10.74	
2025-01-20 03:45:31.58	322.23	10.73	
2025-01-20 03:45:31.99	322.15	10.72	
2025-01-20 03:45:32.39	322.08	10.72	
2025-01-20 03:45:32.80	322.01	10.71	
2025-01-20 03:45:33.20	321.94	10.70	
2025-01-20 03:45:33.61	321.86	10.69	
2025-01-20 03:45:34.02	321.79	10.68	
2025-01-20 03:45:34.42	321.72	10.68	
2025-01-20 03:45:34.83	321.65	10.67	
2025-01-20 03:45:35.23	321.57	10.66	
2025-01-20 03:45:35.64	321.50	10.65	
2025-01-20 03:45:36.05	321.43	10.64	
2025-01-20 03:45:36.45	321.36	10.63	
2025-01-20 03:45:36.86	321.29	10.63	
2025-01-20 03:45:37.26	321.21	10.62	
2025-01-20 03:45:37.67	321.14	10.61	
2025-01-20 03:45:38.08	321.07	10.60	
2025-01-20 03:45:38.48	321.00	10.59	
2025-01-20 03:45:38.89	320.92	10.58	
2025-01-20 03:45:39.29	320.85	10.57	
2025-01-20 03:45:39.70	320.78	10.57	
2025-01-20 03:45:40.11	320.71	10.56	
2025-01-20 03:45:40.51	320.64	10.55	
2025-01-20 03:45:40.92	320.57	10.54	
2025-01-20 03:45:41.32	320.50	10.53	
2025-01-20 03:45:41.73	320.42	10.52	
2025-01-20 03:45:42.13	320.35	10.51	
2025-01-20 03:45:42.54	320.28	10.50	
2025-01-20 03:45:42.95	320.21	10.49	
2025-01-20 03:45:43.35	320.14	10.49	
2025-01-20 03:45:43.76	320.07	10.48	
2025-01-20 03:45:44.16	320.00	10.47	
2025-01-20 03:45:44.57	319.92	10.46	
2025-01-20 03:45:44.98	319.85	10.45	
2025-01-20 03:45:45.38	319.78	10.44	
2025-01-20 03:45:45.79	319.71	10.43	
2025-01-20 03:45:46.19	319.64	10.42	
2025-01-20 03:45:46.60	319.57	10.41	
2025-01-20 03:45:47.01	319.50	10.40	
2025-01-20 03:45:47.41	319.43	10.39	
2025-01-20 03:45:47.82	319.35	10.38	
2025-01-20 03:45:48.22	319.28	10.37	
2025-01-20 03:45:48.63	319.21	10.37	
2025-01-20 03:45:49.04	319.14	10.36	
2025-01-20 03:45:49.44	319.07	10.35	
2025-01-20 03:45:49.85	319.00	10.34	
2025-01-20 03:45:50.25	318.93	10.33	
2025-01-20 03:45:50.66	318.86	10.32	
2025-01-20 03:45:51.06	318.79	10.31	
2025-01-20 03:45:51.47	318.72	10.30	
2025-01-20 03:45:51.88	318.65	10.29	
2025-01-20 03:45:52.28	318.58	10.28	
2025-01-20 03:45:52.69	318.51	10.27	
2025-01-20 03:45:53.09	318.44	10.26	
2025-01-20 03:45:53.50	318.37	10.25	
2025-01-20 03:45:53.91	318.30	10.24	
2025-01-20 03:45:54.31	318.23	10.23	
2025-01-20 03:45:54.72	318.16	10.22	
2025-01-20 03:45:55.12	318.09	10.21	
2025-01-20 03:45:55.53	318.02	10.20	
2025-01-20 03:45:55.94	317.95	10.19	
2025-01-20 03:45:56.34	317.88	10.18	
2025-01-20 03:45:56.75	317.81	10.17	
2025-01-20 03:45:57.15	317.74	10.16	
2025-01-20 03:45:57.56	317.67	10.15	
2025-01-20 03:45:57.97	317.60	10.14	
2025-01-20 03:45:58.37	317.53	10.12	
2025-01-20 03:45:58.78	317.46	10.11	
2025-01-20 03:45:59.18	317.39	10.10	
2025-01-20 03:45:59.59	317.32	10.09	
2025-01-20 03:45:59.99	317.25	10.08	
2025-01-20 03:46:00.40	317.18	10.07	
2025-01-20 03:46:00.81	317.11	10.06	
2025-01-20 03:46:01.21	317.04	10.05	
2025-01-20 03:46:01.62	316.97	10.04	
2025-01-20 03:46:02.02	316.90	10.03	
2025-01-20 03:46:02.43	316.83	10.02	
2025-01-20 03:46:02.84	316.76	10.01	
2025-01-20 03:46:03.24	316.70	10.00	
2025-01-20 03:46:03.65	316.63	9.99	
2025-01-20 03:46:04.05	316.56	9.98	
2025-01-20 03:46:04.46	316.49	9.96	
2025-01-20 03:46:04.87	316.42	9.95	
2025-01-20 03:46:05.27	316.35	9.94	
2025-01-20 03:46:05.68	316.28	9.93	
2025-01-20 03:46:06.08	316.21	9.92	
2025-01-20 03:46:06.49	316.14	9.91	
2025-01-20 03:46:06.90	316.08	9.90	
2025-01-20 03:46:07.30	316.01	9.89	
2025-01-20 03:46:07.71	315.94	9.87	
2025-01-20 03:46:08.11	315.87	9.86	
2025-01-20 03:46:08.52	315.80	9.85	
2025-01-20 03:46:08.93	315.73	9.84	
2025-01-20 03:46:09.33	315.67	9.83	
2025-01-20 03:46:09.74	315.60	9.82	
2025-01-20 03:46:10.14	315.53	9.81	
2025-01-20 03:46:10.55	315.46	9.80	
2025-01-20 03:46:10.95	315.39	9.78	
2025-01-20 03:46:11.36	315.32	9.77	
2025-01-20 03:46:11.77	315.26	9.76	
2025-01-20 03:46:12.17	315.19	9.75	
2025-01-20 03:46:12.58	315.12	9.74	
2025-01-20 03:46:12.98	315.05	9.73	
2025-01-20 03:46:13.39	314.99	9.71	
2025-01-20 03:46:13.80	314.92	9.70	
2025-01-20 03:46:14.20	314.85	9.69	
2025-01-20 03:46:14.61	314.78	9.68	
2025-01-20 03:46:15.01	314.72	9.67	
2025-01-20 03:46:15.42	314.65	9.65	
2025-01-20 03:46:15.83	314.58	9.64	
2025-01-20 03:46:16.23	314.51	9.63	
2025-01-20 03:46:16.64	314.45	9.62	
2025-01-20 03:46:17.04	314.38	9.61	
2025-01-20 03:46:17.46	314.31	9.59	
2025-01-20 03:46:17.87	314.24	9.58	
2025-01-20 03:46:18.28	314.17	9.57	
2025-01-20 03:46:18.68	314.11	9.56	
2025-01-20 03:46:19.09	314.04	9.55	
2025-01-20 03:46:19.49	313.97	9.53	
2025-01-20 03:46:19.90	313.91	9.52	
2025-01-20 03:46:20.31	313.84	9.51	
2025-01-20 03:46:20.71	313.77	9.50	
2025-01-20 03:46:21.12	313.71	9.48	
2025-01-20 03:46:21.52	313.64	9.47	
2025-01-20 03:46:21.93	313.57	9.46	
2025-01-20 03:46:22.34	313.51	9.45	
2025-01-20 03:46:22.74	313.44	9.44	
2025-01-20 03:46:23.15	313.37	9.42	
2025-01-20 03:46:23.55	313.31	9.41	
2025-01-20 03:46:23.96	313.24	9.40	
2025-01-20 03:46:24.37	313.17	9.38	
2025-01-20 03:46:24.77	313.11	9.37	
2025-01-20 03:46:25.18	313.04	9.36	
2025-01-20 03:46:25.58	312.98	9.35	
2025-01-20 03:46:25.99	312.91	9.33	
2025-01-20 03:46:26.39	312.85	9.32	
2025-01-20 03:46:26.80	312.78	9.31	
2025-01-20 03:46:27.21	312.71	9.30	
2025-01-20 03:46:27.61	312.65	9.28	
2025-01-20 03:46:28.02	312.58	9.27	
2025-01-20 03:46:28.42	312.52	9.26	
2025-01-20 03:46:28.83	312.45	9.24	
2025-01-20 03:46:29.24	312.39	9.23	
2025-01-20 03:46:29.64	312.32	9.22	
2025-01-20 03:46:30.05	312.25	9.21	
2025-01-20 03:46:30.45	312.19	9.19	
2025-01-20 03:46:30.86	312.12	9.18	
2025-01-20 03:46:31.27	312.06	9.17	
2025-01-20 03:46:31.67	311.99	9.15	
2025-01-20 03:46:32.08	311.93	9.14	
2025-01-20 03:46:32.48	311.86	9.13	
2025-01-20 03:46:32.89	311.80	9.11	
2025-01-20 03:46:33.30	311.73	9.10	
2025-01-20 03:46:33.70	311.67	9.09	
2025-01-20 03:46:34.11	311.60	9.07	
2025-01-20 03:46:34.51	311.54	9.06	
2025-01-20 03:46:34.92	311.47	9.05	
2025-01-20 03:46:35.32	311.41	9.03	
2025-01-20 03:46:35.73	311.35	9.02	
2025-01-20 03:46:36.14	311.28	9.01	
2025-01-20 03:46:36.54	311.22	8.99	
2025-01-20 03:46:36.95	311.15	8.98	
2025-01-20 03:46:37.35	311.09	8.97	
2025-01-20 03:46:37.76	311.02	8.95	
2025-01-20 03:46:38.17	310.96	8.94	
2025-01-20 03:46:38.57	310.90	8.93	
2025-01-20 03:46:38.98	310.83	8.91	
2025-01-20 03:46:39.38	310.77	8.90	
2025-01-20 03:46:39.79	310.70	8.89	
2025-01-20 03:46:40.20	310.64	8.87	
2025-01-20 03:46:40.60	310.58	8.86	
2025-01-20 03:46:41.01	310.51	8.84	
2025-01-20 03:46:41.41	310.45	8.83	
2025-01-20 03:46:41.82	310.38	8.82	
2025-01-20 03:46:42.23	310.32	8.80	
2025-01-20 03:46:42.63	310.26	8.79	
2025-01-20 03:46:43.04	310.19	8.78	
2025-01-20 03:46:43.44	310.13	8.76	
2025-01-20 03:46:43.85	310.07	8.75	
2025-01-20 03:46:44.26	310.00	8.73	
2025-01-20 03:46:44.66	309.94	8.72	
2025-01-20 03:46:45.07	309.88	8.71	
2025-01-20 03:46:45.47	309.82	8.69	
2025-01-20 03:46:45.88	309.75	8.68	
2025-01-20 03:46:46.28	309.69	8.66	
2025-01-20 03:46:46.69	309.63	8.65	
2025-01-20 03:46:47.10	309.56	8.64	
2025-01-20 03:46:47.50	309.50	8.62	
2025-01-20 03:46:47.91	309.44	8.61	
2025-01-20 03:46:48.31	309.38	8.59	
2025-01-20 03:46:48.72	309.31	8.58	
2025-01-20 03:46:49.13	309.25	8.57	
2025-01-20 03:46:49.53	309.19	8.55	
2025-01-20 03:46:49.94	309.12	8.54	
2025-01-20 03:46:50.34	309.06	8.52	
2025-01-20 03:46:50.75	309.00	8.51	
2025-01-20 03:46:51.16	308.94	8.49	
2025-01-20 03:46:51.56	308.88	8.48	
2025-01-20 03:46:51.97	308.81	8.46	
2025-01-20 03:46:52.37	308.75	8.45	
2025-01-20 03:46:52.78	308.69	8.44	
2025-01-20 03:46:53.19	308.63	8.42	
2025-01-20 03:46:53.59	308.57	8.41	
2025-01-20 03:46:54.00	308.50	8.39	
2025-01-20 03:46:54.40	308.44	8.38	
2025-01-20 03:46:54.81	308.38	8.36	
2025-01-20 03:46:55.21	308.32	8.35	
2025-01-20 03:46:55.62	308.26	8.33	
2025-01-20 03:46:56.03	308.20	8.32	
2025-01-20 03:46:56.43	308.14	8.31	
2025-01-20 03:46:56.84	308.07	8.29	
2025-01-20 03:46:57.24	308.01	8.28	
2025-01-20 03:46:57.65	307.95	8.26	
2025-01-20 03:46:58.06	307.89	8.25	
2025-01-20 03:46:58.46	307.83	8.23	
2025-01-20 03:46:58.87	307.77	8.22	
2025-01-20 03:46:59.27	307.71	8.20	
2025-01-20 03:46:59.68	307.65	8.19	
2025-01-20 03:47:00.09	307.58	8.17	
2025-01-20 03:47:00.49	307.52	8.16	
2025-01-20 03:47:00.90	307.46	8.14	
2025-01-20 03:47:01.30	307.40	8.13	
2025-01-20 03:47:01.71	307.34	8.11	
2025-01-20 03:47:02.12	307.28	8.10	
2025-01-20 03:47:02.52	307.22	8.08	
2025-01-20 03:47:02.93	307.16	8.07	
2025-01-20 03:47:03.33	307.10	8.05	
2025-01-20 03:47:03.74	307.04	8.04	
2025-01-20 03:47:04.14	306.98	8.02	
2025-01-20 03:47:04.55	306.92	8.01	
2025-01-20 03:47:04.96	306.86	7.99	
2025-01-20 03:47:05.36	306.80	7.98	
2025-01-20 03:47:05.77	306.74	7.96	
2025-01-20 03:47:06.17	306.68	7.95	
2025-01-20 03:47:06.58	306.62	7.93	
2025-01-20 03:47:06.99	306.56	7.92	
2025-01-20 03:47:07.39	306.50	7.90	
2025-01-20 03:47:07.80	306.44	7.89	
2025-01-20 03:47:08.20	306.38	7.87	
2025-01-20 03:47:08.61	306.32	7.86	
2025-01-20 03:47:09.02	306.26	7.84	
2025-01-20 03:47:09.42	306.20	7.82	
2025-01-20 03:47:09.83	306.14	7.81	
2025-01-20 03:47:10.23	306.08	7.79	
2025-01-20 03:47:10.64	306.02	7.78	
2025-01-20 03:47:11.05	305.96	7.76	
2025-01-20 03:47:11.45	305.91	7.75	
2025-01-20 03:47:11.86	305.85	7.73	
2025-01-20 03:47:12.26	305.79	7.72	
2025-01-20 03:47:12.67	305.73	7.70	
2025-01-20 03:47:13.07	305.67	7.69	
2025-01-20 03:47:13.48	305.61	7.67	
2025-01-20 03:47:13.89	305.55	7.65	
2025-01-20 03:47:14.29	305.50	7.64	
2025-01-20 03:47:14.70	305.44	7.62	
2025-01-20 03:47:15.10	305.38	7.61	
2025-01-20 03:47:15.51	305.32	7.59	
2025-01-20 03:47:15.92	305.26	7.58	
2025-01-20 03:47:16.32	305.20	7.56	
2025-01-20 03:47:16.73	305.14	7.55	
2025-01-20 03:47:17.13	305.09	7.53	
2025-01-20 03:47:17.54	305.03	7.51	
2025-01-20 03:47:17.95	304.97	7.50	
2025-01-20 03:47:18.35	304.91	7.48	
2025-01-20 03:47:18.76	304.85	7.47	
2025-01-20 03:47:19.16	304.80	7.45	
2025-01-20 03:47:19.57	304.74	7.43	
2025-01-20 03:47:19.98	304.68	7.42	
2025-01-20 03:47:20.38	304.62	7.40	
2025-01-20 03:47:20.79	304.56	7.39	
2025-01-20 03:47:21.19	304.51	7.37	
2025-01-20 03:47:21.60	304.45	7.36	
2025-01-20 03:47:22.00	304.39	7.34	
2025-01-20 03:47:22.41	304.34	7.32	
2025-01-20 03:47:22.82	304.28	7.31	
2025-01-20 03:47:23.22	304.22	7.29	
2025-01-20 03:47:23.63	304.16	7.28	
2025-01-20 03:47:24.03	304.11	7.26	
2025-01-20 03:47:24.44	304.05	7.24	
2025-01-20 03:47:24.85	303.99	7.23	
2025-01-20 03:47:25.25	303.94	7.21	
2025-01-20 03:47:25.66	303.88	7.20	
2025-01-20 03:47:26.06	303.82	7.18	
2025-01-20 03:47:26.47	303.77	7.16	
2025-01-20 03:47:26.88	303.71	7.15	
2025-01-20 03:47:27.28	303.65	7.13	
2025-01-20 03:47:27.69	303.60	7.12	
2025-01-20 03:47:28.09	303.54	7.10	
2025-01-20 03:47:28.50	303.48	7.08	
2025-01-20 03:47:28.91	303.43	7.07	
2025-01-20 03:47:29.31	303.37	7.05	
2025-01-20 03:47:29.72	303.31	7.03	
2025-01-20 03:47:30.12	303.26	7.02	
2025-01-20 03:47:30.53	303.20	7.00	
2025-01-20 03:47:30.94	303.14	6.99	
2025-01-20 03:47:31.34	303.09	6.97	
2025-01-20 03:47:31.75	303.03	6.95	
2025-01-20 03:47:32.15	302.98	6.94	
2025-01-20 03:47:32.56	302.92	6.92	
2025-01-20 03:47:32.96	302.87	6.90	
2025-01-20 03:47:33.37	302.81	6.89	
2025-01-20 03:47:33.78	302.75	6.87	
2025-01-20 03:47:34.18	302.70	6.86	
2025-01-20 03:47:34.59	302.64	6.84	
2025-01-20 03:47:34.99	302.59	6.82	
2025-01-20 03:47:35.40	302.53	6.81	
2025-01-20 03:47:35.81	302.48	6.79	
2025-01-20 03:47:36.21	302.42	6.77	
2025-01-20 03:47:36.62	302.37	6.76	
2025-01-20 03:47:37.02	302.31	6.74	
2025-01-20 03:47:37.43	302.26	6.72	
2025-01-20 03:47:37.84	302.20	6.71	
2025-01-20 03:47:38.24	302.15	6.69	
2025-01-20 03:47:38.65	302.09	6.67	
2025-01-20 03:47:39.05	302.04	6.66	
2025-01-20 03:47:39.46	301.98	6.64	
2025-01-20 03:47:39.87	301.93	6.62	
2025-01-20 03:47:40.27	301.87	6.61	
2025-01-20 03:47:40.68	301.82	6.59	
2025-01-20 03:47:41.08	301.77	6.57	
2025-01-20 03:47:41.49	301.71	6.56	
2025-01-20 03:47:41.89	301.66	6.54	
2025-01-20 03:47:42.30	301.60	6.52	
2025-01-20 03:47:42.71	301.55	6.51	
2025-01-20 03:47:43.11	301.49	6.49	
2025-01-20 03:47:43.52	301.44	6.47	
2025-01-20 03:47:43.92	301.39	6.46	
2025-01-20 03:47:44.33	301.33	6.44	
2025-01-20 03:47:44.74	301.28	6.42	
2025-01-20 03:47:45.14	301.22	6.41	
2025-01-20 03:47:45.55	301.17	6.39	
2025-01-20 03:47:45.95	301.12	6.37	
2025-01-20 03:47:46.36	301.06	6.36	
2025-01-20 03:47:46.77	301.01	6.34	
2025-01-20 03:47:47.17	300.96	6.32	
2025-01-20 03:47:47.58	300.90	6.31	
2025-01-20 03:47:47.98	300.85	6.29	
2025-01-20 03:47:48.39	300.80	6.27	
2025-01-20 03:47:48.80	300.74	6.26	
2025-01-20 03:47:49.20	300.69	6.24	
2025-01-20 03:47:49.61	300.64	6.22	
2025-01-20 03:47:50.01	300.58	6.21	
2025-01-20 03:47:50.42	300.53	6.19	
2025-01-20 03:47:50.82	300.48	6.17	
2025-01-20 03:47:51.23	300.43	6.15	
2025-01-20 03:47:51.64	300.37	6.14	
2025-01-20 03:47:52.04	300.32	6.12	
2025-01-20 03:47:52.45	300.27	6.10	
2025-01-20 03:47:52.85	300.21	6.09	
2025-01-20 03:47:53.26	300.16	6.07	
2025-01-20 03:47:53.67	300.11	6.05	
2025-01-20 03:47:54.07	300.06	6.04	
2025-01-20 03:47:54.48	300.00	6.02	
2025-01-20 03:47:54.88	299.95	6.00	
2025-01-20 03:47:55.29	299.90	5.98	
2025-01-20 03:47:55.70	299.85	5.97	
2025-01-20 03:47:56.10	299.80	5.95	
2025-01-20 03:47:56.51	299.74	5.93	
2025-01-20 03:47:56.91	299.69	5.92	
2025-01-20 03:47:57.32	299.64	5.90	
2025-01-20 03:47:57.73	299.59	5.88	
2025-01-20 03:47:58.13	299.54	5.86	
2025-01-20 03:47:58.54	299.48	5.85	
2025-01-20 03:47:58.94	299.43	5.83	
2025-01-20 03:47:59.35	299.38	5.81	
2025-01-20 03:47:59.75	299.33	5.80	
2025-01-20 03:48:00.16	299.28	5.78	
2025-01-20 03:48:00.57	299.23	5.76	
2025-01-20 03:48:00.97	299.18	5.74	
2025-01-20 03:48:01.38	299.12	5.73	
2025-01-20 03:48:01.78	299.07	5.71	
2025-01-20 03:48:02.19	299.02	5.69	
2025-01-20 03:48:02.60	298.97	5.68	
2025-01-20 03:48:03.00	298.92	5.66	
2025-01-20 03:48:03.41	298.87	5.64	
2025-01-20 03:48:03.81	298.82	5.62	
2025-01-20 03:48:04.22	298.77	5.61	
2025-01-20 03:48:04.63	298.71	5.59	
2025-01-20 03:48:05.03	298.66	5.57	
2025-01-20 03:48:05.44	298.61	5.55	
2025-01-20 03:48:05.84	298.56	5.54	
2025-01-20 03:48:06.25	298.51	5.52	
2025-01-20 03:48:06.66	298.46	5.50	
2025-01-20 03:48:07.06	298.41	5.49	
2025-01-20 03:48:07.47	298.36	5.47	
2025-01-20 03:48:07.87	298.31	5.45	
2025-01-20 03:48:08.28	298.26	5.43	
2025-01-20 03:48:08.68	298.21	5.42	
2025-01-20 03:48:09.09	298.16	5.40	
2025-01-20 03:48:09.51	298.11	5.38	
2025-01-20 03:48:09.91	298.06	5.36	
2025-01-20 03:48:10.32	298.01	5.35	
2025-01-20 03:48:10.73	297.96	5.33	
2025-01-20 03:48:11.13	297.91	5.31	
2025-01-20 03:48:11.54	297.86	5.29	
2025-01-20 03:48:11.94	297.81	5.28	
2025-01-20 03:48:12.35	297.76	5.26	
2025-01-20 03:48:12.76	297.71	5.24	
2025-01-20 03:48:13.16	297.66	5.22	
2025-01-20 03:48:13.57	297.61	5.21	
2025-01-20 03:48:13.97	297.56	5.19	
2025-01-20 03:48:14.38	297.51	5.17	
2025-01-20 03:48:14.78	297.46	5.15	
2025-01-20 03:48:15.19	297.41	5.14	
2025-01-20 03:48:15.60	297.36	5.12	
2025-01-20 03:48:16.00	297.32	5.10	
2025-01-20 03:48:16.41	297.27	5.08	
2025-01-20 03:48:16.81	297.22	5.07	
2025-01-20 03:48:17.22	297.17	5.05	
2025-01-20 03:48:17.63	297.12	5.03	
2025-01-20 03:48:18.03	297.07	5.01	
2025-01-20 03:48:18.44	297.02	5.00	
2025-01-20 03:48:18.84	296.97	4.98	
2025-01-20 03:48:19.25	296.93	4.96	
2025-01-20 03:48:19.66	296.88	4.94	
2025-01-20 03:48:20.06	296.83	4.92	
2025-01-20 03:48:20.47	296.78	4.91	
2025-01-20 03:48:20.87	296.73	4.89	
2025-01-20 03:48:21.28	296.68	4.87	
2025-01-20 03:48:21.69	296.63	4.85	
2025-01-20 03:48:22.09	296.59	4.84	
2025-01-20 03:48:22.50	296.54	4.82	
2025-01-20 03:48:22.90	296.49	4.80	
2025-01-20 03:48:23.31	296.44	4.78	
2025-01-20 03:48:23.72	296.39	4.77	
2025-01-20 03:48:24.12	296.35	4.75	
2025-01-20 03:48:24.53	296.30	4.73	
2025-01-20 03:48:24.93	296.25	4.71	
2025-01-20 03:48:25.34	296.20	4.70	
2025-01-20 03:48:25.74	296.16	4.68	
2025-01-20 03:48:26.15	296.11	4.66	
2025-01-20 03:48:26.56	296.06	4.64	
2025-01-20 03:48:26.96	296.01	4.62	
2025-01-20 03:48:27.37	295.96	4.61	
2025-01-20 03:48:27.77	295.92	4.59	
2025-01-20 03:48:28.18	295.87	4.57	
2025-01-20 03:48:28.59	295.82	4.55	
2025-01-20 03:48:28.99	295.78	4.54	
2025-01-20 03:48:29.40	295.73	4.52	
2025-01-20 03:48:29.80	295.68	4.50	
2025-01-20 03:48:30.21	295.63	4.48	
2025-01-20 03:48:30.62	295.59	4.46	
2025-01-20 03:48:31.02	295.54	4.45	
2025-01-20 03:48:31.43	295.49	4.43	
2025-01-20 03:48:31.83	295.45	4.41	
2025-01-20 03:48:32.24	295.40	4.39	
2025-01-20 03:48:32.65	295.35	4.38	
2025-01-20 03:48:33.05	295.31	4.36	
2025-01-20 03:48:33.46	295.26	4.34	
2025-01-20 03:48:33.86	295.21	4.32	
2025-01-20 03:48:34.27	295.17	4.30	
2025-01-20 03:48:34.67	295.12	4.29	
2025-01-20 03:48:35.08	295.07	4.27	
2025-01-20 03:48:35.49	295.03	4.25	
2025-01-20 03:48:35.89	294.98	4.23	
2025-01-20 03:48:36.30	294.94	4.21	
2025-01-20 03:48:36.70	294.89	4.20	
2025-01-20 03:48:37.11	294.84	4.18	
2025-01-20 03:48:37.52	294.80	4.16	
2025-01-20 03:48:37.92	294.75	4.14	
2025-01-20 03:48:38.33	294.71	4.13	
2025-01-20 03:48:38.73	294.66	4.11	
2025-01-20 03:48:39.14	294.61	4.09	
2025-01-20 03:48:39.55	294.57	4.07	
2025-01-20 03:48:39.95	294.52	4.05	
2025-01-20 03:48:40.36	294.48	4.04	
2025-01-20 03:48:40.76	294.43	4.02	
2025-01-20 03:48:41.17	294.39	4.00	

#Closed at: 2025-01-20 03:48:41