passes_logs/2025/01/20/SPB_Silybum_02/SPB_Silybum_02__20250120_015943_SUOMI_NPP_rec.log

#Pass ID: 20250120_015943_SUOMI NPP
#Satellite: SUOMI NPP
#Configuration: NPP
#Start time: 2025-01-20 02:09:26

#Version: 2.0.20230423
#Station: SPB_Silybum_02
#Location: 30.233357 lon 59.946436 lat
#TLE: 1 37849U 11061A   25019.14897053  .00000245  00000+0  13701-3 0  9999
#TLE: 2 37849  98.7451 320.0850 0001518  34.7008 325.4267 14.19540506685500

#Time	Az	El	Level	Level2	SNR	BER	Gain	Gain2
2025-01-20 02:09:28.25	260.42	13.17	
2025-01-20 02:09:28.66	260.37	13.13	
2025-01-20 02:09:29.06	260.32	13.10	
2025-01-20 02:09:29.47	260.27	13.07	
2025-01-20 02:09:29.87	260.22	13.04	
2025-01-20 02:09:30.28	260.17	13.01	
2025-01-20 02:09:30.69	260.12	12.98	
2025-01-20 02:09:31.09	260.07	12.95	
2025-01-20 02:09:31.50	260.02	12.92	
2025-01-20 02:09:31.90	259.97	12.88	
2025-01-20 02:09:32.31	259.92	12.85	
2025-01-20 02:09:32.71	259.87	12.82	
2025-01-20 02:09:33.12	259.82	12.79	
2025-01-20 02:09:33.53	259.77	12.76	
2025-01-20 02:09:33.93	259.73	12.73	
2025-01-20 02:09:34.34	259.68	12.70	
2025-01-20 02:09:34.74	259.63	12.67	
2025-01-20 02:09:35.15	259.58	12.63	
2025-01-20 02:09:35.56	259.53	12.60	
2025-01-20 02:09:35.96	259.48	12.57	
2025-01-20 02:09:36.37	259.43	12.54	
2025-01-20 02:09:36.77	259.39	12.51	
2025-01-20 02:09:37.18	259.34	12.48	
2025-01-20 02:09:37.59	259.29	12.45	
2025-01-20 02:09:37.99	259.24	12.42	
2025-01-20 02:09:38.40	259.19	12.39	
2025-01-20 02:09:38.80	259.15	12.36	
2025-01-20 02:09:39.21	259.10	12.32	
2025-01-20 02:09:39.62	259.05	12.29	
2025-01-20 02:09:40.02	259.00	12.26	
2025-01-20 02:09:40.43	258.95	12.23	
2025-01-20 02:09:40.83	258.91	12.20	
2025-01-20 02:09:41.24	258.86	12.17	
2025-01-20 02:09:41.65	258.81	12.14	
2025-01-20 02:09:42.05	258.77	12.11	
2025-01-20 02:09:42.46	258.72	12.08	
2025-01-20 02:09:42.86	258.67	12.05	
2025-01-20 02:09:43.27	258.62	12.02	
2025-01-20 02:09:43.67	258.58	11.99	
2025-01-20 02:09:44.08	258.53	11.95	
2025-01-20 02:09:44.49	258.48	11.92	
2025-01-20 02:09:44.89	258.44	11.89	
2025-01-20 02:09:45.30	258.39	11.86	
2025-01-20 02:09:45.70	258.35	11.83	
2025-01-20 02:09:46.11	258.30	11.80	
2025-01-20 02:09:46.52	258.25	11.77	
2025-01-20 02:09:46.92	258.21	11.74	
2025-01-20 02:09:47.33	258.16	11.71	
2025-01-20 02:09:47.73	258.12	11.68	
2025-01-20 02:09:48.14	258.07	11.65	
2025-01-20 02:09:48.55	258.03	11.62	
2025-01-20 02:09:48.95	257.98	11.59	
2025-01-20 02:09:49.36	257.94	11.56	
2025-01-20 02:09:49.76	257.89	11.53	
2025-01-20 02:09:50.17	257.85	11.50	
2025-01-20 02:09:50.58	257.80	11.47	
2025-01-20 02:09:50.98	257.76	11.44	
2025-01-20 02:09:51.39	257.71	11.40	
2025-01-20 02:09:51.79	257.67	11.37	
2025-01-20 02:09:52.20	257.62	11.34	
2025-01-20 02:09:52.60	257.58	11.31	
2025-01-20 02:09:53.01	257.53	11.28	
2025-01-20 02:09:53.42	257.49	11.25	
2025-01-20 02:09:53.82	257.44	11.22	
2025-01-20 02:09:54.23	257.40	11.19	
2025-01-20 02:09:54.63	257.36	11.16	
2025-01-20 02:09:55.04	257.31	11.13	
2025-01-20 02:09:55.45	257.27	11.10	
2025-01-20 02:09:55.85	257.22	11.07	
2025-01-20 02:09:56.26	257.18	11.04	
2025-01-20 02:09:56.66	257.14	11.01	
2025-01-20 02:09:57.07	257.09	10.98	
2025-01-20 02:09:57.48	257.05	10.95	
2025-01-20 02:09:57.88	257.01	10.92	
2025-01-20 02:09:58.29	256.96	10.89	
2025-01-20 02:09:58.69	256.92	10.86	
2025-01-20 02:09:59.10	256.88	10.83	
2025-01-20 02:09:59.51	256.83	10.80	
2025-01-20 02:09:59.91	256.79	10.77	
2025-01-20 02:10:00.32	256.75	10.74	
2025-01-20 02:10:00.72	256.71	10.71	
2025-01-20 02:10:01.13	256.66	10.68	
2025-01-20 02:10:01.53	256.62	10.65	
2025-01-20 02:10:01.94	256.58	10.62	
2025-01-20 02:10:02.35	256.54	10.59	
2025-01-20 02:10:02.75	256.49	10.56	
2025-01-20 02:10:03.16	256.45	10.53	
2025-01-20 02:10:03.56	256.41	10.50	
2025-01-20 02:10:03.97	256.37	10.47	
2025-01-20 02:10:04.38	256.32	10.44	
2025-01-20 02:10:04.78	256.28	10.41	
2025-01-20 02:10:05.19	256.24	10.38	
2025-01-20 02:10:05.59	256.20	10.36	
2025-01-20 02:10:06.00	256.16	10.33	
2025-01-20 02:10:06.41	256.12	10.30	
2025-01-20 02:10:06.81	256.08	10.27	
2025-01-20 02:10:07.22	256.03	10.24	
2025-01-20 02:10:07.62	255.99	10.21	
2025-01-20 02:10:08.03	255.95	10.18	
2025-01-20 02:10:08.44	255.91	10.15	
2025-01-20 02:10:08.84	255.87	10.12	
2025-01-20 02:10:09.25	255.83	10.09	
2025-01-20 02:10:09.65	255.79	10.06	
2025-01-20 02:10:10.06	255.75	10.03	
2025-01-20 02:10:10.47	255.71	10.00	
2025-01-20 02:10:10.87	255.67	9.97	
2025-01-20 02:10:11.28	255.63	9.94	
2025-01-20 02:10:11.68	255.59	9.91	
2025-01-20 02:10:12.09	255.54	9.88	
2025-01-20 02:10:12.49	255.51	9.85	
2025-01-20 02:10:12.90	255.46	9.83	
2025-01-20 02:10:13.31	255.42	9.80	
2025-01-20 02:10:13.71	255.38	9.77	
2025-01-20 02:10:14.12	255.34	9.74	
2025-01-20 02:10:14.52	255.31	9.71	
2025-01-20 02:10:14.93	255.27	9.68	
2025-01-20 02:10:15.34	255.23	9.65	
2025-01-20 02:10:15.74	255.19	9.62	
2025-01-20 02:10:16.15	255.15	9.59	
2025-01-20 02:10:16.55	255.11	9.56	
2025-01-20 02:10:16.96	255.07	9.53	
2025-01-20 02:10:17.37	255.03	9.50	
2025-01-20 02:10:17.77	254.99	9.48	
2025-01-20 02:10:18.18	254.95	9.45	
2025-01-20 02:10:18.58	254.91	9.42	
2025-01-20 02:10:18.99	254.87	9.39	
2025-01-20 02:10:19.40	254.83	9.36	
2025-01-20 02:10:19.80	254.79	9.33	
2025-01-20 02:10:20.21	254.76	9.30	
2025-01-20 02:10:20.61	254.72	9.27	
2025-01-20 02:10:21.02	254.68	9.24	
2025-01-20 02:10:21.42	254.64	9.22	
2025-01-20 02:10:21.83	254.60	9.19	
2025-01-20 02:10:22.24	254.56	9.16	
2025-01-20 02:10:22.64	254.53	9.13	
2025-01-20 02:10:23.05	254.49	9.10	
2025-01-20 02:10:23.45	254.45	9.07	
2025-01-20 02:10:23.86	254.41	9.04	
2025-01-20 02:10:24.27	254.37	9.01	
2025-01-20 02:10:24.67	254.34	8.99	
2025-01-20 02:10:25.08	254.30	8.96	
2025-01-20 02:10:25.48	254.26	8.93	
2025-01-20 02:10:25.89	254.22	8.90	
2025-01-20 02:10:26.30	254.18	8.87	
2025-01-20 02:10:26.70	254.15	8.84	
2025-01-20 02:10:27.11	254.11	8.81	
2025-01-20 02:10:27.51	254.07	8.79	
2025-01-20 02:10:27.92	254.04	8.76	
2025-01-20 02:10:28.33	254.00	8.73	
2025-01-20 02:10:28.73	253.96	8.70	
2025-01-20 02:10:29.14	253.92	8.67	
2025-01-20 02:10:29.54	253.89	8.64	
2025-01-20 02:10:29.95	253.85	8.61	
2025-01-20 02:10:30.35	253.81	8.59	
2025-01-20 02:10:30.76	253.78	8.56	
2025-01-20 02:10:31.17	253.74	8.53	
2025-01-20 02:10:31.57	253.70	8.50	
2025-01-20 02:10:31.98	253.67	8.47	
2025-01-20 02:10:32.38	253.63	8.45	
2025-01-20 02:10:32.79	253.59	8.42	
2025-01-20 02:10:33.20	253.56	8.39	
2025-01-20 02:10:33.60	253.52	8.36	
2025-01-20 02:10:34.01	253.49	8.33	
2025-01-20 02:10:34.41	253.45	8.30	
2025-01-20 02:10:34.82	253.41	8.28	
2025-01-20 02:10:35.23	253.38	8.25	
2025-01-20 02:10:35.63	253.34	8.22	
2025-01-20 02:10:36.04	253.31	8.19	
2025-01-20 02:10:36.44	253.27	8.16	
2025-01-20 02:10:36.85	253.24	8.14	
2025-01-20 02:10:37.26	253.20	8.11	
2025-01-20 02:10:37.66	253.16	8.08	
2025-01-20 02:10:38.07	253.13	8.05	
2025-01-20 02:10:38.47	253.09	8.02	
2025-01-20 02:10:38.88	253.06	8.00	
2025-01-20 02:10:39.28	253.02	7.97	
2025-01-20 02:10:39.69	252.99	7.94	
2025-01-20 02:10:40.10	252.95	7.91	
2025-01-20 02:10:40.50	252.92	7.88	
2025-01-20 02:10:40.91	252.88	7.86	
2025-01-20 02:10:41.31	252.85	7.83	
2025-01-20 02:10:41.72	252.81	7.80	
2025-01-20 02:10:42.13	252.78	7.77	
2025-01-20 02:10:42.53	252.74	7.75	
2025-01-20 02:10:42.94	252.71	7.72	
2025-01-20 02:10:43.34	252.67	7.69	
2025-01-20 02:10:43.75	252.64	7.66	
2025-01-20 02:10:44.16	252.61	7.63	
2025-01-20 02:10:44.56	252.57	7.61	
2025-01-20 02:10:44.97	252.54	7.58	
2025-01-20 02:10:45.37	252.50	7.55	
2025-01-20 02:10:45.78	252.47	7.52	
2025-01-20 02:10:46.19	252.43	7.50	
2025-01-20 02:10:46.59	252.40	7.47	
2025-01-20 02:10:47.00	252.37	7.44	
2025-01-20 02:10:47.40	252.33	7.41	
2025-01-20 02:10:47.81	252.30	7.39	
2025-01-20 02:10:48.21	252.27	7.36	
2025-01-20 02:10:48.62	252.23	7.33	
2025-01-20 02:10:49.03	252.20	7.30	
2025-01-20 02:10:49.43	252.16	7.28	
2025-01-20 02:10:49.84	252.13	7.25	
2025-01-20 02:10:50.24	252.10	7.22	
2025-01-20 02:10:50.65	252.06	7.19	
2025-01-20 02:10:51.06	252.03	7.17	
2025-01-20 02:10:51.46	252.00	7.14	
2025-01-20 02:10:51.87	251.96	7.11	
2025-01-20 02:10:52.27	251.93	7.09	
2025-01-20 02:10:52.68	251.90	7.06	
2025-01-20 02:10:53.09	251.87	7.03	
2025-01-20 02:10:53.49	251.83	7.00	
2025-01-20 02:10:53.90	251.80	6.98	
2025-01-20 02:10:54.30	251.77	6.95	
2025-01-20 02:10:54.71	251.73	6.92	
2025-01-20 02:10:55.12	251.70	6.89	
2025-01-20 02:10:55.52	251.67	6.87	
2025-01-20 02:10:55.93	251.64	6.84	
2025-01-20 02:10:56.33	251.60	6.81	
2025-01-20 02:10:56.74	251.57	6.79	
2025-01-20 02:10:57.14	251.54	6.76	
2025-01-20 02:10:57.55	251.51	6.73	
2025-01-20 02:10:57.96	251.47	6.70	
2025-01-20 02:10:58.36	251.44	6.68	
2025-01-20 02:10:58.77	251.41	6.65	
2025-01-20 02:10:59.17	251.38	6.62	
2025-01-20 02:10:59.58	251.35	6.60	
2025-01-20 02:10:59.99	251.31	6.57	
2025-01-20 02:11:00.39	251.28	6.54	
2025-01-20 02:11:00.80	251.25	6.52	
2025-01-20 02:11:01.20	251.22	6.49	
2025-01-20 02:11:01.61	251.19	6.46	
2025-01-20 02:11:02.02	251.16	6.44	
2025-01-20 02:11:02.42	251.12	6.41	
2025-01-20 02:11:02.83	251.09	6.38	
2025-01-20 02:11:03.23	251.06	6.36	
2025-01-20 02:11:03.64	251.03	6.33	
2025-01-20 02:11:04.05	251.00	6.30	
2025-01-20 02:11:04.45	250.97	6.28	
2025-01-20 02:11:04.86	250.94	6.25	
2025-01-20 02:11:05.26	250.91	6.22	
2025-01-20 02:11:05.67	250.87	6.20	
2025-01-20 02:11:06.08	250.84	6.17	
2025-01-20 02:11:06.48	250.81	6.14	
2025-01-20 02:11:06.89	250.78	6.12	
2025-01-20 02:11:07.29	250.75	6.09	
2025-01-20 02:11:07.70	250.72	6.06	
2025-01-20 02:11:08.10	250.69	6.04	
2025-01-20 02:11:08.51	250.66	6.01	
2025-01-20 02:11:08.92	250.63	5.98	
2025-01-20 02:11:09.32	250.60	5.96	
2025-01-20 02:11:09.73	250.57	5.93	
2025-01-20 02:11:10.13	250.54	5.90	
2025-01-20 02:11:10.54	250.51	5.88	
2025-01-20 02:11:10.95	250.48	5.85	
2025-01-20 02:11:11.35	250.45	5.83	
2025-01-20 02:11:11.76	250.42	5.80	
2025-01-20 02:11:12.16	250.39	5.77	
2025-01-20 02:11:12.57	250.36	5.75	
2025-01-20 02:11:12.98	250.32	5.72	
2025-01-20 02:11:13.38	250.30	5.69	
2025-01-20 02:11:13.79	250.27	5.67	
2025-01-20 02:11:14.19	250.24	5.64	
2025-01-20 02:11:14.60	250.21	5.61	
2025-01-20 02:11:15.01	250.18	5.59	
2025-01-20 02:11:15.41	250.15	5.56	
2025-01-20 02:11:15.82	250.12	5.54	
2025-01-20 02:11:16.22	250.09	5.51	
2025-01-20 02:11:16.63	250.06	5.48	
2025-01-20 02:11:17.03	250.03	5.46	
2025-01-20 02:11:17.44	250.00	5.43	
2025-01-20 02:11:17.85	249.97	5.41	
2025-01-20 02:11:18.25	249.94	5.38	
2025-01-20 02:11:18.66	249.91	5.35	
2025-01-20 02:11:19.06	249.88	5.33	
2025-01-20 02:11:19.47	249.85	5.30	
2025-01-20 02:11:19.88	249.82	5.28	
2025-01-20 02:11:20.28	249.79	5.25	
2025-01-20 02:11:20.69	249.76	5.22	
2025-01-20 02:11:21.09	249.74	5.20	
2025-01-20 02:11:21.50	249.71	5.17	
2025-01-20 02:11:21.91	249.68	5.15	
2025-01-20 02:11:22.31	249.65	5.12	
2025-01-20 02:11:22.72	249.62	5.09	
2025-01-20 02:11:23.12	249.59	5.07	
2025-01-20 02:11:23.53	249.56	5.04	
2025-01-20 02:11:23.94	249.53	5.02	
2025-01-20 02:11:24.34	249.51	4.99	
2025-01-20 02:11:24.75	249.48	4.97	
2025-01-20 02:11:25.15	249.45	4.94	
2025-01-20 02:11:25.56	249.42	4.91	
2025-01-20 02:11:25.96	249.39	4.89	
2025-01-20 02:11:26.37	249.36	4.86	
2025-01-20 02:11:26.78	249.34	4.84	
2025-01-20 02:11:27.18	249.31	4.81	
2025-01-20 02:11:27.59	249.28	4.79	
2025-01-20 02:11:27.99	249.25	4.76	
2025-01-20 02:11:28.40	249.22	4.73	
2025-01-20 02:11:28.81	249.20	4.71	
2025-01-20 02:11:29.21	249.17	4.68	
2025-01-20 02:11:29.62	249.14	4.66	
2025-01-20 02:11:30.02	249.11	4.63	
2025-01-20 02:11:30.43	249.08	4.61	
2025-01-20 02:11:30.84	249.06	4.58	
2025-01-20 02:11:31.24	249.03	4.56	
2025-01-20 02:11:31.65	249.00	4.53	
2025-01-20 02:11:32.05	248.97	4.51	
2025-01-20 02:11:32.46	248.95	4.48	
2025-01-20 02:11:32.87	248.92	4.45	
2025-01-20 02:11:33.27	248.89	4.43	
2025-01-20 02:11:33.68	248.86	4.40	
2025-01-20 02:11:34.08	248.84	4.38	
2025-01-20 02:11:34.49	248.81	4.35	
2025-01-20 02:11:34.89	248.78	4.33	
2025-01-20 02:11:35.30	248.76	4.30	
2025-01-20 02:11:35.71	248.73	4.28	
2025-01-20 02:11:36.11	248.70	4.25	
2025-01-20 02:11:36.52	248.67	4.23	
2025-01-20 02:11:36.92	248.65	4.20	
2025-01-20 02:11:37.33	248.62	4.18	
2025-01-20 02:11:37.74	248.59	4.15	
2025-01-20 02:11:38.14	248.57	4.13	
2025-01-20 02:11:38.55	248.54	4.10	
2025-01-20 02:11:38.95	248.51	4.08	
2025-01-20 02:11:39.36	248.49	4.05	
2025-01-20 02:11:39.77	248.46	4.03	
2025-01-20 02:11:40.17	248.43	4.00	

#Closed at: 2025-01-20 02:11:40