passes_logs/2025/01/20/SPB_Silybum_02/SPB_Silybum_02__20250120_111736_TERRA_rec.log

#Pass ID: 20250120_111736_TERRA
#Satellite: TERRA
#Configuration: TERRA
#Start time: 2025-01-20 11:17:36

#Version: 2.0.20230423
#Station: SPB_Silybum_02
#Location: 30.233357 lon 59.946436 lat
#TLE: 1 25994U 99068A   25019.78905911  .00001081  00000+0  23261-3 0  9994
#TLE: 2 25994  98.0208  82.6669 0003303  62.5205  49.3311 14.60406058334773

#Time	Az	El	Level	Level2	SNR	BER	Gain	Gain2
2025-01-20 11:17:38.78	5.46	4.10	
2025-01-20 11:17:39.59	5.35	4.14	
2025-01-20 11:17:40.40	5.25	4.17	
2025-01-20 11:17:41.21	5.14	4.21	
2025-01-20 11:17:42.03	5.04	4.25	
2025-01-20 11:17:42.84	4.93	4.28	
2025-01-20 11:17:43.65	4.82	4.32	
2025-01-20 11:17:44.46	4.72	4.35	
2025-01-20 11:17:45.28	4.61	4.39	
2025-01-20 11:17:46.09	4.50	4.42	
2025-01-20 11:17:46.90	4.40	4.46	
2025-01-20 11:17:47.71	4.29	4.50	
2025-01-20 11:17:48.53	4.18	4.53	
2025-01-20 11:17:49.34	4.07	4.57	
2025-01-20 11:17:50.15	3.96	4.60	
2025-01-20 11:17:50.96	3.85	4.64	
2025-01-20 11:17:51.78	3.74	4.67	
2025-01-20 11:17:52.59	3.63	4.71	
2025-01-20 11:17:53.40	3.52	4.74	
2025-01-20 11:17:54.21	3.41	4.78	
2025-01-20 11:17:55.02	3.30	4.81	
2025-01-20 11:17:55.84	3.19	4.85	
2025-01-20 11:17:56.65	3.08	4.88	
2025-01-20 11:17:57.46	2.97	4.92	
2025-01-20 11:17:58.27	2.86	4.95	
2025-01-20 11:17:59.09	2.75	4.99	
2025-01-20 11:17:59.90	2.63	5.03	
2025-01-20 11:18:00.71	2.52	5.06	
2025-01-20 11:18:01.52	2.41	5.10	
2025-01-20 11:18:02.34	2.29	5.13	
2025-01-20 11:18:03.15	2.18	5.17	
2025-01-20 11:18:03.96	2.07	5.20	
2025-01-20 11:18:04.77	1.95	5.23	
2025-01-20 11:18:05.59	1.84	5.27	
2025-01-20 11:18:06.40	1.72	5.30	
2025-01-20 11:18:07.21	1.61	5.34	
2025-01-20 11:18:08.02	1.49	5.37	
2025-01-20 11:18:08.84	1.38	5.41	
2025-01-20 11:18:09.65	1.26	5.44	
2025-01-20 11:18:10.46	1.15	5.48	
2025-01-20 11:18:11.27	1.03	5.51	
2025-01-20 11:18:12.09	0.91	5.55	
2025-01-20 11:18:12.90	0.79	5.58	
2025-01-20 11:18:13.71	0.68	5.61	
2025-01-20 11:18:14.52	0.56	5.65	
2025-01-20 11:18:15.34	0.44	5.68	
2025-01-20 11:18:16.15	0.32	5.72	
2025-01-20 11:18:16.96	0.20	5.75	
2025-01-20 11:18:17.77	0.08	5.78	
2025-01-20 11:18:18.58	359.97	5.82	
2025-01-20 11:18:19.40	359.85	5.85	
2025-01-20 11:18:20.21	359.73	5.88	
2025-01-20 11:18:21.02	359.61	5.92	
2025-01-20 11:18:21.83	359.49	5.95	
2025-01-20 11:18:22.65	359.36	5.99	
2025-01-20 11:18:23.46	359.24	6.02	
2025-01-20 11:18:24.27	359.12	6.05	
2025-01-20 11:18:25.08	359.00	6.09	
2025-01-20 11:18:25.90	358.88	6.12	
2025-01-20 11:18:26.71	358.75	6.15	
2025-01-20 11:18:27.52	358.63	6.19	
2025-01-20 11:18:28.33	358.51	6.22	
2025-01-20 11:18:29.15	358.38	6.25	
2025-01-20 11:18:29.96	358.26	6.28	
2025-01-20 11:18:30.77	358.14	6.32	
2025-01-20 11:18:31.58	358.01	6.35	
2025-01-20 11:18:32.40	357.89	6.38	
2025-01-20 11:18:33.21	357.76	6.42	
2025-01-20 11:18:34.02	357.64	6.45	
2025-01-20 11:18:34.83	357.51	6.48	
2025-01-20 11:18:35.65	357.39	6.51	
2025-01-20 11:18:36.46	357.26	6.54	
2025-01-20 11:18:37.27	357.13	6.58	
2025-01-20 11:18:38.08	357.01	6.61	
2025-01-20 11:18:38.90	356.88	6.64	
2025-01-20 11:18:39.71	356.75	6.67	
2025-01-20 11:18:40.52	356.62	6.71	
2025-01-20 11:18:41.33	356.50	6.74	
2025-01-20 11:18:42.14	356.37	6.77	
2025-01-20 11:18:42.96	356.24	6.80	
2025-01-20 11:18:43.77	356.11	6.83	
2025-01-20 11:18:44.58	355.98	6.86	
2025-01-20 11:18:45.39	355.85	6.89	
2025-01-20 11:18:46.21	355.72	6.93	
2025-01-20 11:18:47.02	355.59	6.96	
2025-01-20 11:18:47.83	355.46	6.99	
2025-01-20 11:18:48.64	355.33	7.02	
2025-01-20 11:18:49.46	355.20	7.05	
2025-01-20 11:18:50.27	355.07	7.08	
2025-01-20 11:18:51.08	354.94	7.11	
2025-01-20 11:18:51.89	354.80	7.14	
2025-01-20 11:18:52.71	354.67	7.17	
2025-01-20 11:18:53.52	354.54	7.20	
2025-01-20 11:18:54.33	354.41	7.23	
2025-01-20 11:18:55.14	354.27	7.26	
2025-01-20 11:18:55.96	354.14	7.30	
2025-01-20 11:18:56.77	354.00	7.33	
2025-01-20 11:18:57.58	353.87	7.36	
2025-01-20 11:18:58.39	353.74	7.38	
2025-01-20 11:18:59.21	353.60	7.42	
2025-01-20 11:19:00.02	353.47	7.44	
2025-01-20 11:19:00.83	353.33	7.47	
2025-01-20 11:19:01.64	353.20	7.50	
2025-01-20 11:19:02.46	353.06	7.53	
2025-01-20 11:19:03.27	352.92	7.56	
2025-01-20 11:19:04.08	352.79	7.59	
2025-01-20 11:19:04.89	352.65	7.62	
2025-01-20 11:19:05.70	352.51	7.65	
2025-01-20 11:19:06.52	352.37	7.68	
2025-01-20 11:19:07.33	352.24	7.71	
2025-01-20 11:19:08.14	352.10	7.74	
2025-01-20 11:19:08.95	351.96	7.76	
2025-01-20 11:19:09.77	351.82	7.79	
2025-01-20 11:19:10.58	351.68	7.82	
2025-01-20 11:19:11.39	351.54	7.85	
2025-01-20 11:19:12.20	351.40	7.88	
2025-01-20 11:19:13.02	351.26	7.91	
2025-01-20 11:19:13.83	351.12	7.93	
2025-01-20 11:19:14.64	350.98	7.96	
2025-01-20 11:19:15.45	350.84	7.99	
2025-01-20 11:19:16.27	350.70	8.02	
2025-01-20 11:19:17.08	350.56	8.04	
2025-01-20 11:19:17.89	350.42	8.07	
2025-01-20 11:19:18.70	350.27	8.10	
2025-01-20 11:19:19.52	350.13	8.12	
2025-01-20 11:19:20.33	349.99	8.15	
2025-01-20 11:19:21.14	349.85	8.18	
2025-01-20 11:19:21.95	349.70	8.20	
2025-01-20 11:19:22.77	349.56	8.23	
2025-01-20 11:19:23.58	349.42	8.26	
2025-01-20 11:19:24.39	349.27	8.28	
2025-01-20 11:19:25.20	349.13	8.31	
2025-01-20 11:19:26.02	348.98	8.34	
2025-01-20 11:19:26.83	348.84	8.36	
2025-01-20 11:19:27.64	348.69	8.39	
2025-01-20 11:19:28.45	348.55	8.41	
2025-01-20 11:19:29.26	348.40	8.44	
2025-01-20 11:19:30.08	348.26	8.46	
2025-01-20 11:19:30.89	348.11	8.49	
2025-01-20 11:19:31.70	347.96	8.51	
2025-01-20 11:19:32.51	347.82	8.54	
2025-01-20 11:19:33.33	347.67	8.56	
2025-01-20 11:19:34.14	347.52	8.59	
2025-01-20 11:19:34.95	347.37	8.61	
2025-01-20 11:19:35.76	347.23	8.64	
2025-01-20 11:19:36.58	347.08	8.66	
2025-01-20 11:19:37.39	346.93	8.68	
2025-01-20 11:19:38.20	346.78	8.71	
2025-01-20 11:19:39.01	346.63	8.73	
2025-01-20 11:19:39.83	346.48	8.76	
2025-01-20 11:19:40.64	346.33	8.78	
2025-01-20 11:19:41.45	346.18	8.80	
2025-01-20 11:19:42.26	346.03	8.82	
2025-01-20 11:19:43.08	345.88	8.85	
2025-01-20 11:19:43.89	345.73	8.87	
2025-01-20 11:19:44.70	345.58	8.89	
2025-01-20 11:19:45.51	345.43	8.92	
2025-01-20 11:19:46.33	345.28	8.94	
2025-01-20 11:19:47.14	345.13	8.96	
2025-01-20 11:19:47.95	344.97	8.98	
2025-01-20 11:19:48.76	344.82	9.00	
2025-01-20 11:19:49.58	344.67	9.03	
2025-01-20 11:19:50.39	344.52	9.05	
2025-01-20 11:19:51.20	344.36	9.07	
2025-01-20 11:19:52.01	344.21	9.09	
2025-01-20 11:19:52.82	344.06	9.11	
2025-01-20 11:19:53.64	343.90	9.13	
2025-01-20 11:19:54.45	343.75	9.15	
2025-01-20 11:19:55.26	343.60	9.17	
2025-01-20 11:19:56.07	343.44	9.19	
2025-01-20 11:19:56.89	343.29	9.21	
2025-01-20 11:19:57.70	343.13	9.23	
2025-01-20 11:19:58.51	342.98	9.25	
2025-01-20 11:19:59.32	342.82	9.27	
2025-01-20 11:20:00.14	342.67	9.29	
2025-01-20 11:20:00.95	342.51	9.31	
2025-01-20 11:20:01.76	342.35	9.33	
2025-01-20 11:20:02.57	342.20	9.35	
2025-01-20 11:20:03.39	342.04	9.37	
2025-01-20 11:20:04.20	341.89	9.39	
2025-01-20 11:20:05.01	341.73	9.41	
2025-01-20 11:20:05.82	341.57	9.42	
2025-01-20 11:20:06.64	341.41	9.44	
2025-01-20 11:20:07.45	341.26	9.46	
2025-01-20 11:20:08.26	341.10	9.48	
2025-01-20 11:20:09.07	340.94	9.50	
2025-01-20 11:20:09.89	340.78	9.51	
2025-01-20 11:20:10.70	340.62	9.53	
2025-01-20 11:20:11.51	340.47	9.55	
2025-01-20 11:20:12.32	340.31	9.56	
2025-01-20 11:20:13.14	340.15	9.58	
2025-01-20 11:20:13.95	339.99	9.60	
2025-01-20 11:20:14.76	339.83	9.61	
2025-01-20 11:20:15.57	339.67	9.63	
2025-01-20 11:20:16.38	339.51	9.64	
2025-01-20 11:20:17.20	339.35	9.66	
2025-01-20 11:20:18.01	339.19	9.68	
2025-01-20 11:20:18.82	339.03	9.69	
2025-01-20 11:20:19.63	338.87	9.71	
2025-01-20 11:20:20.45	338.71	9.72	
2025-01-20 11:20:21.26	338.55	9.74	
2025-01-20 11:20:22.07	338.39	9.75	
2025-01-20 11:20:22.88	338.23	9.76	
2025-01-20 11:20:23.70	338.06	9.78	
2025-01-20 11:20:24.51	337.90	9.79	
2025-01-20 11:20:25.32	337.74	9.81	
2025-01-20 11:20:26.13	337.58	9.82	
2025-01-20 11:20:26.95	337.42	9.83	
2025-01-20 11:20:27.76	337.26	9.85	
2025-01-20 11:20:28.57	337.09	9.86	
2025-01-20 11:20:29.38	336.93	9.87	
2025-01-20 11:20:30.20	336.77	9.89	
2025-01-20 11:20:31.01	336.60	9.90	
2025-01-20 11:20:31.82	336.44	9.91	
2025-01-20 11:20:32.63	336.28	9.92	
2025-01-20 11:20:33.45	336.11	9.93	
2025-01-20 11:20:34.26	335.95	9.94	
2025-01-20 11:20:35.07	335.79	9.96	
2025-01-20 11:20:35.88	335.63	9.97	
2025-01-20 11:20:36.70	335.46	9.98	
2025-01-20 11:20:37.51	335.30	9.99	
2025-01-20 11:20:38.32	335.13	10.00	
2025-01-20 11:20:39.13	334.97	10.01	
2025-01-20 11:20:39.94	334.81	10.02	
2025-01-20 11:20:40.76	334.64	10.03	
2025-01-20 11:20:41.57	334.48	10.04	
2025-01-20 11:20:42.38	334.31	10.05	
2025-01-20 11:20:43.19	334.15	10.06	
2025-01-20 11:20:44.01	333.98	10.07	
2025-01-20 11:20:44.82	333.82	10.08	
2025-01-20 11:20:45.63	333.65	10.08	
2025-01-20 11:20:46.44	333.49	10.09	
2025-01-20 11:20:47.26	333.32	10.10	
2025-01-20 11:20:48.07	333.15	10.11	
2025-01-20 11:20:48.88	332.99	10.12	
2025-01-20 11:20:49.69	332.82	10.12	
2025-01-20 11:20:50.51	332.66	10.13	
2025-01-20 11:20:51.32	332.49	10.14	
2025-01-20 11:20:52.13	332.33	10.15	
2025-01-20 11:20:52.94	332.16	10.15	
2025-01-20 11:20:53.76	331.99	10.16	
2025-01-20 11:20:54.57	331.83	10.17	
2025-01-20 11:20:55.38	331.66	10.17	
2025-01-20 11:20:56.19	331.50	10.18	
2025-01-20 11:20:57.01	331.33	10.18	
2025-01-20 11:20:57.82	331.16	10.19	
2025-01-20 11:20:58.63	331.00	10.19	
2025-01-20 11:20:59.44	330.83	10.20	
2025-01-20 11:21:00.26	330.66	10.20	
2025-01-20 11:21:01.07	330.50	10.21	
2025-01-20 11:21:01.88	330.33	10.21	
2025-01-20 11:21:02.69	330.16	10.22	
2025-01-20 11:21:03.50	330.00	10.22	
2025-01-20 11:21:04.32	329.83	10.22	
2025-01-20 11:21:05.13	329.66	10.23	
2025-01-20 11:21:05.94	329.49	10.23	
2025-01-20 11:21:06.75	329.33	10.23	
2025-01-20 11:21:07.57	329.16	10.24	
2025-01-20 11:21:08.38	328.99	10.24	
2025-01-20 11:21:09.19	328.83	10.24	
2025-01-20 11:21:10.00	328.66	10.24	
2025-01-20 11:21:10.82	328.49	10.24	
2025-01-20 11:21:11.63	328.32	10.25	
2025-01-20 11:21:12.44	328.16	10.25	
2025-01-20 11:21:13.25	327.99	10.25	
2025-01-20 11:21:14.07	327.82	10.25	
2025-01-20 11:21:14.88	327.65	10.25	
2025-01-20 11:21:15.69	327.49	10.25	
2025-01-20 11:21:16.50	327.32	10.25	
2025-01-20 11:21:17.32	327.15	10.25	
2025-01-20 11:21:18.13	326.98	10.25	
2025-01-20 11:21:18.94	326.82	10.25	
2025-01-20 11:21:19.75	326.65	10.25	
2025-01-20 11:21:20.57	326.48	10.25	
2025-01-20 11:21:21.38	326.32	10.25	
2025-01-20 11:21:22.19	326.15	10.25	
2025-01-20 11:21:23.00	325.98	10.25	
2025-01-20 11:21:23.82	325.81	10.24	
2025-01-20 11:21:24.63	325.65	10.24	
2025-01-20 11:21:25.44	325.48	10.24	
2025-01-20 11:21:26.25	325.31	10.24	
2025-01-20 11:21:27.06	325.15	10.24	
2025-01-20 11:21:27.88	324.98	10.23	
2025-01-20 11:21:28.69	324.81	10.23	
2025-01-20 11:21:29.50	324.64	10.23	
2025-01-20 11:21:30.31	324.48	10.22	
2025-01-20 11:21:31.13	324.31	10.22	
2025-01-20 11:21:31.94	324.14	10.22	
2025-01-20 11:21:32.75	323.98	10.21	
2025-01-20 11:21:33.56	323.81	10.21	
2025-01-20 11:21:34.38	323.64	10.20	
2025-01-20 11:21:35.19	323.48	10.20	
2025-01-20 11:21:36.00	323.31	10.19	
2025-01-20 11:21:36.81	323.14	10.19	
2025-01-20 11:21:37.63	322.97	10.18	
2025-01-20 11:21:38.44	322.81	10.18	
2025-01-20 11:21:39.25	322.64	10.17	
2025-01-20 11:21:40.06	322.48	10.17	
2025-01-20 11:21:40.88	322.31	10.16	
2025-01-20 11:21:41.69	322.14	10.15	
2025-01-20 11:21:42.50	321.98	10.15	
2025-01-20 11:21:43.31	321.81	10.14	
2025-01-20 11:21:44.13	321.64	10.13	
2025-01-20 11:21:44.94	321.48	10.12	
2025-01-20 11:21:45.75	321.31	10.12	
2025-01-20 11:21:46.56	321.15	10.11	
2025-01-20 11:21:47.38	320.98	10.10	
2025-01-20 11:21:48.19	320.82	10.09	
2025-01-20 11:21:49.00	320.65	10.08	
2025-01-20 11:21:49.81	320.49	10.08	
2025-01-20 11:21:50.62	320.32	10.07	
2025-01-20 11:21:51.44	320.16	10.06	
2025-01-20 11:21:52.25	319.99	10.05	
2025-01-20 11:21:53.06	319.83	10.04	
2025-01-20 11:21:53.87	319.66	10.03	
2025-01-20 11:21:54.69	319.50	10.02	
2025-01-20 11:21:55.50	319.33	10.01	
2025-01-20 11:21:56.31	319.17	10.00	
2025-01-20 11:21:57.12	319.01	9.99	
2025-01-20 11:21:57.94	318.84	9.98	
2025-01-20 11:21:58.75	318.68	9.97	
2025-01-20 11:21:59.56	318.51	9.96	
2025-01-20 11:22:00.37	318.35	9.94	
2025-01-20 11:22:01.19	318.18	9.93	
2025-01-20 11:22:02.00	318.02	9.92	
2025-01-20 11:22:02.81	317.86	9.91	
2025-01-20 11:22:03.62	317.70	9.90	
2025-01-20 11:22:04.44	317.53	9.88	
2025-01-20 11:22:05.25	317.37	9.87	
2025-01-20 11:22:06.06	317.21	9.86	
2025-01-20 11:22:06.87	317.04	9.85	
2025-01-20 11:22:07.69	316.88	9.83	
2025-01-20 11:22:08.50	316.72	9.82	
2025-01-20 11:22:09.31	316.56	9.81	
2025-01-20 11:22:10.12	316.40	9.79	
2025-01-20 11:22:10.94	316.23	9.78	
2025-01-20 11:22:11.75	316.07	9.76	
2025-01-20 11:22:12.56	315.91	9.75	
2025-01-20 11:22:13.37	315.75	9.74	
2025-01-20 11:22:14.18	315.59	9.72	
2025-01-20 11:22:15.00	315.43	9.71	
2025-01-20 11:22:15.81	315.27	9.69	
2025-01-20 11:22:16.62	315.11	9.68	
2025-01-20 11:22:17.43	314.95	9.66	
2025-01-20 11:22:18.25	314.79	9.64	
2025-01-20 11:22:19.06	314.63	9.63	
2025-01-20 11:22:19.87	314.47	9.61	
2025-01-20 11:22:20.68	314.31	9.60	
2025-01-20 11:22:21.50	314.15	9.58	
2025-01-20 11:22:22.31	313.99	9.56	
2025-01-20 11:22:23.12	313.83	9.55	
2025-01-20 11:22:23.93	313.67	9.53	
2025-01-20 11:22:24.75	313.51	9.51	
2025-01-20 11:22:25.56	313.35	9.49	
2025-01-20 11:22:26.37	313.20	9.48	
2025-01-20 11:22:27.18	313.04	9.46	
2025-01-20 11:22:28.00	312.88	9.44	
2025-01-20 11:22:28.81	312.72	9.42	
2025-01-20 11:22:29.62	312.57	9.41	
2025-01-20 11:22:30.43	312.41	9.39	
2025-01-20 11:22:31.25	312.25	9.37	
2025-01-20 11:22:32.06	312.09	9.35	
2025-01-20 11:22:32.87	311.94	9.33	
2025-01-20 11:22:33.68	311.78	9.31	
2025-01-20 11:22:34.50	311.63	9.29	
2025-01-20 11:22:35.31	311.47	9.27	
2025-01-20 11:22:36.12	311.31	9.25	
2025-01-20 11:22:36.93	311.16	9.23	
2025-01-20 11:22:37.74	311.01	9.21	
2025-01-20 11:22:38.56	310.85	9.19	
2025-01-20 11:22:39.37	310.69	9.17	
2025-01-20 11:22:40.18	310.54	9.15	
2025-01-20 11:22:40.99	310.39	9.13	
2025-01-20 11:22:41.81	310.23	9.11	
2025-01-20 11:22:42.62	310.08	9.09	
2025-01-20 11:22:43.43	309.93	9.07	
2025-01-20 11:22:44.24	309.77	9.05	
2025-01-20 11:22:45.06	309.62	9.02	
2025-01-20 11:22:45.87	309.47	9.00	
2025-01-20 11:22:46.68	309.31	8.98	
2025-01-20 11:22:47.49	309.16	8.96	
2025-01-20 11:22:48.31	309.01	8.94	
2025-01-20 11:22:49.12	308.86	8.91	
2025-01-20 11:22:49.93	308.71	8.89	
2025-01-20 11:22:50.74	308.56	8.87	
2025-01-20 11:22:51.56	308.40	8.85	
2025-01-20 11:22:52.37	308.25	8.82	
2025-01-20 11:22:53.18	308.10	8.80	
2025-01-20 11:22:53.99	307.95	8.78	
2025-01-20 11:22:54.81	307.80	8.75	
2025-01-20 11:22:55.62	307.65	8.73	
2025-01-20 11:22:56.43	307.50	8.71	
2025-01-20 11:22:57.24	307.36	8.68	
2025-01-20 11:22:58.06	307.21	8.66	
2025-01-20 11:22:58.87	307.06	8.63	
2025-01-20 11:22:59.68	306.91	8.61	
2025-01-20 11:23:00.49	306.76	8.59	
2025-01-20 11:23:01.30	306.61	8.56	
2025-01-20 11:23:02.12	306.47	8.54	
2025-01-20 11:23:02.93	306.32	8.51	
2025-01-20 11:23:03.74	306.17	8.49	
2025-01-20 11:23:04.55	306.03	8.46	
2025-01-20 11:23:05.37	305.88	8.44	
2025-01-20 11:23:06.18	305.73	8.41	
2025-01-20 11:23:06.99	305.59	8.39	
2025-01-20 11:23:07.80	305.44	8.36	
2025-01-20 11:23:08.62	305.30	8.33	
2025-01-20 11:23:09.43	305.15	8.31	
2025-01-20 11:23:10.24	305.01	8.28	
2025-01-20 11:23:11.05	304.86	8.26	
2025-01-20 11:23:11.87	304.72	8.23	
2025-01-20 11:23:12.68	304.57	8.20	
2025-01-20 11:23:13.49	304.43	8.18	
2025-01-20 11:23:14.30	304.29	8.15	
2025-01-20 11:23:15.12	304.14	8.12	
2025-01-20 11:23:15.93	304.00	8.10	
2025-01-20 11:23:16.74	303.86	8.07	
2025-01-20 11:23:17.55	303.72	8.04	
2025-01-20 11:23:18.37	303.58	8.01	
2025-01-20 11:23:19.18	303.43	7.99	
2025-01-20 11:23:19.99	303.29	7.96	
2025-01-20 11:23:20.80	303.15	7.93	
2025-01-20 11:23:21.62	303.01	7.90	
2025-01-20 11:23:22.43	302.87	7.88	
2025-01-20 11:23:23.24	302.73	7.85	
2025-01-20 11:23:24.05	302.59	7.82	
2025-01-20 11:23:24.86	302.45	7.79	
2025-01-20 11:23:25.68	302.31	7.76	
2025-01-20 11:23:26.49	302.17	7.73	
2025-01-20 11:23:27.30	302.04	7.70	
2025-01-20 11:23:28.11	301.90	7.68	
2025-01-20 11:23:28.93	301.76	7.65	
2025-01-20 11:23:29.74	301.62	7.62	
2025-01-20 11:23:30.55	301.48	7.59	
2025-01-20 11:23:31.36	301.35	7.56	
2025-01-20 11:23:32.18	301.21	7.53	
2025-01-20 11:23:32.99	301.07	7.50	
2025-01-20 11:23:33.80	300.94	7.47	
2025-01-20 11:23:34.61	300.80	7.44	
2025-01-20 11:23:35.43	300.67	7.41	
2025-01-20 11:23:36.24	300.53	7.38	
2025-01-20 11:23:37.05	300.40	7.35	
2025-01-20 11:23:37.86	300.26	7.32	
2025-01-20 11:23:38.68	300.13	7.29	
2025-01-20 11:23:39.49	299.99	7.26	
2025-01-20 11:23:40.30	299.86	7.23	
2025-01-20 11:23:41.11	299.73	7.20	
2025-01-20 11:23:41.93	299.59	7.17	
2025-01-20 11:23:42.74	299.46	7.14	
2025-01-20 11:23:43.55	299.33	7.11	
2025-01-20 11:23:44.36	299.20	7.08	
2025-01-20 11:23:45.17	299.06	7.05	
2025-01-20 11:23:45.99	298.93	7.02	
2025-01-20 11:23:46.80	298.80	6.99	
2025-01-20 11:23:47.61	298.67	6.95	
2025-01-20 11:23:48.42	298.54	6.92	
2025-01-20 11:23:49.24	298.41	6.89	
2025-01-20 11:23:50.05	298.28	6.86	
2025-01-20 11:23:50.86	298.15	6.83	
2025-01-20 11:23:51.67	298.02	6.80	
2025-01-20 11:23:52.49	297.89	6.77	
2025-01-20 11:23:53.30	297.76	6.73	
2025-01-20 11:23:54.11	297.63	6.70	
2025-01-20 11:23:54.92	297.51	6.67	
2025-01-20 11:23:55.74	297.38	6.64	
2025-01-20 11:23:56.55	297.25	6.61	
2025-01-20 11:23:57.36	297.12	6.57	
2025-01-20 11:23:58.17	297.00	6.54	
2025-01-20 11:23:58.99	296.87	6.51	
2025-01-20 11:23:59.80	296.74	6.48	
2025-01-20 11:24:00.61	296.62	6.44	
2025-01-20 11:24:01.42	296.49	6.41	
2025-01-20 11:24:02.24	296.36	6.38	
2025-01-20 11:24:03.05	296.24	6.35	
2025-01-20 11:24:03.86	296.12	6.31	
2025-01-20 11:24:04.67	295.99	6.28	
2025-01-20 11:24:05.49	295.87	6.25	
2025-01-20 11:24:06.30	295.74	6.21	
2025-01-20 11:24:07.11	295.62	6.18	
2025-01-20 11:24:07.92	295.50	6.15	
2025-01-20 11:24:08.73	295.37	6.11	
2025-01-20 11:24:09.55	295.25	6.08	
2025-01-20 11:24:10.36	295.13	6.05	
2025-01-20 11:24:11.17	295.01	6.01	
2025-01-20 11:24:11.98	294.89	5.98	
2025-01-20 11:24:12.80	294.76	5.95	
2025-01-20 11:24:13.61	294.64	5.91	
2025-01-20 11:24:14.42	294.52	5.88	
2025-01-20 11:24:15.23	294.40	5.85	
2025-01-20 11:24:16.05	294.28	5.81	
2025-01-20 11:24:16.86	294.16	5.78	
2025-01-20 11:24:17.67	294.04	5.74	
2025-01-20 11:24:18.48	293.92	5.71	
2025-01-20 11:24:19.30	293.80	5.68	
2025-01-20 11:24:20.11	293.68	5.64	
2025-01-20 11:24:20.92	293.57	5.61	
2025-01-20 11:24:21.73	293.45	5.57	
2025-01-20 11:24:22.55	293.33	5.54	
2025-01-20 11:24:23.36	293.21	5.51	
2025-01-20 11:24:24.17	293.10	5.47	
2025-01-20 11:24:24.98	292.98	5.44	
2025-01-20 11:24:25.80	292.86	5.40	
2025-01-20 11:24:26.61	292.75	5.37	
2025-01-20 11:24:27.42	292.63	5.33	
2025-01-20 11:24:28.23	292.52	5.30	
2025-01-20 11:24:29.05	292.40	5.26	
2025-01-20 11:24:29.86	292.29	5.23	
2025-01-20 11:24:30.67	292.17	5.19	
2025-01-20 11:24:31.48	292.06	5.16	
2025-01-20 11:24:32.30	291.94	5.12	
2025-01-20 11:24:33.11	291.83	5.09	
2025-01-20 11:24:33.92	291.72	5.05	
2025-01-20 11:24:34.73	291.60	5.02	
2025-01-20 11:24:35.54	291.49	4.98	
2025-01-20 11:24:36.36	291.38	4.95	
2025-01-20 11:24:37.17	291.26	4.91	
2025-01-20 11:24:37.98	291.15	4.88	
2025-01-20 11:24:38.79	291.04	4.84	
2025-01-20 11:24:39.61	290.93	4.81	
2025-01-20 11:24:40.42	290.82	4.77	
2025-01-20 11:24:41.23	290.71	4.74	
2025-01-20 11:24:42.04	290.60	4.70	
2025-01-20 11:24:42.86	290.49	4.67	
2025-01-20 11:24:43.67	290.38	4.63	
2025-01-20 11:24:44.48	290.27	4.60	
2025-01-20 11:24:45.29	290.16	4.56	
2025-01-20 11:24:46.11	290.05	4.52	
2025-01-20 11:24:46.92	289.94	4.49	
2025-01-20 11:24:47.73	289.83	4.45	
2025-01-20 11:24:48.54	289.73	4.42	
2025-01-20 11:24:49.36	289.62	4.38	
2025-01-20 11:24:50.17	289.51	4.35	
2025-01-20 11:24:50.98	289.40	4.31	
2025-01-20 11:24:51.79	289.30	4.27	
2025-01-20 11:24:52.61	289.19	4.24	
2025-01-20 11:24:53.42	289.08	4.20	
2025-01-20 11:24:54.23	288.98	4.17	
2025-01-20 11:24:55.04	288.87	4.13	
2025-01-20 11:24:55.85	288.77	4.09	
2025-01-20 11:24:56.67	288.66	4.06	
2025-01-20 11:24:57.48	288.56	4.02	

#Closed at: 2025-01-20 11:24:58