passes_logs/2025/01/20/SPB_Silybum_02/SPB_Silybum_02__20250120_101200_SUOMI_NPP_rec.log

#Pass ID: 20250120_101200_SUOMI NPP
#Satellite: SUOMI NPP
#Configuration: NPP
#Start time: 2025-01-20 10:12:01

#Version: 2.0.20230423
#Station: SPB_Silybum_02
#Location: 30.233357 lon 59.946436 lat
#TLE: 1 37849U 11061A   25019.85382012  .00000269  00000+0  14855-3 0  9998
#TLE: 2 37849  98.7451 320.7810 0001479  33.1387 326.9881 14.19541038685602

#Time	Az	El	Level	Level2	SNR	BER	Gain	Gain2
2025-01-20 10:12:03.46	157.11	4.19	
2025-01-20 10:12:04.88	157.11	4.29	
2025-01-20 10:12:06.30	157.11	4.39	
2025-01-20 10:12:07.73	157.11	4.49	
2025-01-20 10:12:09.15	157.11	4.59	
2025-01-20 10:12:10.57	157.11	4.69	
2025-01-20 10:12:11.99	157.11	4.79	
2025-01-20 10:12:13.41	157.11	4.89	
2025-01-20 10:12:14.83	157.11	4.99	
2025-01-20 10:12:16.26	157.11	5.09	
2025-01-20 10:12:17.68	157.11	5.20	
2025-01-20 10:12:19.10	157.11	5.30	
2025-01-20 10:12:20.52	157.11	5.40	
2025-01-20 10:12:21.94	157.11	5.51	
2025-01-20 10:12:23.36	157.11	5.61	
2025-01-20 10:12:24.78	157.11	5.72	
2025-01-20 10:12:26.21	157.11	5.82	
2025-01-20 10:12:27.63	157.10	5.93	
2025-01-20 10:12:29.05	157.10	6.03	
2025-01-20 10:12:30.47	157.10	6.14	
2025-01-20 10:12:31.89	157.10	6.25	
2025-01-20 10:12:33.31	157.10	6.35	
2025-01-20 10:12:34.74	157.10	6.46	
2025-01-20 10:12:36.16	157.10	6.57	
2025-01-20 10:12:37.58	157.10	6.68	
2025-01-20 10:12:39.00	157.10	6.79	
2025-01-20 10:12:40.42	157.10	6.90	
2025-01-20 10:12:41.84	157.10	7.01	
2025-01-20 10:12:43.26	157.09	7.12	
2025-01-20 10:12:44.69	157.09	7.23	
2025-01-20 10:12:46.11	157.09	7.34	
2025-01-20 10:12:47.53	157.09	7.45	
2025-01-20 10:12:48.95	157.09	7.56	
2025-01-20 10:12:50.37	157.09	7.68	
2025-01-20 10:12:51.79	157.09	7.79	
2025-01-20 10:12:53.22	157.09	7.90	
2025-01-20 10:12:54.64	157.08	8.02	
2025-01-20 10:12:56.06	157.08	8.13	
2025-01-20 10:12:57.48	157.08	8.25	
2025-01-20 10:12:58.90	157.08	8.36	
2025-01-20 10:13:00.32	157.08	8.48	
2025-01-20 10:13:01.74	157.08	8.60	
2025-01-20 10:13:03.17	157.07	8.72	
2025-01-20 10:13:04.59	157.07	8.83	
2025-01-20 10:13:06.01	157.07	8.95	
2025-01-20 10:13:07.43	157.07	9.07	
2025-01-20 10:13:08.85	157.07	9.19	
2025-01-20 10:13:10.27	157.07	9.31	
2025-01-20 10:13:11.70	157.06	9.43	
2025-01-20 10:13:13.12	157.06	9.56	
2025-01-20 10:13:14.54	157.06	9.68	
2025-01-20 10:13:15.96	157.06	9.80	
2025-01-20 10:13:17.38	157.06	9.92	
2025-01-20 10:13:18.80	157.05	10.05	
2025-01-20 10:13:20.22	157.05	10.17	
2025-01-20 10:13:21.65	157.05	10.30	
2025-01-20 10:13:23.07	157.05	10.42	
2025-01-20 10:13:24.49	157.04	10.55	
2025-01-20 10:13:25.91	157.04	10.68	
2025-01-20 10:13:27.33	157.04	10.81	
2025-01-20 10:13:28.75	157.04	10.93	
2025-01-20 10:13:30.18	157.03	11.07	
2025-01-20 10:13:31.60	157.03	11.20	
2025-01-20 10:13:33.02	157.03	11.33	
2025-01-20 10:13:34.44	157.02	11.46	
2025-01-20 10:13:35.86	157.02	11.59	
2025-01-20 10:13:37.28	157.02	11.72	
2025-01-20 10:13:38.70	157.02	11.86	
2025-01-20 10:13:40.13	157.01	11.99	
2025-01-20 10:13:41.55	157.01	12.13	
2025-01-20 10:13:42.97	157.01	12.26	
2025-01-20 10:13:44.39	157.00	12.40	
2025-01-20 10:13:45.81	157.00	12.53	
2025-01-20 10:13:47.23	157.00	12.67	
2025-01-20 10:13:48.65	156.99	12.81	
2025-01-20 10:13:50.08	156.99	12.95	
2025-01-20 10:13:51.50	156.98	13.09	
2025-01-20 10:13:52.92	156.98	13.23	
2025-01-20 10:13:54.34	156.98	13.38	
2025-01-20 10:13:55.76	156.97	13.52	
2025-01-20 10:13:57.18	156.97	13.66	
2025-01-20 10:13:58.61	156.96	13.81	
2025-01-20 10:14:00.03	156.96	13.95	
2025-01-20 10:14:01.45	156.96	14.10	
2025-01-20 10:14:02.87	156.95	14.25	
2025-01-20 10:14:04.29	156.95	14.39	
2025-01-20 10:14:05.71	156.94	14.54	
2025-01-20 10:14:07.13	156.94	14.69	
2025-01-20 10:14:08.56	156.93	14.85	
2025-01-20 10:14:09.98	156.93	15.00	
2025-01-20 10:14:11.40	156.92	15.15	
2025-01-20 10:14:12.82	156.92	15.30	
2025-01-20 10:14:14.24	156.91	15.46	
2025-01-20 10:14:15.66	156.91	15.61	
2025-01-20 10:14:17.09	156.90	15.77	
2025-01-20 10:14:18.51	156.90	15.93	
2025-01-20 10:14:19.93	156.89	16.09	
2025-01-20 10:14:21.35	156.89	16.25	
2025-01-20 10:14:22.77	156.88	16.41	
2025-01-20 10:14:24.19	156.87	16.57	
2025-01-20 10:14:25.61	156.87	16.73	
2025-01-20 10:14:27.04	156.86	16.90	
2025-01-20 10:14:28.46	156.86	17.07	
2025-01-20 10:14:29.88	156.85	17.23	
2025-01-20 10:14:31.30	156.84	17.40	
2025-01-20 10:14:32.72	156.84	17.57	
2025-01-20 10:14:34.14	156.83	17.74	
2025-01-20 10:14:35.57	156.82	17.91	
2025-01-20 10:14:36.99	156.82	18.08	
2025-01-20 10:14:38.41	156.81	18.26	
2025-01-20 10:14:39.83	156.80	18.43	
2025-01-20 10:14:41.25	156.80	18.61	
2025-01-20 10:14:42.67	156.79	18.78	
2025-01-20 10:14:44.09	156.78	18.96	
2025-01-20 10:14:45.52	156.77	19.14	
2025-01-20 10:14:46.94	156.76	19.32	
2025-01-20 10:14:48.36	156.76	19.51	
2025-01-20 10:14:49.78	156.75	19.69	
2025-01-20 10:14:51.20	156.74	19.87	
2025-01-20 10:14:52.62	156.73	20.06	
2025-01-20 10:14:54.05	156.72	20.25	
2025-01-20 10:14:55.47	156.71	20.44	
2025-01-20 10:14:56.89	156.71	20.63	
2025-01-20 10:14:58.31	156.70	20.82	
2025-01-20 10:14:59.73	156.69	21.02	
2025-01-20 10:15:01.15	156.68	21.21	
2025-01-20 10:15:02.57	156.67	21.41	
2025-01-20 10:15:04.00	156.66	21.61	
2025-01-20 10:15:05.42	156.65	21.81	
2025-01-20 10:15:06.84	156.64	22.01	
2025-01-20 10:15:08.26	156.63	22.21	
2025-01-20 10:15:09.68	156.62	22.42	
2025-01-20 10:15:11.10	156.61	22.62	
2025-01-20 10:15:12.53	156.60	22.83	
2025-01-20 10:15:13.95	156.58	23.04	
2025-01-20 10:15:15.37	156.57	23.25	
2025-01-20 10:15:16.79	156.56	23.47	
2025-01-20 10:15:18.21	156.55	23.68	
2025-01-20 10:15:19.63	156.54	23.90	
2025-01-20 10:15:21.05	156.53	24.12	
2025-01-20 10:15:22.48	156.51	24.34	
2025-01-20 10:15:23.90	156.50	24.56	
2025-01-20 10:15:25.32	156.49	24.79	
2025-01-20 10:15:26.74	156.47	25.01	
2025-01-20 10:15:28.16	156.46	25.24	
2025-01-20 10:15:29.58	156.45	25.47	
2025-01-20 10:15:31.01	156.43	25.70	
2025-01-20 10:15:32.43	156.42	25.94	
2025-01-20 10:15:33.85	156.40	26.17	
2025-01-20 10:15:35.27	156.39	26.41	
2025-01-20 10:15:36.69	156.37	26.65	
2025-01-20 10:15:38.11	156.36	26.90	
2025-01-20 10:15:39.53	156.34	27.14	
2025-01-20 10:15:40.96	156.33	27.39	
2025-01-20 10:15:42.38	156.31	27.64	
2025-01-20 10:15:43.80	156.29	27.89	
2025-01-20 10:15:45.22	156.28	28.14	
2025-01-20 10:15:46.64	156.26	28.40	
2025-01-20 10:15:48.06	156.24	28.66	
2025-01-20 10:15:49.49	156.22	28.92	
2025-01-20 10:15:50.91	156.20	29.18	
2025-01-20 10:15:52.33	156.19	29.45	
2025-01-20 10:15:53.75	156.17	29.72	
2025-01-20 10:15:55.17	156.15	29.99	
2025-01-20 10:15:56.59	156.13	30.26	
2025-01-20 10:15:58.01	156.11	30.54	
2025-01-20 10:15:59.44	156.09	30.82	
2025-01-20 10:16:00.86	156.06	31.10	
2025-01-20 10:16:02.28	156.04	31.38	
2025-01-20 10:16:03.70	156.02	31.67	
2025-01-20 10:16:05.12	156.00	31.96	
2025-01-20 10:16:06.54	155.97	32.25	
2025-01-20 10:16:07.97	155.95	32.55	
2025-01-20 10:16:09.39	155.93	32.85	
2025-01-20 10:16:10.81	155.90	33.15	
2025-01-20 10:16:12.23	155.88	33.46	
2025-01-20 10:16:13.65	155.85	33.76	
2025-01-20 10:16:15.07	155.82	34.07	
2025-01-20 10:16:16.49	155.80	34.39	
2025-01-20 10:16:17.92	155.77	34.71	
2025-01-20 10:16:19.34	155.74	35.03	
2025-01-20 10:16:20.76	155.71	35.35	
2025-01-20 10:16:22.18	155.68	35.68	
2025-01-20 10:16:23.60	155.65	36.01	
2025-01-20 10:16:25.02	155.62	36.34	
2025-01-20 10:16:26.44	155.59	36.68	
2025-01-20 10:16:27.87	155.55	37.02	
2025-01-20 10:16:29.29	155.52	37.37	
2025-01-20 10:16:30.71	155.49	37.71	
2025-01-20 10:16:32.13	155.45	38.06	
2025-01-20 10:16:33.55	155.42	38.42	
2025-01-20 10:16:34.97	155.38	38.78	
2025-01-20 10:16:36.40	155.34	39.14	
2025-01-20 10:16:37.82	155.30	39.51	
2025-01-20 10:16:39.24	155.26	39.88	
2025-01-20 10:16:40.66	155.22	40.25	
2025-01-20 10:16:42.08	155.18	40.63	
2025-01-20 10:16:43.50	155.14	41.01	
2025-01-20 10:16:44.92	155.09	41.40	
2025-01-20 10:16:46.35	155.05	41.79	
2025-01-20 10:16:47.77	155.00	42.19	
2025-01-20 10:16:49.19	154.95	42.59	
2025-01-20 10:16:50.61	154.90	42.99	
2025-01-20 10:16:52.03	154.85	43.40	
2025-01-20 10:16:53.45	154.80	43.81	
2025-01-20 10:16:54.88	154.75	44.23	
2025-01-20 10:16:56.30	154.69	44.65	
2025-01-20 10:16:57.72	154.64	45.07	
2025-01-20 10:16:59.14	154.58	45.50	
2025-01-20 10:17:00.56	154.52	45.94	
2025-01-20 10:17:01.98	154.46	46.38	
2025-01-20 10:17:03.40	154.39	46.82	
2025-01-20 10:17:04.83	154.33	47.27	
2025-01-20 10:17:06.25	154.26	47.72	
2025-01-20 10:17:07.67	154.19	48.18	
2025-01-20 10:17:09.09	154.12	48.64	
2025-01-20 10:17:10.51	154.04	49.11	
2025-01-20 10:17:11.93	153.97	49.58	
2025-01-20 10:17:13.36	153.89	50.06	
2025-01-20 10:17:14.78	153.80	50.55	
2025-01-20 10:17:16.20	153.72	51.03	
2025-01-20 10:17:17.62	153.63	51.52	
2025-01-20 10:17:19.04	153.54	52.02	
2025-01-20 10:17:20.46	153.44	52.52	
2025-01-20 10:17:21.88	153.35	53.03	
2025-01-20 10:17:23.31	153.24	53.55	
2025-01-20 10:17:24.73	153.14	54.07	
2025-01-20 10:17:26.15	153.03	54.59	
2025-01-20 10:17:27.57	152.92	55.12	
2025-01-20 10:17:28.99	152.80	55.65	
2025-01-20 10:17:30.41	152.68	56.19	
2025-01-20 10:17:31.84	152.55	56.73	
2025-01-20 10:17:33.26	152.41	57.28	
2025-01-20 10:17:34.68	152.27	57.84	
2025-01-20 10:17:36.10	152.13	58.40	
2025-01-20 10:17:37.52	151.98	58.96	
2025-01-20 10:17:38.94	151.82	59.53	
2025-01-20 10:17:40.36	151.65	60.10	
2025-01-20 10:17:41.79	151.48	60.69	
2025-01-20 10:17:43.21	151.30	61.27	
2025-01-20 10:17:44.63	151.10	61.86	
2025-01-20 10:17:46.05	150.90	62.45	
2025-01-20 10:17:47.47	150.69	63.05	
2025-01-20 10:17:48.89	150.47	63.66	
2025-01-20 10:17:50.32	150.23	64.27	
2025-01-20 10:17:51.74	149.99	64.88	
2025-01-20 10:17:53.16	149.72	65.50	
2025-01-20 10:17:54.58	149.45	66.12	
2025-01-20 10:17:56.00	149.15	66.75	
2025-01-20 10:17:57.42	148.84	67.38	
2025-01-20 10:17:58.84	148.51	68.01	
2025-01-20 10:18:00.27	148.15	68.65	
2025-01-20 10:18:01.69	147.78	69.29	
2025-01-20 10:18:03.11	147.37	69.94	
2025-01-20 10:18:04.53	146.94	70.59	
2025-01-20 10:18:05.95	146.47	71.24	
2025-01-20 10:18:07.37	145.97	71.89	
2025-01-20 10:18:08.80	145.43	72.56	
2025-01-20 10:18:10.22	144.84	73.22	
2025-01-20 10:18:11.64	144.20	73.88	
2025-01-20 10:18:13.06	143.50	74.54	
2025-01-20 10:18:14.48	142.74	75.20	
2025-01-20 10:18:15.90	141.90	75.87	
2025-01-20 10:18:17.32	140.98	76.53	
2025-01-20 10:18:18.75	139.95	77.20	
2025-01-20 10:18:20.17	138.81	77.86	
2025-01-20 10:18:21.59	137.54	78.52	
2025-01-20 10:18:23.01	136.11	79.17	
2025-01-20 10:18:24.43	134.49	79.82	
2025-01-20 10:18:25.85	132.64	80.47	
2025-01-20 10:18:27.28	130.51	81.11	
2025-01-20 10:18:28.70	128.07	81.73	
2025-01-20 10:18:30.12	125.23	82.33	
2025-01-20 10:18:31.54	121.90	82.92	
2025-01-20 10:18:32.96	117.99	83.48	
2025-01-20 10:18:34.38	113.36	84.00	
2025-01-20 10:18:35.80	107.88	84.48	
2025-01-20 10:18:37.23	101.39	84.90	
2025-01-20 10:18:38.65	93.89	85.24	
2025-01-20 10:18:40.07	85.39	85.49	
2025-01-20 10:18:41.49	76.11	85.64	
2025-01-20 10:18:42.91	66.48	85.66	
2025-01-20 10:18:44.33	57.03	85.56	
2025-01-20 10:18:45.76	48.15	85.34	
2025-01-20 10:18:47.18	40.29	85.03	
2025-01-20 10:18:48.60	33.47	84.64	
2025-01-20 10:18:50.02	27.66	84.18	
2025-01-20 10:18:51.44	22.75	83.67	
2025-01-20 10:18:52.86	18.59	83.12	
2025-01-20 10:18:54.28	15.07	82.55	
2025-01-20 10:18:55.71	12.05	81.95	
2025-01-20 10:18:57.13	9.47	81.33	
2025-01-20 10:18:58.55	7.25	80.70	
2025-01-20 10:18:59.97	5.31	80.06	
2025-01-20 10:19:01.39	3.62	79.41	
2025-01-20 10:19:02.81	2.12	78.76	
2025-01-20 10:19:04.24	0.79	78.10	
2025-01-20 10:19:05.66	359.60	77.44	
2025-01-20 10:19:07.08	358.54	76.78	
2025-01-20 10:19:08.50	357.58	76.11	
2025-01-20 10:19:09.92	356.72	75.45	
2025-01-20 10:19:11.34	355.93	74.79	
2025-01-20 10:19:12.76	355.21	74.13	
2025-01-20 10:19:14.19	354.55	73.46	
2025-01-20 10:19:15.61	353.94	72.80	
2025-01-20 10:19:17.03	353.39	72.15	
2025-01-20 10:19:18.45	352.87	71.49	
2025-01-20 10:19:19.87	352.39	70.84	
2025-01-20 10:19:21.29	351.95	70.19	
2025-01-20 10:19:22.71	351.53	69.55	
2025-01-20 10:19:24.14	351.14	68.90	
2025-01-20 10:19:25.56	350.78	68.26	
2025-01-20 10:19:26.98	350.44	67.63	
2025-01-20 10:19:28.40	350.13	67.00	
2025-01-20 10:19:29.82	349.83	66.37	
2025-01-20 10:19:31.24	349.54	65.75	
2025-01-20 10:19:32.67	349.27	65.13	
2025-01-20 10:19:34.09	349.02	64.52	
2025-01-20 10:19:35.51	348.78	63.91	
2025-01-20 10:19:36.93	348.56	63.31	
2025-01-20 10:19:38.35	348.34	62.71	
2025-01-20 10:19:39.77	348.14	62.11	
2025-01-20 10:19:41.19	347.94	61.52	
2025-01-20 10:19:42.62	347.76	60.94	
2025-01-20 10:19:44.04	347.58	60.36	
2025-01-20 10:19:45.46	347.41	59.78	
2025-01-20 10:19:46.88	347.25	59.21	
2025-01-20 10:19:48.30	347.10	58.65	
2025-01-20 10:19:49.72	346.95	58.09	
2025-01-20 10:19:51.15	346.81	57.53	
2025-01-20 10:19:52.57	346.67	56.98	
2025-01-20 10:19:53.99	346.54	56.44	
2025-01-20 10:19:55.41	346.42	55.90	
2025-01-20 10:19:56.83	346.30	55.37	
2025-01-20 10:19:58.25	346.19	54.84	
2025-01-20 10:19:59.67	346.07	54.32	
2025-01-20 10:20:01.10	345.97	53.80	
2025-01-20 10:20:02.52	345.87	53.28	
2025-01-20 10:20:03.94	345.77	52.78	
2025-01-20 10:20:05.36	345.67	52.27	
2025-01-20 10:20:06.78	345.58	51.78	
2025-01-20 10:20:08.20	345.49	51.28	
2025-01-20 10:20:09.63	345.40	50.79	
2025-01-20 10:20:11.05	345.32	50.31	
2025-01-20 10:20:12.47	345.24	49.83	
2025-01-20 10:20:13.89	345.16	49.36	
2025-01-20 10:20:15.31	345.09	48.89	
2025-01-20 10:20:16.73	345.02	48.43	
2025-01-20 10:20:18.15	344.95	47.97	
2025-01-20 10:20:19.58	344.88	47.52	
2025-01-20 10:20:21.00	344.81	47.07	
2025-01-20 10:20:22.42	344.75	46.62	
2025-01-20 10:20:23.84	344.69	46.19	
2025-01-20 10:20:25.26	344.63	45.75	
2025-01-20 10:20:26.68	344.57	45.32	
2025-01-20 10:20:28.11	344.51	44.89	
2025-01-20 10:20:29.53	344.45	44.47	
2025-01-20 10:20:30.95	344.40	44.06	
2025-01-20 10:20:32.37	344.35	43.64	
2025-01-20 10:20:33.79	344.30	43.24	
2025-01-20 10:20:35.21	344.25	42.83	
2025-01-20 10:20:36.63	344.20	42.44	
2025-01-20 10:20:38.06	344.15	42.04	
2025-01-20 10:20:39.48	344.11	41.65	
2025-01-20 10:20:40.90	344.07	41.26	
2025-01-20 10:20:42.32	344.02	40.88	
2025-01-20 10:20:43.74	343.98	40.50	
2025-01-20 10:20:45.16	343.94	40.13	
2025-01-20 10:20:46.59	343.90	39.75	
2025-01-20 10:20:48.01	343.86	39.39	
2025-01-20 10:20:49.43	343.82	39.02	
2025-01-20 10:20:50.85	343.79	38.67	
2025-01-20 10:20:52.27	343.75	38.31	
2025-01-20 10:20:53.69	343.72	37.96	
2025-01-20 10:20:55.11	343.68	37.61	
2025-01-20 10:20:56.54	343.65	37.26	
2025-01-20 10:20:57.96	343.62	36.92	
2025-01-20 10:20:59.38	343.59	36.59	
2025-01-20 10:21:00.80	343.55	36.25	
2025-01-20 10:21:02.22	343.52	35.92	
2025-01-20 10:21:03.64	343.49	35.60	
2025-01-20 10:21:05.07	343.47	35.27	
2025-01-20 10:21:06.49	343.44	34.95	
2025-01-20 10:21:07.91	343.41	34.63	
2025-01-20 10:21:09.33	343.38	34.32	
2025-01-20 10:21:10.75	343.36	34.01	
2025-01-20 10:21:12.17	343.33	33.70	
2025-01-20 10:21:13.59	343.31	33.40	
2025-01-20 10:21:15.02	343.28	33.09	
2025-01-20 10:21:16.44	343.26	32.79	
2025-01-20 10:21:17.86	343.23	32.50	
2025-01-20 10:21:19.28	343.21	32.21	
2025-01-20 10:21:20.70	343.19	31.92	
2025-01-20 10:21:22.12	343.17	31.63	
2025-01-20 10:21:23.55	343.15	31.34	
2025-01-20 10:21:24.97	343.13	31.06	
2025-01-20 10:21:26.39	343.10	30.78	
2025-01-20 10:21:27.81	343.08	30.51	
2025-01-20 10:21:29.23	343.07	30.23	
2025-01-20 10:21:30.65	343.05	29.96	
2025-01-20 10:21:32.07	343.03	29.69	
2025-01-20 10:21:33.50	343.01	29.43	
2025-01-20 10:21:34.92	342.99	29.16	
2025-01-20 10:21:36.34	342.97	28.90	
2025-01-20 10:21:37.76	342.96	28.64	
2025-01-20 10:21:39.18	342.94	28.39	
2025-01-20 10:21:40.60	342.92	28.13	
2025-01-20 10:21:42.03	342.91	27.88	
2025-01-20 10:21:43.45	342.89	27.63	
2025-01-20 10:21:44.87	342.88	27.38	
2025-01-20 10:21:46.29	342.86	27.14	
2025-01-20 10:21:47.71	342.85	26.90	
2025-01-20 10:21:49.13	342.83	26.66	
2025-01-20 10:21:50.55	342.82	26.42	
2025-01-20 10:21:51.98	342.80	26.18	
2025-01-20 10:21:53.40	342.79	25.94	
2025-01-20 10:21:54.82	342.78	25.71	
2025-01-20 10:21:56.24	342.76	25.48	
2025-01-20 10:21:57.66	342.75	25.25	
2025-01-20 10:21:59.08	342.74	25.03	
2025-01-20 10:22:00.51	342.72	24.80	
2025-01-20 10:22:01.93	342.71	24.58	
2025-01-20 10:22:03.35	342.70	24.36	
2025-01-20 10:22:04.77	342.69	24.14	
2025-01-20 10:22:06.19	342.68	23.92	
2025-01-20 10:22:07.61	342.67	23.71	
2025-01-20 10:22:09.03	342.66	23.50	
2025-01-20 10:22:10.46	342.65	23.28	
2025-01-20 10:22:11.88	342.64	23.07	
2025-01-20 10:22:13.30	342.62	22.87	
2025-01-20 10:22:14.72	342.61	22.66	
2025-01-20 10:22:16.14	342.61	22.45	
2025-01-20 10:22:17.56	342.60	22.25	
2025-01-20 10:22:18.98	342.59	22.05	
2025-01-20 10:22:20.41	342.58	21.85	
2025-01-20 10:22:21.83	342.57	21.65	
2025-01-20 10:22:23.25	342.56	21.45	
2025-01-20 10:22:24.67	342.55	21.26	
2025-01-20 10:22:26.09	342.54	21.06	
2025-01-20 10:22:27.51	342.53	20.87	
2025-01-20 10:22:28.94	342.53	20.68	
2025-01-20 10:22:30.36	342.52	20.49	
2025-01-20 10:22:31.78	342.51	20.30	
2025-01-20 10:22:33.20	342.50	20.12	
2025-01-20 10:22:34.62	342.49	19.93	
2025-01-20 10:22:36.04	342.49	19.75	
2025-01-20 10:22:37.46	342.48	19.57	
2025-01-20 10:22:38.89	342.47	19.38	
2025-01-20 10:22:40.31	342.47	19.20	
2025-01-20 10:22:41.73	342.46	19.03	
2025-01-20 10:22:43.15	342.45	18.85	
2025-01-20 10:22:44.57	342.45	18.67	
2025-01-20 10:22:45.99	342.44	18.50	
2025-01-20 10:22:47.42	342.43	18.32	
2025-01-20 10:22:48.84	342.43	18.15	
2025-01-20 10:22:50.26	342.42	17.98	
2025-01-20 10:22:51.68	342.42	17.81	
2025-01-20 10:22:53.10	342.41	17.64	
2025-01-20 10:22:54.52	342.41	17.47	
2025-01-20 10:22:55.94	342.40	17.31	
2025-01-20 10:22:57.37	342.40	17.14	
2025-01-20 10:22:58.79	342.39	16.98	
2025-01-20 10:23:00.21	342.39	16.81	
2025-01-20 10:23:01.63	342.38	16.65	
2025-01-20 10:23:03.05	342.38	16.49	
2025-01-20 10:23:04.47	342.37	16.33	
2025-01-20 10:23:05.90	342.37	16.17	
2025-01-20 10:23:07.32	342.36	16.01	
2025-01-20 10:23:08.74	342.36	15.86	
2025-01-20 10:23:10.16	342.35	15.70	
2025-01-20 10:23:11.58	342.35	15.55	
2025-01-20 10:23:13.00	342.35	15.39	
2025-01-20 10:23:14.42	342.34	15.24	
2025-01-20 10:23:15.85	342.34	15.09	
2025-01-20 10:23:17.27	342.33	14.94	
2025-01-20 10:23:18.69	342.33	14.79	
2025-01-20 10:23:20.11	342.33	14.64	
2025-01-20 10:23:21.53	342.32	14.49	
2025-01-20 10:23:22.95	342.32	14.34	
2025-01-20 10:23:24.38	342.32	14.19	
2025-01-20 10:23:25.80	342.31	14.05	
2025-01-20 10:23:27.22	342.31	13.90	
2025-01-20 10:23:28.64	342.31	13.76	
2025-01-20 10:23:30.06	342.30	13.62	
2025-01-20 10:23:31.48	342.30	13.48	
2025-01-20 10:23:32.90	342.30	13.34	
2025-01-20 10:23:34.33	342.30	13.19	
2025-01-20 10:23:35.75	342.29	13.05	
2025-01-20 10:23:37.17	342.29	12.92	
2025-01-20 10:23:38.59	342.29	12.78	
2025-01-20 10:23:40.01	342.29	12.64	
2025-01-20 10:23:41.43	342.28	12.50	
2025-01-20 10:23:42.86	342.28	12.37	
2025-01-20 10:23:44.28	342.28	12.23	
2025-01-20 10:23:45.70	342.28	12.10	
2025-01-20 10:23:47.12	342.28	11.96	
2025-01-20 10:23:48.54	342.27	11.83	
2025-01-20 10:23:49.96	342.27	11.70	
2025-01-20 10:23:51.38	342.27	11.57	
2025-01-20 10:23:52.81	342.27	11.44	
2025-01-20 10:23:54.23	342.27	11.31	
2025-01-20 10:23:55.65	342.27	11.18	
2025-01-20 10:23:57.07	342.27	11.05	
2025-01-20 10:23:58.49	342.26	10.92	
2025-01-20 10:23:59.91	342.26	10.79	
2025-01-20 10:24:01.34	342.26	10.67	
2025-01-20 10:24:02.76	342.26	10.54	
2025-01-20 10:24:04.18	342.26	10.42	
2025-01-20 10:24:05.60	342.26	10.29	
2025-01-20 10:24:07.02	342.26	10.17	
2025-01-20 10:24:08.44	342.26	10.04	
2025-01-20 10:24:09.86	342.25	9.92	
2025-01-20 10:24:11.29	342.25	9.80	
2025-01-20 10:24:12.71	342.25	9.68	
2025-01-20 10:24:14.13	342.25	9.56	
2025-01-20 10:24:15.55	342.25	9.44	
2025-01-20 10:24:16.97	342.25	9.32	
2025-01-20 10:24:18.39	342.25	9.20	
2025-01-20 10:24:19.82	342.25	9.08	
2025-01-20 10:24:21.24	342.25	8.96	
2025-01-20 10:24:22.66	342.25	8.84	
2025-01-20 10:24:24.08	342.25	8.73	
2025-01-20 10:24:25.50	342.25	8.61	
2025-01-20 10:24:26.92	342.25	8.49	
2025-01-20 10:24:28.34	342.25	8.38	
2025-01-20 10:24:29.77	342.25	8.26	
2025-01-20 10:24:31.19	342.25	8.15	
2025-01-20 10:24:32.61	342.25	8.03	
2025-01-20 10:24:34.03	342.25	7.92	
2025-01-20 10:24:35.45	342.25	7.81	
2025-01-20 10:24:36.87	342.25	7.70	
2025-01-20 10:24:38.30	342.25	7.58	
2025-01-20 10:24:39.72	342.25	7.47	
2025-01-20 10:24:41.14	342.25	7.36	
2025-01-20 10:24:42.56	342.25	7.25	
2025-01-20 10:24:43.98	342.25	7.14	
2025-01-20 10:24:45.40	342.25	7.03	
2025-01-20 10:24:46.82	342.25	6.92	
2025-01-20 10:24:48.25	342.25	6.81	
2025-01-20 10:24:49.67	342.25	6.71	
2025-01-20 10:24:51.09	342.25	6.60	
2025-01-20 10:24:52.51	342.25	6.49	
2025-01-20 10:24:53.93	342.25	6.38	
2025-01-20 10:24:55.35	342.25	6.28	
2025-01-20 10:24:56.77	342.25	6.17	
2025-01-20 10:24:58.20	342.25	6.07	
2025-01-20 10:24:59.62	342.26	5.96	
2025-01-20 10:25:01.04	342.26	5.86	
2025-01-20 10:25:02.46	342.26	5.75	
2025-01-20 10:25:03.88	342.26	5.65	
2025-01-20 10:25:05.30	342.26	5.55	
2025-01-20 10:25:06.73	342.26	5.44	
2025-01-20 10:25:08.15	342.26	5.34	
2025-01-20 10:25:09.57	342.26	5.24	
2025-01-20 10:25:10.99	342.26	5.14	
2025-01-20 10:25:12.41	342.26	5.04	
2025-01-20 10:25:13.83	342.27	4.93	
2025-01-20 10:25:15.25	342.27	4.83	
2025-01-20 10:25:16.68	342.27	4.73	
2025-01-20 10:25:18.10	342.27	4.63	
2025-01-20 10:25:19.52	342.27	4.53	
2025-01-20 10:25:20.94	342.27	4.43	
2025-01-20 10:25:22.36	342.27	4.34	
2025-01-20 10:25:23.78	342.27	4.24	
2025-01-20 10:25:25.21	342.28	4.14	
2025-01-20 10:25:26.63	342.28	4.04	

#Closed at: 2025-01-20 10:25:27