passes_logs/2025/01/20/SPB_Silybum_02/SPB_Silybum_02__20250120_113352_AQUA_rec.log

#Pass ID: 20250120_113352_AQUA
#Satellite: AQUA
#Configuration: AQUA
#Start time: 2025-01-20 11:33:51

#Version: 2.0.20230423
#Station: SPB_Silybum_02
#Location: 30.233357 lon 59.946436 lat
#TLE: 1 27424U 02022A   25019.86270051  .00002463  00000+0  51518-3 0  9998
#TLE: 2 27424  98.3596 336.5709 0001915 106.8361 278.0854 14.60706016208336

#Time	Az	El	Level	Level2	SNR	BER	Gain	Gain2
2025-01-20 11:33:53.13	165.75	4.05	
2025-01-20 11:33:54.35	165.77	4.14	
2025-01-20 11:33:55.57	165.78	4.22	
2025-01-20 11:33:56.79	165.80	4.31	
2025-01-20 11:33:58.01	165.81	4.40	
2025-01-20 11:33:59.23	165.83	4.49	
2025-01-20 11:34:00.44	165.85	4.58	
2025-01-20 11:34:01.66	165.86	4.67	
2025-01-20 11:34:02.88	165.88	4.76	
2025-01-20 11:34:04.10	165.90	4.85	
2025-01-20 11:34:05.32	165.92	4.94	
2025-01-20 11:34:06.54	165.93	5.03	
2025-01-20 11:34:07.76	165.95	5.12	
2025-01-20 11:34:08.97	165.97	5.22	
2025-01-20 11:34:10.19	165.98	5.31	
2025-01-20 11:34:11.41	166.00	5.40	
2025-01-20 11:34:12.63	166.02	5.49	
2025-01-20 11:34:13.85	166.04	5.59	
2025-01-20 11:34:15.07	166.05	5.68	
2025-01-20 11:34:16.29	166.07	5.78	
2025-01-20 11:34:17.50	166.09	5.87	
2025-01-20 11:34:18.72	166.11	5.97	
2025-01-20 11:34:19.94	166.13	6.06	
2025-01-20 11:34:21.16	166.14	6.16	
2025-01-20 11:34:22.38	166.16	6.25	
2025-01-20 11:34:23.60	166.18	6.35	
2025-01-20 11:34:24.82	166.20	6.45	
2025-01-20 11:34:26.04	166.22	6.54	
2025-01-20 11:34:27.25	166.24	6.64	
2025-01-20 11:34:28.47	166.26	6.74	
2025-01-20 11:34:29.69	166.28	6.84	
2025-01-20 11:34:30.91	166.29	6.94	
2025-01-20 11:34:32.13	166.31	7.04	
2025-01-20 11:34:33.35	166.33	7.14	
2025-01-20 11:34:34.57	166.35	7.24	
2025-01-20 11:34:35.78	166.37	7.34	
2025-01-20 11:34:37.00	166.39	7.44	
2025-01-20 11:34:38.22	166.41	7.54	
2025-01-20 11:34:39.44	166.43	7.64	
2025-01-20 11:34:40.66	166.45	7.74	
2025-01-20 11:34:41.88	166.47	7.85	
2025-01-20 11:34:43.10	166.49	7.95	
2025-01-20 11:34:44.31	166.51	8.05	
2025-01-20 11:34:45.53	166.53	8.16	
2025-01-20 11:34:46.75	166.55	8.26	
2025-01-20 11:34:47.97	166.58	8.37	
2025-01-20 11:34:49.19	166.60	8.47	
2025-01-20 11:34:50.41	166.62	8.58	
2025-01-20 11:34:51.63	166.64	8.69	
2025-01-20 11:34:52.84	166.66	8.79	
2025-01-20 11:34:54.06	166.68	8.90	
2025-01-20 11:34:55.28	166.70	9.01	
2025-01-20 11:34:56.50	166.73	9.12	
2025-01-20 11:34:57.72	166.75	9.23	
2025-01-20 11:34:58.94	166.77	9.34	
2025-01-20 11:35:00.16	166.79	9.45	
2025-01-20 11:35:01.38	166.81	9.56	
2025-01-20 11:35:02.59	166.84	9.67	
2025-01-20 11:35:03.81	166.86	9.78	
2025-01-20 11:35:05.03	166.88	9.90	
2025-01-20 11:35:06.25	166.91	10.01	
2025-01-20 11:35:07.47	166.93	10.13	
2025-01-20 11:35:08.69	166.95	10.24	
2025-01-20 11:35:09.91	166.98	10.35	
2025-01-20 11:35:11.12	167.00	10.47	
2025-01-20 11:35:12.34	167.02	10.59	
2025-01-20 11:35:13.56	167.05	10.70	
2025-01-20 11:35:14.78	167.07	10.82	
2025-01-20 11:35:16.00	167.10	10.94	
2025-01-20 11:35:17.22	167.12	11.06	
2025-01-20 11:35:18.44	167.15	11.18	
2025-01-20 11:35:19.65	167.17	11.30	
2025-01-20 11:35:20.87	167.20	11.42	
2025-01-20 11:35:22.09	167.22	11.54	
2025-01-20 11:35:23.31	167.25	11.66	
2025-01-20 11:35:24.53	167.27	11.78	
2025-01-20 11:35:25.75	167.30	11.91	
2025-01-20 11:35:26.97	167.32	12.03	
2025-01-20 11:35:28.18	167.35	12.15	
2025-01-20 11:35:29.40	167.38	12.28	
2025-01-20 11:35:30.62	167.40	12.41	
2025-01-20 11:35:31.84	167.43	12.53	
2025-01-20 11:35:33.06	167.46	12.66	
2025-01-20 11:35:34.28	167.49	12.79	
2025-01-20 11:35:35.50	167.51	12.92	
2025-01-20 11:35:36.72	167.54	13.05	
2025-01-20 11:35:37.93	167.57	13.18	
2025-01-20 11:35:39.15	167.60	13.31	
2025-01-20 11:35:40.37	167.63	13.44	
2025-01-20 11:35:41.59	167.65	13.58	
2025-01-20 11:35:42.81	167.68	13.71	
2025-01-20 11:35:44.03	167.71	13.84	
2025-01-20 11:35:45.25	167.74	13.98	
2025-01-20 11:35:46.46	167.77	14.12	
2025-01-20 11:35:47.68	167.80	14.25	
2025-01-20 11:35:48.90	167.83	14.39	
2025-01-20 11:35:50.12	167.86	14.53	
2025-01-20 11:35:51.34	167.89	14.67	
2025-01-20 11:35:52.56	167.93	14.81	
2025-01-20 11:35:53.78	167.96	14.95	
2025-01-20 11:35:54.99	167.99	15.09	
2025-01-20 11:35:56.21	168.02	15.24	
2025-01-20 11:35:57.43	168.05	15.38	
2025-01-20 11:35:58.65	168.08	15.53	
2025-01-20 11:35:59.87	168.12	15.67	
2025-01-20 11:36:01.09	168.15	15.82	
2025-01-20 11:36:02.31	168.18	15.97	
2025-01-20 11:36:03.52	168.22	16.12	
2025-01-20 11:36:04.76	168.25	16.27	
2025-01-20 11:36:05.98	168.29	16.42	
2025-01-20 11:36:07.20	168.32	16.57	
2025-01-20 11:36:08.41	168.36	16.73	
2025-01-20 11:36:09.63	168.39	16.88	
2025-01-20 11:36:10.85	168.43	17.04	
2025-01-20 11:36:12.07	168.46	17.19	
2025-01-20 11:36:13.29	168.50	17.35	
2025-01-20 11:36:14.51	168.54	17.51	
2025-01-20 11:36:15.73	168.57	17.67	
2025-01-20 11:36:16.95	168.61	17.83	
2025-01-20 11:36:18.16	168.65	17.99	
2025-01-20 11:36:19.38	168.69	18.15	
2025-01-20 11:36:20.60	168.73	18.32	
2025-01-20 11:36:21.82	168.77	18.48	
2025-01-20 11:36:23.04	168.80	18.65	
2025-01-20 11:36:24.26	168.84	18.82	
2025-01-20 11:36:25.48	168.88	18.99	
2025-01-20 11:36:26.69	168.93	19.16	
2025-01-20 11:36:27.91	168.97	19.33	
2025-01-20 11:36:29.13	169.01	19.50	
2025-01-20 11:36:30.35	169.05	19.68	
2025-01-20 11:36:31.57	169.09	19.85	
2025-01-20 11:36:32.79	169.14	20.03	
2025-01-20 11:36:34.01	169.18	20.21	
2025-01-20 11:36:35.22	169.22	20.39	
2025-01-20 11:36:36.44	169.27	20.57	
2025-01-20 11:36:37.66	169.31	20.75	
2025-01-20 11:36:38.88	169.36	20.94	
2025-01-20 11:36:40.10	169.40	21.12	
2025-01-20 11:36:41.32	169.45	21.31	
2025-01-20 11:36:42.54	169.50	21.50	
2025-01-20 11:36:43.75	169.55	21.69	
2025-01-20 11:36:44.97	169.59	21.88	
2025-01-20 11:36:46.19	169.64	22.07	
2025-01-20 11:36:47.41	169.69	22.27	
2025-01-20 11:36:48.63	169.74	22.47	
2025-01-20 11:36:49.85	169.79	22.66	
2025-01-20 11:36:51.07	169.84	22.86	
2025-01-20 11:36:52.29	169.90	23.07	
2025-01-20 11:36:53.50	169.95	23.27	
2025-01-20 11:36:54.72	170.00	23.47	
2025-01-20 11:36:55.94	170.05	23.68	
2025-01-20 11:36:57.16	170.11	23.89	
2025-01-20 11:36:58.38	170.16	24.10	
2025-01-20 11:36:59.60	170.22	24.31	
2025-01-20 11:37:00.82	170.28	24.53	
2025-01-20 11:37:02.03	170.33	24.74	
2025-01-20 11:37:03.25	170.39	24.96	
2025-01-20 11:37:04.47	170.45	25.18	
2025-01-20 11:37:05.69	170.51	25.40	
2025-01-20 11:37:06.91	170.57	25.62	
2025-01-20 11:37:08.13	170.63	25.85	
2025-01-20 11:37:09.35	170.70	26.08	
2025-01-20 11:37:10.56	170.76	26.31	
2025-01-20 11:37:11.78	170.82	26.54	
2025-01-20 11:37:13.00	170.89	26.77	
2025-01-20 11:37:14.22	170.95	27.01	
2025-01-20 11:37:15.44	171.02	27.25	
2025-01-20 11:37:16.66	171.09	27.49	
2025-01-20 11:37:17.88	171.16	27.73	
2025-01-20 11:37:19.09	171.23	27.97	
2025-01-20 11:37:20.31	171.30	28.22	
2025-01-20 11:37:21.53	171.37	28.47	
2025-01-20 11:37:22.75	171.44	28.72	
2025-01-20 11:37:23.97	171.52	28.98	
2025-01-20 11:37:25.19	171.59	29.24	
2025-01-20 11:37:26.41	171.67	29.50	
2025-01-20 11:37:27.63	171.75	29.76	
2025-01-20 11:37:28.84	171.82	30.02	
2025-01-20 11:37:30.06	171.91	30.29	
2025-01-20 11:37:31.28	171.99	30.56	
2025-01-20 11:37:32.50	172.07	30.83	
2025-01-20 11:37:33.72	172.15	31.11	
2025-01-20 11:37:34.94	172.24	31.38	
2025-01-20 11:37:36.16	172.33	31.67	
2025-01-20 11:37:37.37	172.42	31.95	
2025-01-20 11:37:38.59	172.51	32.23	
2025-01-20 11:37:39.81	172.60	32.52	
2025-01-20 11:37:41.03	172.69	32.82	
2025-01-20 11:37:42.25	172.79	33.11	
2025-01-20 11:37:43.47	172.88	33.41	
2025-01-20 11:37:44.69	172.98	33.71	
2025-01-20 11:37:45.90	173.08	34.01	
2025-01-20 11:37:47.12	173.18	34.32	
2025-01-20 11:37:48.34	173.29	34.63	
2025-01-20 11:37:49.56	173.39	34.94	
2025-01-20 11:37:50.78	173.50	35.26	
2025-01-20 11:37:52.00	173.61	35.58	
2025-01-20 11:37:53.22	173.73	35.91	
2025-01-20 11:37:54.43	173.84	36.23	
2025-01-20 11:37:55.65	173.96	36.56	
2025-01-20 11:37:56.87	174.08	36.89	
2025-01-20 11:37:58.09	174.20	37.23	
2025-01-20 11:37:59.31	174.32	37.57	
2025-01-20 11:38:00.53	174.45	37.92	
2025-01-20 11:38:01.75	174.58	38.27	
2025-01-20 11:38:02.97	174.71	38.62	
2025-01-20 11:38:04.18	174.84	38.97	
2025-01-20 11:38:05.40	174.98	39.33	
2025-01-20 11:38:06.62	175.12	39.69	
2025-01-20 11:38:07.84	175.27	40.06	
2025-01-20 11:38:09.06	175.42	40.43	
2025-01-20 11:38:10.28	175.57	40.81	
2025-01-20 11:38:11.50	175.72	41.19	
2025-01-20 11:38:12.71	175.88	41.56	
2025-01-20 11:38:13.93	176.04	41.95	
2025-01-20 11:38:15.15	176.21	42.34	
2025-01-20 11:38:16.37	176.38	42.74	
2025-01-20 11:38:17.59	176.55	43.14	
2025-01-20 11:38:18.81	176.73	43.54	
2025-01-20 11:38:20.03	176.91	43.95	
2025-01-20 11:38:21.24	177.10	44.35	
2025-01-20 11:38:22.46	177.29	44.77	
2025-01-20 11:38:23.68	177.49	45.19	
2025-01-20 11:38:24.90	177.69	45.62	
2025-01-20 11:38:26.12	177.90	46.04	
2025-01-20 11:38:27.34	178.11	46.48	
2025-01-20 11:38:28.56	178.33	46.91	
2025-01-20 11:38:29.77	178.56	47.35	
2025-01-20 11:38:30.99	178.79	47.80	
2025-01-20 11:38:32.21	179.03	48.25	
2025-01-20 11:38:33.43	179.28	48.70	
2025-01-20 11:38:34.65	179.53	49.16	
2025-01-20 11:38:35.87	179.79	49.63	
2025-01-20 11:38:37.09	180.06	50.09	
2025-01-20 11:38:38.31	180.34	50.57	
2025-01-20 11:38:39.52	180.62	51.04	
2025-01-20 11:38:40.74	180.92	51.52	
2025-01-20 11:38:41.96	181.22	52.01	
2025-01-20 11:38:43.18	181.54	52.50	
2025-01-20 11:38:44.40	181.87	52.99	
2025-01-20 11:38:45.62	182.20	53.49	
2025-01-20 11:38:46.84	182.55	53.99	
2025-01-20 11:38:48.05	182.91	54.49	
2025-01-20 11:38:49.27	183.29	55.00	
2025-01-20 11:38:50.49	183.67	55.52	
2025-01-20 11:38:51.71	184.08	56.03	
2025-01-20 11:38:52.93	184.49	56.56	
2025-01-20 11:38:54.15	184.93	57.08	
2025-01-20 11:38:55.37	185.38	57.61	
2025-01-20 11:38:56.58	185.84	58.14	
2025-01-20 11:38:57.80	186.33	58.67	
2025-01-20 11:38:59.02	186.84	59.21	
2025-01-20 11:39:00.24	187.37	59.75	
2025-01-20 11:39:01.46	187.92	60.29	
2025-01-20 11:39:02.68	188.49	60.84	
2025-01-20 11:39:03.90	189.10	61.39	
2025-01-20 11:39:05.13	189.73	61.94	
2025-01-20 11:39:06.35	190.39	62.50	
2025-01-20 11:39:07.57	191.07	63.05	
2025-01-20 11:39:08.79	191.79	63.60	
2025-01-20 11:39:10.00	192.54	64.15	
2025-01-20 11:39:11.22	193.33	64.71	
2025-01-20 11:39:12.44	194.16	65.26	
2025-01-20 11:39:13.66	195.04	65.82	
2025-01-20 11:39:14.88	195.95	66.37	
2025-01-20 11:39:16.10	196.92	66.92	
2025-01-20 11:39:17.32	197.94	67.47	
2025-01-20 11:39:18.54	199.01	68.01	
2025-01-20 11:39:19.75	200.14	68.55	
2025-01-20 11:39:20.97	201.33	69.08	
2025-01-20 11:39:22.19	202.59	69.62	
2025-01-20 11:39:23.41	203.93	70.14	
2025-01-20 11:39:24.63	205.34	70.66	
2025-01-20 11:39:25.85	206.83	71.16	
2025-01-20 11:39:27.07	208.41	71.66	
2025-01-20 11:39:28.28	210.06	72.14	
2025-01-20 11:39:29.50	211.83	72.61	
2025-01-20 11:39:30.72	213.70	73.07	
2025-01-20 11:39:31.94	215.68	73.51	
2025-01-20 11:39:33.16	217.77	73.94	
2025-01-20 11:39:34.38	219.97	74.34	
2025-01-20 11:39:35.60	222.29	74.72	
2025-01-20 11:39:36.81	224.72	75.08	
2025-01-20 11:39:38.03	227.28	75.41	
2025-01-20 11:39:39.25	229.96	75.71	
2025-01-20 11:39:40.47	232.75	75.99	
2025-01-20 11:39:41.69	235.65	76.23	
2025-01-20 11:39:42.91	238.65	76.43	
2025-01-20 11:39:44.13	241.73	76.60	
2025-01-20 11:39:45.34	244.86	76.73	
2025-01-20 11:39:46.56	248.07	76.82	
2025-01-20 11:39:47.78	251.31	76.87	
2025-01-20 11:39:49.00	254.57	76.88	
2025-01-20 11:39:50.22	257.83	76.85	
2025-01-20 11:39:51.44	261.06	76.77	
2025-01-20 11:39:52.66	264.24	76.66	
2025-01-20 11:39:53.88	267.35	76.51	
2025-01-20 11:39:55.09	270.36	76.32	
2025-01-20 11:39:56.31	273.31	76.10	
2025-01-20 11:39:57.53	276.15	75.84	
2025-01-20 11:39:58.75	278.88	75.55	
2025-01-20 11:39:59.97	281.49	75.23	
2025-01-20 11:40:01.19	283.98	74.89	
2025-01-20 11:40:02.41	286.36	74.51	
2025-01-20 11:40:03.62	288.59	74.12	
2025-01-20 11:40:04.84	290.73	73.71	
2025-01-20 11:40:06.06	292.76	73.28	
2025-01-20 11:40:07.28	294.67	72.83	
2025-01-20 11:40:08.50	296.48	72.36	
2025-01-20 11:40:09.72	298.20	71.88	
2025-01-20 11:40:10.94	299.81	71.39	
2025-01-20 11:40:12.15	301.33	70.89	
2025-01-20 11:40:13.37	302.77	70.38	
2025-01-20 11:40:14.59	304.14	69.86	
2025-01-20 11:40:15.81	305.43	69.33	
2025-01-20 11:40:17.03	306.66	68.80	
2025-01-20 11:40:18.25	307.82	68.26	
2025-01-20 11:40:19.47	308.91	67.72	
2025-01-20 11:40:20.68	309.95	67.18	
2025-01-20 11:40:21.90	310.94	66.63	
2025-01-20 11:40:23.12	311.87	66.08	
2025-01-20 11:40:24.34	312.77	65.53	
2025-01-20 11:40:25.56	313.62	64.98	
2025-01-20 11:40:26.78	314.42	64.42	
2025-01-20 11:40:28.00	315.19	63.87	
2025-01-20 11:40:29.22	315.93	63.32	
2025-01-20 11:40:30.43	316.62	62.77	
2025-01-20 11:40:31.65	317.29	62.22	
2025-01-20 11:40:32.87	317.93	61.67	
2025-01-20 11:40:34.09	318.55	61.12	
2025-01-20 11:40:35.31	319.13	60.57	
2025-01-20 11:40:36.53	319.70	60.03	
2025-01-20 11:40:37.75	320.23	59.49	
2025-01-20 11:40:38.96	320.75	58.96	
2025-01-20 11:40:40.18	321.24	58.42	
2025-01-20 11:40:41.40	321.72	57.89	
2025-01-20 11:40:42.62	322.18	57.36	
2025-01-20 11:40:43.84	322.62	56.84	
2025-01-20 11:40:45.06	323.05	56.31	
2025-01-20 11:40:46.28	323.45	55.80	
2025-01-20 11:40:47.49	323.85	55.29	
2025-01-20 11:40:48.71	324.23	54.78	
2025-01-20 11:40:49.93	324.59	54.27	
2025-01-20 11:40:51.15	324.95	53.77	
2025-01-20 11:40:52.37	325.29	53.27	
2025-01-20 11:40:53.59	325.62	52.78	
2025-01-20 11:40:54.81	325.94	52.29	
2025-01-20 11:40:56.02	326.25	51.80	
2025-01-20 11:40:57.24	326.55	51.32	
2025-01-20 11:40:58.46	326.84	50.85	
2025-01-20 11:40:59.68	327.13	50.37	
2025-01-20 11:41:00.90	327.40	49.90	
2025-01-20 11:41:02.12	327.66	49.44	
2025-01-20 11:41:03.34	327.92	48.98	
2025-01-20 11:41:04.56	328.17	48.52	
2025-01-20 11:41:05.77	328.41	48.08	
2025-01-20 11:41:06.99	328.65	47.63	
2025-01-20 11:41:08.21	328.88	47.19	
2025-01-20 11:41:09.43	329.10	46.75	
2025-01-20 11:41:10.65	329.32	46.32	
2025-01-20 11:41:11.87	329.53	45.89	
2025-01-20 11:41:13.09	329.73	45.46	
2025-01-20 11:41:14.30	329.93	45.05	
2025-01-20 11:41:15.52	330.13	44.63	
2025-01-20 11:41:16.74	330.32	44.22	
2025-01-20 11:41:17.96	330.50	43.81	
2025-01-20 11:41:19.18	330.68	43.41	
2025-01-20 11:41:20.40	330.86	43.01	
2025-01-20 11:41:21.62	331.03	42.61	
2025-01-20 11:41:22.83	331.20	42.22	
2025-01-20 11:41:24.05	331.36	41.84	
2025-01-20 11:41:25.27	331.52	41.45	
2025-01-20 11:41:26.49	331.68	41.07	
2025-01-20 11:41:27.71	331.83	40.70	
2025-01-20 11:41:28.93	331.98	40.33	
2025-01-20 11:41:30.15	332.13	39.96	
2025-01-20 11:41:31.36	332.27	39.60	
2025-01-20 11:41:32.58	332.41	39.24	
2025-01-20 11:41:33.80	332.55	38.88	
2025-01-20 11:41:35.02	332.68	38.53	
2025-01-20 11:41:36.24	332.81	38.18	
2025-01-20 11:41:37.46	332.94	37.84	
2025-01-20 11:41:38.68	333.07	37.49	
2025-01-20 11:41:39.90	333.19	37.16	
2025-01-20 11:41:41.11	333.31	36.82	
2025-01-20 11:41:42.33	333.43	36.49	
2025-01-20 11:41:43.55	333.54	36.17	
2025-01-20 11:41:44.77	333.66	35.84	
2025-01-20 11:41:45.99	333.77	35.52	
2025-01-20 11:41:47.21	333.88	35.20	
2025-01-20 11:41:48.43	333.99	34.89	
2025-01-20 11:41:49.64	334.09	34.58	
2025-01-20 11:41:50.86	334.19	34.27	
2025-01-20 11:41:52.08	334.30	33.97	
2025-01-20 11:41:53.30	334.40	33.67	
2025-01-20 11:41:54.52	334.49	33.37	
2025-01-20 11:41:55.74	334.59	33.07	
2025-01-20 11:41:56.96	334.69	32.78	
2025-01-20 11:41:58.17	334.78	32.49	
2025-01-20 11:41:59.39	334.87	32.20	
2025-01-20 11:42:00.61	334.96	31.92	
2025-01-20 11:42:01.83	335.05	31.64	
2025-01-20 11:42:03.05	335.13	31.36	
2025-01-20 11:42:04.27	335.22	31.08	
2025-01-20 11:42:05.49	335.30	30.81	
2025-01-20 11:42:06.70	335.39	30.54	
2025-01-20 11:42:07.92	335.47	30.28	
2025-01-20 11:42:09.14	335.55	30.01	
2025-01-20 11:42:10.36	335.63	29.75	
2025-01-20 11:42:11.58	335.70	29.49	
2025-01-20 11:42:12.80	335.78	29.23	
2025-01-20 11:42:14.02	335.86	28.97	
2025-01-20 11:42:15.24	335.93	28.72	
2025-01-20 11:42:16.45	336.00	28.47	
2025-01-20 11:42:17.67	336.07	28.23	
2025-01-20 11:42:18.89	336.15	27.98	
2025-01-20 11:42:20.11	336.22	27.74	
2025-01-20 11:42:21.33	336.28	27.50	
2025-01-20 11:42:22.55	336.35	27.26	
2025-01-20 11:42:23.77	336.42	27.02	
2025-01-20 11:42:24.98	336.48	26.79	
2025-01-20 11:42:26.20	336.55	26.56	
2025-01-20 11:42:27.42	336.61	26.32	
2025-01-20 11:42:28.64	336.68	26.10	
2025-01-20 11:42:29.86	336.74	25.87	
2025-01-20 11:42:31.08	336.80	25.65	
2025-01-20 11:42:32.30	336.86	25.42	
2025-01-20 11:42:33.51	336.92	25.21	
2025-01-20 11:42:34.73	336.98	24.99	
2025-01-20 11:42:35.95	337.04	24.77	
2025-01-20 11:42:37.17	337.10	24.56	
2025-01-20 11:42:38.39	337.15	24.34	
2025-01-20 11:42:39.61	337.21	24.13	
2025-01-20 11:42:40.83	337.26	23.92	
2025-01-20 11:42:42.04	337.32	23.72	
2025-01-20 11:42:43.26	337.37	23.51	
2025-01-20 11:42:44.48	337.43	23.31	
2025-01-20 11:42:45.70	337.48	23.11	
2025-01-20 11:42:46.92	337.53	22.91	
2025-01-20 11:42:48.14	337.58	22.71	
2025-01-20 11:42:49.36	337.63	22.51	
2025-01-20 11:42:50.58	337.68	22.32	
2025-01-20 11:42:51.79	337.73	22.13	
2025-01-20 11:42:53.01	337.78	21.93	
2025-01-20 11:42:54.23	337.83	21.74	
2025-01-20 11:42:55.45	337.88	21.55	
2025-01-20 11:42:56.67	337.93	21.37	
2025-01-20 11:42:57.89	337.97	21.18	
2025-01-20 11:42:59.11	338.02	20.99	
2025-01-20 11:43:00.32	338.07	20.81	
2025-01-20 11:43:01.54	338.11	20.63	
2025-01-20 11:43:02.76	338.16	20.45	
2025-01-20 11:43:03.98	338.20	20.27	
2025-01-20 11:43:05.20	338.24	20.09	
2025-01-20 11:43:06.42	338.29	19.92	
2025-01-20 11:43:07.64	338.33	19.74	
2025-01-20 11:43:08.85	338.37	19.57	
2025-01-20 11:43:10.07	338.41	19.40	
2025-01-20 11:43:11.29	338.46	19.23	
2025-01-20 11:43:12.51	338.50	19.06	
2025-01-20 11:43:13.73	338.54	18.89	
2025-01-20 11:43:14.95	338.58	18.72	
2025-01-20 11:43:16.17	338.62	18.56	
2025-01-20 11:43:17.38	338.66	18.39	
2025-01-20 11:43:18.60	338.70	18.23	
2025-01-20 11:43:19.82	338.74	18.07	
2025-01-20 11:43:21.04	338.77	17.91	
2025-01-20 11:43:22.26	338.81	17.75	
2025-01-20 11:43:23.48	338.85	17.59	
2025-01-20 11:43:24.70	338.89	17.43	
2025-01-20 11:43:25.92	338.92	17.27	
2025-01-20 11:43:27.13	338.96	17.12	
2025-01-20 11:43:28.35	339.00	16.96	
2025-01-20 11:43:29.57	339.03	16.81	
2025-01-20 11:43:30.79	339.07	16.66	
2025-01-20 11:43:32.01	339.10	16.51	
2025-01-20 11:43:33.23	339.14	16.36	
2025-01-20 11:43:34.45	339.17	16.21	
2025-01-20 11:43:35.66	339.21	16.06	
2025-01-20 11:43:36.88	339.24	15.91	
2025-01-20 11:43:38.10	339.28	15.77	
2025-01-20 11:43:39.32	339.31	15.62	
2025-01-20 11:43:40.54	339.34	15.48	
2025-01-20 11:43:41.76	339.38	15.33	
2025-01-20 11:43:42.98	339.41	15.19	
2025-01-20 11:43:44.19	339.44	15.05	
2025-01-20 11:43:45.41	339.47	14.91	
2025-01-20 11:43:46.63	339.50	14.77	
2025-01-20 11:43:47.85	339.54	14.63	
2025-01-20 11:43:49.07	339.57	14.49	
2025-01-20 11:43:50.29	339.60	14.35	
2025-01-20 11:43:51.51	339.63	14.22	
2025-01-20 11:43:52.72	339.66	14.08	
2025-01-20 11:43:53.94	339.69	13.95	
2025-01-20 11:43:55.16	339.72	13.81	
2025-01-20 11:43:56.38	339.75	13.68	
2025-01-20 11:43:57.60	339.78	13.55	
2025-01-20 11:43:58.82	339.81	13.42	
2025-01-20 11:44:00.04	339.84	13.29	
2025-01-20 11:44:01.26	339.87	13.16	
2025-01-20 11:44:02.47	339.89	13.03	
2025-01-20 11:44:03.69	339.92	12.90	
2025-01-20 11:44:04.91	339.95	12.77	
2025-01-20 11:44:06.13	339.98	12.64	
2025-01-20 11:44:07.35	340.01	12.52	
2025-01-20 11:44:08.57	340.03	12.39	
2025-01-20 11:44:09.79	340.06	12.27	
2025-01-20 11:44:11.00	340.09	12.14	
2025-01-20 11:44:12.22	340.12	12.02	
2025-01-20 11:44:13.44	340.14	11.90	
2025-01-20 11:44:14.66	340.17	11.78	
2025-01-20 11:44:15.88	340.20	11.65	
2025-01-20 11:44:17.10	340.22	11.53	
2025-01-20 11:44:18.32	340.25	11.41	
2025-01-20 11:44:19.53	340.27	11.29	
2025-01-20 11:44:20.75	340.30	11.18	
2025-01-20 11:44:21.97	340.32	11.06	
2025-01-20 11:44:23.19	340.35	10.94	
2025-01-20 11:44:24.41	340.38	10.82	
2025-01-20 11:44:25.63	340.40	10.71	
2025-01-20 11:44:26.85	340.43	10.59	
2025-01-20 11:44:28.06	340.45	10.48	
2025-01-20 11:44:29.28	340.47	10.36	
2025-01-20 11:44:30.50	340.50	10.25	
2025-01-20 11:44:31.72	340.52	10.13	
2025-01-20 11:44:32.94	340.55	10.02	
2025-01-20 11:44:34.16	340.57	9.91	
2025-01-20 11:44:35.38	340.59	9.80	
2025-01-20 11:44:36.60	340.62	9.69	
2025-01-20 11:44:37.81	340.64	9.58	
2025-01-20 11:44:39.03	340.66	9.47	
2025-01-20 11:44:40.25	340.69	9.36	
2025-01-20 11:44:41.47	340.71	9.25	
2025-01-20 11:44:42.69	340.73	9.14	
2025-01-20 11:44:43.91	340.76	9.03	
2025-01-20 11:44:45.13	340.78	8.92	
2025-01-20 11:44:46.34	340.80	8.82	
2025-01-20 11:44:47.56	340.82	8.71	
2025-01-20 11:44:48.78	340.84	8.61	
2025-01-20 11:44:50.00	340.87	8.50	
2025-01-20 11:44:51.22	340.89	8.40	
2025-01-20 11:44:52.44	340.91	8.29	
2025-01-20 11:44:53.66	340.93	8.19	
2025-01-20 11:44:54.87	340.95	8.08	
2025-01-20 11:44:56.09	340.97	7.98	
2025-01-20 11:44:57.31	341.00	7.88	
2025-01-20 11:44:58.53	341.02	7.78	
2025-01-20 11:44:59.75	341.04	7.67	
2025-01-20 11:45:00.97	341.06	7.57	
2025-01-20 11:45:02.19	341.08	7.47	
2025-01-20 11:45:03.40	341.10	7.37	
2025-01-20 11:45:04.62	341.12	7.27	
2025-01-20 11:45:05.84	341.14	7.17	
2025-01-20 11:45:07.06	341.16	7.07	
2025-01-20 11:45:08.28	341.18	6.98	
2025-01-20 11:45:09.50	341.20	6.88	
2025-01-20 11:45:10.72	341.22	6.78	
2025-01-20 11:45:11.94	341.24	6.68	
2025-01-20 11:45:13.15	341.26	6.59	
2025-01-20 11:45:14.37	341.28	6.49	
2025-01-20 11:45:15.59	341.30	6.39	
2025-01-20 11:45:16.81	341.32	6.30	
2025-01-20 11:45:18.03	341.34	6.20	
2025-01-20 11:45:19.25	341.36	6.11	
2025-01-20 11:45:20.47	341.38	6.01	
2025-01-20 11:45:21.68	341.40	5.92	
2025-01-20 11:45:22.90	341.42	5.82	
2025-01-20 11:45:24.12	341.44	5.73	
2025-01-20 11:45:25.34	341.45	5.64	
2025-01-20 11:45:26.56	341.47	5.55	
2025-01-20 11:45:27.78	341.49	5.45	
2025-01-20 11:45:29.00	341.51	5.36	
2025-01-20 11:45:30.21	341.53	5.27	
2025-01-20 11:45:31.43	341.55	5.18	
2025-01-20 11:45:32.65	341.56	5.09	
2025-01-20 11:45:33.87	341.58	5.00	
2025-01-20 11:45:35.09	341.60	4.91	
2025-01-20 11:45:36.31	341.62	4.82	
2025-01-20 11:45:37.53	341.64	4.73	
2025-01-20 11:45:38.74	341.65	4.64	
2025-01-20 11:45:39.96	341.67	4.55	
2025-01-20 11:45:41.18	341.69	4.46	
2025-01-20 11:45:42.40	341.71	4.37	
2025-01-20 11:45:43.62	341.73	4.28	
2025-01-20 11:45:44.84	341.74	4.20	
2025-01-20 11:45:46.06	341.76	4.11	
2025-01-20 11:45:47.28	341.78	4.02	

#Closed at: 2025-01-20 11:45:47