passes_logs/2025/01/20/SPB_Silybum_02/SPB_Silybum_02__20250120_080145_TERRA_rec.log

#Pass ID: 20250120_080145_TERRA
#Satellite: TERRA
#Configuration: TERRA
#Start time: 2025-01-20 08:01:45

#Version: 2.0.20230423
#Station: SPB_Silybum_02
#Location: 30.233357 lon 59.946436 lat
#TLE: 1 25994U 99068A   25019.78905911  .00001081  00000+0  23261-3 0  9994
#TLE: 2 25994  98.0208  82.6669 0003303  62.5205  49.3311 14.60406058334773

#Time	Az	El	Level	Level2	SNR	BER	Gain	Gain2
2025-01-20 08:01:47.23	18.44	4.14	
2025-01-20 08:01:48.44	18.47	4.22	
2025-01-20 08:01:49.66	18.50	4.31	
2025-01-20 08:01:50.88	18.53	4.40	
2025-01-20 08:01:52.10	18.56	4.49	
2025-01-20 08:01:53.32	18.59	4.57	
2025-01-20 08:01:54.54	18.61	4.66	
2025-01-20 08:01:55.76	18.64	4.75	
2025-01-20 08:01:56.97	18.67	4.84	
2025-01-20 08:01:58.19	18.70	4.93	
2025-01-20 08:01:59.41	18.73	5.02	
2025-01-20 08:02:00.63	18.76	5.11	
2025-01-20 08:02:01.85	18.79	5.20	
2025-01-20 08:02:03.07	18.82	5.29	
2025-01-20 08:02:04.29	18.85	5.38	
2025-01-20 08:02:05.50	18.88	5.47	
2025-01-20 08:02:06.72	18.91	5.56	
2025-01-20 08:02:07.94	18.94	5.66	
2025-01-20 08:02:09.16	18.98	5.75	
2025-01-20 08:02:10.38	19.01	5.84	
2025-01-20 08:02:11.60	19.04	5.94	
2025-01-20 08:02:12.81	19.07	6.03	
2025-01-20 08:02:14.03	19.10	6.12	
2025-01-20 08:02:15.25	19.13	6.22	
2025-01-20 08:02:16.47	19.16	6.31	
2025-01-20 08:02:17.69	19.20	6.41	
2025-01-20 08:02:18.91	19.23	6.50	
2025-01-20 08:02:20.13	19.26	6.60	
2025-01-20 08:02:21.34	19.29	6.69	
2025-01-20 08:02:22.56	19.33	6.79	
2025-01-20 08:02:23.78	19.36	6.89	
2025-01-20 08:02:25.00	19.39	6.99	
2025-01-20 08:02:26.22	19.43	7.08	
2025-01-20 08:02:27.44	19.46	7.18	
2025-01-20 08:02:28.66	19.50	7.28	
2025-01-20 08:02:29.87	19.53	7.38	
2025-01-20 08:02:31.09	19.56	7.48	
2025-01-20 08:02:32.31	19.60	7.58	
2025-01-20 08:02:33.53	19.63	7.68	
2025-01-20 08:02:34.75	19.67	7.78	
2025-01-20 08:02:35.97	19.70	7.88	
2025-01-20 08:02:37.18	19.74	7.98	
2025-01-20 08:02:38.40	19.78	8.08	
2025-01-20 08:02:39.62	19.81	8.19	
2025-01-20 08:02:40.84	19.85	8.29	
2025-01-20 08:02:42.06	19.88	8.39	
2025-01-20 08:02:43.28	19.92	8.50	
2025-01-20 08:02:44.50	19.96	8.60	
2025-01-20 08:02:45.71	20.00	8.71	
2025-01-20 08:02:46.93	20.03	8.81	
2025-01-20 08:02:48.15	20.07	8.92	
2025-01-20 08:02:49.37	20.11	9.02	
2025-01-20 08:02:50.59	20.15	9.13	
2025-01-20 08:02:51.81	20.19	9.24	
2025-01-20 08:02:53.03	20.22	9.35	
2025-01-20 08:02:54.24	20.26	9.45	
2025-01-20 08:02:55.46	20.30	9.56	
2025-01-20 08:02:56.68	20.34	9.67	
2025-01-20 08:02:57.90	20.38	9.78	
2025-01-20 08:02:59.12	20.42	9.89	
2025-01-20 08:03:00.34	20.46	10.01	
2025-01-20 08:03:01.56	20.50	10.12	
2025-01-20 08:03:02.77	20.54	10.23	
2025-01-20 08:03:03.99	20.59	10.34	
2025-01-20 08:03:05.21	20.63	10.45	
2025-01-20 08:03:06.43	20.67	10.57	
2025-01-20 08:03:07.65	20.71	10.68	
2025-01-20 08:03:08.87	20.75	10.80	
2025-01-20 08:03:10.08	20.80	10.91	
2025-01-20 08:03:11.30	20.84	11.03	
2025-01-20 08:03:12.52	20.88	11.15	
2025-01-20 08:03:13.74	20.93	11.26	
2025-01-20 08:03:14.96	20.97	11.38	
2025-01-20 08:03:16.18	21.02	11.50	
2025-01-20 08:03:17.40	21.06	11.62	
2025-01-20 08:03:18.61	21.11	11.74	
2025-01-20 08:03:19.83	21.15	11.86	
2025-01-20 08:03:21.05	21.20	11.98	
2025-01-20 08:03:22.27	21.24	12.10	
2025-01-20 08:03:23.49	21.29	12.23	
2025-01-20 08:03:24.71	21.34	12.35	
2025-01-20 08:03:25.93	21.39	12.47	
2025-01-20 08:03:27.14	21.43	12.60	
2025-01-20 08:03:28.36	21.48	12.72	
2025-01-20 08:03:29.58	21.53	12.85	
2025-01-20 08:03:30.80	21.58	12.98	
2025-01-20 08:03:32.02	21.63	13.10	
2025-01-20 08:03:33.24	21.68	13.23	
2025-01-20 08:03:34.45	21.73	13.36	
2025-01-20 08:03:35.67	21.78	13.49	
2025-01-20 08:03:36.89	21.83	13.62	
2025-01-20 08:03:38.11	21.88	13.75	
2025-01-20 08:03:39.33	21.93	13.88	
2025-01-20 08:03:40.55	21.99	14.02	
2025-01-20 08:03:41.77	22.04	14.15	
2025-01-20 08:03:42.98	22.09	14.28	
2025-01-20 08:03:44.20	22.14	14.42	
2025-01-20 08:03:45.42	22.20	14.55	
2025-01-20 08:03:46.64	22.25	14.69	
2025-01-20 08:03:47.86	22.31	14.83	
2025-01-20 08:03:49.08	22.36	14.97	
2025-01-20 08:03:50.30	22.42	15.11	
2025-01-20 08:03:51.51	22.48	15.25	
2025-01-20 08:03:52.73	22.53	15.39	
2025-01-20 08:03:53.95	22.59	15.53	
2025-01-20 08:03:55.17	22.65	15.67	
2025-01-20 08:03:56.39	22.71	15.82	
2025-01-20 08:03:57.61	22.77	15.96	
2025-01-20 08:03:58.82	22.83	16.11	
2025-01-20 08:04:00.04	22.89	16.25	
2025-01-20 08:04:01.26	22.95	16.40	
2025-01-20 08:04:02.48	23.01	16.55	
2025-01-20 08:04:03.70	23.07	16.70	
2025-01-20 08:04:04.92	23.14	16.85	
2025-01-20 08:04:06.14	23.20	17.00	
2025-01-20 08:04:07.35	23.26	17.15	
2025-01-20 08:04:08.57	23.33	17.30	
2025-01-20 08:04:09.79	23.39	17.46	
2025-01-20 08:04:11.01	23.46	17.62	
2025-01-20 08:04:12.23	23.53	17.77	
2025-01-20 08:04:13.45	23.59	17.93	
2025-01-20 08:04:14.67	23.66	18.09	
2025-01-20 08:04:15.88	23.73	18.25	
2025-01-20 08:04:17.10	23.80	18.41	
2025-01-20 08:04:18.32	23.87	18.57	
2025-01-20 08:04:19.54	23.94	18.73	
2025-01-20 08:04:20.76	24.01	18.90	
2025-01-20 08:04:21.98	24.09	19.06	
2025-01-20 08:04:23.19	24.16	19.23	
2025-01-20 08:04:24.41	24.23	19.40	
2025-01-20 08:04:25.63	24.31	19.57	
2025-01-20 08:04:26.85	24.38	19.74	
2025-01-20 08:04:28.07	24.46	19.91	
2025-01-20 08:04:29.29	24.54	20.08	
2025-01-20 08:04:30.51	24.62	20.26	
2025-01-20 08:04:31.72	24.69	20.43	
2025-01-20 08:04:32.94	24.77	20.61	
2025-01-20 08:04:34.16	24.86	20.79	
2025-01-20 08:04:35.38	24.94	20.97	
2025-01-20 08:04:36.60	25.02	21.15	
2025-01-20 08:04:37.82	25.10	21.33	
2025-01-20 08:04:39.04	25.19	21.51	
2025-01-20 08:04:40.25	25.27	21.70	
2025-01-20 08:04:41.47	25.36	21.88	
2025-01-20 08:04:42.69	25.45	22.07	
2025-01-20 08:04:43.91	25.54	22.26	
2025-01-20 08:04:45.13	25.63	22.45	
2025-01-20 08:04:46.35	25.72	22.64	
2025-01-20 08:04:47.56	25.81	22.84	
2025-01-20 08:04:48.78	25.90	23.03	
2025-01-20 08:04:50.00	26.00	23.23	
2025-01-20 08:04:51.22	26.09	23.43	
2025-01-20 08:04:52.44	26.19	23.63	
2025-01-20 08:04:53.66	26.29	23.83	
2025-01-20 08:04:54.88	26.39	24.03	
2025-01-20 08:04:56.09	26.49	24.24	
2025-01-20 08:04:57.31	26.59	24.44	
2025-01-20 08:04:58.53	26.69	24.65	
2025-01-20 08:04:59.75	26.80	24.86	
2025-01-20 08:05:00.97	26.90	25.07	
2025-01-20 08:05:02.19	27.01	25.29	
2025-01-20 08:05:03.41	27.12	25.50	
2025-01-20 08:05:04.62	27.23	25.72	
2025-01-20 08:05:05.84	27.34	25.94	
2025-01-20 08:05:07.06	27.46	26.16	
2025-01-20 08:05:08.28	27.57	26.38	
2025-01-20 08:05:09.50	27.69	26.61	
2025-01-20 08:05:10.72	27.81	26.83	
2025-01-20 08:05:11.93	27.93	27.06	
2025-01-20 08:05:13.15	28.05	27.29	
2025-01-20 08:05:14.37	28.17	27.52	
2025-01-20 08:05:15.59	28.30	27.76	
2025-01-20 08:05:16.81	28.42	27.99	
2025-01-20 08:05:18.03	28.55	28.23	
2025-01-20 08:05:19.25	28.68	28.47	
2025-01-20 08:05:20.46	28.82	28.71	
2025-01-20 08:05:21.68	28.95	28.96	
2025-01-20 08:05:22.90	29.09	29.21	
2025-01-20 08:05:24.12	29.23	29.45	
2025-01-20 08:05:25.34	29.37	29.71	
2025-01-20 08:05:26.56	29.51	29.96	
2025-01-20 08:05:27.78	29.66	30.22	
2025-01-20 08:05:28.99	29.81	30.47	
2025-01-20 08:05:30.21	29.96	30.73	
2025-01-20 08:05:31.43	30.11	31.00	
2025-01-20 08:05:32.65	30.26	31.26	
2025-01-20 08:05:33.87	30.42	31.53	
2025-01-20 08:05:35.09	30.58	31.80	
2025-01-20 08:05:36.30	30.75	32.07	
2025-01-20 08:05:37.52	30.91	32.34	
2025-01-20 08:05:38.74	31.08	32.62	
2025-01-20 08:05:39.96	31.25	32.90	
2025-01-20 08:05:41.18	31.43	33.18	
2025-01-20 08:05:42.40	31.61	33.47	
2025-01-20 08:05:43.62	31.79	33.76	
2025-01-20 08:05:44.83	31.97	34.04	
2025-01-20 08:05:46.05	32.16	34.34	
2025-01-20 08:05:47.27	32.35	34.63	
2025-01-20 08:05:48.49	32.54	34.93	
2025-01-20 08:05:49.71	32.74	35.23	
2025-01-20 08:05:50.93	32.94	35.53	
2025-01-20 08:05:52.15	33.15	35.84	
2025-01-20 08:05:53.36	33.36	36.15	
2025-01-20 08:05:54.58	33.57	36.46	
2025-01-20 08:05:55.80	33.79	36.77	
2025-01-20 08:05:57.02	34.01	37.09	
2025-01-20 08:05:58.24	34.24	37.41	
2025-01-20 08:05:59.46	34.47	37.73	
2025-01-20 08:06:00.67	34.70	38.05	
2025-01-20 08:06:01.89	34.94	38.38	
2025-01-20 08:06:03.11	35.19	38.71	
2025-01-20 08:06:04.33	35.44	39.05	
2025-01-20 08:06:05.55	35.69	39.39	
2025-01-20 08:06:06.77	35.96	39.73	
2025-01-20 08:06:07.99	36.22	40.07	
2025-01-20 08:06:09.20	36.49	40.41	
2025-01-20 08:06:10.42	36.77	40.76	
2025-01-20 08:06:11.64	37.05	41.11	
2025-01-20 08:06:12.86	37.34	41.47	
2025-01-20 08:06:14.08	37.64	41.82	
2025-01-20 08:06:15.30	37.94	42.18	
2025-01-20 08:06:16.52	38.25	42.55	
2025-01-20 08:06:17.73	38.57	42.91	
2025-01-20 08:06:18.95	38.89	43.28	
2025-01-20 08:06:20.17	39.23	43.65	
2025-01-20 08:06:21.39	39.57	44.02	
2025-01-20 08:06:22.61	39.91	44.40	
2025-01-20 08:06:23.83	40.27	44.78	
2025-01-20 08:06:25.05	40.64	45.16	
2025-01-20 08:06:26.26	41.01	45.54	
2025-01-20 08:06:27.48	41.39	45.93	
2025-01-20 08:06:28.70	41.78	46.32	
2025-01-20 08:06:29.92	42.19	46.71	
2025-01-20 08:06:31.14	42.60	47.10	
2025-01-20 08:06:32.36	43.02	47.50	
2025-01-20 08:06:33.57	43.45	47.90	
2025-01-20 08:06:34.79	43.90	48.30	
2025-01-20 08:06:36.01	44.36	48.70	
2025-01-20 08:06:37.23	44.83	49.11	
2025-01-20 08:06:38.45	45.31	49.51	
2025-01-20 08:06:39.67	45.81	49.92	
2025-01-20 08:06:40.89	46.32	50.33	
2025-01-20 08:06:42.10	46.83	50.74	
2025-01-20 08:06:43.32	47.37	51.15	
2025-01-20 08:06:44.54	47.92	51.57	
2025-01-20 08:06:45.76	48.49	51.98	
2025-01-20 08:06:46.98	49.08	52.40	
2025-01-20 08:06:48.20	49.68	52.82	
2025-01-20 08:06:49.42	50.30	53.23	
2025-01-20 08:06:50.63	50.93	53.65	
2025-01-20 08:06:51.85	51.58	54.06	
2025-01-20 08:06:53.07	52.26	54.48	
2025-01-20 08:06:54.29	52.95	54.90	
2025-01-20 08:06:55.51	53.67	55.31	
2025-01-20 08:06:56.73	54.40	55.73	
2025-01-20 08:06:57.94	55.15	56.14	
2025-01-20 08:06:59.16	55.93	56.55	
2025-01-20 08:07:00.38	56.74	56.96	
2025-01-20 08:07:01.60	57.57	57.37	
2025-01-20 08:07:02.82	58.42	57.77	
2025-01-20 08:07:04.04	59.30	58.17	
2025-01-20 08:07:05.26	60.21	58.57	
2025-01-20 08:07:06.47	61.14	58.96	
2025-01-20 08:07:07.69	62.10	59.35	
2025-01-20 08:07:08.91	63.09	59.74	
2025-01-20 08:07:10.13	64.11	60.12	
2025-01-20 08:07:11.35	65.16	60.49	
2025-01-20 08:07:12.57	66.24	60.86	
2025-01-20 08:07:13.79	67.36	61.22	
2025-01-20 08:07:15.00	68.49	61.57	
2025-01-20 08:07:16.22	69.67	61.91	
2025-01-20 08:07:17.44	70.89	62.24	
2025-01-20 08:07:18.66	72.13	62.57	
2025-01-20 08:07:19.88	73.41	62.89	
2025-01-20 08:07:21.10	74.72	63.19	
2025-01-20 08:07:22.31	76.06	63.48	
2025-01-20 08:07:23.53	77.44	63.77	
2025-01-20 08:07:24.75	78.85	64.04	
2025-01-20 08:07:25.97	80.30	64.29	
2025-01-20 08:07:27.19	81.77	64.54	
2025-01-20 08:07:28.41	83.28	64.76	
2025-01-20 08:07:29.63	84.82	64.98	
2025-01-20 08:07:30.84	86.37	65.17	
2025-01-20 08:07:32.06	87.96	65.35	
2025-01-20 08:07:33.28	89.58	65.52	
2025-01-20 08:07:34.50	91.22	65.66	
2025-01-20 08:07:35.72	92.88	65.79	
2025-01-20 08:07:36.94	94.56	65.90	
2025-01-20 08:07:38.16	96.26	65.99	
2025-01-20 08:07:39.37	97.95	66.07	
2025-01-20 08:07:40.59	99.67	66.12	
2025-01-20 08:07:41.81	101.39	66.16	
2025-01-20 08:07:43.03	103.12	66.17	
2025-01-20 08:07:44.25	104.85	66.17	
2025-01-20 08:07:45.47	106.58	66.14	
2025-01-20 08:07:46.68	108.29	66.10	
2025-01-20 08:07:47.90	110.00	66.04	
2025-01-20 08:07:49.12	111.71	65.96	
2025-01-20 08:07:50.34	113.40	65.86	
2025-01-20 08:07:51.56	115.07	65.74	
2025-01-20 08:07:52.78	116.72	65.60	
2025-01-20 08:07:54.00	118.35	65.45	
2025-01-20 08:07:55.21	119.95	65.28	
2025-01-20 08:07:56.43	121.53	65.09	
2025-01-20 08:07:57.65	123.08	64.88	
2025-01-20 08:07:58.87	124.61	64.66	
2025-01-20 08:08:00.09	126.11	64.43	
2025-01-20 08:08:01.31	127.57	64.18	
2025-01-20 08:08:02.53	129.00	63.92	
2025-01-20 08:08:03.74	130.39	63.64	
2025-01-20 08:08:04.96	131.76	63.35	
2025-01-20 08:08:06.18	133.09	63.05	
2025-01-20 08:08:07.40	134.39	62.74	
2025-01-20 08:08:08.62	135.65	62.42	
2025-01-20 08:08:09.84	136.89	62.09	
2025-01-20 08:08:11.05	138.08	61.75	
2025-01-20 08:08:12.27	139.24	61.41	
2025-01-20 08:08:13.49	140.37	61.05	
2025-01-20 08:08:14.71	141.48	60.69	
2025-01-20 08:08:15.93	142.55	60.31	
2025-01-20 08:08:17.15	143.58	59.94	
2025-01-20 08:08:18.37	144.59	59.55	
2025-01-20 08:08:19.58	145.56	59.17	
2025-01-20 08:08:20.80	146.52	58.78	
2025-01-20 08:08:22.02	147.44	58.38	
2025-01-20 08:08:23.24	148.33	57.98	
2025-01-20 08:08:24.46	149.20	57.58	
2025-01-20 08:08:25.68	150.05	57.17	
2025-01-20 08:08:26.90	150.87	56.76	
2025-01-20 08:08:28.11	151.65	56.35	
2025-01-20 08:08:29.33	152.43	55.94	
2025-01-20 08:08:30.55	153.18	55.52	
2025-01-20 08:08:31.77	153.90	55.11	
2025-01-20 08:08:32.99	154.61	54.69	
2025-01-20 08:08:34.21	155.29	54.27	
2025-01-20 08:08:35.42	155.96	53.85	
2025-01-20 08:08:36.64	156.60	53.44	
2025-01-20 08:08:37.86	157.23	53.02	
2025-01-20 08:08:39.08	157.84	52.60	
2025-01-20 08:08:40.30	158.44	52.18	
2025-01-20 08:08:41.52	159.01	51.76	
2025-01-20 08:08:42.74	159.58	51.35	
2025-01-20 08:08:43.95	160.12	50.94	
2025-01-20 08:08:45.17	160.65	50.52	
2025-01-20 08:08:46.39	161.17	50.11	
2025-01-20 08:08:47.61	161.67	49.70	
2025-01-20 08:08:48.83	162.16	49.29	
2025-01-20 08:08:50.05	162.64	48.88	
2025-01-20 08:08:51.27	163.10	48.48	
2025-01-20 08:08:52.48	163.55	48.08	
2025-01-20 08:08:53.70	163.99	47.67	
2025-01-20 08:08:54.92	164.42	47.27	
2025-01-20 08:08:56.14	164.84	46.88	
2025-01-20 08:08:57.36	165.25	46.48	
2025-01-20 08:08:58.58	165.65	46.09	
2025-01-20 08:08:59.79	166.03	45.70	
2025-01-20 08:09:01.01	166.41	45.32	
2025-01-20 08:09:02.23	166.78	44.93	
2025-01-20 08:09:03.45	167.15	44.55	
2025-01-20 08:09:04.67	167.50	44.17	
2025-01-20 08:09:05.89	167.84	43.79	
2025-01-20 08:09:07.11	168.18	43.42	
2025-01-20 08:09:08.32	168.51	43.05	
2025-01-20 08:09:09.54	168.83	42.68	
2025-01-20 08:09:10.76	169.14	42.32	
2025-01-20 08:09:11.98	169.45	41.95	
2025-01-20 08:09:13.20	169.75	41.59	
2025-01-20 08:09:14.42	170.04	41.24	
2025-01-20 08:09:15.64	170.33	40.88	
2025-01-20 08:09:16.85	170.61	40.53	
2025-01-20 08:09:18.07	170.89	40.18	
2025-01-20 08:09:19.29	171.16	39.84	
2025-01-20 08:09:20.51	171.42	39.50	
2025-01-20 08:09:21.73	171.68	39.16	
2025-01-20 08:09:22.95	171.93	38.82	
2025-01-20 08:09:24.16	172.18	38.49	
2025-01-20 08:09:25.38	172.42	38.16	
2025-01-20 08:09:26.60	172.66	37.83	
2025-01-20 08:09:27.82	172.89	37.50	
2025-01-20 08:09:29.04	173.12	37.18	
2025-01-20 08:09:30.26	173.34	36.86	
2025-01-20 08:09:31.48	173.56	36.54	
2025-01-20 08:09:32.69	173.78	36.23	
2025-01-20 08:09:33.91	173.99	35.92	
2025-01-20 08:09:35.13	174.20	35.61	
2025-01-20 08:09:36.35	174.40	35.31	
2025-01-20 08:09:37.57	174.60	35.00	
2025-01-20 08:09:38.79	174.80	34.70	
2025-01-20 08:09:40.01	174.99	34.40	
2025-01-20 08:09:41.22	175.18	34.11	
2025-01-20 08:09:42.44	175.36	33.82	
2025-01-20 08:09:43.66	175.55	33.53	
2025-01-20 08:09:44.88	175.73	33.24	
2025-01-20 08:09:46.10	175.90	32.96	
2025-01-20 08:09:47.32	176.08	32.67	
2025-01-20 08:09:48.54	176.25	32.39	
2025-01-20 08:09:49.75	176.41	32.12	
2025-01-20 08:09:50.97	176.58	31.84	
2025-01-20 08:09:52.19	176.74	31.57	
2025-01-20 08:09:53.41	176.90	31.30	
2025-01-20 08:09:54.63	177.06	31.03	
2025-01-20 08:09:55.85	177.21	30.77	
2025-01-20 08:09:57.06	177.36	30.51	
2025-01-20 08:09:58.28	177.51	30.25	
2025-01-20 08:09:59.50	177.66	29.99	
2025-01-20 08:10:00.72	177.80	29.73	
2025-01-20 08:10:01.94	177.94	29.48	
2025-01-20 08:10:03.16	178.08	29.23	
2025-01-20 08:10:04.38	178.22	28.98	
2025-01-20 08:10:05.59	178.36	28.74	
2025-01-20 08:10:06.81	178.49	28.49	
2025-01-20 08:10:08.03	178.62	28.25	
2025-01-20 08:10:09.25	178.75	28.01	
2025-01-20 08:10:10.47	178.88	27.77	
2025-01-20 08:10:11.69	179.01	27.53	
2025-01-20 08:10:12.91	179.13	27.30	
2025-01-20 08:10:14.12	179.25	27.07	
2025-01-20 08:10:15.34	179.37	26.84	
2025-01-20 08:10:16.56	179.49	26.61	
2025-01-20 08:10:17.78	179.61	26.38	
2025-01-20 08:10:19.00	179.72	26.16	
2025-01-20 08:10:20.22	179.84	25.93	
2025-01-20 08:10:21.43	179.95	25.72	
2025-01-20 08:10:22.65	180.06	25.50	
2025-01-20 08:10:23.87	180.17	25.28	
2025-01-20 08:10:25.09	180.28	25.06	
2025-01-20 08:10:26.31	180.38	24.85	
2025-01-20 08:10:27.53	180.49	24.64	
2025-01-20 08:10:28.75	180.59	24.43	
2025-01-20 08:10:29.96	180.69	24.22	
2025-01-20 08:10:31.18	180.79	24.02	
2025-01-20 08:10:32.40	180.89	23.81	
2025-01-20 08:10:33.62	180.99	23.61	
2025-01-20 08:10:34.84	181.09	23.41	
2025-01-20 08:10:36.06	181.18	23.21	
2025-01-20 08:10:37.28	181.28	23.01	
2025-01-20 08:10:38.49	181.37	22.81	
2025-01-20 08:10:39.71	181.46	22.62	
2025-01-20 08:10:40.93	181.55	22.42	
2025-01-20 08:10:42.15	181.64	22.23	
2025-01-20 08:10:43.37	181.73	22.04	
2025-01-20 08:10:44.59	181.82	21.85	
2025-01-20 08:10:45.80	181.91	21.66	
2025-01-20 08:10:47.02	181.99	21.48	
2025-01-20 08:10:48.24	182.08	21.29	
2025-01-20 08:10:49.46	182.16	21.11	
2025-01-20 08:10:50.68	182.24	20.93	
2025-01-20 08:10:51.90	182.33	20.75	
2025-01-20 08:10:53.12	182.41	20.57	
2025-01-20 08:10:54.33	182.49	20.39	
2025-01-20 08:10:55.55	182.57	20.21	
2025-01-20 08:10:56.77	182.64	20.04	
2025-01-20 08:10:57.99	182.72	19.86	
2025-01-20 08:10:59.21	182.80	19.69	
2025-01-20 08:11:00.43	182.87	19.52	
2025-01-20 08:11:01.65	182.95	19.35	
2025-01-20 08:11:02.86	183.02	19.18	
2025-01-20 08:11:04.08	183.09	19.01	
2025-01-20 08:11:05.30	183.17	18.84	
2025-01-20 08:11:06.52	183.24	18.68	
2025-01-20 08:11:07.74	183.31	18.51	
2025-01-20 08:11:08.96	183.38	18.35	
2025-01-20 08:11:10.17	183.45	18.19	
2025-01-20 08:11:11.39	183.52	18.03	
2025-01-20 08:11:12.61	183.58	17.87	
2025-01-20 08:11:13.83	183.65	17.71	
2025-01-20 08:11:15.05	183.72	17.55	
2025-01-20 08:11:16.27	183.78	17.40	
2025-01-20 08:11:17.49	183.85	17.24	
2025-01-20 08:11:18.70	183.91	17.09	
2025-01-20 08:11:19.92	183.98	16.93	
2025-01-20 08:11:21.16	184.04	16.78	
2025-01-20 08:11:22.38	184.10	16.63	
2025-01-20 08:11:23.59	184.16	16.48	
2025-01-20 08:11:24.81	184.23	16.33	
2025-01-20 08:11:26.03	184.29	16.18	
2025-01-20 08:11:27.25	184.35	16.03	
2025-01-20 08:11:28.47	184.41	15.89	
2025-01-20 08:11:29.69	184.46	15.74	
2025-01-20 08:11:30.90	184.52	15.60	
2025-01-20 08:11:32.12	184.58	15.45	
2025-01-20 08:11:33.34	184.64	15.31	
2025-01-20 08:11:34.56	184.69	15.17	
2025-01-20 08:11:35.78	184.75	15.03	
2025-01-20 08:11:37.00	184.81	14.89	
2025-01-20 08:11:38.22	184.86	14.75	
2025-01-20 08:11:39.43	184.92	14.61	
2025-01-20 08:11:40.65	184.97	14.47	
2025-01-20 08:11:41.87	185.02	14.34	
2025-01-20 08:11:43.09	185.08	14.20	
2025-01-20 08:11:44.31	185.13	14.06	
2025-01-20 08:11:45.53	185.18	13.93	
2025-01-20 08:11:46.75	185.23	13.80	
2025-01-20 08:11:47.96	185.28	13.66	
2025-01-20 08:11:49.18	185.34	13.53	
2025-01-20 08:11:50.40	185.39	13.40	
2025-01-20 08:11:51.62	185.44	13.27	
2025-01-20 08:11:52.84	185.49	13.14	
2025-01-20 08:11:54.06	185.53	13.01	
2025-01-20 08:11:55.27	185.58	12.88	
2025-01-20 08:11:56.49	185.63	12.76	
2025-01-20 08:11:57.71	185.68	12.63	
2025-01-20 08:11:58.93	185.73	12.50	
2025-01-20 08:12:00.15	185.77	12.38	
2025-01-20 08:12:01.37	185.82	12.25	
2025-01-20 08:12:02.59	185.87	12.13	
2025-01-20 08:12:03.80	185.91	12.01	
2025-01-20 08:12:05.02	185.96	11.88	
2025-01-20 08:12:06.24	186.00	11.76	
2025-01-20 08:12:07.46	186.05	11.64	
2025-01-20 08:12:08.68	186.09	11.52	
2025-01-20 08:12:09.90	186.14	11.40	
2025-01-20 08:12:11.12	186.18	11.28	
2025-01-20 08:12:12.33	186.22	11.16	
2025-01-20 08:12:13.55	186.27	11.04	
2025-01-20 08:12:14.77	186.31	10.93	
2025-01-20 08:12:15.99	186.35	10.81	
2025-01-20 08:12:17.21	186.39	10.69	
2025-01-20 08:12:18.43	186.44	10.58	
2025-01-20 08:12:19.64	186.48	10.46	
2025-01-20 08:12:20.86	186.52	10.35	
2025-01-20 08:12:22.08	186.56	10.24	
2025-01-20 08:12:23.30	186.60	10.12	
2025-01-20 08:12:24.52	186.64	10.01	
2025-01-20 08:12:25.74	186.68	9.90	
2025-01-20 08:12:26.96	186.72	9.79	
2025-01-20 08:12:28.17	186.76	9.67	
2025-01-20 08:12:29.39	186.80	9.56	
2025-01-20 08:12:30.61	186.84	9.45	
2025-01-20 08:12:31.83	186.88	9.34	
2025-01-20 08:12:33.05	186.91	9.24	
2025-01-20 08:12:34.27	186.95	9.13	
2025-01-20 08:12:35.49	186.99	9.02	
2025-01-20 08:12:36.70	187.03	8.91	
2025-01-20 08:12:37.92	187.06	8.81	
2025-01-20 08:12:39.14	187.10	8.70	
2025-01-20 08:12:40.36	187.14	8.59	
2025-01-20 08:12:41.58	187.17	8.49	
2025-01-20 08:12:42.80	187.21	8.38	
2025-01-20 08:12:44.02	187.25	8.28	
2025-01-20 08:12:45.23	187.28	8.17	
2025-01-20 08:12:46.45	187.32	8.07	
2025-01-20 08:12:47.67	187.35	7.97	
2025-01-20 08:12:48.89	187.39	7.86	
2025-01-20 08:12:50.11	187.42	7.76	
2025-01-20 08:12:51.33	187.45	7.66	
2025-01-20 08:12:52.54	187.49	7.56	
2025-01-20 08:12:53.76	187.52	7.46	
2025-01-20 08:12:54.98	187.56	7.36	
2025-01-20 08:12:56.20	187.59	7.26	
2025-01-20 08:12:57.42	187.62	7.16	
2025-01-20 08:12:58.64	187.66	7.06	
2025-01-20 08:12:59.86	187.69	6.96	
2025-01-20 08:13:01.07	187.72	6.86	
2025-01-20 08:13:02.29	187.75	6.77	
2025-01-20 08:13:03.51	187.79	6.67	
2025-01-20 08:13:04.73	187.82	6.57	
2025-01-20 08:13:05.95	187.85	6.47	
2025-01-20 08:13:07.17	187.88	6.38	
2025-01-20 08:13:08.39	187.91	6.28	
2025-01-20 08:13:09.60	187.94	6.19	
2025-01-20 08:13:10.82	187.98	6.09	
2025-01-20 08:13:12.04	188.01	6.00	
2025-01-20 08:13:13.26	188.04	5.90	
2025-01-20 08:13:14.48	188.07	5.81	
2025-01-20 08:13:15.70	188.10	5.71	
2025-01-20 08:13:16.91	188.13	5.62	
2025-01-20 08:13:18.13	188.16	5.53	
2025-01-20 08:13:19.35	188.19	5.44	
2025-01-20 08:13:20.57	188.22	5.34	
2025-01-20 08:13:21.79	188.25	5.25	
2025-01-20 08:13:23.01	188.27	5.16	
2025-01-20 08:13:24.23	188.30	5.07	
2025-01-20 08:13:25.44	188.33	4.98	
2025-01-20 08:13:26.66	188.36	4.89	
2025-01-20 08:13:27.88	188.39	4.80	
2025-01-20 08:13:29.10	188.42	4.71	
2025-01-20 08:13:30.32	188.45	4.62	
2025-01-20 08:13:31.54	188.47	4.53	
2025-01-20 08:13:32.76	188.50	4.44	
2025-01-20 08:13:33.97	188.53	4.35	
2025-01-20 08:13:35.19	188.56	4.27	
2025-01-20 08:13:36.41	188.58	4.18	
2025-01-20 08:13:37.63	188.61	4.09	
2025-01-20 08:13:38.85	188.64	4.00	

#Closed at: 2025-01-20 08:13:39