passes_logs/2025/01/20/SPB_Silybum_02/SPB_Silybum_02__20250120_093933_TERRA_rec.log

#Pass ID: 20250120_093933_TERRA
#Satellite: TERRA
#Configuration: TERRA
#Start time: 2025-01-20 09:39:34

#Version: 2.0.20230423
#Station: SPB_Silybum_02
#Location: 30.233357 lon 59.946436 lat
#TLE: 1 25994U 99068A   25019.78905911  .00001081  00000+0  23261-3 0  9994
#TLE: 2 25994  98.0208  82.6669 0003303  62.5205  49.3311 14.60406058334773

#Time	Az	El	Level	Level2	SNR	BER	Gain	Gain2
2025-01-20 09:39:36.45	10.91	4.19	
2025-01-20 09:39:37.67	10.84	4.27	
2025-01-20 09:39:38.89	10.76	4.35	
2025-01-20 09:39:40.11	10.68	4.43	
2025-01-20 09:39:41.32	10.60	4.52	
2025-01-20 09:39:42.54	10.52	4.60	
2025-01-20 09:39:43.76	10.44	4.68	
2025-01-20 09:39:44.98	10.36	4.76	
2025-01-20 09:39:46.20	10.28	4.84	
2025-01-20 09:39:47.42	10.20	4.93	
2025-01-20 09:39:48.64	10.11	5.01	
2025-01-20 09:39:49.85	10.03	5.09	
2025-01-20 09:39:51.07	9.95	5.18	
2025-01-20 09:39:52.29	9.86	5.26	
2025-01-20 09:39:53.51	9.78	5.35	
2025-01-20 09:39:54.73	9.69	5.43	
2025-01-20 09:39:55.95	9.61	5.51	
2025-01-20 09:39:57.16	9.52	5.60	
2025-01-20 09:39:58.38	9.43	5.68	
2025-01-20 09:39:59.60	9.35	5.77	
2025-01-20 09:40:00.82	9.26	5.85	
2025-01-20 09:40:02.04	9.17	5.94	
2025-01-20 09:40:03.26	9.08	6.03	
2025-01-20 09:40:04.48	8.99	6.11	
2025-01-20 09:40:05.69	8.90	6.20	
2025-01-20 09:40:06.91	8.81	6.29	
2025-01-20 09:40:08.13	8.72	6.37	
2025-01-20 09:40:09.35	8.62	6.46	
2025-01-20 09:40:10.57	8.53	6.55	
2025-01-20 09:40:11.79	8.44	6.64	
2025-01-20 09:40:13.00	8.34	6.72	
2025-01-20 09:40:14.22	8.25	6.81	
2025-01-20 09:40:15.44	8.15	6.90	
2025-01-20 09:40:16.66	8.06	6.99	
2025-01-20 09:40:17.88	7.96	7.08	
2025-01-20 09:40:19.10	7.86	7.17	
2025-01-20 09:40:20.32	7.76	7.26	
2025-01-20 09:40:21.53	7.66	7.35	
2025-01-20 09:40:22.75	7.56	7.44	
2025-01-20 09:40:23.97	7.46	7.53	
2025-01-20 09:40:25.19	7.36	7.62	
2025-01-20 09:40:26.41	7.26	7.71	
2025-01-20 09:40:27.63	7.16	7.80	
2025-01-20 09:40:28.84	7.05	7.89	
2025-01-20 09:40:30.06	6.95	7.98	
2025-01-20 09:40:31.28	6.85	8.08	
2025-01-20 09:40:32.50	6.74	8.17	
2025-01-20 09:40:33.72	6.63	8.26	
2025-01-20 09:40:34.94	6.53	8.35	
2025-01-20 09:40:36.15	6.42	8.45	
2025-01-20 09:40:37.37	6.31	8.54	
2025-01-20 09:40:38.59	6.20	8.63	
2025-01-20 09:40:39.81	6.09	8.73	
2025-01-20 09:40:41.03	5.98	8.82	
2025-01-20 09:40:42.25	5.87	8.92	
2025-01-20 09:40:43.47	5.75	9.01	
2025-01-20 09:40:44.68	5.64	9.11	
2025-01-20 09:40:45.90	5.53	9.20	
2025-01-20 09:40:47.12	5.41	9.30	
2025-01-20 09:40:48.34	5.29	9.40	
2025-01-20 09:40:49.56	5.18	9.49	
2025-01-20 09:40:50.78	5.06	9.59	
2025-01-20 09:40:51.99	4.94	9.69	
2025-01-20 09:40:53.21	4.82	9.78	
2025-01-20 09:40:54.43	4.70	9.88	
2025-01-20 09:40:55.65	4.58	9.98	
2025-01-20 09:40:56.87	4.46	10.08	
2025-01-20 09:40:58.09	4.33	10.18	
2025-01-20 09:40:59.31	4.21	10.28	
2025-01-20 09:41:00.52	4.09	10.37	
2025-01-20 09:41:01.74	3.96	10.47	
2025-01-20 09:41:02.96	3.83	10.57	
2025-01-20 09:41:04.18	3.70	10.67	
2025-01-20 09:41:05.40	3.57	10.78	
2025-01-20 09:41:06.62	3.44	10.88	
2025-01-20 09:41:07.83	3.31	10.98	
2025-01-20 09:41:09.05	3.18	11.08	
2025-01-20 09:41:10.27	3.05	11.18	
2025-01-20 09:41:11.49	2.92	11.28	
2025-01-20 09:41:12.71	2.78	11.39	
2025-01-20 09:41:13.93	2.64	11.49	
2025-01-20 09:41:15.15	2.51	11.59	
2025-01-20 09:41:16.36	2.37	11.69	
2025-01-20 09:41:17.58	2.23	11.80	
2025-01-20 09:41:18.80	2.09	11.90	
2025-01-20 09:41:20.02	1.95	12.01	
2025-01-20 09:41:21.24	1.80	12.11	
2025-01-20 09:41:22.46	1.66	12.22	
2025-01-20 09:41:23.67	1.52	12.32	
2025-01-20 09:41:24.89	1.37	12.43	
2025-01-20 09:41:26.11	1.22	12.53	
2025-01-20 09:41:27.33	1.07	12.64	
2025-01-20 09:41:28.55	0.92	12.75	
2025-01-20 09:41:29.77	0.77	12.86	
2025-01-20 09:41:30.99	0.62	12.96	
2025-01-20 09:41:32.20	0.47	13.07	
2025-01-20 09:41:33.42	0.31	13.18	
2025-01-20 09:41:34.64	0.16	13.29	
2025-01-20 09:41:35.86	0.00	13.40	
2025-01-20 09:41:37.08	359.84	13.51	
2025-01-20 09:41:38.30	359.68	13.61	
2025-01-20 09:41:39.51	359.52	13.72	
2025-01-20 09:41:40.73	359.36	13.83	
2025-01-20 09:41:41.95	359.20	13.94	
2025-01-20 09:41:43.17	359.03	14.06	
2025-01-20 09:41:44.39	358.87	14.17	
2025-01-20 09:41:45.61	358.70	14.28	
2025-01-20 09:41:46.83	358.53	14.39	
2025-01-20 09:41:48.04	358.36	14.50	
2025-01-20 09:41:49.26	358.19	14.61	
2025-01-20 09:41:50.48	358.01	14.73	
2025-01-20 09:41:51.70	357.84	14.84	
2025-01-20 09:41:52.92	357.66	14.95	
2025-01-20 09:41:54.14	357.48	15.07	
2025-01-20 09:41:55.35	357.31	15.18	
2025-01-20 09:41:56.57	357.13	15.30	
2025-01-20 09:41:57.79	356.94	15.41	
2025-01-20 09:41:59.01	356.76	15.53	
2025-01-20 09:42:00.23	356.57	15.64	
2025-01-20 09:42:01.45	356.39	15.76	
2025-01-20 09:42:02.67	356.20	15.87	
2025-01-20 09:42:03.88	356.01	15.99	
2025-01-20 09:42:05.10	355.82	16.10	
2025-01-20 09:42:06.32	355.63	16.22	
2025-01-20 09:42:07.54	355.43	16.34	
2025-01-20 09:42:08.76	355.23	16.46	
2025-01-20 09:42:09.98	355.04	16.57	
2025-01-20 09:42:11.19	354.84	16.69	
2025-01-20 09:42:12.41	354.64	16.81	
2025-01-20 09:42:13.63	354.43	16.93	
2025-01-20 09:42:14.85	354.23	17.05	
2025-01-20 09:42:16.07	354.02	17.17	
2025-01-20 09:42:17.29	353.81	17.29	
2025-01-20 09:42:18.51	353.60	17.41	
2025-01-20 09:42:19.72	353.39	17.52	
2025-01-20 09:42:20.94	353.18	17.65	
2025-01-20 09:42:22.16	352.96	17.77	
2025-01-20 09:42:23.38	352.74	17.89	
2025-01-20 09:42:24.60	352.52	18.01	
2025-01-20 09:42:25.82	352.30	18.13	
2025-01-20 09:42:27.03	352.08	18.25	
2025-01-20 09:42:28.25	351.85	18.37	
2025-01-20 09:42:29.47	351.63	18.49	
2025-01-20 09:42:30.69	351.40	18.61	
2025-01-20 09:42:31.91	351.17	18.74	
2025-01-20 09:42:33.13	350.93	18.86	
2025-01-20 09:42:34.35	350.70	18.98	
2025-01-20 09:42:35.56	350.46	19.10	
2025-01-20 09:42:36.78	350.22	19.23	
2025-01-20 09:42:38.00	349.98	19.35	
2025-01-20 09:42:39.22	349.74	19.47	
2025-01-20 09:42:40.44	349.49	19.60	
2025-01-20 09:42:41.66	349.24	19.72	
2025-01-20 09:42:42.87	349.00	19.84	
2025-01-20 09:42:44.09	348.74	19.97	
2025-01-20 09:42:45.31	348.49	20.09	
2025-01-20 09:42:46.53	348.23	20.21	
2025-01-20 09:42:47.75	347.97	20.34	
2025-01-20 09:42:48.97	347.71	20.46	
2025-01-20 09:42:50.19	347.45	20.59	
2025-01-20 09:42:51.40	347.19	20.71	
2025-01-20 09:42:52.62	346.92	20.83	
2025-01-20 09:42:53.84	346.65	20.96	
2025-01-20 09:42:55.06	346.37	21.08	
2025-01-20 09:42:56.28	346.10	21.21	
2025-01-20 09:42:57.50	345.82	21.33	
2025-01-20 09:42:58.71	345.55	21.46	
2025-01-20 09:42:59.93	345.26	21.58	
2025-01-20 09:43:01.15	344.98	21.70	
2025-01-20 09:43:02.37	344.69	21.83	
2025-01-20 09:43:03.59	344.40	21.95	
2025-01-20 09:43:04.81	344.11	22.08	
2025-01-20 09:43:06.03	343.82	22.20	
2025-01-20 09:43:07.24	343.52	22.32	
2025-01-20 09:43:08.46	343.22	22.45	
2025-01-20 09:43:09.68	342.92	22.57	
2025-01-20 09:43:10.90	342.62	22.69	
2025-01-20 09:43:12.12	342.31	22.82	
2025-01-20 09:43:13.34	342.00	22.94	
2025-01-20 09:43:14.55	341.69	23.06	
2025-01-20 09:43:15.77	341.38	23.18	
2025-01-20 09:43:16.99	341.06	23.30	
2025-01-20 09:43:18.21	340.74	23.43	
2025-01-20 09:43:19.43	340.42	23.55	
2025-01-20 09:43:20.65	340.09	23.67	
2025-01-20 09:43:21.87	339.76	23.79	
2025-01-20 09:43:23.08	339.44	23.91	
2025-01-20 09:43:24.30	339.10	24.03	
2025-01-20 09:43:25.52	338.77	24.15	
2025-01-20 09:43:26.74	338.43	24.27	
2025-01-20 09:43:27.96	338.09	24.39	
2025-01-20 09:43:29.18	337.74	24.50	
2025-01-20 09:43:30.39	337.40	24.62	
2025-01-20 09:43:31.61	337.05	24.74	
2025-01-20 09:43:32.83	336.70	24.85	
2025-01-20 09:43:34.05	336.34	24.97	
2025-01-20 09:43:35.27	335.98	25.09	
2025-01-20 09:43:36.49	335.62	25.20	
2025-01-20 09:43:37.70	335.26	25.31	
2025-01-20 09:43:38.92	334.90	25.43	
2025-01-20 09:43:40.14	334.53	25.54	
2025-01-20 09:43:41.36	334.16	25.65	
2025-01-20 09:43:42.58	333.78	25.76	
2025-01-20 09:43:43.80	333.41	25.87	
2025-01-20 09:43:45.02	333.03	25.98	
2025-01-20 09:43:46.23	332.65	26.09	
2025-01-20 09:43:47.45	332.26	26.20	
2025-01-20 09:43:48.67	331.88	26.30	
2025-01-20 09:43:49.89	331.48	26.41	
2025-01-20 09:43:51.11	331.09	26.51	
2025-01-20 09:43:52.33	330.70	26.62	
2025-01-20 09:43:53.54	330.30	26.72	
2025-01-20 09:43:54.76	329.90	26.82	
2025-01-20 09:43:55.98	329.49	26.92	
2025-01-20 09:43:57.20	329.09	27.02	
2025-01-20 09:43:58.42	328.68	27.12	
2025-01-20 09:43:59.64	328.27	27.21	
2025-01-20 09:44:00.86	327.85	27.31	
2025-01-20 09:44:02.07	327.44	27.40	
2025-01-20 09:44:03.29	327.02	27.50	
2025-01-20 09:44:04.51	326.60	27.59	
2025-01-20 09:44:05.73	326.17	27.68	
2025-01-20 09:44:06.95	325.74	27.77	
2025-01-20 09:44:08.17	325.31	27.85	
2025-01-20 09:44:09.38	324.89	27.94	
2025-01-20 09:44:10.60	324.45	28.02	
2025-01-20 09:44:11.82	324.01	28.11	
2025-01-20 09:44:13.04	323.57	28.19	
2025-01-20 09:44:14.26	323.13	28.27	
2025-01-20 09:44:15.48	322.69	28.35	
2025-01-20 09:44:16.70	322.24	28.42	
2025-01-20 09:44:17.91	321.80	28.50	
2025-01-20 09:44:19.13	321.35	28.57	
2025-01-20 09:44:20.35	320.89	28.64	
2025-01-20 09:44:21.57	320.44	28.71	
2025-01-20 09:44:22.79	319.98	28.78	
2025-01-20 09:44:24.01	319.52	28.85	
2025-01-20 09:44:25.22	319.07	28.91	
2025-01-20 09:44:26.44	318.60	28.98	
2025-01-20 09:44:27.66	318.14	29.04	
2025-01-20 09:44:28.88	317.67	29.09	
2025-01-20 09:44:30.10	317.20	29.15	
2025-01-20 09:44:31.32	316.73	29.21	
2025-01-20 09:44:32.54	316.26	29.26	
2025-01-20 09:44:33.75	315.79	29.31	
2025-01-20 09:44:34.97	315.32	29.36	
2025-01-20 09:44:36.19	314.84	29.41	
2025-01-20 09:44:37.41	314.36	29.45	
2025-01-20 09:44:38.63	313.88	29.49	
2025-01-20 09:44:39.85	313.40	29.53	
2025-01-20 09:44:41.06	312.93	29.57	
2025-01-20 09:44:42.28	312.44	29.61	
2025-01-20 09:44:43.50	311.96	29.64	
2025-01-20 09:44:44.72	311.48	29.67	
2025-01-20 09:44:45.94	310.99	29.70	
2025-01-20 09:44:47.16	310.50	29.73	
2025-01-20 09:44:48.38	310.01	29.76	
2025-01-20 09:44:49.59	309.53	29.78	
2025-01-20 09:44:50.81	309.04	29.80	
2025-01-20 09:44:52.03	308.55	29.82	
2025-01-20 09:44:53.25	308.06	29.84	
2025-01-20 09:44:54.47	307.57	29.85	
2025-01-20 09:44:55.69	307.08	29.86	
2025-01-20 09:44:56.90	306.59	29.87	
2025-01-20 09:44:58.12	306.10	29.88	
2025-01-20 09:44:59.34	305.61	29.88	
2025-01-20 09:45:00.56	305.12	29.89	
2025-01-20 09:45:01.78	304.62	29.89	
2025-01-20 09:45:03.00	304.13	29.88	
2025-01-20 09:45:04.22	303.64	29.88	
2025-01-20 09:45:05.43	303.15	29.87	
2025-01-20 09:45:06.65	302.66	29.86	
2025-01-20 09:45:07.87	302.17	29.85	
2025-01-20 09:45:09.09	301.68	29.84	
2025-01-20 09:45:10.31	301.19	29.82	
2025-01-20 09:45:11.53	300.70	29.80	
2025-01-20 09:45:12.74	300.21	29.78	
2025-01-20 09:45:13.96	299.72	29.76	
2025-01-20 09:45:15.18	299.23	29.74	
2025-01-20 09:45:16.40	298.75	29.71	
2025-01-20 09:45:17.62	298.26	29.68	
2025-01-20 09:45:18.84	297.78	29.65	
2025-01-20 09:45:20.06	297.29	29.62	
2025-01-20 09:45:21.27	296.81	29.58	
2025-01-20 09:45:22.49	296.33	29.54	
2025-01-20 09:45:23.71	295.85	29.50	
2025-01-20 09:45:24.93	295.37	29.46	
2025-01-20 09:45:26.15	294.89	29.41	
2025-01-20 09:45:27.37	294.41	29.37	
2025-01-20 09:45:28.58	293.94	29.32	
2025-01-20 09:45:29.80	293.47	29.27	
2025-01-20 09:45:31.02	292.99	29.22	
2025-01-20 09:45:32.24	292.52	29.16	
2025-01-20 09:45:33.46	292.05	29.11	
2025-01-20 09:45:34.68	291.59	29.05	
2025-01-20 09:45:35.90	291.12	28.99	
2025-01-20 09:45:37.11	290.66	28.92	
2025-01-20 09:45:38.33	290.20	28.86	
2025-01-20 09:45:39.55	289.74	28.79	
2025-01-20 09:45:40.77	289.28	28.73	
2025-01-20 09:45:41.99	288.82	28.66	
2025-01-20 09:45:43.21	288.37	28.58	
2025-01-20 09:45:44.42	287.92	28.51	
2025-01-20 09:45:45.64	287.47	28.44	
2025-01-20 09:45:46.86	287.03	28.36	
2025-01-20 09:45:48.08	286.58	28.28	
2025-01-20 09:45:49.30	286.14	28.20	
2025-01-20 09:45:50.52	285.70	28.12	
2025-01-20 09:45:51.73	285.26	28.04	
2025-01-20 09:45:52.95	284.82	27.95	
2025-01-20 09:45:54.17	284.39	27.87	
2025-01-20 09:45:55.39	283.96	27.78	
2025-01-20 09:45:56.61	283.53	27.69	
2025-01-20 09:45:57.83	283.10	27.60	
2025-01-20 09:45:59.05	282.68	27.51	
2025-01-20 09:46:00.26	282.26	27.42	
2025-01-20 09:46:01.48	281.84	27.32	
2025-01-20 09:46:02.70	281.43	27.23	
2025-01-20 09:46:03.92	281.01	27.13	
2025-01-20 09:46:05.14	280.60	27.03	
2025-01-20 09:46:06.36	280.20	26.93	
2025-01-20 09:46:07.58	279.79	26.83	
2025-01-20 09:46:08.79	279.39	26.73	
2025-01-20 09:46:10.01	278.99	26.63	
2025-01-20 09:46:11.23	278.59	26.52	
2025-01-20 09:46:12.45	278.20	26.42	
2025-01-20 09:46:13.67	277.81	26.31	
2025-01-20 09:46:14.89	277.42	26.21	
2025-01-20 09:46:16.10	277.03	26.10	
2025-01-20 09:46:17.32	276.65	25.99	
2025-01-20 09:46:18.54	276.27	25.88	
2025-01-20 09:46:19.76	275.89	25.77	
2025-01-20 09:46:20.98	275.51	25.66	
2025-01-20 09:46:22.20	275.14	25.55	
2025-01-20 09:46:23.41	274.77	25.44	
2025-01-20 09:46:24.63	274.40	25.32	
2025-01-20 09:46:25.85	274.04	25.21	
2025-01-20 09:46:27.07	273.68	25.10	
2025-01-20 09:46:28.29	273.32	24.98	
2025-01-20 09:46:29.51	272.96	24.86	
2025-01-20 09:46:30.73	272.61	24.75	
2025-01-20 09:46:31.94	272.26	24.63	
2025-01-20 09:46:33.16	271.91	24.51	
2025-01-20 09:46:34.38	271.57	24.39	
2025-01-20 09:46:35.60	271.22	24.28	
2025-01-20 09:46:36.82	270.88	24.16	
2025-01-20 09:46:38.04	270.54	24.04	
2025-01-20 09:46:39.25	270.21	23.92	
2025-01-20 09:46:40.47	269.88	23.80	
2025-01-20 09:46:41.69	269.55	23.68	
2025-01-20 09:46:42.91	269.22	23.55	
2025-01-20 09:46:44.13	268.90	23.43	
2025-01-20 09:46:45.35	268.58	23.31	
2025-01-20 09:46:46.57	268.26	23.19	
2025-01-20 09:46:47.78	267.95	23.07	
2025-01-20 09:46:49.00	267.63	22.94	
2025-01-20 09:46:50.22	267.32	22.82	
2025-01-20 09:46:51.44	267.01	22.70	
2025-01-20 09:46:52.66	266.71	22.57	
2025-01-20 09:46:53.88	266.40	22.45	
2025-01-20 09:46:55.09	266.10	22.33	
2025-01-20 09:46:56.31	265.81	22.20	
2025-01-20 09:46:57.53	265.51	22.08	
2025-01-20 09:46:58.75	265.22	21.95	
2025-01-20 09:46:59.97	264.93	21.83	
2025-01-20 09:47:01.19	264.64	21.70	
2025-01-20 09:47:02.41	264.35	21.58	
2025-01-20 09:47:03.62	264.07	21.46	
2025-01-20 09:47:04.84	263.79	21.33	
2025-01-20 09:47:06.06	263.51	21.21	
2025-01-20 09:47:07.28	263.23	21.08	
2025-01-20 09:47:08.50	262.96	20.96	
2025-01-20 09:47:09.72	262.69	20.83	
2025-01-20 09:47:10.93	262.42	20.71	
2025-01-20 09:47:12.15	262.15	20.58	
2025-01-20 09:47:13.37	261.89	20.46	
2025-01-20 09:47:14.59	261.63	20.33	
2025-01-20 09:47:15.81	261.36	20.21	
2025-01-20 09:47:17.03	261.11	20.08	
2025-01-20 09:47:18.25	260.85	19.96	
2025-01-20 09:47:19.46	260.60	19.84	
2025-01-20 09:47:20.68	260.35	19.71	
2025-01-20 09:47:21.90	260.10	19.59	
2025-01-20 09:47:23.12	259.85	19.46	
2025-01-20 09:47:24.34	259.61	19.34	
2025-01-20 09:47:25.56	259.36	19.22	
2025-01-20 09:47:26.77	259.12	19.09	
2025-01-20 09:47:27.99	258.88	18.97	
2025-01-20 09:47:29.21	258.65	18.85	
2025-01-20 09:47:30.43	258.41	18.72	
2025-01-20 09:47:31.65	258.18	18.60	
2025-01-20 09:47:32.87	257.95	18.48	
2025-01-20 09:47:34.09	257.72	18.36	
2025-01-20 09:47:35.30	257.50	18.24	
2025-01-20 09:47:36.52	257.27	18.11	
2025-01-20 09:47:37.74	257.05	17.99	
2025-01-20 09:47:38.96	256.83	17.87	
2025-01-20 09:47:40.18	256.61	17.75	
2025-01-20 09:47:41.40	256.39	17.63	
2025-01-20 09:47:42.61	256.18	17.51	
2025-01-20 09:47:43.83	255.96	17.39	
2025-01-20 09:47:45.05	255.75	17.27	
2025-01-20 09:47:46.27	255.54	17.15	
2025-01-20 09:47:47.49	255.33	17.03	
2025-01-20 09:47:48.71	255.12	16.91	
2025-01-20 09:47:49.93	254.92	16.79	
2025-01-20 09:47:51.14	254.72	16.67	
2025-01-20 09:47:52.36	254.52	16.55	
2025-01-20 09:47:53.58	254.32	16.43	
2025-01-20 09:47:54.80	254.12	16.32	
2025-01-20 09:47:56.02	253.92	16.20	
2025-01-20 09:47:57.24	253.73	16.08	
2025-01-20 09:47:58.45	253.54	15.97	
2025-01-20 09:47:59.67	253.35	15.85	
2025-01-20 09:48:00.89	253.16	15.73	
2025-01-20 09:48:02.11	252.97	15.62	
2025-01-20 09:48:03.33	252.78	15.50	
2025-01-20 09:48:04.55	252.59	15.38	
2025-01-20 09:48:05.77	252.41	15.27	
2025-01-20 09:48:06.98	252.23	15.15	
2025-01-20 09:48:08.20	252.05	15.04	
2025-01-20 09:48:09.42	251.87	14.93	
2025-01-20 09:48:10.64	251.69	14.81	
2025-01-20 09:48:11.86	251.52	14.70	
2025-01-20 09:48:13.08	251.34	14.58	
2025-01-20 09:48:14.29	251.17	14.47	
2025-01-20 09:48:15.51	251.00	14.36	
2025-01-20 09:48:16.73	250.83	14.25	
2025-01-20 09:48:17.95	250.66	14.14	
2025-01-20 09:48:19.17	250.49	14.02	
2025-01-20 09:48:20.39	250.32	13.91	
2025-01-20 09:48:21.61	250.16	13.80	
2025-01-20 09:48:22.82	250.00	13.69	
2025-01-20 09:48:24.04	249.84	13.58	
2025-01-20 09:48:25.26	249.67	13.47	
2025-01-20 09:48:26.48	249.51	13.36	
2025-01-20 09:48:27.70	249.36	13.25	
2025-01-20 09:48:28.92	249.20	13.14	
2025-01-20 09:48:30.13	249.04	13.04	
2025-01-20 09:48:31.35	248.89	12.93	
2025-01-20 09:48:32.57	248.74	12.82	
2025-01-20 09:48:33.79	248.58	12.71	
2025-01-20 09:48:35.01	248.43	12.60	
2025-01-20 09:48:36.23	248.28	12.50	
2025-01-20 09:48:37.45	248.13	12.39	
2025-01-20 09:48:38.66	247.99	12.28	
2025-01-20 09:48:39.88	247.84	12.18	
2025-01-20 09:48:41.10	247.70	12.07	
2025-01-20 09:48:42.32	247.55	11.97	
2025-01-20 09:48:43.54	247.41	11.86	
2025-01-20 09:48:44.76	247.27	11.76	
2025-01-20 09:48:45.97	247.13	11.65	
2025-01-20 09:48:47.19	246.99	11.55	
2025-01-20 09:48:48.41	246.85	11.45	
2025-01-20 09:48:49.63	246.71	11.34	
2025-01-20 09:48:50.85	246.58	11.24	
2025-01-20 09:48:52.07	246.44	11.14	
2025-01-20 09:48:53.28	246.31	11.04	
2025-01-20 09:48:54.50	246.17	10.93	
2025-01-20 09:48:55.72	246.04	10.83	
2025-01-20 09:48:56.94	245.91	10.73	
2025-01-20 09:48:58.16	245.78	10.63	
2025-01-20 09:48:59.38	245.65	10.53	
2025-01-20 09:49:00.60	245.52	10.43	
2025-01-20 09:49:01.81	245.39	10.33	
2025-01-20 09:49:03.03	245.27	10.23	
2025-01-20 09:49:04.25	245.14	10.13	
2025-01-20 09:49:05.47	245.02	10.03	
2025-01-20 09:49:06.69	244.89	9.93	
2025-01-20 09:49:07.91	244.77	9.83	
2025-01-20 09:49:09.12	244.65	9.74	
2025-01-20 09:49:10.34	244.53	9.64	
2025-01-20 09:49:11.56	244.41	9.54	
2025-01-20 09:49:12.78	244.29	9.44	
2025-01-20 09:49:14.00	244.17	9.35	
2025-01-20 09:49:15.22	244.06	9.25	
2025-01-20 09:49:16.44	243.94	9.15	
2025-01-20 09:49:17.65	243.82	9.06	
2025-01-20 09:49:18.87	243.71	8.96	
2025-01-20 09:49:20.09	243.59	8.87	
2025-01-20 09:49:21.31	243.48	8.77	
2025-01-20 09:49:22.53	243.37	8.68	
2025-01-20 09:49:23.75	243.26	8.58	
2025-01-20 09:49:24.96	243.15	8.49	
2025-01-20 09:49:26.18	243.04	8.39	
2025-01-20 09:49:27.40	242.93	8.30	
2025-01-20 09:49:28.62	242.82	8.21	
2025-01-20 09:49:29.84	242.71	8.11	
2025-01-20 09:49:31.06	242.61	8.02	
2025-01-20 09:49:32.28	242.50	7.93	
2025-01-20 09:49:33.49	242.39	7.84	
2025-01-20 09:49:34.71	242.29	7.75	
2025-01-20 09:49:35.93	242.19	7.65	
2025-01-20 09:49:37.15	242.08	7.56	
2025-01-20 09:49:38.37	241.98	7.47	
2025-01-20 09:49:39.59	241.88	7.38	
2025-01-20 09:49:40.80	241.78	7.29	
2025-01-20 09:49:42.02	241.68	7.20	
2025-01-20 09:49:43.24	241.58	7.11	
2025-01-20 09:49:44.46	241.48	7.02	
2025-01-20 09:49:45.68	241.38	6.93	
2025-01-20 09:49:46.90	241.28	6.84	
2025-01-20 09:49:48.12	241.19	6.75	
2025-01-20 09:49:49.33	241.09	6.67	
2025-01-20 09:49:50.55	240.99	6.58	
2025-01-20 09:49:51.77	240.90	6.49	
2025-01-20 09:49:52.99	240.81	6.40	
2025-01-20 09:49:54.21	240.71	6.31	
2025-01-20 09:49:55.43	240.62	6.23	
2025-01-20 09:49:56.64	240.53	6.14	
2025-01-20 09:49:57.86	240.44	6.05	
2025-01-20 09:49:59.08	240.34	5.97	
2025-01-20 09:50:00.30	240.25	5.88	
2025-01-20 09:50:01.52	240.16	5.79	
2025-01-20 09:50:02.74	240.07	5.71	
2025-01-20 09:50:03.96	239.98	5.62	
2025-01-20 09:50:05.17	239.90	5.54	
2025-01-20 09:50:06.39	239.81	5.45	
2025-01-20 09:50:07.61	239.72	5.37	
2025-01-20 09:50:08.83	239.64	5.28	
2025-01-20 09:50:10.05	239.55	5.20	
2025-01-20 09:50:11.27	239.46	5.11	
2025-01-20 09:50:12.48	239.38	5.03	
2025-01-20 09:50:13.70	239.30	4.95	
2025-01-20 09:50:14.92	239.21	4.86	
2025-01-20 09:50:16.14	239.13	4.78	
2025-01-20 09:50:17.36	239.05	4.70	
2025-01-20 09:50:18.58	238.96	4.62	
2025-01-20 09:50:19.80	238.88	4.53	
2025-01-20 09:50:21.01	238.80	4.45	
2025-01-20 09:50:22.23	238.72	4.37	
2025-01-20 09:50:23.45	238.64	4.29	
2025-01-20 09:50:24.67	238.56	4.21	
2025-01-20 09:50:25.89	238.48	4.12	
2025-01-20 09:50:27.11	238.40	4.04	

#Closed at: 2025-01-20 09:50:27