passes_logs/2025/01/20/SPB_Silybum_02/SPB_Silybum_02__20250120_001914_SUOMI_NPP_rec.log

#Pass ID: 20250120_001914_SUOMI NPP
#Satellite: SUOMI NPP
#Configuration: NPP
#Start time: 2025-01-20 00:19:13

#Version: 2.0.20230423
#Station: SPB_Silybum_02
#Location: 30.233357 lon 59.946436 lat
#TLE: 1 37849U 11061A   25019.14897053  .00000245  00000+0  13701-3 0  9999
#TLE: 2 37849  98.7451 320.0850 0001518  34.7008 325.4267 14.19540506685500

#Time	Az	El	Level	Level2	SNR	BER	Gain	Gain2
2025-01-20 00:19:15.08	17.92	4.04	
2025-01-20 00:19:16.50	17.93	4.14	
2025-01-20 00:19:17.92	17.93	4.23	
2025-01-20 00:19:19.34	17.94	4.33	
2025-01-20 00:19:20.76	17.94	4.43	
2025-01-20 00:19:22.19	17.95	4.53	
2025-01-20 00:19:23.61	17.95	4.63	
2025-01-20 00:19:25.03	17.96	4.73	
2025-01-20 00:19:26.45	17.97	4.83	
2025-01-20 00:19:27.88	17.97	4.93	
2025-01-20 00:19:29.31	17.98	5.03	
2025-01-20 00:19:30.73	17.98	5.13	
2025-01-20 00:19:32.15	17.99	5.24	
2025-01-20 00:19:33.57	17.99	5.34	
2025-01-20 00:19:34.99	18.00	5.44	
2025-01-20 00:19:36.41	18.00	5.54	
2025-01-20 00:19:37.84	18.01	5.65	
2025-01-20 00:19:39.26	18.01	5.75	
2025-01-20 00:19:40.68	18.02	5.86	
2025-01-20 00:19:42.10	18.03	5.96	
2025-01-20 00:19:43.52	18.03	6.06	
2025-01-20 00:19:44.95	18.04	6.17	
2025-01-20 00:19:46.37	18.04	6.28	
2025-01-20 00:19:47.79	18.05	6.38	
2025-01-20 00:19:49.21	18.05	6.49	
2025-01-20 00:19:50.63	18.06	6.60	
2025-01-20 00:19:52.05	18.06	6.70	
2025-01-20 00:19:53.48	18.07	6.81	
2025-01-20 00:19:54.90	18.07	6.92	
2025-01-20 00:19:56.32	18.08	7.03	
2025-01-20 00:19:57.74	18.08	7.14	
2025-01-20 00:19:59.16	18.09	7.25	
2025-01-20 00:20:00.59	18.10	7.36	
2025-01-20 00:20:02.01	18.10	7.47	
2025-01-20 00:20:03.43	18.11	7.58	
2025-01-20 00:20:04.85	18.11	7.69	
2025-01-20 00:20:06.27	18.12	7.81	
2025-01-20 00:20:07.69	18.12	7.92	
2025-01-20 00:20:09.12	18.13	8.03	
2025-01-20 00:20:10.54	18.13	8.15	
2025-01-20 00:20:11.96	18.14	8.26	
2025-01-20 00:20:13.38	18.14	8.38	
2025-01-20 00:20:14.80	18.15	8.49	
2025-01-20 00:20:16.23	18.15	8.61	
2025-01-20 00:20:17.65	18.16	8.72	
2025-01-20 00:20:19.07	18.16	8.84	
2025-01-20 00:20:20.49	18.17	8.96	
2025-01-20 00:20:21.93	18.17	9.08	
2025-01-20 00:20:23.35	18.18	9.20	
2025-01-20 00:20:24.77	18.18	9.32	
2025-01-20 00:20:26.19	18.19	9.44	
2025-01-20 00:20:27.62	18.20	9.56	
2025-01-20 00:20:29.04	18.20	9.68	
2025-01-20 00:20:30.46	18.21	9.80	
2025-01-20 00:20:31.88	18.21	9.92	
2025-01-20 00:20:33.30	18.22	10.04	
2025-01-20 00:20:34.72	18.22	10.17	
2025-01-20 00:20:36.15	18.23	10.29	
2025-01-20 00:20:37.57	18.23	10.42	
2025-01-20 00:20:38.99	18.24	10.54	
2025-01-20 00:20:40.41	18.24	10.67	
2025-01-20 00:20:41.83	18.25	10.79	
2025-01-20 00:20:43.26	18.25	10.92	
2025-01-20 00:20:44.68	18.26	11.05	
2025-01-20 00:20:46.10	18.26	11.18	
2025-01-20 00:20:47.52	18.27	11.31	
2025-01-20 00:20:48.94	18.27	11.44	
2025-01-20 00:20:50.36	18.28	11.57	
2025-01-20 00:20:51.79	18.28	11.70	
2025-01-20 00:20:53.21	18.29	11.83	
2025-01-20 00:20:54.63	18.29	11.97	
2025-01-20 00:20:56.05	18.30	12.10	
2025-01-20 00:20:57.47	18.30	12.23	
2025-01-20 00:20:58.90	18.31	12.37	
2025-01-20 00:21:00.32	18.31	12.51	
2025-01-20 00:21:01.74	18.32	12.64	
2025-01-20 00:21:03.16	18.32	12.78	
2025-01-20 00:21:04.58	18.33	12.92	
2025-01-20 00:21:06.00	18.33	13.06	
2025-01-20 00:21:07.43	18.34	13.20	
2025-01-20 00:21:08.85	18.34	13.34	
2025-01-20 00:21:10.27	18.35	13.48	
2025-01-20 00:21:11.69	18.35	13.62	
2025-01-20 00:21:13.11	18.36	13.76	
2025-01-20 00:21:14.54	18.36	13.91	
2025-01-20 00:21:15.96	18.37	14.05	
2025-01-20 00:21:17.38	18.37	14.20	
2025-01-20 00:21:18.80	18.38	14.34	
2025-01-20 00:21:20.22	18.38	14.49	
2025-01-20 00:21:21.64	18.39	14.64	
2025-01-20 00:21:23.07	18.39	14.79	
2025-01-20 00:21:24.49	18.39	14.94	
2025-01-20 00:21:25.91	18.40	15.09	
2025-01-20 00:21:27.33	18.40	15.24	
2025-01-20 00:21:28.75	18.41	15.39	
2025-01-20 00:21:30.18	18.41	15.55	
2025-01-20 00:21:31.60	18.42	15.70	
2025-01-20 00:21:33.02	18.42	15.86	
2025-01-20 00:21:34.44	18.43	16.02	
2025-01-20 00:21:35.86	18.43	16.17	
2025-01-20 00:21:37.28	18.44	16.33	
2025-01-20 00:21:38.71	18.44	16.49	
2025-01-20 00:21:40.13	18.45	16.65	
2025-01-20 00:21:41.55	18.45	16.82	
2025-01-20 00:21:42.97	18.46	16.98	
2025-01-20 00:21:44.39	18.46	17.14	
2025-01-20 00:21:45.82	18.47	17.31	
2025-01-20 00:21:47.24	18.47	17.48	
2025-01-20 00:21:48.66	18.47	17.64	
2025-01-20 00:21:50.08	18.48	17.81	
2025-01-20 00:21:51.50	18.48	17.98	
2025-01-20 00:21:52.92	18.49	18.15	
2025-01-20 00:21:54.35	18.49	18.33	
2025-01-20 00:21:55.77	18.50	18.50	
2025-01-20 00:21:57.19	18.50	18.68	
2025-01-20 00:21:58.61	18.51	18.85	
2025-01-20 00:22:00.03	18.51	19.03	
2025-01-20 00:22:01.47	18.52	19.21	
2025-01-20 00:22:02.89	18.52	19.39	
2025-01-20 00:22:04.31	18.52	19.57	
2025-01-20 00:22:05.74	18.53	19.75	
2025-01-20 00:22:07.16	18.53	19.94	
2025-01-20 00:22:08.58	18.54	20.12	
2025-01-20 00:22:10.00	18.54	20.31	
2025-01-20 00:22:11.42	18.55	20.50	
2025-01-20 00:22:12.85	18.55	20.69	
2025-01-20 00:22:14.27	18.55	20.88	
2025-01-20 00:22:15.69	18.56	21.07	
2025-01-20 00:22:17.11	18.56	21.27	
2025-01-20 00:22:18.53	18.57	21.46	
2025-01-20 00:22:19.95	18.57	21.66	
2025-01-20 00:22:21.38	18.58	21.86	
2025-01-20 00:22:22.80	18.58	22.06	
2025-01-20 00:22:24.22	18.58	22.26	
2025-01-20 00:22:25.64	18.59	22.46	
2025-01-20 00:22:27.06	18.59	22.67	
2025-01-20 00:22:28.49	18.60	22.87	
2025-01-20 00:22:29.91	18.60	23.08	
2025-01-20 00:22:31.33	18.60	23.29	
2025-01-20 00:22:32.75	18.61	23.50	
2025-01-20 00:22:34.17	18.61	23.72	
2025-01-20 00:22:35.59	18.62	23.93	
2025-01-20 00:22:37.02	18.62	24.15	
2025-01-20 00:22:38.44	18.62	24.37	
2025-01-20 00:22:39.86	18.63	24.59	
2025-01-20 00:22:41.28	18.63	24.81	
2025-01-20 00:22:42.70	18.64	25.04	
2025-01-20 00:22:44.13	18.64	25.27	
2025-01-20 00:22:45.55	18.64	25.49	
2025-01-20 00:22:46.97	18.65	25.72	
2025-01-20 00:22:48.39	18.65	25.96	
2025-01-20 00:22:49.81	18.65	26.19	
2025-01-20 00:22:51.23	18.66	26.43	
2025-01-20 00:22:52.66	18.66	26.67	
2025-01-20 00:22:54.08	18.67	26.91	
2025-01-20 00:22:55.50	18.67	27.15	
2025-01-20 00:22:56.92	18.67	27.39	
2025-01-20 00:22:58.34	18.68	27.64	
2025-01-20 00:22:59.77	18.68	27.89	
2025-01-20 00:23:01.19	18.68	28.15	
2025-01-20 00:23:02.61	18.69	28.40	
2025-01-20 00:23:04.03	18.69	28.66	
2025-01-20 00:23:05.45	18.69	28.91	
2025-01-20 00:23:06.87	18.70	29.18	
2025-01-20 00:23:08.30	18.70	29.44	
2025-01-20 00:23:09.72	18.70	29.71	
2025-01-20 00:23:11.14	18.71	29.98	
2025-01-20 00:23:12.56	18.71	30.25	
2025-01-20 00:23:13.98	18.71	30.52	
2025-01-20 00:23:15.41	18.72	30.80	
2025-01-20 00:23:16.83	18.72	31.08	
2025-01-20 00:23:18.25	18.72	31.36	
2025-01-20 00:23:19.67	18.72	31.64	
2025-01-20 00:23:21.09	18.73	31.93	
2025-01-20 00:23:22.51	18.73	32.22	
2025-01-20 00:23:23.94	18.73	32.52	
2025-01-20 00:23:25.36	18.74	32.81	
2025-01-20 00:23:26.78	18.74	33.11	
2025-01-20 00:23:28.20	18.74	33.41	
2025-01-20 00:23:29.62	18.74	33.72	
2025-01-20 00:23:31.05	18.75	34.03	
2025-01-20 00:23:32.47	18.75	34.34	
2025-01-20 00:23:33.89	18.75	34.65	
2025-01-20 00:23:35.31	18.75	34.97	
2025-01-20 00:23:36.73	18.76	35.29	
2025-01-20 00:23:38.15	18.76	35.62	
2025-01-20 00:23:39.58	18.76	35.95	
2025-01-20 00:23:41.00	18.76	36.28	
2025-01-20 00:23:42.42	18.76	36.61	
2025-01-20 00:23:43.84	18.77	36.95	
2025-01-20 00:23:45.26	18.77	37.29	
2025-01-20 00:23:46.69	18.77	37.64	
2025-01-20 00:23:48.11	18.77	37.99	
2025-01-20 00:23:49.53	18.77	38.34	
2025-01-20 00:23:50.95	18.77	38.69	
2025-01-20 00:23:52.37	18.78	39.05	
2025-01-20 00:23:53.79	18.78	39.42	
2025-01-20 00:23:55.22	18.78	39.79	
2025-01-20 00:23:56.64	18.78	40.16	
2025-01-20 00:23:58.06	18.78	40.53	
2025-01-20 00:23:59.48	18.78	40.91	
2025-01-20 00:24:00.90	18.78	41.30	
2025-01-20 00:24:02.33	18.78	41.69	
2025-01-20 00:24:03.75	18.78	42.08	
2025-01-20 00:24:05.17	18.78	42.47	
2025-01-20 00:24:06.59	18.78	42.87	
2025-01-20 00:24:08.01	18.78	43.28	
2025-01-20 00:24:09.43	18.78	43.69	
2025-01-20 00:24:10.86	18.78	44.10	
2025-01-20 00:24:12.28	18.78	44.52	
2025-01-20 00:24:13.70	18.78	44.94	
2025-01-20 00:24:15.12	18.78	45.37	
2025-01-20 00:24:16.54	18.78	45.80	
2025-01-20 00:24:17.97	18.78	46.24	
2025-01-20 00:24:19.39	18.78	46.68	
2025-01-20 00:24:20.81	18.78	47.12	
2025-01-20 00:24:22.23	18.78	47.57	
2025-01-20 00:24:23.65	18.78	48.03	
2025-01-20 00:24:25.07	18.77	48.49	
2025-01-20 00:24:26.50	18.77	48.96	
2025-01-20 00:24:27.92	18.77	49.43	
2025-01-20 00:24:29.35	18.77	49.90	
2025-01-20 00:24:30.77	18.76	50.38	
2025-01-20 00:24:32.19	18.76	50.87	
2025-01-20 00:24:33.61	18.76	51.36	
2025-01-20 00:24:35.03	18.75	51.85	
2025-01-20 00:24:36.46	18.75	52.36	
2025-01-20 00:24:37.88	18.75	52.86	
2025-01-20 00:24:39.30	18.74	53.37	
2025-01-20 00:24:40.72	18.74	53.89	
2025-01-20 00:24:42.14	18.73	54.41	
2025-01-20 00:24:43.56	18.73	54.94	
2025-01-20 00:24:44.99	18.72	55.47	
2025-01-20 00:24:46.41	18.71	56.01	
2025-01-20 00:24:47.83	18.71	56.55	
2025-01-20 00:24:49.25	18.70	57.10	
2025-01-20 00:24:50.67	18.69	57.65	
2025-01-20 00:24:52.10	18.68	58.21	
2025-01-20 00:24:53.52	18.67	58.78	
2025-01-20 00:24:54.94	18.66	59.35	
2025-01-20 00:24:56.36	18.65	59.92	
2025-01-20 00:24:57.78	18.64	60.50	
2025-01-20 00:24:59.20	18.63	61.09	
2025-01-20 00:25:00.64	18.62	61.69	
2025-01-20 00:25:02.06	18.60	62.28	
2025-01-20 00:25:03.49	18.59	62.89	
2025-01-20 00:25:04.91	18.57	63.49	
2025-01-20 00:25:06.33	18.56	64.11	
2025-01-20 00:25:07.75	18.54	64.72	
2025-01-20 00:25:09.17	18.52	65.34	
2025-01-20 00:25:10.60	18.50	65.98	
2025-01-20 00:25:12.02	18.47	66.61	
2025-01-20 00:25:13.44	18.45	67.24	
2025-01-20 00:25:14.86	18.42	67.89	
2025-01-20 00:25:16.28	18.40	68.53	
2025-01-20 00:25:17.70	18.37	69.18	
2025-01-20 00:25:19.13	18.33	69.84	
2025-01-20 00:25:20.55	18.30	70.51	
2025-01-20 00:25:21.97	18.26	71.17	
2025-01-20 00:25:23.39	18.22	71.84	
2025-01-20 00:25:24.81	18.17	72.51	
2025-01-20 00:25:26.24	18.12	73.20	
2025-01-20 00:25:27.66	18.07	73.88	
2025-01-20 00:25:29.08	18.01	74.56	
2025-01-20 00:25:30.50	17.94	75.25	
2025-01-20 00:25:31.92	17.86	75.95	
2025-01-20 00:25:33.34	17.78	76.64	
2025-01-20 00:25:34.77	17.69	77.35	
2025-01-20 00:25:36.19	17.58	78.05	
2025-01-20 00:25:37.61	17.46	78.76	
2025-01-20 00:25:39.03	17.33	79.46	
2025-01-20 00:25:40.45	17.17	80.18	
2025-01-20 00:25:41.87	16.99	80.89	
2025-01-20 00:25:43.30	16.77	81.61	
2025-01-20 00:25:44.72	16.51	82.33	
2025-01-20 00:25:46.14	16.20	83.05	
2025-01-20 00:25:47.56	15.81	83.77	
2025-01-20 00:25:48.98	15.32	84.49	
2025-01-20 00:25:50.41	14.67	85.22	
2025-01-20 00:25:51.83	13.80	85.95	
2025-01-20 00:25:53.25	12.54	86.67	
2025-01-20 00:25:54.67	10.57	87.39	
2025-01-20 00:25:56.09	7.10	88.11	
2025-01-20 00:25:57.51	359.44	88.82	
2025-01-20 00:25:58.94	332.24	89.45	
2025-01-20 00:26:00.36	248.55	89.46	
2025-01-20 00:26:01.78	220.19	88.84	
2025-01-20 00:26:03.20	212.27	88.14	
2025-01-20 00:26:04.62	208.71	87.42	
2025-01-20 00:26:06.05	206.70	86.69	
2025-01-20 00:26:07.47	205.43	85.97	
2025-01-20 00:26:08.89	204.55	85.24	
2025-01-20 00:26:10.31	203.90	84.52	
2025-01-20 00:26:11.73	203.40	83.79	
2025-01-20 00:26:13.15	203.01	83.07	
2025-01-20 00:26:14.58	202.70	82.35	
2025-01-20 00:26:16.00	202.44	81.63	
2025-01-20 00:26:17.42	202.22	80.91	
2025-01-20 00:26:18.84	202.04	80.20	
2025-01-20 00:26:20.26	201.88	79.48	
2025-01-20 00:26:21.69	201.74	78.77	
2025-01-20 00:26:23.11	201.62	78.06	
2025-01-20 00:26:24.53	201.52	77.36	
2025-01-20 00:26:25.95	201.42	76.66	
2025-01-20 00:26:27.37	201.34	75.96	
2025-01-20 00:26:28.79	201.26	75.27	
2025-01-20 00:26:30.22	201.20	74.57	
2025-01-20 00:26:31.64	201.13	73.88	
2025-01-20 00:26:33.06	201.08	73.20	
2025-01-20 00:26:34.48	201.03	72.52	
2025-01-20 00:26:35.90	200.98	71.85	
2025-01-20 00:26:37.33	200.94	71.17	
2025-01-20 00:26:38.75	200.90	70.51	
2025-01-20 00:26:40.17	200.87	69.84	
2025-01-20 00:26:41.59	200.83	69.19	
2025-01-20 00:26:43.01	200.80	68.53	
2025-01-20 00:26:44.43	200.77	67.89	
2025-01-20 00:26:45.86	200.75	67.24	
2025-01-20 00:26:47.28	200.72	66.60	
2025-01-20 00:26:48.70	200.70	65.97	
2025-01-20 00:26:50.12	200.68	65.34	
2025-01-20 00:26:51.54	200.66	64.71	
2025-01-20 00:26:52.97	200.64	64.09	
2025-01-20 00:26:54.39	200.62	63.48	
2025-01-20 00:26:55.81	200.61	62.87	
2025-01-20 00:26:57.23	200.59	62.27	
2025-01-20 00:26:58.65	200.58	61.67	
2025-01-20 00:27:00.07	200.57	61.08	
2025-01-20 00:27:01.50	200.55	60.49	
2025-01-20 00:27:02.92	200.54	59.90	
2025-01-20 00:27:04.34	200.53	59.33	
2025-01-20 00:27:05.76	200.52	58.76	
2025-01-20 00:27:07.18	200.51	58.19	
2025-01-20 00:27:08.61	200.50	57.63	
2025-01-20 00:27:10.03	200.49	57.07	
2025-01-20 00:27:11.45	200.49	56.52	
2025-01-20 00:27:12.87	200.48	55.98	
2025-01-20 00:27:14.29	200.47	55.44	
2025-01-20 00:27:15.71	200.47	54.91	
2025-01-20 00:27:17.14	200.46	54.37	
2025-01-20 00:27:18.56	200.45	53.85	
2025-01-20 00:27:19.98	200.45	53.33	
2025-01-20 00:27:21.40	200.44	52.82	
2025-01-20 00:27:22.82	200.44	52.31	
2025-01-20 00:27:24.25	200.44	51.81	
2025-01-20 00:27:25.67	200.43	51.31	
2025-01-20 00:27:27.09	200.43	50.82	
2025-01-20 00:27:28.51	200.42	50.33	
2025-01-20 00:27:29.93	200.42	49.85	
2025-01-20 00:27:31.35	200.42	49.38	
2025-01-20 00:27:32.78	200.42	48.90	
2025-01-20 00:27:34.20	200.41	48.44	
2025-01-20 00:27:35.62	200.41	47.97	
2025-01-20 00:27:37.04	200.41	47.52	
2025-01-20 00:27:38.46	200.41	47.07	
2025-01-20 00:27:39.89	200.41	46.62	
2025-01-20 00:27:41.31	200.40	46.17	
2025-01-20 00:27:42.73	200.40	45.74	
2025-01-20 00:27:44.15	200.40	45.30	
2025-01-20 00:27:45.57	200.40	44.88	
2025-01-20 00:27:46.99	200.40	44.45	
2025-01-20 00:27:48.42	200.40	44.03	
2025-01-20 00:27:49.84	200.40	43.62	
2025-01-20 00:27:51.26	200.40	43.21	
2025-01-20 00:27:52.68	200.40	42.80	
2025-01-20 00:27:54.10	200.40	42.40	
2025-01-20 00:27:55.53	200.40	42.00	
2025-01-20 00:27:56.95	200.40	41.61	
2025-01-20 00:27:58.37	200.40	41.22	
2025-01-20 00:27:59.79	200.40	40.83	
2025-01-20 00:28:01.21	200.40	40.45	
2025-01-20 00:28:02.63	200.40	40.08	
2025-01-20 00:28:04.06	200.40	39.70	
2025-01-20 00:28:05.48	200.40	39.33	
2025-01-20 00:28:06.90	200.40	38.97	
2025-01-20 00:28:08.32	200.40	38.61	
2025-01-20 00:28:09.74	200.40	38.25	
2025-01-20 00:28:11.17	200.41	37.89	
2025-01-20 00:28:12.59	200.41	37.55	
2025-01-20 00:28:14.01	200.41	37.20	
2025-01-20 00:28:15.43	200.41	36.86	
2025-01-20 00:28:16.85	200.41	36.52	
2025-01-20 00:28:18.27	200.41	36.18	
2025-01-20 00:28:19.70	200.41	35.85	
2025-01-20 00:28:21.12	200.42	35.52	
2025-01-20 00:28:22.54	200.42	35.19	
2025-01-20 00:28:23.96	200.42	34.87	
2025-01-20 00:28:25.38	200.42	34.55	
2025-01-20 00:28:26.81	200.42	34.24	
2025-01-20 00:28:28.23	200.42	33.92	
2025-01-20 00:28:29.65	200.43	33.62	
2025-01-20 00:28:31.07	200.43	33.31	
2025-01-20 00:28:32.49	200.43	33.01	
2025-01-20 00:28:33.91	200.43	32.71	
2025-01-20 00:28:35.34	200.43	32.41	
2025-01-20 00:28:36.76	200.44	32.11	
2025-01-20 00:28:38.18	200.44	31.82	
2025-01-20 00:28:39.60	200.44	31.53	
2025-01-20 00:28:41.02	200.44	31.25	
2025-01-20 00:28:42.45	200.45	30.96	
2025-01-20 00:28:43.87	200.45	30.68	
2025-01-20 00:28:45.29	200.45	30.41	
2025-01-20 00:28:46.71	200.45	30.13	
2025-01-20 00:28:48.13	200.46	29.86	
2025-01-20 00:28:49.55	200.46	29.59	
2025-01-20 00:28:50.98	200.46	29.32	
2025-01-20 00:28:52.40	200.46	29.06	
2025-01-20 00:28:53.82	200.47	28.79	
2025-01-20 00:28:55.24	200.47	28.54	
2025-01-20 00:28:56.66	200.47	28.28	
2025-01-20 00:28:58.09	200.47	28.02	
2025-01-20 00:28:59.51	200.48	27.77	
2025-01-20 00:29:00.93	200.48	27.52	
2025-01-20 00:29:02.35	200.48	27.27	
2025-01-20 00:29:03.77	200.48	27.02	
2025-01-20 00:29:05.19	200.49	26.78	
2025-01-20 00:29:06.62	200.49	26.54	
2025-01-20 00:29:08.04	200.49	26.30	
2025-01-20 00:29:09.46	200.50	26.06	
2025-01-20 00:29:10.88	200.50	25.83	
2025-01-20 00:29:12.30	200.50	25.59	
2025-01-20 00:29:13.73	200.51	25.36	
2025-01-20 00:29:15.15	200.51	25.13	
2025-01-20 00:29:16.57	200.51	24.91	
2025-01-20 00:29:17.99	200.51	24.68	
2025-01-20 00:29:19.41	200.52	24.46	
2025-01-20 00:29:20.83	200.52	24.24	
2025-01-20 00:29:22.26	200.52	24.02	
2025-01-20 00:29:23.68	200.53	23.80	
2025-01-20 00:29:25.10	200.53	23.58	
2025-01-20 00:29:26.52	200.53	23.37	
2025-01-20 00:29:27.94	200.54	23.16	
2025-01-20 00:29:29.37	200.54	22.94	
2025-01-20 00:29:30.79	200.54	22.74	
2025-01-20 00:29:32.21	200.55	22.53	
2025-01-20 00:29:33.63	200.55	22.32	
2025-01-20 00:29:35.05	200.55	22.12	
2025-01-20 00:29:36.47	200.56	21.92	
2025-01-20 00:29:37.90	200.56	21.72	
2025-01-20 00:29:39.32	200.56	21.52	
2025-01-20 00:29:40.74	200.57	21.32	
2025-01-20 00:29:42.16	200.57	21.12	
2025-01-20 00:29:43.58	200.57	20.93	
2025-01-20 00:29:45.01	200.58	20.73	
2025-01-20 00:29:46.43	200.58	20.54	
2025-01-20 00:29:47.85	200.58	20.35	
2025-01-20 00:29:49.27	200.59	20.16	
2025-01-20 00:29:50.69	200.59	19.98	
2025-01-20 00:29:52.11	200.59	19.79	
2025-01-20 00:29:53.54	200.60	19.61	
2025-01-20 00:29:54.96	200.60	19.42	
2025-01-20 00:29:56.38	200.60	19.24	
2025-01-20 00:29:57.80	200.61	19.06	
2025-01-20 00:29:59.22	200.61	18.88	
2025-01-20 00:30:00.65	200.61	18.70	
2025-01-20 00:30:02.07	200.62	18.53	
2025-01-20 00:30:03.49	200.62	18.35	
2025-01-20 00:30:04.91	200.62	18.18	
2025-01-20 00:30:06.33	200.63	18.01	
2025-01-20 00:30:07.75	200.63	17.83	
2025-01-20 00:30:09.18	200.64	17.66	
2025-01-20 00:30:10.60	200.64	17.49	
2025-01-20 00:30:12.02	200.64	17.33	
2025-01-20 00:30:13.44	200.65	17.16	
2025-01-20 00:30:14.86	200.65	16.99	
2025-01-20 00:30:16.28	200.65	16.83	
2025-01-20 00:30:17.71	200.66	16.66	
2025-01-20 00:30:19.13	200.66	16.50	
2025-01-20 00:30:20.55	200.66	16.34	
2025-01-20 00:30:21.97	200.67	16.18	
2025-01-20 00:30:23.39	200.67	16.02	
2025-01-20 00:30:24.82	200.68	15.86	
2025-01-20 00:30:26.24	200.68	15.70	
2025-01-20 00:30:27.66	200.68	15.55	
2025-01-20 00:30:29.08	200.69	15.39	
2025-01-20 00:30:30.50	200.69	15.24	
2025-01-20 00:30:31.93	200.69	15.08	
2025-01-20 00:30:33.35	200.70	14.93	
2025-01-20 00:30:34.77	200.70	14.78	
2025-01-20 00:30:36.19	200.71	14.63	
2025-01-20 00:30:37.61	200.71	14.48	
2025-01-20 00:30:39.03	200.71	14.33	
2025-01-20 00:30:40.46	200.72	14.18	
2025-01-20 00:30:41.88	200.72	14.04	
2025-01-20 00:30:43.30	200.72	13.89	
2025-01-20 00:30:44.72	200.73	13.75	
2025-01-20 00:30:46.14	200.73	13.60	
2025-01-20 00:30:47.56	200.74	13.46	
2025-01-20 00:30:48.99	200.74	13.32	
2025-01-20 00:30:50.41	200.74	13.17	
2025-01-20 00:30:51.83	200.75	13.03	
2025-01-20 00:30:53.25	200.75	12.89	
2025-01-20 00:30:54.67	200.75	12.75	
2025-01-20 00:30:56.10	200.76	12.62	
2025-01-20 00:30:57.52	200.76	12.48	
2025-01-20 00:30:58.94	200.77	12.34	
2025-01-20 00:31:00.36	200.77	12.21	
2025-01-20 00:31:01.78	200.77	12.07	
2025-01-20 00:31:03.20	200.78	11.94	
2025-01-20 00:31:04.63	200.78	11.80	
2025-01-20 00:31:06.05	200.78	11.67	
2025-01-20 00:31:07.47	200.79	11.54	
2025-01-20 00:31:08.89	200.79	11.40	
2025-01-20 00:31:10.31	200.80	11.27	
2025-01-20 00:31:11.74	200.80	11.14	
2025-01-20 00:31:13.16	200.80	11.01	
2025-01-20 00:31:14.58	200.81	10.88	
2025-01-20 00:31:16.00	200.81	10.76	
2025-01-20 00:31:17.42	200.82	10.63	
2025-01-20 00:31:18.84	200.82	10.50	
2025-01-20 00:31:20.27	200.82	10.37	
2025-01-20 00:31:21.69	200.83	10.25	
2025-01-20 00:31:23.11	200.83	10.12	
2025-01-20 00:31:24.53	200.83	10.00	
2025-01-20 00:31:25.95	200.84	9.88	
2025-01-20 00:31:27.38	200.84	9.75	
2025-01-20 00:31:28.80	200.85	9.63	
2025-01-20 00:31:30.22	200.85	9.51	
2025-01-20 00:31:31.64	200.85	9.39	
2025-01-20 00:31:33.06	200.86	9.27	
2025-01-20 00:31:34.48	200.86	9.15	
2025-01-20 00:31:35.91	200.87	9.03	
2025-01-20 00:31:37.33	200.87	8.91	
2025-01-20 00:31:38.75	200.87	8.79	
2025-01-20 00:31:40.17	200.88	8.67	
2025-01-20 00:31:41.59	200.88	8.55	
2025-01-20 00:31:43.02	200.88	8.44	
2025-01-20 00:31:44.44	200.89	8.32	
2025-01-20 00:31:45.86	200.89	8.20	
2025-01-20 00:31:47.28	200.90	8.09	
2025-01-20 00:31:48.70	200.90	7.97	
2025-01-20 00:31:50.12	200.90	7.86	
2025-01-20 00:31:51.55	200.91	7.75	
2025-01-20 00:31:52.97	200.91	7.63	
2025-01-20 00:31:54.39	200.92	7.52	
2025-01-20 00:31:55.81	200.92	7.41	
2025-01-20 00:31:57.23	200.92	7.30	
2025-01-20 00:31:58.66	200.93	7.19	
2025-01-20 00:32:00.08	200.93	7.07	
2025-01-20 00:32:01.50	200.94	6.96	
2025-01-20 00:32:02.92	200.94	6.85	
2025-01-20 00:32:04.34	200.94	6.75	
2025-01-20 00:32:05.76	200.95	6.64	
2025-01-20 00:32:07.19	200.95	6.53	
2025-01-20 00:32:08.61	200.95	6.42	
2025-01-20 00:32:10.03	200.96	6.31	
2025-01-20 00:32:11.45	200.96	6.21	
2025-01-20 00:32:12.87	200.97	6.10	
2025-01-20 00:32:14.30	200.97	5.99	
2025-01-20 00:32:15.72	200.97	5.89	
2025-01-20 00:32:17.14	200.98	5.78	
2025-01-20 00:32:18.56	200.98	5.68	
2025-01-20 00:32:19.98	200.99	5.57	
2025-01-20 00:32:21.40	200.99	5.47	
2025-01-20 00:32:22.83	200.99	5.37	
2025-01-20 00:32:24.25	201.00	5.26	
2025-01-20 00:32:25.67	201.00	5.16	
2025-01-20 00:32:27.09	201.01	5.06	
2025-01-20 00:32:28.51	201.01	4.96	
2025-01-20 00:32:29.94	201.01	4.85	
2025-01-20 00:32:31.36	201.02	4.75	
2025-01-20 00:32:32.78	201.02	4.65	
2025-01-20 00:32:34.20	201.03	4.55	
2025-01-20 00:32:35.62	201.03	4.45	
2025-01-20 00:32:37.04	201.03	4.35	
2025-01-20 00:32:38.47	201.04	4.25	
2025-01-20 00:32:39.89	201.04	4.15	
2025-01-20 00:32:41.31	201.04	4.05	

#Closed at: 2025-01-20 00:32:42