passes_logs/2025/01/20/SPB_Silybum_02/SPB_Silybum_02__20250120_083308_SUOMI_NPP_rec.log

#Pass ID: 20250120_083308_SUOMI NPP
#Satellite: SUOMI NPP
#Configuration: NPP
#Start time: 2025-01-20 08:33:07

#Version: 2.0.20230423
#Station: SPB_Silybum_02
#Location: 30.233357 lon 59.946436 lat
#TLE: 1 37849U 11061A   25019.85382012  .00000269  00000+0  14855-3 0  9998
#TLE: 2 37849  98.7451 320.7810 0001479  33.1387 326.9881 14.19541038685602

#Time	Az	El	Level	Level2	SNR	BER	Gain	Gain2
2025-01-20 08:33:09.25	109.68	4.07	
2025-01-20 08:33:10.47	109.60	4.15	
2025-01-20 08:33:11.68	109.51	4.22	
2025-01-20 08:33:12.90	109.43	4.30	
2025-01-20 08:33:14.12	109.34	4.37	
2025-01-20 08:33:15.34	109.26	4.45	
2025-01-20 08:33:16.56	109.17	4.52	
2025-01-20 08:33:17.78	109.09	4.60	
2025-01-20 08:33:19.00	109.00	4.68	
2025-01-20 08:33:20.21	108.91	4.75	
2025-01-20 08:33:21.43	108.83	4.83	
2025-01-20 08:33:22.65	108.74	4.90	
2025-01-20 08:33:23.87	108.65	4.98	
2025-01-20 08:33:25.09	108.56	5.06	
2025-01-20 08:33:26.31	108.47	5.13	
2025-01-20 08:33:27.52	108.38	5.21	
2025-01-20 08:33:28.74	108.29	5.29	
2025-01-20 08:33:29.96	108.20	5.37	
2025-01-20 08:33:31.18	108.11	5.44	
2025-01-20 08:33:32.40	108.02	5.52	
2025-01-20 08:33:33.62	107.93	5.60	
2025-01-20 08:33:34.84	107.83	5.68	
2025-01-20 08:33:36.05	107.74	5.75	
2025-01-20 08:33:37.27	107.65	5.83	
2025-01-20 08:33:38.49	107.55	5.91	
2025-01-20 08:33:39.71	107.46	5.99	
2025-01-20 08:33:40.93	107.36	6.07	
2025-01-20 08:33:42.15	107.27	6.15	
2025-01-20 08:33:43.37	107.17	6.23	
2025-01-20 08:33:44.58	107.07	6.31	
2025-01-20 08:33:45.80	106.98	6.38	
2025-01-20 08:33:47.02	106.88	6.46	
2025-01-20 08:33:48.24	106.78	6.54	
2025-01-20 08:33:49.46	106.68	6.62	
2025-01-20 08:33:50.68	106.58	6.70	
2025-01-20 08:33:51.89	106.48	6.78	
2025-01-20 08:33:53.11	106.38	6.86	
2025-01-20 08:33:54.33	106.28	6.95	
2025-01-20 08:33:55.55	106.17	7.03	
2025-01-20 08:33:56.77	106.07	7.11	
2025-01-20 08:33:57.99	105.97	7.19	
2025-01-20 08:33:59.21	105.86	7.27	
2025-01-20 08:34:00.42	105.76	7.35	
2025-01-20 08:34:01.64	105.66	7.43	
2025-01-20 08:34:02.86	105.55	7.51	
2025-01-20 08:34:04.08	105.44	7.60	
2025-01-20 08:34:05.30	105.34	7.68	
2025-01-20 08:34:06.52	105.23	7.76	
2025-01-20 08:34:07.74	105.12	7.84	
2025-01-20 08:34:08.95	105.01	7.92	
2025-01-20 08:34:10.17	104.90	8.01	
2025-01-20 08:34:11.39	104.79	8.09	
2025-01-20 08:34:12.61	104.68	8.17	
2025-01-20 08:34:13.83	104.57	8.26	
2025-01-20 08:34:15.05	104.46	8.34	
2025-01-20 08:34:16.26	104.35	8.42	
2025-01-20 08:34:17.48	104.23	8.51	
2025-01-20 08:34:18.70	104.12	8.59	
2025-01-20 08:34:19.92	104.00	8.68	
2025-01-20 08:34:21.14	103.89	8.76	
2025-01-20 08:34:22.36	103.77	8.85	
2025-01-20 08:34:23.58	103.66	8.93	
2025-01-20 08:34:24.79	103.54	9.01	
2025-01-20 08:34:26.01	103.42	9.10	
2025-01-20 08:34:27.23	103.30	9.18	
2025-01-20 08:34:28.45	103.18	9.27	
2025-01-20 08:34:29.67	103.06	9.36	
2025-01-20 08:34:30.89	102.94	9.44	
2025-01-20 08:34:32.11	102.82	9.53	
2025-01-20 08:34:33.32	102.70	9.61	
2025-01-20 08:34:34.54	102.57	9.70	
2025-01-20 08:34:35.76	102.45	9.79	
2025-01-20 08:34:36.98	102.33	9.87	
2025-01-20 08:34:38.20	102.20	9.96	
2025-01-20 08:34:39.42	102.07	10.05	
2025-01-20 08:34:40.64	101.95	10.13	
2025-01-20 08:34:41.85	101.82	10.22	
2025-01-20 08:34:43.07	101.69	10.31	
2025-01-20 08:34:44.29	101.56	10.39	
2025-01-20 08:34:45.51	101.43	10.48	
2025-01-20 08:34:46.73	101.30	10.57	
2025-01-20 08:34:47.95	101.17	10.66	
2025-01-20 08:34:49.16	101.04	10.75	
2025-01-20 08:34:50.38	100.90	10.83	
2025-01-20 08:34:51.60	100.77	10.92	
2025-01-20 08:34:52.82	100.63	11.01	
2025-01-20 08:34:54.04	100.50	11.10	
2025-01-20 08:34:55.26	100.36	11.19	
2025-01-20 08:34:56.48	100.22	11.28	
2025-01-20 08:34:57.69	100.09	11.37	
2025-01-20 08:34:58.91	99.95	11.46	
2025-01-20 08:35:00.13	99.81	11.55	
2025-01-20 08:35:01.35	99.66	11.64	
2025-01-20 08:35:02.57	99.52	11.73	
2025-01-20 08:35:03.79	99.38	11.82	
2025-01-20 08:35:05.01	99.24	11.91	
2025-01-20 08:35:06.22	99.09	12.00	
2025-01-20 08:35:07.44	98.95	12.09	
2025-01-20 08:35:08.66	98.80	12.18	
2025-01-20 08:35:09.88	98.65	12.27	
2025-01-20 08:35:11.10	98.50	12.36	
2025-01-20 08:35:12.32	98.35	12.45	
2025-01-20 08:35:13.53	98.21	12.54	
2025-01-20 08:35:14.75	98.05	12.64	
2025-01-20 08:35:15.97	97.90	12.73	
2025-01-20 08:35:17.19	97.75	12.82	
2025-01-20 08:35:18.41	97.59	12.91	
2025-01-20 08:35:19.63	97.44	13.00	
2025-01-20 08:35:20.85	97.28	13.10	
2025-01-20 08:35:22.06	97.13	13.19	
2025-01-20 08:35:23.28	96.97	13.28	
2025-01-20 08:35:24.50	96.81	13.37	
2025-01-20 08:35:25.72	96.65	13.47	
2025-01-20 08:35:26.94	96.49	13.56	
2025-01-20 08:35:28.16	96.33	13.65	
2025-01-20 08:35:29.38	96.16	13.75	
2025-01-20 08:35:30.59	96.00	13.84	
2025-01-20 08:35:31.81	95.84	13.93	
2025-01-20 08:35:33.03	95.67	14.02	
2025-01-20 08:35:34.25	95.50	14.12	
2025-01-20 08:35:35.47	95.33	14.21	
2025-01-20 08:35:36.69	95.16	14.31	
2025-01-20 08:35:37.90	94.99	14.40	
2025-01-20 08:35:39.12	94.82	14.49	
2025-01-20 08:35:40.34	94.65	14.59	
2025-01-20 08:35:41.56	94.48	14.68	
2025-01-20 08:35:42.78	94.30	14.78	
2025-01-20 08:35:44.00	94.12	14.87	
2025-01-20 08:35:45.22	93.95	14.97	
2025-01-20 08:35:46.43	93.77	15.06	
2025-01-20 08:35:47.65	93.59	15.15	
2025-01-20 08:35:48.87	93.41	15.25	
2025-01-20 08:35:50.09	93.23	15.34	
2025-01-20 08:35:51.31	93.04	15.44	
2025-01-20 08:35:52.53	92.86	15.53	
2025-01-20 08:35:53.75	92.67	15.63	
2025-01-20 08:35:54.96	92.49	15.72	
2025-01-20 08:35:56.18	92.30	15.82	
2025-01-20 08:35:57.40	92.11	15.92	
2025-01-20 08:35:58.62	91.92	16.01	
2025-01-20 08:35:59.84	91.73	16.11	
2025-01-20 08:36:01.06	91.54	16.20	
2025-01-20 08:36:02.27	91.34	16.30	
2025-01-20 08:36:03.49	91.15	16.39	
2025-01-20 08:36:04.71	90.95	16.49	
2025-01-20 08:36:05.93	90.75	16.58	
2025-01-20 08:36:07.15	90.55	16.68	
2025-01-20 08:36:08.37	90.35	16.77	
2025-01-20 08:36:09.59	90.15	16.87	
2025-01-20 08:36:10.80	89.95	16.97	
2025-01-20 08:36:12.02	89.75	17.06	
2025-01-20 08:36:13.24	89.54	17.16	
2025-01-20 08:36:14.46	89.33	17.25	
2025-01-20 08:36:15.68	89.12	17.35	
2025-01-20 08:36:16.90	88.91	17.44	
2025-01-20 08:36:18.12	88.70	17.54	
2025-01-20 08:36:19.33	88.49	17.63	
2025-01-20 08:36:20.55	88.28	17.73	
2025-01-20 08:36:21.77	88.06	17.83	
2025-01-20 08:36:22.99	87.85	17.92	
2025-01-20 08:36:24.21	87.63	18.02	
2025-01-20 08:36:25.43	87.41	18.11	
2025-01-20 08:36:26.64	87.19	18.21	
2025-01-20 08:36:27.86	86.97	18.30	
2025-01-20 08:36:29.08	86.75	18.40	
2025-01-20 08:36:30.30	86.52	18.49	
2025-01-20 08:36:31.52	86.29	18.59	
2025-01-20 08:36:32.74	86.07	18.68	
2025-01-20 08:36:33.96	85.84	18.78	
2025-01-20 08:36:35.17	85.61	18.87	
2025-01-20 08:36:36.39	85.38	18.96	
2025-01-20 08:36:37.61	85.14	19.06	
2025-01-20 08:36:38.83	84.91	19.15	
2025-01-20 08:36:40.05	84.67	19.25	
2025-01-20 08:36:41.27	84.43	19.34	
2025-01-20 08:36:42.49	84.19	19.44	
2025-01-20 08:36:43.70	83.95	19.53	
2025-01-20 08:36:44.92	83.71	19.62	
2025-01-20 08:36:46.14	83.47	19.71	
2025-01-20 08:36:47.36	83.22	19.81	
2025-01-20 08:36:48.58	82.98	19.90	
2025-01-20 08:36:49.80	82.73	19.99	
2025-01-20 08:36:51.01	82.48	20.08	
2025-01-20 08:36:52.23	82.23	20.18	
2025-01-20 08:36:53.45	81.98	20.27	
2025-01-20 08:36:54.67	81.72	20.36	
2025-01-20 08:36:55.89	81.47	20.45	
2025-01-20 08:36:57.11	81.21	20.54	
2025-01-20 08:36:58.33	80.95	20.63	
2025-01-20 08:36:59.54	80.69	20.72	
2025-01-20 08:37:00.76	80.43	20.81	
2025-01-20 08:37:01.98	80.16	20.90	
2025-01-20 08:37:03.20	79.90	20.99	
2025-01-20 08:37:04.42	79.63	21.08	
2025-01-20 08:37:05.64	79.36	21.17	
2025-01-20 08:37:06.86	79.09	21.26	
2025-01-20 08:37:08.07	78.83	21.35	
2025-01-20 08:37:09.29	78.55	21.43	
2025-01-20 08:37:10.51	78.28	21.52	
2025-01-20 08:37:11.73	78.00	21.61	
2025-01-20 08:37:12.95	77.72	21.69	
2025-01-20 08:37:14.17	77.45	21.78	
2025-01-20 08:37:15.38	77.17	21.87	
2025-01-20 08:37:16.60	76.88	21.95	
2025-01-20 08:37:17.82	76.60	22.04	
2025-01-20 08:37:19.04	76.32	22.12	
2025-01-20 08:37:20.26	76.03	22.20	
2025-01-20 08:37:21.48	75.74	22.29	
2025-01-20 08:37:22.70	75.45	22.37	
2025-01-20 08:37:23.91	75.16	22.45	
2025-01-20 08:37:25.13	74.87	22.53	
2025-01-20 08:37:26.35	74.57	22.61	
2025-01-20 08:37:27.57	74.28	22.69	
2025-01-20 08:37:28.79	73.98	22.77	
2025-01-20 08:37:30.01	73.68	22.85	
2025-01-20 08:37:31.23	73.38	22.93	
2025-01-20 08:37:32.44	73.08	23.01	
2025-01-20 08:37:33.66	72.77	23.09	
2025-01-20 08:37:34.88	72.47	23.16	
2025-01-20 08:37:36.10	72.16	23.24	
2025-01-20 08:37:37.32	71.85	23.32	
2025-01-20 08:37:38.54	71.54	23.39	
2025-01-20 08:37:39.75	71.24	23.47	
2025-01-20 08:37:40.97	70.92	23.54	
2025-01-20 08:37:42.19	70.61	23.61	
2025-01-20 08:37:43.41	70.29	23.68	
2025-01-20 08:37:44.63	69.98	23.75	
2025-01-20 08:37:45.85	69.66	23.83	
2025-01-20 08:37:47.07	69.34	23.90	
2025-01-20 08:37:48.28	69.02	23.96	
2025-01-20 08:37:49.50	68.69	24.03	
2025-01-20 08:37:50.72	68.37	24.10	
2025-01-20 08:37:51.94	68.04	24.17	
2025-01-20 08:37:53.16	67.72	24.23	
2025-01-20 08:37:54.38	67.39	24.30	
2025-01-20 08:37:55.60	67.06	24.36	
2025-01-20 08:37:56.81	66.73	24.42	
2025-01-20 08:37:58.03	66.40	24.48	
2025-01-20 08:37:59.25	66.06	24.55	
2025-01-20 08:38:00.47	65.73	24.61	
2025-01-20 08:38:01.69	65.39	24.67	
2025-01-20 08:38:02.91	65.06	24.72	
2025-01-20 08:38:04.12	64.72	24.78	
2025-01-20 08:38:05.34	64.38	24.84	
2025-01-20 08:38:06.56	64.04	24.89	
2025-01-20 08:38:07.78	63.70	24.95	
2025-01-20 08:38:09.00	63.35	25.00	
2025-01-20 08:38:10.22	63.01	25.05	
2025-01-20 08:38:11.44	62.66	25.11	
2025-01-20 08:38:12.65	62.32	25.16	
2025-01-20 08:38:13.87	61.97	25.21	
2025-01-20 08:38:15.09	61.62	25.25	
2025-01-20 08:38:16.31	61.27	25.30	
2025-01-20 08:38:17.53	60.92	25.35	
2025-01-20 08:38:18.75	60.57	25.39	
2025-01-20 08:38:19.97	60.21	25.44	
2025-01-20 08:38:21.18	59.86	25.48	
2025-01-20 08:38:22.40	59.51	25.52	
2025-01-20 08:38:23.62	59.15	25.56	
2025-01-20 08:38:24.84	58.79	25.60	
2025-01-20 08:38:26.06	58.44	25.64	
2025-01-20 08:38:27.28	58.08	25.68	
2025-01-20 08:38:28.50	57.72	25.71	
2025-01-20 08:38:29.71	57.36	25.75	
2025-01-20 08:38:30.93	57.00	25.78	
2025-01-20 08:38:32.15	56.64	25.81	
2025-01-20 08:38:33.37	56.27	25.84	
2025-01-20 08:38:34.59	55.91	25.87	
2025-01-20 08:38:35.81	55.55	25.90	
2025-01-20 08:38:37.02	55.19	25.93	
2025-01-20 08:38:38.24	54.82	25.96	
2025-01-20 08:38:39.46	54.45	25.98	
2025-01-20 08:38:40.68	54.09	26.00	
2025-01-20 08:38:41.90	53.72	26.03	
2025-01-20 08:38:43.12	53.35	26.05	
2025-01-20 08:38:44.34	52.99	26.07	
2025-01-20 08:38:45.55	52.62	26.09	
2025-01-20 08:38:46.77	52.25	26.10	
2025-01-20 08:38:47.99	51.88	26.12	
2025-01-20 08:38:49.21	51.51	26.13	
2025-01-20 08:38:50.43	51.14	26.15	
2025-01-20 08:38:51.65	50.77	26.16	
2025-01-20 08:38:52.87	50.40	26.17	
2025-01-20 08:38:54.08	50.04	26.18	
2025-01-20 08:38:55.30	49.67	26.19	
2025-01-20 08:38:56.52	49.29	26.19	
2025-01-20 08:38:57.74	48.92	26.20	
2025-01-20 08:38:58.96	48.55	26.20	
2025-01-20 08:39:00.18	48.18	26.21	
2025-01-20 08:39:01.39	47.81	26.21	
2025-01-20 08:39:02.61	47.44	26.21	
2025-01-20 08:39:03.83	47.07	26.21	
2025-01-20 08:39:05.05	46.70	26.20	
2025-01-20 08:39:06.27	46.33	26.20	
2025-01-20 08:39:07.49	45.96	26.20	
2025-01-20 08:39:08.71	45.59	26.19	
2025-01-20 08:39:09.92	45.22	26.18	
2025-01-20 08:39:11.14	44.85	26.17	
2025-01-20 08:39:12.36	44.48	26.16	
2025-01-20 08:39:13.58	44.11	26.15	
2025-01-20 08:39:14.80	43.74	26.14	
2025-01-20 08:39:16.02	43.37	26.12	
2025-01-20 08:39:17.24	43.00	26.11	
2025-01-20 08:39:18.45	42.63	26.09	
2025-01-20 08:39:19.67	42.27	26.07	
2025-01-20 08:39:20.89	41.90	26.05	
2025-01-20 08:39:22.11	41.53	26.03	
2025-01-20 08:39:23.33	41.17	26.01	
2025-01-20 08:39:24.55	40.80	25.99	
2025-01-20 08:39:25.76	40.44	25.96	
2025-01-20 08:39:26.98	40.07	25.94	
2025-01-20 08:39:28.20	39.71	25.91	
2025-01-20 08:39:29.42	39.34	25.88	
2025-01-20 08:39:30.64	38.98	25.85	
2025-01-20 08:39:31.86	38.62	25.82	
2025-01-20 08:39:33.08	38.26	25.79	
2025-01-20 08:39:34.29	37.90	25.76	
2025-01-20 08:39:35.51	37.54	25.72	
2025-01-20 08:39:36.73	37.18	25.69	
2025-01-20 08:39:37.95	36.82	25.65	
2025-01-20 08:39:39.17	36.46	25.61	
2025-01-20 08:39:40.39	36.11	25.57	
2025-01-20 08:39:41.61	35.75	25.53	
2025-01-20 08:39:42.82	35.40	25.49	
2025-01-20 08:39:44.04	35.04	25.45	
2025-01-20 08:39:45.26	34.69	25.41	
2025-01-20 08:39:46.48	34.34	25.36	
2025-01-20 08:39:47.70	33.99	25.32	
2025-01-20 08:39:48.92	33.64	25.27	
2025-01-20 08:39:50.13	33.29	25.22	
2025-01-20 08:39:51.35	32.94	25.17	
2025-01-20 08:39:52.57	32.60	25.12	
2025-01-20 08:39:53.79	32.25	25.07	
2025-01-20 08:39:55.01	31.91	25.02	
2025-01-20 08:39:56.23	31.56	24.97	
2025-01-20 08:39:57.45	31.22	24.91	
2025-01-20 08:39:58.66	30.88	24.86	
2025-01-20 08:39:59.88	30.55	24.80	
2025-01-20 08:40:01.10	30.21	24.74	
2025-01-20 08:40:02.32	29.87	24.69	
2025-01-20 08:40:03.54	29.53	24.63	
2025-01-20 08:40:04.76	29.20	24.57	
2025-01-20 08:40:05.98	28.87	24.51	
2025-01-20 08:40:07.19	28.54	24.44	
2025-01-20 08:40:08.41	28.21	24.38	
2025-01-20 08:40:09.63	27.88	24.32	
2025-01-20 08:40:10.85	27.55	24.25	
2025-01-20 08:40:12.07	27.22	24.19	
2025-01-20 08:40:13.29	26.90	24.12	
2025-01-20 08:40:14.50	26.58	24.06	
2025-01-20 08:40:15.72	26.25	23.99	
2025-01-20 08:40:16.94	25.93	23.92	
2025-01-20 08:40:18.16	25.61	23.85	
2025-01-20 08:40:19.38	25.29	23.78	
2025-01-20 08:40:20.60	24.98	23.71	
2025-01-20 08:40:21.82	24.66	23.64	
2025-01-20 08:40:23.03	24.35	23.57	
2025-01-20 08:40:24.25	24.04	23.49	
2025-01-20 08:40:25.47	23.73	23.42	
2025-01-20 08:40:26.69	23.42	23.35	
2025-01-20 08:40:27.91	23.11	23.27	
2025-01-20 08:40:29.13	22.81	23.19	
2025-01-20 08:40:30.35	22.50	23.12	
2025-01-20 08:40:31.56	22.20	23.04	
2025-01-20 08:40:32.78	21.90	22.96	
2025-01-20 08:40:34.00	21.60	22.89	
2025-01-20 08:40:35.22	21.30	22.81	
2025-01-20 08:40:36.44	21.00	22.73	
2025-01-20 08:40:37.66	20.71	22.65	
2025-01-20 08:40:38.87	20.41	22.57	
2025-01-20 08:40:40.09	20.12	22.49	
2025-01-20 08:40:41.31	19.83	22.40	
2025-01-20 08:40:42.53	19.54	22.32	
2025-01-20 08:40:43.75	19.25	22.24	
2025-01-20 08:40:44.97	18.97	22.16	
2025-01-20 08:40:46.19	18.68	22.07	
2025-01-20 08:40:47.40	18.40	21.99	
2025-01-20 08:40:48.62	18.12	21.90	
2025-01-20 08:40:49.84	17.84	21.82	
2025-01-20 08:40:51.06	17.56	21.73	
2025-01-20 08:40:52.28	17.28	21.65	
2025-01-20 08:40:53.50	17.01	21.56	
2025-01-20 08:40:54.72	16.73	21.47	
2025-01-20 08:40:55.93	16.46	21.39	
2025-01-20 08:40:57.15	16.19	21.30	
2025-01-20 08:40:58.37	15.92	21.21	
2025-01-20 08:40:59.59	15.66	21.12	
2025-01-20 08:41:00.81	15.39	21.03	
2025-01-20 08:41:02.03	15.13	20.94	
2025-01-20 08:41:03.24	14.87	20.86	
2025-01-20 08:41:04.46	14.60	20.77	
2025-01-20 08:41:05.68	14.34	20.68	
2025-01-20 08:41:06.90	14.09	20.59	
2025-01-20 08:41:08.12	13.83	20.50	
2025-01-20 08:41:09.34	13.57	20.40	
2025-01-20 08:41:10.56	13.32	20.31	
2025-01-20 08:41:11.77	13.07	20.22	
2025-01-20 08:41:12.99	12.82	20.13	
2025-01-20 08:41:14.21	12.57	20.04	
2025-01-20 08:41:15.43	12.32	19.95	
2025-01-20 08:41:16.65	12.08	19.85	
2025-01-20 08:41:17.87	11.83	19.76	
2025-01-20 08:41:19.09	11.59	19.67	
2025-01-20 08:41:20.30	11.35	19.58	
2025-01-20 08:41:21.52	11.11	19.48	
2025-01-20 08:41:22.74	10.87	19.39	
2025-01-20 08:41:23.96	10.63	19.30	
2025-01-20 08:41:25.18	10.40	19.20	
2025-01-20 08:41:26.40	10.16	19.11	
2025-01-20 08:41:27.61	9.93	19.02	
2025-01-20 08:41:28.83	9.70	18.92	
2025-01-20 08:41:30.05	9.47	18.83	
2025-01-20 08:41:31.27	9.24	18.73	
2025-01-20 08:41:32.49	9.01	18.64	
2025-01-20 08:41:33.71	8.79	18.55	
2025-01-20 08:41:34.93	8.57	18.45	
2025-01-20 08:41:36.14	8.34	18.36	
2025-01-20 08:41:37.36	8.12	18.26	
2025-01-20 08:41:38.58	7.90	18.17	
2025-01-20 08:41:39.80	7.68	18.07	
2025-01-20 08:41:41.02	7.47	17.98	
2025-01-20 08:41:42.24	7.25	17.88	
2025-01-20 08:41:43.46	7.04	17.79	
2025-01-20 08:41:44.67	6.83	17.69	
2025-01-20 08:41:45.89	6.61	17.60	
2025-01-20 08:41:47.11	6.40	17.50	
2025-01-20 08:41:48.33	6.19	17.41	
2025-01-20 08:41:49.55	5.99	17.31	
2025-01-20 08:41:50.77	5.78	17.22	
2025-01-20 08:41:51.99	5.58	17.12	
2025-01-20 08:41:53.20	5.37	17.03	
2025-01-20 08:41:54.42	5.17	16.93	
2025-01-20 08:41:55.64	4.97	16.84	
2025-01-20 08:41:56.86	4.77	16.74	
2025-01-20 08:41:58.08	4.57	16.64	
2025-01-20 08:41:59.30	4.37	16.55	
2025-01-20 08:42:00.51	4.18	16.46	
2025-01-20 08:42:01.73	3.99	16.36	
2025-01-20 08:42:02.95	3.79	16.26	
2025-01-20 08:42:04.17	3.60	16.17	
2025-01-20 08:42:05.39	3.41	16.07	
2025-01-20 08:42:06.61	3.22	15.98	
2025-01-20 08:42:07.83	3.03	15.88	
2025-01-20 08:42:09.04	2.85	15.79	
2025-01-20 08:42:10.26	2.66	15.70	
2025-01-20 08:42:11.48	2.47	15.60	
2025-01-20 08:42:12.70	2.29	15.51	
2025-01-20 08:42:13.92	2.11	15.41	
2025-01-20 08:42:15.14	1.93	15.32	
2025-01-20 08:42:16.36	1.75	15.22	
2025-01-20 08:42:17.57	1.57	15.13	
2025-01-20 08:42:18.79	1.39	15.03	
2025-01-20 08:42:20.01	1.21	14.94	
2025-01-20 08:42:21.23	1.04	14.85	
2025-01-20 08:42:22.45	0.86	14.75	
2025-01-20 08:42:23.67	0.69	14.66	
2025-01-20 08:42:24.88	0.52	14.56	
2025-01-20 08:42:26.10	0.35	14.47	
2025-01-20 08:42:27.32	0.18	14.38	
2025-01-20 08:42:28.54	0.01	14.28	
2025-01-20 08:42:29.76	359.84	14.19	
2025-01-20 08:42:30.98	359.68	14.10	
2025-01-20 08:42:32.20	359.51	14.00	
2025-01-20 08:42:33.41	359.35	13.91	
2025-01-20 08:42:34.63	359.18	13.82	
2025-01-20 08:42:35.85	359.02	13.72	
2025-01-20 08:42:37.07	358.86	13.63	
2025-01-20 08:42:38.29	358.70	13.54	
2025-01-20 08:42:39.51	358.54	13.45	
2025-01-20 08:42:40.73	358.38	13.35	
2025-01-20 08:42:41.94	358.23	13.26	
2025-01-20 08:42:43.16	358.07	13.17	
2025-01-20 08:42:44.38	357.91	13.08	
2025-01-20 08:42:45.60	357.76	12.99	
2025-01-20 08:42:46.82	357.61	12.89	
2025-01-20 08:42:48.04	357.45	12.80	
2025-01-20 08:42:49.25	357.30	12.71	
2025-01-20 08:42:50.47	357.15	12.62	
2025-01-20 08:42:51.69	357.00	12.53	
2025-01-20 08:42:52.91	356.86	12.44	
2025-01-20 08:42:54.13	356.71	12.35	
2025-01-20 08:42:55.35	356.56	12.26	
2025-01-20 08:42:56.57	356.42	12.17	
2025-01-20 08:42:57.78	356.27	12.08	
2025-01-20 08:42:59.00	356.13	11.99	
2025-01-20 08:43:00.22	355.99	11.90	
2025-01-20 08:43:01.44	355.84	11.81	
2025-01-20 08:43:02.66	355.70	11.72	
2025-01-20 08:43:03.88	355.56	11.63	
2025-01-20 08:43:05.10	355.42	11.54	
2025-01-20 08:43:06.31	355.28	11.45	
2025-01-20 08:43:07.53	355.15	11.36	
2025-01-20 08:43:08.75	355.01	11.27	
2025-01-20 08:43:09.97	354.87	11.18	
2025-01-20 08:43:11.19	354.74	11.09	
2025-01-20 08:43:12.41	354.60	11.01	
2025-01-20 08:43:13.62	354.47	10.92	
2025-01-20 08:43:14.84	354.34	10.83	
2025-01-20 08:43:16.06	354.21	10.74	
2025-01-20 08:43:17.28	354.08	10.65	
2025-01-20 08:43:18.50	353.95	10.57	
2025-01-20 08:43:19.72	353.82	10.48	
2025-01-20 08:43:20.94	353.69	10.39	
2025-01-20 08:43:22.15	353.56	10.30	
2025-01-20 08:43:23.37	353.43	10.22	
2025-01-20 08:43:24.59	353.31	10.13	
2025-01-20 08:43:25.81	353.18	10.04	
2025-01-20 08:43:27.03	353.06	9.96	
2025-01-20 08:43:28.25	352.93	9.87	
2025-01-20 08:43:29.47	352.81	9.78	
2025-01-20 08:43:30.68	352.69	9.70	
2025-01-20 08:43:31.90	352.57	9.61	
2025-01-20 08:43:33.12	352.45	9.53	
2025-01-20 08:43:34.34	352.33	9.44	
2025-01-20 08:43:35.56	352.21	9.36	
2025-01-20 08:43:36.78	352.09	9.27	
2025-01-20 08:43:37.99	351.97	9.19	
2025-01-20 08:43:39.21	351.85	9.10	
2025-01-20 08:43:40.43	351.74	9.02	
2025-01-20 08:43:41.65	351.62	8.93	
2025-01-20 08:43:42.87	351.51	8.85	
2025-01-20 08:43:44.09	351.39	8.77	
2025-01-20 08:43:45.31	351.28	8.68	
2025-01-20 08:43:46.52	351.17	8.60	
2025-01-20 08:43:47.74	351.05	8.51	
2025-01-20 08:43:48.96	350.94	8.43	
2025-01-20 08:43:50.18	350.83	8.35	
2025-01-20 08:43:51.40	350.72	8.26	
2025-01-20 08:43:52.62	350.61	8.18	
2025-01-20 08:43:53.84	350.50	8.10	
2025-01-20 08:43:55.05	350.39	8.02	
2025-01-20 08:43:56.27	350.28	7.93	
2025-01-20 08:43:57.49	350.18	7.85	
2025-01-20 08:43:58.71	350.07	7.77	
2025-01-20 08:43:59.93	349.96	7.69	
2025-01-20 08:44:01.15	349.86	7.61	
2025-01-20 08:44:02.36	349.75	7.52	
2025-01-20 08:44:03.58	349.65	7.44	
2025-01-20 08:44:04.80	349.55	7.36	
2025-01-20 08:44:06.02	349.44	7.28	
2025-01-20 08:44:07.24	349.34	7.20	
2025-01-20 08:44:08.46	349.24	7.12	
2025-01-20 08:44:09.68	349.14	7.04	
2025-01-20 08:44:10.89	349.04	6.96	
2025-01-20 08:44:12.11	348.94	6.88	
2025-01-20 08:44:13.33	348.84	6.80	
2025-01-20 08:44:14.55	348.74	6.72	
2025-01-20 08:44:15.77	348.64	6.64	
2025-01-20 08:44:16.99	348.54	6.56	
2025-01-20 08:44:18.21	348.45	6.48	
2025-01-20 08:44:19.42	348.35	6.40	
2025-01-20 08:44:20.64	348.25	6.32	
2025-01-20 08:44:21.86	348.16	6.24	
2025-01-20 08:44:23.08	348.06	6.16	
2025-01-20 08:44:24.30	347.97	6.09	
2025-01-20 08:44:25.52	347.88	6.01	
2025-01-20 08:44:26.73	347.78	5.93	
2025-01-20 08:44:27.95	347.69	5.85	
2025-01-20 08:44:29.17	347.60	5.77	
2025-01-20 08:44:30.39	347.51	5.70	
2025-01-20 08:44:31.61	347.41	5.62	
2025-01-20 08:44:32.83	347.32	5.54	
2025-01-20 08:44:34.05	347.23	5.46	
2025-01-20 08:44:35.26	347.14	5.39	
2025-01-20 08:44:36.48	347.05	5.31	
2025-01-20 08:44:37.70	346.97	5.23	
2025-01-20 08:44:38.92	346.88	5.16	
2025-01-20 08:44:40.14	346.79	5.08	
2025-01-20 08:44:41.36	346.70	5.00	
2025-01-20 08:44:42.58	346.61	4.93	
2025-01-20 08:44:43.79	346.53	4.85	
2025-01-20 08:44:45.01	346.44	4.77	
2025-01-20 08:44:46.23	346.36	4.70	
2025-01-20 08:44:47.45	346.27	4.62	
2025-01-20 08:44:48.67	346.19	4.55	
2025-01-20 08:44:49.89	346.10	4.47	
2025-01-20 08:44:51.10	346.02	4.40	
2025-01-20 08:44:52.32	345.94	4.32	
2025-01-20 08:44:53.54	345.85	4.25	
2025-01-20 08:44:54.76	345.77	4.17	
2025-01-20 08:44:55.98	345.69	4.10	
2025-01-20 08:44:57.20	345.61	4.02	

#Closed at: 2025-01-20 08:44:57