passes_logs/2025/01/20/SPB_Silybum_02/SPB_Silybum_02__20250120_065610_SUOMI_NPP_rec.log

#Pass ID: 20250120_065610_SUOMI NPP
#Satellite: SUOMI NPP
#Configuration: NPP
#Start time: 2025-01-20 06:56:09

#Version: 2.0.20230423
#Station: SPB_Silybum_02
#Location: 30.233357 lon 59.946436 lat
#TLE: 1 37849U 11061A   25019.85382012  .00000269  00000+0  14855-3 0  9998
#TLE: 2 37849  98.7451 320.7810 0001479  33.1387 326.9881 14.19541038685602

#Time	Az	El	Level	Level2	SNR	BER	Gain	Gain2
2025-01-20 06:56:11.84	63.70	4.08	
2025-01-20 06:56:12.87	63.58	4.12	
2025-01-20 06:56:13.88	63.46	4.17	
2025-01-20 06:56:14.90	63.35	4.21	
2025-01-20 06:56:15.91	63.23	4.26	
2025-01-20 06:56:16.93	63.11	4.30	
2025-01-20 06:56:17.94	63.00	4.34	
2025-01-20 06:56:18.96	62.88	4.39	
2025-01-20 06:56:19.97	62.76	4.43	
2025-01-20 06:56:20.99	62.64	4.48	
2025-01-20 06:56:22.00	62.52	4.52	
2025-01-20 06:56:23.02	62.40	4.56	
2025-01-20 06:56:24.03	62.28	4.61	
2025-01-20 06:56:25.05	62.16	4.65	
2025-01-20 06:56:26.06	62.04	4.69	
2025-01-20 06:56:27.07	61.92	4.74	
2025-01-20 06:56:28.09	61.80	4.78	
2025-01-20 06:56:29.10	61.68	4.82	
2025-01-20 06:56:30.12	61.56	4.87	
2025-01-20 06:56:31.13	61.43	4.91	
2025-01-20 06:56:32.15	61.31	4.95	
2025-01-20 06:56:33.16	61.19	5.00	
2025-01-20 06:56:34.18	61.06	5.04	
2025-01-20 06:56:35.19	60.94	5.08	
2025-01-20 06:56:36.21	60.82	5.13	
2025-01-20 06:56:37.22	60.69	5.17	
2025-01-20 06:56:38.24	60.57	5.21	
2025-01-20 06:56:39.25	60.44	5.25	
2025-01-20 06:56:40.27	60.31	5.30	
2025-01-20 06:56:41.28	60.19	5.34	
2025-01-20 06:56:42.30	60.06	5.38	
2025-01-20 06:56:43.31	59.94	5.42	
2025-01-20 06:56:44.33	59.81	5.47	
2025-01-20 06:56:45.34	59.68	5.51	
2025-01-20 06:56:46.36	59.55	5.55	
2025-01-20 06:56:47.37	59.42	5.59	
2025-01-20 06:56:48.39	59.30	5.64	
2025-01-20 06:56:49.40	59.17	5.68	
2025-01-20 06:56:50.41	59.04	5.72	
2025-01-20 06:56:51.43	58.91	5.76	
2025-01-20 06:56:52.44	58.78	5.81	
2025-01-20 06:56:53.46	58.65	5.85	
2025-01-20 06:56:54.47	58.52	5.89	
2025-01-20 06:56:55.49	58.38	5.93	
2025-01-20 06:56:56.50	58.25	5.97	
2025-01-20 06:56:57.52	58.12	6.01	
2025-01-20 06:56:58.53	57.99	6.06	
2025-01-20 06:56:59.55	57.85	6.10	
2025-01-20 06:57:00.56	57.72	6.14	
2025-01-20 06:57:01.58	57.59	6.18	
2025-01-20 06:57:02.59	57.45	6.22	
2025-01-20 06:57:03.61	57.32	6.26	
2025-01-20 06:57:04.62	57.18	6.30	
2025-01-20 06:57:05.64	57.05	6.34	
2025-01-20 06:57:06.65	56.91	6.39	
2025-01-20 06:57:07.67	56.78	6.43	
2025-01-20 06:57:08.68	56.64	6.47	
2025-01-20 06:57:09.70	56.50	6.51	
2025-01-20 06:57:10.71	56.37	6.55	
2025-01-20 06:57:11.73	56.23	6.59	
2025-01-20 06:57:12.74	56.09	6.63	
2025-01-20 06:57:13.77	55.95	6.67	
2025-01-20 06:57:14.79	55.81	6.71	
2025-01-20 06:57:15.80	55.67	6.75	
2025-01-20 06:57:16.81	55.53	6.79	
2025-01-20 06:57:17.83	55.39	6.83	
2025-01-20 06:57:18.84	55.25	6.87	
2025-01-20 06:57:19.86	55.11	6.91	
2025-01-20 06:57:20.87	54.97	6.95	
2025-01-20 06:57:21.89	54.83	6.99	
2025-01-20 06:57:22.90	54.69	7.03	
2025-01-20 06:57:23.92	54.55	7.07	
2025-01-20 06:57:24.93	54.40	7.11	
2025-01-20 06:57:25.95	54.26	7.15	
2025-01-20 06:57:26.96	54.12	7.18	
2025-01-20 06:57:27.98	53.97	7.22	
2025-01-20 06:57:28.99	53.83	7.26	
2025-01-20 06:57:30.01	53.68	7.30	
2025-01-20 06:57:31.02	53.54	7.34	
2025-01-20 06:57:32.04	53.39	7.38	
2025-01-20 06:57:33.05	53.25	7.42	
2025-01-20 06:57:34.07	53.10	7.45	
2025-01-20 06:57:35.08	52.95	7.49	
2025-01-20 06:57:36.10	52.81	7.53	
2025-01-20 06:57:37.11	52.66	7.57	
2025-01-20 06:57:38.13	52.51	7.61	
2025-01-20 06:57:39.14	52.36	7.64	
2025-01-20 06:57:40.15	52.22	7.68	
2025-01-20 06:57:41.17	52.07	7.72	
2025-01-20 06:57:42.18	51.92	7.75	
2025-01-20 06:57:43.20	51.77	7.79	
2025-01-20 06:57:44.21	51.62	7.83	
2025-01-20 06:57:45.23	51.47	7.87	
2025-01-20 06:57:46.24	51.32	7.90	
2025-01-20 06:57:47.26	51.17	7.94	
2025-01-20 06:57:48.27	51.01	7.97	
2025-01-20 06:57:49.29	50.86	8.01	
2025-01-20 06:57:50.30	50.71	8.05	
2025-01-20 06:57:51.32	50.56	8.08	
2025-01-20 06:57:52.33	50.40	8.12	
2025-01-20 06:57:53.35	50.25	8.15	
2025-01-20 06:57:54.36	50.10	8.19	
2025-01-20 06:57:55.38	49.94	8.23	
2025-01-20 06:57:56.39	49.79	8.26	
2025-01-20 06:57:57.41	49.63	8.30	
2025-01-20 06:57:58.42	49.48	8.33	
2025-01-20 06:57:59.44	49.32	8.37	
2025-01-20 06:58:00.45	49.17	8.40	
2025-01-20 06:58:01.47	49.01	8.43	
2025-01-20 06:58:02.48	48.85	8.47	
2025-01-20 06:58:03.49	48.70	8.50	
2025-01-20 06:58:04.51	48.54	8.54	
2025-01-20 06:58:05.52	48.38	8.57	
2025-01-20 06:58:06.54	48.22	8.60	
2025-01-20 06:58:07.55	48.06	8.64	
2025-01-20 06:58:08.57	47.90	8.67	
2025-01-20 06:58:09.58	47.74	8.70	
2025-01-20 06:58:10.60	47.58	8.74	
2025-01-20 06:58:11.61	47.42	8.77	
2025-01-20 06:58:12.63	47.26	8.80	
2025-01-20 06:58:13.64	47.10	8.84	
2025-01-20 06:58:14.66	46.94	8.87	
2025-01-20 06:58:15.67	46.78	8.90	
2025-01-20 06:58:16.69	46.62	8.93	
2025-01-20 06:58:17.70	46.46	8.96	
2025-01-20 06:58:18.72	46.29	9.00	
2025-01-20 06:58:19.73	46.13	9.03	
2025-01-20 06:58:20.75	45.96	9.06	
2025-01-20 06:58:21.76	45.80	9.09	
2025-01-20 06:58:22.78	45.64	9.12	
2025-01-20 06:58:23.79	45.47	9.15	
2025-01-20 06:58:24.81	45.31	9.18	
2025-01-20 06:58:25.82	45.14	9.21	
2025-01-20 06:58:26.83	44.98	9.24	
2025-01-20 06:58:27.85	44.81	9.27	
2025-01-20 06:58:28.86	44.65	9.30	
2025-01-20 06:58:29.88	44.48	9.33	
2025-01-20 06:58:30.89	44.31	9.36	
2025-01-20 06:58:31.91	44.14	9.39	
2025-01-20 06:58:32.92	43.98	9.42	
2025-01-20 06:58:33.94	43.81	9.45	
2025-01-20 06:58:34.95	43.64	9.48	
2025-01-20 06:58:35.97	43.47	9.50	
2025-01-20 06:58:36.98	43.30	9.53	
2025-01-20 06:58:38.00	43.13	9.56	
2025-01-20 06:58:39.01	42.96	9.59	
2025-01-20 06:58:40.03	42.79	9.61	
2025-01-20 06:58:41.04	42.62	9.64	
2025-01-20 06:58:42.06	42.45	9.67	
2025-01-20 06:58:43.07	42.28	9.70	
2025-01-20 06:58:44.09	42.11	9.72	
2025-01-20 06:58:45.10	41.94	9.75	
2025-01-20 06:58:46.12	41.77	9.78	
2025-01-20 06:58:47.13	41.60	9.80	
2025-01-20 06:58:48.15	41.42	9.83	
2025-01-20 06:58:49.16	41.25	9.85	
2025-01-20 06:58:50.17	41.08	9.88	
2025-01-20 06:58:51.19	40.90	9.90	
2025-01-20 06:58:52.20	40.73	9.93	
2025-01-20 06:58:53.22	40.56	9.95	
2025-01-20 06:58:54.23	40.38	9.98	
2025-01-20 06:58:55.25	40.21	10.00	
2025-01-20 06:58:56.26	40.03	10.03	
2025-01-20 06:58:57.28	39.86	10.05	
2025-01-20 06:58:58.29	39.68	10.07	
2025-01-20 06:58:59.31	39.51	10.10	
2025-01-20 06:59:00.32	39.33	10.12	
2025-01-20 06:59:01.34	39.15	10.14	
2025-01-20 06:59:02.35	38.98	10.16	
2025-01-20 06:59:03.37	38.80	10.19	
2025-01-20 06:59:04.38	38.63	10.21	
2025-01-20 06:59:05.40	38.45	10.23	
2025-01-20 06:59:06.41	38.27	10.25	
2025-01-20 06:59:07.43	38.09	10.27	
2025-01-20 06:59:08.44	37.91	10.29	
2025-01-20 06:59:09.46	37.74	10.32	
2025-01-20 06:59:10.47	37.56	10.34	
2025-01-20 06:59:11.49	37.38	10.36	
2025-01-20 06:59:12.50	37.20	10.38	
2025-01-20 06:59:13.51	37.02	10.40	
2025-01-20 06:59:14.53	36.84	10.42	
2025-01-20 06:59:15.54	36.66	10.43	
2025-01-20 06:59:16.56	36.48	10.45	
2025-01-20 06:59:17.57	36.30	10.47	
2025-01-20 06:59:18.59	36.12	10.49	
2025-01-20 06:59:19.60	35.94	10.51	
2025-01-20 06:59:20.62	35.76	10.53	
2025-01-20 06:59:21.63	35.58	10.54	
2025-01-20 06:59:22.65	35.39	10.56	
2025-01-20 06:59:23.66	35.21	10.58	
2025-01-20 06:59:24.68	35.03	10.60	
2025-01-20 06:59:25.69	34.85	10.61	
2025-01-20 06:59:26.71	34.67	10.63	
2025-01-20 06:59:27.72	34.49	10.65	
2025-01-20 06:59:28.74	34.30	10.66	
2025-01-20 06:59:29.75	34.12	10.68	
2025-01-20 06:59:30.77	33.94	10.69	
2025-01-20 06:59:31.78	33.75	10.71	
2025-01-20 06:59:32.80	33.57	10.72	
2025-01-20 06:59:33.81	33.39	10.74	
2025-01-20 06:59:34.83	33.20	10.75	
2025-01-20 06:59:35.84	33.02	10.77	
2025-01-20 06:59:36.85	32.83	10.78	
2025-01-20 06:59:37.87	32.65	10.79	
2025-01-20 06:59:38.88	32.47	10.81	
2025-01-20 06:59:39.90	32.28	10.82	
2025-01-20 06:59:40.91	32.10	10.83	
2025-01-20 06:59:41.93	31.91	10.84	
2025-01-20 06:59:42.94	31.73	10.85	
2025-01-20 06:59:43.96	31.54	10.87	
2025-01-20 06:59:44.97	31.36	10.88	
2025-01-20 06:59:45.99	31.17	10.89	
2025-01-20 06:59:47.00	30.98	10.90	
2025-01-20 06:59:48.02	30.80	10.91	
2025-01-20 06:59:49.03	30.61	10.92	
2025-01-20 06:59:50.05	30.42	10.93	
2025-01-20 06:59:51.06	30.24	10.94	
2025-01-20 06:59:52.08	30.05	10.95	
2025-01-20 06:59:53.09	29.87	10.96	
2025-01-20 06:59:54.11	29.68	10.97	
2025-01-20 06:59:55.12	29.49	10.98	
2025-01-20 06:59:56.14	29.31	10.98	
2025-01-20 06:59:57.15	29.12	10.99	
2025-01-20 06:59:58.17	28.93	11.00	
2025-01-20 06:59:59.18	28.75	11.01	
2025-01-20 07:00:00.19	28.56	11.01	
2025-01-20 07:00:01.21	28.37	11.02	
2025-01-20 07:00:02.22	28.18	11.03	
2025-01-20 07:00:03.24	28.00	11.03	
2025-01-20 07:00:04.25	27.81	11.04	
2025-01-20 07:00:05.27	27.62	11.05	
2025-01-20 07:00:06.28	27.43	11.05	
2025-01-20 07:00:07.30	27.24	11.06	
2025-01-20 07:00:08.31	27.06	11.06	
2025-01-20 07:00:09.33	26.87	11.07	
2025-01-20 07:00:10.34	26.68	11.07	
2025-01-20 07:00:11.36	26.49	11.07	
2025-01-20 07:00:12.37	26.31	11.08	
2025-01-20 07:00:13.39	26.12	11.08	
2025-01-20 07:00:14.40	25.93	11.08	
2025-01-20 07:00:15.42	25.74	11.09	
2025-01-20 07:00:16.43	25.55	11.09	
2025-01-20 07:00:17.45	25.36	11.09	
2025-01-20 07:00:18.46	25.18	11.09	
2025-01-20 07:00:19.48	24.99	11.09	
2025-01-20 07:00:20.49	24.80	11.09	
2025-01-20 07:00:21.50	24.61	11.09	
2025-01-20 07:00:22.52	24.42	11.10	
2025-01-20 07:00:23.53	24.24	11.10	
2025-01-20 07:00:24.55	24.05	11.10	
2025-01-20 07:00:25.56	23.86	11.10	
2025-01-20 07:00:26.58	23.67	11.09	
2025-01-20 07:00:27.59	23.48	11.09	
2025-01-20 07:00:28.61	23.29	11.09	
2025-01-20 07:00:29.62	23.11	11.09	
2025-01-20 07:00:30.64	22.92	11.09	
2025-01-20 07:00:31.65	22.73	11.09	
2025-01-20 07:00:32.67	22.54	11.08	
2025-01-20 07:00:33.68	22.35	11.08	
2025-01-20 07:00:34.70	22.17	11.08	
2025-01-20 07:00:35.71	21.98	11.07	
2025-01-20 07:00:36.73	21.79	11.07	
2025-01-20 07:00:37.74	21.60	11.07	
2025-01-20 07:00:38.76	21.41	11.06	
2025-01-20 07:00:39.77	21.23	11.06	
2025-01-20 07:00:40.79	21.04	11.05	
2025-01-20 07:00:41.80	20.85	11.05	
2025-01-20 07:00:42.82	20.66	11.04	
2025-01-20 07:00:43.83	20.48	11.04	
2025-01-20 07:00:44.84	20.29	11.03	
2025-01-20 07:00:45.86	20.10	11.03	
2025-01-20 07:00:46.87	19.92	11.02	
2025-01-20 07:00:47.89	19.73	11.01	
2025-01-20 07:00:48.90	19.54	11.00	
2025-01-20 07:00:49.92	19.35	11.00	
2025-01-20 07:00:50.93	19.17	10.99	
2025-01-20 07:00:51.95	18.98	10.98	
2025-01-20 07:00:52.96	18.79	10.97	
2025-01-20 07:00:53.98	18.61	10.96	
2025-01-20 07:00:54.99	18.42	10.95	
2025-01-20 07:00:56.01	18.23	10.95	
2025-01-20 07:00:57.02	18.05	10.94	
2025-01-20 07:00:58.04	17.86	10.93	
2025-01-20 07:00:59.05	17.68	10.92	
2025-01-20 07:01:00.07	17.49	10.91	
2025-01-20 07:01:01.08	17.30	10.90	
2025-01-20 07:01:02.10	17.12	10.88	
2025-01-20 07:01:03.11	16.93	10.87	
2025-01-20 07:01:04.13	16.75	10.86	
2025-01-20 07:01:05.14	16.56	10.85	
2025-01-20 07:01:06.16	16.38	10.84	
2025-01-20 07:01:07.17	16.19	10.82	
2025-01-20 07:01:08.18	16.01	10.81	
2025-01-20 07:01:09.20	15.82	10.80	
2025-01-20 07:01:10.21	15.64	10.79	
2025-01-20 07:01:11.23	15.46	10.77	
2025-01-20 07:01:12.24	15.27	10.76	
2025-01-20 07:01:13.26	15.09	10.74	
2025-01-20 07:01:14.27	14.91	10.73	
2025-01-20 07:01:15.29	14.72	10.72	
2025-01-20 07:01:16.30	14.54	10.70	
2025-01-20 07:01:17.32	14.35	10.69	
2025-01-20 07:01:18.33	14.17	10.67	
2025-01-20 07:01:19.35	13.99	10.65	
2025-01-20 07:01:20.36	13.81	10.64	
2025-01-20 07:01:21.38	13.62	10.62	
2025-01-20 07:01:22.39	13.44	10.61	
2025-01-20 07:01:23.41	13.26	10.59	
2025-01-20 07:01:24.42	13.08	10.57	
2025-01-20 07:01:25.44	12.90	10.55	
2025-01-20 07:01:26.45	12.72	10.54	
2025-01-20 07:01:27.47	12.54	10.52	
2025-01-20 07:01:28.48	12.36	10.50	
2025-01-20 07:01:29.50	12.17	10.48	
2025-01-20 07:01:30.51	12.00	10.46	
2025-01-20 07:01:31.52	11.82	10.45	
2025-01-20 07:01:32.54	11.64	10.43	
2025-01-20 07:01:33.55	11.46	10.41	
2025-01-20 07:01:34.57	11.28	10.39	
2025-01-20 07:01:35.58	11.10	10.37	
2025-01-20 07:01:36.60	10.92	10.35	
2025-01-20 07:01:37.61	10.74	10.33	
2025-01-20 07:01:38.63	10.56	10.31	
2025-01-20 07:01:39.64	10.39	10.28	
2025-01-20 07:01:40.66	10.21	10.26	
2025-01-20 07:01:41.67	10.03	10.24	
2025-01-20 07:01:42.69	9.85	10.22	
2025-01-20 07:01:43.70	9.68	10.20	
2025-01-20 07:01:44.72	9.50	10.18	
2025-01-20 07:01:45.73	9.32	10.15	
2025-01-20 07:01:46.75	9.15	10.13	
2025-01-20 07:01:47.76	8.97	10.11	
2025-01-20 07:01:48.78	8.79	10.09	
2025-01-20 07:01:49.79	8.62	10.06	
2025-01-20 07:01:50.81	8.44	10.04	
2025-01-20 07:01:51.82	8.27	10.01	
2025-01-20 07:01:52.84	8.10	9.99	
2025-01-20 07:01:53.85	7.92	9.97	
2025-01-20 07:01:54.86	7.75	9.94	
2025-01-20 07:01:55.88	7.57	9.92	
2025-01-20 07:01:56.89	7.40	9.89	
2025-01-20 07:01:57.91	7.23	9.87	
2025-01-20 07:01:58.92	7.06	9.84	
2025-01-20 07:01:59.94	6.88	9.82	
2025-01-20 07:02:00.95	6.71	9.79	
2025-01-20 07:02:01.97	6.54	9.76	
2025-01-20 07:02:02.98	6.37	9.74	
2025-01-20 07:02:04.00	6.20	9.71	
2025-01-20 07:02:05.01	6.03	9.68	
2025-01-20 07:02:06.03	5.86	9.66	
2025-01-20 07:02:07.04	5.69	9.63	
2025-01-20 07:02:08.06	5.52	9.60	
2025-01-20 07:02:09.07	5.35	9.58	
2025-01-20 07:02:10.09	5.18	9.55	
2025-01-20 07:02:11.10	5.01	9.52	
2025-01-20 07:02:12.12	4.84	9.49	
2025-01-20 07:02:13.13	4.67	9.46	
2025-01-20 07:02:14.15	4.51	9.43	
2025-01-20 07:02:15.16	4.34	9.41	
2025-01-20 07:02:16.18	4.17	9.38	
2025-01-20 07:02:17.19	4.00	9.35	
2025-01-20 07:02:18.20	3.84	9.32	
2025-01-20 07:02:19.22	3.67	9.29	
2025-01-20 07:02:20.23	3.51	9.26	
2025-01-20 07:02:21.25	3.34	9.23	
2025-01-20 07:02:22.26	3.18	9.20	
2025-01-20 07:02:23.28	3.01	9.17	
2025-01-20 07:02:24.29	2.85	9.14	
2025-01-20 07:02:25.31	2.68	9.11	
2025-01-20 07:02:26.32	2.52	9.08	
2025-01-20 07:02:27.34	2.36	9.05	
2025-01-20 07:02:28.35	2.19	9.01	
2025-01-20 07:02:29.37	2.03	8.98	
2025-01-20 07:02:30.38	1.87	8.95	
2025-01-20 07:02:31.40	1.71	8.92	
2025-01-20 07:02:32.41	1.55	8.89	
2025-01-20 07:02:33.43	1.38	8.85	
2025-01-20 07:02:34.44	1.22	8.82	
2025-01-20 07:02:35.46	1.06	8.79	
2025-01-20 07:02:36.47	0.90	8.76	
2025-01-20 07:02:37.49	0.74	8.72	
2025-01-20 07:02:38.50	0.58	8.69	
2025-01-20 07:02:39.52	0.43	8.66	
2025-01-20 07:02:40.53	0.27	8.62	
2025-01-20 07:02:41.54	0.11	8.59	
2025-01-20 07:02:42.56	359.95	8.56	
2025-01-20 07:02:43.57	359.79	8.52	
2025-01-20 07:02:44.59	359.64	8.49	
2025-01-20 07:02:45.60	359.48	8.46	
2025-01-20 07:02:46.62	359.32	8.42	
2025-01-20 07:02:47.63	359.17	8.39	
2025-01-20 07:02:48.65	359.01	8.35	
2025-01-20 07:02:49.66	358.86	8.32	
2025-01-20 07:02:50.68	358.70	8.28	
2025-01-20 07:02:51.69	358.55	8.25	
2025-01-20 07:02:52.71	358.39	8.21	
2025-01-20 07:02:53.72	358.24	8.18	
2025-01-20 07:02:54.74	358.09	8.14	
2025-01-20 07:02:55.75	357.94	8.11	
2025-01-20 07:02:56.77	357.78	8.07	
2025-01-20 07:02:57.78	357.63	8.03	
2025-01-20 07:02:58.80	357.48	8.00	
2025-01-20 07:02:59.81	357.33	7.96	
2025-01-20 07:03:00.83	357.18	7.92	
2025-01-20 07:03:01.84	357.03	7.89	
2025-01-20 07:03:02.86	356.88	7.85	
2025-01-20 07:03:03.87	356.73	7.82	
2025-01-20 07:03:04.88	356.58	7.78	
2025-01-20 07:03:05.90	356.43	7.74	
2025-01-20 07:03:06.91	356.28	7.70	
2025-01-20 07:03:07.93	356.13	7.67	
2025-01-20 07:03:08.94	355.98	7.63	
2025-01-20 07:03:09.96	355.84	7.59	
2025-01-20 07:03:10.97	355.69	7.55	
2025-01-20 07:03:11.99	355.54	7.52	
2025-01-20 07:03:13.00	355.40	7.48	
2025-01-20 07:03:14.02	355.25	7.44	
2025-01-20 07:03:15.03	355.10	7.40	
2025-01-20 07:03:16.05	354.96	7.36	
2025-01-20 07:03:17.06	354.81	7.33	
2025-01-20 07:03:18.08	354.67	7.29	
2025-01-20 07:03:19.09	354.53	7.25	
2025-01-20 07:03:20.11	354.38	7.21	
2025-01-20 07:03:21.12	354.24	7.17	
2025-01-20 07:03:22.14	354.10	7.13	
2025-01-20 07:03:23.15	353.95	7.09	
2025-01-20 07:03:24.17	353.81	7.05	
2025-01-20 07:03:25.18	353.67	7.01	
2025-01-20 07:03:26.20	353.53	6.98	
2025-01-20 07:03:27.21	353.39	6.94	
2025-01-20 07:03:28.22	353.25	6.90	
2025-01-20 07:03:29.24	353.11	6.86	
2025-01-20 07:03:30.25	352.97	6.82	
2025-01-20 07:03:31.27	352.83	6.78	
2025-01-20 07:03:32.28	352.69	6.74	
2025-01-20 07:03:33.30	352.55	6.70	
2025-01-20 07:03:34.31	352.41	6.66	
2025-01-20 07:03:35.33	352.28	6.62	
2025-01-20 07:03:36.34	352.14	6.58	
2025-01-20 07:03:37.36	352.00	6.54	
2025-01-20 07:03:38.37	351.87	6.50	
2025-01-20 07:03:39.39	351.73	6.45	
2025-01-20 07:03:40.40	351.59	6.41	
2025-01-20 07:03:41.42	351.46	6.37	
2025-01-20 07:03:42.43	351.32	6.33	
2025-01-20 07:03:43.45	351.19	6.29	
2025-01-20 07:03:44.46	351.05	6.25	
2025-01-20 07:03:45.48	350.92	6.21	
2025-01-20 07:03:46.49	350.79	6.17	
2025-01-20 07:03:47.51	350.65	6.13	
2025-01-20 07:03:48.52	350.52	6.09	
2025-01-20 07:03:49.54	350.39	6.04	
2025-01-20 07:03:50.55	350.26	6.00	
2025-01-20 07:03:51.56	350.13	5.96	
2025-01-20 07:03:52.58	350.00	5.92	
2025-01-20 07:03:53.59	349.87	5.88	
2025-01-20 07:03:54.61	349.73	5.84	
2025-01-20 07:03:55.62	349.60	5.79	
2025-01-20 07:03:56.64	349.47	5.75	
2025-01-20 07:03:57.65	349.35	5.71	
2025-01-20 07:03:58.67	349.22	5.67	
2025-01-20 07:03:59.68	349.09	5.63	
2025-01-20 07:04:00.70	348.96	5.58	
2025-01-20 07:04:01.71	348.83	5.54	
2025-01-20 07:04:02.73	348.71	5.50	
2025-01-20 07:04:03.74	348.58	5.46	
2025-01-20 07:04:04.76	348.45	5.41	
2025-01-20 07:04:05.77	348.33	5.37	
2025-01-20 07:04:06.79	348.20	5.33	
2025-01-20 07:04:07.80	348.07	5.29	
2025-01-20 07:04:08.82	347.95	5.24	
2025-01-20 07:04:09.83	347.83	5.20	
2025-01-20 07:04:10.85	347.70	5.16	
2025-01-20 07:04:11.86	347.58	5.11	
2025-01-20 07:04:12.88	347.45	5.07	
2025-01-20 07:04:13.89	347.33	5.03	
2025-01-20 07:04:14.90	347.21	4.99	
2025-01-20 07:04:15.92	347.09	4.94	
2025-01-20 07:04:16.93	346.96	4.90	
2025-01-20 07:04:17.95	346.84	4.86	
2025-01-20 07:04:18.96	346.72	4.81	
2025-01-20 07:04:19.98	346.60	4.77	
2025-01-20 07:04:20.99	346.48	4.73	
2025-01-20 07:04:22.01	346.36	4.68	
2025-01-20 07:04:23.02	346.24	4.64	
2025-01-20 07:04:24.04	346.12	4.60	
2025-01-20 07:04:25.05	346.00	4.55	
2025-01-20 07:04:26.07	345.88	4.51	
2025-01-20 07:04:27.08	345.76	4.47	
2025-01-20 07:04:28.10	345.65	4.42	
2025-01-20 07:04:29.11	345.53	4.38	
2025-01-20 07:04:30.13	345.41	4.33	
2025-01-20 07:04:31.14	345.29	4.29	
2025-01-20 07:04:32.16	345.18	4.25	
2025-01-20 07:04:33.17	345.06	4.20	
2025-01-20 07:04:34.19	344.94	4.16	
2025-01-20 07:04:35.20	344.83	4.11	
2025-01-20 07:04:36.22	344.71	4.07	
2025-01-20 07:04:37.23	344.60	4.03	

#Closed at: 2025-01-20 07:04:38