passes_logs/2025/01/20/SPB_Silybum_02/SPB_Silybum_02__20250120_095721_AQUA_rec.log

#Pass ID: 20250120_095721_AQUA
#Satellite: AQUA
#Configuration: AQUA
#Start time: 2025-01-20 09:57:19

#Version: 2.0.20230423
#Station: SPB_Silybum_02
#Location: 30.233357 lon 59.946436 lat
#TLE: 1 27424U 02022A   25019.86270051  .00002463  00000+0  51518-3 0  9998
#TLE: 2 27424  98.3596 336.5709 0001915 106.8361 278.0854 14.60706016208336

#Time	Az	El	Level	Level2	SNR	BER	Gain	Gain2
2025-01-20 09:57:21.72	116.30	4.04	
2025-01-20 09:57:22.94	116.22	4.12	
2025-01-20 09:57:24.16	116.13	4.20	
2025-01-20 09:57:25.37	116.04	4.27	
2025-01-20 09:57:26.59	115.95	4.35	
2025-01-20 09:57:27.81	115.86	4.44	
2025-01-20 09:57:29.03	115.77	4.52	
2025-01-20 09:57:30.25	115.68	4.60	
2025-01-20 09:57:31.47	115.59	4.68	
2025-01-20 09:57:32.68	115.50	4.76	
2025-01-20 09:57:33.90	115.41	4.84	
2025-01-20 09:57:35.12	115.31	4.92	
2025-01-20 09:57:36.34	115.22	5.00	
2025-01-20 09:57:37.56	115.13	5.08	
2025-01-20 09:57:38.78	115.03	5.17	
2025-01-20 09:57:40.00	114.94	5.25	
2025-01-20 09:57:41.21	114.84	5.33	
2025-01-20 09:57:42.43	114.75	5.41	
2025-01-20 09:57:43.65	114.65	5.50	
2025-01-20 09:57:44.87	114.55	5.58	
2025-01-20 09:57:46.09	114.45	5.66	
2025-01-20 09:57:47.31	114.35	5.75	
2025-01-20 09:57:48.52	114.25	5.83	
2025-01-20 09:57:49.74	114.15	5.91	
2025-01-20 09:57:50.96	114.05	6.00	
2025-01-20 09:57:52.18	113.95	6.08	
2025-01-20 09:57:53.40	113.85	6.17	
2025-01-20 09:57:54.62	113.75	6.25	
2025-01-20 09:57:55.84	113.64	6.34	
2025-01-20 09:57:57.05	113.54	6.42	
2025-01-20 09:57:58.27	113.44	6.51	
2025-01-20 09:57:59.49	113.33	6.59	
2025-01-20 09:58:00.71	113.22	6.68	
2025-01-20 09:58:01.93	113.12	6.77	
2025-01-20 09:58:03.15	113.01	6.85	
2025-01-20 09:58:04.36	112.90	6.94	
2025-01-20 09:58:05.58	112.79	7.03	
2025-01-20 09:58:06.80	112.68	7.11	
2025-01-20 09:58:08.02	112.57	7.20	
2025-01-20 09:58:09.24	112.46	7.29	
2025-01-20 09:58:10.46	112.35	7.38	
2025-01-20 09:58:11.68	112.24	7.47	
2025-01-20 09:58:12.89	112.12	7.55	
2025-01-20 09:58:14.11	112.01	7.64	
2025-01-20 09:58:15.33	111.89	7.73	
2025-01-20 09:58:16.55	111.78	7.82	
2025-01-20 09:58:17.77	111.66	7.91	
2025-01-20 09:58:18.99	111.54	8.00	
2025-01-20 09:58:20.20	111.43	8.09	
2025-01-20 09:58:21.42	111.31	8.18	
2025-01-20 09:58:22.64	111.19	8.27	
2025-01-20 09:58:23.86	111.07	8.36	
2025-01-20 09:58:25.08	110.94	8.45	
2025-01-20 09:58:26.30	110.82	8.54	
2025-01-20 09:58:27.52	110.70	8.63	
2025-01-20 09:58:28.73	110.57	8.72	
2025-01-20 09:58:29.95	110.45	8.82	
2025-01-20 09:58:31.17	110.32	8.91	
2025-01-20 09:58:32.39	110.20	9.00	
2025-01-20 09:58:33.61	110.07	9.09	
2025-01-20 09:58:34.83	109.94	9.19	
2025-01-20 09:58:36.04	109.81	9.28	
2025-01-20 09:58:37.26	109.68	9.37	
2025-01-20 09:58:38.48	109.55	9.47	
2025-01-20 09:58:39.70	109.42	9.56	
2025-01-20 09:58:40.92	109.28	9.65	
2025-01-20 09:58:42.14	109.15	9.75	
2025-01-20 09:58:43.36	109.01	9.84	
2025-01-20 09:58:44.57	108.88	9.94	
2025-01-20 09:58:45.79	108.74	10.03	
2025-01-20 09:58:47.01	108.60	10.13	
2025-01-20 09:58:48.23	108.46	10.22	
2025-01-20 09:58:49.45	108.32	10.32	
2025-01-20 09:58:50.67	108.18	10.42	
2025-01-20 09:58:51.88	108.04	10.51	
2025-01-20 09:58:53.10	107.90	10.61	
2025-01-20 09:58:54.32	107.76	10.71	
2025-01-20 09:58:55.54	107.61	10.80	
2025-01-20 09:58:56.76	107.46	10.90	
2025-01-20 09:58:57.98	107.32	11.00	
2025-01-20 09:58:59.20	107.17	11.10	
2025-01-20 09:59:00.41	107.02	11.20	
2025-01-20 09:59:01.63	106.87	11.29	
2025-01-20 09:59:02.85	106.72	11.39	
2025-01-20 09:59:04.07	106.56	11.49	
2025-01-20 09:59:05.29	106.41	11.59	
2025-01-20 09:59:06.51	106.25	11.69	
2025-01-20 09:59:07.72	106.10	11.79	
2025-01-20 09:59:08.94	105.94	11.89	
2025-01-20 09:59:10.16	105.78	11.99	
2025-01-20 09:59:11.38	105.62	12.09	
2025-01-20 09:59:12.60	105.46	12.19	
2025-01-20 09:59:13.82	105.30	12.29	
2025-01-20 09:59:15.03	105.14	12.39	
2025-01-20 09:59:16.25	104.97	12.49	
2025-01-20 09:59:17.47	104.81	12.60	
2025-01-20 09:59:18.69	104.64	12.70	
2025-01-20 09:59:19.91	104.47	12.80	
2025-01-20 09:59:21.13	104.30	12.90	
2025-01-20 09:59:22.35	104.13	13.01	
2025-01-20 09:59:23.56	103.96	13.11	
2025-01-20 09:59:24.78	103.78	13.21	
2025-01-20 09:59:26.00	103.61	13.32	
2025-01-20 09:59:27.22	103.43	13.42	
2025-01-20 09:59:28.44	103.26	13.52	
2025-01-20 09:59:29.66	103.08	13.63	
2025-01-20 09:59:30.87	102.90	13.73	
2025-01-20 09:59:32.09	102.72	13.84	
2025-01-20 09:59:33.31	102.53	13.94	
2025-01-20 09:59:34.53	102.35	14.05	
2025-01-20 09:59:35.75	102.16	14.15	
2025-01-20 09:59:36.97	101.97	14.26	
2025-01-20 09:59:38.19	101.78	14.36	
2025-01-20 09:59:39.40	101.60	14.47	
2025-01-20 09:59:40.62	101.40	14.57	
2025-01-20 09:59:41.84	101.21	14.68	
2025-01-20 09:59:43.06	101.02	14.79	
2025-01-20 09:59:44.28	100.82	14.89	
2025-01-20 09:59:45.50	100.62	15.00	
2025-01-20 09:59:46.71	100.42	15.11	
2025-01-20 09:59:47.93	100.22	15.21	
2025-01-20 09:59:49.15	100.02	15.32	
2025-01-20 09:59:50.37	99.82	15.43	
2025-01-20 09:59:51.59	99.61	15.54	
2025-01-20 09:59:52.81	99.40	15.65	
2025-01-20 09:59:54.03	99.19	15.75	
2025-01-20 09:59:55.24	98.99	15.86	
2025-01-20 09:59:56.46	98.77	15.97	
2025-01-20 09:59:57.68	98.56	16.08	
2025-01-20 09:59:58.90	98.34	16.19	
2025-01-20 10:00:00.12	98.13	16.30	
2025-01-20 10:00:01.34	97.91	16.41	
2025-01-20 10:00:02.55	97.69	16.51	
2025-01-20 10:00:03.77	97.47	16.62	
2025-01-20 10:00:04.99	97.24	16.73	
2025-01-20 10:00:06.21	97.02	16.84	
2025-01-20 10:00:07.43	96.79	16.95	
2025-01-20 10:00:08.65	96.56	17.06	
2025-01-20 10:00:09.87	96.33	17.17	
2025-01-20 10:00:11.08	96.10	17.28	
2025-01-20 10:00:12.30	95.86	17.39	
2025-01-20 10:00:13.52	95.63	17.50	
2025-01-20 10:00:14.74	95.39	17.61	
2025-01-20 10:00:15.96	95.15	17.72	
2025-01-20 10:00:17.18	94.90	17.83	
2025-01-20 10:00:18.39	94.66	17.94	
2025-01-20 10:00:19.61	94.42	18.05	
2025-01-20 10:00:20.83	94.17	18.16	
2025-01-20 10:00:22.05	93.92	18.27	
2025-01-20 10:00:23.27	93.67	18.38	
2025-01-20 10:00:24.49	93.41	18.49	
2025-01-20 10:00:25.71	93.16	18.60	
2025-01-20 10:00:26.92	92.90	18.71	
2025-01-20 10:00:28.14	92.64	18.82	
2025-01-20 10:00:29.36	92.38	18.93	
2025-01-20 10:00:30.58	92.12	19.04	
2025-01-20 10:00:31.80	91.85	19.15	
2025-01-20 10:00:33.02	91.58	19.26	
2025-01-20 10:00:34.23	91.32	19.37	
2025-01-20 10:00:35.45	91.04	19.48	
2025-01-20 10:00:36.67	90.77	19.59	
2025-01-20 10:00:37.89	90.49	19.70	
2025-01-20 10:00:39.11	90.22	19.81	
2025-01-20 10:00:40.33	89.94	19.92	
2025-01-20 10:00:41.55	89.65	20.02	
2025-01-20 10:00:42.76	89.37	20.13	
2025-01-20 10:00:43.98	89.08	20.24	
2025-01-20 10:00:45.20	88.80	20.35	
2025-01-20 10:00:46.42	88.51	20.46	
2025-01-20 10:00:47.64	88.21	20.56	
2025-01-20 10:00:48.86	87.92	20.67	
2025-01-20 10:00:50.07	87.62	20.78	
2025-01-20 10:00:51.29	87.32	20.89	
2025-01-20 10:00:52.51	87.02	20.99	
2025-01-20 10:00:53.73	86.72	21.10	
2025-01-20 10:00:54.95	86.41	21.20	
2025-01-20 10:00:56.17	86.10	21.31	
2025-01-20 10:00:57.39	85.79	21.42	
2025-01-20 10:00:58.60	85.48	21.52	
2025-01-20 10:00:59.82	85.17	21.62	
2025-01-20 10:01:01.04	84.85	21.73	
2025-01-20 10:01:02.26	84.53	21.83	
2025-01-20 10:01:03.48	84.21	21.93	
2025-01-20 10:01:04.70	83.88	22.04	
2025-01-20 10:01:05.91	83.56	22.14	
2025-01-20 10:01:07.13	83.23	22.24	
2025-01-20 10:01:08.35	82.90	22.34	
2025-01-20 10:01:09.57	82.57	22.44	
2025-01-20 10:01:10.79	82.23	22.54	
2025-01-20 10:01:12.01	81.89	22.64	
2025-01-20 10:01:13.23	81.55	22.74	
2025-01-20 10:01:14.44	81.21	22.84	
2025-01-20 10:01:15.66	80.87	22.93	
2025-01-20 10:01:16.88	80.52	23.03	
2025-01-20 10:01:18.10	80.17	23.13	
2025-01-20 10:01:19.32	79.82	23.22	
2025-01-20 10:01:20.54	79.47	23.32	
2025-01-20 10:01:21.75	79.12	23.41	
2025-01-20 10:01:22.97	78.76	23.50	
2025-01-20 10:01:24.19	78.40	23.60	
2025-01-20 10:01:25.41	78.04	23.69	
2025-01-20 10:01:26.63	77.67	23.78	
2025-01-20 10:01:27.85	77.31	23.87	
2025-01-20 10:01:29.07	76.94	23.96	
2025-01-20 10:01:30.28	76.57	24.04	
2025-01-20 10:01:31.50	76.20	24.13	
2025-01-20 10:01:32.72	75.82	24.22	
2025-01-20 10:01:33.94	75.44	24.30	
2025-01-20 10:01:35.16	75.06	24.38	
2025-01-20 10:01:36.38	74.68	24.47	
2025-01-20 10:01:37.59	74.30	24.55	
2025-01-20 10:01:38.81	73.92	24.63	
2025-01-20 10:01:40.03	73.53	24.71	
2025-01-20 10:01:41.25	73.14	24.79	
2025-01-20 10:01:42.47	72.75	24.86	
2025-01-20 10:01:43.69	72.35	24.94	
2025-01-20 10:01:44.91	71.96	25.01	
2025-01-20 10:01:46.12	71.56	25.09	
2025-01-20 10:01:47.34	71.16	25.16	
2025-01-20 10:01:48.56	70.76	25.23	
2025-01-20 10:01:49.78	70.36	25.30	
2025-01-20 10:01:51.00	69.95	25.37	
2025-01-20 10:01:52.22	69.54	25.44	
2025-01-20 10:01:53.43	69.14	25.50	
2025-01-20 10:01:54.65	68.73	25.57	
2025-01-20 10:01:55.87	68.31	25.63	
2025-01-20 10:01:57.09	67.90	25.69	
2025-01-20 10:01:58.31	67.48	25.75	
2025-01-20 10:01:59.53	67.07	25.81	
2025-01-20 10:02:00.74	66.65	25.87	
2025-01-20 10:02:01.96	66.23	25.92	
2025-01-20 10:02:03.18	65.81	25.98	
2025-01-20 10:02:04.40	65.39	26.03	
2025-01-20 10:02:05.62	64.96	26.08	
2025-01-20 10:02:06.84	64.53	26.13	
2025-01-20 10:02:08.06	64.11	26.18	
2025-01-20 10:02:09.27	63.68	26.23	
2025-01-20 10:02:10.49	63.25	26.27	
2025-01-20 10:02:11.71	62.82	26.31	
2025-01-20 10:02:12.93	62.39	26.35	
2025-01-20 10:02:14.15	61.95	26.39	
2025-01-20 10:02:15.37	61.52	26.43	
2025-01-20 10:02:16.58	61.08	26.47	
2025-01-20 10:02:17.80	60.65	26.50	
2025-01-20 10:02:19.02	60.21	26.54	
2025-01-20 10:02:20.24	59.77	26.57	
2025-01-20 10:02:21.46	59.33	26.60	
2025-01-20 10:02:22.68	58.89	26.62	
2025-01-20 10:02:23.90	58.45	26.65	
2025-01-20 10:02:25.11	58.01	26.67	
2025-01-20 10:02:26.33	57.57	26.70	
2025-01-20 10:02:27.55	57.12	26.72	
2025-01-20 10:02:28.77	56.68	26.74	
2025-01-20 10:02:29.99	56.24	26.75	
2025-01-20 10:02:31.21	55.79	26.77	
2025-01-20 10:02:32.42	55.35	26.78	
2025-01-20 10:02:33.64	54.90	26.79	
2025-01-20 10:02:34.86	54.46	26.80	
2025-01-20 10:02:36.08	54.01	26.81	
2025-01-20 10:02:37.30	53.57	26.82	
2025-01-20 10:02:38.52	53.12	26.82	
2025-01-20 10:02:39.74	52.67	26.82	
2025-01-20 10:02:40.95	52.23	26.82	
2025-01-20 10:02:42.17	51.78	26.82	
2025-01-20 10:02:43.39	51.34	26.82	
2025-01-20 10:02:44.61	50.89	26.81	
2025-01-20 10:02:45.83	50.45	26.80	
2025-01-20 10:02:47.05	50.00	26.79	
2025-01-20 10:02:48.26	49.56	26.78	
2025-01-20 10:02:49.48	49.11	26.77	
2025-01-20 10:02:50.70	48.67	26.76	
2025-01-20 10:02:51.92	48.22	26.74	
2025-01-20 10:02:53.14	47.78	26.72	
2025-01-20 10:02:54.36	47.34	26.70	
2025-01-20 10:02:55.58	46.89	26.68	
2025-01-20 10:02:56.79	46.46	26.66	
2025-01-20 10:02:58.01	46.01	26.63	
2025-01-20 10:02:59.23	45.57	26.60	
2025-01-20 10:03:00.45	45.13	26.58	
2025-01-20 10:03:01.67	44.70	26.54	
2025-01-20 10:03:02.89	44.26	26.51	
2025-01-20 10:03:04.10	43.82	26.48	
2025-01-20 10:03:05.32	43.39	26.44	
2025-01-20 10:03:06.54	42.95	26.40	
2025-01-20 10:03:07.76	42.52	26.37	
2025-01-20 10:03:08.98	42.09	26.32	
2025-01-20 10:03:10.20	41.66	26.28	
2025-01-20 10:03:11.42	41.23	26.24	
2025-01-20 10:03:12.63	40.80	26.19	
2025-01-20 10:03:13.85	40.37	26.14	
2025-01-20 10:03:15.07	39.95	26.10	
2025-01-20 10:03:16.29	39.52	26.04	
2025-01-20 10:03:17.51	39.10	25.99	
2025-01-20 10:03:18.73	38.68	25.94	
2025-01-20 10:03:19.94	38.26	25.88	
2025-01-20 10:03:21.16	37.84	25.83	
2025-01-20 10:03:22.38	37.43	25.77	
2025-01-20 10:03:23.60	37.01	25.71	
2025-01-20 10:03:24.82	36.60	25.65	
2025-01-20 10:03:26.04	36.19	25.59	
2025-01-20 10:03:27.26	35.77	25.52	
2025-01-20 10:03:28.47	35.37	25.46	
2025-01-20 10:03:29.69	34.96	25.39	
2025-01-20 10:03:30.91	34.56	25.32	
2025-01-20 10:03:32.13	34.15	25.25	
2025-01-20 10:03:33.35	33.75	25.18	
2025-01-20 10:03:34.57	33.35	25.11	
2025-01-20 10:03:35.78	32.96	25.04	
2025-01-20 10:03:37.00	32.56	24.96	
2025-01-20 10:03:38.22	32.17	24.89	
2025-01-20 10:03:39.44	31.78	24.81	
2025-01-20 10:03:40.66	31.39	24.73	
2025-01-20 10:03:41.88	31.00	24.65	
2025-01-20 10:03:43.10	30.62	24.57	
2025-01-20 10:03:44.31	30.24	24.49	
2025-01-20 10:03:45.53	29.86	24.41	
2025-01-20 10:03:46.75	29.48	24.33	
2025-01-20 10:03:47.97	29.10	24.24	
2025-01-20 10:03:49.19	28.73	24.16	
2025-01-20 10:03:50.41	28.35	24.07	
2025-01-20 10:03:51.62	27.99	23.98	
2025-01-20 10:03:52.84	27.62	23.90	
2025-01-20 10:03:54.06	27.25	23.81	
2025-01-20 10:03:55.28	26.89	23.72	
2025-01-20 10:03:56.50	26.53	23.63	
2025-01-20 10:03:57.72	26.17	23.53	
2025-01-20 10:03:58.94	25.81	23.44	
2025-01-20 10:04:00.15	25.46	23.35	
2025-01-20 10:04:01.37	25.10	23.26	
2025-01-20 10:04:02.59	24.75	23.16	
2025-01-20 10:04:03.81	24.41	23.07	
2025-01-20 10:04:05.03	24.06	22.97	
2025-01-20 10:04:06.25	23.72	22.87	
2025-01-20 10:04:07.46	23.38	22.78	
2025-01-20 10:04:08.68	23.04	22.68	
2025-01-20 10:04:09.90	22.70	22.58	
2025-01-20 10:04:11.12	22.37	22.48	
2025-01-20 10:04:12.34	22.03	22.38	
2025-01-20 10:04:13.56	21.70	22.28	
2025-01-20 10:04:14.78	21.38	22.18	
2025-01-20 10:04:15.99	21.05	22.08	
2025-01-20 10:04:17.21	20.73	21.97	
2025-01-20 10:04:18.43	20.41	21.87	
2025-01-20 10:04:19.65	20.09	21.77	
2025-01-20 10:04:20.87	19.77	21.67	
2025-01-20 10:04:22.09	19.46	21.56	
2025-01-20 10:04:23.30	19.15	21.46	
2025-01-20 10:04:24.52	18.84	21.35	
2025-01-20 10:04:25.74	18.53	21.25	
2025-01-20 10:04:26.96	18.22	21.14	
2025-01-20 10:04:28.18	17.92	21.04	
2025-01-20 10:04:29.40	17.62	20.93	
2025-01-20 10:04:30.61	17.32	20.83	
2025-01-20 10:04:31.83	17.03	20.72	
2025-01-20 10:04:33.05	16.73	20.61	
2025-01-20 10:04:34.27	16.44	20.50	
2025-01-20 10:04:35.49	16.15	20.40	
2025-01-20 10:04:36.71	15.86	20.29	
2025-01-20 10:04:37.93	15.58	20.18	
2025-01-20 10:04:39.14	15.29	20.07	
2025-01-20 10:04:40.36	15.01	19.97	
2025-01-20 10:04:41.58	14.73	19.86	
2025-01-20 10:04:42.80	14.46	19.75	
2025-01-20 10:04:44.02	14.18	19.64	
2025-01-20 10:04:45.24	13.91	19.53	
2025-01-20 10:04:46.46	13.64	19.42	
2025-01-20 10:04:47.67	13.37	19.31	
2025-01-20 10:04:48.89	13.10	19.20	
2025-01-20 10:04:50.11	12.84	19.09	
2025-01-20 10:04:51.33	12.57	18.98	
2025-01-20 10:04:52.55	12.31	18.87	
2025-01-20 10:04:53.77	12.05	18.77	
2025-01-20 10:04:54.98	11.80	18.66	
2025-01-20 10:04:56.20	11.54	18.55	
2025-01-20 10:04:57.42	11.29	18.44	
2025-01-20 10:04:58.64	11.04	18.33	
2025-01-20 10:04:59.86	10.79	18.22	
2025-01-20 10:05:01.08	10.54	18.11	
2025-01-20 10:05:02.29	10.30	18.00	
2025-01-20 10:05:03.51	10.06	17.89	
2025-01-20 10:05:04.73	9.82	17.78	
2025-01-20 10:05:05.95	9.58	17.67	
2025-01-20 10:05:07.17	9.34	17.56	
2025-01-20 10:05:08.39	9.10	17.45	
2025-01-20 10:05:09.61	8.87	17.34	
2025-01-20 10:05:10.82	8.64	17.23	
2025-01-20 10:05:12.04	8.41	17.12	
2025-01-20 10:05:13.26	8.18	17.01	
2025-01-20 10:05:14.48	7.95	16.90	
2025-01-20 10:05:15.70	7.73	16.80	
2025-01-20 10:05:16.92	7.50	16.69	
2025-01-20 10:05:18.13	7.28	16.58	
2025-01-20 10:05:19.35	7.06	16.47	
2025-01-20 10:05:20.57	6.85	16.36	
2025-01-20 10:05:21.79	6.63	16.25	
2025-01-20 10:05:23.01	6.41	16.14	
2025-01-20 10:05:24.23	6.20	16.04	
2025-01-20 10:05:25.45	5.99	15.93	
2025-01-20 10:05:26.66	5.78	15.82	
2025-01-20 10:05:27.88	5.57	15.71	
2025-01-20 10:05:29.10	5.37	15.61	
2025-01-20 10:05:30.32	5.16	15.50	
2025-01-20 10:05:31.54	4.96	15.39	
2025-01-20 10:05:32.76	4.76	15.28	
2025-01-20 10:05:33.97	4.56	15.18	
2025-01-20 10:05:35.19	4.36	15.07	
2025-01-20 10:05:36.41	4.16	14.96	
2025-01-20 10:05:37.63	3.97	14.86	
2025-01-20 10:05:38.85	3.77	14.75	
2025-01-20 10:05:40.07	3.58	14.65	
2025-01-20 10:05:41.29	3.39	14.54	
2025-01-20 10:05:42.50	3.20	14.44	
2025-01-20 10:05:43.72	3.01	14.33	
2025-01-20 10:05:44.94	2.83	14.22	
2025-01-20 10:05:46.16	2.64	14.12	
2025-01-20 10:05:47.38	2.46	14.01	
2025-01-20 10:05:48.60	2.27	13.91	
2025-01-20 10:05:49.81	2.10	13.81	
2025-01-20 10:05:51.03	1.92	13.70	
2025-01-20 10:05:52.25	1.74	13.60	
2025-01-20 10:05:53.47	1.56	13.50	
2025-01-20 10:05:54.69	1.38	13.39	
2025-01-20 10:05:55.91	1.21	13.29	
2025-01-20 10:05:57.13	1.04	13.19	
2025-01-20 10:05:58.34	0.87	13.08	
2025-01-20 10:05:59.56	0.70	12.98	
2025-01-20 10:06:00.78	0.53	12.88	
2025-01-20 10:06:02.00	0.36	12.78	
2025-01-20 10:06:03.22	0.19	12.68	
2025-01-20 10:06:04.44	0.03	12.57	
2025-01-20 10:06:05.65	359.87	12.47	
2025-01-20 10:06:06.87	359.70	12.37	
2025-01-20 10:06:08.09	359.54	12.27	
2025-01-20 10:06:09.31	359.38	12.17	
2025-01-20 10:06:10.53	359.22	12.07	
2025-01-20 10:06:11.75	359.06	11.97	
2025-01-20 10:06:12.97	358.91	11.87	
2025-01-20 10:06:14.18	358.75	11.77	
2025-01-20 10:06:15.40	358.60	11.67	
2025-01-20 10:06:16.62	358.45	11.57	
2025-01-20 10:06:17.84	358.29	11.48	
2025-01-20 10:06:19.06	358.14	11.38	
2025-01-20 10:06:20.28	357.99	11.28	
2025-01-20 10:06:21.49	357.84	11.18	
2025-01-20 10:06:22.71	357.70	11.08	
2025-01-20 10:06:23.93	357.55	10.99	
2025-01-20 10:06:25.15	357.40	10.89	
2025-01-20 10:06:26.37	357.26	10.79	
2025-01-20 10:06:27.59	357.12	10.69	
2025-01-20 10:06:28.81	356.97	10.60	
2025-01-20 10:06:30.02	356.83	10.50	
2025-01-20 10:06:31.24	356.69	10.41	
2025-01-20 10:06:32.46	356.55	10.31	
2025-01-20 10:06:33.68	356.42	10.22	
2025-01-20 10:06:34.90	356.28	10.12	
2025-01-20 10:06:36.12	356.14	10.03	
2025-01-20 10:06:37.33	356.01	9.93	
2025-01-20 10:06:38.55	355.87	9.84	
2025-01-20 10:06:39.77	355.74	9.74	
2025-01-20 10:06:40.99	355.61	9.65	
2025-01-20 10:06:42.21	355.48	9.55	
2025-01-20 10:06:43.43	355.35	9.46	
2025-01-20 10:06:44.65	355.22	9.37	
2025-01-20 10:06:45.86	355.09	9.28	
2025-01-20 10:06:47.08	354.96	9.18	
2025-01-20 10:06:48.30	354.83	9.09	
2025-01-20 10:06:49.52	354.71	9.00	
2025-01-20 10:06:50.74	354.58	8.91	
2025-01-20 10:06:51.96	354.46	8.81	
2025-01-20 10:06:53.17	354.34	8.72	
2025-01-20 10:06:54.39	354.21	8.63	
2025-01-20 10:06:55.61	354.09	8.54	
2025-01-20 10:06:56.83	353.97	8.45	
2025-01-20 10:06:58.05	353.85	8.36	
2025-01-20 10:06:59.27	353.73	8.27	
2025-01-20 10:07:00.49	353.61	8.18	
2025-01-20 10:07:01.70	353.50	8.09	
2025-01-20 10:07:02.92	353.38	8.00	
2025-01-20 10:07:04.14	353.26	7.91	
2025-01-20 10:07:05.36	353.15	7.82	
2025-01-20 10:07:06.58	353.04	7.73	
2025-01-20 10:07:07.80	352.92	7.65	
2025-01-20 10:07:09.01	352.81	7.56	
2025-01-20 10:07:10.23	352.70	7.47	
2025-01-20 10:07:11.45	352.59	7.38	
2025-01-20 10:07:12.67	352.48	7.30	
2025-01-20 10:07:13.89	352.37	7.21	
2025-01-20 10:07:15.11	352.26	7.12	
2025-01-20 10:07:16.33	352.15	7.03	
2025-01-20 10:07:17.54	352.04	6.95	
2025-01-20 10:07:18.76	351.94	6.86	
2025-01-20 10:07:19.98	351.83	6.78	
2025-01-20 10:07:21.20	351.72	6.69	
2025-01-20 10:07:22.42	351.62	6.60	
2025-01-20 10:07:23.64	351.52	6.52	
2025-01-20 10:07:24.85	351.41	6.43	
2025-01-20 10:07:26.07	351.31	6.35	
2025-01-20 10:07:27.29	351.21	6.26	
2025-01-20 10:07:28.51	351.11	6.18	
2025-01-20 10:07:29.73	351.01	6.09	
2025-01-20 10:07:30.95	350.91	6.01	
2025-01-20 10:07:32.17	350.81	5.93	
2025-01-20 10:07:33.38	350.71	5.84	
2025-01-20 10:07:34.60	350.61	5.76	
2025-01-20 10:07:35.82	350.52	5.68	
2025-01-20 10:07:37.04	350.42	5.59	
2025-01-20 10:07:38.26	350.32	5.51	
2025-01-20 10:07:39.48	350.23	5.43	
2025-01-20 10:07:40.69	350.13	5.35	
2025-01-20 10:07:41.91	350.04	5.26	
2025-01-20 10:07:43.13	349.94	5.18	
2025-01-20 10:07:44.35	349.85	5.10	
2025-01-20 10:07:45.57	349.76	5.02	
2025-01-20 10:07:46.79	349.67	4.94	
2025-01-20 10:07:48.00	349.58	4.86	
2025-01-20 10:07:49.22	349.49	4.78	
2025-01-20 10:07:50.44	349.40	4.70	
2025-01-20 10:07:51.66	349.31	4.62	
2025-01-20 10:07:52.88	349.22	4.53	
2025-01-20 10:07:54.10	349.13	4.45	
2025-01-20 10:07:55.32	349.04	4.37	
2025-01-20 10:07:56.53	348.95	4.30	
2025-01-20 10:07:57.75	348.87	4.22	
2025-01-20 10:07:58.97	348.78	4.14	
2025-01-20 10:08:00.19	348.70	4.06	

#Closed at: 2025-01-20 10:08:01