passes_logs/2025/01/20/SPB_Silybum_02/SPB_Silybum_02__20250120_062440_TERRA_rec.log

#Pass ID: 20250120_062440_TERRA
#Satellite: TERRA
#Configuration: TERRA
#Start time: 2025-01-20 06:24:41

#Version: 2.0.20230423
#Station: SPB_Silybum_02
#Location: 30.233357 lon 59.946436 lat
#TLE: 1 25994U 99068A   25019.78905911  .00001081  00000+0  23261-3 0  9994
#TLE: 2 25994  98.0208  82.6669 0003303  62.5205  49.3311 14.60406058334773

#Time	Az	El	Level	Level2	SNR	BER	Gain	Gain2
2025-01-20 06:24:43.13	32.25	4.14	
2025-01-20 06:24:44.15	32.36	4.19	
2025-01-20 06:24:45.16	32.48	4.24	
2025-01-20 06:24:46.17	32.60	4.30	
2025-01-20 06:24:47.19	32.72	4.35	
2025-01-20 06:24:48.20	32.83	4.40	
2025-01-20 06:24:49.22	32.95	4.45	
2025-01-20 06:24:50.23	33.07	4.51	
2025-01-20 06:24:51.25	33.19	4.56	
2025-01-20 06:24:52.26	33.31	4.61	
2025-01-20 06:24:53.28	33.43	4.66	
2025-01-20 06:24:54.29	33.55	4.72	
2025-01-20 06:24:55.31	33.67	4.77	
2025-01-20 06:24:56.32	33.79	4.82	
2025-01-20 06:24:57.34	33.92	4.87	
2025-01-20 06:24:58.35	34.04	4.93	
2025-01-20 06:24:59.37	34.16	4.98	
2025-01-20 06:25:00.38	34.29	5.03	
2025-01-20 06:25:01.40	34.41	5.08	
2025-01-20 06:25:02.41	34.53	5.14	
2025-01-20 06:25:03.43	34.66	5.19	
2025-01-20 06:25:04.44	34.78	5.24	
2025-01-20 06:25:05.46	34.91	5.30	
2025-01-20 06:25:06.47	35.04	5.35	
2025-01-20 06:25:07.49	35.16	5.40	
2025-01-20 06:25:08.50	35.29	5.45	
2025-01-20 06:25:09.51	35.42	5.51	
2025-01-20 06:25:10.53	35.55	5.56	
2025-01-20 06:25:11.54	35.67	5.61	
2025-01-20 06:25:12.56	35.80	5.66	
2025-01-20 06:25:13.57	35.93	5.72	
2025-01-20 06:25:14.59	36.06	5.77	
2025-01-20 06:25:15.61	36.20	5.82	
2025-01-20 06:25:16.63	36.33	5.88	
2025-01-20 06:25:17.64	36.46	5.93	
2025-01-20 06:25:18.66	36.59	5.98	
2025-01-20 06:25:19.67	36.72	6.03	
2025-01-20 06:25:20.69	36.86	6.09	
2025-01-20 06:25:21.70	36.99	6.14	
2025-01-20 06:25:22.72	37.13	6.19	
2025-01-20 06:25:23.73	37.26	6.24	
2025-01-20 06:25:24.75	37.40	6.30	
2025-01-20 06:25:25.76	37.53	6.35	
2025-01-20 06:25:26.78	37.67	6.40	
2025-01-20 06:25:27.79	37.80	6.46	
2025-01-20 06:25:28.81	37.94	6.51	
2025-01-20 06:25:29.82	38.08	6.56	
2025-01-20 06:25:30.84	38.22	6.61	
2025-01-20 06:25:31.85	38.36	6.67	
2025-01-20 06:25:32.86	38.50	6.72	
2025-01-20 06:25:33.88	38.64	6.77	
2025-01-20 06:25:34.89	38.78	6.82	
2025-01-20 06:25:35.91	38.92	6.88	
2025-01-20 06:25:36.92	39.06	6.93	
2025-01-20 06:25:37.94	39.20	6.98	
2025-01-20 06:25:38.95	39.34	7.03	
2025-01-20 06:25:39.97	39.49	7.09	
2025-01-20 06:25:40.98	39.63	7.14	
2025-01-20 06:25:42.00	39.78	7.19	
2025-01-20 06:25:43.01	39.92	7.24	
2025-01-20 06:25:44.03	40.07	7.30	
2025-01-20 06:25:45.04	40.21	7.35	
2025-01-20 06:25:46.06	40.36	7.40	
2025-01-20 06:25:47.07	40.50	7.45	
2025-01-20 06:25:48.09	40.65	7.51	
2025-01-20 06:25:49.10	40.80	7.56	
2025-01-20 06:25:50.12	40.95	7.61	
2025-01-20 06:25:51.13	41.10	7.66	
2025-01-20 06:25:52.15	41.25	7.72	
2025-01-20 06:25:53.16	41.40	7.77	
2025-01-20 06:25:54.17	41.55	7.82	
2025-01-20 06:25:55.19	41.70	7.87	
2025-01-20 06:25:56.20	41.85	7.92	
2025-01-20 06:25:57.22	42.01	7.98	
2025-01-20 06:25:58.23	42.16	8.03	
2025-01-20 06:25:59.25	42.31	8.08	
2025-01-20 06:26:00.26	42.47	8.13	
2025-01-20 06:26:01.28	42.62	8.18	
2025-01-20 06:26:02.29	42.78	8.24	
2025-01-20 06:26:03.31	42.93	8.29	
2025-01-20 06:26:04.32	43.09	8.34	
2025-01-20 06:26:05.34	43.25	8.39	
2025-01-20 06:26:06.35	43.40	8.44	
2025-01-20 06:26:07.37	43.56	8.49	
2025-01-20 06:26:08.38	43.72	8.54	
2025-01-20 06:26:09.40	43.88	8.60	
2025-01-20 06:26:10.41	44.04	8.65	
2025-01-20 06:26:11.43	44.20	8.70	
2025-01-20 06:26:12.44	44.36	8.75	
2025-01-20 06:26:13.46	44.53	8.80	
2025-01-20 06:26:14.47	44.69	8.85	
2025-01-20 06:26:15.49	44.85	8.90	
2025-01-20 06:26:16.50	45.02	8.95	
2025-01-20 06:26:17.52	45.18	9.01	
2025-01-20 06:26:18.53	45.35	9.06	
2025-01-20 06:26:19.54	45.51	9.11	
2025-01-20 06:26:20.56	45.68	9.16	
2025-01-20 06:26:21.57	45.84	9.21	
2025-01-20 06:26:22.59	46.01	9.26	
2025-01-20 06:26:23.60	46.18	9.31	
2025-01-20 06:26:24.62	46.35	9.36	
2025-01-20 06:26:25.63	46.52	9.41	
2025-01-20 06:26:26.65	46.69	9.46	
2025-01-20 06:26:27.66	46.86	9.51	
2025-01-20 06:26:28.68	47.03	9.56	
2025-01-20 06:26:29.69	47.20	9.61	
2025-01-20 06:26:30.71	47.37	9.66	
2025-01-20 06:26:31.72	47.55	9.71	
2025-01-20 06:26:32.74	47.72	9.76	
2025-01-20 06:26:33.75	47.89	9.81	
2025-01-20 06:26:34.77	48.07	9.86	
2025-01-20 06:26:35.78	48.24	9.90	
2025-01-20 06:26:36.80	48.42	9.95	
2025-01-20 06:26:37.81	48.60	10.00	
2025-01-20 06:26:38.83	48.77	10.05	
2025-01-20 06:26:39.84	48.95	10.10	
2025-01-20 06:26:40.86	49.13	10.15	
2025-01-20 06:26:41.87	49.31	10.20	
2025-01-20 06:26:42.88	49.49	10.24	
2025-01-20 06:26:43.90	49.67	10.29	
2025-01-20 06:26:44.91	49.85	10.34	
2025-01-20 06:26:45.93	50.03	10.39	
2025-01-20 06:26:46.94	50.21	10.44	
2025-01-20 06:26:47.96	50.40	10.48	
2025-01-20 06:26:48.97	50.58	10.53	
2025-01-20 06:26:49.99	50.77	10.58	
2025-01-20 06:26:51.00	50.95	10.63	
2025-01-20 06:26:52.02	51.14	10.67	
2025-01-20 06:26:53.03	51.32	10.72	
2025-01-20 06:26:54.05	51.51	10.77	
2025-01-20 06:26:55.06	51.69	10.81	
2025-01-20 06:26:56.08	51.88	10.86	
2025-01-20 06:26:57.09	52.07	10.91	
2025-01-20 06:26:58.11	52.26	10.95	
2025-01-20 06:26:59.12	52.45	11.00	
2025-01-20 06:27:00.14	52.64	11.04	
2025-01-20 06:27:01.15	52.83	11.09	
2025-01-20 06:27:02.17	53.02	11.13	
2025-01-20 06:27:03.18	53.22	11.18	
2025-01-20 06:27:04.19	53.41	11.22	
2025-01-20 06:27:05.21	53.60	11.27	
2025-01-20 06:27:06.22	53.80	11.31	
2025-01-20 06:27:07.24	53.99	11.36	
2025-01-20 06:27:08.25	54.19	11.40	
2025-01-20 06:27:09.27	54.38	11.45	
2025-01-20 06:27:10.28	54.58	11.49	
2025-01-20 06:27:11.30	54.78	11.53	
2025-01-20 06:27:12.31	54.97	11.58	
2025-01-20 06:27:13.33	55.17	11.62	
2025-01-20 06:27:14.34	55.37	11.66	
2025-01-20 06:27:15.39	55.58	11.71	
2025-01-20 06:27:16.40	55.78	11.75	
2025-01-20 06:27:17.42	55.98	11.79	
2025-01-20 06:27:18.43	56.18	11.84	
2025-01-20 06:27:19.45	56.38	11.88	
2025-01-20 06:27:20.46	56.58	11.92	
2025-01-20 06:27:21.48	56.79	11.96	
2025-01-20 06:27:22.49	56.99	12.00	
2025-01-20 06:27:23.51	57.20	12.04	
2025-01-20 06:27:24.52	57.40	12.08	
2025-01-20 06:27:25.54	57.61	12.12	
2025-01-20 06:27:26.55	57.81	12.16	
2025-01-20 06:27:27.57	58.02	12.20	
2025-01-20 06:27:28.58	58.23	12.24	
2025-01-20 06:27:29.60	58.44	12.28	
2025-01-20 06:27:30.61	58.65	12.32	
2025-01-20 06:27:31.63	58.86	12.36	
2025-01-20 06:27:32.64	59.06	12.40	
2025-01-20 06:27:33.65	59.27	12.44	
2025-01-20 06:27:34.67	59.49	12.48	
2025-01-20 06:27:35.68	59.70	12.52	
2025-01-20 06:27:36.70	59.91	12.55	
2025-01-20 06:27:37.71	60.12	12.59	
2025-01-20 06:27:38.73	60.34	12.63	
2025-01-20 06:27:39.74	60.55	12.67	
2025-01-20 06:27:40.76	60.76	12.70	
2025-01-20 06:27:41.77	60.98	12.74	
2025-01-20 06:27:42.79	61.20	12.77	
2025-01-20 06:27:43.80	61.41	12.81	
2025-01-20 06:27:44.82	61.63	12.85	
2025-01-20 06:27:45.83	61.84	12.88	
2025-01-20 06:27:46.85	62.06	12.92	
2025-01-20 06:27:47.86	62.28	12.95	
2025-01-20 06:27:48.88	62.50	12.98	
2025-01-20 06:27:49.89	62.72	13.02	
2025-01-20 06:27:50.91	62.94	13.05	
2025-01-20 06:27:51.92	63.16	13.09	
2025-01-20 06:27:52.94	63.38	13.12	
2025-01-20 06:27:53.95	63.60	13.15	
2025-01-20 06:27:54.97	63.83	13.18	
2025-01-20 06:27:55.98	64.05	13.22	
2025-01-20 06:27:56.99	64.27	13.25	
2025-01-20 06:27:58.01	64.49	13.28	
2025-01-20 06:27:59.02	64.72	13.31	
2025-01-20 06:28:00.04	64.94	13.34	
2025-01-20 06:28:01.05	65.17	13.37	
2025-01-20 06:28:02.07	65.39	13.40	
2025-01-20 06:28:03.08	65.62	13.43	
2025-01-20 06:28:04.10	65.85	13.46	
2025-01-20 06:28:05.11	66.07	13.49	
2025-01-20 06:28:06.13	66.30	13.52	
2025-01-20 06:28:07.14	66.53	13.55	
2025-01-20 06:28:08.16	66.76	13.57	
2025-01-20 06:28:09.17	66.98	13.60	
2025-01-20 06:28:10.19	67.21	13.63	
2025-01-20 06:28:11.20	67.44	13.65	
2025-01-20 06:28:12.22	67.67	13.68	
2025-01-20 06:28:13.23	67.90	13.71	
2025-01-20 06:28:14.25	68.14	13.73	
2025-01-20 06:28:15.26	68.37	13.76	
2025-01-20 06:28:16.28	68.60	13.78	
2025-01-20 06:28:17.29	68.83	13.81	
2025-01-20 06:28:18.31	69.06	13.83	
2025-01-20 06:28:19.32	69.30	13.86	
2025-01-20 06:28:20.33	69.53	13.88	
2025-01-20 06:28:21.35	69.76	13.90	
2025-01-20 06:28:22.36	70.00	13.92	
2025-01-20 06:28:23.38	70.23	13.95	
2025-01-20 06:28:24.39	70.47	13.97	
2025-01-20 06:28:25.41	70.70	13.99	
2025-01-20 06:28:26.42	70.94	14.01	
2025-01-20 06:28:27.44	71.17	14.03	
2025-01-20 06:28:28.45	71.41	14.05	
2025-01-20 06:28:29.47	71.65	14.07	
2025-01-20 06:28:30.48	71.88	14.09	
2025-01-20 06:28:31.50	72.12	14.11	
2025-01-20 06:28:32.51	72.36	14.13	
2025-01-20 06:28:33.53	72.60	14.15	
2025-01-20 06:28:34.54	72.83	14.16	
2025-01-20 06:28:35.56	73.07	14.18	
2025-01-20 06:28:36.57	73.31	14.20	
2025-01-20 06:28:37.59	73.55	14.21	
2025-01-20 06:28:38.60	73.79	14.23	
2025-01-20 06:28:39.62	74.03	14.25	
2025-01-20 06:28:40.63	74.27	14.26	
2025-01-20 06:28:41.65	74.51	14.27	
2025-01-20 06:28:42.66	74.75	14.29	
2025-01-20 06:28:43.67	74.99	14.30	
2025-01-20 06:28:44.69	75.23	14.32	
2025-01-20 06:28:45.70	75.47	14.33	
2025-01-20 06:28:46.72	75.71	14.34	
2025-01-20 06:28:47.73	75.95	14.35	
2025-01-20 06:28:48.75	76.20	14.36	
2025-01-20 06:28:49.76	76.44	14.38	
2025-01-20 06:28:50.78	76.68	14.39	
2025-01-20 06:28:51.79	76.92	14.40	
2025-01-20 06:28:52.81	77.17	14.41	
2025-01-20 06:28:53.82	77.41	14.42	
2025-01-20 06:28:54.84	77.65	14.42	
2025-01-20 06:28:55.85	77.89	14.43	
2025-01-20 06:28:56.87	78.14	14.44	
2025-01-20 06:28:57.88	78.38	14.45	
2025-01-20 06:28:58.90	78.62	14.46	
2025-01-20 06:28:59.91	78.87	14.46	
2025-01-20 06:29:00.93	79.11	14.47	
2025-01-20 06:29:01.94	79.35	14.47	
2025-01-20 06:29:02.96	79.60	14.48	
2025-01-20 06:29:03.97	79.84	14.48	
2025-01-20 06:29:04.99	80.09	14.49	
2025-01-20 06:29:06.00	80.33	14.49	
2025-01-20 06:29:07.01	80.57	14.50	
2025-01-20 06:29:08.03	80.82	14.50	
2025-01-20 06:29:09.04	81.06	14.50	
2025-01-20 06:29:10.06	81.31	14.50	
2025-01-20 06:29:11.07	81.55	14.50	
2025-01-20 06:29:12.09	81.80	14.51	
2025-01-20 06:29:13.10	82.04	14.51	
2025-01-20 06:29:14.12	82.29	14.51	
2025-01-20 06:29:15.13	82.53	14.51	
2025-01-20 06:29:16.15	82.77	14.50	
2025-01-20 06:29:17.16	83.02	14.50	
2025-01-20 06:29:18.18	83.26	14.50	
2025-01-20 06:29:19.19	83.51	14.50	
2025-01-20 06:29:20.21	83.75	14.50	
2025-01-20 06:29:21.22	84.00	14.49	
2025-01-20 06:29:22.24	84.24	14.49	
2025-01-20 06:29:23.25	84.48	14.49	
2025-01-20 06:29:24.27	84.73	14.48	
2025-01-20 06:29:25.28	84.97	14.48	
2025-01-20 06:29:26.30	85.22	14.47	
2025-01-20 06:29:27.31	85.46	14.47	
2025-01-20 06:29:28.33	85.70	14.46	
2025-01-20 06:29:29.34	85.95	14.45	
2025-01-20 06:29:30.35	86.19	14.44	
2025-01-20 06:29:31.37	86.43	14.44	
2025-01-20 06:29:32.38	86.68	14.43	
2025-01-20 06:29:33.40	86.92	14.42	
2025-01-20 06:29:34.41	87.16	14.41	
2025-01-20 06:29:35.43	87.41	14.40	
2025-01-20 06:29:36.44	87.65	14.39	
2025-01-20 06:29:37.46	87.89	14.38	
2025-01-20 06:29:38.47	88.13	14.37	
2025-01-20 06:29:39.49	88.38	14.36	
2025-01-20 06:29:40.50	88.62	14.35	
2025-01-20 06:29:41.52	88.86	14.34	
2025-01-20 06:29:42.53	89.10	14.32	
2025-01-20 06:29:43.55	89.34	14.31	
2025-01-20 06:29:44.56	89.58	14.30	
2025-01-20 06:29:45.58	89.82	14.28	
2025-01-20 06:29:46.59	90.06	14.27	
2025-01-20 06:29:47.61	90.31	14.25	
2025-01-20 06:29:48.62	90.55	14.24	
2025-01-20 06:29:49.64	90.79	14.22	
2025-01-20 06:29:50.65	91.02	14.21	
2025-01-20 06:29:51.67	91.27	14.19	
2025-01-20 06:29:52.68	91.50	14.17	
2025-01-20 06:29:53.69	91.74	14.15	
2025-01-20 06:29:54.71	91.98	14.14	
2025-01-20 06:29:55.72	92.22	14.12	
2025-01-20 06:29:56.74	92.46	14.10	
2025-01-20 06:29:57.75	92.69	14.08	
2025-01-20 06:29:58.77	92.93	14.06	
2025-01-20 06:29:59.78	93.17	14.04	
2025-01-20 06:30:00.80	93.41	14.02	
2025-01-20 06:30:01.81	93.64	14.00	
2025-01-20 06:30:02.83	93.88	13.98	
2025-01-20 06:30:03.84	94.11	13.96	
2025-01-20 06:30:04.86	94.35	13.93	
2025-01-20 06:30:05.87	94.58	13.91	
2025-01-20 06:30:06.89	94.82	13.89	
2025-01-20 06:30:07.90	95.05	13.87	
2025-01-20 06:30:08.92	95.29	13.84	
2025-01-20 06:30:09.93	95.52	13.82	
2025-01-20 06:30:10.95	95.75	13.79	
2025-01-20 06:30:11.96	95.98	13.77	
2025-01-20 06:30:12.98	96.22	13.74	
2025-01-20 06:30:13.99	96.45	13.72	
2025-01-20 06:30:15.01	96.68	13.69	
2025-01-20 06:30:16.02	96.91	13.67	
2025-01-20 06:30:17.03	97.14	13.64	
2025-01-20 06:30:18.05	97.37	13.61	
2025-01-20 06:30:19.06	97.60	13.58	
2025-01-20 06:30:20.08	97.83	13.56	
2025-01-20 06:30:21.09	98.06	13.53	
2025-01-20 06:30:22.11	98.29	13.50	
2025-01-20 06:30:23.12	98.51	13.47	
2025-01-20 06:30:24.14	98.74	13.44	
2025-01-20 06:30:25.15	98.97	13.41	
2025-01-20 06:30:26.17	99.20	13.38	
2025-01-20 06:30:27.18	99.42	13.35	
2025-01-20 06:30:28.20	99.65	13.32	
2025-01-20 06:30:29.21	99.87	13.29	
2025-01-20 06:30:30.23	100.10	13.26	
2025-01-20 06:30:31.24	100.32	13.23	
2025-01-20 06:30:32.26	100.54	13.19	
2025-01-20 06:30:33.27	100.77	13.16	
2025-01-20 06:30:34.29	100.99	13.13	
2025-01-20 06:30:35.30	101.21	13.10	
2025-01-20 06:30:36.32	101.43	13.06	
2025-01-20 06:30:37.33	101.65	13.03	
2025-01-20 06:30:38.35	101.87	13.00	
2025-01-20 06:30:39.36	102.09	12.96	
2025-01-20 06:30:40.37	102.31	12.93	
2025-01-20 06:30:41.39	102.53	12.89	
2025-01-20 06:30:42.40	102.75	12.86	
2025-01-20 06:30:43.42	102.97	12.82	
2025-01-20 06:30:44.43	103.18	12.79	
2025-01-20 06:30:45.45	103.40	12.75	
2025-01-20 06:30:46.46	103.62	12.71	
2025-01-20 06:30:47.48	103.83	12.68	
2025-01-20 06:30:48.49	104.05	12.64	
2025-01-20 06:30:49.51	104.26	12.60	
2025-01-20 06:30:50.52	104.48	12.56	
2025-01-20 06:30:51.54	104.69	12.53	
2025-01-20 06:30:52.55	104.90	12.49	
2025-01-20 06:30:53.57	105.12	12.45	
2025-01-20 06:30:54.58	105.33	12.41	
2025-01-20 06:30:55.60	105.54	12.37	
2025-01-20 06:30:56.61	105.75	12.33	
2025-01-20 06:30:57.63	105.96	12.29	
2025-01-20 06:30:58.64	106.17	12.25	
2025-01-20 06:30:59.66	106.38	12.21	
2025-01-20 06:31:00.67	106.58	12.17	
2025-01-20 06:31:01.69	106.79	12.13	
2025-01-20 06:31:02.70	107.00	12.09	
2025-01-20 06:31:03.71	107.20	12.05	
2025-01-20 06:31:04.73	107.41	12.01	
2025-01-20 06:31:05.74	107.61	11.97	
2025-01-20 06:31:06.76	107.82	11.93	
2025-01-20 06:31:07.77	108.02	11.89	
2025-01-20 06:31:08.79	108.23	11.84	
2025-01-20 06:31:09.80	108.43	11.80	
2025-01-20 06:31:10.82	108.63	11.76	
2025-01-20 06:31:11.83	108.83	11.72	
2025-01-20 06:31:12.85	109.03	11.67	
2025-01-20 06:31:13.86	109.23	11.63	
2025-01-20 06:31:14.88	109.43	11.59	
2025-01-20 06:31:15.89	109.63	11.54	
2025-01-20 06:31:16.91	109.83	11.50	
2025-01-20 06:31:17.92	110.03	11.45	
2025-01-20 06:31:18.94	110.23	11.41	
2025-01-20 06:31:19.95	110.42	11.36	
2025-01-20 06:31:20.97	110.62	11.32	
2025-01-20 06:31:21.98	110.81	11.28	
2025-01-20 06:31:23.00	111.01	11.23	
2025-01-20 06:31:24.01	111.20	11.18	
2025-01-20 06:31:25.03	111.40	11.14	
2025-01-20 06:31:26.04	111.59	11.09	
2025-01-20 06:31:27.05	111.78	11.05	
2025-01-20 06:31:28.07	111.97	11.00	
2025-01-20 06:31:29.08	112.16	10.96	
2025-01-20 06:31:30.10	112.35	10.91	
2025-01-20 06:31:31.11	112.54	10.86	
2025-01-20 06:31:32.13	112.73	10.82	
2025-01-20 06:31:33.14	112.92	10.77	
2025-01-20 06:31:34.16	113.11	10.72	
2025-01-20 06:31:35.17	113.29	10.68	
2025-01-20 06:31:36.19	113.48	10.63	
2025-01-20 06:31:37.20	113.67	10.58	
2025-01-20 06:31:38.22	113.85	10.53	
2025-01-20 06:31:39.23	114.04	10.49	
2025-01-20 06:31:40.25	114.22	10.44	
2025-01-20 06:31:41.26	114.40	10.39	
2025-01-20 06:31:42.28	114.59	10.34	
2025-01-20 06:31:43.29	114.77	10.29	
2025-01-20 06:31:44.31	114.95	10.24	
2025-01-20 06:31:45.32	115.13	10.20	
2025-01-20 06:31:46.34	115.31	10.15	
2025-01-20 06:31:47.35	115.49	10.10	
2025-01-20 06:31:48.37	115.67	10.05	
2025-01-20 06:31:49.38	115.85	10.00	
2025-01-20 06:31:50.39	116.02	9.95	
2025-01-20 06:31:51.41	116.20	9.90	
2025-01-20 06:31:52.42	116.38	9.85	
2025-01-20 06:31:53.44	116.55	9.80	
2025-01-20 06:31:54.45	116.73	9.75	
2025-01-20 06:31:55.47	116.90	9.70	
2025-01-20 06:31:56.48	117.08	9.65	
2025-01-20 06:31:57.50	117.25	9.60	
2025-01-20 06:31:58.51	117.42	9.55	
2025-01-20 06:31:59.53	117.60	9.50	
2025-01-20 06:32:00.54	117.77	9.45	
2025-01-20 06:32:01.56	117.94	9.40	
2025-01-20 06:32:02.57	118.11	9.35	
2025-01-20 06:32:03.59	118.28	9.30	
2025-01-20 06:32:04.60	118.45	9.25	
2025-01-20 06:32:05.62	118.62	9.20	
2025-01-20 06:32:06.63	118.78	9.15	
2025-01-20 06:32:07.65	118.95	9.10	
2025-01-20 06:32:08.66	119.12	9.05	
2025-01-20 06:32:09.68	119.28	8.99	
2025-01-20 06:32:10.69	119.45	8.94	
2025-01-20 06:32:11.71	119.61	8.89	
2025-01-20 06:32:12.72	119.78	8.84	
2025-01-20 06:32:13.73	119.94	8.79	
2025-01-20 06:32:14.75	120.10	8.74	
2025-01-20 06:32:15.76	120.26	8.69	
2025-01-20 06:32:16.78	120.43	8.63	
2025-01-20 06:32:17.79	120.59	8.58	
2025-01-20 06:32:18.81	120.75	8.53	
2025-01-20 06:32:19.82	120.91	8.48	
2025-01-20 06:32:20.84	121.07	8.43	
2025-01-20 06:32:21.85	121.23	8.38	
2025-01-20 06:32:22.87	121.39	8.32	
2025-01-20 06:32:23.88	121.54	8.27	
2025-01-20 06:32:24.90	121.70	8.22	
2025-01-20 06:32:25.91	121.86	8.17	
2025-01-20 06:32:26.93	122.01	8.11	
2025-01-20 06:32:27.94	122.17	8.06	
2025-01-20 06:32:28.96	122.32	8.01	
2025-01-20 06:32:29.97	122.48	7.96	
2025-01-20 06:32:30.99	122.63	7.90	
2025-01-20 06:32:32.00	122.78	7.85	
2025-01-20 06:32:33.02	122.93	7.80	
2025-01-20 06:32:34.03	123.09	7.75	
2025-01-20 06:32:35.05	123.24	7.69	
2025-01-20 06:32:36.06	123.39	7.64	
2025-01-20 06:32:37.07	123.54	7.59	
2025-01-20 06:32:38.09	123.69	7.54	
2025-01-20 06:32:39.10	123.83	7.48	
2025-01-20 06:32:40.12	123.98	7.43	
2025-01-20 06:32:41.13	124.13	7.38	
2025-01-20 06:32:42.15	124.28	7.32	
2025-01-20 06:32:43.16	124.42	7.27	
2025-01-20 06:32:44.18	124.57	7.22	
2025-01-20 06:32:45.19	124.72	7.17	
2025-01-20 06:32:46.21	124.86	7.11	
2025-01-20 06:32:47.22	125.01	7.06	
2025-01-20 06:32:48.24	125.15	7.01	
2025-01-20 06:32:49.25	125.29	6.95	
2025-01-20 06:32:50.27	125.44	6.90	
2025-01-20 06:32:51.28	125.58	6.85	
2025-01-20 06:32:52.30	125.72	6.79	
2025-01-20 06:32:53.31	125.86	6.74	
2025-01-20 06:32:54.33	126.00	6.69	
2025-01-20 06:32:55.34	126.14	6.64	
2025-01-20 06:32:56.36	126.28	6.58	
2025-01-20 06:32:57.37	126.42	6.53	
2025-01-20 06:32:58.39	126.56	6.48	
2025-01-20 06:32:59.40	126.70	6.42	
2025-01-20 06:33:00.41	126.83	6.37	
2025-01-20 06:33:01.43	126.97	6.32	
2025-01-20 06:33:02.44	127.11	6.26	
2025-01-20 06:33:03.46	127.24	6.21	
2025-01-20 06:33:04.47	127.38	6.16	
2025-01-20 06:33:05.49	127.51	6.10	
2025-01-20 06:33:06.50	127.65	6.05	
2025-01-20 06:33:07.52	127.78	6.00	
2025-01-20 06:33:08.53	127.91	5.94	
2025-01-20 06:33:09.55	128.05	5.89	
2025-01-20 06:33:10.56	128.18	5.84	
2025-01-20 06:33:11.58	128.31	5.78	
2025-01-20 06:33:12.59	128.44	5.73	
2025-01-20 06:33:13.61	128.57	5.68	
2025-01-20 06:33:14.62	128.70	5.62	
2025-01-20 06:33:15.64	128.83	5.57	
2025-01-20 06:33:16.65	128.96	5.52	
2025-01-20 06:33:17.67	129.09	5.46	
2025-01-20 06:33:18.68	129.22	5.41	
2025-01-20 06:33:19.70	129.35	5.36	
2025-01-20 06:33:20.71	129.47	5.30	
2025-01-20 06:33:21.73	129.60	5.25	
2025-01-20 06:33:22.74	129.73	5.20	
2025-01-20 06:33:23.75	129.85	5.14	
2025-01-20 06:33:24.77	129.98	5.09	
2025-01-20 06:33:25.78	130.10	5.04	
2025-01-20 06:33:26.80	130.23	4.98	
2025-01-20 06:33:27.81	130.35	4.93	
2025-01-20 06:33:28.83	130.47	4.88	
2025-01-20 06:33:29.84	130.60	4.83	
2025-01-20 06:33:30.86	130.72	4.77	
2025-01-20 06:33:31.87	130.84	4.72	
2025-01-20 06:33:32.89	130.96	4.67	
2025-01-20 06:33:33.90	131.08	4.61	
2025-01-20 06:33:34.92	131.20	4.56	
2025-01-20 06:33:35.93	131.32	4.51	
2025-01-20 06:33:36.95	131.44	4.45	
2025-01-20 06:33:37.96	131.56	4.40	
2025-01-20 06:33:38.98	131.68	4.35	
2025-01-20 06:33:39.99	131.80	4.30	
2025-01-20 06:33:41.01	131.92	4.24	
2025-01-20 06:33:42.02	132.04	4.19	
2025-01-20 06:33:43.04	132.15	4.14	
2025-01-20 06:33:44.05	132.27	4.08	
2025-01-20 06:33:45.07	132.39	4.03	

#Closed at: 2025-01-20 06:33:45