passes_logs/2025/01/20/SPB_Silybum_02/SPB_Silybum_02__20250120_082301_AQUA_rec.log

#Pass ID: 20250120_082301_AQUA
#Satellite: AQUA
#Configuration: AQUA
#Start time: 2025-01-20 08:23:02

#Version: 2.0.20230423
#Station: SPB_Silybum_02
#Location: 30.233357 lon 59.946436 lat
#TLE: 1 27424U 02022A   25019.86270051  .00002463  00000+0  51518-3 0  9998
#TLE: 2 27424  98.3596 336.5709 0001915 106.8361 278.0854 14.60706016208336

#Time	Az	El	Level	Level2	SNR	BER	Gain	Gain2
2025-01-20 08:23:04.42	66.26	4.11	
2025-01-20 08:23:05.23	66.16	4.14	
2025-01-20 08:23:06.05	66.05	4.18	
2025-01-20 08:23:06.86	65.94	4.21	
2025-01-20 08:23:07.67	65.83	4.25	
2025-01-20 08:23:08.48	65.72	4.28	
2025-01-20 08:23:09.29	65.61	4.31	
2025-01-20 08:23:10.11	65.50	4.35	
2025-01-20 08:23:10.92	65.39	4.38	
2025-01-20 08:23:11.73	65.28	4.42	
2025-01-20 08:23:12.54	65.17	4.45	
2025-01-20 08:23:13.36	65.05	4.48	
2025-01-20 08:23:14.17	64.94	4.52	
2025-01-20 08:23:14.98	64.83	4.55	
2025-01-20 08:23:15.79	64.72	4.59	
2025-01-20 08:23:16.61	64.61	4.62	
2025-01-20 08:23:17.42	64.49	4.65	
2025-01-20 08:23:18.23	64.38	4.69	
2025-01-20 08:23:19.04	64.27	4.72	
2025-01-20 08:23:19.86	64.15	4.75	
2025-01-20 08:23:20.67	64.04	4.79	
2025-01-20 08:23:21.48	63.93	4.82	
2025-01-20 08:23:22.29	63.81	4.85	
2025-01-20 08:23:23.10	63.70	4.89	
2025-01-20 08:23:23.92	63.58	4.92	
2025-01-20 08:23:24.73	63.47	4.95	
2025-01-20 08:23:25.54	63.35	4.99	
2025-01-20 08:23:26.35	63.23	5.02	
2025-01-20 08:23:27.17	63.12	5.05	
2025-01-20 08:23:27.98	63.00	5.09	
2025-01-20 08:23:28.79	62.88	5.12	
2025-01-20 08:23:29.60	62.77	5.15	
2025-01-20 08:23:30.42	62.65	5.19	
2025-01-20 08:23:31.23	62.53	5.22	
2025-01-20 08:23:32.04	62.41	5.25	
2025-01-20 08:23:32.85	62.30	5.28	
2025-01-20 08:23:33.66	62.18	5.32	
2025-01-20 08:23:34.48	62.06	5.35	
2025-01-20 08:23:35.29	61.94	5.38	
2025-01-20 08:23:36.10	61.82	5.41	
2025-01-20 08:23:36.91	61.70	5.45	
2025-01-20 08:23:37.73	61.58	5.48	
2025-01-20 08:23:38.54	61.46	5.51	
2025-01-20 08:23:39.35	61.34	5.54	
2025-01-20 08:23:40.16	61.22	5.57	
2025-01-20 08:23:40.98	61.10	5.61	
2025-01-20 08:23:41.79	60.97	5.64	
2025-01-20 08:23:42.60	60.85	5.67	
2025-01-20 08:23:43.41	60.73	5.70	
2025-01-20 08:23:44.23	60.61	5.73	
2025-01-20 08:23:45.04	60.49	5.77	
2025-01-20 08:23:45.85	60.36	5.80	
2025-01-20 08:23:46.66	60.24	5.83	
2025-01-20 08:23:47.47	60.12	5.86	
2025-01-20 08:23:48.29	59.99	5.89	
2025-01-20 08:23:49.10	59.87	5.92	
2025-01-20 08:23:49.91	59.74	5.95	
2025-01-20 08:23:50.72	59.62	5.98	
2025-01-20 08:23:51.54	59.49	6.02	
2025-01-20 08:23:52.35	59.37	6.05	
2025-01-20 08:23:53.16	59.24	6.08	
2025-01-20 08:23:53.97	59.12	6.11	
2025-01-20 08:23:54.79	58.99	6.14	
2025-01-20 08:23:55.60	58.86	6.17	
2025-01-20 08:23:56.41	58.74	6.20	
2025-01-20 08:23:57.22	58.61	6.23	
2025-01-20 08:23:58.03	58.48	6.26	
2025-01-20 08:23:58.85	58.35	6.29	
2025-01-20 08:23:59.66	58.23	6.32	
2025-01-20 08:24:00.47	58.10	6.35	
2025-01-20 08:24:01.28	57.97	6.38	
2025-01-20 08:24:02.10	57.84	6.41	
2025-01-20 08:24:02.91	57.71	6.44	
2025-01-20 08:24:03.72	57.58	6.47	
2025-01-20 08:24:04.53	57.45	6.50	
2025-01-20 08:24:05.35	57.32	6.53	
2025-01-20 08:24:06.16	57.19	6.56	
2025-01-20 08:24:06.97	57.06	6.59	
2025-01-20 08:24:07.78	56.93	6.62	
2025-01-20 08:24:08.60	56.80	6.65	
2025-01-20 08:24:09.41	56.67	6.68	
2025-01-20 08:24:10.22	56.54	6.71	
2025-01-20 08:24:11.03	56.40	6.74	
2025-01-20 08:24:11.84	56.27	6.76	
2025-01-20 08:24:12.66	56.14	6.79	
2025-01-20 08:24:13.47	56.01	6.82	
2025-01-20 08:24:14.28	55.87	6.85	
2025-01-20 08:24:15.09	55.74	6.88	
2025-01-20 08:24:15.91	55.60	6.91	
2025-01-20 08:24:16.72	55.47	6.94	
2025-01-20 08:24:17.53	55.34	6.96	
2025-01-20 08:24:18.34	55.20	6.99	
2025-01-20 08:24:19.16	55.07	7.02	
2025-01-20 08:24:19.97	54.93	7.05	
2025-01-20 08:24:20.78	54.80	7.08	
2025-01-20 08:24:21.59	54.66	7.10	
2025-01-20 08:24:22.40	54.53	7.13	
2025-01-20 08:24:23.22	54.39	7.16	
2025-01-20 08:24:24.03	54.25	7.18	
2025-01-20 08:24:24.84	54.12	7.21	
2025-01-20 08:24:25.65	53.98	7.24	
2025-01-20 08:24:26.47	53.84	7.27	
2025-01-20 08:24:27.28	53.70	7.29	
2025-01-20 08:24:28.09	53.56	7.32	
2025-01-20 08:24:28.90	53.43	7.35	
2025-01-20 08:24:29.72	53.29	7.37	
2025-01-20 08:24:30.53	53.15	7.40	
2025-01-20 08:24:31.34	53.01	7.43	
2025-01-20 08:24:32.15	52.87	7.45	
2025-01-20 08:24:32.97	52.73	7.48	
2025-01-20 08:24:33.78	52.59	7.50	
2025-01-20 08:24:34.59	52.45	7.53	
2025-01-20 08:24:35.40	52.31	7.55	
2025-01-20 08:24:36.21	52.17	7.58	
2025-01-20 08:24:37.03	52.03	7.61	
2025-01-20 08:24:37.84	51.89	7.63	
2025-01-20 08:24:38.65	51.75	7.66	
2025-01-20 08:24:39.46	51.60	7.68	
2025-01-20 08:24:40.28	51.46	7.71	
2025-01-20 08:24:41.09	51.32	7.73	
2025-01-20 08:24:41.90	51.18	7.76	
2025-01-20 08:24:42.71	51.03	7.78	
2025-01-20 08:24:43.53	50.89	7.80	
2025-01-20 08:24:44.34	50.75	7.83	
2025-01-20 08:24:45.15	50.60	7.85	
2025-01-20 08:24:45.96	50.46	7.88	
2025-01-20 08:24:46.77	50.32	7.90	
2025-01-20 08:24:47.59	50.17	7.92	
2025-01-20 08:24:48.40	50.03	7.95	
2025-01-20 08:24:49.21	49.88	7.97	
2025-01-20 08:24:50.02	49.74	7.99	
2025-01-20 08:24:50.84	49.59	8.02	
2025-01-20 08:24:51.65	49.44	8.04	
2025-01-20 08:24:52.46	49.30	8.06	
2025-01-20 08:24:53.27	49.15	8.09	
2025-01-20 08:24:54.09	49.01	8.11	
2025-01-20 08:24:54.90	48.86	8.13	
2025-01-20 08:24:55.71	48.71	8.15	
2025-01-20 08:24:56.52	48.57	8.18	
2025-01-20 08:24:57.34	48.42	8.20	
2025-01-20 08:24:58.15	48.27	8.22	
2025-01-20 08:24:58.96	48.12	8.24	
2025-01-20 08:24:59.77	47.97	8.26	
2025-01-20 08:25:00.58	47.83	8.28	
2025-01-20 08:25:01.40	47.68	8.31	
2025-01-20 08:25:02.21	47.53	8.33	
2025-01-20 08:25:03.02	47.38	8.35	
2025-01-20 08:25:03.83	47.23	8.37	
2025-01-20 08:25:04.65	47.08	8.39	
2025-01-20 08:25:05.46	46.93	8.41	
2025-01-20 08:25:06.27	46.78	8.43	
2025-01-20 08:25:07.08	46.63	8.45	
2025-01-20 08:25:07.90	46.48	8.47	
2025-01-20 08:25:08.71	46.33	8.49	
2025-01-20 08:25:09.52	46.18	8.51	
2025-01-20 08:25:10.33	46.03	8.53	
2025-01-20 08:25:11.15	45.87	8.55	
2025-01-20 08:25:11.96	45.72	8.57	
2025-01-20 08:25:12.77	45.57	8.59	
2025-01-20 08:25:13.58	45.42	8.60	
2025-01-20 08:25:14.39	45.27	8.62	
2025-01-20 08:25:15.21	45.11	8.64	
2025-01-20 08:25:16.02	44.96	8.66	
2025-01-20 08:25:16.83	44.81	8.68	
2025-01-20 08:25:17.64	44.66	8.70	
2025-01-20 08:25:18.46	44.50	8.71	
2025-01-20 08:25:19.27	44.35	8.73	
2025-01-20 08:25:20.08	44.20	8.75	
2025-01-20 08:25:20.89	44.04	8.77	
2025-01-20 08:25:21.71	43.89	8.78	
2025-01-20 08:25:22.52	43.73	8.80	
2025-01-20 08:25:23.33	43.58	8.82	
2025-01-20 08:25:24.14	43.42	8.83	
2025-01-20 08:25:24.95	43.27	8.85	
2025-01-20 08:25:25.77	43.11	8.87	
2025-01-20 08:25:26.58	42.96	8.88	
2025-01-20 08:25:27.39	42.80	8.90	
2025-01-20 08:25:28.20	42.65	8.92	
2025-01-20 08:25:29.02	42.49	8.93	
2025-01-20 08:25:29.83	42.34	8.95	
2025-01-20 08:25:30.64	42.18	8.96	
2025-01-20 08:25:31.45	42.02	8.98	
2025-01-20 08:25:32.27	41.87	8.99	
2025-01-20 08:25:33.08	41.71	9.01	
2025-01-20 08:25:33.90	41.55	9.02	
2025-01-20 08:25:34.71	41.39	9.04	
2025-01-20 08:25:35.53	41.24	9.05	
2025-01-20 08:25:36.34	41.08	9.06	
2025-01-20 08:25:37.15	40.92	9.08	
2025-01-20 08:25:37.96	40.77	9.09	
2025-01-20 08:25:38.78	40.61	9.10	
2025-01-20 08:25:39.59	40.45	9.12	
2025-01-20 08:25:40.40	40.29	9.13	
2025-01-20 08:25:41.21	40.13	9.14	
2025-01-20 08:25:42.03	39.97	9.16	
2025-01-20 08:25:42.84	39.81	9.17	
2025-01-20 08:25:43.65	39.66	9.18	
2025-01-20 08:25:44.46	39.50	9.19	
2025-01-20 08:25:45.27	39.34	9.21	
2025-01-20 08:25:46.09	39.18	9.22	
2025-01-20 08:25:46.90	39.02	9.23	
2025-01-20 08:25:47.71	38.86	9.24	
2025-01-20 08:25:48.52	38.70	9.25	
2025-01-20 08:25:49.34	38.54	9.26	
2025-01-20 08:25:50.15	38.38	9.27	
2025-01-20 08:25:50.96	38.22	9.28	
2025-01-20 08:25:51.77	38.06	9.29	
2025-01-20 08:25:52.59	37.90	9.30	
2025-01-20 08:25:53.40	37.74	9.31	
2025-01-20 08:25:54.21	37.58	9.32	
2025-01-20 08:25:55.02	37.42	9.33	
2025-01-20 08:25:55.84	37.26	9.34	
2025-01-20 08:25:56.65	37.10	9.35	
2025-01-20 08:25:57.46	36.94	9.36	
2025-01-20 08:25:58.27	36.78	9.37	
2025-01-20 08:25:59.08	36.62	9.38	
2025-01-20 08:25:59.90	36.45	9.39	
2025-01-20 08:26:00.71	36.29	9.39	
2025-01-20 08:26:01.52	36.13	9.40	
2025-01-20 08:26:02.33	35.97	9.41	
2025-01-20 08:26:03.15	35.81	9.42	
2025-01-20 08:26:03.96	35.65	9.43	
2025-01-20 08:26:04.77	35.48	9.43	
2025-01-20 08:26:05.58	35.32	9.44	
2025-01-20 08:26:06.40	35.16	9.45	
2025-01-20 08:26:07.21	35.00	9.45	
2025-01-20 08:26:08.02	34.84	9.46	
2025-01-20 08:26:08.83	34.68	9.47	
2025-01-20 08:26:09.64	34.51	9.47	
2025-01-20 08:26:10.46	34.35	9.48	
2025-01-20 08:26:11.27	34.19	9.48	
2025-01-20 08:26:12.08	34.03	9.49	
2025-01-20 08:26:12.89	33.86	9.49	
2025-01-20 08:26:13.71	33.70	9.50	
2025-01-20 08:26:14.52	33.54	9.50	
2025-01-20 08:26:15.33	33.38	9.51	
2025-01-20 08:26:16.14	33.21	9.51	
2025-01-20 08:26:16.96	33.05	9.52	
2025-01-20 08:26:17.77	32.89	9.52	
2025-01-20 08:26:18.58	32.72	9.52	
2025-01-20 08:26:19.39	32.56	9.53	
2025-01-20 08:26:20.21	32.40	9.53	
2025-01-20 08:26:21.02	32.23	9.53	
2025-01-20 08:26:21.83	32.07	9.54	
2025-01-20 08:26:22.64	31.91	9.54	
2025-01-20 08:26:23.45	31.75	9.54	
2025-01-20 08:26:24.27	31.58	9.54	
2025-01-20 08:26:25.08	31.42	9.54	
2025-01-20 08:26:25.89	31.26	9.55	
2025-01-20 08:26:26.70	31.09	9.55	
2025-01-20 08:26:27.52	30.93	9.55	
2025-01-20 08:26:28.33	30.77	9.55	
2025-01-20 08:26:29.14	30.60	9.55	
2025-01-20 08:26:29.95	30.44	9.55	
2025-01-20 08:26:30.77	30.28	9.55	
2025-01-20 08:26:31.58	30.11	9.55	
2025-01-20 08:26:32.39	29.95	9.55	
2025-01-20 08:26:33.20	29.79	9.55	
2025-01-20 08:26:34.01	29.63	9.55	
2025-01-20 08:26:34.83	29.46	9.55	
2025-01-20 08:26:35.64	29.30	9.55	
2025-01-20 08:26:36.45	29.14	9.55	
2025-01-20 08:26:37.26	28.97	9.55	
2025-01-20 08:26:38.08	28.81	9.55	
2025-01-20 08:26:38.89	28.65	9.55	
2025-01-20 08:26:39.70	28.48	9.55	
2025-01-20 08:26:40.51	28.32	9.54	
2025-01-20 08:26:41.33	28.16	9.54	
2025-01-20 08:26:42.14	27.99	9.54	
2025-01-20 08:26:42.95	27.83	9.54	
2025-01-20 08:26:43.76	27.67	9.53	
2025-01-20 08:26:44.58	27.50	9.53	
2025-01-20 08:26:45.39	27.34	9.53	
2025-01-20 08:26:46.20	27.18	9.52	
2025-01-20 08:26:47.01	27.02	9.52	
2025-01-20 08:26:47.82	26.85	9.52	
2025-01-20 08:26:48.64	26.69	9.51	
2025-01-20 08:26:49.45	26.53	9.51	
2025-01-20 08:26:50.26	26.37	9.50	
2025-01-20 08:26:51.07	26.20	9.50	
2025-01-20 08:26:51.89	26.04	9.49	
2025-01-20 08:26:52.70	25.88	9.49	
2025-01-20 08:26:53.51	25.72	9.48	
2025-01-20 08:26:54.32	25.55	9.48	
2025-01-20 08:26:55.14	25.39	9.47	
2025-01-20 08:26:55.95	25.23	9.47	
2025-01-20 08:26:56.76	25.07	9.46	
2025-01-20 08:26:57.57	24.90	9.45	
2025-01-20 08:26:58.39	24.74	9.45	
2025-01-20 08:26:59.20	24.58	9.44	
2025-01-20 08:27:00.01	24.42	9.43	
2025-01-20 08:27:00.82	24.26	9.43	
2025-01-20 08:27:01.63	24.10	9.42	
2025-01-20 08:27:02.45	23.93	9.41	
2025-01-20 08:27:03.26	23.77	9.40	
2025-01-20 08:27:04.07	23.61	9.40	
2025-01-20 08:27:04.88	23.45	9.39	
2025-01-20 08:27:05.70	23.29	9.38	
2025-01-20 08:27:06.51	23.13	9.37	
2025-01-20 08:27:07.32	22.97	9.36	
2025-01-20 08:27:08.13	22.81	9.35	
2025-01-20 08:27:08.95	22.64	9.34	
2025-01-20 08:27:09.76	22.48	9.34	
2025-01-20 08:27:10.57	22.32	9.33	
2025-01-20 08:27:11.38	22.16	9.32	
2025-01-20 08:27:12.19	22.00	9.31	
2025-01-20 08:27:13.01	21.84	9.30	
2025-01-20 08:27:13.82	21.68	9.29	
2025-01-20 08:27:14.63	21.52	9.28	
2025-01-20 08:27:15.44	21.37	9.26	
2025-01-20 08:27:16.26	21.20	9.25	
2025-01-20 08:27:17.07	21.04	9.24	
2025-01-20 08:27:17.88	20.89	9.23	
2025-01-20 08:27:18.69	20.73	9.22	
2025-01-20 08:27:19.51	20.57	9.21	
2025-01-20 08:27:20.32	20.41	9.20	
2025-01-20 08:27:21.13	20.25	9.18	
2025-01-20 08:27:21.94	20.09	9.17	
2025-01-20 08:27:22.76	19.93	9.16	
2025-01-20 08:27:23.57	19.77	9.15	
2025-01-20 08:27:24.38	19.62	9.13	
2025-01-20 08:27:25.19	19.46	9.12	
2025-01-20 08:27:26.00	19.30	9.11	
2025-01-20 08:27:26.82	19.14	9.09	
2025-01-20 08:27:27.63	18.99	9.08	
2025-01-20 08:27:28.44	18.83	9.07	
2025-01-20 08:27:29.25	18.67	9.05	
2025-01-20 08:27:30.07	18.51	9.04	
2025-01-20 08:27:30.88	18.36	9.03	
2025-01-20 08:27:31.69	18.20	9.01	
2025-01-20 08:27:32.50	18.04	9.00	
2025-01-20 08:27:33.32	17.89	8.98	
2025-01-20 08:27:34.13	17.73	8.97	
2025-01-20 08:27:34.94	17.58	8.95	
2025-01-20 08:27:35.75	17.42	8.94	
2025-01-20 08:27:36.56	17.26	8.92	
2025-01-20 08:27:37.38	17.11	8.90	
2025-01-20 08:27:38.19	16.95	8.89	
2025-01-20 08:27:39.00	16.80	8.87	
2025-01-20 08:27:39.81	16.64	8.86	
2025-01-20 08:27:40.63	16.49	8.84	
2025-01-20 08:27:41.44	16.33	8.82	
2025-01-20 08:27:42.25	16.18	8.81	
2025-01-20 08:27:43.06	16.03	8.79	
2025-01-20 08:27:43.88	15.87	8.77	
2025-01-20 08:27:44.69	15.72	8.75	
2025-01-20 08:27:45.50	15.56	8.74	
2025-01-20 08:27:46.31	15.41	8.72	
2025-01-20 08:27:47.13	15.26	8.70	
2025-01-20 08:27:47.94	15.10	8.68	
2025-01-20 08:27:48.75	14.95	8.67	
2025-01-20 08:27:49.56	14.80	8.65	
2025-01-20 08:27:50.37	14.65	8.63	
2025-01-20 08:27:51.19	14.50	8.61	
2025-01-20 08:27:52.00	14.34	8.59	
2025-01-20 08:27:52.81	14.19	8.57	
2025-01-20 08:27:53.62	14.04	8.55	
2025-01-20 08:27:54.44	13.89	8.53	
2025-01-20 08:27:55.25	13.74	8.51	
2025-01-20 08:27:56.06	13.59	8.50	
2025-01-20 08:27:56.87	13.44	8.48	
2025-01-20 08:27:57.69	13.29	8.46	
2025-01-20 08:27:58.50	13.14	8.44	
2025-01-20 08:27:59.31	12.99	8.42	
2025-01-20 08:28:00.12	12.84	8.39	
2025-01-20 08:28:00.93	12.69	8.37	
2025-01-20 08:28:01.75	12.54	8.35	
2025-01-20 08:28:02.56	12.39	8.33	
2025-01-20 08:28:03.37	12.24	8.31	
2025-01-20 08:28:04.18	12.09	8.29	
2025-01-20 08:28:05.00	11.94	8.27	
2025-01-20 08:28:05.81	11.80	8.25	
2025-01-20 08:28:06.62	11.65	8.23	
2025-01-20 08:28:07.43	11.50	8.20	
2025-01-20 08:28:08.25	11.35	8.18	
2025-01-20 08:28:09.06	11.21	8.16	
2025-01-20 08:28:09.87	11.06	8.14	
2025-01-20 08:28:10.68	10.92	8.12	
2025-01-20 08:28:11.50	10.77	8.09	
2025-01-20 08:28:12.31	10.62	8.07	
2025-01-20 08:28:13.12	10.48	8.05	
2025-01-20 08:28:13.93	10.33	8.02	
2025-01-20 08:28:14.74	10.19	8.00	
2025-01-20 08:28:15.56	10.04	7.98	
2025-01-20 08:28:16.37	9.90	7.96	
2025-01-20 08:28:17.18	9.75	7.93	
2025-01-20 08:28:17.99	9.61	7.91	
2025-01-20 08:28:18.81	9.46	7.88	
2025-01-20 08:28:19.62	9.32	7.86	
2025-01-20 08:28:20.43	9.18	7.84	
2025-01-20 08:28:21.24	9.03	7.81	
2025-01-20 08:28:22.06	8.89	7.79	
2025-01-20 08:28:22.87	8.75	7.76	
2025-01-20 08:28:23.68	8.61	7.74	
2025-01-20 08:28:24.49	8.46	7.71	
2025-01-20 08:28:25.30	8.32	7.69	
2025-01-20 08:28:26.12	8.18	7.66	
2025-01-20 08:28:26.93	8.04	7.64	
2025-01-20 08:28:27.74	7.90	7.61	
2025-01-20 08:28:28.55	7.76	7.59	
2025-01-20 08:28:29.37	7.62	7.56	
2025-01-20 08:28:30.18	7.48	7.54	
2025-01-20 08:28:30.99	7.34	7.51	
2025-01-20 08:28:31.80	7.20	7.49	
2025-01-20 08:28:32.62	7.06	7.46	
2025-01-20 08:28:33.43	6.92	7.43	
2025-01-20 08:28:34.24	6.78	7.41	
2025-01-20 08:28:35.05	6.64	7.38	
2025-01-20 08:28:35.87	6.50	7.36	
2025-01-20 08:28:36.68	6.37	7.33	
2025-01-20 08:28:37.49	6.23	7.30	
2025-01-20 08:28:38.30	6.09	7.28	
2025-01-20 08:28:39.11	5.95	7.25	
2025-01-20 08:28:39.93	5.82	7.22	
2025-01-20 08:28:40.74	5.68	7.19	
2025-01-20 08:28:41.55	5.54	7.17	
2025-01-20 08:28:42.36	5.41	7.14	
2025-01-20 08:28:43.18	5.27	7.11	
2025-01-20 08:28:43.99	5.14	7.08	
2025-01-20 08:28:44.80	5.00	7.06	
2025-01-20 08:28:45.61	4.87	7.03	
2025-01-20 08:28:46.43	4.73	7.00	
2025-01-20 08:28:47.24	4.60	6.97	
2025-01-20 08:28:48.05	4.46	6.95	
2025-01-20 08:28:48.86	4.33	6.92	
2025-01-20 08:28:49.67	4.20	6.89	
2025-01-20 08:28:50.49	4.06	6.86	
2025-01-20 08:28:51.30	3.93	6.83	
2025-01-20 08:28:52.11	3.80	6.80	
2025-01-20 08:28:52.92	3.67	6.78	
2025-01-20 08:28:53.74	3.53	6.75	
2025-01-20 08:28:54.55	3.40	6.72	
2025-01-20 08:28:55.36	3.27	6.69	
2025-01-20 08:28:56.17	3.14	6.66	
2025-01-20 08:28:56.99	3.01	6.63	
2025-01-20 08:28:57.80	2.88	6.60	
2025-01-20 08:28:58.61	2.75	6.57	
2025-01-20 08:28:59.42	2.62	6.54	
2025-01-20 08:29:00.24	2.49	6.51	
2025-01-20 08:29:01.05	2.36	6.48	
2025-01-20 08:29:01.86	2.23	6.45	
2025-01-20 08:29:02.67	2.10	6.42	
2025-01-20 08:29:03.48	1.97	6.39	
2025-01-20 08:29:04.30	1.84	6.36	
2025-01-20 08:29:05.11	1.72	6.33	
2025-01-20 08:29:05.92	1.59	6.30	
2025-01-20 08:29:06.73	1.46	6.27	
2025-01-20 08:29:07.55	1.33	6.24	
2025-01-20 08:29:08.36	1.21	6.21	
2025-01-20 08:29:09.17	1.08	6.18	
2025-01-20 08:29:09.98	0.95	6.15	
2025-01-20 08:29:10.80	0.83	6.12	
2025-01-20 08:29:11.61	0.70	6.09	
2025-01-20 08:29:12.42	0.58	6.06	
2025-01-20 08:29:13.23	0.45	6.03	
2025-01-20 08:29:14.05	0.33	6.00	
2025-01-20 08:29:14.86	0.20	5.97	
2025-01-20 08:29:15.67	0.08	5.93	
2025-01-20 08:29:16.48	359.96	5.90	
2025-01-20 08:29:17.29	359.83	5.87	
2025-01-20 08:29:18.11	359.71	5.84	
2025-01-20 08:29:18.92	359.59	5.81	
2025-01-20 08:29:19.73	359.46	5.78	
2025-01-20 08:29:20.54	359.34	5.75	
2025-01-20 08:29:21.36	359.22	5.71	
2025-01-20 08:29:22.17	359.10	5.68	
2025-01-20 08:29:22.98	358.98	5.65	
2025-01-20 08:29:23.79	358.85	5.62	
2025-01-20 08:29:24.61	358.73	5.59	
2025-01-20 08:29:25.42	358.61	5.56	
2025-01-20 08:29:26.23	358.49	5.52	
2025-01-20 08:29:27.04	358.37	5.49	
2025-01-20 08:29:27.85	358.25	5.46	
2025-01-20 08:29:28.67	358.13	5.43	
2025-01-20 08:29:29.48	358.01	5.39	
2025-01-20 08:29:30.29	357.90	5.36	
2025-01-20 08:29:31.10	357.78	5.33	
2025-01-20 08:29:31.92	357.66	5.30	
2025-01-20 08:29:32.73	357.54	5.26	
2025-01-20 08:29:33.54	357.42	5.23	
2025-01-20 08:29:34.35	357.31	5.20	
2025-01-20 08:29:35.17	357.19	5.17	
2025-01-20 08:29:35.98	357.07	5.13	
2025-01-20 08:29:36.79	356.96	5.10	
2025-01-20 08:29:37.60	356.84	5.07	
2025-01-20 08:29:38.42	356.72	5.03	
2025-01-20 08:29:39.23	356.61	5.00	
2025-01-20 08:29:40.04	356.49	4.97	
2025-01-20 08:29:40.85	356.38	4.94	
2025-01-20 08:29:41.66	356.26	4.90	
2025-01-20 08:29:42.48	356.15	4.87	
2025-01-20 08:29:43.29	356.03	4.84	
2025-01-20 08:29:44.10	355.92	4.80	
2025-01-20 08:29:44.91	355.81	4.77	
2025-01-20 08:29:45.73	355.69	4.74	
2025-01-20 08:29:46.54	355.58	4.70	
2025-01-20 08:29:47.35	355.47	4.67	
2025-01-20 08:29:48.16	355.36	4.63	
2025-01-20 08:29:48.98	355.24	4.60	
2025-01-20 08:29:49.79	355.13	4.57	
2025-01-20 08:29:50.60	355.02	4.53	
2025-01-20 08:29:51.41	354.91	4.50	
2025-01-20 08:29:52.22	354.80	4.47	
2025-01-20 08:29:53.04	354.69	4.43	
2025-01-20 08:29:53.85	354.58	4.40	
2025-01-20 08:29:54.66	354.47	4.36	
2025-01-20 08:29:55.47	354.36	4.33	
2025-01-20 08:29:56.29	354.25	4.30	
2025-01-20 08:29:57.10	354.14	4.26	
2025-01-20 08:29:57.91	354.03	4.23	
2025-01-20 08:29:58.72	353.92	4.19	
2025-01-20 08:29:59.54	353.81	4.16	
2025-01-20 08:30:00.35	353.70	4.12	
2025-01-20 08:30:01.16	353.60	4.09	
2025-01-20 08:30:01.97	353.49	4.06	
2025-01-20 08:30:02.79	353.38	4.02	

#Closed at: 2025-01-20 08:30:03