passes_logs/2025/01/20/SPB_Silybum_02/SPB_Silybum_02__20250120_033534_AQUA_rec.log

#Pass ID: 20250120_033534_AQUA
#Satellite: AQUA
#Configuration: AQUA
#Start time: 2025-01-20 03:35:32

#Version: 2.0.20230423
#Station: SPB_Silybum_02
#Location: 30.233357 lon 59.946436 lat
#TLE: 1 27424U 02022A   25019.18388060  .00002377  00000+0  49769-3 0  9992
#TLE: 2 27424  98.3597 335.8858 0001894 107.4419 309.9907 14.60702162208231

#Time	Az	El	Level	Level2	SNR	BER	Gain	Gain2
2025-01-20 03:35:34.86	8.74	4.04	
2025-01-20 03:35:35.88	8.64	4.10	
2025-01-20 03:35:36.89	8.53	4.16	
2025-01-20 03:35:37.91	8.42	4.21	
2025-01-20 03:35:38.92	8.32	4.27	
2025-01-20 03:35:39.94	8.21	4.32	
2025-01-20 03:35:40.95	8.10	4.38	
2025-01-20 03:35:41.97	7.99	4.44	
2025-01-20 03:35:42.98	7.88	4.49	
2025-01-20 03:35:43.99	7.77	4.55	
2025-01-20 03:35:45.01	7.66	4.61	
2025-01-20 03:35:46.02	7.55	4.66	
2025-01-20 03:35:47.04	7.44	4.72	
2025-01-20 03:35:48.05	7.33	4.77	
2025-01-20 03:35:49.07	7.21	4.83	
2025-01-20 03:35:50.08	7.10	4.89	
2025-01-20 03:35:51.10	6.99	4.94	
2025-01-20 03:35:52.11	6.87	5.00	
2025-01-20 03:35:53.13	6.76	5.06	
2025-01-20 03:35:54.14	6.64	5.11	
2025-01-20 03:35:55.16	6.53	5.17	
2025-01-20 03:35:56.17	6.41	5.23	
2025-01-20 03:35:57.19	6.30	5.28	
2025-01-20 03:35:58.20	6.18	5.34	
2025-01-20 03:35:59.22	6.06	5.40	
2025-01-20 03:36:00.23	5.94	5.45	
2025-01-20 03:36:01.25	5.83	5.51	
2025-01-20 03:36:02.26	5.71	5.57	
2025-01-20 03:36:03.28	5.59	5.63	
2025-01-20 03:36:04.29	5.47	5.68	
2025-01-20 03:36:05.31	5.35	5.74	
2025-01-20 03:36:06.32	5.23	5.80	
2025-01-20 03:36:07.33	5.10	5.85	
2025-01-20 03:36:08.35	4.98	5.91	
2025-01-20 03:36:09.36	4.86	5.97	
2025-01-20 03:36:10.38	4.74	6.02	
2025-01-20 03:36:11.39	4.61	6.08	
2025-01-20 03:36:12.41	4.49	6.14	
2025-01-20 03:36:13.42	4.36	6.20	
2025-01-20 03:36:14.44	4.24	6.25	
2025-01-20 03:36:15.45	4.11	6.31	
2025-01-20 03:36:16.47	3.99	6.37	
2025-01-20 03:36:17.48	3.86	6.42	
2025-01-20 03:36:18.50	3.73	6.48	
2025-01-20 03:36:19.51	3.60	6.54	
2025-01-20 03:36:20.53	3.47	6.60	
2025-01-20 03:36:21.54	3.34	6.65	
2025-01-20 03:36:22.56	3.21	6.71	
2025-01-20 03:36:23.57	3.08	6.77	
2025-01-20 03:36:24.59	2.95	6.83	
2025-01-20 03:36:25.60	2.82	6.88	
2025-01-20 03:36:26.62	2.69	6.94	
2025-01-20 03:36:27.63	2.56	7.00	
2025-01-20 03:36:28.65	2.42	7.05	
2025-01-20 03:36:29.66	2.29	7.11	
2025-01-20 03:36:30.67	2.16	7.17	
2025-01-20 03:36:31.69	2.02	7.23	
2025-01-20 03:36:32.70	1.88	7.28	
2025-01-20 03:36:33.72	1.75	7.34	
2025-01-20 03:36:34.73	1.61	7.40	
2025-01-20 03:36:35.75	1.47	7.46	
2025-01-20 03:36:36.76	1.34	7.51	
2025-01-20 03:36:37.78	1.20	7.57	
2025-01-20 03:36:38.79	1.06	7.63	
2025-01-20 03:36:39.81	0.92	7.68	
2025-01-20 03:36:40.82	0.78	7.74	
2025-01-20 03:36:41.84	0.64	7.80	
2025-01-20 03:36:42.85	0.49	7.86	
2025-01-20 03:36:43.87	0.35	7.91	
2025-01-20 03:36:44.88	0.21	7.97	
2025-01-20 03:36:45.90	0.06	8.03	
2025-01-20 03:36:46.91	359.92	8.09	
2025-01-20 03:36:47.93	359.78	8.14	
2025-01-20 03:36:48.94	359.63	8.20	
2025-01-20 03:36:49.96	359.48	8.26	
2025-01-20 03:36:50.97	359.34	8.31	
2025-01-20 03:36:51.99	359.19	8.37	
2025-01-20 03:36:53.00	359.04	8.43	
2025-01-20 03:36:54.01	358.89	8.48	
2025-01-20 03:36:55.03	358.74	8.54	
2025-01-20 03:36:56.04	358.59	8.60	
2025-01-20 03:36:57.06	358.44	8.66	
2025-01-20 03:36:58.07	358.29	8.71	
2025-01-20 03:36:59.09	358.14	8.77	
2025-01-20 03:37:00.10	357.99	8.83	
2025-01-20 03:37:01.12	357.83	8.88	
2025-01-20 03:37:02.13	357.68	8.94	
2025-01-20 03:37:03.15	357.53	9.00	
2025-01-20 03:37:04.16	357.37	9.05	
2025-01-20 03:37:05.18	357.21	9.11	
2025-01-20 03:37:06.19	357.06	9.17	
2025-01-20 03:37:07.21	356.90	9.22	
2025-01-20 03:37:08.22	356.74	9.28	
2025-01-20 03:37:09.24	356.58	9.34	
2025-01-20 03:37:10.25	356.42	9.39	
2025-01-20 03:37:11.27	356.26	9.45	
2025-01-20 03:37:12.28	356.10	9.50	
2025-01-20 03:37:13.29	355.94	9.56	
2025-01-20 03:37:14.31	355.78	9.62	
2025-01-20 03:37:15.32	355.62	9.67	
2025-01-20 03:37:16.34	355.45	9.73	
2025-01-20 03:37:17.35	355.29	9.78	
2025-01-20 03:37:18.37	355.13	9.84	
2025-01-20 03:37:19.38	354.96	9.90	
2025-01-20 03:37:20.40	354.79	9.95	
2025-01-20 03:37:21.41	354.63	10.01	
2025-01-20 03:37:22.43	354.46	10.06	
2025-01-20 03:37:23.44	354.29	10.12	
2025-01-20 03:37:24.46	354.12	10.17	
2025-01-20 03:37:25.47	353.95	10.23	
2025-01-20 03:37:26.49	353.78	10.28	
2025-01-20 03:37:27.50	353.61	10.34	
2025-01-20 03:37:28.52	353.44	10.39	
2025-01-20 03:37:29.53	353.27	10.45	
2025-01-20 03:37:30.55	353.09	10.50	
2025-01-20 03:37:31.56	352.92	10.56	
2025-01-20 03:37:32.58	352.74	10.61	
2025-01-20 03:37:33.59	352.57	10.67	
2025-01-20 03:37:34.60	352.39	10.72	
2025-01-20 03:37:35.62	352.22	10.77	
2025-01-20 03:37:36.63	352.04	10.83	
2025-01-20 03:37:37.65	351.86	10.88	
2025-01-20 03:37:38.66	351.68	10.94	
2025-01-20 03:37:39.68	351.50	10.99	
2025-01-20 03:37:40.69	351.32	11.04	
2025-01-20 03:37:41.71	351.14	11.10	
2025-01-20 03:37:42.72	350.96	11.15	
2025-01-20 03:37:43.74	350.78	11.20	
2025-01-20 03:37:44.75	350.59	11.26	
2025-01-20 03:37:45.77	350.41	11.31	
2025-01-20 03:37:46.78	350.22	11.36	
2025-01-20 03:37:47.80	350.04	11.41	
2025-01-20 03:37:48.81	349.85	11.47	
2025-01-20 03:37:49.83	349.66	11.52	
2025-01-20 03:37:50.84	349.48	11.57	
2025-01-20 03:37:51.86	349.29	11.62	
2025-01-20 03:37:52.87	349.10	11.67	
2025-01-20 03:37:53.89	348.91	11.73	
2025-01-20 03:37:54.90	348.72	11.78	
2025-01-20 03:37:55.92	348.53	11.83	
2025-01-20 03:37:56.93	348.34	11.88	
2025-01-20 03:37:57.94	348.14	11.93	
2025-01-20 03:37:58.96	347.95	11.98	
2025-01-20 03:37:59.97	347.76	12.03	
2025-01-20 03:38:00.99	347.56	12.08	
2025-01-20 03:38:02.00	347.37	12.13	
2025-01-20 03:38:03.02	347.17	12.18	
2025-01-20 03:38:04.03	346.97	12.23	
2025-01-20 03:38:05.05	346.77	12.28	
2025-01-20 03:38:06.06	346.58	12.33	
2025-01-20 03:38:07.08	346.37	12.38	
2025-01-20 03:38:08.09	346.18	12.43	
2025-01-20 03:38:09.11	345.97	12.48	
2025-01-20 03:38:10.12	345.77	12.52	
2025-01-20 03:38:11.14	345.57	12.57	
2025-01-20 03:38:12.15	345.37	12.62	
2025-01-20 03:38:13.17	345.16	12.67	
2025-01-20 03:38:14.18	344.96	12.72	
2025-01-20 03:38:15.20	344.75	12.76	
2025-01-20 03:38:16.21	344.55	12.81	
2025-01-20 03:38:17.23	344.34	12.86	
2025-01-20 03:38:18.24	344.13	12.90	
2025-01-20 03:38:19.26	343.93	12.95	
2025-01-20 03:38:20.27	343.72	12.99	
2025-01-20 03:38:21.29	343.51	13.04	
2025-01-20 03:38:22.30	343.30	13.09	
2025-01-20 03:38:23.31	343.09	13.13	
2025-01-20 03:38:24.33	342.88	13.18	
2025-01-20 03:38:25.34	342.66	13.22	
2025-01-20 03:38:26.36	342.45	13.27	
2025-01-20 03:38:27.37	342.24	13.31	
2025-01-20 03:38:28.39	342.02	13.35	
2025-01-20 03:38:29.40	341.81	13.40	
2025-01-20 03:38:30.42	341.59	13.44	
2025-01-20 03:38:31.43	341.38	13.48	
2025-01-20 03:38:32.45	341.16	13.53	
2025-01-20 03:38:33.46	340.94	13.57	
2025-01-20 03:38:34.48	340.72	13.61	
2025-01-20 03:38:35.49	340.50	13.65	
2025-01-20 03:38:36.51	340.28	13.69	
2025-01-20 03:38:37.52	340.06	13.73	
2025-01-20 03:38:38.54	339.84	13.77	
2025-01-20 03:38:39.55	339.62	13.81	
2025-01-20 03:38:40.57	339.40	13.86	
2025-01-20 03:38:41.58	339.18	13.89	
2025-01-20 03:38:42.60	338.95	13.93	
2025-01-20 03:38:43.61	338.73	13.97	
2025-01-20 03:38:44.62	338.50	14.01	
2025-01-20 03:38:45.64	338.28	14.05	
2025-01-20 03:38:46.65	338.05	14.09	
2025-01-20 03:38:47.67	337.82	14.13	
2025-01-20 03:38:48.68	337.60	14.16	
2025-01-20 03:38:49.70	337.37	14.20	
2025-01-20 03:38:50.71	337.14	14.24	
2025-01-20 03:38:51.73	336.91	14.27	
2025-01-20 03:38:52.74	336.68	14.31	
2025-01-20 03:38:53.76	336.45	14.34	
2025-01-20 03:38:54.77	336.22	14.38	
2025-01-20 03:38:55.79	335.99	14.41	
2025-01-20 03:38:56.80	335.76	14.45	
2025-01-20 03:38:57.82	335.52	14.48	
2025-01-20 03:38:58.83	335.29	14.51	
2025-01-20 03:38:59.85	335.05	14.55	
2025-01-20 03:39:00.86	334.82	14.58	
2025-01-20 03:39:01.88	334.58	14.61	
2025-01-20 03:39:02.89	334.35	14.64	
2025-01-20 03:39:03.91	334.11	14.68	
2025-01-20 03:39:04.92	333.88	14.71	
2025-01-20 03:39:05.94	333.64	14.74	
2025-01-20 03:39:06.95	333.40	14.77	
2025-01-20 03:39:07.96	333.16	14.80	
2025-01-20 03:39:08.98	332.92	14.83	
2025-01-20 03:39:09.99	332.69	14.86	
2025-01-20 03:39:11.01	332.45	14.88	
2025-01-20 03:39:12.02	332.21	14.91	
2025-01-20 03:39:13.04	331.96	14.94	
2025-01-20 03:39:14.05	331.72	14.97	
2025-01-20 03:39:15.07	331.48	14.99	
2025-01-20 03:39:16.08	331.24	15.02	
2025-01-20 03:39:17.10	331.00	15.05	
2025-01-20 03:39:18.11	330.75	15.07	
2025-01-20 03:39:19.13	330.51	15.10	
2025-01-20 03:39:20.14	330.27	15.12	
2025-01-20 03:39:21.16	330.02	15.14	
2025-01-20 03:39:22.17	329.78	15.17	
2025-01-20 03:39:23.19	329.53	15.19	
2025-01-20 03:39:24.20	329.29	15.21	
2025-01-20 03:39:25.22	329.04	15.23	
2025-01-20 03:39:26.23	328.79	15.26	
2025-01-20 03:39:27.25	328.54	15.28	
2025-01-20 03:39:28.26	328.30	15.30	
2025-01-20 03:39:29.28	328.05	15.32	
2025-01-20 03:39:30.29	327.80	15.34	
2025-01-20 03:39:31.30	327.56	15.35	
2025-01-20 03:39:32.32	327.31	15.37	
2025-01-20 03:39:33.33	327.06	15.39	
2025-01-20 03:39:34.35	326.81	15.41	
2025-01-20 03:39:35.36	326.56	15.43	
2025-01-20 03:39:36.38	326.31	15.44	
2025-01-20 03:39:37.39	326.06	15.46	
2025-01-20 03:39:38.41	325.81	15.47	
2025-01-20 03:39:39.42	325.56	15.49	
2025-01-20 03:39:40.44	325.31	15.50	
2025-01-20 03:39:41.45	325.06	15.52	
2025-01-20 03:39:42.47	324.80	15.53	
2025-01-20 03:39:43.48	324.55	15.54	
2025-01-20 03:39:44.50	324.30	15.56	
2025-01-20 03:39:45.51	324.05	15.57	
2025-01-20 03:39:46.53	323.79	15.58	
2025-01-20 03:39:47.54	323.54	15.59	
2025-01-20 03:39:48.56	323.29	15.60	
2025-01-20 03:39:49.57	323.04	15.61	
2025-01-20 03:39:50.59	322.78	15.62	
2025-01-20 03:39:51.60	322.53	15.63	
2025-01-20 03:39:52.62	322.27	15.63	
2025-01-20 03:39:53.63	322.02	15.64	
2025-01-20 03:39:54.64	321.77	15.65	
2025-01-20 03:39:55.66	321.51	15.66	
2025-01-20 03:39:56.67	321.26	15.66	
2025-01-20 03:39:57.69	321.01	15.67	
2025-01-20 03:39:58.70	320.75	15.67	
2025-01-20 03:39:59.72	320.50	15.68	
2025-01-20 03:40:00.73	320.24	15.68	
2025-01-20 03:40:01.75	319.99	15.68	
2025-01-20 03:40:02.76	319.73	15.69	
2025-01-20 03:40:03.78	319.48	15.69	
2025-01-20 03:40:04.79	319.22	15.69	
2025-01-20 03:40:05.81	318.97	15.69	
2025-01-20 03:40:06.82	318.72	15.69	
2025-01-20 03:40:07.84	318.46	15.69	
2025-01-20 03:40:08.85	318.21	15.69	
2025-01-20 03:40:09.87	317.95	15.69	
2025-01-20 03:40:10.88	317.70	15.69	
2025-01-20 03:40:11.90	317.44	15.69	
2025-01-20 03:40:12.91	317.19	15.68	
2025-01-20 03:40:13.93	316.93	15.68	
2025-01-20 03:40:14.94	316.68	15.68	
2025-01-20 03:40:15.96	316.42	15.67	
2025-01-20 03:40:16.97	316.17	15.67	
2025-01-20 03:40:17.98	315.92	15.66	
2025-01-20 03:40:19.00	315.66	15.66	
2025-01-20 03:40:20.01	315.41	15.65	
2025-01-20 03:40:21.03	315.15	15.64	
2025-01-20 03:40:22.04	314.90	15.63	
2025-01-20 03:40:23.06	314.64	15.63	
2025-01-20 03:40:24.07	314.39	15.62	
2025-01-20 03:40:25.09	314.14	15.61	
2025-01-20 03:40:26.10	313.89	15.60	
2025-01-20 03:40:27.12	313.63	15.59	
2025-01-20 03:40:28.13	313.38	15.58	
2025-01-20 03:40:29.15	313.13	15.57	
2025-01-20 03:40:30.16	312.87	15.55	
2025-01-20 03:40:31.18	312.62	15.54	
2025-01-20 03:40:32.19	312.37	15.53	
2025-01-20 03:40:33.21	312.12	15.52	
2025-01-20 03:40:34.22	311.87	15.50	
2025-01-20 03:40:35.24	311.61	15.49	
2025-01-20 03:40:36.25	311.36	15.47	
2025-01-20 03:40:37.27	311.11	15.46	
2025-01-20 03:40:38.28	310.86	15.44	
2025-01-20 03:40:39.30	310.61	15.42	
2025-01-20 03:40:40.31	310.36	15.41	
2025-01-20 03:40:41.32	310.11	15.39	
2025-01-20 03:40:42.34	309.86	15.37	
2025-01-20 03:40:43.35	309.62	15.35	
2025-01-20 03:40:44.37	309.37	15.33	
2025-01-20 03:40:45.38	309.12	15.31	
2025-01-20 03:40:46.40	308.87	15.29	
2025-01-20 03:40:47.41	308.62	15.27	
2025-01-20 03:40:48.43	308.37	15.25	
2025-01-20 03:40:49.44	308.13	15.23	
2025-01-20 03:40:50.46	307.88	15.21	
2025-01-20 03:40:51.47	307.64	15.19	
2025-01-20 03:40:52.49	307.39	15.16	
2025-01-20 03:40:53.50	307.15	15.14	
2025-01-20 03:40:54.52	306.90	15.12	
2025-01-20 03:40:55.53	306.66	15.09	
2025-01-20 03:40:56.55	306.41	15.07	
2025-01-20 03:40:57.56	306.17	15.04	
2025-01-20 03:40:58.58	305.92	15.02	
2025-01-20 03:40:59.59	305.68	14.99	
2025-01-20 03:41:00.61	305.44	14.96	
2025-01-20 03:41:01.62	305.20	14.94	
2025-01-20 03:41:02.64	304.96	14.91	
2025-01-20 03:41:03.65	304.72	14.88	
2025-01-20 03:41:04.66	304.48	14.85	
2025-01-20 03:41:05.68	304.24	14.82	
2025-01-20 03:41:06.69	304.00	14.79	
2025-01-20 03:41:07.71	303.76	14.76	
2025-01-20 03:41:08.72	303.52	14.73	
2025-01-20 03:41:09.74	303.28	14.70	
2025-01-20 03:41:10.75	303.05	14.67	
2025-01-20 03:41:11.77	302.81	14.64	
2025-01-20 03:41:12.78	302.57	14.61	
2025-01-20 03:41:13.80	302.34	14.58	
2025-01-20 03:41:14.81	302.10	14.54	
2025-01-20 03:41:15.83	301.87	14.51	
2025-01-20 03:41:16.84	301.63	14.48	
2025-01-20 03:41:17.86	301.40	14.44	
2025-01-20 03:41:18.87	301.17	14.41	
2025-01-20 03:41:19.89	300.93	14.37	
2025-01-20 03:41:20.90	300.70	14.34	
2025-01-20 03:41:21.92	300.47	14.30	
2025-01-20 03:41:22.93	300.24	14.27	
2025-01-20 03:41:23.95	300.01	14.23	
2025-01-20 03:41:24.96	299.78	14.19	
2025-01-20 03:41:25.98	299.55	14.16	
2025-01-20 03:41:26.99	299.32	14.12	
2025-01-20 03:41:28.00	299.10	14.08	
2025-01-20 03:41:29.02	298.87	14.04	
2025-01-20 03:41:30.03	298.65	14.00	
2025-01-20 03:41:31.05	298.42	13.97	
2025-01-20 03:41:32.06	298.19	13.93	
2025-01-20 03:41:33.08	297.97	13.89	
2025-01-20 03:41:34.09	297.75	13.85	
2025-01-20 03:41:35.11	297.52	13.81	
2025-01-20 03:41:36.12	297.30	13.77	
2025-01-20 03:41:37.14	297.08	13.73	
2025-01-20 03:41:38.15	296.86	13.68	
2025-01-20 03:41:39.17	296.64	13.64	
2025-01-20 03:41:40.18	296.42	13.60	
2025-01-20 03:41:41.20	296.20	13.56	
2025-01-20 03:41:42.21	295.98	13.52	
2025-01-20 03:41:43.23	295.76	13.47	
2025-01-20 03:41:44.24	295.55	13.43	
2025-01-20 03:41:45.26	295.33	13.39	
2025-01-20 03:41:46.27	295.11	13.34	
2025-01-20 03:41:47.29	294.90	13.30	
2025-01-20 03:41:48.30	294.68	13.26	
2025-01-20 03:41:49.32	294.47	13.21	
2025-01-20 03:41:50.33	294.26	13.17	
2025-01-20 03:41:51.34	294.05	13.12	
2025-01-20 03:41:52.36	293.83	13.08	
2025-01-20 03:41:53.37	293.62	13.03	
2025-01-20 03:41:54.39	293.41	12.98	
2025-01-20 03:41:55.40	293.21	12.94	
2025-01-20 03:41:56.42	293.00	12.89	
2025-01-20 03:41:57.43	292.79	12.85	
2025-01-20 03:41:58.45	292.58	12.80	
2025-01-20 03:41:59.46	292.37	12.75	
2025-01-20 03:42:00.48	292.17	12.70	
2025-01-20 03:42:01.49	291.96	12.66	
2025-01-20 03:42:02.51	291.76	12.61	
2025-01-20 03:42:03.52	291.56	12.56	
2025-01-20 03:42:04.55	291.35	12.51	
2025-01-20 03:42:05.56	291.15	12.46	
2025-01-20 03:42:06.58	290.95	12.41	
2025-01-20 03:42:07.59	290.75	12.36	
2025-01-20 03:42:08.61	290.54	12.32	
2025-01-20 03:42:09.62	290.35	12.27	
2025-01-20 03:42:10.64	290.15	12.22	
2025-01-20 03:42:11.65	289.95	12.17	
2025-01-20 03:42:12.67	289.75	12.12	
2025-01-20 03:42:13.68	289.56	12.07	
2025-01-20 03:42:14.70	289.36	12.02	
2025-01-20 03:42:15.71	289.16	11.97	
2025-01-20 03:42:16.73	288.97	11.91	
2025-01-20 03:42:17.74	288.78	11.86	
2025-01-20 03:42:18.76	288.58	11.81	
2025-01-20 03:42:19.77	288.39	11.76	
2025-01-20 03:42:20.79	288.20	11.71	
2025-01-20 03:42:21.80	288.01	11.66	
2025-01-20 03:42:22.82	287.82	11.61	
2025-01-20 03:42:23.83	287.63	11.55	
2025-01-20 03:42:24.85	287.44	11.50	
2025-01-20 03:42:25.86	287.25	11.45	
2025-01-20 03:42:26.88	287.07	11.40	
2025-01-20 03:42:27.89	286.88	11.34	
2025-01-20 03:42:28.90	286.70	11.29	
2025-01-20 03:42:29.92	286.51	11.24	
2025-01-20 03:42:30.93	286.33	11.18	
2025-01-20 03:42:31.95	286.14	11.13	
2025-01-20 03:42:32.96	285.96	11.08	
2025-01-20 03:42:33.98	285.78	11.02	
2025-01-20 03:42:34.99	285.60	10.97	
2025-01-20 03:42:36.01	285.42	10.92	
2025-01-20 03:42:37.02	285.24	10.86	
2025-01-20 03:42:38.04	285.06	10.81	
2025-01-20 03:42:39.05	284.88	10.75	
2025-01-20 03:42:40.07	284.70	10.70	
2025-01-20 03:42:41.08	284.53	10.65	
2025-01-20 03:42:42.10	284.35	10.59	
2025-01-20 03:42:43.11	284.17	10.54	
2025-01-20 03:42:44.13	284.00	10.48	
2025-01-20 03:42:45.14	283.82	10.43	
2025-01-20 03:42:46.16	283.65	10.37	
2025-01-20 03:42:47.17	283.48	10.32	
2025-01-20 03:42:48.19	283.31	10.26	
2025-01-20 03:42:49.20	283.14	10.21	
2025-01-20 03:42:50.22	282.96	10.15	
2025-01-20 03:42:51.23	282.80	10.10	
2025-01-20 03:42:52.24	282.63	10.04	
2025-01-20 03:42:53.26	282.46	9.98	
2025-01-20 03:42:54.27	282.29	9.93	
2025-01-20 03:42:55.29	282.12	9.87	
2025-01-20 03:42:56.30	281.96	9.82	
2025-01-20 03:42:57.32	281.79	9.76	
2025-01-20 03:42:58.33	281.63	9.71	
2025-01-20 03:42:59.35	281.46	9.65	
2025-01-20 03:43:00.36	281.30	9.59	
2025-01-20 03:43:01.38	281.13	9.54	
2025-01-20 03:43:02.39	280.97	9.48	
2025-01-20 03:43:03.41	280.81	9.42	
2025-01-20 03:43:04.42	280.65	9.37	
2025-01-20 03:43:05.44	280.49	9.31	
2025-01-20 03:43:06.45	280.33	9.25	
2025-01-20 03:43:07.47	280.17	9.20	
2025-01-20 03:43:08.48	280.01	9.14	
2025-01-20 03:43:09.50	279.86	9.08	
2025-01-20 03:43:10.51	279.70	9.03	
2025-01-20 03:43:11.53	279.54	8.97	
2025-01-20 03:43:12.54	279.39	8.91	
2025-01-20 03:43:13.56	279.23	8.86	
2025-01-20 03:43:14.57	279.08	8.80	
2025-01-20 03:43:15.58	278.93	8.74	
2025-01-20 03:43:16.60	278.77	8.69	
2025-01-20 03:43:17.61	278.62	8.63	
2025-01-20 03:43:18.63	278.47	8.57	
2025-01-20 03:43:19.64	278.32	8.51	
2025-01-20 03:43:20.66	278.17	8.46	
2025-01-20 03:43:21.67	278.02	8.40	
2025-01-20 03:43:22.69	277.87	8.34	
2025-01-20 03:43:23.70	277.72	8.29	
2025-01-20 03:43:24.72	277.57	8.23	
2025-01-20 03:43:25.73	277.43	8.17	
2025-01-20 03:43:26.75	277.28	8.11	
2025-01-20 03:43:27.76	277.14	8.06	
2025-01-20 03:43:28.78	276.99	8.00	
2025-01-20 03:43:29.79	276.85	7.94	
2025-01-20 03:43:30.81	276.70	7.88	
2025-01-20 03:43:31.82	276.56	7.83	
2025-01-20 03:43:32.84	276.42	7.77	
2025-01-20 03:43:33.85	276.27	7.71	
2025-01-20 03:43:34.87	276.13	7.65	
2025-01-20 03:43:35.88	275.99	7.60	
2025-01-20 03:43:36.90	275.85	7.54	
2025-01-20 03:43:37.91	275.71	7.48	
2025-01-20 03:43:38.92	275.57	7.42	
2025-01-20 03:43:39.94	275.43	7.37	
2025-01-20 03:43:40.95	275.30	7.31	
2025-01-20 03:43:41.97	275.16	7.25	
2025-01-20 03:43:42.98	275.02	7.19	
2025-01-20 03:43:44.00	274.89	7.14	
2025-01-20 03:43:45.01	274.75	7.08	
2025-01-20 03:43:46.03	274.62	7.02	
2025-01-20 03:43:47.04	274.48	6.96	
2025-01-20 03:43:48.06	274.35	6.91	
2025-01-20 03:43:49.07	274.22	6.85	
2025-01-20 03:43:50.09	274.08	6.79	
2025-01-20 03:43:51.10	273.95	6.73	
2025-01-20 03:43:52.12	273.82	6.68	
2025-01-20 03:43:53.13	273.69	6.62	
2025-01-20 03:43:54.15	273.56	6.56	
2025-01-20 03:43:55.16	273.43	6.50	
2025-01-20 03:43:56.18	273.30	6.45	
2025-01-20 03:43:57.19	273.17	6.39	
2025-01-20 03:43:58.21	273.04	6.33	
2025-01-20 03:43:59.22	272.92	6.27	
2025-01-20 03:44:00.23	272.79	6.22	
2025-01-20 03:44:01.25	272.67	6.16	
2025-01-20 03:44:02.26	272.54	6.10	
2025-01-20 03:44:03.28	272.41	6.05	
2025-01-20 03:44:04.29	272.29	5.99	
2025-01-20 03:44:05.31	272.17	5.93	
2025-01-20 03:44:06.32	272.04	5.87	
2025-01-20 03:44:07.34	271.92	5.82	
2025-01-20 03:44:08.35	271.80	5.76	
2025-01-20 03:44:09.37	271.67	5.70	
2025-01-20 03:44:10.38	271.55	5.65	
2025-01-20 03:44:11.40	271.43	5.59	
2025-01-20 03:44:12.41	271.31	5.53	
2025-01-20 03:44:13.43	271.19	5.47	
2025-01-20 03:44:14.44	271.07	5.42	
2025-01-20 03:44:15.46	270.95	5.36	
2025-01-20 03:44:16.47	270.84	5.30	
2025-01-20 03:44:17.49	270.72	5.25	
2025-01-20 03:44:18.50	270.60	5.19	
2025-01-20 03:44:19.52	270.48	5.13	
2025-01-20 03:44:20.53	270.37	5.08	
2025-01-20 03:44:21.55	270.25	5.02	
2025-01-20 03:44:22.56	270.14	4.96	
2025-01-20 03:44:23.57	270.02	4.91	
2025-01-20 03:44:24.59	269.91	4.85	
2025-01-20 03:44:25.60	269.80	4.79	
2025-01-20 03:44:26.62	269.68	4.73	
2025-01-20 03:44:27.63	269.57	4.68	
2025-01-20 03:44:28.65	269.46	4.62	
2025-01-20 03:44:29.66	269.35	4.57	
2025-01-20 03:44:30.68	269.23	4.51	
2025-01-20 03:44:31.69	269.12	4.45	
2025-01-20 03:44:32.71	269.01	4.40	
2025-01-20 03:44:33.72	268.90	4.34	
2025-01-20 03:44:34.74	268.79	4.28	
2025-01-20 03:44:35.75	268.68	4.23	
2025-01-20 03:44:36.77	268.58	4.17	
2025-01-20 03:44:37.78	268.47	4.11	
2025-01-20 03:44:38.80	268.36	4.06	
2025-01-20 03:44:39.81	268.25	4.00	

#Closed at: 2025-01-20 03:44:40