passes_logs/2025/01/20/SPB_Silybum_02/SPB_Silybum_02__20250120_015740_AQUA_rec.log

#Pass ID: 20250120_015740_AQUA
#Satellite: AQUA
#Configuration: AQUA
#Start time: 2025-01-20 01:57:39

#Version: 2.0.20230423
#Station: SPB_Silybum_02
#Location: 30.233357 lon 59.946436 lat
#TLE: 1 27424U 02022A   25019.18388060  .00002377  00000+0  49769-3 0  9992
#TLE: 2 27424  98.3597 335.8858 0001894 107.4419 309.9907 14.60702162208231

#Time	Az	El	Level	Level2	SNR	BER	Gain	Gain2
2025-01-20 01:57:41.48	14.40	4.09	
2025-01-20 01:57:42.70	14.36	4.18	
2025-01-20 01:57:43.91	14.33	4.27	
2025-01-20 01:57:45.13	14.29	4.35	
2025-01-20 01:57:46.35	14.25	4.44	
2025-01-20 01:57:47.57	14.22	4.53	
2025-01-20 01:57:48.78	14.18	4.61	
2025-01-20 01:57:50.00	14.14	4.70	
2025-01-20 01:57:51.22	14.10	4.79	
2025-01-20 01:57:52.44	14.06	4.88	
2025-01-20 01:57:53.66	14.02	4.97	
2025-01-20 01:57:54.87	13.99	5.06	
2025-01-20 01:57:56.09	13.95	5.15	
2025-01-20 01:57:57.31	13.91	5.24	
2025-01-20 01:57:58.53	13.87	5.33	
2025-01-20 01:57:59.74	13.83	5.42	
2025-01-20 01:58:00.96	13.79	5.51	
2025-01-20 01:58:02.18	13.75	5.60	
2025-01-20 01:58:03.40	13.70	5.69	
2025-01-20 01:58:04.61	13.66	5.78	
2025-01-20 01:58:05.83	13.62	5.87	
2025-01-20 01:58:07.05	13.58	5.97	
2025-01-20 01:58:08.27	13.54	6.06	
2025-01-20 01:58:09.49	13.49	6.15	
2025-01-20 01:58:10.70	13.45	6.24	
2025-01-20 01:58:11.92	13.41	6.34	
2025-01-20 01:58:13.14	13.36	6.43	
2025-01-20 01:58:14.36	13.32	6.53	
2025-01-20 01:58:15.57	13.27	6.62	
2025-01-20 01:58:16.79	13.23	6.72	
2025-01-20 01:58:18.01	13.18	6.81	
2025-01-20 01:58:19.23	13.14	6.91	
2025-01-20 01:58:20.45	13.09	7.01	
2025-01-20 01:58:21.66	13.05	7.10	
2025-01-20 01:58:22.88	13.00	7.20	
2025-01-20 01:58:24.10	12.95	7.30	
2025-01-20 01:58:25.32	12.90	7.40	
2025-01-20 01:58:26.53	12.86	7.49	
2025-01-20 01:58:27.75	12.81	7.59	
2025-01-20 01:58:28.97	12.76	7.69	
2025-01-20 01:58:30.19	12.71	7.79	
2025-01-20 01:58:31.40	12.66	7.89	
2025-01-20 01:58:32.62	12.61	7.99	
2025-01-20 01:58:33.84	12.56	8.09	
2025-01-20 01:58:35.06	12.51	8.19	
2025-01-20 01:58:36.28	12.46	8.30	
2025-01-20 01:58:37.49	12.41	8.40	
2025-01-20 01:58:38.71	12.36	8.50	
2025-01-20 01:58:39.93	12.30	8.60	
2025-01-20 01:58:41.15	12.25	8.71	
2025-01-20 01:58:42.36	12.20	8.81	
2025-01-20 01:58:43.58	12.14	8.92	
2025-01-20 01:58:44.80	12.09	9.02	
2025-01-20 01:58:46.02	12.03	9.13	
2025-01-20 01:58:47.24	11.98	9.23	
2025-01-20 01:58:48.45	11.92	9.34	
2025-01-20 01:58:49.67	11.87	9.44	
2025-01-20 01:58:50.89	11.81	9.55	
2025-01-20 01:58:52.11	11.75	9.66	
2025-01-20 01:58:53.32	11.70	9.77	
2025-01-20 01:58:54.54	11.64	9.88	
2025-01-20 01:58:55.76	11.58	9.99	
2025-01-20 01:58:56.98	11.52	10.10	
2025-01-20 01:58:58.20	11.46	10.21	
2025-01-20 01:58:59.41	11.40	10.32	
2025-01-20 01:59:00.63	11.34	10.43	
2025-01-20 01:59:01.85	11.28	10.54	
2025-01-20 01:59:03.07	11.22	10.65	
2025-01-20 01:59:04.28	11.16	10.76	
2025-01-20 01:59:05.50	11.09	10.88	
2025-01-20 01:59:06.72	11.03	10.99	
2025-01-20 01:59:07.94	10.96	11.11	
2025-01-20 01:59:09.15	10.90	11.22	
2025-01-20 01:59:10.37	10.84	11.34	
2025-01-20 01:59:11.59	10.77	11.45	
2025-01-20 01:59:12.81	10.70	11.57	
2025-01-20 01:59:14.03	10.64	11.69	
2025-01-20 01:59:15.24	10.57	11.81	
2025-01-20 01:59:16.46	10.50	11.93	
2025-01-20 01:59:17.68	10.43	12.04	
2025-01-20 01:59:18.90	10.36	12.16	
2025-01-20 01:59:20.11	10.29	12.28	
2025-01-20 01:59:21.33	10.22	12.41	
2025-01-20 01:59:22.55	10.15	12.53	
2025-01-20 01:59:23.77	10.08	12.65	
2025-01-20 01:59:24.99	10.00	12.77	
2025-01-20 01:59:26.20	9.93	12.90	
2025-01-20 01:59:27.42	9.86	13.02	
2025-01-20 01:59:28.64	9.78	13.15	
2025-01-20 01:59:29.86	9.71	13.27	
2025-01-20 01:59:31.07	9.63	13.40	
2025-01-20 01:59:32.29	9.55	13.52	
2025-01-20 01:59:33.51	9.47	13.65	
2025-01-20 01:59:34.73	9.40	13.78	
2025-01-20 01:59:35.95	9.32	13.91	
2025-01-20 01:59:37.16	9.24	14.04	
2025-01-20 01:59:38.38	9.15	14.17	
2025-01-20 01:59:39.60	9.07	14.30	
2025-01-20 01:59:40.82	8.99	14.43	
2025-01-20 01:59:42.03	8.91	14.56	
2025-01-20 01:59:43.25	8.82	14.70	
2025-01-20 01:59:44.47	8.74	14.83	
2025-01-20 01:59:45.69	8.65	14.97	
2025-01-20 01:59:46.90	8.56	15.10	
2025-01-20 01:59:48.12	8.48	15.24	
2025-01-20 01:59:49.34	8.39	15.38	
2025-01-20 01:59:50.56	8.30	15.51	
2025-01-20 01:59:51.78	8.21	15.65	
2025-01-20 01:59:52.99	8.11	15.79	
2025-01-20 01:59:54.21	8.02	15.93	
2025-01-20 01:59:55.43	7.93	16.07	
2025-01-20 01:59:56.65	7.83	16.22	
2025-01-20 01:59:57.86	7.74	16.36	
2025-01-20 01:59:59.08	7.64	16.50	
2025-01-20 02:00:00.30	7.54	16.65	
2025-01-20 02:00:01.52	7.45	16.79	
2025-01-20 02:00:02.74	7.35	16.94	
2025-01-20 02:00:03.95	7.25	17.09	
2025-01-20 02:00:05.17	7.14	17.23	
2025-01-20 02:00:06.39	7.04	17.38	
2025-01-20 02:00:07.61	6.94	17.53	
2025-01-20 02:00:08.82	6.83	17.68	
2025-01-20 02:00:10.04	6.72	17.83	
2025-01-20 02:00:11.26	6.62	17.99	
2025-01-20 02:00:12.48	6.51	18.14	
2025-01-20 02:00:13.69	6.40	18.29	
2025-01-20 02:00:14.91	6.29	18.45	
2025-01-20 02:00:16.13	6.17	18.61	
2025-01-20 02:00:17.35	6.06	18.76	
2025-01-20 02:00:18.57	5.94	18.92	
2025-01-20 02:00:19.78	5.83	19.08	
2025-01-20 02:00:21.00	5.71	19.24	
2025-01-20 02:00:22.22	5.59	19.40	
2025-01-20 02:00:23.44	5.47	19.57	
2025-01-20 02:00:24.65	5.35	19.73	
2025-01-20 02:00:25.87	5.23	19.89	
2025-01-20 02:00:27.09	5.10	20.06	
2025-01-20 02:00:28.31	4.97	20.23	
2025-01-20 02:00:29.53	4.85	20.40	
2025-01-20 02:00:30.74	4.72	20.56	
2025-01-20 02:00:31.96	4.59	20.73	
2025-01-20 02:00:33.18	4.45	20.90	
2025-01-20 02:00:34.40	4.32	21.08	
2025-01-20 02:00:35.61	4.18	21.25	
2025-01-20 02:00:36.83	4.05	21.42	
2025-01-20 02:00:38.05	3.91	21.60	
2025-01-20 02:00:39.27	3.76	21.78	
2025-01-20 02:00:40.49	3.62	21.95	
2025-01-20 02:00:41.70	3.48	22.13	
2025-01-20 02:00:42.92	3.33	22.31	
2025-01-20 02:00:44.14	3.18	22.49	
2025-01-20 02:00:45.36	3.03	22.68	
2025-01-20 02:00:46.57	2.88	22.86	
2025-01-20 02:00:47.79	2.73	23.05	
2025-01-20 02:00:49.01	2.57	23.23	
2025-01-20 02:00:50.23	2.41	23.42	
2025-01-20 02:00:51.44	2.25	23.61	
2025-01-20 02:00:52.66	2.09	23.80	
2025-01-20 02:00:53.88	1.93	23.99	
2025-01-20 02:00:55.10	1.76	24.18	
2025-01-20 02:00:56.32	1.59	24.38	
2025-01-20 02:00:57.53	1.42	24.57	
2025-01-20 02:00:58.75	1.25	24.77	
2025-01-20 02:00:59.97	1.07	24.97	
2025-01-20 02:01:01.19	0.90	25.17	
2025-01-20 02:01:02.40	0.72	25.36	
2025-01-20 02:01:03.62	0.53	25.57	
2025-01-20 02:01:04.84	0.35	25.77	
2025-01-20 02:01:06.06	0.16	25.98	
2025-01-20 02:01:07.28	359.97	26.18	
2025-01-20 02:01:08.49	359.78	26.39	
2025-01-20 02:01:09.71	359.58	26.60	
2025-01-20 02:01:10.93	359.38	26.81	
2025-01-20 02:01:12.15	359.18	27.02	
2025-01-20 02:01:13.36	358.98	27.23	
2025-01-20 02:01:14.58	358.77	27.44	
2025-01-20 02:01:15.80	358.56	27.66	
2025-01-20 02:01:17.02	358.35	27.88	
2025-01-20 02:01:18.24	358.13	28.10	
2025-01-20 02:01:19.45	357.92	28.31	
2025-01-20 02:01:20.67	357.69	28.54	
2025-01-20 02:01:21.89	357.47	28.76	
2025-01-20 02:01:23.11	357.24	28.98	
2025-01-20 02:01:24.32	357.01	29.21	
2025-01-20 02:01:25.54	356.77	29.44	
2025-01-20 02:01:26.76	356.53	29.66	
2025-01-20 02:01:27.98	356.29	29.89	
2025-01-20 02:01:29.19	356.04	30.12	
2025-01-20 02:01:30.41	355.79	30.36	
2025-01-20 02:01:31.63	355.54	30.59	
2025-01-20 02:01:32.85	355.28	30.83	
2025-01-20 02:01:34.07	355.02	31.06	
2025-01-20 02:01:35.28	354.75	31.30	
2025-01-20 02:01:36.50	354.48	31.54	
2025-01-20 02:01:37.72	354.21	31.78	
2025-01-20 02:01:38.94	353.93	32.02	
2025-01-20 02:01:40.15	353.65	32.27	
2025-01-20 02:01:41.37	353.36	32.51	
2025-01-20 02:01:42.59	353.07	32.76	
2025-01-20 02:01:43.81	352.77	33.01	
2025-01-20 02:01:45.03	352.47	33.26	
2025-01-20 02:01:46.24	352.16	33.51	
2025-01-20 02:01:47.46	351.85	33.76	
2025-01-20 02:01:48.68	351.53	34.01	
2025-01-20 02:01:49.90	351.21	34.26	
2025-01-20 02:01:51.11	350.89	34.52	
2025-01-20 02:01:52.33	350.55	34.78	
2025-01-20 02:01:53.55	350.21	35.03	
2025-01-20 02:01:54.77	349.87	35.29	
2025-01-20 02:01:55.99	349.52	35.55	
2025-01-20 02:01:57.20	349.17	35.81	
2025-01-20 02:01:58.42	348.81	36.07	
2025-01-20 02:01:59.64	348.44	36.34	
2025-01-20 02:02:00.86	348.07	36.60	
2025-01-20 02:02:02.07	347.69	36.86	
2025-01-20 02:02:03.29	347.30	37.13	
2025-01-20 02:02:04.51	346.91	37.40	
2025-01-20 02:02:05.73	346.51	37.66	
2025-01-20 02:02:06.94	346.11	37.93	
2025-01-20 02:02:08.16	345.69	38.20	
2025-01-20 02:02:09.38	345.27	38.47	
2025-01-20 02:02:10.60	344.85	38.74	
2025-01-20 02:02:11.82	344.41	39.01	
2025-01-20 02:02:13.03	343.97	39.27	
2025-01-20 02:02:14.25	343.52	39.55	
2025-01-20 02:02:15.47	343.06	39.82	
2025-01-20 02:02:16.69	342.60	40.09	
2025-01-20 02:02:17.90	342.13	40.36	
2025-01-20 02:02:19.12	341.65	40.63	
2025-01-20 02:02:20.34	341.16	40.90	
2025-01-20 02:02:21.56	340.66	41.17	
2025-01-20 02:02:22.78	340.15	41.44	
2025-01-20 02:02:23.99	339.64	41.71	
2025-01-20 02:02:25.21	339.11	41.98	
2025-01-20 02:02:26.43	338.58	42.25	
2025-01-20 02:02:27.65	338.03	42.51	
2025-01-20 02:02:28.86	337.49	42.78	
2025-01-20 02:02:30.08	336.92	43.04	
2025-01-20 02:02:31.30	336.35	43.31	
2025-01-20 02:02:32.52	335.77	43.57	
2025-01-20 02:02:33.73	335.18	43.83	
2025-01-20 02:02:34.95	334.58	44.09	
2025-01-20 02:02:36.17	333.97	44.35	
2025-01-20 02:02:37.39	333.35	44.61	
2025-01-20 02:02:38.61	332.72	44.86	
2025-01-20 02:02:39.82	332.08	45.11	
2025-01-20 02:02:41.04	331.43	45.36	
2025-01-20 02:02:42.26	330.76	45.61	
2025-01-20 02:02:43.48	330.09	45.86	
2025-01-20 02:02:44.69	329.41	46.10	
2025-01-20 02:02:45.91	328.72	46.34	
2025-01-20 02:02:47.13	328.01	46.57	
2025-01-20 02:02:48.35	327.29	46.81	
2025-01-20 02:02:49.57	326.57	47.04	
2025-01-20 02:02:50.78	325.83	47.26	
2025-01-20 02:02:52.00	325.08	47.48	
2025-01-20 02:02:53.22	324.32	47.70	
2025-01-20 02:02:54.44	323.55	47.91	
2025-01-20 02:02:55.65	322.78	48.12	
2025-01-20 02:02:56.87	321.98	48.32	
2025-01-20 02:02:58.09	321.18	48.52	
2025-01-20 02:02:59.31	320.37	48.71	
2025-01-20 02:03:00.53	319.54	48.90	
2025-01-20 02:03:01.74	318.72	49.08	
2025-01-20 02:03:02.96	317.87	49.26	
2025-01-20 02:03:04.18	317.02	49.43	
2025-01-20 02:03:05.40	316.16	49.59	
2025-01-20 02:03:06.61	315.29	49.75	
2025-01-20 02:03:07.83	314.41	49.90	
2025-01-20 02:03:09.05	313.52	50.05	
2025-01-20 02:03:10.27	312.62	50.18	
2025-01-20 02:03:11.48	311.72	50.31	
2025-01-20 02:03:12.70	310.81	50.44	
2025-01-20 02:03:13.92	309.89	50.55	
2025-01-20 02:03:15.14	308.96	50.66	
2025-01-20 02:03:16.36	308.02	50.76	
2025-01-20 02:03:17.57	307.09	50.86	
2025-01-20 02:03:18.79	306.14	50.94	
2025-01-20 02:03:20.01	305.19	51.02	
2025-01-20 02:03:21.23	304.23	51.09	
2025-01-20 02:03:22.44	303.27	51.15	
2025-01-20 02:03:23.66	302.31	51.20	
2025-01-20 02:03:24.88	301.34	51.24	
2025-01-20 02:03:26.10	300.37	51.28	
2025-01-20 02:03:27.32	299.40	51.31	
2025-01-20 02:03:28.53	298.43	51.32	
2025-01-20 02:03:29.75	297.45	51.33	
2025-01-20 02:03:30.97	296.48	51.34	
2025-01-20 02:03:32.19	295.50	51.33	
2025-01-20 02:03:33.40	294.53	51.31	
2025-01-20 02:03:34.62	293.56	51.29	
2025-01-20 02:03:35.84	292.59	51.25	
2025-01-20 02:03:37.06	291.62	51.21	
2025-01-20 02:03:38.28	290.65	51.16	
2025-01-20 02:03:39.49	289.70	51.10	
2025-01-20 02:03:40.71	288.74	51.04	
2025-01-20 02:03:41.93	287.78	50.96	
2025-01-20 02:03:43.15	286.83	50.88	
2025-01-20 02:03:44.36	285.89	50.79	
2025-01-20 02:03:45.58	284.96	50.69	
2025-01-20 02:03:46.80	284.02	50.58	
2025-01-20 02:03:48.02	283.10	50.47	
2025-01-20 02:03:49.23	282.19	50.35	
2025-01-20 02:03:50.45	281.28	50.22	
2025-01-20 02:03:51.67	280.38	50.08	
2025-01-20 02:03:52.89	279.48	49.94	
2025-01-20 02:03:54.11	278.60	49.79	
2025-01-20 02:03:55.32	277.73	49.63	
2025-01-20 02:03:56.54	276.86	49.47	
2025-01-20 02:03:57.76	276.01	49.30	
2025-01-20 02:03:58.98	275.16	49.13	
2025-01-20 02:04:00.19	274.33	48.95	
2025-01-20 02:04:01.41	273.50	48.76	
2025-01-20 02:04:02.63	272.68	48.57	
2025-01-20 02:04:03.85	271.87	48.37	
2025-01-20 02:04:05.07	271.08	48.17	
2025-01-20 02:04:06.28	270.30	47.96	
2025-01-20 02:04:07.50	269.52	47.75	
2025-01-20 02:04:08.72	268.76	47.53	
2025-01-20 02:04:09.94	268.00	47.31	
2025-01-20 02:04:11.15	267.27	47.09	
2025-01-20 02:04:12.37	266.53	46.86	
2025-01-20 02:04:13.59	265.81	46.63	
2025-01-20 02:04:14.81	265.10	46.39	
2025-01-20 02:04:16.02	264.41	46.16	
2025-01-20 02:04:17.24	263.72	45.91	
2025-01-20 02:04:18.46	263.04	45.67	
2025-01-20 02:04:19.68	262.37	45.42	
2025-01-20 02:04:20.90	261.72	45.17	
2025-01-20 02:04:22.11	261.07	44.92	
2025-01-20 02:04:23.33	260.44	44.66	
2025-01-20 02:04:24.55	259.81	44.41	
2025-01-20 02:04:25.77	259.20	44.15	
2025-01-20 02:04:26.98	258.60	43.89	
2025-01-20 02:04:28.20	258.00	43.62	
2025-01-20 02:04:29.42	257.41	43.36	
2025-01-20 02:04:30.64	256.84	43.09	
2025-01-20 02:04:31.86	256.27	42.83	
2025-01-20 02:04:33.07	255.72	42.56	
2025-01-20 02:04:34.29	255.17	42.29	
2025-01-20 02:04:35.51	254.63	42.02	
2025-01-20 02:04:36.73	254.10	41.75	
2025-01-20 02:04:37.94	253.59	41.49	
2025-01-20 02:04:39.16	253.08	41.21	
2025-01-20 02:04:40.38	252.58	40.94	
2025-01-20 02:04:41.60	252.08	40.67	
2025-01-20 02:04:42.82	251.60	40.40	
2025-01-20 02:04:44.03	251.12	40.13	
2025-01-20 02:04:45.25	250.65	39.86	
2025-01-20 02:04:46.47	250.19	39.58	
2025-01-20 02:04:47.69	249.74	39.31	
2025-01-20 02:04:48.90	249.30	39.04	
2025-01-20 02:04:50.12	248.86	38.77	
2025-01-20 02:04:51.34	248.43	38.50	
2025-01-20 02:04:52.56	248.00	38.23	
2025-01-20 02:04:53.77	247.59	37.96	
2025-01-20 02:04:54.99	247.18	37.69	
2025-01-20 02:04:56.21	246.78	37.42	
2025-01-20 02:04:57.43	246.38	37.16	
2025-01-20 02:04:58.65	245.99	36.89	
2025-01-20 02:04:59.86	245.61	36.62	
2025-01-20 02:05:01.08	245.24	36.36	
2025-01-20 02:05:02.31	244.86	36.09	
2025-01-20 02:05:03.53	244.50	35.83	
2025-01-20 02:05:04.75	244.14	35.57	
2025-01-20 02:05:05.97	243.79	35.31	
2025-01-20 02:05:07.19	243.44	35.04	
2025-01-20 02:05:08.40	243.10	34.79	
2025-01-20 02:05:09.62	242.77	34.53	
2025-01-20 02:05:10.84	242.44	34.27	
2025-01-20 02:05:12.06	242.11	34.02	
2025-01-20 02:05:13.27	241.80	33.76	
2025-01-20 02:05:14.49	241.48	33.51	
2025-01-20 02:05:15.71	241.17	33.26	
2025-01-20 02:05:16.93	240.87	33.01	
2025-01-20 02:05:18.15	240.57	32.76	
2025-01-20 02:05:19.36	240.28	32.51	
2025-01-20 02:05:20.58	239.99	32.27	
2025-01-20 02:05:21.80	239.70	32.02	
2025-01-20 02:05:23.02	239.42	31.78	
2025-01-20 02:05:24.23	239.15	31.53	
2025-01-20 02:05:25.45	238.87	31.29	
2025-01-20 02:05:26.67	238.60	31.05	
2025-01-20 02:05:27.89	238.34	30.81	
2025-01-20 02:05:29.10	238.08	30.58	
2025-01-20 02:05:30.32	237.83	30.34	
2025-01-20 02:05:31.54	237.57	30.11	
2025-01-20 02:05:32.76	237.32	29.88	
2025-01-20 02:05:33.98	237.08	29.65	
2025-01-20 02:05:35.19	236.84	29.42	
2025-01-20 02:05:36.41	236.60	29.19	
2025-01-20 02:05:37.63	236.37	28.96	
2025-01-20 02:05:38.85	236.14	28.74	
2025-01-20 02:05:40.06	235.91	28.51	
2025-01-20 02:05:41.28	235.69	28.29	
2025-01-20 02:05:42.50	235.46	28.07	
2025-01-20 02:05:43.72	235.25	27.85	
2025-01-20 02:05:44.94	235.03	27.63	
2025-01-20 02:05:46.15	234.82	27.41	
2025-01-20 02:05:47.37	234.61	27.20	
2025-01-20 02:05:48.59	234.41	26.98	
2025-01-20 02:05:49.81	234.20	26.77	
2025-01-20 02:05:51.02	234.01	26.56	
2025-01-20 02:05:52.24	233.81	26.35	
2025-01-20 02:05:53.46	233.61	26.14	
2025-01-20 02:05:54.68	233.42	25.94	
2025-01-20 02:05:55.90	233.23	25.73	
2025-01-20 02:05:57.11	233.05	25.53	
2025-01-20 02:05:58.33	232.86	25.32	
2025-01-20 02:05:59.55	232.68	25.12	
2025-01-20 02:06:00.77	232.50	24.92	
2025-01-20 02:06:01.98	232.33	24.72	
2025-01-20 02:06:03.20	232.15	24.52	
2025-01-20 02:06:04.42	231.98	24.33	
2025-01-20 02:06:05.64	231.81	24.13	
2025-01-20 02:06:06.85	231.64	23.94	
2025-01-20 02:06:08.07	231.48	23.75	
2025-01-20 02:06:09.29	231.31	23.56	
2025-01-20 02:06:10.51	231.15	23.37	
2025-01-20 02:06:11.73	230.99	23.18	
2025-01-20 02:06:12.94	230.83	22.99	
2025-01-20 02:06:14.16	230.68	22.80	
2025-01-20 02:06:15.38	230.53	22.62	
2025-01-20 02:06:16.60	230.37	22.44	
2025-01-20 02:06:17.81	230.23	22.25	
2025-01-20 02:06:19.03	230.08	22.07	
2025-01-20 02:06:20.25	229.93	21.89	
2025-01-20 02:06:21.47	229.79	21.71	
2025-01-20 02:06:22.69	229.65	21.54	
2025-01-20 02:06:23.90	229.51	21.36	
2025-01-20 02:06:25.12	229.37	21.18	
2025-01-20 02:06:26.34	229.23	21.01	
2025-01-20 02:06:27.56	229.09	20.84	
2025-01-20 02:06:28.77	228.96	20.67	
2025-01-20 02:06:29.99	228.83	20.49	
2025-01-20 02:06:31.21	228.70	20.32	
2025-01-20 02:06:32.43	228.57	20.16	
2025-01-20 02:06:33.65	228.44	19.99	
2025-01-20 02:06:34.86	228.32	19.82	
2025-01-20 02:06:36.08	228.19	19.66	
2025-01-20 02:06:37.30	228.07	19.49	
2025-01-20 02:06:38.52	227.95	19.33	
2025-01-20 02:06:39.73	227.83	19.17	
2025-01-20 02:06:40.95	227.71	19.01	
2025-01-20 02:06:42.17	227.59	18.85	
2025-01-20 02:06:43.39	227.47	18.69	
2025-01-20 02:06:44.60	227.36	18.53	
2025-01-20 02:06:45.82	227.24	18.37	
2025-01-20 02:06:47.04	227.13	18.21	
2025-01-20 02:06:48.26	227.02	18.06	
2025-01-20 02:06:49.48	226.91	17.90	
2025-01-20 02:06:50.69	226.80	17.75	
2025-01-20 02:06:51.91	226.69	17.60	
2025-01-20 02:06:53.13	226.59	17.45	
2025-01-20 02:06:54.35	226.48	17.30	
2025-01-20 02:06:55.56	226.38	17.15	
2025-01-20 02:06:56.78	226.27	17.00	
2025-01-20 02:06:58.00	226.17	16.85	
2025-01-20 02:06:59.22	226.07	16.70	
2025-01-20 02:07:00.44	225.97	16.56	
2025-01-20 02:07:01.65	225.87	16.41	
2025-01-20 02:07:02.87	225.78	16.27	
2025-01-20 02:07:04.09	225.68	16.12	
2025-01-20 02:07:05.31	225.58	15.98	
2025-01-20 02:07:06.52	225.49	15.84	
2025-01-20 02:07:07.74	225.40	15.70	
2025-01-20 02:07:08.96	225.30	15.56	
2025-01-20 02:07:10.18	225.21	15.42	
2025-01-20 02:07:11.39	225.12	15.28	
2025-01-20 02:07:12.61	225.03	15.14	
2025-01-20 02:07:13.83	224.94	15.01	
2025-01-20 02:07:15.05	224.85	14.87	
2025-01-20 02:07:16.27	224.77	14.73	
2025-01-20 02:07:17.48	224.68	14.60	
2025-01-20 02:07:18.70	224.59	14.47	
2025-01-20 02:07:19.92	224.51	14.33	
2025-01-20 02:07:21.14	224.43	14.20	
2025-01-20 02:07:22.35	224.34	14.07	
2025-01-20 02:07:23.57	224.26	13.94	
2025-01-20 02:07:24.79	224.18	13.81	
2025-01-20 02:07:26.01	224.10	13.68	
2025-01-20 02:07:27.23	224.02	13.55	
2025-01-20 02:07:28.44	223.94	13.42	
2025-01-20 02:07:29.66	223.86	13.29	
2025-01-20 02:07:30.88	223.78	13.17	
2025-01-20 02:07:32.10	223.71	13.04	
2025-01-20 02:07:33.31	223.63	12.92	
2025-01-20 02:07:34.53	223.56	12.79	
2025-01-20 02:07:35.75	223.48	12.67	
2025-01-20 02:07:36.97	223.41	12.54	
2025-01-20 02:07:38.19	223.33	12.42	
2025-01-20 02:07:39.40	223.26	12.30	
2025-01-20 02:07:40.62	223.19	12.18	
2025-01-20 02:07:41.84	223.12	12.06	
2025-01-20 02:07:43.06	223.05	11.94	
2025-01-20 02:07:44.27	222.98	11.82	
2025-01-20 02:07:45.49	222.91	11.70	
2025-01-20 02:07:46.71	222.84	11.58	
2025-01-20 02:07:47.93	222.77	11.46	
2025-01-20 02:07:49.14	222.70	11.34	
2025-01-20 02:07:50.36	222.64	11.23	
2025-01-20 02:07:51.58	222.57	11.11	
2025-01-20 02:07:52.80	222.51	10.99	
2025-01-20 02:07:54.02	222.44	10.88	
2025-01-20 02:07:55.23	222.38	10.77	
2025-01-20 02:07:56.45	222.31	10.65	
2025-01-20 02:07:57.67	222.25	10.54	
2025-01-20 02:07:58.89	222.19	10.43	
2025-01-20 02:08:00.10	222.12	10.31	
2025-01-20 02:08:01.32	222.06	10.20	
2025-01-20 02:08:02.54	222.00	10.09	
2025-01-20 02:08:03.76	221.94	9.98	
2025-01-20 02:08:04.98	221.88	9.87	
2025-01-20 02:08:06.19	221.82	9.76	
2025-01-20 02:08:07.41	221.76	9.65	
2025-01-20 02:08:08.63	221.70	9.54	
2025-01-20 02:08:09.85	221.64	9.43	
2025-01-20 02:08:11.06	221.59	9.33	
2025-01-20 02:08:12.28	221.53	9.22	
2025-01-20 02:08:13.50	221.47	9.11	
2025-01-20 02:08:14.72	221.42	9.01	
2025-01-20 02:08:15.94	221.36	8.90	
2025-01-20 02:08:17.15	221.30	8.80	
2025-01-20 02:08:18.37	221.25	8.69	
2025-01-20 02:08:19.59	221.20	8.59	
2025-01-20 02:08:20.81	221.14	8.48	
2025-01-20 02:08:22.02	221.09	8.38	
2025-01-20 02:08:23.24	221.04	8.28	
2025-01-20 02:08:24.46	220.98	8.17	
2025-01-20 02:08:25.68	220.93	8.07	
2025-01-20 02:08:26.89	220.88	7.97	
2025-01-20 02:08:28.11	220.83	7.87	
2025-01-20 02:08:29.33	220.78	7.77	
2025-01-20 02:08:30.55	220.73	7.67	
2025-01-20 02:08:31.77	220.67	7.57	
2025-01-20 02:08:32.98	220.63	7.47	
2025-01-20 02:08:34.20	220.58	7.37	
2025-01-20 02:08:35.42	220.53	7.27	
2025-01-20 02:08:36.64	220.48	7.17	
2025-01-20 02:08:37.85	220.43	7.07	
2025-01-20 02:08:39.07	220.38	6.98	
2025-01-20 02:08:40.29	220.33	6.88	
2025-01-20 02:08:41.51	220.29	6.78	
2025-01-20 02:08:42.73	220.24	6.69	
2025-01-20 02:08:43.94	220.19	6.59	
2025-01-20 02:08:45.16	220.15	6.49	
2025-01-20 02:08:46.38	220.10	6.40	
2025-01-20 02:08:47.60	220.06	6.30	
2025-01-20 02:08:48.81	220.01	6.21	
2025-01-20 02:08:50.03	219.97	6.12	
2025-01-20 02:08:51.25	219.92	6.02	
2025-01-20 02:08:52.47	219.88	5.93	
2025-01-20 02:08:53.69	219.84	5.83	
2025-01-20 02:08:54.90	219.79	5.74	
2025-01-20 02:08:56.12	219.75	5.65	
2025-01-20 02:08:57.34	219.71	5.56	
2025-01-20 02:08:58.56	219.66	5.47	
2025-01-20 02:08:59.77	219.62	5.38	
2025-01-20 02:09:00.99	219.58	5.28	
2025-01-20 02:09:02.21	219.54	5.19	
2025-01-20 02:09:03.43	219.50	5.10	
2025-01-20 02:09:04.64	219.46	5.01	
2025-01-20 02:09:05.86	219.42	4.92	
2025-01-20 02:09:07.08	219.38	4.83	
2025-01-20 02:09:08.30	219.34	4.74	
2025-01-20 02:09:09.52	219.30	4.66	
2025-01-20 02:09:10.73	219.26	4.57	
2025-01-20 02:09:11.95	219.22	4.48	
2025-01-20 02:09:13.17	219.18	4.39	
2025-01-20 02:09:14.39	219.14	4.30	
2025-01-20 02:09:15.60	219.10	4.22	
2025-01-20 02:09:16.82	219.06	4.13	
2025-01-20 02:09:18.04	219.03	4.04	

#Closed at: 2025-01-20 02:09:18