passes_logs/2025/01/07/X_MFTI_02/X_MFTI_02__20250107_011805_FENGYUN_3D_rec.log

#Pass ID: 20250107_011805_FENGYUN 3D
#Satellite: FENGYUN 3D
#Configuration: FENGYUN 3D
#Start time: 2025-01-07 01:18:00

#Version: 1.5.20200625
#Station: X_MFTI_02
#Location: 37.5186 lon 55.9291 lat
#TLE: 1 43010U 17072A   23362.50642187  .00000183  00000+0  10870-3 0  9994
#TLE: 2 43010  98.8887 311.3857 0002475  98.0400 262.1057 14.19259665317063

#Time	Az	El	Level	Level2	SNR	BER	Gain	Gain2
2025-01-07 01:18:00.57	347.02	68.25	-68.6	-88.4	3.8	8453407	97	35010
2025-01-07 01:18:00.98	346.72	68.41	-69.9	-88.7	3.8	8449390	99	31388
2025-01-07 01:18:01.40	346.41	68.57	-68.3	-87.2	3.8	8463272	99	32016
2025-01-07 01:18:01.81	346.11	68.73	-68.2	-87.1	3.8	8449607	99	31479
2025-01-07 01:18:02.23	345.79	68.89	-69.8	-88.7	3.8	8455101	99	31654
2025-01-07 01:18:02.64	345.48	69.04	-69.9	-88.8	3.8	8477554	99	31683
2025-01-07 01:18:03.06	345.15	69.20	-69.8	-88.6	3.8	8467552	99	31572
2025-01-07 01:18:03.48	344.82	69.36	-69.8	-88.5	3.8	8465927	99	30940
2025-01-07 01:18:03.90	344.48	69.52	-69.8	-88.7	3.8	8455261	99	31743
2025-01-07 01:18:04.31	344.15	69.67	-69.8	-88.7	3.8	8462333	99	31760
2025-01-07 01:18:04.73	343.80	69.83	-69.9	-88.4	3.7	8462196	99	30383
2025-01-07 01:18:05.15	343.44	69.99	-69.8	-88.3	3.8	8458614	99	30369
2025-01-07 01:18:05.56	343.09	70.14	-69.8	-88.7	3.8	8457538	99	31410
2025-01-07 01:18:05.98	342.72	70.30	-69.8	-88.6	3.8	8465824	99	31471
2025-01-07 01:18:06.39	342.36	70.45	-69.9	-88.7	3.8	8466156	99	31425
2025-01-07 01:18:06.81	341.98	70.60	-69.8	-88.6	3.8	8453990	99	31501
2025-01-07 01:18:07.23	341.59	70.76	-69.2	-88.1	3.9	8451782	99	31450
2025-01-07 01:18:07.64	341.21	70.91	-69.9	-88.6	3.7	8451816	99	31307
2025-01-07 01:18:08.06	340.81	71.06	-69.8	-88.4	3.8	8447696	99	30704
2025-01-07 01:18:08.47	340.41	71.21	-69.6	-88.5	3.8	8457893	99	31437
2025-01-07 01:18:08.89	340.00	71.36	-69.8	-88.6	3.8	8467918	99	31519
2025-01-07 01:18:09.30	339.59	71.51	-69.8	-88.7	3.8	8455627	99	31517
2025-01-07 01:18:09.72	339.16	71.66	-70.0	-88.9	3.8	8464279	99	31711
2025-01-07 01:18:10.14	338.73	71.81	-69.9	-88.8	3.8	8459644	99	31722
2025-01-07 01:18:10.55	338.29	71.95	-69.9	-88.8	3.8	8461658	99	31751
2025-01-07 01:18:10.97	337.84	72.10	-69.8	-88.8	3.8	8447845	99	31824
2025-01-07 01:18:11.39	337.38	72.25	-69.8	-88.7	3.8	8457389	99	31744
2025-01-07 01:18:11.80	336.93	72.39	-69.8	-88.7	3.8	8454952	99	31639
2025-01-07 01:18:12.22	336.45	72.54	-69.9	-88.8	3.8	8459083	99	31585
2025-01-07 01:18:12.63	335.98	72.68	-69.9	-88.8	3.8	8457412	99	31663
2025-01-07 01:18:13.05	335.49	72.82	-69.9	-88.8	3.8	8459152	99	31760
2025-01-07 01:18:13.47	334.99	72.97	-69.9	-88.8	3.8	8464679	99	31739
2025-01-07 01:18:13.89	334.48	73.11	-68.7	-88.1	3.8	8454139	98	33619
2025-01-07 01:18:14.30	333.98	73.24	-69.8	-88.9	3.8	8464588	99	32271
2025-01-07 01:18:14.72	333.45	73.38	-69.8	-88.6	3.8	8461418	99	31468
2025-01-07 01:18:15.14	332.91	73.52	-69.6	-88.4	3.7	8462413	99	31538
2025-01-07 01:18:15.55	332.38	73.65	-69.1	-88.8	3.8	8451301	99	34580
2025-01-07 01:18:15.97	331.82	73.79	-68.8	-88.0	3.8	8457012	98	32935
2025-01-07 01:18:16.38	331.27	73.92	-68.9	-88.1	3.8	8466339	98	32913
2025-01-07 01:18:16.80	330.70	74.05	-69.8	-88.7	3.8	8448818	99	31716
2025-01-07 01:18:17.22	330.11	74.18	-69.8	-88.7	4.0	8462528	99	31648
2025-01-07 01:18:17.64	329.52	74.31	-69.9	-88.7	3.8	8463867	99	31437
2025-01-07 01:18:18.05	328.93	74.44	-69.9	-88.6	3.8	8453807	99	31209
2025-01-07 01:18:18.47	328.31	74.57	-69.9	-88.7	3.8	8461017	99	31437
2025-01-07 01:18:18.88	327.70	74.69	-70.1	-90.1	3.8	8458648	99	35781
2025-01-07 01:18:19.30	327.07	74.81	-68.8	-88.1	3.8	8454494	98	33293
2025-01-07 01:18:19.71	326.43	74.93	-68.4	-88.2	3.8	8472930	97	35141
2025-01-07 01:18:20.13	325.78	75.05	-69.9	-88.7	3.8	8464324	99	31488
2025-01-07 01:18:20.54	325.12	75.17	-70.1	-89.3	3.8	8453453	99	33104
2025-01-07 01:18:20.96	324.44	75.28	-69.9	-88.7	3.8	8466831	99	31415
2025-01-07 01:18:21.37	323.77	75.39	-69.8	-88.6	3.8	8456577	99	31479
2025-01-07 01:18:21.79	323.07	75.51	-69.8	-88.6	3.8	8457973	99	31531
2025-01-07 01:18:22.21	322.35	75.62	-69.8	-88.6	3.8	8460296	99	31488
2025-01-07 01:18:22.62	321.65	75.72	-70.0	-88.8	3.8	8465629	99	31459
2025-01-07 01:18:23.04	320.91	75.83	-69.9	-88.8	3.8	8462596	99	31451
2025-01-07 01:18:23.45	320.18	75.93	-69.7	-88.6	3.8	8453681	99	31521
2025-01-07 01:18:23.87	319.42	76.03	-68.9	-88.3	3.7	8470619	98	33495
2025-01-07 01:18:24.29	318.65	76.13	-69.9	-88.9	3.8	8459243	99	31994
2025-01-07 01:18:24.70	317.89	76.23	-69.8	-88.6	3.8	8454757	99	31443
2025-01-07 01:18:25.12	317.10	76.32	-69.8	-88.6	3.8	8467918	99	31308
2025-01-07 01:18:25.53	316.32	76.41	-69.9	-88.8	3.8	8456108	99	31467
2025-01-07 01:18:25.95	315.50	76.50	-69.9	-88.8	3.8	8449859	99	31483
2025-01-07 01:18:26.36	314.70	76.59	-69.9	-88.7	3.8	8465011	99	31489
2025-01-07 01:18:26.78	313.86	76.67	-69.9	-88.7	3.8	8458213	99	31493
2025-01-07 01:18:27.19	313.03	76.75	-68.8	-87.6	3.8	8465515	99	31451
2025-01-07 01:18:27.61	312.18	76.83	-69.7	-88.5	3.8	8457916	99	31523
2025-01-07 01:18:28.03	311.31	76.90	-69.9	-88.7	3.8	8469200	99	31460
2025-01-07 01:18:28.44	310.45	76.98	-69.4	-88.8	3.7	8458007	98	33266
2025-01-07 01:18:28.86	309.56	77.05	-69.6	-88.9	3.8	8463191	98	33234
2025-01-07 01:18:29.28	308.67	77.11	-69.9	-88.8	3.8	8459026	99	31530
2025-01-07 01:18:29.69	307.78	77.18	-69.7	-88.6	3.8	8459655	99	31755
2025-01-07 01:18:30.11	306.86	77.24	-69.8	-88.7	3.8	8454917	99	31693
2025-01-07 01:18:30.53	305.94	77.29	-69.8	-88.7	3.8	8463729	99	31674
2025-01-07 01:18:30.94	305.03	77.35	-69.8	-88.7	3.8	8472301	99	31700
2025-01-07 01:18:31.36	304.09	77.40	-69.8	-88.7	3.8	8463386	99	31712
2025-01-07 01:18:31.77	303.16	77.45	-69.8	-88.7	3.8	8454059	99	31680
2025-01-07 01:18:32.19	302.20	77.49	-69.7	-88.6	3.8	8474178	99	31742
2025-01-07 01:18:32.60	301.27	77.53	-69.8	-88.6	3.8	8456485	99	31502
2025-01-07 01:18:33.02	300.30	77.57	-69.7	-88.5	3.8	8457138	99	31367
2025-01-07 01:18:33.43	299.34	77.60	-69.8	-88.6	3.8	8454883	99	31431
2025-01-07 01:18:33.85	298.36	77.63	-69.9	-89.2	3.8	8468788	98	33325
2025-01-07 01:18:34.27	297.38	77.66	-68.3	-87.2	3.8	8473400	98	31495
2025-01-07 01:18:34.68	296.41	77.69	-69.7	-88.5	3.8	8469497	99	31380
2025-01-07 01:18:35.10	295.42	77.71	-69.9	-88.7	3.8	8463466	99	31467
2025-01-07 01:18:35.52	294.43	77.72	-69.7	-88.5	3.8	8474235	99	31451
2025-01-07 01:18:35.93	293.45	77.74	-69.9	-88.7	3.8	8454608	99	31425
2025-01-07 01:18:36.35	292.45	77.74	-69.8	-88.6	3.8	8459495	99	31442
2025-01-07 01:18:36.76	291.47	77.75	-68.0	-87.4	3.8	8470401	97	33572
2025-01-07 01:18:37.18	290.47	77.75	-69.8	-89.1	3.8	8467723	98	33329
2025-01-07 01:18:37.60	289.47	77.75	-69.0	-88.3	3.7	8461063	98	33278
2025-01-07 01:18:38.01	288.49	77.75	-69.2	-88.5	3.8	8466785	98	33372
2025-01-07 01:18:38.43	287.49	77.74	-69.8	-88.6	3.8	8447364	99	31121
2025-01-07 01:18:38.85	286.49	77.73	-69.1	-88.4	3.8	8460468	98	33225
2025-01-07 01:18:39.26	285.52	77.71	-69.8	-88.5	3.8	8467884	99	31289
2025-01-07 01:18:39.68	284.53	77.69	-69.7	-88.6	3.8	8473514	99	31791
2025-01-07 01:18:40.10	283.54	77.67	-68.8	-87.6	3.8	8468845	99	31389
2025-01-07 01:18:40.51	282.57	77.64	-69.7	-88.3	3.9	8459552	99	30797
2025-01-07 01:18:40.93	281.59	77.61	-69.8	-88.6	3.8	8458419	99	31443
2025-01-07 01:18:41.34	280.64	77.58	-69.8	-89.1	3.8	8455089	98	33154
2025-01-07 01:18:41.76	279.67	77.54	-69.8	-89.1	3.7	8462505	98	33261
2025-01-07 01:18:42.17	278.73	77.50	-69.7	-88.5	3.8	8460731	99	31427
2025-01-07 01:18:42.59	277.77	77.46	-69.8	-88.6	3.8	8457881	99	31412
2025-01-07 01:18:43.00	276.84	77.41	-69.8	-88.6	3.8	8460239	99	31357
2025-01-07 01:18:43.42	275.89	77.36	-69.9	-89.0	3.8	8465847	99	32458
2025-01-07 01:18:43.84	274.96	77.31	-69.9	-88.7	3.8	8473365	99	31365
2025-01-07 01:18:44.25	274.05	77.25	-68.2	-87.5	3.8	8459907	98	33177
2025-01-07 01:18:44.67	273.13	77.19	-69.9	-89.1	3.7	8464027	98	32786
2025-01-07 01:18:45.09	272.22	77.13	-68.2	-87.8	3.8	8459323	97	34262
2025-01-07 01:18:45.50	271.34	77.07	-68.5	-88.4	3.8	8451541	97	35585
2025-01-07 01:18:45.92	270.45	77.00	-69.2	-88.5	3.9	8456771	98	33032
2025-01-07 01:18:46.34	269.57	76.93	-69.4	-88.3	3.9	8460250	99	31762
2025-01-07 01:18:46.75	268.72	76.85	-69.0	-87.9	3.9	8468696	99	31690
2025-01-07 01:18:47.17	267.86	76.77	-69.9	-88.9	3.9	8461647	99	31728
2025-01-07 01:18:47.59	267.01	76.69	-68.3	-87.6	3.7	8442947	99	33409
2025-01-07 01:18:48.00	266.19	76.61	-69.8	-88.7	3.9	8453968	99	31969
2025-01-07 01:18:48.42	265.36	76.52	-68.3	-88.0	3.8	8452468	98	34672
2025-01-07 01:18:48.83	264.56	76.44	-69.9	-89.0	3.7	8456989	98	32712
2025-01-07 01:18:49.24	263.77	76.35	-69.8	-88.9	3.8	8456966	99	32172
2025-01-07 01:18:49.66	262.98	76.25	-68.3	-88.1	3.8	8462402	97	35133
2025-01-07 01:18:50.08	262.19	76.16	-69.8	-89.4	3.8	8466602	98	34493
2025-01-07 01:18:50.50	261.42	76.06	-68.3	-88.1	3.8	8467311	97	35290
2025-01-07 01:18:50.91	260.68	75.96	-69.9	-88.7	3.9	8458694	99	31451
2025-01-07 01:18:51.33	259.93	75.86	-69.9	-88.7	3.8	8455696	99	31500
2025-01-07 01:18:51.74	259.20	75.75	-69.8	-88.6	3.8	8458946	99	31342
2025-01-07 01:18:52.16	258.48	75.65	-69.9	-88.8	3.8	8467906	99	31472
2025-01-07 01:18:52.58	257.76	75.54	-68.4	-87.5	3.8	8468971	98	32369
2025-01-07 01:18:53.00	257.05	75.42	-68.3	-88.1	3.8	8462928	97	35180
2025-01-07 01:18:53.41	256.38	75.31	-68.3	-87.4	3.9	8456062	98	32458
2025-01-07 01:18:53.83	255.69	75.20	-68.2	-88.0	3.8	8457744	97	35108
2025-01-07 01:18:54.25	255.02	75.08	-68.4	-88.1	3.8	8456943	97	34694
2025-01-07 01:18:54.66	254.37	74.96	-68.3	-88.1	3.8	8449642	97	35110
2025-01-07 01:18:55.08	253.72	74.84	-69.7	-88.5	3.8	8473331	99	31410
2025-01-07 01:18:55.49	253.10	74.72	-69.9	-88.7	3.8	8464187	99	31413
2025-01-07 01:18:55.91	252.47	74.60	-69.4	-89.3	3.7	8452251	99	35479
2025-01-07 01:18:56.32	251.87	74.47	-69.8	-88.6	3.8	8453338	99	31390
2025-01-07 01:18:56.74	251.26	74.34	-69.9	-88.7	3.8	8473720	99	31420
2025-01-07 01:18:57.15	250.67	74.22	-69.7	-88.5	3.9	8451370	99	31386
2025-01-07 01:18:57.57	250.09	74.09	-70.1	-90.0	3.8	8453979	99	35562
2025-01-07 01:18:57.99	249.51	73.95	-69.8	-88.6	3.8	8461658	99	31326
2025-01-07 01:18:58.40	248.95	73.82	-69.8	-88.6	3.8	8451473	99	31326
2025-01-07 01:18:58.82	248.40	73.69	-69.7	-88.5	3.8	8468948	99	31363
2025-01-07 01:18:59.23	247.86	73.55	-70.0	-89.5	3.8	8458602	99	34077
2025-01-07 01:18:59.64	247.33	73.42	-69.7	-88.5	3.8	8466075	99	31393
2025-01-07 01:19:00.06	246.80	73.28	-69.8	-88.1	3.9	8462654	99	29712
2025-01-07 01:19:00.47	246.29	73.14	-69.9	-88.7	3.8	8452342	99	31392
2025-01-07 01:19:00.88	245.79	73.01	-69.7	-88.5	3.8	8458431	99	31462
2025-01-07 01:19:01.30	245.29	72.86	-69.7	-88.6	3.8	8454666	99	31361
2025-01-07 01:19:01.72	244.80	72.72	-69.4	-88.2	3.8	8457126	99	31367
2025-01-07 01:19:02.13	244.32	72.58	-68.5	-88.3	3.8	8459804	97	35127
2025-01-07 01:19:02.54	243.85	72.44	-68.8	-88.7	3.8	8455936	97	35362
2025-01-07 01:19:02.96	243.38	72.29	-68.2	-88.1	3.8	8455718	97	35482
2025-01-07 01:19:03.37	242.93	72.15	-68.4	-88.3	3.8	8465950	97	35523
2025-01-07 01:19:03.79	242.48	72.00	-68.2	-88.1	3.8	8459564	97	35497
2025-01-07 01:19:04.20	242.04	71.85	-69.9	-88.8	3.8	8454860	99	31766
2025-01-07 01:19:04.62	241.61	71.70	-69.8	-88.8	3.8	8450855	99	32092
2025-01-07 01:19:05.04	241.17	71.55	-68.3	-88.1	3.8	8468833	97	35514
2025-01-07 01:19:05.45	240.76	71.41	-68.2	-88.0	3.8	8467815	97	35513
2025-01-07 01:19:05.87	240.35	71.25	-69.9	-88.8	3.8	8461257	99	31724
2025-01-07 01:19:06.28	239.95	71.11	-69.6	-88.4	3.8	8466945	99	31203
2025-01-07 01:19:06.70	239.54	70.95	-69.7	-88.5	3.8	8451164	99	31398
2025-01-07 01:19:07.11	239.16	70.80	-69.2	-88.1	3.9	8470470	99	31511
2025-01-07 01:19:07.53	238.77	70.65	-69.7	-88.5	3.9	8467014	99	31356
2025-01-07 01:19:07.94	238.39	70.50	-69.6	-88.4	3.8	8468719	99	31374
2025-01-07 01:19:08.36	238.02	70.34	-69.8	-88.7	3.9	8450340	99	31688

#Closed at: 2025-01-07 01:19:08