passes_logs/2025/01/07/X_MFTI_02/X_MFTI_02__20250107_075639_TERRA_rec.log

#Pass ID: 20250107_075639_TERRA
#Satellite: TERRA
#Configuration: TERRA
#Start time: 2025-01-07 07:56:35

#Version: 1.5.20200625
#Station: X_MFTI_02
#Location: 37.5186 lon 55.9291 lat
#TLE: 1 25994U 99068A   23362.45014226  .00000817  00000+0  18168-3 0  9993
#TLE: 2 25994  98.0729  65.8244 0002317 146.5078 343.6211 14.59509299278111

#Time	Az	El	Level	Level2	SNR	BER	Gain	Gain2
2025-01-07 07:56:35.73	13.49	68.61	-76.3	-96.3	3.2	14916221	99	35848
2025-01-07 07:56:36.15	13.46	68.84	-76.3	-96.2	3.2	14905906	99	35596
2025-01-07 07:56:36.55	13.42	69.06	-76.3	-96.1	3.2	14910247	99	35401
2025-01-07 07:56:36.95	13.39	69.28	-76.3	-96.3	3.3	14916076	99	35782
2025-01-07 07:56:37.36	13.35	69.51	-76.3	-96.2	3.2	14917228	99	35768
2025-01-07 07:56:37.76	13.31	69.73	-76.3	-96.2	3.2	14917228	99	35827
2025-01-07 07:56:38.17	13.27	69.96	-76.3	-96.2	3.2	14911491	99	35477
2025-01-07 07:56:38.57	13.23	70.18	-76.3	-96.3	3.3	14894187	99	35827
2025-01-07 07:56:38.97	13.19	70.40	-76.3	-96.3	3.2	14902976	99	35845
2025-01-07 07:56:39.39	13.15	70.64	-76.3	-96.1	3.3	14901756	99	35378
2025-01-07 07:56:39.81	13.10	70.87	-76.3	-96.2	3.2	14905014	99	35777
2025-01-07 07:56:40.22	13.06	71.10	-76.3	-96.3	3.2	14905014	99	35893
2025-01-07 07:56:40.63	13.01	71.33	-76.3	-96.2	3.2	14902069	99	35731
2025-01-07 07:56:41.03	12.97	71.56	-76.2	-96.1	3.2	14911323	99	35360
2025-01-07 07:56:41.43	12.92	71.79	-76.3	-96.2	3.3	14900840	99	35497
2025-01-07 07:56:41.83	12.87	72.01	-76.3	-96.2	3.3	14910301	99	35716
2025-01-07 07:56:42.25	12.82	72.25	-76.3	-96.3	3.3	14904281	99	35772
2025-01-07 07:56:42.67	12.76	72.49	-76.3	-96.2	3.2	14904281	99	35548
2025-01-07 07:56:43.07	12.71	72.72	-76.3	-96.3	3.3	14902763	99	35709
2025-01-07 07:56:43.47	12.66	72.95	-76.3	-96.2	3.2	14905838	99	35770
2025-01-07 07:56:43.89	12.60	73.19	-76.3	-96.2	3.3	14918960	99	35679
2025-01-07 07:56:44.30	12.54	73.42	-76.3	-96.3	3.2	14906044	99	35818
2025-01-07 07:56:44.70	12.48	73.65	-76.3	-96.3	3.2	14906044	99	35918
2025-01-07 07:56:45.10	12.42	73.88	-76.3	-96.3	3.2	14906394	99	35936
2025-01-07 07:56:45.51	12.35	74.12	-76.5	-97.1	3.2	14904754	99	38590
2025-01-07 07:56:45.91	12.29	74.35	-76.3	-96.2	3.2	14909660	99	35519
2025-01-07 07:56:46.31	12.22	74.58	-76.3	-96.2	3.4	14892677	99	35536
2025-01-07 07:56:46.71	12.15	74.82	-76.3	-96.1	3.2	14892677	99	35416
2025-01-07 07:56:47.12	12.07	75.05	-76.3	-96.1	3.3	14866020	99	35279
2025-01-07 07:56:47.52	12.00	75.29	-76.3	-96.3	3.3	14900917	99	36131
2025-01-07 07:56:47.93	11.92	75.53	-76.3	-96.1	3.3	14899993	99	35251
2025-01-07 07:56:48.33	11.84	75.76	-76.3	-96.2	3.3	14874023	99	35457
2025-01-07 07:56:48.73	11.76	76.00	-76.3	-96.2	3.3	14874023	99	35642
2025-01-07 07:56:49.13	11.67	76.23	-76.3	-96.2	3.2	14912765	99	35637
2025-01-07 07:56:49.53	11.58	76.46	-76.3	-96.2	3.3	14915542	99	35837
2025-01-07 07:56:49.95	11.49	76.71	-76.3	-96.2	3.3	14873580	99	35710
2025-01-07 07:56:50.37	11.39	76.96	-76.3	-96.1	3.2	14901885	99	35406
2025-01-07 07:56:50.79	11.28	77.21	-76.3	-96.2	3.3	14901397	99	35644
2025-01-07 07:56:51.19	11.18	77.44	-76.3	-96.2	3.2	14901397	99	35594
2025-01-07 07:56:51.59	11.07	77.68	-76.3	-96.2	3.2	14910476	99	35473
2025-01-07 07:56:52.00	10.95	77.92	-76.3	-96.2	3.3	14907066	99	35623
2025-01-07 07:56:52.40	10.84	78.16	-76.3	-96.2	3.3	14916320	99	35610
2025-01-07 07:56:52.80	10.72	78.40	-76.3	-96.2	3.2	14910408	99	35689
2025-01-07 07:56:53.20	10.59	78.64	-76.3	-96.2	3.3	14910408	99	35543
2025-01-07 07:56:53.61	10.45	78.88	-76.3	-96.3	3.3	14910156	99	36039
2025-01-07 07:56:54.02	10.31	79.13	-76.3	-96.2	3.2	14904396	99	35814
2025-01-07 07:56:54.43	10.16	79.37	-76.2	-96.2	3.2	14914199	99	35854
2025-01-07 07:56:54.85	10.00	79.62	-76.3	-96.2	3.3	14911323	99	35810
2025-01-07 07:56:55.25	9.84	79.86	-76.3	-96.2	3.2	14909973	99	35719
2025-01-07 07:56:55.65	9.67	80.10	-76.3	-96.3	3.3	14909973	99	35766
2025-01-07 07:56:56.06	9.49	80.35	-76.3	-96.2	3.2	14897872	99	35735
2025-01-07 07:56:56.47	9.29	80.59	-76.3	-96.3	3.3	14876289	99	35937
2025-01-07 07:56:56.87	9.10	80.83	-76.3	-96.3	3.2	14899765	99	35961
2025-01-07 07:56:57.28	8.88	81.08	-76.4	-97.0	3.1	14875770	99	38171
2025-01-07 07:56:57.68	8.66	81.32	-76.3	-96.2	3.2	14875770	99	35791
2025-01-07 07:56:58.08	8.43	81.56	-76.3	-96.3	3.2	14887397	99	35794
2025-01-07 07:56:58.50	8.17	81.81	-76.3	-96.2	3.2	14904724	99	35582
2025-01-07 07:56:58.90	7.91	82.06	-76.3	-96.3	3.2	14900115	99	35787
2025-01-07 07:56:59.31	7.62	82.30	-76.3	-96.3	3.3	14898704	99	35861
2025-01-07 07:56:59.71	7.32	82.54	-76.3	-96.3	3.3	14898704	99	35862
2025-01-07 07:57:00.13	6.99	82.80	-76.3	-96.3	3.4	14909294	99	36094
2025-01-07 07:57:00.53	6.65	83.04	-76.1	-96.1	3.4	14885025	99	36115
2025-01-07 07:57:00.95	6.26	83.29	-76.3	-96.2	3.2	14869255	99	35527
2025-01-07 07:57:01.35	5.86	83.53	-76.2	-96.1	3.3	14901962	99	35542
2025-01-07 07:57:01.77	5.42	83.78	-76.3	-96.2	3.3	14902214	99	35701
2025-01-07 07:57:02.18	4.94	84.03	-76.3	-96.2	3.2	14902214	99	35693
2025-01-07 07:57:02.58	4.44	84.27	-76.3	-96.3	3.3	14886703	99	35876
2025-01-07 07:57:02.98	3.89	84.51	-76.3	-96.2	3.2	14901794	99	35661
2025-01-07 07:57:03.38	3.29	84.75	-76.3	-96.2	3.3	14898277	99	35754
2025-01-07 07:57:03.79	2.61	85.00	-76.3	-96.3	3.3	14877227	99	35725
2025-01-07 07:57:04.19	1.89	85.23	-76.3	-96.2	3.3	14877227	99	35687
2025-01-07 07:57:04.60	1.07	85.48	-76.3	-96.2	3.2	14901771	99	35518
2025-01-07 07:57:05.01	0.15	85.72	-76.3	-96.2	3.3	14907218	99	35676
2025-01-07 07:57:05.41	359.15	85.96	-76.2	-96.1	3.3	14870529	99	35441
2025-01-07 07:57:05.82	358.00	86.20	-76.3	-96.2	3.3	14907844	99	35558
2025-01-07 07:57:06.22	356.72	86.43	-76.3	-96.3	3.2	14907844	99	35840
2025-01-07 07:57:06.62	355.27	86.66	-76.3	-96.3	3.2	14912727	99	35859
2025-01-07 07:57:07.03	353.55	86.90	-76.3	-96.3	3.3	14871154	99	35874
2025-01-07 07:57:07.43	351.61	87.12	-76.2	-96.0	3.2	14891830	99	35388
2025-01-07 07:57:07.83	349.34	87.34	-76.3	-96.1	3.2	14913764	99	35115
2025-01-07 07:57:08.25	346.51	87.57	-76.3	-96.2	3.3	14868453	99	35694
2025-01-07 07:57:08.67	343.11	87.79	-76.3	-96.3	3.3	14868453	99	35980
2025-01-07 07:57:09.07	339.19	87.99	-76.3	-96.4	3.7	14891128	99	36566
2025-01-07 07:57:09.47	334.42	88.18	-76.2	-96.0	3.3	14898544	99	35437
2025-01-07 07:57:09.87	328.58	88.36	-76.3	-96.1	3.3	14875221	99	35346
2025-01-07 07:57:10.28	321.25	88.52	-76.3	-96.2	3.3	14889205	99	35464
2025-01-07 07:57:10.68	312.61	88.64	-76.3	-96.1	3.3	14889205	99	35340
2025-01-07 07:57:11.09	302.23	88.73	-76.3	-96.3	3.2	14911087	99	35982
2025-01-07 07:57:11.49	291.00	88.77	-76.2	-96.1	3.3	14902664	99	35605
2025-01-07 07:57:11.89	279.44	88.77	-76.3	-96.2	3.3	14904495	99	35796
2025-01-07 07:57:12.29	268.44	88.71	-76.3	-96.4	3.3	14910346	99	36069
2025-01-07 07:57:12.70	258.44	88.61	-76.3	-96.3	3.3	14910346	99	35966
2025-01-07 07:57:13.10	250.21	88.48	-76.3	-96.3	3.2	14906555	99	35784
2025-01-07 07:57:13.50	243.41	88.32	-76.3	-96.2	3.3	14911193	99	35617
2025-01-07 07:57:13.92	237.61	88.13	-76.3	-96.3	3.2	14901344	99	35797
2025-01-07 07:57:14.32	233.10	87.94	-76.3	-96.3	3.3	14904571	99	35915
2025-01-07 07:57:14.73	229.31	87.73	-76.3	-96.2	3.2	14904571	99	35624
2025-01-07 07:57:15.14	226.17	87.51	-76.3	-96.3	3.3	14869796	99	35782
2025-01-07 07:57:15.55	223.54	87.28	-76.3	-96.1	3.5	14901725	99	35278
2025-01-07 07:57:15.95	221.36	87.06	-76.1	-96.1	3.3	14898315	99	35687
2025-01-07 07:57:16.36	219.46	86.83	-76.3	-96.2	3.3	14909530	99	35572
2025-01-07 07:57:16.76	217.85	86.60	-76.2	-96.1	3.3	14913635	99	35509
2025-01-07 07:57:17.16	216.44	86.37	-76.3	-96.3	3.3	14913635	99	36011
2025-01-07 07:57:17.57	215.18	86.13	-76.3	-96.3	3.2	14910217	99	35991
2025-01-07 07:57:17.97	214.09	85.89	-76.3	-96.1	3.3	14916168	99	35440
2025-01-07 07:57:18.37	213.12	85.66	-76.3	-96.3	3.2	14901794	99	36016
2025-01-07 07:57:18.77	212.25	85.42	-76.3	-96.3	3.3	14909965	99	36056
2025-01-07 07:57:19.18	211.45	85.17	-76.3	-96.2	3.3	14909965	99	35768
2025-01-07 07:57:19.60	210.71	84.92	-76.3	-96.3	3.2	14913902	99	36007
2025-01-07 07:57:20.00	210.07	84.68	-76.2	-96.2	3.2	14912513	99	35933
2025-01-07 07:57:20.41	209.47	84.44	-76.3	-96.3	3.2	14907501	99	36223
2025-01-07 07:57:20.81	208.94	84.20	-76.2	-96.4	3.5	14900520	99	36521
2025-01-07 07:57:21.21	208.44	83.96	-76.3	-96.2	3.3	14900123	99	35531
2025-01-07 07:57:21.61	207.99	83.72	-76.2	-96.1	3.2	14900123	99	35540
2025-01-07 07:57:22.02	207.56	83.47	-76.2	-96.3	3.3	14897766	99	36110
2025-01-07 07:57:22.42	207.17	83.23	-76.3	-96.2	3.2	14912200	99	35705
2025-01-07 07:57:22.83	206.80	82.98	-76.3	-96.2	3.2	14906791	99	35922
2025-01-07 07:57:23.25	206.45	82.73	-76.2	-96.2	3.3	14915267	99	35886
2025-01-07 07:57:23.66	206.13	82.48	-76.2	-96.2	3.2	14915267	99	35738
2025-01-07 07:57:24.07	205.82	82.23	-76.3	-96.2	3.2	14909118	99	35522
2025-01-07 07:57:24.49	205.54	81.98	-76.2	-96.2	3.3	14917549	99	35879
2025-01-07 07:57:24.89	205.28	81.74	-76.1	-96.1	3.3	14920219	99	35938
2025-01-07 07:57:25.31	205.02	81.49	-76.3	-96.2	3.3	14903701	99	35841
2025-01-07 07:57:25.71	204.79	81.25	-76.2	-96.2	3.3	14909149	99	35662
2025-01-07 07:57:26.12	204.57	81.00	-76.2	-96.1	3.3	14909149	99	35627
2025-01-07 07:57:26.53	204.36	80.75	-76.3	-96.2	3.3	14917694	99	35797
2025-01-07 07:57:26.93	204.17	80.51	-76.2	-96.1	3.2	14902122	99	35663
2025-01-07 07:57:27.34	203.98	80.27	-76.3	-96.2	3.3	14906272	99	35796
2025-01-07 07:57:27.74	203.80	80.03	-76.2	-96.2	3.2	14901428	99	35952
2025-01-07 07:57:28.14	203.64	79.79	-76.3	-96.3	3.4	14901428	99	36100
2025-01-07 07:57:28.55	203.48	79.54	-76.3	-96.2	3.2	14902099	99	35820
2025-01-07 07:57:28.95	203.32	79.30	-76.2	-96.1	3.2	14873001	99	35604
2025-01-07 07:57:29.35	203.18	79.06	-76.3	-96.3	3.2	14910507	99	35995
2025-01-07 07:57:29.76	203.04	78.82	-76.3	-96.2	3.3	14888404	99	35804
2025-01-07 07:57:30.16	202.91	78.58	-76.3	-96.2	3.2	14888404	99	35756
2025-01-07 07:57:30.56	202.78	78.34	-76.3	-96.3	3.2	14896179	99	35751
2025-01-07 07:57:30.97	202.66	78.10	-76.3	-96.2	3.2	14908172	99	35769
2025-01-07 07:57:31.37	202.54	77.86	-76.3	-96.2	3.3	14907241	99	35885
2025-01-07 07:57:31.77	202.43	77.62	-76.3	-96.2	3.3	14908180	99	35716
2025-01-07 07:57:32.18	202.32	77.38	-76.3	-96.2	3.3	14908180	99	35608
2025-01-07 07:57:32.58	202.22	77.14	-76.2	-96.6	3.3	14903968	99	37753
2025-01-07 07:57:32.98	202.12	76.90	-76.3	-96.3	3.3	14909057	99	36058
2025-01-07 07:57:33.40	202.02	76.66	-76.3	-96.3	3.3	14927085	99	35895
2025-01-07 07:57:33.80	201.93	76.42	-76.3	-96.3	3.3	14907997	99	35872
2025-01-07 07:57:34.22	201.83	76.17	-76.5	-97.5	3.1	14912345	99	40477
2025-01-07 07:57:34.62	201.75	75.94	-76.3	-96.3	3.3	14912345	99	36008
2025-01-07 07:57:35.03	201.66	75.70	-76.3	-96.2	3.3	14912452	99	35562
2025-01-07 07:57:35.43	201.58	75.46	-76.2	-96.1	3.3	14906539	99	35428
2025-01-07 07:57:35.85	201.50	75.22	-76.4	-96.7	3.3	14895973	99	37356
2025-01-07 07:57:36.25	201.43	74.99	-76.3	-96.4	3.3	14874053	99	36360
2025-01-07 07:57:36.66	201.36	74.75	-76.2	-96.2	3.2	14874053	99	35622
2025-01-07 07:57:37.06	201.29	74.51	-76.2	-96.1	3.2	14897041	99	35473
2025-01-07 07:57:37.47	201.22	74.28	-76.2	-96.2	3.3	14900497	99	35845
2025-01-07 07:57:37.88	201.15	74.04	-76.3	-96.2	3.3	14882705	99	35845
2025-01-07 07:57:38.29	201.09	73.80	-76.3	-96.2	3.3	14890472	99	35833
2025-01-07 07:57:38.69	201.03	73.57	-76.2	-96.2	3.2	14898963	99	35667
2025-01-07 07:57:39.11	200.96	73.33	-76.3	-96.3	3.3	14898963	99	35991
2025-01-07 07:57:39.51	200.91	73.10	-76.2	-96.3	3.3	14907463	99	36138
2025-01-07 07:57:39.91	200.85	72.87	-76.2	-96.3	3.2	14886787	99	36150
2025-01-07 07:57:40.32	200.80	72.64	-76.2	-96.2	3.3	14911254	99	35921
2025-01-07 07:57:40.72	200.74	72.41	-76.3	-96.3	3.3	14874954	99	35993
2025-01-07 07:57:41.14	200.69	72.17	-76.3	-96.3	3.3	14874954	99	35922
2025-01-07 07:57:41.54	200.64	71.94	-76.3	-96.3	3.3	14893745	99	35908
2025-01-07 07:57:41.95	200.59	71.71	-76.3	-96.3	3.4	14901794	99	35853
2025-01-07 07:57:42.36	200.54	71.47	-76.3	-96.2	3.3	14887832	99	35899
2025-01-07 07:57:42.76	200.50	71.25	-76.2	-96.2	3.3	14885047	99	35721
2025-01-07 07:57:43.18	200.45	71.01	-76.2	-96.2	3.2	14885047	99	35888
2025-01-07 07:57:43.58	200.41	70.79	-76.3	-96.3	3.3	14897056	99	36012
2025-01-07 07:57:43.98	200.36	70.56	-76.2	-96.2	3.3	14899879	99	35986

#Closed at: 2025-01-07 07:57:44