passes_logs/2025/01/18/Regia/Regia__20250118_101639_AQUA_rec.log

#Pass ID: 20250118_101639_AQUA
#Satellite: AQUA
#Configuration: AQUA
#Start time: 2025-01-18 10:16:44.129919

#LorettStation: 1.0.0 05.05.2024
#Station: Regia
#Location: 37.494653 lon 55.929028 lat
#TLE: 1 27424U 02022A   25017.35406956  .00002011  00000+0  42265-3 0  9993
#TLE: 2 27424  98.3596 334.0391 0001834 108.8395  52.1965 14.60692761207968

#Time	Az	El	Level	SNR
2025-01-18 10:16:46.765732	126.5	15.3	-66.7	5.2
2025-01-18 10:16:47.881589	126.3	15.4	-66.0	6.6
2025-01-18 10:16:48.995902	126.2	15.5	-65.3	8.3
2025-01-18 10:16:50.110761	126.1	15.6	-64.6	9.0
2025-01-18 10:16:51.226605	126.0	15.8	-63.8	10.1
2025-01-18 10:16:52.342467	125.8	15.9	-63.2	11.4
2025-01-18 10:16:53.457326	125.7	16.0	-62.6	11.8
2025-01-18 10:16:54.572185	125.6	16.1	-61.8	13.1
2025-01-18 10:16:55.687531	125.5	16.3	-61.6	13.5
2025-01-18 10:16:56.802382	125.3	16.4	-61.2	14.3
2025-01-18 10:16:57.917241	125.2	16.5	-61.0	14.2
2025-01-18 10:16:59.032091	125.1	16.6	-61.0	14.3
2025-01-18 10:17:00.147953	124.9	16.8	-60.6	14.7
2025-01-18 10:17:01.262804	124.8	16.9	-61.0	14.3
2025-01-18 10:17:02.378667	124.7	17.0	-61.2	14.2
2025-01-18 10:17:03.493525	124.5	17.1	-60.5	15.0
2025-01-18 10:17:04.608376	124.4	17.3	-60.5	14.8
2025-01-18 10:17:05.724233	124.2	17.4	-60.6	15.0
2025-01-18 10:17:06.839076	124.1	17.5	-60.4	14.8
2025-01-18 10:17:07.956946	124.0	17.6	-60.3	15.0
2025-01-18 10:17:09.071796	123.8	17.8	-60.5	15.0
2025-01-18 10:17:10.187658	123.7	17.9	-60.3	15.3
2025-01-18 10:17:11.302517	123.5	18.0	-60.5	15.1
2025-01-18 10:17:12.418371	123.4	18.2	-60.6	14.5
2025-01-18 10:17:13.534231	123.2	18.3	-60.5	14.6
2025-01-18 10:17:14.649089	123.1	18.4	-61.1	14.1
2025-01-18 10:17:15.763943	122.9	18.6	-60.7	14.7
2025-01-18 10:17:16.878794	122.8	18.7	-60.4	15.0
2025-01-18 10:17:17.993651	122.6	18.8	-60.8	14.3
2025-01-18 10:17:19.108509	122.5	19.0	-61.4	13.4
2025-01-18 10:17:20.223870	122.3	19.1	-61.5	13.4
2025-01-18 10:17:21.339724	122.1	19.2	-61.2	14.1
2025-01-18 10:17:22.456077	122.0	19.4	-60.9	14.2
2025-01-18 10:17:23.571939	121.8	19.5	-61.1	13.8
2025-01-18 10:17:24.686296	121.7	19.7	-61.4	13.8
2025-01-18 10:17:25.801148	121.5	19.8	-61.3	13.8
2025-01-18 10:17:26.917010	121.3	19.9	-61.7	13.7
2025-01-18 10:17:28.031861	121.2	20.1	-61.2	13.7
2025-01-18 10:17:29.147723	121.0	20.2	-61.9	13.3
2025-01-18 10:17:30.263585	120.8	20.4	-62.4	12.6
2025-01-18 10:17:31.378428	120.6	20.5	-61.8	13.6
2025-01-18 10:17:32.494290	120.5	20.6	-61.2	14.4
2025-01-18 10:17:33.610147	120.3	20.8	-61.0	14.5
2025-01-18 10:17:34.726009	120.1	20.9	-60.2	15.3
2025-01-18 10:17:35.840763	119.9	21.1	-60.1	15.6
2025-01-18 10:17:36.956625	119.7	21.2	-60.1	15.6
2025-01-18 10:17:38.071475	119.5	21.4	-60.0	15.2
2025-01-18 10:17:39.186325	119.4	21.5	-59.9	15.7
2025-01-18 10:17:40.302188	119.2	21.7	-59.7	15.7
2025-01-18 10:17:41.417046	119.0	21.8	-59.8	15.3
2025-01-18 10:17:42.531905	118.8	22.0	-60.0	15.5
2025-01-18 10:17:43.646687	118.6	22.1	-60.0	15.5
2025-01-18 10:17:44.761546	118.4	22.3	-60.1	15.3
2025-01-18 10:17:45.877404	118.2	22.4	-60.4	14.9
2025-01-18 10:17:46.992254	118.0	22.6	-60.5	15.2
2025-01-18 10:17:48.107113	117.8	22.7	-60.6	14.7
2025-01-18 10:17:49.222970	117.6	22.9	-60.6	14.7
2025-01-18 10:17:50.338832	117.4	23.0	-60.4	15.0
2025-01-18 10:17:51.453691	117.2	23.2	-60.7	14.7
2025-01-18 10:17:52.568542	117.0	23.3	-60.8	14.8
2025-01-18 10:17:53.683401	116.8	23.5	-60.7	14.6
2025-01-18 10:17:54.798359	116.5	23.6	-60.8	14.5
2025-01-18 10:17:55.913213	116.3	23.8	-61.1	14.2
2025-01-18 10:17:57.029075	116.1	23.9	-60.8	14.4
2025-01-18 10:17:58.144937	115.9	24.1	-60.4	15.0
2025-01-18 10:17:59.259787	115.7	24.2	-60.1	15.2
2025-01-18 10:18:00.374646	115.4	24.4	-60.1	15.5
2025-01-18 10:18:01.489851	115.2	24.6	-60.0	15.7
2025-01-18 10:18:02.604709	115.0	24.7	-60.1	15.4
2025-01-18 10:18:03.719568	114.7	24.9	-60.0	15.4
2025-01-18 10:18:04.835420	114.5	25.0	-60.4	15.0
2025-01-18 10:18:05.953886	114.3	25.2	-60.2	15.2
2025-01-18 10:18:07.068745	114.0	25.4	-60.4	15.1
2025-01-18 10:18:08.184599	113.8	25.5	-60.4	15.2
2025-01-18 10:18:09.299452	113.5	25.7	-60.3	15.0
2025-01-18 10:18:10.414311	113.3	25.8	-60.3	15.4
2025-01-18 10:18:11.529170	113.0	26.0	-60.4	15.0
2025-01-18 10:18:12.645032	112.8	26.2	-60.4	14.9
2025-01-18 10:18:13.759891	112.5	26.3	-60.5	14.9
2025-01-18 10:18:14.874741	112.2	26.5	-60.5	15.2
2025-01-18 10:18:15.989087	112.0	26.7	-60.6	14.9
2025-01-18 10:18:17.103945	111.7	26.8	-61.1	14.5
2025-01-18 10:18:18.219805	111.4	27.0	-60.7	14.6
2025-01-18 10:18:19.334655	111.2	27.2	-60.3	15.2
2025-01-18 10:18:20.449514	110.9	27.3	-60.0	15.9
2025-01-18 10:18:21.564371	110.6	27.5	-60.1	15.6
2025-01-18 10:18:22.680230	110.3	27.7	-60.2	15.3
2025-01-18 10:18:23.795089	110.1	27.8	-60.2	15.3
2025-01-18 10:18:24.909898	109.8	28.0	-59.7	15.8
2025-01-18 10:18:26.025253	109.5	28.2	-59.7	16.2
2025-01-18 10:18:27.140112	109.2	28.3	-59.7	15.7
2025-01-18 10:18:28.256978	108.9	28.5	-59.7	15.9
2025-01-18 10:18:29.371828	108.6	28.7	-59.8	15.9
2025-01-18 10:18:30.486687	108.3	28.8	-59.8	15.9
2025-01-18 10:18:31.601545	108.0	29.0	-59.6	15.8
2025-01-18 10:18:32.716404	107.7	29.2	-59.5	16.3
2025-01-18 10:18:33.831263	107.3	29.3	-59.2	16.4
2025-01-18 10:18:34.948121	107.0	29.5	-59.5	16.4
2025-01-18 10:18:36.062979	106.7	29.7	-59.5	16.1
2025-01-18 10:18:37.179845	106.4	29.8	-59.8	15.9
2025-01-18 10:18:38.294704	106.1	30.0	-59.3	16.1
2025-01-18 10:18:39.409551	105.7	30.2	-59.2	16.5
2025-01-18 10:18:40.524410	105.4	30.4	-59.3	16.3
2025-01-18 10:18:41.639261	105.1	30.5	-59.4	16.1
2025-01-18 10:18:42.754119	104.7	30.7	-59.5	16.2
2025-01-18 10:18:43.869982	104.4	30.9	-59.4	16.1
2025-01-18 10:18:44.985836	104.0	31.0	-59.7	16.0
2025-01-18 10:18:46.101685	103.7	31.2	-59.6	16.1
2025-01-18 10:18:47.218551	103.3	31.4	-59.2	15.9
2025-01-18 10:18:48.333398	102.9	31.5	-59.3	16.4
2025-01-18 10:18:49.447664	102.6	31.7	-59.5	16.3
2025-01-18 10:18:50.563526	102.2	31.9	-59.8	16.1
2025-01-18 10:18:51.679379	101.8	32.0	-59.8	16.0
2025-01-18 10:18:52.794237	101.5	32.2	-59.8	16.3
2025-01-18 10:18:53.909096	101.1	32.4	-59.5	16.4
2025-01-18 10:18:55.024947	100.7	32.5	-59.3	16.4
2025-01-18 10:18:56.140294	100.3	32.7	-59.4	16.5
2025-01-18 10:18:57.255152	99.9	32.9	-59.9	15.6
2025-01-18 10:18:58.371166	99.5	33.0	-59.9	16.0
2025-01-18 10:18:59.486025	99.1	33.2	-59.6	16.1
2025-01-18 10:19:00.604889	98.7	33.4	-59.6	16.1
2025-01-18 10:19:01.719748	98.3	33.5	-59.7	16.1
2025-01-18 10:19:02.835610	97.9	33.7	-59.8	15.8
2025-01-18 10:19:03.950469	97.5	33.9	-59.8	16.2
2025-01-18 10:19:05.065311	97.0	34.0	-59.6	15.7
2025-01-18 10:19:06.181693	96.6	34.2	-59.9	15.5
2025-01-18 10:19:07.296552	96.2	34.3	-60.3	15.5
2025-01-18 10:19:08.411402	95.7	34.5	-60.2	15.4
2025-01-18 10:19:09.528268	95.3	34.7	-60.3	15.6
2025-01-18 10:19:10.643119	94.9	34.8	-60.0	15.7
2025-01-18 10:19:11.757977	94.4	35.0	-60.2	15.5
2025-01-18 10:19:12.872836	93.9	35.1	-60.6	15.2
2025-01-18 10:19:13.988698	93.5	35.3	-60.5	15.2
2025-01-18 10:19:15.103547	93.0	35.4	-60.6	15.0
2025-01-18 10:19:16.220405	92.6	35.6	-60.7	15.3
2025-01-18 10:19:17.335263	92.1	35.7	-60.8	14.7
2025-01-18 10:19:18.450122	91.6	35.9	-61.0	14.7
2025-01-18 10:19:19.565141	91.1	36.0	-61.2	14.3
2025-01-18 10:19:20.679992	90.7	36.2	-61.0	14.5
2025-01-18 10:19:21.795854	90.2	36.3	-60.9	14.8
2025-01-18 10:19:22.910713	89.7	36.4	-60.9	14.4
2025-01-18 10:19:24.026575	89.2	36.6	-60.9	14.2
2025-01-18 10:19:25.143441	88.7	36.7	-61.1	14.6
2025-01-18 10:19:26.258286	88.2	36.8	-61.3	14.6
2025-01-18 10:19:27.374148	87.7	37.0	-61.1	14.6
2025-01-18 10:19:28.489999	87.1	37.1	-61.1	14.2
2025-01-18 10:19:29.604858	86.6	37.2	-61.4	14.2
2025-01-18 10:19:30.719714	86.1	37.4	-61.3	14.1
2025-01-18 10:19:31.834844	85.6	37.5	-61.6	13.9
2025-01-18 10:19:32.950706	85.0	37.6	-62.2	12.9
2025-01-18 10:19:34.065565	84.5	37.7	-61.8	13.5
2025-01-18 10:19:35.181427	84.0	37.9	-62.0	13.3
2025-01-18 10:19:36.296399	83.4	38.0	-62.1	13.2
2025-01-18 10:19:37.412261	82.9	38.1	-61.8	13.7
2025-01-18 10:19:38.528129	82.3	38.2	-62.2	13.0
2025-01-18 10:19:39.642987	81.8	38.3	-62.0	13.3
2025-01-18 10:19:40.757846	81.2	38.4	-61.7	13.4
2025-01-18 10:19:41.872696	80.6	38.5	-61.6	14.1
2025-01-18 10:19:42.989071	80.1	38.6	-61.4	14.3
2025-01-18 10:19:44.103930	79.5	38.7	-61.1	14.5
2025-01-18 10:19:45.219621	78.9	38.8	-61.3	14.4
2025-01-18 10:19:46.334467	78.4	38.9	-61.6	14.2
2025-01-18 10:19:47.450320	77.8	39.0	-61.3	14.3
2025-01-18 10:19:48.566174	77.2	39.1	-60.8	14.9
2025-01-18 10:19:49.681033	76.6	39.1	-60.8	14.7
2025-01-18 10:19:50.796895	76.0	39.2	-60.8	15.0
2025-01-18 10:19:51.911754	75.4	39.3	-61.0	14.7
2025-01-18 10:19:53.026605	74.8	39.4	-61.1	14.3
2025-01-18 10:19:54.142467	74.2	39.4	-61.2	14.7
2025-01-18 10:19:55.257326	73.6	39.5	-61.2	14.5
2025-01-18 10:19:56.371506	73.0	39.6	-61.0	14.6
2025-01-18 10:19:57.487360	72.4	39.6	-60.9	14.7
2025-01-18 10:19:58.602219	71.8	39.7	-60.9	14.7
2025-01-18 10:19:59.717078	71.2	39.7	-61.2	14.3
2025-01-18 10:20:00.831432	70.6	39.8	-61.2	14.6
2025-01-18 10:20:01.946291	70.0	39.8	-60.6	15.0
2025-01-18 10:20:03.061141	69.4	39.9	-60.5	15.0
2025-01-18 10:20:04.177004	68.8	39.9	-60.8	14.9
2025-01-18 10:20:05.291860	68.2	39.9	-60.5	14.9
2025-01-18 10:20:06.408724	67.6	40.0	-60.5	15.1
2025-01-18 10:20:07.522321	66.9	40.0	-60.5	15.3
2025-01-18 10:20:08.637172	66.3	40.0	-60.6	15.0
2025-01-18 10:20:09.752031	65.7	40.0	-60.5	15.4
2025-01-18 10:20:10.868897	65.1	40.1	-60.8	14.8
2025-01-18 10:20:11.983755	64.5	40.1	-60.5	14.9
2025-01-18 10:20:13.099625	63.8	40.1	-60.4	15.6
2025-01-18 10:20:14.215972	63.2	40.1	-60.7	15.2
2025-01-18 10:20:15.330830	62.6	40.1	-60.7	15.1
2025-01-18 10:20:16.445689	62.0	40.1	-60.3	15.8
2025-01-18 10:20:17.562551	61.3	40.1	-60.4	15.2
2025-01-18 10:20:18.678411	60.7	40.1	-60.5	15.0
2025-01-18 10:20:19.793261	60.1	40.0	-60.3	15.4
2025-01-18 10:20:20.908120	59.5	40.0	-60.3	15.2
2025-01-18 10:20:22.023982	58.9	40.0	-60.7	15.0
2025-01-18 10:20:23.140849	58.2	40.0	-60.3	15.3
2025-01-18 10:20:24.255196	57.6	39.9	-60.4	15.4
2025-01-18 10:20:25.370204	57.0	39.9	-60.4	15.1
2025-01-18 10:20:26.485063	56.4	39.9	-60.1	15.5
2025-01-18 10:20:27.600923	55.8	39.8	-60.4	15.4
2025-01-18 10:20:28.715276	55.2	39.8	-60.3	15.9
2025-01-18 10:20:29.830127	54.6	39.7	-60.3	15.3
2025-01-18 10:20:30.944986	54.0	39.7	-60.2	15.6
2025-01-18 10:20:32.059845	53.4	39.6	-60.4	15.3
2025-01-18 10:20:33.175707	52.8	39.6	-60.3	15.3
2025-01-18 10:20:34.290557	52.2	39.5	-60.3	15.6
2025-01-18 10:20:35.405416	51.6	39.4	-60.5	15.3
2025-01-18 10:20:36.520274	51.0	39.4	-60.6	15.3
2025-01-18 10:20:37.635131	50.4	39.3	-60.6	15.0
2025-01-18 10:20:38.751989	49.8	39.2	-60.7	15.1
2025-01-18 10:20:39.866963	49.2	39.2	-60.7	15.0
2025-01-18 10:20:40.981819	48.6	39.1	-60.7	15.1
2025-01-18 10:20:42.096678	48.0	39.0	-60.8	14.6
2025-01-18 10:20:43.213544	47.4	38.9	-60.7	14.6
2025-01-18 10:20:44.331413	46.9	38.8	-61.0	14.5
2025-01-18 10:20:45.448301	46.3	38.7	-60.9	14.6
2025-01-18 10:20:46.563146	45.7	38.6	-60.9	14.6
2025-01-18 10:20:47.677995	45.2	38.5	-60.9	14.6
2025-01-18 10:20:48.792847	44.6	38.4	-64.3	0.0
2025-01-18 10:20:49.907698	44.0	38.3	-64.9	0.0
2025-01-18 10:20:51.022557	43.5	38.2	-65.1	0.0
2025-01-18 10:20:52.138419	42.9	38.1	-65.1	0.0
2025-01-18 10:20:53.253275	42.4	38.0	-65.6	0.0
2025-01-18 10:20:54.368134	41.9	37.9	-65.7	0.0
2025-01-18 10:20:55.482984	41.3	37.8	-66.4	0.0
2025-01-18 10:20:56.597841	40.8	37.6	-66.7	0.0
2025-01-18 10:20:57.713703	40.2	37.5	-66.9	0.0
2025-01-18 10:20:58.828552	39.7	37.4	-67.4	0.0
2025-01-18 10:20:59.943402	39.2	37.3	-68.2	0.0
2025-01-18 10:21:01.060268	38.7	37.1	-68.8	0.0
2025-01-18 10:21:02.177134	38.2	37.0	-69.1	0.0
2025-01-18 10:21:03.291984	37.7	36.9	-69.7	0.0
2025-01-18 10:21:04.406835	37.2	36.7	-69.9	0.0
2025-01-18 10:21:05.521693	36.7	36.6	-70.0	0.0
2025-01-18 10:21:06.636544	36.2	36.5	-70.2	0.0
2025-01-18 10:21:07.751394	35.7	36.3	-70.5	0.0
2025-01-18 10:21:08.865737	35.2	36.2	-70.5	0.0
2025-01-18 10:21:09.980504	34.7	36.0	-70.5	0.0
2025-01-18 10:21:11.095362	34.2	35.9	-70.0	0.0
2025-01-18 10:21:12.212129	33.7	35.7	-70.1	0.0
2025-01-18 10:21:13.328987	33.3	35.6	-69.7	0.0
2025-01-18 10:21:14.443188	32.8	35.4	-69.6	0.0
2025-01-18 10:21:15.558031	32.3	35.3	-69.2	0.0
2025-01-18 10:21:16.673884	31.9	35.1	-68.3	0.0
2025-01-18 10:21:17.789745	31.4	35.0	-67.9	0.0
2025-01-18 10:21:18.905090	31.0	34.8	-67.2	0.0
2025-01-18 10:21:20.019941	30.5	34.7	-66.7	0.0
2025-01-18 10:21:21.136296	30.1	34.5	-66.2	0.0
2025-01-18 10:21:22.251147	29.7	34.4	-65.8	0.0
2025-01-18 10:21:23.367009	29.2	34.2	-65.3	0.0
2025-01-18 10:21:24.482818	28.8	34.0	-65.3	0.0
2025-01-18 10:21:25.598673	28.4	33.9	-65.3	0.0
2025-01-18 10:21:26.713524	28.0	33.7	-65.1	0.0
2025-01-18 10:21:27.829375	27.6	33.6	-65.0	0.0
2025-01-18 10:21:28.944222	27.1	33.4	-64.8	0.0
2025-01-18 10:21:30.060077	26.7	33.2	-64.4	0.0
2025-01-18 10:21:31.175420	26.3	33.1	-63.7	0.0
2025-01-18 10:21:32.291274	25.9	32.9	-63.8	0.0
2025-01-18 10:21:33.408131	25.6	32.7	-63.7	0.0
2025-01-18 10:21:34.522982	25.2	32.6	-63.3	0.0
2025-01-18 10:21:35.638844	24.8	32.4	-63.4	0.0
2025-01-18 10:21:36.753694	24.4	32.2	-63.5	0.0
2025-01-18 10:21:37.868606	24.0	32.1	-64.0	0.0
2025-01-18 10:21:38.983459	23.6	31.9	-64.7	0.0
2025-01-18 10:21:40.097709	23.3	31.7	-64.9	0.0
2025-01-18 10:21:41.214564	22.9	31.6	-64.7	0.0
2025-01-18 10:21:42.329422	22.6	31.4	-64.7	0.0
2025-01-18 10:21:43.445276	22.2	31.2	-65.3	0.0
2025-01-18 10:21:44.560132	21.8	31.1	-65.6	0.0
2025-01-18 10:21:45.674973	21.5	30.9	-65.8	0.0
2025-01-18 10:21:46.789833	21.2	30.7	-66.2	0.0
2025-01-18 10:21:47.904692	20.8	30.6	-66.5	0.0
2025-01-18 10:21:49.020040	20.5	30.4	-66.7	0.0
2025-01-18 10:21:50.136209	20.1	30.2	-67.6	0.0
2025-01-18 10:21:51.251056	19.8	30.1	-68.2	0.0
2025-01-18 10:21:52.366910	19.5	29.9	-67.4	0.0
2025-01-18 10:21:53.481761	19.2	29.7	-67.3	0.0
2025-01-18 10:21:54.598618	18.8	29.6	-68.0	0.0
2025-01-18 10:21:55.713978	18.5	29.4	-68.6	0.0
2025-01-18 10:21:56.828763	18.2	29.2	-68.5	0.0
2025-01-18 10:21:57.944956	17.9	29.1	-68.9	0.0
2025-01-18 10:21:59.059800	17.6	28.9	-69.4	0.0
2025-01-18 10:22:00.175657	17.3	28.7	-69.3	0.0
2025-01-18 10:22:01.290507	17.0	28.6	-69.0	0.0
2025-01-18 10:22:02.406862	16.7	28.4	-68.3	0.0
2025-01-18 10:22:03.521712	16.4	28.2	-68.4	0.0
2025-01-18 10:22:04.636562	16.1	28.0	-68.2	0.0
2025-01-18 10:22:05.751413	15.8	27.9	-67.6	0.0
2025-01-18 10:22:06.866271	15.5	27.7	-67.0	0.0
2025-01-18 10:22:07.982734	15.3	27.6	-66.6	0.0
2025-01-18 10:22:09.097581	15.0	27.4	-66.1	0.0
2025-01-18 10:22:10.213436	14.7	27.2	-65.7	0.0
2025-01-18 10:22:11.328286	14.4	27.1	-65.0	0.0
2025-01-18 10:22:12.444146	14.2	26.9	-64.9	0.0
2025-01-18 10:22:13.560000	13.9	26.7	-64.8	0.0
2025-01-18 10:22:14.674848	13.6	26.6	-64.9	0.0
2025-01-18 10:22:15.791472	13.4	26.4	-64.9	0.0
2025-01-18 10:22:16.906320	13.1	26.2	-64.9	0.0
2025-01-18 10:22:18.021165	12.9	26.1	-65.1	0.0
2025-01-18 10:22:19.137028	12.6	25.9	-64.8	0.0
2025-01-18 10:22:20.252882	12.4	25.8	-64.4	0.0
2025-01-18 10:22:21.367723	12.1	25.6	-64.0	0.0
2025-01-18 10:22:22.482573	11.9	25.4	-63.5	0.0
2025-01-18 10:22:23.597423	11.6	25.3	-63.5	0.0
2025-01-18 10:22:24.712282	11.4	25.1	-63.8	0.0
2025-01-18 10:22:25.828124	11.2	25.0	-64.1	0.0
2025-01-18 10:22:26.943978	10.9	24.8	-64.2	0.0
2025-01-18 10:22:28.058826	10.7	24.6	-65.0	0.0
2025-01-18 10:22:29.173676	10.5	24.5	-65.5	0.0
2025-01-18 10:22:30.289533	10.2	24.3	-65.9	0.0
2025-01-18 10:22:31.404391	10.0	24.2	-65.8	0.0
2025-01-18 10:22:32.519245	9.8	24.0	-65.5	0.0
2025-01-18 10:22:33.634949	9.6	23.9	-65.8	0.0
2025-01-18 10:22:34.749801	9.4	23.7	-66.2	0.0
2025-01-18 10:22:35.865658	9.1	23.5	-66.2	0.0
2025-01-18 10:22:36.980516	8.9	23.4	-66.7	0.0
2025-01-18 10:22:38.095361	8.7	23.2	-67.3	0.0
2025-01-18 10:22:39.211216	8.5	23.1	-67.8	0.0
2025-01-18 10:22:40.326066	8.3	22.9	-67.3	0.0
2025-01-18 10:22:41.440906	8.1	22.8	-67.0	0.0
2025-01-18 10:22:42.555756	7.9	22.6	-66.6	0.0
2025-01-18 10:22:43.670608	7.7	22.5	-66.4	0.0
2025-01-18 10:22:44.786461	7.5	22.3	-66.6	0.0
2025-01-18 10:22:45.901141	7.3	22.2	-67.0	0.0
2025-01-18 10:22:47.017998	7.1	22.0	-67.6	0.0
2025-01-18 10:22:48.134134	6.9	21.9	-68.4	0.0
2025-01-18 10:22:49.248985	6.7	21.7	-68.5	0.0
2025-01-18 10:22:50.364842	6.6	21.6	-68.4	0.0
2025-01-18 10:22:51.479692	6.4	21.5	-68.2	0.0
2025-01-18 10:22:52.594542	6.2	21.3	-68.2	0.0
2025-01-18 10:22:53.709393	6.0	21.2	-68.2	0.0
2025-01-18 10:22:54.824243	5.8	21.0	-67.9	0.0
2025-01-18 10:22:55.940489	5.6	20.9	-67.7	0.0
2025-01-18 10:22:57.055339	5.5	20.7	-66.9	0.0
2025-01-18 10:22:58.171188	5.3	20.6	-66.2	0.0
2025-01-18 10:22:59.285536	5.1	20.5	-65.8	0.0
2025-01-18 10:23:00.400386	4.9	20.3	-65.3	0.0
2025-01-18 10:23:01.515245	4.8	20.2	-65.1	0.0
2025-01-18 10:23:02.630095	4.6	20.0	-65.2	0.0
2025-01-18 10:23:03.744945	4.4	19.9	-64.8	0.0
2025-01-18 10:23:04.859795	4.3	19.8	-64.9	0.0
2025-01-18 10:23:05.974646	4.1	19.6	-65.0	0.0
2025-01-18 10:23:07.089496	3.9	19.5	-65.1	0.0
2025-01-18 10:23:08.205358	3.8	19.3	-65.1	0.0
2025-01-18 10:23:09.320202	3.6	19.2	-64.8	0.0
2025-01-18 10:23:10.436056	3.5	19.1	-64.5	0.0
2025-01-18 10:23:11.551903	3.3	18.9	-64.0	0.0
2025-01-18 10:23:12.666749	3.2	18.8	-63.8	0.0
2025-01-18 10:23:13.782611	3.0	18.7	-63.7	0.0
2025-01-18 10:23:14.898465	2.9	18.5	-64.2	0.0
2025-01-18 10:23:16.013640	2.7	18.4	-64.5	0.0
2025-01-18 10:23:17.129496	2.6	18.3	-65.0	0.0
2025-01-18 10:23:18.246015	2.4	18.1	-65.4	0.0
2025-01-18 10:23:19.361170	2.3	18.0	-66.0	0.0
2025-01-18 10:23:20.477031	2.1	17.9	-66.4	0.0
2025-01-18 10:23:21.591882	2.0	17.7	-66.1	0.0
2025-01-18 10:23:22.707735	1.8	17.6	-66.5	0.0
2025-01-18 10:23:23.822586	1.7	17.5	-66.5	0.0
2025-01-18 10:23:24.939444	1.6	17.4	-66.8	0.0
2025-01-18 10:23:26.054294	1.4	17.2	-67.3	0.0
2025-01-18 10:23:27.170148	1.3	17.1	-67.7	0.0
2025-01-18 10:23:28.284998	1.1	17.0	-67.1	0.0
2025-01-18 10:23:29.400344	1.0	16.9	-66.4	0.0
2025-01-18 10:23:30.516042	0.9	16.7	-65.9	0.0
2025-01-18 10:23:31.634915	0.7	16.6	-65.6	0.0
2025-01-18 10:23:32.749773	0.6	16.5	-65.2	0.0
2025-01-18 10:23:33.865627	0.5	16.4	-65.6	0.0
2025-01-18 10:23:34.980477	0.4	16.2	-65.8	0.0
2025-01-18 10:23:36.095330	0.2	16.1	-66.6	0.0
2025-01-18 10:23:37.211185	0.1	16.0	-67.1	0.0
2025-01-18 10:23:38.326041	360.0	15.9	-67.8	0.0
2025-01-18 10:23:39.440740	359.9	15.8	-68.0	0.0
2025-01-18 10:23:40.555590	359.7	15.6	-67.9	0.0
2025-01-18 10:23:41.670433	359.6	15.5	-67.9	0.0
2025-01-18 10:23:42.785283	359.5	15.4	-67.7	0.0
2025-01-18 10:23:43.901031	359.4	15.3	-67.8	0.0
2025-01-18 10:23:45.016391	359.3	15.2	-70.7	0.0
2025-01-18 10:23:46.131228	359.1	15.0	-70.8	0.0
#Closed at: 2025-01-18 10:16:39.129767