passes_logs/2025/01/09/LEX_Murmansk/LEX_Murmansk__20250109_165557_NOAA_19_rec.log

#Pass ID: 20250109_165557_NOAA 19
#Satellite: NOAA 19
#Configuration: NOAA 19
#Start time: 2025-01-09 16:55:52.334310

#LorettStation: 1.0.0 05.05.2024
#Station: LEX_Murmansk
#Location: 33.156738 lon 68.926811 lat
#TLE: 1 33591U 09005A   25008.91550554  .00000294  00000+0  18118-3 0  9990
#TLE: 2 33591  99.0208  72.6306 0014612  73.7755 286.5023 14.13254864820423

#Time	Az	El	Level	SNR
2025-01-09 16:56:04.565095	128.7	16.3	-90.1	5.4
2025-01-09 16:56:06.885065	128.6	16.6	-89.8	5.9
2025-01-09 16:56:09.204988	128.4	16.8	-89.7	8.5
2025-01-09 16:56:11.523683	128.3	17.1	-89.5	5.2
2025-01-09 16:56:13.849723	128.2	17.3	-89.9	3.0
2025-01-09 16:56:16.166707	128.1	17.6	-90.0	2.2
2025-01-09 16:56:18.479223	128.0	17.9	-90.3	8.6
2025-01-09 16:56:20.795848	127.9	18.1	-90.4	9.8
2025-01-09 16:56:23.117964	127.7	18.4	-90.1	9.4
2025-01-09 16:56:25.447444	127.6	18.7	-90.4	11.5
2025-01-09 16:56:27.764106	127.5	19.0	-90.4	7.0
2025-01-09 16:56:30.080336	127.4	19.3	-90.4	4.2
2025-01-09 16:56:32.400677	127.2	19.5	-90.4	4.1
2025-01-09 16:56:34.724419	127.1	19.8	-90.1	10.3
2025-01-09 16:56:37.058972	126.9	20.1	-90.0	11.6
2025-01-09 16:56:39.344159	126.8	20.4	-90.3	8.5
2025-01-09 16:56:41.664161	126.7	20.7	-90.5	11.8
2025-01-09 16:56:43.983997	126.5	21.0	-90.6	5.3
2025-01-09 16:56:46.303743	126.4	21.3	-90.0	2.2
2025-01-09 16:56:48.624218	126.2	21.6	-90.5	5.2
2025-01-09 16:56:50.938976	126.1	22.0	-90.4	14.0
2025-01-09 16:56:53.268813	125.9	22.3	-90.5	9.4
2025-01-09 16:56:55.588287	125.7	22.6	-91.0	10.2
2025-01-09 16:56:57.916334	125.6	22.9	-90.9	11.0
2025-01-09 16:57:00.229970	125.4	23.2	-90.9	5.7
2025-01-09 16:57:02.536995	125.2	23.6	-90.8	3.6
2025-01-09 16:57:04.865679	125.0	23.9	-91.0	3.3
2025-01-09 16:57:07.192105	124.9	24.2	-91.1	11.1
2025-01-09 16:57:09.519539	124.7	24.6	-91.5	9.7
2025-01-09 16:57:11.836908	124.5	24.9	-91.2	6.4
2025-01-09 16:57:14.152483	124.3	25.3	-91.2	9.7
2025-01-09 16:57:16.476597	124.1	25.7	-91.5	5.7
2025-01-09 16:57:18.795527	123.9	26.0	-91.4	1.4
2025-01-09 16:57:21.119422	123.7	26.4	-91.3	1.7
2025-01-09 16:57:23.442198	123.4	26.7	-91.6	4.5
2025-01-09 16:57:25.766222	123.2	27.1	-91.6	3.0
2025-01-09 16:57:28.088650	123.0	27.5	-90.8	4.7
2025-01-09 16:57:30.412675	122.8	27.9	-91.3	2.6
2025-01-09 16:57:32.715104	122.5	28.3	-91.1	5.9
2025-01-09 16:57:34.966508	122.3	28.7	-91.4	4.7
2025-01-09 16:57:37.209135	122.1	29.0	-91.5	2.4
2025-01-09 16:57:39.451321	121.8	29.4	-91.6	3.4
2025-01-09 16:57:41.696766	121.6	29.8	-91.9	7.4
2025-01-09 16:57:43.976673	121.3	30.2	-91.8	9.4
2025-01-09 16:57:46.280362	121.0	30.6	-91.6	6.3
2025-01-09 16:57:48.601646	120.7	31.1	-91.1	11.1
2025-01-09 16:57:50.919479	120.4	31.5	-90.8	6.7
2025-01-09 16:57:53.500984	120.1	32.0	-91.0	1.8
2025-01-09 16:57:55.821152	119.8	32.4	-90.8	0.2
2025-01-09 16:57:58.129874	119.5	32.9	-91.4	5.6
2025-01-09 16:58:00.440768	119.2	33.3	-91.4	11.8
2025-01-09 16:58:02.758036	118.8	33.8	-91.4	7.8
2025-01-09 16:58:05.076280	118.5	34.2	-91.4	8.7
2025-01-09 16:58:07.391086	118.1	34.7	-91.4	12.1
2025-01-09 16:58:09.715674	117.8	35.2	-91.5	4.8
2025-01-09 16:58:12.032575	117.4	35.7	-91.6	5.4
2025-01-09 16:58:14.352868	117.0	36.1	-91.5	2.0
2025-01-09 16:58:16.665724	116.6	36.6	-91.4	5.4
2025-01-09 16:58:18.988551	116.2	37.1	-91.6	4.0
2025-01-09 16:58:21.304387	115.8	37.6	-91.4	7.5
2025-01-09 16:58:23.628821	115.3	38.1	-91.6	8.2
2025-01-09 16:58:25.953849	114.9	38.7	-91.5	10.5
2025-01-09 16:58:28.278496	114.4	39.2	-91.2	14.9
2025-01-09 16:58:30.596787	113.9	39.7	-90.9	4.6
2025-01-09 16:58:32.920922	113.4	40.2	-91.2	4.0
2025-01-09 16:58:35.238331	112.9	40.8	-90.5	4.0
2025-01-09 16:58:37.550982	112.4	41.3	-91.2	6.9
2025-01-09 16:58:39.792621	111.8	41.8	-91.1	10.9
2025-01-09 16:58:42.033708	111.3	42.4	-91.1	13.6
2025-01-09 16:58:44.274505	110.7	42.9	-91.1	4.3
2025-01-09 16:58:46.541330	110.1	43.5	-91.2	18.2
2025-01-09 16:58:48.878479	109.5	44.0	-91.4	17.2
2025-01-09 16:58:51.206115	108.8	44.6	-91.2	7.5
2025-01-09 16:58:53.522842	108.1	45.2	-91.3	5.2
2025-01-09 16:58:55.849386	107.4	45.8	-91.3	1.6
2025-01-09 16:58:58.175978	106.7	46.3	-91.0	7.9
2025-01-09 16:59:00.473695	106.0	46.9	-90.7	8.9
2025-01-09 16:59:02.804444	105.2	47.5	-91.3	12.8
2025-01-09 16:59:05.131792	104.3	48.1	-91.0	10.6
2025-01-09 16:59:07.448433	103.5	48.7	-91.5	9.3
2025-01-09 16:59:09.770080	102.6	49.3	-91.5	5.6
2025-01-09 16:59:12.091037	101.7	49.9	-91.2	12.9
2025-01-09 16:59:14.412943	100.7	50.4	-91.2	9.0
2025-01-09 16:59:16.725134	99.7	51.0	-91.5	2.3
2025-01-09 16:59:19.043364	98.7	51.6	-90.9	2.2
2025-01-09 16:59:21.363764	97.6	52.2	-90.7	2.3
2025-01-09 16:59:23.679746	96.5	52.8	-90.8	7.6
2025-01-09 16:59:26.013581	95.3	53.3	-90.7	14.2
2025-01-09 16:59:28.332856	94.1	53.9	-90.2	9.5
2025-01-09 16:59:30.651061	92.9	54.5	-90.8	8.0
2025-01-09 16:59:32.924720	91.6	55.0	-90.8	8.6
2025-01-09 16:59:35.164998	90.3	55.5	-90.6	8.8
2025-01-09 16:59:37.405215	88.9	56.0	-90.8	11.5
2025-01-09 16:59:39.645942	87.5	56.5	-90.0	14.7
2025-01-09 16:59:41.937748	86.0	57.0	-90.9	12.6
2025-01-09 16:59:44.240505	84.4	57.5	-90.9	9.0
2025-01-09 16:59:46.556053	82.8	58.0	-90.8	6.8
2025-01-09 16:59:48.861021	81.2	58.4	-90.9	4.2
2025-01-09 16:59:51.141811	79.4	58.9	-91.2	5.3
2025-01-09 16:59:53.420524	77.7	59.3	-91.5	5.3
2025-01-09 16:59:55.666431	75.9	59.6	-91.4	10.8
2025-01-09 16:59:57.940057	74.0	60.0	-91.3	14.4
2025-01-09 17:00:00.188578	72.1	60.3	-91.4	7.3
2025-01-09 17:00:02.430524	70.2	60.6	-91.5	9.3
2025-01-09 17:00:04.672563	68.2	60.9	-91.5	8.2
2025-01-09 17:00:06.956945	66.2	61.1	-91.6	14.4
2025-01-09 17:00:09.220871	64.1	61.3	-91.0	15.1
2025-01-09 17:00:11.482268	62.0	61.5	-91.3	18.6
2025-01-09 17:00:13.737785	59.9	61.6	-90.3	12.2
2025-01-09 17:00:15.981399	57.7	61.7	-90.8	15.2
2025-01-09 17:00:18.223337	55.6	61.8	-90.5	10.5
2025-01-09 17:00:20.466863	53.4	61.9	-91.2	10.0
2025-01-09 17:00:22.710058	51.3	61.9	-91.0	7.7
2025-01-09 17:00:24.952112	49.1	61.8	-91.0	7.0
2025-01-09 17:00:27.199314	46.9	61.8	-91.2	5.5
2025-01-09 17:00:29.449565	44.8	61.6	-91.4	5.3
2025-01-09 17:00:31.694526	42.7	61.5	-91.0	4.4
2025-01-09 17:00:33.935948	40.6	61.3	-91.1	6.3
2025-01-09 17:00:36.234020	38.5	61.1	-91.3	4.1
2025-01-09 17:00:38.547947	36.4	60.9	-91.1	3.8
2025-01-09 17:00:40.863655	34.4	60.6	-90.8	5.7
2025-01-09 17:00:43.182999	32.4	60.3	-90.2	3.4
2025-01-09 17:00:45.507301	30.4	60.0	-91.0	7.4
2025-01-09 17:00:47.826300	28.5	59.6	-90.8	4.7
2025-01-09 17:00:50.146637	26.7	59.2	-91.0	6.3
2025-01-09 17:00:52.472222	24.9	58.8	-91.1	7.9
2025-01-09 17:00:54.794683	23.2	58.4	-90.8	6.2
2025-01-09 17:00:57.098732	21.5	57.9	-90.5	1.5
2025-01-09 17:00:59.347023	19.9	57.5	-90.7	4.5
2025-01-09 17:01:01.591699	18.4	57.0	-91.1	3.8
2025-01-09 17:01:03.832968	17.0	56.5	-91.1	0.0
2025-01-09 17:01:06.077924	15.6	56.0	-91.4	0.8
2025-01-09 17:01:08.363515	14.2	55.5	-91.3	2.0
2025-01-09 17:01:10.674506	12.8	54.9	-91.4	3.3
2025-01-09 17:01:12.997878	11.5	54.4	-91.3	3.6
2025-01-09 17:01:15.316695	10.3	53.8	-91.2	3.6
2025-01-09 17:01:17.641907	9.1	53.3	-91.0	7.7
2025-01-09 17:01:19.957584	7.9	52.7	-91.5	5.9
2025-01-09 17:01:22.284709	6.8	52.1	-91.2	6.6
2025-01-09 17:01:24.612930	5.7	51.5	-91.1	6.9
2025-01-09 17:01:26.940090	4.7	50.9	-91.3	7.9
2025-01-09 17:01:29.255629	3.7	50.4	-91.3	8.2
2025-01-09 17:01:31.576646	2.8	49.8	-91.4	15.9
2025-01-09 17:01:33.890529	1.9	49.2	-91.4	15.9
2025-01-09 17:01:36.208112	1.0	48.6	-90.6	13.1
2025-01-09 17:01:38.530478	0.1	48.0	-91.4	15.6
2025-01-09 17:01:40.845525	359.3	47.4	-91.1	15.5
2025-01-09 17:01:43.169616	358.5	46.9	-91.5	12.8
2025-01-09 17:01:45.499408	357.8	46.3	-91.4	14.3
2025-01-09 17:01:47.833204	357.1	45.7	-91.2	7.0
2025-01-09 17:01:50.161623	356.3	45.1	-90.9	8.9
2025-01-09 17:01:52.483596	355.7	44.5	-91.2	10.3
2025-01-09 17:01:54.804077	355.0	44.0	-91.5	6.9
2025-01-09 17:01:57.125953	354.4	43.4	-90.9	10.8
2025-01-09 17:01:59.440040	353.8	42.8	-91.7	12.3
2025-01-09 17:02:01.749889	353.2	42.3	-91.2	13.5
2025-01-09 17:02:04.074299	352.6	41.7	-91.6	18.4
2025-01-09 17:02:06.395666	352.1	41.2	-90.9	16.9
2025-01-09 17:02:08.724729	351.6	40.7	-90.3	12.6
2025-01-09 17:02:11.041578	351.1	40.1	-91.4	14.2
2025-01-09 17:02:13.365992	350.6	39.6	-91.4	6.4
2025-01-09 17:02:15.687258	350.1	39.1	-91.5	7.1
2025-01-09 17:02:18.006504	349.6	38.6	-91.4	9.6
2025-01-09 17:02:20.326307	349.2	38.0	-91.2	6.0
2025-01-09 17:02:22.644352	348.7	37.5	-91.4	9.6
2025-01-09 17:02:24.958559	348.3	37.0	-91.0	13.2
2025-01-09 17:02:27.285969	347.9	36.5	-91.3	11.8
2025-01-09 17:02:29.608381	347.5	36.1	-91.3	9.3
2025-01-09 17:02:31.922659	347.1	35.6	-91.4	6.7
2025-01-09 17:02:34.250133	346.8	35.1	-91.1	4.1
2025-01-09 17:02:36.571048	346.4	34.6	-91.4	4.9
2025-01-09 17:02:38.890296	346.0	34.2	-91.5	3.9
2025-01-09 17:02:41.204258	345.7	33.7	-91.6	7.0
2025-01-09 17:02:43.523275	345.4	33.2	-91.8	10.9
2025-01-09 17:02:45.841881	345.0	32.8	-91.4	14.4
2025-01-09 17:02:48.172659	344.7	32.4	-91.5	11.8
2025-01-09 17:02:50.503014	344.4	31.9	-91.2	8.8
2025-01-09 17:02:52.817001	344.1	31.5	-91.4	2.2
2025-01-09 17:02:55.139146	343.8	31.1	-91.0	7.7
2025-01-09 17:02:57.464482	343.6	30.6	-91.6	6.0
2025-01-09 17:02:59.782881	343.3	30.2	-91.3	11.6
2025-01-09 17:03:02.090838	343.0	29.8	-91.3	13.4
2025-01-09 17:03:04.419125	342.8	29.4	-91.1	6.9
2025-01-09 17:03:06.742242	342.5	29.0	-91.6	3.4
2025-01-09 17:03:09.030035	342.3	28.6	-91.6	1.0
2025-01-09 17:03:11.350751	342.0	28.2	-91.3	2.1
2025-01-09 17:03:13.671893	341.8	27.8	-91.4	4.1
2025-01-09 17:03:15.987505	341.6	27.5	-91.3	9.6
2025-01-09 17:03:18.309887	341.3	27.1	-91.1	2.4
2025-01-09 17:03:20.637090	341.1	26.7	-91.5	9.7
2025-01-09 17:03:22.951996	340.9	26.3	-91.8	7.8
2025-01-09 17:03:25.278946	340.7	26.0	-91.2	4.1
2025-01-09 17:03:27.607109	340.5	25.6	-91.1	3.5
2025-01-09 17:03:29.932785	340.3	25.3	-91.5	6.1
2025-01-09 17:03:32.251037	340.1	24.9	-91.6	6.3
2025-01-09 17:03:34.571339	339.9	24.6	-91.6	8.4
2025-01-09 17:03:36.893947	339.7	24.2	-91.7	7.3
2025-01-09 17:03:39.217221	339.6	23.9	-91.4	2.1
2025-01-09 17:03:41.532694	339.4	23.6	-91.6	3.8
2025-01-09 17:03:43.853790	339.2	23.2	-91.4	5.2
2025-01-09 17:03:46.172606	339.0	22.9	-91.6	6.6
2025-01-09 17:03:48.493626	338.9	22.6	-91.5	12.3
2025-01-09 17:03:50.814125	338.7	22.3	-90.5	8.7
2025-01-09 17:03:53.129956	338.6	21.9	-91.3	6.5
2025-01-09 17:03:55.455193	338.4	21.6	-91.3	7.3
2025-01-09 17:03:57.781734	338.2	21.3	-91.2	4.5
2025-01-09 17:04:00.104930	338.1	21.0	-91.3	8.8
2025-01-09 17:04:02.403903	338.0	20.7	-91.2	9.0
2025-01-09 17:04:04.714783	337.8	20.4	-91.6	5.8
2025-01-09 17:04:07.030134	337.7	20.1	-91.7	3.3
2025-01-09 17:04:09.344901	337.5	19.8	-91.4	3.2
2025-01-09 17:04:11.658092	337.4	19.6	-91.2	2.4
2025-01-09 17:04:13.978508	337.3	19.3	-91.5	3.4
2025-01-09 17:04:16.297426	337.1	19.0	-91.1	5.1
2025-01-09 17:04:18.592481	337.0	18.7	-91.3	5.3
2025-01-09 17:04:20.876185	336.9	18.4	-91.0	3.6
2025-01-09 17:04:23.192286	336.8	18.2	-91.5	2.4
2025-01-09 17:04:25.487166	336.7	17.9	-91.3	4.3
2025-01-09 17:04:27.820380	336.5	17.6	-91.3	3.7
2025-01-09 17:04:30.145774	336.4	17.4	-91.7	3.6
2025-01-09 17:04:32.460615	336.3	17.1	-91.5	3.9
2025-01-09 17:04:34.784146	336.2	16.8	-91.5	3.5
2025-01-09 17:04:37.109485	336.1	16.6	-90.9	2.4
2025-01-09 17:04:39.424637	336.0	16.3	-91.3	2.8
2025-01-09 17:04:41.746074	335.9	16.1	-91.2	1.5
2025-01-09 17:04:44.071622	335.8	15.8	-91.6	2.5
2025-01-09 17:04:46.395623	335.7	15.6	-91.4	4.4
2025-01-09 17:04:48.714658	335.6	15.3	-91.3	2.9
2025-01-09 17:04:51.041055	335.5	15.1	-91.4	2.9
2025-01-09 17:04:53.361563	335.4	14.9	-91.2	2.0
2025-01-09 17:04:55.682173	335.3	14.6	-91.5	1.7
#Closed at: 2025-01-09 16:55:57.360746