passes_logs/2025/01/09/LEX_Murmansk/LEX_Murmansk__20250109_154352_NOAA_18_rec.log

#Pass ID: 20250109_154352_NOAA 18
#Satellite: NOAA 18
#Configuration: NOAA 18
#Start time: 2025-01-09 15:43:47.885313

#LorettStation: 1.0.0 05.05.2024
#Station: LEX_Murmansk
#Location: 33.156738 lon 68.926811 lat
#TLE: 1 28654U 05018A   25008.86276551  .00000342  00000+0  20484-3 0  9993
#TLE: 2 28654  98.8578  89.9777 0014066 196.4292 163.6427 14.13481270 12237

#Time	Az	El	Level	SNR
2025-01-09 15:44:00.052856	64.6	16.0	-90.0	6.5
2025-01-09 15:44:01.186544	64.4	16.0	-90.5	4.5
2025-01-09 15:44:02.338855	64.2	16.1	-90.1	8.3
2025-01-09 15:44:03.491447	64.0	16.2	-90.1	4.4
2025-01-09 15:44:04.654166	63.9	16.3	-90.1	6.8
2025-01-09 15:44:05.808300	63.7	16.4	-90.0	7.9
2025-01-09 15:44:06.953134	63.5	16.5	-90.0	8.7
2025-01-09 15:44:08.104162	63.3	16.6	-90.7	6.2
2025-01-09 15:44:09.258079	63.2	16.7	-90.4	6.8
2025-01-09 15:44:10.414489	63.0	16.8	-90.2	12.6
2025-01-09 15:44:11.559170	62.8	16.9	-90.3	5.6
2025-01-09 15:44:12.708075	62.6	17.0	-90.7	13.2
2025-01-09 15:44:13.869292	62.5	17.1	-90.7	12.1
2025-01-09 15:44:15.013796	62.3	17.1	-89.6	10.3
2025-01-09 15:44:16.172235	62.1	17.2	-89.9	15.9
2025-01-09 15:44:17.328200	61.9	17.3	-90.0	5.9
2025-01-09 15:44:18.474977	61.7	17.4	-90.6	11.1
2025-01-09 15:44:19.621875	61.5	17.5	-90.6	7.3
2025-01-09 15:44:20.780407	61.4	17.6	-90.9	5.2
2025-01-09 15:44:21.924273	61.2	17.7	-90.4	5.2
2025-01-09 15:44:23.079614	61.0	17.8	-90.5	3.0
2025-01-09 15:44:24.229368	60.8	17.9	-90.3	7.5
2025-01-09 15:44:25.378361	60.6	18.0	-90.4	12.9
2025-01-09 15:44:26.534345	60.4	18.1	-90.9	9.0
2025-01-09 15:44:27.685345	60.2	18.2	-90.6	12.4
2025-01-09 15:44:28.834481	60.0	18.3	-90.2	12.7
2025-01-09 15:44:29.980000	59.8	18.3	-90.5	12.8
2025-01-09 15:44:31.129014	59.6	18.4	-89.5	9.8
2025-01-09 15:44:32.274319	59.4	18.5	-89.9	13.2
2025-01-09 15:44:33.420283	59.2	18.6	-89.9	10.1
2025-01-09 15:44:34.567201	59.0	18.7	-90.2	8.8
2025-01-09 15:44:35.722814	58.8	18.8	-90.1	10.8
2025-01-09 15:44:36.869239	58.6	18.9	-90.6	11.6
2025-01-09 15:44:38.021945	58.4	19.0	-90.5	9.5
2025-01-09 15:44:39.169919	58.2	19.1	-89.6	8.6
2025-01-09 15:44:40.322421	58.0	19.2	-90.0	8.1
2025-01-09 15:44:41.470857	57.8	19.3	-89.6	9.9
2025-01-09 15:44:42.624784	57.6	19.4	-90.6	6.0
2025-01-09 15:44:43.779756	57.4	19.4	-90.7	10.3
2025-01-09 15:44:44.936604	57.1	19.5	-90.6	8.2
2025-01-09 15:44:46.085524	56.9	19.6	-90.5	6.1
2025-01-09 15:44:47.233499	56.7	19.7	-90.1	14.0
2025-01-09 15:44:48.385184	56.5	19.8	-89.4	10.6
2025-01-09 15:44:49.543630	56.3	19.9	-90.0	10.0
2025-01-09 15:44:50.696472	56.1	20.0	-90.1	7.9
2025-01-09 15:44:51.848952	55.8	20.1	-91.1	9.3
2025-01-09 15:44:52.998996	55.6	20.2	-90.9	12.6
2025-01-09 15:44:54.148533	55.4	20.3	-90.5	11.5
2025-01-09 15:44:55.292373	55.2	20.4	-91.0	12.6
2025-01-09 15:44:56.448070	55.0	20.4	-90.7	10.2
2025-01-09 15:44:57.603270	54.7	20.5	-90.8	11.0
2025-01-09 15:44:58.747652	54.5	20.6	-90.7	11.8
2025-01-09 15:44:59.897665	54.3	20.7	-90.4	17.1
2025-01-09 15:45:01.037633	54.0	20.8	-90.5	14.5
2025-01-09 15:45:02.180634	53.8	20.9	-89.7	10.8
2025-01-09 15:45:03.339578	53.6	21.0	-90.4	11.4
2025-01-09 15:45:04.491654	53.3	21.1	-90.5	8.6
2025-01-09 15:45:05.647514	53.1	21.2	-90.6	8.1
2025-01-09 15:45:06.797398	52.9	21.2	-90.9	13.1
2025-01-09 15:45:07.955158	52.6	21.3	-90.4	6.0
2025-01-09 15:45:09.113548	52.4	21.4	-90.4	6.5
2025-01-09 15:45:10.271028	52.1	21.5	-90.8	14.5
2025-01-09 15:45:11.421617	51.9	21.6	-90.5	11.8
2025-01-09 15:45:12.577538	51.6	21.7	-90.6	11.2
2025-01-09 15:45:13.729943	51.4	21.8	-90.4	10.8
2025-01-09 15:45:14.882351	51.2	21.9	-90.8	11.4
2025-01-09 15:45:16.033504	50.9	21.9	-90.7	12.5
2025-01-09 15:45:17.184937	50.7	22.0	-90.3	13.9
2025-01-09 15:45:18.332388	50.4	22.1	-90.5	11.4
2025-01-09 15:45:19.492018	50.1	22.2	-90.6	9.4
2025-01-09 15:45:20.645493	49.9	22.3	-90.4	9.8
2025-01-09 15:45:21.793723	49.6	22.4	-90.6	13.8
2025-01-09 15:45:22.947217	49.4	22.5	-90.5	11.2
2025-01-09 15:45:24.097519	49.1	22.5	-90.7	11.0
2025-01-09 15:45:25.256411	48.9	22.6	-90.6	12.4
2025-01-09 15:45:26.401423	48.6	22.7	-90.5	12.5
2025-01-09 15:45:27.553818	48.3	22.8	-90.6	11.8
2025-01-09 15:45:28.711881	48.1	22.9	-90.8	13.0
2025-01-09 15:45:29.860456	47.8	23.0	-90.4	12.3
2025-01-09 15:45:31.013326	47.5	23.0	-90.5	7.4
2025-01-09 15:45:32.165446	47.3	23.1	-90.8	6.0
2025-01-09 15:45:33.314901	47.0	23.2	-90.7	12.5
2025-01-09 15:45:34.465879	46.7	23.3	-90.7	6.4
2025-01-09 15:45:35.614883	46.5	23.4	-90.9	4.1
2025-01-09 15:45:36.770281	46.2	23.4	-90.7	12.2
2025-01-09 15:45:37.919670	45.9	23.5	-90.8	12.6
2025-01-09 15:45:39.072079	45.6	23.6	-90.8	13.5
2025-01-09 15:45:40.226170	45.3	23.7	-90.8	13.5
2025-01-09 15:45:41.373380	45.1	23.8	-90.4	15.3
2025-01-09 15:45:42.518517	44.8	23.8	-91.0	12.8
2025-01-09 15:45:43.669111	44.5	23.9	-90.9	14.5
2025-01-09 15:45:44.818045	44.2	24.0	-90.6	11.6
2025-01-09 15:45:45.969638	43.9	24.1	-90.6	9.3
2025-01-09 15:45:47.116339	43.7	24.1	-90.1	8.0
2025-01-09 15:45:48.265630	43.4	24.2	-90.6	11.2
2025-01-09 15:45:49.414600	43.1	24.3	-90.8	12.4
2025-01-09 15:45:50.560372	42.8	24.4	-90.6	7.5
2025-01-09 15:45:51.705073	42.5	24.4	-90.5	10.5
2025-01-09 15:45:52.855528	42.2	24.5	-90.4	10.0
2025-01-09 15:45:54.010079	41.9	24.6	-89.9	7.7
2025-01-09 15:45:55.159579	41.6	24.6	-90.0	11.1
2025-01-09 15:45:56.311026	41.3	24.7	-90.4	8.4
2025-01-09 15:45:57.459960	41.0	24.8	-91.0	8.2
2025-01-09 15:45:58.612340	40.7	24.8	-90.6	6.8
2025-01-09 15:45:59.758799	40.4	24.9	-90.7	9.8
2025-01-09 15:46:00.897445	40.1	25.0	-90.5	7.2
2025-01-09 15:46:02.047306	39.8	25.0	-90.6	5.2
2025-01-09 15:46:03.196611	39.5	25.1	-90.6	9.2
2025-01-09 15:46:04.343464	39.2	25.2	-90.6	15.3
2025-01-09 15:46:05.497317	38.9	25.2	-90.8	10.8
2025-01-09 15:46:06.646596	38.6	25.3	-90.7	10.8
2025-01-09 15:46:07.795429	38.3	25.4	-90.6	12.7
2025-01-09 15:46:08.943021	38.0	25.4	-90.8	10.3
2025-01-09 15:46:10.097646	37.6	25.5	-90.7	12.4
2025-01-09 15:46:11.245500	37.3	25.5	-90.3	8.1
2025-01-09 15:46:12.394955	37.0	25.6	-90.3	15.4
2025-01-09 15:46:13.546336	36.7	25.7	-90.2	8.9
2025-01-09 15:46:14.693908	36.4	25.7	-90.9	9.5
2025-01-09 15:46:15.845580	36.1	25.8	-90.7	9.6
2025-01-09 15:46:16.996167	35.8	25.8	-90.3	9.2
2025-01-09 15:46:18.151246	35.4	25.9	-90.4	9.0
2025-01-09 15:46:19.309512	35.1	25.9	-90.8	14.6
2025-01-09 15:46:20.468412	34.8	26.0	-90.6	9.9
2025-01-09 15:46:21.621588	34.5	26.1	-90.7	6.9
2025-01-09 15:46:22.772372	34.1	26.1	-90.6	12.5
2025-01-09 15:46:23.926929	33.8	26.2	-90.9	10.5
2025-01-09 15:46:25.079404	33.5	26.2	-91.0	8.1
2025-01-09 15:46:26.246536	33.1	26.3	-90.5	7.8
2025-01-09 15:46:27.393934	32.8	26.3	-90.4	4.5
2025-01-09 15:46:28.544105	32.5	26.3	-91.0	6.9
2025-01-09 15:46:29.692623	32.2	26.4	-90.9	10.0
2025-01-09 15:46:30.850833	31.8	26.4	-90.9	8.9
2025-01-09 15:46:31.998140	31.5	26.5	-90.6	11.0
2025-01-09 15:46:33.143644	31.2	26.5	-90.5	10.3
2025-01-09 15:46:34.287381	30.8	26.6	-90.7	10.7
2025-01-09 15:46:35.432264	30.5	26.6	-90.8	9.7
2025-01-09 15:46:36.578936	30.2	26.6	-90.8	8.4
2025-01-09 15:46:37.734508	29.8	26.7	-90.9	11.3
2025-01-09 15:46:38.884182	29.5	26.7	-90.6	9.3
2025-01-09 15:46:40.025951	29.1	26.8	-89.6	7.1
2025-01-09 15:46:41.172182	28.8	26.8	-89.9	8.7
2025-01-09 15:46:42.327500	28.5	26.8	-90.0	11.7
2025-01-09 15:46:43.477176	28.1	26.9	-90.1	7.5
2025-01-09 15:46:44.622983	27.8	26.9	-90.4	7.2
2025-01-09 15:46:45.768943	27.4	26.9	-90.5	9.3
2025-01-09 15:46:46.915407	27.1	27.0	-90.2	6.6
2025-01-09 15:46:48.071956	26.7	27.0	-90.4	5.7
2025-01-09 15:46:49.228661	26.4	27.0	-90.3	7.7
2025-01-09 15:46:50.374283	26.1	27.0	-90.7	11.0
2025-01-09 15:46:51.519514	25.7	27.1	-90.9	12.4
2025-01-09 15:46:52.670470	25.4	27.1	-90.8	12.2
2025-01-09 15:46:53.829777	25.0	27.1	-90.8	12.9
2025-01-09 15:46:54.975259	24.7	27.1	-91.2	12.2
2025-01-09 15:46:56.119483	24.3	27.1	-89.0	9.9
2025-01-09 15:46:57.266387	24.0	27.2	-90.1	11.3
2025-01-09 15:46:58.425222	23.6	27.2	-90.6	9.4
2025-01-09 15:46:59.579158	23.3	27.2	-90.2	11.1
2025-01-09 15:47:00.723330	22.9	27.2	-91.0	12.5
2025-01-09 15:47:01.874525	22.6	27.2	-90.6	12.3
2025-01-09 15:47:03.016345	22.2	27.3	-90.9	9.0
2025-01-09 15:47:04.165165	21.9	27.3	-90.8	8.1
2025-01-09 15:47:05.310820	21.5	27.3	-90.8	12.3
2025-01-09 15:47:06.460865	21.2	27.3	-90.4	6.0
2025-01-09 15:47:07.605543	20.8	27.3	-90.8	7.0
2025-01-09 15:47:08.754698	20.5	27.3	-90.8	12.6
2025-01-09 15:47:09.910406	20.1	27.3	-90.4	9.5
2025-01-09 15:47:11.057866	19.8	27.3	-89.5	8.1
2025-01-09 15:47:12.203037	19.4	27.3	-90.2	9.7
2025-01-09 15:47:13.351062	19.1	27.3	-90.2	12.4
2025-01-09 15:47:14.499927	18.7	27.3	-89.7	8.1
2025-01-09 15:47:15.640119	18.4	27.3	-90.4	12.7
2025-01-09 15:47:16.782805	18.0	27.3	-90.2	9.8
2025-01-09 15:47:17.929815	17.7	27.3	-90.7	14.5
2025-01-09 15:47:19.075933	17.3	27.3	-91.0	12.8
2025-01-09 15:47:20.219227	17.0	27.3	-89.8	12.9
2025-01-09 15:47:21.366121	16.6	27.3	-89.8	10.6
2025-01-09 15:47:22.511673	16.3	27.3	-90.5	12.9
2025-01-09 15:47:23.661742	15.9	27.3	-90.4	8.8
2025-01-09 15:47:24.814064	15.6	27.3	-89.8	8.3
2025-01-09 15:47:25.971910	15.2	27.3	-90.5	8.0
2025-01-09 15:47:27.127933	14.9	27.3	-89.9	8.2
2025-01-09 15:47:28.276752	14.5	27.3	-90.2	9.8
2025-01-09 15:47:29.422112	14.2	27.2	-90.6	9.4
2025-01-09 15:47:30.569655	13.8	27.2	-90.0	6.5
2025-01-09 15:47:31.718506	13.5	27.2	-90.2	7.9
2025-01-09 15:47:32.861821	13.1	27.2	-90.9	10.9
2025-01-09 15:47:34.007444	12.8	27.2	-90.5	6.8
2025-01-09 15:47:35.157732	12.4	27.2	-90.4	8.1
2025-01-09 15:47:36.297700	12.1	27.1	-90.3	10.2
2025-01-09 15:47:37.447161	11.7	27.1	-90.4	6.8
2025-01-09 15:47:38.593892	11.4	27.1	-90.5	8.6
2025-01-09 15:47:39.742645	11.0	27.1	-90.9	11.5
2025-01-09 15:47:40.896274	10.7	27.0	-90.6	11.0
2025-01-09 15:47:42.039774	10.4	27.0	-90.5	7.5
2025-01-09 15:47:43.190588	10.0	27.0	-90.7	5.7
2025-01-09 15:47:44.339268	9.7	27.0	-90.6	10.0
2025-01-09 15:47:45.484355	9.3	26.9	-90.3	7.5
2025-01-09 15:47:46.636274	9.0	26.9	-90.8	6.9
2025-01-09 15:47:47.785788	8.6	26.9	-90.7	7.8
2025-01-09 15:47:48.934035	8.3	26.8	-90.8	7.4
2025-01-09 15:47:50.082517	8.0	26.8	-90.4	5.9
2025-01-09 15:47:51.235626	7.6	26.8	-90.3	8.1
2025-01-09 15:47:52.389284	7.3	26.7	-90.6	8.5
2025-01-09 15:47:53.534929	6.9	26.7	-90.6	6.8
2025-01-09 15:47:54.685459	6.6	26.6	-90.5	10.2
2025-01-09 15:47:55.838098	6.3	26.6	-90.7	12.4
2025-01-09 15:47:56.990480	5.9	26.6	-90.9	5.9
2025-01-09 15:47:58.141124	5.6	26.5	-91.0	6.0
2025-01-09 15:47:59.290712	5.3	26.5	-91.0	9.5
2025-01-09 15:48:00.438774	4.9	26.4	-90.8	8.0
2025-01-09 15:48:01.585107	4.6	26.4	-91.0	9.5
2025-01-09 15:48:02.732094	4.3	26.3	-91.1	12.7
2025-01-09 15:48:03.881070	3.9	26.3	-90.4	13.3
2025-01-09 15:48:05.030422	3.6	26.3	-91.0	7.9
2025-01-09 15:48:06.176876	3.3	26.2	-91.1	9.6
2025-01-09 15:48:07.331482	2.9	26.2	-90.2	12.9
2025-01-09 15:48:08.488331	2.6	26.1	-90.1	8.2
2025-01-09 15:48:09.632980	2.3	26.1	-90.5	7.8
2025-01-09 15:48:10.783359	2.0	26.0	-90.6	6.7
2025-01-09 15:48:11.937255	1.6	25.9	-90.5	6.1
2025-01-09 15:48:13.084595	1.3	25.9	-90.5	7.2
2025-01-09 15:48:14.232083	1.0	25.8	-90.6	12.3
2025-01-09 15:48:15.377750	0.7	25.8	-91.0	13.8
2025-01-09 15:48:16.531855	0.4	25.7	-90.9	8.8
2025-01-09 15:48:17.687824	0.0	25.7	-90.9	11.7
2025-01-09 15:48:18.839863	359.7	25.6	-90.7	10.4
2025-01-09 15:48:19.991827	359.4	25.5	-90.6	7.4
2025-01-09 15:48:21.137697	359.1	25.5	-91.2	8.5
2025-01-09 15:48:22.284358	358.8	25.4	-91.0	13.5
2025-01-09 15:48:23.434314	358.5	25.4	-90.5	10.8
2025-01-09 15:48:24.585428	358.2	25.3	-90.7	7.9
2025-01-09 15:48:25.738684	357.9	25.2	-91.1	16.0
2025-01-09 15:48:26.884102	357.6	25.2	-91.0	13.7
2025-01-09 15:48:28.031928	357.2	25.1	-90.8	7.5
2025-01-09 15:48:29.181451	356.9	25.0	-90.3	14.3
2025-01-09 15:48:30.331625	356.6	25.0	-91.0	15.1
2025-01-09 15:48:31.478162	356.3	24.9	-90.6	10.2
2025-01-09 15:48:32.629625	356.0	24.8	-91.0	11.2
2025-01-09 15:48:33.789199	355.7	24.8	-90.9	16.0
2025-01-09 15:48:34.937508	355.4	24.7	-91.1	14.5
2025-01-09 15:48:36.087281	355.1	24.6	-90.9	7.2
2025-01-09 15:48:37.241224	354.8	24.6	-90.8	12.5
2025-01-09 15:48:38.394216	354.5	24.5	-90.4	17.9
2025-01-09 15:48:39.548341	354.2	24.4	-90.3	10.4
2025-01-09 15:48:40.706729	353.9	24.3	-90.6	13.7
2025-01-09 15:48:41.858857	353.7	24.3	-90.2	16.4
2025-01-09 15:48:43.002662	353.4	24.2	-90.4	11.1
2025-01-09 15:48:44.160786	353.1	24.1	-90.1	12.6
2025-01-09 15:48:45.310189	352.8	24.1	-90.6	12.0
2025-01-09 15:48:46.463596	352.5	24.0	-90.1	12.8
2025-01-09 15:48:47.609290	352.2	23.9	-90.8	11.7
2025-01-09 15:48:48.760836	351.9	23.8	-91.0	11.4
2025-01-09 15:48:49.910018	351.7	23.7	-89.9	14.6
2025-01-09 15:48:51.056828	351.4	23.7	-90.3	12.3
2025-01-09 15:48:52.208138	351.1	23.6	-89.9	12.8
2025-01-09 15:48:53.356702	350.8	23.5	-90.6	12.3
2025-01-09 15:48:54.504558	350.5	23.4	-90.5	14.8
2025-01-09 15:48:55.657767	350.3	23.4	-90.2	15.7
2025-01-09 15:48:56.804882	350.0	23.3	-90.5	13.3
2025-01-09 15:48:57.960562	349.7	23.2	-90.3	14.9
2025-01-09 15:48:59.112081	349.5	23.1	-89.9	13.7
2025-01-09 15:49:00.257684	349.2	23.0	-90.0	11.8
2025-01-09 15:49:01.402772	348.9	23.0	-90.7	12.6
2025-01-09 15:49:02.552040	348.7	22.9	-91.1	11.1
2025-01-09 15:49:03.698816	348.4	22.8	-90.7	14.9
2025-01-09 15:49:04.849829	348.1	22.7	-90.9	12.9
2025-01-09 15:49:05.997708	347.9	22.6	-91.0	10.8
2025-01-09 15:49:07.144038	347.6	22.5	-90.9	10.6
2025-01-09 15:49:08.296468	347.3	22.5	-90.6	12.2
2025-01-09 15:49:09.448563	347.1	22.4	-90.3	7.7
2025-01-09 15:49:10.598354	346.8	22.3	-90.5	5.3
2025-01-09 15:49:11.747026	346.6	22.2	-91.1	10.4
2025-01-09 15:49:12.892833	346.3	22.1	-90.9	11.8
2025-01-09 15:49:14.057265	346.1	22.0	-90.8	5.1
2025-01-09 15:49:15.201300	345.8	21.9	-90.6	10.3
2025-01-09 15:49:16.346340	345.6	21.9	-91.0	9.4
2025-01-09 15:49:17.493266	345.3	21.8	-90.8	6.6
2025-01-09 15:49:18.644145	345.1	21.7	-90.5	7.0
2025-01-09 15:49:19.798622	344.8	21.6	-90.2	12.4
2025-01-09 15:49:20.943658	344.6	21.5	-90.8	7.4
2025-01-09 15:49:22.104703	344.3	21.4	-90.8	7.2
2025-01-09 15:49:23.258344	344.1	21.3	-90.9	12.1
2025-01-09 15:49:24.413700	343.9	21.2	-90.8	7.7
2025-01-09 15:49:25.564639	343.6	21.2	-90.7	10.0
2025-01-09 15:49:26.714141	343.4	21.1	-90.8	13.0
2025-01-09 15:49:27.861323	343.2	21.0	-91.0	12.8
2025-01-09 15:49:29.009192	342.9	20.9	-90.5	8.9
2025-01-09 15:49:30.153914	342.7	20.8	-90.6	12.6
2025-01-09 15:49:31.301054	342.5	20.7	-90.3	9.1
2025-01-09 15:49:32.456697	342.2	20.6	-90.5	11.0
2025-01-09 15:49:33.607236	342.0	20.5	-90.6	8.4
2025-01-09 15:49:34.756972	341.8	20.4	-90.9	9.1
2025-01-09 15:49:35.901455	341.5	20.3	-91.0	10.0
2025-01-09 15:49:37.048093	341.3	20.3	-90.6	7.1
2025-01-09 15:49:38.197689	341.1	20.2	-90.8	6.1
2025-01-09 15:49:39.345357	340.9	20.1	-90.2	5.7
2025-01-09 15:49:40.494868	340.7	20.0	-90.8	7.4
2025-01-09 15:49:41.644227	340.4	19.9	-90.7	6.9
2025-01-09 15:49:42.788083	340.2	19.8	-90.6	9.4
2025-01-09 15:49:43.942454	340.0	19.7	-90.7	6.8
2025-01-09 15:49:45.104488	339.8	19.6	-90.4	5.3
2025-01-09 15:49:46.259593	339.6	19.5	-90.4	8.3
2025-01-09 15:49:47.407431	339.4	19.4	-90.0	8.9
2025-01-09 15:49:48.567512	339.1	19.3	-90.3	3.8
2025-01-09 15:49:49.718713	338.9	19.2	-90.1	5.3
2025-01-09 15:49:50.869585	338.7	19.2	-90.6	10.0
2025-01-09 15:49:52.013321	338.5	19.1	-91.3	5.7
2025-01-09 15:49:53.162714	338.3	19.0	-90.7	5.6
2025-01-09 15:49:54.318219	338.1	18.9	-91.2	7.2
2025-01-09 15:49:55.466225	337.9	18.8	-90.9	8.7
2025-01-09 15:49:56.616545	337.7	18.7	-90.8	8.6
2025-01-09 15:49:57.767494	337.5	18.6	-90.8	12.7
2025-01-09 15:49:58.917242	337.3	18.5	-90.5	9.4
2025-01-09 15:50:00.061015	337.1	18.4	-90.6	7.2
2025-01-09 15:50:01.197626	336.9	18.3	-90.7	9.3
2025-01-09 15:50:02.344173	336.7	18.2	-90.8	6.0
2025-01-09 15:50:03.491578	336.5	18.1	-90.9	8.4
2025-01-09 15:50:04.648246	336.3	18.1	-91.0	7.1
2025-01-09 15:50:05.800821	336.1	18.0	-90.7	6.5
2025-01-09 15:50:06.949009	335.9	17.9	-90.9	4.1
2025-01-09 15:50:08.097538	335.7	17.8	-91.1	4.1
2025-01-09 15:50:09.246620	335.5	17.7	-90.5	6.2
2025-01-09 15:50:10.397225	335.4	17.6	-90.3	4.2
2025-01-09 15:50:11.542297	335.2	17.5	-90.6	3.5
2025-01-09 15:50:12.698083	335.0	17.4	-90.7	6.5
2025-01-09 15:50:13.844489	334.8	17.3	-91.4	5.2
2025-01-09 15:50:14.990614	334.6	17.2	-90.6	5.0
2025-01-09 15:50:16.142261	334.4	17.1	-90.8	6.0
2025-01-09 15:50:17.289357	334.2	17.0	-90.2	5.0
2025-01-09 15:50:18.442479	334.1	16.9	-90.5	7.8
2025-01-09 15:50:19.587912	333.9	16.9	-90.5	2.8
2025-01-09 15:50:20.739269	333.7	16.8	-91.1	6.3
2025-01-09 15:50:21.885892	333.5	16.7	-91.0	6.9
2025-01-09 15:50:23.032090	333.4	16.6	-90.7	6.3
2025-01-09 15:50:24.176176	333.2	16.5	-90.8	8.4
2025-01-09 15:50:25.323585	333.0	16.4	-90.9	7.3
2025-01-09 15:50:26.475374	332.8	16.3	-90.4	5.8
2025-01-09 15:50:27.625133	332.7	16.2	-90.6	6.3
2025-01-09 15:50:28.773727	332.5	16.1	-90.4	8.6
2025-01-09 15:50:29.920730	332.3	16.0	-90.6	4.7
2025-01-09 15:50:31.067514	332.2	15.9	-90.8	3.3
2025-01-09 15:50:32.213127	332.0	15.8	-90.8	4.9
2025-01-09 15:50:33.359422	331.8	15.8	-91.2	5.4
2025-01-09 15:50:34.506249	331.7	15.7	-91.1	5.1
2025-01-09 15:50:35.651977	331.5	15.6	-91.2	5.5
2025-01-09 15:50:36.798934	331.3	15.5	-90.6	6.0
2025-01-09 15:50:37.946938	331.2	15.4	-90.5	3.7
2025-01-09 15:50:39.093936	331.0	15.3	-90.9	4.0
2025-01-09 15:50:40.253155	330.8	15.2	-91.1	5.5
2025-01-09 15:50:41.404484	330.7	15.1	-91.1	4.0
2025-01-09 15:50:42.551777	330.5	15.0	-90.4	5.2
2025-01-09 15:50:43.697118	330.4	14.9	-90.9	4.9
2025-01-09 15:50:44.843600	330.2	14.9	-91.0	6.0
2025-01-09 15:50:45.980828	330.1	14.8	-90.0	6.6
2025-01-09 15:50:47.127011	329.9	14.7	-90.7	7.2
2025-01-09 15:50:48.271653	329.7	14.6	-90.9	7.6
#Closed at: 2025-01-09 15:43:52.879629