passes_logs/2025/01/09/LEX_Murmansk/LEX_Murmansk__20250109_151639_NOAA_19_rec.log

#Pass ID: 20250109_151639_NOAA 19
#Satellite: NOAA 19
#Configuration: NOAA 19
#Start time: 2025-01-09 15:16:34.365856

#LorettStation: 1.0.0 05.05.2024
#Station: LEX_Murmansk
#Location: 33.156738 lon 68.926811 lat
#TLE: 1 33591U 09005A   25008.91550554  .00000294  00000+0  18118-3 0  9990
#TLE: 2 33591  99.0208  72.6306 0014612  73.7755 286.5023 14.13254864820423

#Time	Az	El	Level	SNR
2025-01-09 15:16:46.636093	82.0	16.1	-88.1	4.8
2025-01-09 15:16:47.797009	81.8	16.2	-88.2	3.5
2025-01-09 15:16:48.950723	81.7	16.3	-87.9	5.7
2025-01-09 15:16:50.114744	81.5	16.4	-87.8	5.5
2025-01-09 15:16:51.271218	81.4	16.5	-87.6	8.7
2025-01-09 15:16:52.425724	81.2	16.6	-88.0	7.3
2025-01-09 15:16:53.586564	81.1	16.7	-87.8	6.5
2025-01-09 15:16:54.742716	80.9	16.8	-88.2	2.6
2025-01-09 15:16:55.899991	80.8	16.9	-87.8	4.8
2025-01-09 15:16:57.062621	80.6	17.0	-88.1	3.9
2025-01-09 15:16:58.221127	80.4	17.1	-88.3	3.0
2025-01-09 15:16:59.376652	80.3	17.2	-88.3	3.8
2025-01-09 15:17:00.527684	80.1	17.3	-88.2	6.5
2025-01-09 15:17:01.692691	80.0	17.5	-88.4	8.0
2025-01-09 15:17:02.846990	79.8	17.6	-88.4	7.6
2025-01-09 15:17:04.009834	79.6	17.7	-88.2	7.1
2025-01-09 15:17:05.160596	79.5	17.8	-87.9	7.1
2025-01-09 15:17:06.326617	79.3	17.9	-88.2	6.2
2025-01-09 15:17:07.480894	79.1	18.0	-88.3	9.9
2025-01-09 15:17:08.644398	79.0	18.1	-88.1	9.0
2025-01-09 15:17:09.798330	78.8	18.2	-88.4	7.3
2025-01-09 15:17:10.954241	78.6	18.3	-88.6	12.1
2025-01-09 15:17:12.110994	78.5	18.4	-88.3	8.5
2025-01-09 15:17:13.263742	78.3	18.5	-87.7	4.6
2025-01-09 15:17:14.412430	78.1	18.6	-88.0	3.1
2025-01-09 15:17:15.566109	77.9	18.8	-88.4	3.1
2025-01-09 15:17:16.721575	77.8	18.9	-88.4	3.9
2025-01-09 15:17:17.885698	77.6	19.0	-87.9	2.0
2025-01-09 15:17:19.040366	77.4	19.1	-88.6	5.6
2025-01-09 15:17:20.196375	77.2	19.2	-88.5	4.7
2025-01-09 15:17:21.353156	77.0	19.3	-88.7	6.4
2025-01-09 15:17:22.514943	76.8	19.4	-88.3	5.6
2025-01-09 15:17:23.670417	76.7	19.5	-88.8	6.8
2025-01-09 15:17:24.827506	76.5	19.6	-87.7	4.2
2025-01-09 15:17:25.987841	76.3	19.7	-87.9	4.7
2025-01-09 15:17:27.142310	76.1	19.9	-88.3	4.8
2025-01-09 15:17:28.300277	75.9	20.0	-88.1	5.3
2025-01-09 15:17:29.459749	75.7	20.1	-88.0	7.7
2025-01-09 15:17:30.619879	75.5	20.2	-88.4	4.1
2025-01-09 15:17:31.776507	75.3	20.3	-88.4	4.1
2025-01-09 15:17:32.937565	75.1	20.4	-88.2	4.4
2025-01-09 15:17:34.099197	74.9	20.5	-88.4	1.1
2025-01-09 15:17:35.258349	74.7	20.6	-87.9	3.3
2025-01-09 15:17:36.413339	74.5	20.7	-88.2	1.1
2025-01-09 15:17:37.578234	74.3	20.9	-88.3	3.5
2025-01-09 15:17:38.744026	74.1	21.0	-88.6	3.4
2025-01-09 15:17:39.896491	73.9	21.1	-88.3	6.8
2025-01-09 15:17:41.058087	73.7	21.2	-88.8	11.8
2025-01-09 15:17:42.216988	73.5	21.3	-88.9	10.3
2025-01-09 15:17:43.378455	73.3	21.4	-88.4	9.0
2025-01-09 15:17:44.537334	73.1	21.5	-88.5	5.6
2025-01-09 15:17:45.699207	72.9	21.7	-88.3	5.5
2025-01-09 15:17:46.851996	72.6	21.8	-88.6	4.3
2025-01-09 15:17:48.013080	72.4	21.9	-88.0	8.7
2025-01-09 15:17:49.173211	72.2	22.0	-88.1	9.8
2025-01-09 15:17:50.335797	72.0	22.1	-88.3	8.5
2025-01-09 15:17:51.493333	71.8	22.2	-88.6	5.8
2025-01-09 15:17:52.650054	71.5	22.3	-88.5	5.7
2025-01-09 15:17:53.814512	71.3	22.4	-88.6	4.6
2025-01-09 15:17:54.967757	71.1	22.6	-88.5	3.5
2025-01-09 15:17:56.130578	70.9	22.7	-88.5	7.0
2025-01-09 15:17:57.293297	70.6	22.8	-88.6	2.1
2025-01-09 15:17:58.450241	70.4	22.9	-88.7	4.9
2025-01-09 15:17:59.605076	70.2	23.0	-88.5	4.7
2025-01-09 15:18:00.753664	69.9	23.1	-88.6	7.0
2025-01-09 15:18:01.904463	69.7	23.2	-88.6	8.2
2025-01-09 15:18:03.061186	69.5	23.3	-88.5	9.8
2025-01-09 15:18:04.222775	69.2	23.5	-88.3	5.0
2025-01-09 15:18:05.384001	69.0	23.6	-88.8	4.2
2025-01-09 15:18:06.533054	68.7	23.7	-88.6	4.6
2025-01-09 15:18:07.694057	68.5	23.8	-88.7	4.7
2025-01-09 15:18:08.853000	68.2	23.9	-88.7	5.2
2025-01-09 15:18:10.018862	68.0	24.0	-88.6	6.5
2025-01-09 15:18:11.181837	67.7	24.1	-88.5	7.5
2025-01-09 15:18:12.340093	67.5	24.3	-88.5	9.2
2025-01-09 15:18:13.493763	67.2	24.4	-88.7	8.4
2025-01-09 15:18:14.651468	67.0	24.5	-88.7	3.2
2025-01-09 15:18:15.790946	66.7	24.6	-88.4	2.0
2025-01-09 15:18:16.945582	66.5	24.7	-88.5	3.8
2025-01-09 15:18:18.105983	66.2	24.8	-88.6	3.3
2025-01-09 15:18:19.263862	65.9	24.9	-88.0	2.3
2025-01-09 15:18:20.424095	65.7	25.0	-88.1	4.4
2025-01-09 15:18:21.583019	65.4	25.1	-88.7	3.7
2025-01-09 15:18:22.736177	65.1	25.3	-88.5	5.3
2025-01-09 15:18:23.900293	64.9	25.4	-88.3	6.5
2025-01-09 15:18:25.052642	64.6	25.5	-88.2	6.6
2025-01-09 15:18:26.213480	64.3	25.6	-88.4	7.2
2025-01-09 15:18:27.382016	64.0	25.7	-88.4	6.4
2025-01-09 15:18:28.536147	63.8	25.8	-88.3	5.4
2025-01-09 15:18:29.694639	63.5	25.9	-88.1	4.4
2025-01-09 15:18:30.860647	63.2	26.0	-88.4	1.6
2025-01-09 15:18:32.015912	62.9	26.1	-89.0	4.4
2025-01-09 15:18:33.169441	62.6	26.2	-88.8	5.1
2025-01-09 15:18:34.322418	62.3	26.3	-88.8	4.0
2025-01-09 15:18:35.478024	62.1	26.5	-88.8	1.3
2025-01-09 15:18:36.646617	61.8	26.6	-88.7	3.2
2025-01-09 15:18:37.807925	61.5	26.7	-88.5	2.7
2025-01-09 15:18:38.964908	61.2	26.8	-88.4	4.5
2025-01-09 15:18:40.129971	60.9	26.9	-88.9	4.7
2025-01-09 15:18:41.284041	60.6	27.0	-88.7	0.6
2025-01-09 15:18:42.448389	60.3	27.1	-88.2	2.1
2025-01-09 15:18:43.587599	60.0	27.2	-88.8	3.4
2025-01-09 15:18:44.708858	59.7	27.3	-89.0	2.5
2025-01-09 15:18:45.847723	59.4	27.4	-88.6	3.5
2025-01-09 15:18:46.991078	59.1	27.5	-88.6	1.1
2025-01-09 15:18:48.141059	58.8	27.6	-89.2	0.3
2025-01-09 15:18:49.293707	58.4	27.7	-88.9	4.9
2025-01-09 15:18:50.446552	58.1	27.8	-88.7	3.2
2025-01-09 15:18:51.604094	57.8	27.9	-88.7	4.6
2025-01-09 15:18:52.761010	57.5	28.0	-88.7	4.9
2025-01-09 15:18:53.915884	57.2	28.1	-88.6	7.3
2025-01-09 15:18:55.068642	56.8	28.2	-89.0	3.1
2025-01-09 15:18:56.223435	56.5	28.3	-88.5	3.0
2025-01-09 15:18:57.380391	56.2	28.4	-88.7	4.2
2025-01-09 15:18:58.541198	55.9	28.5	-89.0	3.1
2025-01-09 15:18:59.694517	55.5	28.6	-89.1	2.6
2025-01-09 15:19:00.844922	55.2	28.7	-88.7	3.0
2025-01-09 15:19:02.003286	54.9	28.8	-88.9	6.4
2025-01-09 15:19:03.173345	54.5	28.9	-88.8	6.7
2025-01-09 15:19:04.337651	54.2	29.0	-89.0	7.1
2025-01-09 15:19:05.495391	53.8	29.0	-89.2	4.6
2025-01-09 15:19:06.654664	53.5	29.1	-88.9	3.7
2025-01-09 15:19:07.810735	53.1	29.2	-89.0	4.8
2025-01-09 15:19:08.965515	52.8	29.3	-89.2	3.5
2025-01-09 15:19:10.127379	52.4	29.4	-88.8	3.5
2025-01-09 15:19:11.290378	52.1	29.5	-88.9	3.2
2025-01-09 15:19:12.459212	51.7	29.6	-89.1	3.2
2025-01-09 15:19:13.622602	51.4	29.7	-88.7	4.9
2025-01-09 15:19:14.792667	51.0	29.7	-88.7	3.1
2025-01-09 15:19:15.938999	50.7	29.8	-89.0	3.4
2025-01-09 15:19:17.096489	50.3	29.9	-88.6	2.1
2025-01-09 15:19:18.254415	49.9	30.0	-88.9	3.2
2025-01-09 15:19:19.406941	49.6	30.1	-88.9	4.7
2025-01-09 15:19:20.558919	49.2	30.2	-88.7	6.1
2025-01-09 15:19:21.714090	48.8	30.2	-89.0	9.5
2025-01-09 15:19:22.864007	48.5	30.3	-88.7	8.1
2025-01-09 15:19:24.019207	48.1	30.4	-88.6	5.5
2025-01-09 15:19:25.183820	47.7	30.5	-89.0	4.1
2025-01-09 15:19:26.338595	47.4	30.5	-89.0	4.6
2025-01-09 15:19:27.491780	47.0	30.6	-88.9	6.1
2025-01-09 15:19:28.652846	46.6	30.7	-89.0	5.2
2025-01-09 15:19:29.811007	46.2	30.7	-89.0	2.4
2025-01-09 15:19:30.969405	45.8	30.8	-89.0	5.5
2025-01-09 15:19:32.120749	45.5	30.9	-89.1	4.0
2025-01-09 15:19:33.279815	45.1	30.9	-89.2	4.0
2025-01-09 15:19:34.433939	44.7	31.0	-89.2	8.0
2025-01-09 15:19:35.594143	44.3	31.1	-88.8	9.5
2025-01-09 15:19:36.759535	43.9	31.1	-89.3	7.2
2025-01-09 15:19:37.931755	43.5	31.2	-88.8	6.5
2025-01-09 15:19:39.088330	43.1	31.2	-89.4	6.5
2025-01-09 15:19:40.251357	42.7	31.3	-89.2	7.8
2025-01-09 15:19:41.407442	42.3	31.4	-89.0	9.2
2025-01-09 15:19:42.568263	41.9	31.4	-89.0	6.3
2025-01-09 15:19:43.727057	41.5	31.5	-89.3	2.9
2025-01-09 15:19:44.880420	41.1	31.5	-89.4	6.3
2025-01-09 15:19:46.038757	40.7	31.6	-89.0	5.1
2025-01-09 15:19:47.192244	40.3	31.6	-89.1	4.4
2025-01-09 15:19:48.349664	39.9	31.7	-89.2	4.1
2025-01-09 15:19:49.500080	39.5	31.7	-89.4	6.0
2025-01-09 15:19:50.656114	39.1	31.7	-89.0	6.0
2025-01-09 15:19:51.811785	38.7	31.8	-89.5	4.0
2025-01-09 15:19:52.966323	38.3	31.8	-89.4	5.0
2025-01-09 15:19:54.123726	37.9	31.9	-89.4	7.8
2025-01-09 15:19:55.280279	37.5	31.9	-89.4	5.4
2025-01-09 15:19:56.436286	37.1	31.9	-89.3	7.7
2025-01-09 15:19:57.602236	36.7	32.0	-89.4	9.1
2025-01-09 15:19:58.762806	36.3	32.0	-89.2	10.3
2025-01-09 15:19:59.924759	35.9	32.0	-89.7	10.8
2025-01-09 15:20:01.066898	35.4	32.1	-89.7	8.4
2025-01-09 15:20:02.219881	35.0	32.1	-89.5	7.1
2025-01-09 15:20:03.379024	34.6	32.1	-89.6	8.2
2025-01-09 15:20:04.545147	34.2	32.1	-89.7	10.3
2025-01-09 15:20:05.698674	33.8	32.2	-89.7	9.3
2025-01-09 15:20:06.865222	33.4	32.2	-89.8	9.2
2025-01-09 15:20:08.025017	32.9	32.2	-89.7	9.9
2025-01-09 15:20:09.185565	32.5	32.2	-89.7	7.9
2025-01-09 15:20:10.333320	32.1	32.2	-89.8	5.8
2025-01-09 15:20:11.501109	31.7	32.3	-89.8	7.3
2025-01-09 15:20:12.655310	31.3	32.3	-89.8	6.3
2025-01-09 15:20:13.810787	30.9	32.3	-89.6	4.0
2025-01-09 15:20:14.965051	30.4	32.3	-89.8	7.3
2025-01-09 15:20:16.117940	30.0	32.3	-89.7	6.9
2025-01-09 15:20:17.277645	29.6	32.3	-89.4	3.9
2025-01-09 15:20:18.435448	29.2	32.3	-89.8	6.0
2025-01-09 15:20:19.584533	28.8	32.3	-89.8	5.8
2025-01-09 15:20:20.749638	28.3	32.3	-89.6	3.9
2025-01-09 15:20:21.908074	27.9	32.3	-89.7	6.4
2025-01-09 15:20:23.069015	27.5	32.3	-89.8	5.5
2025-01-09 15:20:24.230207	27.1	32.3	-89.8	4.4
2025-01-09 15:20:25.394068	26.7	32.3	-89.4	7.4
2025-01-09 15:20:26.553006	26.2	32.3	-89.4	7.9
2025-01-09 15:20:27.719128	25.8	32.3	-89.6	7.2
2025-01-09 15:20:28.878630	25.4	32.3	-89.8	5.8
2025-01-09 15:20:30.041107	25.0	32.2	-90.0	7.6
2025-01-09 15:20:31.197933	24.6	32.2	-89.9	6.2
2025-01-09 15:20:32.356614	24.2	32.2	-89.7	7.3
2025-01-09 15:20:33.512570	23.7	32.2	-89.9	5.7
2025-01-09 15:20:34.671442	23.3	32.2	-89.9	7.1
2025-01-09 15:20:35.820714	22.9	32.1	-89.5	7.0
2025-01-09 15:20:36.986546	22.5	32.1	-89.2	8.6
2025-01-09 15:20:38.141053	22.1	32.1	-89.6	7.7
2025-01-09 15:20:39.301272	21.7	32.1	-89.4	7.0
2025-01-09 15:20:40.463741	21.2	32.0	-89.6	7.2
2025-01-09 15:20:41.614727	20.8	32.0	-89.6	6.6
2025-01-09 15:20:42.771482	20.4	32.0	-89.8	9.7
2025-01-09 15:20:43.931698	20.0	31.9	-89.5	9.6
2025-01-09 15:20:45.076026	19.6	31.9	-89.7	9.4
2025-01-09 15:20:46.236850	19.2	31.9	-89.6	9.5
2025-01-09 15:20:47.389823	18.8	31.8	-89.6	9.3
2025-01-09 15:20:48.541898	18.4	31.8	-89.1	10.5
2025-01-09 15:20:49.701782	18.0	31.7	-89.3	10.5
2025-01-09 15:20:50.861413	17.6	31.7	-89.6	8.5
2025-01-09 15:20:52.024453	17.2	31.7	-90.0	7.9
2025-01-09 15:20:53.204048	16.8	31.6	-89.4	7.1
2025-01-09 15:20:54.369212	16.4	31.6	-89.8	5.3
2025-01-09 15:20:55.530899	16.0	31.5	-89.8	7.5
2025-01-09 15:20:56.681871	15.6	31.5	-89.9	8.5
2025-01-09 15:20:57.839130	15.2	31.4	-89.6	6.6
2025-01-09 15:20:58.997368	14.8	31.4	-89.5	9.4
2025-01-09 15:21:00.149340	14.4	31.3	-89.8	6.5
2025-01-09 15:21:01.295772	14.0	31.2	-89.8	5.9
2025-01-09 15:21:02.464228	13.6	31.2	-89.8	7.3
2025-01-09 15:21:03.618655	13.2	31.1	-89.3	5.8
2025-01-09 15:21:04.776737	12.8	31.1	-89.7	6.0
2025-01-09 15:21:05.928714	12.4	31.0	-90.1	7.1
2025-01-09 15:21:07.082114	12.0	30.9	-89.8	6.7
2025-01-09 15:21:08.240958	11.7	30.9	-89.3	6.7
2025-01-09 15:21:09.400175	11.3	30.8	-89.6	7.5
2025-01-09 15:21:10.555984	10.9	30.7	-89.8	7.0
2025-01-09 15:21:11.713205	10.5	30.7	-89.3	6.2
2025-01-09 15:21:12.884426	10.1	30.6	-89.5	8.3
2025-01-09 15:21:14.045745	9.8	30.5	-89.3	6.4
2025-01-09 15:21:15.208754	9.4	30.4	-89.6	6.4
2025-01-09 15:21:16.369102	9.0	30.4	-89.7	8.4
2025-01-09 15:21:17.527664	8.6	30.3	-89.7	6.9
2025-01-09 15:21:18.683687	8.3	30.2	-89.3	4.6
2025-01-09 15:21:19.839329	7.9	30.1	-89.5	6.7
2025-01-09 15:21:20.992189	7.5	30.1	-89.5	6.7
2025-01-09 15:21:22.154172	7.2	30.0	-89.2	3.2
2025-01-09 15:21:23.310134	6.8	29.9	-89.0	4.5
2025-01-09 15:21:24.476194	6.4	29.8	-89.1	4.5
2025-01-09 15:21:25.639717	6.1	29.7	-88.7	4.0
2025-01-09 15:21:26.798455	5.7	29.7	-88.2	5.1
2025-01-09 15:21:27.957988	5.4	29.6	-88.4	3.8
2025-01-09 15:21:29.108876	5.0	29.5	-88.4	5.6
2025-01-09 15:21:30.263559	4.7	29.4	-88.2	4.2
2025-01-09 15:21:31.428823	4.3	29.3	-88.5	3.9
2025-01-09 15:21:32.589536	4.0	29.2	-88.5	4.0
2025-01-09 15:21:33.755871	3.6	29.1	-88.9	5.6
2025-01-09 15:21:34.917111	3.3	29.0	-88.8	4.8
2025-01-09 15:21:36.074500	2.9	29.0	-88.6	2.7
2025-01-09 15:21:37.223839	2.6	28.9	-88.3	5.7
2025-01-09 15:21:38.383099	2.3	28.8	-88.4	4.9
2025-01-09 15:21:39.544214	1.9	28.7	-88.5	7.5
2025-01-09 15:21:40.700587	1.6	28.6	-88.5	6.1
2025-01-09 15:21:41.861181	1.3	28.5	-88.3	5.6
2025-01-09 15:21:43.015830	0.9	28.4	-88.7	8.7
2025-01-09 15:21:44.165571	0.6	28.3	-88.4	8.0
2025-01-09 15:21:45.329172	0.3	28.2	-88.4	6.6
2025-01-09 15:21:46.486183	360.0	28.1	-88.5	6.0
2025-01-09 15:21:47.653567	359.6	28.0	-88.7	5.2
2025-01-09 15:21:48.815417	359.3	27.9	-88.6	3.7
2025-01-09 15:21:49.967856	359.0	27.8	-88.5	4.2
2025-01-09 15:21:51.124918	358.7	27.7	-88.3	3.4
2025-01-09 15:21:52.279692	358.4	27.6	-88.0	4.9
2025-01-09 15:21:53.436627	358.1	27.5	-88.4	3.3
2025-01-09 15:21:54.590023	357.8	27.4	-88.3	5.5
2025-01-09 15:21:55.748184	357.5	27.3	-88.7	2.1
2025-01-09 15:21:56.906971	357.1	27.2	-88.6	4.8
2025-01-09 15:21:58.062939	356.8	27.1	-88.8	7.1
2025-01-09 15:21:59.228115	356.5	27.0	-88.5	2.6
2025-01-09 15:22:00.375067	356.2	26.9	-88.8	6.3
2025-01-09 15:22:01.528380	355.9	26.8	-88.6	4.5
2025-01-09 15:22:02.684262	355.7	26.7	-88.4	3.8
2025-01-09 15:22:03.844402	355.4	26.6	-88.6	4.4
2025-01-09 15:22:05.000901	355.1	26.4	-88.5	6.0
2025-01-09 15:22:06.155694	354.8	26.3	-88.4	6.8
2025-01-09 15:22:07.314118	354.5	26.2	-88.6	3.7
2025-01-09 15:22:08.469466	354.2	26.1	-88.5	7.5
2025-01-09 15:22:09.631161	353.9	26.0	-88.5	6.9
2025-01-09 15:22:10.799021	353.6	25.9	-88.6	6.9
2025-01-09 15:22:11.958877	353.4	25.8	-88.6	7.3
2025-01-09 15:22:13.121769	353.1	25.7	-88.5	9.3
2025-01-09 15:22:14.284274	352.8	25.6	-88.6	8.6
2025-01-09 15:22:15.438527	352.5	25.5	-88.4	7.9
2025-01-09 15:22:16.597915	352.3	25.4	-88.6	8.6
2025-01-09 15:22:17.760440	352.0	25.2	-88.5	8.7
2025-01-09 15:22:18.921149	351.7	25.1	-88.3	9.0
2025-01-09 15:22:20.084510	351.4	25.0	-88.2	10.1
2025-01-09 15:22:21.243886	351.2	24.9	-88.1	11.0
2025-01-09 15:22:22.392738	350.9	24.8	-88.3	10.1
2025-01-09 15:22:23.555026	350.7	24.7	-88.3	5.9
2025-01-09 15:22:24.718281	350.4	24.6	-88.0	6.5
2025-01-09 15:22:25.879981	350.1	24.5	-88.5	4.8
2025-01-09 15:22:27.034986	349.9	24.4	-88.4	6.1
2025-01-09 15:22:28.196736	349.6	24.2	-88.8	5.7
2025-01-09 15:22:29.356322	349.4	24.1	-88.9	5.2
2025-01-09 15:22:30.516597	349.1	24.0	-88.6	5.5
2025-01-09 15:22:31.675038	348.9	23.9	-88.6	5.4
2025-01-09 15:22:32.841681	348.6	23.8	-88.7	5.2
2025-01-09 15:22:34.004604	348.4	23.7	-89.1	4.6
2025-01-09 15:22:35.169372	348.2	23.6	-88.8	5.7
2025-01-09 15:22:36.324786	347.9	23.5	-88.2	3.8
2025-01-09 15:22:37.481197	347.7	23.3	-88.5	6.6
2025-01-09 15:22:38.637414	347.4	23.2	-88.6	6.3
2025-01-09 15:22:39.791801	347.2	23.1	-88.4	5.5
2025-01-09 15:22:40.948872	347.0	23.0	-88.3	7.2
2025-01-09 15:22:42.104952	346.7	22.9	-88.9	5.6
2025-01-09 15:22:43.262599	346.5	22.8	-89.0	5.2
2025-01-09 15:22:44.416599	346.3	22.7	-88.7	7.1
2025-01-09 15:22:45.575068	346.0	22.6	-88.6	8.1
2025-01-09 15:22:46.729406	345.8	22.4	-88.6	8.2
2025-01-09 15:22:47.888900	345.6	22.3	-88.8	7.6
2025-01-09 15:22:49.048124	345.4	22.2	-89.1	3.9
2025-01-09 15:22:50.205611	345.2	22.1	-88.9	7.6
2025-01-09 15:22:51.365021	344.9	22.0	-88.8	6.6
2025-01-09 15:22:52.519528	344.7	21.9	-89.0	4.7
2025-01-09 15:22:53.671740	344.5	21.8	-88.9	3.4
2025-01-09 15:22:54.825862	344.3	21.7	-88.8	2.6
2025-01-09 15:22:55.980645	344.1	21.5	-89.0	5.4
2025-01-09 15:22:57.134228	343.9	21.4	-88.7	3.7
2025-01-09 15:22:58.290561	343.7	21.3	-89.1	4.1
2025-01-09 15:22:59.452338	343.5	21.2	-89.1	4.0
2025-01-09 15:23:00.602977	343.3	21.1	-88.8	3.1
2025-01-09 15:23:01.819515	343.0	21.0	-88.7	5.5
2025-01-09 15:23:02.979088	342.8	20.9	-88.9	5.6
2025-01-09 15:23:04.134391	342.6	20.8	-88.8	3.1
2025-01-09 15:23:05.276018	342.4	20.6	-88.7	4.8
2025-01-09 15:23:06.431127	342.2	20.5	-89.2	5.1
2025-01-09 15:23:07.592541	342.0	20.4	-89.2	7.2
2025-01-09 15:23:08.749759	341.8	20.3	-89.1	5.6
2025-01-09 15:23:09.909005	341.6	20.2	-88.9	5.9
2025-01-09 15:23:11.066886	341.5	20.1	-88.9	5.6
2025-01-09 15:23:12.234204	341.3	20.0	-89.4	2.7
2025-01-09 15:23:13.390920	341.1	19.9	-89.1	5.0
2025-01-09 15:23:14.544302	340.9	19.7	-88.8	4.4
2025-01-09 15:23:15.700645	340.7	19.6	-88.6	2.4
2025-01-09 15:23:16.856835	340.5	19.5	-88.8	2.2
2025-01-09 15:23:18.014604	340.3	19.4	-88.8	2.9
2025-01-09 15:23:19.167713	340.1	19.3	-89.2	1.3
2025-01-09 15:23:20.329109	340.0	19.2	-89.3	2.7
2025-01-09 15:23:21.487414	339.8	19.1	-88.9	3.8
2025-01-09 15:23:22.641170	339.6	19.0	-89.0	0.8
2025-01-09 15:23:23.797539	339.4	18.9	-88.6	3.8
2025-01-09 15:23:24.948413	339.2	18.8	-88.6	2.8
2025-01-09 15:23:26.111162	339.1	18.7	-88.6	3.1
2025-01-09 15:23:27.268408	338.9	18.5	-88.6	5.8
2025-01-09 15:23:28.435494	338.7	18.4	-88.5	4.6
2025-01-09 15:23:29.594492	338.6	18.3	-88.8	3.0
2025-01-09 15:23:30.755450	338.4	18.2	-88.7	4.7
2025-01-09 15:23:31.908219	338.2	18.1	-89.0	5.0
2025-01-09 15:23:33.062687	338.0	18.0	-89.1	1.8
2025-01-09 15:23:34.216929	337.9	17.9	-88.8	2.5
2025-01-09 15:23:35.380504	337.7	17.8	-88.9	2.5
2025-01-09 15:23:36.533813	337.5	17.7	-89.4	3.2
2025-01-09 15:23:37.690769	337.4	17.6	-89.0	2.9
2025-01-09 15:23:38.851648	337.2	17.5	-89.1	2.2
2025-01-09 15:23:40.009274	337.1	17.4	-89.3	5.3
2025-01-09 15:23:41.167841	336.9	17.3	-89.2	3.3
2025-01-09 15:23:42.322314	336.7	17.2	-89.0	2.6
2025-01-09 15:23:43.480577	336.6	17.0	-89.3	2.7
2025-01-09 15:23:44.639862	336.4	16.9	-88.8	3.5
2025-01-09 15:23:45.797013	336.3	16.8	-88.9	4.0
2025-01-09 15:23:46.952646	336.1	16.7	-88.9	3.0
2025-01-09 15:23:48.108587	336.0	16.6	-88.5	3.6
2025-01-09 15:23:49.268106	335.8	16.5	-88.7	4.8
2025-01-09 15:23:50.425280	335.7	16.4	-89.0	4.5
2025-01-09 15:23:51.586018	335.5	16.3	-88.8	1.7
2025-01-09 15:23:52.744896	335.4	16.2	-89.0	1.8
2025-01-09 15:23:53.908062	335.2	16.1	-89.1	1.9
2025-01-09 15:23:55.062811	335.1	16.0	-89.1	3.8
2025-01-09 15:23:56.224954	334.9	15.9	-88.9	2.4
2025-01-09 15:23:57.378748	334.8	15.8	-88.8	1.9
2025-01-09 15:23:58.534770	334.6	15.7	-89.0	4.0
2025-01-09 15:23:59.699027	334.5	15.6	-89.1	2.3
2025-01-09 15:24:00.844001	334.4	15.5	-89.4	1.4
2025-01-09 15:24:02.001364	334.2	15.4	-89.3	3.5
2025-01-09 15:24:03.156325	334.1	15.3	-89.0	2.2
2025-01-09 15:24:04.313365	333.9	15.2	-88.9	4.0
2025-01-09 15:24:05.464113	333.8	15.1	-88.8	3.2
2025-01-09 15:24:06.616563	333.7	15.0	-89.0	3.8
2025-01-09 15:24:07.772912	333.5	14.9	-89.5	1.7
2025-01-09 15:24:08.928085	333.4	14.8	-89.2	2.0
2025-01-09 15:24:10.087298	333.3	14.7	-89.4	2.8
2025-01-09 15:24:11.248758	333.1	14.6	-89.4	3.9
#Closed at: 2025-01-09 15:16:39.431193