passes_logs/2025/01/09/LEX_Murmansk/LEX_Murmansk__20250109_090259_NOAA_18_rec.log

#Pass ID: 20250109_090259_NOAA 18
#Satellite: NOAA 18
#Configuration: NOAA 18
#Start time: 2025-01-09 09:02:54.648113

#LorettStation: 1.0.0 05.05.2024
#Station: LEX_Murmansk
#Location: 33.156738 lon 68.926811 lat
#TLE: 1 28654U 05018A   25008.86276551  .00000342  00000+0  20484-3 0  9993
#TLE: 2 28654  98.8578  89.9777 0014066 196.4292 163.6427 14.13481270 12237

#Time	Az	El	Level	SNR
2025-01-09 09:03:06.863382	29.9	16.2	-83.7	4.9
2025-01-09 09:03:09.185641	30.1	16.5	-85.7	7.3
2025-01-09 09:03:11.504750	30.3	16.7	-85.8	6.6
2025-01-09 09:03:13.839432	30.5	17.0	-85.7	8.0
2025-01-09 09:03:16.164533	30.6	17.2	-85.4	5.2
2025-01-09 09:03:18.503493	30.8	17.5	-85.5	6.2
2025-01-09 09:03:20.829145	31.0	17.7	-85.4	6.7
2025-01-09 09:03:23.155274	31.2	18.0	-85.4	9.5
2025-01-09 09:03:25.471126	31.4	18.2	-85.6	6.4
2025-01-09 09:03:27.800016	31.6	18.5	-85.0	7.0
2025-01-09 09:03:30.124798	31.8	18.7	-85.7	7.4
2025-01-09 09:03:32.442463	32.0	19.0	-86.0	8.0
2025-01-09 09:03:34.785527	32.2	19.3	-85.3	7.7
2025-01-09 09:03:37.109523	32.4	19.5	-85.6	7.8
2025-01-09 09:03:39.434524	32.6	19.8	-85.1	7.9
2025-01-09 09:03:41.747980	32.8	20.1	-85.4	8.9
2025-01-09 09:03:44.076820	33.0	20.4	-85.6	7.0
2025-01-09 09:03:46.399618	33.3	20.6	-86.2	9.6
2025-01-09 09:03:48.724823	33.5	20.9	-86.3	8.4
2025-01-09 09:03:51.045997	33.7	21.2	-87.2	9.0
2025-01-09 09:03:53.368395	34.0	21.5	-86.4	11.2
2025-01-09 09:03:55.696379	34.2	21.8	-86.3	10.0
2025-01-09 09:03:58.021819	34.4	22.1	-86.8	8.5
2025-01-09 09:04:00.345942	34.7	22.4	-86.5	7.8
2025-01-09 09:04:02.664535	34.9	22.7	-86.5	7.5
2025-01-09 09:04:04.996830	35.2	23.0	-86.9	8.4
2025-01-09 09:04:07.328115	35.5	23.3	-86.2	8.4
2025-01-09 09:04:09.648357	35.7	23.6	-86.0	9.7
2025-01-09 09:04:11.968211	36.0	23.9	-86.4	8.4
2025-01-09 09:04:14.299280	36.3	24.2	-86.1	13.9
2025-01-09 09:04:16.623726	36.6	24.5	-86.7	8.9
2025-01-09 09:04:18.960345	36.8	24.9	-86.1	7.8
2025-01-09 09:04:21.283623	37.1	25.2	-86.5	8.2
2025-01-09 09:04:23.613181	37.4	25.5	-85.2	7.8
2025-01-09 09:04:25.937562	37.7	25.8	-85.4	7.7
2025-01-09 09:04:28.266731	38.1	26.2	-84.9	7.6
2025-01-09 09:04:30.595195	38.4	26.5	-86.2	9.2
2025-01-09 09:04:32.915507	38.7	26.9	-85.1	9.8
2025-01-09 09:04:35.240356	39.0	27.2	-86.0	9.0
2025-01-09 09:04:37.568357	39.4	27.5	-84.9	6.6
2025-01-09 09:04:39.891188	39.7	27.9	-86.1	9.5
2025-01-09 09:04:42.213059	40.1	28.3	-86.3	9.2
2025-01-09 09:04:44.541887	40.4	28.6	-86.2	9.2
2025-01-09 09:04:46.880243	40.8	29.0	-85.8	8.1
2025-01-09 09:04:49.211688	41.2	29.3	-85.5	7.3
2025-01-09 09:04:51.538166	41.6	29.7	-85.5	8.3
2025-01-09 09:04:53.860383	42.0	30.1	-85.5	7.4
2025-01-09 09:04:56.184144	42.4	30.4	-85.7	7.8
2025-01-09 09:04:58.509791	42.8	30.8	-85.8	7.4
2025-01-09 09:05:00.815828	43.2	31.2	-85.3	8.8
2025-01-09 09:05:03.138110	43.6	31.6	-85.9	9.9
2025-01-09 09:05:05.469741	44.1	32.0	-86.2	9.2
2025-01-09 09:05:07.794770	44.5	32.4	-86.4	11.9
2025-01-09 09:05:10.123868	45.0	32.8	-86.1	14.4
2025-01-09 09:05:12.455915	45.5	33.2	-86.5	11.7
2025-01-09 09:05:14.790014	45.9	33.6	-86.1	12.4
2025-01-09 09:05:17.112008	46.4	34.0	-86.3	8.3
2025-01-09 09:05:19.439187	46.9	34.4	-86.1	12.7
2025-01-09 09:05:21.760779	47.5	34.8	-86.6	13.1
2025-01-09 09:05:24.089608	48.0	35.2	-86.1	12.2
2025-01-09 09:05:26.413925	48.6	35.6	-86.1	9.7
2025-01-09 09:05:28.732260	49.1	36.0	-86.3	8.1
2025-01-09 09:05:31.052045	49.7	36.4	-86.1	8.8
2025-01-09 09:05:33.381111	50.3	36.9	-85.3	11.0
2025-01-09 09:05:35.689249	50.9	37.3	-86.0	10.1
2025-01-09 09:05:38.017178	51.5	37.7	-85.2	8.8
2025-01-09 09:05:40.335720	52.1	38.1	-85.6	10.9
2025-01-09 09:05:42.657826	52.8	38.6	-85.7	11.6
2025-01-09 09:05:44.984059	53.5	39.0	-85.9	12.7
2025-01-09 09:05:47.308498	54.2	39.4	-85.7	11.2
2025-01-09 09:05:49.636487	54.9	39.8	-85.9	10.9
2025-01-09 09:05:51.975085	55.6	40.3	-85.9	13.1
2025-01-09 09:05:54.300267	56.3	40.7	-85.9	13.6
2025-01-09 09:05:56.626557	57.1	41.1	-85.7	9.4
2025-01-09 09:05:58.954157	57.9	41.6	-85.8	9.4
2025-01-09 09:06:01.260996	58.7	42.0	-85.5	10.1
2025-01-09 09:06:03.583371	59.5	42.4	-85.3	9.7
2025-01-09 09:06:05.901356	60.4	42.8	-85.5	10.5
2025-01-09 09:06:08.225091	61.2	43.3	-85.7	9.4
2025-01-09 09:06:10.555705	62.1	43.7	-85.9	9.0
2025-01-09 09:06:12.881411	63.1	44.1	-85.8	11.3
2025-01-09 09:06:15.215260	64.0	44.5	-85.7	12.2
2025-01-09 09:06:17.541074	65.0	44.9	-86.0	10.4
2025-01-09 09:06:19.863793	66.0	45.3	-86.0	10.1
2025-01-09 09:06:22.188133	67.0	45.7	-85.4	8.7
2025-01-09 09:06:24.520484	68.0	46.1	-85.8	6.5
2025-01-09 09:06:26.849947	69.1	46.5	-85.4	9.8
2025-01-09 09:06:29.184842	70.2	46.9	-85.7	8.6
2025-01-09 09:06:31.497985	71.3	47.3	-85.9	7.7
2025-01-09 09:06:33.824213	72.5	47.6	-85.8	7.1
2025-01-09 09:06:36.154770	73.7	48.0	-85.4	8.5
2025-01-09 09:06:38.483392	74.9	48.3	-86.0	7.6
2025-01-09 09:06:40.806439	76.1	48.7	-85.2	8.6
2025-01-09 09:06:43.128651	77.3	49.0	-85.5	7.1
2025-01-09 09:06:45.450071	78.6	49.3	-84.8	5.9
2025-01-09 09:06:47.781647	79.9	49.6	-85.9	6.8
2025-01-09 09:06:50.100387	81.3	49.9	-85.9	6.5
2025-01-09 09:06:52.420399	82.6	50.1	-86.2	6.2
2025-01-09 09:06:54.746109	84.0	50.4	-86.7	7.6
2025-01-09 09:06:57.058905	85.4	50.6	-86.2	8.2
2025-01-09 09:06:59.379039	86.8	50.8	-86.0	7.8
2025-01-09 09:07:01.689316	88.2	51.0	-86.3	8.4
2025-01-09 09:07:04.018051	89.7	51.2	-85.7	6.4
2025-01-09 09:07:06.346261	91.2	51.4	-85.7	5.9
2025-01-09 09:07:08.676459	92.7	51.5	-85.6	8.2
2025-01-09 09:07:11.006867	94.2	51.6	-85.7	6.4
2025-01-09 09:07:13.336345	95.7	51.8	-85.5	10.1
2025-01-09 09:07:15.662326	97.2	51.8	-86.2	8.2
2025-01-09 09:07:17.996623	98.8	51.9	-86.6	11.9
2025-01-09 09:07:20.323870	100.3	51.9	-86.7	12.9
2025-01-09 09:07:22.648756	101.8	52.0	-86.6	11.9
2025-01-09 09:07:24.970051	103.4	52.0	-86.4	12.0
2025-01-09 09:07:27.289613	104.9	51.9	-86.2	9.7
2025-01-09 09:07:29.627032	106.5	51.9	-86.6	9.3
2025-01-09 09:07:31.941025	108.0	51.8	-86.6	9.7
2025-01-09 09:07:34.262592	109.5	51.8	-86.1	10.2
2025-01-09 09:07:36.590167	111.0	51.6	-86.5	9.4
2025-01-09 09:07:38.913491	112.5	51.5	-86.3	6.7
2025-01-09 09:07:41.236787	114.0	51.4	-86.3	6.0
2025-01-09 09:07:43.556095	115.5	51.2	-86.3	7.2
2025-01-09 09:07:45.879755	117.0	51.0	-85.7	8.3
2025-01-09 09:07:48.205153	118.4	50.8	-85.4	8.2
2025-01-09 09:07:50.530969	119.8	50.6	-86.2	7.3
2025-01-09 09:07:52.852615	121.2	50.4	-86.2	9.1
2025-01-09 09:07:55.176166	122.6	50.1	-86.5	8.0
2025-01-09 09:07:57.492967	124.0	49.9	-86.1	6.2
2025-01-09 09:07:59.819650	125.3	49.6	-86.1	7.8
2025-01-09 09:08:02.122375	126.6	49.3	-85.7	7.8
2025-01-09 09:08:04.443070	127.9	49.0	-86.4	8.0
2025-01-09 09:08:06.768544	129.1	48.7	-85.8	8.5
2025-01-09 09:08:09.114023	130.4	48.3	-85.2	7.5
2025-01-09 09:08:11.443242	131.6	48.0	-85.4	7.6
2025-01-09 09:08:13.763495	132.8	47.6	-85.8	7.9
2025-01-09 09:08:16.089495	133.9	47.3	-85.6	7.8
2025-01-09 09:08:18.426313	135.1	46.9	-85.7	7.0
2025-01-09 09:08:20.751472	136.2	46.5	-85.3	8.3
2025-01-09 09:08:23.096009	137.2	46.1	-85.6	6.1
2025-01-09 09:08:25.424474	138.3	45.7	-85.2	7.8
2025-01-09 09:08:27.757422	139.3	45.3	-85.2	10.3
2025-01-09 09:08:30.090166	140.3	44.9	-85.5	8.5
2025-01-09 09:08:32.406291	141.3	44.5	-85.5	9.6
2025-01-09 09:08:34.734899	142.2	44.1	-85.3	11.9
2025-01-09 09:08:37.056463	143.1	43.6	-85.1	11.7
2025-01-09 09:08:39.377032	144.0	43.2	-84.9	10.7
2025-01-09 09:08:41.702239	144.9	42.8	-84.8	10.0
2025-01-09 09:08:44.026604	145.8	42.4	-84.8	11.7
2025-01-09 09:08:46.359575	146.6	41.9	-85.1	13.6
2025-01-09 09:08:48.686983	147.4	41.5	-85.0	11.4
2025-01-09 09:08:51.010954	148.2	41.1	-84.7	8.2
2025-01-09 09:08:53.333110	149.0	40.6	-84.7	10.3
2025-01-09 09:08:55.666616	149.7	40.2	-84.4	10.9
2025-01-09 09:08:57.992349	150.5	39.8	-85.2	10.0
2025-01-09 09:09:00.311454	151.2	39.3	-84.3	9.5
2025-01-09 09:09:02.627994	151.8	38.9	-85.6	8.2
2025-01-09 09:09:04.951083	152.5	38.5	-84.5	7.5
2025-01-09 09:09:07.281743	153.2	38.0	-84.5	8.7
2025-01-09 09:09:09.608135	153.8	37.6	-84.4	7.6
2025-01-09 09:09:11.936125	154.4	37.2	-84.6	9.8
2025-01-09 09:09:14.263406	155.1	36.7	-85.1	7.7
2025-01-09 09:09:16.584496	155.6	36.3	-85.0	8.5
2025-01-09 09:09:18.917034	156.2	35.9	-84.4	7.0
2025-01-09 09:09:21.261100	156.8	35.5	-85.6	7.6
2025-01-09 09:09:23.585524	157.3	35.1	-85.9	6.0
2025-01-09 09:09:25.908200	157.9	34.6	-85.4	8.0
2025-01-09 09:09:28.236892	158.4	34.2	-84.3	9.7
2025-01-09 09:09:30.561030	158.9	33.8	-84.5	7.3
2025-01-09 09:09:32.887219	159.4	33.4	-83.9	5.4
2025-01-09 09:09:35.211296	159.9	33.0	-83.7	9.8
2025-01-09 09:09:37.530783	160.4	32.6	-83.4	9.0
2025-01-09 09:09:39.840635	160.8	32.2	-85.0	7.4
2025-01-09 09:09:42.164983	161.3	31.8	-85.0	9.0
2025-01-09 09:09:44.488019	161.7	31.4	-85.0	7.6
2025-01-09 09:09:46.812800	162.2	31.0	-84.7	8.5
2025-01-09 09:09:49.131443	162.6	30.7	-85.0	5.9
2025-01-09 09:09:51.461436	163.0	30.3	-85.2	5.6
2025-01-09 09:09:53.778074	163.4	29.9	-84.5	9.9
2025-01-09 09:09:56.120693	163.8	29.5	-84.7	9.6
2025-01-09 09:09:58.440997	164.2	29.2	-84.6	7.9
2025-01-09 09:10:00.743475	164.5	28.8	-84.6	7.7
2025-01-09 09:10:03.071684	164.9	28.4	-85.5	7.2
2025-01-09 09:10:05.398712	165.3	28.1	-85.0	6.9
2025-01-09 09:10:07.719339	165.6	27.7	-85.3	9.1
2025-01-09 09:10:10.051384	166.0	27.4	-84.7	5.8
2025-01-09 09:10:12.378712	166.3	27.0	-84.7	6.9
2025-01-09 09:10:14.703603	166.7	26.7	-84.3	7.3
2025-01-09 09:10:17.035937	167.0	26.3	-84.9	5.5
2025-01-09 09:10:19.358283	167.3	26.0	-84.1	8.3
2025-01-09 09:10:21.688511	167.6	25.7	-84.3	6.9
2025-01-09 09:10:24.012998	167.9	25.3	-85.0	8.4
2025-01-09 09:10:26.336194	168.2	25.0	-84.3	6.4
2025-01-09 09:10:28.660479	168.5	24.7	-84.2	7.9
2025-01-09 09:10:30.985791	168.8	24.3	-84.3	6.2
2025-01-09 09:10:33.312371	169.1	24.0	-84.7	8.6
2025-01-09 09:10:35.642870	169.4	23.7	-85.3	8.9
2025-01-09 09:10:37.977013	169.6	23.4	-84.9	8.1
2025-01-09 09:10:40.297651	169.9	23.1	-84.3	7.1
2025-01-09 09:10:42.615802	170.2	22.8	-84.5	8.3
2025-01-09 09:10:44.943903	170.4	22.5	-83.7	9.6
2025-01-09 09:10:47.270664	170.7	22.2	-84.0	6.5
2025-01-09 09:10:49.588111	170.9	21.9	-84.4	5.8
2025-01-09 09:10:51.910545	171.2	21.6	-84.4	6.7
2025-01-09 09:10:54.226452	171.4	21.3	-84.4	7.1
2025-01-09 09:10:56.555825	171.6	21.0	-84.4	6.4
2025-01-09 09:10:58.876703	171.9	20.7	-84.6	7.4
2025-01-09 09:11:01.189206	172.1	20.4	-84.7	7.2
2025-01-09 09:11:03.521350	172.3	20.1	-83.5	6.9
2025-01-09 09:11:05.846459	172.5	19.9	-84.2	7.1
2025-01-09 09:11:08.168085	172.7	19.6	-84.4	7.2
2025-01-09 09:11:10.489834	172.9	19.3	-84.2	5.5
2025-01-09 09:11:12.817175	173.2	19.0	-84.4	6.8
2025-01-09 09:11:15.142798	173.4	18.8	-84.1	5.5
2025-01-09 09:11:17.465656	173.6	18.5	-84.3	6.1
2025-01-09 09:11:19.788860	173.8	18.2	-84.6	5.6
2025-01-09 09:11:22.114978	174.0	18.0	-84.4	6.5
2025-01-09 09:11:24.438803	174.1	17.7	-84.1	6.4
2025-01-09 09:11:26.761133	174.3	17.5	-83.9	5.7
2025-01-09 09:11:29.088337	174.5	17.2	-84.8	7.6
2025-01-09 09:11:31.408389	174.7	17.0	-84.4	7.7
2025-01-09 09:11:33.729362	174.9	16.7	-85.0	7.4
2025-01-09 09:11:36.055056	175.1	16.5	-84.8	7.0
2025-01-09 09:11:38.374527	175.2	16.2	-84.7	5.8
2025-01-09 09:11:40.697822	175.4	16.0	-84.2	5.6
2025-01-09 09:11:43.017439	175.6	15.7	-84.5	5.3
2025-01-09 09:11:45.347247	175.7	15.5	-84.8	5.4
2025-01-09 09:11:47.678874	175.9	15.3	-84.8	6.7
2025-01-09 09:11:50.006086	176.1	15.0	-84.3	6.8
2025-01-09 09:11:52.337019	176.2	14.8	-84.2	8.1
2025-01-09 09:11:54.650788	176.4	14.6	-84.9	6.2
#Closed at: 2025-01-09 09:02:59.651448