passes_logs/2025/01/09/LEX_Murmansk/LEX_Murmansk__20250109_104346_NOAA_18_rec.log

#Pass ID: 20250109_104346_NOAA 18
#Satellite: NOAA 18
#Configuration: NOAA 18
#Start time: 2025-01-09 10:43:41.468088

#LorettStation: 1.0.0 05.05.2024
#Station: LEX_Murmansk
#Location: 33.156738 lon 68.926811 lat
#TLE: 1 28654U 05018A   25008.86276551  .00000342  00000+0  20484-3 0  9993
#TLE: 2 28654  98.8578  89.9777 0014066 196.4292 163.6427 14.13481270 12237

#Time	Az	El	Level	SNR
2025-01-09 10:43:53.625575	23.8	16.3	-81.4	6.1
2025-01-09 10:43:55.934932	23.7	16.5	-81.4	8.3
2025-01-09 10:43:58.237192	23.6	16.8	-81.6	6.1
2025-01-09 10:44:00.536041	23.5	17.0	-81.5	6.8
2025-01-09 10:44:02.835077	23.4	17.3	-82.0	9.1
2025-01-09 10:44:05.149561	23.3	17.6	-81.6	8.8
2025-01-09 10:44:07.459276	23.2	17.8	-81.4	8.6
2025-01-09 10:44:09.759125	23.1	18.1	-81.5	7.1
2025-01-09 10:44:12.000608	23.0	18.4	-81.5	7.4
2025-01-09 10:44:14.242090	22.9	18.6	-81.7	9.2
2025-01-09 10:44:16.483887	22.8	18.9	-81.5	9.3
2025-01-09 10:44:18.725554	22.7	19.2	-81.3	6.3
2025-01-09 10:44:21.011723	22.5	19.4	-81.2	9.3
2025-01-09 10:44:23.255066	22.4	19.7	-81.0	6.0
2025-01-09 10:44:25.508335	22.3	20.0	-81.3	7.2
2025-01-09 10:44:27.820530	22.2	20.3	-80.9	7.7
2025-01-09 10:44:30.121799	22.1	20.6	-81.7	6.9
2025-01-09 10:44:32.433343	22.0	20.9	-81.5	7.2
2025-01-09 10:44:34.741545	21.8	21.2	-81.0	8.2
2025-01-09 10:44:37.050900	21.7	21.5	-80.7	8.1
2025-01-09 10:44:39.345678	21.6	21.8	-81.7	5.4
2025-01-09 10:44:41.659680	21.4	22.1	-81.9	7.8
2025-01-09 10:44:43.977082	21.3	22.4	-81.7	8.1
2025-01-09 10:44:46.274814	21.2	22.7	-81.3	6.4
2025-01-09 10:44:48.586620	21.0	23.0	-81.8	8.0
2025-01-09 10:44:50.885105	20.9	23.4	-81.4	7.6
2025-01-09 10:44:53.190728	20.7	23.7	-82.0	8.4
2025-01-09 10:44:55.500875	20.6	24.0	-82.6	7.5
2025-01-09 10:44:57.806733	20.4	24.4	-81.6	9.2
2025-01-09 10:45:00.120670	20.2	24.7	-81.6	7.6
2025-01-09 10:45:02.414064	20.1	25.0	-81.7	8.1
2025-01-09 10:45:04.718306	19.9	25.4	-81.6	8.6
2025-01-09 10:45:07.026882	19.7	25.7	-81.2	6.4
2025-01-09 10:45:09.347608	19.6	26.1	-81.2	7.6
2025-01-09 10:45:11.659752	19.4	26.5	-82.4	6.4
2025-01-09 10:45:13.963219	19.2	26.8	-81.4	5.3
2025-01-09 10:45:16.268924	19.0	27.2	-81.4	9.4
2025-01-09 10:45:18.575474	18.8	27.6	-81.4	7.7
2025-01-09 10:45:20.889788	18.6	28.0	-81.7	8.8
2025-01-09 10:45:23.195611	18.4	28.4	-81.5	7.3
2025-01-09 10:45:25.497652	18.2	28.7	-81.6	5.5
2025-01-09 10:45:27.802725	18.0	29.1	-81.1	8.4
2025-01-09 10:45:30.113878	17.8	29.5	-81.6	5.6
2025-01-09 10:45:32.409709	17.5	29.9	-81.7	5.3
2025-01-09 10:45:34.721660	17.3	30.4	-81.4	7.0
2025-01-09 10:45:37.031317	17.1	30.8	-81.4	6.4
2025-01-09 10:45:39.331980	16.8	31.2	-81.7	7.4
2025-01-09 10:45:41.630524	16.6	31.6	-82.5	7.5
2025-01-09 10:45:43.930270	16.3	32.0	-81.5	8.4
2025-01-09 10:45:46.237339	16.1	32.5	-81.2	5.8
2025-01-09 10:45:48.545454	15.8	32.9	-81.3	8.9
2025-01-09 10:45:50.852063	15.5	33.4	-81.4	7.7
2025-01-09 10:45:53.163845	15.2	33.8	-81.8	6.7
2025-01-09 10:45:55.467435	14.9	34.3	-82.3	8.2
2025-01-09 10:45:57.766624	14.6	34.8	-81.8	9.0
2025-01-09 10:46:00.069311	14.3	35.2	-82.6	6.0
2025-01-09 10:46:02.364981	14.0	35.7	-81.7	7.8
2025-01-09 10:46:04.671213	13.6	36.2	-81.9	9.6
2025-01-09 10:46:06.976054	13.3	36.7	-81.8	5.9
2025-01-09 10:46:09.281758	12.9	37.2	-82.1	8.0
2025-01-09 10:46:11.583256	12.6	37.7	-82.2	8.7
2025-01-09 10:46:13.900746	12.2	38.2	-82.8	9.0
2025-01-09 10:46:16.211321	11.8	38.7	-81.7	11.0
2025-01-09 10:46:18.520490	11.4	39.3	-81.5	7.9
2025-01-09 10:46:20.835458	11.0	39.8	-82.0	9.8
2025-01-09 10:46:23.143240	10.5	40.3	-81.8	7.6
2025-01-09 10:46:25.463253	10.1	40.9	-82.1	9.3
2025-01-09 10:46:27.762027	9.6	41.4	-81.6	10.1
2025-01-09 10:46:30.073046	9.1	42.0	-82.3	7.0
2025-01-09 10:46:32.375953	8.6	42.5	-81.7	11.2
2025-01-09 10:46:34.671033	8.1	43.1	-81.9	10.6
2025-01-09 10:46:36.969848	7.6	43.7	-84.1	10.3
2025-01-09 10:46:39.277673	7.0	44.2	-82.9	12.9
2025-01-09 10:46:41.588590	6.5	44.8	-82.9	10.1
2025-01-09 10:46:43.903589	5.9	45.4	-81.8	10.4
2025-01-09 10:46:46.213698	5.2	46.0	-81.9	10.6
2025-01-09 10:46:48.515430	4.6	46.6	-82.3	6.3
2025-01-09 10:46:50.822023	3.9	47.2	-82.1	8.0
2025-01-09 10:46:53.130656	3.2	47.8	-82.6	7.5
2025-01-09 10:46:55.433437	2.5	48.4	-82.5	9.8
2025-01-09 10:46:57.739191	1.8	49.0	-82.0	9.8
2025-01-09 10:47:00.043322	1.0	49.7	-82.0	7.9
2025-01-09 10:47:02.329037	0.2	50.3	-82.8	7.4
2025-01-09 10:47:04.643516	359.3	50.9	-81.8	5.5
2025-01-09 10:47:06.941715	358.4	51.5	-82.3	7.7
2025-01-09 10:47:09.245877	357.5	52.1	-83.1	10.2
2025-01-09 10:47:11.550429	356.5	52.8	-81.5	7.4
2025-01-09 10:47:13.872108	355.5	53.4	-81.3	7.3
2025-01-09 10:47:16.188387	354.5	54.0	-80.9	6.1
2025-01-09 10:47:18.507600	353.3	54.6	-81.1	6.9
2025-01-09 10:47:20.808459	352.2	55.2	-81.0	9.6
2025-01-09 10:47:23.120753	351.0	55.9	-83.3	9.3
2025-01-09 10:47:25.411398	349.8	56.5	-83.0	10.7
2025-01-09 10:47:27.721122	348.4	57.0	-82.1	9.3
2025-01-09 10:47:30.020156	347.1	57.6	-82.8	8.8
2025-01-09 10:47:32.331356	345.6	58.2	-82.7	13.2
2025-01-09 10:47:34.641970	344.1	58.8	-82.8	13.8
2025-01-09 10:47:36.947673	342.6	59.3	-83.1	8.4
2025-01-09 10:47:39.251736	341.0	59.9	-83.1	7.9
2025-01-09 10:47:41.568114	339.3	60.4	-82.7	7.7
2025-01-09 10:47:43.879834	337.5	60.9	-82.6	12.3
2025-01-09 10:47:46.185532	335.7	61.3	-82.6	10.9
2025-01-09 10:47:48.497337	333.8	61.8	-82.6	6.1
2025-01-09 10:47:50.794720	331.8	62.2	-82.3	8.5
2025-01-09 10:47:53.104710	329.8	62.6	-82.5	6.8
2025-01-09 10:47:55.419288	327.7	63.0	-83.3	10.8
2025-01-09 10:47:57.725221	325.5	63.3	-83.5	11.8
2025-01-09 10:48:00.025556	323.3	63.6	-83.4	11.4
2025-01-09 10:48:02.318285	321.0	63.9	-82.7	10.2
2025-01-09 10:48:04.631608	318.7	64.1	-83.0	8.4
2025-01-09 10:48:06.932128	316.3	64.3	-83.0	7.1
2025-01-09 10:48:09.236953	313.9	64.5	-83.3	8.4
2025-01-09 10:48:11.534903	311.5	64.6	-83.4	5.2
2025-01-09 10:48:13.848002	309.0	64.7	-83.3	9.0
2025-01-09 10:48:16.159689	306.5	64.7	-84.0	8.7
2025-01-09 10:48:18.466385	304.0	64.7	-83.5	6.2
2025-01-09 10:48:20.781298	301.5	64.6	-84.1	6.3
2025-01-09 10:48:23.093213	299.1	64.5	-83.6	4.4
2025-01-09 10:48:25.409411	296.6	64.4	-84.0	8.2
2025-01-09 10:48:27.711411	294.3	64.2	-83.7	7.7
2025-01-09 10:48:30.014789	291.9	64.0	-83.4	7.1
2025-01-09 10:48:32.320068	289.6	63.7	-84.0	6.7
2025-01-09 10:48:34.574556	287.4	63.5	-83.2	6.7
2025-01-09 10:48:36.883113	285.2	63.1	-82.8	6.2
2025-01-09 10:48:39.181286	283.1	62.8	-82.2	6.8
2025-01-09 10:48:41.484529	281.0	62.4	-82.4	7.2
2025-01-09 10:48:43.783630	279.0	62.0	-81.9	6.7
2025-01-09 10:48:46.067420	277.1	61.5	-81.7	9.1
2025-01-09 10:48:48.373583	275.2	61.1	-81.5	7.4
2025-01-09 10:48:50.683160	273.4	60.6	-82.0	9.2
2025-01-09 10:48:52.992300	271.7	60.1	-82.0	9.3
2025-01-09 10:48:55.304780	270.1	59.5	-81.9	7.6
2025-01-09 10:48:57.604897	268.5	59.0	-81.9	7.6
2025-01-09 10:48:59.913586	267.0	58.4	-81.8	7.0
2025-01-09 10:49:02.206880	265.5	57.9	-81.7	5.7
2025-01-09 10:49:04.523388	264.1	57.3	-82.5	8.5
2025-01-09 10:49:06.830527	262.8	56.7	-82.3	7.4
2025-01-09 10:49:09.135913	261.5	56.1	-82.0	6.4
2025-01-09 10:49:11.444735	260.3	55.5	-82.2	7.9
2025-01-09 10:49:13.748805	259.1	54.8	-82.3	6.3
2025-01-09 10:49:16.058822	258.0	54.2	-81.7	6.9
2025-01-09 10:49:18.368486	256.9	53.6	-82.1	7.4
2025-01-09 10:49:20.621799	255.9	53.0	-83.0	7.8
2025-01-09 10:49:22.865869	254.9	52.4	-82.2	9.7
2025-01-09 10:49:25.108530	254.0	51.8	-82.2	6.6
2025-01-09 10:49:27.357754	253.1	51.2	-81.7	10.6
2025-01-09 10:49:29.601638	252.3	50.6	-82.3	8.6
2025-01-09 10:49:31.846882	251.4	50.0	-82.2	10.3
2025-01-09 10:49:34.114484	250.7	49.3	-82.1	7.6
2025-01-09 10:49:36.406622	249.9	48.7	-82.1	6.8
2025-01-09 10:49:38.714618	249.1	48.1	-82.6	8.2
2025-01-09 10:49:41.018953	248.4	47.5	-82.2	6.2
2025-01-09 10:49:43.335918	247.7	46.9	-81.1	8.0
2025-01-09 10:49:45.650029	247.1	46.3	-82.4	11.8
2025-01-09 10:49:47.947973	246.4	45.7	-82.2	12.0
2025-01-09 10:49:50.264995	245.8	45.1	-82.2	12.0
2025-01-09 10:49:52.569921	245.2	44.5	-81.7	9.0
2025-01-09 10:49:54.878551	244.7	43.9	-81.5	12.1
2025-01-09 10:49:57.182311	244.1	43.3	-82.2	11.6
2025-01-09 10:49:59.494082	243.6	42.8	-81.8	9.7
2025-01-09 10:50:01.793201	243.1	42.2	-82.8	12.2
2025-01-09 10:50:04.097371	242.6	41.6	-82.5	10.2
2025-01-09 10:50:06.411276	242.1	41.1	-82.5	11.3
2025-01-09 10:50:08.719277	241.7	40.5	-81.4	9.2
2025-01-09 10:50:11.023091	241.2	40.0	-81.9	10.9
2025-01-09 10:50:13.332501	240.8	39.4	-81.7	8.2
2025-01-09 10:50:15.648828	240.4	38.9	-81.9	6.4
2025-01-09 10:50:17.965076	240.0	38.4	-82.0	6.3
2025-01-09 10:50:20.275595	239.6	37.9	-82.0	8.3
2025-01-09 10:50:22.581551	239.2	37.4	-81.6	9.1
2025-01-09 10:50:24.885862	238.8	36.8	-82.2	8.6
2025-01-09 10:50:27.188764	238.5	36.3	-82.0	6.8
2025-01-09 10:50:29.495328	238.1	35.9	-81.7	9.2
2025-01-09 10:50:31.806769	237.8	35.4	-81.9	7.7
2025-01-09 10:50:34.119579	237.5	34.9	-81.9	7.9
2025-01-09 10:50:36.418090	237.2	34.4	-81.5	6.6
2025-01-09 10:50:38.710058	236.9	33.9	-81.7	7.4
2025-01-09 10:50:41.015942	236.6	33.5	-82.0	8.4
2025-01-09 10:50:43.310408	236.3	33.0	-82.1	8.4
2025-01-09 10:50:45.615737	236.0	32.6	-81.4	6.9
2025-01-09 10:50:47.915132	235.7	32.1	-82.2	9.2
2025-01-09 10:50:50.221483	235.5	31.7	-82.0	7.9
2025-01-09 10:50:52.525092	235.2	31.3	-81.9	7.7
2025-01-09 10:50:54.831438	235.0	30.8	-82.1	7.5
2025-01-09 10:50:57.732221	234.7	30.3	-81.9	7.4
2025-01-09 10:51:00.037844	234.4	29.9	-82.0	7.1
2025-01-09 10:51:02.342918	234.2	29.5	-81.8	6.2
2025-01-09 10:51:04.645539	234.0	29.1	-82.1	6.4
2025-01-09 10:51:06.950679	233.8	28.7	-81.4	7.1
2025-01-09 10:51:09.255057	233.6	28.3	-82.1	8.5
2025-01-09 10:51:11.568304	233.4	27.9	-82.5	5.9
2025-01-09 10:51:13.878245	233.2	27.5	-82.7	7.1
2025-01-09 10:51:16.181348	233.0	27.1	-81.8	5.6
2025-01-09 10:51:18.481169	232.8	26.8	-82.2	7.8
2025-01-09 10:51:20.784535	232.6	26.4	-82.3	5.3
2025-01-09 10:51:23.095067	232.4	26.0	-82.2	6.8
2025-01-09 10:51:25.406834	232.2	25.7	-82.2	6.8
2025-01-09 10:51:27.705504	232.0	25.3	-82.3	4.8
2025-01-09 10:51:30.002069	231.9	25.0	-82.1	7.2
2025-01-09 10:51:32.314661	231.7	24.6	-82.0	6.9
2025-01-09 10:51:34.620789	231.5	24.3	-82.6	6.2
2025-01-09 10:51:36.925857	231.4	23.9	-81.9	7.9
2025-01-09 10:51:39.229888	231.2	23.6	-81.9	6.6
2025-01-09 10:51:41.544968	231.1	23.3	-82.3	6.1
2025-01-09 10:51:43.837766	230.9	22.9	-82.6	5.1
2025-01-09 10:51:46.143200	230.8	22.6	-82.2	6.0
2025-01-09 10:51:48.442981	230.6	22.3	-82.4	8.4
2025-01-09 10:51:50.744502	230.5	22.0	-82.1	9.0
2025-01-09 10:51:53.042253	230.4	21.7	-82.2	6.7
2025-01-09 10:51:55.351498	230.2	21.4	-82.4	8.0
2025-01-09 10:51:57.651143	230.1	21.0	-82.3	6.4
2025-01-09 10:51:59.956138	230.0	20.7	-82.2	5.6
2025-01-09 10:52:02.244515	229.8	20.4	-82.1	5.8
2025-01-09 10:52:04.551546	229.7	20.2	-82.0	6.5
2025-01-09 10:52:06.856648	229.6	19.9	-82.6	7.1
2025-01-09 10:52:09.167746	229.5	19.6	-82.2	6.4
2025-01-09 10:52:11.462863	229.4	19.3	-82.2	8.8
2025-01-09 10:52:13.769947	229.2	19.0	-82.3	7.2
2025-01-09 10:52:16.075407	229.1	18.7	-82.2	6.6
2025-01-09 10:52:18.381832	229.0	18.4	-82.0	4.4
2025-01-09 10:52:20.684479	228.9	18.2	-82.3	7.2
2025-01-09 10:52:22.993077	228.8	17.9	-82.1	6.0
2025-01-09 10:52:25.310498	228.7	17.6	-82.2	7.4
2025-01-09 10:52:27.629095	228.6	17.4	-82.6	5.8
2025-01-09 10:52:29.918958	228.5	17.1	-82.0	8.1
2025-01-09 10:52:32.223508	228.4	16.8	-82.3	7.3
2025-01-09 10:52:34.537080	228.3	16.6	-82.3	7.4
2025-01-09 10:52:36.851873	228.2	16.3	-81.4	7.7
2025-01-09 10:52:39.168096	228.1	16.1	-82.0	7.8
2025-01-09 10:52:41.473506	228.0	15.8	-82.4	6.9
2025-01-09 10:52:43.771803	227.9	15.6	-83.5	5.8
2025-01-09 10:52:46.083355	227.9	15.3	-81.5	6.1
2025-01-09 10:52:48.385093	227.8	15.1	-82.2	7.8
2025-01-09 10:52:50.702074	227.7	14.9	-82.5	6.5
2025-01-09 10:52:52.997172	227.6	14.6	-82.0	5.3
#Closed at: 2025-01-09 10:43:46.418573