passes_logs/2025/01/09/LEX_Murmansk/LEX_Murmansk__20250109_172247_NOAA_18_rec.log

#Pass ID: 20250109_172247_NOAA 18
#Satellite: NOAA 18
#Configuration: NOAA 18
#Start time: 2025-01-09 17:22:42.939623

#LorettStation: 1.0.0 05.05.2024
#Station: LEX_Murmansk
#Location: 33.156738 lon 68.926811 lat
#TLE: 1 28654U 05018A   25008.86276551  .00000342  00000+0  20484-3 0  9993
#TLE: 2 28654  98.8578  89.9777 0014066 196.4292 163.6427 14.13481270 12237

#Time	Az	El	Level	SNR
2025-01-09 17:22:55.142589	107.7	16.2	-92.1	12.0
2025-01-09 17:22:56.304523	107.6	16.3	-92.1	13.3
2025-01-09 17:22:57.467860	107.5	16.4	-92.5	6.8
2025-01-09 17:22:58.632287	107.4	16.6	-92.7	8.6
2025-01-09 17:22:59.787379	107.3	16.7	-92.2	11.0
2025-01-09 17:23:00.935397	107.2	16.8	-92.7	7.3
2025-01-09 17:23:02.096735	107.1	16.9	-92.3	9.1
2025-01-09 17:23:03.262698	106.9	17.0	-91.7	13.9
2025-01-09 17:23:04.426418	106.8	17.2	-91.7	15.3
2025-01-09 17:23:05.586610	106.7	17.3	-92.4	11.1
2025-01-09 17:23:06.745215	106.6	17.4	-92.7	15.7
2025-01-09 17:23:07.907441	106.5	17.5	-92.8	12.4
2025-01-09 17:23:09.070943	106.4	17.6	-92.3	11.8
2025-01-09 17:23:10.212929	106.3	17.8	-92.4	13.1
2025-01-09 17:23:11.381070	106.2	17.9	-92.6	13.1
2025-01-09 17:23:12.545480	106.1	18.0	-93.1	12.5
2025-01-09 17:23:13.711552	106.0	18.1	-92.7	16.0
2025-01-09 17:23:14.872456	105.8	18.3	-92.8	14.0
2025-01-09 17:23:16.061507	105.7	18.4	-92.2	4.6
2025-01-09 17:23:17.226295	105.6	18.5	-92.2	13.1
2025-01-09 17:23:18.394532	105.5	18.6	-92.4	10.4
2025-01-09 17:23:19.557557	105.4	18.8	-92.6	9.6
2025-01-09 17:23:20.717007	105.3	18.9	-92.5	15.4
2025-01-09 17:23:21.892967	105.1	19.0	-92.4	12.8
2025-01-09 17:23:23.052971	105.0	19.2	-92.1	16.1
2025-01-09 17:23:24.216895	104.9	19.3	-92.4	15.9
2025-01-09 17:23:25.381823	104.8	19.4	-92.8	14.5
2025-01-09 17:23:26.537886	104.6	19.6	-92.7	12.9
2025-01-09 17:23:27.695587	104.5	19.7	-92.5	17.5
2025-01-09 17:23:28.864867	104.4	19.8	-92.5	19.1
2025-01-09 17:23:30.029617	104.3	19.9	-92.5	12.3
2025-01-09 17:23:31.194434	104.1	20.1	-92.5	14.0
2025-01-09 17:23:32.357220	104.0	20.2	-92.2	17.1
2025-01-09 17:23:33.519432	103.9	20.3	-92.1	8.5
2025-01-09 17:23:34.681681	103.7	20.5	-92.3	13.6
2025-01-09 17:23:35.841671	103.6	20.6	-92.7	15.5
2025-01-09 17:23:36.995997	103.5	20.7	-91.7	14.6
2025-01-09 17:23:38.158627	103.3	20.9	-91.3	15.5
2025-01-09 17:23:39.321803	103.2	21.0	-91.9	14.5
2025-01-09 17:23:40.486276	103.1	21.2	-92.1	12.0
2025-01-09 17:23:41.644678	102.9	21.3	-92.6	21.5
2025-01-09 17:23:42.812010	102.8	21.4	-92.4	17.2
2025-01-09 17:23:43.976275	102.6	21.6	-92.5	14.0
2025-01-09 17:23:45.135872	102.5	21.7	-92.3	12.2
2025-01-09 17:23:46.293022	102.4	21.8	-92.4	6.5
2025-01-09 17:23:47.457352	102.2	22.0	-91.8	15.5
2025-01-09 17:23:48.613775	102.1	22.1	-92.3	5.8
2025-01-09 17:23:49.779063	101.9	22.3	-91.9	14.2
2025-01-09 17:23:50.943017	101.8	22.4	-92.2	4.1
2025-01-09 17:23:52.101689	101.6	22.6	-92.4	4.8
2025-01-09 17:23:53.269588	101.5	22.7	-92.3	13.1
2025-01-09 17:23:54.433330	101.3	22.8	-92.5	5.3
2025-01-09 17:23:55.602058	101.1	23.0	-92.8	9.4
2025-01-09 17:23:56.761664	101.0	23.1	-92.8	14.4
2025-01-09 17:23:57.918179	100.8	23.3	-92.8	8.5
2025-01-09 17:23:59.089964	100.7	23.4	-92.5	7.2
2025-01-09 17:24:00.245903	100.5	23.6	-92.6	10.5
2025-01-09 17:24:01.393246	100.3	23.7	-92.7	6.9
2025-01-09 17:24:02.559941	100.2	23.9	-92.5	12.4
2025-01-09 17:24:03.723092	100.0	24.0	-92.3	3.8
2025-01-09 17:24:04.881764	99.8	24.2	-92.6	4.9
2025-01-09 17:24:06.041964	99.7	24.3	-92.6	3.7
2025-01-09 17:24:07.201012	99.5	24.5	-92.4	12.5
2025-01-09 17:24:08.367390	99.3	24.6	-92.1	14.7
2025-01-09 17:24:09.532826	99.2	24.8	-92.4	3.2
2025-01-09 17:24:10.693227	99.0	24.9	-92.2	11.4
2025-01-09 17:24:11.854726	98.8	25.1	-92.7	7.1
2025-01-09 17:24:13.014836	98.6	25.2	-92.0	9.0
2025-01-09 17:24:14.178553	98.4	25.4	-92.7	6.5
2025-01-09 17:24:15.341655	98.3	25.5	-92.7	8.8
2025-01-09 17:24:16.507521	98.1	25.7	-92.7	3.6
2025-01-09 17:24:17.672401	97.9	25.8	-92.5	8.9
2025-01-09 17:24:18.836399	97.7	26.0	-92.6	7.7
2025-01-09 17:24:19.997329	97.5	26.1	-92.6	6.7
2025-01-09 17:24:21.161434	97.3	26.3	-92.3	4.6
2025-01-09 17:24:22.324020	97.1	26.5	-91.8	17.6
2025-01-09 17:24:23.489563	96.9	26.6	-92.3	14.5
2025-01-09 17:24:24.650297	96.7	26.8	-92.9	11.4
2025-01-09 17:24:25.814871	96.5	26.9	-92.6	18.5
2025-01-09 17:24:26.976382	96.3	27.1	-92.7	6.8
2025-01-09 17:24:28.137570	96.1	27.2	-92.6	8.4
2025-01-09 17:24:29.298869	95.9	27.4	-92.7	15.1
2025-01-09 17:24:30.457797	95.7	27.6	-92.7	7.6
2025-01-09 17:24:31.620252	95.5	27.7	-92.7	12.7
2025-01-09 17:24:32.791198	95.3	27.9	-92.4	9.3
2025-01-09 17:24:33.958944	95.1	28.0	-92.3	18.5
2025-01-09 17:24:35.125385	94.8	28.2	-92.8	5.2
2025-01-09 17:24:36.288250	94.6	28.4	-92.6	7.2
2025-01-09 17:24:37.447844	94.4	28.5	-92.8	5.4
2025-01-09 17:24:38.620216	94.2	28.7	-92.8	11.2
2025-01-09 17:24:39.783710	93.9	28.9	-92.6	10.7
2025-01-09 17:24:40.944789	93.7	29.0	-92.4	12.8
2025-01-09 17:24:42.112554	93.5	29.2	-92.4	8.9
2025-01-09 17:24:43.287512	93.2	29.4	-92.9	6.7
2025-01-09 17:24:44.450763	93.0	29.5	-92.4	15.0
2025-01-09 17:24:45.616946	92.8	29.7	-92.9	5.8
2025-01-09 17:24:46.778474	92.5	29.9	-92.7	12.2
2025-01-09 17:24:47.938747	92.3	30.0	-92.5	7.7
2025-01-09 17:24:49.100670	92.0	30.2	-92.1	8.5
2025-01-09 17:24:50.268528	91.8	30.4	-92.2	15.2
2025-01-09 17:24:51.443974	91.5	30.5	-92.0	14.1
2025-01-09 17:24:52.608535	91.3	30.7	-92.0	16.5
2025-01-09 17:24:53.774489	91.0	30.9	-91.9	21.0
2025-01-09 17:24:54.940059	90.8	31.0	-91.8	7.8
2025-01-09 17:24:56.106580	90.5	31.2	-92.2	9.8
2025-01-09 17:24:57.272719	90.2	31.4	-92.8	14.6
2025-01-09 17:24:58.430870	90.0	31.6	-92.6	9.9
2025-01-09 17:24:59.600265	89.7	31.7	-92.4	11.6
2025-01-09 17:25:00.752935	89.4	31.9	-92.7	17.7
2025-01-09 17:25:01.915954	89.1	32.1	-92.6	12.0
2025-01-09 17:25:03.085810	88.9	32.2	-92.3	17.9
2025-01-09 17:25:04.247037	88.6	32.4	-92.1	13.0
2025-01-09 17:25:05.408551	88.3	32.6	-92.4	10.9
2025-01-09 17:25:06.571464	88.0	32.7	-92.4	9.6
2025-01-09 17:25:07.727783	87.7	32.9	-92.1	13.6
2025-01-09 17:25:08.893754	87.4	33.1	-92.3	8.8
2025-01-09 17:25:10.058835	87.1	33.3	-92.4	6.1
2025-01-09 17:25:11.223084	86.8	33.4	-92.4	8.1
2025-01-09 17:25:12.377215	86.5	33.6	-92.5	12.5
2025-01-09 17:25:13.543293	86.2	33.8	-92.6	4.7
2025-01-09 17:25:14.703403	85.9	33.9	-92.2	16.9
2025-01-09 17:25:15.879958	85.6	34.1	-92.6	12.2
2025-01-09 17:25:17.058330	85.2	34.3	-92.4	19.4
2025-01-09 17:25:18.219376	84.9	34.5	-92.4	23.1
2025-01-09 17:25:19.385310	84.6	34.6	-92.3	17.9
2025-01-09 17:25:20.551192	84.3	34.8	-92.1	7.9
2025-01-09 17:25:21.712758	83.9	35.0	-91.9	18.2
2025-01-09 17:25:22.875269	83.6	35.1	-92.3	20.5
2025-01-09 17:25:24.041106	83.3	35.3	-92.5	15.2
2025-01-09 17:25:25.206949	82.9	35.5	-92.7	14.7
2025-01-09 17:25:26.373551	82.6	35.7	-92.6	17.9
2025-01-09 17:25:27.530909	82.2	35.8	-92.3	11.6
2025-01-09 17:25:28.697911	81.9	36.0	-92.2	13.2
2025-01-09 17:25:29.870689	81.5	36.2	-92.4	11.9
2025-01-09 17:25:31.031850	81.2	36.3	-92.1	7.8
2025-01-09 17:25:32.195883	80.8	36.5	-91.6	8.4
2025-01-09 17:25:33.358540	80.4	36.7	-92.2	12.3
2025-01-09 17:25:34.532372	80.0	36.8	-92.2	7.6
2025-01-09 17:25:35.696633	79.7	37.0	-92.3	13.8
2025-01-09 17:25:36.852732	79.3	37.2	-92.1	15.8
2025-01-09 17:25:38.011531	78.9	37.3	-92.4	16.7
2025-01-09 17:25:39.177165	78.5	37.5	-92.2	13.9
2025-01-09 17:25:40.343779	78.1	37.7	-92.2	13.9
2025-01-09 17:25:41.503614	77.7	37.8	-92.4	15.3
2025-01-09 17:25:42.667738	77.3	38.0	-92.1	15.3
2025-01-09 17:25:43.832256	76.9	38.2	-92.2	15.4
2025-01-09 17:25:44.997145	76.5	38.3	-92.2	11.2
2025-01-09 17:25:46.162832	76.1	38.5	-91.8	16.9
2025-01-09 17:25:47.315815	75.7	38.6	-92.2	17.5
2025-01-09 17:25:48.482342	75.3	38.8	-92.6	16.5
2025-01-09 17:25:49.643314	74.9	38.9	-92.7	17.2
2025-01-09 17:25:50.808515	74.4	39.1	-92.5	17.4
2025-01-09 17:25:51.964137	74.0	39.3	-92.3	19.7
2025-01-09 17:25:53.135290	73.6	39.4	-92.2	16.5
2025-01-09 17:25:54.300644	73.1	39.6	-92.1	18.6
2025-01-09 17:25:55.463032	72.7	39.7	-91.7	9.4
2025-01-09 17:25:56.628944	72.2	39.9	-92.1	8.6
2025-01-09 17:25:57.795418	71.8	40.0	-92.4	17.2
2025-01-09 17:25:58.954352	71.3	40.2	-92.1	7.3
2025-01-09 17:26:00.118280	70.9	40.3	-92.4	5.9
2025-01-09 17:26:01.267298	70.4	40.4	-92.8	15.0
2025-01-09 17:26:02.433314	69.9	40.6	-92.7	7.9
2025-01-09 17:26:03.596398	69.5	40.7	-92.7	13.0
2025-01-09 17:26:04.758848	69.0	40.9	-92.2	16.3
2025-01-09 17:26:05.926538	68.5	41.0	-91.9	14.1
2025-01-09 17:26:07.089508	68.0	41.1	-92.6	17.9
2025-01-09 17:26:08.251715	67.5	41.3	-92.8	19.3
2025-01-09 17:26:09.416233	67.0	41.4	-92.8	19.4
2025-01-09 17:26:10.575579	66.5	41.5	-92.8	19.0
2025-01-09 17:26:11.741633	66.0	41.6	-92.8	20.4
2025-01-09 17:26:12.902661	65.5	41.8	-92.7	15.5
2025-01-09 17:26:14.058857	65.0	41.9	-92.7	12.9
2025-01-09 17:26:15.216797	64.5	42.0	-92.8	15.4
2025-01-09 17:26:16.378823	64.0	42.1	-92.6	15.9
2025-01-09 17:26:17.536341	63.5	42.2	-92.7	9.8
2025-01-09 17:26:18.704634	62.9	42.4	-92.5	17.9
2025-01-09 17:26:19.867497	62.4	42.5	-92.4	19.2
2025-01-09 17:26:21.035286	61.9	42.6	-92.2	11.4
2025-01-09 17:26:22.199037	61.3	42.7	-92.4	16.7
2025-01-09 17:26:23.367622	60.8	42.8	-92.5	16.6
2025-01-09 17:26:24.534407	60.3	42.9	-92.6	14.6
2025-01-09 17:26:25.698826	59.7	43.0	-92.6	16.1
2025-01-09 17:26:26.863637	59.2	43.1	-92.5	18.2
2025-01-09 17:26:28.022611	58.6	43.2	-92.3	14.9
2025-01-09 17:26:29.184589	58.1	43.3	-92.3	14.5
2025-01-09 17:26:30.353405	57.5	43.4	-92.7	16.7
2025-01-09 17:26:31.517421	56.9	43.4	-92.2	8.8
2025-01-09 17:26:32.685615	56.4	43.5	-92.9	15.8
2025-01-09 17:26:33.846157	55.8	43.6	-92.5	18.6
2025-01-09 17:26:35.013560	55.2	43.7	-92.6	9.3
2025-01-09 17:26:36.174091	54.7	43.8	-92.4	14.5
2025-01-09 17:26:37.335758	54.1	43.8	-92.3	16.3
2025-01-09 17:26:38.500159	53.5	43.9	-92.7	9.3
2025-01-09 17:26:39.662824	52.9	44.0	-92.3	15.5
2025-01-09 17:26:40.822060	52.3	44.0	-92.3	18.6
2025-01-09 17:26:41.985364	51.8	44.1	-92.9	13.0
2025-01-09 17:26:43.151477	51.2	44.1	-92.7	14.5
2025-01-09 17:26:44.310505	50.6	44.2	-92.7	17.2
2025-01-09 17:26:45.474221	50.0	44.2	-92.7	14.0
2025-01-09 17:26:46.633598	49.4	44.3	-92.5	16.2
2025-01-09 17:26:47.794040	48.8	44.3	-92.8	16.0
2025-01-09 17:26:48.955680	48.2	44.3	-92.7	19.3
2025-01-09 17:26:50.123081	47.6	44.4	-92.2	16.4
2025-01-09 17:26:51.291282	47.0	44.4	-92.4	18.9
2025-01-09 17:26:52.450596	46.4	44.4	-92.5	17.0
2025-01-09 17:26:53.617259	45.8	44.4	-92.7	15.5
2025-01-09 17:26:54.776970	45.2	44.5	-92.9	18.6
2025-01-09 17:26:55.937929	44.6	44.5	-92.4	13.4
2025-01-09 17:26:57.094257	44.0	44.5	-92.4	15.6
2025-01-09 17:26:58.253634	43.4	44.5	-92.5	17.1
2025-01-09 17:26:59.406295	42.8	44.5	-92.6	13.2
2025-01-09 17:27:00.559862	42.2	44.5	-91.8	11.7
2025-01-09 17:27:01.719498	41.6	44.5	-91.9	14.5
2025-01-09 17:27:02.887668	41.0	44.5	-92.3	14.3
2025-01-09 17:27:04.051086	40.4	44.5	-92.4	9.4
2025-01-09 17:27:05.215793	39.8	44.5	-92.6	17.5
2025-01-09 17:27:06.385020	39.2	44.5	-92.7	13.6
2025-01-09 17:27:07.539881	38.6	44.4	-92.6	10.5
2025-01-09 17:27:08.707994	38.0	44.4	-92.5	15.9
2025-01-09 17:27:09.865401	37.4	44.4	-92.1	11.9
2025-01-09 17:27:11.033712	36.8	44.4	-92.4	10.9
2025-01-09 17:27:12.196826	36.2	44.3	-92.6	16.4
2025-01-09 17:27:13.359754	35.6	44.3	-92.6	18.6
2025-01-09 17:27:14.523575	35.1	44.2	-92.9	11.0
2025-01-09 17:27:15.684590	34.5	44.2	-92.8	15.1
2025-01-09 17:27:16.851667	33.9	44.2	-92.7	17.8
2025-01-09 17:27:18.010623	33.3	44.1	-92.5	15.9
2025-01-09 17:27:19.176464	32.7	44.1	-92.3	18.8
2025-01-09 17:27:20.342877	32.1	44.0	-92.3	19.8
2025-01-09 17:27:21.509659	31.5	43.9	-92.4	18.6
2025-01-09 17:27:22.674903	31.0	43.9	-92.5	19.6
2025-01-09 17:27:23.837584	30.4	43.8	-92.6	21.5
2025-01-09 17:27:25.002576	29.8	43.7	-92.8	22.5
2025-01-09 17:27:26.165751	29.2	43.7	-92.7	22.2
2025-01-09 17:27:27.329678	28.7	43.6	-92.5	21.1
2025-01-09 17:27:28.482863	28.1	43.5	-92.8	19.0
2025-01-09 17:27:29.648014	27.5	43.4	-92.5	20.5
2025-01-09 17:27:30.810367	27.0	43.3	-92.6	21.4
2025-01-09 17:27:31.974698	26.4	43.3	-92.5	21.9
2025-01-09 17:27:33.136483	25.9	43.2	-92.4	21.6
2025-01-09 17:27:34.303323	25.3	43.1	-92.4	18.2
2025-01-09 17:27:35.465947	24.8	43.0	-92.7	18.1
2025-01-09 17:27:36.627863	24.2	42.9	-92.9	15.2
2025-01-09 17:27:37.786348	23.7	42.8	-92.9	18.8
2025-01-09 17:27:38.950446	23.1	42.7	-92.6	20.5
2025-01-09 17:27:40.113570	22.6	42.6	-92.7	19.8
2025-01-09 17:27:41.276831	22.1	42.5	-92.6	21.6
2025-01-09 17:27:42.441721	21.5	42.3	-92.5	18.4
2025-01-09 17:27:43.606411	21.0	42.2	-92.6	19.7
2025-01-09 17:27:44.766977	20.5	42.1	-92.4	20.8
2025-01-09 17:27:45.928413	20.0	42.0	-92.7	16.5
2025-01-09 17:27:47.102720	19.5	41.9	-92.8	17.9
2025-01-09 17:27:48.268703	19.0	41.7	-93.0	22.6
2025-01-09 17:27:49.433381	18.4	41.6	-92.6	19.8
2025-01-09 17:27:50.601773	17.9	41.5	-92.6	17.7
2025-01-09 17:27:51.769109	17.4	41.4	-92.5	20.4
2025-01-09 17:27:52.932261	17.0	41.2	-92.7	17.4
2025-01-09 17:27:54.091730	16.5	41.1	-92.7	20.1
2025-01-09 17:27:55.256307	16.0	41.0	-92.7	21.2
2025-01-09 17:27:56.416080	15.5	40.8	-92.9	16.4
2025-01-09 17:27:57.584456	15.0	40.7	-92.6	19.8
2025-01-09 17:27:58.747794	14.6	40.5	-92.7	18.5
2025-01-09 17:27:59.909499	14.1	40.4	-92.8	10.9
2025-01-09 17:28:01.060928	13.6	40.3	-92.8	15.3
2025-01-09 17:28:02.221698	13.2	40.1	-92.7	19.1
2025-01-09 17:28:03.390005	12.7	40.0	-92.7	18.4
2025-01-09 17:28:04.550575	12.3	39.8	-91.9	13.2
2025-01-09 17:28:05.718596	11.8	39.7	-92.2	18.7
2025-01-09 17:28:06.873568	11.4	39.5	-92.0	14.2
2025-01-09 17:28:08.031388	10.9	39.4	-91.9	8.6
2025-01-09 17:28:09.190986	10.5	39.2	-92.5	18.1
2025-01-09 17:28:10.359230	10.1	39.1	-92.8	21.1
2025-01-09 17:28:11.526700	9.6	38.9	-92.9	12.0
2025-01-09 17:28:12.702244	9.2	38.7	-92.6	14.4
2025-01-09 17:28:13.863145	8.8	38.6	-92.6	18.6
2025-01-09 17:28:15.027906	8.4	38.4	-92.9	10.2
2025-01-09 17:28:16.199479	8.0	38.3	-92.9	19.4
2025-01-09 17:28:17.364449	7.6	38.1	-93.0	18.9
2025-01-09 17:28:18.528788	7.1	37.9	-93.0	11.8
2025-01-09 17:28:19.691756	6.8	37.8	-92.8	14.3
2025-01-09 17:28:20.861400	6.4	37.6	-92.9	17.4
2025-01-09 17:28:22.020545	6.0	37.5	-92.9	11.6
2025-01-09 17:28:23.186137	5.6	37.3	-92.9	15.7
2025-01-09 17:28:24.352806	5.2	37.1	-93.1	20.1
2025-01-09 17:28:25.517348	4.8	37.0	-93.1	13.9
2025-01-09 17:28:26.683898	4.4	36.8	-92.8	18.7
2025-01-09 17:28:27.849954	4.1	36.6	-92.6	20.9
2025-01-09 17:28:29.005974	3.7	36.5	-92.9	15.1
2025-01-09 17:28:30.173292	3.3	36.3	-92.6	16.2
2025-01-09 17:28:31.332051	3.0	36.1	-92.6	14.6
2025-01-09 17:28:32.493517	2.6	35.9	-92.6	16.7
2025-01-09 17:28:33.654723	2.3	35.8	-93.2	15.4
2025-01-09 17:28:34.818263	1.9	35.6	-92.9	21.7
2025-01-09 17:28:35.979448	1.6	35.4	-92.8	20.6
2025-01-09 17:28:37.137793	1.2	35.3	-92.6	15.8
2025-01-09 17:28:38.295326	0.9	35.1	-92.8	21.1
2025-01-09 17:28:39.459552	0.6	34.9	-93.2	16.4
2025-01-09 17:28:40.621001	0.2	34.8	-92.6	19.1
2025-01-09 17:28:41.785773	359.9	34.6	-92.7	19.1
2025-01-09 17:28:42.949008	359.6	34.4	-92.9	14.5
2025-01-09 17:28:44.109498	359.3	34.2	-93.0	11.1
2025-01-09 17:28:45.277065	358.9	34.1	-92.8	16.8
2025-01-09 17:28:46.439744	358.6	33.9	-92.6	13.7
2025-01-09 17:28:47.606757	358.3	33.7	-92.6	11.3
2025-01-09 17:28:48.768065	358.0	33.6	-92.7	19.0
2025-01-09 17:28:49.935566	357.7	33.4	-93.1	9.3
2025-01-09 17:28:51.098984	357.4	33.2	-93.0	9.2
2025-01-09 17:28:52.257457	357.1	33.0	-93.0	21.3
2025-01-09 17:28:53.423595	356.8	32.9	-92.7	9.0
2025-01-09 17:28:54.587081	356.5	32.7	-92.9	6.5
2025-01-09 17:28:55.747684	356.2	32.5	-91.3	10.4
2025-01-09 17:28:56.910295	356.0	32.4	-92.0	6.8
2025-01-09 17:28:58.071892	355.7	32.2	-92.4	9.9
2025-01-09 17:28:59.224164	355.4	32.0	-92.8	11.4
2025-01-09 17:29:00.381225	355.1	31.8	-93.1	12.6
2025-01-09 17:29:01.537852	354.8	31.7	-93.2	12.7
2025-01-09 17:29:02.703650	354.6	31.5	-92.5	16.1
2025-01-09 17:29:03.863944	354.3	31.3	-92.7	13.4
2025-01-09 17:29:05.028931	354.0	31.2	-92.9	9.5
2025-01-09 17:29:06.185236	353.8	31.0	-92.5	14.8
2025-01-09 17:29:07.346912	353.5	30.8	-92.4	13.0
2025-01-09 17:29:08.506871	353.3	30.7	-92.0	10.0
2025-01-09 17:29:09.667327	353.0	30.5	-92.5	11.4
2025-01-09 17:29:10.816409	352.8	30.3	-91.8	14.5
2025-01-09 17:29:11.976614	352.5	30.2	-92.1	6.6
2025-01-09 17:29:13.118399	352.3	30.0	-92.8	5.6
2025-01-09 17:29:14.240048	352.0	29.8	-93.0	3.5
2025-01-09 17:29:15.366051	351.8	29.7	-92.9	11.9
2025-01-09 17:29:16.487656	351.6	29.5	-91.4	7.0
2025-01-09 17:29:17.607621	351.3	29.3	-93.0	5.8
2025-01-09 17:29:18.729150	351.1	29.2	-92.7	10.0
2025-01-09 17:29:19.850299	350.9	29.0	-92.7	16.8
2025-01-09 17:29:20.977816	350.7	28.9	-92.8	10.7
2025-01-09 17:29:22.098989	350.5	28.7	-92.9	12.0
2025-01-09 17:29:23.257213	350.2	28.5	-92.7	17.0
2025-01-09 17:29:24.409939	350.0	28.4	-93.2	10.0
2025-01-09 17:29:25.570453	349.8	28.2	-93.2	6.4
2025-01-09 17:29:26.733990	349.6	28.1	-92.9	6.8
2025-01-09 17:29:27.896946	349.4	27.9	-92.8	11.5
2025-01-09 17:29:29.058773	349.1	27.7	-92.7	7.5
2025-01-09 17:29:30.221875	348.9	27.6	-92.7	8.8
2025-01-09 17:29:31.384532	348.7	27.4	-92.7	5.1
2025-01-09 17:29:32.549236	348.5	27.3	-92.4	8.6
2025-01-09 17:29:33.713159	348.3	27.1	-93.1	10.3
2025-01-09 17:29:34.875147	348.1	26.9	-93.1	12.0
2025-01-09 17:29:36.036680	347.9	26.8	-93.1	6.6
2025-01-09 17:29:37.197773	347.7	26.6	-92.7	9.9
2025-01-09 17:29:38.351555	347.5	26.5	-92.7	12.4
2025-01-09 17:29:39.514051	347.3	26.3	-92.6	11.1
2025-01-09 17:29:40.676827	347.1	26.1	-93.0	12.6
2025-01-09 17:29:41.844090	346.9	26.0	-92.3	13.8
2025-01-09 17:29:43.004887	346.7	25.8	-92.7	14.6
2025-01-09 17:29:44.171541	346.6	25.7	-92.5	11.1
2025-01-09 17:29:45.329729	346.4	25.5	-92.7	10.4
2025-01-09 17:29:46.489793	346.2	25.4	-92.6	10.9
2025-01-09 17:29:47.659527	346.0	25.2	-92.6	14.7
2025-01-09 17:29:48.816401	345.8	25.1	-92.6	9.2
2025-01-09 17:29:49.983080	345.6	24.9	-92.9	6.2
2025-01-09 17:29:51.145055	345.5	24.8	-92.8	13.0
2025-01-09 17:29:52.309375	345.3	24.6	-92.6	17.9
2025-01-09 17:29:53.471282	345.1	24.5	-92.9	5.2
2025-01-09 17:29:54.631079	345.0	24.3	-92.7	10.9
2025-01-09 17:29:55.791906	344.8	24.2	-92.5	15.7
2025-01-09 17:29:56.951907	344.6	24.0	-92.3	10.4
2025-01-09 17:29:58.109897	344.4	23.9	-92.5	8.7
2025-01-09 17:29:59.273107	344.3	23.7	-92.4	14.2
2025-01-09 17:30:00.421259	344.1	23.6	-92.7	11.2
2025-01-09 17:30:01.559541	344.0	23.4	-92.3	6.5
2025-01-09 17:30:02.726267	343.8	23.3	-92.5	13.5
2025-01-09 17:30:03.897727	343.6	23.1	-93.0	13.1
2025-01-09 17:30:05.056064	343.5	23.0	-93.0	10.9
2025-01-09 17:30:06.221086	343.3	22.8	-92.8	7.9
2025-01-09 17:30:07.384931	343.2	22.7	-92.7	10.4
2025-01-09 17:30:08.539658	343.0	22.6	-93.0	5.8
2025-01-09 17:30:09.704828	342.9	22.4	-92.9	12.8
2025-01-09 17:30:10.866576	342.7	22.3	-92.6	16.4
2025-01-09 17:30:12.030905	342.6	22.1	-92.6	11.5
2025-01-09 17:30:13.192751	342.4	22.0	-92.0	11.5
2025-01-09 17:30:14.360676	342.3	21.9	-91.8	12.1
2025-01-09 17:30:15.522054	342.1	21.7	-91.7	10.5
2025-01-09 17:30:16.686616	342.0	21.6	-92.6	11.4
2025-01-09 17:30:17.844212	341.8	21.4	-92.7	10.4
2025-01-09 17:30:19.006733	341.7	21.3	-93.1	10.3
2025-01-09 17:30:20.167695	341.6	21.2	-92.9	7.0
2025-01-09 17:30:21.326837	341.4	21.0	-92.6	9.3
2025-01-09 17:30:22.492886	341.3	20.9	-93.1	5.4
2025-01-09 17:30:23.669895	341.2	20.7	-92.8	10.3
2025-01-09 17:30:24.832475	341.0	20.6	-92.8	12.3
2025-01-09 17:30:25.994882	340.9	20.5	-92.8	6.8
2025-01-09 17:30:27.166243	340.7	20.3	-93.0	7.2
2025-01-09 17:30:28.331369	340.6	20.2	-92.9	5.6
2025-01-09 17:30:29.484586	340.5	20.1	-93.2	7.2
2025-01-09 17:30:30.646680	340.4	19.9	-93.2	8.3
2025-01-09 17:30:31.802791	340.2	19.8	-92.8	8.6
2025-01-09 17:30:32.969949	340.1	19.7	-93.0	8.4
2025-01-09 17:30:34.130822	340.0	19.5	-92.8	6.0
2025-01-09 17:30:35.301687	339.9	19.4	-92.8	5.1
2025-01-09 17:30:36.464244	339.7	19.3	-92.8	7.4
2025-01-09 17:30:37.628170	339.6	19.2	-92.9	7.5
2025-01-09 17:30:38.788017	339.5	19.0	-92.7	9.8
2025-01-09 17:30:39.945220	339.4	18.9	-92.7	5.8
2025-01-09 17:30:41.106643	339.2	18.8	-92.3	7.5
2025-01-09 17:30:42.269447	339.1	18.6	-93.2	9.7
2025-01-09 17:30:43.431743	339.0	18.5	-92.6	4.7
2025-01-09 17:30:44.593130	338.9	18.4	-92.8	9.1
2025-01-09 17:30:45.755444	338.8	18.3	-92.8	11.6
2025-01-09 17:30:46.916189	338.7	18.1	-93.3	12.2
2025-01-09 17:30:48.093060	338.6	18.0	-92.6	6.1
2025-01-09 17:30:49.248838	338.4	17.9	-92.9	11.5
2025-01-09 17:30:50.409090	338.3	17.8	-92.5	6.3
2025-01-09 17:30:51.568238	338.2	17.6	-92.7	5.6
2025-01-09 17:30:52.731034	338.1	17.5	-92.7	6.1
2025-01-09 17:30:53.894376	338.0	17.4	-92.8	6.2
2025-01-09 17:30:55.054946	337.9	17.3	-92.3	3.5
2025-01-09 17:30:56.222414	337.8	17.2	-92.6	4.8
2025-01-09 17:30:57.382753	337.7	17.0	-93.0	6.5
2025-01-09 17:30:58.547408	337.6	16.9	-93.0	3.5
2025-01-09 17:30:59.701842	337.5	16.8	-92.6	5.4
2025-01-09 17:31:00.868327	337.4	16.7	-92.8	6.2
2025-01-09 17:31:02.037734	337.3	16.6	-92.9	3.5
2025-01-09 17:31:03.197922	337.2	16.4	-92.6	5.7
2025-01-09 17:31:04.355517	337.1	16.3	-92.6	5.5
2025-01-09 17:31:05.523054	337.0	16.2	-92.8	4.1
2025-01-09 17:31:06.687261	336.9	16.1	-93.0	3.0
2025-01-09 17:31:07.848901	336.8	16.0	-92.8	5.4
2025-01-09 17:31:09.008571	336.7	15.8	-93.0	4.9
2025-01-09 17:31:10.169229	336.6	15.7	-92.4	3.9
2025-01-09 17:31:11.337453	336.5	15.6	-92.7	8.4
2025-01-09 17:31:12.494642	336.4	15.5	-92.7	4.0
2025-01-09 17:31:13.662680	336.3	15.4	-92.8	8.6
2025-01-09 17:31:14.824389	336.2	15.3	-92.8	5.9
2025-01-09 17:31:15.987968	336.1	15.2	-92.1	5.1
2025-01-09 17:31:17.147982	336.0	15.0	-91.9	4.5
2025-01-09 17:31:18.312320	335.9	14.9	-91.9	4.5
2025-01-09 17:31:19.472025	335.8	14.8	-92.1	5.1
2025-01-09 17:31:20.646592	335.7	14.7	-92.5	4.6
2025-01-09 17:31:21.808690	335.6	14.6	-93.0	3.7
#Closed at: 2025-01-09 17:22:47.934235