passes_logs/2025/01/09/LEX_Murmansk/LEX_Murmansk__20250109_190250_NOAA_18_rec.log

#Pass ID: 20250109_190250_NOAA 18
#Satellite: NOAA 18
#Configuration: NOAA 18
#Start time: 2025-01-09 19:02:45.295950

#LorettStation: 1.0.0 05.05.2024
#Station: LEX_Murmansk
#Location: 33.156738 lon 68.926811 lat
#TLE: 1 28654U 05018A   25008.86276551  .00000342  00000+0  20484-3 0  9993
#TLE: 2 28654  98.8578  89.9777 0014066 196.4292 163.6427 14.13481270 12237

#Time	Az	El	Level	SNR
2025-01-09 19:03:07.501289	157.6	17.4	-91.0	5.1
2025-01-09 19:03:09.827104	157.6	17.7	-91.1	2.9
2025-01-09 19:03:12.146048	157.7	18.0	-90.6	4.8
2025-01-09 19:03:14.458042	157.7	18.3	-92.0	5.3
2025-01-09 19:03:16.789279	157.7	18.5	-92.1	6.6
2025-01-09 19:03:19.118830	157.8	18.8	-92.1	3.9
2025-01-09 19:03:21.451467	157.8	19.1	-92.0	6.8
2025-01-09 19:03:23.776547	157.8	19.4	-92.3	8.3
2025-01-09 19:03:26.109225	157.9	19.7	-92.0	10.1
2025-01-09 19:03:28.429542	157.9	20.0	-92.0	8.0
2025-01-09 19:03:30.757261	158.0	20.3	-92.1	9.1
2025-01-09 19:03:33.083737	158.0	20.6	-90.4	7.0
2025-01-09 19:03:35.409275	158.0	20.9	-92.2	7.6
2025-01-09 19:03:37.748046	158.1	21.2	-92.4	7.6
2025-01-09 19:03:40.075357	158.1	21.5	-91.7	7.3
2025-01-09 19:03:42.399211	158.2	21.8	-91.7	9.3
2025-01-09 19:03:44.731922	158.2	22.2	-91.3	9.2
2025-01-09 19:03:47.057828	158.3	22.5	-89.1	9.7
2025-01-09 19:03:49.387745	158.3	22.8	-91.5	12.6
2025-01-09 19:03:51.712186	158.4	23.1	-92.0	10.7
2025-01-09 19:03:54.044732	158.4	23.5	-92.1	6.5
2025-01-09 19:03:56.369208	158.5	23.8	-92.0	12.9
2025-01-09 19:03:58.689182	158.5	24.2	-92.2	11.0
2025-01-09 19:04:00.995737	158.6	24.5	-91.9	9.0
2025-01-09 19:04:03.323377	158.6	24.9	-92.4	11.0
2025-01-09 19:04:05.651496	158.7	25.2	-92.0	11.8
2025-01-09 19:04:07.984441	158.7	25.6	-91.7	5.8
2025-01-09 19:04:10.316031	158.8	26.0	-91.4	8.9
2025-01-09 19:04:12.645855	158.8	26.4	-91.8	8.8
2025-01-09 19:04:14.963405	158.9	26.7	-91.5	8.0
2025-01-09 19:04:17.293443	158.9	27.1	-91.1	4.9
2025-01-09 19:04:19.618161	159.0	27.5	-92.5	12.4
2025-01-09 19:04:21.950630	159.1	27.9	-92.5	10.4
2025-01-09 19:04:24.275838	159.1	28.3	-92.5	12.6
2025-01-09 19:04:26.607323	159.2	28.7	-92.5	5.6
2025-01-09 19:04:28.931496	159.2	29.2	-92.3	9.9
2025-01-09 19:04:31.274659	159.3	29.6	-92.1	9.6
2025-01-09 19:04:33.601697	159.4	30.0	-92.2	6.4
2025-01-09 19:04:35.922359	159.5	30.4	-92.1	9.8
2025-01-09 19:04:38.259906	159.5	30.9	-92.0	12.4
2025-01-09 19:04:40.596754	159.6	31.3	-92.2	8.0
2025-01-09 19:04:42.918132	159.7	31.8	-92.1	5.3
2025-01-09 19:04:45.252575	159.7	32.2	-92.3	10.6
2025-01-09 19:04:47.583007	159.8	32.7	-91.4	12.1
2025-01-09 19:04:49.873754	159.9	33.2	-92.5	15.2
2025-01-09 19:04:52.156728	160.0	33.7	-92.4	13.0
2025-01-09 19:04:54.487236	160.1	34.2	-92.3	18.5
2025-01-09 19:04:56.822717	160.2	34.7	-92.0	9.7
2025-01-09 19:04:59.154902	160.2	35.2	-92.4	6.8
2025-01-09 19:05:01.460346	160.3	35.7	-92.0	3.7
2025-01-09 19:05:03.782924	160.4	36.2	-91.9	10.3
2025-01-09 19:05:06.112587	160.5	36.7	-92.1	9.4
2025-01-09 19:05:08.444481	160.6	37.3	-92.3	8.3
2025-01-09 19:05:10.772541	160.7	37.8	-92.0	12.5
2025-01-09 19:05:13.098246	160.8	38.4	-92.4	12.3
2025-01-09 19:05:15.425004	160.9	38.9	-92.4	10.7
2025-01-09 19:05:17.754643	161.1	39.5	-89.9	9.5
2025-01-09 19:05:20.086993	161.2	40.1	-91.1	8.0
2025-01-09 19:05:22.411859	161.3	40.7	-91.3	11.5
2025-01-09 19:05:24.741719	161.4	41.3	-89.5	11.7
2025-01-09 19:05:27.079563	161.6	41.9	-91.8	12.7
2025-01-09 19:05:29.403135	161.7	42.5	-92.0	14.1
2025-01-09 19:05:31.721882	161.8	43.2	-92.5	15.6
2025-01-09 19:05:34.056796	162.0	43.8	-91.5	9.5
2025-01-09 19:05:36.392549	162.1	44.5	-91.6	12.2
2025-01-09 19:05:38.724829	162.3	45.2	-92.2	12.8
2025-01-09 19:05:41.058171	162.4	45.8	-92.1	14.3
2025-01-09 19:05:43.381888	162.6	46.5	-91.9	15.1
2025-01-09 19:05:45.722500	162.8	47.2	-90.5	14.8
2025-01-09 19:05:48.049715	163.0	48.0	-92.4	10.2
2025-01-09 19:05:50.372917	163.2	48.7	-92.0	13.3
2025-01-09 19:05:52.673011	163.4	49.4	-91.1	10.6
2025-01-09 19:05:55.002257	163.6	50.2	-91.3	7.1
2025-01-09 19:05:57.331912	163.8	50.9	-91.7	10.2
2025-01-09 19:05:59.657429	164.0	51.7	-91.2	8.2
2025-01-09 19:06:01.970090	164.3	52.5	-91.2	8.1
2025-01-09 19:06:04.301193	164.5	53.3	-91.2	14.6
2025-01-09 19:06:06.636888	164.8	54.1	-90.9	12.6
2025-01-09 19:06:08.973476	165.1	54.9	-88.9	6.3
2025-01-09 19:06:11.300950	165.4	55.7	-91.4	13.0
2025-01-09 19:06:13.618564	165.7	56.6	-91.3	11.2
2025-01-09 19:06:15.952144	166.1	57.4	-91.4	10.8
2025-01-09 19:06:18.283095	166.4	58.3	-91.5	15.4
2025-01-09 19:06:20.609753	166.8	59.2	-89.5	6.2
2025-01-09 19:06:22.930139	167.2	60.1	-91.4	10.1
2025-01-09 19:06:25.257178	167.7	61.0	-91.6	19.5
2025-01-09 19:06:27.589304	168.2	61.9	-92.0	15.8
2025-01-09 19:06:29.921209	168.7	62.8	-91.4	16.8
2025-01-09 19:06:32.244264	169.2	63.8	-91.3	16.1
2025-01-09 19:06:34.567832	169.8	64.7	-90.5	12.3
2025-01-09 19:06:36.894207	170.5	65.7	-91.7	16.4
2025-01-09 19:06:39.225404	171.2	66.6	-90.9	15.6
2025-01-09 19:06:41.553221	172.0	67.6	-91.3	11.7
2025-01-09 19:06:43.868118	172.8	68.6	-91.0	11.8
2025-01-09 19:06:46.189390	173.8	69.6	-90.9	13.5
2025-01-09 19:06:48.511927	174.8	70.5	-90.5	8.1
2025-01-09 19:06:50.839742	176.0	71.5	-90.0	17.7
2025-01-09 19:06:53.170829	177.3	72.5	-91.0	13.4
2025-01-09 19:06:55.506519	178.7	73.5	-89.2	14.4
2025-01-09 19:06:57.845275	180.4	74.5	-89.9	14.6
2025-01-09 19:07:00.170688	182.3	75.5	-90.7	15.7
2025-01-09 19:07:02.480019	184.5	76.5	-90.9	13.3
2025-01-09 19:07:04.806799	187.0	77.4	-92.1	21.8
2025-01-09 19:07:07.134353	189.9	78.4	-92.3	9.6
2025-01-09 19:07:09.464467	193.4	79.3	-90.5	14.7
2025-01-09 19:07:11.792146	197.5	80.1	-92.0	22.8
2025-01-09 19:07:14.117896	202.4	80.9	-92.3	17.0
2025-01-09 19:07:16.447801	208.2	81.7	-92.0	17.5
2025-01-09 19:07:18.769629	215.0	82.3	-91.2	22.2
2025-01-09 19:07:21.107233	223.0	82.8	-91.0	23.0
2025-01-09 19:07:23.434965	232.0	83.2	-91.9	23.5
2025-01-09 19:07:25.765113	241.7	83.4	-91.4	23.8
2025-01-09 19:07:28.094106	251.7	83.4	-90.2	20.7
2025-01-09 19:07:30.415254	261.3	83.1	-90.6	22.7
2025-01-09 19:07:32.747321	270.1	82.7	-89.5	22.9
2025-01-09 19:07:35.076112	277.9	82.2	-91.9	16.7
2025-01-09 19:07:37.405140	284.5	81.5	-91.2	19.6
2025-01-09 19:07:39.736619	290.1	80.8	-91.4	20.6
2025-01-09 19:07:42.069033	294.8	80.0	-90.2	11.9
2025-01-09 19:07:44.391089	298.7	79.1	-91.4	23.9
2025-01-09 19:07:46.716734	302.1	78.2	-89.4	21.6
2025-01-09 19:07:49.048379	304.9	77.2	-92.5	13.7
2025-01-09 19:07:51.375626	307.4	76.3	-92.2	23.4
2025-01-09 19:07:53.699441	309.5	75.3	-91.8	20.2
2025-01-09 19:07:56.027205	311.3	74.3	-91.0	10.8
2025-01-09 19:07:58.350375	312.9	73.3	-91.2	19.4
2025-01-09 19:08:00.658316	314.4	72.3	-90.9	11.6
2025-01-09 19:08:02.980616	315.6	71.3	-91.4	6.2
2025-01-09 19:08:05.309938	316.8	70.4	-91.8	12.9
2025-01-09 19:08:07.636225	317.8	69.4	-92.2	10.0
2025-01-09 19:08:09.965347	318.7	68.4	-92.3	8.9
2025-01-09 19:08:12.292277	319.5	67.4	-92.0	15.4
2025-01-09 19:08:14.618390	320.3	66.4	-92.6	7.3
2025-01-09 19:08:16.950978	321.0	65.5	-89.7	7.3
2025-01-09 19:08:19.280615	321.6	64.5	-91.3	16.8
2025-01-09 19:08:21.611856	322.2	63.6	-89.6	8.0
2025-01-09 19:08:23.941590	322.8	62.6	-91.9	11.7
2025-01-09 19:08:26.270164	323.3	61.7	-92.0	18.2
2025-01-09 19:08:28.594968	323.8	60.8	-92.6	18.0
2025-01-09 19:08:30.917686	324.2	59.9	-91.7	21.0
2025-01-09 19:08:33.245313	324.6	59.0	-91.8	19.9
2025-01-09 19:08:35.577193	325.0	58.1	-91.9	21.7
2025-01-09 19:08:37.907578	325.4	57.3	-91.8	20.0
2025-01-09 19:08:40.236573	325.7	56.4	-92.1	20.3
2025-01-09 19:08:42.564064	326.0	55.6	-91.8	17.1
2025-01-09 19:08:44.895897	326.3	54.7	-92.3	19.5
2025-01-09 19:08:47.221214	326.6	53.9	-92.6	18.0
2025-01-09 19:08:49.542437	326.9	53.1	-90.8	8.8
2025-01-09 19:08:51.867523	327.1	52.3	-92.3	13.5
2025-01-09 19:08:54.197406	327.4	51.5	-92.3	11.4
2025-01-09 19:08:56.556307	327.6	50.7	-92.7	7.1
2025-01-09 19:08:58.885629	327.8	50.0	-92.7	15.5
2025-01-09 19:09:01.202748	328.0	49.2	-91.5	15.1
2025-01-09 19:09:03.527471	328.2	48.5	-92.6	14.5
2025-01-09 19:09:05.851863	328.4	47.8	-92.0	19.3
2025-01-09 19:09:08.177007	328.6	47.1	-92.2	15.5
2025-01-09 19:09:10.502470	328.8	46.4	-91.8	12.0
2025-01-09 19:09:12.829587	328.9	45.7	-91.4	18.4
2025-01-09 19:09:15.154656	329.1	45.0	-92.7	13.5
2025-01-09 19:09:17.487294	329.3	44.4	-92.6	14.7
2025-01-09 19:09:19.804799	329.4	43.7	-92.6	20.9
2025-01-09 19:09:22.138269	329.6	43.1	-92.0	19.4
2025-01-09 19:09:24.470588	329.7	42.4	-92.2	19.6
2025-01-09 19:09:26.805616	329.8	41.8	-92.6	18.4
2025-01-09 19:09:29.131751	330.0	41.2	-92.4	12.6
2025-01-09 19:09:31.465231	330.1	40.6	-92.9	11.7
2025-01-09 19:09:33.791811	330.2	40.0	-92.6	17.3
2025-01-09 19:09:36.111170	330.3	39.4	-92.5	7.1
2025-01-09 19:09:38.431798	330.4	38.8	-92.4	12.7
2025-01-09 19:09:40.758570	330.6	38.3	-92.1	18.7
2025-01-09 19:09:43.082576	330.7	37.7	-92.2	16.3
2025-01-09 19:09:45.403740	330.8	37.2	-92.0	19.6
2025-01-09 19:09:47.732226	330.9	36.6	-92.8	17.2
2025-01-09 19:09:50.051071	331.0	36.1	-92.8	9.8
2025-01-09 19:09:52.363569	331.1	35.6	-92.8	17.9
2025-01-09 19:09:54.606861	331.1	35.1	-92.5	10.7
2025-01-09 19:09:56.848550	331.2	34.6	-92.7	16.4
2025-01-09 19:09:59.090898	331.3	34.1	-92.0	18.9
2025-01-09 19:10:01.335395	331.4	33.6	-92.5	16.1
2025-01-09 19:10:03.615127	331.5	33.2	-92.7	7.5
2025-01-09 19:10:05.927886	331.6	32.7	-92.8	11.5
2025-01-09 19:10:08.243613	331.6	32.2	-92.2	17.4
2025-01-09 19:10:10.566336	331.7	31.8	-92.1	7.2
2025-01-09 19:10:12.895312	331.8	31.3	-92.7	15.6
2025-01-09 19:10:15.227666	331.9	30.9	-91.6	16.1
2025-01-09 19:10:17.553071	331.9	30.4	-92.7	17.7
2025-01-09 19:10:19.882685	332.0	30.0	-92.3	17.3
2025-01-09 19:10:22.207152	332.1	29.6	-92.4	17.2
2025-01-09 19:10:24.530805	332.1	29.1	-92.5	7.8
2025-01-09 19:10:26.861484	332.2	28.7	-91.8	11.3
2025-01-09 19:10:29.189515	332.3	28.3	-91.5	12.5
2025-01-09 19:10:31.516156	332.3	27.9	-92.0	7.7
2025-01-09 19:10:33.843363	332.4	27.5	-92.6	9.5
2025-01-09 19:10:36.167341	332.4	27.1	-92.7	4.6
2025-01-09 19:10:38.495195	332.5	26.7	-92.8	5.5
2025-01-09 19:10:40.816111	332.6	26.4	-92.2	10.1
2025-01-09 19:10:43.146087	332.6	26.0	-92.2	9.3
2025-01-09 19:10:45.467370	332.7	25.6	-92.8	12.2
2025-01-09 19:10:47.799618	332.7	25.2	-92.5	14.3
2025-01-09 19:10:50.131701	332.8	24.9	-92.7	10.3
2025-01-09 19:10:52.458356	332.8	24.5	-92.7	5.1
2025-01-09 19:10:54.789631	332.9	24.2	-92.6	10.5
2025-01-09 19:10:57.119426	332.9	23.8	-92.2	8.3
2025-01-09 19:10:59.453678	333.0	23.5	-92.0	14.3
2025-01-09 19:11:01.766125	333.0	23.1	-91.7	12.7
2025-01-09 19:11:04.093389	333.1	22.8	-91.8	6.9
2025-01-09 19:11:06.443472	333.1	22.5	-92.1	6.6
2025-01-09 19:11:08.778506	333.2	22.2	-92.0	10.9
2025-01-09 19:11:11.104210	333.2	21.8	-91.5	6.9
2025-01-09 19:11:13.425174	333.3	21.5	-92.1	9.2
2025-01-09 19:11:15.755528	333.3	21.2	-91.9	4.4
2025-01-09 19:11:18.082642	333.4	20.9	-92.6	8.8
2025-01-09 19:11:20.411181	333.4	20.6	-92.6	7.5
2025-01-09 19:11:22.727861	333.4	20.3	-91.9	9.9
2025-01-09 19:11:25.048393	333.5	20.0	-91.7	9.0
2025-01-09 19:11:27.382215	333.5	19.7	-91.7	8.0
2025-01-09 19:11:29.712181	333.6	19.4	-92.0	8.9
2025-01-09 19:11:32.041280	333.6	19.1	-91.5	4.9
2025-01-09 19:11:34.364452	333.6	18.8	-91.5	5.2
2025-01-09 19:11:36.695045	333.7	18.5	-92.1	10.1
2025-01-09 19:11:39.021321	333.7	18.3	-91.9	4.5
2025-01-09 19:11:41.352673	333.8	18.0	-91.7	8.0
2025-01-09 19:11:43.678736	333.8	17.7	-91.7	4.3
2025-01-09 19:11:46.001074	333.8	17.4	-92.4	3.0
2025-01-09 19:11:48.337994	333.9	17.2	-92.5	4.0
2025-01-09 19:11:50.667574	333.9	16.9	-92.7	5.5
2025-01-09 19:11:52.997218	333.9	16.6	-92.5	4.8
2025-01-09 19:11:55.327241	334.0	16.4	-92.6	3.3
2025-01-09 19:11:57.650520	334.0	16.1	-92.7	3.1
2025-01-09 19:11:59.988898	334.0	15.9	-93.0	5.1
2025-01-09 19:12:02.292585	334.1	15.6	-92.5	7.2
2025-01-09 19:12:04.608452	334.1	15.4	-92.4	4.1
2025-01-09 19:12:06.932333	334.1	15.1	-92.5	5.3
2025-01-09 19:12:09.260503	334.2	14.9	-92.2	5.6
2025-01-09 19:12:11.585166	334.2	14.6	-92.2	3.3
#Closed at: 2025-01-09 19:02:50.259245