passes_logs/2025/01/09/LEX_Murmansk/LEX_Murmansk__20250109_115758_NOAA_19_rec.log

#Pass ID: 20250109_115758_NOAA 19
#Satellite: NOAA 19
#Configuration: NOAA 19
#Start time: 2025-01-09 11:57:53.289457

#LorettStation: 1.0.0 05.05.2024
#Station: LEX_Murmansk
#Location: 33.156738 lon 68.926811 lat
#TLE: 1 33591U 09005A   25008.91550554  .00000294  00000+0  18118-3 0  9990
#TLE: 2 33591  99.0208  72.6306 0014612  73.7755 286.5023 14.13254864820423

#Time	Az	El	Level	SNR
2025-01-09 11:58:05.441709	27.4	16.0	-83.2	3.7
2025-01-09 11:58:06.587099	27.2	16.1	-82.7	4.4
2025-01-09 11:58:07.730928	27.1	16.2	-82.8	4.5
2025-01-09 11:58:08.876642	26.9	16.3	-82.7	4.7
2025-01-09 11:58:10.023310	26.7	16.4	-82.5	2.9
2025-01-09 11:58:11.172371	26.5	16.5	-83.0	1.9
2025-01-09 11:58:12.314420	26.4	16.6	-82.4	3.3
2025-01-09 11:58:13.464491	26.2	16.6	-82.5	2.3
2025-01-09 11:58:14.607300	26.0	16.7	-82.0	2.9
2025-01-09 11:58:15.754741	25.8	16.8	-82.3	3.4
2025-01-09 11:58:16.901367	25.7	16.9	-82.1	3.7
2025-01-09 11:58:18.046552	25.5	17.0	-82.4	4.6
2025-01-09 11:58:19.191477	25.3	17.1	-82.9	5.0
2025-01-09 11:58:20.340087	25.1	17.2	-82.6	5.6
2025-01-09 11:58:21.486797	25.0	17.3	-82.9	3.1
2025-01-09 11:58:22.642378	24.8	17.4	-83.0	1.3
2025-01-09 11:58:23.788290	24.6	17.5	-82.2	4.0
2025-01-09 11:58:24.942554	24.4	17.6	-82.9	5.5
2025-01-09 11:58:26.093351	24.2	17.7	-84.2	4.7
2025-01-09 11:58:27.244188	24.0	17.8	-83.1	3.6
2025-01-09 11:58:28.386038	23.8	17.9	-83.3	2.0
2025-01-09 11:58:29.534552	23.7	18.0	-83.4	4.9
2025-01-09 11:58:30.687629	23.5	18.1	-83.5	6.8
2025-01-09 11:58:31.831055	23.3	18.2	-82.9	3.1
2025-01-09 11:58:32.981069	23.1	18.3	-82.5	3.3
2025-01-09 11:58:34.129451	22.9	18.4	-83.2	6.5
2025-01-09 11:58:35.275973	22.7	18.5	-83.3	6.5
2025-01-09 11:58:36.424400	22.5	18.5	-82.7	4.7
2025-01-09 11:58:37.563531	22.3	18.6	-82.6	2.0
2025-01-09 11:58:38.683385	22.1	18.7	-82.5	3.6
2025-01-09 11:58:39.803777	21.9	18.8	-82.9	1.6
2025-01-09 11:58:40.924132	21.7	18.9	-83.0	0.0
2025-01-09 11:58:42.045591	21.5	19.0	-83.0	2.0
2025-01-09 11:58:43.166410	21.3	19.1	-82.9	5.1
2025-01-09 11:58:44.287156	21.1	19.2	-83.0	3.7
2025-01-09 11:58:45.410249	20.9	19.3	-82.5	3.5
2025-01-09 11:58:46.552818	20.7	19.4	-82.4	4.7
2025-01-09 11:58:47.695167	20.5	19.5	-82.3	4.3
2025-01-09 11:58:48.843892	20.3	19.6	-82.8	3.9
2025-01-09 11:58:49.997670	20.1	19.7	-83.0	4.4
2025-01-09 11:58:51.144243	19.9	19.8	-83.2	3.3
2025-01-09 11:58:52.292697	19.6	19.9	-82.7	4.0
2025-01-09 11:58:53.436875	19.4	20.0	-83.2	3.5
2025-01-09 11:58:54.581099	19.2	20.1	-83.4	3.8
2025-01-09 11:58:55.729171	19.0	20.2	-82.9	4.2
2025-01-09 11:58:56.878105	18.8	20.2	-82.7	3.4
2025-01-09 11:58:58.025143	18.5	20.3	-83.0	3.0
2025-01-09 11:58:59.171887	18.3	20.4	-83.3	4.6
2025-01-09 11:59:00.311602	18.1	20.5	-83.3	2.0
2025-01-09 11:59:01.456103	17.9	20.6	-83.1	1.2
2025-01-09 11:59:02.598844	17.6	20.7	-83.4	0.3
2025-01-09 11:59:03.751902	17.4	20.8	-83.4	1.3
2025-01-09 11:59:04.898384	17.2	20.9	-82.9	4.3
2025-01-09 11:59:06.045752	17.0	21.0	-83.1	6.1
2025-01-09 11:59:07.195635	16.7	21.1	-83.0	3.6
2025-01-09 11:59:08.338320	16.5	21.2	-83.2	3.7
2025-01-09 11:59:09.487917	16.3	21.3	-83.2	4.0
2025-01-09 11:59:10.636740	16.0	21.4	-83.0	6.0
2025-01-09 11:59:11.783745	15.8	21.5	-82.6	4.1
2025-01-09 11:59:12.927126	15.5	21.6	-82.5	2.3
2025-01-09 11:59:14.074780	15.3	21.7	-82.1	2.4
2025-01-09 11:59:15.224249	15.1	21.7	-82.9	3.7
2025-01-09 11:59:16.364464	14.8	21.8	-83.1	3.7
2025-01-09 11:59:17.511141	14.6	21.9	-82.8	3.6
2025-01-09 11:59:18.657581	14.3	22.0	-82.0	3.5
2025-01-09 11:59:19.807774	14.1	22.1	-82.7	3.1
2025-01-09 11:59:20.963013	13.8	22.2	-83.0	5.4
2025-01-09 11:59:22.111281	13.6	22.3	-83.0	6.5
2025-01-09 11:59:23.261210	13.3	22.4	-82.7	2.9
2025-01-09 11:59:24.406668	13.1	22.5	-83.1	4.7
2025-01-09 11:59:25.556041	12.8	22.6	-83.2	2.8
2025-01-09 11:59:26.703598	12.5	22.7	-83.0	2.7
2025-01-09 11:59:27.857763	12.3	22.7	-83.3	2.9
2025-01-09 11:59:29.012867	12.0	22.8	-83.7	3.7
2025-01-09 11:59:30.158793	11.8	22.9	-83.6	5.1
2025-01-09 11:59:31.309636	11.5	23.0	-83.8	4.1
2025-01-09 11:59:32.456837	11.2	23.1	-83.4	6.0
2025-01-09 11:59:33.605157	11.0	23.2	-83.8	5.1
2025-01-09 11:59:34.752612	10.7	23.3	-83.7	5.6
2025-01-09 11:59:35.902054	10.4	23.4	-83.0	4.5
2025-01-09 11:59:37.048943	10.2	23.5	-83.2	4.2
2025-01-09 11:59:38.199436	9.9	23.5	-83.7	7.7
2025-01-09 11:59:39.350170	9.6	23.6	-83.2	2.8
2025-01-09 11:59:40.504427	9.3	23.7	-83.0	4.1
2025-01-09 11:59:41.648090	9.1	23.8	-82.9	4.9
2025-01-09 11:59:42.807143	8.8	23.9	-83.2	2.1
2025-01-09 11:59:43.949213	8.5	24.0	-83.2	5.7
2025-01-09 11:59:45.098567	8.2	24.0	-83.1	5.1
2025-01-09 11:59:46.246765	7.9	24.1	-83.1	5.1
2025-01-09 11:59:47.394915	7.6	24.2	-82.7	4.4
2025-01-09 11:59:48.540669	7.4	24.3	-83.1	6.1
2025-01-09 11:59:49.686984	7.1	24.4	-83.4	4.4
2025-01-09 11:59:50.839485	6.8	24.5	-83.5	4.1
2025-01-09 11:59:51.989096	6.5	24.5	-83.2	2.6
2025-01-09 11:59:53.139250	6.2	24.6	-82.5	3.1
2025-01-09 11:59:54.288921	5.9	24.7	-82.6	0.8
2025-01-09 11:59:55.434118	5.6	24.8	-83.5	3.8
2025-01-09 11:59:56.583674	5.3	24.8	-82.3	3.6
2025-01-09 11:59:57.727788	5.0	24.9	-83.0	1.1
2025-01-09 11:59:58.875628	4.7	25.0	-83.0	5.2
2025-01-09 12:00:00.023566	4.4	25.1	-82.9	4.7
2025-01-09 12:00:01.155979	4.1	25.2	-83.0	4.8
2025-01-09 12:00:02.309994	3.8	25.2	-83.3	5.3
2025-01-09 12:00:03.461326	3.5	25.3	-82.9	4.4
2025-01-09 12:00:04.609512	3.2	25.4	-83.4	3.2
2025-01-09 12:00:05.757823	2.9	25.4	-83.7	2.8
2025-01-09 12:00:06.904043	2.6	25.5	-83.3	4.2
2025-01-09 12:00:08.054457	2.3	25.6	-82.9	6.4
2025-01-09 12:00:09.201411	2.0	25.7	-83.4	2.6
2025-01-09 12:00:10.350245	1.6	25.7	-83.0	3.9
2025-01-09 12:00:11.496973	1.3	25.8	-83.3	4.9
2025-01-09 12:00:12.643632	1.0	25.9	-83.1	2.0
2025-01-09 12:00:13.792683	0.7	25.9	-83.7	5.3
2025-01-09 12:00:14.934294	0.4	26.0	-82.6	2.6
2025-01-09 12:00:16.085031	0.1	26.1	-83.3	4.8
2025-01-09 12:00:17.234414	359.7	26.1	-83.1	5.5
2025-01-09 12:00:18.382091	359.4	26.2	-82.6	5.5
2025-01-09 12:00:19.531178	359.1	26.3	-82.5	4.2
2025-01-09 12:00:20.678880	358.8	26.3	-82.3	4.0
2025-01-09 12:00:21.826905	358.4	26.4	-82.9	4.2
2025-01-09 12:00:22.974325	358.1	26.4	-82.8	5.4
2025-01-09 12:00:24.122660	357.8	26.5	-82.7	3.7
2025-01-09 12:00:25.269904	357.4	26.6	-83.1	5.6
2025-01-09 12:00:26.414352	357.1	26.6	-82.8	2.9
2025-01-09 12:00:27.568171	356.8	26.7	-83.0	2.1
2025-01-09 12:00:28.719987	356.4	26.7	-82.7	4.1
2025-01-09 12:00:29.865807	356.1	26.8	-83.2	3.6
2025-01-09 12:00:31.020144	355.8	26.8	-82.7	3.8
2025-01-09 12:00:32.167824	355.4	26.9	-82.6	1.2
2025-01-09 12:00:33.317205	355.1	26.9	-82.6	4.4
2025-01-09 12:00:34.465379	354.7	27.0	-82.7	4.9
2025-01-09 12:00:35.611303	354.4	27.0	-82.8	3.1
2025-01-09 12:00:36.757922	354.1	27.1	-83.1	7.9
2025-01-09 12:00:37.906079	353.7	27.1	-82.2	3.7
2025-01-09 12:00:39.051125	353.4	27.2	-82.4	4.6
2025-01-09 12:00:40.201892	353.0	27.2	-82.8	3.2
2025-01-09 12:00:41.351417	352.7	27.3	-82.4	4.0
2025-01-09 12:00:42.500686	352.3	27.3	-83.3	4.5
2025-01-09 12:00:43.652098	352.0	27.4	-83.1	3.8
2025-01-09 12:00:44.797786	351.6	27.4	-83.0	2.8
2025-01-09 12:00:45.935837	351.3	27.4	-83.0	2.9
2025-01-09 12:00:47.082351	350.9	27.5	-83.1	3.7
2025-01-09 12:00:48.231549	350.6	27.5	-83.0	3.7
2025-01-09 12:00:49.383603	350.2	27.5	-82.8	4.7
2025-01-09 12:00:50.527250	349.9	27.6	-82.8	5.2
2025-01-09 12:00:51.673465	349.5	27.6	-83.0	4.0
2025-01-09 12:00:52.827428	349.2	27.7	-83.1	4.9
2025-01-09 12:00:53.975883	348.8	27.7	-83.1	5.4
2025-01-09 12:00:55.123597	348.5	27.7	-82.8	3.3
2025-01-09 12:00:56.264367	348.1	27.7	-83.0	1.9
2025-01-09 12:00:57.410313	347.7	27.8	-82.6	3.4
2025-01-09 12:00:58.558672	347.4	27.8	-83.2	1.6
2025-01-09 12:00:59.706486	347.0	27.8	-82.8	4.8
2025-01-09 12:01:00.849247	346.7	27.8	-83.2	5.4
2025-01-09 12:01:01.995875	346.3	27.9	-83.0	3.3
2025-01-09 12:01:03.145053	346.0	27.9	-83.0	2.6
2025-01-09 12:01:04.289393	345.6	27.9	-83.3	2.9
2025-01-09 12:01:05.436606	345.2	27.9	-83.6	5.5
2025-01-09 12:01:06.585585	344.9	27.9	-83.4	4.1
2025-01-09 12:01:07.730542	344.5	28.0	-83.2	3.1
2025-01-09 12:01:08.878755	344.1	28.0	-83.5	4.3
2025-01-09 12:01:10.028809	343.8	28.0	-83.2	3.1
2025-01-09 12:01:11.174870	343.4	28.0	-83.3	4.9
2025-01-09 12:01:12.322491	343.1	28.0	-83.2	2.3
2025-01-09 12:01:13.468114	342.7	28.0	-82.9	5.2
2025-01-09 12:01:14.615639	342.3	28.0	-83.3	3.4
2025-01-09 12:01:15.759144	342.0	28.0	-83.5	3.5
2025-01-09 12:01:16.905643	341.6	28.1	-83.7	2.2
2025-01-09 12:01:18.057126	341.2	28.1	-83.8	4.3
2025-01-09 12:01:19.205023	340.9	28.1	-83.5	5.0
2025-01-09 12:01:20.349900	340.5	28.1	-83.4	4.3
2025-01-09 12:01:21.495978	340.1	28.1	-83.6	2.4
2025-01-09 12:01:22.642888	339.8	28.1	-83.1	3.8
2025-01-09 12:01:23.792619	339.4	28.1	-83.3	4.0
2025-01-09 12:01:24.934446	339.1	28.1	-83.5	4.3
2025-01-09 12:01:26.079377	338.7	28.1	-83.2	5.3
2025-01-09 12:01:27.232760	338.3	28.1	-84.1	4.7
2025-01-09 12:01:28.376151	338.0	28.0	-83.8	4.0
2025-01-09 12:01:29.530315	337.6	28.0	-83.1	5.6
2025-01-09 12:01:30.674921	337.2	28.0	-83.1	3.3
2025-01-09 12:01:31.820342	336.9	28.0	-83.8	3.3
2025-01-09 12:01:32.971043	336.5	28.0	-82.7	6.1
2025-01-09 12:01:34.115331	336.1	28.0	-83.5	5.5
2025-01-09 12:01:35.269111	335.8	28.0	-83.3	4.5
2025-01-09 12:01:36.417710	335.4	28.0	-83.7	4.0
2025-01-09 12:01:37.565981	335.1	28.0	-83.9	5.4
2025-01-09 12:01:38.716910	334.7	27.9	-83.4	4.3
2025-01-09 12:01:39.864871	334.3	27.9	-83.1	2.9
2025-01-09 12:01:41.017792	334.0	27.9	-83.1	2.8
2025-01-09 12:01:42.160508	333.6	27.9	-82.8	2.9
2025-01-09 12:01:43.312173	333.3	27.8	-83.1	4.5
2025-01-09 12:01:44.465886	332.9	27.8	-83.0	3.5
2025-01-09 12:01:45.610805	332.5	27.8	-83.2	3.1
2025-01-09 12:01:46.758528	332.2	27.8	-83.3	3.0
2025-01-09 12:01:47.902274	331.8	27.7	-83.6	3.5
2025-01-09 12:01:49.051780	331.5	27.7	-83.1	4.4
2025-01-09 12:01:50.199530	331.1	27.7	-82.7	4.2
2025-01-09 12:01:51.347167	330.7	27.7	-83.7	2.6
2025-01-09 12:01:52.496673	330.4	27.6	-82.8	4.7
2025-01-09 12:01:53.647345	330.0	27.6	-83.0	3.7
2025-01-09 12:01:54.798651	329.7	27.6	-83.2	3.3
2025-01-09 12:01:55.946630	329.3	27.5	-83.4	4.8
2025-01-09 12:01:57.099814	329.0	27.5	-83.1	4.8
2025-01-09 12:01:58.247519	328.6	27.4	-83.1	0.4
2025-01-09 12:01:59.397981	328.3	27.4	-83.2	2.7
2025-01-09 12:02:00.538856	327.9	27.4	-82.7	3.3
2025-01-09 12:02:01.684658	327.6	27.3	-83.2	1.5
2025-01-09 12:02:02.833184	327.2	27.3	-82.8	3.4
2025-01-09 12:02:03.980075	326.9	27.2	-83.1	2.0
2025-01-09 12:02:05.125756	326.5	27.2	-83.1	3.4
2025-01-09 12:02:06.273978	326.2	27.1	-83.3	2.4
2025-01-09 12:02:07.421312	325.9	27.1	-83.0	5.5
2025-01-09 12:02:08.569707	325.5	27.0	-82.9	4.3
2025-01-09 12:02:09.723019	325.2	27.0	-82.8	3.3
2025-01-09 12:02:10.876551	324.8	26.9	-83.5	5.7
2025-01-09 12:02:12.020096	324.5	26.9	-82.9	4.3
2025-01-09 12:02:13.165456	324.2	26.8	-82.8	4.6
2025-01-09 12:02:14.310390	323.8	26.8	-83.3	2.5
2025-01-09 12:02:15.450995	323.5	26.7	-83.6	4.5
2025-01-09 12:02:16.596461	323.2	26.7	-83.3	3.5
2025-01-09 12:02:17.745028	322.8	26.6	-83.3	4.0
2025-01-09 12:02:18.888927	322.5	26.6	-83.2	3.0
2025-01-09 12:02:20.039093	322.2	26.5	-83.6	2.9
2025-01-09 12:02:21.186466	321.8	26.4	-83.5	3.0
2025-01-09 12:02:22.332500	321.5	26.4	-83.4	3.8
2025-01-09 12:02:23.481631	321.2	26.3	-82.8	5.2
2025-01-09 12:02:24.627403	320.8	26.3	-83.3	3.9
2025-01-09 12:02:25.773373	320.5	26.2	-83.1	4.2
2025-01-09 12:02:26.920556	320.2	26.1	-83.2	3.8
2025-01-09 12:02:28.072765	319.9	26.1	-83.3	2.7
2025-01-09 12:02:29.223872	319.6	26.0	-83.5	5.6
2025-01-09 12:02:30.376878	319.2	25.9	-83.7	3.5
2025-01-09 12:02:31.533156	318.9	25.9	-83.8	3.1
2025-01-09 12:02:32.680808	318.6	25.8	-83.7	1.9
2025-01-09 12:02:33.827330	318.3	25.7	-84.1	3.7
2025-01-09 12:02:34.973405	318.0	25.7	-83.7	3.9
2025-01-09 12:02:36.120992	317.7	25.6	-83.9	2.0
2025-01-09 12:02:37.264748	317.3	25.5	-83.5	2.8
2025-01-09 12:02:38.413187	317.0	25.5	-83.8	3.5
2025-01-09 12:02:39.561999	316.7	25.4	-83.9	4.3
2025-01-09 12:02:40.710797	316.4	25.3	-84.1	4.5
2025-01-09 12:02:41.857985	316.1	25.2	-84.4	4.9
2025-01-09 12:02:43.001089	315.8	25.2	-84.5	4.3
2025-01-09 12:02:44.148638	315.5	25.1	-83.9	2.7
2025-01-09 12:02:45.298953	315.2	25.0	-84.2	2.4
2025-01-09 12:02:46.443706	314.9	24.9	-83.9	3.7
2025-01-09 12:02:47.588749	314.6	24.9	-84.3	4.9
2025-01-09 12:02:48.739666	314.3	24.8	-83.9	4.4
2025-01-09 12:02:49.885782	314.0	24.7	-84.2	4.4
2025-01-09 12:02:51.034339	313.7	24.6	-83.6	6.0
2025-01-09 12:02:52.180737	313.4	24.5	-83.4	5.6
2025-01-09 12:02:53.331991	313.1	24.5	-84.0	6.3
2025-01-09 12:02:54.486998	312.8	24.4	-84.7	5.3
2025-01-09 12:02:55.632685	312.6	24.3	-83.9	6.4
2025-01-09 12:02:56.780098	312.3	24.2	-84.2	4.5
2025-01-09 12:02:57.913039	312.0	24.1	-83.8	4.6
2025-01-09 12:02:59.067165	311.7	24.1	-84.1	4.9
2025-01-09 12:03:00.208864	311.4	24.0	-84.6	5.4
2025-01-09 12:03:01.341466	311.2	23.9	-84.0	4.0
2025-01-09 12:03:02.489372	310.9	23.8	-84.3	3.7
2025-01-09 12:03:03.635930	310.6	23.7	-84.3	2.4
2025-01-09 12:03:04.781768	310.3	23.6	-84.1	4.0
2025-01-09 12:03:05.929191	310.0	23.6	-83.9	2.6
2025-01-09 12:03:07.075586	309.8	23.5	-83.6	3.3
2025-01-09 12:03:08.227287	309.5	23.4	-83.8	3.8
2025-01-09 12:03:09.369492	309.2	23.3	-84.0	3.1
2025-01-09 12:03:10.519561	309.0	23.2	-83.9	4.2
2025-01-09 12:03:11.674720	308.7	23.1	-83.4	2.7
2025-01-09 12:03:12.821946	308.4	23.0	-83.9	3.8
2025-01-09 12:03:13.969701	308.2	22.9	-83.9	3.5
2025-01-09 12:03:15.112189	307.9	22.9	-82.9	4.6
2025-01-09 12:03:16.257787	307.6	22.8	-83.7	2.5
2025-01-09 12:03:17.408556	307.4	22.7	-83.9	3.1
2025-01-09 12:03:18.556287	307.1	22.6	-84.4	2.8
2025-01-09 12:03:19.702166	306.9	22.5	-84.0	1.8
2025-01-09 12:03:20.845923	306.6	22.4	-83.2	1.5
2025-01-09 12:03:21.993326	306.4	22.3	-83.5	2.9
2025-01-09 12:03:23.136502	306.1	22.2	-83.3	3.6
2025-01-09 12:03:24.283733	305.9	22.1	-82.6	2.7
2025-01-09 12:03:25.438616	305.6	22.0	-83.4	3.0
2025-01-09 12:03:26.582422	305.4	21.9	-83.8	3.0
2025-01-09 12:03:27.731904	305.1	21.9	-83.8	2.4
2025-01-09 12:03:28.875610	304.9	21.8	-84.3	3.1
2025-01-09 12:03:30.024472	304.6	21.7	-83.9	2.0
2025-01-09 12:03:31.174280	304.4	21.6	-84.1	5.0
2025-01-09 12:03:32.326183	304.1	21.5	-83.6	2.6
2025-01-09 12:03:33.473974	303.9	21.4	-83.5	4.6
2025-01-09 12:03:34.620015	303.7	21.3	-83.5	4.3
2025-01-09 12:03:35.762384	303.4	21.2	-84.0	3.9
2025-01-09 12:03:36.912526	303.2	21.1	-83.5	2.6
2025-01-09 12:03:38.058411	303.0	21.0	-83.9	4.0
2025-01-09 12:03:39.204755	302.7	20.9	-83.9	1.7
2025-01-09 12:03:40.354747	302.5	20.8	-83.7	3.0
2025-01-09 12:03:41.517824	302.3	20.7	-83.9	1.8
2025-01-09 12:03:42.660419	302.1	20.6	-83.6	2.7
2025-01-09 12:03:43.806240	301.8	20.6	-83.8	2.4
2025-01-09 12:03:44.953861	301.6	20.5	-83.4	2.8
2025-01-09 12:03:46.101341	301.4	20.4	-83.6	3.3
2025-01-09 12:03:47.255399	301.2	20.3	-83.5	3.9
2025-01-09 12:03:48.400197	300.9	20.2	-84.1	3.3
2025-01-09 12:03:49.549089	300.7	20.1	-83.6	1.6
2025-01-09 12:03:50.700031	300.5	20.0	-83.7	2.1
2025-01-09 12:03:51.845213	300.3	19.9	-83.5	4.0
2025-01-09 12:03:52.997712	300.1	19.8	-84.1	1.9
2025-01-09 12:03:54.144990	299.9	19.7	-84.0	3.6
2025-01-09 12:03:55.290798	299.6	19.6	-84.3	1.3
2025-01-09 12:03:56.436272	299.4	19.5	-84.0	1.7
2025-01-09 12:03:57.582589	299.2	19.4	-84.0	1.6
2025-01-09 12:03:58.732199	299.0	19.3	-84.5	0.8
2025-01-09 12:03:59.879222	298.8	19.2	-84.2	2.6
2025-01-09 12:04:01.015907	298.6	19.1	-83.8	1.0
2025-01-09 12:04:02.168112	298.4	19.0	-84.1	6.3
2025-01-09 12:04:03.313766	298.2	18.9	-83.9	4.0
2025-01-09 12:04:04.462101	298.0	18.8	-84.5	2.5
2025-01-09 12:04:05.610074	297.8	18.7	-84.5	3.0
2025-01-09 12:04:06.761819	297.6	18.6	-84.5	2.3
2025-01-09 12:04:07.910300	297.4	18.6	-84.8	4.2
2025-01-09 12:04:09.057199	297.2	18.5	-84.7	1.5
2025-01-09 12:04:10.314140	297.0	18.4	-84.2	3.8
2025-01-09 12:04:11.460278	296.8	18.3	-84.0	3.5
2025-01-09 12:04:12.608909	296.6	18.2	-84.0	2.6
2025-01-09 12:04:13.753853	296.4	18.1	-84.3	2.0
2025-01-09 12:04:14.904823	296.2	18.0	-84.3	2.7
2025-01-09 12:04:16.058090	296.0	17.9	-84.2	3.9
2025-01-09 12:04:17.205234	295.8	17.8	-84.2	3.3
2025-01-09 12:04:18.350174	295.7	17.7	-84.5	3.2
2025-01-09 12:04:19.498100	295.5	17.6	-84.3	2.1
2025-01-09 12:04:20.645050	295.3	17.5	-84.8	3.2
2025-01-09 12:04:21.788572	295.1	17.4	-84.5	3.1
2025-01-09 12:04:22.935372	294.9	17.3	-84.4	3.1
2025-01-09 12:04:24.083378	294.7	17.2	-84.1	5.2
2025-01-09 12:04:25.227860	294.6	17.1	-84.5	4.1
2025-01-09 12:04:26.374859	294.4	17.0	-84.6	3.5
2025-01-09 12:04:27.521126	294.2	16.9	-84.7	3.9
2025-01-09 12:04:28.674158	294.0	16.8	-85.0	4.0
2025-01-09 12:04:29.816316	293.8	16.7	-84.3	2.8
2025-01-09 12:04:30.963023	293.7	16.6	-84.4	2.7
2025-01-09 12:04:32.094863	293.5	16.5	-84.5	1.8
2025-01-09 12:04:33.228996	293.3	16.5	-84.7	3.1
2025-01-09 12:04:34.361466	293.2	16.4	-84.6	2.7
2025-01-09 12:04:35.482790	293.0	16.3	-84.7	2.0
2025-01-09 12:04:36.604244	292.8	16.2	-84.5	3.1
2025-01-09 12:04:37.724641	292.7	16.1	-84.3	2.1
2025-01-09 12:04:38.845135	292.5	16.0	-83.9	1.4
2025-01-09 12:04:39.965674	292.3	15.9	-84.5	1.9
2025-01-09 12:04:41.086984	292.2	15.8	-83.9	2.4
2025-01-09 12:04:42.206870	292.0	15.7	-84.2	4.2
2025-01-09 12:04:43.331037	291.9	15.6	-84.1	4.0
2025-01-09 12:04:44.477009	291.7	15.5	-84.3	3.8
2025-01-09 12:04:45.615160	291.5	15.4	-84.3	3.0
2025-01-09 12:04:46.758427	291.4	15.4	-84.6	1.5
2025-01-09 12:04:47.905411	291.2	15.3	-84.6	2.1
2025-01-09 12:04:49.049888	291.1	15.2	-84.5	3.0
2025-01-09 12:04:50.198631	290.9	15.1	-84.4	3.1
2025-01-09 12:04:51.346771	290.8	15.0	-84.8	2.9
2025-01-09 12:04:52.495033	290.6	14.9	-84.7	2.1
2025-01-09 12:04:53.647424	290.4	14.8	-85.0	2.1
2025-01-09 12:04:54.793819	290.3	14.7	-85.3	2.7
2025-01-09 12:04:55.941724	290.1	14.6	-85.5	2.0
#Closed at: 2025-01-09 11:57:58.275039