passes_logs/2025/01/09/LEX_Murmansk/LEX_Murmansk__20250109_183649_NOAA_19_rec.log

#Pass ID: 20250109_183649_NOAA 19
#Satellite: NOAA 19
#Configuration: NOAA 19
#Start time: 2025-01-09 18:36:44.520016

#LorettStation: 1.0.0 05.05.2024
#Station: LEX_Murmansk
#Location: 33.156738 lon 68.926811 lat
#TLE: 1 33591U 09005A   25008.91550554  .00000294  00000+0  18118-3 0  9990
#TLE: 2 33591  99.0208  72.6306 0014612  73.7755 286.5023 14.13254864820423

#Time	Az	El	Level	SNR
2025-01-09 18:36:56.702168	181.3	16.3	-91.0	4.3
2025-01-09 18:36:59.036476	181.5	16.5	-92.3	4.5
2025-01-09 18:37:01.347341	181.7	16.8	-91.8	5.1
2025-01-09 18:37:03.671494	181.8	17.0	-92.3	2.8
2025-01-09 18:37:05.993091	182.0	17.3	-92.5	2.7
2025-01-09 18:37:08.323434	182.2	17.5	-92.3	2.5
2025-01-09 18:37:10.637207	182.3	17.8	-92.6	4.0
2025-01-09 18:37:12.919272	182.5	18.0	-92.3	3.8
2025-01-09 18:37:15.160022	182.7	18.3	-92.8	5.0
2025-01-09 18:37:17.401954	182.9	18.6	-92.5	7.2
2025-01-09 18:37:19.643785	183.0	18.8	-92.5	5.0
2025-01-09 18:37:21.905970	183.2	19.1	-92.1	3.1
2025-01-09 18:37:24.220805	183.4	19.4	-92.2	3.2
2025-01-09 18:37:26.535889	183.6	19.6	-92.1	7.4
2025-01-09 18:37:28.866517	183.8	19.9	-92.4	6.2
2025-01-09 18:37:31.195830	184.0	20.2	-92.5	7.4
2025-01-09 18:37:33.513100	184.2	20.5	-92.2	6.5
2025-01-09 18:37:35.825802	184.4	20.8	-92.5	4.3
2025-01-09 18:37:38.152052	184.6	21.1	-92.6	2.6
2025-01-09 18:37:40.462560	184.8	21.4	-92.3	6.5
2025-01-09 18:37:42.744997	185.1	21.7	-92.5	10.3
2025-01-09 18:37:45.038061	185.3	22.0	-92.4	11.2
2025-01-09 18:37:47.351991	185.5	22.3	-92.5	6.3
2025-01-09 18:37:49.669277	185.7	22.6	-92.4	11.8
2025-01-09 18:37:52.001492	186.0	22.9	-92.2	9.0
2025-01-09 18:37:54.329275	186.2	23.2	-92.5	1.1
2025-01-09 18:37:56.653226	186.5	23.5	-92.6	4.2
2025-01-09 18:37:58.973747	186.7	23.8	-92.3	8.9
2025-01-09 18:38:01.284313	187.0	24.2	-92.4	7.6
2025-01-09 18:38:03.613735	187.2	24.5	-92.6	7.7
2025-01-09 18:38:05.932799	187.5	24.8	-92.4	9.6
2025-01-09 18:38:08.260783	187.8	25.2	-91.9	9.2
2025-01-09 18:38:10.590387	188.1	25.5	-92.7	2.5
2025-01-09 18:38:12.911909	188.3	25.8	-92.5	2.4
2025-01-09 18:38:15.220841	188.6	26.2	-92.5	4.2
2025-01-09 18:38:17.551214	188.9	26.5	-92.4	9.7
2025-01-09 18:38:19.867889	189.2	26.9	-92.7	7.6
2025-01-09 18:38:22.192828	189.5	27.2	-92.3	5.7
2025-01-09 18:38:24.521031	189.9	27.6	-92.1	7.4
2025-01-09 18:38:26.845212	190.2	28.0	-92.1	4.0
2025-01-09 18:38:29.169180	190.5	28.3	-92.2	1.2
2025-01-09 18:38:31.493498	190.9	28.7	-92.4	2.3
2025-01-09 18:38:33.818812	191.2	29.1	-92.2	6.2
2025-01-09 18:38:36.133614	191.6	29.5	-92.3	11.3
2025-01-09 18:38:38.462641	191.9	29.9	-92.6	7.1
2025-01-09 18:38:40.788608	192.3	30.3	-92.4	6.8
2025-01-09 18:38:43.113356	192.7	30.6	-92.0	8.8
2025-01-09 18:38:45.434839	193.1	31.0	-92.2	5.1
2025-01-09 18:38:47.752517	193.5	31.4	-91.7	2.1
2025-01-09 18:38:50.079679	193.9	31.9	-91.2	3.7
2025-01-09 18:38:52.392880	194.3	32.3	-91.7	5.5
2025-01-09 18:38:54.714124	194.7	32.7	-92.0	13.0
2025-01-09 18:38:57.029215	195.1	33.1	-91.9	12.6
2025-01-09 18:38:59.352692	195.6	33.5	-91.9	7.5
2025-01-09 18:39:01.658700	196.0	33.9	-92.2	13.5
2025-01-09 18:39:03.983736	196.5	34.4	-92.3	12.0
2025-01-09 18:39:06.299954	197.0	34.8	-92.3	4.7
2025-01-09 18:39:08.623339	197.5	35.2	-92.3	3.2
2025-01-09 18:39:10.961310	198.0	35.7	-92.5	4.5
2025-01-09 18:39:13.288237	198.5	36.1	-92.5	9.5
2025-01-09 18:39:15.600364	199.1	36.6	-92.5	15.4
2025-01-09 18:39:17.923977	199.6	37.0	-92.5	8.5
2025-01-09 18:39:20.248936	200.2	37.5	-92.3	7.1
2025-01-09 18:39:22.576965	200.8	37.9	-92.2	12.2
2025-01-09 18:39:24.906604	201.4	38.4	-92.1	10.7
2025-01-09 18:39:27.228901	202.0	38.8	-92.6	4.6
2025-01-09 18:39:29.560346	202.7	39.3	-92.4	2.8
2025-01-09 18:39:31.879718	203.3	39.8	-92.5	7.2
2025-01-09 18:39:34.207231	204.0	40.2	-92.1	14.6
2025-01-09 18:39:36.530711	204.7	40.7	-92.1	17.6
2025-01-09 18:39:38.849971	205.4	41.2	-92.2	11.4
2025-01-09 18:39:41.180115	206.1	41.7	-92.4	8.4
2025-01-09 18:39:43.502343	206.9	42.1	-92.5	14.7
2025-01-09 18:39:45.820465	207.6	42.6	-92.7	17.5
2025-01-09 18:39:48.146122	208.5	43.1	-92.2	14.6
2025-01-09 18:39:50.465252	209.3	43.6	-92.1	7.9
2025-01-09 18:39:52.789220	210.1	44.0	-92.3	2.6
2025-01-09 18:39:55.122157	211.0	44.5	-92.1	10.5
2025-01-09 18:39:57.440728	211.9	45.0	-91.7	11.1
2025-01-09 18:39:59.755912	212.8	45.4	-92.1	15.5
2025-01-09 18:40:02.069088	213.8	45.9	-92.0	12.4
2025-01-09 18:40:04.393872	214.7	46.4	-92.0	8.7
2025-01-09 18:40:06.716907	215.8	46.8	-92.3	5.0
2025-01-09 18:40:09.047715	216.8	47.3	-92.3	10.8
2025-01-09 18:40:11.376900	217.9	47.7	-92.4	12.5
2025-01-09 18:40:13.706810	219.0	48.2	-92.0	14.8
2025-01-09 18:40:16.026864	220.1	48.6	-92.2	12.8
2025-01-09 18:40:18.348036	221.3	49.0	-91.9	2.6
2025-01-09 18:40:20.686997	222.5	49.5	-92.5	3.0
2025-01-09 18:40:23.011481	223.7	49.9	-92.3	8.7
2025-01-09 18:40:25.332578	224.9	50.3	-92.4	10.7
2025-01-09 18:40:27.653173	226.2	50.6	-92.4	16.7
2025-01-09 18:40:29.979708	227.6	51.0	-92.6	14.0
2025-01-09 18:40:32.308386	228.9	51.4	-92.5	10.2
2025-01-09 18:40:34.627825	230.3	51.7	-92.6	14.3
2025-01-09 18:40:36.945419	231.7	52.1	-92.7	9.6
2025-01-09 18:40:39.274560	233.2	52.4	-92.6	7.5
2025-01-09 18:40:41.597682	234.7	52.7	-92.7	6.5
2025-01-09 18:40:43.939220	236.2	53.0	-92.8	10.0
2025-01-09 18:40:46.270896	237.7	53.2	-92.4	8.2
2025-01-09 18:40:48.600463	239.3	53.5	-92.7	13.5
2025-01-09 18:40:50.935390	240.9	53.7	-92.8	10.0
2025-01-09 18:40:53.259126	242.5	53.9	-92.5	10.9
2025-01-09 18:40:55.584449	244.1	54.1	-92.4	8.2
2025-01-09 18:40:57.918394	245.8	54.2	-92.3	6.3
2025-01-09 18:41:00.236943	247.5	54.3	-92.5	3.9
2025-01-09 18:41:02.544971	249.1	54.4	-92.2	3.4
2025-01-09 18:41:04.868856	250.8	54.5	-92.4	3.2
2025-01-09 18:41:07.189949	252.5	54.6	-92.5	2.8
2025-01-09 18:41:09.518476	254.2	54.6	-92.9	4.5
2025-01-09 18:41:11.842378	256.0	54.6	-92.8	6.2
2025-01-09 18:41:14.169521	257.7	54.6	-92.6	12.3
2025-01-09 18:41:16.491123	259.4	54.6	-92.3	12.9
2025-01-09 18:41:18.815372	261.1	54.5	-92.5	12.5
2025-01-09 18:41:21.140653	262.8	54.4	-92.6	18.5
2025-01-09 18:41:23.460408	264.4	54.3	-92.2	16.1
2025-01-09 18:41:25.789291	266.1	54.1	-92.7	13.4
2025-01-09 18:41:28.116471	267.7	54.0	-92.3	8.6
2025-01-09 18:41:30.445851	269.4	53.8	-92.4	20.4
2025-01-09 18:41:32.771597	271.0	53.6	-92.7	12.6
2025-01-09 18:41:35.091725	272.5	53.4	-92.3	15.5
2025-01-09 18:41:37.412611	274.1	53.1	-92.3	12.3
2025-01-09 18:41:39.739139	275.6	52.9	-92.7	11.4
2025-01-09 18:41:42.067539	277.1	52.6	-92.3	13.3
2025-01-09 18:41:44.387720	278.6	52.3	-92.3	14.4
2025-01-09 18:41:46.706147	280.0	51.9	-92.5	11.9
2025-01-09 18:41:49.003004	281.4	51.6	-92.4	10.7
2025-01-09 18:41:51.244302	282.8	51.3	-91.9	6.0
2025-01-09 18:41:53.487171	284.0	50.9	-92.6	8.6
2025-01-09 18:41:55.727724	285.3	50.6	-92.9	8.5
2025-01-09 18:41:57.970379	286.6	50.2	-92.8	10.1
2025-01-09 18:42:00.277969	287.8	49.8	-92.6	7.1
2025-01-09 18:42:02.580135	289.0	49.4	-92.7	12.8
2025-01-09 18:42:04.902589	290.2	49.0	-92.6	8.0
2025-01-09 18:42:07.225866	291.3	48.5	-92.4	6.5
2025-01-09 18:42:09.543266	292.5	48.1	-92.2	6.7
2025-01-09 18:42:11.861065	293.5	47.7	-92.8	9.7
2025-01-09 18:42:14.193717	294.6	47.2	-92.4	13.5
2025-01-09 18:42:16.532431	295.7	46.8	-92.8	14.1
2025-01-09 18:42:18.873065	296.7	46.3	-92.4	13.2
2025-01-09 18:42:21.194681	297.6	45.8	-92.5	14.8
2025-01-09 18:42:23.532802	298.6	45.4	-92.1	13.8
2025-01-09 18:42:25.863365	299.5	44.9	-92.1	10.5
2025-01-09 18:42:28.173700	300.4	44.4	-92.4	9.5
2025-01-09 18:42:30.435551	301.2	44.0	-92.6	7.6
2025-01-09 18:42:32.735548	302.1	43.5	-92.5	5.7
2025-01-09 18:42:35.046773	302.9	43.0	-92.6	8.5
2025-01-09 18:42:37.371587	303.7	42.6	-92.4	6.3
2025-01-09 18:42:39.691892	304.4	42.1	-92.3	8.3
2025-01-09 18:42:42.019220	305.2	41.6	-92.5	11.1
2025-01-09 18:42:44.345456	305.9	41.1	-92.1	8.3
2025-01-09 18:42:46.670914	306.6	40.7	-92.6	11.1
2025-01-09 18:42:48.993832	307.3	40.2	-92.5	14.2
2025-01-09 18:42:51.314391	308.0	39.7	-92.1	14.6
2025-01-09 18:42:53.645338	308.6	39.3	-92.6	10.3
2025-01-09 18:42:55.968157	309.3	38.8	-91.8	11.1
2025-01-09 18:42:58.284793	309.9	38.4	-92.1	4.6
2025-01-09 18:43:00.589710	310.5	37.9	-92.1	6.1
2025-01-09 18:43:02.910221	311.1	37.4	-92.5	4.1
2025-01-09 18:43:05.228301	311.6	37.0	-92.3	3.3
2025-01-09 18:43:07.553814	312.2	36.5	-92.3	6.2
2025-01-09 18:43:09.872665	312.7	36.1	-92.3	8.3
2025-01-09 18:43:12.202424	313.2	35.7	-92.6	11.6
2025-01-09 18:43:14.501264	313.7	35.2	-92.7	12.7
2025-01-09 18:43:16.814711	314.2	34.8	-92.5	12.2
2025-01-09 18:43:19.139954	314.7	34.4	-92.0	8.0
2025-01-09 18:43:21.456956	315.2	33.9	-92.1	10.2
2025-01-09 18:43:23.778764	315.7	33.5	-92.3	3.9
2025-01-09 18:43:26.096067	316.1	33.1	-92.5	7.2
2025-01-09 18:43:28.418281	316.5	32.7	-92.4	6.7
2025-01-09 18:43:30.739705	317.0	32.3	-92.4	9.2
2025-01-09 18:43:33.068879	317.4	31.9	-92.9	11.0
2025-01-09 18:43:35.394018	317.8	31.5	-92.8	11.4
2025-01-09 18:43:37.718218	318.2	31.1	-92.7	10.9
2025-01-09 18:43:40.045999	318.6	30.7	-92.6	5.5
2025-01-09 18:43:42.365663	319.0	30.3	-92.6	5.8
2025-01-09 18:43:44.706347	319.3	29.9	-92.9	5.6
2025-01-09 18:43:47.036201	319.7	29.5	-92.6	4.5
2025-01-09 18:43:49.359537	320.0	29.1	-92.4	8.5
2025-01-09 18:43:51.686763	320.4	28.7	-92.4	15.8
2025-01-09 18:43:54.015609	320.7	28.4	-93.2	7.7
2025-01-09 18:43:56.345501	321.1	28.0	-92.4	8.0
2025-01-09 18:43:58.668329	321.4	27.6	-92.6	6.2
2025-01-09 18:44:00.982667	321.7	27.3	-92.6	5.3
2025-01-09 18:44:03.311207	322.0	26.9	-92.5	4.7
2025-01-09 18:44:05.631523	322.3	26.6	-92.4	10.9
2025-01-09 18:44:07.952934	322.6	26.2	-92.7	10.9
2025-01-09 18:44:10.282754	322.9	25.9	-92.9	9.1
2025-01-09 18:44:12.598188	323.2	25.5	-92.8	7.2
2025-01-09 18:44:14.924294	323.4	25.2	-93.0	9.5
2025-01-09 18:44:17.241714	323.7	24.9	-92.8	4.0
2025-01-09 18:44:19.568976	324.0	24.5	-92.7	6.7
2025-01-09 18:44:21.898389	324.2	24.2	-92.4	8.2
2025-01-09 18:44:24.224264	324.5	23.9	-92.4	12.6
2025-01-09 18:44:26.544852	324.8	23.6	-92.7	12.6
2025-01-09 18:44:28.866031	325.0	23.3	-92.9	6.8
2025-01-09 18:44:31.189599	325.2	22.9	-92.6	3.7
2025-01-09 18:44:33.513779	325.5	22.6	-92.5	4.2
2025-01-09 18:44:35.841291	325.7	22.3	-92.6	2.9
2025-01-09 18:44:38.152902	325.9	22.0	-92.7	10.5
2025-01-09 18:44:40.478831	326.2	21.7	-92.7	13.0
2025-01-09 18:44:42.804187	326.4	21.4	-91.8	5.6
2025-01-09 18:44:45.120386	326.6	21.1	-92.6	2.9
2025-01-09 18:44:47.441486	326.8	20.8	-93.1	2.2
2025-01-09 18:44:49.768250	327.0	20.5	-92.3	2.8
2025-01-09 18:44:52.087532	327.2	20.3	-92.8	1.8
2025-01-09 18:44:54.412627	327.4	20.0	-92.6	0.3
2025-01-09 18:44:56.736431	327.6	19.7	-92.9	2.4
2025-01-09 18:44:59.050926	327.8	19.4	-93.0	4.8
2025-01-09 18:45:01.430069	328.0	19.1	-92.7	3.1
2025-01-09 18:45:03.671606	328.2	18.9	-92.6	2.4
2025-01-09 18:45:05.910698	328.4	18.6	-93.0	3.2
2025-01-09 18:45:08.151847	328.6	18.4	-92.8	4.0
2025-01-09 18:45:10.399887	328.7	18.1	-92.5	2.6
2025-01-09 18:45:12.705761	328.9	17.9	-92.7	2.5
2025-01-09 18:45:15.030162	329.1	17.6	-92.7	3.4
2025-01-09 18:45:17.347660	329.3	17.3	-92.8	2.9
2025-01-09 18:45:19.677338	329.4	17.1	-93.1	2.6
2025-01-09 18:45:21.993948	329.6	16.8	-92.8	3.9
2025-01-09 18:45:24.315492	329.8	16.6	-92.9	4.5
2025-01-09 18:45:26.641787	329.9	16.3	-92.9	4.8
2025-01-09 18:45:29.067753	330.1	16.1	-92.9	4.1
2025-01-09 18:45:31.392598	330.2	15.8	-92.5	3.2
2025-01-09 18:45:33.717298	330.4	15.6	-93.0	1.6
2025-01-09 18:45:36.049541	330.5	15.4	-92.7	2.7
2025-01-09 18:45:38.366862	330.7	15.1	-92.6	1.3
2025-01-09 18:45:40.688593	330.8	14.9	-92.6	5.5
2025-01-09 18:45:43.003651	331.0	14.7	-92.8	2.6
2025-01-09 18:45:45.319038	331.1	14.4	-92.9	2.5
#Closed at: 2025-01-09 18:36:49.497257