passes_logs/2025/01/09/LEX_Murmansk/LEX_Murmansk__20250109_065601_NOAA_19_rec.log

#Pass ID: 20250109_065601_NOAA 19
#Satellite: NOAA 19
#Configuration: NOAA 19
#Start time: 2025-01-09 06:55:56.800048

#LorettStation: 1.0.0 05.05.2024
#Station: LEX_Murmansk
#Location: 33.156738 lon 68.926811 lat
#TLE: 1 33591U 09005A   25008.91550554  .00000294  00000+0  18118-3 0  9990
#TLE: 2 33591  99.0208  72.6306 0014612  73.7755 286.5023 14.13254864820423

#Time	Az	El	Level	SNR
2025-01-09 06:56:09.032774	38.7	16.0	-90.3	0.7
2025-01-09 06:56:10.177344	38.9	16.1	-90.3	1.3
2025-01-09 06:56:11.299617	39.0	16.2	-90.0	3.0
2025-01-09 06:56:12.419890	39.2	16.3	-90.3	2.6
2025-01-09 06:56:13.541081	39.4	16.4	-89.1	2.9
2025-01-09 06:56:14.662068	39.5	16.4	-90.0	1.5
2025-01-09 06:56:15.782545	39.7	16.5	-90.9	0.6
2025-01-09 06:56:16.903483	39.9	16.6	-90.9	1.0
2025-01-09 06:56:18.027741	40.0	16.7	-90.8	1.6
2025-01-09 06:56:19.148783	40.2	16.8	-90.2	2.1
2025-01-09 06:56:20.310120	40.4	16.9	-90.6	3.0
2025-01-09 06:56:21.462930	40.6	17.0	-90.8	2.0
2025-01-09 06:56:22.620631	40.8	17.1	-90.9	1.8
2025-01-09 06:56:23.782534	40.9	17.2	-91.0	2.2
2025-01-09 06:56:24.945436	41.1	17.3	-91.0	5.0
2025-01-09 06:56:26.108934	41.3	17.4	-90.9	3.8
2025-01-09 06:56:27.272589	41.5	17.5	-90.5	3.5
2025-01-09 06:56:28.440387	41.7	17.6	-91.0	4.7
2025-01-09 06:56:29.593027	41.9	17.7	-90.7	3.4
2025-01-09 06:56:30.757136	42.1	17.8	-88.0	3.2
2025-01-09 06:56:31.918924	42.2	17.9	-90.8	1.8
2025-01-09 06:56:33.080840	42.4	18.0	-90.6	0.0
2025-01-09 06:56:34.242538	42.6	18.1	-90.6	1.7
2025-01-09 06:56:35.411278	42.8	18.2	-91.0	3.7
2025-01-09 06:56:36.585374	43.0	18.3	-90.8	3.6
2025-01-09 06:56:37.740402	43.2	18.4	-90.9	2.7
2025-01-09 06:56:38.909339	43.4	18.5	-90.6	1.8
2025-01-09 06:56:40.071444	43.6	18.6	-90.0	2.9
2025-01-09 06:56:41.232170	43.8	18.7	-90.6	1.7
2025-01-09 06:56:42.398829	44.0	18.8	-90.7	3.1
2025-01-09 06:56:43.569988	44.2	18.8	-91.0	3.5
2025-01-09 06:56:44.726230	44.4	18.9	-91.0	4.0
2025-01-09 06:56:45.888194	44.6	19.0	-91.0	5.5
2025-01-09 06:56:47.057117	44.8	19.1	-90.8	5.0
2025-01-09 06:56:48.214121	45.0	19.2	-90.6	5.8
2025-01-09 06:56:49.377890	45.2	19.3	-90.8	6.6
2025-01-09 06:56:50.541610	45.4	19.4	-91.4	6.9
2025-01-09 06:56:51.703915	45.7	19.5	-91.4	5.9
2025-01-09 06:56:52.867129	45.9	19.6	-91.0	5.4
2025-01-09 06:56:54.024272	46.1	19.7	-91.1	3.3
2025-01-09 06:56:55.189039	46.3	19.8	-91.1	1.4
2025-01-09 06:56:56.344961	46.5	19.9	-90.8	1.2
2025-01-09 06:56:57.506236	46.7	20.0	-91.0	2.0
2025-01-09 06:56:58.666944	46.9	20.1	-91.0	4.7
2025-01-09 06:56:59.836180	47.2	20.2	-91.0	8.4
2025-01-09 06:57:00.980594	47.4	20.3	-88.3	8.6
2025-01-09 06:57:02.144809	47.6	20.4	-90.6	10.1
2025-01-09 06:57:03.307463	47.8	20.5	-90.9	7.7
2025-01-09 06:57:04.475580	48.1	20.6	-91.2	6.0
2025-01-09 06:57:05.638547	48.3	20.7	-91.0	7.0
2025-01-09 06:57:06.804496	48.5	20.8	-90.9	2.8
2025-01-09 06:57:07.958518	48.7	20.9	-90.5	5.1
2025-01-09 06:57:09.117791	49.0	21.0	-90.5	8.2
2025-01-09 06:57:10.279587	49.2	21.1	-90.4	7.8
2025-01-09 06:57:11.444352	49.4	21.2	-90.6	10.7
2025-01-09 06:57:12.608454	49.7	21.3	-90.5	9.4
2025-01-09 06:57:13.770720	49.9	21.4	-90.5	9.3
2025-01-09 06:57:14.932097	50.1	21.5	-90.5	7.8
2025-01-09 06:57:16.095418	50.4	21.6	-90.1	4.9
2025-01-09 06:57:17.267363	50.6	21.7	-90.3	1.3
2025-01-09 06:57:18.432116	50.9	21.8	-89.9	2.6
2025-01-09 06:57:19.589185	51.1	21.9	-90.0	5.1
2025-01-09 06:57:20.754103	51.4	22.0	-89.7	3.2
2025-01-09 06:57:21.911798	51.6	22.0	-90.7	5.7
2025-01-09 06:57:23.072711	51.9	22.1	-90.4	7.8
2025-01-09 06:57:24.233720	52.1	22.2	-90.1	9.8
2025-01-09 06:57:25.402038	52.4	22.3	-89.1	9.0
2025-01-09 06:57:26.565149	52.6	22.4	-90.9	9.6
2025-01-09 06:57:27.732665	52.9	22.5	-90.7	9.2
2025-01-09 06:57:28.897504	53.1	22.6	-90.7	8.7
2025-01-09 06:57:30.054717	53.4	22.7	-90.5	8.3
2025-01-09 06:57:31.212026	53.6	22.8	-90.4	4.7
2025-01-09 06:57:32.372576	53.9	22.9	-90.0	8.9
2025-01-09 06:57:33.536473	54.2	23.0	-90.2	9.5
2025-01-09 06:57:34.695643	54.4	23.1	-90.3	10.5
2025-01-09 06:57:35.857172	54.7	23.2	-90.3	11.2
2025-01-09 06:57:37.017869	55.0	23.3	-90.5	12.7
2025-01-09 06:57:38.179958	55.2	23.4	-90.7	9.9
2025-01-09 06:57:39.338783	55.5	23.5	-88.4	5.4
2025-01-09 06:57:40.493597	55.8	23.5	-90.5	3.1
2025-01-09 06:57:41.655071	56.0	23.6	-90.8	4.0
2025-01-09 06:57:42.820029	56.3	23.7	-90.7	2.7
2025-01-09 06:57:43.979299	56.6	23.8	-90.6	3.3
2025-01-09 06:57:45.137258	56.9	23.9	-90.5	3.6
2025-01-09 06:57:46.315293	57.1	24.0	-90.6	3.4
2025-01-09 06:57:47.477545	57.4	24.1	-90.9	6.7
2025-01-09 06:57:48.643786	57.7	24.2	-90.7	6.7
2025-01-09 06:57:49.801467	58.0	24.3	-90.7	5.0
2025-01-09 06:57:50.965153	58.3	24.4	-90.7	8.1
2025-01-09 06:57:52.128707	58.6	24.4	-90.5	9.5
2025-01-09 06:57:53.286912	58.8	24.5	-90.1	7.0
2025-01-09 06:57:54.451482	59.1	24.6	-91.0	5.1
2025-01-09 06:57:55.633991	59.4	24.7	-91.1	7.1
2025-01-09 06:57:56.796960	59.7	24.8	-91.2	4.8
2025-01-09 06:57:57.962802	60.0	24.9	-90.4	7.6
2025-01-09 06:57:59.126622	60.3	25.0	-90.6	6.7
2025-01-09 06:58:00.280571	60.6	25.0	-90.5	7.5
2025-01-09 06:58:01.439068	60.9	25.1	-90.7	9.0
2025-01-09 06:58:02.601975	61.2	25.2	-90.5	9.5
2025-01-09 06:58:03.769343	61.5	25.3	-90.6	8.3
2025-01-09 06:58:04.926900	61.8	25.4	-90.9	6.6
2025-01-09 06:58:06.091673	62.1	25.5	-90.9	6.1
2025-01-09 06:58:07.250945	62.4	25.5	-90.5	2.3
2025-01-09 06:58:08.416040	62.7	25.6	-90.5	3.3
2025-01-09 06:58:09.579844	63.1	25.7	-90.5	3.8
2025-01-09 06:58:10.742181	63.4	25.8	-90.4	1.8
2025-01-09 06:58:11.907455	63.7	25.9	-90.3	2.9
2025-01-09 06:58:13.071427	64.0	25.9	-90.2	2.6
2025-01-09 06:58:14.232688	64.3	26.0	-89.3	1.8
2025-01-09 06:58:15.396494	64.6	26.1	-90.7	2.1
2025-01-09 06:58:16.564282	64.9	26.2	-90.5	3.4
2025-01-09 06:58:17.729999	65.3	26.2	-90.7	5.5
2025-01-09 06:58:18.893169	65.6	26.3	-90.7	6.2
2025-01-09 06:58:20.057179	65.9	26.4	-90.2	4.8
2025-01-09 06:58:21.220466	66.2	26.5	-90.2	3.6
2025-01-09 06:58:22.377852	66.6	26.5	-90.3	3.9
2025-01-09 06:58:23.542166	66.9	26.6	-90.1	2.7
2025-01-09 06:58:24.712180	67.2	26.7	-90.1	1.5
2025-01-09 06:58:25.875972	67.6	26.7	-90.2	1.7
2025-01-09 06:58:27.049721	67.9	26.8	-90.5	1.7
2025-01-09 06:58:28.217619	68.2	26.9	-90.2	2.1
2025-01-09 06:58:29.376515	68.6	26.9	-90.5	0.1
2025-01-09 06:58:30.542383	68.9	27.0	-90.4	3.2
2025-01-09 06:58:31.710264	69.2	27.1	-90.4	3.3
2025-01-09 06:58:32.873226	69.6	27.1	-88.1	2.0
2025-01-09 06:58:34.034469	69.9	27.2	-90.4	2.8
2025-01-09 06:58:35.198539	70.3	27.3	-90.7	2.9
2025-01-09 06:58:36.373573	70.6	27.3	-90.4	3.1
2025-01-09 06:58:37.529139	70.9	27.4	-90.6	4.6
2025-01-09 06:58:38.650787	71.3	27.4	-90.3	0.9
2025-01-09 06:58:39.771955	71.6	27.5	-90.6	3.0
2025-01-09 06:58:40.893155	71.9	27.6	-90.5	1.8
2025-01-09 06:58:42.013399	72.3	27.6	-90.6	2.8
2025-01-09 06:58:43.134332	72.6	27.7	-90.1	1.9
2025-01-09 06:58:44.255385	73.0	27.7	-90.0	3.3
2025-01-09 06:58:45.380485	73.3	27.8	-90.2	3.7
2025-01-09 06:58:46.523844	73.6	27.8	-90.3	3.4
2025-01-09 06:58:47.683768	74.0	27.9	-90.6	2.0
2025-01-09 06:58:48.848395	74.4	27.9	-90.5	1.1
2025-01-09 06:58:50.014205	74.7	28.0	-90.4	4.7
2025-01-09 06:58:51.178077	75.1	28.0	-90.0	3.5
2025-01-09 06:58:52.343882	75.4	28.1	-90.5	5.2
2025-01-09 06:58:53.503081	75.8	28.1	-89.9	7.1
2025-01-09 06:58:54.665788	76.2	28.2	-90.1	7.3
2025-01-09 06:58:55.829156	76.5	28.2	-89.9	9.4
2025-01-09 06:58:56.992711	76.9	28.3	-91.0	7.6
2025-01-09 06:58:58.158076	77.2	28.3	-90.3	6.8
2025-01-09 06:58:59.319521	77.6	28.3	-90.2	7.2
2025-01-09 06:59:00.461958	78.0	28.4	-90.3	7.9
2025-01-09 06:59:01.625700	78.3	28.4	-90.7	8.1
2025-01-09 06:59:02.794763	78.7	28.5	-90.6	6.6
2025-01-09 06:59:03.955526	79.1	28.5	-90.4	6.8
2025-01-09 06:59:05.123352	79.4	28.5	-89.8	8.5
2025-01-09 06:59:06.286792	79.8	28.6	-90.1	2.7
2025-01-09 06:59:07.455298	80.2	28.6	-90.6	7.3
2025-01-09 06:59:08.618270	80.6	28.6	-90.7	9.2
2025-01-09 06:59:09.781590	80.9	28.6	-89.9	4.9
2025-01-09 06:59:10.946315	81.3	28.7	-90.6	7.1
2025-01-09 06:59:12.110763	81.7	28.7	-90.3	9.1
2025-01-09 06:59:13.278548	82.1	28.7	-90.4	7.3
2025-01-09 06:59:14.442747	82.4	28.8	-90.8	10.9
2025-01-09 06:59:15.604635	82.8	28.8	-89.0	10.8
2025-01-09 06:59:16.765558	83.2	28.8	-90.1	11.5
2025-01-09 06:59:17.928400	83.6	28.8	-90.5	13.4
2025-01-09 06:59:19.096793	83.9	28.8	-90.2	12.8
2025-01-09 06:59:20.259861	84.3	28.9	-90.2	12.4
2025-01-09 06:59:21.420492	84.7	28.9	-90.7	12.6
2025-01-09 06:59:22.584765	85.1	28.9	-90.5	11.6
2025-01-09 06:59:23.752022	85.4	28.9	-90.6	11.1
2025-01-09 06:59:24.916875	85.8	28.9	-91.1	11.5
2025-01-09 06:59:26.083845	86.2	28.9	-90.9	8.3
2025-01-09 06:59:27.251307	86.6	28.9	-90.7	5.7
2025-01-09 06:59:28.422269	87.0	28.9	-90.9	6.8
2025-01-09 06:59:29.583676	87.3	29.0	-91.1	6.1
2025-01-09 06:59:30.737082	87.7	29.0	-91.2	3.8
2025-01-09 06:59:31.900699	88.1	29.0	-90.9	4.0
2025-01-09 06:59:33.062010	88.5	29.0	-90.7	5.6
2025-01-09 06:59:34.229892	88.9	29.0	-90.1	3.3
2025-01-09 06:59:35.394730	89.2	29.0	-90.5	1.8
2025-01-09 06:59:36.562230	89.6	29.0	-90.6	4.1
2025-01-09 06:59:37.729836	90.0	29.0	-90.5	3.8
2025-01-09 06:59:38.888941	90.4	29.0	-90.3	4.7
2025-01-09 06:59:40.045368	90.8	29.0	-90.6	5.1
2025-01-09 06:59:41.207755	91.1	29.0	-89.8	3.2
2025-01-09 06:59:42.376224	91.5	28.9	-90.7	6.2
2025-01-09 06:59:43.536660	91.9	28.9	-91.0	5.1
2025-01-09 06:59:44.703479	92.3	28.9	-91.3	3.7
2025-01-09 06:59:45.861770	92.7	28.9	-91.0	3.4
2025-01-09 06:59:47.020744	93.0	28.9	-88.4	3.6
2025-01-09 06:59:48.186068	93.4	28.9	-88.8	3.3
2025-01-09 06:59:49.347964	93.8	28.9	-91.0	5.5
2025-01-09 06:59:50.508280	94.2	28.9	-91.1	9.7
2025-01-09 06:59:51.672544	94.5	28.8	-91.3	6.7
2025-01-09 06:59:52.831573	94.9	28.8	-90.7	6.0
2025-01-09 06:59:53.992929	95.3	28.8	-91.2	8.8
2025-01-09 06:59:55.158247	95.7	28.8	-89.9	9.9
2025-01-09 06:59:56.320348	96.0	28.8	-91.1	10.6
2025-01-09 06:59:57.487793	96.4	28.7	-91.0	10.5
2025-01-09 06:59:58.652682	96.8	28.7	-91.4	10.3
2025-01-09 06:59:59.814609	97.2	28.7	-91.3	8.5
2025-01-09 07:00:00.959070	97.5	28.6	-91.1	7.4
2025-01-09 07:00:02.111778	97.9	28.6	-91.2	6.4
2025-01-09 07:00:03.269091	98.3	28.6	-90.9	7.8
2025-01-09 07:00:04.433572	98.6	28.6	-91.1	10.4
2025-01-09 07:00:05.597518	99.0	28.5	-91.0	11.3
2025-01-09 07:00:06.757703	99.4	28.5	-90.7	9.4
2025-01-09 07:00:07.918266	99.8	28.5	-91.0	9.9
2025-01-09 07:00:09.082763	100.1	28.4	-90.8	7.7
2025-01-09 07:00:10.247749	100.5	28.4	-89.9	8.5
2025-01-09 07:00:11.405704	100.9	28.3	-90.7	8.9
2025-01-09 07:00:12.567294	101.2	28.3	-91.2	8.6
2025-01-09 07:00:13.730561	101.6	28.3	-91.2	7.3
2025-01-09 07:00:14.887430	101.9	28.2	-91.1	3.8
2025-01-09 07:00:16.045418	102.3	28.2	-91.1	4.6
2025-01-09 07:00:17.210583	102.7	28.1	-91.1	5.0
2025-01-09 07:00:18.375852	103.0	28.1	-91.1	7.3
2025-01-09 07:00:19.539230	103.4	28.0	-90.8	8.2
2025-01-09 07:00:20.693723	103.7	28.0	-91.6	7.3
2025-01-09 07:00:21.850720	104.1	27.9	-91.1	8.1
2025-01-09 07:00:23.009080	104.5	27.9	-90.9	8.8
2025-01-09 07:00:24.169394	104.8	27.8	-91.1	8.5
2025-01-09 07:00:25.334437	105.2	27.8	-91.2	6.2
2025-01-09 07:00:26.497661	105.5	27.7	-91.2	7.5
2025-01-09 07:00:27.661765	105.9	27.7	-91.2	5.4
2025-01-09 07:00:28.826540	106.2	27.6	-91.2	9.3
2025-01-09 07:00:29.986879	106.6	27.6	-91.0	7.9
2025-01-09 07:00:31.144839	106.9	27.5	-90.6	8.1
2025-01-09 07:00:32.311712	107.3	27.4	-90.8	6.7
2025-01-09 07:00:33.470350	107.6	27.4	-91.3	5.3
2025-01-09 07:00:34.633560	108.0	27.3	-91.5	9.5
2025-01-09 07:00:35.797103	108.3	27.3	-91.5	8.8
2025-01-09 07:00:36.964988	108.6	27.2	-91.3	6.6
2025-01-09 07:00:38.127927	109.0	27.1	-90.8	4.3
2025-01-09 07:00:39.290085	109.3	27.1	-91.0	5.3
2025-01-09 07:00:40.452254	109.7	27.0	-91.2	3.2
2025-01-09 07:00:41.615585	110.0	26.9	-91.1	6.5
2025-01-09 07:00:42.782498	110.3	26.9	-91.1	3.5
2025-01-09 07:00:43.940888	110.7	26.8	-91.3	3.7
2025-01-09 07:00:45.098022	111.0	26.7	-91.1	2.7
2025-01-09 07:00:46.259877	111.3	26.7	-91.2	3.1
2025-01-09 07:00:47.425146	111.7	26.6	-91.3	3.3
2025-01-09 07:00:48.590719	112.0	26.5	-91.0	1.8
2025-01-09 07:00:49.756554	112.3	26.4	-91.1	5.2
2025-01-09 07:00:50.913795	112.6	26.4	-90.9	2.8
2025-01-09 07:00:52.081171	113.0	26.3	-90.9	2.4
2025-01-09 07:00:53.243445	113.3	26.2	-90.7	1.5
2025-01-09 07:00:54.402899	113.6	26.1	-90.7	2.3
2025-01-09 07:00:55.570476	113.9	26.1	-91.4	4.9
2025-01-09 07:00:56.734759	114.2	26.0	-91.5	4.3
2025-01-09 07:00:57.897455	114.6	25.9	-91.1	5.6
2025-01-09 07:00:59.056445	114.9	25.8	-90.7	5.9
2025-01-09 07:01:00.212127	115.2	25.8	-90.8	6.4
2025-01-09 07:01:01.357212	115.5	25.7	-90.2	7.2
2025-01-09 07:01:02.522231	115.8	25.6	-90.7	5.8
2025-01-09 07:01:03.683040	116.1	25.5	-90.9	9.4
2025-01-09 07:01:04.849995	116.4	25.4	-90.7	8.8
2025-01-09 07:01:06.014027	116.7	25.4	-91.3	6.1
2025-01-09 07:01:07.178191	117.0	25.3	-90.6	6.1
2025-01-09 07:01:08.342351	117.3	25.2	-90.5	5.7
2025-01-09 07:01:09.498015	117.6	25.1	-89.0	4.4
2025-01-09 07:01:10.661609	117.9	25.0	-90.4	5.6
2025-01-09 07:01:11.825636	118.2	24.9	-90.8	5.1
2025-01-09 07:01:12.989101	118.5	24.9	-90.3	4.0
2025-01-09 07:01:14.147860	118.8	24.8	-90.3	2.6
2025-01-09 07:01:15.308548	119.1	24.7	-90.7	4.6
2025-01-09 07:01:16.472917	119.4	24.6	-91.1	3.3
2025-01-09 07:01:17.644954	119.7	24.5	-91.4	4.0
2025-01-09 07:01:18.810876	120.0	24.4	-91.4	5.8
2025-01-09 07:01:19.979468	120.3	24.3	-90.6	3.2
2025-01-09 07:01:21.137517	120.5	24.2	-91.0	5.4
2025-01-09 07:01:22.311139	120.8	24.2	-90.8	9.3
2025-01-09 07:01:23.471219	121.1	24.1	-91.4	5.7
2025-01-09 07:01:24.639702	121.4	24.0	-91.3	7.4
2025-01-09 07:01:25.806276	121.7	23.9	-91.3	10.0
2025-01-09 07:01:26.970131	122.0	23.8	-91.1	6.2
2025-01-09 07:01:28.136205	122.2	23.7	-90.7	6.4
2025-01-09 07:01:29.302894	122.5	23.6	-90.7	6.5
2025-01-09 07:01:30.466166	122.8	23.5	-91.3	6.8
2025-01-09 07:01:31.633166	123.0	23.4	-91.3	7.2
2025-01-09 07:01:32.794349	123.3	23.3	-91.0	6.9
2025-01-09 07:01:33.960504	123.6	23.2	-91.0	6.0
2025-01-09 07:01:35.129913	123.9	23.2	-90.9	5.9
2025-01-09 07:01:36.282500	124.1	23.1	-90.5	5.8
2025-01-09 07:01:37.448827	124.4	23.0	-90.8	5.9
2025-01-09 07:01:38.609932	124.6	22.9	-91.0	8.7
2025-01-09 07:01:39.777559	124.9	22.8	-91.2	9.1
2025-01-09 07:01:40.933665	125.2	22.7	-90.9	11.0
2025-01-09 07:01:42.099967	125.4	22.6	-90.5	9.5
2025-01-09 07:01:43.262451	125.7	22.5	-88.8	8.9
2025-01-09 07:01:44.427637	125.9	22.4	-90.5	8.1
2025-01-09 07:01:45.589665	126.2	22.3	-90.6	7.7
2025-01-09 07:01:46.749435	126.4	22.2	-90.5	11.3
2025-01-09 07:01:47.916820	126.7	22.1	-90.7	8.3
2025-01-09 07:01:49.076541	126.9	22.0	-90.0	8.1
2025-01-09 07:01:50.237810	127.2	21.9	-90.5	11.4
2025-01-09 07:01:51.398538	127.4	21.8	-90.1	8.0
2025-01-09 07:01:52.563975	127.7	21.7	-89.9	6.4
2025-01-09 07:01:53.736626	127.9	21.6	-90.8	10.6
2025-01-09 07:01:54.904486	128.2	21.5	-91.0	6.5
2025-01-09 07:01:56.069489	128.4	21.4	-90.3	4.4
2025-01-09 07:01:57.234312	128.6	21.3	-90.9	12.4
2025-01-09 07:01:58.397928	128.9	21.2	-90.3	8.8
2025-01-09 07:01:59.565659	129.1	21.1	-90.6	6.7
2025-01-09 07:02:00.719079	129.3	21.0	-90.9	13.0
2025-01-09 07:02:01.883263	129.6	21.0	-91.1	11.3
2025-01-09 07:02:03.051376	129.8	20.9	-91.0	9.0
2025-01-09 07:02:04.211366	130.0	20.8	-90.9	13.3
2025-01-09 07:02:05.378848	130.3	20.7	-90.6	10.1
2025-01-09 07:02:06.546838	130.5	20.6	-90.8	9.7
2025-01-09 07:02:07.711319	130.7	20.5	-90.7	11.5
2025-01-09 07:02:08.875623	130.9	20.4	-90.7	11.4
2025-01-09 07:02:10.037455	131.2	20.3	-90.5	11.6
2025-01-09 07:02:11.198828	131.4	20.2	-91.0	11.6
2025-01-09 07:02:12.362890	131.6	20.1	-91.0	12.6
2025-01-09 07:02:13.526381	131.8	20.0	-90.5	10.7
2025-01-09 07:02:14.687987	132.0	19.9	-91.3	10.1
2025-01-09 07:02:15.852031	132.2	19.8	-90.9	10.5
2025-01-09 07:02:17.018523	132.5	19.7	-90.3	7.1
2025-01-09 07:02:18.178301	132.7	19.6	-89.9	10.1
2025-01-09 07:02:19.344876	132.9	19.5	-90.0	10.8
2025-01-09 07:02:20.506042	133.1	19.4	-90.5	5.8
2025-01-09 07:02:21.668427	133.3	19.3	-90.8	11.0
2025-01-09 07:02:22.833141	133.5	19.2	-90.8	10.0
2025-01-09 07:02:23.992839	133.7	19.1	-90.3	5.6
2025-01-09 07:02:25.160293	133.9	19.0	-90.3	9.7
2025-01-09 07:02:26.322675	134.1	18.9	-90.3	8.8
2025-01-09 07:02:27.482205	134.3	18.8	-90.7	8.0
2025-01-09 07:02:28.645201	134.5	18.7	-90.7	9.2
2025-01-09 07:02:29.804501	134.7	18.6	-89.4	8.7
2025-01-09 07:02:30.965886	134.9	18.5	-89.7	8.5
2025-01-09 07:02:32.133693	135.1	18.4	-89.8	8.6
2025-01-09 07:02:33.297524	135.3	18.3	-89.9	9.5
2025-01-09 07:02:34.460706	135.5	18.2	-89.9	6.2
2025-01-09 07:02:35.624359	135.7	18.1	-90.6	8.7
2025-01-09 07:02:36.791739	135.9	18.0	-90.6	10.1
2025-01-09 07:02:37.953727	136.1	17.9	-90.5	5.1
2025-01-09 07:02:39.114531	136.3	17.8	-90.0	6.5
2025-01-09 07:02:40.279985	136.5	17.7	-89.2	6.2
2025-01-09 07:02:41.438983	136.7	17.6	-91.0	5.9
2025-01-09 07:02:42.605543	136.9	17.5	-91.4	4.7
2025-01-09 07:02:43.735202	137.0	17.4	-91.1	8.2
2025-01-09 07:02:44.890708	137.2	17.3	-91.0	3.7
2025-01-09 07:02:46.049553	137.4	17.2	-91.1	3.5
2025-01-09 07:02:47.212319	137.6	17.2	-91.0	6.1
2025-01-09 07:02:48.376639	137.8	17.1	-91.0	4.9
2025-01-09 07:02:49.541316	138.0	17.0	-91.0	2.7
2025-01-09 07:02:50.702476	138.1	16.9	-91.2	4.0
2025-01-09 07:02:51.870018	138.3	16.8	-91.2	3.6
2025-01-09 07:02:53.031227	138.5	16.7	-91.1	2.9
2025-01-09 07:02:54.191863	138.7	16.6	-90.7	2.8
2025-01-09 07:02:55.351772	138.8	16.5	-88.7	2.3
2025-01-09 07:02:56.513687	139.0	16.4	-90.5	3.0
2025-01-09 07:02:57.672203	139.2	16.3	-89.6	1.9
2025-01-09 07:02:58.840110	139.4	16.2	-90.7	3.1
2025-01-09 07:03:00.005193	139.5	16.1	-91.0	3.0
2025-01-09 07:03:01.148534	139.7	16.0	-90.2	1.1
2025-01-09 07:03:02.315174	139.9	15.9	-91.0	2.3
2025-01-09 07:03:03.474562	140.0	15.8	-88.5	2.7
2025-01-09 07:03:04.639251	140.2	15.7	-88.1	2.7
2025-01-09 07:03:05.803212	140.4	15.6	-88.7	3.3
2025-01-09 07:03:06.964543	140.5	15.5	-91.0	1.2
2025-01-09 07:03:08.126987	140.7	15.4	-91.4	0.8
2025-01-09 07:03:09.295064	140.9	15.3	-90.7	3.4
2025-01-09 07:03:10.456358	141.0	15.2	-91.2	2.5
2025-01-09 07:03:11.619764	141.2	15.2	-91.2	3.0
2025-01-09 07:03:12.784266	141.3	15.1	-91.4	2.5
2025-01-09 07:03:13.947550	141.5	15.0	-91.2	2.8
2025-01-09 07:03:15.107772	141.7	14.9	-90.7	4.3
2025-01-09 07:03:16.274749	141.8	14.8	-91.2	4.3
2025-01-09 07:03:17.438904	142.0	14.7	-90.9	3.7
2025-01-09 07:03:18.588407	142.1	14.6	-90.5	2.2
#Closed at: 2025-01-09 06:56:01.862895