passes_logs/2025/01/09/LEX_Murmansk/LEX_Murmansk__20250109_122432_NOAA_18_rec.log

#Pass ID: 20250109_122432_NOAA 18
#Satellite: NOAA 18
#Configuration: NOAA 18
#Start time: 2025-01-09 12:24:27.819391

#LorettStation: 1.0.0 05.05.2024
#Station: LEX_Murmansk
#Location: 33.156738 lon 68.926811 lat
#TLE: 1 28654U 05018A   25008.86276551  .00000342  00000+0  20484-3 0  9993
#TLE: 2 28654  98.8578  89.9777 0014066 196.4292 163.6427 14.13481270 12237

#Time	Az	El	Level	SNR
2025-01-09 12:24:39.990046	24.2	16.1	-81.0	8.1
2025-01-09 12:24:41.146143	24.0	16.2	-81.0	6.6
2025-01-09 12:24:42.306543	23.9	16.3	-81.2	6.2
2025-01-09 12:24:43.472451	23.7	16.4	-81.2	6.5
2025-01-09 12:24:44.639310	23.6	16.5	-81.1	6.6
2025-01-09 12:24:45.803900	23.4	16.6	-81.2	6.7
2025-01-09 12:24:46.967041	23.3	16.7	-81.2	8.4
2025-01-09 12:24:48.131600	23.2	16.8	-80.5	7.1
2025-01-09 12:24:49.298095	23.0	16.9	-80.8	9.4
2025-01-09 12:24:50.462708	22.9	17.0	-80.6	4.9
2025-01-09 12:24:51.625428	22.7	17.1	-80.7	8.4
2025-01-09 12:24:52.784439	22.5	17.2	-80.7	5.8
2025-01-09 12:24:53.945477	22.4	17.3	-81.6	7.1
2025-01-09 12:24:55.110918	22.2	17.5	-80.6	5.6
2025-01-09 12:24:56.273727	22.1	17.6	-80.6	6.3
2025-01-09 12:24:57.433237	21.9	17.7	-80.5	5.9
2025-01-09 12:24:58.587366	21.8	17.8	-80.8	4.5
2025-01-09 12:24:59.752360	21.6	17.9	-80.4	5.9
2025-01-09 12:25:00.894659	21.5	18.0	-80.8	5.7
2025-01-09 12:25:02.056828	21.3	18.1	-80.8	6.9
2025-01-09 12:25:03.217837	21.1	18.2	-80.6	6.3
2025-01-09 12:25:04.379053	21.0	18.3	-80.6	5.5
2025-01-09 12:25:05.543959	20.8	18.4	-80.5	7.1
2025-01-09 12:25:06.708542	20.6	18.5	-80.3	10.0
2025-01-09 12:25:07.871165	20.5	18.7	-80.4	8.9
2025-01-09 12:25:09.031110	20.3	18.8	-80.2	6.2
2025-01-09 12:25:10.195565	20.1	18.9	-80.4	8.1
2025-01-09 12:25:11.355125	20.0	19.0	-80.3	7.2
2025-01-09 12:25:12.519009	19.8	19.1	-81.6	7.1
2025-01-09 12:25:13.684926	19.6	19.2	-80.7	6.4
2025-01-09 12:25:14.845258	19.4	19.3	-80.3	7.7
2025-01-09 12:25:16.006650	19.3	19.4	-80.4	7.5
2025-01-09 12:25:17.166963	19.1	19.5	-80.2	7.0
2025-01-09 12:25:18.323237	18.9	19.6	-80.3	7.9
2025-01-09 12:25:19.488179	18.7	19.8	-80.6	8.6
2025-01-09 12:25:20.645397	18.5	19.9	-80.4	8.2
2025-01-09 12:25:21.806815	18.4	20.0	-80.1	6.8
2025-01-09 12:25:22.974728	18.2	20.1	-80.5	9.7
2025-01-09 12:25:24.147632	18.0	20.2	-80.8	8.0
2025-01-09 12:25:25.311334	17.8	20.3	-80.6	8.2
2025-01-09 12:25:26.476469	17.6	20.4	-80.6	7.5
2025-01-09 12:25:27.645335	17.4	20.6	-80.2	6.7
2025-01-09 12:25:28.804724	17.2	20.7	-80.9	5.6
2025-01-09 12:25:29.970548	17.0	20.8	-80.6	6.9
2025-01-09 12:25:31.128739	16.8	20.9	-80.9	6.8
2025-01-09 12:25:32.292730	16.6	21.0	-81.0	6.1
2025-01-09 12:25:33.455123	16.4	21.1	-81.3	7.2
2025-01-09 12:25:34.620035	16.2	21.2	-81.0	7.3
2025-01-09 12:25:35.784261	16.0	21.4	-81.1	7.1
2025-01-09 12:25:36.950229	15.8	21.5	-81.1	5.7
2025-01-09 12:25:38.118579	15.6	21.6	-81.1	6.9
2025-01-09 12:25:39.274949	15.4	21.7	-81.0	7.4
2025-01-09 12:25:40.439209	15.2	21.8	-81.3	6.9
2025-01-09 12:25:41.595298	15.0	21.9	-81.1	7.9
2025-01-09 12:25:42.755864	14.8	22.0	-81.0	7.0
2025-01-09 12:25:43.920190	14.6	22.2	-81.1	7.9
2025-01-09 12:25:45.079553	14.4	22.3	-81.2	4.6
2025-01-09 12:25:46.235373	14.2	22.4	-81.8	5.5
2025-01-09 12:25:47.400018	13.9	22.5	-81.7	7.9
2025-01-09 12:25:48.555649	13.7	22.6	-81.5	5.6
2025-01-09 12:25:49.724513	13.5	22.7	-82.0	6.0
2025-01-09 12:25:50.890596	13.3	22.8	-82.0	10.0
2025-01-09 12:25:52.051025	13.1	23.0	-82.0	8.0
2025-01-09 12:25:53.213131	12.8	23.1	-81.8	5.0
2025-01-09 12:25:54.371181	12.6	23.2	-81.7	6.8
2025-01-09 12:25:55.526595	12.4	23.3	-81.6	10.5
2025-01-09 12:25:56.685994	12.2	23.4	-81.6	8.2
2025-01-09 12:25:57.855385	11.9	23.5	-81.4	6.9
2025-01-09 12:25:59.010500	11.7	23.7	-82.1	4.0
2025-01-09 12:26:00.170821	11.5	23.8	-81.6	5.6
2025-01-09 12:26:01.317354	11.2	23.9	-81.4	7.3
2025-01-09 12:26:02.479794	11.0	24.0	-81.7	5.5
2025-01-09 12:26:03.638091	10.7	24.1	-81.8	6.4
2025-01-09 12:26:04.803889	10.5	24.2	-81.9	7.1
2025-01-09 12:26:05.963525	10.3	24.3	-81.9	3.6
2025-01-09 12:26:07.124435	10.0	24.5	-81.4	6.6
2025-01-09 12:26:08.287972	9.8	24.6	-81.4	6.8
2025-01-09 12:26:09.447173	9.5	24.7	-82.0	6.9
2025-01-09 12:26:10.608375	9.3	24.8	-82.5	6.8
2025-01-09 12:26:11.765958	9.0	24.9	-82.5	6.2
2025-01-09 12:26:12.929791	8.8	25.0	-82.2	6.7
2025-01-09 12:26:14.097382	8.5	25.2	-82.2	5.8
2025-01-09 12:26:15.258107	8.2	25.3	-81.9	7.7
2025-01-09 12:26:16.422838	8.0	25.4	-81.4	6.7
2025-01-09 12:26:17.588714	7.7	25.5	-81.5	7.3
2025-01-09 12:26:18.752490	7.5	25.6	-81.9	7.4
2025-01-09 12:26:19.922349	7.2	25.7	-81.7	8.3
2025-01-09 12:26:21.082246	6.9	25.8	-81.7	6.1
2025-01-09 12:26:22.245855	6.7	26.0	-81.7	7.9
2025-01-09 12:26:23.411115	6.4	26.1	-81.5	5.8
2025-01-09 12:26:24.576699	6.1	26.2	-81.5	8.6
2025-01-09 12:26:25.744636	5.8	26.3	-81.3	6.6
2025-01-09 12:26:26.906994	5.6	26.4	-81.7	7.8
2025-01-09 12:26:28.073951	5.3	26.5	-81.9	6.4
2025-01-09 12:26:29.239307	5.0	26.6	-81.6	8.7
2025-01-09 12:26:30.399960	4.7	26.7	-81.8	6.9
2025-01-09 12:26:31.544346	4.4	26.9	-82.1	7.0
2025-01-09 12:26:32.704236	4.1	27.0	-82.0	6.5
2025-01-09 12:26:33.865638	3.8	27.1	-81.4	6.4
2025-01-09 12:26:35.032594	3.6	27.2	-81.4	7.9
2025-01-09 12:26:36.195617	3.3	27.3	-81.7	7.5
2025-01-09 12:26:37.364413	3.0	27.4	-81.7	7.8
2025-01-09 12:26:38.529329	2.7	27.5	-81.7	7.0
2025-01-09 12:26:39.692802	2.4	27.6	-81.5	8.1
2025-01-09 12:26:40.856641	2.1	27.7	-81.4	6.8
2025-01-09 12:26:42.018073	1.8	27.8	-81.2	9.8
2025-01-09 12:26:43.182559	1.4	27.9	-81.2	7.8
2025-01-09 12:26:44.342665	1.1	28.0	-81.7	5.2
2025-01-09 12:26:45.506588	0.8	28.2	-82.2	6.4
2025-01-09 12:26:46.666411	0.5	28.3	-81.8	6.2
2025-01-09 12:26:47.828343	0.2	28.4	-81.4	8.3
2025-01-09 12:26:48.988831	359.9	28.5	-81.2	7.8
2025-01-09 12:26:50.155353	359.6	28.6	-81.1	4.7
2025-01-09 12:26:51.311402	359.2	28.7	-81.0	5.7
2025-01-09 12:26:52.472944	358.9	28.8	-81.7	6.4
2025-01-09 12:26:53.634285	358.6	28.9	-81.6	8.8
2025-01-09 12:26:54.794994	358.3	29.0	-82.4	6.6
2025-01-09 12:26:55.950095	357.9	29.1	-81.5	6.1
2025-01-09 12:26:57.111634	357.6	29.2	-81.7	7.7
2025-01-09 12:26:58.269078	357.3	29.3	-81.0	7.4
2025-01-09 12:26:59.433166	356.9	29.4	-81.2	6.5
2025-01-09 12:27:00.581351	356.6	29.5	-81.1	8.5
2025-01-09 12:27:01.742569	356.3	29.6	-81.4	9.2
2025-01-09 12:27:02.915198	355.9	29.7	-81.8	7.3
2025-01-09 12:27:04.071497	355.6	29.8	-81.6	7.5
2025-01-09 12:27:05.237657	355.2	29.9	-81.8	5.9
2025-01-09 12:27:06.402312	354.9	29.9	-81.7	7.4
2025-01-09 12:27:07.567268	354.5	30.0	-81.5	7.8
2025-01-09 12:27:08.729871	354.2	30.1	-80.8	8.8
2025-01-09 12:27:09.888229	353.8	30.2	-81.2	7.5
2025-01-09 12:27:11.050680	353.5	30.3	-81.6	8.7
2025-01-09 12:27:12.212882	353.1	30.4	-81.2	6.0
2025-01-09 12:27:13.383896	352.8	30.5	-82.0	7.1
2025-01-09 12:27:14.541193	352.4	30.6	-81.3	7.7
2025-01-09 12:27:15.705824	352.0	30.7	-81.4	10.6
2025-01-09 12:27:16.873036	351.7	30.7	-81.7	8.9
2025-01-09 12:27:18.049034	351.3	30.8	-81.7	7.6
2025-01-09 12:27:19.213219	350.9	30.9	-81.5	7.5
2025-01-09 12:27:20.375268	350.6	31.0	-81.6	8.5
2025-01-09 12:27:21.542564	350.2	31.1	-82.0	4.6
2025-01-09 12:27:22.704320	349.8	31.1	-82.1	10.3
2025-01-09 12:27:23.862401	349.4	31.2	-81.7	10.2
2025-01-09 12:27:25.020559	349.1	31.3	-82.8	6.5
2025-01-09 12:27:26.186785	348.7	31.4	-81.9	7.4
2025-01-09 12:27:27.347033	348.3	31.5	-81.6	7.3
2025-01-09 12:27:28.512192	347.9	31.5	-81.7	6.8
2025-01-09 12:27:29.674100	347.5	31.6	-81.5	6.8
2025-01-09 12:27:30.842530	347.1	31.7	-81.6	6.8
2025-01-09 12:27:32.001518	346.7	31.7	-81.5	5.9
2025-01-09 12:27:33.159418	346.4	31.8	-81.5	9.2
2025-01-09 12:27:34.318774	346.0	31.9	-81.7	8.6
2025-01-09 12:27:35.480980	345.6	31.9	-81.4	9.4
2025-01-09 12:27:36.643907	345.2	32.0	-81.5	7.6
2025-01-09 12:27:37.804319	344.8	32.1	-81.6	10.5
2025-01-09 12:27:38.962135	344.4	32.1	-81.5	10.0
2025-01-09 12:27:40.115966	344.0	32.2	-81.1	8.3
2025-01-09 12:27:41.284336	343.6	32.2	-81.5	7.2
2025-01-09 12:27:42.443910	343.2	32.3	-81.5	7.4
2025-01-09 12:27:43.605042	342.8	32.3	-81.6	6.3
2025-01-09 12:27:44.765804	342.4	32.4	-81.3	7.7
2025-01-09 12:27:45.928021	342.0	32.4	-81.7	9.7
2025-01-09 12:27:47.091120	341.6	32.5	-82.3	6.9
2025-01-09 12:27:48.254091	341.1	32.5	-81.6	6.8
2025-01-09 12:27:49.420811	340.7	32.6	-81.9	9.1
2025-01-09 12:27:50.585659	340.3	32.6	-81.9	5.8
2025-01-09 12:27:51.752924	339.9	32.7	-81.6	6.1
2025-01-09 12:27:52.911694	339.5	32.7	-81.4	6.0
2025-01-09 12:27:54.076015	339.1	32.8	-81.5	5.7
2025-01-09 12:27:55.237664	338.7	32.8	-81.5	8.8
2025-01-09 12:27:56.402653	338.2	32.8	-81.6	10.4
2025-01-09 12:27:57.567512	337.8	32.9	-81.5	10.2
2025-01-09 12:27:58.726835	337.4	32.9	-81.7	6.4
2025-01-09 12:27:59.890695	337.0	32.9	-82.0	9.1
2025-01-09 12:28:01.039855	336.6	33.0	-82.1	5.8
2025-01-09 12:28:02.201448	336.2	33.0	-81.9	5.1
2025-01-09 12:28:03.364005	335.7	33.0	-81.9	10.0
2025-01-09 12:28:04.532768	335.3	33.0	-82.2	5.7
2025-01-09 12:28:05.701361	334.9	33.1	-81.4	8.5
2025-01-09 12:28:06.867248	334.5	33.1	-81.3	9.8
2025-01-09 12:28:08.034575	334.0	33.1	-81.5	7.0
2025-01-09 12:28:09.194263	333.6	33.1	-81.7	5.9
2025-01-09 12:28:10.352913	333.2	33.1	-81.4	6.2
2025-01-09 12:28:11.516283	332.8	33.1	-81.5	7.1
2025-01-09 12:28:12.678451	332.3	33.2	-81.6	8.4
2025-01-09 12:28:13.839589	331.9	33.2	-81.2	6.8
2025-01-09 12:28:15.002535	331.5	33.2	-81.5	6.9
2025-01-09 12:28:16.163072	331.0	33.2	-81.1	7.6
2025-01-09 12:28:17.326916	330.6	33.2	-81.1	8.5
2025-01-09 12:28:18.486245	330.2	33.2	-81.4	6.6
2025-01-09 12:28:19.650829	329.8	33.2	-81.2	7.2
2025-01-09 12:28:20.817082	329.3	33.2	-80.7	5.5
2025-01-09 12:28:21.977693	328.9	33.2	-81.0	7.3
2025-01-09 12:28:23.140042	328.5	33.2	-81.2	8.7
2025-01-09 12:28:24.305049	328.1	33.2	-81.7	8.5
2025-01-09 12:28:25.471091	327.6	33.2	-82.1	7.8
2025-01-09 12:28:26.637113	327.2	33.2	-81.5	8.2
2025-01-09 12:28:27.798927	326.8	33.1	-81.7	9.2
2025-01-09 12:28:28.962986	326.3	33.1	-81.7	7.8
2025-01-09 12:28:30.126456	325.9	33.1	-81.8	6.8
2025-01-09 12:28:31.290962	325.5	33.1	-80.9	6.9
2025-01-09 12:28:32.447253	325.1	33.1	-81.5	8.0
2025-01-09 12:28:33.615112	324.6	33.1	-81.2	7.4
2025-01-09 12:28:34.780360	324.2	33.0	-81.7	9.6
2025-01-09 12:28:35.942923	323.8	33.0	-81.6	6.1
2025-01-09 12:28:37.106642	323.4	33.0	-81.4	7.9
2025-01-09 12:28:38.270880	323.0	33.0	-81.4	6.3
2025-01-09 12:28:39.432926	322.5	32.9	-81.6	9.6
2025-01-09 12:28:40.588852	322.1	32.9	-81.8	6.8
2025-01-09 12:28:41.752456	321.7	32.9	-81.8	6.5
2025-01-09 12:28:42.911580	321.3	32.8	-81.8	8.2
2025-01-09 12:28:44.082281	320.9	32.8	-81.9	5.7
2025-01-09 12:28:45.255083	320.4	32.8	-81.8	8.8
2025-01-09 12:28:46.412908	320.0	32.7	-82.1	11.0
2025-01-09 12:28:47.572831	319.6	32.7	-81.1	8.5
2025-01-09 12:28:48.754296	319.2	32.6	-81.9	11.7
2025-01-09 12:28:49.923765	318.8	32.6	-81.8	7.8
2025-01-09 12:28:51.083184	318.4	32.5	-81.8	7.6
2025-01-09 12:28:52.245820	318.0	32.5	-81.8	7.3
2025-01-09 12:28:53.400956	317.5	32.4	-81.7	7.1
2025-01-09 12:28:54.556569	317.1	32.4	-81.7	7.4
2025-01-09 12:28:55.718290	316.7	32.3	-81.6	9.4
2025-01-09 12:28:56.887410	316.3	32.3	-81.6	7.9
2025-01-09 12:28:58.048945	315.9	32.2	-81.7	6.7
2025-01-09 12:28:59.216003	315.5	32.2	-81.6	9.0
2025-01-09 12:29:00.368515	315.1	32.1	-81.8	8.4
2025-01-09 12:29:01.522465	314.7	32.1	-81.7	6.2
2025-01-09 12:29:02.679496	314.3	32.0	-81.5	8.4
2025-01-09 12:29:03.843148	313.9	31.9	-81.8	8.1
2025-01-09 12:29:05.540737	313.4	31.8	-81.5	8.1
2025-01-09 12:29:06.701306	313.0	31.8	-81.5	9.5
2025-01-09 12:29:07.867064	312.6	31.7	-82.5	8.7
2025-01-09 12:29:09.031561	312.2	31.6	-82.1	6.4
2025-01-09 12:29:10.195929	311.8	31.6	-82.0	8.5
2025-01-09 12:29:11.364839	311.4	31.5	-82.0	6.6
2025-01-09 12:29:12.519891	311.0	31.4	-82.0	5.9
2025-01-09 12:29:13.682373	310.6	31.3	-82.2	8.7
2025-01-09 12:29:14.843731	310.3	31.3	-81.8	7.1
2025-01-09 12:29:16.011588	309.9	31.2	-81.4	6.8
2025-01-09 12:29:17.170609	309.5	31.1	-81.8	7.1
2025-01-09 12:29:18.339705	309.1	31.0	-81.7	9.8
2025-01-09 12:29:19.497587	308.7	30.9	-81.6	8.4
2025-01-09 12:29:20.658966	308.4	30.9	-81.7	8.4
2025-01-09 12:29:21.824060	308.0	30.8	-81.6	7.8
2025-01-09 12:29:22.981409	307.6	30.7	-82.1	6.8
2025-01-09 12:29:24.140277	307.3	30.6	-81.7	5.4
2025-01-09 12:29:25.304802	306.9	30.5	-82.2	9.0
2025-01-09 12:29:26.470184	306.5	30.4	-82.0	5.7
2025-01-09 12:29:27.634051	306.2	30.4	-81.8	7.6
2025-01-09 12:29:28.790988	305.8	30.3	-81.7	9.7
2025-01-09 12:29:29.951350	305.5	30.2	-82.0	7.0
2025-01-09 12:29:31.115249	305.1	30.1	-81.8	9.0
2025-01-09 12:29:32.276037	304.8	30.0	-82.1	9.0
2025-01-09 12:29:33.435161	304.4	29.9	-81.7	5.5
2025-01-09 12:29:34.593868	304.1	29.8	-82.1	6.3
2025-01-09 12:29:35.754069	303.7	29.7	-82.2	7.2
2025-01-09 12:29:36.914562	303.4	29.6	-82.7	7.6
2025-01-09 12:29:38.078653	303.0	29.5	-82.8	12.2
2025-01-09 12:29:39.243826	302.7	29.4	-82.4	10.7
2025-01-09 12:29:40.413522	302.4	29.3	-82.6	7.6
2025-01-09 12:29:41.576791	302.0	29.2	-82.6	8.6
2025-01-09 12:29:42.734570	301.7	29.1	-82.3	7.8
2025-01-09 12:29:43.897897	301.4	29.0	-82.2	9.2
2025-01-09 12:29:45.061593	301.0	28.9	-82.6	5.0
2025-01-09 12:29:46.235484	300.7	28.8	-82.3	7.7
2025-01-09 12:29:47.402440	300.4	28.7	-82.4	6.2
2025-01-09 12:29:48.564044	300.0	28.6	-82.0	7.6
2025-01-09 12:29:49.729926	299.7	28.5	-82.6	6.4
2025-01-09 12:29:50.890810	299.4	28.4	-82.6	8.5
2025-01-09 12:29:52.058268	299.1	28.3	-82.4	8.1
2025-01-09 12:29:53.215173	298.8	28.2	-82.4	8.7
2025-01-09 12:29:54.382772	298.5	28.1	-82.3	8.1
2025-01-09 12:29:55.547451	298.1	28.0	-82.2	9.5
2025-01-09 12:29:56.714337	297.8	27.9	-82.1	7.0
2025-01-09 12:29:57.879691	297.5	27.8	-82.2	6.7
2025-01-09 12:29:59.040130	297.2	27.7	-82.6	5.5
2025-01-09 12:30:00.202204	296.9	27.5	-82.2	6.8
2025-01-09 12:30:01.352045	296.6	27.4	-82.0	6.6
2025-01-09 12:30:02.520656	296.3	27.3	-82.5	7.2
2025-01-09 12:30:03.679623	296.0	27.2	-82.0	6.2
2025-01-09 12:30:04.847090	295.7	27.1	-82.2	7.7
2025-01-09 12:30:06.006145	295.4	27.0	-82.3	7.8
2025-01-09 12:30:07.164738	295.1	26.9	-82.0	7.0
2025-01-09 12:30:08.330919	294.9	26.8	-81.8	5.9
2025-01-09 12:30:09.491973	294.6	26.7	-81.7	7.8
2025-01-09 12:30:10.659453	294.3	26.5	-81.7	7.6
2025-01-09 12:30:11.828709	294.0	26.4	-81.5	5.8
2025-01-09 12:30:12.994305	293.7	26.3	-81.9	7.1
2025-01-09 12:30:14.158916	293.4	26.2	-81.6	5.2
2025-01-09 12:30:15.323554	293.2	26.1	-82.1	6.1
2025-01-09 12:30:16.485619	292.9	26.0	-81.8	7.7
2025-01-09 12:30:17.647875	292.6	25.9	-82.0	8.1
2025-01-09 12:30:18.812689	292.3	25.8	-81.6	7.7
2025-01-09 12:30:19.971506	292.1	25.6	-81.8	7.4
2025-01-09 12:30:21.131022	291.8	25.5	-81.7	3.6
2025-01-09 12:30:22.297197	291.5	25.4	-81.5	7.3
2025-01-09 12:30:23.458842	291.3	25.3	-81.5	7.8
2025-01-09 12:30:24.619176	291.0	25.2	-81.9	7.7
2025-01-09 12:30:25.783928	290.8	25.1	-82.0	6.3
2025-01-09 12:30:26.944928	290.5	24.9	-82.0	6.7
2025-01-09 12:30:28.102766	290.3	24.8	-81.6	5.7
2025-01-09 12:30:29.268100	290.0	24.7	-81.7	8.0
2025-01-09 12:30:30.427959	289.7	24.6	-81.9	7.7
2025-01-09 12:30:31.594615	289.5	24.5	-81.7	8.1
2025-01-09 12:30:32.757868	289.2	24.4	-81.9	7.6
2025-01-09 12:30:33.916960	289.0	24.2	-81.9	6.8
2025-01-09 12:30:35.082704	288.8	24.1	-81.9	7.4
2025-01-09 12:30:36.244133	288.5	24.0	-81.9	7.9
2025-01-09 12:30:37.402603	288.3	23.9	-82.4	8.5
2025-01-09 12:30:38.565120	288.0	23.8	-82.1	7.8
2025-01-09 12:30:39.730734	287.8	23.7	-82.2	6.4
2025-01-09 12:30:40.898119	287.6	23.5	-82.0	4.7
2025-01-09 12:30:42.061922	287.3	23.4	-81.9	6.1
2025-01-09 12:30:43.222009	287.1	23.3	-81.9	6.7
2025-01-09 12:30:44.390389	286.9	23.2	-81.8	5.6
2025-01-09 12:30:45.554060	286.6	23.1	-81.7	4.9
2025-01-09 12:30:46.715076	286.4	23.0	-81.7	7.1
2025-01-09 12:30:47.877991	286.2	22.8	-82.0	7.3
2025-01-09 12:30:49.040670	286.0	22.7	-81.6	6.3
2025-01-09 12:30:50.204782	285.7	22.6	-81.6	5.9
2025-01-09 12:30:51.365910	285.5	22.5	-81.8	8.3
2025-01-09 12:30:52.530999	285.3	22.4	-81.8	6.0
2025-01-09 12:30:53.689666	285.1	22.3	-82.0	7.5
2025-01-09 12:30:54.855982	284.9	22.2	-82.1	8.5
2025-01-09 12:30:56.022827	284.7	22.0	-82.0	9.0
2025-01-09 12:30:57.183262	284.4	21.9	-81.9	5.9
2025-01-09 12:30:58.336300	284.2	21.8	-81.3	7.2
2025-01-09 12:30:59.505014	284.0	21.7	-81.1	7.6
2025-01-09 12:31:00.656278	283.8	21.6	-81.9	6.6
2025-01-09 12:31:01.815469	283.6	21.5	-81.8	8.6
2025-01-09 12:31:02.970959	283.4	21.3	-81.6	7.8
2025-01-09 12:31:04.130120	283.2	21.2	-82.0	7.6
2025-01-09 12:31:05.294320	283.0	21.1	-82.2	5.9
2025-01-09 12:31:06.459379	282.8	21.0	-82.0	8.2
2025-01-09 12:31:07.627873	282.6	20.9	-82.4	6.4
2025-01-09 12:31:08.789936	282.4	20.8	-82.3	7.5
2025-01-09 12:31:09.954820	282.2	20.7	-82.0	7.7
2025-01-09 12:31:11.116355	282.0	20.5	-82.1	7.4
2025-01-09 12:31:12.278882	281.8	20.4	-82.2	6.7
2025-01-09 12:31:13.429888	281.6	20.3	-81.2	6.7
2025-01-09 12:31:14.598155	281.5	20.2	-81.7	6.3
2025-01-09 12:31:15.762691	281.3	20.1	-81.7	4.8
2025-01-09 12:31:16.926991	281.1	20.0	-82.0	8.4
2025-01-09 12:31:18.106827	280.9	19.9	-81.9	8.4
2025-01-09 12:31:19.269736	280.7	19.7	-82.1	5.1
2025-01-09 12:31:20.443703	280.5	19.6	-82.0	6.3
2025-01-09 12:31:21.604458	280.3	19.5	-81.5	6.8
2025-01-09 12:31:22.766367	280.2	19.4	-81.7	6.6
2025-01-09 12:31:23.925077	280.0	19.3	-82.2	6.6
2025-01-09 12:31:25.090601	279.8	19.2	-82.2	8.9
2025-01-09 12:31:26.258030	279.6	19.1	-82.0	7.3
2025-01-09 12:31:27.422364	279.5	19.0	-81.8	8.4
2025-01-09 12:31:28.583437	279.3	18.8	-81.7	7.4
2025-01-09 12:31:29.750810	279.1	18.7	-82.0	8.2
2025-01-09 12:31:30.911789	278.9	18.6	-82.1	9.6
2025-01-09 12:31:32.075789	278.8	18.5	-82.2	8.6
2025-01-09 12:31:33.234693	278.6	18.4	-81.5	6.0
2025-01-09 12:31:34.397905	278.4	18.3	-81.6	8.0
2025-01-09 12:31:35.555847	278.3	18.2	-82.1	6.8
2025-01-09 12:31:36.727286	278.1	18.1	-82.2	6.7
2025-01-09 12:31:37.880191	277.9	18.0	-81.7	8.8
2025-01-09 12:31:39.046220	277.8	17.8	-81.7	7.0
2025-01-09 12:31:40.206792	277.6	17.7	-81.8	6.9
2025-01-09 12:31:41.368177	277.5	17.6	-82.7	8.1
2025-01-09 12:31:42.527961	277.3	17.5	-81.8	5.8
2025-01-09 12:31:43.685507	277.1	17.4	-82.0	7.5
2025-01-09 12:31:44.846849	277.0	17.3	-81.6	7.7
2025-01-09 12:31:46.015025	276.8	17.2	-82.2	7.8
2025-01-09 12:31:47.176266	276.7	17.1	-81.7	8.8
2025-01-09 12:31:48.342027	276.5	17.0	-82.0	7.1
2025-01-09 12:31:49.507468	276.4	16.9	-81.7	8.4
2025-01-09 12:31:50.669208	276.2	16.8	-82.2	6.9
2025-01-09 12:31:51.835655	276.1	16.7	-81.8	5.5
2025-01-09 12:31:52.997283	275.9	16.6	-81.9	8.2
2025-01-09 12:31:54.158763	275.8	16.4	-81.8	8.0
2025-01-09 12:31:55.321747	275.6	16.3	-82.1	5.5
2025-01-09 12:31:56.489867	275.5	16.2	-82.2	7.4
2025-01-09 12:31:57.652717	275.3	16.1	-82.1	8.0
2025-01-09 12:31:58.808116	275.2	16.0	-82.0	6.0
2025-01-09 12:31:59.969662	275.1	15.9	-82.1	5.6
2025-01-09 12:32:01.112396	274.9	15.8	-81.5	6.1
2025-01-09 12:32:02.272432	274.8	15.7	-81.7	6.9
2025-01-09 12:32:03.432352	274.6	15.6	-81.6	6.9
2025-01-09 12:32:04.594026	274.5	15.5	-81.6	7.6
2025-01-09 12:32:05.756437	274.4	15.4	-81.6	6.9
2025-01-09 12:32:06.922473	274.2	15.3	-81.3	8.3
2025-01-09 12:32:08.083076	274.1	15.2	-81.8	5.6
2025-01-09 12:32:09.243861	273.9	15.1	-81.9	6.2
2025-01-09 12:32:10.409090	273.8	15.0	-81.7	6.9
2025-01-09 12:32:11.572364	273.7	14.9	-81.6	8.1
2025-01-09 12:32:12.736767	273.5	14.8	-81.4	6.4
2025-01-09 12:32:13.896993	273.4	14.7	-81.3	7.0
2025-01-09 12:32:15.064996	273.3	14.6	-81.9	8.4
#Closed at: 2025-01-09 12:24:32.763373