passes_logs/2025/01/09/LEX_Murmansk/LEX_Murmansk__20250109_204500_NOAA_18_rec.log

#Pass ID: 20250109_204500_NOAA 18
#Satellite: NOAA 18
#Configuration: NOAA 18
#Start time: 2025-01-09 20:44:55.635052

#LorettStation: 1.0.0 05.05.2024
#Station: LEX_Murmansk
#Location: 33.156738 lon 68.926811 lat
#TLE: 1 28654U 05018A   25008.86276551  .00000342  00000+0  20484-3 0  9993
#TLE: 2 28654  98.8578  89.9777 0014066 196.4292 163.6427 14.13481270 12237

#Time	Az	El	Level	SNR
2025-01-09 20:45:07.918223	214.4	16.0	-91.8	3.0
2025-01-09 20:45:09.075085	214.6	16.1	-92.0	5.1
2025-01-09 20:45:10.212929	214.7	16.2	-91.7	5.6
2025-01-09 20:45:11.334407	214.9	16.3	-91.8	6.6
2025-01-09 20:45:12.454779	215.0	16.4	-92.6	6.2
2025-01-09 20:45:13.575369	215.2	16.5	-92.4	6.0
2025-01-09 20:45:14.695529	215.3	16.6	-92.5	7.2
2025-01-09 20:45:15.815705	215.5	16.7	-92.4	7.5
2025-01-09 20:45:16.936151	215.6	16.8	-92.5	9.9
2025-01-09 20:45:18.059856	215.8	16.9	-92.5	10.3
2025-01-09 20:45:19.180875	215.9	17.0	-92.2	11.4
2025-01-09 20:45:20.328740	216.1	17.1	-92.3	9.4
2025-01-09 20:45:21.475158	216.3	17.2	-92.7	7.0
2025-01-09 20:45:22.634881	216.4	17.3	-92.4	7.6
2025-01-09 20:45:23.787925	216.6	17.4	-92.6	8.9
2025-01-09 20:45:24.929341	216.8	17.5	-92.5	5.7
2025-01-09 20:45:26.054571	216.9	17.6	-92.3	5.4
2025-01-09 20:45:27.208806	217.1	17.7	-92.2	7.8
2025-01-09 20:45:28.353342	217.3	17.8	-92.5	11.5
2025-01-09 20:45:29.499562	217.4	17.9	-92.7	10.4
2025-01-09 20:45:30.649136	217.6	18.0	-92.4	12.0
2025-01-09 20:45:31.804481	217.8	18.2	-92.8	12.2
2025-01-09 20:45:32.963230	217.9	18.3	-92.7	10.5
2025-01-09 20:45:34.117370	218.1	18.4	-92.4	7.2
2025-01-09 20:45:35.275170	218.3	18.5	-92.6	10.8
2025-01-09 20:45:36.428194	218.5	18.6	-92.7	8.4
2025-01-09 20:45:37.584857	218.7	18.7	-92.7	10.3
2025-01-09 20:45:38.737467	218.8	18.8	-92.8	9.8
2025-01-09 20:45:39.900012	219.0	18.9	-92.9	10.6
2025-01-09 20:45:41.062088	219.2	19.0	-92.3	7.1
2025-01-09 20:45:42.222110	219.4	19.1	-92.4	10.6
2025-01-09 20:45:43.371694	219.6	19.2	-92.7	10.4
2025-01-09 20:45:44.529081	219.8	19.3	-92.8	5.6
2025-01-09 20:45:45.687489	219.9	19.4	-92.6	11.0
2025-01-09 20:45:46.836520	220.1	19.5	-92.9	11.9
2025-01-09 20:45:47.999825	220.3	19.6	-92.8	9.3
2025-01-09 20:45:49.153691	220.5	19.7	-92.9	14.8
2025-01-09 20:45:50.311093	220.7	19.8	-92.7	12.8
2025-01-09 20:45:51.476851	220.9	19.9	-92.8	10.3
2025-01-09 20:45:52.626945	221.1	20.0	-93.0	13.9
2025-01-09 20:45:53.779349	221.3	20.2	-93.1	15.7
2025-01-09 20:45:54.935257	221.5	20.3	-92.9	11.9
2025-01-09 20:45:56.082538	221.7	20.4	-92.7	12.4
2025-01-09 20:45:57.239231	221.9	20.5	-92.6	15.1
2025-01-09 20:45:58.395859	222.1	20.6	-92.6	12.5
2025-01-09 20:45:59.550896	222.3	20.7	-92.6	14.5
2025-01-09 20:46:00.686419	222.5	20.8	-92.6	12.4
2025-01-09 20:46:01.838705	222.7	20.9	-92.8	12.5
2025-01-09 20:46:03.002453	222.9	21.0	-93.0	9.3
2025-01-09 20:46:04.162800	223.1	21.1	-92.8	10.9
2025-01-09 20:46:05.318855	223.3	21.2	-92.5	13.0
2025-01-09 20:46:06.475776	223.5	21.3	-92.7	7.8
2025-01-09 20:46:07.630231	223.8	21.4	-92.7	8.7
2025-01-09 20:46:08.786410	224.0	21.5	-92.8	15.2
2025-01-09 20:46:09.937250	224.2	21.7	-93.1	14.3
2025-01-09 20:46:11.097854	224.4	21.8	-92.7	15.4
2025-01-09 20:46:12.256255	224.6	21.9	-93.1	13.8
2025-01-09 20:46:13.418888	224.9	22.0	-93.0	10.8
2025-01-09 20:46:14.577704	225.1	22.1	-92.9	10.9
2025-01-09 20:46:15.724821	225.3	22.2	-93.2	15.2
2025-01-09 20:46:16.885262	225.5	22.3	-93.0	12.2
2025-01-09 20:46:18.039351	225.7	22.4	-92.4	12.3
2025-01-09 20:46:19.190350	226.0	22.5	-92.7	11.4
2025-01-09 20:46:20.342700	226.2	22.6	-92.6	12.7
2025-01-09 20:46:21.473095	226.4	22.7	-93.0	13.8
2025-01-09 20:46:22.593759	226.7	22.8	-92.8	11.6
2025-01-09 20:46:23.717694	226.9	22.9	-93.0	12.3
2025-01-09 20:46:24.839937	227.1	23.0	-93.1	12.3
2025-01-09 20:46:25.962071	227.3	23.1	-93.1	6.7
2025-01-09 20:46:27.082466	227.6	23.2	-92.7	5.8
2025-01-09 20:46:28.203055	227.8	23.4	-93.0	8.0
2025-01-09 20:46:29.328108	228.0	23.5	-92.8	11.6
2025-01-09 20:46:30.471469	228.3	23.6	-92.9	11.0
2025-01-09 20:46:31.625660	228.5	23.7	-92.9	11.0
2025-01-09 20:46:32.772425	228.8	23.8	-93.0	10.3
2025-01-09 20:46:33.928678	229.0	23.9	-93.1	12.2
2025-01-09 20:46:35.082354	229.3	24.0	-92.9	11.1
2025-01-09 20:46:36.239173	229.5	24.1	-92.6	9.8
2025-01-09 20:46:37.404435	229.8	24.2	-92.8	7.0
2025-01-09 20:46:38.551512	230.0	24.3	-92.6	9.0
2025-01-09 20:46:39.701478	230.3	24.4	-92.7	10.0
2025-01-09 20:46:40.861836	230.5	24.5	-93.3	14.5
2025-01-09 20:46:42.018433	230.8	24.6	-92.9	11.1
2025-01-09 20:46:43.177887	231.1	24.7	-92.8	11.9
2025-01-09 20:46:44.326268	231.3	24.8	-92.9	10.9
2025-01-09 20:46:45.480955	231.6	24.9	-93.2	8.6
2025-01-09 20:46:46.640275	231.9	25.0	-93.1	4.4
2025-01-09 20:46:47.803502	232.1	25.2	-93.3	4.5
2025-01-09 20:46:48.953262	232.4	25.3	-93.0	4.6
2025-01-09 20:46:50.105338	232.7	25.4	-92.8	3.8
2025-01-09 20:46:51.260187	232.9	25.5	-92.5	6.7
2025-01-09 20:46:52.412339	233.2	25.6	-93.0	6.7
2025-01-09 20:46:53.561370	233.5	25.7	-93.2	4.9
2025-01-09 20:46:54.722855	233.8	25.8	-93.2	4.5
2025-01-09 20:46:55.875757	234.1	25.9	-93.1	4.7
2025-01-09 20:46:57.027233	234.3	26.0	-92.8	2.4
2025-01-09 20:46:58.176003	234.6	26.1	-92.8	5.4
2025-01-09 20:46:59.332222	234.9	26.2	-93.0	6.4
2025-01-09 20:47:00.474814	235.2	26.3	-93.1	6.4
2025-01-09 20:47:01.631748	235.5	26.4	-93.4	4.1
2025-01-09 20:47:02.789463	235.8	26.5	-93.2	8.5
2025-01-09 20:47:03.943833	236.1	26.6	-92.9	8.0
2025-01-09 20:47:05.101152	236.4	26.7	-92.3	8.4
2025-01-09 20:47:06.260927	236.7	26.8	-92.3	11.1
2025-01-09 20:47:07.414848	236.9	26.9	-92.3	9.4
2025-01-09 20:47:08.586145	237.3	27.0	-92.2	9.7
2025-01-09 20:47:09.743328	237.6	27.1	-92.9	10.8
2025-01-09 20:47:10.893461	237.9	27.2	-93.2	11.0
2025-01-09 20:47:12.054689	238.2	27.3	-92.6	10.5
2025-01-09 20:47:13.211129	238.5	27.4	-92.7	14.6
2025-01-09 20:47:14.361049	238.8	27.5	-92.9	15.8
2025-01-09 20:47:15.523210	239.1	27.6	-93.0	7.3
2025-01-09 20:47:16.676145	239.4	27.7	-93.0	15.9
2025-01-09 20:47:17.837143	239.7	27.8	-93.2	17.5
2025-01-09 20:47:18.992615	240.0	27.9	-93.0	12.0
2025-01-09 20:47:20.150358	240.4	27.9	-92.8	16.0
2025-01-09 20:47:21.310104	240.7	28.0	-92.6	19.0
2025-01-09 20:47:22.465743	241.0	28.1	-92.9	18.7
2025-01-09 20:47:23.612312	241.3	28.2	-93.1	18.5
2025-01-09 20:47:24.765978	241.6	28.3	-92.8	19.2
2025-01-09 20:47:25.921956	242.0	28.4	-92.5	16.9
2025-01-09 20:47:27.067801	242.3	28.5	-92.6	16.7
2025-01-09 20:47:28.225472	242.6	28.6	-92.9	17.3
2025-01-09 20:47:29.381771	243.0	28.7	-93.0	15.7
2025-01-09 20:47:30.539976	243.3	28.7	-93.0	12.8
2025-01-09 20:47:31.695042	243.6	28.8	-93.2	19.8
2025-01-09 20:47:32.858683	244.0	28.9	-93.1	19.6
2025-01-09 20:47:34.020411	244.3	29.0	-92.8	17.0
2025-01-09 20:47:35.177342	244.7	29.1	-92.6	19.1
2025-01-09 20:47:36.338381	245.0	29.2	-92.7	19.3
2025-01-09 20:47:37.481300	245.3	29.3	-92.5	19.3
2025-01-09 20:47:38.634687	245.7	29.3	-92.8	20.3
2025-01-09 20:47:39.793820	246.0	29.4	-92.9	21.3
2025-01-09 20:47:40.944345	246.4	29.5	-92.8	18.0
2025-01-09 20:47:42.103991	246.7	29.6	-92.5	15.7
2025-01-09 20:47:43.255191	247.1	29.6	-92.6	22.2
2025-01-09 20:47:44.425239	247.5	29.7	-92.7	13.7
2025-01-09 20:47:45.575568	247.8	29.8	-92.9	12.0
2025-01-09 20:47:46.723570	248.2	29.9	-92.7	21.3
2025-01-09 20:47:47.883255	248.5	29.9	-92.8	17.8
2025-01-09 20:47:49.044721	248.9	30.0	-92.7	13.9
2025-01-09 20:47:50.191740	249.2	30.1	-92.2	21.3
2025-01-09 20:47:51.347836	249.6	30.2	-92.5	23.2
2025-01-09 20:47:52.505943	250.0	30.2	-92.8	20.8
2025-01-09 20:47:53.660221	250.3	30.3	-92.7	23.0
2025-01-09 20:47:54.819545	250.7	30.4	-92.8	23.4
2025-01-09 20:47:55.976776	251.1	30.4	-92.7	23.0
2025-01-09 20:47:57.125676	251.5	30.5	-92.7	23.0
2025-01-09 20:47:58.283066	251.8	30.6	-92.7	23.9
2025-01-09 20:47:59.436746	252.2	30.6	-93.0	22.7
2025-01-09 20:48:00.573605	252.6	30.7	-92.9	19.7
2025-01-09 20:48:01.734756	253.0	30.7	-92.9	21.9
2025-01-09 20:48:02.887781	253.3	30.8	-93.0	18.9
2025-01-09 20:48:04.041988	253.7	30.9	-93.0	16.8
2025-01-09 20:48:05.199121	254.1	30.9	-92.8	22.9
2025-01-09 20:48:06.354922	254.5	31.0	-92.4	20.8
2025-01-09 20:48:07.513023	254.9	31.0	-92.9	15.6
2025-01-09 20:48:08.661007	255.2	31.1	-92.8	21.3
2025-01-09 20:48:09.806316	255.6	31.1	-92.4	22.0
2025-01-09 20:48:10.926732	256.0	31.2	-92.7	18.0
2025-01-09 20:48:12.047823	256.4	31.2	-92.3	20.1
2025-01-09 20:48:13.168310	256.8	31.3	-92.2	19.6
2025-01-09 20:48:14.289590	257.1	31.3	-92.5	18.8
2025-01-09 20:48:15.409599	257.5	31.3	-92.5	19.1
2025-01-09 20:48:16.529604	257.9	31.4	-92.9	19.8
2025-01-09 20:48:17.649879	258.3	31.4	-93.0	20.3
2025-01-09 20:48:18.774916	258.7	31.5	-93.1	18.7
2025-01-09 20:48:19.913542	259.1	31.5	-92.8	16.4
2025-01-09 20:48:21.064451	259.4	31.5	-92.5	12.1
2025-01-09 20:48:22.213473	259.8	31.6	-92.7	22.3
2025-01-09 20:48:23.365430	260.2	31.6	-92.8	20.6
2025-01-09 20:48:24.516185	260.6	31.6	-93.0	7.4
2025-01-09 20:48:25.661462	261.0	31.7	-92.9	17.4
2025-01-09 20:48:26.810531	261.4	31.7	-92.9	18.6
2025-01-09 20:48:27.973514	261.8	31.7	-92.9	8.0
2025-01-09 20:48:29.125355	262.2	31.8	-92.9	11.4
2025-01-09 20:48:30.274648	262.6	31.8	-92.5	18.1
2025-01-09 20:48:31.430339	263.0	31.8	-93.3	8.6
2025-01-09 20:48:32.583529	263.4	31.8	-92.6	10.8
2025-01-09 20:48:33.739792	263.8	31.9	-92.6	19.3
2025-01-09 20:48:34.909488	264.3	31.9	-92.6	15.6
2025-01-09 20:48:36.067409	264.7	31.9	-92.8	9.9
2025-01-09 20:48:37.219140	265.1	31.9	-92.7	17.7
2025-01-09 20:48:38.373204	265.5	31.9	-92.4	16.1
2025-01-09 20:48:39.532649	265.9	31.9	-93.0	16.3
2025-01-09 20:48:40.690897	266.3	31.9	-92.8	11.3
2025-01-09 20:48:41.839642	266.7	32.0	-92.9	8.3
2025-01-09 20:48:43.001847	267.1	32.0	-92.9	13.3
2025-01-09 20:48:44.154213	267.5	32.0	-92.8	17.7
2025-01-09 20:48:45.300884	267.9	32.0	-92.3	13.8
2025-01-09 20:48:46.448918	268.3	32.0	-92.7	13.2
2025-01-09 20:48:47.594190	268.7	32.0	-93.4	9.1
2025-01-09 20:48:48.745313	269.1	32.0	-93.2	8.2
2025-01-09 20:48:49.895869	269.5	32.0	-92.9	8.1
2025-01-09 20:48:51.040254	269.9	32.0	-92.8	8.2
2025-01-09 20:48:52.166760	270.3	32.0	-92.7	16.1
2025-01-09 20:48:53.323340	270.7	32.0	-92.5	12.0
2025-01-09 20:48:54.467918	271.1	32.0	-93.1	11.6
2025-01-09 20:48:55.617880	271.5	32.0	-92.7	8.8
2025-01-09 20:48:56.757754	271.9	31.9	-92.8	7.8
2025-01-09 20:48:57.905179	272.4	31.9	-93.0	12.0
2025-01-09 20:48:59.061996	272.8	31.9	-92.4	8.2
2025-01-09 20:49:00.207947	273.2	31.9	-92.7	9.6
2025-01-09 20:49:01.353708	273.6	31.9	-93.0	9.0
2025-01-09 20:49:02.509684	274.0	31.9	-93.1	6.3
2025-01-09 20:49:03.669015	274.4	31.9	-92.9	12.6
2025-01-09 20:49:04.815527	274.8	31.8	-93.3	6.7
2025-01-09 20:49:05.973026	275.2	31.8	-92.7	9.6
2025-01-09 20:49:07.120199	275.6	31.8	-92.6	3.5
2025-01-09 20:49:08.274465	276.0	31.8	-92.6	5.1
2025-01-09 20:49:09.435770	276.4	31.7	-93.2	6.2
2025-01-09 20:49:10.589505	276.8	31.7	-92.9	6.1
2025-01-09 20:49:11.745836	277.2	31.7	-93.1	7.0
2025-01-09 20:49:12.898104	277.6	31.6	-93.1	8.1
2025-01-09 20:49:14.063653	278.0	31.6	-92.5	6.6
2025-01-09 20:49:15.213064	278.4	31.6	-92.3	5.8
2025-01-09 20:49:16.362575	278.8	31.5	-92.3	8.4
2025-01-09 20:49:17.511607	279.2	31.5	-92.6	3.4
2025-01-09 20:49:18.657924	279.6	31.5	-93.3	5.1
2025-01-09 20:49:19.806681	280.0	31.4	-92.9	8.5
2025-01-09 20:49:20.960846	280.3	31.4	-92.9	3.8
2025-01-09 20:49:22.113264	280.7	31.3	-93.0	5.6
2025-01-09 20:49:23.263762	281.1	31.3	-93.0	2.5
2025-01-09 20:49:24.416708	281.5	31.2	-93.0	9.3
2025-01-09 20:49:25.564870	281.9	31.2	-92.8	8.3
2025-01-09 20:49:26.717061	282.3	31.1	-92.8	11.5
2025-01-09 20:49:27.850021	282.7	31.1	-92.6	8.8
2025-01-09 20:49:28.970575	283.0	31.1	-93.2	10.6
2025-01-09 20:49:30.091323	283.4	31.0	-92.8	8.4
2025-01-09 20:49:31.211615	283.8	30.9	-92.8	12.1
2025-01-09 20:49:32.332562	284.2	30.9	-92.5	11.7
2025-01-09 20:49:33.455170	284.5	30.8	-93.0	16.5
2025-01-09 20:49:34.576016	284.9	30.8	-92.9	14.9
2025-01-09 20:49:35.698209	285.3	30.7	-92.8	7.7
2025-01-09 20:49:36.823532	285.6	30.7	-93.1	8.8
2025-01-09 20:49:37.975944	286.0	30.6	-92.6	11.9
2025-01-09 20:49:39.123907	286.4	30.5	-92.8	7.8
2025-01-09 20:49:40.283866	286.8	30.5	-92.6	11.2
2025-01-09 20:49:41.442168	287.1	30.4	-92.7	12.7
2025-01-09 20:49:42.595922	287.5	30.4	-92.9	13.5
2025-01-09 20:49:43.754143	287.9	30.3	-92.9	14.1
2025-01-09 20:49:44.908600	288.2	30.2	-92.8	13.1
2025-01-09 20:49:46.064878	288.6	30.1	-92.9	14.6
2025-01-09 20:49:47.219839	289.0	30.1	-92.8	17.5
2025-01-09 20:49:48.362884	289.3	30.0	-92.4	17.4
2025-01-09 20:49:49.516616	289.7	29.9	-92.7	11.5
2025-01-09 20:49:50.677503	290.0	29.9	-92.7	13.9
2025-01-09 20:49:51.833911	290.4	29.8	-92.9	11.7
2025-01-09 20:49:52.985995	290.8	29.7	-92.8	14.3
2025-01-09 20:49:54.146953	291.1	29.6	-92.8	14.1
2025-01-09 20:49:55.296574	291.5	29.6	-92.5	18.5
2025-01-09 20:49:56.442786	291.8	29.5	-93.0	16.2
2025-01-09 20:49:57.597990	292.2	29.4	-92.6	10.7
2025-01-09 20:49:58.753943	292.5	29.3	-92.7	17.8
2025-01-09 20:49:59.910148	292.9	29.2	-92.9	11.4
2025-01-09 20:50:01.049574	293.2	29.2	-92.9	15.1
2025-01-09 20:50:02.200852	293.5	29.1	-92.7	11.0
2025-01-09 20:50:03.349744	293.9	29.0	-92.6	15.8
2025-01-09 20:50:04.496300	294.2	28.9	-92.9	10.5
2025-01-09 20:50:05.654125	294.5	28.8	-92.8	16.7
2025-01-09 20:50:06.806998	294.9	28.7	-93.1	14.4
2025-01-09 20:50:07.961875	295.2	28.7	-93.0	9.2
2025-01-09 20:50:09.117864	295.5	28.6	-92.7	8.0
2025-01-09 20:50:10.289840	295.9	28.5	-92.7	7.1
2025-01-09 20:50:11.436374	296.2	28.4	-93.0	8.5
2025-01-09 20:50:12.557198	296.5	28.3	-93.1	6.2
2025-01-09 20:50:13.678180	296.8	28.2	-93.1	9.0
2025-01-09 20:50:14.799292	297.2	28.1	-92.9	8.5
2025-01-09 20:50:15.919419	297.5	28.0	-92.5	8.0
2025-01-09 20:50:17.039996	297.8	27.9	-93.1	5.9
2025-01-09 20:50:18.160087	298.1	27.9	-92.1	11.8
2025-01-09 20:50:19.281973	298.4	27.8	-92.5	13.1
2025-01-09 20:50:20.403486	298.7	27.7	-92.4	10.0
2025-01-09 20:50:21.551195	299.0	27.6	-92.3	5.8
2025-01-09 20:50:22.698371	299.3	27.5	-93.0	14.9
2025-01-09 20:50:23.854477	299.6	27.4	-93.0	14.7
2025-01-09 20:50:25.006017	299.9	27.3	-93.1	7.7
2025-01-09 20:50:26.163209	300.2	27.2	-92.3	14.0
2025-01-09 20:50:27.317085	300.5	27.1	-92.7	13.2
2025-01-09 20:50:28.479707	300.8	27.0	-93.1	7.6
2025-01-09 20:50:29.632438	301.1	26.9	-92.8	8.8
2025-01-09 20:50:30.781846	301.4	26.8	-93.0	10.2
2025-01-09 20:50:31.929729	301.7	26.7	-93.0	7.0
2025-01-09 20:50:33.082829	302.0	26.6	-92.6	12.2
2025-01-09 20:50:34.238350	302.3	26.5	-92.4	8.5
2025-01-09 20:50:35.396964	302.6	26.4	-93.0	10.2
2025-01-09 20:50:36.541871	302.9	26.3	-92.8	12.3
2025-01-09 20:50:37.692831	303.2	26.2	-93.2	13.4
2025-01-09 20:50:38.847586	303.5	26.1	-93.0	10.7
2025-01-09 20:50:39.998184	303.8	26.0	-93.0	12.5
2025-01-09 20:50:41.156059	304.0	25.9	-93.0	12.5
2025-01-09 20:50:42.307956	304.3	25.8	-92.7	11.0
2025-01-09 20:50:43.476365	304.6	25.7	-93.2	14.6
2025-01-09 20:50:44.637235	304.9	25.6	-93.1	13.9
2025-01-09 20:50:45.792566	305.2	25.5	-93.2	12.4
2025-01-09 20:50:46.947290	305.4	25.4	-92.9	18.9
2025-01-09 20:50:48.105223	305.7	25.3	-93.0	12.5
2025-01-09 20:50:49.259993	306.0	25.2	-92.9	8.9
2025-01-09 20:50:50.410901	306.2	25.1	-93.2	8.7
2025-01-09 20:50:51.563287	306.5	25.0	-93.1	11.2
2025-01-09 20:50:52.712539	306.8	24.9	-93.2	16.5
2025-01-09 20:50:53.867661	307.0	24.8	-92.6	18.1
2025-01-09 20:50:55.009070	307.3	24.7	-93.2	5.5
2025-01-09 20:50:56.157994	307.6	24.5	-93.0	9.0
2025-01-09 20:50:57.317790	307.8	24.4	-92.9	13.1
2025-01-09 20:50:58.466859	308.1	24.3	-92.9	5.0
2025-01-09 20:50:59.622045	308.3	24.2	-93.4	8.7
2025-01-09 20:51:00.763399	308.6	24.1	-93.0	16.2
2025-01-09 20:51:01.913426	308.8	24.0	-93.0	9.8
2025-01-09 20:51:03.064289	309.1	23.9	-92.5	9.4
2025-01-09 20:51:04.224191	309.3	23.8	-92.9	6.9
2025-01-09 20:51:05.381519	309.6	23.7	-92.7	11.2
2025-01-09 20:51:06.535205	309.8	23.6	-93.2	10.8
2025-01-09 20:51:07.682630	310.1	23.5	-93.1	8.1
2025-01-09 20:51:08.836574	310.3	23.4	-93.0	14.5
2025-01-09 20:51:09.988674	310.5	23.3	-93.2	10.0
2025-01-09 20:51:11.145754	310.8	23.2	-92.9	4.3
2025-01-09 20:51:12.310453	311.0	23.1	-92.8	4.9
2025-01-09 20:51:13.464480	311.3	22.9	-92.8	5.0
2025-01-09 20:51:14.618403	311.5	22.8	-93.3	7.4
2025-01-09 20:51:15.766767	311.7	22.7	-92.9	9.4
2025-01-09 20:51:16.922483	311.9	22.6	-92.9	9.7
2025-01-09 20:51:18.069291	312.2	22.5	-93.0	7.1
2025-01-09 20:51:19.221064	312.4	22.4	-93.2	10.9
2025-01-09 20:51:20.373185	312.6	22.3	-92.8	9.3
2025-01-09 20:51:21.525338	312.9	22.2	-93.6	6.2
2025-01-09 20:51:22.679394	313.1	22.1	-92.5	6.3
2025-01-09 20:51:23.829043	313.3	22.0	-92.8	6.9
2025-01-09 20:51:24.982363	313.5	21.9	-92.7	5.7
2025-01-09 20:51:26.141589	313.7	21.8	-93.2	4.3
2025-01-09 20:51:27.294491	314.0	21.7	-93.2	6.3
2025-01-09 20:51:28.446211	314.2	21.6	-92.7	5.3
2025-01-09 20:51:29.608646	314.4	21.4	-93.4	4.2
2025-01-09 20:51:30.757589	314.6	21.3	-93.2	7.4
2025-01-09 20:51:31.909212	314.8	21.2	-93.2	5.9
2025-01-09 20:51:33.050609	315.0	21.1	-93.1	6.1
2025-01-09 20:51:34.172552	315.2	21.0	-92.4	13.2
2025-01-09 20:51:35.294449	315.4	20.9	-93.1	3.0
2025-01-09 20:51:36.414302	315.6	20.8	-93.1	5.6
2025-01-09 20:51:37.534231	315.8	20.7	-93.3	5.9
2025-01-09 20:51:38.655082	316.0	20.6	-93.1	8.5
2025-01-09 20:51:39.775420	316.2	20.5	-93.0	8.2
2025-01-09 20:51:40.895493	316.4	20.4	-93.1	5.9
2025-01-09 20:51:42.017146	316.6	20.3	-93.2	3.7
2025-01-09 20:51:43.163250	316.8	20.2	-92.9	2.4
2025-01-09 20:51:44.315813	317.0	20.1	-92.7	6.4
2025-01-09 20:51:45.466376	317.2	20.0	-93.3	3.5
2025-01-09 20:51:46.616148	317.4	19.9	-93.2	5.6
2025-01-09 20:51:47.766332	317.6	19.8	-92.9	5.0
2025-01-09 20:51:48.921294	317.8	19.7	-93.1	3.2
2025-01-09 20:51:50.075251	318.0	19.6	-92.8	5.1
2025-01-09 20:51:51.230853	318.1	19.5	-92.5	11.3
2025-01-09 20:51:52.388774	318.3	19.3	-92.9	8.5
2025-01-09 20:51:53.529207	318.5	19.2	-93.1	5.6
2025-01-09 20:51:54.658452	318.7	19.1	-93.3	9.0
2025-01-09 20:51:55.799374	318.9	19.0	-93.1	6.2
2025-01-09 20:51:56.942273	319.1	18.9	-93.4	9.2
2025-01-09 20:51:58.086172	319.2	18.8	-92.6	2.4
2025-01-09 20:51:59.240096	319.4	18.7	-92.7	7.2
2025-01-09 20:52:00.384078	319.6	18.6	-93.0	6.4
2025-01-09 20:52:01.533064	319.8	18.5	-93.1	3.7
2025-01-09 20:52:02.684018	320.0	18.4	-93.2	5.4
2025-01-09 20:52:03.837289	320.1	18.3	-92.9	3.4
2025-01-09 20:52:04.987072	320.3	18.2	-93.3	2.0
2025-01-09 20:52:06.150169	320.5	18.1	-93.1	4.0
2025-01-09 20:52:07.303534	320.7	18.0	-92.7	6.3
2025-01-09 20:52:08.461599	320.8	17.9	-93.0	5.4
2025-01-09 20:52:09.618473	321.0	17.8	-93.2	4.1
2025-01-09 20:52:10.770240	321.2	17.7	-93.6	6.3
2025-01-09 20:52:11.929635	321.3	17.6	-93.3	2.9
2025-01-09 20:52:13.085539	321.5	17.5	-92.8	4.7
2025-01-09 20:52:14.237671	321.7	17.4	-93.0	3.6
2025-01-09 20:52:15.389584	321.8	17.3	-93.1	3.0
2025-01-09 20:52:16.547845	322.0	17.2	-92.8	7.2
2025-01-09 20:52:17.699918	322.2	17.1	-93.4	7.0
2025-01-09 20:52:18.844841	322.3	17.0	-93.0	7.7
2025-01-09 20:52:20.005102	322.5	16.9	-93.2	7.0
2025-01-09 20:52:21.159606	322.6	16.8	-92.8	1.6
2025-01-09 20:52:22.321155	322.8	16.7	-92.8	7.5
2025-01-09 20:52:23.475430	323.0	16.6	-91.8	7.6
2025-01-09 20:52:24.634765	323.1	16.5	-92.8	5.1
2025-01-09 20:52:25.787180	323.3	16.4	-92.8	4.1
2025-01-09 20:52:26.929606	323.4	16.3	-93.3	6.6
2025-01-09 20:52:28.056422	323.6	16.2	-92.8	4.3
2025-01-09 20:52:29.177058	323.7	16.1	-92.3	7.0
2025-01-09 20:52:30.298487	323.9	16.0	-92.5	15.8
2025-01-09 20:52:31.418999	324.0	15.9	-93.0	7.6
2025-01-09 20:52:32.540159	324.2	15.8	-93.0	6.0
2025-01-09 20:52:33.660817	324.3	15.7	-93.0	9.1
2025-01-09 20:52:34.780951	324.5	15.6	-93.0	6.3
2025-01-09 20:52:35.904691	324.6	15.5	-92.9	10.5
2025-01-09 20:52:37.027899	324.7	15.4	-92.7	7.9
2025-01-09 20:52:38.160465	324.9	15.3	-92.7	8.0
2025-01-09 20:52:39.289375	325.0	15.2	-92.8	4.3
2025-01-09 20:52:40.436517	325.2	15.1	-93.0	6.3
2025-01-09 20:52:41.582139	325.3	15.0	-93.0	4.1
2025-01-09 20:52:42.729874	325.5	14.9	-93.1	9.5
2025-01-09 20:52:43.886761	325.6	14.8	-93.3	5.6
2025-01-09 20:52:45.032796	325.7	14.7	-92.5	5.1
2025-01-09 20:52:46.182082	325.9	14.6	-93.0	7.3
2025-01-09 20:52:47.330884	326.0	14.5	-92.9	4.2
#Closed at: 2025-01-09 20:45:00.724579