passes_logs/2025/01/09/LEX_Murmansk/LEX_Murmansk__20250109_101720_NOAA_19_rec.log

#Pass ID: 20250109_101720_NOAA 19
#Satellite: NOAA 19
#Configuration: NOAA 19
#Start time: 2025-01-09 10:17:15.961964

#LorettStation: 1.0.0 05.05.2024
#Station: LEX_Murmansk
#Location: 33.156738 lon 68.926811 lat
#TLE: 1 33591U 09005A   25008.91550554  .00000294  00000+0  18118-3 0  9990
#TLE: 2 33591  99.0208  72.6306 0014612  73.7755 286.5023 14.13254864820423

#Time	Az	El	Level	SNR
2025-01-09 10:17:28.159296	23.4	16.2	-85.1	4.3
2025-01-09 10:17:29.309982	23.4	16.4	-86.0	5.7
2025-01-09 10:17:30.469483	23.3	16.5	-85.7	4.2
2025-01-09 10:17:31.625777	23.2	16.6	-85.2	7.0
2025-01-09 10:17:32.783418	23.1	16.7	-85.2	2.6
2025-01-09 10:17:33.938028	23.0	16.8	-85.3	4.2
2025-01-09 10:17:35.095946	22.9	17.0	-85.1	5.8
2025-01-09 10:17:36.239322	22.8	17.1	-85.2	5.2
2025-01-09 10:17:37.400400	22.7	17.2	-85.2	4.6
2025-01-09 10:17:38.553040	22.6	17.3	-86.4	6.3
2025-01-09 10:17:39.703278	22.5	17.5	-85.2	4.9
2025-01-09 10:17:40.855178	22.4	17.6	-85.8	4.2
2025-01-09 10:17:42.003568	22.3	17.7	-86.6	4.7
2025-01-09 10:17:43.157217	22.2	17.8	-86.2	5.1
2025-01-09 10:17:44.309639	22.1	18.0	-84.6	4.6
2025-01-09 10:17:45.471966	22.0	18.1	-86.2	7.1
2025-01-09 10:17:46.624060	21.9	18.2	-86.1	6.3
2025-01-09 10:17:47.782080	21.8	18.3	-85.9	5.8
2025-01-09 10:17:48.936757	21.7	18.5	-86.3	6.4
2025-01-09 10:17:50.086226	21.6	18.6	-86.2	7.9
2025-01-09 10:17:51.237903	21.5	18.7	-85.8	6.2
2025-01-09 10:17:52.390865	21.3	18.9	-85.9	4.6
2025-01-09 10:17:53.550571	21.2	19.0	-86.6	5.3
2025-01-09 10:17:54.705105	21.1	19.1	-86.4	5.3
2025-01-09 10:17:55.858179	21.0	19.3	-86.6	4.0
2025-01-09 10:17:57.009699	20.9	19.4	-86.8	3.2
2025-01-09 10:17:58.160296	20.8	19.5	-86.3	3.9
2025-01-09 10:17:59.311621	20.7	19.7	-86.6	7.7
2025-01-09 10:18:00.454826	20.6	19.8	-86.5	6.4
2025-01-09 10:18:01.607717	20.4	19.9	-86.5	6.6
2025-01-09 10:18:02.761425	20.3	20.1	-86.6	3.9
2025-01-09 10:18:03.908197	20.2	20.2	-86.3	4.2
2025-01-09 10:18:05.062938	20.1	20.3	-86.5	5.8
2025-01-09 10:18:06.218962	20.0	20.5	-86.3	3.8
2025-01-09 10:18:07.372979	19.8	20.6	-86.3	1.8
2025-01-09 10:18:08.528783	19.7	20.7	-86.3	5.8
2025-01-09 10:18:09.685415	19.6	20.9	-86.0	3.2
2025-01-09 10:18:10.839991	19.5	21.0	-86.2	2.7
2025-01-09 10:18:11.990251	19.3	21.2	-86.0	3.6
2025-01-09 10:18:13.143407	19.2	21.3	-85.9	5.9
2025-01-09 10:18:14.299166	19.1	21.4	-85.6	3.5
2025-01-09 10:18:15.449650	18.9	21.6	-85.8	5.8
2025-01-09 10:18:16.601717	18.8	21.7	-86.1	6.4
2025-01-09 10:18:17.754559	18.7	21.9	-86.1	6.3
2025-01-09 10:18:18.903714	18.5	22.0	-86.1	5.1
2025-01-09 10:18:20.056535	18.4	22.2	-86.7	7.2
2025-01-09 10:18:21.208666	18.3	22.3	-85.2	5.9
2025-01-09 10:18:22.354365	18.1	22.5	-85.6	5.3
2025-01-09 10:18:23.513442	18.0	22.6	-86.2	5.6
2025-01-09 10:18:24.662879	17.9	22.7	-85.8	8.1
2025-01-09 10:18:25.815812	17.7	22.9	-86.2	5.5
2025-01-09 10:18:26.971140	17.6	23.0	-86.3	6.9
2025-01-09 10:18:28.123882	17.4	23.2	-86.4	5.5
2025-01-09 10:18:29.275464	17.3	23.3	-86.3	3.5
2025-01-09 10:18:30.433509	17.1	23.5	-86.4	5.1
2025-01-09 10:18:31.579942	17.0	23.6	-86.6	5.5
2025-01-09 10:18:32.736089	16.8	23.8	-86.8	3.8
2025-01-09 10:18:33.885235	16.7	24.0	-86.3	8.4
2025-01-09 10:18:35.040077	16.5	24.1	-86.4	7.9
2025-01-09 10:18:36.202254	16.4	24.3	-86.5	8.0
2025-01-09 10:18:37.355797	16.2	24.4	-86.4	5.3
2025-01-09 10:18:38.519054	16.0	24.6	-86.3	5.5
2025-01-09 10:18:39.665643	15.9	24.7	-86.5	6.9
2025-01-09 10:18:40.815309	15.7	24.9	-86.7	5.0
2025-01-09 10:18:41.969473	15.6	25.0	-86.2	5.5
2025-01-09 10:18:43.133315	15.4	25.2	-86.6	5.9
2025-01-09 10:18:44.286246	15.2	25.4	-86.4	4.6
2025-01-09 10:18:45.439648	15.1	25.5	-86.4	5.8
2025-01-09 10:18:46.593765	14.9	25.7	-85.9	5.9
2025-01-09 10:18:47.745385	14.7	25.8	-85.5	4.4
2025-01-09 10:18:48.898399	14.5	26.0	-87.0	2.3
2025-01-09 10:18:50.048203	14.4	26.2	-86.8	5.0
2025-01-09 10:18:51.194951	14.2	26.3	-86.6	4.7
2025-01-09 10:18:52.351704	14.0	26.5	-86.7	4.9
2025-01-09 10:18:53.499789	13.8	26.7	-86.7	3.8
2025-01-09 10:18:54.648830	13.6	26.8	-86.9	6.2
2025-01-09 10:18:55.798498	13.5	27.0	-86.8	5.0
2025-01-09 10:18:56.952882	13.3	27.1	-86.8	3.7
2025-01-09 10:18:58.104854	13.1	27.3	-86.7	5.5
2025-01-09 10:18:59.255874	12.9	27.5	-86.4	5.1
2025-01-09 10:19:00.393283	12.7	27.6	-86.5	5.1
2025-01-09 10:19:01.546746	12.5	27.8	-86.5	2.9
2025-01-09 10:19:02.708075	12.3	28.0	-86.7	3.3
2025-01-09 10:19:03.859978	12.1	28.2	-86.7	4.5
2025-01-09 10:19:05.014738	11.9	28.3	-86.6	2.2
2025-01-09 10:19:06.175858	11.7	28.5	-86.5	4.0
2025-01-09 10:19:07.325572	11.5	28.7	-86.7	3.7
2025-01-09 10:19:08.476450	11.3	28.8	-86.3	3.2
2025-01-09 10:19:09.621349	11.1	29.0	-86.0	4.1
2025-01-09 10:19:10.776463	10.9	29.2	-86.5	5.0
2025-01-09 10:19:11.925431	10.6	29.4	-86.6	4.0
2025-01-09 10:19:13.078585	10.4	29.5	-86.4	4.4
2025-01-09 10:19:14.227565	10.2	29.7	-86.3	6.1
2025-01-09 10:19:15.378770	10.0	29.9	-86.5	4.9
2025-01-09 10:19:16.537820	9.8	30.1	-85.7	5.1
2025-01-09 10:19:17.690359	9.5	30.2	-86.3	4.3
2025-01-09 10:19:18.843813	9.3	30.4	-86.6	6.4
2025-01-09 10:19:19.996309	9.1	30.6	-86.2	6.7
2025-01-09 10:19:21.147226	8.8	30.8	-86.8	7.1
2025-01-09 10:19:22.295415	8.6	31.0	-86.5	7.4
2025-01-09 10:19:23.440614	8.3	31.1	-86.9	5.8
2025-01-09 10:19:24.598638	8.1	31.3	-87.0	7.4
2025-01-09 10:19:25.749577	7.9	31.5	-86.6	4.9
2025-01-09 10:19:26.910250	7.6	31.7	-86.5	4.2
2025-01-09 10:19:28.056767	7.4	31.9	-86.8	4.3
2025-01-09 10:19:29.209204	7.1	32.0	-86.4	3.9
2025-01-09 10:19:30.351880	6.8	32.2	-86.8	6.9
2025-01-09 10:19:31.502675	6.6	32.4	-86.6	8.4
2025-01-09 10:19:32.651966	6.3	32.6	-86.6	8.2
2025-01-09 10:19:33.804793	6.1	32.8	-87.0	7.7
2025-01-09 10:19:34.964764	5.8	33.0	-86.4	8.6
2025-01-09 10:19:36.116879	5.5	33.1	-86.5	6.8
2025-01-09 10:19:37.273557	5.2	33.3	-86.6	5.6
2025-01-09 10:19:38.419324	5.0	33.5	-86.4	5.7
2025-01-09 10:19:39.544590	4.7	33.7	-86.7	9.9
2025-01-09 10:19:40.665700	4.4	33.9	-87.1	8.7
2025-01-09 10:19:41.787418	4.1	34.1	-86.7	9.0
2025-01-09 10:19:42.907694	3.8	34.2	-86.7	8.0
2025-01-09 10:19:44.028549	3.5	34.4	-87.0	5.5
2025-01-09 10:19:45.149544	3.3	34.6	-87.1	5.0
2025-01-09 10:19:46.272002	3.0	34.8	-87.3	3.4
2025-01-09 10:19:47.393899	2.7	35.0	-87.0	4.8
2025-01-09 10:19:48.520458	2.4	35.2	-86.7	3.1
2025-01-09 10:19:49.673773	2.0	35.3	-86.5	4.5
2025-01-09 10:19:50.815271	1.7	35.5	-86.1	5.5
2025-01-09 10:19:51.965835	1.4	35.7	-86.6	6.3
2025-01-09 10:19:53.118402	1.1	35.9	-86.4	6.5
2025-01-09 10:19:54.271416	0.8	36.1	-85.4	4.9
2025-01-09 10:19:55.432524	0.4	36.3	-85.6	7.6
2025-01-09 10:19:56.578894	0.1	36.5	-86.4	5.6
2025-01-09 10:19:57.730348	359.8	36.7	-85.8	5.2
2025-01-09 10:19:58.880861	359.4	36.8	-86.6	5.3
2025-01-09 10:20:00.025662	359.1	37.0	-86.4	6.5
2025-01-09 10:20:01.169122	358.7	37.2	-86.3	5.8
2025-01-09 10:20:02.325423	358.4	37.4	-86.0	6.7
2025-01-09 10:20:03.480559	358.0	37.6	-85.6	6.0
2025-01-09 10:20:04.625916	357.6	37.8	-85.1	8.3
2025-01-09 10:20:05.775369	357.3	38.0	-86.4	8.1
2025-01-09 10:20:06.936068	356.9	38.2	-86.1	7.1
2025-01-09 10:20:08.096663	356.5	38.3	-85.4	5.2
2025-01-09 10:20:09.249552	356.1	38.5	-86.4	4.2
2025-01-09 10:20:10.402456	355.8	38.7	-86.3	5.1
2025-01-09 10:20:11.552993	355.4	38.9	-86.6	3.5
2025-01-09 10:20:12.702773	355.0	39.1	-86.5	4.7
2025-01-09 10:20:13.855408	354.6	39.3	-86.5	4.7
2025-01-09 10:20:15.013245	354.2	39.4	-86.3	7.6
2025-01-09 10:20:16.164481	353.8	39.6	-86.0	9.9
2025-01-09 10:20:17.311931	353.3	39.8	-86.3	12.5
2025-01-09 10:20:18.464543	352.9	40.0	-86.8	13.3
2025-01-09 10:20:19.621729	352.5	40.2	-86.9	13.1
2025-01-09 10:20:20.771483	352.1	40.3	-86.6	8.6
2025-01-09 10:20:21.928198	351.6	40.5	-86.5	9.2
2025-01-09 10:20:23.082433	351.2	40.7	-86.4	8.2
2025-01-09 10:20:24.236177	350.8	40.9	-86.6	6.4
2025-01-09 10:20:25.384261	350.3	41.1	-86.7	7.9
2025-01-09 10:20:26.546227	349.9	41.2	-86.9	10.6
2025-01-09 10:20:27.693949	349.4	41.4	-86.5	10.5
2025-01-09 10:20:28.847287	349.0	41.6	-86.6	11.9
2025-01-09 10:20:29.997094	348.5	41.7	-86.3	11.3
2025-01-09 10:20:31.155859	348.0	41.9	-86.2	11.7
2025-01-09 10:20:32.308050	347.5	42.1	-86.4	10.3
2025-01-09 10:20:33.466231	347.1	42.2	-86.5	10.6
2025-01-09 10:20:34.624561	346.6	42.4	-86.5	10.1
2025-01-09 10:20:35.768607	346.1	42.6	-86.6	5.6
2025-01-09 10:20:36.913382	345.6	42.7	-86.6	5.6
2025-01-09 10:20:38.067153	345.1	42.9	-86.8	6.8
2025-01-09 10:20:39.228233	344.6	43.0	-86.9	4.2
2025-01-09 10:20:40.374701	344.1	43.2	-86.8	6.6
2025-01-09 10:20:41.525470	343.6	43.4	-86.5	8.1
2025-01-09 10:20:42.676700	343.0	43.5	-86.6	6.6
2025-01-09 10:20:43.839644	342.5	43.7	-86.5	7.6
2025-01-09 10:20:44.990596	342.0	43.8	-86.1	11.2
2025-01-09 10:20:46.144106	341.5	43.9	-86.9	12.0
2025-01-09 10:20:47.306628	340.9	44.1	-86.7	13.8
2025-01-09 10:20:48.466218	340.4	44.2	-85.1	13.5
2025-01-09 10:20:49.624067	339.8	44.4	-86.3	13.8
2025-01-09 10:20:50.778889	339.3	44.5	-82.2	8.9
2025-01-09 10:20:51.933679	338.7	44.6	-86.4	10.5
2025-01-09 10:20:53.090036	338.1	44.8	-86.5	10.7
2025-01-09 10:20:54.252262	337.6	44.9	-86.3	5.9
2025-01-09 10:20:55.404187	337.0	45.0	-86.5	6.6
2025-01-09 10:20:56.551723	336.4	45.1	-86.4	6.8
2025-01-09 10:20:57.719431	335.8	45.3	-86.7	6.4
2025-01-09 10:20:58.867628	335.2	45.4	-82.8	5.2
2025-01-09 10:21:00.019585	334.6	45.5	-86.8	9.3
2025-01-09 10:21:01.160796	334.1	45.6	-85.1	9.1
2025-01-09 10:21:02.313237	333.5	45.7	-84.6	9.0
2025-01-09 10:21:03.466562	332.9	45.8	-86.7	10.0
2025-01-09 10:21:04.622901	332.3	45.9	-86.5	13.9
2025-01-09 10:21:05.781586	331.6	46.0	-86.3	13.2
2025-01-09 10:21:06.936196	331.0	46.1	-86.9	14.7
2025-01-09 10:21:08.088076	330.4	46.2	-86.8	8.1
2025-01-09 10:21:09.235766	329.8	46.3	-87.1	5.6
2025-01-09 10:21:10.387309	329.2	46.4	-84.6	7.0
2025-01-09 10:21:11.542811	328.5	46.4	-86.6	8.3
2025-01-09 10:21:12.695718	327.9	46.5	-85.3	5.7
2025-01-09 10:21:13.850352	327.3	46.6	-82.9	4.7
2025-01-09 10:21:15.003392	326.6	46.6	-83.8	6.2
2025-01-09 10:21:16.166669	326.0	46.7	-85.8	5.3
2025-01-09 10:21:17.324671	325.3	46.8	-86.2	3.6
2025-01-09 10:21:18.478896	324.7	46.8	-85.9	4.8
2025-01-09 10:21:19.630326	324.1	46.9	-86.3	6.8
2025-01-09 10:21:20.778592	323.4	46.9	-86.1	5.1
2025-01-09 10:21:21.934389	322.8	47.0	-85.6	4.4
2025-01-09 10:21:23.082267	322.1	47.0	-85.9	7.5
2025-01-09 10:21:24.222998	321.5	47.0	-85.5	5.7
2025-01-09 10:21:25.374083	320.8	47.1	-85.3	5.4
2025-01-09 10:21:26.531783	320.2	47.1	-85.8	5.7
2025-01-09 10:21:27.698010	319.5	47.1	-85.9	7.3
2025-01-09 10:21:28.846753	318.8	47.1	-85.9	8.4
2025-01-09 10:21:29.999027	318.2	47.2	-86.0	7.1
2025-01-09 10:21:31.145855	317.5	47.2	-85.7	5.2
2025-01-09 10:21:32.301674	316.9	47.2	-85.7	8.4
2025-01-09 10:21:33.456359	316.2	47.2	-85.6	11.8
2025-01-09 10:21:34.606989	315.5	47.2	-85.5	11.1
2025-01-09 10:21:35.756435	314.9	47.2	-85.6	10.7
2025-01-09 10:21:36.904895	314.2	47.2	-86.4	10.8
2025-01-09 10:21:38.058593	313.6	47.2	-87.0	9.3
2025-01-09 10:21:39.209414	312.9	47.1	-86.6	8.2
2025-01-09 10:21:40.359077	312.3	47.1	-85.8	6.0
2025-01-09 10:21:41.522618	311.6	47.1	-87.3	8.5
2025-01-09 10:21:42.675247	310.9	47.1	-86.6	8.2
2025-01-09 10:21:43.831189	310.3	47.0	-85.8	7.2
2025-01-09 10:21:44.992624	309.6	47.0	-85.0	5.6
2025-01-09 10:21:46.139532	309.0	46.9	-86.7	9.2
2025-01-09 10:21:47.290976	308.3	46.9	-86.0	6.3
2025-01-09 10:21:48.446911	307.7	46.8	-83.3	5.0
2025-01-09 10:21:49.608887	307.0	46.8	-86.1	5.4
2025-01-09 10:21:50.763483	306.4	46.7	-86.4	4.4
2025-01-09 10:21:51.919176	305.7	46.7	-86.1	5.6
2025-01-09 10:21:53.083134	305.1	46.6	-85.8	4.7
2025-01-09 10:21:54.232992	304.5	46.5	-86.5	6.3
2025-01-09 10:21:55.391649	303.8	46.5	-86.0	5.5
2025-01-09 10:21:56.548518	303.2	46.4	-86.6	8.1
2025-01-09 10:21:57.699355	302.6	46.3	-86.8	4.6
2025-01-09 10:21:58.859478	301.9	46.2	-87.0	4.7
2025-01-09 10:22:00.014654	301.3	46.1	-86.4	6.4
2025-01-09 10:22:01.158081	300.7	46.0	-86.1	4.7
2025-01-09 10:22:02.312901	300.1	45.9	-84.2	4.1
2025-01-09 10:22:03.469393	299.5	45.8	-86.6	4.3
2025-01-09 10:22:04.620736	298.9	45.7	-86.7	7.7
2025-01-09 10:22:05.776320	298.3	45.6	-86.7	6.2
2025-01-09 10:22:06.922025	297.7	45.5	-86.4	5.2
2025-01-09 10:22:08.083521	297.1	45.4	-86.3	7.3
2025-01-09 10:22:09.240204	296.5	45.3	-86.4	3.4
2025-01-09 10:22:10.394748	295.9	45.2	-86.1	5.7
2025-01-09 10:22:11.550892	295.3	45.1	-86.5	6.1
2025-01-09 10:22:12.711403	294.8	44.9	-86.4	4.1
2025-01-09 10:22:13.866540	294.2	44.8	-86.8	3.6
2025-01-09 10:22:15.022960	293.6	44.7	-86.5	6.8
2025-01-09 10:22:16.178419	293.1	44.6	-86.3	6.4
2025-01-09 10:22:17.330309	292.5	44.4	-86.4	3.5
2025-01-09 10:22:18.477169	292.0	44.3	-86.6	4.0
2025-01-09 10:22:19.634861	291.4	44.2	-86.0	9.6
2025-01-09 10:22:20.793718	290.9	44.0	-86.7	4.6
2025-01-09 10:22:21.950808	290.3	43.9	-86.6	7.4
2025-01-09 10:22:23.101798	289.8	43.7	-86.3	8.0
2025-01-09 10:22:24.257908	289.3	43.6	-86.4	5.3
2025-01-09 10:22:25.409990	288.7	43.4	-86.7	6.2
2025-01-09 10:22:26.564627	288.2	43.3	-86.9	7.8
2025-01-09 10:22:27.718010	287.7	43.1	-86.8	5.1
2025-01-09 10:22:28.871449	287.2	43.0	-86.4	6.9
2025-01-09 10:22:30.020809	286.7	42.8	-86.8	9.8
2025-01-09 10:22:31.169131	286.2	42.6	-86.7	8.7
2025-01-09 10:22:32.339233	285.7	42.5	-86.9	7.8
2025-01-09 10:22:33.487526	285.2	42.3	-86.9	9.2
2025-01-09 10:22:34.647072	284.7	42.1	-87.0	10.2
2025-01-09 10:22:35.801951	284.3	42.0	-86.9	9.3
2025-01-09 10:22:36.957642	283.8	41.8	-87.0	9.8
2025-01-09 10:22:38.106733	283.3	41.6	-86.7	10.4
2025-01-09 10:22:39.263757	282.9	41.5	-86.9	10.8
2025-01-09 10:22:40.420210	282.4	41.3	-86.6	11.9
2025-01-09 10:22:41.565484	281.9	41.1	-86.7	13.2
2025-01-09 10:22:42.722412	281.5	41.0	-86.8	12.4
2025-01-09 10:22:43.873622	281.1	40.8	-86.7	13.4
2025-01-09 10:22:45.038199	280.6	40.6	-86.5	12.5
2025-01-09 10:22:46.188616	280.2	40.4	-86.8	12.7
2025-01-09 10:22:47.339605	279.8	40.2	-86.1	13.2
2025-01-09 10:22:48.494877	279.3	40.1	-86.2	13.2
2025-01-09 10:22:49.662638	278.9	39.9	-86.7	13.1
2025-01-09 10:22:50.815285	278.5	39.7	-86.7	13.2
2025-01-09 10:22:51.958445	278.1	39.5	-86.7	12.6
2025-01-09 10:22:53.104802	277.7	39.3	-86.7	11.0
2025-01-09 10:22:54.255158	277.3	39.2	-86.6	12.4
2025-01-09 10:22:55.415787	276.9	39.0	-86.7	10.5
2025-01-09 10:22:56.573814	276.5	38.8	-86.5	8.6
2025-01-09 10:22:57.724903	276.1	38.6	-86.8	9.7
2025-01-09 10:22:58.879426	275.7	38.4	-86.4	7.7
2025-01-09 10:23:00.030386	275.3	38.2	-86.7	8.1
2025-01-09 10:23:01.165141	275.0	38.0	-86.6	6.5
2025-01-09 10:23:02.319424	274.6	37.9	-86.3	5.3
2025-01-09 10:23:03.474447	274.2	37.7	-86.9	6.9
2025-01-09 10:23:04.627102	273.9	37.5	-87.0	6.9
2025-01-09 10:23:05.779779	273.5	37.3	-86.8	4.7
2025-01-09 10:23:06.939838	273.2	37.1	-86.9	4.9
2025-01-09 10:23:08.089623	272.8	36.9	-86.7	6.5
2025-01-09 10:23:09.256280	272.5	36.7	-86.6	2.3
2025-01-09 10:23:10.410040	272.1	36.5	-85.5	3.5
2025-01-09 10:23:11.558743	271.8	36.4	-86.8	5.0
2025-01-09 10:23:12.704508	271.4	36.2	-86.1	4.0
2025-01-09 10:23:13.854953	271.1	36.0	-86.7	5.2
2025-01-09 10:23:15.013137	270.8	35.8	-86.4	7.1
2025-01-09 10:23:16.167522	270.5	35.6	-87.2	3.1
2025-01-09 10:23:17.325624	270.1	35.4	-86.4	6.0
2025-01-09 10:23:18.485783	269.8	35.2	-86.7	7.0
2025-01-09 10:23:19.637408	269.5	35.0	-86.7	8.1
2025-01-09 10:23:20.784397	269.2	34.8	-86.0	8.4
2025-01-09 10:23:21.943658	268.9	34.7	-86.9	9.0
2025-01-09 10:23:23.093632	268.6	34.5	-86.5	11.0
2025-01-09 10:23:24.254484	268.3	34.3	-86.0	7.5
2025-01-09 10:23:25.403144	268.0	34.1	-87.4	9.3
2025-01-09 10:23:26.552844	267.7	33.9	-86.6	6.4
2025-01-09 10:23:27.708567	267.4	33.7	-86.7	6.2
2025-01-09 10:23:28.864389	267.2	33.5	-87.0	4.1
2025-01-09 10:23:30.015821	266.9	33.4	-86.8	5.6
2025-01-09 10:23:31.169259	266.6	33.2	-86.5	4.5
2025-01-09 10:23:32.321056	266.3	33.0	-86.6	2.3
2025-01-09 10:23:33.474106	266.1	32.8	-86.4	4.2
2025-01-09 10:23:34.626256	265.8	32.6	-86.8	4.7
2025-01-09 10:23:35.778827	265.5	32.4	-86.6	3.1
2025-01-09 10:23:36.936467	265.3	32.2	-86.6	5.0
2025-01-09 10:23:38.084342	265.0	32.1	-86.7	6.0
2025-01-09 10:23:39.237229	264.7	31.9	-86.4	5.3
2025-01-09 10:23:40.392237	264.5	31.7	-86.1	5.2
2025-01-09 10:23:41.543814	264.2	31.5	-85.9	5.6
2025-01-09 10:23:42.694341	264.0	31.3	-86.7	7.4
2025-01-09 10:23:43.846682	263.8	31.2	-86.8	8.6
2025-01-09 10:23:45.000894	263.5	31.0	-86.7	7.8
2025-01-09 10:23:46.161071	263.3	30.8	-86.3	8.4
2025-01-09 10:23:47.312751	263.0	30.6	-86.6	8.2
2025-01-09 10:23:48.469117	262.8	30.4	-86.3	6.7
2025-01-09 10:23:49.623506	262.6	30.3	-86.4	8.2
2025-01-09 10:23:50.785033	262.3	30.1	-86.5	5.8
2025-01-09 10:23:51.938621	262.1	29.9	-86.8	6.3
2025-01-09 10:23:53.089841	261.9	29.7	-86.9	5.1
2025-01-09 10:23:54.250064	261.7	29.6	-86.8	6.5
2025-01-09 10:23:55.399447	261.5	29.4	-86.3	5.4
2025-01-09 10:23:56.547099	261.2	29.2	-86.7	4.3
2025-01-09 10:23:57.700230	261.0	29.0	-86.1	6.1
2025-01-09 10:23:58.857359	260.8	28.9	-86.3	6.5
2025-01-09 10:24:00.002615	260.6	28.7	-87.0	5.1
2025-01-09 10:24:01.139025	260.4	28.5	-86.8	7.5
2025-01-09 10:24:02.300579	260.2	28.3	-86.7	5.1
2025-01-09 10:24:03.446008	260.0	28.2	-86.8	7.6
2025-01-09 10:24:04.598242	259.8	28.0	-85.6	4.1
2025-01-09 10:24:05.756622	259.6	27.8	-86.8	6.4
2025-01-09 10:24:06.913489	259.4	27.7	-86.8	6.4
2025-01-09 10:24:08.063801	259.2	27.5	-86.6	4.7
2025-01-09 10:24:09.223673	259.0	27.3	-86.5	5.5
2025-01-09 10:24:10.373288	258.8	27.2	-86.6	5.8
2025-01-09 10:24:11.520173	258.6	27.0	-86.7	4.5
2025-01-09 10:24:12.670532	258.4	26.8	-86.0	4.5
2025-01-09 10:24:13.821215	258.3	26.7	-86.9	6.7
2025-01-09 10:24:14.977597	258.1	26.5	-86.2	3.8
2025-01-09 10:24:16.132472	257.9	26.3	-86.3	2.8
2025-01-09 10:24:17.284517	257.7	26.2	-86.9	5.9
2025-01-09 10:24:18.434759	257.5	26.0	-87.0	4.3
2025-01-09 10:24:19.591404	257.4	25.9	-86.7	3.5
2025-01-09 10:24:20.738394	257.2	25.7	-85.4	3.1
2025-01-09 10:24:21.890475	257.0	25.5	-86.6	4.7
2025-01-09 10:24:23.046653	256.9	25.4	-86.6	3.8
2025-01-09 10:24:24.200020	256.7	25.2	-86.6	6.3
2025-01-09 10:24:25.355668	256.5	25.1	-86.8	5.0
2025-01-09 10:24:26.506390	256.4	24.9	-86.3	6.5
2025-01-09 10:24:27.659791	256.2	24.7	-86.4	5.4
2025-01-09 10:24:28.803190	256.0	24.6	-86.5	5.3
2025-01-09 10:24:29.960056	255.9	24.4	-86.3	4.0
2025-01-09 10:24:31.108916	255.7	24.3	-86.5	3.4
2025-01-09 10:24:32.260408	255.6	24.1	-86.8	5.5
2025-01-09 10:24:33.417075	255.4	24.0	-86.7	3.8
2025-01-09 10:24:34.573253	255.3	23.8	-86.5	1.5
2025-01-09 10:24:35.727917	255.1	23.7	-86.3	4.5
2025-01-09 10:24:36.874702	255.0	23.5	-85.8	3.0
2025-01-09 10:24:38.029782	254.8	23.4	-86.3	2.9
2025-01-09 10:24:39.180523	254.7	23.2	-86.0	2.2
2025-01-09 10:24:40.339944	254.5	23.1	-86.6	3.5
2025-01-09 10:24:41.493122	254.4	22.9	-86.1	3.0
2025-01-09 10:24:42.642622	254.2	22.8	-86.0	3.5
2025-01-09 10:24:43.799420	254.1	22.6	-86.0	2.7
2025-01-09 10:24:44.959724	253.9	22.5	-86.0	2.5
2025-01-09 10:24:46.112800	253.8	22.3	-85.9	2.3
2025-01-09 10:24:47.267065	253.7	22.2	-86.0	2.2
2025-01-09 10:24:48.413746	253.5	22.0	-85.8	2.8
2025-01-09 10:24:49.563104	253.4	21.9	-85.8	4.0
2025-01-09 10:24:50.719042	253.3	21.7	-86.1	3.9
2025-01-09 10:24:51.878564	253.1	21.6	-86.0	2.5
2025-01-09 10:24:53.026668	253.0	21.5	-85.7	1.1
2025-01-09 10:24:54.179593	252.9	21.3	-85.8	4.5
2025-01-09 10:24:55.332058	252.7	21.2	-85.3	3.6
2025-01-09 10:24:56.485964	252.6	21.0	-85.4	3.2
2025-01-09 10:24:57.640512	252.5	20.9	-85.1	2.2
2025-01-09 10:24:58.789416	252.4	20.8	-85.1	4.1
2025-01-09 10:24:59.943491	252.2	20.6	-84.8	3.7
2025-01-09 10:25:01.080279	252.1	20.5	-85.4	1.3
2025-01-09 10:25:02.233975	252.0	20.3	-85.1	3.2
2025-01-09 10:25:03.393362	251.9	20.2	-84.8	3.1
2025-01-09 10:25:04.545116	251.7	20.1	-84.9	4.5
2025-01-09 10:25:05.706508	251.6	19.9	-85.5	1.7
2025-01-09 10:25:06.851561	251.5	19.8	-85.1	4.0
2025-01-09 10:25:08.004682	251.4	19.7	-84.8	3.1
2025-01-09 10:25:09.155964	251.3	19.5	-84.5	4.6
2025-01-09 10:25:10.325035	251.2	19.4	-84.5	3.7
2025-01-09 10:25:11.483031	251.0	19.3	-84.8	3.0
2025-01-09 10:25:12.642487	250.9	19.1	-85.4	5.6
2025-01-09 10:25:13.788808	250.8	19.0	-84.7	4.6
2025-01-09 10:25:14.946999	250.7	18.9	-85.1	3.6
2025-01-09 10:25:16.099285	250.6	18.7	-84.8	5.6
2025-01-09 10:25:17.261701	250.5	18.6	-85.0	5.5
2025-01-09 10:25:18.414909	250.4	18.5	-85.1	3.7
2025-01-09 10:25:19.573876	250.3	18.3	-85.3	3.2
2025-01-09 10:25:20.721572	250.2	18.2	-85.2	4.4
2025-01-09 10:25:21.878424	250.1	18.1	-84.9	5.4
2025-01-09 10:25:23.029708	250.0	18.0	-85.0	3.5
2025-01-09 10:25:24.181060	249.9	17.8	-84.7	5.2
2025-01-09 10:25:25.336387	249.8	17.7	-84.7	4.5
2025-01-09 10:25:26.490502	249.7	17.6	-84.3	4.1
2025-01-09 10:25:27.649155	249.6	17.5	-85.0	6.3
2025-01-09 10:25:28.803301	249.5	17.3	-85.0	4.3
2025-01-09 10:25:29.952522	249.4	17.2	-84.9	4.2
2025-01-09 10:25:31.104610	249.3	17.1	-85.3	4.1
2025-01-09 10:25:32.252992	249.2	17.0	-85.2	3.7
2025-01-09 10:25:33.409741	249.1	16.8	-84.8	3.9
2025-01-09 10:25:34.568340	249.0	16.7	-85.0	2.2
2025-01-09 10:25:35.722506	248.9	16.6	-85.4	3.8
2025-01-09 10:25:36.879778	248.8	16.5	-85.7	2.3
2025-01-09 10:25:38.025319	248.7	16.4	-84.6	5.7
2025-01-09 10:25:39.175507	248.6	16.2	-85.1	3.9
2025-01-09 10:25:40.329100	248.5	16.1	-85.1	4.4
2025-01-09 10:25:41.485644	248.4	16.0	-84.8	5.3
2025-01-09 10:25:42.639350	248.3	15.9	-84.7	4.7
2025-01-09 10:25:43.792938	248.2	15.8	-84.9	5.0
2025-01-09 10:25:44.940667	248.2	15.6	-84.7	4.1
2025-01-09 10:25:46.085737	248.1	15.5	-84.8	2.8
2025-01-09 10:25:47.234953	248.0	15.4	-84.9	4.8
2025-01-09 10:25:48.396435	247.9	15.3	-84.9	4.0
2025-01-09 10:25:49.560843	247.8	15.2	-84.7	3.5
2025-01-09 10:25:50.710257	247.7	15.1	-84.8	4.2
2025-01-09 10:25:51.867518	247.6	15.0	-84.9	5.2
2025-01-09 10:25:53.020559	247.5	14.8	-84.7	3.1
2025-01-09 10:25:54.175537	247.5	14.7	-84.7	4.7
2025-01-09 10:25:55.334134	247.4	14.6	-84.9	4.2
2025-01-09 10:25:56.479568	247.3	14.5	-85.0	2.4
#Closed at: 2025-01-09 10:17:20.988925