passes_logs/2025/01/09/LEX_Murmansk/LEX_Murmansk__20250109_140444_NOAA_18_rec.log

#Pass ID: 20250109_140444_NOAA 18
#Satellite: NOAA 18
#Configuration: NOAA 18
#Start time: 2025-01-09 14:04:39.531459

#LorettStation: 1.0.0 05.05.2024
#Station: LEX_Murmansk
#Location: 33.156738 lon 68.926811 lat
#TLE: 1 28654U 05018A   25008.86276551  .00000342  00000+0  20484-3 0  9993
#TLE: 2 28654  98.8578  89.9777 0014066 196.4292 163.6427 14.13481270 12237

#Time	Az	El	Level	SNR
2025-01-09 14:04:51.783163	35.4	15.9	-90.9	5.2
2025-01-09 14:04:52.934977	35.2	16.0	-91.1	3.8
2025-01-09 14:04:54.082496	35.0	16.1	-90.8	5.5
2025-01-09 14:04:55.228389	34.8	16.1	-91.2	4.5
2025-01-09 14:04:56.384063	34.6	16.2	-91.1	2.9
2025-01-09 14:04:57.528042	34.4	16.3	-91.1	3.4
2025-01-09 14:04:58.687422	34.2	16.4	-91.0	4.4
2025-01-09 14:04:59.837946	34.1	16.5	-90.9	5.7
2025-01-09 14:05:00.981465	33.9	16.5	-91.0	5.4
2025-01-09 14:05:02.136275	33.7	16.6	-90.7	5.4
2025-01-09 14:05:03.290640	33.5	16.7	-91.2	6.8
2025-01-09 14:05:04.438392	33.3	16.8	-91.0	6.0
2025-01-09 14:05:05.592553	33.1	16.9	-91.3	6.3
2025-01-09 14:05:06.750282	32.9	17.0	-91.1	6.9
2025-01-09 14:05:07.902864	32.7	17.0	-91.1	7.5
2025-01-09 14:05:09.057972	32.5	17.1	-91.3	5.9
2025-01-09 14:05:10.209914	32.3	17.2	-91.1	6.6
2025-01-09 14:05:11.361454	32.1	17.3	-91.1	7.0
2025-01-09 14:05:12.519949	31.9	17.4	-91.4	4.6
2025-01-09 14:05:13.679522	31.7	17.5	-91.0	7.1
2025-01-09 14:05:14.834136	31.5	17.5	-91.2	9.5
2025-01-09 14:05:15.989221	31.3	17.6	-91.2	5.5
2025-01-09 14:05:17.141064	31.1	17.7	-91.1	7.6
2025-01-09 14:05:18.288890	30.9	17.8	-91.0	6.9
2025-01-09 14:05:19.437463	30.7	17.9	-91.1	7.8
2025-01-09 14:05:20.594798	30.5	17.9	-91.0	8.0
2025-01-09 14:05:21.740732	30.3	18.0	-91.2	9.5
2025-01-09 14:05:22.897225	30.0	18.1	-91.8	8.7
2025-01-09 14:05:24.054264	29.8	18.2	-91.5	7.1
2025-01-09 14:05:25.210194	29.6	18.3	-90.8	9.0
2025-01-09 14:05:26.362113	29.4	18.4	-91.2	11.9
2025-01-09 14:05:27.508802	29.2	18.4	-91.3	9.8
2025-01-09 14:05:28.663186	29.0	18.5	-91.0	11.3
2025-01-09 14:05:29.820011	28.7	18.6	-91.5	12.5
2025-01-09 14:05:30.970358	28.5	18.7	-91.7	13.3
2025-01-09 14:05:32.125015	28.3	18.8	-91.1	10.2
2025-01-09 14:05:33.287623	28.1	18.8	-91.0	10.2
2025-01-09 14:05:34.440624	27.9	18.9	-91.4	6.4
2025-01-09 14:05:35.590318	27.6	19.0	-91.4	4.7
2025-01-09 14:05:36.741550	27.4	19.1	-91.3	6.1
2025-01-09 14:05:37.893383	27.2	19.2	-91.3	9.2
2025-01-09 14:05:39.045966	27.0	19.2	-91.5	6.1
2025-01-09 14:05:40.196317	26.7	19.3	-91.0	8.5
2025-01-09 14:05:41.348112	26.5	19.4	-91.1	10.7
2025-01-09 14:05:42.489171	26.3	19.5	-91.7	13.1
2025-01-09 14:05:43.645654	26.0	19.5	-91.8	13.5
2025-01-09 14:05:44.801752	25.8	19.6	-91.4	14.7
2025-01-09 14:05:45.955412	25.6	19.7	-91.7	12.9
2025-01-09 14:05:47.101538	25.3	19.8	-91.0	9.3
2025-01-09 14:05:48.257892	25.1	19.8	-91.3	9.2
2025-01-09 14:05:49.411636	24.9	19.9	-91.4	7.1
2025-01-09 14:05:50.565922	24.6	20.0	-91.6	5.1
2025-01-09 14:05:51.724547	24.4	20.1	-91.5	11.1
2025-01-09 14:05:52.893756	24.1	20.2	-91.8	12.7
2025-01-09 14:05:54.053912	23.9	20.2	-91.6	12.7
2025-01-09 14:05:55.202386	23.6	20.3	-91.6	13.5
2025-01-09 14:05:56.358549	23.4	20.4	-91.4	15.6
2025-01-09 14:05:57.507001	23.2	20.4	-91.4	11.3
2025-01-09 14:05:58.655189	22.9	20.5	-91.4	9.7
2025-01-09 14:05:59.813482	22.7	20.6	-91.7	13.2
2025-01-09 14:06:00.960344	22.4	20.7	-91.8	8.7
2025-01-09 14:06:02.110791	22.2	20.7	-90.7	7.1
2025-01-09 14:06:03.260273	21.9	20.8	-90.6	11.4
2025-01-09 14:06:04.414433	21.7	20.9	-90.5	7.9
2025-01-09 14:06:05.568153	21.4	21.0	-90.8	8.1
2025-01-09 14:06:06.715276	21.1	21.0	-90.8	9.3
2025-01-09 14:06:07.861101	20.9	21.1	-90.9	12.2
2025-01-09 14:06:09.014720	20.6	21.2	-91.6	13.1
2025-01-09 14:06:10.173013	20.4	21.2	-91.1	12.9
2025-01-09 14:06:11.328257	20.1	21.3	-91.4	12.2
2025-01-09 14:06:12.491574	19.8	21.4	-90.8	9.7
2025-01-09 14:06:13.654678	19.6	21.4	-90.6	11.3
2025-01-09 14:06:14.812110	19.3	21.5	-90.6	12.0
2025-01-09 14:06:15.965642	19.0	21.6	-91.1	7.8
2025-01-09 14:06:17.120426	18.8	21.6	-90.5	9.2
2025-01-09 14:06:18.277178	18.5	21.7	-90.7	14.1
2025-01-09 14:06:19.428018	18.2	21.8	-91.1	7.2
2025-01-09 14:06:20.583036	18.0	21.8	-91.5	9.7
2025-01-09 14:06:21.736795	17.7	21.9	-91.6	11.5
2025-01-09 14:06:22.885125	17.4	22.0	-91.5	13.5
2025-01-09 14:06:24.035241	17.2	22.0	-91.8	12.0
2025-01-09 14:06:25.189349	16.9	22.1	-91.8	9.8
2025-01-09 14:06:26.345555	16.6	22.2	-91.8	6.4
2025-01-09 14:06:27.499474	16.3	22.2	-91.6	6.7
2025-01-09 14:06:28.661945	16.0	22.3	-91.7	7.7
2025-01-09 14:06:29.810924	15.8	22.3	-91.5	9.5
2025-01-09 14:06:30.963287	15.5	22.4	-91.7	4.9
2025-01-09 14:06:32.119210	15.2	22.5	-91.7	7.7
2025-01-09 14:06:33.278669	14.9	22.5	-91.0	10.2
2025-01-09 14:06:34.437698	14.6	22.6	-91.5	8.0
2025-01-09 14:06:35.594554	14.3	22.6	-91.7	7.8
2025-01-09 14:06:36.758163	14.1	22.7	-91.5	15.4
2025-01-09 14:06:37.908744	13.8	22.8	-91.5	13.7
2025-01-09 14:06:39.058920	13.5	22.8	-91.5	13.2
2025-01-09 14:06:40.210858	13.2	22.9	-91.4	13.0
2025-01-09 14:06:41.360235	12.9	22.9	-91.2	18.0
2025-01-09 14:06:42.508270	12.6	23.0	-91.8	13.9
2025-01-09 14:06:43.664134	12.3	23.0	-91.6	15.7
2025-01-09 14:06:44.811569	12.0	23.1	-91.8	16.8
2025-01-09 14:06:45.970843	11.7	23.1	-91.6	11.1
2025-01-09 14:06:47.120241	11.4	23.2	-91.3	10.6
2025-01-09 14:06:48.267415	11.1	23.2	-91.3	14.6
2025-01-09 14:06:49.417883	10.9	23.3	-91.8	12.8
2025-01-09 14:06:50.571630	10.6	23.3	-91.1	10.4
2025-01-09 14:06:51.722728	10.3	23.4	-91.1	16.8
2025-01-09 14:06:52.869574	10.0	23.4	-91.0	13.0
2025-01-09 14:06:54.021573	9.7	23.5	-91.3	12.8
2025-01-09 14:06:55.181820	9.4	23.5	-90.9	13.9
2025-01-09 14:06:56.338483	9.1	23.6	-91.4	11.9
2025-01-09 14:06:57.487063	8.8	23.6	-91.3	16.8
2025-01-09 14:06:58.615322	8.5	23.6	-91.7	14.0
2025-01-09 14:06:59.771758	8.1	23.7	-91.5	16.4
2025-01-09 14:07:00.919678	7.8	23.7	-91.1	12.9
2025-01-09 14:07:02.076858	7.5	23.8	-90.8	13.0
2025-01-09 14:07:03.231043	7.2	23.8	-91.1	13.6
2025-01-09 14:07:04.386655	6.9	23.9	-91.0	10.4
2025-01-09 14:07:05.536899	6.6	23.9	-90.6	9.0
2025-01-09 14:07:06.693926	6.3	23.9	-90.8	11.1
2025-01-09 14:07:07.848077	6.0	24.0	-91.0	11.3
2025-01-09 14:07:09.006881	5.7	24.0	-90.9	4.4
2025-01-09 14:07:10.162609	5.4	24.0	-90.9	9.0
2025-01-09 14:07:11.315175	5.1	24.1	-90.9	15.6
2025-01-09 14:07:12.476335	4.7	24.1	-91.3	8.4
2025-01-09 14:07:13.642219	4.4	24.1	-91.1	11.2
2025-01-09 14:07:14.787304	4.1	24.2	-91.4	14.3
2025-01-09 14:07:15.932764	3.8	24.2	-91.3	13.4
2025-01-09 14:07:17.077066	3.5	24.2	-91.0	12.5
2025-01-09 14:07:18.228422	3.2	24.3	-91.0	12.9
2025-01-09 14:07:19.379952	2.8	24.3	-91.3	12.4
2025-01-09 14:07:20.536159	2.5	24.3	-91.1	13.9
2025-01-09 14:07:21.689241	2.2	24.3	-91.8	12.9
2025-01-09 14:07:22.839392	1.9	24.4	-92.0	14.1
2025-01-09 14:07:23.991081	1.6	24.4	-92.0	8.1
2025-01-09 14:07:25.140488	1.3	24.4	-91.8	11.4
2025-01-09 14:07:26.289528	0.9	24.4	-91.7	11.8
2025-01-09 14:07:27.437002	0.6	24.4	-91.7	10.5
2025-01-09 14:07:28.590961	0.3	24.5	-91.9	9.9
2025-01-09 14:07:29.738106	360.0	24.5	-92.2	12.3
2025-01-09 14:07:30.893785	359.7	24.5	-92.1	8.4
2025-01-09 14:07:32.051821	359.3	24.5	-91.5	9.4
2025-01-09 14:07:33.197106	359.0	24.5	-91.7	14.2
2025-01-09 14:07:34.354632	358.7	24.5	-91.6	14.1
2025-01-09 14:07:35.505392	358.4	24.6	-91.9	9.4
2025-01-09 14:07:36.664695	358.0	24.6	-91.8	15.4
2025-01-09 14:07:37.818252	357.7	24.6	-91.7	15.4
2025-01-09 14:07:38.980222	357.4	24.6	-91.9	10.3
2025-01-09 14:07:40.130924	357.1	24.6	-91.2	12.7
2025-01-09 14:07:41.287655	356.7	24.6	-91.5	15.1
2025-01-09 14:07:42.431287	356.4	24.6	-91.2	13.5
2025-01-09 14:07:43.583467	356.1	24.6	-91.2	10.3
2025-01-09 14:07:44.736875	355.8	24.6	-90.9	8.5
2025-01-09 14:07:45.893690	355.5	24.6	-91.4	17.0
2025-01-09 14:07:47.051621	355.1	24.6	-91.2	15.8
2025-01-09 14:07:48.207439	354.8	24.7	-90.6	13.3
2025-01-09 14:07:49.359856	354.5	24.7	-91.0	16.8
2025-01-09 14:07:50.521257	354.1	24.7	-91.0	12.2
2025-01-09 14:07:51.676455	353.8	24.7	-90.8	13.7
2025-01-09 14:07:52.829064	353.5	24.7	-91.6	12.1
2025-01-09 14:07:53.980225	353.2	24.7	-91.5	11.9
2025-01-09 14:07:55.137848	352.8	24.6	-91.3	13.2
2025-01-09 14:07:56.293691	352.5	24.6	-91.6	8.9
2025-01-09 14:07:57.452833	352.2	24.6	-92.0	9.1
2025-01-09 14:07:58.614459	351.9	24.6	-92.0	11.0
2025-01-09 14:07:59.775730	351.5	24.6	-92.0	14.0
2025-01-09 14:08:00.917449	351.2	24.6	-91.8	8.8
2025-01-09 14:08:02.075477	350.9	24.6	-91.6	10.4
2025-01-09 14:08:03.236314	350.6	24.6	-91.4	16.8
2025-01-09 14:08:04.381415	350.2	24.6	-91.4	10.6
2025-01-09 14:08:05.531614	349.9	24.6	-91.8	7.4
2025-01-09 14:08:06.685469	349.6	24.6	-92.0	11.0
2025-01-09 14:08:07.841391	349.3	24.5	-92.0	12.9
2025-01-09 14:08:08.999095	349.0	24.5	-91.7	6.9
2025-01-09 14:08:10.153554	348.6	24.5	-91.6	10.6
2025-01-09 14:08:11.306041	348.3	24.5	-91.4	12.9
2025-01-09 14:08:12.453895	348.0	24.5	-92.0	7.0
2025-01-09 14:08:13.601677	347.7	24.5	-92.0	6.8
2025-01-09 14:08:14.759698	347.3	24.4	-91.4	10.4
2025-01-09 14:08:15.915529	347.0	24.4	-91.4	10.6
2025-01-09 14:08:17.073419	346.7	24.4	-91.3	9.3
2025-01-09 14:08:18.235266	346.4	24.4	-91.2	14.2
2025-01-09 14:08:19.389087	346.1	24.4	-91.4	7.5
2025-01-09 14:08:20.544637	345.7	24.3	-91.1	6.8
2025-01-09 14:08:21.709541	345.4	24.3	-92.0	11.9
2025-01-09 14:08:22.858720	345.1	24.3	-91.6	13.9
2025-01-09 14:08:24.019940	344.8	24.2	-91.8	7.6
2025-01-09 14:08:25.172871	344.5	24.2	-91.5	11.5
2025-01-09 14:08:26.320780	344.2	24.2	-91.5	17.4
2025-01-09 14:08:27.470076	343.8	24.2	-92.2	10.1
2025-01-09 14:08:28.615766	343.5	24.1	-91.9	10.5
2025-01-09 14:08:29.782955	343.2	24.1	-91.9	15.0
2025-01-09 14:08:30.938962	342.9	24.1	-91.6	11.6
2025-01-09 14:08:32.102149	342.6	24.0	-91.4	9.1
2025-01-09 14:08:33.246715	342.3	24.0	-91.5	11.6
2025-01-09 14:08:34.399445	342.0	24.0	-91.7	10.8
2025-01-09 14:08:35.547707	341.6	23.9	-92.0	10.8
2025-01-09 14:08:36.709965	341.3	23.9	-92.2	7.9
2025-01-09 14:08:37.862385	341.0	23.8	-92.1	10.0
2025-01-09 14:08:39.014851	340.7	23.8	-91.9	7.7
2025-01-09 14:08:40.173102	340.4	23.8	-90.7	11.4
2025-01-09 14:08:41.326691	340.1	23.7	-91.0	9.1
2025-01-09 14:08:42.483957	339.8	23.7	-91.0	10.2
2025-01-09 14:08:43.636340	339.5	23.6	-91.6	8.8
2025-01-09 14:08:44.793366	339.2	23.6	-91.6	10.1
2025-01-09 14:08:45.946226	338.9	23.6	-91.7	6.5
2025-01-09 14:08:47.102670	338.6	23.5	-91.9	10.3
2025-01-09 14:08:48.253690	338.3	23.5	-91.1	9.6
2025-01-09 14:08:49.411622	338.0	23.4	-91.6	3.9
2025-01-09 14:08:50.561164	337.7	23.4	-91.4	8.0
2025-01-09 14:08:51.719731	337.4	23.3	-91.3	10.1
2025-01-09 14:08:52.870814	337.1	23.3	-91.5	12.8
2025-01-09 14:08:54.019711	336.8	23.2	-91.7	10.0
2025-01-09 14:08:55.170962	336.5	23.2	-91.0	7.0
2025-01-09 14:08:56.324102	336.2	23.1	-91.6	10.1
2025-01-09 14:08:57.479043	335.9	23.1	-92.0	8.6
2025-01-09 14:08:58.624127	335.6	23.0	-92.0	9.6
2025-01-09 14:08:59.771894	335.3	23.0	-92.1	7.0
2025-01-09 14:09:00.912838	335.0	22.9	-91.7	13.3
2025-01-09 14:09:02.074182	334.7	22.9	-91.4	11.0
2025-01-09 14:09:03.232646	334.4	22.8	-91.5	4.1
2025-01-09 14:09:04.385409	334.1	22.7	-91.8	9.9
2025-01-09 14:09:05.545058	333.9	22.7	-91.8	6.3
2025-01-09 14:09:06.698711	333.6	22.6	-92.0	8.9
2025-01-09 14:09:07.847087	333.3	22.6	-92.2	10.5
2025-01-09 14:09:09.004825	333.0	22.5	-92.0	10.8
2025-01-09 14:09:10.165626	332.7	22.4	-91.4	5.7
2025-01-09 14:09:11.328195	332.4	22.4	-92.0	12.2
2025-01-09 14:09:12.479472	332.1	22.3	-92.0	10.0
2025-01-09 14:09:13.631055	331.9	22.3	-91.6	6.8
2025-01-09 14:09:14.776041	331.6	22.2	-91.6	11.8
2025-01-09 14:09:15.927830	331.3	22.1	-92.0	7.3
2025-01-09 14:09:17.086829	331.0	22.1	-91.6	5.3
2025-01-09 14:09:18.237595	330.8	22.0	-91.3	11.3
2025-01-09 14:09:19.399076	330.5	22.0	-91.8	10.5
2025-01-09 14:09:20.549361	330.2	21.9	-91.7	7.0
2025-01-09 14:09:21.704341	329.9	21.8	-91.8	12.2
2025-01-09 14:09:22.855596	329.7	21.8	-91.7	7.9
2025-01-09 14:09:24.009746	329.4	21.7	-92.0	6.0
2025-01-09 14:09:25.158076	329.1	21.6	-91.7	6.0
2025-01-09 14:09:26.303494	328.9	21.6	-91.2	7.8
2025-01-09 14:09:27.456674	328.6	21.5	-92.0	6.5
2025-01-09 14:09:28.611439	328.3	21.4	-92.1	7.7
2025-01-09 14:09:29.765636	328.1	21.4	-91.9	8.3
2025-01-09 14:09:30.908841	327.8	21.3	-91.8	7.2
2025-01-09 14:09:32.059367	327.5	21.2	-91.4	7.0
2025-01-09 14:09:33.218492	327.3	21.1	-91.2	11.7
2025-01-09 14:09:34.367598	327.0	21.1	-91.8	7.2
2025-01-09 14:09:35.514221	326.8	21.0	-92.0	8.5
2025-01-09 14:09:36.671321	326.5	20.9	-91.5	4.8
2025-01-09 14:09:37.836858	326.3	20.9	-92.0	8.2
2025-01-09 14:09:38.982188	326.0	20.8	-91.9	4.3
2025-01-09 14:09:40.140587	325.7	20.7	-91.2	4.2
2025-01-09 14:09:41.299402	325.5	20.6	-91.4	4.9
2025-01-09 14:09:42.458496	325.2	20.6	-91.8	4.8
2025-01-09 14:09:43.614037	325.0	20.5	-91.7	5.9
2025-01-09 14:09:44.769033	324.7	20.4	-91.6	6.2
2025-01-09 14:09:45.923700	324.5	20.3	-91.9	3.0
2025-01-09 14:09:47.071149	324.2	20.3	-91.6	5.6
2025-01-09 14:09:48.220095	324.0	20.2	-91.6	5.1
2025-01-09 14:09:49.382594	323.8	20.1	-91.8	5.4
2025-01-09 14:09:50.534563	323.5	20.0	-91.8	3.0
2025-01-09 14:09:51.695288	323.3	20.0	-92.0	5.8
2025-01-09 14:09:52.841366	323.0	19.9	-92.1	4.5
2025-01-09 14:09:53.998529	322.8	19.8	-91.9	4.2
2025-01-09 14:09:55.151323	322.6	19.7	-91.7	3.8
2025-01-09 14:09:56.307073	322.3	19.7	-91.1	3.9
2025-01-09 14:09:57.466480	322.1	19.6	-90.9	2.7
2025-01-09 14:09:58.622881	321.8	19.5	-91.5	3.9
2025-01-09 14:09:59.776262	321.6	19.4	-92.1	7.6
2025-01-09 14:10:00.920782	321.4	19.4	-92.1	4.5
2025-01-09 14:10:02.066606	321.2	19.3	-91.9	7.5
2025-01-09 14:10:03.211350	320.9	19.2	-91.8	6.1
2025-01-09 14:10:04.375259	320.7	19.1	-91.9	5.1
2025-01-09 14:10:05.526150	320.5	19.0	-92.0	3.9
2025-01-09 14:10:06.674463	320.2	19.0	-91.8	7.7
2025-01-09 14:10:07.825630	320.0	18.9	-92.2	5.5
2025-01-09 14:10:08.971725	319.8	18.8	-92.1	3.8
2025-01-09 14:10:10.119413	319.6	18.7	-91.7	4.4
2025-01-09 14:10:11.268176	319.4	18.6	-91.2	4.8
2025-01-09 14:10:12.422184	319.1	18.6	-91.4	4.2
2025-01-09 14:10:13.568950	318.9	18.5	-91.4	4.1
2025-01-09 14:10:14.717374	318.7	18.4	-91.4	8.9
2025-01-09 14:10:15.867936	318.5	18.3	-91.7	6.8
2025-01-09 14:10:17.019044	318.3	18.2	-91.9	4.3
2025-01-09 14:10:18.167962	318.1	18.2	-91.1	6.1
2025-01-09 14:10:19.325758	317.8	18.1	-91.5	2.7
2025-01-09 14:10:20.474362	317.6	18.0	-91.5	3.5
2025-01-09 14:10:21.629682	317.4	17.9	-91.7	4.4
2025-01-09 14:10:22.780140	317.2	17.8	-91.4	5.3
2025-01-09 14:10:23.936506	317.0	17.7	-91.7	7.7
2025-01-09 14:10:25.095044	316.8	17.7	-91.1	8.7
2025-01-09 14:10:26.246134	316.6	17.6	-90.9	6.5
2025-01-09 14:10:27.397357	316.4	17.5	-91.5	5.2
2025-01-09 14:10:28.550038	316.2	17.4	-91.4	4.0
2025-01-09 14:10:29.708118	316.0	17.3	-91.5	3.9
2025-01-09 14:10:30.856770	315.8	17.3	-91.8	6.5
2025-01-09 14:10:32.013085	315.6	17.2	-92.4	3.9
2025-01-09 14:10:33.170993	315.4	17.1	-91.4	6.5
2025-01-09 14:10:34.318992	315.2	17.0	-91.0	2.9
2025-01-09 14:10:35.468862	315.0	16.9	-91.3	4.1
2025-01-09 14:10:36.620224	314.8	16.8	-91.6	5.2
2025-01-09 14:10:37.780739	314.6	16.8	-91.6	12.4
2025-01-09 14:10:38.924906	314.4	16.7	-91.5	7.8
2025-01-09 14:10:40.080787	314.2	16.6	-91.4	6.1
2025-01-09 14:10:41.229808	314.0	16.5	-90.9	7.8
2025-01-09 14:10:42.380775	313.8	16.4	-91.6	4.0
2025-01-09 14:10:43.527447	313.6	16.3	-91.9	5.6
2025-01-09 14:10:44.683574	313.4	16.3	-91.5	4.3
2025-01-09 14:10:45.842352	313.2	16.2	-91.5	5.8
2025-01-09 14:10:46.996249	313.1	16.1	-91.6	5.4
2025-01-09 14:10:48.153446	312.9	16.0	-91.2	8.4
2025-01-09 14:10:49.295473	312.7	15.9	-91.7	11.4
2025-01-09 14:10:50.449573	312.5	15.8	-92.3	9.8
2025-01-09 14:10:51.604245	312.3	15.8	-92.0	5.8
2025-01-09 14:10:52.761575	312.1	15.7	-92.1	5.3
2025-01-09 14:10:53.918899	312.0	15.6	-92.1	6.5
2025-01-09 14:10:55.080283	311.8	15.5	-92.0	10.9
2025-01-09 14:10:56.236034	311.6	15.4	-92.0	6.0
2025-01-09 14:10:57.384599	311.4	15.3	-91.9	10.0
2025-01-09 14:10:58.529986	311.2	15.2	-92.0	8.3
2025-01-09 14:10:59.679430	311.1	15.2	-92.3	3.7
2025-01-09 14:11:00.819904	310.9	15.1	-91.9	10.5
2025-01-09 14:11:01.973017	310.7	15.0	-91.5	6.5
2025-01-09 14:11:03.132105	310.5	14.9	-91.2	4.7
2025-01-09 14:11:04.284472	310.4	14.8	-91.1	4.9
2025-01-09 14:11:05.441846	310.2	14.7	-91.5	4.5
2025-01-09 14:11:06.597670	310.0	14.7	-91.6	6.0
#Closed at: 2025-01-09 14:04:44.583869