passes_logs/2025/01/09/LEX_Murmansk/LEX_Murmansk__20250109_133744_NOAA_19_rec.log

#Pass ID: 20250109_133744_NOAA 19
#Satellite: NOAA 19
#Configuration: NOAA 19
#Start time: 2025-01-09 13:37:39.973344

#LorettStation: 1.0.0 05.05.2024
#Station: LEX_Murmansk
#Location: 33.156738 lon 68.926811 lat
#TLE: 1 33591U 09005A   25008.91550554  .00000294  00000+0  18118-3 0  9990
#TLE: 2 33591  99.0208  72.6306 0014612  73.7755 286.5023 14.13254864820423

#Time	Az	El	Level	SNR
2025-01-09 13:37:52.165000	45.6	15.9	-86.2	1.9
2025-01-09 13:37:53.329383	45.5	16.0	-86.5	2.6
2025-01-09 13:37:54.494597	45.3	16.1	-86.1	3.6
2025-01-09 13:37:55.656696	45.1	16.1	-86.2	2.6
2025-01-09 13:37:56.820563	44.9	16.2	-85.9	3.4
2025-01-09 13:37:57.987938	44.7	16.3	-85.8	1.9
2025-01-09 13:37:59.155460	44.5	16.4	-85.4	1.8
2025-01-09 13:38:00.303962	44.3	16.5	-85.8	2.8
2025-01-09 13:38:01.460195	44.1	16.6	-85.9	3.3
2025-01-09 13:38:02.618556	43.9	16.7	-85.6	3.5
2025-01-09 13:38:03.784040	43.7	16.7	-85.6	4.0
2025-01-09 13:38:04.946332	43.5	16.8	-85.6	4.4
2025-01-09 13:38:06.106090	43.3	16.9	-86.2	4.3
2025-01-09 13:38:07.268109	43.1	17.0	-85.8	3.3
2025-01-09 13:38:08.435776	42.9	17.1	-85.8	4.8
2025-01-09 13:38:09.599979	42.7	17.2	-85.7	4.6
2025-01-09 13:38:10.762782	42.5	17.2	-85.6	4.7
2025-01-09 13:38:11.926113	42.3	17.3	-85.6	2.8
2025-01-09 13:38:13.095867	42.1	17.4	-85.7	4.4
2025-01-09 13:38:14.259826	41.9	17.5	-85.8	3.1
2025-01-09 13:38:15.424487	41.7	17.6	-86.2	5.1
2025-01-09 13:38:16.591414	41.5	17.7	-85.7	4.2
2025-01-09 13:38:17.756692	41.2	17.7	-85.6	4.4
2025-01-09 13:38:18.920187	41.0	17.8	-86.1	3.6
2025-01-09 13:38:20.079873	40.8	17.9	-85.1	4.2
2025-01-09 13:38:21.241934	40.6	18.0	-85.5	3.8
2025-01-09 13:38:22.404923	40.4	18.1	-85.6	4.4
2025-01-09 13:38:23.569082	40.2	18.2	-86.0	4.2
2025-01-09 13:38:24.732879	40.0	18.2	-85.4	4.7
2025-01-09 13:38:25.888226	39.7	18.3	-85.7	3.5
2025-01-09 13:38:27.054365	39.5	18.4	-85.7	3.9
2025-01-09 13:38:28.213805	39.3	18.5	-85.9	6.7
2025-01-09 13:38:29.386239	39.1	18.6	-86.0	5.8
2025-01-09 13:38:30.540872	38.8	18.6	-86.0	3.5
2025-01-09 13:38:31.717153	38.6	18.7	-85.7	6.0
2025-01-09 13:38:32.886379	38.4	18.8	-86.0	5.0
2025-01-09 13:38:34.044165	38.2	18.9	-85.7	5.2
2025-01-09 13:38:35.208055	37.9	19.0	-86.1	3.7
2025-01-09 13:38:36.372539	37.7	19.1	-85.6	5.9
2025-01-09 13:38:37.526717	37.5	19.1	-85.6	5.6
2025-01-09 13:38:38.690986	37.2	19.2	-85.6	5.6
2025-01-09 13:38:39.855258	37.0	19.3	-85.5	6.6
2025-01-09 13:38:41.008273	36.8	19.4	-85.5	6.0
2025-01-09 13:38:42.173963	36.5	19.5	-85.7	4.7
2025-01-09 13:38:43.334903	36.3	19.5	-85.8	5.2
2025-01-09 13:38:44.500054	36.0	19.6	-85.8	3.6
2025-01-09 13:38:45.666648	35.8	19.7	-85.8	4.5
2025-01-09 13:38:46.825944	35.6	19.8	-85.9	3.8
2025-01-09 13:38:47.993045	35.3	19.8	-85.8	4.6
2025-01-09 13:38:49.156457	35.1	19.9	-85.8	4.6
2025-01-09 13:38:50.316678	34.8	20.0	-86.0	4.3
2025-01-09 13:38:51.479629	34.6	20.1	-85.9	5.7
2025-01-09 13:38:52.641737	34.3	20.2	-86.1	6.6
2025-01-09 13:38:53.802688	34.1	20.2	-85.8	5.1
2025-01-09 13:38:54.973719	33.8	20.3	-86.2	8.1
2025-01-09 13:38:56.138240	33.6	20.4	-86.0	7.6
2025-01-09 13:38:57.309025	33.3	20.5	-86.1	4.1
2025-01-09 13:38:58.470017	33.1	20.5	-85.4	5.2
2025-01-09 13:38:59.623522	32.8	20.6	-86.3	4.4
2025-01-09 13:39:00.777717	32.6	20.7	-85.8	3.3
2025-01-09 13:39:01.939124	32.3	20.8	-85.9	3.8
2025-01-09 13:39:03.107122	32.0	20.8	-85.4	5.5
2025-01-09 13:39:04.263280	31.8	20.9	-85.6	5.8
2025-01-09 13:39:05.427403	31.5	21.0	-85.6	7.8
2025-01-09 13:39:06.585112	31.3	21.0	-85.1	8.0
2025-01-09 13:39:07.751620	31.0	21.1	-85.0	6.2
2025-01-09 13:39:08.917984	30.7	21.2	-84.0	6.8
2025-01-09 13:39:10.075065	30.5	21.3	-83.7	5.7
2025-01-09 13:39:11.222789	30.2	21.3	-83.8	4.2
2025-01-09 13:39:12.390987	29.9	21.4	-83.1	2.8
2025-01-09 13:39:13.555332	29.7	21.5	-83.0	4.5
2025-01-09 13:39:14.716378	29.4	21.5	-82.2	2.4
2025-01-09 13:39:15.884162	29.1	21.6	-82.9	4.3
2025-01-09 13:39:17.045702	28.8	21.7	-83.1	3.1
2025-01-09 13:39:18.213566	28.6	21.7	-83.2	2.5
2025-01-09 13:39:19.377409	28.3	21.8	-83.6	6.2
2025-01-09 13:39:20.534018	28.0	21.9	-83.0	5.1
2025-01-09 13:39:21.692891	27.7	21.9	-82.9	6.9
2025-01-09 13:39:22.855438	27.5	22.0	-83.5	5.7
2025-01-09 13:39:24.021833	27.2	22.1	-83.4	8.1
2025-01-09 13:39:25.175212	26.9	22.1	-83.0	5.5
2025-01-09 13:39:26.329632	26.6	22.2	-83.6	4.0
2025-01-09 13:39:27.497408	26.3	22.2	-83.4	2.9
2025-01-09 13:39:28.660150	26.0	22.3	-82.7	4.6
2025-01-09 13:39:29.822281	25.8	22.4	-83.3	4.7
2025-01-09 13:39:30.978710	25.5	22.4	-83.4	5.6
2025-01-09 13:39:32.141070	25.2	22.5	-82.7	2.5
2025-01-09 13:39:33.307341	24.9	22.6	-83.2	3.9
2025-01-09 13:39:34.466754	24.6	22.6	-83.9	3.2
2025-01-09 13:39:35.631870	24.3	22.7	-84.4	5.5
2025-01-09 13:39:36.793170	24.0	22.7	-84.1	6.6
2025-01-09 13:39:37.951941	23.7	22.8	-84.2	4.2
2025-01-09 13:39:39.117181	23.4	22.8	-83.9	5.8
2025-01-09 13:39:40.279783	23.1	22.9	-83.7	5.0
2025-01-09 13:39:41.444855	22.8	22.9	-84.5	3.4
2025-01-09 13:39:42.591915	22.5	23.0	-84.4	2.8
2025-01-09 13:39:43.751310	22.2	23.1	-84.5	1.9
2025-01-09 13:39:44.910666	21.9	23.1	-84.1	3.2
2025-01-09 13:39:46.062533	21.6	23.2	-84.3	3.0
2025-01-09 13:39:47.220637	21.3	23.2	-83.2	0.9
2025-01-09 13:39:48.387193	21.0	23.3	-84.1	3.2
2025-01-09 13:39:49.549186	20.7	23.3	-84.1	3.0
2025-01-09 13:39:50.706120	20.4	23.4	-84.0	2.7
2025-01-09 13:39:51.868736	20.1	23.4	-84.6	2.7
2025-01-09 13:39:53.020057	19.8	23.4	-84.2	5.1
2025-01-09 13:39:54.184782	19.5	23.5	-84.5	5.8
2025-01-09 13:39:55.351960	19.2	23.5	-83.8	4.2
2025-01-09 13:39:56.516445	18.9	23.6	-84.1	6.2
2025-01-09 13:39:57.678652	18.6	23.6	-84.0	2.8
2025-01-09 13:39:58.840395	18.3	23.7	-84.3	7.6
2025-01-09 13:40:00.002218	17.9	23.7	-84.5	3.1
2025-01-09 13:40:01.149665	17.6	23.8	-84.1	6.4
2025-01-09 13:40:02.305601	17.3	23.8	-84.1	4.1
2025-01-09 13:40:03.470641	17.0	23.8	-84.3	3.3
2025-01-09 13:40:04.643007	16.7	23.9	-84.9	6.5
2025-01-09 13:40:05.810151	16.4	23.9	-84.1	2.7
2025-01-09 13:40:06.972445	16.0	23.9	-84.0	3.6
2025-01-09 13:40:08.142344	15.7	24.0	-84.6	4.6
2025-01-09 13:40:09.297060	15.4	24.0	-84.8	3.0
2025-01-09 13:40:10.458274	15.1	24.0	-84.0	2.8
2025-01-09 13:40:11.618514	14.8	24.1	-83.7	5.7
2025-01-09 13:40:12.784443	14.4	24.1	-84.4	5.2
2025-01-09 13:40:13.953596	14.1	24.1	-84.7	6.6
2025-01-09 13:40:15.113714	13.8	24.2	-84.2	7.7
2025-01-09 13:40:16.280194	13.5	24.2	-83.8	4.8
2025-01-09 13:40:17.436801	13.2	24.2	-84.1	4.4
2025-01-09 13:40:18.599400	12.8	24.3	-84.3	6.9
2025-01-09 13:40:19.764195	12.5	24.3	-84.5	5.6
2025-01-09 13:40:20.923037	12.2	24.3	-84.3	4.6
2025-01-09 13:40:22.082744	11.9	24.3	-84.3	2.6
2025-01-09 13:40:23.252582	11.5	24.4	-84.6	2.5
2025-01-09 13:40:24.408335	11.2	24.4	-84.8	3.4
2025-01-09 13:40:25.584114	10.9	24.4	-84.8	3.7
2025-01-09 13:40:26.746531	10.5	24.4	-84.7	3.9
2025-01-09 13:40:27.908941	10.2	24.4	-84.5	3.1
2025-01-09 13:40:29.068005	9.9	24.5	-84.7	1.2
2025-01-09 13:40:30.235212	9.6	24.5	-84.5	4.6
2025-01-09 13:40:31.396434	9.2	24.5	-84.4	2.5
2025-01-09 13:40:32.559556	8.9	24.5	-84.4	2.8
2025-01-09 13:40:33.728484	8.6	24.5	-84.7	2.5
2025-01-09 13:40:34.897495	8.2	24.5	-84.3	1.1
2025-01-09 13:40:36.069446	7.9	24.5	-84.8	1.4
2025-01-09 13:40:37.236648	7.6	24.6	-85.1	2.0
2025-01-09 13:40:38.403245	7.2	24.6	-84.9	3.5
2025-01-09 13:40:39.568803	6.9	24.6	-85.0	4.4
2025-01-09 13:40:40.730748	6.6	24.6	-85.0	3.5
2025-01-09 13:40:41.889660	6.3	24.6	-85.1	5.0
2025-01-09 13:40:43.055672	5.9	24.6	-85.1	4.6
2025-01-09 13:40:44.214736	5.6	24.6	-85.3	6.9
2025-01-09 13:40:45.378010	5.3	24.6	-85.3	6.8
2025-01-09 13:40:46.544088	4.9	24.6	-85.5	4.1
2025-01-09 13:40:47.712026	4.6	24.6	-85.3	7.0
2025-01-09 13:40:48.877408	4.3	24.6	-85.9	6.1
2025-01-09 13:40:50.040471	3.9	24.6	-86.1	7.7
2025-01-09 13:40:51.202549	3.6	24.6	-85.8	5.2
2025-01-09 13:40:52.368788	3.3	24.6	-85.7	5.9
2025-01-09 13:40:53.533854	2.9	24.6	-85.6	10.8
2025-01-09 13:40:54.697730	2.6	24.6	-86.5	5.0
2025-01-09 13:40:55.865703	2.3	24.6	-86.1	7.6
2025-01-09 13:40:57.026060	1.9	24.6	-85.8	4.4
2025-01-09 13:40:58.186287	1.6	24.6	-85.8	2.2
2025-01-09 13:40:59.350115	1.3	24.6	-85.2	4.3
2025-01-09 13:41:00.497278	1.0	24.5	-85.4	5.2
2025-01-09 13:41:01.653287	0.6	24.5	-85.3	5.3
2025-01-09 13:41:02.818729	0.3	24.5	-84.8	3.8
2025-01-09 13:41:03.985930	360.0	24.5	-85.4	3.2
2025-01-09 13:41:05.148972	359.6	24.5	-85.2	5.3
2025-01-09 13:41:06.319950	359.3	24.5	-85.3	4.8
2025-01-09 13:41:07.483445	359.0	24.5	-85.7	4.6
2025-01-09 13:41:08.646960	358.6	24.4	-85.7	4.2
2025-01-09 13:41:09.811312	358.3	24.4	-85.8	3.0
2025-01-09 13:41:10.968148	358.0	24.4	-86.3	3.5
2025-01-09 13:41:12.131589	357.7	24.4	-85.7	8.5
2025-01-09 13:41:13.295105	357.3	24.4	-86.1	5.6
2025-01-09 13:41:14.457163	357.0	24.3	-86.1	7.2
2025-01-09 13:41:15.618630	356.7	24.3	-86.2	6.5
2025-01-09 13:41:16.780697	356.4	24.3	-86.0	3.2
2025-01-09 13:41:17.941280	356.0	24.3	-86.3	2.8
2025-01-09 13:41:19.109441	355.7	24.2	-86.1	5.1
2025-01-09 13:41:20.270655	355.4	24.2	-86.2	4.9
2025-01-09 13:41:21.424369	355.1	24.2	-86.6	3.7
2025-01-09 13:41:22.584388	354.7	24.2	-86.6	5.7
2025-01-09 13:41:23.748754	354.4	24.1	-86.6	3.9
2025-01-09 13:41:24.914243	354.1	24.1	-86.9	7.2
2025-01-09 13:41:26.079962	353.8	24.1	-86.8	6.7
2025-01-09 13:41:27.241202	353.5	24.0	-87.3	7.7
2025-01-09 13:41:28.398233	353.1	24.0	-86.6	6.9
2025-01-09 13:41:29.562908	352.8	24.0	-87.0	8.9
2025-01-09 13:41:30.721656	352.5	23.9	-86.0	6.7
2025-01-09 13:41:31.886570	352.2	23.9	-86.6	6.5
2025-01-09 13:41:33.049946	351.9	23.9	-85.9	8.2
2025-01-09 13:41:34.218324	351.6	23.8	-86.6	3.2
2025-01-09 13:41:35.383676	351.2	23.8	-86.7	4.6
2025-01-09 13:41:36.546376	350.9	23.7	-86.0	5.7
2025-01-09 13:41:37.711422	350.6	23.7	-86.8	4.1
2025-01-09 13:41:38.866267	350.3	23.7	-86.3	4.9
2025-01-09 13:41:40.034138	350.0	23.6	-86.5	3.7
2025-01-09 13:41:41.191203	349.7	23.6	-86.3	5.4
2025-01-09 13:41:42.359749	349.4	23.5	-86.1	4.1
2025-01-09 13:41:43.523017	349.1	23.5	-86.3	5.3
2025-01-09 13:41:44.687857	348.7	23.4	-85.6	4.8
2025-01-09 13:41:45.851537	348.4	23.4	-86.3	1.8
2025-01-09 13:41:47.012926	348.1	23.3	-86.2	6.6
2025-01-09 13:41:48.180396	347.8	23.3	-86.2	4.7
2025-01-09 13:41:49.342167	347.5	23.2	-86.8	4.6
2025-01-09 13:41:50.493617	347.2	23.2	-86.7	3.5
2025-01-09 13:41:51.651463	346.9	23.1	-86.5	4.8
2025-01-09 13:41:52.804478	346.6	23.1	-86.3	2.3
2025-01-09 13:41:53.966572	346.3	23.0	-86.4	3.5
2025-01-09 13:41:55.138183	346.0	23.0	-86.6	6.1
2025-01-09 13:41:56.302229	345.7	22.9	-86.2	3.6
2025-01-09 13:41:57.469142	345.4	22.9	-86.4	4.6
2025-01-09 13:41:58.632968	345.1	22.8	-86.0	4.3
2025-01-09 13:41:59.794593	344.8	22.8	-86.2	5.1
2025-01-09 13:42:00.940715	344.5	22.7	-86.4	4.4
2025-01-09 13:42:02.095294	344.3	22.7	-85.8	6.2
2025-01-09 13:42:03.252535	344.0	22.6	-86.6	2.2
2025-01-09 13:42:04.416894	343.7	22.5	-86.5	4.6
2025-01-09 13:42:05.578602	343.4	22.5	-86.3	3.0
2025-01-09 13:42:06.746024	343.1	22.4	-85.9	3.6
2025-01-09 13:42:07.912072	342.8	22.4	-86.4	4.1
2025-01-09 13:42:09.079547	342.5	22.3	-86.5	4.7
2025-01-09 13:42:10.245432	342.2	22.2	-86.1	2.9
2025-01-09 13:42:11.406978	341.9	22.2	-86.1	4.5
2025-01-09 13:42:12.576461	341.7	22.1	-86.6	4.8
2025-01-09 13:42:13.747760	341.4	22.0	-86.1	4.3
2025-01-09 13:42:14.902697	341.1	22.0	-86.1	3.5
2025-01-09 13:42:16.067423	340.8	21.9	-86.1	3.7
2025-01-09 13:42:17.225622	340.5	21.9	-85.9	2.9
2025-01-09 13:42:18.390071	340.3	21.8	-85.2	3.2
2025-01-09 13:42:19.554198	340.0	21.7	-85.7	3.0
2025-01-09 13:42:20.719715	339.7	21.7	-85.9	3.6
2025-01-09 13:42:21.879352	339.4	21.6	-85.4	4.6
2025-01-09 13:42:23.041740	339.2	21.5	-85.4	4.4
2025-01-09 13:42:24.204604	338.9	21.4	-85.5	4.5
2025-01-09 13:42:25.377086	338.6	21.4	-86.1	4.6
2025-01-09 13:42:26.538484	338.4	21.3	-85.8	4.1
2025-01-09 13:42:27.696129	338.1	21.2	-85.6	3.4
2025-01-09 13:42:28.861371	337.8	21.2	-85.7	2.5
2025-01-09 13:42:30.024012	337.6	21.1	-86.2	5.0
2025-01-09 13:42:31.184944	337.3	21.0	-85.8	3.1
2025-01-09 13:42:32.349469	337.0	21.0	-85.7	6.6
2025-01-09 13:42:33.522024	336.8	20.9	-85.8	4.0
2025-01-09 13:42:34.688192	336.5	20.8	-86.0	5.6
2025-01-09 13:42:35.864389	336.2	20.7	-86.3	4.7
2025-01-09 13:42:37.019991	336.0	20.7	-85.6	5.3
2025-01-09 13:42:38.185403	335.7	20.6	-85.7	4.8
2025-01-09 13:42:39.356517	335.5	20.5	-86.0	5.7
2025-01-09 13:42:40.517475	335.2	20.4	-85.9	4.8
2025-01-09 13:42:41.677350	335.0	20.4	-85.3	4.5
2025-01-09 13:42:42.840290	334.7	20.3	-85.1	4.9
2025-01-09 13:42:44.006658	334.5	20.2	-85.3	3.4
2025-01-09 13:42:45.170766	334.2	20.1	-84.7	5.2
2025-01-09 13:42:46.333390	334.0	20.1	-84.7	3.0
2025-01-09 13:42:47.497988	333.7	20.0	-85.2	4.2
2025-01-09 13:42:48.662220	333.5	19.9	-85.5	3.0
2025-01-09 13:42:49.829633	333.2	19.8	-85.5	2.9
2025-01-09 13:42:50.993974	333.0	19.7	-85.1	5.2
2025-01-09 13:42:52.147705	332.8	19.7	-85.5	4.9
2025-01-09 13:42:53.317641	332.5	19.6	-85.0	4.3
2025-01-09 13:42:54.478147	332.3	19.5	-85.1	5.3
2025-01-09 13:42:55.645995	332.0	19.4	-84.9	4.2
2025-01-09 13:42:56.809147	331.8	19.4	-85.1	3.2
2025-01-09 13:42:57.963687	331.6	19.3	-85.3	4.6
2025-01-09 13:42:59.130682	331.3	19.2	-84.7	3.2
2025-01-09 13:43:00.287030	331.1	19.1	-85.1	4.7
2025-01-09 13:43:01.420784	330.9	19.0	-85.6	3.3
2025-01-09 13:43:02.585674	330.6	19.0	-85.5	5.3
2025-01-09 13:43:03.742764	330.4	18.9	-85.3	4.5
2025-01-09 13:43:04.909789	330.2	18.8	-85.1	4.9
2025-01-09 13:43:06.073674	330.0	18.7	-85.2	3.7
2025-01-09 13:43:07.238851	329.7	18.6	-84.7	3.6
2025-01-09 13:43:08.405990	329.5	18.6	-84.9	4.4
2025-01-09 13:43:09.567887	329.3	18.5	-85.0	5.4
2025-01-09 13:43:10.735233	329.1	18.4	-85.1	3.1
2025-01-09 13:43:11.895090	328.8	18.3	-85.5	5.1
2025-01-09 13:43:13.061974	328.6	18.2	-85.2	5.7
2025-01-09 13:43:14.226374	328.4	18.1	-84.9	2.9
2025-01-09 13:43:15.387498	328.2	18.1	-84.9	3.8
2025-01-09 13:43:16.552485	328.0	18.0	-84.5	6.5
2025-01-09 13:43:17.713186	327.8	17.9	-84.8	3.9
2025-01-09 13:43:18.880648	327.5	17.8	-86.0	2.9
2025-01-09 13:43:20.046247	327.3	17.7	-85.1	3.8
2025-01-09 13:43:21.212255	327.1	17.6	-85.5	4.2
2025-01-09 13:43:22.367676	326.9	17.6	-86.4	5.5
2025-01-09 13:43:23.535170	326.7	17.5	-85.1	3.0
2025-01-09 13:43:24.695774	326.5	17.4	-85.2	4.1
2025-01-09 13:43:25.860409	326.3	17.3	-85.2	4.5
2025-01-09 13:43:27.028027	326.1	17.2	-85.4	5.9
2025-01-09 13:43:28.199946	325.9	17.1	-85.5	3.2
2025-01-09 13:43:29.365734	325.7	17.1	-84.6	3.8
2025-01-09 13:43:30.533144	325.5	17.0	-84.7	1.9
2025-01-09 13:43:31.696166	325.3	16.9	-84.8	3.0
2025-01-09 13:43:32.866056	325.1	16.8	-84.8	5.4
2025-01-09 13:43:34.019949	324.9	16.7	-84.8	5.2
2025-01-09 13:43:35.184679	324.7	16.6	-85.1	4.4
2025-01-09 13:43:36.360954	324.5	16.6	-84.6	4.1
2025-01-09 13:43:37.520171	324.3	16.5	-84.5	6.2
2025-01-09 13:43:38.684650	324.1	16.4	-85.4	4.0
2025-01-09 13:43:39.847944	323.9	16.3	-84.8	5.7
2025-01-09 13:43:41.001118	323.7	16.2	-85.2	3.9
2025-01-09 13:43:42.156459	323.5	16.1	-85.3	4.2
2025-01-09 13:43:43.321545	323.3	16.0	-85.3	4.1
2025-01-09 13:43:44.486008	323.1	16.0	-85.3	5.2
2025-01-09 13:43:45.655883	323.0	15.9	-85.9	4.6
2025-01-09 13:43:46.813771	322.8	15.8	-85.9	5.2
2025-01-09 13:43:47.980789	322.6	15.7	-85.9	4.4
2025-01-09 13:43:49.146453	322.4	15.6	-85.4	4.9
2025-01-09 13:43:50.313874	322.2	15.5	-85.2	4.2
2025-01-09 13:43:51.473883	322.0	15.5	-85.5	3.8
2025-01-09 13:43:52.633746	321.9	15.4	-85.1	4.1
2025-01-09 13:43:53.799655	321.7	15.3	-85.2	1.9
2025-01-09 13:43:54.959633	321.5	15.2	-85.3	3.1
2025-01-09 13:43:56.123905	321.3	15.1	-85.5	4.4
2025-01-09 13:43:57.287983	321.1	15.0	-85.4	3.7
2025-01-09 13:43:58.467624	321.0	14.9	-85.9	3.4
2025-01-09 13:43:59.628253	320.8	14.9	-85.7	2.2
2025-01-09 13:44:00.774886	320.6	14.8	-85.5	4.9
2025-01-09 13:44:01.932786	320.4	14.7	-85.7	3.7
#Closed at: 2025-01-09 13:37:44.954674