passes_logs/2025/01/09/LEX_Murmansk/LEX_Murmansk__20250109_202029_NOAA_19_rec.log

#Pass ID: 20250109_202029_NOAA 19
#Satellite: NOAA 19
#Configuration: NOAA 19
#Start time: 2025-01-09 20:20:24.428610

#LorettStation: 1.0.0 05.05.2024
#Station: LEX_Murmansk
#Location: 33.156738 lon 68.926811 lat
#TLE: 1 33591U 09005A   25008.91550554  .00000294  00000+0  18118-3 0  9990
#TLE: 2 33591  99.0208  72.6306 0014612  73.7755 286.5023 14.13254864820423

#Time	Az	El	Level	SNR
2025-01-09 20:20:36.550518	246.6	15.7	-92.7	10.7
2025-01-09 20:20:37.698539	246.8	15.7	-92.8	10.8
2025-01-09 20:20:38.846990	247.0	15.8	-92.3	7.2
2025-01-09 20:20:39.997245	247.2	15.9	-92.4	5.3
2025-01-09 20:20:41.154154	247.5	15.9	-92.4	3.7
2025-01-09 20:20:42.314224	247.7	16.0	-92.3	1.2
2025-01-09 20:20:43.491185	247.9	16.1	-92.6	3.2
2025-01-09 20:20:44.647902	248.1	16.1	-92.4	3.7
2025-01-09 20:20:45.803406	248.3	16.2	-92.9	4.8
2025-01-09 20:20:46.963078	248.6	16.3	-92.8	7.6
2025-01-09 20:20:48.116432	248.8	16.3	-92.3	4.6
2025-01-09 20:20:49.269274	249.0	16.4	-92.4	8.5
2025-01-09 20:20:50.413469	249.2	16.4	-92.7	7.5
2025-01-09 20:20:51.565549	249.5	16.5	-92.3	8.7
2025-01-09 20:20:52.719180	249.7	16.6	-92.8	11.8
2025-01-09 20:20:53.852790	249.9	16.6	-92.8	7.8
2025-01-09 20:20:55.005413	250.1	16.7	-92.4	3.5
2025-01-09 20:20:56.154495	250.4	16.7	-92.4	7.9
2025-01-09 20:20:57.303687	250.6	16.8	-92.6	1.9
2025-01-09 20:20:58.457790	250.8	16.9	-92.6	7.6
2025-01-09 20:20:59.605685	251.0	16.9	-92.8	11.3
2025-01-09 20:21:00.746683	251.3	17.0	-92.5	7.9
2025-01-09 20:21:01.899400	251.5	17.0	-92.8	7.2
2025-01-09 20:21:03.064115	251.7	17.1	-92.8	5.7
2025-01-09 20:21:04.217258	252.0	17.2	-92.5	4.0
2025-01-09 20:21:05.380551	252.2	17.2	-92.3	1.9
2025-01-09 20:21:06.532647	252.4	17.3	-91.9	3.5
2025-01-09 20:21:07.691775	252.7	17.3	-92.5	3.6
2025-01-09 20:21:08.844133	252.9	17.4	-93.1	2.0
2025-01-09 20:21:09.998937	253.2	17.4	-92.5	4.0
2025-01-09 20:21:11.142709	253.4	17.5	-92.6	4.7
2025-01-09 20:21:12.298988	253.6	17.6	-92.6	3.0
2025-01-09 20:21:13.459695	253.9	17.6	-92.6	5.0
2025-01-09 20:21:14.613059	254.1	17.7	-92.8	5.8
2025-01-09 20:21:15.774764	254.4	17.7	-92.4	4.6
2025-01-09 20:21:16.922237	254.6	17.8	-93.0	9.3
2025-01-09 20:21:18.074076	254.9	17.8	-92.7	4.8
2025-01-09 20:21:19.223974	255.1	17.9	-92.8	6.4
2025-01-09 20:21:20.376280	255.3	17.9	-92.5	6.8
2025-01-09 20:21:21.529855	255.6	18.0	-92.8	8.2
2025-01-09 20:21:22.695672	255.8	18.0	-92.7	5.4
2025-01-09 20:21:23.847399	256.1	18.1	-91.8	1.6
2025-01-09 20:21:24.999908	256.3	18.1	-92.7	3.6
2025-01-09 20:21:26.155838	256.6	18.2	-90.9	2.3
2025-01-09 20:21:27.316173	256.8	18.2	-92.6	2.1
2025-01-09 20:21:28.466907	257.1	18.3	-92.7	1.8
2025-01-09 20:21:29.620566	257.3	18.3	-92.6	1.8
2025-01-09 20:21:30.772821	257.6	18.4	-92.5	5.5
2025-01-09 20:21:31.925610	257.9	18.4	-93.0	2.5
2025-01-09 20:21:33.081041	258.1	18.5	-92.6	4.3
2025-01-09 20:21:34.232533	258.4	18.5	-92.2	1.6
2025-01-09 20:21:35.388562	258.6	18.6	-93.1	1.5
2025-01-09 20:21:36.544436	258.9	18.6	-92.9	1.4
2025-01-09 20:21:37.697163	259.1	18.7	-92.7	2.4
2025-01-09 20:21:38.854002	259.4	18.7	-92.7	2.8
2025-01-09 20:21:40.016990	259.7	18.8	-92.9	1.7
2025-01-09 20:21:41.171862	259.9	18.8	-92.4	1.1
2025-01-09 20:21:42.327295	260.2	18.9	-92.2	1.3
2025-01-09 20:21:43.483752	260.4	18.9	-92.6	2.6
2025-01-09 20:21:44.647288	260.7	18.9	-92.9	1.8
2025-01-09 20:21:45.803939	261.0	19.0	-92.6	0.3
2025-01-09 20:21:46.954347	261.2	19.0	-92.8	1.2
2025-01-09 20:21:48.114242	261.5	19.1	-92.5	3.3
2025-01-09 20:21:49.274093	261.8	19.1	-91.3	3.4
2025-01-09 20:21:50.432016	262.0	19.2	-92.3	2.9
2025-01-09 20:21:51.580363	262.3	19.2	-92.5	1.1
2025-01-09 20:21:52.739406	262.6	19.2	-92.9	3.0
2025-01-09 20:21:53.901945	262.8	19.3	-92.7	1.3
2025-01-09 20:21:55.064700	263.1	19.3	-92.9	5.9
2025-01-09 20:21:56.219628	263.4	19.4	-92.0	3.7
2025-01-09 20:21:57.381535	263.6	19.4	-90.7	5.4
2025-01-09 20:21:58.541498	263.9	19.4	-92.9	1.3
2025-01-09 20:21:59.701345	264.2	19.5	-92.4	2.0
2025-01-09 20:22:00.849423	264.5	19.5	-92.4	2.1
2025-01-09 20:22:02.008995	264.7	19.5	-92.7	2.2
2025-01-09 20:22:03.167547	265.0	19.6	-92.1	3.2
2025-01-09 20:22:04.329309	265.3	19.6	-90.0	4.3
2025-01-09 20:22:05.479022	265.6	19.6	-91.0	5.6
2025-01-09 20:22:06.633371	265.8	19.7	-93.0	1.9
2025-01-09 20:22:07.784755	266.1	19.7	-92.7	2.7
2025-01-09 20:22:08.935619	266.4	19.7	-92.9	3.0
2025-01-09 20:22:10.092503	266.7	19.8	-92.8	3.4
2025-01-09 20:22:11.248668	266.9	19.8	-92.4	1.3
2025-01-09 20:22:12.403440	267.2	19.8	-88.8	3.6
2025-01-09 20:22:13.560197	267.5	19.9	-91.2	7.1
2025-01-09 20:22:14.714599	267.8	19.9	-91.3	2.7
2025-01-09 20:22:15.871834	268.1	19.9	-92.5	2.3
2025-01-09 20:22:17.025723	268.3	19.9	-92.6	0.6
2025-01-09 20:22:18.176447	268.6	20.0	-92.7	1.0
2025-01-09 20:22:19.326536	268.9	20.0	-92.3	1.2
2025-01-09 20:22:20.460418	269.2	20.0	-92.5	2.9
2025-01-09 20:22:21.580973	269.4	20.0	-90.4	3.3
2025-01-09 20:22:22.701729	269.7	20.1	-92.7	1.2
2025-01-09 20:22:23.822359	270.0	20.1	-90.6	1.9
2025-01-09 20:22:24.942846	270.3	20.1	-92.3	2.5
2025-01-09 20:22:26.066456	270.5	20.1	-92.5	2.7
2025-01-09 20:22:27.187431	270.8	20.2	-92.4	2.2
2025-01-09 20:22:28.312582	271.1	20.2	-91.7	3.7
2025-01-09 20:22:29.442460	271.4	20.2	-92.6	2.3
2025-01-09 20:22:30.591493	271.7	20.2	-93.0	3.2
2025-01-09 20:22:31.734745	271.9	20.2	-93.2	2.1
2025-01-09 20:22:32.892739	272.2	20.3	-93.0	2.6
2025-01-09 20:22:34.047207	272.5	20.3	-92.9	3.8
2025-01-09 20:22:35.202586	272.8	20.3	-92.8	2.7
2025-01-09 20:22:36.470518	273.1	20.3	-92.9	0.3
2025-01-09 20:22:37.630603	273.4	20.3	-92.2	3.7
2025-01-09 20:22:38.781482	273.7	20.3	-93.0	0.6
2025-01-09 20:22:40.028617	274.0	20.3	-93.1	1.0
2025-01-09 20:22:41.170671	274.3	20.4	-92.7	2.9
2025-01-09 20:22:42.300724	274.6	20.4	-92.4	3.3
2025-01-09 20:22:43.444603	274.8	20.4	-92.7	2.8
2025-01-09 20:22:44.590580	275.1	20.4	-93.1	5.6
2025-01-09 20:22:45.741257	275.4	20.4	-92.8	1.2
2025-01-09 20:22:46.891281	275.7	20.4	-93.0	3.7
2025-01-09 20:22:48.036746	276.0	20.4	-93.4	4.0
2025-01-09 20:22:49.194962	276.3	20.4	-92.9	3.0
2025-01-09 20:22:50.351991	276.6	20.4	-92.7	2.1
2025-01-09 20:22:51.502865	276.9	20.4	-92.9	5.0
2025-01-09 20:22:52.656323	277.2	20.5	-92.6	2.4
2025-01-09 20:22:53.814146	277.4	20.5	-92.7	3.2
2025-01-09 20:22:54.964576	277.7	20.5	-92.8	3.4
2025-01-09 20:22:56.119463	278.0	20.5	-92.6	2.6
2025-01-09 20:22:57.274656	278.3	20.5	-92.8	2.8
2025-01-09 20:22:58.422634	278.6	20.5	-92.6	5.2
2025-01-09 20:22:59.567981	278.9	20.5	-92.9	7.7
2025-01-09 20:23:00.706718	279.2	20.5	-92.9	8.7
2025-01-09 20:23:01.870000	279.5	20.5	-92.8	5.0
2025-01-09 20:23:03.025810	279.7	20.5	-93.0	7.7
2025-01-09 20:23:04.179301	280.0	20.5	-92.7	5.8
2025-01-09 20:23:05.340306	280.3	20.5	-92.0	6.6
2025-01-09 20:23:06.492328	280.6	20.5	-92.5	7.0
2025-01-09 20:23:07.638910	280.9	20.5	-92.3	6.0
2025-01-09 20:23:08.795379	281.2	20.5	-92.6	7.9
2025-01-09 20:23:09.948120	281.5	20.5	-93.1	8.7
2025-01-09 20:23:11.098634	281.8	20.5	-93.0	9.8
2025-01-09 20:23:12.260716	282.1	20.4	-92.7	7.0
2025-01-09 20:23:13.416881	282.4	20.4	-92.7	5.7
2025-01-09 20:23:14.573397	282.6	20.4	-93.0	8.0
2025-01-09 20:23:15.729854	282.9	20.4	-92.8	4.7
2025-01-09 20:23:16.878135	283.2	20.4	-92.8	8.6
2025-01-09 20:23:18.014230	283.5	20.4	-93.2	7.9
2025-01-09 20:23:19.167018	283.8	20.4	-92.8	4.7
2025-01-09 20:23:20.320512	284.1	20.4	-92.6	3.8
2025-01-09 20:23:21.468456	284.4	20.4	-92.9	2.0
2025-01-09 20:23:22.623076	284.6	20.4	-93.1	4.0
2025-01-09 20:23:23.778660	284.9	20.3	-93.1	3.2
2025-01-09 20:23:24.936359	285.2	20.3	-92.8	3.8
2025-01-09 20:23:26.091643	285.5	20.3	-93.1	5.8
2025-01-09 20:23:27.243993	285.8	20.3	-92.6	4.0
2025-01-09 20:23:28.390340	286.1	20.3	-93.0	3.6
2025-01-09 20:23:29.539989	286.4	20.3	-93.0	4.6
2025-01-09 20:23:30.688584	286.6	20.2	-93.2	1.7
2025-01-09 20:23:31.839872	286.9	20.2	-92.6	3.0
2025-01-09 20:23:32.990304	287.2	20.2	-92.9	4.0
2025-01-09 20:23:34.139802	287.5	20.2	-93.1	5.2
2025-01-09 20:23:35.297631	287.8	20.2	-93.0	3.0
2025-01-09 20:23:36.444907	288.1	20.2	-93.0	5.3
2025-01-09 20:23:37.602699	288.3	20.1	-93.4	3.2
2025-01-09 20:23:38.744141	288.6	20.1	-93.1	2.5
2025-01-09 20:23:39.899164	288.9	20.1	-92.9	1.7
2025-01-09 20:23:41.050062	289.2	20.1	-93.1	4.0
2025-01-09 20:23:42.203857	289.5	20.0	-92.8	2.4
2025-01-09 20:23:43.364465	289.8	20.0	-92.9	2.7
2025-01-09 20:23:44.521496	290.0	20.0	-93.1	3.0
2025-01-09 20:23:45.674828	290.3	20.0	-92.8	1.5
2025-01-09 20:23:46.931457	290.6	19.9	-93.0	3.5
2025-01-09 20:23:48.079398	290.9	19.9	-93.1	6.2
2025-01-09 20:23:49.231119	291.2	19.9	-92.5	0.8
2025-01-09 20:23:50.386782	291.5	19.8	-92.4	3.0
2025-01-09 20:23:51.542012	291.7	19.8	-93.1	4.0
2025-01-09 20:23:52.701491	292.0	19.8	-92.8	2.9
2025-01-09 20:23:53.848122	292.3	19.8	-93.0	3.6
2025-01-09 20:23:54.998168	292.6	19.7	-92.9	2.7
2025-01-09 20:23:56.151598	292.8	19.7	-92.9	5.0
2025-01-09 20:23:57.305252	293.1	19.7	-92.6	2.8
2025-01-09 20:23:58.458097	293.4	19.6	-92.9	2.7
2025-01-09 20:23:59.610862	293.7	19.6	-93.1	5.4
2025-01-09 20:24:00.757697	293.9	19.6	-93.3	2.4
2025-01-09 20:24:01.904995	294.2	19.5	-93.1	2.1
2025-01-09 20:24:03.061917	294.5	19.5	-92.7	3.6
2025-01-09 20:24:04.214993	294.7	19.5	-92.4	2.7
2025-01-09 20:24:05.366292	295.0	19.4	-92.9	2.2
2025-01-09 20:24:06.516749	295.3	19.4	-93.0	4.2
2025-01-09 20:24:07.670735	295.6	19.3	-93.1	3.1
2025-01-09 20:24:08.824700	295.8	19.3	-92.5	1.7
2025-01-09 20:24:09.972930	296.1	19.3	-92.1	2.9
2025-01-09 20:24:11.117340	296.4	19.2	-92.5	3.8
2025-01-09 20:24:12.266776	296.6	19.2	-92.1	2.0
2025-01-09 20:24:13.434729	296.9	19.1	-92.4	4.0
2025-01-09 20:24:14.586405	297.2	19.1	-93.2	6.0
2025-01-09 20:24:15.743123	297.4	19.1	-92.5	2.6
2025-01-09 20:24:16.908961	297.7	19.0	-92.5	2.1
2025-01-09 20:24:18.062647	297.9	19.0	-92.7	5.0
2025-01-09 20:24:19.220007	298.2	18.9	-92.9	3.5
2025-01-09 20:24:20.371614	298.5	18.9	-92.6	3.7
2025-01-09 20:24:21.525396	298.7	18.8	-92.9	2.8
2025-01-09 20:24:22.689475	299.0	18.8	-92.9	2.6
2025-01-09 20:24:23.839087	299.3	18.8	-93.1	1.0
2025-01-09 20:24:24.982571	299.5	18.7	-92.9	3.1
2025-01-09 20:24:26.110665	299.8	18.7	-93.0	3.3
2025-01-09 20:24:27.231258	300.0	18.6	-92.8	1.6
2025-01-09 20:24:28.351623	300.3	18.6	-92.8	3.1
2025-01-09 20:24:29.471948	300.5	18.5	-92.9	4.1
2025-01-09 20:24:30.593697	300.8	18.5	-92.9	3.1
2025-01-09 20:24:31.715128	301.0	18.4	-92.9	3.9
2025-01-09 20:24:32.937278	301.3	18.4	-92.8	3.9
2025-01-09 20:24:34.060278	301.5	18.3	-92.7	1.9
2025-01-09 20:24:35.200954	301.8	18.3	-92.7	3.7
2025-01-09 20:24:36.353336	302.0	18.2	-92.9	2.1
2025-01-09 20:24:37.493901	302.3	18.2	-92.4	3.2
2025-01-09 20:24:38.651044	302.5	18.1	-92.9	3.5
2025-01-09 20:24:39.806353	302.8	18.1	-92.9	2.9
2025-01-09 20:24:40.955044	303.0	18.0	-92.8	3.9
2025-01-09 20:24:42.111313	303.3	18.0	-92.8	5.2
2025-01-09 20:24:43.267504	303.5	17.9	-92.8	2.4
2025-01-09 20:24:44.418300	303.7	17.9	-92.8	4.9
2025-01-09 20:24:45.570823	304.0	17.8	-92.9	2.8
2025-01-09 20:24:46.730442	304.2	17.8	-93.1	0.0
2025-01-09 20:24:47.879582	304.5	17.7	-92.6	3.0
2025-01-09 20:24:49.031879	304.7	17.7	-92.9	3.3
2025-01-09 20:24:50.187281	305.0	17.6	-92.5	3.7
2025-01-09 20:24:51.349707	305.2	17.5	-92.7	3.7
2025-01-09 20:24:52.502049	305.4	17.5	-93.0	6.2
2025-01-09 20:24:53.658262	305.7	17.4	-92.9	3.8
2025-01-09 20:24:54.806261	305.9	17.4	-93.1	3.0
2025-01-09 20:24:55.963106	306.1	17.3	-92.6	6.3
2025-01-09 20:24:57.116392	306.4	17.3	-92.5	6.5
2025-01-09 20:24:58.266748	306.6	17.2	-92.7	5.9
2025-01-09 20:24:59.417889	306.9	17.2	-93.1	7.8
2025-01-09 20:25:00.561423	307.1	17.1	-92.5	4.3
2025-01-09 20:25:01.716060	307.3	17.0	-92.6	2.3
2025-01-09 20:25:02.869597	307.5	17.0	-92.6	2.0
2025-01-09 20:25:04.023179	307.8	16.9	-92.9	9.1
2025-01-09 20:25:05.177035	308.0	16.9	-92.6	6.1
2025-01-09 20:25:06.344116	308.2	16.8	-92.8	2.2
2025-01-09 20:25:07.496741	308.5	16.7	-93.0	6.1
2025-01-09 20:25:08.654180	308.7	16.7	-92.8	8.7
2025-01-09 20:25:09.807067	308.9	16.6	-92.8	2.9
2025-01-09 20:25:10.962257	309.1	16.6	-93.0	4.5
2025-01-09 20:25:12.113043	309.4	16.5	-92.6	3.5
2025-01-09 20:25:13.264177	309.6	16.4	-92.7	9.0
2025-01-09 20:25:14.415360	309.8	16.4	-92.3	8.0
2025-01-09 20:25:15.564634	310.0	16.3	-92.3	9.6
2025-01-09 20:25:16.723842	310.3	16.3	-92.3	6.1
2025-01-09 20:25:17.871346	310.5	16.2	-92.2	8.2
2025-01-09 20:25:19.020503	310.7	16.1	-93.1	9.2
2025-01-09 20:25:20.176247	310.9	16.1	-92.6	8.1
2025-01-09 20:25:21.325121	311.1	16.0	-92.8	4.5
2025-01-09 20:25:22.474082	311.3	15.9	-92.2	2.2
2025-01-09 20:25:23.633727	311.6	15.9	-92.5	3.5
2025-01-09 20:25:24.782963	311.8	15.8	-92.7	4.5
2025-01-09 20:25:25.938053	312.0	15.8	-92.9	4.3
2025-01-09 20:25:27.085258	312.2	15.7	-92.8	3.0
2025-01-09 20:25:28.238078	312.4	15.6	-93.0	2.0
2025-01-09 20:25:29.391434	312.6	15.6	-92.5	6.2
2025-01-09 20:25:30.549224	312.8	15.5	-92.7	3.4
2025-01-09 20:25:31.706763	313.0	15.4	-92.4	2.1
2025-01-09 20:25:32.857579	313.3	15.4	-92.6	3.1
2025-01-09 20:25:34.029569	313.5	15.3	-92.9	2.6
2025-01-09 20:25:35.185226	313.7	15.2	-92.7	0.4
2025-01-09 20:25:36.344588	313.9	15.2	-92.6	1.2
2025-01-09 20:25:37.496752	314.1	15.1	-92.8	5.2
2025-01-09 20:25:38.655838	314.3	15.0	-92.9	1.3
2025-01-09 20:25:39.809426	314.5	15.0	-92.9	2.9
2025-01-09 20:25:40.966137	314.7	14.9	-92.6	5.5
2025-01-09 20:25:42.116044	314.9	14.8	-92.9	5.1
2025-01-09 20:25:43.269371	315.1	14.8	-92.2	2.5
#Closed at: 2025-01-09 20:20:29.347207