passes_logs/2026/01/09/T1/T1__20260109_022800_FENGYUN_3D_rec.log

#Pass ID: 20260109_022800_FENGYUN 3D
#Satellite: FENGYUN 3D
#Configuration: FENGYUN 3D
#almurnet v.1.7.20251203
#Start time: 2026-01-09 02:27:59

#Version: 2.0.20230620
#Station: T1
#Location: 37.570604 lon 55.790049 lat
#TLE: 1 43010U 17072A   26008.51967461  .00000013  00000+0  27718-4 0  9992
#TLE: 2 43010  98.9935 340.2353 0002115 119.1573 240.9815 14.19693759422336

#Time	Az	El	Level	Level2	SNR	BER	BlckErr	Temp	State	Recorded	gain1	gain2
2026-01-09 02:27:59.93	12.45	4.97	-47.9	-60.4	3.8	8.47e-01	0	40	0	0	66	16030
2026-01-09 02:28:02.94	12.35	5.18	-45.4	-60.5	3.8	8.47e-01	0	40	104	0	61	21655
2026-01-09 02:28:05.95	12.25	5.39	-45.1	-60.4	3.8	8.48e-01	0	40	104	0	62	20121
2026-01-09 02:28:08.97	12.14	5.60	-45.2	-60.1	3.8	8.46e-01	0	40	104	0	62	19565
2026-01-09 02:28:11.98	12.04	5.82	-45.4	-60.0	3.8	8.47e-01	0	41	104	0	62	19306
2026-01-09 02:28:14.99	11.93	6.03	-45.3	-60.0	3.8	8.46e-01	0	41	104	0	62	19208
2026-01-09 02:28:18.01	11.82	6.25	-45.4	-59.7	3.8	8.46e-01	0	41	104	0	62	18596
2026-01-09 02:28:21.02	11.71	6.47	-45.2	-58.9	3.8	8.46e-01	0	41	104	0	62	16910
2026-01-09 02:28:24.03	11.60	6.69	-45.2	-57.9	4.0	8.43e-01	0	41	104	0	62	15129
2026-01-09 02:28:27.05	11.48	6.91	-45.2	-57.8	3.9	8.45e-01	0	41	104	0	62	14910
2026-01-09 02:28:30.06	11.36	7.14	-45.2	-59.1	3.8	8.46e-01	0	41	104	0	62	17445
2026-01-09 02:28:33.07	11.24	7.37	-45.3	-60.5	3.8	8.47e-01	0	41	104	0	62	20387
2026-01-09 02:28:36.09	11.12	7.59	-45.2	-57.4	4.1	8.44e-01	0	41	0	0	62	14270
2026-01-09 02:28:39.10	11.00	7.83	-44.6	-53.0	6.2	4.13e-01	0	42	0	3145728	61	9154
2026-01-09 02:28:42.11	10.88	8.06	-43.9	-49.9	9.2	3.18e-02	0	42	0	19922944	59	7135
2026-01-09 02:28:45.13	10.75	8.29	-43.0	-47.6	11.6	1.03e-03	0	42	0	36700160	57	6185
2026-01-09 02:28:48.14	10.62	8.53	-41.7	-45.3	13.8	2.05e-05	0	42	0	54525952	55	5336
2026-01-09 02:28:51.16	10.49	8.77	-41.5	-45.1	14.1	4.50e-06	0	42	0	71303168	54	5477
2026-01-09 02:28:54.17	10.35	9.01	-42.5	-46.8	12.3	1.67e-04	0	42	0	88080384	55	6330
2026-01-09 02:28:57.18	10.21	9.25	-41.5	-45.2	14.1	1.10e-06	0	42	0	104857600	54	5542
2026-01-09 02:29:00.14	10.08	9.49	-39.1	-41.9	17.4	0.00e+00	0	42	0	120586240	50	4784
2026-01-09 02:29:03.29	9.93	9.75	-39.1	-41.8	17.5	0.00e+00	0	42	0	138412032	49	5015
2026-01-09 02:29:06.32	9.78	10.00	-39.1	-41.9	17.4	0.00e+00	0	42	0	155189248	49	5070
2026-01-09 02:29:09.62	9.62	10.28	-39.0	-41.7	17.6	0.00e+00	0	42	0	173015040	49	4968
2026-01-09 02:29:12.33	9.49	10.51	-39.0	-41.7	17.7	0.00e+00	0	42	0	188743680	49	4952
2026-01-09 02:29:15.63	9.32	10.79	-38.8	-41.4	17.9	0.00e+00	0	42	0	207618048	49	4783
2026-01-09 02:29:18.73	9.16	11.06	-38.7	-41.2	18.1	0.00e+00	0	42	0	225443840	49	4700
2026-01-09 02:29:21.74	9.00	11.32	-38.7	-41.2	18.2	0.00e+00	0	42	0	242221056	49	4665
2026-01-09 02:29:24.76	8.84	11.59	-38.6	-41.0	18.4	0.00e+00	0	42	0	258998272	49	4581
2026-01-09 02:29:27.78	8.67	11.86	-38.5	-40.9	18.5	0.00e+00	0	42	0	275775488	49	4526
2026-01-09 02:29:30.73	8.50	12.12	-38.5	-40.8	18.6	0.00e+00	0	42	0	292552704	49	4451
2026-01-09 02:29:34.28	8.30	12.44	-38.4	-40.7	18.8	0.00e+00	0	43	0	312475648	48	4656
2026-01-09 02:29:37.00	8.14	12.69	-38.3	-40.4	18.9	0.00e+00	0	43	0	327155712	48	4545
2026-01-09 02:29:40.30	7.94	13.00	-38.2	-40.4	19.0	0.00e+00	0	42	0	346030080	48	4509
2026-01-09 02:29:43.02	7.78	13.25	-38.2	-40.3	19.1	0.00e+00	0	43	0	361758720	48	4479
2026-01-09 02:29:46.26	7.58	13.56	-38.1	-40.2	19.3	0.00e+00	0	42	0	379584512	48	4394
2026-01-09 02:29:49.13	7.39	13.83	-38.2	-40.2	19.2	0.00e+00	0	43	0	395313152	48	4433
2026-01-09 02:29:52.28	7.19	14.14	-38.2	-40.2	19.2	0.00e+00	0	43	0	414187520	48	4435
2026-01-09 02:29:55.15	7.00	14.42	-38.2	-40.2	19.2	0.00e+00	0	43	0	429916160	48	4424
2026-01-09 02:29:58.43	6.78	14.74	-38.2	-40.2	19.3	0.00e+00	0	43	0	447741952	48	4404
2026-01-09 02:30:01.15	6.59	15.02	-38.1	-40.1	19.4	0.00e+00	0	43	0	463470592	48	4372
2026-01-09 02:30:04.94	6.32	15.40	-38.0	-39.9	19.5	0.00e+00	0	43	0	484442112	48	4288
2026-01-09 02:30:07.68	6.12	15.68	-37.9	-39.8	19.5	0.00e+00	0	43	0	500170752	47	4484
2026-01-09 02:30:11.49	5.84	16.08	-37.6	-39.5	19.8	0.00e+00	0	43	0	522190848	47	4320
2026-01-09 02:30:14.53	5.61	16.40	-37.4	-39.3	19.9	0.00e+00	0	43	0	538968064	46	4492
2026-01-09 02:30:17.73	5.36	16.74	-37.4	-39.4	19.9	0.00e+00	0	43	0	556793856	46	4495
2026-01-09 02:30:20.89	5.11	17.08	-37.4	-39.3	20.0	0.00e+00	0	42	0	574619648	46	4472
2026-01-09 02:30:23.75	4.88	17.39	-37.4	-39.4	19.9	0.00e+00	0	43	0	590348288	46	4494
2026-01-09 02:30:26.90	4.62	17.73	-37.2	-39.1	20.2	0.00e+00	0	43	0	608174080	46	4372
2026-01-09 02:30:29.84	4.37	18.06	-37.0	-38.9	20.4	0.00e+00	0	43	0	624951296	46	4248
2026-01-09 02:30:33.14	4.08	18.43	-36.8	-38.7	20.6	0.00e+00	0	43	0	643825664	45	4397
2026-01-09 02:30:35.96	3.83	18.76	-36.7	-38.5	20.7	0.00e+00	0	43	0	659554304	45	4320
2026-01-09 02:30:39.11	3.54	19.12	-36.7	-38.6	20.7	0.00e+00	0	43	0	677380096	45	4357
2026-01-09 02:30:42.00	3.27	19.46	-36.7	-38.5	20.8	0.00e+00	0	43	0	693108736	45	4324
2026-01-09 02:30:45.15	2.96	19.83	-36.8	-38.7	20.6	0.00e+00	0	43	0	710934528	45	4413
2026-01-09 02:30:48.11	2.67	20.19	-36.6	-38.5	20.8	0.00e+00	0	43	0	727711744	45	4301
2026-01-09 02:30:51.51	2.33	20.60	-36.4	-38.2	21.1	0.00e+00	0	43	0	746586112	44	4407
2026-01-09 02:30:54.23	2.05	20.94	-36.4	-38.2	21.2	0.00e+00	0	43	0	762314752	44	4407
2026-01-09 02:30:57.79	1.67	21.38	-36.3	-38.1	21.2	0.00e+00	0	43	0	782237696	44	4389
2026-01-09 02:31:00.51	1.37	21.72	-36.5	-38.3	21.0	0.00e+00	0	43	0	796917760	44	4464
2026-01-09 02:31:03.81	1.00	22.15	-36.4	-38.2	21.1	0.00e+00	0	43	0	815792128	44	4428
2026-01-09 02:31:06.57	0.68	22.50	-36.2	-37.9	21.4	0.00e+00	0	43	0	831520768	44	4269
2026-01-09 02:31:09.86	0.30	22.93	-35.7	-37.4	21.7	0.00e+00	0	43	0	850395136	43	4290
2026-01-09 02:31:12.59	359.96	23.30	-35.7	-37.4	21.7	0.00e+00	0	43	0	865075200	43	4264
2026-01-09 02:31:16.03	359.54	23.76	-35.8	-37.6	21.6	0.00e+00	0	43	0	884998144	43	4342
2026-01-09 02:31:18.80	359.18	24.14	-35.8	-37.5	21.6	0.00e+00	0	43	0	900726784	43	4327
2026-01-09 02:31:22.21	358.73	24.61	-35.7	-37.4	21.7	0.00e+00	0	43	0	919601152	43	4276
2026-01-09 02:31:24.93	358.37	24.99	-35.7	-37.4	21.7	0.00e+00	0	43	0	935329792	43	4270
2026-01-09 02:31:28.23	357.91	25.45	-35.4	-37.1	22.0	0.00e+00	0	43	0	953155584	42	4381
2026-01-09 02:31:30.97	357.51	25.84	-35.6	-37.4	21.8	0.00e+00	0	43	0	968884224	42	4494
2026-01-09 02:31:34.59	356.98	26.37	-35.6	-37.3	21.8	0.00e+00	0	43	0	988807168	42	4474
2026-01-09 02:31:37.31	356.57	26.77	-35.5	-37.2	21.9	0.00e+00	0	43	0	1004535808	42	4431
2026-01-09 02:31:40.60	356.06	27.25	-35.3	-37.0	22.2	0.00e+00	0	43	0	1023410176	42	4304
2026-01-09 02:31:43.33	355.62	27.66	-35.3	-37.0	22.1	0.00e+00	0	43	0	1038090240	42	4307
2026-01-09 02:31:46.56	355.08	28.15	-35.7	-37.4	21.8	0.00e+00	0	43	0	1055916032	42	4515
2026-01-09 02:31:49.57	354.57	28.62	-35.7	-37.4	21.8	0.00e+00	0	43	0	1073741824	42	4506
2026-01-09 02:31:52.58	354.04	29.08	-35.2	-36.9	22.3	0.00e+00	0	43	0	1090519040	42	4281
2026-01-09 02:31:55.69	353.48	29.57	-35.2	-36.8	22.3	0.00e+00	0	43	0	1108344832	42	4241
2026-01-09 02:31:58.57	352.94	30.03	-35.4	-37.1	22.1	0.00e+00	0	43	0	1124073472	42	4351
2026-01-09 02:32:01.90	352.30	30.56	-35.5	-37.2	22.0	0.00e+00	0	43	0	1142947840	42	4440
2026-01-09 02:32:04.83	351.72	31.04	-35.6	-37.3	21.9	0.00e+00	0	43	0	1159725056	42	4461
2026-01-09 02:32:08.13	351.05	31.57	-35.0	-36.7	22.5	0.00e+00	0	43	0	1177550848	42	4152
2026-01-09 02:32:10.99	350.44	32.05	-35.1	-36.8	22.4	0.00e+00	0	43	0	1194328064	42	4210
2026-01-09 02:32:14.15	349.75	32.57	-35.2	-36.9	22.3	0.00e+00	0	43	0	1211105280	42	4262
2026-01-09 02:32:17.01	349.11	33.05	-35.4	-37.1	22.1	0.00e+00	0	43	0	1227882496	42	4358
2026-01-09 02:32:20.17	348.37	33.58	-34.8	-36.4	22.7	0.00e+00	0	43	0	1245708288	41	4287
2026-01-09 02:32:23.15	347.66	34.09	-34.7	-36.4	22.7	0.00e+00	0	43	0	1262485504	41	4265
2026-01-09 02:32:26.16	346.91	34.61	-34.7	-36.4	22.7	0.00e+00	0	43	0	1279262720	41	4272
2026-01-09 02:32:29.17	346.14	35.12	-35.2	-36.9	22.2	0.00e+00	0	43	0	1296039936	41	4533
2026-01-09 02:32:32.18	345.35	35.65	-35.0	-36.6	22.5	0.00e+00	0	43	0	1312817152	41	4389
2026-01-09 02:32:35.19	344.52	36.17	-34.7	-36.4	22.7	0.00e+00	0	43	0	1329594368	41	4276
2026-01-09 02:32:38.13	343.70	36.68	-34.6	-36.2	22.9	0.00e+00	0	43	0	1346371584	41	4192
2026-01-09 02:32:41.49	342.72	37.27	-34.8	-36.5	22.7	0.00e+00	0	43	0	1365245952	41	4302
2026-01-09 02:32:44.48	341.81	37.79	-34.7	-36.4	22.7	0.00e+00	0	43	0	1382023168	41	4279
2026-01-09 02:32:47.78	340.78	38.36	-34.8	-36.4	22.7	0.00e+00	0	43	0	1400897536	41	4291
2026-01-09 02:32:50.50	339.91	38.84	-34.7	-36.4	22.7	0.00e+00	0	43	0	1415577600	41	4261
2026-01-09 02:32:53.80	338.81	39.41	-34.7	-36.4	22.8	0.00e+00	0	43	0	1434451968	41	4248
2026-01-09 02:32:56.52	337.87	39.88	-35.0	-36.7	22.5	0.00e+00	0	43	0	1450180608	41	4392
2026-01-09 02:32:59.82	336.70	40.45	-35.0	-36.7	22.4	0.00e+00	0	43	0	1468006400	41	4412
2026-01-09 02:33:02.54	335.70	40.91	-35.0	-36.7	22.4	0.00e+00	0	43	0	1483735040	41	4409
2026-01-09 02:33:05.87	334.43	41.47	-35.1	-36.8	22.3	0.00e+00	0	43	0	1502609408	41	4490
2026-01-09 02:33:08.59	333.37	41.92	-34.8	-36.5	22.6	0.00e+00	0	43	0	1518338048	41	4324
2026-01-09 02:33:11.88	332.04	42.46	-34.6	-36.3	22.8	0.00e+00	0	43	0	1536163840	40	4470
2026-01-09 02:33:14.60	330.91	42.90	-34.9	-36.6	22.5	0.00e+00	0	43	0	1551892480	40	4646
2026-01-09 02:33:18.11	329.40	43.45	-34.7	-36.4	22.8	0.00e+00	0	43	0	1571815424	40	4503
2026-01-09 02:33:21.09	328.08	43.91	-35.0	-36.7	22.5	0.00e+00	0	43	0	1588592640	40	4663
2026-01-09 02:33:24.09	326.71	44.36	-34.6	-36.3	22.8	0.00e+00	0	43	0	1605369856	40	4465
2026-01-09 02:33:27.07	325.32	44.79	-34.7	-36.4	22.7	0.00e+00	0	43	0	1622147072	40	4525
2026-01-09 02:33:30.07	323.87	45.21	-34.5	-36.1	23.0	0.00e+00	0	43	0	1638924288	40	4370
2026-01-09 02:33:33.08	322.38	45.62	-34.6	-36.2	22.9	0.00e+00	0	43	0	1655701504	40	4435
2026-01-09 02:33:36.09	320.86	46.00	-35.1	-36.8	22.3	0.00e+00	0	43	0	1672478720	40	4744
2026-01-09 02:33:39.10	319.29	46.37	-35.0	-36.7	22.4	0.00e+00	0	43	0	1689255936	41	4418
2026-01-09 02:33:42.06	317.72	46.71	-35.6	-37.3	21.9	0.00e+00	0	43	0	1706033152	41	4723
2026-01-09 02:33:45.12	316.05	47.04	-35.4	-37.0	22.1	0.00e+00	0	43	0	1722810368	41	4597
2026-01-09 02:33:48.13	314.39	47.34	-35.4	-37.1	22.1	0.00e+00	0	43	0	1740636160	41	4619
2026-01-09 02:33:51.14	312.69	47.62	-35.3	-37.0	22.2	0.00e+00	0	43	0	1757413376	41	4548
2026-01-09 02:33:54.15	310.96	47.86	-35.7	-37.5	21.8	0.00e+00	0	43	0	1774190592	42	4562
2026-01-09 02:33:57.25	309.15	48.09	-35.5	-37.2	22.1	0.00e+00	0	43	0	1792016384	42	4398
2026-01-09 02:34:00.21	307.40	48.28	-35.4	-37.1	22.1	0.00e+00	0	43	0	1807745024	42	4386
2026-01-09 02:34:03.60	305.37	48.46	-35.3	-37.0	22.2	0.00e+00	0	43	0	1827667968	42	4306
2026-01-09 02:34:06.32	303.72	48.58	-35.0	-36.7	22.5	0.00e+00	0	43	0	1842348032	42	4182
2026-01-09 02:34:09.62	301.71	48.69	-35.3	-37.0	22.2	0.00e+00	0	43	0	1861222400	42	4334
2026-01-09 02:34:12.35	300.04	48.75	-35.4	-37.1	22.1	0.00e+00	0	43	0	1876951040	42	4353
2026-01-09 02:34:15.69	297.99	48.78	-35.5	-37.2	22.1	0.00e+00	0	43	0	1895825408	42	4415
2026-01-09 02:34:18.71	296.13	48.79	-35.4	-37.1	22.1	0.00e+00	0	43	0	1912602624	42	4371
2026-01-09 02:34:22.01	294.10	48.75	-35.0	-36.6	22.5	0.00e+00	0	43	0	1930428416	42	4135
2026-01-09 02:34:24.73	292.44	48.69	-35.4	-37.1	22.1	0.00e+00	0	43	0	1946157056	41	4631
2026-01-09 02:34:28.07	290.40	48.58	-35.4	-37.1	22.1	0.00e+00	0	43	0	1965031424	41	4618
2026-01-09 02:34:31.10	288.57	48.45	-35.5	-37.2	22.0	0.00e+00	0	43	0	1981808640	41	4692
2026-01-09 02:34:34.90	286.30	48.24	-35.0	-36.6	22.5	0.00e+00	0	43	0	2003828736	41	4373
2026-01-09 02:34:37.65	284.67	48.06	-35.0	-36.7	22.5	0.00e+00	0	43	0	2018508800	41	4403
2026-01-09 02:34:41.40	282.49	47.78	-35.3	-36.9	22.2	0.00e+00	0	43	0	2039480320	41	4545
2026-01-09 02:34:44.16	280.91	47.54	-35.7	-37.4	21.9	0.00e+00	0	43	0	2055208960	42	4507
2026-01-09 02:34:48.05	278.73	47.17	-35.0	-36.7	22.5	0.00e+00	0	43	0	2077229056	41	4394
2026-01-09 02:34:50.79	277.22	46.89	-34.8	-36.5	22.7	0.00e+00	0	43	0	2092957696	41	4298
2026-01-09 02:34:54.55	275.20	46.46	-34.9	-36.6	22.6	0.00e+00	0	43	0	2113929216	41	4362
2026-01-09 02:34:57.30	273.76	46.13	-35.0	-36.6	22.5	0.00e+00	0	43	0	2129657856	41	4371
2026-01-09 02:35:01.11	271.81	45.65	-35.2	-36.9	22.3	0.00e+00	0	43	0	2150629376	41	4518
2026-01-09 02:35:04.20	270.27	45.23	-34.5	-36.2	22.9	0.00e+00	0	43	0	2168455168	40	4401
2026-01-09 02:35:07.11	268.87	44.83	-34.5	-36.1	22.9	0.00e+00	0	43	0	2184183808	40	4373
2026-01-09 02:35:10.49	267.28	44.33	-34.6	-36.2	22.9	0.00e+00	0	43	0	2204106752	40	4422
2026-01-09 02:35:13.21	266.03	43.93	-34.6	-36.2	22.8	0.00e+00	0	43	0	2218786816	40	4440
2026-01-09 02:35:16.50	264.57	43.42	-34.3	-36.0	23.1	0.00e+00	0	43	0	2237661184	40	4297
2026-01-09 02:35:19.23	263.39	42.99	-34.2	-35.9	23.1	0.00e+00	0	43	0	2252341248	40	4263
2026-01-09 02:35:22.56	262.00	42.45	-34.4	-36.0	23.0	0.00e+00	0	43	0	2271215616	40	4338
2026-01-09 02:35:25.39	260.85	41.98	-34.1	-35.7	23.3	0.00e+00	0	43	0	2286944256	40	4181
2026-01-09 02:35:28.80	259.51	41.42	-34.2	-35.8	23.2	0.00e+00	0	43	0	2306867200	40	4234
2026-01-09 02:35:31.53	258.47	40.95	-34.7	-36.4	22.7	0.00e+00	0	43	0	2321547264	40	4498
2026-01-09 02:35:34.82	257.26	40.39	-35.2	-36.9	22.2	0.00e+00	0	43	0	2340421632	41	4545
2026-01-09 02:35:38.03	256.11	39.84	-34.5	-36.1	22.9	0.00e+00	0	43	0	2358247424	40	4371
2026-01-09 02:35:41.18	255.03	39.29	-34.6	-36.3	22.8	0.00e+00	0	43	0	2376073216	40	4445
2026-01-09 02:35:44.05	254.07	38.79	-34.7	-36.4	22.7	0.00e+00	0	43	0	2391801856	40	4526
2026-01-09 02:35:47.20	253.06	38.24	-34.7	-36.4	22.8	0.00e+00	0	43	0	2409627648	40	4502
2026-01-09 02:35:50.07	252.16	37.74	-34.4	-36.1	23.0	0.00e+00	0	43	0	2426404864	40	4365
2026-01-09 02:35:53.22	251.21	37.19	-34.6	-36.3	23.0	0.00e+00	0	43	0	2444230656	40	4460
2026-01-09 02:35:56.16	250.35	36.67	-34.7	-36.4	23.0	0.00e+00	0	43	0	2459959296	40	4500
2026-01-09 02:35:59.44	249.42	36.10	-34.3	-35.9	23.2	0.00e+00	0	43	0	2478833664	40	4271
2026-01-09 02:36:02.37	248.62	35.59	-34.4	-36.0	23.1	0.00e+00	0	43	0	2495610880	40	4326
2026-01-09 02:36:05.80	247.71	34.99	-34.5	-36.2	22.9	0.00e+00	0	43	0	2514485248	40	4410
2026-01-09 02:36:08.57	247.00	34.51	-34.7	-36.3	22.8	0.00e+00	0	43	0	2530213888	40	4468
2026-01-09 02:36:11.87	246.19	33.95	-34.6	-36.3	22.8	0.00e+00	0	43	0	2549088256	40	4450
2026-01-09 02:36:14.59	245.53	33.48	-34.9	-36.6	22.7	0.00e+00	0	43	0	2563768320	40	4624
2026-01-09 02:36:17.88	244.77	32.92	-34.5	-36.1	23.0	0.00e+00	0	43	0	2582642688	40	4388
2026-01-09 02:36:20.60	244.16	32.47	-34.4	-36.0	23.1	0.00e+00	0	43	0	2598371328	40	4314
2026-01-09 02:36:23.90	243.44	31.91	-34.5	-36.2	22.9	0.00e+00	0	43	0	2616197120	40	4405
2026-01-09 02:36:26.86	242.81	31.43	-35.0	-36.7	22.5	0.00e+00	0	43	0	2632974336	40	4673
2026-01-09 02:36:30.30	242.11	30.86	-34.4	-36.0	23.0	0.00e+00	0	43	0	2652897280	40	4333
2026-01-09 02:36:33.02	241.57	30.42	-34.5	-36.1	22.9	0.00e+00	0	43	0	2667577344	40	4383
2026-01-09 02:36:36.31	240.93	29.89	-34.5	-36.2	22.8	0.00e+00	0	43	0	2686451712	40	4407
2026-01-09 02:36:39.03	240.43	29.46	-34.9	-36.6	22.5	0.00e+00	0	43	0	2702180352	40	4614
2026-01-09 02:36:42.33	239.83	28.94	-35.1	-36.8	22.3	0.00e+00	0	43	0	2720006144	41	4454
2026-01-09 02:36:45.19	239.33	28.49	-35.1	-36.8	22.3	0.00e+00	0	43	0	2736783360	41	4478
2026-01-09 02:36:48.35	238.79	28.01	-35.2	-36.8	22.3	0.00e+00	0	43	0	2753560576	41	4492
2026-01-09 02:36:51.26	238.31	27.56	-34.8	-36.5	22.5	0.00e+00	0	43	0	2770337792	41	4313
2026-01-09 02:36:54.54	237.78	27.07	-34.8	-36.5	22.5	0.00e+00	0	43	0	2789212160	41	4319
2026-01-09 02:36:57.26	237.35	26.67	-35.0	-36.7	22.3	0.00e+00	0	43	0	2803892224	41	4430
2026-01-09 02:37:00.56	236.85	26.18	-35.1	-36.8	22.2	0.00e+00	0	43	0	2822766592	41	4475
2026-01-09 02:37:03.28	236.45	25.79	-35.2	-36.9	22.2	0.00e+00	0	43	0	2838495232	41	4511
2026-01-09 02:37:06.58	235.98	25.31	-34.9	-36.6	22.4	0.00e+00	0	43	0	2856321024	41	4373
2026-01-09 02:37:09.30	235.60	24.93	-34.8	-36.5	22.5	0.00e+00	0	43	0	2872049664	41	4319
2026-01-09 02:37:12.59	235.15	24.47	-35.0	-36.7	22.3	0.00e+00	0	43	0	2889875456	41	4408
2026-01-09 02:37:15.74	234.73	24.03	-35.2	-36.9	22.1	0.00e+00	0	43	0	2907701248	41	4530
2026-01-09 02:37:18.61	234.36	23.64	-35.1	-36.7	22.2	0.00e+00	0	43	0	2924478464	41	4440
2026-01-09 02:37:22.16	233.92	23.16	-35.2	-36.9	22.1	0.00e+00	0	43	0	2944401408	41	4510
2026-01-09 02:37:25.00	233.58	22.78	-35.5	-37.3	21.8	0.00e+00	0	43	0	2960130048	41	4706
2026-01-09 02:37:28.29	233.19	22.35	-35.5	-37.2	21.9	0.00e+00	0	43	0	2979004416	41	4675
2026-01-09 02:37:31.02	232.87	22.00	-35.5	-37.2	21.8	0.00e+00	0	43	0	2993684480	42	4424
2026-01-09 02:37:34.69	232.46	21.53	-35.6	-37.3	21.7	0.00e+00	0	43	0	3014656000	42	4460
2026-01-09 02:37:37.84	232.12	21.13	-35.7	-37.4	21.7	0.00e+00	0	43	0	3032481792	43	4254
2026-01-09 02:37:40.87	231.79	20.75	-37.0	-38.8	20.7	0.00e+00	0	43	0	3049259008	44	4706
2026-01-09 02:37:43.87	231.48	20.38	-36.6	-38.4	20.8	0.00e+00	0	43	0	3066036224	45	4253
2026-01-09 02:37:46.88	231.18	20.01	-36.7	-38.4	21.1	0.00e+00	0	43	0	3082813440	44	4540
2026-01-09 02:37:49.89	230.88	19.65	-36.4	-38.2	21.1	0.00e+00	0	43	0	3100639232	44	4410
2026-01-09 02:37:52.90	230.59	19.29	-36.2	-37.9	21.3	0.00e+00	0	43	0	3117416448	44	4283
2026-01-09 02:37:56.04	230.29	18.93	-36.4	-38.1	21.2	0.00e+00	0	43	0	3135242240	44	4366
2026-01-09 02:37:58.91	230.03	18.59	-37.7	-39.5	19.8	0.00e+00	0	43	0	3150970880	46	4565
2026-01-09 02:38:02.06	229.75	18.23	-36.6	-38.4	20.9	0.00e+00	0	43	0	3168796672	45	4261
2026-01-09 02:38:05.00	229.49	17.90	-36.8	-38.6	20.7	0.00e+00	0	43	0	3185573888	45	4341
2026-01-09 02:38:08.15	229.22	17.55	-36.8	-38.6	20.7	0.00e+00	0	43	0	3202351104	45	4360
2026-01-09 02:38:11.16	228.97	17.22	-36.9	-38.7	20.5	0.00e+00	0	43	0	3220176896	45	4437
2026-01-09 02:38:14.22	228.72	16.88	-37.1	-38.9	20.4	0.00e+00	0	43	0	3236954112	45	4522
2026-01-09 02:38:17.37	228.46	16.54	-37.3	-39.2	20.1	0.00e+00	0	43	0	3254779904	45	4653
2026-01-09 02:38:20.38	228.23	16.22	-37.1	-38.9	20.3	0.00e+00	0	43	0	3271557120	45	4537
2026-01-09 02:38:23.39	228.00	15.91	-37.3	-39.1	20.1	0.00e+00	0	43	0	3288334336	45	4641
2026-01-09 02:38:26.41	227.77	15.59	-37.6	-39.4	19.9	0.00e+00	0	43	0	3305111552	47	4251
2026-01-09 02:38:29.39	227.55	15.29	-37.4	-39.2	20.1	0.00e+00	0	43	0	3321888768	46	4422
2026-01-09 02:38:32.40	227.34	14.98	-37.7	-39.6	19.8	0.00e+00	0	43	0	3339714560	46	4599
2026-01-09 02:38:35.41	227.12	14.68	-37.6	-39.4	19.9	0.00e+00	0	43	0	3356491776	47	4275
2026-01-09 02:38:38.42	226.92	14.38	-37.5	-39.3	19.9	0.00e+00	0	43	0	3373268992	47	4227
2026-01-09 02:38:41.43	226.71	14.08	-37.5	-39.3	19.9	0.00e+00	0	43	0	3390046208	47	4234
2026-01-09 02:38:44.49	226.51	13.78	-37.6	-39.5	19.7	0.00e+00	0	43	0	3406823424	47	4301
2026-01-09 02:38:47.59	226.31	13.49	-37.9	-39.7	19.4	0.00e+00	0	43	0	3424649216	47	4438
2026-01-09 02:38:50.63	226.12	13.20	-37.9	-39.8	19.4	0.00e+00	0	43	0	3441426432	47	4448
2026-01-09 02:38:53.81	225.92	12.90	-38.2	-40.1	19.1	0.00e+00	0	43	0	3459252224	47	4624
2026-01-09 02:38:56.83	225.74	12.61	-38.1	-40.1	19.1	0.00e+00	0	43	0	3477078016	47	4616
2026-01-09 02:39:00.03	225.55	12.32	-38.4	-40.3	18.8	0.00e+00	0	43	0	3494903808	47	4740
2026-01-09 02:39:02.88	225.38	12.06	-38.2	-40.2	18.9	0.00e+00	0	43	0	3510632448	47	4660
2026-01-09 02:39:06.03	225.20	11.78	-38.4	-40.4	18.8	0.00e+00	0	43	0	3528458240	47	4771
2026-01-09 02:39:08.90	225.04	11.52	-38.4	-40.3	18.7	0.00e+00	0	43	0	3544186880	47	4746
2026-01-09 02:39:12.05	224.87	11.24	-38.4	-40.3	18.7	0.00e+00	0	44	0	3562012672	47	4752
2026-01-09 02:39:14.92	224.71	10.99	-38.3	-40.2	18.8	0.00e+00	0	43	0	3578789888	47	4665
2026-01-09 02:39:18.02	224.55	10.72	-38.4	-40.3	18.7	0.00e+00	0	43	0	3595567104	47	4756
2026-01-09 02:39:21.03	224.39	10.46	-38.5	-40.4	18.6	0.00e+00	0	43	0	3612344320	47	4796
2026-01-09 02:39:24.04	224.23	10.21	-38.5	-40.5	18.6	0.00e+00	0	44	0	3630170112	47	4820
2026-01-09 02:39:27.05	224.08	9.95	-38.3	-40.2	18.7	0.00e+00	0	43	0	3646947328	47	4688
2026-01-09 02:39:30.05	223.94	9.70	-38.3	-40.3	18.7	0.00e+00	0	44	0	3663724544	47	4757
2026-01-09 02:39:33.06	223.79	9.45	-38.7	-40.7	18.5	0.00e+00	0	43	0	3680501760	48	4671
2026-01-09 02:39:36.06	223.65	9.21	-38.6	-40.6	18.4	0.00e+00	0	44	0	3697278976	48	4646
2026-01-09 02:39:39.09	223.50	8.96	-47.8	-58.8	3.8	3.02e-03	0	43	104	3714056192	66	13344
2026-01-09 02:39:42.10	223.37	8.72	-48.7	-60.8	3.8	8.47e-01	0	43	104	3714056192	67	15938
2026-01-09 02:39:45.29	223.22	8.46	-49.0	-61.2	3.8	8.47e-01	0	43	104	3714056192	68	15624
2026-01-09 02:39:48.27	223.09	8.23	-49.1	-61.2	3.8	8.48e-01	0	43	104	3714056192	68	15712
2026-01-09 02:39:51.81	222.94	7.95	-48.9	-61.2	3.8	8.46e-01	0	43	104	3714056192	68	15655
2026-01-09 02:39:54.54	222.82	7.74	-49.0	-61.2	3.8	8.46e-01	0	43	104	3714056192	69	14726
2026-01-09 02:39:57.84	222.68	7.49	-49.0	-61.2	3.8	8.47e-01	0	43	104	3714056192	69	14741
2026-01-09 02:40:00.57	222.57	7.28	-48.8	-61.2	3.8	8.46e-01	0	43	104	3714056192	69	14735
2026-01-09 02:40:03.87	222.43	7.03	-48.8	-61.1	3.8	8.47e-01	0	43	104	3714056192	69	14648
2026-01-09 02:40:06.59	222.32	6.82	-48.7	-61.1	3.8	8.48e-01	0	44	104	3714056192	69	14703
2026-01-09 02:40:09.89	222.19	6.58	-48.7	-61.1	3.8	8.46e-01	0	44	104	3714056192	69	14692
2026-01-09 02:40:12.62	222.09	6.38	-48.7	-61.1	3.8	8.47e-01	0	43	104	3714056192	69	14617
2026-01-09 02:40:15.92	221.96	6.14	-48.8	-61.2	3.8	8.47e-01	0	43	104	3714056192	69	14753
2026-01-09 02:40:18.65	221.86	5.94	-48.8	-61.2	3.8	8.47e-01	0	43	104	3714056192	69	14853
2026-01-09 02:40:21.95	221.74	5.70	-48.8	-61.2	3.8	8.47e-01	0	43	104	3714056192	69	14714
2026-01-09 02:40:24.67	221.64	5.51	-49.0	-61.4	3.8	8.47e-01	0	43	104	3714056192	69	15205
2026-01-09 02:40:27.97	221.52	5.27	-48.8	-61.2	3.8	8.47e-01	0	43	104	3714056192	69	14776
2026-01-09 02:40:30.70	221.43	5.08	-49.0	-61.3	3.8	8.46e-01	0	43	104	3714056192	69	15008

#Closed at: 2026-01-09 02:40:32
#Recorded file [3714 MB]: D:/Data/31040_260109_052759.dat