passes_logs/2026/01/09/T1/T1__20260109_220824_KHAYYAM_rec.log

#Pass ID: 20260109_220824_KHAYYAM
#Satellite: KHAYYAM
#Configuration: KHAYYAM_480M
#almurnet v.1.7.20251203
#Start time: 2026-01-09 22:08:26

#Version: 2.0.20230620
#Station: T1
#Location: 37.570604 lon 55.790049 lat
#TLE: 1 53370U 22096A   26009.31274807  .00006498  00000+0  26496-3 0  9992
#TLE: 2 53370  97.3557 276.4248 0001271  95.0973 265.0410 15.24779729190374

#Time	Az	El	Level	Level2	SNR	BER	BlckErr	Temp	State	Recorded	gain1	gain2
2026-01-09 22:08:26.84	2.93	5.15	-52.5	-57.0	3.4	0.00e+00	0	41	0	0	75	25713
2026-01-09 22:08:28.84	2.77	5.30	-51.6	-57.3	3.7	0.00e+00	0	42	104	0	74	28439
2026-01-09 22:08:30.85	2.62	5.46	-51.7	-57.4	3.7	0.00e+00	0	42	104	0	74	28589
2026-01-09 22:08:32.86	2.45	5.61	-51.7	-57.4	3.7	0.00e+00	0	42	104	0	74	28752
2026-01-09 22:08:34.87	2.29	5.77	-51.7	-57.4	3.7	0.00e+00	0	42	104	0	74	28568
2026-01-09 22:08:36.87	2.12	5.92	-51.7	-57.4	3.7	0.00e+00	0	43	104	0	74	28706
2026-01-09 22:08:38.89	1.95	6.08	-51.7	-57.4	3.7	0.00e+00	0	43	104	0	74	28642
2026-01-09 22:08:40.89	1.78	6.24	-51.7	-57.3	3.7	0.00e+00	0	43	104	0	74	28462
2026-01-09 22:08:42.90	1.61	6.40	-51.7	-57.4	3.7	0.00e+00	0	43	104	0	74	28621
2026-01-09 22:08:44.91	1.43	6.56	-51.7	-57.4	3.7	0.00e+00	0	43	104	0	74	28574
2026-01-09 22:08:46.92	1.25	6.72	-51.7	-57.4	3.7	0.00e+00	0	43	104	0	74	28668
2026-01-09 22:08:48.92	1.07	6.89	-51.8	-57.5	3.7	0.00e+00	0	43	104	0	74	28922
2026-01-09 22:08:50.93	0.89	7.05	-51.7	-57.4	3.7	0.00e+00	0	43	104	0	74	28694
2026-01-09 22:08:52.94	0.70	7.22	-51.7	-57.4	3.7	0.00e+00	0	44	104	0	74	28738
2026-01-09 22:08:54.95	0.51	7.38	-51.7	-57.4	3.7	0.00e+00	0	44	104	0	74	28804
2026-01-09 22:08:56.96	0.32	7.55	-51.7	-57.4	3.7	0.00e+00	0	44	104	0	74	28761
2026-01-09 22:08:58.97	0.12	7.72	-51.7	-57.4	3.7	0.00e+00	0	44	104	0	74	28771
2026-01-09 22:09:00.97	359.92	7.89	-51.7	-57.4	3.7	0.00e+00	0	44	104	0	74	28629
2026-01-09 22:09:02.98	359.72	8.07	-51.7	-57.4	3.7	0.00e+00	0	44	104	0	74	28678
2026-01-09 22:09:04.99	359.51	8.24	-51.7	-57.4	3.7	0.00e+00	0	44	104	0	74	28710
2026-01-09 22:09:07.00	359.31	8.41	-51.8	-57.4	3.7	0.00e+00	0	44	104	0	74	28748
2026-01-09 22:09:09.01	359.09	8.59	-51.8	-57.4	3.7	0.00e+00	0	44	104	0	74	28797
2026-01-09 22:09:11.02	358.88	8.77	-51.8	-57.4	3.7	0.00e+00	0	44	104	0	74	28720
2026-01-09 22:09:13.03	358.66	8.95	-51.7	-57.4	3.7	0.00e+00	0	45	104	0	74	28612
2026-01-09 22:09:15.04	358.44	9.13	-52.2	-57.6	3.7	0.00e+00	0	45	104	0	75	27829
2026-01-09 22:09:17.04	358.21	9.31	-51.7	-57.3	3.7	0.00e+00	0	45	104	0	74	28290
2026-01-09 22:09:19.05	357.98	9.49	-50.2	-56.3	3.7	0.00e+00	0	45	104	0	72	28217
2026-01-09 22:09:21.09	357.75	9.68	-50.2	-56.3	3.7	0.00e+00	0	45	104	0	71	30056
2026-01-09 22:09:23.15	357.50	9.87	-50.8	-56.7	3.7	0.00e+00	0	45	104	0	72	29670
2026-01-09 22:09:25.18	357.26	10.06	-51.3	-57.1	3.7	0.00e+00	0	45	104	0	73	29283
2026-01-09 22:09:27.29	357.00	10.26	-48.5	-55.4	3.8	0.00e+00	0	45	104	0	68	32208
2026-01-09 22:09:29.50	356.73	10.47	-48.4	-55.3	3.8	0.00e+00	0	45	104	0	68	31690
2026-01-09 22:09:31.51	356.48	10.66	-48.2	-55.1	3.8	0.00e+00	0	46	104	0	68	31194
2026-01-09 22:09:33.52	356.22	10.86	-47.7	-54.7	3.9	0.00e+00	0	45	104	0	67	31326
2026-01-09 22:09:35.52	355.96	11.05	-48.5	-55.2	3.8	0.00e+00	0	45	104	0	67	33289
2026-01-09 22:09:37.53	355.69	11.25	-47.3	-54.3	4.0	0.00e+00	0	45	104	0	66	31953
2026-01-09 22:09:39.55	355.42	11.45	-47.5	-54.5	4.0	0.00e+00	0	46	104	0	66	32387
2026-01-09 22:09:41.56	355.14	11.65	-47.8	-54.6	3.9	0.00e+00	0	45	104	0	66	32901
2026-01-09 22:09:43.57	354.86	11.85	-49.4	-56.0	3.8	0.00e+00	0	46	104	0	69	32536
2026-01-09 22:09:45.76	354.55	12.07	-46.8	-53.6	4.0	0.00e+00	0	46	104	0	65	31136
2026-01-09 22:09:47.78	354.25	12.28	-46.8	-53.7	4.0	0.00e+00	0	45	104	0	65	31413
2026-01-09 22:09:49.78	353.96	12.49	-47.2	-54.0	4.0	0.00e+00	0	46	104	0	65	32447
2026-01-09 22:09:51.79	353.66	12.70	-48.8	-55.3	3.8	0.00e+00	0	46	104	0	68	31887
2026-01-09 22:09:53.79	353.35	12.91	-53.3	-59.0	3.7	0.00e+00	0	46	104	0	77	29090
2026-01-09 22:09:55.80	353.04	13.12	-50.0	-56.3	3.7	0.00e+00	0	46	104	0	72	28213
2026-01-09 22:09:57.80	352.72	13.33	-53.3	-58.8	3.7	0.00e+00	0	46	104	0	77	28479
2026-01-09 22:09:59.83	352.39	13.55	-53.1	-58.5	3.7	0.00e+00	0	46	104	0	77	27241
2026-01-09 22:10:01.83	352.06	13.77	-52.7	-58.2	3.7	0.00e+00	0	46	104	0	77	26535
2026-01-09 22:10:03.84	351.73	13.99	-53.9	-58.9	3.7	0.00e+00	0	46	104	0	78	27194
2026-01-09 22:10:05.84	351.39	14.21	-52.3	-58.0	3.7	0.00e+00	0	46	104	0	76	27435
2026-01-09 22:10:07.85	351.04	14.43	-53.5	-58.8	3.7	0.00e+00	0	46	104	0	77	28256
2026-01-09 22:10:09.91	350.67	14.66	-54.2	-59.2	3.7	0.00e+00	0	46	104	0	79	26496
2026-01-09 22:10:11.91	350.31	14.89	-54.2	-59.3	3.7	0.00e+00	0	46	104	0	79	26779
2026-01-09 22:10:13.92	349.94	15.12	-54.3	-59.4	3.7	0.00e+00	0	46	104	0	79	27105
2026-01-09 22:10:15.92	349.57	15.34	-54.1	-59.4	3.7	0.00e+00	0	46	104	0	79	27000
2026-01-09 22:10:18.03	349.17	15.59	-53.7	-58.6	3.7	0.00e+00	0	46	104	0	79	24668
2026-01-09 22:10:20.18	348.75	15.84	-54.0	-59.3	3.7	0.00e+00	0	46	104	0	79	26802
2026-01-09 22:10:22.18	348.35	16.07	-53.5	-58.8	3.7	0.00e+00	0	46	104	0	79	25346
2026-01-09 22:10:24.19	347.95	16.31	-53.1	-58.7	3.7	0.00e+00	0	46	104	0	78	26332
2026-01-09 22:10:26.20	347.53	16.55	-51.1	-57.2	3.7	0.00e+00	0	46	104	0	74	27880
2026-01-09 22:10:28.25	347.10	16.80	-51.0	-57.1	3.7	0.00e+00	0	46	104	0	74	27636
2026-01-09 22:10:30.26	346.67	17.04	-51.1	-57.1	3.7	0.00e+00	0	46	104	0	74	27808
2026-01-09 22:10:32.25	346.24	17.28	-51.4	-57.2	3.7	0.00e+00	0	46	104	0	74	27881
2026-01-09 22:10:34.26	345.79	17.53	-51.2	-56.6	3.7	0.00e+00	0	46	104	0	74	26185
2026-01-09 22:10:36.28	345.33	17.78	-51.3	-56.6	3.7	0.00e+00	0	46	104	0	74	26260
2026-01-09 22:10:38.29	344.87	18.03	-52.4	-57.3	3.7	0.00e+00	0	46	104	0	75	26873
2026-01-09 22:10:40.29	344.39	18.28	-53.8	-58.3	3.7	0.00e+00	0	46	104	0	78	25186
2026-01-09 22:10:42.30	343.91	18.53	-53.9	-58.6	3.7	0.00e+00	0	46	104	0	78	26216
2026-01-09 22:10:44.31	343.42	18.78	-54.4	-58.8	3.7	0.00e+00	0	46	104	0	79	25249
2026-01-09 22:10:46.31	342.92	19.04	-53.3	-58.1	3.7	0.00e+00	0	46	104	0	78	24585
2026-01-09 22:10:48.33	342.40	19.29	-52.3	-57.9	3.7	0.00e+00	0	46	104	0	76	27117
2026-01-09 22:10:50.34	341.88	19.55	-52.6	-58.1	3.7	0.00e+00	0	46	104	0	76	27723
2026-01-09 22:10:52.34	341.35	19.81	-54.0	-59.0	3.7	0.00e+00	0	46	104	0	78	27394
2026-01-09 22:10:54.46	340.77	20.08	-52.0	-57.7	3.7	0.00e+00	0	47	104	0	75	28151
2026-01-09 22:10:56.46	340.22	20.34	-52.5	-58.1	3.7	0.00e+00	0	47	104	0	75	29413
2026-01-09 22:10:58.74	339.58	20.64	-53.5	-58.8	3.7	0.00e+00	0	47	104	0	77	28304
2026-01-09 22:11:01.10	338.89	20.95	-53.5	-58.7	3.7	0.00e+00	0	47	104	0	78	26500
2026-01-09 22:11:03.10	338.30	21.21	-52.8	-58.1	3.7	0.00e+00	0	46	104	0	77	26250
2026-01-09 22:11:05.11	337.70	21.48	-53.9	-59.0	3.7	0.00e+00	0	46	104	0	78	27265
2026-01-09 22:11:07.16	337.07	21.75	-53.2	-58.3	3.7	0.00e+00	0	47	104	0	78	25364
2026-01-09 22:11:09.12	336.46	22.00	-53.6	-58.5	3.7	0.00e+00	0	47	104	0	78	25944
2026-01-09 22:11:11.26	335.77	22.29	-54.2	-59.1	3.7	0.00e+00	0	46	104	0	79	26009
2026-01-09 22:11:13.26	335.12	22.55	-54.1	-58.9	3.7	0.00e+00	0	47	104	0	79	25678
2026-01-09 22:11:15.27	334.45	22.81	-53.9	-58.9	3.7	0.00e+00	0	47	104	0	79	25527
2026-01-09 22:11:17.27	333.77	23.08	-53.7	-58.7	3.7	0.00e+00	0	47	104	0	79	24909
2026-01-09 22:11:19.27	333.08	23.34	-53.7	-58.8	3.7	0.00e+00	0	47	104	0	79	25230
2026-01-09 22:11:21.28	332.38	23.60	-54.1	-59.1	3.7	0.00e+00	0	47	104	0	79	26142
2026-01-09 22:11:23.31	331.65	23.87	-53.4	-58.6	3.7	0.00e+00	0	47	104	0	78	26064
2026-01-09 22:11:25.27	330.93	24.12	-53.3	-58.5	3.7	0.00e+00	0	47	104	0	78	25864
2026-01-09 22:11:27.28	330.18	24.38	-54.0	-59.0	3.7	0.00e+00	0	47	104	0	78	27504
2026-01-09 22:11:29.29	329.42	24.64	-52.4	-58.0	3.7	0.00e+00	0	47	104	0	76	27302
2026-01-09 22:11:31.30	328.64	24.89	-52.9	-58.2	3.7	0.00e+00	0	47	104	0	76	28037
2026-01-09 22:11:33.31	327.85	25.14	-53.9	-58.6	3.7	0.00e+00	0	47	104	0	78	26244
2026-01-09 22:11:35.31	327.05	25.39	-53.9	-58.6	3.7	0.00e+00	0	47	104	0	78	26164
2026-01-09 22:11:37.32	326.23	25.64	-53.9	-58.9	3.7	0.00e+00	0	47	104	0	78	26937
2026-01-09 22:11:39.39	325.37	25.89	-53.3	-58.5	3.7	0.00e+00	0	47	104	0	78	25704
2026-01-09 22:11:41.45	324.50	26.14	-53.2	-58.4	3.7	0.00e+00	0	47	104	0	78	25619
2026-01-09 22:11:43.49	323.62	26.38	-53.5	-58.5	3.7	0.00e+00	0	47	104	0	78	25957
2026-01-09 22:11:45.43	322.78	26.60	-53.8	-58.4	3.7	0.00e+00	0	47	104	0	78	25493
2026-01-09 22:11:47.44	321.88	26.83	-53.5	-58.0	3.7	0.00e+00	0	47	104	0	78	24409
2026-01-09 22:11:49.44	320.98	27.06	-53.3	-57.7	3.7	0.00e+00	0	47	104	0	78	23677
2026-01-09 22:11:51.44	320.07	27.27	-53.3	-57.7	3.7	0.00e+00	0	47	104	0	78	23431
2026-01-09 22:11:53.45	319.13	27.48	-53.4	-57.8	3.7	0.00e+00	0	47	104	0	78	23895
2026-01-09 22:11:55.45	318.19	27.69	-53.9	-58.4	3.7	0.00e+00	0	47	104	0	78	25635
2026-01-09 22:11:57.49	317.21	27.89	-53.7	-58.6	3.7	0.00e+00	0	47	104	0	78	26005
2026-01-09 22:11:59.50	316.24	28.09	-53.7	-58.4	3.7	0.00e+00	0	47	104	0	78	25651
2026-01-09 22:12:01.50	315.25	28.27	-53.9	-58.8	3.7	0.00e+00	0	47	104	0	78	26645
2026-01-09 22:12:03.51	314.25	28.45	-53.9	-59.0	3.7	0.00e+00	0	47	104	0	78	27221
2026-01-09 22:12:05.51	313.25	28.62	-54.1	-58.9	3.7	0.00e+00	0	47	104	0	78	27033
2026-01-09 22:12:07.52	312.22	28.79	-54.3	-59.1	3.7	0.00e+00	0	47	104	0	79	26050
2026-01-09 22:12:09.53	311.19	28.94	-54.2	-58.6	3.7	0.00e+00	0	47	104	0	79	24690
2026-01-09 22:12:11.54	310.14	29.09	-54.6	-59.3	3.7	0.00e+00	0	47	104	0	80	25206
2026-01-09 22:12:13.54	309.09	29.23	-54.8	-59.3	3.7	0.00e+00	0	47	104	0	80	25271
2026-01-09 22:12:15.55	308.02	29.36	-54.6	-59.0	3.7	0.00e+00	0	47	104	0	80	24245
2026-01-09 22:12:17.56	306.95	29.47	-54.7	-59.1	3.7	0.00e+00	0	47	104	0	80	24803
2026-01-09 22:12:19.56	305.87	29.58	-54.1	-58.6	3.7	0.00e+00	0	47	104	0	80	23409
2026-01-09 22:12:21.57	304.78	29.68	-54.4	-58.7	3.7	0.00e+00	0	47	104	0	80	23458
2026-01-09 22:12:23.58	303.68	29.77	-54.2	-58.7	3.7	0.00e+00	0	47	104	0	80	23516
2026-01-09 22:12:25.58	302.58	29.85	-54.0	-58.5	3.7	0.00e+00	0	47	104	0	80	23112
2026-01-09 22:12:27.59	301.47	29.91	-54.1	-58.5	3.7	0.00e+00	0	47	104	0	79	24305
2026-01-09 22:12:29.59	300.36	29.97	-54.3	-58.6	3.7	0.00e+00	0	47	104	0	79	24643
2026-01-09 22:12:31.60	299.24	30.01	-54.6	-59.2	3.7	0.00e+00	0	47	104	0	79	26566
2026-01-09 22:12:33.61	298.12	30.04	-54.6	-58.9	3.7	0.00e+00	0	47	104	0	79	25482
2026-01-09 22:12:35.58	297.02	30.06	-54.6	-59.0	3.7	0.00e+00	0	47	104	0	79	25848
2026-01-09 22:12:37.70	295.83	30.08	-54.5	-59.0	3.7	0.00e+00	0	47	104	0	79	25934
2026-01-09 22:12:39.71	294.70	30.07	-54.5	-58.9	3.7	0.00e+00	0	47	104	0	79	25657
2026-01-09 22:12:41.71	293.58	30.06	-54.1	-58.8	3.7	0.00e+00	0	47	104	0	79	25364
2026-01-09 22:12:43.71	292.47	30.04	-54.1	-59.0	3.7	0.00e+00	0	47	104	0	79	25702
2026-01-09 22:12:45.72	291.34	30.00	-54.9	-59.4	3.7	0.00e+00	0	47	104	0	80	25429
2026-01-09 22:12:47.81	290.18	29.95	-54.5	-59.2	3.7	0.00e+00	0	47	104	0	80	24939
2026-01-09 22:12:49.86	289.04	29.89	-54.6	-59.1	3.7	0.00e+00	0	47	104	0	80	24721
2026-01-09 22:12:51.87	287.93	29.82	-54.7	-59.3	3.7	0.00e+00	0	47	104	0	80	25240
2026-01-09 22:12:53.88	286.83	29.74	-54.7	-59.4	3.7	0.00e+00	0	47	104	0	80	25502
2026-01-09 22:12:55.88	285.74	29.65	-54.8	-59.4	3.7	0.00e+00	0	47	104	0	80	25484
2026-01-09 22:12:57.89	284.65	29.54	-54.5	-59.2	3.7	0.00e+00	0	47	104	0	80	24916
2026-01-09 22:12:59.89	283.57	29.43	-54.9	-59.4	3.7	0.00e+00	0	47	104	0	80	25637
2026-01-09 22:13:01.90	282.49	29.31	-54.5	-58.9	3.7	0.00e+00	0	47	104	0	80	24136
2026-01-09 22:13:03.91	281.43	29.18	-54.6	-59.2	3.7	0.00e+00	0	47	104	0	80	24933
2026-01-09 22:13:05.92	280.37	29.04	-54.8	-59.4	3.7	0.00e+00	0	47	104	0	80	25599
2026-01-09 22:13:07.99	279.30	28.88	-54.7	-59.2	3.7	0.00e+00	0	47	104	0	80	25032
2026-01-09 22:13:09.99	278.27	28.72	-54.9	-59.4	3.7	0.00e+00	0	47	104	0	80	25427
2026-01-09 22:13:12.03	277.23	28.55	-54.9	-59.4	3.7	0.00e+00	0	47	104	0	80	25583
2026-01-09 22:13:14.03	276.22	28.38	-54.7	-59.2	3.7	0.00e+00	0	47	104	0	80	24928
2026-01-09 22:13:16.04	275.23	28.20	-54.7	-59.2	3.7	0.00e+00	0	47	104	0	80	25005
2026-01-09 22:13:18.34	274.10	27.98	-54.5	-59.1	3.7	0.00e+00	0	47	104	0	80	24697
2026-01-09 22:13:20.70	272.96	27.74	-54.6	-59.2	3.7	0.00e+00	0	47	104	0	80	25039
2026-01-09 22:13:22.71	272.01	27.54	-54.5	-59.2	3.7	0.00e+00	0	47	104	0	80	25065
2026-01-09 22:13:24.71	271.07	27.33	-54.4	-59.0	3.7	0.00e+00	0	47	104	0	80	24364
2026-01-09 22:13:26.77	270.12	27.10	-54.3	-59.1	3.7	0.00e+00	0	47	104	0	80	24533
2026-01-09 22:13:28.71	269.24	26.89	-54.5	-59.2	3.7	0.00e+00	0	47	104	0	80	24915
2026-01-09 22:13:30.64	268.37	26.67	-54.4	-58.9	3.7	0.00e+00	0	47	104	0	80	23965
2026-01-09 22:13:32.64	267.49	26.44	-54.4	-59.1	3.7	0.00e+00	0	47	104	0	80	24574
2026-01-09 22:13:34.65	266.62	26.20	-54.3	-58.7	3.7	0.00e+00	0	47	104	0	80	23600
2026-01-09 22:13:36.65	265.76	25.96	-54.4	-58.7	3.7	0.00e+00	0	47	104	0	80	23597
2026-01-09 22:13:38.68	264.91	25.71	-54.3	-58.7	3.7	0.00e+00	0	47	104	0	80	23608
2026-01-09 22:13:40.75	264.06	25.46	-54.1	-58.8	3.7	0.00e+00	0	47	104	0	80	23950
2026-01-09 22:13:42.76	263.25	25.21	-54.3	-59.0	3.7	0.00e+00	0	47	104	0	80	24487
2026-01-09 22:13:44.76	262.45	24.96	-54.2	-58.9	3.7	0.00e+00	0	47	104	0	80	24105
2026-01-09 22:13:46.85	261.63	24.69	-54.3	-58.8	3.7	0.00e+00	0	47	104	0	80	23880
2026-01-09 22:13:48.85	260.87	24.43	-54.4	-59.0	3.7	0.00e+00	0	47	104	0	80	24507
2026-01-09 22:13:50.88	260.10	24.17	-54.4	-59.1	3.7	0.00e+00	0	47	104	0	80	24572
2026-01-09 22:13:52.98	259.33	23.90	-54.5	-59.2	3.7	0.00e+00	0	47	104	0	80	24843
2026-01-09 22:13:55.22	258.52	23.60	-54.2	-58.8	3.7	0.00e+00	0	47	104	0	80	23845
2026-01-09 22:13:57.25	257.80	23.34	-54.1	-58.6	3.7	0.00e+00	0	47	104	0	80	23337
2026-01-09 22:13:59.26	257.10	23.07	-54.5	-58.9	3.7	0.00e+00	0	47	104	0	80	24048
2026-01-09 22:14:01.27	256.41	22.81	-54.6	-59.0	3.7	0.00e+00	0	47	104	0	80	24461
2026-01-09 22:14:03.27	255.74	22.54	-54.6	-59.2	3.7	0.00e+00	0	47	104	0	80	25043
2026-01-09 22:14:05.28	255.08	22.28	-54.4	-59.1	3.7	0.00e+00	0	47	104	0	80	24748
2026-01-09 22:14:07.28	254.44	22.01	-54.5	-58.9	3.7	0.00e+00	0	47	104	0	80	23995
2026-01-09 22:14:09.29	253.80	21.74	-54.5	-58.9	3.7	0.00e+00	0	47	104	0	80	24239
2026-01-09 22:14:11.29	253.18	21.48	-54.4	-59.0	3.7	0.00e+00	0	47	104	0	80	24512
2026-01-09 22:14:13.30	252.57	21.21	-54.5	-59.1	3.7	0.00e+00	0	47	104	0	80	24704
2026-01-09 22:14:15.31	251.98	20.95	-54.4	-58.7	3.7	0.00e+00	0	47	104	0	80	23666
2026-01-09 22:14:17.31	251.39	20.68	-54.5	-58.9	3.7	0.00e+00	0	47	104	0	80	24179
2026-01-09 22:14:19.32	250.82	20.42	-54.5	-58.9	3.7	0.00e+00	0	47	104	0	80	24167
2026-01-09 22:14:21.32	250.26	20.16	-54.4	-58.9	3.7	0.00e+00	0	47	104	0	80	23995
2026-01-09 22:14:23.33	249.70	19.90	-54.3	-58.9	3.7	0.00e+00	0	47	104	0	80	24023
2026-01-09 22:14:25.31	249.17	19.64	-54.3	-59.0	3.7	0.00e+00	0	47	104	0	80	24264
2026-01-09 22:14:27.35	248.63	19.37	-54.5	-59.0	3.7	0.00e+00	0	47	104	0	80	24330
2026-01-09 22:14:29.35	248.11	19.12	-54.5	-59.0	3.7	0.00e+00	0	47	104	0	80	24445
2026-01-09 22:14:31.36	247.60	18.86	-54.6	-59.1	3.7	0.00e+00	0	47	104	0	80	24733
2026-01-09 22:14:33.36	247.10	18.60	-54.6	-59.2	3.7	0.00e+00	0	47	104	0	80	24871
2026-01-09 22:14:35.37	246.61	18.35	-54.4	-59.0	3.7	0.00e+00	0	47	104	0	80	24271
2026-01-09 22:14:37.38	246.12	18.10	-54.5	-59.0	3.7	0.00e+00	0	47	104	0	80	24502
2026-01-09 22:14:39.38	245.65	17.85	-54.6	-59.1	3.7	0.00e+00	0	47	104	0	80	24782
2026-01-09 22:14:41.39	245.19	17.59	-54.7	-59.1	3.7	0.00e+00	0	47	104	0	80	24654
2026-01-09 22:14:43.40	244.74	17.35	-54.5	-58.7	3.7	0.00e+00	0	47	104	0	80	23646
2026-01-09 22:14:45.40	244.29	17.10	-54.4	-58.6	3.7	0.00e+00	0	47	104	0	80	23393
2026-01-09 22:14:47.41	243.85	16.86	-54.4	-58.8	3.7	0.00e+00	0	47	104	0	80	23848
2026-01-09 22:14:49.53	243.40	16.60	-54.3	-58.6	3.7	0.00e+00	0	47	104	0	80	23350
2026-01-09 22:14:51.74	242.94	16.33	-54.4	-58.9	3.7	0.00e+00	0	47	104	0	80	24162
2026-01-09 22:14:53.75	242.53	16.09	-54.4	-58.9	3.7	0.00e+00	0	47	104	0	80	24036
2026-01-09 22:14:55.76	242.12	15.85	-54.3	-58.9	3.7	0.00e+00	0	47	104	0	80	24069
2026-01-09 22:14:57.76	241.73	15.62	-54.3	-58.8	3.7	0.00e+00	0	47	104	0	80	23956
2026-01-09 22:14:59.76	241.34	15.39	-54.1	-58.7	3.7	0.00e+00	0	47	104	0	80	23580
2026-01-09 22:15:01.93	240.93	15.13	-54.2	-58.7	3.7	0.00e+00	0	47	104	0	80	23690
2026-01-09 22:15:04.15	240.52	14.88	-54.0	-58.6	3.7	0.00e+00	0	47	104	0	79	24650
2026-01-09 22:15:06.16	240.15	14.65	-54.1	-58.5	3.7	0.00e+00	0	47	104	0	79	24495
2026-01-09 22:15:08.07	239.81	14.44	-54.0	-58.6	3.7	0.00e+00	0	47	104	0	79	24775
2026-01-09 22:15:10.08	239.45	14.21	-54.0	-58.6	3.7	0.00e+00	0	47	104	0	79	24758
2026-01-09 22:15:12.08	239.11	13.99	-54.0	-58.6	3.7	0.00e+00	0	47	104	0	79	24692
2026-01-09 22:15:14.07	238.77	13.77	-54.1	-58.7	3.7	0.00e+00	0	47	104	0	79	24886
2026-01-09 22:15:16.59	238.35	13.49	-53.9	-58.5	3.7	0.00e+00	0	47	104	0	79	24245
2026-01-09 22:15:18.66	238.01	13.27	-53.8	-58.4	3.7	0.00e+00	0	47	104	0	79	24177
2026-01-09 22:15:20.85	237.66	13.03	-53.8	-58.4	3.7	0.00e+00	0	47	104	0	79	24121
2026-01-09 22:15:23.00	237.33	12.81	-53.7	-58.5	3.7	0.00e+00	0	47	104	0	79	24352
2026-01-09 22:15:25.17	236.99	12.58	-53.6	-58.4	3.7	0.00e+00	0	47	104	0	79	23999
2026-01-09 22:15:27.35	236.66	12.35	-53.5	-58.4	3.7	0.00e+00	0	47	104	0	79	23974
2026-01-09 22:15:29.50	236.34	12.13	-53.5	-58.4	3.7	0.00e+00	0	47	104	0	79	24089
2026-01-09 22:15:31.67	236.03	11.90	-53.6	-58.4	3.7	0.00e+00	0	47	104	0	79	24153
2026-01-09 22:15:34.10	235.68	11.66	-53.6	-58.4	3.7	0.00e+00	0	47	104	0	79	24068
2026-01-09 22:15:36.29	235.38	11.44	-53.7	-58.4	3.7	0.00e+00	0	47	104	0	79	23966
2026-01-09 22:15:38.46	235.08	11.22	-53.6	-58.3	3.7	0.00e+00	0	47	104	0	79	23821
2026-01-09 22:15:40.63	234.79	11.00	-53.7	-58.3	3.7	0.00e+00	0	47	104	0	79	23952
2026-01-09 22:15:43.05	234.47	10.77	-53.7	-58.4	3.7	0.00e+00	0	47	104	0	79	24029
2026-01-09 22:15:45.21	234.19	10.56	-53.6	-58.3	3.7	0.00e+00	0	47	104	0	78	25287
2026-01-09 22:15:47.72	233.87	10.32	-53.5	-58.3	3.7	0.00e+00	0	47	104	0	78	25268
2026-01-09 22:15:49.88	233.60	10.11	-53.6	-58.3	3.7	0.00e+00	0	47	104	0	78	25357
2026-01-09 22:15:52.05	233.33	9.90	-53.6	-58.1	3.7	0.00e+00	0	47	104	0	78	24758
2026-01-09 22:15:54.45	233.04	9.68	-53.5	-58.1	3.7	0.00e+00	0	47	104	0	78	24744
2026-01-09 22:15:56.81	232.76	9.46	-53.6	-58.1	3.7	0.00e+00	0	47	104	0	78	24709
2026-01-09 22:15:58.84	232.53	9.27	-53.4	-58.1	3.7	0.00e+00	0	47	104	0	78	24672
2026-01-09 22:16:00.84	232.30	9.09	-53.5	-58.1	3.6	0.00e+00	0	47	104	0	78	24640
2026-01-09 22:16:02.85	232.07	8.91	-53.7	-58.5	3.7	0.00e+00	0	47	104	0	78	25777
2026-01-09 22:16:04.86	231.85	8.73	-54.3	-58.7	3.7	0.00e+00	0	47	104	0	79	24827
2026-01-09 22:16:06.87	231.63	8.55	-54.4	-58.6	3.7	0.00e+00	0	47	104	0	79	24748
2026-01-09 22:16:08.88	231.42	8.37	-54.4	-59.1	3.7	0.00e+00	0	47	104	0	79	26039
2026-01-09 22:16:10.89	231.21	8.20	-54.4	-59.0	3.7	0.00e+00	0	47	104	0	80	24347
2026-01-09 22:16:12.90	231.00	8.02	-54.5	-59.1	3.7	0.00e+00	0	47	104	0	80	24551
2026-01-09 22:16:14.91	230.79	7.85	-54.2	-58.9	3.7	0.00e+00	0	47	104	0	79	25645
2026-01-09 22:16:16.92	230.59	7.67	-54.1	-58.9	3.7	0.00e+00	0	47	104	0	79	25464
2026-01-09 22:16:18.93	230.39	7.50	-53.9	-58.5	3.7	0.00e+00	0	47	104	0	79	24461
2026-01-09 22:16:20.94	230.19	7.33	-54.2	-58.7	3.7	0.00e+00	0	47	104	0	79	24873
2026-01-09 22:16:22.95	230.00	7.17	-54.0	-58.5	3.7	0.00e+00	0	47	104	0	79	24401
2026-01-09 22:16:24.95	229.81	7.00	-54.0	-58.5	3.7	0.00e+00	0	47	104	0	79	24276
2026-01-09 22:16:26.96	229.62	6.83	-54.0	-58.5	3.7	0.00e+00	0	47	104	0	79	24297
2026-01-09 22:16:28.97	229.44	6.67	-53.9	-58.4	3.7	0.00e+00	0	47	104	0	79	24189
2026-01-09 22:16:30.97	229.26	6.51	-53.9	-58.4	3.7	0.00e+00	0	47	104	0	79	24147
2026-01-09 22:16:32.98	229.08	6.34	-53.9	-58.4	3.7	0.00e+00	0	47	104	0	79	24188
2026-01-09 22:16:34.99	228.90	6.18	-54.0	-58.4	3.7	0.00e+00	0	47	104	
