passes_logs/2026/01/09/T1/T1__20260109_214914_SUOMI_NPP_rec.log

#Pass ID: 20260109_214914_SUOMI NPP
#Satellite: SUOMI NPP
#Configuration: NPP
#almurnet v.1.7.20251203
#Start time: 2026-01-09 21:49:16

#Version: 2.0.20230620
#Station: T1
#Location: 37.570604 lon 55.790049 lat
#TLE: 1 37849U 11061A   26008.83076692  .00000095  00000+0  66074-4 0  9997
#TLE: 2 37849  98.7806 310.9327 0002533  74.3004 285.8451 14.19523607735834

#Time	Az	El	Level	Level2	SNR	BER	BlckErr	Temp	State	Recorded	gain1	gain2
2026-01-09 21:49:16.76	36.20	5.09	-49.1	-64.3	3.8	1.49e+00	0	37	0	0	70	19986
2026-01-09 21:49:19.77	36.53	5.24	-49.1	-64.3	3.8	1.49e+00	0	37	104	0	68	22401
2026-01-09 21:49:22.78	36.87	5.39	-49.1	-64.3	3.8	1.49e+00	0	37	104	0	68	22446
2026-01-09 21:49:25.80	37.22	5.53	-49.1	-64.3	3.8	1.49e+00	0	37	104	0	68	22392
2026-01-09 21:49:28.81	37.56	5.68	-49.1	-64.3	3.8	1.49e+00	0	38	104	0	68	22429
2026-01-09 21:49:31.82	37.91	5.82	-49.1	-64.3	3.8	1.49e+00	0	38	104	0	68	22404
2026-01-09 21:49:34.84	38.26	5.97	-49.1	-64.3	3.8	1.49e+00	0	38	104	0	68	22459
2026-01-09 21:49:37.85	38.62	6.12	-49.1	-64.3	3.8	1.49e+00	0	38	104	0	68	22470
2026-01-09 21:49:40.86	38.98	6.26	-49.1	-64.3	3.8	1.49e+00	0	38	104	0	68	22310
2026-01-09 21:49:43.88	39.34	6.41	-49.1	-64.3	3.8	1.49e+00	0	38	104	0	68	22341
2026-01-09 21:49:46.89	39.71	6.55	-49.0	-64.3	3.8	1.49e+00	0	38	104	0	68	22419
2026-01-09 21:49:49.90	40.08	6.70	-49.0	-64.3	3.8	1.49e+00	0	38	104	0	68	22395
2026-01-09 21:49:52.91	40.45	6.84	-49.0	-64.3	3.8	1.49e+00	0	38	104	0	68	22301
2026-01-09 21:49:55.93	40.83	6.99	-49.1	-64.3	3.8	1.49e+00	0	38	104	0	68	22286
2026-01-09 21:49:58.94	41.21	7.13	-49.0	-64.3	3.8	1.49e+00	0	38	104	0	68	22352
2026-01-09 21:50:01.96	41.60	7.28	-49.0	-64.3	3.8	1.49e+00	0	38	104	0	68	22289
2026-01-09 21:50:04.97	41.99	7.42	-49.0	-64.2	3.8	1.49e+00	0	38	104	0	68	22262
2026-01-09 21:50:07.98	42.38	7.57	-49.0	-64.2	3.8	1.49e+00	0	38	104	0	68	22141
2026-01-09 21:50:10.99	42.77	7.71	-49.0	-64.1	3.8	1.49e+00	0	38	104	0	68	22007
2026-01-09 21:50:14.01	43.17	7.85	-49.0	-64.3	3.8	1.49e+00	0	39	104	0	68	22332
2026-01-09 21:50:17.02	43.58	8.00	-49.0	-64.2	3.8	1.49e+00	0	39	104	0	68	22257
2026-01-09 21:50:20.03	43.98	8.14	-49.0	-64.2	3.8	1.49e+00	0	39	104	0	68	22228
2026-01-09 21:50:23.05	44.39	8.28	-49.0	-64.1	3.8	1.49e+00	0	39	104	0	68	21945
2026-01-09 21:50:26.06	44.81	8.42	-49.0	-64.2	3.8	1.49e+00	0	39	104	0	68	22222
2026-01-09 21:50:29.07	45.23	8.57	-49.0	-64.2	3.8	1.49e+00	0	39	104	0	68	22106
2026-01-09 21:50:32.08	45.65	8.71	-49.0	-64.1	3.8	1.49e+00	0	39	104	0	68	21862
2026-01-09 21:50:35.10	46.08	8.85	-49.0	-64.2	3.8	1.49e+00	0	39	104	0	68	22179
2026-01-09 21:50:38.11	46.51	8.99	-49.0	-63.6	3.8	1.49e+00	0	39	104	0	68	20703
2026-01-09 21:50:41.50	47.00	9.14	-49.0	-63.3	3.8	1.49e+00	0	39	104	0	68	19966
2026-01-09 21:50:44.23	47.40	9.27	-45.9	-50.3	12.7	8.67e-04	0	39	0	0	63	5983
2026-01-09 21:50:47.52	47.88	9.42	-45.5	-49.5	13.6	1.06e-05	0	39	0	6291456	62	5746
2026-01-09 21:50:50.32	48.30	9.55	-45.5	-49.4	13.6	3.00e-06	0	39	0	11534336	62	5701
2026-01-09 21:50:53.76	48.81	9.70	-45.3	-49.2	13.9	8.30e-06	0	39	0	17825792	62	5554
2026-01-09 21:50:56.48	49.22	9.82	-45.0	-48.7	14.4	7.00e-07	0	39	0	23068672	62	5226
2026-01-09 21:50:59.78	49.73	9.97	-44.8	-48.2	14.9	7.00e-07	0	39	0	29360128	61	5272
2026-01-09 21:51:02.50	50.14	10.09	-44.8	-48.2	14.9	7.00e-07	0	39	0	34603008	61	5269
2026-01-09 21:51:05.80	50.66	10.24	-45.1	-48.8	14.3	0.00e+00	0	39	0	40894464	61	5635
2026-01-09 21:51:08.52	51.08	10.36	-44.9	-48.5	14.5	7.00e-07	0	39	0	46137344	61	5457
2026-01-09 21:51:11.82	51.61	10.50	-44.9	-48.5	14.6	0.00e+00	0	39	0	52428800	61	5409
2026-01-09 21:51:14.54	52.04	10.62	-44.7	-48.2	14.9	0.00e+00	0	39	0	56623104	61	5235
2026-01-09 21:51:17.84	52.57	10.76	-44.8	-48.3	14.8	0.00e+00	0	39	0	62914560	61	5301
2026-01-09 21:51:20.56	53.01	10.87	-45.1	-48.7	14.4	0.00e+00	0	39	0	68157440	61	5573
2026-01-09 21:51:23.84	53.55	11.01	-45.2	-48.9	14.2	7.00e-07	0	39	0	74448896	61	5705
2026-01-09 21:51:26.71	54.02	11.13	-45.4	-49.2	13.9	2.20e-06	0	39	0	79691776	61	5921
2026-01-09 21:51:29.89	54.55	11.26	-45.3	-49.1	14.1	7.00e-07	0	39	0	85983232	61	5799
2026-01-09 21:51:32.76	55.03	11.38	-45.4	-49.3	13.8	2.20e-06	0	39	0	91226112	61	5968
2026-01-09 21:51:36.14	55.60	11.51	-45.5	-49.4	13.7	6.80e-06	0	39	0	97517568	61	6046
2026-01-09 21:51:39.28	56.14	11.64	-45.5	-49.4	13.7	9.10e-06	0	39	0	103809024	61	6034
2026-01-09 21:51:42.43	56.68	11.76	-45.5	-49.4	13.7	6.10e-06	0	39	0	109051904	61	6037
2026-01-09 21:51:45.29	57.18	11.87	-45.4	-49.3	13.9	4.50e-06	0	39	0	114294784	61	5973
2026-01-09 21:51:48.50	57.74	11.99	-45.5	-49.5	13.7	6.10e-06	0	39	0	120586240	62	5746
2026-01-09 21:51:51.37	58.24	12.10	-45.3	-49.1	14.2	2.20e-06	0	39	0	125829120	62	5488
2026-01-09 21:51:54.52	58.80	12.22	-45.2	-48.9	14.3	1.50e-06	0	39	0	132120576	62	5360
2026-01-09 21:51:57.38	59.31	12.32	-45.3	-49.0	14.3	2.20e-06	0	39	0	137363456	62	5426
2026-01-09 21:52:00.54	59.88	12.43	-45.5	-49.4	13.9	3.00e-06	0	39	0	143654912	62	5667
2026-01-09 21:52:03.41	60.40	12.53	-45.4	-49.2	14.0	7.00e-07	0	39	0	148897792	62	5555
2026-01-09 21:52:06.56	60.98	12.64	-45.3	-49.2	14.0	1.50e-06	0	39	0	155189248	62	5576
2026-01-09 21:52:09.43	61.51	12.74	-45.3	-49.0	14.3	7.00e-07	0	39	0	160432128	62	5447
2026-01-09 21:52:12.58	62.09	12.84	-44.9	-48.3	14.9	0.00e+00	0	39	0	165675008	61	5340
2026-01-09 21:52:15.66	62.66	12.94	-44.6	-47.9	15.3	0.00e+00	0	39	0	171966464	61	5072
2026-01-09 21:52:18.94	63.28	13.05	-44.4	-47.7	15.6	0.00e+00	0	39	0	178257920	60	5219
2026-01-09 21:52:21.83	63.82	13.14	-44.8	-48.2	15.1	0.00e+00	0	39	0	183500800	60	5556
2026-01-09 21:52:24.99	64.42	13.23	-44.9	-48.3	15.0	0.00e+00	0	39	0	188743680	60	5610
2026-01-09 21:52:27.85	64.97	13.32	-44.5	-47.7	15.6	0.00e+00	0	39	0	195035136	60	5228
2026-01-09 21:52:31.00	65.58	13.41	-44.1	-47.2	16.1	0.00e+00	0	40	0	200278016	60	4929
2026-01-09 21:52:33.87	66.13	13.49	-44.5	-47.8	15.5	0.00e+00	0	39	0	205520896	60	5317
2026-01-09 21:52:37.02	66.74	13.57	-44.3	-47.3	15.9	0.00e+00	0	39	0	211812352	60	5041
2026-01-09 21:52:39.89	67.30	13.65	-44.0	-47.0	16.2	0.00e+00	0	39	0	217055232	59	5121
2026-01-09 21:52:43.04	67.92	13.73	-44.6	-47.9	15.4	0.00e+00	0	40	0	223346688	60	5377
2026-01-09 21:52:45.91	68.49	13.80	-44.7	-48.0	15.3	0.00e+00	0	40	0	228589568	60	5434
2026-01-09 21:52:49.01	69.10	13.88	-44.6	-47.9	15.5	0.00e+00	0	39	0	233832448	60	5349
2026-01-09 21:52:52.02	69.70	13.94	-45.7	-49.6	13.7	3.00e-06	0	39	0	240123904	62	5795
2026-01-09 21:52:55.03	70.31	14.01	-45.7	-49.6	13.6	5.30e-06	0	39	0	245366784	62	5854
2026-01-09 21:52:58.04	70.91	14.07	-44.7	-48.1	15.2	0.00e+00	0	40	0	251658240	61	5176
2026-01-09 21:53:01.05	71.52	14.13	-44.9	-48.3	15.1	0.00e+00	0	39	0	256901120	61	5289
2026-01-09 21:53:04.06	72.13	14.19	-45.1	-48.6	14.7	0.00e+00	0	39	0	262144000	61	5468
2026-01-09 21:53:07.07	72.74	14.25	-44.6	-47.9	15.4	0.00e+00	0	39	0	268435456	61	5059
2026-01-09 21:53:10.08	73.36	14.30	-44.6	-47.8	15.5	0.00e+00	0	39	0	273678336	60	5302
2026-01-09 21:53:13.09	73.97	14.35	-44.5	-47.7	15.7	0.00e+00	0	39	0	278921216	60	5242
2026-01-09 21:53:16.05	74.58	14.39	-44.1	-47.1	16.3	0.00e+00	0	39	0	285212672	60	4891
2026-01-09 21:53:19.06	75.20	14.44	-44.4	-47.5	15.9	0.00e+00	0	39	0	290455552	60	5134
2026-01-09 21:53:22.07	75.83	14.48	-44.6	-47.8	15.5	0.00e+00	0	39	0	296747008	60	5310
2026-01-09 21:53:25.08	76.45	14.51	-44.0	-46.9	16.4	0.00e+00	0	40	0	301989888	59	5045
2026-01-09 21:53:28.16	77.09	14.55	-44.1	-47.1	16.2	0.00e+00	0	40	0	307232768	59	5185
2026-01-09 21:53:31.13	77.71	14.58	-44.7	-47.8	15.5	0.00e+00	0	40	0	313524224	59	5610
2026-01-09 21:53:34.14	78.34	14.61	-44.6	-47.8	15.6	0.00e+00	0	39	0	318767104	60	5284
2026-01-09 21:53:37.15	78.97	14.63	-44.7	-48.0	15.3	0.00e+00	0	40	0	324009984	60	5431
2026-01-09 21:53:40.58	79.68	14.65	-44.5	-47.6	15.7	0.00e+00	0	40	0	331350016	60	5189
2026-01-09 21:53:43.46	80.29	14.67	-44.6	-47.7	15.6	0.00e+00	0	39	0	336592896	60	5260
2026-01-09 21:53:46.62	80.95	14.69	-44.7	-47.9	15.4	0.00e+00	0	39	0	341835776	60	5390
2026-01-09 21:53:49.87	81.64	14.70	-44.1	-47.2	16.1	0.00e+00	0	40	0	348127232	60	4940
2026-01-09 21:53:52.75	82.24	14.71	-44.1	-47.2	16.1	0.00e+00	0	39	0	353370112	59	5237
2026-01-09 21:53:55.91	82.91	14.71	-44.3	-47.3	16.0	0.00e+00	0	39	0	359661568	59	5313
2026-01-09 21:53:58.77	83.51	14.71	-43.9	-46.9	16.4	0.00e+00	0	39	0	364904448	59	5050
2026-01-09 21:54:01.93	84.17	14.71	-44.0	-47.1	16.2	0.00e+00	0	39	0	371195904	59	5166
2026-01-09 21:54:04.79	84.77	14.70	-43.9	-46.9	16.3	0.00e+00	0	39	0	376438784	59	5063
2026-01-09 21:54:07.94	85.44	14.70	-43.4	-46.1	17.2	0.00e+00	0	39	0	382730240	58	4896
2026-01-09 21:54:10.81	86.04	14.68	-43.4	-46.1	17.1	0.00e+00	0	40	0	387973120	58	4909
2026-01-09 21:54:14.03	86.72	14.67	-43.8	-46.6	16.7	0.00e+00	0	39	0	393216000	58	5198
2026-01-09 21:54:16.90	87.32	14.65	-44.0	-46.9	16.4	0.00e+00	0	40	0	399507456	58	5376
2026-01-09 21:54:20.05	87.98	14.63	-43.9	-46.8	16.4	0.00e+00	0	40	0	404750336	58	5320
2026-01-09 21:54:22.91	88.58	14.60	-44.1	-47.0	16.3	0.00e+00	0	39	0	409993216	58	5455
2026-01-09 21:54:26.07	89.24	14.58	-44.3	-47.4	15.8	0.00e+00	0	39	0	416284672	59	5400
2026-01-09 21:54:28.93	89.83	14.55	-44.2	-47.3	16.0	0.00e+00	0	39	0	421527552	59	5301
2026-01-09 21:54:32.02	90.48	14.51	-44.5	-47.6	15.7	0.00e+00	0	39	0	427819008	59	5506
2026-01-09 21:54:35.03	91.10	14.47	-44.0	-46.9	16.3	0.00e+00	0	39	0	433061888	59	5079
2026-01-09 21:54:38.04	91.72	14.43	-43.8	-46.6	16.6	0.00e+00	0	39	0	438304768	59	4910
2026-01-09 21:54:41.05	92.35	14.39	-43.4	-46.0	17.2	0.00e+00	0	40	0	444596224	58	4870
2026-01-09 21:54:44.06	92.97	14.34	-43.2	-45.8	17.4	0.00e+00	0	40	0	449839104	58	4733
2026-01-09 21:54:47.11	93.59	14.29	-43.6	-46.3	17.0	0.00e+00	0	40	0	456130560	58	5008
2026-01-09 21:54:50.77	94.34	14.23	-43.3	-45.9	17.3	0.00e+00	0	40	0	462422016	58	4778
2026-01-09 21:54:53.53	94.90	14.18	-43.6	-46.3	17.0	0.00e+00	0	39	0	467664896	58	4988
2026-01-09 21:54:57.33	95.67	14.10	-44.0	-46.8	16.4	0.00e+00	0	39	0	475004928	58	5304
2026-01-09 21:55:00.08	96.23	14.04	-44.0	-46.9	16.4	0.00e+00	0	40	0	480247808	58	5355
2026-01-09 21:55:03.65	96.95	13.97	-44.0	-46.8	16.4	0.00e+00	0	40	0	486539264	58	5319
2026-01-09 21:55:06.66	97.55	13.90	-43.6	-46.3	16.9	0.00e+00	0	40	0	491782144	58	5002
2026-01-09 21:55:09.76	98.17	13.83	-43.3	-45.9	17.3	0.00e+00	0	40	0	498073600	58	4787
2026-01-09 21:55:12.64	98.74	13.76	-43.1	-45.7	17.5	0.00e+00	0	39	0	503316480	58	4677
2026-01-09 21:55:16.12	99.43	13.67	-43.3	-45.9	17.3	0.00e+00	0	39	0	509607936	57	5061
2026-01-09 21:55:18.84	99.96	13.60	-43.3	-45.9	17.2	0.00e+00	0	39	0	514850816	57	5074
2026-01-09 21:55:22.14	100.60	13.51	-43.2	-45.8	17.3	0.00e+00	0	39	0	521142272	57	5007
2026-01-09 21:55:24.86	101.13	13.43	-43.7	-46.4	16.8	0.00e+00	0	39	0	526385152	58	5077
2026-01-09 21:55:28.09	101.76	13.34	-43.6	-46.3	16.9	0.00e+00	0	39	0	532676608	58	5002
2026-01-09 21:55:31.24	102.36	13.24	-43.5	-46.2	17.0	0.00e+00	0	39	0	537919488	58	4946
2026-01-09 21:55:34.20	102.93	13.15	-43.7	-46.4	16.8	0.00e+00	0	40	0	544210944	58	5068
2026-01-09 21:55:37.35	103.52	13.06	-43.4	-46.1	17.1	0.00e+00	0	40	0	549453824	58	4883
2026-01-09 21:55:40.32	104.08	12.96	-43.6	-46.3	16.9	0.00e+00	0	39	0	555745280	58	5037
2026-01-09 21:55:43.70	104.72	12.85	-44.1	-47.0	16.2	0.00e+00	0	39	0	562036736	59	5146
2026-01-09 21:55:46.42	105.22	12.76	-44.4	-47.5	15.7	0.00e+00	0	39	0	567279616	59	5421
2026-01-09 21:55:49.72	105.83	12.65	-44.2	-47.2	16.0	0.00e+00	0	39	0	573571072	59	5243
2026-01-09 21:55:52.81	106.40	12.54	-44.5	-47.5	15.7	0.00e+00	0	39	0	578813952	59	5440
2026-01-09 21:55:55.84	106.95	12.44	-45.0	-48.4	14.9	0.00e+00	0	39	0	584056832	60	5715
2026-01-09 21:55:58.85	107.50	12.33	-45.0	-48.4	14.9	1.50e-06	0	40	0	590348288	61	5351
2026-01-09 21:56:01.87	108.04	12.22	-45.3	-48.7	14.6	0.00e+00	0	40	0	595591168	61	5571
2026-01-09 21:56:04.87	108.57	12.11	-45.6	-49.3	14.0	2.20e-06	0	39	0	601882624	61	5934
2026-01-09 21:56:07.88	109.11	11.99	-45.2	-48.7	14.6	0.00e+00	0	40	0	607125504	61	5542
2026-01-09 21:56:10.89	109.64	11.88	-44.6	-47.7	15.5	0.00e+00	0	40	0	612368384	61	4952
2026-01-09 21:56:13.90	110.16	11.76	-45.0	-48.4	14.8	0.00e+00	0	39	0	618659840	61	5371
2026-01-09 21:56:16.86	110.67	11.64	-45.6	-49.4	13.8	2.20e-06	0	40	0	623902720	61	6012
2026-01-09 21:56:20.07	111.22	11.51	-45.8	-49.8	13.4	1.67e-05	0	39	0	630194176	62	5966
2026-01-09 21:56:22.94	111.71	11.40	-45.8	-49.8	13.4	1.44e-05	0	39	0	635437056	62	5956
2026-01-09 21:56:26.09	112.24	11.27	-45.5	-49.2	14.0	7.00e-07	0	40	0	641728512	62	5557
2026-01-09 21:56:29.25	112.77	11.14	-45.2	-48.7	14.5	0.00e+00	0	39	0	646971392	62	5262
2026-01-09 21:56:32.12	113.25	11.02	-45.3	-48.9	14.3	7.00e-07	0	39	0	652214272	62	5346
2026-01-09 21:56:35.27	113.77	10.89	-45.2	-48.6	14.5	0.00e+00	0	40	0	658505728	62	5211
2026-01-09 21:56:38.15	114.24	10.76	-45.1	-48.5	14.7	0.00e+00	0	40	0	663748608	62	5147
2026-01-09 21:56:41.45	114.77	10.62	-45.1	-48.6	14.5	0.00e+00	0	40	0	670040064	61	5488
2026-01-09 21:56:44.17	115.21	10.50	-45.5	-49.2	14.0	7.00e-07	0	40	0	675282944	61	5901
2026-01-09 21:56:47.47	115.73	10.36	-45.6	-49.4	13.7	8.30e-06	0	40	0	681574400	62	5707
2026-01-09 21:56:50.20	116.16	10.24	-45.4	-49.1	14.0	3.80e-06	0	39	0	686817280	62	5510
2026-01-09 21:56:53.58	116.69	10.09	-45.4	-49.1	14.0	3.00e-06	0	39	0	693108736	62	5501
2026-01-09 21:56:56.69	117.17	9.95	-45.1	-48.6	14.4	2.20e-06	0	39	0	698351616	62	5216
2026-01-09 21:57:00.02	117.68	9.80	-44.8	-48.3	14.7	0.00e+00	0	39	0	704643072	61	5323
2026-01-09 21:57:02.74	118.10	9.68	-44.9	-48.4	14.7	0.00e+00	0	40	0	709885952	61	5345
2026-01-09 21:57:06.09	118.60	9.52	-44.8	-48.2	14.8	0.00e+00	0	40	0	716177408	61	5271
2026-01-09 21:57:08.89	119.02	9.40	-44.9	-48.3	14.7	0.00e+00	0	40	0	721420288	61	5309
2026-01-09 21:57:12.25	119.52	9.24	-44.6	-47.8	15.1	0.00e+00	0	40	0	727711744	61	5030
2026-01-09 21:57:14.97	119.91	9.11	-44.6	-47.9	15.0	0.00e+00	0	39	0	732954624	61	5093
2026-01-09 21:57:18.27	120.39	8.96	-49.3	-62.8	3.8	6.98e-01	0	39	104	738197504	69	17869
2026-01-09 21:57:21.09	120.80	8.83	-49.6	-64.9	3.8	1.49e+00	0	39	104	738197504	70	21354
2026-01-09 21:57:24.36	121.26	8.67	-49.9	-65.0	3.8	1.49e+00	0	40	104	738197504	70	21695
2026-01-09 21:57:27.44	121.70	8.53	-50.0	-65.1	3.8	1.49e+00	0	40	104	738197504	70	21771
2026-01-09 21:57:30.45	122.12	8.39	-49.7	-65.1	3.8	1.49e+00	0	39	104	738197504	70	21925
2026-01-09 21:57:33.47	122.54	8.24	-49.7	-65.1	3.8	1.49e+00	0	40	104	738197504	70	21978
2026-01-09 21:57:36.48	122.95	8.10	-49.6	-65.1	3.8	1.49e+00	0	40	104	738197504	70	21941
2026-01-09 21:57:39.51	123.36	7.95	-49.9	-65.1	3.8	1.49e+00	0	40	104	738197504	70	21922
2026-01-09 21:57:42.55	123.77	7.81	-49.9	-65.1	3.8	1.49e+00	0	39	104	738197504	70	21972
2026-01-09 21:57:45.56	124.17	7.66	-49.9	-65.1	3.8	1.49e+00	0	39	104	738197504	70	21985
2026-01-09 21:57:48.57	124.56	7.52	-49.9	-65.1	3.8	1.49e+00	0	40	104	738197504	70	21897
2026-01-09 21:57:51.58	124.96	7.37	-49.9	-65.1	3.8	1.49e+00	0	39	104	738197504	70	21909
2026-01-09 21:57:54.60	125.35	7.23	-49.8	-65.1	3.8	1.49e+00	0	39	104	738197504	70	21845
2026-01-09 21:57:57.61	125.73	7.08	-49.8	-65.1	3.8	1.49e+00	0	39	104	738197504	70	21879
2026-01-09 21:58:00.62	126.11	6.93	-49.8	-65.1	3.8	1.49e+00	0	40	104	738197504	70	21823
2026-01-09 21:58:03.64	126.49	6.79	-49.8	-65.1	3.8	1.49e+00	0	39	104	738197504	70	21853
2026-01-09 21:58:06.65	126.87	6.64	-49.8	-65.1	3.8	1.49e+00	0	39	104	738197504	70	21885
2026-01-09 21:58:09.66	127.24	6.49	-49.9	-65.1	3.8	1.49e+00	0	39	104	738197504	70	21830
2026-01-09 21:58:12.68	127.61	6.35	-49.8	-65.1	3.8	1.49e+00	0	39	104	738197504	70	21851
2026-01-09 21:58:15.69	127.97	6.20	-49.8	-65.1	3.8	1.49e+00	0	40	104	738197504	70	21892
2026-01-09 21:58:18.70	128.33	6.05	-49.8	-65.1	3.8	1.49e+00	0	40	104	738197504	70	21802
2026-01-09 21:58:21.72	128.69	5.90	-49.8	-65.1	3.8	1.49e+00	0	40	104	738197504	70	21857
2026-01-09 21:58:24.73	129.04	5.75	-49.9	-65.1	3.8	1.49e+00	0	40	104	738197504	70	21805
2026-01-09 21:58:27.75	129.39	5.61	-49.9	-65.1	3.8	1.49e+00	0	40	104	738197504	70	21875
2026-01-09 21:58:30.76	129.74	5.46	-49.9	-65.1	3.8	1.49e+00	0	40	104	738197504	70	21915
2026-01-09 21:58:33.77	130.08	5.31	-49.9	-65.1	3.8	1.49e+00	0	39	104	738197504	70	21891
2026-01-09 21:58:36.78	130.42	5.16	-49.9	-65.1	3.8	1.49e+00	0	40	104	738197504	70	21896
2026-01-09 21:58:39.80	130.76	5.02	-49.9	-65.2	3.8	1.49e+00	0	39	104	738197504	70	22016

#Closed at: 2026-01-09 21:58:41
#Recorded file [738 MB]: D:/Data/31040_260110_004916.dat