passes_logs/2026/01/09/T1/T1__20260109_112420_AQUA_rec.log

#Pass ID: 20260109_112420_AQUA
#Satellite: AQUA
#Configuration: AQUA
#almurnet v.1.7.20251203
#Start time: 2026-01-09 11:24:21

#Version: 2.0.20230620
#Station: T1
#Location: 37.570604 lon 55.790049 lat
#TLE: 1 27424U 02022A   26004.96787593  .00001598  00000+0  32997-3 0  9996
#TLE: 2 27424  98.4069 331.2279 0002002  90.2377   0.6092 14.61798176259425

#Time	Az	El	Level	Level2	SNR	BER	BlckErr	Temp	State	Recorded	gain1	gain2
2026-01-09 11:24:21.40	152.29	5.11	-49.5	-68.7	3.8	7.45e-01	0	41	104	0	69	35129
2026-01-09 11:24:24.41	152.24	5.34	-49.5	-68.8	3.8	7.45e-01	0	41	104	0	69	35428
2026-01-09 11:24:27.42	152.19	5.57	-49.5	-70.0	3.8	7.45e-01	0	41	104	0	69	40652
2026-01-09 11:24:30.43	152.14	5.80	-49.6	-70.2	3.8	7.47e-01	0	41	104	0	69	41505
2026-01-09 11:24:33.44	152.09	6.03	-49.5	-67.8	4.0	7.42e-01	0	41	104	0	69	31602
2026-01-09 11:24:36.46	152.03	6.27	-49.4	-66.6	3.9	7.40e-01	0	42	104	0	69	27426
2026-01-09 11:24:39.47	151.98	6.51	-49.4	-64.9	5.0	7.13e-01	0	42	0	0	69	22607
2026-01-09 11:24:42.48	151.92	6.75	-49.3	-62.7	6.4	6.72e-01	0	42	0	2621440	69	17582
2026-01-09 11:24:45.49	151.86	7.00	-49.0	-59.8	9.2	6.34e-01	0	42	0	8388608	69	12657
2026-01-09 11:24:48.51	151.81	7.24	-48.5	-56.8	12.4	6.12e-01	0	42	0	13631488	69	8890
2026-01-09 11:24:51.52	151.75	7.49	-47.4	-53.4	15.8	6.07e-01	0	42	0	19398656	66	7177
2026-01-09 11:24:54.53	151.68	7.75	-46.3	-50.9	18.3	6.09e-01	0	42	0	25165824	64	6030
2026-01-09 11:24:57.54	151.62	8.00	-45.6	-49.6	19.3	6.06e-01	0	42	0	30932992	63	5479
2026-01-09 11:25:00.56	151.56	8.26	-45.7	-49.7	19.5	6.08e-01	0	42	0	36175872	62	5892
2026-01-09 11:25:03.57	151.49	8.52	-46.7	-51.7	17.5	6.06e-01	0	42	0	41943040	64	6600
2026-01-09 11:25:06.58	151.43	8.79	-48.4	-56.6	12.6	6.10e-01	0	42	0	47710208	67	9759
2026-01-09 11:25:09.59	151.36	9.05	-49.2	-59.8	9.0	6.34e-01	0	42	0	52953088	69	12581
2026-01-09 11:25:12.63	151.29	9.33	-48.8	-58.5	5.1	6.53e-01	0	42	104	56623104	69	10790
2026-01-09 11:25:16.39	151.20	9.67	-46.2	-50.5	18.9	6.07e-01	0	43	0	62914560	64	5724
2026-01-09 11:25:19.15	151.13	9.92	-44.8	-48.2	21.1	6.07e-01	0	43	0	68157440	61	5263
2026-01-09 11:25:22.92	151.04	10.28	-44.1	-47.2	22.2	6.06e-01	0	43	0	74973184	60	4954
2026-01-09 11:25:25.66	150.97	10.54	-44.1	-47.1	22.4	6.06e-01	0	43	0	80216064	59	5192
2026-01-09 11:25:29.56	150.86	10.91	-43.9	-46.7	22.9	6.06e-01	0	43	0	87556096	59	4947
2026-01-09 11:25:32.73	150.78	11.22	-43.7	-46.5	23.1	6.05e-01	0	43	0	93847552	59	4827
2026-01-09 11:25:36.48	150.67	11.59	-43.6	-46.4	23.1	6.08e-01	0	43	0	100663296	59	4810
2026-01-09 11:25:39.45	150.59	11.89	-43.5	-46.4	23.1	6.08e-01	0	43	0	106430464	59	4814
2026-01-09 11:25:42.82	150.49	12.24	-43.5	-46.4	23.2	6.07e-01	0	43	0	112721920	58	5059
2026-01-09 11:25:45.85	150.40	12.55	-43.6	-46.5	23.1	6.07e-01	0	43	0	117964800	58	5155
2026-01-09 11:25:48.86	150.31	12.87	-43.4	-46.3	23.3	6.09e-01	0	43	0	123731968	58	5025
2026-01-09 11:25:51.88	150.21	13.19	-43.6	-46.3	23.3	6.10e-01	0	43	0	129499136	58	5027
2026-01-09 11:25:54.89	150.11	13.52	-43.4	-46.1	23.5	6.07e-01	0	43	0	135266304	58	4903
2026-01-09 11:25:57.88	150.01	13.84	-43.4	-46.1	23.5	6.06e-01	0	43	0	141033472	58	4905
2026-01-09 11:26:00.88	149.91	14.18	-43.3	-46.0	23.5	6.07e-01	0	43	0	146276352	58	4843
2026-01-09 11:26:03.89	149.81	14.52	-43.3	-46.0	23.6	6.06e-01	0	43	0	152043520	58	4865
2026-01-09 11:26:06.90	149.70	14.86	-43.2	-45.9	23.8	6.04e-01	0	43	0	157810688	58	4777
2026-01-09 11:26:09.97	149.58	15.22	-43.1	-45.8	23.9	6.07e-01	0	43	0	163577856	58	4710
2026-01-09 11:26:12.84	149.48	15.56	-43.1	-45.7	24.0	6.09e-01	0	43	0	168820736	58	4676
2026-01-09 11:26:15.99	149.35	15.94	-43.2	-45.7	23.9	6.07e-01	0	43	0	174587904	58	4694
2026-01-09 11:26:18.86	149.24	16.29	-43.2	-45.8	23.9	6.06e-01	0	43	0	179830784	58	4707
2026-01-09 11:26:22.11	149.10	16.70	-43.2	-45.8	23.9	6.07e-01	0	43	0	186122240	58	4739
2026-01-09 11:26:24.97	148.98	17.06	-43.2	-45.9	23.8	6.07e-01	0	43	0	191365120	58	4778
2026-01-09 11:26:28.12	148.84	17.47	-43.3	-46.1	23.6	6.06e-01	0	43	0	197656576	58	4882
2026-01-09 11:26:31.14	148.71	17.86	-43.2	-45.9	23.8	6.07e-01	0	43	0	202899456	58	4775
2026-01-09 11:26:34.50	148.55	18.31	-43.1	-45.7	23.9	6.07e-01	0	43	0	209190912	58	4679
2026-01-09 11:26:37.22	148.42	18.68	-43.1	-45.7	24.0	6.06e-01	0	43	0	214433792	58	4654
2026-01-09 11:26:40.98	148.24	19.20	-43.0	-45.6	24.2	6.07e-01	0	43	0	221773824	57	4874
2026-01-09 11:26:43.88	148.09	19.61	-43.2	-45.7	24.0	6.07e-01	0	43	0	227016704	57	4968
2026-01-09 11:26:47.40	147.90	20.12	-43.3	-45.9	23.9	6.06e-01	0	43	0	233832448	57	5081
2026-01-09 11:26:50.30	147.74	20.55	-43.4	-46.0	23.7	6.08e-01	0	43	0	239075328	57	5135
2026-01-09 11:26:54.05	147.53	21.11	-43.3	-46.0	23.8	6.07e-01	0	43	0	245891072	57	5108
2026-01-09 11:26:56.98	147.36	21.56	-43.3	-46.1	23.7	6.07e-01	0	43	0	251658240	57	5169
2026-01-09 11:26:59.99	147.18	22.03	-43.2	-46.1	23.7	6.06e-01	0	43	0	257425408	57	5174
2026-01-09 11:27:03.00	146.99	22.51	-43.1	-46.1	23.7	6.06e-01	0	43	0	262668288	57	5203
2026-01-09 11:27:06.01	146.79	23.00	-43.3	-46.3	23.5	6.06e-01	0	43	0	268435456	57	5309
2026-01-09 11:27:09.02	146.59	23.50	-43.7	-46.6	23.3	6.05e-01	0	43	0	274202624	58	5168
2026-01-09 11:27:12.03	146.38	24.01	-43.7	-46.4	23.4	6.08e-01	0	43	0	279969792	58	5100
2026-01-09 11:27:15.04	146.16	24.53	-43.5	-46.1	23.8	6.06e-01	0	43	0	285212672	58	4879
2026-01-09 11:27:18.05	145.94	25.07	-43.2	-45.8	24.0	6.07e-01	0	43	0	290979840	58	4727
2026-01-09 11:27:21.16	145.69	25.63	-43.2	-45.9	23.9	6.07e-01	0	43	0	296747008	58	4779
2026-01-09 11:27:24.17	145.45	26.18	-43.5	-46.2	23.6	6.08e-01	0	43	0	302514176	58	4981
2026-01-09 11:27:27.48	145.17	26.81	-43.5	-46.2	23.6	6.08e-01	0	43	0	308805632	58	4977
2026-01-09 11:27:30.20	144.94	27.33	-43.4	-46.0	23.8	6.05e-01	0	43	0	314048512	58	4863
2026-01-09 11:27:33.57	144.63	27.99	-42.7	-45.2	24.6	6.09e-01	0	43	0	320339968	57	4663
2026-01-09 11:27:36.29	144.37	28.54	-43.2	-45.7	24.1	6.07e-01	0	43	0	325058560	57	4952
2026-01-09 11:27:39.55	144.05	29.22	-43.2	-45.8	24.1	6.05e-01	0	43	0	331350016	57	5004
2026-01-09 11:27:42.70	143.73	29.88	-42.9	-45.4	24.4	6.06e-01	0	43	0	337117184	57	4803
2026-01-09 11:27:45.56	143.42	30.50	-43.0	-45.5	24.3	6.08e-01	0	43	0	342884352	57	4831
2026-01-09 11:27:48.65	143.08	31.18	-42.6	-45.0	24.8	6.07e-01	0	43	0	348651520	57	4586
2026-01-09 11:27:51.66	142.72	31.86	-43.0	-45.5	24.4	6.07e-01	0	43	0	353894400	57	4843
2026-01-09 11:27:54.67	142.36	32.56	-43.0	-45.5	24.3	6.06e-01	0	43	0	359661568	57	4863
2026-01-09 11:27:57.68	141.97	33.27	-43.1	-45.6	24.3	6.06e-01	0	44	0	365428736	57	4888
2026-01-09 11:28:00.66	141.57	33.99	-43.4	-46.0	23.9	6.06e-01	0	43	0	371195904	57	5122
2026-01-09 11:28:04.03	141.10	34.83	-43.8	-46.4	23.5	6.06e-01	0	44	0	377487360	58	5099
2026-01-09 11:28:06.75	140.69	35.52	-44.2	-47.1	22.9	6.06e-01	0	43	0	382205952	59	5163
2026-01-09 11:28:10.04	140.18	36.37	-44.4	-47.2	22.8	6.08e-01	0	43	0	388497408	59	5257
2026-01-09 11:28:12.76	139.74	37.09	-44.6	-47.5	22.6	6.09e-01	0	43	0	393740288	59	5424
2026-01-09 11:28:16.06	139.17	37.99	-44.6	-47.6	22.3	6.08e-01	0	44	0	400031744	60	5160
2026-01-09 11:28:19.19	138.60	38.86	-44.6	-47.6	22.3	6.07e-01	0	43	0	405798912	60	5209
2026-01-09 11:28:22.34	137.99	39.76	-44.7	-47.7	22.2	6.08e-01	0	43	0	411566080	60	5245
2026-01-09 11:28:25.20	137.41	40.60	-44.6	-47.6	22.3	6.07e-01	0	44	0	416808960	60	5195
2026-01-09 11:28:28.34	136.73	41.53	-44.1	-46.9	23.0	6.06e-01	0	43	0	423100416	60	4786
2026-01-09 11:28:31.21	136.08	42.41	-44.1	-46.8	23.2	6.07e-01	0	43	0	428343296	59	5018
2026-01-09 11:28:34.36	135.32	43.38	-43.9	-46.7	23.3	6.08e-01	0	44	0	434110464	59	4933
2026-01-09 11:28:37.23	134.58	44.29	-43.9	-46.6	23.5	6.07e-01	0	44	0	439353344	58	5164
2026-01-09 11:28:40.38	133.72	45.31	-43.8	-46.5	23.5	6.07e-01	0	44	0	445644800	58	5140
2026-01-09 11:28:43.25	132.88	46.26	-43.8	-46.5	23.5	6.09e-01	0	43	0	450887680	59	4851
2026-01-09 11:28:46.61	131.84	47.38	-43.8	-46.5	23.4	6.06e-01	0	43	0	457179136	59	4863
2026-01-09 11:28:49.36	130.92	48.32	-44.0	-46.7	23.4	6.07e-01	0	44	0	462422016	59	4954
2026-01-09 11:28:52.66	129.74	49.46	-43.8	-46.5	23.4	6.07e-01	0	44	0	468713472	59	4855
2026-01-09 11:28:55.71	128.57	50.53	-43.5	-46.1	23.9	6.07e-01	0	44	0	473956352	58	4907
2026-01-09 11:28:58.80	127.29	51.63	-43.3	-45.9	24.1	6.08e-01	0	44	0	480247808	58	4768
2026-01-09 11:29:02.14	125.80	52.83	-43.6	-46.3	23.7	6.07e-01	0	43	0	486539264	57	5329
2026-01-09 11:29:05.44	124.20	54.02	-43.3	-45.8	24.1	6.06e-01	0	43	0	492306432	57	5028
2026-01-09 11:29:08.45	122.61	55.11	-43.5	-46.0	24.0	6.06e-01	0	44	0	498073600	58	4864
2026-01-09 11:29:11.46	120.90	56.20	-43.8	-46.5	23.6	6.03e-01	0	44	0	503840768	58	5108
2026-01-09 11:29:14.46	119.05	57.28	-43.8	-46.4	23.6	6.08e-01	0	44	0	509083648	58	5100
2026-01-09 11:29:17.48	117.04	58.36	-43.9	-46.6	23.5	6.09e-01	0	44	0	514850816	59	4881
2026-01-09 11:29:20.48	114.87	59.42	-44.3	-47.1	23.0	6.06e-01	0	44	0	520617984	59	5167
2026-01-09 11:29:23.50	112.50	60.46	-43.7	-46.4	23.6	6.05e-01	0	44	0	526385152	59	4776
2026-01-09 11:29:26.51	109.94	61.47	-44.3	-47.1	22.9	6.06e-01	0	44	0	532152320	60	4878
2026-01-09 11:29:29.52	107.17	62.44	-44.9	-47.9	22.0	6.08e-01	0	43	0	537395200	61	5096
2026-01-09 11:29:32.53	104.17	63.36	-45.1	-48.2	21.6	6.07e-01	0	44	0	543162368	61	5261
2026-01-09 11:29:35.54	100.93	64.22	-45.3	-48.7	21.3	6.05e-01	0	44	0	548929536	61	5560
2026-01-09 11:29:38.55	97.45	65.02	-45.8	-49.3	20.8	6.08e-01	0	44	0	554696704	62	5605
2026-01-09 11:29:41.55	93.74	65.73	-46.2	-50.1	19.9	6.06e-01	0	44	0	559939584	63	5852
2026-01-09 11:29:44.56	89.78	66.35	-46.4	-50.3	19.7	6.08e-01	0	44	0	565706752	64	5602
2026-01-09 11:29:47.58	85.60	66.86	-46.1	-50.2	19.9	6.09e-01	0	44	0	571473920	63	5877
2026-01-09 11:29:50.75	81.01	67.28	-46.8	-50.9	19.1	6.05e-01	0	44	0	577241088	64	6025
2026-01-09 11:29:53.71	76.57	67.55	-46.3	-50.1	20.0	6.07e-01	0	44	0	583008256	64	5470
2026-01-09 11:29:57.28	71.12	67.70	-47.1	-51.3	18.7	6.07e-01	0	43	0	589824000	64	6282
2026-01-09 11:29:59.99	66.95	67.69	-46.7	-50.8	19.2	6.06e-01	0	44	0	594542592	64	5985
2026-01-09 11:30:03.28	61.93	67.54	-46.6	-50.5	19.6	6.05e-01	0	44	0	600834048	64	5727
2026-01-09 11:30:06.02	57.83	67.29	-46.8	-50.7	19.3	6.07e-01	0	44	0	606076928	64	5906
2026-01-09 11:30:09.32	53.05	66.86	-47.2	-51.4	18.6	6.07e-01	0	44	0	612368384	65	6058
2026-01-09 11:30:12.04	49.28	66.40	-47.0	-51.0	19.0	6.07e-01	0	44	0	617086976	65	5739
2026-01-09 11:30:15.34	44.93	65.72	-46.5	-50.0	19.9	6.08e-01	0	44	0	623378432	65	5148
2026-01-09 11:30:18.21	41.39	65.04	-46.5	-50.4	19.6	6.07e-01	0	43	0	628621312	64	5662
2026-01-09 11:30:22.15	36.88	64.00	-45.9	-49.3	20.8	6.05e-01	0	44	0	636485632	63	5280
2026-01-09 11:30:24.87	34.00	63.21	-45.5	-48.9	21.2	6.06e-01	0	44	0	641204224	63	5061
2026-01-09 11:30:28.17	30.78	62.18	-45.5	-48.9	21.1	6.07e-01	0	44	0	647495680	62	5378
2026-01-09 11:30:31.21	28.04	61.20	-45.0	-48.3	21.7	6.06e-01	0	44	0	653262848	61	5307
2026-01-09 11:30:34.43	25.38	60.11	-44.5	-47.4	22.6	6.06e-01	0	44	0	659554304	60	5050
2026-01-09 11:30:37.36	23.14	59.09	-44.1	-47.0	22.9	6.05e-01	0	44	0	664797184	60	4865
2026-01-09 11:30:40.37	21.03	58.03	-44.1	-47.0	23.1	6.06e-01	0	43	0	670564352	59	5139
2026-01-09 11:30:43.38	19.08	56.95	-43.7	-46.4	23.7	6.06e-01	0	43	0	676331520	59	4765
2026-01-09 11:30:46.39	17.28	55.87	-43.3	-45.9	24.1	6.06e-01	0	44	0	681574400	58	4778
2026-01-09 11:30:49.47	15.57	54.76	-43.0	-45.4	24.5	6.06e-01	0	44	0	687341568	57	4802
2026-01-09 11:30:52.43	14.06	53.69	-43.0	-45.5	24.4	6.05e-01	0	44	0	693108736	57	4846
2026-01-09 11:30:55.44	12.63	52.61	-42.6	-45.0	25.0	6.07e-01	0	44	0	698875904	57	4571
2026-01-09 11:30:58.45	11.31	51.53	-42.9	-45.3	24.6	6.06e-01	0	44	0	704118784	57	4740
2026-01-09 11:31:01.46	10.07	50.47	-42.7	-45.1	24.8	6.08e-01	0	43	0	709885952	57	4645
2026-01-09 11:31:04.48	8.92	49.42	-43.6	-46.1	23.9	6.08e-01	0	43	0	715653120	57	5213
2026-01-09 11:31:07.49	7.85	48.38	-43.1	-45.7	24.3	6.06e-01	0	43	0	721420288	57	4970
2026-01-09 11:31:10.50	6.86	47.36	-43.4	-46.1	23.9	6.06e-01	0	44	0	727187456	57	5205
2026-01-09 11:31:13.51	5.92	46.35	-43.0	-45.5	24.4	6.07e-01	0	43	0	732430336	57	4850
2026-01-09 11:31:16.52	5.04	45.36	-43.3	-45.8	24.2	6.07e-01	0	44	0	738197504	57	5030
2026-01-09 11:31:19.53	4.22	44.39	-43.2	-46.0	23.9	6.07e-01	0	43	0	743964672	57	5122
2026-01-09 11:31:22.56	3.45	43.44	-43.3	-46.0	24.0	6.07e-01	0	43	0	749731840	57	5144
2026-01-09 11:31:25.57	2.72	42.51	-43.9	-46.6	23.4	6.06e-01	0	43	0	754974720	58	5202
2026-01-09 11:31:28.58	2.03	41.59	-43.9	-46.7	23.4	6.06e-01	0	43	0	760741888	58	5233
2026-01-09 11:31:31.59	1.39	40.70	-44.6	-47.6	22.4	6.06e-01	0	43	0	766509056	60	5182
2026-01-09 11:31:35.03	0.69	39.70	-44.9	-47.9	22.0	6.10e-01	0	43	0	772800512	60	5400
2026-01-09 11:31:37.87	0.15	38.90	-44.7	-47.5	22.4	6.08e-01	0	44	0	778043392	60	5153
2026-01-09 11:31:41.01	359.58	38.03	-44.6	-47.9	22.1	6.07e-01	0	44	0	784334848	60	5379
2026-01-09 11:31:43.88	359.09	37.25	-44.1	-47.3	22.6	6.06e-01	0	44	0	789577728	60	5040
2026-01-09 11:31:47.03	358.57	36.42	-44.2	-47.2	22.7	6.09e-01	0	43	0	795344896	60	4945
2026-01-09 11:31:49.89	358.13	35.67	-44.1	-46.9	23.0	6.06e-01	0	43	0	800587776	60	4811
2026-01-09 11:31:53.04	357.67	34.88	-43.8	-46.6	23.5	6.08e-01	0	43	0	806879232	59	4872
2026-01-09 11:31:55.91	357.26	34.17	-43.4	-46.1	23.9	6.02e-01	0	44	0	812122112	58	4874
2026-01-09 11:31:59.09	356.84	33.40	-43.2	-45.9	24.0	6.07e-01	0	44	0	817889280	58	4799
2026-01-09 11:32:02.40	356.42	32.62	-42.9	-45.6	24.4	6.08e-01	0	44	0	824180736	57	4879
2026-01-09 11:32:05.18	356.08	31.98	-42.5	-45.0	24.9	6.07e-01	0	44	0	829423616	57	4579
2026-01-09 11:32:08.59	355.68	31.21	-42.6	-45.0	24.8	6.04e-01	0	44	0	835715072	57	4585
2026-01-09 11:32:11.57	355.35	30.56	-42.6	-45.1	24.8	6.07e-01	0	44	0	841482240	57	4605
2026-01-09 11:32:14.57	355.03	29.92	-42.7	-45.3	24.6	6.04e-01	0	44	0	847249408	57	4720
2026-01-09 11:32:17.58	354.73	29.28	-42.9	-45.5	24.4	6.07e-01	0	44	0	852492288	57	4827
2026-01-09 11:32:20.58	354.43	28.67	-43.0	-45.6	24.3	6.05e-01	0	44	0	858259456	57	4881
2026-01-09 11:32:24.00	354.11	27.98	-43.0	-45.6	24.3	6.08e-01	0	44	0	864550912	57	4917
2026-01-09 11:32:26.95	353.85	27.41	-43.2	-45.8	24.1	6.06e-01	0	44	0	870318080	57	5009
2026-01-09 11:32:30.28	353.56	26.77	-42.9	-45.7	24.2	6.08e-01	0	44	0	876609536	57	4928
2026-01-09 11:32:33.00	353.34	26.26	-43.1	-45.8	24.1	6.08e-01	0	44	0	881852416	57	5006
2026-01-09 11:32:36.29	353.07	25.66	-43.3	-45.9	24.0	6.07e-01	0	44	0	887619584	57	5090
2026-01-09 11:32:39.12	352.86	25.15	-43.2	-45.9	24.0	6.08e-01	0	44	0	892862464	57	5081
2026-01-09 11:32:42.28	352.62	24.59	-43.0	-46.0	23.9	6.06e-01	0	44	0	899153920	57	5137
2026-01-09 11:32:45.41	352.40	24.06	-43.3	-46.4	23.5	6.03e-01	0	44	0	904921088	57	5345
2026-01-09 11:32:48.28	352.20	23.57	-43.6	-46.5	23.5	6.02e-01	0	44	0	910163968	57	5407
2026-01-09 11:32:51.44	351.99	23.05	-43.6	-46.3	23.6	6.03e-01	0	44	0	916455424	57	5299
2026-01-09 11:32:54.29	351.81	22.59	-43.4	-46.2	23.7	6.04e-01	0	43	0	921698304	57	5261
2026-01-09 11:32:57.43	351.62	22.09	-43.5	-46.3	23.6	6.02e-01	0	44	0	927465472	57	5317
2026-01-09 11:33:00.28	351.45	21.65	-43.6	-46.3	23.6	6.04e-01	0	44	0	932708352	58	5030
2026-01-09 11:33:03.43	351.27	21.17	-43.5	-46.4	23.5	6.01e-01	0	43	0	938475520	58	5082
2026-01-09 11:33:06.29	351.11	20.74	-43.6	-46.5	23.3	6.03e-01	0	44	0	944242688	58	5143
2026-01-09 11:33:09.43	350.93	20.28	-43.7	-46.6	23.3	6.02e-01	0	43	0	950009856	58	5161
2026-01-09 11:33:12.29	350.78	19.87	-43.4	-46.4	23.4	6.04e-01	0	44	0	955252736	58	5079
2026-01-09 11:33:15.43	350.63	19.42	-42.9	-46.2	23.7	6.03e-01	0	43	0	961019904	57	5228
2026-01-09 11:33:18.29	350.48	19.03	-42.6	-46.1	23.7	6.02e-01	0	44	0	966787072	57	5177
2026-01-09 11:33:21.43	350.33	18.60	-42.4	-46.0	23.8	6.02e-01	0	44	0	972554240	56	5457
2026-01-09 11:33:24.29	350.20	18.21	-42.4	-46.0	23.7	5.99e-01	0	43	0	977797120	56	5449
2026-01-09 11:33:27.44	350.06	17.80	-42.6	-46.1	23.7	6.01e-01	0	44	0	983564288	56	5487
2026-01-09 11:33:30.30	349.94	17.43	-42.8	-46.0	23.8	6.03e-01	0	43	0	988807168	56	5416
2026-01-09 11:33:33.45	349.80	17.03	-43.1	-46.0	23.8	6.04e-01	0	44	0	995098624	56	5419
2026-01-09 11:33:36.30	349.68	16.67	-43.2	-46.0	23.8	6.04e-01	0	43	0	1000341504	57	5117
2026-01-09 11:33:39.45	349.56	16.28	-43.3	-46.0	23.8	6.02e-01	0	44	0	1006108672	57	5134
2026-01-09 11:33:42.31	349.45	15.94	-43.4	-46.1	23.7	6.02e-01	0	44	0	1011351552	57	5191
2026-01-09 11:33:45.46	349.33	15.56	-43.4	-46.0	23.7	6.02e-01	0	44	0	1017643008	57	5156
2026-01-09 11:33:48.33	349.22	15.22	-43.4	-46.1	23.6	6.01e-01	0	44	0	1022885888	57	5193
2026-01-09 11:33:51.47	349.11	14.86	-43.4	-46.1	23.7	6.03e-01	0	43	0	1028653056	57	5204
2026-01-09 11:33:54.33	349.01	14.53	-43.2	-46.2	23.5	6.01e-01	0	44	0	1033895936	57	5236
2026-01-09 11:33:57.48	348.91	14.18	-42.8	-46.1	23.6	6.00e-01	0	44	0	1040187392	57	5212
2026-01-09 11:34:00.34	348.81	13.87	-42.9	-46.2	23.5	6.02e-01	0	44	0	1045430272	57	5275
2026-01-09 11:34:03.49	348.71	13.52	-43.4	-46.3	23.4	6.01e-01	0	44	0	1051197440	57	5322
2026-01-09 11:34:06.34	348.62	13.22	-43.1	-46.3	23.4	6.02e-01	0	44	0	1056440320	57	5289
2026-01-09 11:34:09.50	348.52	12.88	-42.2	-46.3	23.5	6.02e-01	0	44	0	1062731776	56	5604
2026-01-09 11:34:12.36	348.44	12.59	-41.4	-46.2	23.4	6.03e-01	0	44	0	1067974656	54	6225
2026-01-09 11:34:15.50	348.35	12.26	-41.0	-46.4	23.2	6.03e-01	0	44	0	1073741824	54	6356
2026-01-09 11:34:18.35	348.27	11.97	-40.8	-46.4	23.1	5.99e-01	0	44	0	1078984704	53	6770
2026-01-09 11:34:21.49	348.18	11.66	-40.9	-46.7	22.8	6.02e-01	0	44	0	1085276160	53	6960
2026-01-09 11:34:24.36	348.11	11.38	-40.9	-46.7	22.8	6.04e-01	0	44	0	1090519040	53	6968
2026-01-09 11:34:27.50	348.02	11.07	-40.9	-46.8	22.7	6.01e-01	0	44	0	1096286208	53	7058
2026-01-09 11:34:30.36	347.95	10.80	-40.9	-46.9	22.5	6.01e-01	0	44	0	1101529088	53	7201
2026-01-09 11:34:33.51	347.87	10.50	-40.7	-47.0	22.4	6.05e-01	0	44	0	1107296256	53	7242
2026-01-09 11:34:36.37	347.80	10.23	-40.6	-47.0	22.3	6.02e-01	0	44	0	1113063424	53	7284
2026-01-09 11:34:39.52	347.73	9.94	-40.6	-47.0	22.4	6.03e-01	0	44	0	1118830592	53	7253
2026-01-09 11:34:42.37	347.66	9.68	-40.6	-47.0	22.4	6.01e-01	0	44	0	1124073472	53	7213
2026-01-09 11:34:45.51	347.59	9.39	-41.0	-47.0	22.4	6.04e-01	0	44	0	1129840640	53	7225
2026-01-09 11:34:48.37	347.53	9.14	-41.8	-47.0	22.4	6.03e-01	0	44	0	1135607808	54	6805
2026-01-09 11:34:51.52	347.46	8.86	-48.5	-69.8	3.9	7.47e-01	0	44	104	1138229248	69	39661
2026-01-09 11:34:54.38	347.40	8.61	-48.1	-71.0	3.8	7.46e-01	0	44	104	1138229248	67	51526
2026-01-09 11:34:57.53	347.34	8.34	-50.0	-71.3	3.8	7.46e-01	0	44	104	1138229248	71	42130
2026-01-09 11:35:00.40	347.28	8.09	-50.6	-71.3	3.8	7.46e-01	0	44	104	1138229248	72	39641
2026-01-09 11:35:03.55	347.22	7.83	-51.0	-71.3	3.8	7.46e-01	0	44	104	1138229248	72	39829
2026-01-09 11:35:06.42	347.16	7.59	-50.3	-71.3	3.8	7.42e-01	0	44	104	1138229248	71	42267
2026-01-09 11:35:09.57	347.10	7.33	-51.0	-71.3	3.8	7.48e-01	0	44	104	1138229248	72	39719
2026-01-09 11:35:12.43	347.05	7.10	-51.2	-71.3	3.8	7.42e-01	0	44	104	1138229248	73	37452
2026-01-09 11:35:15.58	346.99	6.84	-50.4	-71.2	3.8	7.47e-01	0	44	104	1138229248	72	39490
2026-01-09 11:35:18.45	346.94	6.61	-50.2	-71.2	3.8	7.47e-01	0	44	104	1138229248	72	39468
2026-01-09 11:35:21.60	346.89	6.36	-50.1	-71.2	3.8	7.49e-01	0	44	104	1138229248	72	39409
2026-01-09 11:35:24.47	346.84	6.14	-50.1	-71.2	3.8	7.45e-01	0	44	104	1138229248	72	39350
2026-01-09 11:35:27.62	346.79	5.89	-50.1	-71.2	3.8	7.47e-01	0	44	104	1138229248	72	39331
2026-01-09 11:35:30.49	346.74	5.67	-50.2	-71.2	3.8	7.48e-01	0	44	104	1138229248	72	39301
2026-01-09 11:35:33.64	346.69	5.43	-50.1	-71.2	3.8	7.47e-01	0	44	104	1138229248	72	39208
2026-01-09 11:35:36.50	346.65	5.22	-50.1	-71.2	3.8	7.46e-01	0	44	104	1138229248	72	39301
2026-01-09 11:35:39.66	346.60	4.98	-50.1	-71.2	3.8	7.47e-01	0	44	104	1138229248	72	39260

#Closed at: 2026-01-09 11:35:40
#Recorded file [1138 MB]: D:/Data/31040_260109_142421.dat