passes_logs/2026/01/09/T1/T1__20260109_093811_SUOMI_NPP_rec.log

#Pass ID: 20260109_093811_SUOMI NPP
#Satellite: SUOMI NPP
#Configuration: NPP
#almurnet v.1.7.20251203
#Start time: 2026-01-09 09:38:10

#Version: 2.0.20230620
#Station: T1
#Location: 37.570604 lon 55.790049 lat
#TLE: 1 37849U 11061A   26008.05542337  .00000108  00000+0  71976-4 0  9997
#TLE: 2 37849  98.7805 310.1641 0002540  75.6410 284.5048 14.19523335735721

#Time	Az	El	Level	Level2	SNR	BER	BlckErr	Temp	State	Recorded	gain1	gain2
2026-01-09 09:38:10.78	148.90	4.99	-48.0	-63.1	3.8	1.49e+00	0	37	0	0	67	20684
2026-01-09 09:38:14.79	148.83	5.27	-48.1	-63.1	3.8	1.49e+00	0	37	104	0	68	19443
2026-01-09 09:38:18.81	148.75	5.56	-48.1	-63.4	3.8	1.49e+00	0	37	104	0	68	20111
2026-01-09 09:38:22.83	148.68	5.86	-48.1	-63.2	3.8	1.49e+00	0	37	104	0	68	19703
2026-01-09 09:38:26.85	148.60	6.16	-48.0	-62.5	3.8	1.49e+00	0	37	104	0	68	18282
2026-01-09 09:38:30.86	148.52	6.46	-48.0	-62.5	3.8	1.49e+00	0	37	104	0	68	18225
2026-01-09 09:38:34.88	148.44	6.76	-48.0	-61.6	3.8	1.49e+00	0	38	104	0	68	16410
2026-01-09 09:38:38.89	148.35	7.07	-47.6	-58.5	4.6	1.13e+00	0	38	0	1048576	67	12205
2026-01-09 09:38:42.91	148.27	7.38	-47.0	-54.8	7.1	1.90e-01	0	38	0	8388608	66	8433
2026-01-09 09:38:46.93	148.18	7.70	-45.9	-51.2	10.9	3.95e-03	0	38	0	15728640	63	6581
2026-01-09 09:38:50.94	148.09	8.02	-44.6	-48.6	13.6	2.13e-05	0	38	0	24117248	61	5470
2026-01-09 09:38:54.96	147.99	8.34	-44.1	-47.8	14.3	1.50e-06	0	38	0	31457280	60	5315
2026-01-09 09:38:58.98	147.90	8.67	-45.2	-49.6	12.5	1.04e-04	0	38	0	38797312	61	6181
2026-01-09 09:39:02.97	147.80	9.00	-47.1	-55.3	6.6	1.15e-01	0	39	0	46137344	64	9997
2026-01-09 09:39:06.98	147.70	9.33	-47.4	-56.8	5.5	7.53e-01	0	39	0	53477376	65	11255
2026-01-09 09:39:10.99	147.60	9.67	-43.4	-46.6	15.6	2.42e-04	0	39	0	57671680	58	5172
2026-01-09 09:39:15.00	147.50	10.02	-42.7	-45.5	16.7	0.00e+00	0	39	0	66060288	56	5153
2026-01-09 09:39:19.01	147.39	10.37	-42.2	-44.9	17.2	0.00e+00	0	39	0	73400320	56	4807
2026-01-09 09:39:23.02	147.28	10.72	-41.8	-44.4	17.6	0.00e+00	0	39	0	80740352	55	4771
2026-01-09 09:39:27.03	147.17	11.08	-41.6	-44.2	17.9	0.00e+00	0	39	0	88080384	55	4657
2026-01-09 09:39:31.04	147.05	11.44	-41.9	-44.5	17.6	1.29e-05	0	39	0	95420416	55	4831
2026-01-09 09:39:35.05	146.93	11.81	-41.9	-44.6	17.6	0.00e+00	0	39	0	102760448	55	4871
2026-01-09 09:39:39.06	146.81	12.19	-41.5	-44.0	18.1	0.00e+00	0	39	0	111149056	55	4577
2026-01-09 09:39:43.07	146.68	12.57	-40.9	-43.2	18.8	0.00e+00	0	39	0	118489088	53	4673
2026-01-09 09:39:47.09	146.55	12.96	-40.9	-43.3	18.7	0.00e+00	0	39	0	125829120	53	4739
2026-01-09 09:39:51.05	146.42	13.35	-41.5	-44.1	18.1	0.00e+00	0	39	0	133169152	53	5172
2026-01-09 09:39:55.13	146.28	13.76	-42.0	-44.6	17.5	0.00e+00	0	39	0	140509184	54	5215
2026-01-09 09:39:59.32	146.13	14.18	-41.4	-43.8	18.3	0.00e+00	0	39	0	148897792	54	4726
2026-01-09 09:40:03.81	145.96	14.64	-41.1	-43.5	18.7	0.00e+00	0	39	0	157286400	54	4546
2026-01-09 09:40:08.14	145.80	15.10	-41.6	-44.1	18.1	0.00e+00	0	39	0	165675008	54	4877
2026-01-09 09:40:12.71	145.62	15.59	-41.2	-43.6	18.6	0.00e+00	0	39	0	174063616	54	4628
2026-01-09 09:40:17.07	145.45	16.06	-40.9	-43.2	18.9	0.00e+00	0	39	0	181403648	53	4682
2026-01-09 09:40:21.56	145.26	16.56	-41.2	-43.6	18.6	0.00e+00	0	39	0	190840832	53	4895
2026-01-09 09:40:26.55	145.04	17.13	-41.4	-43.8	18.4	0.00e+00	0	40	0	199229440	53	5019
2026-01-09 09:40:30.55	144.86	17.59	-41.1	-43.5	18.7	0.00e+00	0	40	0	207618048	53	4845
2026-01-09 09:40:34.57	144.67	18.07	-41.3	-43.7	18.5	0.00e+00	0	40	0	214958080	53	4973
2026-01-09 09:40:38.68	144.48	18.56	-41.3	-43.7	18.5	0.00e+00	0	40	0	222298112	53	4970
2026-01-09 09:40:42.68	144.28	19.06	-41.5	-44.0	18.2	0.00e+00	0	40	0	229638144	53	5154
2026-01-09 09:40:46.79	144.06	19.57	-41.5	-44.1	18.2	0.00e+00	0	40	0	238026752	53	5166
2026-01-09 09:40:50.96	143.84	20.10	-41.7	-44.2	18.1	0.00e+00	0	40	0	245366784	54	4974
2026-01-09 09:40:55.15	143.61	20.65	-41.2	-43.6	18.7	0.00e+00	0	40	0	253755392	54	4616
2026-01-09 09:40:59.16	143.38	21.18	-41.4	-43.7	18.6	0.00e+00	0	40	0	261095424	54	4704
2026-01-09 09:41:03.13	143.14	21.72	-41.9	-44.5	17.9	0.00e+00	0	40	0	268435456	54	5113
2026-01-09 09:41:07.14	142.89	22.28	-41.7	-44.1	18.2	0.00e+00	0	40	0	275775488	55	4635
2026-01-09 09:41:11.16	142.63	22.85	-41.6	-44.0	18.3	0.00e+00	0	40	0	283115520	54	4860
2026-01-09 09:41:15.49	142.34	23.48	-42.2	-44.9	17.5	0.00e+00	0	40	0	291504128	55	5088
2026-01-09 09:41:19.50	142.06	24.07	-42.3	-44.9	17.4	0.00e+00	0	40	0	298844160	55	5100
2026-01-09 09:41:23.51	141.77	24.68	-43.1	-45.8	16.8	0.00e+00	0	40	0	306184192	57	5035
2026-01-09 09:41:27.54	141.47	25.30	-43.4	-46.3	16.3	0.00e+00	0	40	0	314572800	57	5313
2026-01-09 09:41:31.55	141.15	25.94	-43.1	-46.0	16.7	0.00e+00	0	40	0	321912832	57	5128
2026-01-09 09:41:35.56	140.83	26.58	-43.1	-45.9	16.6	0.00e+00	0	40	0	329252864	57	5096
2026-01-09 09:41:39.58	140.48	27.25	-43.0	-45.8	16.9	0.00e+00	0	40	0	336592896	57	4990
2026-01-09 09:41:43.53	140.13	27.92	-43.3	-46.1	16.4	0.00e+00	0	40	0	343932928	57	5179
2026-01-09 09:41:47.54	139.75	28.61	-43.2	-45.9	16.8	0.00e+00	0	40	0	351272960	57	5078
2026-01-09 09:41:51.55	139.36	29.32	-43.9	-47.0	15.8	0.00e+00	0	40	0	358612992	58	5408
2026-01-09 09:41:55.56	138.95	30.05	-44.3	-47.6	15.2	0.00e+00	0	40	0	367001600	59	5518
2026-01-09 09:41:59.57	138.52	30.79	-44.5	-47.9	15.1	0.00e+00	0	40	0	374341632	59	5663
2026-01-09 09:42:03.58	138.07	31.56	-44.3	-47.7	15.1	0.00e+00	0	40	0	381681664	60	5245
2026-01-09 09:42:07.59	137.60	32.33	-44.7	-48.4	14.6	7.00e-07	0	40	0	389021696	60	5663
2026-01-09 09:42:11.61	137.10	33.14	-44.3	-47.5	15.3	0.00e+00	0	40	0	396361728	60	5146
2026-01-09 09:42:15.98	136.53	34.03	-45.6	-49.9	13.0	4.34e-05	0	40	0	404750336	62	6043
2026-01-09 09:42:20.04	135.97	34.88	-45.2	-49.3	13.5	1.14e-05	0	40	0	412090368	62	5607
2026-01-09 09:42:24.05	135.39	35.73	-46.1	-51.0	12.0	2.17e-04	0	40	0	420478976	62	6811
2026-01-09 09:42:28.05	134.78	36.61	-45.0	-48.7	14.2	8.30e-06	0	40	0	427819008	61	5543
2026-01-09 09:42:32.09	134.12	37.51	-44.2	-47.4	15.4	0.00e+00	0	40	0	435159040	59	5384
2026-01-09 09:42:36.11	133.43	38.43	-44.5	-47.9	14.9	0.00e+00	0	40	0	442499072	59	5673
2026-01-09 09:42:40.11	132.70	39.37	-43.7	-46.6	16.2	0.00e+00	0	40	0	449839104	59	4881
2026-01-09 09:42:44.26	131.90	40.36	-43.6	-46.5	16.2	0.00e+00	0	40	0	458227712	59	4865
2026-01-09 09:42:48.71	130.98	41.45	-44.1	-47.3	15.6	7.00e-07	0	40	0	466616320	60	4997
2026-01-09 09:42:52.72	130.10	42.45	-43.7	-46.6	16.3	0.00e+00	0	40	0	473956352	58	5164
2026-01-09 09:42:56.70	129.17	43.47	-43.8	-46.7	16.1	0.00e+00	0	40	0	481296384	58	5278
2026-01-09 09:43:00.71	128.16	44.50	-43.6	-46.5	16.3	0.00e+00	0	40	0	488636416	59	4818
2026-01-09 09:43:04.72	127.09	45.56	-43.5	-46.4	16.4	0.00e+00	0	40	0	495976448	58	5073
2026-01-09 09:43:09.00	125.86	46.70	-44.1	-47.2	15.5	0.00e+00	0	40	0	504365056	59	5279
2026-01-09 09:43:13.25	124.55	47.86	-43.4	-46.2	16.6	0.00e+00	0	40	0	512753664	57	5266
2026-01-09 09:43:17.26	123.22	48.96	-43.3	-46.2	16.6	0.00e+00	0	40	0	520093696	57	5245
2026-01-09 09:43:21.27	121.79	50.07	-43.1	-45.9	16.9	0.00e+00	0	40	0	527433728	56	5344
2026-01-09 09:43:25.20	120.28	51.16	-41.3	-43.6	18.9	0.00e+00	0	40	0	534773760	54	4613
2026-01-09 09:43:29.21	118.62	52.28	-41.8	-44.2	18.3	0.00e+00	0	40	0	542113792	54	4943
2026-01-09 09:43:33.14	116.87	53.37	-42.0	-44.5	18.1	0.00e+00	0	40	0	549453824	54	5103
2026-01-09 09:43:37.22	114.90	54.50	-43.1	-46.0	17.0	0.00e+00	0	40	0	556793856	56	5404
2026-01-09 09:43:41.43	112.70	55.66	-42.4	-45.0	17.7	0.00e+00	0	40	0	565182464	56	4852
2026-01-09 09:43:45.92	110.15	56.86	-41.6	-44.2	18.1	0.00e+00	0	40	0	573571072	54	4944
2026-01-09 09:43:50.06	107.60	57.94	-42.6	-45.3	17.3	0.00e+00	0	40	0	580911104	56	5013
2026-01-09 09:43:54.07	104.92	58.95	-43.2	-46.3	16.5	0.00e+00	0	40	0	588251136	57	5282
2026-01-09 09:43:58.17	101.97	59.94	-42.5	-45.4	17.3	0.00e+00	0	40	0	596639744	57	4765
2026-01-09 09:44:02.17	98.87	60.84	-41.4	-44.0	18.4	0.00e+00	0	40	0	603979776	54	4833
2026-01-09 09:44:06.18	95.54	61.68	-40.2	-42.5	19.7	0.00e+00	0	40	0	611319808	51	4853
2026-01-09 09:44:10.19	91.98	62.44	-40.7	-43.2	19.0	0.00e+00	0	40	0	618659840	52	4945
2026-01-09 09:44:14.20	88.21	63.10	-40.5	-42.9	19.4	0.00e+00	0	40	0	627048448	52	4780
2026-01-09 09:44:18.36	84.09	63.68	-40.3	-42.7	19.7	0.00e+00	0	40	0	634388480	51	4932
2026-01-09 09:44:22.70	79.59	64.16	-41.3	-43.9	18.4	0.00e+00	0	40	0	642777088	54	4806
2026-01-09 09:44:26.71	75.30	64.47	-39.2	-41.3	20.7	0.00e+00	0	40	0	650117120	50	4489
2026-01-09 09:44:30.78	70.84	64.64	-39.3	-41.4	20.7	0.00e+00	0	40	0	657457152	50	4525
2026-01-09 09:44:34.86	66.33	64.68	-40.7	-43.1	19.2	0.00e+00	0	40	0	664797184	52	4886
2026-01-09 09:44:39.00	61.77	64.58	-39.1	-41.2	21.0	0.00e+00	0	40	0	673185792	50	4416
2026-01-09 09:44:43.00	57.43	64.34	-40.3	-42.5	19.8	0.00e+00	0	40	0	680525824	51	4828
2026-01-09 09:44:47.02	53.18	63.97	-40.8	-43.1	19.2	0.00e+00	0	40	0	687865856	52	4911
2026-01-09 09:44:51.04	49.08	63.49	-40.4	-42.7	19.6	0.00e+00	0	40	0	695205888	52	4699
2026-01-09 09:44:55.05	45.19	62.89	-39.6	-41.7	20.6	0.00e+00	0	41	0	703594496	51	4392
2026-01-09 09:44:59.05	41.50	62.19	-41.0	-43.4	18.9	0.00e+00	0	40	0	710934528	53	4794
2026-01-09 09:45:03.07	38.02	61.41	-44.5	-48.4	14.4	0.00e+00	0	40	0	718274560	59	6004
2026-01-09 09:45:07.08	34.77	60.55	-42.5	-45.2	17.4	0.00e+00	0	40	0	725614592	56	4982
2026-01-09 09:45:11.18	31.68	59.60	-44.7	-48.4	14.4	0.00e+00	0	41	0	732954624	60	5666
2026-01-09 09:45:15.20	28.86	58.62	-42.8	-45.5	17.2	0.00e+00	0	40	0	741343232	57	4846
2026-01-09 09:45:19.22	26.25	57.60	-44.8	-48.7	14.1	2.20e-06	0	41	0	748683264	60	5887
2026-01-09 09:45:23.23	23.84	56.54	-45.3	-49.8	12.9	5.56e-05	0	40	0	756023296	61	6307
2026-01-09 09:45:27.25	21.61	55.46	-43.9	-47.5	15.2	0.00e+00	0	40	0	763363328	58	5773
2026-01-09 09:45:31.27	19.54	54.36	-43.2	-46.4	16.4	0.00e+00	0	41	0	770703360	57	5350
2026-01-09 09:45:35.29	17.63	53.25	-43.3	-46.4	16.3	0.00e+00	0	40	0	779091968	57	5369
2026-01-09 09:45:39.30	15.87	52.13	-43.3	-46.4	16.3	0.00e+00	0	41	0	786432000	58	5071
2026-01-09 09:45:43.49	14.16	50.97	-42.9	-45.8	17.2	0.00e+00	0	41	0	793772032	56	5295
2026-01-09 09:45:47.50	12.65	49.86	-43.7	-47.0	15.8	0.00e+00	0	41	0	801112064	58	5431
2026-01-09 09:45:51.57	11.22	48.74	-42.4	-45.1	17.6	0.00e+00	0	41	0	809500672	56	4876
2026-01-09 09:45:55.71	9.87	47.61	-41.7	-44.2	18.2	0.00e+00	0	41	0	816840704	55	4683
2026-01-09 09:45:59.72	8.66	46.53	-44.3	-47.9	14.9	0.00e+00	0	41	0	824180736	59	5719
2026-01-09 09:46:03.75	7.52	45.46	-42.8	-45.6	17.0	0.00e+00	0	41	0	831520768	57	4903
2026-01-09 09:46:07.87	6.43	44.38	-43.7	-47.1	15.6	0.00e+00	0	41	0	839909376	58	5487
2026-01-09 09:46:12.28	5.35	43.25	-42.9	-45.9	16.7	0.00e+00	0	40	0	848297984	56	5371
2026-01-09 09:46:16.30	4.42	42.23	-45.6	-50.7	11.8	1.61e-04	0	41	0	855638016	62	6571
2026-01-09 09:46:20.43	3.53	41.21	-44.9	-49.2	13.4	1.06e-05	0	41	0	862978048	61	5888
2026-01-09 09:46:24.78	2.66	40.16	-43.8	-47.1	15.6	0.00e+00	0	41	0	871366656	58	5501
2026-01-09 09:46:29.14	1.83	39.13	-44.7	-48.8	14.0	9.90e-06	0	41	0	879755264	60	5956
2026-01-09 09:46:33.26	1.10	38.17	-44.9	-49.0	13.7	9.90e-06	0	41	0	887095296	61	5775
2026-01-09 09:46:37.21	0.44	37.28	-45.3	-50.1	12.8	1.59e-04	0	41	0	894435328	61	6513
2026-01-09 09:46:41.22	359.80	36.39	-43.1	-46.1	16.6	0.00e+00	0	41	0	901775360	58	4883
2026-01-09 09:46:45.20	359.20	35.53	-43.0	-46.0	16.6	0.00e+00	0	40	0	910163968	57	5150
2026-01-09 09:46:49.24	358.63	34.68	-44.6	-48.6	14.2	1.50e-06	0	41	0	917504000	60	5798
2026-01-09 09:46:53.27	358.09	33.84	-43.6	-46.7	16.0	0.00e+00	0	41	0	924844032	58	5242
2026-01-09 09:46:57.27	357.57	33.04	-44.1	-47.5	15.2	0.00e+00	0	41	0	932184064	59	5430
2026-01-09 09:47:01.65	357.04	32.17	-44.4	-48.1	14.8	1.50e-06	0	41	0	940572672	59	5803
2026-01-09 09:47:05.66	356.58	31.40	-43.8	-47.0	15.7	0.00e+00	0	41	0	947912704	59	5118
2026-01-09 09:47:09.67	356.14	30.65	-44.1	-47.4	15.3	0.00e+00	0	41	0	955252736	59	5390
2026-01-09 09:47:13.69	355.72	29.91	-45.2	-49.4	13.4	1.06e-05	0	41	0	962592768	61	6047
2026-01-09 09:47:17.93	355.29	29.15	-44.7	-48.3	14.5	7.00e-07	0	41	0	970981376	61	5336
2026-01-09 09:47:21.94	354.91	28.45	-45.1	-49.2	13.7	6.10e-06	0	41	0	978321408	61	5866
2026-01-09 09:47:26.11	354.53	27.74	-44.7	-48.4	14.4	7.00e-07	0	41	0	985661440	61	5354
2026-01-09 09:47:30.12	354.18	27.07	-44.1	-47.7	15.1	0.00e+00	0	41	0	993001472	60	5220
2026-01-09 09:47:34.14	353.85	26.41	-44.0	-47.6	15.2	0.00e+00	0	41	0	1001390080	59	5482
2026-01-09 09:47:38.16	353.53	25.77	-43.8	-47.0	15.7	0.00e+00	0	41	0	1008730112	59	5147
2026-01-09 09:47:42.33	353.21	25.12	-42.8	-45.7	17.0	0.00e+00	0	41	0	1016070144	57	4936
2026-01-09 09:47:46.34	352.91	24.51	-42.8	-45.9	16.8	0.00e+00	0	41	0	1023410176	57	5043
2026-01-09 09:47:50.25	352.64	23.93	-44.2	-48.0	14.7	0.00e+00	0	41	0	1030750208	59	5776
2026-01-09 09:47:54.26	352.37	23.34	-44.6	-48.7	14.1	1.50e-06	0	41	0	1039138816	60	5868
2026-01-09 09:47:58.28	352.10	22.77	-44.2	-48.0	14.7	7.00e-07	0	41	0	1046478848	60	5457
2026-01-09 09:48:02.31	351.85	22.20	-44.1	-47.6	15.1	0.00e+00	0	41	0	1053818880	59	5523
2026-01-09 09:48:06.40	351.60	21.64	-43.8	-47.0	15.6	0.00e+00	0	41	0	1061158912	59	5148
2026-01-09 09:48:10.41	351.37	21.10	-43.4	-46.5	16.3	0.00e+00	0	41	0	1068498944	58	5126
2026-01-09 09:48:14.42	351.15	20.57	-43.2	-46.4	16.3	0.00e+00	0	41	0	1076887552	57	5364
2026-01-09 09:48:18.41	350.93	20.06	-43.1	-46.3	16.3	0.00e+00	0	41	0	1084227584	57	5339
2026-01-09 09:48:22.69	350.71	19.52	-43.2	-46.6	16.0	0.00e+00	0	41	0	1091567616	57	5498
2026-01-09 09:48:26.70	350.51	19.02	-42.7	-46.1	16.5	0.00e+00	0	41	0	1099956224	57	5210
2026-01-09 09:48:30.71	350.31	18.53	-42.8	-46.4	16.2	0.00e+00	0	41	0	1107296256	56	5691
2026-01-09 09:48:34.93	350.12	18.03	-43.1	-47.1	15.5	0.00e+00	0	41	0	1114636288	56	6191
2026-01-09 09:48:38.94	349.93	17.56	-43.9	-48.3	14.3	1.50e-06	0	41	0	1121976320	58	6323
2026-01-09 09:48:42.99	349.76	17.10	-44.3	-48.8	13.9	3.00e-06	0	41	0	1130364928	59	6275
2026-01-09 09:48:46.94	349.59	16.65	-43.8	-47.5	15.1	0.00e+00	0	41	0	1137704960	59	5442
2026-01-09 09:48:51.06	349.42	16.19	-43.3	-46.7	15.9	0.00e+00	0	41	0	1145044992	58	5260
2026-01-09 09:48:55.07	349.26	15.76	-43.4	-46.8	15.9	0.00e+00	0	41	0	1152385024	58	5282
2026-01-09 09:48:59.52	349.09	15.28	-43.9	-47.4	15.2	0.00e+00	0	41	0	1160773632	58	5717
2026-01-09 09:49:03.54	348.94	14.86	-44.8	-48.8	13.9	3.00e-06	0	41	0	1168113664	60	5980
2026-01-09 09:49:07.76	348.79	14.42	-44.5	-49.1	13.6	1.37e-05	0	41	0	1176502272	60	6140
2026-01-09 09:49:11.76	348.65	14.02	-43.9	-48.5	14.0	1.50e-06	0	41	0	1183842304	59	6084
2026-01-09 09:49:15.77	348.52	13.62	-43.7	-47.8	14.8	1.50e-06	0	41	0	1191182336	59	5594
2026-01-09 09:49:19.79	348.39	13.22	-43.8	-47.5	15.1	0.00e+00	0	41	0	1199570944	59	5421
2026-01-09 09:49:23.80	348.26	12.83	-43.2	-46.7	15.8	0.00e+00	0	41	0	1206910976	58	5245
2026-01-09 09:49:27.82	348.13	12.45	-42.7	-46.7	15.8	0.00e+00	0	41	0	1214251008	57	5573
2026-01-09 09:49:31.94	348.01	12.07	-42.3	-46.7	15.8	0.00e+00	0	41	0	1221591040	56	5868
2026-01-09 09:49:35.90	347.90	11.70	-42.2	-46.9	15.6	0.00e+00	0	41	0	1228931072	56	6007
2026-01-09 09:49:40.22	347.77	11.31	-42.3	-47.4	15.0	0.00e+00	0	41	0	1237319680	56	6352
2026-01-09 09:49:44.22	347.66	10.95	-41.8	-47.4	14.9	0.00e+00	0	41	0	1244659712	55	6724
2026-01-09 09:49:48.35	347.55	10.58	-41.8	-48.1	14.2	7.00e-07	0	41	0	1253048320	55	7303
2026-01-09 09:49:52.51	347.45	10.22	-42.0	-48.1	14.1	7.00e-07	0	41	0	1260388352	55	7331
2026-01-09 09:49:56.51	347.35	9.88	-42.3	-48.6	13.6	5.30e-06	0	41	0	1267728384	55	7770
2026-01-09 09:50:00.52	347.25	9.54	-42.1	-48.5	13.8	6.10e-06	0	41	0	1275068416	55	7632
2026-01-09 09:50:04.54	347.15	9.20	-42.4	-48.6	13.6	6.10e-06	0	41	0	1283457024	55	7779
2026-01-09 09:50:08.45	347.06	8.88	-47.3	-63.9	3.8	1.49e+00	0	41	104	1287651328	65	25287
2026-01-09 09:50:12.47	346.97	8.55	-48.5	-64.1	3.8	1.49e+00	0	41	104	1287651328	67	23157
2026-01-09 09:50:16.49	346.88	8.23	-48.6	-64.3	3.8	1.49e+00	0	41	104	1287651328	68	22495
2026-01-09 09:50:20.51	346.79	7.91	-49.1	-64.3	3.8	1.49e+00	0	41	104	1287651328	68	22504
2026-01-09 09:50:24.53	346.71	7.59	-49.0	-64.3	3.8	1.49e+00	0	41	104	1287651328	68	22518
2026-01-09 09:50:28.54	346.63	7.28	-49.2	-64.3	3.8	1.49e+00	0	41	104	1287651328	69	21225
2026-01-09 09:50:32.55	346.55	6.97	-49.0	-64.3	3.8	1.49e+00	0	41	104	1287651328	69	21164
2026-01-09 09:50:36.57	346.47	6.67	-48.8	-64.3	3.8	1.49e+00	0	41	104	1287651328	69	21164
2026-01-09 09:50:40.65	346.39	6.36	-48.8	-64.3	3.8	1.49e+00	0	41	104	1287651328	69	21035
2026-01-09 09:50:44.67	346.32	6.07	-48.8	-64.3	3.8	1.49e+00	0	41	104	1287651328	69	21192
2026-01-09 09:50:48.69	346.25	5.77	-48.8	-64.3	3.8	1.49e+00	0	41	104	1287651328	69	21029
2026-01-09 09:50:52.75	346.18	5.48	-48.8	-64.3	3.8	1.49e+00	0	41	104	1287651328	69	21076
2026-01-09 09:50:56.77	346.11	5.19	-48.8	-64.3	3.8	1.49e+00	0	41	104	1287651328	69	21126

#Closed at: 2026-01-09 09:51:00
#Recorded file [1287 MB]: D:/Data/31040_260109_123810.dat