passes_logs/2026/01/09/T1/T1__20260109_154606_FENGYUN_3E_rec.log

#Pass ID: 20260109_154606_FENGYUN 3E
#Satellite: FENGYUN 3E
#Configuration: FENGYUN 3E
#almurnet v.1.7.20251203
#Start time: 2026-01-09 15:46:07

#Version: 2.0.20230620
#Station: T1
#Location: 37.570604 lon 55.790049 lat
#TLE: 1 49008U 21062A   26008.59312205 -.00000223  00000+0 -84486-4 0  9997
#TLE: 2 49008  98.7483  13.7961 0001692 149.3118 210.8157 14.19883502233939

#Time	Az	El	Level	Level2	SNR	BER	BlckErr	Temp	State	Recorded	gain1	gain2
2026-01-09 15:46:07.38	211.72	5.06	-49.1	-59.8	3.8	8.46e-01	0	41	0	0	68	12424
2026-01-09 15:46:10.39	211.99	5.23	-49.0	-59.8	3.8	8.46e-01	0	42	104	0	68	12388
2026-01-09 15:46:13.41	212.26	5.41	-49.0	-59.7	3.8	8.47e-01	0	42	104	0	68	12271
2026-01-09 15:46:16.42	212.53	5.59	-49.0	-59.8	3.8	8.47e-01	0	42	104	0	68	12446
2026-01-09 15:46:19.43	212.80	5.77	-49.0	-59.7	3.8	8.48e-01	0	42	104	0	68	12255
2026-01-09 15:46:22.45	213.08	5.95	-49.0	-59.6	3.8	8.48e-01	0	42	104	0	68	12137
2026-01-09 15:46:25.46	213.36	6.14	-49.0	-59.5	3.8	8.47e-01	0	42	104	0	68	12044
2026-01-09 15:46:28.47	213.65	6.32	-48.9	-59.6	3.8	8.47e-01	0	42	104	0	68	12110
2026-01-09 15:46:31.49	213.94	6.50	-49.0	-59.7	3.8	8.48e-01	0	43	104	0	68	12327
2026-01-09 15:46:34.50	214.23	6.68	-48.9	-59.4	3.8	8.47e-01	0	43	104	0	68	11897
2026-01-09 15:46:37.51	214.52	6.87	-48.9	-59.3	3.8	8.47e-01	0	43	104	0	68	11766
2026-01-09 15:46:40.53	214.82	7.05	-48.9	-58.9	3.8	8.47e-01	0	43	104	0	68	11254
2026-01-09 15:46:43.54	215.12	7.24	-48.7	-57.7	3.8	8.47e-01	0	43	104	0	68	9746
2026-01-09 15:46:46.55	215.43	7.43	-48.7	-57.3	4.0	8.46e-01	0	43	104	0	68	9352
2026-01-09 15:46:49.56	215.74	7.61	-48.8	-58.6	3.8	8.46e-01	0	43	104	0	68	10808
2026-01-09 15:46:52.58	216.05	7.80	-48.9	-58.7	3.8	8.47e-01	0	43	104	0	68	11019
2026-01-09 15:46:55.59	216.37	7.99	-48.7	-57.6	3.8	8.46e-01	0	43	104	0	68	9660
2026-01-09 15:46:58.60	216.69	8.18	-46.3	-49.9	8.5	5.62e-02	0	43	0	7340032	63	5299
2026-01-09 15:47:01.61	217.02	8.37	-41.9	-43.5	15.0	1.10e-06	0	43	0	28311552	54	4248
2026-01-09 15:47:04.63	217.35	8.56	-40.6	-41.9	16.6	0.00e+00	0	43	0	50331648	51	4225
2026-01-09 15:47:07.64	217.68	8.75	-41.4	-42.8	15.6	0.00e+00	0	43	0	72351744	52	4433
2026-01-09 15:47:10.65	218.02	8.94	-44.2	-46.3	12.2	1.73e-04	0	43	0	94371840	57	4965
2026-01-09 15:47:13.66	218.36	9.13	-46.8	-50.1	8.6	1.24e-02	0	44	0	115343360	62	5744
2026-01-09 15:47:16.67	218.71	9.32	-46.4	-50.1	8.4	1.55e-03	0	43	0	137363456	62	5788
2026-01-09 15:47:19.67	219.06	9.52	-42.2	-44.0	14.4	5.70e-06	0	43	0	159383552	55	4287
2026-01-09 15:47:22.63	219.41	9.71	-41.4	-43.1	15.4	0.00e+00	0	43	0	180355072	53	4307
2026-01-09 15:47:25.67	219.78	9.90	-41.0	-42.6	16.0	0.00e+00	0	44	0	202375168	52	4293
2026-01-09 15:47:28.68	220.14	10.10	-41.1	-42.5	16.1	0.00e+00	0	44	0	224395264	51	4536
2026-01-09 15:47:31.68	220.51	10.29	-40.4	-41.6	17.1	0.00e+00	0	44	0	246415360	51	4096
2026-01-09 15:47:34.69	220.88	10.49	-40.2	-41.5	17.3	0.00e+00	0	44	0	267386880	50	4247
2026-01-09 15:47:37.79	221.27	10.69	-39.9	-41.2	17.6	0.00e+00	0	44	0	290455552	50	4117
2026-01-09 15:47:40.80	221.66	10.89	-39.4	-40.5	18.2	0.00e+00	0	44	0	311427072	49	4050
2026-01-09 15:47:43.81	222.05	11.08	-39.4	-40.6	18.2	0.00e+00	0	44	0	333447168	49	4060
2026-01-09 15:47:46.82	222.44	11.28	-39.3	-40.4	18.4	0.00e+00	0	44	0	355467264	49	3980
2026-01-09 15:47:49.82	222.84	11.48	-39.4	-40.5	18.3	0.00e+00	0	44	0	377487360	48	4289
2026-01-09 15:47:52.75	223.24	11.67	-39.4	-40.5	18.3	0.00e+00	0	44	0	397410304	48	4271
2026-01-09 15:47:56.09	223.69	11.89	-39.4	-40.5	18.3	0.00e+00	0	44	0	422576128	48	4261
2026-01-09 15:47:58.82	224.07	12.07	-39.1	-40.2	18.7	0.00e+00	0	44	0	441450496	48	4121
2026-01-09 15:48:02.10	224.53	12.29	-39.0	-40.0	18.8	0.00e+00	0	44	0	465567744	48	4045
2026-01-09 15:48:04.96	224.94	12.48	-39.2	-40.2	18.6	0.00e+00	0	44	0	485490688	48	4144
2026-01-09 15:48:08.34	225.42	12.70	-39.2	-40.3	18.6	0.00e+00	0	44	0	510656512	48	4154
2026-01-09 15:48:11.41	225.87	12.91	-38.9	-39.9	19.0	0.00e+00	0	44	0	532676608	48	3996
2026-01-09 15:48:14.56	226.34	13.11	-38.8	-39.8	19.1	0.00e+00	0	44	0	555745280	48	3926
2026-01-09 15:48:17.42	226.76	13.30	-38.8	-39.8	19.1	0.00e+00	0	44	0	576716800	48	3950
2026-01-09 15:48:20.57	227.24	13.51	-38.4	-39.4	19.2	0.00e+00	0	44	0	598736896	47	4001
2026-01-09 15:48:23.47	227.69	13.71	-38.1	-39.1	19.5	0.00e+00	0	44	0	619708416	47	3860
2026-01-09 15:48:26.62	228.18	13.92	-38.1	-39.1	19.6	0.00e+00	0	44	0	642777088	46	4095
2026-01-09 15:48:29.49	228.63	14.11	-38.3	-39.3	19.4	0.00e+00	0	44	0	662700032	46	4189
2026-01-09 15:48:32.64	229.14	14.31	-38.3	-39.3	19.4	0.00e+00	0	44	0	685768704	46	4167
2026-01-09 15:48:35.82	229.65	14.52	-38.4	-39.5	19.3	0.00e+00	0	44	0	708837376	46	4248
2026-01-09 15:48:38.83	230.15	14.72	-38.2	-39.2	19.5	0.00e+00	0	44	0	730857472	46	4126
2026-01-09 15:48:41.83	230.65	14.92	-38.0	-39.0	19.8	0.00e+00	0	44	0	751828992	46	4018
2026-01-09 15:48:44.85	231.16	15.12	-37.9	-38.9	19.8	0.00e+00	0	44	0	773849088	46	4002
2026-01-09 15:48:47.86	231.67	15.32	-38.1	-39.1	19.6	0.00e+00	0	44	0	795869184	46	4092
2026-01-09 15:48:50.83	232.19	15.51	-37.8	-38.7	20.0	0.00e+00	0	44	0	816840704	46	3910
2026-01-09 15:48:53.84	232.71	15.71	-37.9	-38.9	19.9	0.00e+00	0	44	0	838860800	46	3959
2026-01-09 15:48:56.85	233.25	15.90	-37.8	-38.7	20.0	0.00e+00	0	44	0	860880896	46	3912
2026-01-09 15:48:59.86	233.79	16.10	-37.7	-38.6	20.1	0.00e+00	0	44	0	881852416	46	3866
2026-01-09 15:49:02.83	234.33	16.29	-37.7	-38.7	20.1	0.00e+00	0	44	0	903872512	46	3904
2026-01-09 15:49:05.98	234.91	16.49	-37.8	-38.8	20.0	0.00e+00	0	44	0	926941184	46	3915
2026-01-09 15:49:08.84	235.45	16.67	-37.6	-38.6	20.2	0.00e+00	0	44	0	946864128	45	4063
2026-01-09 15:49:12.00	236.04	16.87	-37.4	-38.4	20.4	0.00e+00	0	44	0	969932800	45	3961
2026-01-09 15:49:14.86	236.59	17.05	-37.6	-38.5	20.2	0.00e+00	0	44	0	990904320	45	4047
2026-01-09 15:49:18.01	237.20	17.25	-37.4	-38.3	20.4	0.00e+00	0	44	0	1012924416	45	3952
2026-01-09 15:49:20.87	237.76	17.42	-37.4	-38.3	20.5	0.00e+00	0	44	0	1033895936	45	3949
2026-01-09 15:49:24.03	238.39	17.62	-37.3	-38.3	20.5	0.00e+00	0	44	0	1056964608	45	3931
2026-01-09 15:49:26.89	238.96	17.79	-37.5	-38.4	20.4	0.00e+00	0	44	0	1077936128	45	3983
2026-01-09 15:49:30.19	239.63	17.99	-37.4	-38.4	20.4	0.00e+00	0	44	0	1101004800	45	3974
2026-01-09 15:49:32.92	240.19	18.15	-37.2	-38.1	20.7	0.00e+00	0	44	0	1120927744	45	3848
2026-01-09 15:49:36.21	240.88	18.35	-37.2	-38.1	20.7	0.00e+00	0	44	0	1145044992	44	4064
2026-01-09 15:49:39.09	241.48	18.52	-37.0	-37.9	20.9	0.00e+00	0	44	0	1166016512	44	3987
2026-01-09 15:49:42.24	242.15	18.70	-37.0	-38.0	20.9	0.00e+00	0	44	0	1188036608	44	4012
2026-01-09 15:49:45.17	242.78	18.86	-37.1	-38.0	20.8	0.00e+00	0	44	0	1209008128	44	4014
2026-01-09 15:49:48.43	243.49	19.05	-37.1	-38.0	20.8	0.00e+00	0	44	0	1233125376	44	4040
2026-01-09 15:49:51.19	244.10	19.20	-37.2	-38.2	20.7	0.00e+00	0	44	0	1253048320	44	4100
2026-01-09 15:49:54.49	244.83	19.38	-37.2	-38.1	20.7	0.00e+00	0	44	0	1277165568	44	4080
2026-01-09 15:49:57.21	245.44	19.52	-37.3	-38.2	20.6	0.00e+00	0	44	0	1296039936	44	4125
2026-01-09 15:50:00.51	246.19	19.69	-37.3	-38.2	20.6	0.00e+00	0	44	0	1320157184	44	4138
2026-01-09 15:50:03.24	246.82	19.83	-37.2	-38.1	20.7	0.00e+00	0	44	0	1340080128	44	4082
2026-01-09 15:50:06.53	247.58	20.00	-36.7	-37.6	21.3	0.00e+00	0	44	0	1364197376	44	3831
2026-01-09 15:50:09.25	248.21	20.13	-36.7	-37.6	21.2	0.00e+00	0	44	0	1383071744	44	3855
2026-01-09 15:50:12.55	248.99	20.29	-36.7	-37.6	21.3	0.00e+00	0	44	0	1407188992	44	3837
2026-01-09 15:50:15.27	249.64	20.42	-36.7	-37.6	21.2	0.00e+00	0	44	0	1427111936	44	3860
2026-01-09 15:50:18.56	250.43	20.57	-37.0	-37.9	21.0	0.00e+00	0	44	0	1450180608	44	3993
2026-01-09 15:50:21.29	251.09	20.69	-37.0	-37.9	20.9	0.00e+00	0	44	0	1470103552	44	3980
2026-01-09 15:50:24.58	251.89	20.83	-37.1	-38.1	20.8	0.00e+00	0	44	0	1494220800	44	4056
2026-01-09 15:50:27.46	252.60	20.95	-37.1	-38.0	20.8	0.00e+00	0	44	0	1514143744	44	4039
2026-01-09 15:50:30.74	253.41	21.08	-37.0	-37.9	20.9	0.00e+00	0	44	0	1538260992	44	3991
2026-01-09 15:50:33.74	254.16	21.20	-36.9	-37.8	21.1	0.00e+00	0	44	0	1560281088	44	3946
2026-01-09 15:50:36.75	254.92	21.31	-36.8	-37.7	21.1	0.00e+00	0	44	0	1581252608	44	3891
2026-01-09 15:50:39.76	255.68	21.42	-36.8	-37.7	21.1	0.00e+00	0	44	0	1603272704	44	3884
2026-01-09 15:50:42.74	256.44	21.52	-36.7	-37.6	21.3	0.00e+00	0	44	0	1625292800	44	3835
2026-01-09 15:50:45.94	257.26	21.62	-36.4	-37.3	21.4	0.00e+00	0	44	0	1648361472	43	3926
2026-01-09 15:50:48.80	258.00	21.71	-36.3	-37.2	21.5	0.00e+00	0	44	0	1668284416	43	3901
2026-01-09 15:50:51.96	258.82	21.80	-36.4	-37.3	21.4	0.00e+00	0	44	0	1691353088	43	3954
2026-01-09 15:50:54.79	259.56	21.88	-36.2	-37.1	21.6	0.00e+00	0	44	0	1712324608	43	3855
2026-01-09 15:50:58.25	260.47	21.97	-36.3	-37.1	21.5	0.00e+00	0	44	0	1737490432	43	3866
2026-01-09 15:51:01.26	261.26	22.04	-36.7	-37.6	21.1	0.00e+00	0	44	0	1758461952	43	4073
2026-01-09 15:51:04.26	262.06	22.10	-36.4	-37.3	21.4	0.00e+00	0	44	0	1780482048	43	3916
2026-01-09 15:51:07.22	262.84	22.16	-36.3	-37.2	21.5	0.00e+00	0	44	0	1801453568	43	3909
2026-01-09 15:51:10.47	263.71	22.22	-36.5	-37.5	21.3	0.00e+00	0	44	0	1824522240	43	4006
2026-01-09 15:51:13.33	264.48	22.27	-36.6	-37.5	21.2	0.00e+00	0	44	0	1845493760	43	4009
2026-01-09 15:51:16.48	265.32	22.31	-36.5	-37.4	21.2	0.00e+00	0	44	0	1868562432	43	3978
2026-01-09 15:51:19.35	266.09	22.35	-36.6	-37.5	21.2	0.00e+00	0	44	0	1889533952	43	4039
2026-01-09 15:51:22.50	266.94	22.38	-36.7	-37.7	21.1	0.00e+00	0	44	0	1911554048	43	4105
2026-01-09 15:51:25.37	267.72	22.41	-36.8	-37.7	21.0	0.00e+00	0	44	0	1932525568	43	4140
2026-01-09 15:51:28.52	268.57	22.43	-36.5	-37.4	21.3	0.00e+00	0	44	0	1955594240	43	3969
2026-01-09 15:51:31.38	269.35	22.44	-36.3	-37.2	21.5	0.00e+00	0	44	0	1976565760	43	3875
2026-01-09 15:51:34.53	270.20	22.45	-36.4	-37.3	21.4	0.00e+00	0	44	0	1998585856	43	3943
2026-01-09 15:51:37.43	270.99	22.46	-36.4	-37.3	21.4	0.00e+00	0	44	0	2019557376	43	3926
2026-01-09 15:51:40.58	271.84	22.45	-36.4	-37.3	21.4	0.00e+00	0	44	0	2042626048	43	3941
2026-01-09 15:51:43.45	272.62	22.44	-36.6	-37.5	21.2	0.00e+00	0	44	0	2063597568	43	4024
2026-01-09 15:51:46.60	273.47	22.43	-36.6	-37.6	21.1	0.00e+00	0	44	0	2085617664	43	4055
2026-01-09 15:51:49.47	274.25	22.41	-36.7	-37.6	21.1	0.00e+00	0	44	0	2106589184	43	4098
2026-01-09 15:51:52.62	275.10	22.38	-36.7	-37.6	21.1	0.00e+00	0	44	0	2129657856	43	4089
2026-01-09 15:51:55.49	275.87	22.35	-36.6	-37.5	21.2	0.00e+00	0	44	0	2150629376	43	4041
2026-01-09 15:51:58.64	276.72	22.31	-36.4	-37.3	21.4	0.00e+00	0	44	0	2172649472	43	3937
2026-01-09 15:52:01.50	277.48	22.27	-36.6	-37.5	21.2	0.00e+00	0	44	0	2193620992	43	4048
2026-01-09 15:52:04.66	278.33	22.22	-36.4	-37.3	21.4	0.00e+00	0	44	0	2216689664	43	3955
2026-01-09 15:52:07.52	279.09	22.16	-36.3	-37.2	21.5	0.00e+00	0	44	0	2237661184	43	3884
2026-01-09 15:52:10.68	279.93	22.10	-36.7	-37.6	21.1	0.00e+00	0	44	0	2259681280	43	4060
2026-01-09 15:52:13.62	280.71	22.04	-36.6	-37.5	21.2	0.00e+00	0	44	0	2281701376	43	4030
2026-01-09 15:52:16.97	281.59	21.96	-36.7	-37.6	21.1	0.00e+00	0	44	0	2305818624	43	4055
2026-01-09 15:52:19.72	282.31	21.89	-36.7	-37.6	21.1	0.00e+00	0	44	0	2325741568	43	4076
2026-01-09 15:52:23.02	283.17	21.80	-36.7	-37.6	21.0	0.00e+00	0	44	0	2348810240	43	4095
2026-01-09 15:52:25.74	283.87	21.72	-36.7	-37.6	21.1	0.00e+00	0	44	0	2368733184	43	4067
2026-01-09 15:52:29.04	284.72	21.62	-36.7	-37.6	21.2	0.00e+00	0	44	0	2392850432	43	4053
2026-01-09 15:52:31.98	285.48	21.52	-36.9	-37.8	20.9	0.00e+00	0	44	0	2413821952	43	4188
2026-01-09 15:52:35.28	286.32	21.41	-36.9	-37.8	20.9	0.00e+00	0	44	0	2437939200	43	4168
2026-01-09 15:52:38.00	287.00	21.31	-36.7	-37.6	21.1	0.00e+00	0	44	0	2456813568	43	4094
2026-01-09 15:52:41.30	287.83	21.19	-36.9	-37.8	21.0	0.00e+00	0	44	0	2480930816	43	4158
2026-01-09 15:52:44.07	288.52	21.08	-36.9	-37.9	20.9	0.00e+00	0	44	0	2500853760	43	4195
2026-01-09 15:52:47.84	289.45	20.93	-37.1	-38.1	20.6	0.00e+00	0	44	0	2528116736	43	4320
2026-01-09 15:52:50.58	290.12	20.82	-37.1	-38.0	20.7	0.00e+00	0	44	0	2548039680	43	4288
2026-01-09 15:52:54.32	291.03	20.66	-37.0	-37.9	20.8	0.00e+00	0	44	0	2575302656	43	4213
2026-01-09 15:52:57.11	291.70	20.53	-37.1	-38.0	20.7	0.00e+00	0	44	0	2595225600	43	4261
2026-01-09 15:53:00.88	292.60	20.36	-37.4	-38.4	20.5	0.00e+00	0	44	0	2622488576	44	4195
2026-01-09 15:53:03.78	293.28	20.22	-37.4	-38.4	20.5	0.00e+00	0	44	0	2643460096	44	4208
2026-01-09 15:53:07.10	294.06	20.06	-37.3	-38.2	20.5	0.00e+00	0	44	0	2667577344	44	4144
2026-01-09 15:53:10.24	294.79	19.91	-37.4	-38.3	20.6	0.00e+00	0	44	0	2689597440	44	4164
2026-01-09 15:53:13.53	295.54	19.74	-37.5	-38.4	20.4	0.00e+00	0	44	0	2713714688	44	4233
2026-01-09 15:53:16.25	296.16	19.60	-37.4	-38.3	20.5	0.00e+00	0	44	0	2733637632	44	4184
2026-01-09 15:53:19.55	296.90	19.43	-37.2	-38.1	20.7	0.00e+00	0	44	0	2756706304	44	4083
2026-01-09 15:53:22.28	297.50	19.28	-37.4	-38.3	20.5	0.00e+00	0	45	0	2776629248	44	4179
2026-01-09 15:53:25.57	298.23	19.10	-37.7	-38.6	20.3	0.00e+00	0	44	0	2800746496	44	4326
2026-01-09 15:53:28.29	298.82	18.95	-37.9	-38.9	19.9	0.00e+00	0	44	0	2819620864	45	4211
2026-01-09 15:53:31.59	299.53	18.77	-37.9	-38.9	20.0	0.00e+00	0	44	0	2843738112	45	4204
2026-01-09 15:53:34.55	300.16	18.60	-37.8	-38.8	20.1	0.00e+00	0	44	0	2865758208	45	4160
2026-01-09 15:53:37.56	300.79	18.43	-37.7	-38.7	20.2	0.00e+00	0	45	0	2886729728	45	4099
2026-01-09 15:53:40.56	301.41	18.25	-37.8	-38.8	20.1	0.00e+00	0	44	0	2908749824	45	4159
2026-01-09 15:53:43.57	302.03	18.08	-37.7	-38.7	20.1	0.00e+00	0	44	0	2930769920	45	4102
2026-01-09 15:53:46.84	302.70	17.88	-37.8	-38.8	20.1	0.00e+00	0	44	0	2953838592	45	4150
2026-01-09 15:53:50.16	303.36	17.68	-37.9	-38.9	19.9	0.00e+00	0	44	0	2977955840	45	4235
2026-01-09 15:53:53.85	304.09	17.46	-38.1	-39.1	19.8	0.00e+00	0	44	0	3004170240	45	4321
2026-01-09 15:53:56.59	304.63	17.29	-38.3	-39.3	19.5	0.00e+00	0	44	0	3024093184	46	4179
2026-01-09 15:54:00.49	305.38	17.05	-38.3	-39.3	19.5	0.00e+00	0	44	0	3052404736	46	4191
2026-01-09 15:54:03.57	305.97	16.85	-38.2	-39.2	19.6	0.00e+00	0	44	0	3074424832	46	4126
2026-01-09 15:54:06.59	306.53	16.67	-38.0	-39.0	19.8	0.00e+00	0	44	0	3096444928	46	4032
2026-01-09 15:54:09.57	307.09	16.48	-38.2	-39.1	19.7	0.00e+00	0	45	0	3118465024	46	4091
2026-01-09 15:54:12.58	307.64	16.29	-38.3	-39.3	19.5	0.00e+00	0	44	0	3139436544	46	4181
2026-01-09 15:54:15.59	308.18	16.09	-38.7	-39.7	19.2	0.00e+00	0	45	0	3161456640	46	4366
2026-01-09 15:54:18.60	308.72	15.90	-38.5	-39.5	19.3	0.00e+00	0	45	0	3183476736	46	4274
2026-01-09 15:54:21.61	309.25	15.71	-38.6	-39.6	19.2	0.00e+00	0	44	0	3204448256	46	4326
2026-01-09 15:54:24.76	309.80	15.50	-38.5	-39.6	19.2	0.00e+00	0	44	0	3227516928	46	4330
2026-01-09 15:54:27.70	310.31	15.31	-38.5	-39.5	19.3	0.00e+00	0	44	0	3248488448	46	4271
2026-01-09 15:54:31.46	310.94	15.07	-38.3	-39.4	19.5	0.00e+00	0	44	0	3275751424	46	4205
2026-01-09 15:54:34.22	311.40	14.89	-38.6	-39.6	19.2	0.00e+00	0	45	0	3295674368	46	4338
2026-01-09 15:54:37.51	311.95	14.67	-38.9	-40.0	18.8	0.00e+00	0	44	0	3319791616	47	4253
2026-01-09 15:54:40.24	312.39	14.49	-39.0	-40.2	18.6	0.00e+00	0	44	0	3339714560	47	4352
2026-01-09 15:54:43.66	312.94	14.27	-39.1	-40.2	18.6	0.00e+00	0	44	0	3363831808	47	4378
2026-01-09 15:54:46.69	313.42	14.07	-38.8	-39.9	18.9	0.00e+00	0	44	0	3385851904	47	4224
2026-01-09 15:54:49.98	313.94	13.86	-38.4	-39.5	19.3	0.00e+00	0	45	0	3409969152	47	4014
2026-01-09 15:54:52.70	314.36	13.68	-38.6	-39.6	19.1	0.00e+00	0	44	0	3429892096	47	4092
2026-01-09 15:54:56.24	314.90	13.44	-38.7	-39.8	19.0	0.00e+00	0	44	0	3455057920	47	4169
2026-01-09 15:54:58.96	315.31	13.27	-38.7	-39.7	19.0	0.00e+00	0	44	0	3474980864	47	4143
2026-01-09 15:55:02.25	315.79	13.05	-38.9	-40.0	18.7	0.00e+00	0	44	0	3498049536	47	4286
2026-01-09 15:55:05.07	316.21	12.86	-39.2	-40.4	18.4	0.00e+00	0	44	0	3519021056	47	4462
2026-01-09 15:55:08.35	316.68	12.65	-39.4	-40.5	18.5	0.00e+00	0	44	0	3542089728	48	4279
2026-01-09 15:55:11.36	317.11	12.45	-39.3	-40.4	18.6	0.00e+00	0	44	0	3564109824	48	4209
2026-01-09 15:55:14.37	317.53	12.25	-39.0	-40.1	18.8	0.00e+00	0	44	0	3586129920	48	4082
2026-01-09 15:55:17.37	317.95	12.06	-39.1	-40.2	18.8	0.00e+00	0	44	0	3608150016	48	4123
2026-01-09 15:55:20.38	318.36	11.86	-39.1	-40.2	18.8	0.00e+00	0	44	0	3629121536	48	4102
2026-01-09 15:55:23.47	318.78	11.66	-39.2	-40.3	18.6	0.00e+00	0	44	0	3652190208	48	4184
2026-01-09 15:55:26.34	319.16	11.47	-39.6	-40.7	18.2	0.00e+00	0	44	0	3672113152	48	4381
2026-01-09 15:55:29.49	319.58	11.27	-39.7	-40.9	18.0	0.00e+00	0	45	0	3695181824	49	4242
2026-01-09 15:55:32.35	319.95	11.08	-39.6	-40.9	18.0	0.00e+00	0	45	0	3715104768	49	4217
2026-01-09 15:55:35.60	320.37	10.87	-39.7	-41.0	17.9	0.00e+00	0	44	0	3739222016	49	4272
2026-01-09 15:55:38.45	320.73	10.69	-39.5	-40.7	18.3	0.00e+00	0	45	0	3759144960	49	4103
2026-01-09 15:55:41.60	321.13	10.48	-39.7	-40.9	18.0	0.00e+00	0	44	0	3782213632	49	4198
2026-01-09 15:55:44.69	321.51	10.29	-39.7	-40.9	18.0	0.00e+00	0	44	0	3804233728	49	4227
2026-01-09 15:55:47.73	321.88	10.09	-39.6	-40.8	18.0	0.00e+00	0	44	0	3826253824	49	4183
2026-01-09 15:55:50.96	322.27	9.88	-39.7	-40.9	18.0	0.00e+00	0	44	0	3850371072	49	4200
2026-01-09 15:55:53.83	322.61	9.70	-39.7	-41.0	17.9	0.00e+00	0	45	0	3870294016	49	4248
2026-01-09 15:55:56.98	322.98	9.50	-39.8	-41.0	17.9	0.00e+00	0	44	0	3893362688	49	4262
2026-01-09 15:55:59.84	323.31	9.32	-39.9	-41.1	17.7	0.00e+00	0	44	0	3914334208	49	4340
2026-01-09 15:56:02.99	323.67	9.12	-39.9	-41.3	17.5	0.00e+00	0	44	0	3936354304	49	4423
2026-01-09 15:56:05.85	324.00	8.94	-48.9	-59.8	3.8	8.47e-01	0	45	104	3949985792	67	13227
2026-01-09 15:56:09.01	324.35	8.74	-49.7	-60.7	3.8	8.47e-01	0	45	104	3949985792	68	13834
2026-01-09 15:56:11.88	324.66	8.56	-50.0	-60.8	3.8	8.49e-01	0	45	104	3949985792	69	13227
2026-01-09 15:56:15.04	325.01	8.36	-49.9	-60.9	3.8	8.46e-01	0	44	104	3949985792	69	13301
2026-01-09 15:56:17.91	325.32	8.19	-50.2	-60.9	3.8	8.48e-01	0	44	104	3949985792	70	12610
2026-01-09 15:56:21.07	325.65	7.99	-50.1	-60.9	3.8	8.47e-01	0	44	104	3949985792	70	12598
2026-01-09 15:56:23.94	325.95	7.81	-50.0	-60.9	3.8	8.48e-01	0	45	104	3949985792	70	12602
2026-01-09 15:56:27.09	326.28	7.62	-49.9	-60.9	3.8	8.46e-01	0	45	104	3949985792	70	12544
2026-01-09 15:56:29.96	326.58	7.44	-49.9	-60.9	3.8	8.48e-01	0	45	104	3949985792	70	12565
2026-01-09 15:56:33.12	326.90	7.25	-49.9	-60.8	3.8	8.46e-01	0	45	104	3949985792	70	12490
2026-01-09 15:56:35.99	327.18	7.07	-49.9	-60.8	3.8	8.46e-01	0	44	104	3949985792	70	12493
2026-01-09 15:56:39.15	327.49	6.88	-49.9	-60.8	3.8	8.46e-01	0	45	104	3949985792	70	12513
2026-01-09 15:56:42.02	327.78	6.71	-49.9	-60.9	3.8	8.48e-01	0	44	104	3949985792	70	12560
2026-01-09 15:56:45.17	328.08	6.52	-49.9	-60.9	3.8	8.46e-01	0	44	104	3949985792	70	12578
2026-01-09 15:56:48.04	328.35	6.35	-49.9	-60.8	3.8	8.47e-01	0	45	104	3949985792	70	12478
2026-01-09 15:56:51.20	328.65	6.16	-49.9	-60.8	3.8	8.48e-01	0	44	104	3949985792	70	12457
2026-01-09 15:56:54.07	328.92	5.99	-49.9	-60.8	3.8	8.46e-01	0	45	104	3949985792	70	12507
2026-01-09 15:56:57.22	329.21	5.80	-49.9	-60.8	3.8	8.47e-01	0	44	104	3949985792	70	12513
2026-01-09 15:57:00.09	329.47	5.63	-49.9	-60.8	3.8	8.46e-01	0	45	104	3949985792	70	12515
2026-01-09 15:57:03.25	329.75	5.45	-49.9	-60.8	3.8	8.47e-01	0	45	104	3949985792	70	12509
2026-01-09 15:57:06.11	330.01	5.28	-49.9	-60.9	3.8	8.47e-01	0	45	104	3949985792	70	12598
2026-01-09 15:57:09.27	330.29	5.09	-49.9	-60.8	3.8	8.47e-01	0	44	104	3949985792	70	12384

#Closed at: 2026-01-09 15:57:12
#Recorded file [3949 MB]: D:/Data/31040_260109_184607.dat