passes_logs/2026/01/09/T1/T1__20260109_104912_NOAA_21_JPSS-2_rec.log

#Pass ID: 20260109_104912_NOAA 21 (JPSS-2)
#Satellite: NOAA 21 (JPSS-2)
#Configuration: NOAA 21
#almurnet v.1.7.20251203
#Start time: 2026-01-09 10:49:13

#Version: 2.0.20230620
#Station: T1
#Location: 37.570604 lon 55.790049 lat
#TLE: 1 54234U 22150A   26008.45757862  .00000119  00000+0  77172-4 0  9996
#TLE: 2 54234  98.7494 309.4367 0000894 328.2777  31.8345 14.19533328163889

#Time	Az	El	Level	Level2	SNR	BER	BlckErr	Temp	State	Recorded	gain1	gain2
2026-01-09 10:49:13.05	188.83	5.07	-47.2	-61.3	3.8	1.49e+00	0	41	0	0	66	17808
2026-01-09 10:49:16.08	188.99	5.27	-47.3	-61.1	3.8	1.49e+00	0	41	104	0	65	18367
2026-01-09 10:49:19.09	189.15	5.48	-47.2	-60.7	3.8	1.49e+00	0	41	104	0	65	17623
2026-01-09 10:49:22.10	189.31	5.69	-47.2	-60.8	3.8	1.49e+00	0	41	104	0	65	17827
2026-01-09 10:49:25.11	189.47	5.90	-47.3	-60.8	3.8	1.49e+00	0	41	104	0	65	17694
2026-01-09 10:49:28.13	189.63	6.11	-47.2	-60.6	3.8	1.49e+00	0	41	104	0	65	17376
2026-01-09 10:49:31.14	189.80	6.32	-47.2	-60.1	3.8	1.49e+00	0	42	104	0	65	16404
2026-01-09 10:49:34.15	189.97	6.54	-47.2	-59.8	3.8	1.49e+00	0	42	104	0	65	15931
2026-01-09 10:49:37.17	190.14	6.75	-47.1	-60.6	3.8	1.49e+00	0	42	104	0	65	17329
2026-01-09 10:49:40.18	190.31	6.97	-47.2	-61.0	3.8	1.49e+00	0	42	104	0	65	18257
2026-01-09 10:49:43.19	190.49	7.19	-47.1	-60.8	3.8	1.49e+00	0	42	104	0	65	17789
2026-01-09 10:49:46.21	190.66	7.41	-46.8	-57.8	3.9	1.48e+00	0	42	104	0	65	12644
2026-01-09 10:49:49.22	190.84	7.63	-45.8	-51.7	8.3	6.96e-02	0	42	0	0	63	7002
2026-01-09 10:49:52.23	191.03	7.86	-43.5	-46.8	13.4	3.96e-05	0	42	0	0	58	5281
2026-01-09 10:49:55.25	191.21	8.08	-41.5	-44.1	15.8	0.00e+00	0	42	0	0	55	4619
2026-01-09 10:49:58.26	191.40	8.31	-41.2	-43.7	16.2	0.00e+00	0	42	0	0	54	4670
2026-01-09 10:50:01.27	191.60	8.54	-42.3	-45.2	14.8	7.00e-07	0	42	0	0	55	5242
2026-01-09 10:50:04.28	191.79	8.77	-44.2	-48.1	12.0	3.46e-04	0	42	0	0	59	5821
2026-01-09 10:50:07.29	191.99	9.00	-45.5	-51.3	8.7	3.21e-02	0	42	0	0	61	7506
2026-01-09 10:50:10.31	192.19	9.24	-44.8	-49.3	11.0	9.76e-05	0	42	0	0	60	6324
2026-01-09 10:50:13.63	192.41	9.50	-45.9	-52.0	8.0	1.16e-01	0	43	0	0	63	7254
2026-01-09 10:50:16.35	192.60	9.72	-45.9	-52.1	7.9	7.28e-02	0	43	0	0	63	7360
2026-01-09 10:50:19.65	192.83	9.98	-45.6	-51.2	8.9	3.21e-02	0	42	0	0	63	6601
2026-01-09 10:50:22.75	193.05	10.23	-45.7	-51.0	9.1	2.55e-02	0	42	0	0	63	6468
2026-01-09 10:50:25.62	193.26	10.47	-45.7	-50.7	9.4	1.24e-02	0	43	0	0	63	6245
2026-01-09 10:50:28.77	193.49	10.72	-45.3	-49.8	10.3	7.52e-03	0	43	0	0	62	5940
2026-01-09 10:50:31.63	193.70	10.96	-45.6	-50.6	9.6	1.44e-02	0	43	0	0	62	6536
2026-01-09 10:50:34.87	193.95	11.23	-44.9	-49.3	11.0	2.68e-03	0	43	0	0	61	5943
2026-01-09 10:50:37.80	194.17	11.48	-45.1	-49.5	10.7	2.17e-03	0	43	0	0	61	6087
2026-01-09 10:50:40.81	194.41	11.74	-44.8	-48.9	11.3	1.15e-03	0	43	0	0	61	5695
2026-01-09 10:50:43.82	194.65	11.99	-44.4	-48.3	12.0	2.33e-04	0	43	0	0	60	5622
2026-01-09 10:50:46.88	194.90	12.26	-44.4	-48.2	12.0	3.31e-04	0	43	0	0	60	5560
2026-01-09 10:50:49.78	195.14	12.51	-43.6	-46.8	13.4	2.44e-05	0	43	0	0	59	4993
2026-01-09 10:50:53.06	195.41	12.80	-41.5	-43.9	16.2	0.00e+00	0	43	0	0	55	4515
2026-01-09 10:50:55.95	195.66	13.06	-40.2	-42.3	17.7	0.00e+00	0	43	0	0	52	4444
2026-01-09 10:50:59.23	195.94	13.35	-40.0	-42.0	18.1	0.00e+00	0	43	0	0	51	4582
2026-01-09 10:51:02.60	196.24	13.66	-39.8	-41.8	18.3	0.00e+00	0	43	0	0	51	4478
2026-01-09 10:51:05.32	196.49	13.91	-39.8	-41.8	18.2	0.00e+00	0	43	0	0	51	4442
2026-01-09 10:51:08.67	196.80	14.22	-39.8	-41.8	18.0	0.00e+00	0	43	0	0	51	4464
2026-01-09 10:51:11.39	197.05	14.47	-39.7	-41.7	17.9	0.00e+00	0	43	0	0	51	4437
2026-01-09 10:51:14.59	197.35	14.78	-39.9	-41.9	18.0	0.00e+00	0	43	0	0	51	4521
2026-01-09 10:51:17.96	197.68	15.10	-40.1	-42.0	18.0	0.00e+00	0	43	0	0	51	4595
2026-01-09 10:51:20.68	197.95	15.36	-40.1	-42.1	18.1	0.00e+00	0	43	0	0	51	4637
2026-01-09 10:51:24.09	198.30	15.69	-40.2	-42.1	18.1	0.00e+00	0	43	0	0	51	4650
2026-01-09 10:51:26.91	198.59	15.97	-40.2	-42.2	18.0	0.00e+00	0	43	0	0	51	4672
2026-01-09 10:51:30.26	198.94	16.30	-40.5	-42.5	17.7	0.00e+00	0	43	0	0	51	4839
2026-01-09 10:51:32.98	199.23	16.57	-40.4	-42.4	17.8	0.00e+00	0	43	0	0	51	4807
2026-01-09 10:51:36.27	199.59	16.90	-40.5	-42.5	17.7	0.00e+00	0	43	0	0	51	4859
2026-01-09 10:51:39.00	199.89	17.18	-40.5	-42.5	17.8	0.00e+00	0	43	0	0	51	4850
2026-01-09 10:51:42.32	200.27	17.52	-40.6	-42.7	17.6	0.00e+00	0	43	0	0	51	4934
2026-01-09 10:51:45.19	200.60	17.82	-40.5	-42.6	17.7	0.00e+00	0	43	0	0	52	4610
2026-01-09 10:51:48.39	200.98	18.16	-40.4	-42.5	17.8	0.00e+00	0	43	0	0	52	4561
2026-01-09 10:51:51.26	201.33	18.46	-40.6	-42.6	17.7	0.00e+00	0	43	0	0	52	4611
2026-01-09 10:51:54.74	201.76	18.83	-40.3	-42.3	17.9	0.00e+00	0	43	0	0	52	4447
2026-01-09 10:51:57.47	202.10	19.13	-40.0	-42.0	18.2	0.00e+00	0	43	0	0	52	4294
2026-01-09 10:52:00.76	202.52	19.49	-40.0	-41.9	18.3	0.00e+00	0	43	0	0	52	4264
2026-01-09 10:52:03.49	202.88	19.79	-40.0	-41.8	18.4	0.00e+00	0	43	0	0	51	4484
2026-01-09 10:52:06.79	203.32	20.15	-39.6	-41.4	18.8	0.00e+00	0	43	0	0	51	4279
2026-01-09 10:52:09.71	203.73	20.48	-39.4	-41.2	19.0	0.00e+00	0	43	0	0	50	4400
2026-01-09 10:52:12.72	204.15	20.82	-39.4	-41.2	19.0	0.00e+00	0	43	0	0	50	4424
2026-01-09 10:52:15.78	204.58	21.17	-39.1	-40.8	19.3	0.00e+00	0	43	0	0	50	4211
2026-01-09 10:52:18.74	205.02	21.51	-38.9	-40.6	19.5	0.00e+00	0	43	0	0	49	4377
2026-01-09 10:52:22.03	205.51	21.90	-38.8	-40.6	19.6	0.00e+00	0	43	0	0	49	4351
2026-01-09 10:52:24.74	205.92	22.21	-38.7	-40.4	19.7	0.00e+00	0	43	0	0	49	4250
2026-01-09 10:52:28.08	206.45	22.61	-38.6	-40.3	19.7	0.00e+00	0	43	0	0	49	4222
2026-01-09 10:52:30.86	206.89	22.94	-38.6	-40.3	19.8	0.00e+00	0	43	0	0	49	4213
2026-01-09 10:52:34.25	207.45	23.35	-38.6	-40.3	19.9	0.00e+00	0	43	0	0	49	4202
2026-01-09 10:52:36.97	207.90	23.68	-38.6	-40.4	19.8	0.00e+00	0	43	0	0	49	4248
2026-01-09 10:52:40.27	208.47	24.08	-38.8	-40.5	19.7	0.00e+00	0	43	0	0	49	4335
2026-01-09 10:52:43.26	208.99	24.45	-39.0	-40.7	19.6	0.00e+00	0	43	0	0	49	4415
2026-01-09 10:52:46.56	209.59	24.86	-39.2	-40.9	19.4	0.00e+00	0	43	0	0	49	4535
2026-01-09 10:52:49.28	210.09	25.20	-39.2	-41.0	19.4	0.00e+00	0	43	0	0	49	4549
2026-01-09 10:52:52.58	210.71	25.62	-39.2	-41.0	19.4	0.00e+00	0	43	0	0	49	4572
2026-01-09 10:52:55.30	211.23	25.96	-39.4	-41.2	19.2	0.00e+00	0	43	0	0	49	4669
2026-01-09 10:52:58.74	211.91	26.40	-39.5	-41.3	19.1	0.00e+00	0	43	0	0	49	4739
2026-01-09 10:53:01.46	212.46	26.75	-39.7	-41.5	18.8	0.00e+00	0	43	0	0	49	4838
2026-01-09 10:53:04.76	213.15	27.18	-40.1	-42.0	18.4	0.00e+00	0	43	0	0	50	4858
2026-01-09 10:53:07.48	213.72	27.53	-40.3	-42.2	18.3	0.00e+00	0	43	0	0	51	4674
2026-01-09 10:53:11.05	214.50	28.00	-40.3	-42.2	18.3	0.00e+00	0	43	0	0	51	4696
2026-01-09 10:53:13.98	215.16	28.38	-40.3	-42.3	18.2	0.00e+00	0	43	0	0	51	4720
2026-01-09 10:53:17.28	215.91	28.81	-40.3	-42.1	18.3	0.00e+00	0	43	0	0	51	4650
2026-01-09 10:53:20.00	216.55	29.17	-40.1	-42.0	18.4	0.00e+00	0	43	0	0	51	4564
2026-01-09 10:53:23.30	217.34	29.61	-40.0	-41.9	18.6	0.00e+00	0	43	0	0	51	4516
2026-01-09 10:53:26.02	218.01	29.97	-39.8	-41.6	18.8	0.00e+00	0	43	0	0	51	4376
2026-01-09 10:53:29.31	218.84	30.40	-39.9	-41.8	18.7	0.00e+00	0	43	0	0	51	4443
2026-01-09 10:53:32.04	219.55	30.76	-39.5	-41.3	19.1	0.00e+00	0	43	0	0	51	4228
2026-01-09 10:53:35.33	220.42	31.20	-39.8	-41.6	18.9	0.00e+00	0	43	0	0	51	4369
2026-01-09 10:53:38.10	221.17	31.56	-39.6	-41.4	19.0	0.00e+00	0	43	0	0	51	4278
2026-01-09 10:53:41.91	222.23	32.06	-39.8	-41.6	18.9	0.00e+00	0	43	0	0	51	4375
2026-01-09 10:53:44.76	223.05	32.44	-40.2	-42.1	18.4	0.00e+00	0	43	0	0	51	4623
2026-01-09 10:53:48.13	224.03	32.88	-40.2	-42.0	18.5	0.00e+00	0	43	0	0	51	4585
2026-01-09 10:53:51.26	224.97	33.28	-40.3	-42.1	18.4	0.00e+00	0	43	0	0	51	4641
2026-01-09 10:53:54.27	225.90	33.67	-40.6	-42.6	17.9	0.00e+00	0	43	0	0	51	4882
2026-01-09 10:53:57.28	226.85	34.05	-40.4	-42.4	18.0	0.00e+00	0	43	0	0	52	4497
2026-01-09 10:54:00.29	227.82	34.43	-40.7	-42.6	17.8	0.00e+00	0	43	0	0	52	4640
2026-01-09 10:54:03.25	228.79	34.79	-40.8	-42.8	17.7	0.00e+00	0	43	0	0	52	4745
2026-01-09 10:54:06.59	229.92	35.20	-40.7	-42.7	17.7	0.00e+00	0	43	0	0	52	4688
2026-01-09 10:54:09.31	230.86	35.53	-40.9	-42.9	17.4	0.00e+00	0	43	0	0	52	4805
2026-01-09 10:54:12.61	232.02	35.92	-41.0	-43.0	17.4	0.00e+00	0	43	0	0	52	4848
2026-01-09 10:54:15.57	233.09	36.26	-41.2	-43.3	17.1	0.00e+00	0	43	0	0	53	4736
2026-01-09 10:54:18.58	234.20	36.60	-41.0	-43.1	17.4	0.00e+00	0	43	0	0	53	4599
2026-01-09 10:54:21.68	235.36	36.94	-41.4	-43.5	17.0	0.00e+00	0	43	0	0	53	4864
2026-01-09 10:54:24.63	236.49	37.26	-41.3	-43.3	17.2	0.00e+00	0	43	0	0	53	4749
2026-01-09 10:54:27.74	237.71	37.58	-41.1	-43.1	17.4	0.00e+00	0	43	0	0	53	4602
2026-01-09 10:54:30.89	238.96	37.90	-41.5	-43.6	16.8	0.00e+00	0	44	0	0	53	4926
2026-01-09 10:54:33.76	240.12	38.17	-41.2	-43.3	17.3	0.00e+00	0	43	0	0	53	4709
2026-01-09 10:54:36.91	241.42	38.47	-41.2	-43.3	17.2	0.00e+00	0	44	0	0	53	4721
2026-01-09 10:54:39.77	242.62	38.72	-41.3	-43.4	17.2	0.00e+00	0	43	0	0	53	4782
2026-01-09 10:54:43.05	244.02	38.99	-42.0	-44.3	16.3	0.00e+00	0	43	0	0	54	4995
2026-01-09 10:54:45.91	245.25	39.21	-41.7	-43.8	16.8	0.00e+00	0	44	0	0	54	4723
2026-01-09 10:54:48.98	246.60	39.44	-41.9	-44.1	16.5	0.00e+00	0	43	0	0	54	4908
2026-01-09 10:54:51.99	247.93	39.65	-41.7	-43.8	16.8	0.00e+00	0	44	0	0	54	4742
2026-01-09 10:54:55.00	249.29	39.83	-41.5	-43.6	17.0	0.00e+00	0	43	0	0	54	4600
2026-01-09 10:54:58.00	250.65	40.01	-41.9	-44.0	16.5	0.00e+00	0	44	0	0	54	4870
2026-01-09 10:55:01.01	252.03	40.16	-41.8	-44.0	16.6	0.00e+00	0	43	0	0	54	4830
2026-01-09 10:55:04.02	253.42	40.30	-41.7	-43.9	16.7	0.00e+00	0	43	0	0	54	4766
2026-01-09 10:55:07.03	254.82	40.42	-41.9	-44.1	16.4	0.00e+00	0	43	0	0	55	4644
2026-01-09 10:55:10.04	256.24	40.52	-41.3	-43.4	17.1	0.00e+00	0	43	0	0	54	4503
2026-01-09 10:55:13.05	257.66	40.60	-41.7	-43.8	16.8	0.00e+00	0	43	0	0	54	4740
2026-01-09 10:55:16.30	259.20	40.66	-41.7	-43.9	16.6	0.00e+00	0	43	0	0	54	4782
2026-01-09 10:55:19.22	260.59	40.70	-42.0	-44.3	16.3	0.00e+00	0	43	0	0	54	4995
2026-01-09 10:55:22.79	262.29	40.73	-42.8	-45.2	15.4	0.00e+00	0	44	0	0	56	4954
2026-01-09 10:55:25.56	263.61	40.73	-41.8	-44.0	16.5	0.00e+00	0	44	0	0	55	4589
2026-01-09 10:55:28.86	265.18	40.70	-42.8	-45.2	15.5	0.00e+00	0	44	0	0	56	4951
2026-01-09 10:55:31.58	266.47	40.67	-42.0	-44.2	16.6	0.00e+00	0	43	0	0	56	4392
2026-01-09 10:55:34.88	268.03	40.60	-42.1	-44.3	16.3	0.00e+00	0	44	0	0	55	4715
2026-01-09 10:55:37.60	269.32	40.53	-41.9	-44.1	16.4	0.00e+00	0	43	0	0	55	4641
2026-01-09 10:55:40.90	270.87	40.42	-41.7	-43.8	16.7	0.00e+00	0	44	0	0	55	4492
2026-01-09 10:55:43.62	272.13	40.32	-41.6	-43.8	16.8	0.00e+00	0	43	0	0	54	4708
2026-01-09 10:55:47.17	273.77	40.15	-41.6	-43.7	16.9	0.00e+00	0	44	0	0	54	4662
2026-01-09 10:55:50.27	275.19	39.99	-42.1	-44.3	16.3	0.00e+00	0	43	0	0	55	4739
2026-01-09 10:55:53.28	276.56	39.82	-41.9	-44.1	16.5	0.00e+00	0	43	0	0	55	4620
2026-01-09 10:55:56.29	277.90	39.63	-41.8	-44.0	16.6	0.00e+00	0	44	0	0	55	4557
2026-01-09 10:55:59.37	279.27	39.42	-41.9	-44.1	16.5	0.00e+00	0	44	0	0	55	4641
2026-01-09 10:56:02.21	280.51	39.21	-41.3	-43.3	17.3	0.00e+00	0	43	0	0	54	4491
2026-01-09 10:56:05.72	282.02	38.93	-41.4	-43.4	17.2	0.00e+00	0	44	0	0	54	4544
2026-01-09 10:56:08.44	283.17	38.71	-40.4	-42.3	18.1	0.00e+00	0	43	0	0	52	4481
2026-01-09 10:56:11.74	284.55	38.41	-40.9	-42.9	17.6	0.00e+00	0	44	0	0	52	4802
2026-01-09 10:56:14.81	285.80	38.13	-41.6	-43.7	16.7	0.00e+00	0	44	0	0	53	4976
2026-01-09 10:56:17.85	287.03	37.84	-40.8	-42.7	17.7	0.00e+00	0	43	0	0	53	4437
2026-01-09 10:56:20.86	288.22	37.53	-40.9	-42.9	17.5	0.00e+00	0	44	0	0	53	4540
2026-01-09 10:56:23.86	289.38	37.22	-40.8	-42.8	17.7	0.00e+00	0	44	0	0	53	4478
2026-01-09 10:56:26.88	290.53	36.90	-40.5	-42.4	17.9	0.00e+00	0	44	0	0	52	4520
2026-01-09 10:56:29.89	291.66	36.57	-41.0	-43.0	17.4	0.00e+00	0	43	0	0	52	4866
2026-01-09 10:56:32.90	292.76	36.23	-40.9	-42.9	17.7	0.00e+00	0	44	0	0	52	4767
2026-01-09 10:56:35.97	293.86	35.87	-40.6	-42.5	17.9	0.00e+00	0	44	0	0	52	4565
2026-01-09 10:56:38.89	294.88	35.53	-40.8	-42.8	17.6	0.00e+00	0	43	0	0	52	4758
2026-01-09 10:56:41.90	295.91	35.17	-40.5	-42.5	18.0	0.00e+00	0	44	0	0	52	4548
2026-01-09 10:56:44.90	296.92	34.80	-40.4	-42.3	18.1	0.00e+00	0	43	0	0	52	4462
2026-01-09 10:56:47.91	297.91	34.43	-40.3	-42.2	18.3	0.00e+00	0	44	0	0	52	4402
2026-01-09 10:56:50.87	298.86	34.06	-40.7	-42.7	17.9	0.00e+00	0	44	0	0	52	4663
2026-01-09 10:56:53.88	299.80	33.68	-40.3	-42.3	18.2	0.00e+00	0	44	0	0	52	4452
2026-01-09 10:56:56.89	300.72	33.30	-40.3	-42.2	18.3	0.00e+00	0	44	0	0	52	4419
2026-01-09 10:56:59.90	301.62	32.91	-40.1	-42.0	18.5	0.00e+00	0	44	0	0	52	4319
2026-01-09 10:57:02.83	302.48	32.53	-40.1	-42.0	18.4	0.00e+00	0	43	0	0	52	4339
2026-01-09 10:57:05.98	303.38	32.13	-40.1	-42.0	18.6	0.00e+00	0	44	0	0	51	4551
2026-01-09 10:57:08.85	304.18	31.75	-40.1	-42.0	18.5	0.00e+00	0	44	0	0	51	4572
2026-01-09 10:57:12.00	305.04	31.34	-40.0	-41.9	18.6	0.00e+00	0	44	0	0	51	4516
2026-01-09 10:57:14.91	305.81	30.96	-40.4	-42.4	18.2	0.00e+00	0	44	0	0	51	4769
2026-01-09 10:57:18.13	306.65	30.53	-40.3	-42.3	18.2	0.00e+00	0	43	0	0	51	4732
2026-01-09 10:57:21.00	307.37	30.16	-40.3	-42.3	18.2	0.00e+00	0	43	0	0	51	4714
2026-01-09 10:57:24.14	308.15	29.75	-40.3	-42.2	18.3	0.00e+00	0	44	0	0	51	4659
2026-01-09 10:57:27.01	308.84	29.37	-40.2	-42.1	18.4	0.00e+00	0	44	0	0	51	4635
2026-01-09 10:57:30.17	309.59	28.96	-40.0	-41.9	18.6	0.00e+00	0	43	0	0	51	4513
2026-01-09 10:57:33.03	310.24	28.58	-39.9	-41.7	18.8	0.00e+00	0	43	0	0	51	4434
2026-01-09 10:57:36.15	310.94	28.18	-39.8	-41.7	18.8	0.00e+00	0	44	0	0	51	4407
2026-01-09 10:57:39.40	311.66	27.76	-39.3	-41.1	19.3	0.00e+00	0	43	0	0	50	4361
2026-01-09 10:57:42.34	312.28	27.38	-39.3	-41.1	19.2	0.00e+00	0	44	0	0	50	4384
2026-01-09 10:57:45.49	312.94	26.97	-39.4	-41.3	19.1	0.00e+00	0	44	0	0	50	4455
2026-01-09 10:57:48.36	313.53	26.61	-39.2	-41.1	19.3	0.00e+00	0	43	0	0	50	4356
2026-01-09 10:57:51.52	314.15	26.21	-39.1	-41.0	19.5	0.00e+00	0	44	0	0	50	4297
2026-01-09 10:57:54.38	314.71	25.84	-39.1	-40.9	19.5	0.00e+00	0	43	0	0	50	4263
2026-01-09 10:57:57.53	315.31	25.45	-39.1	-40.9	19.5	0.00e+00	0	44	0	0	50	4265
2026-01-09 10:58:00.40	315.84	25.09	-39.1	-40.9	19.5	0.00e+00	0	44	0	0	50	4263
2026-01-09 10:58:03.55	316.41	24.70	-39.1	-40.8	19.5	0.00e+00	0	44	0	0	50	4228
2026-01-09 10:58:06.42	316.92	24.35	-39.1	-40.9	19.4	0.00e+00	0	44	0	0	50	4268
2026-01-09 10:58:09.57	317.46	23.97	-39.2	-41.0	19.4	0.00e+00	0	43	0	0	50	4319
2026-01-09 10:58:12.44	317.95	23.62	-39.1	-40.9	19.5	0.00e+00	0	43	0	0	50	4255
2026-01-09 10:58:15.59	318.47	23.24	-39.4	-41.2	19.2	0.00e+00	0	43	0	0	50	4396
2026-01-09 10:58:18.67	318.97	22.87	-39.6	-41.5	19.0	0.00e+00	0	43	0	0	50	4547
2026-01-09 10:58:21.53	319.42	22.54	-39.7	-41.6	18.8	0.00e+00	0	44	0	0	50	4626
2026-01-09 10:58:24.69	319.91	22.17	-39.8	-41.8	18.7	0.00e+00	0	44	0	0	50	4709
2026-01-09 10:58:27.57	320.34	21.83	-39.9	-41.8	18.6	0.00e+00	0	44	0	0	50	4759
2026-01-09 10:58:30.72	320.81	21.47	-39.7	-41.6	18.8	0.00e+00	0	44	0	0	50	4649
2026-01-09 10:58:33.58	321.22	21.14	-39.8	-41.7	18.7	0.00e+00	0	44	0	0	50	4693
2026-01-09 10:58:36.75	321.67	20.79	-39.7	-41.6	18.9	0.00e+00	0	44	0	0	50	4602
2026-01-09 10:58:39.61	322.07	20.47	-39.5	-41.3	19.1	0.00e+00	0	44	0	0	50	4462
2026-01-09 10:58:42.86	322.51	20.11	-39.4	-41.2	19.1	0.00e+00	0	44	0	0	50	4410
2026-01-09 10:58:45.76	322.90	19.79	-39.3	-41.1	19.3	0.00e+00	0	44	0	0	50	4375
2026-01-09 10:58:49.06	323.33	19.43	-39.3	-41.2	19.2	0.00e+00	0	43	0	0	50	4395
2026-01-09 10:58:51.87	323.68	19.13	-39.4	-41.3	19.2	0.00e+00	0	43	0	0	50	4443
2026-01-09 10:58:55.02	324.08	18.79	-39.4	-41.3	19.1	0.00e+00	0	43	0	0	50	4477
2026-01-09 10:58:57.89	324.43	18.49	-39.5	-41.4	19.0	0.00e+00	0	43	0	0	50	4510
2026-01-09 10:59:01.05	324.81	18.15	-39.4	-41.3	19.1	0.00e+00	0	44	0	0	50	4449
2026-01-09 10:59:03.91	325.14	17.86	-39.6	-41.4	18.9	0.00e+00	0	43	0	0	50	4539
2026-01-09 10:59:07.06	325.51	17.53	-39.7	-41.6	18.8	0.00e+00	0	44	0	0	50	4602
2026-01-09 10:59:10.31	325.87	17.20	-39.7	-41.6	18.8	0.00e+00	0	43	0	0	50	4622
2026-01-09 10:59:13.34	326.21	16.90	-39.7	-41.7	18.7	0.00e+00	0	44	0	0	50	4675
2026-01-09 10:59:16.36	326.54	16.60	-39.6	-41.7	18.6	0.00e+00	0	43	0	0	50	4701
2026-01-09 10:59:19.36	326.86	16.30	-39.7	-41.9	18.4	0.00e+00	0	44	0	0	50	4767
2026-01-09 10:59:22.37	327.17	16.00	-39.9	-42.0	18.3	0.00e+00	0	44	0	0	50	4848
2026-01-09 10:59:25.37	327.48	15.71	-40.2	-42.2	18.1	0.00e+00	0	43	0	0	50	4943
2026-01-09 10:59:28.40	327.78	15.42	-40.2	-42.2	18.1	0.00e+00	0	43	0	0	51	4674
2026-01-09 10:59:31.41	328.08	15.14	-40.2	-42.3	18.1	0.00e+00	0	44	0	0	51	4709
2026-01-09 10:59:34.42	328.37	14.85	-40.2	-42.3	18.1	0.00e+00	0	43	0	0	51	4722
2026-01-09 10:59:37.43	328.66	14.57	-40.2	-42.2	18.1	0.00e+00	0	44	0	0	51	4687
2026-01-09 10:59:40.36	328.94	14.30	-40.2	-42.2	18.2	0.00e+00	0	44	0	0	51	4684
2026-01-09 10:59:43.51	329.22	14.01	-40.3	-42.4	18.0	0.00e+00	0	44	0	0	51	4767
2026-01-09 10:59:46.38	329.48	13.75	-40.4	-42.5	17.8	0.00e+00	0	44	0	0	51	4866
2026-01-09 10:59:49.53	329.76	13.47	-40.5	-42.6	17.8	0.00e+00	0	44	0	0	51	4878
2026-01-09 10:59:52.37	330.01	13.21	-40.6	-42.6	17.7	0.00e+00	0	44	0	0	51	4896
2026-01-09 10:59:55.66	330.29	12.92	-40.6	-42.7	17.5	0.00e+00	0	43	0	0	51	4952
2026-01-09 10:59:58.38	330.52	12.68	-40.5	-42.6	17.6	0.00e+00	0	43	0	0	51	4925
2026-01-09 11:00:01.69	330.80	12.40	-40.5	-42.7	17.5	0.00e+00	0	44	0	0	51	4939
2026-01-09 11:00:04.70	331.04	12.14	-40.5	-42.7	17.6	0.00e+00	0	44	0	0	51	4930
2026-01-09 11:00:08.00	331.31	11.86	-40.6	-42.7	17.6	0.00e+00	0	43	0	0	51	4940
2026-01-09 11:00:10.72	331.52	11.63	-40.6	-42.6	17.6	0.00e+00	0	43	0	0	51	4916
2026-01-09 11:00:14.14	331.79	11.34	-40.5	-42.6	17.5	0.00e+00	0	43	0	0	52	4646
2026-01-09 11:00:16.86	331.99	11.12	-40.5	-42.6	17.5	0.00e+00	0	44	0	0	52	4639
2026-01-09 11:00:20.29	332.25	10.83	-40.7	-42.9	17.3	0.00e+00	0	43	0	0	52	4760
2026-01-09 11:00:23.01	332.45	10.61	-40.7	-42.9	17.3	0.00e+00	0	44	0	0	52	4786
2026-01-09 11:00:26.31	332.69	10.35	-41.0	-43.2	16.9	0.00e+00	0	43	0	0	52	4949
2026-01-09 11:00:29.03	332.89	10.13	-41.2	-43.5	16.7	0.00e+00	0	44	0	0	53	4832
2026-01-09 11:00:32.33	333.12	9.87	-41.3	-43.6	16.5	0.00e+00	0	44	0	0	53	4923
2026-01-09 11:00:35.29	333.32	9.63	-41.2	-43.6	16.5	0.00e+00	0	43	0	0	53	4896
2026-01-09 11:00:38.30	333.53	9.40	-41.1	-43.5	16.6	0.00e+00	0	44	0	0	53	4858
2026-01-09 11:00:41.34	333.73	9.16	-41.3	-43.7	16.4	0.00e+00	0	44	0	0	53	4940
2026-01-09 11:00:44.59	333.95	8.91	-47.9	-61.3	3.8	1.49e+00	0	44	104	0	66	17882
2026-01-09 11:00:47.53	334.14	8.69	-48.6	-61.9	3.8	1.49e+00	0	44	104	0	67	17957
2026-01-09 11:00:50.89	334.36	8.44	-48.1	-62.2	3.8	1.49e+00	0	44	104	0	68	17550
2026-01-09 11:00:53.61	334.53	8.23	-49.1	-62.2	3.8	1.49e+00	0	44	104	0	68	17598
2026-01-09 11:00:56.91	334.73	7.99	-49.0	-62.2	3.8	1.49e+00	0	44	104	0	68	17654
2026-01-09 11:00:59.64	334.90	7.78	-49.3	-62.3	3.8	1.49e+00	0	44	104	0	69	16721
2026-01-09 11:01:02.94	335.10	7.54	-49.1	-62.2	3.8	1.49e+00	0	44	104	0	69	16674
2026-01-09 11:01:05.67	335.27	7.34	-49.0	-62.2	3.8	1.49e+00	0	44	104	0	69	16529
2026-01-09 11:01:08.97	335.46	7.11	-48.8	-62.2	3.8	1.49e+00	0	44	104	0	69	16579
2026-01-09 11:01:11.70	335.62	6.91	-48.6	-62.2	3.8	1.49e+00	0	44	104	0	69	16541
2026-01-09 11:01:15.00	335.81	6.68	-48.8	-62.2	3.8	1.49e+00	0	43	104	0	69	16525
2026-01-09 11:01:17.72	335.96	6.49	-48.6	-62.2	3.8	1.49e+00	0	44	104	0	69	16539
2026-01-09 11:01:21.02	336.15	6.25	-48.7	-62.2	3.8	1.49e+00	0	44	104	0	69	16517
2026-01-09 11:01:23.75	336.30	6.06	-48.7	-62.2	3.8	1.49e+00	0	44	104	0	69	16555
2026-01-09 11:01:27.05	336.48	5.84	-48.6	-62.2	3.8	1.49e+00	0	44	104	0	68	17546
2026-01-09 11:01:29.78	336.62	5.65	-48.7	-62.2	3.8	1.49e+00	0	44	104	0	68	17554
2026-01-09 11:01:33.08	336.80	5.43	-48.7	-62.2	3.8	1.49e+00	0	44	104	0	68	17492
2026-01-09 11:01:35.80	336.94	5.24	-48.9	-62.2	3.8	1.49e+00	0	44	104	0	68	17508
2026-01-09 11:01:39.10	337.11	5.02	-48.5	-62.2	3.8	1.49e+00	0	44	104	0	68	17546

#Closed at: 2026-01-09 11:01:41
#Recorded file [0 MB]: D:/Data/31040_260109_134913.dat