passes_logs/2026/01/09/T1/T1__20260109_041355_FENGYUN_3E_rec.log

#Pass ID: 20260109_041355_FENGYUN 3E
#Satellite: FENGYUN 3E
#Configuration: FENGYUN 3E
#almurnet v.1.7.20251203
#Start time: 2026-01-09 04:13:57

#Version: 2.0.20230620
#Station: T1
#Location: 37.570604 lon 55.790049 lat
#TLE: 1 49008U 21062A   26008.52265380 -.00000112  00000+0 -32190-4 0  9993
#TLE: 2 49008  98.7483  13.7266 0001697 149.3310 210.7966 14.19883994233927

#Time	Az	El	Level	Level2	SNR	BER	BlckErr	Temp	State	Recorded	gain1	gain2
2026-01-09 04:13:57.33	14.60	5.07	-47.2	-59.1	3.8	8.46e-01	0	41	0	0	64	14506
2026-01-09 04:14:01.34	14.56	5.36	-47.3	-59.4	3.8	8.46e-01	0	42	104	0	64	15006
2026-01-09 04:14:05.36	14.52	5.65	-47.2	-59.1	3.8	8.47e-01	0	42	104	0	64	14530
2026-01-09 04:14:09.38	14.47	5.95	-47.1	-58.5	3.8	8.47e-01	0	42	104	0	64	13523
2026-01-09 04:14:13.40	14.43	6.24	-47.1	-57.7	3.8	8.45e-01	0	42	104	0	64	12357
2026-01-09 04:14:17.42	14.38	6.54	-46.9	-56.3	4.2	8.40e-01	0	42	0	0	64	10498
2026-01-09 04:14:21.44	14.33	6.85	-46.9	-56.7	3.9	8.41e-01	0	42	104	0	64	10940
2026-01-09 04:14:25.45	14.28	7.16	-47.2	-59.0	3.8	8.48e-01	0	43	104	0	64	14302
2026-01-09 04:14:29.47	14.23	7.47	-46.8	-55.9	4.2	8.37e-01	0	43	0	0	64	9960
2026-01-09 04:14:33.48	14.18	7.78	-45.6	-50.6	7.8	8.50e-02	0	43	0	15728640	62	6119
2026-01-09 04:14:37.50	14.12	8.10	-44.5	-48.0	10.4	4.35e-03	0	43	0	44040192	59	5349
2026-01-09 04:14:41.51	14.07	8.42	-43.3	-45.9	12.6	2.28e-04	0	43	0	73400320	57	4725
2026-01-09 04:14:45.53	14.01	8.75	-43.4	-46.1	12.5	6.29e-05	0	43	0	101711872	56	5117
2026-01-09 04:14:49.54	13.95	9.08	-43.6	-46.3	12.1	1.60e-03	0	43	0	131072000	58	4694
2026-01-09 04:14:53.56	13.89	9.42	-43.1	-45.4	13.1	3.32e-02	0	43	0	160432128	57	4446
2026-01-09 04:14:57.58	13.83	9.76	-39.7	-41.1	17.4	0.00e+00	0	43	0	188743680	49	4307
2026-01-09 04:15:01.59	13.76	10.10	-39.4	-40.7	17.9	0.00e+00	0	44	0	218103808	48	4355
2026-01-09 04:15:05.52	13.70	10.45	-38.9	-40.1	18.5	0.00e+00	0	44	0	246415360	48	4088
2026-01-09 04:15:09.64	13.62	10.81	-38.6	-39.8	18.6	0.00e+00	0	44	0	275775488	47	4177
2026-01-09 04:15:13.81	13.55	11.18	-38.5	-39.8	18.6	0.00e+00	0	44	0	306184192	47	4155
2026-01-09 04:15:17.82	13.48	11.55	-38.4	-39.6	18.8	0.00e+00	0	44	0	334495744	47	4095
2026-01-09 04:15:21.84	13.40	11.92	-38.1	-39.3	19.1	0.00e+00	0	44	0	363855872	47	3931
2026-01-09 04:15:25.98	13.32	12.31	-37.9	-39.1	19.4	0.00e+00	0	44	0	394264576	46	4059
2026-01-09 04:15:29.99	13.24	12.69	-38.0	-39.1	19.3	0.00e+00	0	43	0	422576128	46	4073
2026-01-09 04:15:34.02	13.16	13.08	-37.7	-38.8	19.6	0.00e+00	0	44	0	451936256	46	3949
2026-01-09 04:15:38.09	13.07	13.48	-37.6	-38.8	19.7	0.00e+00	0	44	0	481296384	45	4147
2026-01-09 04:15:42.25	12.98	13.90	-37.6	-38.8	19.7	0.00e+00	0	44	0	511705088	45	4147
2026-01-09 04:15:46.51	12.88	14.33	-37.6	-38.7	19.7	0.00e+00	0	44	0	542113792	45	4133
2026-01-09 04:15:50.53	12.79	14.75	-37.5	-38.6	19.8	0.00e+00	0	44	0	571473920	45	4091
2026-01-09 04:15:54.57	12.69	15.18	-37.4	-38.4	20.0	0.00e+00	0	44	0	599785472	45	4001
2026-01-09 04:15:58.65	12.59	15.61	-37.2	-38.2	20.2	0.00e+00	0	44	0	630194176	45	3908
2026-01-09 04:16:02.66	12.48	16.05	-37.1	-38.1	20.3	0.00e+00	0	44	0	658505728	44	4096
2026-01-09 04:16:06.67	12.37	16.50	-36.9	-38.0	20.5	0.00e+00	0	44	0	687865856	44	4008
2026-01-09 04:16:10.68	12.26	16.95	-36.4	-37.5	20.8	0.00e+00	0	44	0	716177408	43	4036
2026-01-09 04:16:14.74	12.14	17.42	-36.3	-37.3	20.9	0.00e+00	0	44	0	746586112	43	3956
2026-01-09 04:16:18.76	12.02	17.89	-36.2	-37.3	21.0	0.00e+00	0	44	0	774897664	43	3917
2026-01-09 04:16:22.77	11.90	18.37	-36.2	-37.2	21.0	0.00e+00	0	44	0	804257792	43	3913
2026-01-09 04:16:26.72	11.77	18.86	-36.1	-37.1	21.1	0.00e+00	0	44	0	832569344	42	4089
2026-01-09 04:16:30.86	11.63	19.37	-36.1	-37.1	21.2	0.00e+00	0	44	0	861929472	42	4056
2026-01-09 04:16:34.87	11.49	19.88	-36.1	-37.1	21.3	0.00e+00	0	44	0	891289600	42	4059
2026-01-09 04:16:38.89	11.35	20.41	-35.9	-36.9	21.4	0.00e+00	0	44	0	920649728	42	3979
2026-01-09 04:16:42.86	11.20	20.93	-36.1	-37.0	21.3	0.00e+00	0	44	0	948961280	42	4050
2026-01-09 04:16:46.87	11.05	21.47	-36.1	-37.0	21.3	0.00e+00	0	44	0	978321408	42	4039
2026-01-09 04:16:50.88	10.88	22.03	-36.1	-37.0	21.3	0.00e+00	0	44	0	1006632960	42	4032
2026-01-09 04:16:55.00	10.71	22.61	-36.0	-36.9	21.5	0.00e+00	0	44	0	1037041664	42	3966
2026-01-09 04:16:59.01	10.54	23.19	-35.8	-36.7	21.6	0.00e+00	0	44	0	1065353216	42	3875
2026-01-09 04:17:03.01	10.35	23.78	-35.8	-36.7	21.6	0.00e+00	0	44	0	1094713344	42	3910
2026-01-09 04:17:07.02	10.16	24.39	-35.8	-36.7	21.7	0.00e+00	0	44	0	1124073472	42	3875
2026-01-09 04:17:11.03	9.96	25.01	-35.7	-36.6	21.8	0.00e+00	0	44	0	1152385024	42	3841
2026-01-09 04:17:15.04	9.76	25.64	-35.6	-36.5	21.9	0.00e+00	0	44	0	1181745152	41	4005
2026-01-09 04:17:19.04	9.54	26.29	-35.4	-36.2	22.1	0.00e+00	0	44	0	1210056704	41	3908
2026-01-09 04:17:23.05	9.32	26.96	-35.4	-36.3	22.0	0.00e+00	0	44	0	1239416832	41	3931
2026-01-09 04:17:27.07	9.08	27.64	-35.1	-35.9	22.3	0.00e+00	0	44	0	1267728384	41	3778
2026-01-09 04:17:31.07	8.83	28.33	-35.2	-36.1	22.2	0.00e+00	0	44	0	1297088512	40	4073
2026-01-09 04:17:35.09	8.57	29.05	-35.1	-36.0	22.3	0.00e+00	0	44	0	1326448640	40	4007
2026-01-09 04:17:39.20	8.29	29.80	-34.9	-35.7	22.6	0.00e+00	0	44	0	1355808768	40	3901
2026-01-09 04:17:43.21	8.01	30.56	-34.9	-35.7	22.6	0.00e+00	0	44	0	1384120320	40	3911
2026-01-09 04:17:47.23	7.71	31.33	-34.9	-35.7	22.6	0.00e+00	0	44	0	1413480448	40	3903
2026-01-09 04:17:51.24	7.39	32.12	-35.0	-35.9	22.5	0.00e+00	0	44	0	1442840576	40	3970
2026-01-09 04:17:55.26	7.06	32.94	-35.1	-36.0	22.4	0.00e+00	0	44	0	1471152128	40	4021
2026-01-09 04:17:59.61	6.67	33.84	-35.1	-35.9	22.4	0.00e+00	0	44	0	1502609408	40	4000
2026-01-09 04:18:03.63	6.30	34.70	-35.0	-35.8	22.5	0.00e+00	0	44	0	1531969536	40	3954
2026-01-09 04:18:07.67	5.90	35.59	-34.9	-35.7	22.6	0.00e+00	0	44	0	1561329664	40	3902
2026-01-09 04:18:11.68	5.49	36.50	-35.1	-36.0	22.4	0.00e+00	0	44	0	1590689792	40	4018
2026-01-09 04:18:15.69	5.05	37.42	-35.2	-36.0	22.4	0.00e+00	0	44	0	1619001344	40	4032
2026-01-09 04:18:19.76	4.57	38.39	-35.4	-36.3	22.2	0.00e+00	0	44	0	1648361472	40	4152
2026-01-09 04:18:23.79	4.07	39.38	-35.3	-36.2	22.2	0.00e+00	0	44	0	1677721600	40	4116
2026-01-09 04:18:27.81	3.54	40.38	-35.1	-35.9	22.5	0.00e+00	0	44	0	1706033152	40	3991
2026-01-09 04:18:31.82	2.97	41.41	-35.5	-36.4	22.0	0.00e+00	0	44	0	1735393280	40	4204
2026-01-09 04:18:36.14	2.32	42.55	-35.2	-36.1	22.3	0.00e+00	0	44	0	1766850560	40	4067
2026-01-09 04:18:40.26	1.65	43.67	-35.5	-36.4	22.1	0.00e+00	0	44	0	1796210688	40	4194
2026-01-09 04:18:44.30	0.94	44.79	-35.5	-36.4	22.1	0.00e+00	0	44	0	1825570816	40	4203
2026-01-09 04:18:48.32	0.19	45.94	-35.9	-36.8	21.7	0.00e+00	0	44	0	1854930944	41	4191
2026-01-09 04:18:52.38	359.36	47.12	-36.2	-37.1	21.3	0.00e+00	0	44	0	1884291072	42	4078
2026-01-09 04:18:56.39	358.49	48.32	-36.1	-36.9	21.5	0.00e+00	0	44	0	1912602624	42	4002
2026-01-09 04:19:00.55	357.50	49.58	-36.5	-37.4	21.0	0.00e+00	0	44	0	1943011328	43	3993
2026-01-09 04:19:04.83	356.39	50.92	-36.3	-37.2	21.2	0.00e+00	0	44	0	1974468608	43	3881
2026-01-09 04:19:08.84	355.26	52.19	-36.7	-37.6	20.9	0.00e+00	0	44	0	2002780160	43	4090
2026-01-09 04:19:12.85	354.02	53.48	-36.4	-37.3	21.2	0.00e+00	0	44	0	2032140288	43	3932
2026-01-09 04:19:16.86	352.67	54.79	-37.1	-38.1	20.7	0.00e+00	0	44	0	2060451840	44	4052
2026-01-09 04:19:21.00	351.13	56.16	-36.3	-37.2	21.4	0.00e+00	0	44	0	2090860544	42	4126
2026-01-09 04:19:25.02	349.49	57.50	-36.8	-37.7	20.9	0.00e+00	0	44	0	2120220672	43	4145
2026-01-09 04:19:29.03	347.67	58.85	-36.9	-37.8	20.9	0.00e+00	0	44	0	2148532224	44	3945
2026-01-09 04:19:33.04	345.66	60.19	-36.4	-37.4	21.2	0.00e+00	0	44	0	2177892352	43	3967
2026-01-09 04:19:37.04	343.43	61.53	-36.3	-37.3	21.3	0.00e+00	0	44	0	2206203904	42	4146
2026-01-09 04:19:41.04	340.94	62.85	-35.9	-36.8	21.7	0.00e+00	0	44	0	2235564032	42	3929
2026-01-09 04:19:45.43	337.88	64.27	-35.7	-36.5	22.0	0.00e+00	0	44	0	2267021312	41	4043
2026-01-09 04:19:49.92	334.34	65.67	-35.1	-36.0	22.5	0.00e+00	0	44	0	2299527168	40	4014
2026-01-09 04:19:54.33	330.40	66.98	-35.2	-36.1	22.4	0.00e+00	0	44	0	2330984448	40	4059
2026-01-09 04:19:58.65	326.05	68.16	-35.4	-36.2	22.2	0.00e+00	0	44	0	2362441728	40	4139
2026-01-09 04:20:02.59	321.64	69.15	-35.3	-36.1	22.2	0.00e+00	0	44	0	2390753280	41	3862
2026-01-09 04:20:06.74	316.51	70.05	-35.7	-36.6	22.0	0.00e+00	0	44	0	2421161984	41	4058
2026-01-09 04:20:10.67	311.21	70.77	-34.8	-35.7	22.7	0.00e+00	0	43	0	2449473536	40	3873
2026-01-09 04:20:14.67	305.42	71.33	-35.7	-36.5	21.9	0.00e+00	0	44	0	2477785088	40	4291
2026-01-09 04:20:18.69	299.28	71.70	-35.3	-36.1	22.3	0.00e+00	0	44	0	2507145216	40	4090
2026-01-09 04:20:22.70	292.96	71.87	-35.0	-35.8	22.5	0.00e+00	0	44	0	2535456768	40	3958
2026-01-09 04:20:27.10	285.98	71.81	-35.6	-36.5	22.0	0.00e+00	0	44	0	2567962624	40	4251
2026-01-09 04:20:31.11	279.74	71.53	-35.7	-36.6	21.9	0.00e+00	0	44	0	2596274176	40	4321
2026-01-09 04:20:35.17	273.69	71.05	-35.7	-36.5	21.9	0.00e+00	0	44	0	2626682880	41	4035
2026-01-09 04:20:39.22	268.04	70.39	-35.2	-36.1	22.4	0.00e+00	0	44	0	2654994432	41	3837
2026-01-09 04:20:43.23	262.87	69.58	-35.5	-36.4	22.1	0.00e+00	0	43	0	2684354560	40	4223
2026-01-09 04:20:47.26	258.13	68.62	-35.4	-36.3	22.2	0.00e+00	0	44	0	2712666112	41	3933
2026-01-09 04:20:51.27	253.88	67.56	-35.4	-36.3	22.0	0.00e+00	0	44	0	2742026240	41	3931
2026-01-09 04:20:55.27	250.07	66.42	-35.2	-36.0	22.4	0.00e+00	0	44	0	2771386368	41	3823
2026-01-09 04:20:59.28	246.65	65.20	-35.4	-36.2	22.2	0.00e+00	0	44	0	2799697920	41	3904
2026-01-09 04:21:03.35	243.54	63.91	-35.8	-36.7	21.8	0.00e+00	0	44	0	2829058048	41	4107
2026-01-09 04:21:07.51	240.71	62.56	-36.1	-37.0	21.5	0.00e+00	0	44	0	2859466752	41	4265
2026-01-09 04:21:11.52	238.28	61.23	-36.1	-37.0	21.5	0.00e+00	0	44	0	2888826880	41	4262
2026-01-09 04:21:15.63	236.03	59.85	-36.5	-37.4	21.1	0.00e+00	0	44	0	2918187008	42	4232
2026-01-09 04:21:19.64	234.07	58.50	-37.3	-38.2	20.5	0.00e+00	0	44	0	2947547136	44	4140
2026-01-09 04:21:23.66	232.29	57.15	-36.2	-37.0	21.5	0.00e+00	0	44	0	2975858688	43	3816
2026-01-09 04:21:27.75	230.65	55.78	-36.7	-37.6	20.9	0.00e+00	0	43	0	3005218816	43	4088
2026-01-09 04:21:32.27	229.02	54.28	-36.6	-37.5	21.0	0.00e+00	0	44	0	3038773248	43	4016
2026-01-09 04:21:36.28	227.70	52.97	-36.2	-37.1	21.3	0.00e+00	0	44	0	3067084800	43	3841
2026-01-09 04:21:40.60	226.42	51.58	-36.5	-37.4	21.0	0.00e+00	0	44	0	3098542080	42	4235
2026-01-09 04:21:44.61	225.32	50.32	-35.8	-36.6	21.8	0.00e+00	0	44	0	3126853632	42	3864
2026-01-09 04:21:48.62	224.32	49.07	-36.5	-37.4	21.1	0.00e+00	0	44	0	3156213760	42	4212
2026-01-09 04:21:52.64	223.39	47.85	-36.2	-37.2	21.4	0.00e+00	0	44	0	3185573888	42	4101
2026-01-09 04:21:56.57	222.55	46.69	-35.7	-36.6	21.9	0.00e+00	0	44	0	3213885440	42	3845
2026-01-09 04:22:00.58	221.75	45.52	-36.1	-37.0	21.5	0.00e+00	0	43	0	3242196992	41	4262
2026-01-09 04:22:04.75	220.98	44.34	-35.3	-36.2	22.2	0.00e+00	0	43	0	3272605696	41	3895
2026-01-09 04:22:08.96	220.27	43.17	-35.4	-36.2	22.2	0.00e+00	0	44	0	3303014400	41	3912
2026-01-09 04:22:12.97	219.63	42.09	-35.2	-36.0	22.2	0.00e+00	0	44	0	3332374528	41	3821
2026-01-09 04:22:16.98	219.03	41.04	-35.3	-36.2	22.2	0.00e+00	0	44	0	3360686080	41	3873
2026-01-09 04:22:21.00	218.47	40.01	-35.2	-36.1	22.3	0.00e+00	0	44	0	3390046208	41	3829
2026-01-09 04:22:25.01	217.95	39.00	-35.2	-36.1	22.3	0.00e+00	0	43	0	3418357760	41	3844
2026-01-09 04:22:29.02	217.46	38.03	-35.4	-36.3	22.0	0.00e+00	0	44	0	3447717888	41	3938
2026-01-09 04:22:33.30	216.96	37.02	-35.3	-36.2	21.9	0.00e+00	0	43	0	3479175168	41	3891
2026-01-09 04:22:37.62	216.49	36.02	-35.0	-35.9	22.5	0.00e+00	0	44	0	3509583872	40	3973
2026-01-09 04:22:41.96	216.05	35.05	-35.1	-36.0	22.3	0.00e+00	0	43	0	3541041152	40	4034
2026-01-09 04:22:46.28	215.64	34.11	-35.1	-36.0	22.3	0.00e+00	0	44	0	3572498432	40	4038
2026-01-09 04:22:50.57	215.25	33.20	-35.0	-35.8	22.4	0.00e+00	0	43	0	3602907136	40	3950
2026-01-09 04:22:54.58	214.91	32.38	-34.9	-35.7	22.6	0.00e+00	0	44	0	3632267264	40	3911
2026-01-09 04:22:58.59	214.58	31.57	-34.7	-35.6	22.7	0.00e+00	0	43	0	3661627392	40	3837
2026-01-09 04:23:02.61	214.27	30.78	-34.6	-35.5	22.7	0.00e+00	0	44	0	3689938944	40	3781
2026-01-09 04:23:06.62	213.98	30.02	-34.7	-35.5	22.7	0.00e+00	0	44	0	3719299072	40	3813
2026-01-09 04:23:10.75	213.69	29.25	-34.7	-35.6	22.6	0.00e+00	0	44	0	3748659200	40	3835
2026-01-09 04:23:14.76	213.42	28.53	-34.9	-35.7	22.5	0.00e+00	0	43	0	3778019328	40	3894
2026-01-09 04:23:19.06	213.15	27.77	-35.0	-35.9	22.4	0.00e+00	0	43	0	3808428032	40	3979
2026-01-09 04:23:23.16	212.90	27.06	-35.3	-36.2	22.1	0.00e+00	0	43	0	3838836736	40	4102
2026-01-09 04:23:27.69	212.64	26.30	-35.4	-36.3	22.0	0.00e+00	0	44	0	3871342592	40	4162
2026-01-09 04:23:31.70	212.42	25.65	-35.2	-36.1	22.1	0.00e+00	0	43	0	3900702720	40	4067
2026-01-09 04:23:35.85	212.20	24.98	-35.2	-36.0	22.1	0.00e+00	0	44	0	3930062848	40	4040
2026-01-09 04:23:40.17	211.98	24.31	-35.3	-36.2	22.1	0.00e+00	0	43	0	3961520128	40	4104
2026-01-09 04:23:44.82	211.75	23.60	-35.5	-36.4	21.9	0.00e+00	0	43	0	3995074560	40	4211
2026-01-09 04:23:49.17	211.55	22.96	-35.4	-36.3	22.0	0.00e+00	0	43	0	4026531840	40	4168
2026-01-09 04:23:53.55	211.36	22.33	-35.5	-36.3	22.0	0.00e+00	0	43	0	4057989120	40	4183
2026-01-09 04:23:57.79	211.18	21.73	-35.5	-36.3	21.9	0.00e+00	0	43	0	4088397824	40	4186
2026-01-09 04:24:01.80	211.02	21.18	-35.6	-36.4	21.8	0.00e+00	0	43	0	4117757952	40	4236
2026-01-09 04:24:05.82	210.86	20.63	-35.7	-36.6	21.7	0.00e+00	0	43	0	4147118080	41	4079
2026-01-09 04:24:09.84	210.71	20.10	-36.0	-36.9	21.4	0.00e+00	0	43	0	4175429632	41	4208
2026-01-09 04:24:13.85	210.56	19.58	-36.4	-37.3	21.0	0.00e+00	0	43	0	4204789760	42	4161
2026-01-09 04:24:18.17	210.41	19.03	-36.5	-37.5	20.9	0.00e+00	0	43	0	4236247040	42	4247
2026-01-09 04:24:22.67	210.26	18.48	-36.7	-37.7	20.6	0.00e+00	0	43	0	4268752896	43	4113
2026-01-09 04:24:27.03	210.12	17.95	-36.7	-37.7	20.6	0.00e+00	0	43	0	4300210176	43	4119
2026-01-09 04:24:31.57	209.98	17.41	-36.8	-37.8	20.5	0.00e+00	0	43	0	4332716032	43	4161
2026-01-09 04:24:35.88	209.85	16.91	-36.7	-37.6	20.7	0.00e+00	0	43	0	4364173312	43	4075
2026-01-09 04:24:40.23	209.72	16.41	-36.7	-37.6	20.6	0.00e+00	0	44	0	4394582016	43	4097
2026-01-09 04:24:44.38	209.61	15.94	-36.8	-37.8	20.5	0.00e+00	0	43	0	4424990720	43	4161
2026-01-09 04:24:48.40	209.50	15.50	-36.9	-37.9	20.4	0.00e+00	0	43	0	4454350848	43	4224
2026-01-09 04:24:52.41	209.39	15.07	-37.0	-38.0	20.3	0.00e+00	0	43	0	4482662400	43	4257
2026-01-09 04:24:56.43	209.29	14.64	-37.2	-38.2	20.1	0.00e+00	0	43	0	4512022528	43	4342
2026-01-09 04:25:00.44	209.19	14.23	-37.5	-38.5	19.9	0.00e+00	0	43	0	4541382656	44	4265
2026-01-09 04:25:04.42	209.10	13.82	-37.8	-38.9	19.6	0.00e+00	0	43	0	4569694208	45	4201
2026-01-09 04:25:08.47	209.00	13.41	-37.9	-38.9	19.4	0.00e+00	0	43	0	4599054336	45	4235
2026-01-09 04:25:12.61	208.91	13.00	-38.1	-39.1	19.3	0.00e+00	0	43	0	4628414464	45	4324
2026-01-09 04:25:16.64	208.82	12.61	-38.1	-39.2	19.2	0.00e+00	0	43	0	4657774592	45	4357
2026-01-09 04:25:20.61	208.74	12.22	-38.2	-39.3	19.0	0.00e+00	0	43	0	4686086144	46	4163
2026-01-09 04:25:24.70	208.66	11.84	-38.3	-39.4	19.0	0.00e+00	0	43	0	4715446272	46	4198
2026-01-09 04:25:28.71	208.58	11.46	-38.3	-39.4	19.0	0.00e+00	0	43	0	4744806400	46	4208
2026-01-09 04:25:32.72	208.50	11.10	-38.4	-39.5	18.9	0.00e+00	0	43	0	4774166528	46	4247
2026-01-09 04:25:36.73	208.42	10.73	-38.5	-39.6	18.7	0.00e+00	0	43	0	4802478080	46	4305
2026-01-09 04:25:40.74	208.35	10.38	-38.7	-39.8	18.5	0.00e+00	0	43	0	4831838208	46	4426
2026-01-09 04:25:44.75	208.28	10.03	-38.6	-39.7	18.6	0.00e+00	0	43	0	4861198336	46	4362
2026-01-09 04:25:48.92	208.21	9.66	-38.7	-39.9	18.4	0.00e+00	0	43	0	4890558464	47	4203
2026-01-09 04:25:52.94	208.14	9.32	-38.8	-40.0	18.2	0.00e+00	0	43	0	4919918592	47	4253
2026-01-09 04:25:56.97	208.07	8.98	-48.1	-58.6	3.8	2.93e-01	0	43	0	4948230144	65	12951
2026-01-09 04:26:00.99	208.01	8.65	-49.2	-60.1	3.8	8.47e-01	0	43	104	4948230144	67	13577
2026-01-09 04:26:05.01	207.95	8.32	-49.6	-60.4	3.8	8.47e-01	0	43	104	4948230144	68	13342
2026-01-09 04:26:09.33	207.88	7.97	-49.6	-60.4	3.8	8.46e-01	0	43	104	4948230144	68	13347
2026-01-09 04:26:13.56	207.82	7.63	-49.7	-60.4	3.8	8.46e-01	0	43	104	4948230144	68	13383
2026-01-09 04:26:17.57	207.76	7.32	-49.3	-60.3	3.8	8.46e-01	0	43	104	4948230144	68	13254
2026-01-09 04:26:21.59	207.70	7.00	-49.3	-60.3	3.8	8.48e-01	0	43	104	4948230144	68	13211
2026-01-09 04:26:25.61	207.65	6.69	-49.3	-60.3	3.8	8.47e-01	0	43	104	4948230144	68	13251
2026-01-09 04:26:29.63	207.60	6.39	-49.3	-60.3	3.8	8.47e-01	0	43	104	4948230144	68	13228
2026-01-09 04:26:33.65	207.54	6.09	-49.2	-60.3	3.8	8.48e-01	0	43	104	4948230144	68	13206
2026-01-09 04:26:37.66	207.49	5.79	-49.3	-60.3	3.8	8.47e-01	0	43	104	4948230144	68	13170
2026-01-09 04:26:41.68	207.44	5.49	-49.2	-60.3	3.8	8.48e-01	0	43	104	4948230144	68	13168
2026-01-09 04:26:45.70	207.40	5.20	-49.2	-60.3	3.8	8.46e-01	0	43	104	4948230144	68	13122

#Closed at: 2026-01-09 04:26:49
#Recorded file [4948 MB]: D:/Data/31040_260109_071357.dat