passes_logs/2026/01/09/T1/T1__20260109_140421_FENGYUN_3E_rec.log

#Pass ID: 20260109_140421_FENGYUN 3E
#Satellite: FENGYUN 3E
#Configuration: FENGYUN 3E
#almurnet v.1.7.20251203
#Start time: 2026-01-09 14:04:21

#Version: 2.0.20230620
#Station: T1
#Location: 37.570604 lon 55.790049 lat
#TLE: 1 49008U 21062A   26008.59312205 -.00000223  00000+0 -84486-4 0  9997
#TLE: 2 49008  98.7483  13.7961 0001692 149.3118 210.8157 14.19883502233939

#Time	Az	El	Level	Level2	SNR	BER	BlckErr	Temp	State	Recorded	gain1	gain2
2026-01-09 14:04:21.49	156.04	5.00	-48.8	-59.6	3.8	8.47e-01	0	39	0	0	67	12814
2026-01-09 14:04:25.50	156.01	5.29	-48.8	-58.9	3.8	8.47e-01	0	39	104	0	68	11246
2026-01-09 14:04:29.51	155.99	5.58	-48.9	-59.5	3.8	8.47e-01	0	39	104	0	68	12049
2026-01-09 14:04:33.53	155.96	5.87	-48.9	-59.6	3.8	8.47e-01	0	40	104	0	68	12182
2026-01-09 14:04:37.55	155.94	6.17	-48.8	-58.7	3.8	8.46e-01	0	40	104	0	68	10991
2026-01-09 14:04:41.57	155.91	6.48	-48.6	-57.7	3.9	8.47e-01	0	40	104	0	68	9731
2026-01-09 14:04:45.58	155.88	6.78	-48.1	-55.4	4.4	8.29e-01	0	40	0	0	66	8399
2026-01-09 14:04:49.60	155.86	7.09	-47.0	-52.1	6.4	2.87e-01	0	40	0	8388608	64	6426
2026-01-09 14:04:53.62	155.83	7.41	-45.4	-48.8	9.6	1.50e-02	0	40	0	37748736	61	5267
2026-01-09 14:04:57.64	155.80	7.73	-43.3	-45.7	12.7	1.11e-04	0	41	0	66060288	57	4635
2026-01-09 14:05:01.65	155.77	8.05	-41.7	-43.7	14.7	1.10e-06	0	41	0	95420416	54	4347
2026-01-09 14:05:05.67	155.74	8.38	-41.9	-43.9	14.4	0.00e+00	0	41	0	124780544	53	4746
2026-01-09 14:05:09.69	155.70	8.71	-44.4	-47.2	11.3	5.49e-04	0	41	0	153092096	58	5165
2026-01-09 14:05:13.70	155.67	9.04	-47.9	-54.6	4.8	7.36e-01	0	41	0	179306496	65	8106
2026-01-09 14:05:17.72	155.64	9.38	-46.8	-51.3	7.0	8.44e-01	0	41	104	192937984	64	5914
2026-01-09 14:05:21.73	155.60	9.73	-40.3	-42.1	16.4	0.00e+00	0	41	0	220200960	51	4298
2026-01-09 14:05:25.73	155.56	10.07	-39.0	-40.6	17.8	0.00e+00	0	41	0	248512512	48	4301
2026-01-09 14:05:29.74	155.53	10.43	-38.3	-39.9	18.3	0.00e+00	0	41	0	277872640	47	4204
2026-01-09 14:05:33.76	155.49	10.79	-38.2	-39.8	18.3	0.00e+00	0	42	0	307232768	47	4178
2026-01-09 14:05:37.85	155.45	11.16	-38.2	-39.8	18.3	0.00e+00	0	41	0	336592896	46	4423
2026-01-09 14:05:41.99	155.40	11.54	-38.1	-39.7	18.4	0.00e+00	0	42	0	367001600	46	4375
2026-01-09 14:05:46.00	155.36	11.91	-38.1	-39.7	18.4	0.00e+00	0	41	0	395313152	46	4366
2026-01-09 14:05:50.01	155.32	12.30	-38.2	-39.7	18.4	0.00e+00	0	42	0	424673280	46	4389
2026-01-09 14:05:54.17	155.27	12.70	-38.0	-39.5	18.6	0.00e+00	0	42	0	454033408	46	4285
2026-01-09 14:05:58.36	155.22	13.11	-37.9	-39.5	18.7	0.00e+00	0	42	0	484442112	46	4243
2026-01-09 14:06:02.49	155.17	13.52	-37.7	-39.3	18.9	0.00e+00	0	41	0	513802240	46	4147
2026-01-09 14:06:06.50	155.12	13.93	-37.6	-39.1	19.0	0.00e+00	0	42	0	543162368	46	4087
2026-01-09 14:06:10.59	155.07	14.35	-37.7	-39.2	18.9	0.00e+00	0	42	0	573571072	45	4389
2026-01-09 14:06:14.61	155.01	14.78	-37.6	-39.1	19.1	0.00e+00	0	42	0	601882624	45	4325
2026-01-09 14:06:18.62	154.96	15.21	-37.8	-39.4	18.8	0.00e+00	0	42	0	631242752	45	4467
2026-01-09 14:06:23.13	154.89	15.70	-37.5	-39.0	19.2	0.00e+00	0	42	0	663748608	45	4257
2026-01-09 14:06:27.15	154.83	16.14	-37.4	-38.9	19.3	0.00e+00	0	42	0	693108736	45	4195
2026-01-09 14:06:31.37	154.77	16.62	-37.3	-38.8	19.4	0.00e+00	0	42	0	722468864	45	4174
2026-01-09 14:06:35.70	154.70	17.12	-37.0	-38.5	19.8	0.00e+00	0	42	0	753926144	44	4244
2026-01-09 14:06:39.75	154.63	17.60	-36.8	-38.2	20.0	0.00e+00	0	42	0	783286272	44	4104
2026-01-09 14:06:43.74	154.56	18.08	-36.4	-37.7	20.3	0.00e+00	0	42	0	812646400	43	4123
2026-01-09 14:06:47.75	154.49	18.57	-36.2	-37.5	20.4	0.00e+00	0	42	0	840957952	43	4051
2026-01-09 14:06:51.76	154.41	19.07	-36.2	-37.5	19.7	0.00e+00	0	42	0	870318080	43	4049
2026-01-09 14:06:55.79	154.33	19.59	-36.1	-37.4	20.5	0.00e+00	0	42	0	899678208	43	3987
2026-01-09 14:06:59.80	154.25	20.11	-36.0	-37.4	20.6	0.00e+00	0	42	0	927989760	42	4195
2026-01-09 14:07:03.82	154.17	20.65	-36.1	-37.4	20.5	0.00e+00	0	42	0	957349888	42	4232
2026-01-09 14:07:07.91	154.08	21.20	-36.2	-37.6	20.4	0.00e+00	0	42	0	986710016	42	4307
2026-01-09 14:07:11.98	153.98	21.77	-36.1	-37.5	20.4	0.00e+00	0	42	0	1016070144	42	4273
2026-01-09 14:07:16.00	153.89	22.34	-35.9	-37.3	20.6	0.00e+00	0	42	0	1045430272	42	4158
2026-01-09 14:07:20.24	153.78	22.96	-36.0	-37.4	20.5	0.00e+00	0	42	0	1075838976	42	4199
2026-01-09 14:07:24.80	153.66	23.64	-35.8	-37.2	20.6	0.00e+00	0	42	0	1108344832	42	4138
2026-01-09 14:07:29.32	153.54	24.33	-35.8	-37.2	20.7	0.00e+00	0	42	0	1140850688	42	4134
2026-01-09 14:07:33.61	153.42	25.01	-35.6	-37.0	20.8	0.00e+00	0	42	0	1172307968	41	4253
2026-01-09 14:07:38.13	153.28	25.74	-35.4	-36.8	21.1	0.00e+00	0	42	0	1204813824	41	4150
2026-01-09 14:07:42.18	153.15	26.41	-35.3	-36.7	21.2	0.00e+00	0	42	0	1234173952	41	4121
2026-01-09 14:07:46.26	153.02	27.10	-35.1	-36.5	21.3	0.00e+00	0	42	0	1263534080	41	4050
2026-01-09 14:07:50.32	152.88	27.81	-35.2	-36.6	21.2	0.00e+00	0	42	0	1292894208	41	4084
2026-01-09 14:07:54.33	152.73	28.52	-35.2	-36.6	21.2	0.00e+00	0	42	0	1321205760	41	4077
2026-01-09 14:07:58.35	152.58	29.26	-34.9	-36.2	21.6	0.00e+00	0	42	0	1350565888	40	4134
2026-01-09 14:08:02.45	152.41	30.03	-34.8	-36.1	21.7	0.00e+00	0	42	0	1380974592	40	4067
2026-01-09 14:08:06.47	152.24	30.81	-34.9	-36.2	21.6	0.00e+00	0	42	0	1409286144	40	4130
2026-01-09 14:08:10.48	152.06	31.61	-35.1	-36.4	21.5	0.00e+00	0	42	0	1438646272	40	4201
2026-01-09 14:08:14.76	151.86	32.48	-35.0	-36.4	21.5	0.00e+00	0	42	0	1469054976	40	4195
2026-01-09 14:08:19.00	151.65	33.37	-35.1	-36.4	21.4	0.00e+00	0	42	0	1500512256	40	4236
2026-01-09 14:08:23.01	151.44	34.24	-35.0	-36.3	21.5	0.00e+00	0	42	0	1528823808	40	4183
2026-01-09 14:08:27.02	151.22	35.13	-35.0	-36.3	21.5	0.00e+00	0	42	0	1558183936	40	4182
2026-01-09 14:08:31.10	150.97	36.07	-35.2	-36.6	21.3	0.00e+00	0	42	0	1587544064	40	4313
2026-01-09 14:08:35.05	150.73	37.00	-35.3	-36.7	21.2	0.00e+00	0	42	0	1615855616	40	4381
2026-01-09 14:08:39.06	150.46	37.97	-35.5	-37.0	21.1	0.00e+00	0	42	0	1645215744	40	4497
2026-01-09 14:08:43.08	150.17	38.97	-35.4	-36.7	21.2	0.00e+00	0	42	0	1673527296	40	4387
2026-01-09 14:08:47.09	149.87	40.00	-35.4	-36.7	21.3	0.00e+00	0	42	0	1702887424	40	4383
2026-01-09 14:08:51.18	149.54	41.08	-35.5	-36.8	21.2	0.00e+00	0	42	0	1732247552	40	4435
2026-01-09 14:08:55.11	149.19	42.14	-35.6	-36.5	22.1	0.00e+00	0	42	0	1760559104	41	4007
2026-01-09 14:08:59.12	148.82	43.26	-35.6	-36.5	22.1	0.00e+00	0	42	0	1789919232	41	4010
2026-01-09 14:09:03.17	148.41	44.43	-36.5	-37.4	21.3	0.00e+00	0	42	0	1818230784	42	4223
2026-01-09 14:09:07.34	147.96	45.66	-36.7	-37.6	21.1	0.00e+00	0	42	0	1848639488	43	4065
2026-01-09 14:09:11.46	147.48	46.91	-36.0	-36.9	21.8	0.00e+00	0	42	0	1879048192	42	3975
2026-01-09 14:09:15.48	146.96	48.17	-36.7	-37.6	21.1	0.00e+00	0	43	0	1907359744	42	4322
2026-01-09 14:09:19.77	146.37	49.55	-37.6	-38.5	20.4	0.00e+00	0	43	0	1938817024	44	4281
2026-01-09 14:09:23.84	145.75	50.90	-37.3	-38.2	20.7	0.00e+00	0	42	0	1968177152	44	4129
2026-01-09 14:09:27.85	145.08	52.26	-37.1	-38.0	20.9	0.00e+00	0	42	0	1997537280	44	4045
2026-01-09 14:09:31.86	144.34	53.66	-37.4	-38.3	20.6	0.00e+00	0	42	0	2025848832	44	4170
2026-01-09 14:09:35.98	143.50	55.13	-37.2	-38.2	20.7	0.00e+00	0	42	0	2055208960	45	3878
2026-01-09 14:09:39.99	142.60	56.60	-37.5	-38.5	20.4	0.00e+00	0	43	0	2084569088	45	4013
2026-01-09 14:09:44.03	141.58	58.10	-37.3	-38.2	20.7	0.00e+00	0	42	0	2113929216	44	4126
2026-01-09 14:09:48.14	140.42	59.67	-37.3	-38.3	20.6	0.00e+00	0	43	0	2143289344	44	4169
2026-01-09 14:09:52.14	139.14	61.22	-36.8	-37.8	21.1	0.00e+00	0	43	0	2172649472	44	3928
2026-01-09 14:09:56.20	137.67	62.81	-36.6	-37.5	21.3	0.00e+00	0	43	0	2202009600	44	3795
2026-01-09 14:10:00.34	135.95	64.46	-36.3	-37.3	21.5	0.00e+00	0	43	0	2231369728	42	4148
2026-01-09 14:10:04.38	134.01	66.07	-35.7	-36.6	22.0	0.00e+00	0	42	0	2260729856	41	4072
2026-01-09 14:10:08.39	131.78	67.68	-35.3	-36.1	22.4	0.00e+00	0	43	0	2290089984	41	3849
2026-01-09 14:10:12.40	129.16	69.28	-35.9	-36.7	21.8	0.00e+00	0	42	0	2318401536	41	4144
2026-01-09 14:10:16.42	126.07	70.87	-36.1	-37.0	21.7	0.00e+00	0	43	0	2347761664	42	4017
2026-01-09 14:10:20.43	122.39	72.41	-35.7	-36.6	22.1	0.00e+00	0	43	0	2376073216	42	3828
2026-01-09 14:10:24.44	117.98	73.89	-35.1	-36.0	22.5	0.00e+00	0	43	0	2405433344	40	4013
2026-01-09 14:10:28.77	112.19	75.38	-35.1	-36.0	22.6	0.00e+00	0	43	0	2436890624	40	4011
2026-01-09 14:10:32.78	105.69	76.62	-34.9	-35.8	22.8	0.00e+00	0	43	0	2465202176	40	3929
2026-01-09 14:10:36.79	97.94	77.66	-34.2	-35.0	23.5	0.00e+00	0	43	0	2494562304	39	3808
2026-01-09 14:10:40.84	88.82	78.46	-34.1	-35.0	23.5	0.00e+00	0	43	0	2523922432	39	3789
2026-01-09 14:10:44.85	78.71	78.93	-34.7	-35.6	23.0	0.00e+00	0	43	0	2553282560	39	4062
2026-01-09 14:10:48.86	68.05	79.04	-34.0	-34.8	23.6	0.00e+00	0	43	0	2581594112	38	3953
2026-01-09 14:10:52.88	57.51	78.78	-34.3	-35.2	23.3	0.00e+00	0	43	0	2610954240	38	4105
2026-01-09 14:10:56.89	47.80	78.17	-34.3	-35.2	23.3	0.00e+00	0	43	0	2639265792	38	4105
2026-01-09 14:11:00.90	39.28	77.27	-34.8	-35.7	22.9	0.00e+00	0	43	0	2668625920	39	4122
2026-01-09 14:11:04.91	32.05	76.14	-34.7	-35.6	23.0	0.00e+00	0	42	0	2697986048	39	4067
2026-01-09 14:11:08.93	26.00	74.84	-35.4	-36.2	22.3	0.00e+00	0	42	0	2726297600	40	4138
2026-01-09 14:11:13.14	20.78	73.35	-35.5	-36.4	22.2	0.00e+00	0	42	0	2756706304	40	4199
2026-01-09 14:11:17.20	16.61	71.83	-35.9	-36.8	21.9	0.00e+00	0	43	0	2786066432	41	4168
2026-01-09 14:11:21.22	13.17	70.27	-35.6	-36.4	22.2	0.00e+00	0	43	0	2815426560	41	4000
2026-01-09 14:11:25.25	10.27	68.67	-35.8	-36.7	22.0	0.00e+00	0	43	0	2844786688	41	4108
2026-01-09 14:11:29.58	7.63	66.94	-35.3	-36.1	22.4	0.00e+00	0	43	0	2875195392	41	3858
2026-01-09 14:11:33.99	5.36	65.18	-35.9	-36.8	21.8	0.00e+00	0	43	0	2907701248	41	4169
2026-01-09 14:11:38.00	3.59	63.58	-36.6	-37.5	21.1	0.00e+00	0	43	0	2936012800	42	4257
2026-01-09 14:11:42.37	1.92	61.86	-37.0	-37.9	20.8	0.00e+00	0	43	0	2967470080	43	4214
2026-01-09 14:11:46.89	0.42	60.11	-37.0	-37.9	20.8	0.00e+00	0	43	0	3001024512	43	4231
2026-01-09 14:11:51.21	359.16	58.46	-37.5	-38.5	20.4	0.00e+00	0	43	0	3031433216	44	4267
2026-01-09 14:11:55.53	358.05	56.85	-37.6	-38.6	20.4	0.00e+00	0	43	0	3062890496	44	4294
2026-01-09 14:12:00.22	356.99	55.14	-37.4	-38.3	20.6	0.00e+00	0	42	0	3096444928	44	4186
2026-01-09 14:12:04.57	356.11	53.59	-36.9	-37.8	21.0	0.00e+00	0	43	0	3127902208	44	3956
2026-01-09 14:12:08.94	355.32	52.08	-37.2	-38.2	20.7	0.00e+00	0	43	0	3160408064	44	4103
2026-01-09 14:12:13.46	354.58	50.56	-37.1	-38.0	20.9	0.00e+00	0	43	0	3192913920	44	4019
2026-01-09 14:12:17.47	353.99	49.25	-36.8	-37.7	21.1	0.00e+00	0	43	0	3221225472	44	3908
2026-01-09 14:12:21.67	353.42	47.91	-36.9	-37.8	21.1	0.00e+00	0	43	0	3251634176	44	3948
2026-01-09 14:12:25.75	352.91	46.64	-36.2	-37.1	21.6	0.00e+00	0	43	0	3280994304	42	4057
2026-01-09 14:12:29.76	352.45	45.44	-35.8	-36.7	21.9	0.00e+00	0	43	0	3310354432	42	3881
2026-01-09 14:12:33.78	352.02	44.26	-35.8	-36.7	21.9	0.00e+00	0	43	0	3338665984	42	3888
2026-01-09 14:12:37.79	351.63	43.12	-35.2	-36.1	22.4	0.00e+00	0	43	0	3368026112	41	3841
2026-01-09 14:12:41.80	351.26	42.01	-35.6	-36.5	22.1	0.00e+00	0	43	0	3397386240	41	4011
2026-01-09 14:12:45.81	350.92	40.93	-36.0	-36.8	21.7	0.00e+00	0	43	0	3425697792	41	4188
2026-01-09 14:12:49.83	350.60	39.88	-36.2	-37.1	21.6	0.00e+00	0	43	0	3455057920	41	4294
2026-01-09 14:12:53.84	350.30	38.86	-36.0	-36.9	21.7	0.00e+00	0	43	0	3484418048	41	4237
2026-01-09 14:12:58.05	350.01	37.82	-35.8	-36.8	21.8	0.00e+00	0	43	0	3514826752	41	4148
2026-01-09 14:13:02.28	349.73	36.81	-35.7	-36.6	21.8	0.00e+00	0	43	0	3544186880	41	4094
2026-01-09 14:13:06.30	349.48	35.88	-35.6	-36.5	22.0	0.00e+00	0	43	0	3573547008	41	4008
2026-01-09 14:13:10.68	349.23	34.89	-35.1	-35.9	22.6	0.00e+00	0	43	0	3605004288	40	3985
2026-01-09 14:13:14.71	349.01	34.00	-35.1	-36.0	22.5	0.00e+00	0	43	0	3634364416	40	4008
2026-01-09 14:13:18.72	348.81	33.15	-35.2	-36.0	22.5	0.00e+00	0	43	0	3663724544	40	4043
2026-01-09 14:13:22.78	348.61	32.31	-35.3	-36.2	22.3	0.00e+00	0	43	0	3693084672	40	4125
2026-01-09 14:13:26.99	348.42	31.46	-35.6	-36.5	21.8	0.00e+00	0	43	0	3723493376	40	4270
2026-01-09 14:13:31.00	348.25	30.67	-35.6	-36.5	21.9	0.00e+00	0	43	0	3751804928	40	4279
2026-01-09 14:13:35.01	348.08	29.90	-35.7	-36.6	21.9	0.00e+00	0	43	0	3781165056	41	4071
2026-01-09 14:13:39.35	347.91	29.10	-35.8	-36.6	21.8	0.00e+00	0	43	0	3812622336	41	4095
2026-01-09 14:13:43.36	347.77	28.37	-35.6	-36.5	22.0	0.00e+00	0	43	0	3840933888	41	4031
2026-01-09 14:13:47.71	347.61	27.60	-35.7	-36.5	21.9	0.00e+00	0	43	0	3872391168	41	4049
2026-01-09 14:13:52.13	347.47	26.84	-35.9	-36.8	21.7	0.00e+00	0	43	0	3904897024	41	4181
2026-01-09 14:13:56.14	347.34	26.17	-36.0	-36.9	21.6	0.00e+00	0	42	0	3934257152	41	4225
2026-01-09 14:14:00.14	347.22	25.52	-36.0	-36.9	21.6	0.00e+00	0	43	0	3962568704	41	4229
2026-01-09 14:14:04.27	347.10	24.87	-36.1	-37.0	21.5	0.00e+00	0	43	0	3991928832	41	4262
2026-01-09 14:14:08.28	346.99	24.24	-35.8	-36.7	21.8	0.00e+00	0	43	0	4021288960	41	4144
2026-01-09 14:14:12.29	346.88	23.63	-35.8	-36.8	21.7	0.00e+00	0	43	0	4050649088	41	4155
2026-01-09 14:14:16.40	346.78	23.02	-35.9	-36.9	21.6	0.00e+00	0	43	0	4080009216	41	4206
2026-01-09 14:14:20.41	346.68	22.44	-36.1	-37.0	21.5	0.00e+00	0	43	0	4108320768	41	4249
2026-01-09 14:14:24.42	346.59	21.88	-36.2	-37.1	21.4	0.00e+00	0	43	0	4137680896	41	4324
2026-01-09 14:14:28.45	346.50	21.32	-36.2	-37.1	21.3	0.00e+00	0	43	0	4167041024	41	4333
2026-01-09 14:14:32.66	346.41	20.75	-36.4	-37.3	21.3	0.00e+00	0	43	0	4197449728	42	4156
2026-01-09 14:14:36.66	346.33	20.22	-36.5	-37.4	21.1	0.00e+00	0	43	0	4225761280	42	4232
2026-01-09 14:14:40.68	346.25	19.70	-36.5	-37.5	21.1	0.00e+00	0	43	0	4255121408	42	4244
2026-01-09 14:14:44.60	346.18	19.20	-36.6	-37.6	21.0	0.00e+00	0	43	0	4283432960	42	4305
2026-01-09 14:14:48.61	346.11	18.70	-36.5	-37.5	21.0	0.00e+00	0	43	0	4312793088	43	4024
2026-01-09 14:14:52.77	346.04	18.19	-36.7	-37.7	20.8	0.00e+00	0	43	0	4342153216	43	4129
2026-01-09 14:14:56.96	345.97	17.69	-36.7	-37.8	20.7	0.00e+00	0	43	0	4372561920	43	4183
2026-01-09 14:15:00.97	345.90	17.22	-36.8	-38.0	20.5	0.00e+00	0	43	0	4401922048	43	4251
2026-01-09 14:15:04.99	345.84	16.75	-36.9	-38.1	20.4	0.00e+00	0	43	0	4430233600	43	4311
2026-01-09 14:15:09.14	345.78	16.29	-37.2	-38.3	20.2	0.00e+00	0	43	0	4460642304	43	4405
2026-01-09 14:15:13.15	345.72	15.84	-37.5	-38.6	20.0	0.00e+00	0	43	0	4490002432	44	4335
2026-01-09 14:15:17.20	345.67	15.40	-37.7	-38.8	19.8	0.00e+00	0	43	0	4518313984	44	4430
2026-01-09 14:15:21.21	345.61	14.97	-37.8	-39.0	19.7	0.00e+00	0	43	0	4547674112	45	4254
2026-01-09 14:15:25.25	345.56	14.55	-38.0	-39.1	19.5	0.00e+00	0	43	0	4577034240	45	4327
2026-01-09 14:15:29.27	345.51	14.13	-38.2	-39.4	19.3	0.00e+00	0	43	0	4605345792	45	4451
2026-01-09 14:15:33.28	345.47	13.73	-38.3	-39.4	19.3	0.00e+00	0	43	0	4634705920	46	4218
2026-01-09 14:15:37.29	345.42	13.32	-38.4	-39.6	19.1	0.00e+00	0	43	0	4664066048	46	4301
2026-01-09 14:15:41.31	345.38	12.93	-38.4	-39.6	19.0	0.00e+00	0	43	0	4692377600	46	4337
2026-01-09 14:15:45.32	345.34	12.54	-38.5	-39.8	18.9	0.00e+00	0	43	0	4721737728	46	4393
2026-01-09 14:15:49.63	345.29	12.13	-38.8	-40.0	18.7	0.00e+00	0	43	0	4753195008	46	4501
2026-01-09 14:15:53.65	345.25	11.76	-38.6	-39.8	18.8	0.00e+00	0	43	0	4781506560	47	4188
2026-01-09 14:15:57.66	345.21	11.39	-38.7	-40.0	18.6	0.00e+00	0	43	0	4810866688	47	4257
2026-01-09 14:16:01.60	345.18	11.03	-38.6	-40.0	18.6	0.00e+00	0	43	0	4839178240	47	4280
2026-01-09 14:16:06.13	345.14	10.62	-38.6	-40.1	18.4	0.00e+00	0	43	0	4871684096	47	4338
2026-01-09 14:16:10.13	345.11	10.27	-38.5	-40.1	18.4	0.00e+00	0	43	0	4901044224	47	4328
2026-01-09 14:16:14.20	345.07	9.92	-38.6	-40.3	18.2	0.00e+00	0	43	0	4930404352	47	4399
2026-01-09 14:16:18.27	345.04	9.57	-38.3	-40.2	18.3	0.00e+00	0	43	0	4959764480	47	4386
2026-01-09 14:16:22.47	345.01	9.21	-38.1	-40.3	18.1	0.00e+00	0	43	0	4990173184	46	4702
2026-01-09 14:16:26.48	344.98	8.88	-47.7	-60.0	3.8	8.47e-01	0	43	104	5015339008	64	16009
2026-01-09 14:16:30.50	344.95	8.55	-48.5	-60.3	3.8	8.47e-01	0	43	104	5015339008	67	14007
2026-01-09 14:16:34.53	344.92	8.22	-49.2	-60.6	3.8	8.47e-01	0	43	104	5015339008	68	13652
2026-01-09 14:16:38.55	344.90	7.90	-49.9	-60.6	3.8	8.46e-01	0	43	104	5015339008	69	12924
2026-01-09 14:16:42.56	344.87	7.59	-49.9	-60.7	3.8	8.47e-01	0	43	104	5015339008	69	13040
2026-01-09 14:16:46.58	344.85	7.27	-50.0	-60.6	3.8	8.48e-01	0	43	104	5015339008	69	12915
2026-01-09 14:16:50.60	344.83	6.96	-49.8	-60.6	3.8	8.46e-01	0	43	104	5015339008	69	12847
2026-01-09 14:16:54.62	344.80	6.66	-49.6	-60.5	3.8	8.47e-01	0	43	104	5015339008	69	12799
2026-01-09 14:16:58.64	344.78	6.35	-49.5	-60.5	3.8	8.47e-01	0	43	104	5015339008	69	12738
2026-01-09 14:17:02.66	344.76	6.05	-49.5	-60.5	3.8	8.47e-01	0	43	104	5015339008	69	12728
2026-01-09 14:17:06.67	344.74	5.76	-49.5	-60.5	3.8	8.47e-01	0	43	104	5015339008	69	12770
2026-01-09 14:17:10.69	344.72	5.47	-49.5	-60.5	3.8	8.48e-01	0	43	104	5015339008	69	12750
2026-01-09 14:17:14.71	344.70	5.18	-49.5	-60.5	3.8	8.47e-01	0	43	104	5015339008	69	12671

#Closed at: 2026-01-09 14:17:18
#Recorded file [5015 MB]: D:/Data/31040_260109_170421.dat