passes_logs/2026/01/09/T1/T1__20260109_033122_FENGYUN_3G_rec.log

#Pass ID: 20260109_033122_FENGYUN 3G
#Satellite: FENGYUN 3G
#Configuration: FENGYUN 3G
#almurnet v.1.7.20251203
#Start time: 2026-01-09 03:31:24

#Version: 2.0.20230620
#Station: T1
#Location: 37.570604 lon 55.790049 lat
#TLE: 1 56232U 23055A   26008.48762740  .00031983  00000+0  50485-3 0  9995
#TLE: 2 56232  49.9936  89.5247 0004286 357.0620   3.0321 15.53163078155186

#Time	Az	El	Level	Level2	SNR	BER	BlckErr	Temp	State	Recorded	gain1	gain2
2026-01-09 03:31:24.57	259.71	4.64	-48.1	-67.3	3.8	8.47e-01	0	41	0	0	67	33693
2026-01-09 03:31:26.57	259.49	4.78	-48.3	-67.5	3.8	8.46e-01	0	40	104	0	68	32324
2026-01-09 03:31:28.58	259.27	4.92	-48.3	-67.5	3.8	8.46e-01	0	41	104	0	68	32482
2026-01-09 03:31:30.59	259.04	5.07	-48.2	-67.5	3.8	8.47e-01	0	41	104	0	68	32324
2026-01-09 03:31:32.59	258.82	5.21	-48.2	-67.5	3.8	8.47e-01	0	41	104	0	68	32261
2026-01-09 03:31:34.60	258.58	5.35	-48.1	-67.4	3.8	8.46e-01	0	41	104	0	68	32093
2026-01-09 03:31:36.61	258.35	5.49	-48.2	-67.4	3.8	8.47e-01	0	41	104	0	68	31960
2026-01-09 03:31:38.62	258.11	5.64	-48.2	-67.4	3.8	8.47e-01	0	41	104	0	68	31954
2026-01-09 03:31:40.63	257.87	5.78	-48.2	-67.4	3.8	8.47e-01	0	41	104	0	68	31855
2026-01-09 03:31:42.64	257.62	5.93	-48.2	-67.4	3.8	8.47e-01	0	41	104	0	68	31867
2026-01-09 03:31:44.65	257.37	6.08	-48.2	-67.3	3.8	8.46e-01	0	41	104	0	68	31460
2026-01-09 03:31:46.65	257.12	6.23	-48.1	-67.2	3.8	8.47e-01	0	41	104	0	68	31286
2026-01-09 03:31:48.66	256.86	6.38	-48.2	-67.4	3.8	8.47e-01	0	42	104	0	68	31831
2026-01-09 03:31:50.67	256.60	6.53	-48.1	-67.5	3.8	8.48e-01	0	42	104	0	68	32220
2026-01-09 03:31:52.68	256.34	6.68	-48.1	-67.4	3.8	8.46e-01	0	42	104	0	68	32055
2026-01-09 03:31:54.69	256.07	6.83	-48.0	-67.3	3.8	8.46e-01	0	42	104	0	68	31609
2026-01-09 03:31:56.70	255.80	6.98	-48.1	-67.2	3.8	8.46e-01	0	42	104	0	68	31426
2026-01-09 03:31:58.71	255.52	7.13	-48.2	-67.1	3.8	8.48e-01	0	42	104	0	68	31085
2026-01-09 03:32:00.72	255.24	7.29	-48.2	-67.2	3.8	8.46e-01	0	42	104	0	68	31199
2026-01-09 03:32:02.73	254.96	7.44	-48.2	-67.0	3.8	8.46e-01	0	42	104	0	68	30650
2026-01-09 03:32:04.74	254.67	7.60	-48.1	-66.5	3.8	8.47e-01	0	42	104	0	68	28774
2026-01-09 03:32:06.75	254.37	7.76	-48.2	-66.5	3.8	8.46e-01	0	42	104	0	68	28693
2026-01-09 03:32:08.76	254.08	7.92	-48.2	-67.1	3.8	8.46e-01	0	42	104	0	68	30779
2026-01-09 03:32:10.76	253.78	8.07	-48.1	-67.4	3.8	8.47e-01	0	42	104	0	68	32150
2026-01-09 03:32:12.77	253.47	8.23	-48.2	-67.3	3.8	8.48e-01	0	42	104	0	68	31776
2026-01-09 03:32:14.78	253.16	8.39	-48.0	-66.3	3.8	8.47e-01	0	42	104	0	68	28167
2026-01-09 03:32:16.79	252.84	8.56	-47.8	-62.6	4.5	8.45e-01	0	42	0	0	67	19474
2026-01-09 03:32:18.80	252.52	8.72	-47.5	-58.9	7.1	5.79e-01	0	42	0	0	67	12675
2026-01-09 03:32:20.81	252.19	8.88	-46.8	-54.7	11.3	1.13e-01	0	42	0	0	65	8827
2026-01-09 03:32:22.82	251.86	9.05	-45.8	-51.2	15.1	3.43e-05	0	42	0	0	63	6611
2026-01-09 03:32:24.82	251.53	9.21	-46.5	-53.2	13.2	0.00e+00	0	42	0	0	63	8365
2026-01-09 03:32:26.83	251.19	9.38	-42.5	-45.5	20.7	3.77e-05	0	42	0	0	57	4866
2026-01-09 03:32:28.83	250.84	9.54	-42.6	-45.7	20.5	1.61e-03	0	42	0	0	57	4937
2026-01-09 03:32:30.84	250.49	9.71	-41.5	-44.2	22.0	0.00e+00	0	42	0	0	54	4944
2026-01-09 03:32:32.76	250.15	9.87	-41.6	-44.2	21.9	0.00e+00	0	42	0	0	54	4981
2026-01-09 03:32:34.77	249.78	10.04	-41.5	-44.2	22.0	0.00e+00	0	42	0	0	54	4969
2026-01-09 03:32:36.77	249.41	10.21	-41.3	-44.0	22.2	0.00e+00	0	42	0	0	54	4845
2026-01-09 03:32:38.78	249.04	10.39	-41.2	-43.9	22.3	0.00e+00	0	42	0	0	54	4782
2026-01-09 03:32:40.78	248.66	10.56	-40.9	-43.5	22.7	0.00e+00	0	42	0	0	53	4825
2026-01-09 03:32:42.79	248.27	10.73	-40.5	-42.9	23.2	0.00e+00	0	42	0	0	52	4810
2026-01-09 03:32:44.80	247.88	10.91	-40.2	-42.6	23.6	0.00e+00	0	42	0	0	52	4617
2026-01-09 03:32:46.80	247.48	11.08	-40.3	-42.8	23.4	0.00e+00	0	42	0	0	52	4726
2026-01-09 03:32:48.81	247.07	11.25	-40.5	-43.0	23.2	0.00e+00	0	43	0	0	52	4866
2026-01-09 03:32:50.81	246.66	11.43	-40.5	-43.0	23.3	0.00e+00	0	42	0	0	52	4839
2026-01-09 03:32:52.82	246.24	11.61	-40.6	-43.2	23.1	0.00e+00	0	42	0	0	52	4935
2026-01-09 03:32:54.82	245.82	11.78	-40.2	-42.7	23.5	0.00e+00	0	42	0	0	52	4661
2026-01-09 03:32:56.83	245.39	11.96	-40.0	-42.3	23.9	0.00e+00	0	42	0	0	51	4749
2026-01-09 03:32:58.85	244.94	12.14	-40.1	-42.4	23.9	0.00e+00	0	42	0	0	51	4770
2026-01-09 03:33:00.85	244.50	12.32	-40.1	-42.4	23.9	0.00e+00	0	43	0	0	51	4806
2026-01-09 03:33:02.86	244.04	12.50	-40.2	-42.5	23.7	0.00e+00	0	42	0	0	51	4866
2026-01-09 03:33:04.86	243.59	12.68	-40.0	-42.3	24.0	0.00e+00	0	43	0	0	51	4726
2026-01-09 03:33:06.87	243.12	12.86	-39.7	-42.0	24.3	0.00e+00	0	42	0	0	51	4583
2026-01-09 03:33:08.87	242.64	13.04	-39.4	-41.6	24.7	0.00e+00	0	42	0	0	50	4637
2026-01-09 03:33:11.07	242.11	13.24	-39.3	-41.6	24.7	0.00e+00	0	42	0	0	50	4611
2026-01-09 03:33:13.12	241.61	13.43	-39.7	-42.0	24.3	0.00e+00	0	43	0	0	50	4824
2026-01-09 03:33:15.32	241.06	13.63	-39.8	-42.1	24.3	0.00e+00	0	43	0	0	50	4885
2026-01-09 03:33:17.48	240.51	13.83	-39.7	-42.1	24.3	0.00e+00	0	43	0	0	50	4876
2026-01-09 03:33:19.76	239.92	14.04	-39.1	-41.4	24.9	0.00e+00	0	43	0	0	50	4499
2026-01-09 03:33:21.77	239.39	14.22	-38.8	-40.9	25.3	0.00e+00	0	43	0	0	49	4544
2026-01-09 03:33:23.77	238.86	14.40	-39.0	-41.2	25.1	0.00e+00	0	43	0	0	49	4666
2026-01-09 03:33:26.13	238.21	14.62	-39.6	-41.8	24.4	0.00e+00	0	43	0	0	49	5026
2026-01-09 03:33:28.22	237.64	14.81	-39.8	-42.0	24.4	0.00e+00	0	43	0	0	50	4846
2026-01-09 03:33:30.23	237.07	14.99	-39.2	-41.4	24.9	0.00e+00	0	43	0	0	50	4511
2026-01-09 03:33:32.23	236.50	15.17	-38.6	-40.8	25.4	0.00e+00	0	43	0	0	49	4459
2026-01-09 03:33:34.24	235.92	15.35	-38.5	-40.7	25.5	0.00e+00	0	43	0	0	49	4406
2026-01-09 03:33:36.24	235.33	15.53	-38.6	-40.7	25.5	0.00e+00	0	43	0	0	49	4437
2026-01-09 03:33:38.25	234.73	15.72	-38.9	-41.1	25.2	0.00e+00	0	43	0	0	49	4623
2026-01-09 03:33:40.66	233.99	15.93	-39.1	-41.2	25.1	0.00e+00	0	43	0	0	49	4694
2026-01-09 03:33:42.71	233.36	16.11	-39.3	-41.5	24.9	0.00e+00	0	43	0	0	49	4820
2026-01-09 03:33:44.72	232.73	16.29	-38.6	-40.7	25.5	0.00e+00	0	43	0	0	49	4432
2026-01-09 03:33:46.73	232.09	16.47	-38.3	-40.4	25.8	0.00e+00	0	43	0	0	48	4512
2026-01-09 03:33:48.73	231.44	16.64	-38.1	-40.1	25.8	0.00e+00	0	43	0	0	47	4648
2026-01-09 03:33:50.74	230.78	16.82	-38.3	-40.5	25.7	0.00e+00	0	43	0	0	47	4817
2026-01-09 03:33:52.75	230.11	16.99	-38.6	-40.7	25.5	0.00e+00	0	43	0	0	47	4965
2026-01-09 03:33:54.76	229.43	17.16	-38.9	-41.0	25.3	0.00e+00	0	43	0	0	48	4855
2026-01-09 03:33:56.76	228.75	17.33	-38.8	-40.9	25.4	0.00e+00	0	43	0	0	48	4780
2026-01-09 03:33:58.86	228.02	17.51	-38.5	-40.6	25.6	0.00e+00	0	43	0	0	48	4608
2026-01-09 03:34:00.87	227.31	17.67	-38.0	-40.1	26.1	0.00e+00	0	43	0	0	47	4603
2026-01-09 03:34:02.87	226.59	17.84	-37.8	-39.9	26.1	0.00e+00	0	43	0	0	47	4502
2026-01-09 03:34:04.88	225.87	18.00	-37.6	-39.7	26.4	0.00e+00	0	43	0	0	46	4678
2026-01-09 03:34:06.89	225.13	18.15	-37.7	-39.8	26.2	0.00e+00	0	43	0	0	46	4736
2026-01-09 03:34:08.99	224.35	18.32	-38.0	-40.1	26.1	0.00e+00	0	43	0	0	46	4876
2026-01-09 03:34:10.99	223.60	18.47	-38.3	-40.4	25.8	0.00e+00	0	43	0	0	47	4764
2026-01-09 03:34:13.00	222.83	18.62	-38.4	-40.6	25.7	0.00e+00	0	43	0	0	47	4879
2026-01-09 03:34:15.15	222.00	18.77	-38.6	-40.8	25.5	0.00e+00	0	43	0	0	47	4986
2026-01-09 03:34:17.15	221.22	18.92	-38.6	-40.8	25.5	0.00e+00	0	43	0	0	48	4710
2026-01-09 03:34:19.16	220.43	19.06	-38.5	-40.6	25.6	0.00e+00	0	43	0	0	48	4647
2026-01-09 03:34:21.17	219.63	19.19	-38.2	-40.3	26.0	0.00e+00	0	43	0	0	48	4454
2026-01-09 03:34:23.17	218.82	19.32	-38.0	-40.1	26.0	0.00e+00	0	43	0	0	47	4642
2026-01-09 03:34:25.18	218.00	19.45	-38.2	-40.3	26.0	0.00e+00	0	43	0	0	47	4714
2026-01-09 03:34:27.18	217.18	19.57	-38.0	-40.1	26.1	0.00e+00	0	43	0	0	47	4600
2026-01-09 03:34:29.19	216.34	19.69	-37.5	-39.5	26.6	0.00e+00	0	43	0	0	47	4312
2026-01-09 03:34:31.16	215.52	19.80	-37.6	-39.6	26.5	0.00e+00	0	43	0	0	46	4640
2026-01-09 03:34:33.23	214.64	19.91	-37.9	-40.0	26.1	0.00e+00	0	43	0	0	46	4864
2026-01-09 03:34:35.25	213.78	20.01	-37.8	-39.8	26.3	0.00e+00	0	43	0	0	46	4748
2026-01-09 03:34:37.73	212.72	20.14	-38.4	-40.5	25.0	0.00e+00	0	43	0	0	47	4855
2026-01-09 03:34:39.74	211.84	20.23	-38.3	-40.4	25.8	0.00e+00	0	43	0	0	47	4767
2026-01-09 03:34:41.74	210.97	20.31	-38.7	-40.8	25.4	0.00e+00	0	43	0	0	47	5026
2026-01-09 03:34:43.89	210.02	20.40	-38.3	-40.4	25.9	0.00e+00	0	43	0	0	47	4766
2026-01-09 03:34:45.90	209.13	20.47	-38.2	-40.3	25.9	0.00e+00	0	43	0	0	47	4727
2026-01-09 03:34:47.91	208.24	20.54	-38.7	-40.8	25.6	0.00e+00	0	43	0	0	48	4709
2026-01-09 03:34:49.92	207.34	20.60	-38.4	-40.5	25.8	0.00e+00	0	43	0	0	48	4571
2026-01-09 03:34:51.92	206.44	20.66	-38.4	-40.5	25.8	0.00e+00	0	43	0	0	48	4560
2026-01-09 03:34:53.93	205.53	20.71	-38.4	-40.5	25.8	0.00e+00	0	43	0	0	48	4574
2026-01-09 03:34:55.97	204.61	20.75	-38.4	-40.4	25.8	0.00e+00	0	43	0	0	48	4539
2026-01-09 03:34:58.09	203.65	20.79	-38.1	-40.1	26.1	0.00e+00	0	43	0	0	48	4390
2026-01-09 03:35:00.15	202.71	20.82	-37.5	-39.6	26.6	0.00e+00	0	43	0	0	47	4347
2026-01-09 03:35:02.16	201.79	20.85	-37.1	-39.1	27.0	0.00e+00	0	43	0	0	46	4344
2026-01-09 03:35:04.08	200.91	20.86	-37.0	-39.0	27.0	0.00e+00	0	43	0	0	45	4571
2026-01-09 03:35:06.08	200.00	20.87	-37.0	-39.0	27.1	0.00e+00	0	43	0	0	45	4553
2026-01-09 03:35:08.09	199.08	20.88	-37.0	-38.9	27.1	0.00e+00	0	43	0	0	45	4540
2026-01-09 03:35:10.10	198.15	20.87	-37.3	-39.4	26.7	0.00e+00	0	43	0	0	45	4769
2026-01-09 03:35:12.19	197.20	20.86	-37.6	-39.6	26.5	0.00e+00	0	43	0	0	45	4925
2026-01-09 03:35:14.20	196.28	20.85	-37.7	-39.8	26.4	0.00e+00	0	43	0	0	46	4723
2026-01-09 03:35:16.21	195.36	20.83	-37.7	-39.8	26.4	0.00e+00	0	43	0	0	46	4720
2026-01-09 03:35:18.22	194.44	20.80	-37.3	-39.4	26.8	0.00e+00	0	43	0	0	46	4496
2026-01-09 03:35:20.22	193.53	20.76	-37.3	-39.3	26.8	0.00e+00	0	43	0	0	46	4451
2026-01-09 03:35:22.55	192.48	20.71	-37.5	-39.5	26.7	0.00e+00	0	43	0	0	46	4564
2026-01-09 03:35:24.56	191.57	20.66	-38.0	-40.1	26.1	0.00e+00	0	43	0	0	46	4914
2026-01-09 03:35:26.56	190.67	20.60	-38.0	-40.1	26.1	0.00e+00	0	43	0	0	46	4926
2026-01-09 03:35:28.57	189.77	20.54	-37.9	-40.0	26.1	0.00e+00	0	43	0	0	46	4855
2026-01-09 03:35:30.57	188.88	20.47	-38.0	-40.1	26.1	0.00e+00	0	43	0	0	46	4892
2026-01-09 03:35:32.58	187.99	20.40	-38.3	-40.4	25.9	0.00e+00	0	43	0	0	47	4770
2026-01-09 03:35:34.59	187.11	20.32	-38.8	-40.9	25.5	0.00e+00	0	43	0	0	48	4782
2026-01-09 03:35:36.59	186.23	20.24	-38.3	-40.4	25.9	0.00e+00	0	43	0	0	48	4496
2026-01-09 03:35:38.66	185.33	20.14	-37.7	-39.8	26.4	0.00e+00	0	43	0	0	47	4461
2026-01-09 03:35:40.66	184.47	20.04	-38.1	-40.2	26.0	0.00e+00	0	43	0	0	47	4698
2026-01-09 03:35:42.75	183.58	19.94	-38.0	-40.1	26.2	0.00e+00	0	43	0	0	47	4599
2026-01-09 03:35:44.75	182.73	19.83	-37.9	-39.9	26.3	0.00e+00	0	43	0	0	47	4537
2026-01-09 03:35:46.75	181.89	19.72	-38.1	-40.1	26.0	0.00e+00	0	43	0	0	47	4644
2026-01-09 03:35:48.76	181.05	19.60	-38.1	-40.2	26.1	0.00e+00	0	43	0	0	47	4655
2026-01-09 03:35:50.77	180.22	19.48	-37.9	-39.9	26.3	0.00e+00	0	43	0	0	47	4545
2026-01-09 03:35:53.00	179.31	19.34	-38.3	-40.4	25.8	0.00e+00	0	43	0	0	47	4809
2026-01-09 03:35:55.01	178.50	19.21	-38.2	-40.3	25.9	0.00e+00	0	43	0	0	47	4741
2026-01-09 03:35:57.01	177.70	19.08	-38.3	-40.4	25.8	0.00e+00	0	43	0	0	47	4801
2026-01-09 03:35:59.02	176.90	18.94	-38.4	-40.5	25.8	0.00e+00	0	43	0	0	47	4825
2026-01-09 03:36:01.02	176.12	18.80	-38.0	-40.1	26.1	0.00e+00	0	43	0	0	47	4616
2026-01-09 03:36:03.02	175.35	18.65	-37.9	-40.0	26.2	0.00e+00	0	43	0	0	47	4575
2026-01-09 03:36:05.03	174.58	18.51	-38.0	-40.1	26.0	0.00e+00	0	43	0	0	47	4643
2026-01-09 03:36:07.04	173.82	18.35	-37.8	-39.9	26.2	0.00e+00	0	43	0	0	47	4519
2026-01-09 03:36:09.05	173.07	18.20	-37.6	-39.7	26.5	0.00e+00	0	43	0	0	47	4423
2026-01-09 03:36:11.05	172.33	18.04	-38.0	-40.0	26.2	0.00e+00	0	43	0	0	47	4594
2026-01-09 03:36:13.09	171.59	17.88	-38.6	-40.8	25.5	0.00e+00	0	43	0	0	47	5008
2026-01-09 03:36:15.19	170.84	17.71	-38.7	-40.9	25.4	0.00e+00	0	43	0	0	48	4766
2026-01-09 03:36:17.27	170.10	17.54	-38.3	-40.4	25.8	0.00e+00	0	43	0	0	48	4534
2026-01-09 03:36:19.31	169.39	17.37	-38.5	-40.6	25.8	0.00e+00	0	43	0	0	48	4599
2026-01-09 03:36:21.54	168.63	17.18	-38.7	-40.9	25.4	0.00e+00	0	43	0	0	48	4780
2026-01-09 03:36:23.55	167.95	17.01	-38.7	-40.9	25.4	0.00e+00	0	43	0	0	48	4790
2026-01-09 03:36:25.56	167.27	16.84	-38.5	-40.6	25.6	0.00e+00	0	43	0	0	48	4637
2026-01-09 03:36:27.56	166.62	16.66	-38.4	-40.6	25.6	0.00e+00	0	43	0	0	48	4604
2026-01-09 03:36:29.57	165.96	16.49	-38.3	-40.4	25.8	0.00e+00	0	43	0	0	48	4532
2026-01-09 03:36:31.57	165.33	16.31	-38.4	-40.5	25.7	0.00e+00	0	43	0	0	48	4559
2026-01-09 03:36:33.58	164.69	16.13	-38.7	-40.9	25.3	0.00e+00	0	43	0	0	48	4784
2026-01-09 03:36:35.68	164.04	15.95	-39.1	-41.3	25.0	0.00e+00	0	43	0	0	48	4994
2026-01-09 03:36:37.75	163.41	15.76	-38.8	-41.0	25.3	0.00e+00	0	43	0	0	48	4821
2026-01-09 03:36:39.76	162.81	15.58	-38.8	-41.0	25.2	0.00e+00	0	43	0	0	48	4852
2026-01-09 03:36:41.76	162.21	15.40	-38.8	-41.0	25.3	0.00e+00	0	43	0	0	48	4819
2026-01-09 03:36:43.77	161.63	15.22	-38.9	-41.1	25.2	0.00e+00	0	43	0	0	48	4873
2026-01-09 03:36:45.78	161.05	15.03	-39.0	-41.2	25.1	0.00e+00	0	43	0	0	48	4946
2026-01-09 03:36:47.79	160.48	14.85	-39.2	-41.4	24.9	0.00e+00	0	43	0	0	49	4798
2026-01-09 03:36:49.79	159.93	14.67	-39.4	-41.7	24.6	0.00e+00	0	43	0	0	49	4927
2026-01-09 03:36:51.70	159.40	14.49	-39.2	-41.5	24.8	0.00e+00	0	43	0	0	49	4815
2026-01-09 03:36:53.71	158.86	14.31	-39.0	-41.2	25.0	0.00e+00	0	43	0	0	49	4681
2026-01-09 03:36:55.71	158.33	14.13	-39.4	-41.6	24.7	0.00e+00	0	43	0	0	49	4912
2026-01-09 03:36:57.77	157.79	13.94	-39.7	-42.0	24.3	0.00e+00	0	43	0	0	50	4828
2026-01-09 03:37:00.00	157.22	13.74	-39.5	-41.8	22.0	0.00e+00	0	43	0	0	50	4706
2026-01-09 03:37:02.25	156.65	13.53	-39.5	-41.7	24.5	2.31e-03	0	43	0	0	50	4704
2026-01-09 03:37:04.26	156.15	13.35	-39.7	-41.9	24.3	3.67e-04	0	43	0	0	50	4812
2026-01-09 03:37:06.26	155.66	13.17	-39.9	-42.2	24.1	0.00e+00	0	43	0	0	50	4936
2026-01-09 03:37:08.27	155.18	12.98	-39.9	-42.3	24.0	1.10e-03	0	43	0	0	50	5016
2026-01-09 03:37:10.27	154.71	12.80	-39.9	-42.3	24.0	3.40e-06	0	43	0	0	50	4997
2026-01-09 03:37:12.29	154.24	12.62	-39.9	-42.2	24.0	0.00e+00	0	43	0	0	50	4967
2026-01-09 03:37:14.30	153.78	12.44	-40.1	-42.5	23.2	0.00e+00	0	43	0	0	50	5130
2026-01-09 03:37:16.32	153.32	12.26	-40.1	-42.4	23.8	0.00e+00	0	43	0	0	50	5097
2026-01-09 03:37:18.44	152.85	12.07	-40.4	-42.8	23.5	0.00e+00	0	43	0	0	51	4990
2026-01-09 03:37:20.43	152.42	11.89	-40.4	-42.8	23.5	0.00e+00	0	43	0	0	51	5003
2026-01-09 03:37:22.44	151.99	11.71	-40.4	-42.8	23.5	0.00e+00	0	43	0	0	51	5016
2026-01-09 03:37:24.45	151.56	11.54	-40.4	-42.8	23.5	0.00e+00	0	43	0	0	51	4995
2026-01-09 03:37:26.46	151.15	11.36	-40.2	-42.5	23.7	0.00e+00	0	43	0	0	51	4852
2026-01-09 03:37:28.47	150.74	11.18	-40.2	-42.5	23.7	0.00e+00	0	43	0	0	51	4866
2026-01-09 03:37:30.49	150.33	11.01	-40.4	-42.8	23.4	0.00e+00	0	43	0	0	51	5021
2026-01-09 03:37:32.50	149.93	10.83	-40.6	-43.1	23.1	0.00e+00	0	43	0	0	52	4912
2026-01-09 03:37:34.50	149.54	10.66	-40.9	-43.4	22.4	0.00e+00	0	43	0	0	52	5075
2026-01-09 03:37:36.50	149.16	10.49	-41.2	-43.8	22.4	0.00e+00	0	43	0	0	53	4986
2026-01-09 03:37:38.51	148.78	10.31	-41.3	-43.9	22.3	0.00e+00	0	43	0	0	53	5085
2026-01-09 03:37:40.52	148.40	10.14	-41.2	-43.8	22.3	0.00e+00	0	43	0	0	53	5002
2026-01-09 03:37:42.53	148.04	9.97	-41.0	-43.6	22.6	0.00e+00	0	43	0	0	53	4880
2026-01-09 03:37:44.53	147.68	9.80	-41.2	-43.8	22.4	0.00e+00	0	43	0	0	53	5018
2026-01-09 03:37:46.54	147.32	9.63	-41.4	-44.0	22.2	0.00e+00	0	43	0	0	53	5131
2026-01-09 03:37:48.55	146.97	9.47	-41.6	-44.3	21.9	0.00e+00	0	43	0	0	53	5308
2026-01-09 03:37:50.55	146.63	9.30	-41.5	-44.1	22.0	0.00e+00	0	43	0	0	53	5196
2026-01-09 03:37:52.56	146.29	9.13	-41.4	-44.0	22.0	1.02e-05	0	43	0	0	53	5159
2026-01-09 03:37:54.57	145.95	8.97	-42.0	-44.8	20.6	0.00e+00	0	43	0	0	54	5295
2026-01-09 03:37:56.58	145.62	8.80	-48.5	-67.5	3.8	8.28e-01	0	43	104	0	67	34187
2026-01-09 03:37:58.59	145.30	8.64	-49.0	-67.9	3.8	8.46e-01	0	43	104	0	68	33932
2026-01-09 03:38:00.59	144.98	8.48	-49.1	-67.9	3.8	8.46e-01	0	43	104	0	68	33970
2026-01-09 03:38:02.60	144.66	8.32	-49.2	-68.0	3.8	8.47e-01	0	43	104	0	69	32483
2026-01-09 03:38:04.61	144.35	8.16	-49.3	-68.0	3.8	8.47e-01	0	43	104	0	69	32550
2026-01-09 03:38:06.62	144.05	8.00	-49.3	-68.1	3.8	8.46e-01	0	43	104	0	69	32782
2026-01-09 03:38:08.63	143.75	7.84	-49.3	-68.1	3.8	8.47e-01	0	43	104	0	69	32841
2026-01-09 03:38:10.64	143.45	7.68	-49.2	-68.1	3.8	8.46e-01	0	43	104	0	69	32811
2026-01-09 03:38:12.64	143.16	7.53	-49.3	-68.1	3.8	8.47e-01	0	43	104	0	69	32854
2026-01-09 03:38:14.65	142.87	7.37	-49.0	-68.1	3.8	8.47e-01	0	43	104	0	69	32806
2026-01-09 03:38:16.66	142.59	7.21	-48.9	-68.1	3.8	8.47e-01	0	43	104	0	69	32622
2026-01-09 03:38:18.67	142.31	7.06	-48.9	-68.0	3.8	8.47e-01	0	43	104	0	69	32536
2026-01-09 03:38:20.67	142.04	6.91	-48.9	-68.1	3.8	8.44e-01	0	43	104	0	69	32622
2026-01-09 03:38:22.68	141.77	6.76	-48.9	-68.0	3.8	8.46e-01	0	43	104	0	69	32440
2026-01-09 03:38:24.69	141.50	6.60	-48.9	-68.0	3.8	8.46e-01	0	43	104	0	69	32508
2026-01-09 03:38:26.70	141.23	6.45	-48.9	-68.0	3.8	8.47e-01	0	43	104	0	69	32406
2026-01-09 03:38:28.71	140.98	6.30	-48.9	-68.0	3.8	8.47e-01	0	43	104	0	69	32528
2026-01-09 03:38:30.72	140.72	6.15	-48.9	-68.0	3.8	8.48e-01	0	43	104	0	69	32458
2026-01-09 03:38:32.72	140.47	6.01	-48.9	-68.0	3.8	8.46e-01	0	43	104	0	69	32470
2026-01-09 03:38:34.73	140.22	5.86	-48.9	-68.0	3.8	8.47e-01	0	43	104	0	69	32507
2026-01-09 03:38:36.74	139.97	5.71	-48.9	-68.0	3.8	8.47e-01	0	43	104	0	69	32457
2026-01-09 03:38:38.75	139.73	5.57	-48.9	-68.0	3.8	8.46e-01	0	43	104	0	69	32523

#Closed at: 2026-01-09 03:38:40
#Recorded file [0 MB]: D:/Data/31040_260109_063124.dat