passes_logs/2026/01/09/T1/T1__20260109_232842_SUOMI_NPP_rec.log

#Pass ID: 20260109_232842_SUOMI NPP
#Satellite: SUOMI NPP
#Configuration: NPP
#almurnet v.1.7.20251203
#Start time: 2026-01-09 23:28:42

#Version: 2.0.20230620
#Station: T1
#Location: 37.570604 lon 55.790049 lat
#TLE: 1 37849U 11061A   26008.83076692  .00000095  00000+0  66074-4 0  9997
#TLE: 2 37849  98.7806 310.9327 0002533  74.3004 285.8451 14.19523607735834

#Time	Az	El	Level	Level2	SNR	BER	BlckErr	Temp	State	Recorded	gain1	gain2
2026-01-09 23:28:42.39	18.35	4.98	-49.9	-66.2	3.8	1.49e+00	0	40	0	0	70	24783
2026-01-09 23:28:46.41	18.43	5.26	-49.9	-65.9	3.8	1.49e+00	0	41	104	0	70	24063
2026-01-09 23:28:50.42	18.51	5.55	-49.9	-65.5	3.8	1.49e+00	0	41	104	0	70	22826
2026-01-09 23:28:54.44	18.59	5.84	-49.8	-65.0	3.8	1.49e+00	0	41	104	0	70	21595
2026-01-09 23:28:58.46	18.67	6.13	-49.9	-65.1	3.8	1.49e+00	0	41	104	0	70	21882
2026-01-09 23:29:02.47	18.75	6.43	-49.9	-65.5	3.8	1.49e+00	0	41	104	0	70	23030
2026-01-09 23:29:06.49	18.84	6.73	-49.8	-65.1	3.8	1.49e+00	0	41	104	0	70	21860
2026-01-09 23:29:10.51	18.93	7.04	-49.8	-64.6	3.8	1.49e+00	0	41	104	0	70	20637
2026-01-09 23:29:14.53	19.01	7.35	-49.8	-64.5	3.8	1.49e+00	0	42	104	0	70	20534
2026-01-09 23:29:18.55	19.10	7.66	-49.7	-62.4	4.3	1.42e+00	0	42	0	0	70	16020
2026-01-09 23:29:22.56	19.20	7.97	-49.5	-60.5	5.0	6.90e-01	0	42	0	6291456	70	12883
2026-01-09 23:29:26.58	19.29	8.29	-49.4	-59.9	5.4	5.28e-01	0	42	0	13631488	70	12055
2026-01-09 23:29:30.60	19.38	8.62	-49.4	-59.6	5.6	4.26e-01	0	42	0	20971520	70	11613
2026-01-09 23:29:34.61	19.48	8.94	-49.4	-59.8	5.5	4.77e-01	0	42	0	28311552	70	11869
2026-01-09 23:29:38.63	19.58	9.28	-49.6	-61.8	4.5	3.05e-01	0	42	0	36700160	70	14961
2026-01-09 23:29:43.01	19.69	9.64	-49.0	-56.8	8.1	5.42e-02	0	42	0	39845888	68	9453
2026-01-09 23:29:47.02	19.79	9.98	-48.5	-54.7	10.1	3.40e-03	0	42	0	47185920	68	7455
2026-01-09 23:29:51.04	19.89	10.33	-47.3	-52.0	12.8	8.16e-05	0	42	0	55574528	66	6081
2026-01-09 23:29:55.27	20.00	10.70	-46.7	-50.8	14.0	6.80e-06	0	42	0	62914560	65	5620
2026-01-09 23:29:59.29	20.11	11.06	-46.4	-50.1	14.9	0.00e+00	0	42	0	70254592	64	5476
2026-01-09 23:30:03.68	20.23	11.45	-45.8	-49.1	15.9	0.00e+00	0	42	0	78643200	63	5190
2026-01-09 23:30:08.18	20.36	11.87	-45.5	-48.8	16.2	0.00e+00	0	43	0	87031808	63	4994
2026-01-09 23:30:12.54	20.48	12.27	-45.5	-48.8	16.2	0.00e+00	0	43	0	95420416	62	5301
2026-01-09 23:30:16.73	20.61	12.67	-45.4	-48.5	16.5	0.00e+00	0	43	0	103809024	62	5148
2026-01-09 23:30:21.33	20.75	13.11	-45.2	-48.2	16.9	0.00e+00	0	43	0	112197632	62	4943
2026-01-09 23:30:25.68	20.88	13.54	-45.4	-48.4	16.7	0.00e+00	0	43	0	120586240	62	5054
2026-01-09 23:30:30.04	21.02	13.97	-45.5	-48.4	16.7	0.00e+00	0	43	0	127926272	62	5083
2026-01-09 23:30:34.35	21.16	14.41	-45.4	-48.3	16.8	0.00e+00	0	43	0	136314880	62	5012
2026-01-09 23:30:38.78	21.31	14.87	-45.6	-48.4	16.6	0.00e+00	0	43	0	144703488	62	5087
2026-01-09 23:30:43.12	21.46	15.32	-45.5	-48.3	16.8	0.00e+00	0	43	0	153092096	62	5024
2026-01-09 23:30:47.86	21.63	15.83	-45.5	-48.3	16.8	0.00e+00	0	43	0	161480704	62	5023
2026-01-09 23:30:52.20	21.79	16.31	-45.4	-48.3	16.9	0.00e+00	0	43	0	169869312	62	5005
2026-01-09 23:30:56.52	21.95	16.79	-45.7	-48.8	16.4	0.00e+00	0	43	0	178257920	62	5281
2026-01-09 23:31:00.83	22.12	17.28	-45.7	-48.8	16.4	0.00e+00	0	43	0	185597952	62	5286
2026-01-09 23:31:04.90	22.28	17.76	-46.0	-49.0	16.2	0.00e+00	0	43	0	193986560	62	5441
2026-01-09 23:31:09.23	22.45	18.27	-46.2	-49.2	16.0	0.00e+00	0	43	0	201326592	63	5276
2026-01-09 23:31:13.26	22.62	18.76	-46.2	-49.2	16.0	0.00e+00	0	43	0	209715200	63	5267
2026-01-09 23:31:17.28	22.80	19.25	-46.2	-49.3	16.0	0.00e+00	0	43	0	217055232	63	5300
2026-01-09 23:31:21.26	22.98	19.75	-46.5	-49.7	15.6	0.00e+00	0	43	0	224395264	63	5571
2026-01-09 23:31:25.35	23.17	20.28	-46.5	-49.7	15.5	0.00e+00	0	43	0	231735296	64	5256
2026-01-09 23:31:29.36	23.36	20.80	-46.3	-49.4	15.8	0.00e+00	0	43	0	239075328	64	5053
2026-01-09 23:31:33.71	23.57	21.38	-46.1	-49.1	16.2	0.00e+00	0	43	0	247463936	63	5168
2026-01-09 23:31:37.75	23.78	21.94	-46.3	-49.4	15.9	0.00e+00	0	43	0	255852544	63	5351
2026-01-09 23:31:41.76	23.99	22.50	-46.1	-49.0	16.3	0.00e+00	0	43	0	263192576	63	5159
2026-01-09 23:31:45.77	24.20	23.07	-46.2	-49.2	16.2	0.00e+00	0	43	0	270532608	63	5239
2026-01-09 23:31:50.14	24.45	23.71	-46.3	-49.3	16.0	0.00e+00	0	43	0	278921216	63	5319
2026-01-09 23:31:54.16	24.68	24.31	-46.2	-49.3	16.1	0.00e+00	0	43	0	286261248	63	5283
2026-01-09 23:31:58.17	24.93	24.92	-46.2	-49.2	16.2	0.00e+00	0	43	0	293601280	63	5256
2026-01-09 23:32:02.20	25.18	25.55	-46.4	-49.4	16.0	0.00e+00	0	43	0	300941312	63	5369
2026-01-09 23:32:06.21	25.44	26.19	-46.0	-48.9	16.5	0.00e+00	0	43	0	308281344	63	5077
2026-01-09 23:32:10.23	25.71	26.85	-45.7	-48.4	17.0	0.00e+00	0	43	0	316669952	63	4795
2026-01-09 23:32:14.39	26.01	27.55	-45.3	-47.9	17.5	0.00e+00	0	43	0	324009984	62	4777
2026-01-09 23:32:18.46	26.31	28.25	-45.2	-47.8	17.6	0.00e+00	0	43	0	331350016	62	4742
2026-01-09 23:32:22.47	26.62	28.96	-45.5	-48.3	17.1	0.00e+00	0	43	0	338690048	62	5021
2026-01-09 23:32:26.58	26.94	29.70	-46.1	-49.3	16.2	0.00e+00	0	43	0	347078656	63	5319
2026-01-09 23:32:31.01	27.32	30.52	-47.0	-50.5	14.8	0.00e+00	0	43	0	355467264	64	5781
2026-01-09 23:32:35.02	27.67	31.29	-47.2	-50.6	14.8	7.00e-07	0	43	0	362807296	65	5515
2026-01-09 23:32:39.03	28.04	32.07	-47.6	-51.3	14.1	3.00e-06	0	43	0	370147328	66	5627
2026-01-09 23:32:43.12	28.43	32.89	-47.4	-51.1	14.3	0.00e+00	0	43	0	377487360	66	5517
2026-01-09 23:32:47.13	28.84	33.72	-47.7	-51.4	14.0	7.00e-07	0	43	0	385875968	66	5691
2026-01-09 23:32:51.14	29.26	34.56	-47.1	-50.5	14.9	0.00e+00	0	43	0	393216000	65	5421
2026-01-09 23:32:55.16	29.71	35.43	-47.4	-50.8	14.6	7.00e-07	0	43	0	400556032	65	5639
2026-01-09 23:32:59.16	30.18	36.32	-47.6	-51.1	14.3	2.20e-06	0	43	0	407896064	66	5507
2026-01-09 23:33:03.18	30.68	37.24	-48.0	-51.8	13.7	3.00e-06	0	43	0	415236096	66	5969
2026-01-09 23:33:07.19	31.21	38.17	-48.1	-52.1	13.3	1.37e-05	0	43	0	422576128	67	5817
2026-01-09 23:33:11.19	31.76	39.13	-48.1	-52.0	13.3	3.00e-06	0	43	0	430964736	67	5788
2026-01-09 23:33:15.28	32.37	40.14	-48.7	-53.1	12.4	6.12e-04	0	43	0	438304768	69	5799
2026-01-09 23:33:19.50	33.03	41.20	-48.8	-53.3	12.3	1.50e-04	0	43	0	445644800	69	5939
2026-01-09 23:33:23.78	33.74	42.31	-48.7	-53.2	12.3	1.17e-04	0	43	0	454033408	68	6235
2026-01-09 23:33:27.79	34.46	43.37	-47.7	-51.5	13.9	5.30e-06	0	43	0	461373440	67	5441
2026-01-09 23:33:31.80	35.23	44.46	-46.3	-49.3	16.2	0.00e+00	0	43	0	468713472	64	4989
2026-01-09 23:33:35.81	36.05	45.58	-47.0	-50.2	15.3	0.00e+00	0	43	0	477102080	64	5542
2026-01-09 23:33:39.81	36.92	46.72	-47.1	-50.4	15.1	0.00e+00	0	43	0	484442112	65	5355
2026-01-09 23:33:43.86	37.88	47.89	-47.4	-50.8	14.7	0.00e+00	0	43	0	491782144	65	5652
2026-01-09 23:33:47.87	38.89	49.08	-46.1	-49.0	16.4	0.00e+00	0	43	0	499122176	64	4834
2026-01-09 23:33:51.88	40.00	50.29	-45.9	-48.6	16.8	0.00e+00	0	43	0	506462208	63	4921
2026-01-09 23:33:55.90	41.19	51.53	-46.5	-49.4	16.3	0.00e+00	0	43	0	514850816	63	5402
2026-01-09 23:33:59.91	42.48	52.78	-45.2	-47.7	17.7	0.00e+00	0	43	0	522190848	62	4685
2026-01-09 23:34:03.92	43.89	54.04	-44.5	-46.9	18.5	0.00e+00	0	43	0	529530880	61	4502
2026-01-09 23:34:07.93	45.43	55.32	-43.8	-46.0	19.2	0.00e+00	0	43	0	536870912	59	4594
2026-01-09 23:34:11.94	47.11	56.61	-44.4	-46.8	18.7	0.00e+00	0	43	0	544210944	60	4708
2026-01-09 23:34:15.95	48.96	57.91	-44.5	-46.9	18.5	0.00e+00	0	43	0	551550976	60	4787
2026-01-09 23:34:20.04	51.03	59.23	-44.6	-46.9	18.5	0.00e+00	0	43	0	559939584	59	5068
2026-01-09 23:34:24.49	53.54	60.65	-45.5	-48.1	17.5	0.00e+00	0	43	0	568328192	61	5172
2026-01-09 23:34:28.50	56.05	61.92	-44.6	-47.0	18.4	0.00e+00	0	43	0	575668224	61	4547
2026-01-09 23:34:32.51	58.83	63.15	-45.2	-47.8	17.8	0.00e+00	0	43	0	583008256	61	4984
2026-01-09 23:34:36.59	61.96	64.37	-43.8	-45.9	19.4	0.00e+00	0	43	0	590348288	59	4544
2026-01-09 23:34:40.79	65.54	65.56	-44.8	-47.2	18.3	0.00e+00	0	43	0	598736896	60	4939
2026-01-09 23:34:44.80	69.32	66.63	-46.2	-49.2	16.6	0.00e+00	0	43	0	606076928	63	5229
2026-01-09 23:34:48.81	73.49	67.61	-46.3	-49.1	16.4	0.00e+00	0	43	0	613416960	64	4913
2026-01-09 23:34:52.86	78.10	68.49	-48.4	-52.5	13.2	1.90e-05	0	43	0	620756992	67	6075
2026-01-09 23:34:56.86	83.03	69.23	-48.0	-51.9	13.8	1.22e-05	0	43	0	629145600	67	5670
2026-01-09 23:35:00.90	88.38	69.83	-47.3	-50.8	14.7	0.00e+00	0	43	0	636485632	65	5645
2026-01-09 23:35:05.04	94.16	70.26	-45.5	-48.2	17.3	0.00e+00	0	43	0	643825664	63	4686
2026-01-09 23:35:09.07	100.00	70.50	-46.5	-49.5	16.0	0.00e+00	0	43	0	651165696	64	5132
2026-01-09 23:35:13.01	105.79	70.55	-47.2	-50.5	14.9	7.00e-07	0	43	0	658505728	65	5440
2026-01-09 23:35:17.03	111.68	70.41	-47.4	-50.8	14.7	0.00e+00	0	43	0	666894336	65	5631
2026-01-09 23:35:21.12	117.51	70.07	-49.1	-53.7	11.9	9.31e-04	0	43	0	674234368	69	6237
2026-01-09 23:35:25.13	122.98	69.56	-47.7	-51.3	14.2	3.00e-06	0	43	0	681574400	67	5324
2026-01-09 23:35:29.28	128.29	68.87	-47.1	-50.3	15.3	0.00e+00	0	43	0	688914432	66	5002
2026-01-09 23:35:33.51	133.30	68.01	-47.5	-50.9	14.6	0.00e+00	0	43	0	697303040	66	5397
2026-01-09 23:35:37.52	137.65	67.07	-44.8	-47.2	18.3	0.00e+00	0	43	0	704643072	61	4687
2026-01-09 23:35:41.55	141.62	66.03	-45.2	-47.7	17.8	0.00e+00	0	43	0	711983104	62	4672
2026-01-09 23:35:45.57	145.21	64.92	-43.0	-45.1	20.1	0.00e+00	0	43	0	720371712	58	4369
2026-01-09 23:35:49.58	148.45	63.74	-44.5	-46.9	18.6	0.00e+00	0	43	0	727711744	60	4793
2026-01-09 23:35:53.59	151.38	62.52	-44.0	-46.3	19.1	0.00e+00	0	43	0	735051776	58	5010
2026-01-09 23:35:57.52	153.97	61.29	-42.9	-44.9	20.2	0.00e+00	0	43	0	742391808	57	4542
2026-01-09 23:36:01.53	156.36	60.01	-42.8	-44.8	20.4	0.00e+00	0	43	0	749731840	57	4463
2026-01-09 23:36:05.55	158.53	58.72	-44.2	-46.5	18.8	0.00e+00	0	43	0	757071872	59	4832
2026-01-09 23:36:09.56	160.50	57.42	-44.5	-46.9	18.7	0.00e+00	0	43	0	765460480	60	4764
2026-01-09 23:36:13.57	162.29	56.12	-43.1	-45.1	20.1	0.00e+00	0	43	0	772800512	58	4361
2026-01-09 23:36:17.58	163.92	54.83	-43.9	-46.2	19.1	0.00e+00	0	43	0	780140544	59	4663
2026-01-09 23:36:21.59	165.41	53.55	-44.8	-47.2	18.3	0.00e+00	0	43	0	787480576	60	4968
2026-01-09 23:36:25.72	166.82	52.25	-44.2	-46.4	18.9	0.00e+00	0	43	0	794820608	60	4537
2026-01-09 23:36:29.89	168.12	50.95	-45.2	-47.7	17.8	0.00e+00	0	43	0	803209216	60	5247
2026-01-09 23:36:33.90	169.27	49.72	-44.5	-46.8	18.6	0.00e+00	0	43	0	810549248	60	4745
2026-01-09 23:36:37.91	170.33	48.52	-47.2	-50.4	15.1	0.00e+00	0	43	0	817889280	64	5708
2026-01-09 23:36:41.92	171.32	47.33	-47.8	-51.5	14.0	3.80e-06	0	43	0	825229312	66	5727
2026-01-09 23:36:46.01	172.25	46.15	-46.6	-49.7	15.8	0.00e+00	0	43	0	833617920	64	5229
2026-01-09 23:36:50.12	173.13	44.99	-46.6	-49.8	15.5	0.00e+00	0	43	0	840957952	65	4992
2026-01-09 23:36:54.23	173.94	43.85	-46.9	-50.1	15.4	0.00e+00	0	43	0	848297984	64	5466
2026-01-09 23:36:58.29	174.69	42.76	-47.2	-50.5	14.9	7.00e-07	0	43	0	856686592	66	5148
2026-01-09 23:37:02.30	175.38	41.70	-44.6	-46.9	18.5	0.00e+00	0	43	0	864026624	60	4790
2026-01-09 23:37:06.32	176.04	40.67	-46.5	-49.5	16.0	0.00e+00	0	43	0	871366656	63	5427
2026-01-09 23:37:10.71	176.70	39.57	-44.6	-47.0	18.3	0.00e+00	0	43	0	879755264	61	4586
2026-01-09 23:37:14.72	177.28	38.59	-46.4	-49.4	16.0	0.00e+00	0	43	0	887095296	63	5377
2026-01-09 23:37:18.75	177.82	37.63	-46.4	-49.5	15.9	0.00e+00	0	44	0	894435328	64	5132
2026-01-09 23:37:22.85	178.34	36.68	-45.4	-48.0	17.4	0.00e+00	0	43	0	902823936	62	4862
2026-01-09 23:37:26.87	178.83	35.78	-45.7	-48.4	17.1	0.00e+00	0	43	0	910163968	62	5059
2026-01-09 23:37:30.88	179.29	34.89	-47.0	-50.3	15.1	0.00e+00	0	43	0	917504000	64	5645
2026-01-09 23:37:34.90	179.73	34.03	-48.8	-53.3	12.2	2.40e-04	0	43	0	924844032	68	6325
2026-01-09 23:37:38.92	180.14	33.19	-46.7	-49.9	15.5	0.00e+00	0	43	0	932184064	65	5052
2026-01-09 23:37:42.93	180.53	32.37	-46.1	-48.9	16.5	0.00e+00	0	43	0	939524096	63	5074
2026-01-09 23:37:46.94	180.91	31.58	-46.7	-49.8	15.6	0.00e+00	0	43	0	947912704	64	5298
2026-01-09 23:37:50.97	181.27	30.80	-47.7	-51.4	14.0	3.00e-06	0	44	0	955252736	66	5673
2026-01-09 23:37:55.05	181.62	30.03	-47.4	-51.0	14.4	1.50e-06	0	43	0	962592768	66	5420
2026-01-09 23:37:59.06	181.95	29.29	-46.7	-50.0	15.3	0.00e+00	0	43	0	969932800	65	5114
2026-01-09 23:38:03.07	182.26	28.57	-46.4	-49.5	15.8	0.00e+00	0	44	0	977272832	64	5113
2026-01-09 23:38:07.08	182.56	27.86	-46.4	-49.4	15.9	0.00e+00	0	43	0	985661440	63	5378
2026-01-09 23:38:11.31	182.87	27.14	-46.0	-48.9	16.5	0.00e+00	0	43	0	993001472	63	5044
2026-01-09 23:38:15.33	183.14	26.47	-45.7	-48.5	16.8	0.00e+00	0	43	0	1000341504	63	4850
2026-01-09 23:38:19.29	183.41	25.82	-45.5	-48.3	17.0	0.00e+00	0	43	0	1007681536	63	4706
2026-01-09 23:38:23.30	183.66	25.18	-44.7	-47.2	17.9	0.00e+00	0	43	0	1016070144	61	4690
2026-01-09 23:38:27.45	183.92	24.54	-44.4	-46.9	18.3	0.00e+00	0	43	0	1023410176	60	4764
2026-01-09 23:38:31.46	184.15	23.93	-44.6	-47.0	18.2	0.00e+00	0	43	0	1030750208	60	4843
2026-01-09 23:38:35.66	184.39	23.30	-44.8	-47.3	17.8	0.00e+00	0	43	0	1039138816	60	5031
2026-01-09 23:38:39.62	184.61	22.73	-44.9	-47.4	17.8	0.00e+00	0	43	0	1046478848	60	5075
2026-01-09 23:38:43.63	184.82	22.16	-45.5	-48.3	16.9	0.00e+00	0	43	0	1053818880	61	5318
2026-01-09 23:38:47.64	185.03	21.60	-45.5	-48.2	17.0	0.00e+00	0	44	0	1061158912	62	4981
2026-01-09 23:38:51.98	185.24	21.01	-45.5	-48.3	16.9	0.00e+00	0	43	0	1069547520	62	5015
2026-01-09 23:38:56.00	185.44	20.47	-45.2	-47.9	17.3	0.00e+00	0	43	0	1076887552	62	4800
2026-01-09 23:39:00.00	185.62	19.95	-45.1	-47.8	17.3	0.00e+00	0	43	0	1084227584	62	4755
2026-01-09 23:39:03.99	185.80	19.44	-44.9	-47.6	17.5	0.00e+00	0	44	0	1091567616	61	4916
2026-01-09 23:39:08.00	185.98	18.94	-44.7	-47.3	17.8	0.00e+00	0	43	0	1099956224	61	4731
2026-01-09 23:39:12.00	186.15	18.45	-44.9	-47.6	17.5	0.00e+00	0	43	0	1107296256	61	4917
2026-01-09 23:39:16.01	186.31	17.96	-44.6	-47.3	17.7	0.00e+00	0	44	0	1114636288	61	4734
2026-01-09 23:39:20.03	186.47	17.49	-45.0	-47.8	17.3	0.00e+00	0	43	0	1121976320	61	4997
2026-01-09 23:39:24.04	186.63	17.02	-45.3	-48.2	16.8	0.00e+00	0	43	0	1129316352	61	5256
2026-01-09 23:39:28.05	186.78	16.56	-45.9	-49.1	16.0	0.00e+00	0	44	0	1136656384	62	5468
2026-01-09 23:39:32.12	186.93	16.11	-45.8	-49.0	16.0	0.00e+00	0	43	0	1145044992	62	5446
2026-01-09 23:39:36.16	187.07	15.67	-45.9	-49.2	15.8	0.00e+00	0	44	0	1152385024	62	5575
2026-01-09 23:39:40.18	187.21	15.23	-46.1	-49.4	15.6	0.00e+00	0	44	0	1159725056	63	5402
2026-01-09 23:39:44.52	187.36	14.77	-45.6	-49.1	15.6	6.73e-03	0	43	0	1168113664	63	5186
2026-01-09 23:39:48.53	187.49	14.35	-45.9	-49.5	15.3	6.76e-03	0	43	0	1175453696	62	5751
2026-01-09 23:39:52.99	187.63	13.90	-46.1	-49.6	15.1	3.26e-03	0	44	0	1183842304	62	5852
2026-01-09 23:39:57.19	187.76	13.48	-46.0	-49.5	15.3	3.73e-05	0	43	0	1191182336	63	5447
2026-01-09 23:40:01.49	187.89	13.05	-46.0	-49.6	15.3	0.00e+00	0	44	0	1199570944	63	5479
2026-01-09 23:40:05.49	188.01	12.66	-46.1	-49.7	15.2	0.00e+00	0	43	0	1206910976	63	5559
2026-01-09 23:40:09.65	188.13	12.26	-46.3	-49.9	14.9	7.00e-07	0	43	0	1215299584	63	5690
2026-01-09 23:40:13.57	188.24	11.90	-46.2	-49.8	15.0	0.00e+00	0	43	0	1222639616	63	5603
2026-01-09 23:40:17.58	188.35	11.52	-46.4	-50.2	14.6	0.00e+00	0	43	0	1229979648	63	5862
2026-01-09 23:40:21.68	188.46	11.15	-46.2	-49.8	15.0	0.00e+00	0	43	0	1237319680	63	5607
2026-01-09 23:40:25.69	188.57	10.79	-46.2	-49.8	14.9	0.00e+00	0	43	0	1244659712	63	5609
2026-01-09 23:40:29.92	188.68	10.41	-46.0	-49.5	15.2	0.00e+00	0	43	0	1253048320	63	5437
2026-01-09 23:40:33.94	188.78	10.06	-46.1	-49.7	15.0	0.00e+00	0	43	0	1260388352	63	5549
2026-01-09 23:40:38.40	188.89	9.68	-46.1	-49.6	15.1	0.00e+00	0	43	0	1268776960	63	5521
2026-01-09 23:40:42.47	188.99	9.33	-45.9	-49.3	15.3	0.00e+00	0	43	0	1276116992	63	5324
2026-01-09 23:40:46.60	189.09	8.99	-46.2	-49.8	15.0	0.00e+00	0	43	0	1284505600	63	5599
2026-01-09 23:40:50.61	189.18	8.65	-51.0	-66.5	3.8	1.49e+00	0	43	104	1285554176	72	22964
2026-01-09 23:40:54.63	189.27	8.33	-51.8	-66.8	3.8	1.49e+00	0	44	104	1285554176	74	21146
2026-01-09 23:40:58.73	189.36	8.00	-51.8	-66.9	3.8	1.49e+00	0	43	104	1285554176	74	21295
2026-01-09 23:41:02.84	189.45	7.67	-51.8	-66.9	3.8	1.49e+00	0	44	104	1285554176	74	21457
2026-01-09 23:41:06.86	189.54	7.36	-52.0	-66.9	3.8	1.49e+00	0	44	104	1285554176	74	21378
2026-01-09 23:41:10.88	189.62	7.04	-51.9	-66.9	3.8	1.49e+00	0	43	104	1285554176	74	21470
2026-01-09 23:41:14.89	189.71	6.74	-51.7	-66.9	3.8	1.49e+00	0	44	104	1285554176	74	21298
2026-01-09 23:41:18.91	189.79	6.43	-51.7	-66.9	3.8	1.49e+00	0	44	104	1285554176	74	21290
2026-01-09 23:41:22.92	189.87	6.13	-51.7	-66.9	3.8	1.49e+00	0	44	104	1285554176	74	21324
2026-01-09 23:41:26.94	189.95	5.83	-51.7	-66.9	3.8	1.49e+00	0	44	104	1285554176	74	21297
2026-01-09 23:41:30.96	190.02	5.54	-51.7	-66.9	3.8	1.49e+00	0	44	104	1285554176	74	21380
2026-01-09 23:41:34.98	190.10	5.25	-51.7	-66.8	3.8	1.49e+00	0	44	104	1285554176	74	21236
2026-01-09 23:41:38.99	190.17	4.96	-51.7	-66.9	3.8	1.49e+00	0	44	104	1285554176	74	21395

#Closed at: 2026-01-09 23:41:39
#Recorded file [1285 MB]: D:/Data/31040_260110_022842.dat