passes_logs/2026/01/09/T1/T1__20260109_082007_NOAA_20_JPSS-1_rec.log

#Pass ID: 20260109_082007_NOAA 20 (JPSS-1)
#Satellite: NOAA 20 (JPSS-1)
#Configuration: NOAA 20
#almurnet v.1.7.20251203
#Start time: 2026-01-09 08:20:07

#Version: 2.0.20230620
#Station: T1
#Location: 37.570604 lon 55.790049 lat
#TLE: 1 43013U 17073A   26008.42245989  .00000120  00000+0  77990-4 0  9996
#TLE: 2 43013  98.7631 309.4315 0001737  48.7960 311.3365 14.19534455421802

#Time	Az	El	Level	Level2	SNR	BER	BlckErr	Temp	State	Recorded	gain1	gain2
2026-01-09 08:20:07.64	109.80	4.98	-46.8	-63.0	3.8	1.49e+00	0	40	0	0	65	23023
2026-01-09 08:20:10.64	109.56	5.17	-46.3	-63.0	3.8	1.50e+00	0	40	104	0	64	24342
2026-01-09 08:20:13.65	109.31	5.35	-46.4	-63.1	3.9	1.49e+00	0	40	104	0	64	24452
2026-01-09 08:20:16.66	109.07	5.54	-48.1	-63.3	3.8	1.49e+00	0	40	104	0	66	22333
2026-01-09 08:20:19.67	108.82	5.72	-48.1	-63.2	3.8	1.49e+00	0	41	104	0	66	22256
2026-01-09 08:20:22.68	108.56	5.91	-48.0	-63.2	3.8	1.49e+00	0	41	104	0	66	22052
2026-01-09 08:20:25.69	108.30	6.10	-48.0	-63.1	3.8	1.49e+00	0	41	104	0	66	21803
2026-01-09 08:20:28.70	108.04	6.29	-48.0	-63.1	3.8	1.49e+00	0	41	104	0	66	21865
2026-01-09 08:20:31.71	107.78	6.48	-48.0	-63.1	3.8	1.49e+00	0	41	104	0	66	21931
2026-01-09 08:20:34.72	107.51	6.67	-48.1	-63.2	3.8	1.49e+00	0	41	104	0	66	22040
2026-01-09 08:20:37.73	107.24	6.86	-47.9	-62.9	3.8	1.49e+00	0	41	104	0	66	21371
2026-01-09 08:20:40.74	106.96	7.05	-47.9	-62.9	3.8	1.49e+00	0	41	104	0	66	21434
2026-01-09 08:20:43.75	106.68	7.25	-48.1	-63.1	3.8	1.49e+00	0	41	104	0	66	21974
2026-01-09 08:20:46.75	106.40	7.44	-48.1	-62.9	3.8	1.49e+00	0	41	104	0	66	21270
2026-01-09 08:20:49.76	106.11	7.63	-48.0	-61.4	3.8	1.49e+00	0	41	104	0	66	17916
2026-01-09 08:20:52.77	105.82	7.83	-48.0	-60.9	3.8	1.48e+00	0	41	104	0	66	16941
2026-01-09 08:20:55.77	105.53	8.02	-48.0	-60.9	3.8	1.49e+00	0	42	104	0	66	16942
2026-01-09 08:20:58.78	105.23	8.22	-46.7	-53.3	8.7	6.04e-02	0	42	0	4194304	65	7463
2026-01-09 08:21:01.79	104.93	8.42	-45.1	-49.4	12.8	7.40e-05	0	42	0	9437184	62	5658
2026-01-09 08:21:04.80	104.62	8.62	-45.0	-49.1	13.0	1.44e-05	0	42	0	14680064	61	5847
2026-01-09 08:21:07.81	104.31	8.82	-46.6	-53.1	8.8	1.01e-02	0	42	0	20971520	64	7780
2026-01-09 08:21:10.82	103.99	9.02	-47.9	-60.2	4.1	1.19e+00	0	42	0	26214400	66	15700
2026-01-09 08:21:13.82	103.67	9.22	-48.0	-62.6	3.8	1.16e+00	0	42	104	28311552	66	20736
2026-01-09 08:21:16.83	103.35	9.42	-46.8	-53.4	8.4	1.06e+00	0	42	0	29360128	65	7557
2026-01-09 08:21:19.84	103.02	9.62	-45.1	-49.2	13.1	4.95e-05	0	42	0	34603008	62	5560
2026-01-09 08:21:22.84	102.68	9.82	-45.0	-49.1	13.3	1.22e-05	0	42	0	40894464	62	5471
2026-01-09 08:21:25.85	102.34	10.03	-44.7	-48.5	13.8	6.10e-06	0	42	0	46137344	61	5462
2026-01-09 08:21:28.85	102.00	10.23	-44.5	-48.2	14.2	1.50e-06	0	42	0	51380224	61	5243
2026-01-09 08:21:31.85	101.65	10.44	-44.3	-47.9	14.6	7.00e-07	0	42	0	57671680	60	5349
2026-01-09 08:21:34.86	101.30	10.64	-44.3	-47.8	14.6	0.00e+00	0	42	0	62914560	60	5319
2026-01-09 08:21:37.86	100.94	10.85	-44.3	-47.9	14.6	0.00e+00	0	42	0	68157440	60	5346
2026-01-09 08:21:40.87	100.58	11.06	-44.3	-47.8	14.6	0.00e+00	0	42	0	74448896	60	5330
2026-01-09 08:21:43.87	100.21	11.26	-44.2	-47.6	14.9	0.00e+00	0	42	0	79691776	60	5184
2026-01-09 08:21:46.87	99.83	11.47	-44.2	-47.6	14.9	0.00e+00	0	42	0	84934656	60	5191
2026-01-09 08:21:49.88	99.45	11.68	-44.0	-47.4	15.1	0.00e+00	0	42	0	91226112	60	5051
2026-01-09 08:21:52.88	99.07	11.89	-44.0	-47.2	15.3	0.00e+00	0	42	0	96468992	59	5258
2026-01-09 08:21:55.89	98.68	12.10	-44.1	-47.4	15.1	0.00e+00	0	42	0	102760448	59	5367
2026-01-09 08:21:58.90	98.28	12.31	-43.7	-46.8	15.7	0.00e+00	0	42	0	108003328	59	5006
2026-01-09 08:22:01.91	97.88	12.52	-43.6	-46.7	15.8	0.00e+00	0	42	0	113246208	59	4942
2026-01-09 08:22:04.91	97.47	12.73	-43.8	-46.9	15.6	0.00e+00	0	42	0	119537664	59	5100
2026-01-09 08:22:07.91	97.05	12.94	-43.6	-46.7	15.8	0.00e+00	0	42	0	124780544	59	4957
2026-01-09 08:22:10.91	96.63	13.15	-43.9	-47.0	15.6	0.00e+00	0	42	0	130023424	59	5142
2026-01-09 08:22:13.92	96.21	13.36	-43.7	-46.8	15.8	0.00e+00	0	42	0	136314880	59	5014
2026-01-09 08:22:16.93	95.77	13.58	-43.9	-47.0	15.6	0.00e+00	0	42	0	141557760	59	5143
2026-01-09 08:22:19.94	95.33	13.79	-43.8	-47.0	15.6	0.00e+00	0	42	0	147849216	59	5104
2026-01-09 08:22:22.94	94.89	14.00	-43.9	-47.1	15.6	0.00e+00	0	42	0	153092096	59	5160
2026-01-09 08:22:25.94	94.44	14.21	-44.0	-47.2	15.4	0.00e+00	0	42	0	158334976	59	5250
2026-01-09 08:22:28.95	93.98	14.43	-44.1	-47.3	15.3	0.00e+00	0	42	0	164626432	59	5322
2026-01-09 08:22:31.95	93.51	14.64	-44.1	-47.3	15.3	0.00e+00	0	42	0	169869312	59	5323
2026-01-09 08:22:34.96	93.04	14.85	-44.4	-47.8	14.8	7.00e-07	0	42	0	175112192	59	5642
2026-01-09 08:22:37.96	92.56	15.07	-44.1	-47.4	15.3	0.00e+00	0	42	0	181403648	59	5362
2026-01-09 08:22:40.97	92.08	15.28	-44.2	-47.5	15.1	0.00e+00	0	42	0	186646528	59	5454
2026-01-09 08:22:43.97	91.58	15.49	-44.4	-47.9	14.8	0.00e+00	0	42	0	192937984	59	5673
2026-01-09 08:22:46.96	91.09	15.70	-44.5	-48.0	14.7	7.00e-07	0	42	0	198180864	59	5763
2026-01-09 08:22:49.97	90.58	15.91	-44.3	-47.8	14.8	0.00e+00	0	42	0	203423744	59	5609
2026-01-09 08:22:52.97	90.06	16.12	-44.3	-47.7	14.9	0.00e+00	0	42	0	209715200	59	5572
2026-01-09 08:22:55.98	89.54	16.33	-44.1	-47.5	15.1	0.00e+00	0	42	0	214958080	59	5444
2026-01-09 08:22:58.98	89.01	16.54	-44.0	-47.4	15.3	0.00e+00	0	42	0	220200960	59	5356
2026-01-09 08:23:01.99	88.48	16.75	-44.0	-47.3	15.4	0.00e+00	0	42	0	226492416	59	5309
2026-01-09 08:23:04.99	87.93	16.96	-43.8	-46.9	15.7	0.00e+00	0	42	0	231735296	59	5075
2026-01-09 08:23:08.00	87.38	17.17	-43.5	-46.6	16.1	0.00e+00	0	42	0	238026752	59	4872
2026-01-09 08:23:11.00	86.82	17.37	-43.4	-46.4	16.3	0.00e+00	0	42	0	243269632	58	5074
2026-01-09 08:23:14.00	86.25	17.58	-43.0	-45.9	16.8	0.00e+00	0	42	0	248512512	58	4761
2026-01-09 08:23:17.01	85.68	17.78	-42.7	-45.5	17.1	0.00e+00	0	42	0	254803968	57	4870
2026-01-09 08:23:20.01	85.10	17.98	-42.5	-45.2	17.4	0.00e+00	0	42	0	260046848	57	4701
2026-01-09 08:23:23.01	84.51	18.18	-42.4	-45.2	17.5	0.00e+00	0	42	0	265289728	56	4933
2026-01-09 08:23:26.02	83.91	18.38	-42.2	-44.9	17.8	0.00e+00	0	42	0	271581184	56	4760
2026-01-09 08:23:29.03	83.30	18.58	-42.0	-44.6	18.0	0.00e+00	0	42	0	276824064	56	4641
2026-01-09 08:23:32.03	82.69	18.78	-42.0	-44.5	18.2	0.00e+00	0	42	0	283115520	56	4590
2026-01-09 08:23:35.04	82.06	18.97	-41.8	-44.3	18.2	0.00e+00	0	42	0	288358400	55	4750
2026-01-09 08:23:38.05	81.43	19.17	-41.7	-44.2	18.3	0.00e+00	0	42	0	293601280	55	4665
2026-01-09 08:23:41.05	80.79	19.35	-41.7	-44.1	18.4	0.00e+00	0	42	0	299892736	55	4634
2026-01-09 08:23:44.06	80.15	19.54	-41.7	-44.1	18.4	0.00e+00	0	42	0	305135616	55	4612
2026-01-09 08:23:47.07	79.49	19.73	-41.8	-44.2	18.3	0.00e+00	0	42	0	310378496	55	4685
2026-01-09 08:23:50.07	78.83	19.91	-41.8	-44.4	18.2	0.00e+00	0	42	0	316669952	55	4760
2026-01-09 08:23:53.08	78.16	20.09	-42.0	-44.5	18.1	0.00e+00	0	42	0	321912832	55	4844
2026-01-09 08:23:56.08	77.48	20.27	-42.1	-44.6	17.9	0.00e+00	0	42	0	328204288	55	4905
2026-01-09 08:23:59.08	76.80	20.44	-42.0	-44.5	18.0	0.00e+00	0	42	0	333447168	55	4844
2026-01-09 08:24:02.09	76.10	20.61	-41.8	-44.3	18.3	0.00e+00	0	42	0	338690048	55	4732
2026-01-09 08:24:05.10	75.40	20.78	-41.8	-44.3	18.3	0.00e+00	0	42	0	344981504	55	4706
2026-01-09 08:24:08.10	74.69	20.94	-41.5	-43.8	18.7	0.00e+00	0	42	0	350224384	54	4742
2026-01-09 08:24:11.11	73.97	21.10	-41.3	-43.6	18.9	0.00e+00	0	42	0	355467264	54	4645
2026-01-09 08:24:14.11	73.25	21.26	-41.4	-43.8	18.8	0.00e+00	0	42	0	361758720	54	4707
2026-01-09 08:24:17.12	72.52	21.41	-41.3	-43.7	18.8	0.00e+00	0	42	0	367001600	54	4661
2026-01-09 08:24:20.13	71.78	21.56	-41.1	-43.4	19.1	0.00e+00	0	42	0	373293056	54	4530
2026-01-09 08:24:23.13	71.03	21.70	-41.2	-43.5	19.0	0.00e+00	0	42	0	378535936	54	4574
2026-01-09 08:24:26.14	70.28	21.84	-41.2	-43.5	19.1	0.00e+00	0	42	0	383778816	54	4551
2026-01-09 08:24:29.14	69.52	21.98	-41.3	-43.6	19.0	0.00e+00	0	42	0	390070272	54	4623
2026-01-09 08:24:32.15	68.76	22.11	-41.4	-43.8	18.8	0.00e+00	0	42	0	395313152	54	4731
2026-01-09 08:24:35.15	67.99	22.23	-41.6	-43.9	18.6	0.00e+00	0	42	0	400556032	54	4803
2026-01-09 08:24:38.16	67.21	22.35	-41.5	-43.8	18.8	0.00e+00	0	42	0	406847488	54	4734
2026-01-09 08:24:41.17	66.42	22.47	-42.0	-44.5	18.1	0.00e+00	0	42	0	412090368	54	5114
2026-01-09 08:24:44.17	65.63	22.58	-42.4	-45.1	17.5	0.00e+00	0	42	0	418381824	55	5168
2026-01-09 08:24:47.17	64.84	22.68	-42.4	-45.0	17.6	0.00e+00	0	42	0	423624704	55	5130
2026-01-09 08:24:50.18	64.04	22.78	-42.9	-45.6	17.2	0.00e+00	0	42	0	428867584	56	5164
2026-01-09 08:24:53.18	63.23	22.88	-42.9	-45.6	17.2	0.00e+00	0	42	0	435159040	56	5182
2026-01-09 08:24:56.19	62.42	22.96	-42.9	-45.6	17.1	0.00e+00	0	42	0	440401920	56	5213
2026-01-09 08:24:59.20	61.61	23.05	-43.3	-46.2	16.7	0.00e+00	0	42	0	445644800	57	5223
2026-01-09 08:25:02.20	60.79	23.12	-43.3	-46.2	16.6	0.00e+00	0	42	0	451936256	57	5223
2026-01-09 08:25:05.21	59.97	23.19	-43.3	-46.2	16.6	0.00e+00	0	42	0	457179136	57	5250
2026-01-09 08:25:08.22	59.14	23.25	-43.2	-46.1	16.7	0.00e+00	0	42	0	463470592	57	5172
2026-01-09 08:25:11.22	58.31	23.31	-43.3	-46.1	16.7	0.00e+00	0	42	0	468713472	57	5167
2026-01-09 08:25:14.23	57.48	23.36	-43.3	-46.2	16.7	0.00e+00	0	42	0	473956352	57	5232
2026-01-09 08:25:17.23	56.65	23.41	-43.3	-46.1	16.7	0.00e+00	0	42	0	480247808	57	5175
2026-01-09 08:25:20.24	55.81	23.44	-43.3	-46.1	16.7	0.00e+00	0	42	0	485490688	57	5177
2026-01-09 08:25:23.25	54.97	23.48	-42.9	-45.6	17.2	0.00e+00	0	42	0	490733568	57	4891
2026-01-09 08:25:26.25	54.13	23.50	-43.0	-45.9	16.9	0.00e+00	0	42	0	497025024	57	5042
2026-01-09 08:25:29.25	53.29	23.52	-42.9	-45.7	17.1	0.00e+00	0	42	0	502267904	57	4944
2026-01-09 08:25:32.25	52.46	23.53	-42.7	-45.3	17.5	0.00e+00	0	42	0	508559360	57	4747
2026-01-09 08:25:35.27	51.61	23.53	-42.4	-45.0	17.8	0.00e+00	0	42	0	513802240	56	4832
2026-01-09 08:25:38.27	50.77	23.53	-42.4	-44.9	17.9	0.00e+00	0	42	0	519045120	56	4803
2026-01-09 08:25:41.28	49.93	23.52	-42.1	-44.6	18.1	0.00e+00	0	42	0	525336576	56	4635
2026-01-09 08:25:44.28	49.09	23.51	-41.8	-44.2	18.4	0.00e+00	0	42	0	530579456	55	4690
2026-01-09 08:25:47.29	48.25	23.49	-41.3	-43.7	18.9	0.00e+00	0	42	0	535822336	54	4655
2026-01-09 08:25:50.30	47.41	23.46	-41.1	-43.3	19.2	0.00e+00	0	42	0	542113792	54	4487
2026-01-09 08:25:53.30	46.57	23.42	-40.9	-43.2	19.4	0.00e+00	0	42	0	547356672	53	4665
2026-01-09 08:25:56.30	45.74	23.38	-40.9	-43.1	19.4	0.00e+00	0	42	0	553648128	53	4632
2026-01-09 08:25:59.31	44.91	23.33	-40.9	-43.1	19.4	0.00e+00	0	42	0	558891008	53	4640
2026-01-09 08:26:02.32	44.08	23.28	-40.7	-42.9	19.7	0.00e+00	0	42	0	564133888	53	4500
2026-01-09 08:26:05.33	43.25	23.22	-40.9	-43.1	19.4	0.00e+00	0	42	0	570425344	53	4629
2026-01-09 08:26:08.61	42.35	23.15	-41.0	-43.3	19.3	0.00e+00	0	42	0	576716800	53	4715
2026-01-09 08:26:11.33	41.61	23.08	-41.1	-43.4	19.2	0.00e+00	0	42	0	580911104	53	4790
2026-01-09 08:26:14.62	40.72	22.99	-41.3	-43.6	19.0	0.00e+00	0	42	0	587202560	53	4886
2026-01-09 08:26:17.57	39.92	22.91	-41.5	-43.9	18.7	0.00e+00	0	42	0	593494016	53	5084
2026-01-09 08:26:20.58	39.12	22.82	-41.8	-44.3	18.3	0.00e+00	0	42	0	598736896	54	5006
2026-01-09 08:26:23.59	38.32	22.72	-42.0	-44.5	18.1	0.00e+00	0	42	0	603979776	54	5128
2026-01-09 08:26:26.69	37.50	22.61	-42.2	-44.7	17.9	0.00e+00	0	42	0	610271232	55	4952
2026-01-09 08:26:29.67	36.71	22.51	-42.1	-44.7	17.9	0.00e+00	0	42	0	615514112	55	4933
2026-01-09 08:26:33.00	35.84	22.38	-42.5	-45.1	17.5	0.00e+00	0	42	0	621805568	55	5179
2026-01-09 08:26:35.72	35.14	22.27	-42.5	-45.2	17.5	0.00e+00	0	42	0	627048448	55	5236
2026-01-09 08:26:39.01	34.30	22.14	-42.5	-45.2	17.4	0.00e+00	0	42	0	633339904	55	5255
2026-01-09 08:26:41.86	33.57	22.02	-42.6	-45.3	17.3	0.00e+00	0	42	0	638582784	55	5327
2026-01-09 08:26:45.23	32.72	21.87	-43.0	-45.7	17.1	0.00e+00	0	42	0	644874240	56	5277
2026-01-09 08:26:47.95	32.04	21.74	-42.9	-45.7	17.1	0.00e+00	0	42	0	650117120	56	5270
2026-01-09 08:26:51.25	31.22	21.59	-43.0	-45.8	17.0	0.00e+00	0	42	0	656408576	56	5280
2026-01-09 08:26:54.32	30.47	21.43	-42.8	-45.5	17.2	0.00e+00	0	42	0	661651456	56	5156
2026-01-09 08:26:57.43	29.72	21.28	-43.2	-46.1	16.7	0.00e+00	0	42	0	667942912	57	5169
2026-01-09 08:27:00.58	28.96	21.12	-42.9	-45.6	17.1	0.00e+00	0	42	0	673185792	57	4923
2026-01-09 08:27:03.45	28.28	20.96	-42.9	-45.6	17.2	0.00e+00	0	42	0	679477248	57	4893
2026-01-09 08:27:06.60	27.54	20.79	-42.9	-45.6	17.2	0.00e+00	0	42	0	684720128	57	4896
2026-01-09 08:27:09.46	26.87	20.63	-42.7	-45.5	17.3	0.00e+00	0	42	0	689963008	57	4818
2026-01-09 08:27:12.62	26.14	20.46	-42.6	-45.5	17.3	0.00e+00	0	42	0	696254464	57	4821
2026-01-09 08:27:15.64	25.46	20.28	-42.5	-45.3	17.4	0.00e+00	0	42	0	701497344	56	5019
2026-01-09 08:27:19.00	24.70	20.08	-42.3	-45.1	17.6	0.00e+00	0	42	0	707788800	56	4898
2026-01-09 08:27:21.74	24.09	19.92	-42.4	-45.2	17.6	0.00e+00	0	42	0	713031680	56	4953
2026-01-09 08:27:25.03	23.37	19.72	-42.6	-45.3	17.5	0.00e+00	0	42	0	719323136	56	5032
2026-01-09 08:27:27.75	22.78	19.56	-42.6	-45.3	17.4	0.00e+00	0	42	0	724566016	56	5030
2026-01-09 08:27:31.18	22.05	19.34	-42.6	-45.4	17.4	0.00e+00	0	42	0	730857472	56	5053
2026-01-09 08:27:34.22	21.41	19.15	-42.5	-45.3	17.5	0.00e+00	0	42	0	737148928	56	5007
2026-01-09 08:27:38.01	20.62	18.91	-42.4	-45.2	17.5	0.00e+00	0	42	0	743440384	56	4948
2026-01-09 08:27:40.79	20.05	18.73	-42.5	-45.3	17.4	0.00e+00	0	42	0	748683264	56	5038
2026-01-09 08:27:44.53	19.29	18.48	-42.8	-45.6	17.2	0.00e+00	0	42	0	756023296	56	5172
2026-01-09 08:27:47.27	18.74	18.30	-42.6	-45.4	17.4	0.00e+00	0	42	0	761266176	56	5076
2026-01-09 08:27:51.03	18.00	18.05	-42.6	-45.3	17.4	0.00e+00	0	42	0	768606208	56	5037
2026-01-09 08:27:53.89	17.45	17.86	-42.5	-45.2	17.5	0.00e+00	0	42	0	773849088	56	4983
2026-01-09 08:27:57.46	16.77	17.62	-42.4	-45.0	17.8	0.00e+00	0	42	0	780140544	56	4816
2026-01-09 08:28:00.34	16.23	17.43	-42.3	-44.8	17.9	0.00e+00	0	42	0	785383424	56	4743
2026-01-09 08:28:04.08	15.53	17.17	-42.0	-44.5	18.2	0.00e+00	0	42	0	792723456	56	4595
2026-01-09 08:28:06.83	15.03	16.98	-41.8	-44.4	18.2	0.00e+00	0	42	0	797966336	55	4771
2026-01-09 08:28:10.57	14.36	16.72	-41.8	-44.4	18.1	0.00e+00	0	42	0	805306368	55	4807
2026-01-09 08:28:13.34	13.87	16.53	-41.5	-44.2	18.3	0.00e+00	0	42	0	810549248	55	4676
2026-01-09 08:28:17.21	13.19	16.26	-41.1	-44.0	18.5	0.00e+00	0	42	0	816840704	54	4838
2026-01-09 08:28:19.99	12.72	16.07	-41.2	-44.0	18.5	0.00e+00	0	42	0	822083584	54	4820
2026-01-09 08:28:23.73	12.08	15.81	-41.5	-44.2	18.3	0.00e+00	0	42	0	829423616	54	4971
2026-01-09 08:28:26.68	11.59	15.60	-41.5	-44.2	18.3	0.00e+00	0	42	0	834666496	54	4976
2026-01-09 08:28:30.05	11.04	15.36	-41.4	-44.0	18.5	0.00e+00	0	42	0	840957952	54	4849
2026-01-09 08:28:32.77	10.60	15.17	-41.5	-44.1	18.4	0.00e+00	0	42	0	846200832	54	4920
2026-01-09 08:28:36.06	10.08	14.94	-41.5	-44.2	18.2	0.00e+00	0	42	0	852492288	54	4963
2026-01-09 08:28:39.21	9.59	14.72	-41.6	-44.4	18.1	0.00e+00	0	42	0	858783744	54	5085
2026-01-09 08:28:42.08	9.14	14.52	-41.8	-44.6	17.9	0.00e+00	0	42	0	864026624	54	5207
2026-01-09 08:28:45.36	8.64	14.29	-42.1	-45.0	17.5	0.00e+00	0	42	0	870318080	54	5421
2026-01-09 08:28:48.09	8.24	14.09	-42.1	-45.2	17.3	0.00e+00	0	42	0	875560960	54	5539
2026-01-09 08:28:51.38	7.75	13.86	-41.9	-45.1	17.4	0.00e+00	0	42	0	881852416	55	5161
2026-01-09 08:28:54.27	7.33	13.66	-41.8	-44.9	17.6	0.00e+00	0	42	0	887095296	55	5045
2026-01-09 08:28:57.42	6.88	13.44	-41.9	-45.0	17.4	0.00e+00	0	42	0	892338176	55	5146
2026-01-09 08:29:00.29	6.47	13.24	-42.1	-45.4	17.1	0.00e+00	0	42	0	897581056	55	5349
2026-01-09 08:29:03.44	6.03	13.01	-42.3	-45.6	16.8	0.00e+00	0	42	0	903872512	55	5489
2026-01-09 08:29:06.36	5.63	12.81	-42.4	-45.5	16.9	0.00e+00	0	42	0	909115392	55	5417
2026-01-09 08:29:09.86	5.16	12.56	-42.3	-45.5	16.9	0.00e+00	0	42	0	916455424	55	5440
2026-01-09 08:29:12.58	4.80	12.38	-42.5	-45.7	16.7	0.00e+00	0	42	0	920649728	55	5580
2026-01-09 08:29:15.88	4.37	12.15	-43.1	-46.2	16.3	0.00e+00	0	42	0	926941184	56	5592
2026-01-09 08:29:18.60	4.01	11.96	-43.0	-46.0	16.5	0.00e+00	0	42	0	932184064	56	5453
2026-01-09 08:29:21.80	3.61	11.73	-43.1	-46.3	16.3	0.00e+00	0	42	0	938475520	56	5600
2026-01-09 08:29:24.81	3.23	11.53	-43.1	-46.5	16.0	0.00e+00	0	42	0	943718400	56	5765
2026-01-09 08:29:27.81	2.86	11.32	-43.2	-46.6	16.0	0.00e+00	0	42	0	950009856	57	5485
2026-01-09 08:29:31.10	2.46	11.09	-43.3	-46.5	16.0	0.00e+00	0	42	0	956301312	57	5420
2026-01-09 08:29:33.82	2.13	10.91	-42.6	-46.5	16.0	0.00e+00	0	42	0	960495616	57	5428
2026-01-09 08:29:37.12	1.74	10.68	-42.6	-46.6	15.9	0.00e+00	0	42	0	966787072	56	5812
2026-01-09 08:29:39.84	1.42	10.50	-43.1	-46.8	15.7	0.00e+00	0	42	0	972029952	56	5963
2026-01-09 08:29:43.47	1.01	10.25	-43.3	-47.2	15.3	0.00e+00	0	42	0	979369984	57	5886
2026-01-09 08:29:46.28	0.69	10.06	-43.3	-47.2	15.3	0.00e+00	0	42	0	984612864	57	5878
2026-01-09 08:29:49.58	0.32	9.84	-43.5	-47.3	15.2	0.00e+00	0	42	0	990904320	57	5954
2026-01-09 08:29:52.30	0.02	9.65	-43.6	-47.5	15.0	0.00e+00	0	42	0	996147200	58	5743
2026-01-09 08:29:55.66	359.66	9.43	-43.8	-47.8	14.7	0.00e+00	0	42	0	1002438656	58	5947
2026-01-09 08:29:58.39	359.37	9.25	-43.9	-47.9	14.6	0.00e+00	0	42	0	1006632960	58	6031
2026-01-09 08:30:01.81	359.01	9.02	-44.0	-47.8	14.6	0.00e+00	0	42	0	1013972992	58	5951
2026-01-09 08:30:04.54	358.72	8.84	-48.2	-63.6	3.8	1.49e+00	0	42	104	1016070144	67	21940
2026-01-09 08:30:07.83	358.39	8.62	-48.3	-64.0	3.8	1.49e+00	0	42	104	1016070144	67	22924
2026-01-09 08:30:10.56	358.11	8.44	-48.9	-64.2	3.8	1.49e+00	0	42	104	1016070144	68	22195
2026-01-09 08:30:13.86	357.79	8.23	-48.9	-64.3	3.8	1.49e+00	0	42	104	1016070144	68	22352
2026-01-09 08:30:16.59	357.52	8.05	-49.0	-64.3	3.8	1.49e+00	0	42	104	1016070144	68	22339
2026-01-09 08:30:19.89	357.20	7.83	-49.0	-64.3	3.8	1.49e+00	0	42	104	1016070144	68	22416
2026-01-09 08:30:22.61	356.94	7.66	-48.7	-64.3	3.8	1.49e+00	0	42	104	1016070144	68	22363
2026-01-09 08:30:25.91	356.63	7.45	-49.0	-64.3	3.8	1.49e+00	0	42	104	1016070144	68	22366
2026-01-09 08:30:28.64	356.38	7.27	-49.1	-64.3	3.8	1.49e+00	0	42	104	1016070144	68	22283
2026-01-09 08:30:31.94	356.07	7.06	-48.7	-64.3	3.8	1.49e+00	0	42	104	1016070144	68	22307
2026-01-09 08:30:34.67	355.83	6.89	-48.7	-64.2	3.8	1.49e+00	0	42	104	1016070144	68	22172
2026-01-09 08:30:37.97	355.53	6.68	-48.7	-64.2	3.8	1.49e+00	0	42	104	1016070144	68	22232
2026-01-09 08:30:40.70	355.30	6.51	-48.7	-64.2	3.8	1.49e+00	0	42	104	1016070144	68	22206
2026-01-09 08:30:43.99	355.01	6.30	-48.7	-64.2	3.8	1.49e+00	0	42	104	1016070144	68	22199
2026-01-09 08:30:46.72	354.78	6.13	-48.7	-64.2	3.8	1.49e+00	0	42	104	1016070144	68	22202
2026-01-09 08:30:50.02	354.50	5.92	-48.7	-64.2	3.8	1.49e+00	0	42	104	1016070144	68	22215
2026-01-09 08:30:52.75	354.27	5.75	-48.7	-64.3	3.8	1.49e+00	0	42	104	1016070144	68	22285
2026-01-09 08:30:56.05	354.00	5.55	-48.7	-64.2	3.8	1.49e+00	0	42	104	1016070144	68	22243
2026-01-09 08:30:58.78	353.78	5.38	-48.7	-64.2	3.8	1.49e+00	0	42	104	1016070144	68	22202
2026-01-09 08:31:02.07	353.52	5.18	-48.7	-64.2	3.8	1.49e+00	0	42	104	1016070144	68	22095
2026-01-09 08:31:04.80	353.30	5.02	-48.7	-64.2	3.8	1.49e+00	0	42	104	1016070144	68	22166

#Closed at: 2026-01-09 08:31:06
#Recorded file [1016 MB]: D:/Data/31040_260109_112007.dat