passes_logs/2026/01/09/T1/T1__20260109_012811_SUOMI_NPP_rec.log

#Pass ID: 20260109_012811_SUOMI NPP
#Satellite: SUOMI NPP
#Configuration: NPP
#almurnet v.1.7.20251203
#Start time: 2026-01-09 01:28:11

#Version: 2.0.20230620
#Station: T1
#Location: 37.570604 lon 55.790049 lat
#TLE: 1 37849U 11061A   26008.05542337  .00000108  00000+0  71976-4 0  9997
#TLE: 2 37849  98.7805 310.1641 0002540  75.6410 284.5048 14.19523335735721

#Time	Az	El	Level	Level2	SNR	BER	BlckErr	Temp	State	Recorded	gain1	gain2
2026-01-09 01:28:11.89	6.36	5.03	-47.7	-63.9	3.8	1.49e+00	0	36	0	0	66	23859
2026-01-09 01:28:14.90	6.11	5.21	-46.5	-63.5	3.8	1.49e+00	0	36	104	0	64	25584
2026-01-09 01:28:17.91	5.86	5.39	-46.5	-63.5	3.8	1.49e+00	0	37	104	0	64	25656
2026-01-09 01:28:20.92	5.61	5.58	-46.7	-63.5	3.8	1.49e+00	0	37	104	0	64	25609
2026-01-09 01:28:23.94	5.35	5.76	-46.5	-63.4	3.8	1.49e+00	0	37	104	0	64	25397
2026-01-09 01:28:26.95	5.10	5.94	-46.7	-63.4	3.8	1.49e+00	0	37	104	0	64	25332
2026-01-09 01:28:29.96	4.83	6.13	-46.6	-63.4	3.8	1.49e+00	0	37	104	0	64	25540
2026-01-09 01:28:32.98	4.57	6.32	-46.6	-63.5	3.8	1.49e+00	0	37	104	0	64	25685
2026-01-09 01:28:35.99	4.30	6.50	-46.7	-63.5	3.8	1.49e+00	0	37	104	0	64	25797
2026-01-09 01:28:39.00	4.02	6.69	-46.7	-63.5	3.8	1.49e+00	0	37	104	0	64	25848
2026-01-09 01:28:42.01	3.75	6.88	-46.7	-63.5	3.8	1.49e+00	0	37	104	0	64	25686
2026-01-09 01:28:45.02	3.46	7.06	-46.5	-63.4	3.8	1.49e+00	0	37	104	0	64	25413
2026-01-09 01:28:48.04	3.18	7.25	-46.7	-63.3	3.8	1.49e+00	0	37	104	0	64	25027
2026-01-09 01:28:51.05	2.89	7.44	-46.6	-63.0	3.8	1.49e+00	0	38	104	0	64	24139
2026-01-09 01:28:54.06	2.60	7.64	-46.6	-62.4	3.8	1.49e+00	0	38	104	0	64	22523
2026-01-09 01:28:57.07	2.30	7.83	-46.6	-62.2	3.8	1.49e+00	0	38	104	0	64	22096
2026-01-09 01:29:00.09	2.00	8.02	-46.6	-63.4	3.8	1.49e+00	0	38	104	0	64	25276
2026-01-09 01:29:03.10	1.69	8.21	-46.5	-62.2	3.8	1.49e+00	0	38	104	0	64	22027
2026-01-09 01:29:06.11	1.39	8.40	-46.3	-57.1	5.4	6.31e-01	0	38	0	2097152	64	12366
2026-01-09 01:29:09.13	1.07	8.60	-45.7	-53.6	8.5	7.68e-02	0	38	0	7340032	63	8712
2026-01-09 01:29:12.14	0.75	8.79	-44.9	-51.1	11.1	2.01e-03	0	38	0	12582912	61	7298
2026-01-09 01:29:15.15	0.43	8.99	-44.8	-50.6	11.7	7.16e-04	0	38	0	18874368	61	6948
2026-01-09 01:29:18.16	0.11	9.19	-46.6	-57.7	5.1	4.98e-01	0	38	0	24117248	64	13194
2026-01-09 01:29:21.17	359.77	9.38	-45.0	-51.8	10.4	8.28e-04	0	38	0	30408704	60	8368
2026-01-09 01:29:24.18	359.44	9.58	-44.0	-48.1	14.2	0.00e+00	0	38	0	35651584	59	5834
2026-01-09 01:29:27.19	359.10	9.78	-44.1	-48.4	13.9	1.50e-06	0	38	0	40894464	59	6007
2026-01-09 01:29:30.15	358.76	9.97	-44.2	-48.4	13.8	5.30e-06	0	38	0	47185920	59	6052
2026-01-09 01:29:33.40	358.38	10.19	-44.1	-48.2	14.2	3.80e-06	0	38	0	52428800	59	5870
2026-01-09 01:29:36.73	357.99	10.41	-44.2	-48.5	13.9	5.30e-06	0	38	0	58720256	59	6072
2026-01-09 01:29:39.59	357.64	10.60	-43.9	-48.2	14.2	3.80e-06	0	38	0	65011712	59	5862
2026-01-09 01:29:42.92	357.24	10.82	-43.9	-48.2	14.1	0.00e+00	0	38	0	70254592	59	5908
2026-01-09 01:29:45.85	356.88	11.02	-43.8	-48.0	14.4	7.00e-07	0	38	0	76546048	59	5775
2026-01-09 01:29:49.06	356.47	11.23	-43.7	-48.1	14.3	0.00e+00	0	38	0	81788928	58	6186
2026-01-09 01:29:52.22	356.07	11.44	-43.7	-48.2	14.2	2.20e-06	0	38	0	88080384	58	6218
2026-01-09 01:29:55.07	355.71	11.63	-43.5	-48.0	14.4	0.00e+00	0	38	0	93323264	58	6089
2026-01-09 01:29:58.36	355.28	11.86	-43.1	-47.5	14.9	0.00e+00	0	39	0	99614720	58	5784
2026-01-09 01:30:01.33	354.88	12.06	-42.8	-47.2	15.3	0.00e+00	0	39	0	104857600	57	5879
2026-01-09 01:30:04.96	354.39	12.30	-42.7	-47.4	15.1	0.00e+00	0	38	0	112197632	57	6055
2026-01-09 01:30:07.70	354.02	12.49	-42.5	-47.3	15.1	0.00e+00	0	39	0	117440512	56	6284
2026-01-09 01:30:11.00	353.56	12.71	-42.3	-47.0	15.5	0.00e+00	0	39	0	123731968	56	6062
2026-01-09 01:30:13.78	353.17	12.90	-41.7	-46.4	15.9	0.00e+00	0	39	0	128974848	55	6013
2026-01-09 01:30:17.14	352.69	13.13	-41.9	-46.6	15.6	0.00e+00	0	39	0	135266304	55	6192
2026-01-09 01:30:19.98	352.27	13.32	-42.3	-47.1	15.2	0.00e+00	0	39	0	140509184	55	6528
2026-01-09 01:30:23.28	351.79	13.54	-43.0	-47.2	15.3	0.00e+00	0	39	0	146800640	56	6232
2026-01-09 01:30:26.00	351.38	13.73	-43.4	-47.3	15.2	0.00e+00	0	39	0	152043520	57	5944
2026-01-09 01:30:29.30	350.88	13.95	-43.6	-47.0	15.5	0.00e+00	0	39	0	157286400	58	5460
2026-01-09 01:30:32.02	350.47	14.14	-44.0	-47.8	14.8	0.00e+00	0	39	0	162529280	58	5940
2026-01-09 01:30:35.32	349.95	14.36	-44.2	-48.5	14.2	2.20e-06	0	39	0	168820736	59	6086
2026-01-09 01:30:38.04	349.52	14.54	-43.5	-47.2	15.3	0.00e+00	0	39	0	174063616	59	5241
2026-01-09 01:30:41.33	349.00	14.77	-43.9	-47.4	15.2	0.00e+00	0	39	0	180355072	59	5357
2026-01-09 01:30:44.53	348.48	14.98	-44.5	-48.6	14.0	3.00e-06	0	39	0	186646528	60	5795
2026-01-09 01:30:47.68	347.96	15.19	-44.4	-48.6	14.0	3.00e-06	0	39	0	191889408	60	5804
2026-01-09 01:30:50.55	347.48	15.39	-44.0	-48.1	14.5	7.00e-07	0	39	0	197132288	60	5511
2026-01-09 01:30:53.62	346.96	15.59	-43.5	-47.5	15.0	0.00e+00	0	39	0	203423744	58	5781
2026-01-09 01:30:56.77	346.42	15.80	-43.6	-48.1	14.5	0.00e+00	0	39	0	209715200	58	6163
2026-01-09 01:30:59.85	345.88	16.01	-43.4	-47.8	14.8	0.00e+00	0	39	0	214958080	58	5930
2026-01-09 01:31:02.86	345.35	16.20	-43.1	-47.1	15.4	0.00e+00	0	39	0	220200960	58	5528
2026-01-09 01:31:05.87	344.81	16.40	-42.9	-46.7	15.8	0.00e+00	0	39	0	226492416	57	5590
2026-01-09 01:31:08.88	344.26	16.60	-43.7	-47.7	14.9	0.00e+00	0	39	0	231735296	58	5858
2026-01-09 01:31:11.89	343.71	16.80	-43.9	-47.7	14.9	0.00e+00	0	39	0	238026752	58	5907
2026-01-09 01:31:14.90	343.15	16.99	-43.8	-47.6	14.9	0.00e+00	0	39	0	243269632	58	5848
2026-01-09 01:31:17.91	342.58	17.18	-43.7	-47.5	15.1	0.00e+00	0	39	0	248512512	58	5757
2026-01-09 01:31:20.92	342.00	17.38	-43.6	-47.7	14.9	0.00e+00	0	39	0	254803968	58	5871
2026-01-09 01:31:23.93	341.42	17.57	-43.1	-47.0	15.6	0.00e+00	0	39	0	260046848	58	5434
2026-01-09 01:31:26.98	340.82	17.76	-43.0	-46.4	16.1	0.00e+00	0	39	0	266338304	57	5378
2026-01-09 01:31:29.99	340.22	17.94	-43.5	-46.9	15.7	0.00e+00	0	39	0	271581184	57	5689
2026-01-09 01:31:33.00	339.62	18.13	-42.6	-46.0	16.5	0.00e+00	0	39	0	276824064	57	5123
2026-01-09 01:31:36.00	339.01	18.31	-42.2	-45.1	17.3	0.00e+00	0	39	0	283115520	55	5209
2026-01-09 01:31:39.01	338.38	18.49	-42.3	-45.2	17.3	0.00e+00	0	39	0	288358400	55	5242
2026-01-09 01:31:42.03	337.75	18.67	-42.5	-45.6	16.8	0.00e+00	0	39	0	293601280	55	5517
2026-01-09 01:31:45.03	337.12	18.85	-41.7	-44.6	17.7	0.00e+00	0	39	0	299892736	55	4912
2026-01-09 01:31:48.04	336.48	19.02	-41.7	-44.6	17.7	0.00e+00	0	39	0	305135616	55	4883
2026-01-09 01:31:51.05	335.83	19.19	-42.0	-45.2	17.1	0.00e+00	0	39	0	311427072	55	5279
2026-01-09 01:31:54.06	335.17	19.36	-41.9	-45.3	17.1	0.00e+00	0	39	0	316669952	55	5297
2026-01-09 01:31:57.18	334.48	19.53	-41.7	-44.7	17.6	0.00e+00	0	39	0	322961408	55	4977
2026-01-09 01:32:00.04	333.84	19.69	-41.9	-44.9	17.5	0.00e+00	0	39	0	328204288	55	5043
2026-01-09 01:32:03.13	333.14	19.85	-41.7	-44.6	17.7	0.00e+00	0	39	0	333447168	55	4904
2026-01-09 01:32:06.59	332.35	20.03	-41.7	-44.5	17.9	0.00e+00	0	39	0	339738624	55	4839
2026-01-09 01:32:09.36	331.71	20.17	-42.0	-45.0	17.4	0.00e+00	0	39	0	344981504	55	5130
2026-01-09 01:32:12.61	330.95	20.33	-41.8	-44.7	17.6	0.00e+00	0	39	0	351272960	55	4942
2026-01-09 01:32:15.75	330.21	20.49	-41.1	-43.7	18.6	0.00e+00	0	39	0	357564416	54	4678
2026-01-09 01:32:18.84	329.47	20.63	-41.2	-43.8	18.5	0.00e+00	0	39	0	362807296	53	5019
2026-01-09 01:32:21.85	328.75	20.77	-41.4	-44.2	18.2	0.00e+00	0	39	0	369098752	53	5249
2026-01-09 01:32:24.86	328.02	20.90	-41.4	-43.9	18.4	0.00e+00	0	39	0	374341632	53	5069
2026-01-09 01:32:27.94	327.27	21.03	-41.6	-44.1	18.4	0.00e+00	0	39	0	379584512	54	4915
2026-01-09 01:32:31.01	326.51	21.16	-42.0	-44.7	17.7	0.00e+00	0	39	0	385875968	55	4967
2026-01-09 01:32:34.02	325.76	21.28	-41.5	-44.2	18.1	0.00e+00	0	39	0	391118848	55	4690
2026-01-09 01:32:37.02	325.01	21.39	-41.0	-43.6	18.7	0.00e+00	0	39	0	397410304	54	4645
2026-01-09 01:32:40.03	324.25	21.50	-41.3	-43.9	18.5	0.00e+00	0	39	0	402653184	53	5057
2026-01-09 01:32:43.04	323.48	21.61	-41.4	-43.9	18.5	0.00e+00	0	39	0	408944640	53	5094
2026-01-09 01:32:46.05	322.71	21.71	-40.8	-43.2	19.1	0.00e+00	0	39	0	414187520	53	4654
2026-01-09 01:32:49.06	321.94	21.80	-41.8	-44.5	17.9	0.00e+00	0	39	0	419430400	54	5110
2026-01-09 01:32:52.07	321.16	21.89	-42.6	-45.6	16.8	0.00e+00	0	39	0	425721856	55	5515
2026-01-09 01:32:55.08	320.37	21.98	-42.6	-45.8	16.6	0.00e+00	0	39	0	430964736	55	5653
2026-01-09 01:32:58.28	319.53	22.06	-42.8	-46.0	16.7	0.00e+00	0	39	0	437256192	56	5409
2026-01-09 01:33:01.58	318.66	22.14	-43.1	-46.1	16.5	0.00e+00	0	39	0	443547648	57	5191
2026-01-09 01:33:04.57	317.87	22.20	-42.7	-45.6	17.0	0.00e+00	0	39	0	448790528	57	4875
2026-01-09 01:33:07.57	317.07	22.27	-42.3	-45.1	17.4	0.00e+00	0	39	0	454033408	56	4903
2026-01-09 01:33:10.58	316.27	22.32	-42.8	-45.9	16.7	0.00e+00	0	39	0	460324864	56	5400
2026-01-09 01:33:13.59	315.47	22.37	-42.9	-46.0	16.6	0.00e+00	0	39	0	465567744	56	5448
2026-01-09 01:33:16.60	314.66	22.41	-42.8	-45.6	16.9	0.00e+00	0	39	0	471859200	56	5218
2026-01-09 01:33:20.00	313.74	22.45	-43.1	-46.1	16.5	0.00e+00	0	39	0	478150656	56	5497
2026-01-09 01:33:22.73	313.00	22.48	-43.3	-46.4	16.1	0.00e+00	0	39	0	482344960	57	5391
2026-01-09 01:33:26.02	312.11	22.51	-43.5	-47.0	15.6	0.00e+00	0	39	0	488636416	57	5750
2026-01-09 01:33:28.76	311.37	22.52	-43.8	-47.3	15.3	0.00e+00	0	39	0	493879296	58	5652
2026-01-09 01:33:32.17	310.45	22.54	-44.1	-47.7	14.9	0.00e+00	0	39	0	500170752	58	5872
2026-01-09 01:33:34.97	309.69	22.54	-43.8	-47.3	15.3	0.00e+00	0	39	0	505413632	58	5593
2026-01-09 01:33:38.26	308.79	22.54	-43.1	-46.3	16.2	0.00e+00	0	39	0	511705088	58	4995
2026-01-09 01:33:41.00	308.05	22.53	-42.7	-45.6	17.0	0.00e+00	0	39	0	516947968	57	4889
2026-01-09 01:33:44.25	307.17	22.52	-42.4	-45.3	17.3	0.00e+00	0	39	0	523239424	56	5007
2026-01-09 01:33:47.11	306.40	22.50	-42.3	-45.0	17.5	0.00e+00	0	39	0	528482304	56	4850
2026-01-09 01:33:50.32	305.53	22.47	-43.0	-46.1	16.5	0.00e+00	0	39	0	534773760	56	5484
2026-01-09 01:33:53.26	304.73	22.44	-43.1	-46.2	16.5	0.00e+00	0	39	0	540016640	57	5230
2026-01-09 01:33:56.41	303.89	22.40	-42.7	-45.6	17.0	0.00e+00	0	39	0	546308096	57	4873
2026-01-09 01:33:59.28	303.11	22.36	-42.1	-44.7	17.8	0.00e+00	0	39	0	551550976	56	4688
2026-01-09 01:34:02.43	302.27	22.31	-42.1	-44.8	17.8	0.00e+00	0	39	0	556793856	56	4721
2026-01-09 01:34:05.29	301.51	22.25	-41.9	-44.6	17.8	0.00e+00	0	39	0	563085312	55	4879
2026-01-09 01:34:08.54	300.64	22.18	-41.8	-44.4	18.0	0.00e+00	0	39	0	568328192	55	4765
2026-01-09 01:34:11.47	299.87	22.12	-41.7	-44.2	18.1	0.00e+00	0	39	0	574619648	55	4693
2026-01-09 01:34:14.62	299.04	22.04	-41.4	-43.8	18.5	0.00e+00	0	39	0	579862528	54	4750
2026-01-09 01:34:17.48	298.29	21.97	-41.2	-43.7	18.7	0.00e+00	0	39	0	585105408	54	4668
2026-01-09 01:34:20.64	297.46	21.88	-41.4	-43.9	18.4	0.00e+00	0	39	0	591396864	54	4809
2026-01-09 01:34:23.50	296.72	21.79	-41.2	-43.6	18.7	0.00e+00	0	39	0	596639744	54	4649
2026-01-09 01:34:26.66	295.91	21.69	-41.1	-43.5	18.7	0.00e+00	0	39	0	602931200	54	4567
2026-01-09 01:34:29.52	295.17	21.59	-41.0	-43.3	19.0	0.00e+00	0	39	0	608174080	53	4738
2026-01-09 01:34:32.67	294.37	21.48	-41.4	-43.8	18.5	0.00e+00	0	39	0	614465536	53	5012
2026-01-09 01:34:35.54	293.65	21.38	-42.2	-44.9	17.5	0.00e+00	0	39	0	619708416	55	5060
2026-01-09 01:34:38.69	292.86	21.26	-42.2	-44.9	17.5	0.00e+00	0	39	0	624951296	55	5054
2026-01-09 01:34:41.56	292.14	21.14	-42.0	-44.7	17.7	0.00e+00	0	39	0	630194176	55	4931
2026-01-09 01:34:44.71	291.36	21.01	-42.6	-45.4	17.0	0.00e+00	0	39	0	636485632	55	5397
2026-01-09 01:34:47.71	290.63	20.88	-43.2	-46.3	16.4	0.00e+00	0	39	0	641728512	57	5295
2026-01-09 01:34:51.03	289.82	20.73	-43.3	-46.5	16.1	0.00e+00	0	39	0	648019968	57	5406
2026-01-09 01:34:53.75	289.17	20.61	-43.0	-46.0	16.6	0.00e+00	0	39	0	653262848	57	5135
2026-01-09 01:34:57.05	288.38	20.45	-42.8	-45.7	16.9	0.00e+00	0	39	0	659554304	57	4944
2026-01-09 01:34:59.77	287.74	20.32	-43.1	-46.2	16.4	0.00e+00	0	39	0	664797184	57	5231
2026-01-09 01:35:03.07	286.97	20.16	-42.8	-45.7	16.9	0.00e+00	0	39	0	671088640	57	4936
2026-01-09 01:35:05.79	286.34	20.02	-42.4	-45.1	17.4	0.00e+00	0	39	0	676331520	56	4903
2026-01-09 01:35:09.04	285.59	19.85	-41.7	-44.3	18.0	0.00e+00	0	39	0	682622976	55	4750
2026-01-09 01:35:11.90	284.94	19.70	-41.9	-44.5	17.8	0.00e+00	0	39	0	687865856	55	4855
2026-01-09 01:35:15.06	284.23	19.53	-42.4	-45.2	17.2	0.00e+00	0	39	0	693108736	55	5266
2026-01-09 01:35:17.92	283.60	19.37	-43.6	-46.9	15.7	0.00e+00	0	39	0	698351616	57	5677
2026-01-09 01:35:21.24	282.87	19.18	-43.4	-46.7	15.9	0.00e+00	0	39	0	704643072	58	5251
2026-01-09 01:35:23.96	282.28	19.03	-43.7	-47.1	15.5	0.00e+00	0	39	0	709885952	58	5499
2026-01-09 01:35:27.26	281.57	18.84	-44.6	-48.7	13.9	3.80e-06	0	39	0	716177408	59	6258
2026-01-09 01:35:30.22	280.94	18.66	-44.3	-48.3	14.3	2.20e-06	0	39	0	721420288	60	5633
2026-01-09 01:35:33.52	280.25	18.46	-43.3	-46.5	16.0	0.00e+00	0	39	0	727711744	58	5153
2026-01-09 01:35:36.24	279.69	18.30	-42.4	-45.2	17.3	0.00e+00	0	39	0	732954624	56	4957
2026-01-09 01:35:39.56	279.01	18.10	-42.1	-44.8	17.6	0.00e+00	0	39	0	739246080	56	4733
2026-01-09 01:35:42.44	278.43	17.92	-42.4	-45.3	17.2	0.00e+00	0	39	0	744488960	56	5004
2026-01-09 01:35:45.80	277.76	17.71	-42.4	-45.3	17.2	0.00e+00	0	39	0	750780416	56	4991
2026-01-09 01:35:48.52	277.22	17.54	-42.0	-44.7	17.7	0.00e+00	0	39	0	756023296	56	4692
2026-01-09 01:35:51.81	276.58	17.33	-42.3	-45.1	17.2	0.00e+00	0	39	0	762314752	55	5205
2026-01-09 01:35:54.63	276.04	17.15	-43.1	-46.2	16.3	0.00e+00	0	39	0	767557632	57	5269
2026-01-09 01:35:57.79	275.44	16.94	-44.0	-47.5	15.1	0.00e+00	0	39	0	773849088	58	5755
2026-01-09 01:36:00.65	274.91	16.76	-43.5	-46.7	15.8	0.00e+00	0	39	0	779091968	58	5272
2026-01-09 01:36:03.80	274.33	16.55	-43.1	-46.2	16.3	0.00e+00	0	39	0	785383424	58	4958
2026-01-09 01:36:06.75	273.79	16.36	-43.0	-46.0	16.5	0.00e+00	0	39	0	790626304	57	5135
2026-01-09 01:36:10.12	273.19	16.14	-42.7	-45.6	16.9	0.00e+00	0	39	0	796917760	57	4924
2026-01-09 01:36:12.88	272.70	15.95	-43.0	-46.1	16.4	0.00e+00	0	39	0	802160640	57	5170
2026-01-09 01:36:16.13	272.13	15.74	-43.5	-46.9	15.6	0.00e+00	0	39	0	808452096	57	5676
2026-01-09 01:36:18.99	271.64	15.54	-43.3	-46.5	15.9	0.00e+00	0	39	0	813694976	57	5462
2026-01-09 01:36:22.22	271.09	15.33	-42.8	-45.8	16.8	0.00e+00	0	39	0	818937856	57	4984
2026-01-09 01:36:25.38	270.56	15.12	-43.2	-46.2	16.4	0.00e+00	0	39	0	825229312	57	5223
2026-01-09 01:36:28.27	270.08	14.92	-43.4	-46.5	16.1	0.00e+00	0	39	0	830472192	57	5436
2026-01-09 01:36:31.57	269.54	14.70	-43.3	-46.3	16.1	0.00e+00	0	39	0	836763648	57	5337
2026-01-09 01:36:34.52	269.07	14.50	-43.0	-45.8	16.7	0.00e+00	0	39	0	842006528	57	5022
2026-01-09 01:36:37.67	268.57	14.28	-42.7	-45.4	17.1	0.00e+00	0	39	0	848297984	57	4789
2026-01-09 01:36:40.65	268.11	14.08	-42.7	-45.5	17.0	0.00e+00	0	39	0	853540864	57	4827
2026-01-09 01:36:43.66	267.64	13.88	-42.0	-44.6	17.9	0.00e+00	0	39	0	859832320	56	4606
2026-01-09 01:36:46.67	267.18	13.67	-41.5	-43.9	18.3	0.00e+00	0	39	0	865075200	54	4801
2026-01-09 01:36:49.68	266.73	13.47	-41.7	-44.2	18.0	0.00e+00	0	39	0	871366656	54	4966
2026-01-09 01:36:52.68	266.29	13.26	-42.2	-44.9	17.4	0.00e+00	0	39	0	876609536	54	5344
2026-01-09 01:36:55.80	265.84	13.05	-42.7	-45.5	17.0	0.00e+00	0	39	0	882900992	56	5142
2026-01-09 01:36:58.74	265.42	12.85	-42.6	-45.4	17.0	0.00e+00	0	39	0	888143872	56	5073
2026-01-09 01:37:02.04	264.95	12.62	-42.0	-44.6	17.8	0.00e+00	0	39	0	894435328	56	4615
2026-01-09 01:37:04.76	264.57	12.44	-41.7	-44.2	18.0	0.00e+00	0	39	0	899678208	55	4672
2026-01-09 01:37:08.06	264.12	12.22	-42.0	-44.6	17.7	0.00e+00	0	39	0	904921088	55	4883
2026-01-09 01:37:11.16	263.70	12.01	-42.5	-45.4	16.9	0.00e+00	0	39	0	911212544	55	5360
2026-01-09 01:37:14.47	263.25	11.78	-43.0	-46.0	16.4	0.00e+00	0	39	0	917504000	56	5424
2026-01-09 01:37:17.20	262.90	11.60	-43.2	-46.4	16.1	0.00e+00	0	39	0	922746880	57	5361
2026-01-09 01:37:20.58	262.46	11.37	-43.2	-46.2	16.2	0.00e+00	0	39	0	929038336	57	5255
2026-01-09 01:37:23.37	262.10	11.18	-42.5	-45.3	17.1	0.00e+00	0	39	0	934281216	57	4722
2026-01-09 01:37:26.79	261.67	10.95	-41.8	-44.4	17.8	0.00e+00	0	39	0	940572672	55	4781
2026-01-09 01:37:29.57	261.32	10.77	-42.2	-44.8	17.4	0.00e+00	0	39	0	945815552	55	5020
2026-01-09 01:37:32.86	260.92	10.55	-43.0	-46.0	16.4	0.00e+00	0	39	0	952107008	56	5415
2026-01-09 01:37:35.59	260.59	10.36	-43.4	-46.6	15.8	0.00e+00	0	39	0	957349888	57	5478
2026-01-09 01:37:38.88	260.20	10.14	-43.3	-46.4	16.0	0.00e+00	0	39	0	963641344	57	5376
2026-01-09 01:37:41.61	259.88	9.96	-43.0	-45.9	16.4	0.00e+00	0	39	0	967835648	57	5094
2026-01-09 01:37:44.91	259.50	9.75	-43.0	-46.1	16.3	0.00e+00	0	39	0	974127104	57	5177
2026-01-09 01:37:47.63	259.19	9.57	-43.2	-46.4	16.0	0.00e+00	0	39	0	979369984	57	5363
2026-01-09 01:37:51.29	258.77	9.33	-43.4	-46.6	15.7	0.00e+00	0	39	0	986710016	57	5497
2026-01-09 01:37:54.06	258.47	9.14	-43.6	-46.8	15.5	0.00e+00	0	39	0	991952896	57	5611
2026-01-09 01:37:57.66	258.07	8.91	-48.1	-63.5	3.8	1.49e+00	0	39	104	997195776	67	21708
2026-01-09 01:38:00.39	257.78	8.73	-48.6	-64.0	3.8	1.49e+00	0	39	104	997195776	67	22828
2026-01-09 01:38:03.78	257.42	8.51	-48.8	-64.3	3.8	1.49e+00	0	39	104	997195776	68	22401
2026-01-09 01:38:06.57	257.13	8.33	-49.0	-64.3	3.8	1.49e+00	0	39	104	997195776	68	22343
2026-01-09 01:38:09.87	256.79	8.12	-48.9	-64.3	3.8	1.49e+00	0	39	104	997195776	68	22371
2026-01-09 01:38:12.60	256.51	7.94	-49.0	-64.3	3.8	1.49e+00	0	39	104	997195776	68	22362
2026-01-09 01:38:15.90	256.18	7.73	-49.0	-64.2	3.8	1.49e+00	0	39	104	997195776	68	22172
2026-01-09 01:38:18.63	255.91	7.56	-48.7	-64.2	3.8	1.49e+00	0	39	104	997195776	68	22202
2026-01-09 01:38:21.92	255.58	7.35	-48.7	-64.2	3.8	1.49e+00	0	39	104	997195776	68	22135
2026-01-09 01:38:24.65	255.32	7.18	-48.7	-64.2	3.8	1.49e+00	0	39	104	997195776	68	22072
2026-01-09 01:38:27.95	255.00	6.97	-48.7	-64.2	3.8	1.49e+00	0	39	104	997195776	68	22034
2026-01-09 01:38:30.68	254.75	6.80	-48.7	-64.2	3.8	1.49e+00	0	39	104	997195776	68	22049
2026-01-09 01:38:33.98	254.44	6.59	-48.7	-64.2	3.8	1.49e+00	0	40	104	997195776	68	22092
2026-01-09 01:38:36.70	254.19	6.42	-48.7	-64.1	3.8	1.49e+00	0	39	104	997195776	68	21960
2026-01-09 01:38:40.00	253.89	6.22	-48.7	-64.2	3.8	1.49e+00	0	39	104	997195776	68	22067
2026-01-09 01:38:42.73	253.65	6.05	-48.7	-64.2	3.8	1.49e+00	0	39	104	997195776	68	22162
2026-01-09 01:38:46.03	253.36	5.85	-48.7	-64.2	3.8	1.49e+00	0	39	104	997195776	68	22052
2026-01-09 01:38:48.76	253.12	5.68	-48.7	-64.1	3.8	1.49e+00	0	39	104	997195776	68	22005
2026-01-09 01:38:52.06	252.84	5.48	-48.7	-64.1	3.8	1.49e+00	0	39	104	997195776	68	21999
2026-01-09 01:38:54.79	252.61	5.31	-48.7	-64.2	3.8	1.49e+00	0	40	104	997195776	68	22068
2026-01-09 01:38:58.09	252.33	5.11	-48.7	-64.2	3.8	1.49e+00	0	39	104	997195776	68	22105

#Closed at: 2026-01-09 01:39:00
#Recorded file [997 MB]: D:/Data/31040_260109_042811.dat