passes_logs/2026/01/09/T1/T1__20260109_004745_FENGYUN_3D_rec.log

#Pass ID: 20260109_004745_FENGYUN 3D
#Satellite: FENGYUN 3D
#Configuration: FENGYUN 3D
#almurnet v.1.7.20251203
#Start time: 2026-01-09 00:47:46

#Version: 2.0.20230620
#Station: T1
#Location: 37.570604 lon 55.790049 lat
#TLE: 1 43010U 17072A   26008.51967461  .00000013  00000+0  27718-4 0  9992
#TLE: 2 43010  98.9935 340.2353 0002115 119.1573 240.9815 14.19693759422336

#Time	Az	El	Level	Level2	SNR	BER	BlckErr	Temp	State	Recorded	gain1	gain2
2026-01-09 00:47:46.67	24.25	5.04	-48.2	-60.5	3.8	8.47e-01	0	37	0	0	67	15389
2026-01-09 00:47:49.68	24.42	5.24	-48.2	-60.5	3.8	8.47e-01	0	38	104	0	67	15329
2026-01-09 00:47:52.69	24.60	5.44	-48.2	-60.5	3.8	8.48e-01	0	38	104	0	67	15238
2026-01-09 00:47:55.70	24.77	5.64	-48.1	-60.4	3.8	8.48e-01	0	38	104	0	67	15094
2026-01-09 00:47:58.71	24.95	5.84	-48.1	-60.3	3.8	8.47e-01	0	38	104	0	67	14914
2026-01-09 00:48:01.73	25.13	6.05	-48.1	-60.2	3.8	8.46e-01	0	38	104	0	67	14852
2026-01-09 00:48:04.74	25.32	6.25	-48.1	-60.3	3.8	8.46e-01	0	38	104	0	67	14948
2026-01-09 00:48:07.75	25.51	6.46	-48.2	-60.4	3.8	8.47e-01	0	38	104	0	67	15054
2026-01-09 00:48:10.76	25.69	6.67	-48.1	-60.3	3.8	8.46e-01	0	39	104	0	67	14955
2026-01-09 00:48:13.78	25.89	6.88	-48.2	-60.4	3.8	8.47e-01	0	39	104	0	67	15119
2026-01-09 00:48:16.79	26.08	7.09	-48.2	-60.5	3.8	8.47e-01	0	39	104	0	67	15300
2026-01-09 00:48:19.80	26.28	7.30	-48.1	-59.7	3.8	8.48e-01	0	39	104	0	67	13984
2026-01-09 00:48:22.81	26.48	7.52	-48.0	-59.0	3.8	8.46e-01	0	39	104	0	67	12834
2026-01-09 00:48:25.83	26.68	7.74	-48.2	-60.2	3.8	8.47e-01	0	39	104	0	67	14822
2026-01-09 00:48:28.84	26.89	7.95	-48.1	-59.4	3.8	8.47e-01	0	39	104	0	67	13540
2026-01-09 00:48:31.85	27.09	8.17	-47.5	-55.6	4.7	8.18e-01	0	39	0	0	67	8699
2026-01-09 00:48:34.86	27.31	8.40	-47.3	-54.7	5.1	7.53e-01	0	39	0	0	66	8349
2026-01-09 00:48:37.88	27.52	8.62	-47.2	-54.5	5.2	7.48e-01	0	39	0	0	66	8134
2026-01-09 00:48:40.89	27.74	8.84	-46.6	-52.5	6.7	2.55e-01	0	39	0	9437184	65	6854
2026-01-09 00:48:43.90	27.96	9.07	-45.1	-49.2	10.2	1.70e-02	0	39	0	26214400	62	5541
2026-01-09 00:48:46.91	28.18	9.30	-44.7	-48.4	11.0	1.20e-03	0	39	0	35651584	59	6029
2026-01-09 00:48:49.92	28.41	9.53	-40.1	-42.3	17.2	0.00e+00	0	39	0	53477376	51	4722
2026-01-09 00:48:52.97	28.64	9.76	-39.8	-41.9	17.5	0.00e+00	0	39	0	70254592	51	4540
2026-01-09 00:48:55.98	28.88	10.00	-39.6	-41.7	17.8	0.00e+00	0	39	0	87031808	50	4669
2026-01-09 00:48:58.99	29.11	10.23	-39.4	-41.5	18.0	0.00e+00	0	39	0	103809024	50	4573
2026-01-09 00:49:02.00	29.35	10.47	-39.3	-41.4	18.1	0.00e+00	0	39	0	120586240	50	4500
2026-01-09 00:49:05.00	29.60	10.71	-39.3	-41.3	18.3	0.00e+00	0	39	0	137363456	50	4442
2026-01-09 00:49:08.01	29.85	10.95	-38.7	-40.7	18.8	0.00e+00	0	39	0	154140672	49	4411
2026-01-09 00:49:11.02	30.10	11.19	-38.7	-40.7	18.8	0.00e+00	0	39	0	171966464	49	4410
2026-01-09 00:49:14.03	30.36	11.43	-38.6	-40.5	19.0	0.00e+00	0	39	0	188743680	49	4310
2026-01-09 00:49:17.04	30.62	11.68	-38.5	-40.5	19.1	0.00e+00	0	40	0	205520896	49	4298
2026-01-09 00:49:20.05	30.88	11.93	-38.4	-40.3	19.3	0.00e+00	0	40	0	222298112	48	4468
2026-01-09 00:49:23.06	31.15	12.18	-38.3	-40.2	19.4	0.00e+00	0	40	0	239075328	48	4409
2026-01-09 00:49:26.18	31.44	12.44	-38.3	-40.1	19.4	0.00e+00	0	40	0	256901120	48	4390
2026-01-09 00:49:29.21	31.72	12.70	-38.2	-40.0	19.5	0.00e+00	0	40	0	273678336	48	4337
2026-01-09 00:49:32.21	32.00	12.96	-38.2	-40.1	19.5	0.00e+00	0	40	0	290455552	48	4355
2026-01-09 00:49:35.20	32.28	13.21	-38.0	-39.9	19.7	0.00e+00	0	40	0	307232768	48	4274
2026-01-09 00:49:38.19	32.57	13.47	-38.0	-39.9	19.7	0.00e+00	0	40	0	324009984	48	4259
2026-01-09 00:49:41.17	32.87	13.73	-37.9	-39.7	19.7	0.00e+00	0	40	0	340787200	47	4413
2026-01-09 00:49:44.16	33.17	14.00	-38.1	-40.0	19.5	0.00e+00	0	40	0	357564416	47	4562
2026-01-09 00:49:47.15	33.48	14.26	-38.1	-39.9	19.5	0.00e+00	0	40	0	374341632	47	4544
2026-01-09 00:49:50.14	33.79	14.53	-38.1	-39.9	19.5	0.00e+00	0	40	0	391118848	47	4525
2026-01-09 00:49:53.13	34.10	14.80	-37.9	-39.7	19.7	0.00e+00	0	40	0	408944640	47	4423
2026-01-09 00:49:56.12	34.43	15.08	-37.6	-39.5	20.0	0.00e+00	0	40	0	425721856	47	4299
2026-01-09 00:49:59.12	34.75	15.35	-37.6	-39.4	20.1	0.00e+00	0	40	0	442499072	47	4278
2026-01-09 00:50:02.13	35.09	15.63	-37.6	-39.4	20.0	0.00e+00	0	40	0	459276288	46	4525
2026-01-09 00:50:05.13	35.43	15.91	-37.6	-39.5	19.9	0.00e+00	0	40	0	476053504	46	4568
2026-01-09 00:50:08.13	35.78	16.20	-37.5	-39.3	20.0	0.00e+00	0	40	0	492830720	46	4475
2026-01-09 00:50:11.13	36.13	16.48	-37.6	-39.4	20.1	0.00e+00	0	40	0	509607936	46	4508
2026-01-09 00:50:14.14	36.49	16.77	-37.6	-39.4	20.1	0.00e+00	0	40	0	526385152	46	4504
2026-01-09 00:50:17.14	36.86	17.06	-37.5	-39.3	20.2	0.00e+00	0	40	0	543162368	46	4458
2026-01-09 00:50:20.15	37.24	17.35	-37.7	-39.6	19.9	0.00e+00	0	40	0	559939584	46	4610
2026-01-09 00:50:23.15	37.62	17.65	-37.3	-39.1	20.4	0.00e+00	0	40	0	576716800	46	4377
2026-01-09 00:50:26.15	38.01	17.95	-37.3	-39.1	20.3	0.00e+00	0	40	0	594542592	46	4376
2026-01-09 00:50:29.15	38.40	18.25	-37.3	-39.1	20.3	0.00e+00	0	40	0	611319808	46	4355
2026-01-09 00:50:32.16	38.81	18.55	-37.3	-39.1	20.4	0.00e+00	0	40	0	628097024	46	4351
2026-01-09 00:50:35.16	39.22	18.86	-37.2	-39.0	20.5	0.00e+00	0	40	0	644874240	46	4321
2026-01-09 00:50:38.16	39.64	19.16	-37.0	-38.8	20.7	0.00e+00	0	40	0	661651456	46	4227
2026-01-09 00:50:41.16	40.06	19.47	-36.9	-38.7	20.8	0.00e+00	0	40	0	678428672	45	4423
2026-01-09 00:50:44.16	40.50	19.78	-36.9	-38.7	20.8	0.00e+00	0	40	0	695205888	45	4414
2026-01-09 00:50:47.16	40.95	20.10	-36.8	-38.5	21.0	0.00e+00	0	40	0	711983104	45	4338
2026-01-09 00:50:50.17	41.40	20.42	-37.0	-38.8	20.8	0.00e+00	0	40	0	728760320	45	4452
2026-01-09 00:50:53.17	41.86	20.73	-36.9	-38.7	20.8	0.00e+00	0	40	0	746586112	45	4418
2026-01-09 00:50:56.17	42.34	21.05	-36.7	-38.5	21.0	0.00e+00	0	40	0	763363328	45	4296
2026-01-09 00:50:59.17	42.82	21.38	-36.5	-38.2	21.3	0.00e+00	0	40	0	780140544	44	4428
2026-01-09 00:51:02.18	43.31	21.70	-36.6	-38.4	21.2	0.00e+00	0	40	0	796917760	44	4495
2026-01-09 00:51:05.18	43.82	22.03	-36.7	-38.4	21.1	0.00e+00	0	40	0	813694976	44	4540
2026-01-09 00:51:08.18	44.33	22.36	-36.2	-37.9	21.5	0.00e+00	0	40	0	830472192	44	4280
2026-01-09 00:51:11.19	44.86	22.69	-36.2	-37.9	21.6	0.00e+00	0	40	0	847249408	44	4266
2026-01-09 00:51:14.20	45.39	23.03	-36.1	-37.8	21.7	0.00e+00	0	40	0	864026624	44	4213
2026-01-09 00:51:17.20	45.94	23.36	-36.0	-37.7	21.8	0.00e+00	0	40	0	880803840	44	4192
2026-01-09 00:51:20.20	46.50	23.70	-35.8	-37.5	21.8	0.00e+00	0	40	0	898629632	43	4328
2026-01-09 00:51:23.21	47.07	24.04	-35.9	-37.6	21.7	0.00e+00	0	40	0	915406848	43	4375
2026-01-09 00:51:26.21	47.65	24.38	-35.9	-37.6	21.7	0.00e+00	0	40	0	932184064	43	4375
2026-01-09 00:51:29.21	48.24	24.72	-35.6	-37.3	22.0	0.00e+00	0	40	0	948961280	43	4210
2026-01-09 00:51:32.21	48.85	25.06	-35.7	-37.4	21.9	0.00e+00	0	40	0	965738496	43	4258
2026-01-09 00:51:35.21	49.47	25.41	-35.5	-37.2	22.1	0.00e+00	0	40	0	982515712	43	4189
2026-01-09 00:51:38.22	50.11	25.75	-35.6	-37.3	22.0	0.00e+00	0	40	0	999292928	43	4216
2026-01-09 00:51:41.21	50.75	26.10	-35.8	-37.6	21.8	0.00e+00	0	40	0	1016070144	43	4347
2026-01-09 00:51:44.22	51.42	26.45	-35.7	-37.5	21.9	0.00e+00	0	40	0	1032847360	43	4293
2026-01-09 00:51:47.22	52.09	26.79	-35.6	-37.5	21.4	0.00e+00	0	40	0	1049624576	43	4301
2026-01-09 00:51:50.22	52.78	27.14	-35.5	-37.3	21.6	0.00e+00	0	40	0	1066401792	42	4465
2026-01-09 00:51:53.22	53.49	27.49	-35.2	-37.0	21.8	0.00e+00	0	40	0	1084227584	42	4324
2026-01-09 00:51:56.22	54.21	27.83	-35.1	-36.8	22.0	0.00e+00	0	40	0	1101004800	42	4234
2026-01-09 00:51:59.22	54.94	28.18	-35.1	-36.9	22.0	0.00e+00	0	40	0	1117782016	42	4266
2026-01-09 00:52:02.22	55.70	28.52	-34.7	-36.4	22.4	0.00e+00	0	40	0	1134559232	41	4255
2026-01-09 00:52:05.22	56.46	28.87	-34.9	-36.7	22.2	0.00e+00	0	40	0	1151336448	41	4400
2026-01-09 00:52:08.22	57.25	29.21	-34.9	-36.6	22.2	0.00e+00	0	40	0	1168113664	41	4379
2026-01-09 00:52:11.22	58.05	29.55	-35.0	-36.7	22.1	0.00e+00	0	40	0	1184890880	41	4420
2026-01-09 00:52:14.23	58.87	29.89	-34.8	-36.6	22.3	0.00e+00	0	40	0	1201668096	41	4349
2026-01-09 00:52:17.23	59.70	30.23	-34.8	-36.5	22.3	0.00e+00	0	40	0	1219493888	41	4306
2026-01-09 00:52:20.23	60.56	30.57	-35.0	-36.8	22.0	0.00e+00	0	40	0	1236271104	41	4479
2026-01-09 00:52:23.23	61.43	30.90	-34.8	-36.5	22.3	0.00e+00	0	40	0	1253048320	41	4327
2026-01-09 00:52:26.24	62.32	31.23	-34.8	-36.5	22.3	0.00e+00	0	40	0	1269825536	41	4308
2026-01-09 00:52:29.25	63.22	31.55	-35.0	-36.8	22.0	0.00e+00	0	40	0	1286602752	41	4465
2026-01-09 00:52:32.25	64.15	31.87	-34.8	-36.6	22.3	0.00e+00	0	40	0	1303379968	41	4342
2026-01-09 00:52:35.25	65.09	32.19	-35.1	-36.9	22.1	0.00e+00	0	40	0	1320157184	41	4495
2026-01-09 00:52:38.25	66.05	32.50	-35.0	-36.8	22.1	0.00e+00	0	40	0	1336934400	42	4210
2026-01-09 00:52:41.25	67.03	32.80	-34.9	-36.6	22.2	0.00e+00	0	40	0	1353711616	41	4382
2026-01-09 00:52:44.25	68.02	33.10	-34.9	-36.7	22.1	0.00e+00	0	40	0	1370488832	41	4414
2026-01-09 00:52:47.26	69.04	33.39	-34.6	-36.3	22.5	0.00e+00	0	40	0	1387266048	41	4221
2026-01-09 00:52:50.26	70.07	33.68	-35.0	-36.8	22.0	0.00e+00	0	40	0	1405091840	41	4463
2026-01-09 00:52:53.26	71.12	33.95	-34.8	-36.5	22.3	0.00e+00	0	40	0	1421869056	41	4337
2026-01-09 00:52:56.26	72.19	34.22	-34.7	-36.5	22.3	0.00e+00	0	40	0	1438646272	41	4300
2026-01-09 00:52:59.27	73.27	34.48	-35.0	-36.7	22.1	0.00e+00	0	40	0	1455423488	41	4435
2026-01-09 00:53:02.28	74.38	34.73	-34.7	-36.4	22.4	0.00e+00	0	40	0	1472200704	41	4269
2026-01-09 00:53:05.28	75.50	34.97	-34.5	-36.2	22.6	0.00e+00	0	40	0	1488977920	41	4187
2026-01-09 00:53:08.28	76.63	35.20	-34.4	-36.2	22.6	0.00e+00	0	40	0	1505755136	40	4409
2026-01-09 00:53:11.28	77.78	35.42	-34.4	-36.1	22.7	0.00e+00	0	40	0	1523580928	40	4352
2026-01-09 00:53:14.28	78.94	35.63	-34.7	-36.4	22.4	0.00e+00	0	40	0	1540358144	40	4537
2026-01-09 00:53:17.28	80.12	35.82	-34.5	-36.2	22.5	0.00e+00	0	40	0	1557135360	40	4437
2026-01-09 00:53:20.28	81.32	36.01	-34.5	-36.2	22.6	0.00e+00	0	40	0	1573912576	40	4415
2026-01-09 00:53:23.28	82.52	36.18	-34.7	-36.5	22.3	0.00e+00	0	40	0	1590689792	40	4568
2026-01-09 00:53:26.29	83.74	36.33	-34.4	-36.2	22.6	0.00e+00	0	40	0	1607467008	40	4404
2026-01-09 00:53:29.28	84.97	36.48	-34.3	-36.1	22.7	0.00e+00	0	40	0	1624244224	40	4353
2026-01-09 00:53:32.29	86.21	36.61	-34.3	-36.1	22.7	0.00e+00	0	40	0	1641021440	40	4353
2026-01-09 00:53:35.30	87.46	36.72	-34.5	-36.2	22.6	0.00e+00	0	40	0	1657798656	40	4427
2026-01-09 00:53:38.31	88.73	36.82	-34.4	-36.2	22.5	0.00e+00	0	40	0	1674575872	40	4415
2026-01-09 00:53:41.31	89.99	36.91	-34.6	-36.3	22.5	0.00e+00	0	40	0	1691353088	40	4469
2026-01-09 00:53:44.32	91.26	36.98	-34.6	-36.3	22.5	0.00e+00	0	40	0	1709178880	40	4492
2026-01-09 00:53:47.32	92.54	37.03	-34.3	-36.0	22.7	0.00e+00	0	40	0	1725956096	40	4336
2026-01-09 00:53:50.33	93.82	37.07	-34.5	-36.2	22.5	0.00e+00	0	40	0	1742733312	40	4420
2026-01-09 00:53:53.33	95.10	37.10	-34.4	-36.2	22.6	0.00e+00	0	40	0	1759510528	40	4401
2026-01-09 00:53:56.34	96.39	37.10	-34.7	-36.5	22.3	0.00e+00	0	40	0	1776287744	40	4564
2026-01-09 00:53:59.34	97.68	37.10	-34.5	-36.2	22.6	0.00e+00	0	40	0	1793064960	40	4409
2026-01-09 00:54:02.34	98.96	37.07	-34.3	-36.1	22.7	0.00e+00	0	40	0	1809842176	40	4345
2026-01-09 00:54:05.35	100.24	37.03	-34.3	-36.0	22.8	0.00e+00	0	40	0	1826619392	40	4299
2026-01-09 00:54:08.35	101.52	36.98	-34.6	-36.3	22.4	0.00e+00	0	40	0	1844445184	40	4481
2026-01-09 00:54:11.36	102.79	36.90	-34.5	-36.3	22.5	0.00e+00	0	40	0	1861222400	40	4447
2026-01-09 00:54:14.36	104.06	36.82	-34.3	-36.0	22.7	0.00e+00	0	40	0	1877999616	40	4321
2026-01-09 00:54:17.36	105.31	36.72	-34.5	-36.2	22.6	0.00e+00	0	40	0	1894776832	40	4409
2026-01-09 00:54:20.37	106.57	36.60	-34.6	-36.3	22.4	0.00e+00	0	40	0	1911554048	40	4490
2026-01-09 00:54:23.37	107.81	36.47	-34.6	-36.3	22.5	0.00e+00	0	40	0	1928331264	40	4479
2026-01-09 00:54:26.37	109.04	36.32	-34.7	-36.5	22.3	0.00e+00	0	40	0	1945108480	40	4557
2026-01-09 00:54:29.37	110.26	36.17	-34.6	-36.4	22.4	0.00e+00	0	40	0	1961885696	40	4506
2026-01-09 00:54:32.38	111.47	35.99	-34.7	-36.4	22.3	0.00e+00	0	40	0	1979711488	40	4536
2026-01-09 00:54:35.38	112.66	35.81	-34.7	-36.5	22.3	0.00e+00	0	40	0	1996488704	40	4554
2026-01-09 00:54:38.39	113.85	35.61	-34.5	-36.3	22.5	0.00e+00	0	40	0	2013265920	40	4445
2026-01-09 00:54:41.39	115.02	35.40	-34.6	-36.3	22.5	0.00e+00	0	40	0	2030043136	40	4461
2026-01-09 00:54:44.39	116.17	35.18	-34.8	-36.5	22.3	0.00e+00	0	40	0	2046820352	40	4598
2026-01-09 00:54:47.40	117.31	34.95	-34.7	-36.4	22.3	0.00e+00	0	40	0	2063597568	40	4532
2026-01-09 00:54:50.41	118.43	34.71	-34.9	-36.7	22.1	0.00e+00	0	40	0	2080374784	40	4669
2026-01-09 00:54:53.42	119.54	34.45	-34.8	-36.5	22.2	0.00e+00	0	40	0	2097152000	40	4582
2026-01-09 00:54:56.42	120.62	34.19	-34.7	-36.5	22.3	0.00e+00	0	40	0	2113929216	40	4557
2026-01-09 00:54:59.41	121.69	33.92	-35.1	-36.9	21.9	0.00e+00	0	40	0	2130706432	40	4807
2026-01-09 00:55:02.42	122.74	33.64	-34.9	-36.6	22.2	0.00e+00	0	40	0	2147483648	41	4364
2026-01-09 00:55:05.42	123.78	33.36	-35.0	-36.8	22.0	0.00e+00	0	40	0	2165309440	41	4451
2026-01-09 00:55:08.43	124.79	33.06	-35.1	-36.9	21.8	0.00e+00	0	40	0	2182086656	41	4541
2026-01-09 00:55:11.43	125.79	32.76	-35.0	-36.7	22.0	0.00e+00	0	40	0	2198863872	41	4428
2026-01-09 00:55:14.43	126.77	32.46	-35.1	-36.9	21.9	0.00e+00	0	40	0	2215641088	41	4495
2026-01-09 00:55:17.43	127.73	32.14	-35.1	-36.9	21.8	0.00e+00	0	40	0	2232418304	41	4500
2026-01-09 00:55:20.43	128.68	31.83	-35.2	-37.0	21.7	0.00e+00	0	40	0	2249195520	41	4586
2026-01-09 00:55:23.44	129.60	31.50	-35.3	-37.1	21.7	0.00e+00	0	40	0	2265972736	41	4609
2026-01-09 00:55:26.44	130.51	31.18	-35.0	-36.7	22.0	0.00e+00	0	40	0	2283798528	41	4435
2026-01-09 00:55:29.43	131.40	30.85	-35.0	-36.8	22.0	0.00e+00	0	40	0	2300575744	41	4466
2026-01-09 00:55:32.43	132.27	30.51	-35.4	-37.2	21.5	0.00e+00	0	40	0	2317352960	41	4693
2026-01-09 00:55:35.43	133.12	30.18	-35.4	-37.2	21.6	0.00e+00	0	40	0	2334130176	41	4700
2026-01-09 00:55:38.43	133.96	29.84	-35.4	-37.2	21.6	0.00e+00	0	40	0	2350907392	41	4695
2026-01-09 00:55:41.43	134.78	29.49	-35.4	-37.1	21.7	0.00e+00	0	40	0	2367684608	41	4646
2026-01-09 00:55:44.44	135.58	29.15	-35.5	-37.3	21.5	0.00e+00	0	40	0	2384461824	41	4741
2026-01-09 00:55:47.44	136.37	28.80	-35.4	-37.2	21.6	0.00e+00	0	40	0	2401239040	41	4684
2026-01-09 00:55:50.45	137.14	28.46	-35.5	-37.3	21.5	0.00e+00	0	40	0	2418016256	41	4724
2026-01-09 00:55:53.45	137.89	28.11	-36.0	-37.9	21.0	0.00e+00	0	40	0	2434793472	42	4774
2026-01-09 00:55:56.46	138.63	27.76	-35.5	-37.3	21.5	0.00e+00	0	40	0	2451570688	42	4481
2026-01-09 00:55:59.47	139.36	27.41	-35.3	-37.1	21.7	0.00e+00	0	40	0	2469396480	42	4368
2026-01-09 00:56:02.47	140.06	27.06	-35.5	-37.3	21.6	0.00e+00	0	40	0	2486173696	42	4471
2026-01-09 00:56:05.47	140.75	26.71	-35.5	-37.3	21.6	0.00e+00	0	40	0	2502950912	42	4464
2026-01-09 00:56:08.47	141.43	26.36	-35.3	-37.1	21.7	0.00e+00	0	40	0	2519728128	42	4385
2026-01-09 00:56:11.47	142.09	26.01	-35.4	-37.2	21.6	0.00e+00	0	40	0	2536505344	42	4415
2026-01-09 00:56:14.47	142.74	25.66	-35.7	-37.5	21.4	0.00e+00	0	40	0	2553282560	42	4560
2026-01-09 00:56:17.47	143.37	25.31	-35.5	-37.3	21.5	0.00e+00	0	40	0	2570059776	42	4492
2026-01-09 00:56:20.48	144.00	24.97	-35.8	-37.6	21.3	0.00e+00	0	40	0	2586836992	42	4622
2026-01-09 00:56:23.48	144.60	24.62	-35.8	-37.7	21.2	0.00e+00	0	40	0	2604662784	42	4667
2026-01-09 00:56:26.48	145.20	24.28	-35.9	-37.7	21.2	0.00e+00	0	40	0	2621440000	42	4697
2026-01-09 00:56:29.48	145.78	23.94	-35.9	-37.7	21.2	0.00e+00	0	40	0	2638217216	42	4678
2026-01-09 00:56:32.48	146.35	23.59	-35.9	-37.8	21.1	0.00e+00	0	40	0	2654994432	42	4725
2026-01-09 00:56:35.48	146.91	23.25	-36.0	-37.9	21.0	0.00e+00	0	40	0	2671771648	42	4793
2026-01-09 00:56:38.48	147.45	22.92	-36.1	-38.0	20.9	0.00e+00	0	40	0	2688548864	42	4824
2026-01-09 00:56:41.49	147.99	22.58	-36.0	-37.8	21.1	0.00e+00	0	40	0	2705326080	42	4730
2026-01-09 00:56:44.49	148.52	22.25	-36.0	-37.8	21.0	0.00e+00	0	40	0	2722103296	42	4729
2026-01-09 00:56:47.49	149.03	21.91	-36.2	-38.0	20.9	0.00e+00	0	40	0	2738880512	43	4567
2026-01-09 00:56:50.49	149.53	21.58	-36.4	-38.3	20.6	0.00e+00	0	40	0	2755657728	43	4708
2026-01-09 00:56:53.50	150.02	21.26	-36.4	-38.3	20.6	0.00e+00	0	40	0	2772434944	43	4737
2026-01-09 00:56:56.50	150.51	20.93	-36.7	-38.6	20.5	0.00e+00	0	40	0	2790260736	44	4604
2026-01-09 00:56:59.50	150.98	20.61	-36.9	-38.7	20.4	0.00e+00	0	40	0	2807037952	44	4701
2026-01-09 00:57:02.51	151.44	20.29	-37.0	-38.9	20.2	0.00e+00	0	40	0	2823815168	44	4772
2026-01-09 00:57:05.51	151.90	19.97	-37.1	-39.0	20.1	0.00e+00	0	40	0	2840592384	44	4844
2026-01-09 00:57:08.52	152.34	19.65	-37.1	-39.0	20.1	0.00e+00	0	40	0	2857369600	45	4564
2026-01-09 00:57:11.52	152.78	19.34	-37.1	-39.0	20.1	0.00e+00	0	40	0	2874146816	45	4580
2026-01-09 00:57:14.52	153.20	19.02	-37.3	-39.2	19.9	0.00e+00	0	40	0	2890924032	45	4679
2026-01-09 00:57:17.52	153.62	18.71	-37.2	-39.1	20.0	0.00e+00	0	40	0	2907701248	45	4645
2026-01-09 00:57:20.52	154.03	18.41	-37.2	-39.1	20.0	0.00e+00	0	40	0	2925527040	45	4641
2026-01-09 00:57:23.53	154.44	18.10	-37.4	-39.3	19.8	0.00e+00	0	40	0	2942304256	45	4736
2026-01-09 00:57:26.53	154.83	17.80	-37.6	-39.6	19.6	0.00e+00	0	40	0	2959081472	45	4871
2026-01-09 00:57:29.53	155.22	17.50	-37.5	-39.5	19.6	0.00e+00	0	40	0	2975858688	45	4866
2026-01-09 00:57:32.54	155.60	17.20	-37.5	-39.5	19.6	0.00e+00	0	40	0	2992635904	45	4847
2026-01-09 00:57:35.54	155.97	16.91	-37.5	-39.4	19.7	0.00e+00	0	40	0	3009413120	45	4806
2026-01-09 00:57:38.54	156.34	16.62	-37.5	-39.5	19.7	0.00e+00	0	40	0	3026190336	45	4819
2026-01-09 00:57:41.55	156.70	16.33	-37.5	-39.4	19.7	0.00e+00	0	40	0	3042967552	45	4810
2026-01-09 00:57:44.56	157.05	16.04	-37.5	-39.5	19.6	0.00e+00	0	40	0	3059744768	45	4837
2026-01-09 00:57:47.56	157.40	15.75	-37.8	-39.7	19.5	0.00e+00	0	40	0	3076521984	46	4700
2026-01-09 00:57:50.57	157.74	15.47	-38.0	-40.0	19.2	0.00e+00	0	40	0	3094347776	46	4843
2026-01-09 00:57:53.56	158.07	15.19	-38.1	-40.1	19.1	0.00e+00	0	40	0	3111124992	47	4609
2026-01-09 00:57:56.56	158.40	14.91	-38.2	-40.2	19.0	0.00e+00	0	40	0	3127902208	47	4704
2026-01-09 00:57:59.57	158.72	14.63	-38.3	-40.4	18.8	0.00e+00	0	40	0	3144679424	47	4778
2026-01-09 00:58:02.57	159.04	14.36	-38.4	-40.4	18.8	0.00e+00	0	40	0	3161456640	47	4798
2026-01-09 00:58:05.57	159.35	14.09	-38.3	-40.3	18.9	0.00e+00	0	40	0	3178233856	47	4747
2026-01-09 00:58:08.58	159.66	13.82	-38.4	-40.4	18.8	0.00e+00	0	40	0	3195011072	47	4776
2026-01-09 00:58:11.59	159.96	13.55	-38.4	-40.5	18.7	0.00e+00	0	40	0	3211788288	47	4818
2026-01-09 00:58:14.59	160.25	13.29	-38.4	-40.5	18.7	0.00e+00	0	40	0	3229614080	47	4823
2026-01-09 00:58:17.60	160.54	13.03	-38.5	-40.6	18.6	0.00e+00	0	40	0	3246391296	47	4885
2026-01-09 00:58:20.60	160.83	12.77	-38.7	-40.8	18.6	0.00e+00	0	40	0	3263168512	48	4713
2026-01-09 00:58:23.60	161.11	12.51	-38.7	-40.8	18.5	0.00e+00	0	40	0	3279945728	48	4723
2026-01-09 00:58:26.60	161.38	12.25	-38.8	-40.8	18.5	0.00e+00	0	40	0	3296722944	48	4755
2026-01-09 00:58:29.60	161.65	12.00	-38.8	-40.9	18.4	0.00e+00	0	40	0	3313500160	48	4785
2026-01-09 00:58:32.60	161.92	11.75	-39.1	-41.1	18.2	0.00e+00	0	40	0	3330277376	48	4919
2026-01-09 00:58:35.60	162.18	11.50	-39.0	-41.0	18.3	0.00e+00	0	40	0	3347054592	48	4869
2026-01-09 00:58:38.60	162.44	11.25	-39.1	-41.2	18.1	0.00e+00	0	40	0	3363831808	48	4970
2026-01-09 00:58:41.60	162.69	11.00	-39.2	-41.4	17.9	0.00e+00	0	40	0	3380609024	49	4774
2026-01-09 00:58:44.61	162.94	10.76	-39.4	-41.6	17.7	0.00e+00	0	40	0	3397386240	49	4908
2026-01-09 00:58:47.62	163.19	10.52	-39.3	-41.5	17.8	0.00e+00	0	40	0	3415212032	49	4830
2026-01-09 00:58:50.62	163.43	10.28	-39.3	-41.5	17.8	0.00e+00	0	40	0	3431989248	49	4831
2026-01-09 00:58:53.63	163.67	10.04	-39.3	-41.4	17.9	0.00e+00	0	40	0	3448766464	49	4807
2026-01-09 00:58:56.63	163.90	9.80	-39.5	-41.7	17.6	0.00e+00	0	40	0	3465543680	49	4950
2026-01-09 00:58:59.64	164.14	9.57	-39.5	-41.6	17.7	0.00e+00	0	40	0	3482320896	49	4921
2026-01-09 00:59:02.64	164.36	9.34	-39.4	-41.6	17.7	0.00e+00	0	40	0	3499098112	49	4910
2026-01-09 00:59:05.64	164.59	9.11	-39.5	-41.8	17.4	0.00e+00	0	40	0	3515875328	49	5024
2026-01-09 00:59:08.64	164.81	8.88	-47.9	-57.7	4.1	8.42e-01	0	40	104	3529506816	66	11702
2026-01-09 00:59:11.65	165.03	8.65	-49.0	-61.1	3.8	8.47e-01	0	40	104	3529506816	68	15573
2026-01-09 00:59:14.65	165.24	8.42	-49.0	-61.3	3.8	8.47e-01	0	40	104	3529506816	69	15048
2026-01-09 00:59:17.66	165.45	8.20	-49.3	-61.4	3.8	8.46e-01	0	40	104	3529506816	69	15195
2026-01-09 00:59:20.67	165.66	7.98	-49.4	-61.5	3.8	8.46e-01	0	40	104	3529506816	69	15267
2026-01-09 00:59:23.67	165.86	7.76	-49.4	-61.4	3.8	8.47e-01	0	40	104	3529506816	69	15142
2026-01-09 00:59:26.68	166.07	7.54	-49.3	-61.5	3.8	8.46e-01	0	40	104	3529506816	69	15274
2026-01-09 00:59:29.68	166.27	7.32	-49.2	-61.4	3.8	8.47e-01	0	40	104	3529506816	69	15184
2026-01-09 00:59:32.69	166.46	7.10	-49.1	-61.4	3.8	8.47e-01	0	40	104	3529506816	69	15202
2026-01-09 00:59:35.69	166.66	6.89	-49.0	-61.4	3.8	8.47e-01	0	40	104	3529506816	69	15095
2026-01-09 00:59:38.70	166.85	6.68	-49.0	-61.4	3.8	8.47e-01	0	40	104	3529506816	69	15122
2026-01-09 00:59:41.71	167.04	6.47	-49.0	-61.4	3.8	8.47e-01	0	40	104	3529506816	69	15140
2026-01-09 00:59:44.71	167.22	6.26	-49.0	-61.4	3.8	8.46e-01	0	40	104	3529506816	69	15099
2026-01-09 00:59:47.72	167.41	6.05	-49.0	-61.4	3.8	8.47e-01	0	40	104	3529506816	69	15075
2026-01-09 00:59:50.72	167.59	5.84	-49.0	-61.4	3.8	8.46e-01	0	40	104	3529506816	69	15076
2026-01-09 00:59:53.73	167.77	5.63	-49.0	-61.4	3.8	8.46e-01	0	40	104	3529506816	69	15123
2026-01-09 00:59:56.73	167.94	5.43	-49.0	-61.4	3.8	8.47e-01	0	40	104	3529506816	69	15101
2026-01-09 00:59:59.74	168.12	5.23	-49.0	-61.4	3.8	8.46e-01	0	40	104	3529506816	69	15070
2026-01-09 01:00:02.75	168.29	5.03	-49.0	-61.4	3.8	8.48e-01	0	40	104	3529506816	69	15124

#Closed at: 2026-01-09 01:00:04
#Recorded file [3529 MB]: D:/Data/31040_260109_034746.dat