passes_logs/2026/01/09/T1/T1__20260109_095847_NOAA_20_JPSS-1_rec.log

#Pass ID: 20260109_095847_NOAA 20 (JPSS-1)
#Satellite: NOAA 20 (JPSS-1)
#Configuration: NOAA 20
#almurnet v.1.7.20251203
#Start time: 2026-01-09 09:58:48

#Version: 2.0.20230620
#Station: T1
#Location: 37.570604 lon 55.790049 lat
#TLE: 1 43013U 17073A   26008.42245989  .00000120  00000+0  77990-4 0  9996
#TLE: 2 43013  98.7631 309.4315 0001737  48.7960 311.3365 14.19534455421802

#Time	Az	El	Level	Level2	SNR	BER	BlckErr	Temp	State	Recorded	gain1	gain2
2026-01-09 09:58:48.46	161.91	5.06	-48.0	-63.6	3.8	1.49e+00	0	39	0	0	68	20557
2026-01-09 09:58:51.47	161.93	5.28	-48.0	-63.4	3.8	1.49e+00	0	39	104	0	68	20295
2026-01-09 09:58:54.48	161.94	5.50	-48.0	-63.4	3.8	1.49e+00	0	40	104	0	68	20288
2026-01-09 09:58:57.50	161.95	5.72	-48.1	-63.6	3.8	1.49e+00	0	39	104	0	68	20555
2026-01-09 09:59:00.51	161.97	5.94	-48.1	-63.5	3.8	1.49e+00	0	40	104	0	68	20423
2026-01-09 09:59:03.52	161.98	6.17	-48.1	-63.3	3.8	1.49e+00	0	40	104	0	68	19864
2026-01-09 09:59:06.54	162.00	6.40	-48.0	-63.0	3.8	1.49e+00	0	40	104	0	68	19293
2026-01-09 09:59:09.55	162.01	6.62	-48.0	-63.0	3.8	1.49e+00	0	40	104	0	68	19183
2026-01-09 09:59:12.56	162.02	6.86	-48.0	-62.6	3.8	1.49e+00	0	40	104	0	68	18362
2026-01-09 09:59:15.58	162.04	7.09	-47.8	-61.3	3.8	1.49e+00	0	40	104	0	67	16718
2026-01-09 09:59:18.59	162.05	7.32	-47.7	-59.2	4.4	1.38e+00	0	41	0	0	67	13243
2026-01-09 09:59:21.61	162.07	7.56	-47.4	-56.9	5.6	5.66e-01	0	41	0	5242880	66	10676
2026-01-09 09:59:24.62	162.08	7.80	-46.9	-54.5	7.5	1.41e-01	0	41	0	11534336	65	8657
2026-01-09 09:59:27.63	162.10	8.04	-46.5	-53.0	9.1	3.02e-02	0	40	0	16777216	65	7258
2026-01-09 09:59:30.64	162.11	8.29	-46.4	-53.0	9.0	1.63e-02	0	41	0	23068672	64	7674
2026-01-09 09:59:33.66	162.13	8.54	-46.6	-53.6	8.5	6.10e-02	0	41	0	28311552	64	8243
2026-01-09 09:59:36.67	162.14	8.79	-47.2	-56.3	6.0	2.58e-01	0	41	0	33554432	65	10550
2026-01-09 09:59:39.68	162.16	9.04	-47.7	-60.3	4.1	1.46e+00	0	41	104	38797312	66	15924
2026-01-09 09:59:42.76	162.17	9.30	-47.6	-58.1	4.2	1.48e+00	0	41	104	40894464	66	12310
2026-01-09 09:59:45.70	162.19	9.55	-46.7	-53.3	5.1	1.49e+00	0	41	104	42991616	65	7515
2026-01-09 09:59:49.23	162.21	9.85	-44.8	-48.8	13.6	7.60e-06	0	41	0	48234496	61	5620
2026-01-09 09:59:51.96	162.22	10.09	-44.6	-48.4	14.1	3.00e-06	0	41	0	53477376	61	5374
2026-01-09 09:59:55.25	162.24	10.38	-44.5	-48.3	14.2	4.50e-06	0	41	0	59768832	61	5291
2026-01-09 09:59:58.25	162.26	10.65	-44.3	-48.0	14.5	7.00e-07	0	41	0	65011712	60	5424
2026-01-09 10:00:01.75	162.28	10.97	-44.3	-48.0	14.5	7.00e-07	0	41	0	72351744	60	5426
2026-01-09 10:00:04.47	162.29	11.22	-44.2	-47.8	14.7	7.00e-07	0	41	0	77594624	60	5306
2026-01-09 10:00:07.77	162.31	11.52	-44.1	-47.6	15.0	0.00e+00	0	41	0	82837504	60	5189
2026-01-09 10:00:10.59	162.32	11.78	-44.1	-47.6	15.0	0.00e+00	0	41	0	88080384	60	5186
2026-01-09 10:00:13.74	162.34	12.08	-44.0	-47.4	15.2	0.00e+00	0	41	0	94371840	60	5047
2026-01-09 10:00:16.61	162.36	12.36	-44.1	-47.4	15.1	0.00e+00	0	41	0	99614720	59	5402
2026-01-09 10:00:19.94	162.38	12.68	-44.1	-47.5	15.1	0.00e+00	0	41	0	105906176	59	5440
2026-01-09 10:00:22.82	162.39	12.96	-44.0	-47.3	15.3	0.00e+00	0	41	0	111149056	59	5282
2026-01-09 10:00:26.54	162.42	13.33	-43.9	-47.1	15.5	0.00e+00	0	41	0	118489088	59	5190
2026-01-09 10:00:29.34	162.43	13.62	-43.8	-46.9	15.7	0.00e+00	0	41	0	123731968	59	5075
2026-01-09 10:00:33.10	162.46	14.00	-43.7	-46.8	15.8	0.00e+00	0	42	0	131072000	59	5031
2026-01-09 10:00:36.20	162.48	14.32	-43.6	-46.7	15.9	0.00e+00	0	41	0	136314880	59	4981
2026-01-09 10:00:39.50	162.50	14.67	-43.5	-46.6	16.0	0.00e+00	0	41	0	142606336	58	5218
2026-01-09 10:00:42.22	162.51	14.96	-43.5	-46.6	16.1	0.00e+00	0	41	0	147849216	58	5188
2026-01-09 10:00:45.51	162.53	15.31	-43.5	-46.6	16.1	0.00e+00	0	42	0	154140672	58	5192
2026-01-09 10:00:48.24	162.55	15.61	-43.4	-46.5	16.1	0.00e+00	0	42	0	159383552	58	5136
2026-01-09 10:00:51.54	162.57	15.98	-43.3	-46.3	16.4	0.00e+00	0	42	0	165675008	58	5013
2026-01-09 10:00:54.26	162.59	16.28	-43.2	-46.2	16.5	0.00e+00	0	42	0	170917888	58	4962
2026-01-09 10:00:57.64	162.61	16.67	-43.1	-46.1	16.6	0.00e+00	0	41	0	177209344	58	4889
2026-01-09 10:01:00.36	162.63	16.98	-43.0	-45.9	16.8	0.00e+00	0	42	0	181403648	58	4774
2026-01-09 10:01:03.66	162.65	17.37	-43.0	-45.8	16.9	0.00e+00	0	41	0	187695104	57	5020
2026-01-09 10:01:06.51	162.67	17.71	-43.0	-45.8	16.9	0.00e+00	0	41	0	192937984	57	5013
2026-01-09 10:01:09.76	162.70	18.10	-42.9	-45.7	17.0	0.00e+00	0	42	0	199229440	57	4951
2026-01-09 10:01:13.14	162.72	18.52	-42.7	-45.4	17.3	0.00e+00	0	42	0	205520896	57	4804
2026-01-09 10:01:15.87	162.74	18.86	-42.7	-45.5	17.2	0.00e+00	0	42	0	210763776	57	4852
2026-01-09 10:01:19.16	162.77	19.28	-42.7	-45.5	17.3	0.00e+00	0	42	0	217055232	57	4818
2026-01-09 10:01:21.88	162.79	19.63	-42.7	-45.4	17.3	0.00e+00	0	42	0	222298112	57	4800
2026-01-09 10:01:25.28	162.81	20.07	-42.7	-45.4	17.3	0.00e+00	0	42	0	228589568	57	4811
2026-01-09 10:01:28.00	162.83	20.43	-42.5	-45.2	17.6	0.00e+00	0	42	0	233832448	57	4660
2026-01-09 10:01:31.29	162.86	20.88	-42.5	-45.1	17.6	0.00e+00	0	42	0	240123904	56	4925
2026-01-09 10:01:34.11	162.88	21.27	-42.5	-45.0	17.7	0.00e+00	0	42	0	245366784	56	4854
2026-01-09 10:01:37.60	162.91	21.75	-42.4	-44.9	17.8	0.00e+00	0	42	0	251658240	56	4809
2026-01-09 10:01:40.32	162.93	22.14	-42.4	-45.0	17.7	0.00e+00	0	42	0	256901120	56	4861
2026-01-09 10:01:43.61	162.96	22.62	-42.3	-44.9	17.9	0.00e+00	0	42	0	263192576	56	4791
2026-01-09 10:01:46.64	162.99	23.06	-42.4	-45.0	17.8	0.00e+00	0	42	0	268435456	56	4829
2026-01-09 10:01:49.65	163.01	23.51	-42.4	-45.0	17.8	0.00e+00	0	42	0	274726912	56	4822
2026-01-09 10:01:52.66	163.04	23.97	-42.4	-44.9	17.9	0.00e+00	0	42	0	279969792	56	4790
2026-01-09 10:01:55.72	163.07	24.45	-42.4	-44.9	17.9	0.00e+00	0	42	0	285212672	56	4805
2026-01-09 10:01:58.70	163.10	24.92	-42.4	-45.0	17.8	0.00e+00	0	42	0	291504128	56	4837
2026-01-09 10:02:02.09	163.13	25.47	-42.6	-45.2	17.7	0.00e+00	0	42	0	297795584	56	4950
2026-01-09 10:02:04.81	163.16	25.91	-42.9	-45.6	17.3	0.00e+00	0	42	0	303038464	56	5180
2026-01-09 10:02:08.16	163.19	26.47	-43.2	-45.9	16.9	0.00e+00	0	42	0	309329920	57	5071
2026-01-09 10:02:10.96	163.22	26.95	-43.4	-46.3	16.6	0.00e+00	0	42	0	314572800	57	5305
2026-01-09 10:02:14.11	163.25	27.50	-43.8	-46.8	16.1	0.00e+00	0	42	0	319815680	58	5299
2026-01-09 10:02:16.98	163.28	28.01	-44.0	-47.0	15.8	0.00e+00	0	42	0	325058560	58	5462
2026-01-09 10:02:20.12	163.32	28.58	-44.4	-47.7	15.2	0.00e+00	0	42	0	331350016	59	5539
2026-01-09 10:02:22.99	163.35	29.11	-44.6	-48.1	14.8	0.00e+00	0	42	0	336592896	60	5492
2026-01-09 10:02:26.10	163.38	29.69	-44.7	-48.3	14.5	0.00e+00	0	42	0	342884352	60	5624
2026-01-09 10:02:29.62	163.42	30.37	-44.9	-48.6	14.4	3.80e-06	0	42	0	349175808	60	5801
2026-01-09 10:02:32.34	163.46	30.90	-45.0	-48.7	14.3	7.00e-07	0	42	0	354418688	60	5863
2026-01-09 10:02:35.63	163.50	31.56	-44.9	-48.6	14.4	0.00e+00	0	42	0	360710144	60	5796
2026-01-09 10:02:38.74	163.54	32.20	-44.4	-47.7	15.2	0.00e+00	0	42	0	365953024	60	5269
2026-01-09 10:02:41.88	163.58	32.86	-44.1	-47.5	15.5	0.00e+00	0	42	0	372244480	60	5117
2026-01-09 10:02:44.89	163.62	33.50	-44.1	-47.4	15.6	0.00e+00	0	42	0	377487360	60	5093
2026-01-09 10:02:47.89	163.66	34.16	-43.9	-47.0	15.9	0.00e+00	0	42	0	383778816	59	5146
2026-01-09 10:02:50.90	163.71	34.83	-43.3	-46.1	16.9	0.00e+00	0	42	0	389021696	58	4882
2026-01-09 10:02:54.00	163.76	35.54	-42.6	-45.2	17.7	0.00e+00	0	42	0	395313152	57	4656
2026-01-09 10:02:56.87	163.80	36.20	-41.7	-44.1	18.6	0.00e+00	0	42	0	400556032	55	4643
2026-01-09 10:03:00.02	163.85	36.96	-41.7	-44.1	18.6	0.00e+00	0	42	0	405798912	55	4623
2026-01-09 10:03:02.89	163.90	37.65	-41.6	-43.9	18.8	0.00e+00	0	42	0	412090368	55	4542
2026-01-09 10:03:06.04	163.95	38.44	-41.8	-44.2	18.6	0.00e+00	0	42	0	417333248	55	4660
2026-01-09 10:03:09.00	164.01	39.19	-41.7	-44.1	18.6	0.00e+00	0	42	0	422576128	55	4616
2026-01-09 10:03:12.01	164.06	39.98	-41.4	-43.7	19.0	0.00e+00	0	42	0	428867584	54	4702
2026-01-09 10:03:15.01	164.12	40.78	-41.3	-43.5	19.2	0.00e+00	0	42	0	434110464	54	4584
2026-01-09 10:03:18.02	164.18	41.60	-41.5	-43.8	18.9	0.00e+00	0	42	0	440401920	54	4748
2026-01-09 10:03:21.03	164.25	42.44	-41.7	-44.1	18.7	0.00e+00	0	42	0	445644800	54	4879
2026-01-09 10:03:24.04	164.31	43.30	-41.6	-43.9	18.9	0.00e+00	0	42	0	450887680	54	4779
2026-01-09 10:03:27.05	164.38	44.17	-42.2	-44.7	18.1	0.00e+00	0	42	0	457179136	55	4930
2026-01-09 10:03:30.06	164.46	45.07	-43.8	-46.8	16.2	0.00e+00	0	42	0	462422016	58	5285
2026-01-09 10:03:33.07	164.54	45.99	-44.1	-47.2	15.8	0.00e+00	0	42	0	468713472	58	5531
2026-01-09 10:03:36.16	164.62	46.96	-44.2	-47.3	15.8	0.00e+00	0	42	0	473956352	58	5609
2026-01-09 10:03:39.02	164.70	47.87	-44.6	-47.9	15.2	0.00e+00	0	42	0	479199232	60	5355
2026-01-09 10:03:42.18	164.80	48.90	-44.4	-47.7	15.4	0.00e+00	0	42	0	485490688	60	5247
2026-01-09 10:03:45.35	164.90	49.97	-44.1	-47.2	15.9	0.00e+00	0	42	0	490733568	60	4964
2026-01-09 10:03:48.22	165.00	50.95	-43.4	-46.2	16.8	0.00e+00	0	42	0	497025024	58	4956
2026-01-09 10:03:51.37	165.11	52.05	-42.0	-44.4	18.5	0.00e+00	0	42	0	502267904	56	4537
2026-01-09 10:03:54.23	165.22	53.07	-41.0	-43.2	19.5	0.00e+00	0	42	0	507510784	54	4418
2026-01-09 10:03:57.55	165.36	54.29	-40.9	-43.1	19.6	0.00e+00	0	42	0	513802240	53	4616
2026-01-09 10:04:00.27	165.48	55.30	-41.6	-44.0	18.8	0.00e+00	0	42	0	519045120	53	5126
2026-01-09 10:04:03.57	165.64	56.56	-41.9	-44.3	18.5	0.00e+00	0	42	0	525336576	54	5019
2026-01-09 10:04:06.29	165.78	57.62	-43.1	-45.8	17.2	0.00e+00	0	42	0	530579456	56	5306
2026-01-09 10:04:09.59	165.97	58.93	-43.5	-46.3	16.8	0.00e+00	0	42	0	536870912	57	5286
2026-01-09 10:04:12.31	166.14	60.03	-42.8	-45.3	17.6	0.00e+00	0	42	0	542113792	57	4756
2026-01-09 10:04:15.61	166.36	61.40	-41.4	-43.7	19.1	0.00e+00	0	42	0	548405248	54	4671
2026-01-09 10:04:18.47	166.57	62.60	-40.2	-42.3	20.4	0.00e+00	0	42	0	553648128	52	4449
2026-01-09 10:04:21.63	166.83	63.96	-40.4	-42.5	20.1	0.00e+00	0	42	0	558891008	52	4584
2026-01-09 10:04:24.50	167.09	65.21	-41.9	-44.4	18.4	0.00e+00	0	42	0	564133888	54	5064
2026-01-09 10:04:27.65	167.42	66.61	-43.2	-46.0	17.0	0.00e+00	0	42	0	570425344	57	5121
2026-01-09 10:04:30.52	167.75	67.90	-43.4	-46.2	16.9	0.00e+00	0	42	0	575668224	57	5234
2026-01-09 10:04:33.67	168.17	69.34	-43.9	-46.9	16.1	0.00e+00	0	42	0	581959680	59	5062
2026-01-09 10:04:36.82	168.66	70.80	-42.7	-45.2	17.8	0.00e+00	0	42	0	588251136	57	4694
2026-01-09 10:04:39.69	169.17	72.15	-44.1	-47.1	15.9	0.00e+00	0	42	0	593494016	58	5523
2026-01-09 10:04:42.84	169.84	73.65	-44.2	-47.3	15.7	0.00e+00	0	42	0	598736896	59	5319
2026-01-09 10:04:45.78	170.58	75.07	-44.9	-48.4	14.6	7.00e-07	0	42	0	605028352	60	5680
2026-01-09 10:04:49.00	171.59	76.63	-43.8	-46.8	16.1	0.00e+00	0	42	0	610271232	59	5034
2026-01-09 10:04:51.86	172.71	78.03	-43.6	-46.5	16.5	0.00e+00	0	42	0	615514112	59	4828
2026-01-09 10:04:55.02	174.30	79.58	-42.1	-44.5	18.4	0.00e+00	0	42	0	621805568	56	4569
2026-01-09 10:04:57.88	176.23	80.99	-41.9	-44.3	18.5	0.00e+00	0	42	0	627048448	55	4713
2026-01-09 10:05:01.10	179.27	82.57	-45.1	-48.8	14.3	0.00e+00	0	42	0	633339904	60	5982
2026-01-09 10:05:03.97	183.33	83.96	-43.9	-46.9	16.1	0.00e+00	0	42	0	638582784	59	5089
2026-01-09 10:05:07.04	190.35	85.39	-43.7	-46.7	16.4	0.00e+00	0	42	0	644874240	58	5254
2026-01-09 10:05:10.05	202.99	86.68	-44.1	-47.3	15.8	0.00e+00	0	42	0	650117120	58	5616
2026-01-09 10:05:13.06	228.26	87.64	-43.4	-46.4	16.6	0.00e+00	0	42	0	655360000	58	5066
2026-01-09 10:05:16.06	267.53	87.77	-42.8	-45.4	17.6	0.00e+00	0	42	0	661651456	56	5042
2026-01-09 10:05:19.07	297.24	86.97	-43.8	-46.7	16.3	0.00e+00	0	42	0	666894336	58	5272
2026-01-09 10:05:22.19	312.63	85.69	-42.6	-45.2	17.8	0.00e+00	0	42	0	673185792	57	4674
2026-01-09 10:05:25.06	320.16	84.36	-41.7	-44.0	18.7	0.00e+00	0	42	0	678428672	55	4598
2026-01-09 10:05:28.21	325.13	82.85	-44.5	-47.8	15.3	0.00e+00	0	42	0	683671552	59	5631
2026-01-09 10:05:31.16	328.17	81.41	-44.9	-48.4	14.7	0.00e+00	0	42	0	689963008	61	5401
2026-01-09 10:05:34.31	330.45	79.86	-42.2	-44.7	18.3	0.00e+00	0	43	0	695205888	56	4659
2026-01-09 10:05:37.18	331.99	78.45	-43.8	-46.8	16.2	0.00e+00	0	42	0	700448768	58	5322
2026-01-09 10:05:40.33	333.30	76.91	-45.8	-50.0	13.0	6.25e-05	0	42	0	706740224	62	6120
2026-01-09 10:05:43.20	334.24	75.52	-44.6	-47.9	15.2	7.00e-07	0	42	0	711983104	61	5057
2026-01-09 10:05:46.35	335.08	74.00	-44.2	-47.4	15.7	0.00e+00	0	42	0	718274560	60	5044
2026-01-09 10:05:49.22	335.72	72.63	-43.3	-46.0	17.1	0.00e+00	0	42	0	723517440	58	4818
2026-01-09 10:05:52.56	336.34	71.06	-41.6	-43.9	19.0	0.00e+00	0	42	0	729808896	54	4768
2026-01-09 10:05:55.28	336.78	69.80	-44.2	-47.2	15.8	0.00e+00	0	42	0	735051776	59	5265
2026-01-09 10:05:58.58	337.23	68.28	-45.9	-50.2	12.9	1.67e-05	0	42	0	741343232	62	6246
2026-01-09 10:06:01.56	337.59	66.94	-44.2	-47.3	15.8	0.00e+00	0	42	0	746586112	60	5031
2026-01-09 10:06:04.57	337.91	65.60	-44.9	-48.5	14.7	0.00e+00	0	42	0	751828992	60	5736
2026-01-09 10:06:07.58	338.20	64.29	-42.8	-45.4	17.5	0.00e+00	0	42	0	758120448	57	4808
2026-01-09 10:06:10.59	338.45	62.99	-41.2	-43.5	19.3	0.00e+00	0	42	0	763363328	54	4586
2026-01-09 10:06:13.60	338.68	61.72	-40.4	-42.5	20.2	0.00e+00	0	42	0	769654784	52	4584
2026-01-09 10:06:16.92	338.91	60.35	-44.2	-47.4	15.7	0.00e+00	0	42	0	775946240	58	5672
2026-01-09 10:06:19.78	339.09	59.19	-43.6	-46.5	16.6	0.00e+00	0	42	0	781189120	58	5104
2026-01-09 10:06:23.06	339.28	57.89	-45.0	-48.7	14.4	7.00e-07	0	42	0	786432000	60	5884
2026-01-09 10:06:26.07	339.44	56.72	-43.9	-46.9	16.2	0.00e+00	0	42	0	792723456	59	5075
2026-01-09 10:06:29.08	339.58	55.57	-43.3	-46.0	17.0	0.00e+00	0	42	0	797966336	58	4861
2026-01-09 10:06:32.49	339.74	54.30	-42.6	-45.2	17.8	0.00e+00	0	42	0	804257792	56	4955
2026-01-09 10:06:35.21	339.85	53.31	-42.4	-45.0	18.0	0.00e+00	0	42	0	809500672	56	4818
2026-01-09 10:06:38.54	339.98	52.12	-43.0	-45.8	17.3	0.00e+00	0	43	0	815792128	56	5308
2026-01-09 10:06:41.36	340.09	51.13	-44.6	-48.1	14.9	7.00e-07	0	43	0	821035008	60	5511
2026-01-09 10:06:44.61	340.20	50.02	-45.2	-49.0	14.0	4.50e-06	0	43	0	827326464	61	5785
2026-01-09 10:06:47.64	340.30	49.01	-45.2	-49.0	14.1	0.00e+00	0	42	0	832569344	61	5756
2026-01-09 10:06:50.64	340.39	48.04	-46.8	-53.0	9.5	6.27e-02	0	43	0	838860800	65	7215
2026-01-09 10:06:53.65	340.48	47.08	-43.3	-46.1	17.0	0.00e+00	0	43	0	844103680	58	4883
2026-01-09 10:06:56.98	340.57	46.04	-43.6	-46.4	16.6	0.00e+00	0	42	0	850395136	57	5393
2026-01-09 10:06:59.71	340.64	45.21	-44.3	-47.5	15.6	0.00e+00	0	43	0	855638016	59	5414
2026-01-09 10:07:03.00	340.72	44.23	-42.1	-44.8	18.1	0.00e+00	0	42	0	861929472	56	4746
2026-01-09 10:07:05.80	340.79	43.42	-40.8	-43.1	19.6	0.00e+00	0	42	0	867172352	53	4633
2026-01-09 10:07:09.24	340.86	42.44	-42.2	-44.7	18.1	0.00e+00	0	42	0	873463808	54	5245
2026-01-09 10:07:11.96	340.92	41.69	-44.3	-47.6	15.4	0.00e+00	0	42	0	878706688	59	5500
2026-01-09 10:07:15.26	340.99	40.79	-42.8	-45.6	17.3	0.00e+00	0	42	0	884998144	57	4915
2026-01-09 10:07:18.08	341.05	40.05	-42.5	-45.2	17.8	0.00e+00	0	43	0	890241024	57	4656
2026-01-09 10:07:21.75	341.12	39.10	-44.6	-47.9	15.1	0.00e+00	0	43	0	896532480	59	5677
2026-01-09 10:07:24.56	341.17	38.39	-46.3	-51.2	11.8	2.08e-04	0	42	0	901775360	63	6575
2026-01-09 10:07:27.85	341.23	37.57	-45.7	-50.1	12.9	9.68e-05	0	42	0	908066816	63	5807
2026-01-09 10:07:30.57	341.27	36.92	-44.3	-48.0	15.0	0.00e+00	0	42	0	913309696	60	5443
2026-01-09 10:07:33.87	341.33	36.14	-44.2	-47.6	15.5	0.00e+00	0	42	0	919601152	60	5198
2026-01-09 10:07:37.26	341.38	35.36	-44.4	-47.8	15.2	0.00e+00	0	42	0	925892608	60	5326
2026-01-09 10:07:40.44	341.43	34.64	-46.0	-50.7	12.3	1.16e-04	0	43	0	932184064	62	6588
2026-01-09 10:07:43.31	341.47	34.01	-46.8	-53.0	9.7	8.31e-03	0	42	0	937426944	64	7716
2026-01-09 10:07:46.46	341.52	33.33	-46.3	-51.9	10.9	3.67e-03	0	42	0	943718400	64	6759
2026-01-09 10:07:49.33	341.56	32.72	-45.4	-50.1	12.9	7.01e-05	0	42	0	948961280	62	6155
2026-01-09 10:07:52.48	341.60	32.07	-44.9	-49.0	14.0	2.20e-06	0	43	0	954204160	61	5766
2026-01-09 10:07:55.35	341.64	31.49	-45.1	-49.2	13.8	8.30e-06	0	43	0	960495616	61	5921
2026-01-09 10:07:58.51	341.68	30.86	-45.1	-49.3	13.7	2.20e-06	0	43	0	965738496	61	5937
2026-01-09 10:08:01.37	341.71	30.31	-45.2	-49.4	13.6	1.06e-05	0	43	0	970981376	61	6025
2026-01-09 10:08:04.62	341.75	29.69	-45.1	-49.0	14.0	4.50e-06	0	43	0	977272832	61	5770
2026-01-09 10:08:07.49	341.79	29.15	-44.8	-48.3	14.7	0.00e+00	0	43	0	982515712	61	5325
2026-01-09 10:08:10.56	341.82	28.59	-44.2	-47.6	15.4	7.00e-07	0	43	0	988807168	60	5191
2026-01-09 10:08:13.56	341.86	28.05	-43.8	-47.0	15.9	0.00e+00	0	43	0	994050048	59	5125
2026-01-09 10:08:16.57	341.89	27.53	-43.4	-46.4	16.5	0.00e+00	0	42	0	1000341504	58	5084
2026-01-09 10:08:19.58	341.92	27.01	-42.9	-45.7	17.2	0.00e+00	0	43	0	1005584384	57	4975
2026-01-09 10:08:22.59	341.96	26.50	-42.8	-45.7	17.2	0.00e+00	0	42	0	1010827264	57	4980
2026-01-09 10:08:25.60	341.99	26.00	-43.0	-46.1	16.8	0.00e+00	0	42	0	1017118720	57	5175
2026-01-09 10:08:29.03	342.02	25.44	-43.2	-46.2	16.8	0.00e+00	0	42	0	1023410176	57	5240
2026-01-09 10:08:31.76	342.05	25.00	-43.1	-45.9	17.0	0.00e+00	0	43	0	1028653056	57	5080
2026-01-09 10:08:35.05	342.08	24.48	-42.7	-45.5	17.4	0.00e+00	0	42	0	1034944512	57	4845
2026-01-09 10:08:37.77	342.11	24.07	-42.1	-44.8	18.0	0.00e+00	0	43	0	1039138816	56	4753
2026-01-09 10:08:41.20	342.14	23.55	-41.7	-44.2	18.5	0.00e+00	0	43	0	1045430272	55	4697
2026-01-09 10:08:44.21	342.17	23.10	-41.6	-44.1	18.6	0.00e+00	0	43	0	1051721728	55	4625
2026-01-09 10:08:47.51	342.20	22.62	-41.7	-44.2	18.5	0.00e+00	0	42	0	1058013184	55	4679
2026-01-09 10:08:50.26	342.23	22.22	-41.6	-44.2	18.5	0.00e+00	0	43	0	1063256064	55	4685
2026-01-09 10:08:53.56	342.26	21.76	-41.8	-44.5	18.2	0.00e+00	0	43	0	1069547520	55	4827
2026-01-09 10:08:56.28	342.28	21.38	-41.9	-44.7	18.0	0.00e+00	0	42	0	1073741824	55	4972
2026-01-09 10:08:59.58	342.31	20.93	-42.1	-44.8	17.9	0.00e+00	0	42	0	1080033280	55	4993
2026-01-09 10:09:02.30	342.33	20.56	-42.1	-44.7	18.0	0.00e+00	0	43	0	1085276160	55	4978
2026-01-09 10:09:05.59	342.36	20.13	-42.1	-44.8	17.9	0.00e+00	0	43	0	1091567616	55	5027
2026-01-09 10:09:08.73	342.39	19.72	-42.3	-45.0	17.7	0.00e+00	0	43	0	1097859072	55	5133
2026-01-09 10:09:11.74	342.41	19.34	-42.3	-45.0	17.7	0.00e+00	0	43	0	1103101952	55	5105
2026-01-09 10:09:14.74	342.43	18.96	-42.3	-45.0	17.7	0.00e+00	0	43	0	1108344832	55	5105
2026-01-09 10:09:17.92	342.46	18.57	-42.4	-45.2	17.5	0.00e+00	0	43	0	1114636288	55	5244
2026-01-09 10:09:20.84	342.48	18.21	-42.4	-45.2	17.4	0.00e+00	0	43	0	1119879168	55	5275
2026-01-09 10:09:23.85	342.51	17.85	-42.4	-45.4	17.3	0.00e+00	0	42	0	1126170624	55	5376
2026-01-09 10:09:26.86	342.53	17.49	-42.5	-45.6	17.1	0.00e+00	0	42	0	1131413504	55	5489
2026-01-09 10:09:29.87	342.55	17.14	-42.5	-45.6	17.1	0.00e+00	0	43	0	1137704960	55	5471
2026-01-09 10:09:32.88	342.58	16.79	-42.6	-45.5	17.1	0.00e+00	0	43	0	1142947840	55	5461
2026-01-09 10:09:35.89	342.60	16.45	-42.8	-45.7	17.1	0.00e+00	0	42	0	1148190720	56	5235
2026-01-09 10:09:38.90	342.62	16.11	-42.8	-45.7	17.1	0.00e+00	0	43	0	1154482176	56	5224
2026-01-09 10:09:41.91	342.64	15.78	-42.6	-45.6	17.2	0.00e+00	0	43	0	1159725056	56	5181
2026-01-09 10:09:44.98	342.67	15.45	-42.5	-45.6	17.2	0.00e+00	0	43	0	1166016512	56	5165
2026-01-09 10:09:47.87	342.69	15.14	-42.3	-45.4	17.4	0.00e+00	0	43	0	1171259392	56	5061
2026-01-09 10:09:51.03	342.71	14.80	-42.4	-45.5	17.3	0.00e+00	0	42	0	1176502272	56	5101
2026-01-09 10:09:53.89	342.73	14.50	-42.4	-45.5	17.2	0.00e+00	0	42	0	1181745152	56	5141
2026-01-09 10:09:57.04	342.75	14.18	-42.4	-45.6	17.1	0.00e+00	0	43	0	1188036608	56	5188
2026-01-09 10:09:59.91	342.77	13.88	-42.5	-45.7	17.0	0.00e+00	0	43	0	1193279488	56	5246
2026-01-09 10:10:03.06	342.79	13.57	-42.5	-45.8	16.9	0.00e+00	0	43	0	1199570944	56	5287
2026-01-09 10:10:05.93	342.81	13.28	-42.5	-45.7	17.0	0.00e+00	0	43	0	1204813824	56	5258
2026-01-09 10:10:09.08	342.83	12.97	-42.6	-45.9	16.8	0.00e+00	0	43	0	1211105280	56	5371
2026-01-09 10:10:12.42	342.86	12.65	-42.7	-46.0	16.7	0.00e+00	0	43	0	1217396736	56	5414
2026-01-09 10:10:15.16	342.87	12.38	-42.7	-46.0	16.7	0.00e+00	0	43	0	1221591040	56	5422
2026-01-09 10:10:18.46	342.90	12.07	-42.7	-46.2	16.6	0.00e+00	0	43	0	1227882496	56	5530
2026-01-09 10:10:21.18	342.91	11.82	-42.7	-46.2	16.4	0.00e+00	0	43	0	1233125376	56	5592
2026-01-09 10:10:24.92	342.94	11.47	-42.7	-46.3	16.3	0.00e+00	0	43	0	1240465408	56	5644
2026-01-09 10:10:27.67	342.96	11.22	-42.8	-46.5	16.2	0.00e+00	0	42	0	1245708288	56	5727
2026-01-09 10:10:31.45	342.98	10.88	-42.8	-46.5	16.1	0.00e+00	0	43	0	1253048320	56	5739
2026-01-09 10:10:34.17	343.00	10.64	-42.8	-46.5	16.1	0.00e+00	0	43	0	1258291200	56	5751
2026-01-09 10:10:38.23	343.02	10.28	-42.6	-46.6	16.0	0.00e+00	0	43	0	1265631232	56	5808
2026-01-09 10:10:41.00	343.04	10.04	-42.4	-46.8	15.7	0.00e+00	0	43	0	1270874112	56	5972
2026-01-09 10:10:44.88	343.07	9.70	-42.2	-46.7	15.8	0.00e+00	0	43	0	1278214144	56	5878
2026-01-09 10:10:47.62	343.08	9.47	-42.0	-46.6	15.9	0.00e+00	0	43	0	1283457024	56	5833
2026-01-09 10:10:51.73	343.11	9.13	-41.7	-46.5	15.8	0.00e+00	0	43	0	1290797056	55	6130
2026-01-09 10:10:54.49	343.13	8.90	-46.5	-63.6	3.8	3.83e-01	0	43	104	1294991360	64	25910
2026-01-09 10:10:58.22	343.15	8.59	-47.8	-64.0	3.9	1.49e+00	0	43	104	1294991360	66	24345
2026-01-09 10:11:01.15	343.17	8.35	-48.5	-64.2	3.8	1.49e+00	0	43	104	12949
