passes_logs/2026/01/09/T1/T1__20260109_234926_NOAA_20_JPSS-1_rec.log

#Pass ID: 20260109_234926_NOAA 20 (JPSS-1)
#Satellite: NOAA 20 (JPSS-1)
#Configuration: NOAA 20
#almurnet v.1.7.20251203
#Start time: 2026-01-09 23:49:27

#Version: 2.0.20230620
#Station: T1
#Location: 37.570604 lon 55.790049 lat
#TLE: 1 43013U 17073A   26009.26828276  .00000112  00000+0  74203-4 0  9990
#TLE: 2 43013  98.7631 310.2683 0001700  47.4387 312.6933 14.19534764421920

#Time	Az	El	Level	Level2	SNR	BER	BlckErr	Temp	State	Recorded	gain1	gain2
2026-01-09 23:49:27.71	15.47	5.10	-49.9	-65.9	3.8	1.49e+00	0	41	0	0	70	24081
2026-01-09 23:49:31.72	15.45	5.39	-49.9	-66.0	3.8	1.49e+00	0	41	104	0	70	24195
2026-01-09 23:49:35.74	15.44	5.68	-49.9	-65.7	3.8	1.49e+00	0	41	104	0	70	23545
2026-01-09 23:49:39.76	15.42	5.98	-49.9	-65.7	3.8	1.49e+00	0	41	104	0	70	23353
2026-01-09 23:49:43.78	15.41	6.27	-49.9	-65.8	3.8	1.49e+00	0	41	104	0	70	23728
2026-01-09 23:49:47.79	15.39	6.58	-49.9	-65.9	3.8	1.49e+00	0	42	104	0	70	24040
2026-01-09 23:49:51.81	15.37	6.88	-49.9	-66.1	3.8	1.49e+00	0	42	104	0	70	24687
2026-01-09 23:49:55.83	15.36	7.19	-49.9	-65.3	3.8	1.49e+00	0	42	104	0	70	22441
2026-01-09 23:49:59.85	15.34	7.50	-49.6	-62.1	4.4	1.36e+00	0	42	0	0	70	15502
2026-01-09 23:50:03.87	15.32	7.82	-49.4	-59.6	5.6	4.51e-01	0	42	0	7340032	70	11634
2026-01-09 23:50:07.88	15.30	8.14	-49.2	-58.4	6.6	2.57e-01	0	42	0	14680064	70	10078
2026-01-09 23:50:11.90	15.28	8.46	-49.2	-58.1	6.8	1.69e-01	0	43	0	22020096	70	9737
2026-01-09 23:50:15.92	15.25	8.79	-49.3	-58.9	6.2	2.67e-01	0	43	0	30408704	70	10665
2026-01-09 23:50:19.93	15.23	9.13	-49.4	-63.2	4.1	1.25e+00	0	43	0	36700160	70	17527
2026-01-09 23:50:24.00	15.21	9.47	-50.0	-60.9	4.9	1.49e+00	0	43	104	38797312	70	13508
2026-01-09 23:50:28.00	15.18	9.81	-50.0	-58.3	6.6	1.91e-01	0	43	0	45088768	70	9964
2026-01-09 23:50:32.02	15.16	10.16	-49.3	-62.7	4.2	1.45e+00	0	43	0	50331648	69	17632
2026-01-09 23:50:36.03	15.13	10.51	-49.3	-62.5	4.3	1.39e+00	0	43	0	50331648	69	17179
2026-01-09 23:50:40.04	15.10	10.86	-49.6	-64.8	3.8	1.00e+00	0	43	104	53477376	69	22308
2026-01-09 23:50:44.05	15.07	11.23	-47.6	-52.4	12.6	1.87e-04	0	43	0	57671680	67	6023
2026-01-09 23:50:48.06	15.04	11.59	-47.2	-51.8	13.3	2.44e-05	0	43	0	65011712	66	5972
2026-01-09 23:50:52.04	15.01	11.96	-47.2	-51.5	13.6	6.10e-06	0	43	0	72351744	66	5762
2026-01-09 23:50:56.14	14.98	12.35	-46.9	-51.1	14.0	3.00e-06	0	43	0	79691776	65	5835
2026-01-09 23:51:00.23	14.94	12.74	-46.9	-51.1	14.1	7.00e-07	0	43	0	87031808	65	5800
2026-01-09 23:51:04.25	14.91	13.13	-46.8	-50.9	14.3	1.50e-06	0	43	0	95420416	65	5689
2026-01-09 23:51:08.26	14.87	13.53	-46.7	-50.9	14.3	1.50e-06	0	43	0	102760448	65	5663
2026-01-09 23:51:12.67	14.83	13.98	-46.5	-50.6	14.6	7.00e-07	0	43	0	111149056	65	5496
2026-01-09 23:51:16.68	14.79	14.39	-46.6	-50.6	14.6	1.50e-06	0	43	0	118489088	65	5509
2026-01-09 23:51:20.65	14.75	14.80	-46.5	-50.3	14.9	7.00e-07	0	43	0	125829120	65	5332
2026-01-09 23:51:24.81	14.70	15.24	-46.7	-50.4	14.9	0.00e+00	0	43	0	133169152	64	5703
2026-01-09 23:51:28.84	14.66	15.68	-46.6	-50.2	15.1	0.00e+00	0	43	0	141557760	64	5586
2026-01-09 23:51:32.85	14.61	16.12	-46.6	-50.0	15.3	0.00e+00	0	43	0	148897792	64	5458
2026-01-09 23:51:36.86	14.56	16.57	-46.4	-49.8	15.5	0.00e+00	0	43	0	156237824	64	5317
2026-01-09 23:51:40.88	14.51	17.03	-46.5	-49.8	15.6	0.00e+00	0	43	0	163577856	64	5304
2026-01-09 23:51:44.89	14.46	17.50	-46.4	-49.5	15.9	0.00e+00	0	43	0	170917888	64	5132
2026-01-09 23:51:49.01	14.40	17.99	-46.3	-49.4	16.0	0.00e+00	0	43	0	179306496	64	5068
2026-01-09 23:51:53.03	14.35	18.47	-46.2	-49.2	16.2	0.00e+00	0	43	0	186646528	64	4969
2026-01-09 23:51:57.04	14.29	18.97	-46.2	-49.2	16.2	0.00e+00	0	43	0	193986560	64	4978
2026-01-09 23:52:01.35	14.22	19.51	-46.2	-49.2	16.2	0.00e+00	0	43	0	202375168	64	4956
2026-01-09 23:52:05.47	14.16	20.04	-46.2	-49.1	16.3	0.00e+00	0	43	0	209715200	64	4911
2026-01-09 23:52:09.49	14.09	20.57	-46.1	-49.0	16.5	0.00e+00	0	43	0	217055232	64	4833
2026-01-09 23:52:13.50	14.02	21.11	-46.1	-49.0	16.5	0.00e+00	0	43	0	224395264	64	4821
2026-01-09 23:52:17.50	13.94	21.66	-46.1	-49.0	16.5	0.00e+00	0	43	0	232783872	64	4830
2026-01-09 23:52:21.68	13.86	22.25	-46.0	-48.9	16.7	0.00e+00	0	43	0	240123904	64	4760
2026-01-09 23:52:25.69	13.78	22.82	-46.1	-48.9	16.7	0.00e+00	0	43	0	247463936	63	5067
2026-01-09 23:52:29.77	13.70	23.42	-45.8	-48.6	17.0	0.00e+00	0	43	0	255852544	63	4874
2026-01-09 23:52:33.78	13.61	24.03	-45.9	-48.7	16.9	0.00e+00	0	43	0	263192576	63	4961
2026-01-09 23:52:37.80	13.52	24.65	-45.7	-48.5	17.2	0.00e+00	0	43	0	270532608	63	4823
2026-01-09 23:52:41.81	13.42	25.28	-45.7	-48.5	17.1	0.00e+00	0	43	0	277872640	63	4833
2026-01-09 23:52:45.82	13.32	25.93	-46.0	-48.8	16.9	0.00e+00	0	43	0	285212672	63	4986
2026-01-09 23:52:49.83	13.21	26.59	-46.3	-49.2	16.4	0.00e+00	0	43	0	292552704	63	5260
2026-01-09 23:52:53.84	13.10	27.27	-46.7	-49.8	15.8	0.00e+00	0	43	0	300941312	64	5318
2026-01-09 23:52:57.86	12.98	27.97	-47.0	-50.2	15.4	0.00e+00	0	43	0	308281344	64	5557
2026-01-09 23:53:01.87	12.86	28.69	-47.6	-51.0	14.5	7.00e-07	0	43	0	315621376	65	5787
2026-01-09 23:53:05.88	12.73	29.43	-47.8	-51.5	14.1	1.50e-06	0	43	0	322961408	66	5726
2026-01-09 23:53:09.89	12.60	30.18	-48.1	-52.0	13.7	5.30e-06	0	43	0	330301440	66	6067
2026-01-09 23:53:13.93	12.45	30.96	-48.0	-51.9	13.8	3.80e-06	0	43	0	338690048	66	6016
2026-01-09 23:53:18.09	12.29	31.79	-48.2	-52.1	13.6	4.50e-06	0	43	0	346030080	67	5800
2026-01-09 23:53:22.47	12.12	32.68	-48.2	-52.2	13.5	9.90e-06	0	43	0	354418688	67	5886
2026-01-09 23:53:26.48	11.95	33.53	-48.0	-51.8	13.8	9.90e-06	0	43	0	361758720	67	5655
2026-01-09 23:53:30.54	11.77	34.40	-47.4	-50.8	15.0	0.00e+00	0	43	0	369098752	66	5291
2026-01-09 23:53:34.56	11.57	35.30	-46.7	-49.7	16.0	0.00e+00	0	43	0	376438784	65	4950
2026-01-09 23:53:38.57	11.37	36.22	-46.0	-48.7	17.1	0.00e+00	0	43	0	384827392	63	4956
2026-01-09 23:53:42.58	11.16	37.16	-45.6	-48.3	17.5	0.00e+00	0	44	0	392167424	63	4709
2026-01-09 23:53:46.58	10.93	38.13	-45.7	-48.3	17.4	0.00e+00	0	43	0	399507456	63	4759
2026-01-09 23:53:50.59	10.68	39.13	-45.9	-48.6	17.2	0.00e+00	0	43	0	406847488	63	4897
2026-01-09 23:53:54.86	10.40	40.22	-46.2	-49.0	16.9	0.00e+00	0	44	0	415236096	63	5124
2026-01-09 23:53:59.17	10.10	41.37	-46.5	-49.5	16.3	0.00e+00	0	43	0	422576128	63	5456
2026-01-09 23:54:03.18	9.80	42.46	-46.7	-49.7	16.1	0.00e+00	0	43	0	430964736	64	5231
2026-01-09 23:54:07.20	9.47	43.59	-46.8	-49.8	16.0	0.00e+00	0	43	0	438304768	64	5305
2026-01-09 23:54:11.21	9.12	44.75	-47.4	-50.7	15.1	0.00e+00	0	43	0	445644800	65	5533
2026-01-09 23:54:15.22	8.74	45.94	-47.9	-51.6	14.3	0.00e+00	0	44	0	452984832	66	5796
2026-01-09 23:54:19.29	8.32	47.19	-48.9	-53.1	12.8	4.34e-05	0	43	0	460324864	68	6191
2026-01-09 23:54:23.31	7.87	48.46	-48.8	-52.8	13.1	4.95e-05	0	43	0	468713472	68	5983
2026-01-09 23:54:27.44	7.37	49.80	-47.7	-51.1	14.8	0.00e+00	0	43	0	476053504	67	5188
2026-01-09 23:54:31.48	6.83	51.14	-46.0	-48.7	17.2	0.00e+00	0	44	0	483393536	63	4962
2026-01-09 23:54:35.62	6.23	52.56	-45.4	-47.9	18.0	0.00e+00	0	44	0	491782144	62	4794
2026-01-09 23:54:39.63	5.58	53.97	-45.6	-48.2	17.7	0.00e+00	0	44	0	499122176	62	4954
2026-01-09 23:54:43.64	4.87	55.42	-46.2	-49.0	17.0	0.00e+00	0	43	0	506462208	63	5121
2026-01-09 23:54:47.72	4.06	56.92	-47.5	-50.7	15.2	0.00e+00	0	44	0	513802240	65	5566
2026-01-09 23:54:51.83	3.14	58.48	-49.2	-53.8	12.3	1.48e-04	0	43	0	522190848	69	6276
2026-01-09 23:54:55.87	2.13	60.04	-48.0	-51.5	14.6	3.80e-06	0	43	0	529530880	68	5127
2026-01-09 23:54:59.98	0.96	61.66	-46.3	-49.0	16.9	0.00e+00	0	44	0	536870912	64	4864
2026-01-09 23:55:04.00	359.66	63.27	-45.8	-48.4	17.6	0.00e+00	0	44	0	544210944	63	4800
2026-01-09 23:55:08.01	358.16	64.89	-46.1	-48.8	17.2	0.00e+00	0	44	0	551550976	63	5003
2026-01-09 23:55:12.03	356.43	66.54	-46.7	-49.7	16.4	0.00e+00	0	43	0	559939584	63	5535
2026-01-09 23:55:16.04	354.40	68.20	-47.1	-50.2	15.8	0.00e+00	0	43	0	567279616	64	5541
2026-01-09 23:55:20.05	352.01	69.86	-46.4	-49.3	16.6	0.00e+00	0	44	0	574619648	64	5004
2026-01-09 23:55:24.09	349.14	71.52	-46.4	-49.1	16.9	0.00e+00	0	43	0	581959680	63	5216
2026-01-09 23:55:28.35	345.45	73.24	-47.1	-50.2	15.8	0.00e+00	0	44	0	590348288	64	5569
2026-01-09 23:55:32.48	341.04	74.85	-48.6	-52.3	13.8	1.06e-05	0	43	0	597688320	68	5632
2026-01-09 23:55:36.48	335.75	76.33	-47.7	-51.0	15.1	0.00e+00	0	43	0	605028352	66	5406
2026-01-09 23:55:40.60	328.98	77.72	-46.8	-49.7	16.3	0.00e+00	0	43	0	613416960	65	4974
2026-01-09 23:55:44.98	319.99	78.97	-46.2	-49.0	17.1	0.00e+00	0	44	0	621805568	63	5103
2026-01-09 23:55:48.99	309.97	79.84	-46.4	-49.1	16.9	0.00e+00	0	44	0	629145600	64	4914
2026-01-09 23:55:53.01	298.45	80.36	-47.3	-50.5	15.5	0.00e+00	0	43	0	636485632	65	5444
2026-01-09 23:55:57.02	286.18	80.46	-46.4	-49.2	16.9	0.00e+00	0	43	0	643825664	64	4947
2026-01-09 23:56:01.03	274.21	80.13	-45.9	-48.5	17.7	0.00e+00	0	44	0	651165696	63	4827
2026-01-09 23:56:05.05	263.43	79.41	-46.2	-48.9	17.3	0.00e+00	0	44	0	659554304	63	5086
2026-01-09 23:56:09.06	254.34	78.38	-47.4	-50.7	15.4	0.00e+00	0	43	0	666894336	65	5536
2026-01-09 23:56:13.07	246.91	77.12	-49.9	-55.0	11.2	1.08e-03	0	43	0	674234368	70	6804
2026-01-09 23:56:17.08	240.91	75.71	-49.3	-53.7	12.5	1.04e-04	0	44	0	681574400	70	5874
2026-01-09 23:56:21.09	236.07	74.18	-47.4	-50.5	15.7	0.00e+00	0	44	0	688914432	66	5141
2026-01-09 23:56:25.01	232.21	72.63	-46.1	-48.7	17.4	0.00e+00	0	43	0	696254464	64	4699
2026-01-09 23:56:29.02	228.96	71.00	-46.3	-48.9	17.3	0.00e+00	0	43	0	703594496	63	5077
2026-01-09 23:56:33.03	226.25	69.34	-47.2	-50.2	15.9	0.00e+00	0	43	0	711983104	65	5254
2026-01-09 23:56:37.04	223.98	67.68	-49.7	-54.3	11.9	5.77e-04	0	43	0	719323136	70	6338
2026-01-09 23:56:41.05	222.05	66.02	-47.6	-50.7	15.4	0.00e+00	0	44	0	726663168	67	4981
2026-01-09 23:56:45.06	220.40	64.37	-46.2	-48.8	17.3	0.00e+00	0	44	0	734003200	64	4748
2026-01-09 23:56:49.19	218.93	62.70	-45.5	-47.9	18.3	0.00e+00	0	43	0	741343232	62	4776
2026-01-09 23:56:53.20	217.68	61.10	-46.5	-49.2	17.0	0.00e+00	0	44	0	749731840	63	5251
2026-01-09 23:56:57.28	216.57	59.50	-48.2	-51.7	14.4	0.00e+00	0	44	0	757071872	67	5590
2026-01-09 23:57:01.28	215.60	57.96	-49.7	-54.3	12.0	3.20e-04	0	43	0	764411904	70	6278
2026-01-09 23:57:05.30	214.73	56.44	-47.8	-51.0	15.1	7.00e-07	0	43	0	771751936	67	5134
2026-01-09 23:57:09.40	213.94	54.94	-46.9	-49.8	16.3	0.00e+00	0	43	0	780140544	65	5037
2026-01-09 23:57:13.41	213.25	53.50	-45.9	-48.5	17.7	0.00e+00	0	44	0	787480576	63	4835
2026-01-09 23:57:17.42	212.62	52.09	-46.0	-48.6	17.6	0.00e+00	0	44	0	794820608	62	5195
2026-01-09 23:57:21.74	212.00	50.62	-47.7	-51.0	15.2	0.00e+00	0	43	0	803209216	66	5435
2026-01-09 23:57:26.11	211.44	49.17	-49.1	-53.1	13.2	2.97e-05	0	44	0	810549248	68	6186
2026-01-09 23:57:30.05	210.98	47.91	-49.0	-53.0	13.2	1.14e-05	0	44	0	817889280	68	6119
2026-01-09 23:57:34.11	210.54	46.64	-49.9	-54.8	11.4	1.21e-03	0	44	0	826277888	70	6674
2026-01-09 23:57:38.12	210.14	45.42	-48.8	-52.6	13.7	1.22e-05	0	44	0	833617920	69	5488
2026-01-09 23:57:42.20	209.76	44.21	-48.7	-52.7	13.6	6.80e-06	0	44	0	840957952	68	5883
2026-01-09 23:57:46.27	209.41	43.04	-49.2	-53.6	12.6	7.01e-05	0	44	0	849346560	69	6156
2026-01-09 23:57:50.37	209.09	41.90	-49.2	-53.3	12.9	5.95e-05	0	43	0	856686592	69	5966
2026-01-09 23:57:54.38	208.79	40.82	-49.4	-53.8	12.4	1.72e-04	0	44	0	864026624	69	6347
2026-01-09 23:57:58.39	208.52	39.76	-49.5	-54.1	12.2	1.67e-04	0	44	0	871366656	69	6523
2026-01-09 23:58:02.53	208.25	38.71	-48.9	-52.9	13.3	2.51e-05	0	44	0	879755264	69	5692
2026-01-09 23:58:06.54	208.01	37.71	-48.4	-52.0	14.2	1.50e-06	0	44	0	887095296	68	5445
2026-01-09 23:58:10.59	207.78	36.74	-48.2	-51.8	14.5	7.00e-07	0	44	0	894435328	68	5288
2026-01-09 23:58:14.60	207.57	35.80	-48.3	-52.0	14.2	0.00e+00	0	44	0	901775360	68	5426
2026-01-09 23:58:18.61	207.37	34.89	-48.2	-51.7	14.4	0.00e+00	0	44	0	909115392	68	5263
2026-01-09 23:58:22.62	207.18	34.00	-48.0	-51.4	14.6	0.00e+00	0	44	0	917504000	67	5364
2026-01-09 23:58:26.64	207.00	33.14	-48.3	-52.0	14.0	7.00e-07	0	44	0	924844032	67	5769
2026-01-09 23:58:30.65	206.83	32.30	-48.4	-52.2	13.8	5.30e-06	0	43	0	932184064	67	5894
2026-01-09 23:58:34.89	206.66	31.44	-48.6	-52.6	13.5	8.30e-06	0	44	0	939524096	67	6146
2026-01-09 23:58:38.95	206.50	30.63	-48.6	-52.5	13.6	1.06e-05	0	44	0	947912704	68	5755
2026-01-09 23:58:42.99	206.36	29.86	-48.7	-52.7	13.4	1.83e-05	0	44	0	955252736	68	5860
2026-01-09 23:58:47.27	206.21	29.05	-48.6	-52.5	13.6	8.30e-06	0	44	0	963641344	68	5723
2026-01-09 23:58:51.29	206.08	28.32	-48.3	-52.0	14.0	3.00e-06	0	44	0	970981376	68	5455
2026-01-09 23:58:55.30	205.96	27.61	-48.0	-51.5	14.6	7.00e-07	0	43	0	978321408	68	5109
2026-01-09 23:58:59.31	205.84	26.91	-47.7	-51.1	14.7	0.00e+00	0	44	0	985661440	67	5218
2026-01-09 23:59:03.38	205.73	26.23	-47.7	-51.1	14.8	7.00e-07	0	44	0	993001472	67	5172
2026-01-09 23:59:07.57	205.62	25.54	-47.5	-50.7	15.2	0.00e+00	0	44	0	1001390080	66	5260
2026-01-09 23:59:11.58	205.52	24.89	-47.1	-50.2	15.6	0.00e+00	0	44	0	1008730112	66	4963
2026-01-09 23:59:15.82	205.41	24.23	-46.9	-49.9	15.8	0.00e+00	0	44	0	1017118720	65	5085
2026-01-09 23:59:20.20	205.31	23.56	-46.8	-49.8	16.0	0.00e+00	0	44	0	1024458752	65	5036
2026-01-09 23:59:24.53	205.22	22.91	-46.8	-49.9	15.8	0.00e+00	0	44	0	1032847360	65	5077
2026-01-09 23:59:29.10	205.12	22.25	-46.9	-50.0	15.7	0.00e+00	0	44	0	1041235968	65	5133
2026-01-09 23:59:33.44	205.03	21.64	-47.0	-50.1	15.6	0.00e+00	0	44	0	1049624576	65	5207
2026-01-09 23:59:37.94	204.95	21.01	-46.9	-50.0	15.7	0.00e+00	0	44	0	1058013184	65	5148
2026-01-09 23:59:41.95	204.88	20.47	-47.0	-50.2	15.4	0.00e+00	0	44	0	1065353216	65	5273
2026-01-09 23:59:45.96	204.80	19.94	-47.2	-50.6	15.1	0.00e+00	0	44	0	1073741824	65	5467
2026-01-09 23:59:49.97	204.74	19.42	-47.4	-50.9	14.7	0.00e+00	0	44	0	1081081856	65	5701
2026-01-09 23:59:54.32	204.67	18.87	-47.4	-50.9	14.7	7.00e-07	0	43	0	1089470464	65	5690
2026-01-09 23:59:58.36	204.60	18.37	-47.4	-50.9	14.6	1.50e-06	0	44	0	1096810496	65	5671
2026-01-10 00:00:02.37	204.54	17.88	-47.4	-50.8	14.7	0.00e+00	0	43	0	1104150528	65	5640
2026-01-10 00:00:06.39	204.48	17.40	-47.4	-51.0	14.5	7.00e-07	0	43	0	1111490560	65	5727
2026-01-10 00:00:10.47	204.43	16.92	-47.5	-51.0	14.4	0.00e+00	0	44	0	1118830592	65	5771
2026-01-10 00:00:14.73	204.37	16.43	-47.5	-51.1	14.2	1.50e-06	0	44	0	1127219200	65	5842
2026-01-10 00:00:18.75	204.32	15.98	-47.7	-51.4	14.0	2.20e-06	0	44	0	1134559232	66	5678
2026-01-10 00:00:22.76	204.27	15.54	-47.7	-51.5	13.8	5.30e-06	0	44	0	1141899264	66	5734
2026-01-10 00:00:27.03	204.22	15.08	-47.7	-51.5	13.8	9.10e-06	0	44	0	1150287872	66	5735
2026-01-10 00:00:31.03	204.17	14.65	-47.8	-51.6	13.7	5.30e-06	0	44	0	1157627904	66	5824
2026-01-10 00:00:35.05	204.13	14.23	-47.7	-51.6	13.7	4.50e-06	0	44	0	1164967936	66	5808
2026-01-10 00:00:39.29	204.08	13.79	-47.7	-51.5	13.7	6.80e-06	0	43	0	1173356544	66	5788
2026-01-10 00:00:43.31	204.04	13.39	-47.6	-51.5	13.6	6.10e-06	0	44	0	1180696576	66	5762
2026-01-10 00:00:47.32	204.00	12.99	-47.6	-51.5	13.6	2.20e-06	0	44	0	1188036608	66	5757
2026-01-10 00:00:51.33	203.96	12.60	-47.5	-51.5	13.6	1.22e-05	0	44	0	1195376640	66	5758
2026-01-10 00:00:55.34	203.92	12.21	-47.5	-51.5	13.6	9.10e-06	0	44	0	1203765248	66	5723
2026-01-10 00:00:59.35	203.88	11.83	-47.4	-51.5	13.5	6.80e-06	0	44	0	1211105280	66	5744
2026-01-10 00:01:03.89	203.84	11.41	-47.4	-51.5	13.4	1.22e-05	0	44	0	1219493888	66	5784
2026-01-10 00:01:08.30	203.81	11.00	-47.4	-51.5	13.5	9.10e-06	0	44	0	1227882496	66	5767
2026-01-10 00:01:12.65	203.77	10.61	-47.3	-51.5	13.4	6.80e-06	0	43	0	1236271104	66	5776
2026-01-10 00:01:16.71	203.74	10.25	-47.4	-51.7	13.2	9.10e-06	0	44	0	1243611136	66	5896
2026-01-10 00:01:20.72	203.71	9.90	-47.4	-51.7	13.2	3.05e-05	0	44	0	1250951168	66	5919
2026-01-10 00:01:24.73	203.68	9.55	-47.4	-51.9	13.0	4.65e-05	0	44	0	1258291200	66	6032
2026-01-10 00:01:28.96	203.65	9.19	-47.4	-51.9	13.0	3.12e-05	0	44	0	1266679808	66	6012
2026-01-10 00:01:32.98	203.62	8.86	-51.1	-66.2	3.8	1.49e+00	0	44	104	1271922688	72	22191
2026-01-10 00:01:37.01	203.59	8.52	-51.7	-66.8	3.8	1.49e+00	0	44	104	1271922688	73	22322
2026-01-10 00:01:41.31	203.57	8.17	-51.8	-67.0	3.8	1.49e+00	0	44	104	1271922688	74	21530
2026-01-10 00:01:45.56	203.54	7.83	-51.8	-67.0	3.8	1.49e+00	0	44	104	1271922688	74	21599
2026-01-10 00:01:49.57	203.52	7.51	-51.9	-67.0	3.8	1.49e+00	0	44	104	1271922688	74	21646
2026-01-10 00:01:53.59	203.49	7.19	-51.8	-67.0	3.8	1.49e+00	0	44	104	1271922688	74	21560
2026-01-10 00:01:57.61	203.47	6.88	-51.8	-67.0	3.8	1.49e+00	0	44	104	1271922688	74	21521
2026-01-10 00:02:01.63	203.45	6.57	-51.8	-67.0	3.8	1.49e+00	0	44	104	1271922688	74	21548
2026-01-10 00:02:05.64	203.43	6.27	-51.8	-67.0	3.8	1.49e+00	0	44	104	1271922688	74	21528
2026-01-10 00:02:09.66	203.40	5.97	-51.8	-66.9	3.8	1.49e+00	0	44	104	1271922688	74	21404
2026-01-10 00:02:13.68	203.38	5.67	-51.7	-66.9	3.8	1.49e+00	0	44	104	1271922688	74	21420
2026-01-10 00:02:17.70	203.36	5.38	-51.7	-66.9	3.8	1.49e+00	0	44	104	1271922688	74	21406
2026-01-10 00:02:21.72	203.35	5.09	-51.7	-66.9	3.8	1.49e+00	0	44	104	1271922688	74	21422

#Closed at: 2026-01-10 00:02:24
#Recorded file [1271 MB]: D:/Data/31040_260110_024927.dat