passes_logs/2026/01/09/T1/T1__20260109_000816_NOAA_20_JPSS-1_rec.log

#Pass ID: 20260109_000816_NOAA 20 (JPSS-1)
#Satellite: NOAA 20 (JPSS-1)
#Configuration: NOAA 20
#almurnet v.1.7.20251203
#Start time: 2026-01-09 00:08:15

#Version: 2.0.20230620
#Station: T1
#Location: 37.570604 lon 55.790049 lat
#TLE: 1 43013U 17073A   26008.42245989  .00000120  00000+0  77990-4 0  9996
#TLE: 2 43013  98.7631 309.4315 0001737  48.7960 311.3365 14.19534455421802

#Time	Az	El	Level	Level2	SNR	BER	BlckErr	Temp	State	Recorded	gain1	gain2
2026-01-09 00:08:15.67	13.52	4.97	-47.6	-64.1	3.8	1.49e+00	0	41	0	0	66	24611
2026-01-09 00:08:18.68	13.46	5.18	-47.7	-63.9	3.8	1.49e+00	0	41	104	0	66	24120
2026-01-09 00:08:21.70	13.40	5.40	-47.7	-63.9	3.8	1.49e+00	0	41	104	0	66	23868
2026-01-09 00:08:24.71	13.34	5.62	-47.7	-63.7	3.8	1.49e+00	0	42	104	0	66	23364
2026-01-09 00:08:27.72	13.28	5.83	-47.6	-63.6	3.8	1.49e+00	0	42	104	0	66	23054
2026-01-09 00:08:30.74	13.21	6.05	-47.7	-63.3	3.8	1.49e+00	0	42	104	0	66	22502
2026-01-09 00:08:33.75	13.14	6.28	-47.6	-62.9	3.8	1.49e+00	0	42	104	0	66	21389
2026-01-09 00:08:36.76	13.08	6.50	-47.7	-62.5	3.8	1.49e+00	0	42	104	0	66	20436
2026-01-09 00:08:39.77	13.01	6.72	-47.6	-62.4	3.8	1.49e+00	0	42	104	0	66	20228
2026-01-09 00:08:42.79	12.94	6.95	-47.6	-63.2	3.8	1.49e+00	0	42	104	0	66	22168
2026-01-09 00:08:45.80	12.87	7.18	-47.6	-63.2	3.8	1.49e+00	0	42	104	0	66	22207
2026-01-09 00:08:48.81	12.79	7.41	-47.5	-60.8	4.1	1.46e+00	0	42	0	0	66	16779
2026-01-09 00:08:51.83	12.72	7.65	-47.3	-57.9	5.3	7.55e-01	0	43	0	3145728	66	12005
2026-01-09 00:08:54.84	12.64	7.88	-46.8	-55.3	7.4	1.22e-01	0	43	0	9437184	65	9392
2026-01-09 00:08:57.85	12.57	8.12	-46.3	-53.2	9.5	1.99e-02	0	43	0	14680064	64	7830
2026-01-09 00:09:00.87	12.49	8.36	-45.9	-51.8	10.9	2.98e-03	0	43	0	19922944	63	7057
2026-01-09 00:09:03.88	12.41	8.60	-45.8	-51.6	11.3	9.73e-04	0	43	0	26214400	63	6925
2026-01-09 00:09:06.89	12.33	8.85	-46.2	-52.8	10.1	3.55e-03	0	43	0	31457280	63	7910
2026-01-09 00:09:09.91	12.25	9.09	-46.8	-54.8	8.1	4.40e-02	0	43	0	37748736	64	9445
2026-01-09 00:09:12.92	12.16	9.34	-47.4	-56.5	6.7	8.19e-01	0	43	0	42991616	66	10271
2026-01-09 00:09:15.97	12.07	9.60	-43.9	-47.7	15.3	0.00e+00	0	43	0	48234496	59	5545
2026-01-09 00:09:18.97	11.99	9.85	-43.7	-47.4	15.5	0.00e+00	0	43	0	54525952	59	5373
2026-01-09 00:09:21.98	11.90	10.11	-43.5	-46.9	16.0	0.00e+00	0	43	0	59768832	58	5396
2026-01-09 00:09:24.98	11.81	10.37	-43.4	-47.0	16.0	0.00e+00	0	43	0	66060288	58	5432
2026-01-09 00:09:27.99	11.71	10.63	-43.1	-46.4	16.6	0.00e+00	0	43	0	71303168	58	5093
2026-01-09 00:09:31.01	11.62	10.89	-43.0	-46.3	16.7	0.00e+00	0	43	0	76546048	58	4998
2026-01-09 00:09:34.01	11.52	11.16	-43.1	-46.5	16.5	0.00e+00	0	43	0	82837504	57	5404
2026-01-09 00:09:37.03	11.42	11.43	-42.9	-46.1	16.9	0.00e+00	0	43	0	88080384	57	5203
2026-01-09 00:09:40.03	11.32	11.70	-42.8	-46.0	17.1	0.00e+00	0	43	0	93323264	57	5107
2026-01-09 00:09:43.04	11.22	11.98	-42.8	-45.9	17.2	0.00e+00	0	43	0	99614720	57	5051
2026-01-09 00:09:46.05	11.11	12.26	-42.7	-45.8	17.2	0.00e+00	0	43	0	104857600	57	5038
2026-01-09 00:09:49.05	11.00	12.54	-42.6	-45.6	17.5	0.00e+00	0	43	0	111149056	57	4886
2026-01-09 00:09:52.17	10.89	12.84	-42.5	-45.5	17.6	0.00e+00	0	43	0	116391936	57	4836
2026-01-09 00:09:55.47	10.76	13.15	-42.6	-45.5	17.6	0.00e+00	0	43	0	122683392	56	5157
2026-01-09 00:09:58.19	10.66	13.42	-42.3	-45.3	17.8	0.00e+00	0	43	0	127926272	56	5004
2026-01-09 00:10:01.57	10.53	13.75	-42.4	-45.2	17.9	0.00e+00	0	43	0	134217728	56	4979
2026-01-09 00:10:04.29	10.42	14.02	-42.3	-45.3	17.9	0.00e+00	0	43	0	139460608	56	5000
2026-01-09 00:10:07.59	10.28	14.35	-42.2	-45.0	18.1	0.00e+00	0	43	0	145752064	56	4852
2026-01-09 00:10:10.31	10.17	14.63	-42.1	-45.0	18.1	0.00e+00	0	43	0	150994944	56	4849
2026-01-09 00:10:13.60	10.03	14.97	-42.2	-45.1	18.0	0.00e+00	0	43	0	156237824	56	4904
2026-01-09 00:10:16.56	9.90	15.28	-42.2	-45.1	18.1	0.00e+00	0	43	0	162529280	56	4887
2026-01-09 00:10:19.57	9.76	15.60	-42.2	-45.0	18.2	0.00e+00	0	43	0	167772160	56	4830
2026-01-09 00:10:22.58	9.63	15.92	-42.2	-44.9	18.2	0.00e+00	0	44	0	174063616	56	4782
2026-01-09 00:10:25.59	9.48	16.25	-42.2	-44.9	18.2	0.00e+00	0	44	0	179306496	56	4808
2026-01-09 00:10:28.59	9.34	16.58	-42.3	-45.0	18.2	0.00e+00	0	44	0	184549376	56	4817
2026-01-09 00:10:31.60	9.19	16.91	-42.4	-45.1	18.1	0.00e+00	0	44	0	190840832	56	4888
2026-01-09 00:10:34.69	9.04	17.26	-42.4	-44.9	18.2	0.00e+00	0	44	0	196083712	56	4811
2026-01-09 00:10:37.99	8.86	17.64	-42.3	-44.9	18.3	0.00e+00	0	43	0	202375168	56	4773
2026-01-09 00:10:40.71	8.72	17.95	-42.2	-44.8	18.4	0.00e+00	0	44	0	207618048	56	4733
2026-01-09 00:10:44.01	8.54	18.34	-42.2	-44.8	18.4	0.00e+00	0	43	0	213909504	56	4726
2026-01-09 00:10:46.73	8.39	18.67	-42.2	-44.8	18.4	0.00e+00	0	44	0	219152384	56	4729
2026-01-09 00:10:50.03	8.20	19.07	-42.2	-44.8	18.4	0.00e+00	0	44	0	225443840	56	4752
2026-01-09 00:10:52.75	8.04	19.40	-42.2	-44.9	18.3	0.00e+00	0	44	0	229638144	56	4812
2026-01-09 00:10:56.04	7.84	19.81	-42.2	-44.9	18.4	0.00e+00	0	44	0	235929600	56	4764
2026-01-09 00:10:58.85	7.67	20.16	-42.3	-44.9	18.3	0.00e+00	0	44	0	241172480	56	4810
2026-01-09 00:11:02.21	7.45	20.59	-42.2	-44.8	18.4	0.00e+00	0	44	0	247463936	56	4751
2026-01-09 00:11:04.93	7.27	20.95	-42.3	-44.9	18.3	0.00e+00	0	44	0	252706816	56	4784
2026-01-09 00:11:08.23	7.05	21.38	-42.5	-45.1	18.2	0.00e+00	0	43	0	258998272	56	4912
2026-01-09 00:11:10.95	6.87	21.75	-42.4	-44.9	18.3	0.00e+00	0	44	0	264241152	56	4814
2026-01-09 00:11:14.20	6.63	22.19	-42.4	-44.9	18.4	0.00e+00	0	44	0	270532608	56	4814
2026-01-09 00:11:17.21	6.41	22.60	-42.4	-45.0	18.3	0.00e+00	0	44	0	275775488	56	4858
2026-01-09 00:11:20.22	6.19	23.02	-42.4	-45.0	18.3	0.00e+00	0	44	0	282066944	56	4842
2026-01-09 00:11:23.27	5.95	23.46	-42.3	-45.0	18.3	0.00e+00	0	44	0	287309824	56	4833
2026-01-09 00:11:26.28	5.71	23.89	-42.6	-45.3	18.1	0.00e+00	0	44	0	292552704	56	5000
2026-01-09 00:11:29.29	5.47	24.34	-42.7	-45.3	18.0	0.00e+00	0	44	0	298844160	56	5023
2026-01-09 00:11:32.30	5.21	24.78	-42.9	-45.5	17.8	0.00e+00	0	44	0	304087040	56	5154
2026-01-09 00:11:35.30	4.95	25.24	-43.2	-45.8	17.5	0.00e+00	0	44	0	310378496	57	5033
2026-01-09 00:11:38.31	4.68	25.70	-43.4	-46.1	17.2	0.00e+00	0	44	0	315621376	57	5217
2026-01-09 00:11:41.30	4.41	26.17	-43.6	-46.4	17.0	0.00e+00	0	44	0	320864256	57	5378
2026-01-09 00:11:44.30	4.12	26.65	-43.8	-46.7	16.7	0.00e+00	0	44	0	327155712	58	5221
2026-01-09 00:11:47.31	3.82	27.13	-44.0	-47.0	16.4	0.00e+00	0	44	0	332398592	58	5427
2026-01-09 00:11:50.32	3.52	27.63	-44.3	-47.4	16.0	0.00e+00	0	44	0	337641472	59	5379
2026-01-09 00:11:53.39	3.20	28.14	-44.6	-47.8	15.7	0.00e+00	0	44	0	343932928	59	5599
2026-01-09 00:11:56.36	2.87	28.64	-44.8	-48.0	15.5	0.00e+00	0	44	0	349175808	60	5436
2026-01-09 00:11:59.42	2.53	29.17	-44.8	-48.1	15.3	7.00e-07	0	44	0	355467264	60	5500
2026-01-09 00:12:02.57	2.17	29.72	-45.0	-48.3	15.1	0.00e+00	0	44	0	360710144	60	5642
2026-01-09 00:12:05.44	1.82	30.23	-45.3	-48.8	14.7	0.00e+00	0	44	0	365953024	61	5636
2026-01-09 00:12:08.80	1.40	30.84	-45.3	-48.9	14.6	7.00e-07	0	44	0	372244480	61	5671
2026-01-09 00:12:11.98	0.99	31.43	-45.2	-48.9	14.7	0.00e+00	0	44	0	378535936	61	5658
2026-01-09 00:12:14.84	0.61	31.96	-45.5	-49.4	14.0	7.00e-07	0	44	0	383778816	61	6052
2026-01-09 00:12:17.99	0.17	32.56	-45.8	-49.8	13.7	3.80e-06	0	44	0	390070272	62	5970
2026-01-09 00:12:20.86	359.76	33.12	-46.0	-50.1	13.4	9.10e-06	0	44	0	395313152	62	6164
2026-01-09 00:12:24.01	359.29	33.74	-45.9	-50.0	13.5	1.29e-05	0	44	0	401604608	62	6071
2026-01-09 00:12:26.88	358.85	34.31	-45.7	-49.7	13.8	1.06e-05	0	44	0	406847488	62	5894
2026-01-09 00:12:30.03	358.34	34.95	-45.9	-50.0	13.5	1.37e-05	0	44	0	412090368	62	6128
2026-01-09 00:12:32.89	357.86	35.54	-45.9	-50.2	13.4	1.67e-05	0	44	0	418381824	62	6216
2026-01-09 00:12:36.04	357.31	36.21	-45.9	-50.2	13.3	2.36e-05	0	44	0	423624704	62	6234
2026-01-09 00:12:38.97	356.78	36.83	-45.8	-49.9	13.6	9.90e-06	0	44	0	428867584	62	6037
2026-01-09 00:12:42.13	356.19	37.51	-45.4	-49.3	14.3	3.80e-06	0	44	0	435159040	62	5635
2026-01-09 00:12:44.99	355.62	38.14	-45.1	-48.9	14.6	1.50e-06	0	44	0	440401920	62	5382
2026-01-09 00:12:48.10	354.99	38.83	-45.2	-48.9	14.7	0.00e+00	0	44	0	446693376	62	5366
2026-01-09 00:12:51.60	354.24	39.62	-44.9	-48.2	15.3	0.00e+00	0	44	0	452984832	61	5249
2026-01-09 00:12:54.33	353.63	40.24	-44.9	-48.3	15.3	0.00e+00	0	44	0	458227712	61	5292
2026-01-09 00:12:57.61	352.86	41.00	-45.2	-48.7	14.9	0.00e+00	0	44	0	464519168	61	5538
2026-01-09 00:13:00.60	352.12	41.71	-45.2	-48.7	14.8	0.00e+00	0	44	0	469762048	61	5583
2026-01-09 00:13:03.71	351.33	42.45	-44.9	-48.3	15.3	0.00e+00	0	44	0	476053504	61	5303
2026-01-09 00:13:07.01	350.44	43.24	-44.8	-48.1	15.4	0.00e+00	0	44	0	482344960	61	5215
2026-01-09 00:13:09.73	349.67	43.90	-44.5	-47.8	15.7	7.00e-07	0	44	0	486539264	61	5015
2026-01-09 00:13:13.06	348.69	44.71	-44.3	-47.5	16.0	0.00e+00	0	44	0	492830720	60	5150
2026-01-09 00:13:15.87	347.82	45.41	-44.5	-47.8	15.7	0.00e+00	0	44	0	498073600	60	5314
2026-01-09 00:13:19.27	346.71	46.25	-44.6	-47.7	15.9	0.00e+00	0	44	0	504365056	60	5273
2026-01-09 00:13:21.99	345.79	46.93	-44.7	-47.9	15.6	0.00e+00	0	44	0	509607936	60	5366
2026-01-09 00:13:25.29	344.60	47.76	-44.8	-48.2	15.4	0.00e+00	0	44	0	515899392	60	5530
2026-01-09 00:13:28.10	343.54	48.46	-44.8	-48.0	15.6	0.00e+00	0	44	0	521142272	60	5416
2026-01-09 00:13:31.26	342.29	49.26	-44.1	-47.1	16.4	0.00e+00	0	44	0	527433728	60	4905
2026-01-09 00:13:34.12	341.10	49.98	-44.2	-47.2	16.4	0.00e+00	0	44	0	532676608	60	4933
2026-01-09 00:13:37.33	339.70	50.78	-43.9	-46.8	16.6	0.00e+00	0	44	0	538968064	59	5040
2026-01-09 00:13:40.20	338.38	51.49	-43.6	-46.5	17.0	0.00e+00	0	44	0	544210944	59	4867
2026-01-09 00:13:43.80	336.63	52.38	-42.6	-45.0	18.5	0.00e+00	0	44	0	550502400	57	4562
2026-01-09 00:13:46.52	335.23	53.04	-42.5	-44.9	18.6	0.00e+00	0	44	0	555745280	56	4781
2026-01-09 00:13:49.82	333.46	53.82	-42.6	-45.1	18.4	0.00e+00	0	44	0	562036736	56	4887
2026-01-09 00:13:52.63	331.87	54.48	-42.7	-45.2	18.2	0.00e+00	0	44	0	567279616	56	4968
2026-01-09 00:13:56.08	329.81	55.27	-42.9	-45.4	18.1	0.00e+00	0	43	0	573571072	56	5080
2026-01-09 00:13:58.80	328.11	55.87	-43.7	-46.6	16.9	0.00e+00	0	44	0	578813952	58	5203
2026-01-09 00:14:02.11	325.94	56.57	-44.6	-47.8	15.8	0.00e+00	0	44	0	585105408	60	5289
2026-01-09 00:14:05.25	323.77	57.21	-44.8	-48.1	15.5	0.00e+00	0	44	0	591396864	60	5511
2026-01-09 00:14:08.26	321.60	57.79	-44.4	-47.6	15.9	0.00e+00	0	44	0	596639744	60	5160
2026-01-09 00:14:11.27	319.34	58.33	-44.7	-48.0	15.6	0.00e+00	0	44	0	601882624	60	5434
2026-01-09 00:14:14.27	317.00	58.84	-44.5	-47.6	15.9	0.00e+00	0	44	0	608174080	60	5203
2026-01-09 00:14:17.28	314.56	59.30	-44.8	-48.2	15.4	0.00e+00	0	44	0	613416960	60	5555
2026-01-09 00:14:20.40	311.94	59.73	-43.8	-46.6	16.8	0.00e+00	0	44	0	619708416	59	4925
2026-01-09 00:14:23.36	309.38	60.09	-43.1	-45.6	17.9	0.00e+00	0	44	0	624951296	58	4618
2026-01-09 00:14:26.71	306.40	60.43	-42.9	-45.5	18.0	0.00e+00	0	44	0	631242752	57	4816
2026-01-09 00:14:29.42	303.93	60.66	-43.0	-45.5	17.9	0.00e+00	0	44	0	636485632	57	4832
2026-01-09 00:14:32.72	300.88	60.88	-42.6	-45.0	18.4	0.00e+00	0	44	0	642777088	57	4588
2026-01-09 00:14:35.44	298.32	61.00	-42.0	-44.3	19.0	0.00e+00	0	43	0	648019968	56	4480
2026-01-09 00:14:38.74	295.20	61.08	-41.5	-43.7	19.5	0.00e+00	0	44	0	654311424	54	4693
2026-01-09 00:14:41.45	292.63	61.09	-41.0	-43.1	20.0	0.00e+00	0	44	0	658505728	54	4377
2026-01-09 00:14:44.68	289.56	61.03	-41.0	-43.2	20.0	0.00e+00	0	44	0	664797184	53	4669
2026-01-09 00:14:47.77	286.65	60.91	-40.6	-42.7	20.5	0.00e+00	0	43	0	671088640	52	4659
2026-01-09 00:14:50.78	283.85	60.74	-40.7	-42.8	20.4	0.00e+00	0	44	0	676331520	52	4746
2026-01-09 00:14:53.78	281.10	60.50	-41.5	-43.8	19.4	0.00e+00	0	43	0	682622976	53	5022
2026-01-09 00:14:56.79	278.41	60.21	-41.8	-44.1	19.1	0.00e+00	0	43	0	687865856	54	4907
2026-01-09 00:14:59.75	275.82	59.86	-42.1	-44.5	18.8	0.00e+00	0	43	0	693108736	55	4847
2026-01-09 00:15:03.13	272.95	59.41	-42.9	-45.5	17.9	0.00e+00	0	44	0	699400192	56	5123
2026-01-09 00:15:05.90	270.68	59.00	-43.0	-45.6	17.9	0.00e+00	0	44	0	704643072	56	5163
2026-01-09 00:15:09.19	268.07	58.46	-43.9	-46.7	16.8	0.00e+00	0	43	0	710934528	58	5219
2026-01-09 00:15:11.92	265.99	57.98	-43.6	-46.4	17.1	0.00e+00	0	43	0	716177408	58	5047
2026-01-09 00:15:15.28	263.54	57.34	-44.1	-47.1	16.4	0.00e+00	0	44	0	722468864	59	5183
2026-01-09 00:15:18.00	261.64	56.80	-43.3	-45.8	17.6	0.00e+00	0	43	0	727711744	58	4755
2026-01-09 00:15:21.29	259.44	56.10	-42.8	-45.4	18.1	0.00e+00	0	43	0	734003200	57	4775
2026-01-09 00:15:24.32	257.51	55.44	-42.6	-45.0	18.4	0.00e+00	0	43	0	739246080	56	4857
2026-01-09 00:15:27.35	255.67	54.76	-42.7	-45.3	18.1	0.00e+00	0	43	0	745537536	56	4990
2026-01-09 00:15:30.36	253.93	54.06	-42.5	-44.9	18.5	0.00e+00	0	43	0	750780416	56	4760
2026-01-09 00:15:33.37	252.27	53.34	-43.1	-45.7	17.8	0.00e+00	0	43	0	756023296	56	5222
2026-01-09 00:15:36.38	250.70	52.61	-43.6	-46.3	17.1	0.00e+00	0	43	0	762314752	58	5041
2026-01-09 00:15:39.39	249.20	51.87	-43.4	-46.0	17.4	0.00e+00	0	43	0	767557632	58	4855
2026-01-09 00:15:42.40	247.77	51.13	-44.1	-47.0	16.4	0.00e+00	0	44	0	772800512	58	5462
2026-01-09 00:15:45.41	246.42	50.37	-45.1	-48.7	14.9	0.00e+00	0	43	0	779091968	60	5856
2026-01-09 00:15:48.42	245.13	49.62	-45.1	-48.5	15.0	1.50e-06	0	44	0	784334848	62	5142
2026-01-09 00:15:51.46	243.89	48.85	-45.3	-48.7	14.8	0.00e+00	0	43	0	790626304	62	5244
2026-01-09 00:15:54.47	242.72	48.09	-46.6	-51.2	12.2	1.76e-04	0	43	0	795869184	64	6217
2026-01-09 00:15:57.48	241.61	47.33	-46.1	-50.4	13.1	1.98e-05	0	43	0	801112064	63	6005
2026-01-09 00:16:00.49	240.56	46.58	-45.4	-49.1	14.5	0.00e+00	0	43	0	807403520	62	5470
2026-01-09 00:16:03.50	239.55	45.83	-45.4	-48.8	14.8	0.00e+00	0	43	0	812646400	62	5337
2026-01-09 00:16:06.51	238.59	45.08	-44.9	-48.2	15.3	0.00e+00	0	43	0	818937856	61	5275
2026-01-09 00:16:09.44	237.70	44.35	-44.7	-47.9	15.6	0.00e+00	0	43	0	824180736	61	5071
2026-01-09 00:16:12.59	236.78	43.58	-44.5	-47.6	15.8	0.00e+00	0	43	0	829423616	61	4921
2026-01-09 00:16:15.65	235.93	42.84	-44.5	-47.6	15.8	0.00e+00	0	43	0	835715072	60	5182
2026-01-09 00:16:18.80	235.10	42.08	-44.9	-48.2	15.2	0.00e+00	0	43	0	842006528	60	5534
2026-01-09 00:16:21.86	234.33	41.36	-45.3	-48.8	14.7	0.00e+00	0	43	0	847249408	61	5626
2026-01-09 00:16:25.01	233.57	40.62	-45.5	-49.2	14.3	0.00e+00	0	43	0	853540864	61	5866
2026-01-09 00:16:27.88	232.91	39.96	-45.7	-49.6	13.8	1.50e-06	0	43	0	858783744	62	5844
2026-01-09 00:16:31.03	232.21	39.24	-46.0	-50.1	13.4	2.59e-05	0	43	0	864026624	62	6147
2026-01-09 00:16:33.98	231.59	38.57	-46.1	-50.3	13.3	1.22e-05	0	43	0	870318080	63	5925
2026-01-09 00:16:37.13	230.95	37.87	-45.6	-49.3	14.1	7.60e-06	0	43	0	875560960	63	5330
2026-01-09 00:16:39.99	230.39	37.24	-45.5	-49.1	14.3	0.00e+00	0	43	0	880803840	62	5485
2026-01-09 00:16:43.14	229.80	36.56	-45.9	-49.9	13.6	2.20e-06	0	43	0	887095296	62	6030
2026-01-09 00:16:46.34	229.23	35.88	-45.6	-49.8	13.7	1.50e-06	0	43	0	893386752	62	5944
2026-01-09 00:16:49.21	228.73	35.28	-45.5	-49.4	14.1	3.80e-06	0	43	0	898629632	62	5671
2026-01-09 00:16:52.36	228.21	34.64	-45.3	-48.8	14.6	0.00e+00	0	43	0	903872512	62	5332
2026-01-09 00:16:55.29	227.75	34.04	-45.5	-49.2	14.3	1.50e-06	0	43	0	910163968	62	5537
2026-01-09 00:16:58.51	227.25	33.40	-46.2	-50.6	12.9	3.50e-05	0	43	0	915406848	62	6502
2026-01-09 00:17:01.34	226.83	32.84	-46.2	-50.5	12.9	6.71e-05	0	43	0	921698304	63	6086
2026-01-09 00:17:04.66	226.36	32.20	-45.6	-49.3	14.1	1.50e-06	0	43	0	927989760	63	5304
2026-01-09 00:17:07.38	225.99	31.68	-45.2	-48.7	14.7	0.00e+00	0	43	0	932184064	62	5239
2026-01-09 00:17:10.62	225.56	31.08	-45.4	-49.0	14.5	7.00e-07	0	43	0	938475520	62	5404
2026-01-09 00:17:13.79	225.15	30.50	-46.0	-50.0	13.8	7.00e-07	0	43	0	944766976	62	6092
2026-01-09 00:17:16.66	224.80	29.98	-45.6	-49.3	14.2	8.30e-06	0	43	0	950009856	62	5649
2026-01-09 00:17:19.81	224.42	29.42	-45.9	-49.9	13.6	9.10e-06	0	43	0	956301312	63	5668
2026-01-09 00:17:22.75	224.09	28.90	-45.7	-49.4	13.9	9.90e-06	0	43	0	961544192	63	5400
2026-01-09 00:17:25.91	223.73	28.36	-45.1	-48.5	14.9	0.00e+00	0	43	0	967835648	62	5126
2026-01-09 00:17:28.82	223.42	27.87	-45.0	-48.3	15.1	0.00e+00	0	43	0	973078528	62	5021
2026-01-09 00:17:32.12	223.08	27.32	-44.7	-47.9	15.5	0.00e+00	0	43	0	979369984	61	5096
2026-01-09 00:17:34.88	222.80	26.87	-44.5	-47.7	15.7	0.00e+00	0	43	0	984612864	61	4959
2026-01-09 00:17:38.18	222.47	26.34	-44.3	-47.5	16.0	0.00e+00	0	43	0	989855744	60	5110
2026-01-09 00:17:40.90	222.22	25.90	-44.3	-47.4	16.1	0.00e+00	0	43	0	995098624	60	5070
2026-01-09 00:17:44.26	221.91	25.38	-44.5	-47.6	15.8	0.00e+00	0	43	0	1001390080	60	5199
2026-01-09 00:17:46.98	221.67	24.96	-44.3	-47.3	16.1	0.00e+00	0	43	0	1006632960	60	5024
2026-01-09 00:17:50.27	221.38	24.47	-44.3	-47.4	16.0	0.00e+00	0	43	0	1012924416	60	5069
2026-01-09 00:17:52.99	221.15	24.06	-44.2	-47.3	16.1	0.00e+00	0	43	0	1018167296	60	5017
2026-01-09 00:17:56.29	220.88	23.58	-44.2	-47.3	16.0	0.00e+00	0	43	0	1024458752	60	5023
2026-01-09 00:17:59.01	220.67	23.19	-44.3	-47.4	16.0	0.00e+00	0	43	0	1029701632	60	5092
2026-01-09 00:18:02.31	220.41	22.72	-44.3	-47.4	16.0	0.00e+00	0	43	0	1035993088	60	5046
2026-01-09 00:18:05.03	220.21	22.34	-44.2	-47.3	16.0	0.00e+00	0	43	0	1040187392	60	5028
2026-01-09 00:18:08.33	219.97	21.89	-44.0	-47.0	16.3	0.00e+00	0	43	0	1046478848	60	4815
2026-01-09 00:18:11.05	219.77	21.52	-43.7	-46.5	16.7	0.00e+00	0	43	0	1051721728	59	4860
2026-01-09 00:18:14.35	219.55	21.08	-43.7	-46.6	16.7	0.00e+00	0	43	0	1058013184	59	4881
2026-01-09 00:18:17.07	219.36	20.72	-43.7	-46.6	16.6	0.00e+00	0	43	0	1063256064	59	4890
2026-01-09 00:18:20.36	219.15	20.29	-43.9	-46.9	16.3	0.00e+00	0	43	0	1069547520	59	5100
2026-01-09 00:18:23.15	218.97	19.93	-44.1	-47.2	16.0	0.00e+00	0	43	0	1074790400	59	5260
2026-01-09 00:18:26.69	218.75	19.49	-44.0	-46.9	16.3	0.00e+00	0	43	0	1081081856	59	5093
2026-01-09 00:18:29.41	218.59	19.15	-43.8	-46.7	16.5	0.00e+00	0	43	0	1086324736	59	4944
2026-01-09 00:18:32.70	218.39	18.75	-43.7	-46.6	16.7	0.00e+00	0	43	0	1092616192	59	4907
2026-01-09 00:18:35.66	218.22	18.39	-43.7	-46.6	16.6	0.00e+00	0	43	0	1097859072	59	4875
2026-01-09 00:18:38.67	218.05	18.04	-43.8	-46.7	16.5	0.00e+00	0	43	0	1104150528	59	4954
2026-01-09 00:18:41.68	217.89	17.68	-43.9	-46.9	16.3	0.00e+00	0	43	0	1109393408	59	5045
2026-01-09 00:18:44.98	217.71	17.30	-43.8	-47.0	16.1	0.00e+00	0	43	0	1115684864	59	5156
2026-01-09 00:18:47.92	217.56	16.97	-44.1	-47.2	15.9	0.00e+00	0	43	0	1120927744	59	5258
2026-01-09 00:18:51.26	217.39	16.59	-44.0	-47.3	15.9	0.00e+00	0	43	0	1127219200	59	5288
2026-01-09 00:18:53.98	217.26	16.29	-44.1	-47.2	15.9	0.00e+00	0	43	0	1132462080	59	5277
2026-01-09 00:18:57.28	217.10	15.93	-44.1	-47.4	15.8	0.00e+00	0	43	0	1138753536	59	5353
2026-01-09 00:19:00.09	216.96	15.62	-44.0	-47.2	15.9	0.00e+00	0	43	0	1143996416	59	5241
2026-01-09 00:19:03.24	216.82	15.29	-44.0	-47.4	15.8	0.00e+00	0	43	0	1150287872	59	5344
2026-01-09 00:19:06.36	216.68	14.96	-44.1	-47.4	15.7	0.00e+00	0	43	0	1155530752	59	5372
2026-01-09 00:19:09.22	216.55	14.66	-44.3	-47.6	15.5	0.00e+00	0	43	0	1160773632	59	5497
2026-01-09 00:19:12.38	216.42	14.34	-44.2	-47.6	15.5	0.00e+00	0	43	0	1167065088	59	5519
2026-01-09 00:19:15.31	216.29	14.04	-44.3	-47.7	15.4	0.00e+00	0	43	0	1172307968	59	5561
2026-01-09 00:19:18.60	216.16	13.71	-44.5	-48.0	15.0	0.00e+00	0	43	0	1178599424	59	5787
2026-01-09 00:19:21.35	216.04	13.44	-44.4	-47.9	15.1	0.00e+00	0	43	0	1183842304	59	5720
2026-01-09 00:19:24.63	215.91	13.12	-44.1	-47.9	15.1	0.00e+00	0	43	0	1190133760	59	5666
2026-01-09 00:19:27.73	215.79	12.82	-44.3	-47.9	15.1	0.00e+00	0	43	0	1195376640	59	5698
2026-01-09 00:19:30.97	215.67	12.51	-44.6	-48.0	15.0	7.00e-07	0	43	0	1201668096	59	5778
2026-01-09 00:19:33.83	215.57	12.24	-44.3	-47.8	15.2	0.00e+00	0	43	0	1206910976	59	5627
2026-01-09 00:19:36.98	215.45	11.94	-44.5	-48.2	14.9	0.00e+00	0	43	0	1213202432	60	5584
2026-01-09 00:19:39.85	215.35	11.68	-44.6	-48.1	14.9	0.00e+00	0	43	0	1218445312	59	5850
2026-01-09 00:19:43.00	215.24	11.39	-44.7	-48.5	14.6	0.00e+00	0	43	0	1224736768	60	5730
2026-01-09 00:19:45.87	215.14	11.13	-44.8	-48.5	14.5	7.00e-07	0	43	0	1229979648	60	5760
2026-01-09 00:19:49.02	215.04	10.85	-44.9	-48.6	14.4	0.00e+00	0	43	0	1235222528	60	5855
2026-01-09 00:19:51.88	214.94	10.59	-45.0	-48.7	14.3	0.00e+00	0	43	0	1241513984	60	5888
2026-01-09 00:19:55.10	214.84	10.31	-45.0	-48.9	14.0	2.20e-06	0	43	0	1246756864	60	6053
2026-01-09 00:19:57.97	214.75	10.06	-45.0	-49.0	13.9	2.20e-06	0	43	0	1251999744	60	6077
2026-01-09 00:20:01.11	214.65	9.79	-45.2	-49.3	13.6	3.80e-06	0	43	0	1258291200	61	5970
2026-01-09 00:20:04.11	214.56	9.54	-45.0	-49.1	13.8	4.50e-06	0	43	0	1263534080	61	5833
2026-01-09 00:20:07.49	214.46	9.26	-45.1	-49.4	13.5	6.80e-06	0	43	0	1270874112	61	6018
2026-01-09 00:20:10.43	214.37	9.01	-45.3	-49.7	13.2	1.52e-05	0	43	0	1276116992	61	6207
2026-01-09 00:20:13.73	214.28	8.74	-49.1	-64.5	3.8	1.49e+00	0	43	104	1277165568	69	21700
2026-01-09 00:20:16.45	214.20	8.52	-49.4	-64.7	3.8	1.49e+00	0	43	104	1277165568	69	22073
2026-01-09 00:20:19.75	214.11	8.25	-49.4	-64.8	3.8	1.49e+00	0	43	104	1277165568	69	22350
2026-01-09 00:20:22.48	214.04	8.03	-49.5	-64.8	3.8	1.49e+00	0	43	104	1277165568	70	
