passes_logs/2026/01/09/T1/T1__20260109_055441_FENGYUN_3E_rec.log

#Pass ID: 20260109_055441_FENGYUN 3E
#Satellite: FENGYUN 3E
#Configuration: FENGYUN 3E
#almurnet v.1.7.20251203
#Start time: 2026-01-09 05:54:43

#Version: 2.0.20230620
#Station: T1
#Location: 37.570604 lon 55.790049 lat
#TLE: 1 49008U 21062A   26008.52265380 -.00000112  00000+0 -32190-4 0  9993
#TLE: 2 49008  98.7483  13.7266 0001697 149.3310 210.7966 14.19883994233927

#Time	Az	El	Level	Level2	SNR	BER	BlckErr	Temp	State	Recorded	gain1	gain2
2026-01-09 05:54:43.03	4.83	5.08	-48.5	-59.8	3.8	8.46e-01	0	39	0	0	66	13969
2026-01-09 05:54:46.03	4.55	5.25	-45.7	-59.6	3.8	8.46e-01	0	40	104	0	60	19178
2026-01-09 05:54:49.03	4.27	5.42	-45.7	-59.6	3.8	8.47e-01	0	40	104	0	60	19296
2026-01-09 05:54:52.04	3.98	5.60	-45.6	-59.5	3.8	8.47e-01	0	40	104	0	60	19108
2026-01-09 05:54:55.05	3.70	5.77	-45.6	-59.5	3.8	8.46e-01	0	40	104	0	60	19145
2026-01-09 05:54:58.06	3.40	5.94	-45.5	-59.5	3.8	8.47e-01	0	40	104	0	60	19145
2026-01-09 05:55:01.07	3.11	6.11	-45.9	-59.5	3.8	8.47e-01	0	40	104	0	61	18044
2026-01-09 05:55:04.07	2.81	6.29	-45.8	-59.5	3.8	8.47e-01	0	40	104	0	61	18076
2026-01-09 05:55:07.08	2.51	6.46	-45.7	-59.4	3.8	8.46e-01	0	40	104	0	61	17808
2026-01-09 05:55:10.08	2.20	6.63	-45.8	-59.5	3.8	8.46e-01	0	41	104	0	61	17998
2026-01-09 05:55:13.09	1.89	6.81	-46.4	-59.6	3.8	8.46e-01	0	41	104	0	62	17250
2026-01-09 05:55:16.10	1.57	6.98	-45.8	-59.5	3.8	8.47e-01	0	41	104	0	62	16997
2026-01-09 05:55:19.11	1.26	7.16	-45.9	-59.4	3.8	8.46e-01	0	41	104	0	62	16733
2026-01-09 05:55:22.12	0.93	7.34	-45.9	-59.4	3.8	8.47e-01	0	41	104	0	61	17828
2026-01-09 05:55:25.13	0.61	7.51	-45.6	-59.4	3.8	8.47e-01	0	41	104	0	61	17791
2026-01-09 05:55:28.14	0.27	7.69	-45.7	-58.7	3.8	8.47e-01	0	41	104	0	61	16499
2026-01-09 05:55:31.16	359.94	7.86	-45.4	-57.1	4.0	8.46e-01	0	41	104	0	61	13694
2026-01-09 05:55:34.16	359.60	8.04	-45.4	-55.9	4.3	8.37e-01	0	41	0	0	61	11840
2026-01-09 05:55:37.17	359.26	8.22	-45.7	-58.0	3.8	8.48e-01	0	41	104	0	61	15144
2026-01-09 05:55:40.18	358.91	8.40	-45.6	-57.0	3.8	8.45e-01	0	41	104	0	61	13501
2026-01-09 05:55:43.19	358.56	8.57	-44.5	-50.3	8.0	1.05e-01	0	42	0	9437184	59	6974
2026-01-09 05:55:46.20	358.20	8.75	-43.3	-47.0	11.3	1.58e-03	0	42	0	31457280	57	5361
2026-01-09 05:55:49.21	357.84	8.93	-42.0	-44.9	13.4	1.71e-05	0	41	0	52428800	54	5032
2026-01-09 05:55:52.22	357.47	9.11	-42.7	-45.9	12.4	5.60e-05	0	42	0	74448896	54	5647
2026-01-09 05:55:55.21	357.10	9.28	-39.9	-42.1	16.4	0.00e+00	0	42	0	94371840	50	4547
2026-01-09 05:55:58.20	356.73	9.46	-39.3	-41.2	17.2	0.00e+00	0	42	0	116391936	49	4368
2026-01-09 05:56:01.19	356.36	9.64	-39.4	-41.3	17.2	0.00e+00	0	42	0	137363456	49	4407
2026-01-09 05:56:04.17	355.97	9.82	-39.3	-41.0	17.5	0.00e+00	0	42	0	159383552	49	4289
2026-01-09 05:56:07.16	355.59	9.99	-39.0	-40.6	17.9	0.00e+00	0	42	0	180355072	48	4336
2026-01-09 05:56:10.17	355.19	10.17	-38.9	-40.4	18.1	0.00e+00	0	42	0	202375168	48	4214
2026-01-09 05:56:13.17	354.79	10.35	-38.7	-40.3	18.2	0.00e+00	0	42	0	224395264	48	4182
2026-01-09 05:56:16.17	354.39	10.53	-38.5	-40.1	18.2	0.00e+00	0	42	0	245366784	47	4328
2026-01-09 05:56:19.17	353.98	10.71	-38.6	-40.3	18.0	0.00e+00	0	42	0	267386880	47	4435
2026-01-09 05:56:22.17	353.57	10.88	-38.9	-40.6	17.7	0.00e+00	0	42	0	288358400	47	4590
2026-01-09 05:56:25.18	353.15	11.06	-38.7	-40.4	17.9	0.00e+00	0	42	0	310378496	47	4489
2026-01-09 05:56:28.18	352.73	11.24	-38.7	-40.4	18.0	0.00e+00	0	42	0	332398592	47	4443
2026-01-09 05:56:31.18	352.30	11.42	-38.6	-40.3	18.1	0.00e+00	0	42	0	354418688	47	4395
2026-01-09 05:56:34.18	351.86	11.59	-38.2	-39.7	18.7	0.00e+00	0	42	0	375390208	47	4107
2026-01-09 05:56:37.18	351.42	11.77	-38.2	-39.6	18.8	0.00e+00	0	42	0	397410304	47	4060
2026-01-09 05:56:40.19	350.98	11.94	-38.0	-39.4	18.9	0.00e+00	0	42	0	419430400	46	4212
2026-01-09 05:56:43.19	350.53	12.12	-38.1	-39.6	18.8	0.00e+00	0	42	0	440401920	46	4301
2026-01-09 05:56:46.19	350.07	12.29	-38.2	-39.7	18.6	0.00e+00	0	42	0	462422016	46	4377
2026-01-09 05:56:49.20	349.61	12.47	-38.3	-40.0	18.4	0.00e+00	0	42	0	484442112	46	4499
2026-01-09 05:56:52.20	349.14	12.64	-38.6	-40.1	18.3	0.00e+00	0	42	0	505413632	46	4558
2026-01-09 05:56:55.20	348.67	12.82	-38.5	-39.8	18.5	0.00e+00	0	42	0	527433728	46	4441
2026-01-09 05:56:58.20	348.19	12.99	-38.5	-39.6	18.7	0.00e+00	0	42	0	549453824	46	4322
2026-01-09 05:57:01.21	347.70	13.16	-38.3	-39.5	18.9	0.00e+00	0	42	0	570425344	46	4250
2026-01-09 05:57:04.20	347.22	13.33	-38.3	-39.5	18.8	0.00e+00	0	42	0	592445440	46	4276
2026-01-09 05:57:07.21	346.72	13.50	-38.1	-39.4	19.0	0.00e+00	0	42	0	614465536	46	4227
2026-01-09 05:57:10.21	346.22	13.67	-38.3	-39.5	18.9	0.00e+00	0	42	0	635437056	46	4275
2026-01-09 05:57:13.21	345.71	13.84	-38.4	-39.5	18.9	0.00e+00	0	42	0	657457152	46	4263
2026-01-09 05:57:16.21	345.19	14.00	-38.1	-39.3	19.1	0.00e+00	0	42	0	679477248	46	4164
2026-01-09 05:57:19.22	344.67	14.17	-37.9	-39.1	19.3	0.00e+00	0	42	0	700448768	46	4074
2026-01-09 05:57:22.22	344.15	14.33	-37.7	-39.0	19.4	0.00e+00	0	42	0	722468864	46	4039
2026-01-09 05:57:25.22	343.62	14.50	-37.8	-39.1	19.3	0.00e+00	0	42	0	744488960	46	4056
2026-01-09 05:57:28.23	343.08	14.66	-37.8	-39.0	19.5	0.00e+00	0	42	0	766509056	46	4015
2026-01-09 05:57:31.23	342.53	14.82	-37.6	-38.8	19.6	0.00e+00	0	42	0	787480576	46	3918
2026-01-09 05:57:34.22	341.99	14.98	-37.4	-38.5	19.9	0.00e+00	0	42	0	808452096	45	4017
2026-01-09 05:57:37.23	341.43	15.13	-37.4	-38.4	19.9	0.00e+00	0	42	0	830472192	45	3997
2026-01-09 05:57:40.23	340.87	15.29	-37.4	-38.5	19.9	0.00e+00	0	42	0	852492288	45	4040
2026-01-09 05:57:43.24	340.30	15.44	-37.5	-38.6	19.8	0.00e+00	0	42	0	874512384	45	4063
2026-01-09 05:57:46.24	339.73	15.59	-37.2	-38.4	20.0	0.00e+00	0	42	0	895483904	45	3970
2026-01-09 05:57:49.25	339.15	15.74	-37.2	-38.4	20.0	0.00e+00	0	42	0	917504000	45	3973
2026-01-09 05:57:52.25	338.56	15.89	-37.4	-38.5	19.9	0.00e+00	0	43	0	939524096	45	4006
2026-01-09 05:57:55.25	337.97	16.03	-37.4	-38.4	20.0	0.00e+00	0	42	0	960495616	45	3987
2026-01-09 05:57:58.25	337.38	16.18	-37.3	-38.3	20.1	0.00e+00	0	42	0	982515712	45	3935
2026-01-09 05:58:01.26	336.77	16.32	-37.4	-38.4	20.0	0.00e+00	0	42	0	1004535808	45	3978
2026-01-09 05:58:04.25	336.17	16.45	-37.3	-38.3	20.1	0.00e+00	0	42	0	1025507328	45	3944
2026-01-09 05:58:07.26	335.55	16.59	-37.4	-38.5	19.9	0.00e+00	0	42	0	1047527424	45	4033
2026-01-09 05:58:10.26	334.93	16.72	-37.4	-38.4	20.0	0.00e+00	0	42	0	1069547520	45	3984
2026-01-09 05:58:13.26	334.31	16.85	-37.2	-38.3	20.1	0.00e+00	0	43	0	1090519040	45	3924
2026-01-09 05:58:16.26	333.68	16.98	-37.2	-38.3	20.1	0.00e+00	0	42	0	1112539136	45	3936
2026-01-09 05:58:19.27	333.04	17.10	-37.2	-38.2	20.2	0.00e+00	0	42	0	1134559232	45	3909
2026-01-09 05:58:22.27	332.40	17.22	-37.1	-38.1	20.3	0.00e+00	0	43	0	1155530752	44	4064
2026-01-09 05:58:25.28	331.75	17.34	-36.7	-37.7	20.7	0.00e+00	0	42	0	1177550848	44	3893
2026-01-09 05:58:28.28	331.10	17.46	-36.7	-37.6	20.8	0.00e+00	0	43	0	1199570944	44	3861
2026-01-09 05:58:31.28	330.44	17.57	-36.7	-37.7	20.7	0.00e+00	0	42	0	1221591040	44	3892
2026-01-09 05:58:34.28	329.78	17.68	-36.9	-37.9	20.5	0.00e+00	0	42	0	1242562560	44	3960
2026-01-09 05:58:37.27	329.12	17.78	-36.9	-37.9	20.5	0.00e+00	0	42	0	1264582656	44	3989
2026-01-09 05:58:40.27	328.45	17.88	-36.8	-37.8	20.6	0.00e+00	0	42	0	1285554176	44	3942
2026-01-09 05:58:43.27	327.77	17.98	-36.7	-37.7	20.7	0.00e+00	0	42	0	1307574272	44	3909
2026-01-09 05:58:46.28	327.09	18.07	-36.6	-37.7	20.7	0.00e+00	0	42	0	1328545792	44	3889
2026-01-09 05:58:49.28	326.41	18.16	-36.8	-37.8	20.6	0.00e+00	0	43	0	1350565888	44	3921
2026-01-09 05:58:52.29	325.72	18.25	-36.8	-37.8	20.6	0.00e+00	0	43	0	1372585984	44	3928
2026-01-09 05:58:55.29	325.03	18.33	-36.9	-37.8	20.6	0.00e+00	0	42	0	1394606080	44	3941
2026-01-09 05:58:58.30	324.33	18.41	-36.9	-37.9	20.6	0.00e+00	0	42	0	1415577600	44	3961
2026-01-09 05:59:01.30	323.63	18.48	-36.9	-38.0	20.4	0.00e+00	0	43	0	1437597696	44	4020
2026-01-09 05:59:04.31	322.93	18.55	-36.4	-37.4	20.9	0.00e+00	0	42	0	1459617792	43	3966
2026-01-09 05:59:07.31	322.22	18.62	-36.2	-37.1	21.1	0.00e+00	0	43	0	1480589312	43	3851
2026-01-09 05:59:10.31	321.52	18.68	-36.5	-37.4	20.8	0.00e+00	0	43	0	1502609408	43	3978
2026-01-09 05:59:13.31	320.80	18.73	-36.4	-37.4	20.9	0.00e+00	0	43	0	1524629504	43	3959
2026-01-09 05:59:16.31	320.09	18.79	-36.4	-37.4	20.9	0.00e+00	0	43	0	1545601024	43	3959
2026-01-09 05:59:19.31	319.38	18.83	-36.3	-37.3	21.0	0.00e+00	0	43	0	1567621120	43	3918
2026-01-09 05:59:22.31	318.66	18.88	-36.3	-37.3	20.9	0.00e+00	0	43	0	1589641216	43	3948
2026-01-09 05:59:25.31	317.94	18.91	-36.3	-37.3	21.0	0.00e+00	0	43	0	1610612736	43	3932
2026-01-09 05:59:28.31	317.22	18.95	-36.3	-37.2	21.0	0.00e+00	0	43	0	1632632832	43	3912
2026-01-09 05:59:31.32	316.49	18.98	-36.3	-37.2	21.0	0.00e+00	0	43	0	1654652928	43	3913
2026-01-09 05:59:34.33	315.76	19.00	-36.1	-37.0	21.2	0.00e+00	0	43	0	1675624448	43	3819
2026-01-09 05:59:37.33	315.04	19.02	-36.1	-37.0	21.2	0.00e+00	0	43	0	1697644544	42	4031
2026-01-09 05:59:40.33	314.31	19.04	-36.0	-37.0	21.3	0.00e+00	0	43	0	1719664640	42	4006
2026-01-09 05:59:43.33	313.58	19.04	-36.1	-37.0	21.2	0.00e+00	0	43	0	1741684736	42	4050
2026-01-09 05:59:46.33	312.86	19.05	-36.2	-37.1	21.1	0.00e+00	0	43	0	1762656256	42	4077
2026-01-09 05:59:49.34	312.12	19.05	-36.2	-37.1	21.1	0.00e+00	0	43	0	1784676352	42	4073
2026-01-09 05:59:52.34	311.40	19.05	-36.3	-37.3	20.9	0.00e+00	0	43	0	1806696448	42	4157
2026-01-09 05:59:55.34	310.67	19.04	-36.3	-37.3	21.0	0.00e+00	0	43	0	1827667968	42	4146
2026-01-09 05:59:58.34	309.94	19.02	-36.2	-37.2	21.1	0.00e+00	0	43	0	1849688064	42	4107
2026-01-09 06:00:01.34	309.22	19.00	-36.2	-37.1	21.2	0.00e+00	0	43	0	1870659584	42	4058
2026-01-09 06:00:04.35	308.49	18.98	-36.3	-37.3	21.0	0.00e+00	0	43	0	1892679680	42	4147
2026-01-09 06:00:07.36	307.76	18.95	-36.2	-37.1	21.1	0.00e+00	0	43	0	1914699776	42	4094
2026-01-09 06:00:10.36	307.04	18.92	-36.1	-37.1	21.2	0.00e+00	0	43	0	1935671296	42	4053
2026-01-09 06:00:13.37	306.32	18.88	-36.2	-37.2	21.1	0.00e+00	0	43	0	1957691392	42	4103
2026-01-09 06:00:16.37	305.60	18.84	-36.3	-37.3	21.0	0.00e+00	0	43	0	1979711488	42	4162
2026-01-09 06:00:19.37	304.88	18.79	-36.3	-37.2	21.0	0.00e+00	0	43	0	2000683008	42	4139
2026-01-09 06:00:22.37	304.17	18.74	-36.1	-37.0	21.3	0.00e+00	0	43	0	2022703104	42	4019
2026-01-09 06:00:25.37	303.45	18.68	-36.2	-37.1	21.1	0.00e+00	0	43	0	2044723200	42	4068
2026-01-09 06:00:28.37	302.74	18.62	-36.4	-37.4	20.9	0.00e+00	0	43	0	2065694720	42	4195
2026-01-09 06:00:31.38	302.04	18.56	-36.4	-37.3	20.9	0.00e+00	0	43	0	2087714816	42	4181
2026-01-09 06:00:34.37	301.33	18.49	-36.3	-37.2	21.0	0.00e+00	0	43	0	2109734912	42	4134
2026-01-09 06:00:37.38	300.63	18.41	-36.4	-37.3	20.9	0.00e+00	0	43	0	2131755008	42	4186
2026-01-09 06:00:40.39	299.93	18.34	-36.6	-37.5	20.7	0.00e+00	0	43	0	2152726528	42	4255
2026-01-09 06:00:43.39	299.24	18.25	-36.4	-37.3	20.9	0.00e+00	0	43	0	2174746624	42	4177
2026-01-09 06:00:46.40	298.55	18.17	-36.4	-37.4	20.8	0.00e+00	0	43	0	2196766720	42	4196
2026-01-09 06:00:49.41	297.86	18.08	-36.5	-37.4	20.8	0.00e+00	0	43	0	2217738240	42	4218
2026-01-09 06:00:52.41	297.18	17.98	-36.6	-37.5	20.8	0.00e+00	0	43	0	2239758336	42	4260
2026-01-09 06:00:55.41	296.50	17.89	-36.4	-37.4	20.9	0.00e+00	0	43	0	2261778432	42	4195
2026-01-09 06:00:58.41	295.83	17.79	-36.5	-37.5	20.8	0.00e+00	0	43	0	2282749952	42	4256
2026-01-09 06:01:01.41	295.16	17.68	-36.8	-37.7	20.5	0.00e+00	0	42	0	2304770048	43	4131
2026-01-09 06:01:04.41	294.50	17.57	-36.9	-37.9	20.4	0.00e+00	0	43	0	2326790144	43	4218
2026-01-09 06:01:07.41	293.84	17.46	-37.0	-38.0	20.3	0.00e+00	0	43	0	2347761664	43	4246
2026-01-09 06:01:10.42	293.19	17.35	-36.8	-37.7	20.5	0.00e+00	0	43	0	2369781760	43	4141
2026-01-09 06:01:13.42	292.54	17.23	-36.9	-37.8	20.5	0.00e+00	0	43	0	2390753280	43	4190
2026-01-09 06:01:16.42	291.89	17.11	-37.2	-38.2	20.1	0.00e+00	0	43	0	2412773376	43	4345
2026-01-09 06:01:19.43	291.25	16.98	-37.1	-38.1	20.2	0.00e+00	0	43	0	2434793472	43	4318
2026-01-09 06:01:22.43	290.62	16.85	-37.0	-37.9	20.3	0.00e+00	0	43	0	2456813568	43	4241
2026-01-09 06:01:25.43	289.99	16.72	-37.2	-38.1	20.3	0.00e+00	0	43	0	2477785088	44	4084
2026-01-09 06:01:28.43	289.37	16.59	-37.1	-38.0	20.3	0.00e+00	0	43	0	2499805184	44	4048
2026-01-09 06:01:31.43	288.76	16.46	-37.1	-38.1	20.3	0.00e+00	0	43	0	2520776704	44	4077
2026-01-09 06:01:34.43	288.15	16.32	-37.2	-38.1	20.3	0.00e+00	0	43	0	2542796800	44	4089
2026-01-09 06:01:37.43	287.54	16.18	-37.1	-38.1	20.3	0.00e+00	0	43	0	2564816896	44	4064
2026-01-09 06:01:40.43	286.94	16.03	-37.1	-38.0	20.4	0.00e+00	0	43	0	2586836992	44	4033
2026-01-09 06:01:43.43	286.35	15.89	-37.3	-38.2	20.2	0.00e+00	0	43	0	2607808512	44	4132
2026-01-09 06:01:46.44	285.76	15.74	-37.3	-38.3	20.2	0.00e+00	0	43	0	2629828608	44	4162
2026-01-09 06:01:49.45	285.18	15.59	-37.3	-38.3	20.2	0.00e+00	0	43	0	2651848704	44	4150
2026-01-09 06:01:52.45	284.60	15.44	-37.1	-38.1	20.3	0.00e+00	0	43	0	2672820224	44	4063
2026-01-09 06:01:55.45	284.03	15.29	-37.3	-38.3	20.1	0.00e+00	0	43	0	2694840320	44	4160
2026-01-09 06:01:58.45	283.46	15.13	-37.4	-38.3	20.0	0.00e+00	0	43	0	2716860416	44	4193
2026-01-09 06:02:01.45	282.91	14.97	-37.5	-38.4	20.0	0.00e+00	0	43	0	2737831936	44	4241
2026-01-09 06:02:04.46	282.35	14.81	-37.5	-38.5	19.9	0.00e+00	0	43	0	2759852032	44	4258
2026-01-09 06:02:07.46	281.81	14.65	-37.5	-38.5	19.9	0.00e+00	0	43	0	2781872128	44	4274
2026-01-09 06:02:10.46	281.27	14.49	-37.5	-38.5	19.9	0.00e+00	0	43	0	2802843648	44	4269
2026-01-09 06:02:13.46	280.73	14.33	-37.6	-38.6	19.8	0.00e+00	0	43	0	2824863744	44	4315
2026-01-09 06:02:16.47	280.20	14.16	-37.8	-38.8	19.6	0.00e+00	0	43	0	2846883840	44	4398
2026-01-09 06:02:19.47	279.68	14.00	-38.0	-39.0	19.4	0.00e+00	0	43	0	2867855360	45	4267
2026-01-09 06:02:22.47	279.16	13.83	-37.9	-38.9	19.5	0.00e+00	0	43	0	2889875456	45	4208
2026-01-09 06:02:25.47	278.65	13.66	-37.9	-38.9	19.3	0.00e+00	0	43	0	2911895552	45	4239
2026-01-09 06:02:28.48	278.14	13.49	-37.9	-38.9	19.5	0.00e+00	0	43	0	2932867072	45	4217
2026-01-09 06:02:31.48	277.65	13.32	-37.7	-38.8	19.6	0.00e+00	0	43	0	2954887168	45	4157
2026-01-09 06:02:34.48	277.15	13.15	-37.8	-38.8	19.5	0.00e+00	0	43	0	2976907264	45	4172
2026-01-09 06:02:37.49	276.66	12.98	-37.7	-38.8	19.6	0.00e+00	0	43	0	2997878784	45	4147
2026-01-09 06:02:40.48	276.18	12.81	-37.8	-38.9	19.5	0.00e+00	0	43	0	3019898880	45	4202
2026-01-09 06:02:43.48	275.71	12.63	-37.9	-38.9	19.4	0.00e+00	0	43	0	3041918976	45	4237
2026-01-09 06:02:46.48	275.24	12.46	-37.9	-39.0	19.4	0.00e+00	0	43	0	3062890496	45	4251
2026-01-09 06:02:49.49	274.77	12.28	-38.0	-39.1	19.3	0.00e+00	0	43	0	3084910592	45	4295
2026-01-09 06:02:52.49	274.31	12.11	-38.1	-39.2	19.2	0.00e+00	0	43	0	3106930688	45	4343
2026-01-09 06:02:55.50	273.85	11.93	-38.2	-39.3	19.0	0.00e+00	0	43	0	3127902208	45	4397
2026-01-09 06:02:58.50	273.41	11.75	-38.3	-39.3	19.0	0.00e+00	0	43	0	3149922304	46	4189
2026-01-09 06:03:01.51	272.96	11.58	-38.5	-39.6	18.8	0.00e+00	0	43	0	3171942400	46	4309
2026-01-09 06:03:04.51	272.52	11.40	-38.4	-39.5	18.9	0.00e+00	0	43	0	3192913920	47	4033
2026-01-09 06:03:07.51	272.09	11.22	-38.3	-39.4	18.9	0.00e+00	0	43	0	3214934016	47	3974
2026-01-09 06:03:10.50	271.67	11.04	-38.0	-39.1	19.2	0.00e+00	0	43	0	3236954112	46	4064
2026-01-09 06:03:13.50	271.24	10.87	-38.1	-39.1	19.1	0.00e+00	0	43	0	3257925632	46	4095
2026-01-09 06:03:16.50	270.83	10.69	-38.3	-39.4	18.9	0.00e+00	0	43	0	3279945728	46	4220
2026-01-09 06:03:19.50	270.42	10.51	-38.6	-39.7	18.6	0.00e+00	0	43	0	3301965824	46	4374
2026-01-09 06:03:22.51	270.01	10.33	-38.7	-39.8	18.5	0.00e+00	0	43	0	3322937344	46	4407
2026-01-09 06:03:25.51	269.61	10.15	-38.7	-39.8	18.5	0.00e+00	0	43	0	3344957440	47	4163
2026-01-09 06:03:28.52	269.21	9.97	-38.7	-39.8	18.5	0.00e+00	0	43	0	3366977536	47	4168
2026-01-09 06:03:31.52	268.82	9.79	-38.7	-39.8	18.4	0.00e+00	0	43	0	3387949056	47	4176
2026-01-09 06:03:34.53	268.43	9.62	-38.6	-39.7	18.5	0.00e+00	0	43	0	3409969152	47	4123
2026-01-09 06:03:37.53	268.05	9.44	-38.6	-39.7	18.5	0.00e+00	0	43	0	3431989248	47	4124
2026-01-09 06:03:40.54	267.67	9.26	-38.6	-39.7	18.5	0.00e+00	0	43	0	3452960768	47	4125
2026-01-09 06:03:43.54	267.30	9.08	-38.8	-39.9	18.3	0.00e+00	0	43	0	3474980864	47	4204
2026-01-09 06:03:46.54	266.93	8.90	-49.0	-59.9	3.8	8.48e-01	0	43	104	3485466624	67	13322
2026-01-09 06:03:49.55	266.56	8.72	-49.5	-60.2	3.8	8.47e-01	0	43	104	3485466624	68	13108
2026-01-09 06:03:52.56	266.20	8.54	-49.6	-60.4	3.8	8.48e-01	0	43	104	3485466624	68	13346
2026-01-09 06:03:55.56	265.85	8.37	-49.6	-60.4	3.8	8.48e-01	0	43	104	3485466624	68	13408
2026-01-09 06:03:58.57	265.50	8.19	-49.6	-60.4	3.8	8.48e-01	0	43	104	3485466624	68	13296
2026-01-09 06:04:01.58	265.15	8.01	-49.6	-60.5	3.8	8.46e-01	0	43	104	3485466624	68	13466
2026-01-09 06:04:04.59	264.81	7.83	-49.7	-60.4	3.8	8.47e-01	0	43	104	3485466624	68	13376
2026-01-09 06:04:07.60	264.47	7.66	-49.6	-60.3	3.8	8.47e-01	0	43	104	3485466624	68	13254
2026-01-09 06:04:10.60	264.14	7.48	-49.5	-60.3	3.8	8.47e-01	0	43	104	3485466624	68	13248
2026-01-09 06:04:13.61	263.81	7.30	-49.5	-60.3	3.8	8.47e-01	0	43	104	3485466624	68	13189
2026-01-09 06:04:16.62	263.48	7.13	-49.5	-60.3	3.8	8.48e-01	0	43	104	3485466624	68	13237
2026-01-09 06:04:19.63	263.16	6.95	-49.4	-60.3	3.8	8.47e-01	0	43	104	3485466624	68	13137
2026-01-09 06:04:22.63	262.84	6.77	-49.2	-60.3	3.8	8.47e-01	0	43	104	3485466624	68	13238
2026-01-09 06:04:25.65	262.53	6.60	-49.2	-60.2	3.8	8.46e-01	0	43	104	3485466624	68	13040
2026-01-09 06:04:28.66	262.22	6.42	-49.3	-60.3	3.8	8.48e-01	0	43	104	3485466624	68	13161
2026-01-09 06:04:31.66	261.91	6.25	-49.3	-60.3	3.8	8.46e-01	0	43	104	3485466624	68	13163
2026-01-09 06:04:34.67	261.61	6.08	-49.3	-60.3	3.8	8.47e-01	0	43	104	3485466624	68	13180
2026-01-09 06:04:37.68	261.31	5.90	-49.3	-60.3	3.8	8.48e-01	0	43	104	3485466624	68	13201
2026-01-09 06:04:40.69	261.01	5.73	-49.3	-60.3	3.8	8.46e-01	0	43	104	3485466624	68	13166
2026-01-09 06:04:43.67	260.72	5.56	-49.3	-60.2	3.8	8.47e-01	0	43	104	3485466624	68	13082
2026-01-09 06:04:46.66	260.44	5.39	-49.2	-60.2	3.8	8.47e-01	0	43	104	3485466624	68	13026
2026-01-09 06:04:49.65	260.15	5.22	-49.3	-60.3	3.8	8.47e-01	0	43	104	3485466624	68	13122
2026-01-09 06:04:52.65	259.87	5.05	-49.2	-60.3	3.8	8.46e-01	0	43	104	3485466624	68	13133

#Closed at: 2026-01-09 06:04:54
#Recorded file [3485 MB]: D:/Data/31040_260109_085443.dat