passes_logs/2026/01/09/T1/T1__20260109_080017_SUOMI_NPP_rec.log

#Pass ID: 20260109_080017_SUOMI NPP
#Satellite: SUOMI NPP
#Configuration: NPP
#almurnet v.1.7.20251203
#Start time: 2026-01-09 08:00:18

#Version: 2.0.20230620
#Station: T1
#Location: 37.570604 lon 55.790049 lat
#TLE: 1 37849U 11061A   26008.05542337  .00000108  00000+0  71976-4 0  9997
#TLE: 2 37849  98.7805 310.1641 0002540  75.6410 284.5048 14.19523335735721

#Time	Az	El	Level	Level2	SNR	BER	BlckErr	Temp	State	Recorded	gain1	gain2
2026-01-09 08:00:18.04	96.29	5.01	-48.2	-63.5	3.8	1.49e+00	0	41	0	0	68	20435
2026-01-09 08:00:21.04	95.99	5.17	-48.1	-63.5	3.8	1.49e+00	0	41	104	0	68	20482
2026-01-09 08:00:24.05	95.69	5.34	-48.1	-63.4	3.8	1.49e+00	0	41	104	0	68	20264
2026-01-09 08:00:27.06	95.39	5.51	-48.1	-63.4	3.8	1.49e+00	0	42	104	0	68	20180
2026-01-09 08:00:30.07	95.09	5.67	-48.1	-63.4	3.8	1.49e+00	0	42	104	0	68	20235
2026-01-09 08:00:33.08	94.78	5.84	-48.0	-63.4	3.8	1.49e+00	0	42	104	0	68	20265
2026-01-09 08:00:36.10	94.46	6.01	-48.0	-63.5	3.8	1.49e+00	0	42	104	0	68	20353
2026-01-09 08:00:39.11	94.15	6.17	-48.2	-63.4	3.8	1.49e+00	0	42	104	0	68	20294
2026-01-09 08:00:42.12	93.83	6.34	-48.2	-63.5	3.8	1.49e+00	0	42	104	0	68	20327
2026-01-09 08:00:45.13	93.50	6.51	-48.2	-63.4	3.8	1.49e+00	0	42	104	0	68	20266
2026-01-09 08:00:48.14	93.17	6.68	-48.2	-63.3	3.8	1.49e+00	0	42	104	0	68	19883
2026-01-09 08:00:51.16	92.84	6.85	-48.1	-63.2	3.8	1.49e+00	0	42	104	0	68	19673
2026-01-09 08:00:54.17	92.50	7.02	-48.0	-63.3	3.8	1.49e+00	0	42	104	0	68	19897
2026-01-09 08:00:57.18	92.16	7.18	-48.2	-63.3	3.8	1.49e+00	0	43	104	0	68	19854
2026-01-09 08:01:00.19	91.82	7.35	-48.1	-62.8	3.8	1.49e+00	0	43	104	0	68	18890
2026-01-09 08:01:03.20	91.47	7.52	-48.1	-62.7	3.8	1.49e+00	0	42	104	0	68	18615
2026-01-09 08:01:06.21	91.12	7.69	-48.0	-63.3	3.8	1.49e+00	0	43	104	0	68	20050
2026-01-09 08:01:09.22	90.76	7.86	-48.1	-63.0	3.8	1.49e+00	0	43	104	0	68	19307
2026-01-09 08:01:12.23	90.40	8.03	-48.0	-61.1	3.9	1.49e+00	0	43	104	0	68	15561
2026-01-09 08:01:15.24	90.04	8.20	-47.8	-61.1	3.8	1.48e+00	0	43	104	0	67	16406
2026-01-09 08:01:18.25	89.67	8.37	-47.4	-56.7	5.6	8.78e-01	0	43	0	1048576	66	10479
2026-01-09 08:01:21.27	89.29	8.54	-45.4	-50.0	12.1	1.09e-03	0	43	0	7340032	62	6098
2026-01-09 08:01:24.27	88.92	8.71	-44.9	-49.0	13.2	1.22e-05	0	43	0	12582912	61	5738
2026-01-09 08:01:27.28	88.54	8.88	-46.4	-52.7	9.5	8.84e-03	0	43	0	17825792	63	7813
2026-01-09 08:01:30.29	88.15	9.04	-47.8	-60.3	3.9	1.29e+00	0	43	104	23068672	66	15810
2026-01-09 08:01:33.30	87.76	9.21	-48.0	-63.0	3.8	1.49e+00	0	43	104	26214400	66	21712
2026-01-09 08:01:36.31	87.36	9.38	-46.1	-51.5	10.7	1.75e-03	0	43	0	29360128	63	6815
2026-01-09 08:01:39.32	86.96	9.55	-45.6	-50.4	11.9	7.01e-04	0	43	0	35651584	63	6015
2026-01-09 08:01:42.33	86.55	9.72	-45.5	-50.2	12.1	3.29e-04	0	43	0	40894464	62	6208
2026-01-09 08:01:45.33	86.14	9.89	-45.4	-50.0	12.3	1.98e-04	0	43	0	47185920	62	6121
2026-01-09 08:01:48.33	85.73	10.05	-45.1	-49.5	12.8	3.43e-05	0	43	0	52428800	61	6080
2026-01-09 08:01:51.33	85.31	10.22	-45.2	-49.6	12.7	6.10e-05	0	43	0	57671680	61	6157
2026-01-09 08:01:54.34	84.89	10.39	-45.3	-49.8	12.5	5.56e-05	0	43	0	63963136	61	6292
2026-01-09 08:01:57.34	84.46	10.56	-45.3	-49.9	12.5	1.01e-04	0	43	0	69206016	61	6405
2026-01-09 08:02:00.35	84.02	10.72	-44.8	-48.9	13.5	1.29e-05	0	43	0	74448896	61	5699
2026-01-09 08:02:03.36	83.58	10.89	-44.9	-48.9	13.5	7.60e-06	0	44	0	80740352	61	5683
2026-01-09 08:02:06.37	83.14	11.05	-44.3	-48.0	14.5	0.00e+00	0	43	0	85983232	60	5414
2026-01-09 08:02:09.37	82.69	11.22	-44.6	-48.4	14.1	0.00e+00	0	44	0	92274688	60	5683
2026-01-09 08:02:12.38	82.23	11.38	-44.2	-47.8	14.6	0.00e+00	0	44	0	97517568	60	5325
2026-01-09 08:02:15.38	81.78	11.54	-43.8	-47.2	15.2	0.00e+00	0	43	0	102760448	59	5249
2026-01-09 08:02:18.38	81.31	11.71	-43.7	-46.9	15.5	0.00e+00	0	44	0	109051904	59	5100
2026-01-09 08:02:21.38	80.84	11.87	-43.4	-46.6	15.8	0.00e+00	0	44	0	114294784	58	5162
2026-01-09 08:02:24.38	80.37	12.03	-43.1	-46.0	16.4	0.00e+00	0	43	0	119537664	58	4820
2026-01-09 08:02:27.38	79.89	12.19	-42.9	-45.8	16.6	0.00e+00	0	44	0	125829120	57	5011
2026-01-09 08:02:30.39	79.40	12.35	-43.0	-45.8	16.6	0.00e+00	0	43	0	131072000	57	5032
2026-01-09 08:02:33.39	78.91	12.50	-43.0	-45.9	16.5	0.00e+00	0	44	0	137363456	57	5083
2026-01-09 08:02:36.40	78.41	12.66	-43.1	-46.0	16.4	0.00e+00	0	44	0	142606336	57	5137
2026-01-09 08:02:39.40	77.91	12.82	-42.8	-45.6	16.8	0.00e+00	0	44	0	147849216	57	4908
2026-01-09 08:02:42.41	77.40	12.97	-42.9	-45.8	16.7	0.00e+00	0	44	0	154140672	57	5014
2026-01-09 08:02:45.41	76.89	13.13	-42.8	-45.7	16.8	0.00e+00	0	44	0	159383552	57	4931
2026-01-09 08:02:48.41	76.38	13.28	-43.3	-46.3	16.2	0.00e+00	0	44	0	164626432	57	5326
2026-01-09 08:02:51.42	75.85	13.43	-43.3	-46.2	16.3	0.00e+00	0	44	0	170917888	57	5247
2026-01-09 08:02:54.42	75.32	13.58	-43.3	-46.3	16.2	0.00e+00	0	44	0	176160768	57	5292
2026-01-09 08:02:57.42	74.79	13.72	-42.5	-45.2	17.2	0.00e+00	0	44	0	181403648	57	4689
2026-01-09 08:03:00.42	74.25	13.87	-42.1	-44.7	17.7	0.00e+00	0	44	0	187695104	56	4662
2026-01-09 08:03:03.43	73.71	14.01	-42.2	-44.8	17.6	0.00e+00	0	44	0	192937984	56	4727
2026-01-09 08:03:06.43	73.16	14.16	-42.4	-45.0	17.4	0.00e+00	0	44	0	199229440	56	4845
2026-01-09 08:03:09.43	72.60	14.30	-42.7	-45.7	16.7	0.00e+00	0	44	0	204472320	56	5219
2026-01-09 08:03:12.44	72.04	14.44	-42.9	-45.9	16.4	0.00e+00	0	44	0	209715200	56	5378
2026-01-09 08:03:15.45	71.47	14.57	-42.5	-45.3	17.1	0.00e+00	0	44	0	216006656	56	5018
2026-01-09 08:03:18.45	70.90	14.71	-42.6	-45.5	16.9	0.00e+00	0	44	0	221249536	56	5125
2026-01-09 08:03:21.46	70.33	14.84	-42.8	-45.8	16.6	0.00e+00	0	44	0	226492416	56	5306
2026-01-09 08:03:24.47	69.74	14.97	-42.7	-45.6	16.8	0.00e+00	0	44	0	232783872	56	5216
2026-01-09 08:03:27.47	69.16	15.10	-42.5	-45.3	17.2	0.00e+00	0	44	0	238026752	56	4988
2026-01-09 08:03:30.48	68.57	15.23	-42.4	-45.2	17.2	0.00e+00	0	44	0	244318208	56	4948
2026-01-09 08:03:33.48	67.97	15.35	-42.6	-45.4	16.9	0.00e+00	0	44	0	249561088	56	5097
2026-01-09 08:03:36.49	67.37	15.47	-42.7	-45.6	16.8	0.00e+00	0	44	0	254803968	56	5183
2026-01-09 08:03:39.49	66.76	15.59	-42.6	-45.5	16.9	0.00e+00	0	44	0	261095424	56	5122
2026-01-09 08:03:42.50	66.15	15.70	-42.5	-45.3	17.1	0.00e+00	0	44	0	266338304	56	5001
2026-01-09 08:03:45.49	65.54	15.82	-42.1	-44.7	17.7	0.00e+00	0	44	0	271581184	56	4694
2026-01-09 08:03:48.50	64.92	15.93	-41.4	-43.9	18.3	0.00e+00	0	44	0	277872640	54	4787
2026-01-09 08:03:51.50	64.29	16.03	-41.3	-43.7	18.5	0.00e+00	0	44	0	283115520	54	4705
2026-01-09 08:03:54.50	63.66	16.14	-41.6	-44.1	18.1	0.00e+00	0	44	0	289406976	54	4897
2026-01-09 08:03:57.51	63.03	16.24	-41.8	-44.4	17.9	0.00e+00	0	44	0	294649856	54	5072
2026-01-09 08:04:00.52	62.39	16.34	-42.1	-44.8	17.5	0.00e+00	0	44	0	299892736	54	5312
2026-01-09 08:04:03.52	61.75	16.43	-42.2	-45.0	17.3	0.00e+00	0	44	0	306184192	55	5107
2026-01-09 08:04:06.53	61.10	16.52	-42.5	-45.3	17.0	0.00e+00	0	44	0	311427072	55	5295
2026-01-09 08:04:09.53	60.45	16.61	-42.8	-45.8	16.7	0.00e+00	0	44	0	316669952	56	5282
2026-01-09 08:04:12.54	59.80	16.69	-42.9	-45.8	16.7	0.00e+00	0	44	0	322961408	56	5295
2026-01-09 08:04:15.54	59.14	16.77	-42.8	-45.7	16.8	0.00e+00	0	44	0	328204288	56	5234
2026-01-09 08:04:18.55	58.48	16.85	-42.3	-45.0	17.4	0.00e+00	0	44	0	334495744	56	4842
2026-01-09 08:04:21.55	57.82	16.92	-42.1	-44.7	17.7	0.00e+00	0	44	0	339738624	56	4696
2026-01-09 08:04:24.56	57.15	16.99	-42.2	-44.9	17.5	0.00e+00	0	44	0	344981504	56	4772
2026-01-09 08:04:27.56	56.48	17.06	-41.8	-44.4	17.8	0.00e+00	0	44	0	351272960	55	4803
2026-01-09 08:04:30.57	55.81	17.12	-42.1	-44.9	17.4	0.00e+00	0	44	0	356515840	55	5043
2026-01-09 08:04:33.58	55.13	17.18	-42.4	-45.3	17.0	0.00e+00	0	44	0	361758720	55	5288
2026-01-09 08:04:36.58	54.45	17.23	-43.2	-46.4	16.0	0.00e+00	0	44	0	368050176	57	5367
2026-01-09 08:04:39.58	53.77	17.28	-43.4	-46.8	15.7	0.00e+00	0	44	0	373293056	57	5596
2026-01-09 08:04:42.58	53.09	17.33	-43.3	-46.5	16.0	0.00e+00	0	44	0	378535936	57	5416
2026-01-09 08:04:45.59	52.40	17.37	-43.0	-46.1	16.3	0.00e+00	0	44	0	384827392	57	5213
2026-01-09 08:04:48.59	51.72	17.41	-42.6	-45.5	16.9	0.00e+00	0	44	0	390070272	57	4838
2026-01-09 08:04:51.59	51.03	17.44	-42.7	-45.6	16.8	0.00e+00	0	44	0	396361728	57	4915
2026-01-09 08:04:54.60	50.34	17.47	-42.3	-45.1	17.3	0.00e+00	0	44	0	401604608	56	4876
2026-01-09 08:04:57.61	49.65	17.50	-42.3	-45.1	17.3	0.00e+00	0	44	0	406847488	56	4882
2026-01-09 08:05:00.62	48.96	17.52	-42.5	-45.3	17.1	0.00e+00	0	44	0	413138944	56	5016
2026-01-09 08:05:03.63	48.26	17.54	-43.0	-46.0	16.5	0.00e+00	0	44	0	418381824	56	5445
2026-01-09 08:05:06.63	47.57	17.55	-42.9	-45.9	16.5	0.00e+00	0	44	0	423624704	56	5367
2026-01-09 08:05:09.63	46.88	17.56	-42.6	-45.5	16.9	0.00e+00	0	44	0	429916160	56	5108
2026-01-09 08:05:12.64	46.18	17.56	-42.4	-45.2	17.3	0.00e+00	0	44	0	435159040	56	4963
2026-01-09 08:05:15.64	45.49	17.56	-43.0	-46.1	16.3	0.00e+00	0	44	0	441450496	56	5474
2026-01-09 08:05:18.64	44.80	17.56	-43.4	-46.8	15.8	0.00e+00	0	44	0	446693376	57	5600
2026-01-09 08:05:21.64	44.11	17.55	-43.5	-46.8	15.7	0.00e+00	0	44	0	451936256	57	5625
2026-01-09 08:05:24.66	43.41	17.53	-42.9	-45.9	16.5	0.00e+00	0	44	0	458227712	57	5076
2026-01-09 08:05:27.66	42.72	17.52	-42.6	-45.5	16.9	0.00e+00	0	44	0	463470592	56	5142
2026-01-09 08:05:30.66	42.03	17.50	-42.5	-45.4	16.9	0.00e+00	0	44	0	468713472	56	5082
2026-01-09 08:05:33.67	41.34	17.47	-42.4	-45.2	17.2	0.00e+00	0	44	0	475004928	56	4932
2026-01-09 08:05:36.67	40.65	17.44	-42.2	-44.9	17.5	0.00e+00	0	44	0	480247808	56	4809
2026-01-09 08:05:39.68	39.96	17.40	-42.1	-44.8	17.6	0.00e+00	0	44	0	486539264	56	4723
2026-01-09 08:05:42.68	39.28	17.37	-41.3	-43.8	18.4	0.00e+00	0	44	0	491782144	54	4737
2026-01-09 08:05:45.69	38.59	17.32	-41.3	-43.8	18.4	0.00e+00	0	44	0	497025024	54	4745
2026-01-09 08:05:48.69	37.91	17.28	-41.6	-44.1	18.2	0.00e+00	0	44	0	503316480	54	4898
2026-01-09 08:05:51.70	37.23	17.23	-41.8	-44.5	17.8	0.00e+00	0	44	0	508559360	54	5103
2026-01-09 08:05:54.70	36.56	17.17	-42.1	-44.8	17.6	0.00e+00	0	44	0	513802240	54	5286
2026-01-09 08:05:57.71	35.88	17.11	-42.1	-44.9	17.4	0.00e+00	0	44	0	520093696	55	5060
2026-01-09 08:06:00.72	35.21	17.05	-42.4	-45.3	17.0	0.00e+00	0	44	0	525336576	55	5330
2026-01-09 08:06:03.72	34.54	16.98	-42.2	-45.1	17.2	0.00e+00	0	44	0	531628032	55	5201
2026-01-09 08:06:06.73	33.87	16.91	-42.5	-45.4	16.9	0.00e+00	0	44	0	536870912	55	5354
2026-01-09 08:06:09.73	33.21	16.84	-42.5	-45.4	17.0	0.00e+00	0	44	0	542113792	55	5343
2026-01-09 08:06:12.74	32.55	16.76	-42.7	-45.7	16.8	0.00e+00	0	44	0	548405248	56	5222
2026-01-09 08:06:15.75	31.90	16.68	-42.7	-45.6	16.8	0.00e+00	0	44	0	553648128	56	5191
2026-01-09 08:06:18.75	31.25	16.60	-42.6	-45.6	16.9	0.00e+00	0	44	0	558891008	56	5181
2026-01-09 08:06:21.75	30.60	16.51	-43.0	-46.2	16.3	0.00e+00	0	44	0	565182464	56	5543
2026-01-09 08:06:24.76	29.95	16.42	-43.4	-46.6	15.9	0.00e+00	0	44	0	570425344	57	5514
2026-01-09 08:06:27.77	29.31	16.32	-43.2	-46.3	16.2	0.00e+00	0	44	0	576716800	57	5301
2026-01-09 08:06:30.77	28.68	16.22	-42.6	-45.6	16.9	0.00e+00	0	44	0	581959680	57	4883
2026-01-09 08:06:33.78	28.05	16.12	-42.5	-45.6	16.8	0.00e+00	0	44	0	587202560	56	5214
2026-01-09 08:06:36.78	27.42	16.02	-42.5	-45.7	16.8	0.00e+00	0	44	0	593494016	56	5220
2026-01-09 08:06:39.79	26.80	15.91	-42.2	-45.2	17.2	0.00e+00	0	44	0	598736896	56	4944
2026-01-09 08:06:42.79	26.18	15.80	-41.6	-44.4	17.9	0.00e+00	0	44	0	603979776	55	4783
2026-01-09 08:06:45.80	25.57	15.69	-41.6	-44.3	18.0	0.00e+00	0	44	0	610271232	55	4711
2026-01-09 08:06:48.81	24.96	15.57	-41.9	-44.6	17.6	0.00e+00	0	44	0	615514112	55	4922
2026-01-09 08:06:51.81	24.35	15.45	-42.9	-46.1	16.4	0.00e+00	0	44	0	621805568	56	5480
2026-01-09 08:06:54.82	23.75	15.33	-43.2	-46.7	15.9	0.00e+00	0	44	0	627048448	57	5537
2026-01-09 08:06:57.82	23.16	15.21	-43.1	-46.4	16.1	0.00e+00	0	44	0	632291328	57	5377
2026-01-09 08:07:00.83	22.57	15.08	-42.8	-46.0	16.4	0.00e+00	0	44	0	638582784	57	5127
2026-01-09 08:07:03.83	21.99	14.95	-43.3	-46.6	15.9	0.00e+00	0	44	0	643825664	57	5522
2026-01-09 08:07:06.84	21.41	14.82	-43.1	-46.3	16.2	0.00e+00	0	44	0	649068544	57	5309
2026-01-09 08:07:09.84	20.84	14.69	-42.7	-45.7	16.7	0.00e+00	0	44	0	655360000	57	4982
2026-01-09 08:07:12.84	20.27	14.56	-42.5	-45.7	16.7	0.00e+00	0	44	0	660602880	56	5264
2026-01-09 08:07:15.85	19.71	14.42	-42.4	-45.6	16.8	0.00e+00	0	44	0	666894336	56	5216
2026-01-09 08:07:18.85	19.15	14.28	-42.5	-45.6	16.9	0.00e+00	0	44	0	672137216	56	5167
2026-01-09 08:07:21.86	18.60	14.14	-43.1	-46.4	16.1	0.00e+00	0	44	0	677380096	56	5678
2026-01-09 08:07:24.87	18.05	14.00	-42.8	-45.9	16.6	0.00e+00	0	44	0	683671552	56	5376
2026-01-09 08:07:27.88	17.51	13.85	-42.8	-45.8	16.7	0.00e+00	0	44	0	688914432	56	5302
2026-01-09 08:07:30.89	16.97	13.71	-42.9	-45.9	16.5	0.00e+00	0	44	0	694157312	56	5369
2026-01-09 08:07:33.90	16.44	13.56	-43.6	-47.3	15.2	0.00e+00	0	44	0	700448768	57	5943
2026-01-09 08:07:36.91	15.91	13.41	-44.7	-49.5	13.0	2.74e-05	0	44	0	705691648	59	6851
2026-01-09 08:07:39.91	15.40	13.26	-44.2	-49.2	13.3	3.05e-05	0	44	0	711983104	60	6262
2026-01-09 08:07:42.91	14.88	13.11	-43.7	-48.4	14.1	1.50e-06	0	44	0	717225984	59	6008
2026-01-09 08:07:45.91	14.37	12.95	-43.6	-48.1	14.4	1.50e-06	0	44	0	722468864	59	5811
2026-01-09 08:07:48.92	13.87	12.80	-43.3	-47.1	15.3	0.00e+00	0	44	0	728760320	58	5520
2026-01-09 08:07:51.93	13.37	12.64	-43.3	-46.9	15.5	0.00e+00	0	44	0	734003200	58	5364
2026-01-09 08:07:54.93	12.88	12.49	-43.8	-47.7	14.8	0.00e+00	0	44	0	739246080	58	5888
2026-01-09 08:07:57.94	12.39	12.33	-43.7	-47.4	15.1	0.00e+00	0	44	0	745537536	58	5662
2026-01-09 08:08:00.95	11.91	12.17	-43.2	-46.5	15.9	0.00e+00	0	44	0	750780416	58	5154
2026-01-09 08:08:03.95	11.43	12.01	-42.9	-46.3	16.1	0.00e+00	0	44	0	757071872	57	5328
2026-01-09 08:08:06.96	10.96	11.85	-42.8	-46.4	16.0	0.00e+00	0	44	0	762314752	57	5398
2026-01-09 08:08:09.97	10.49	11.69	-43.0	-46.8	15.6	0.00e+00	0	44	0	767557632	57	5602
2026-01-09 08:08:12.97	10.03	11.53	-43.0	-47.1	15.3	0.00e+00	0	44	0	773849088	57	5855
2026-01-09 08:08:15.97	9.58	11.37	-42.6	-47.1	15.3	0.00e+00	0	44	0	779091968	57	5821
2026-01-09 08:08:18.98	9.12	11.20	-42.3	-46.9	15.5	0.00e+00	0	44	0	784334848	56	6022
2026-01-09 08:08:21.98	8.68	11.04	-42.3	-46.5	15.9	0.00e+00	0	44	0	790626304	56	5782
2026-01-09 08:08:24.98	8.24	10.87	-42.2	-45.8	16.6	0.00e+00	0	44	0	795869184	56	5325
2026-01-09 08:08:27.98	7.80	10.71	-41.8	-45.0	17.2	0.00e+00	0	44	0	802160640	55	5102
2026-01-09 08:08:30.99	7.37	10.54	-41.7	-44.6	17.6	0.00e+00	0	44	0	807403520	55	4896
2026-01-09 08:08:33.99	6.95	10.38	-41.9	-45.0	17.2	0.00e+00	0	44	0	812646400	55	5101
2026-01-09 08:08:37.00	6.53	10.21	-42.3	-45.5	16.7	0.00e+00	0	44	0	818937856	55	5426
2026-01-09 08:08:39.99	6.11	10.04	-41.9	-45.3	16.9	0.00e+00	0	44	0	824180736	55	5282
2026-01-09 08:08:43.00	5.70	9.88	-41.6	-45.0	17.2	0.00e+00	0	44	0	829423616	55	5122
2026-01-09 08:08:45.99	5.30	9.71	-41.7	-45.0	17.1	0.00e+00	0	44	0	835715072	55	5149
2026-01-09 08:08:49.00	4.90	9.54	-41.8	-45.1	17.1	0.00e+00	0	44	0	840957952	55	5181
2026-01-09 08:08:52.00	4.50	9.37	-42.5	-45.6	16.5	0.00e+00	0	44	0	847249408	55	5517
2026-01-09 08:08:55.00	4.11	9.21	-43.0	-46.3	16.0	0.00e+00	0	44	0	852492288	56	5597
2026-01-09 08:08:58.01	3.72	9.04	-42.3	-46.5	15.8	0.00e+00	0	44	0	857735168	56	5740
2026-01-09 08:09:01.01	3.34	8.87	-47.9	-63.9	3.8	1.49e+00	0	44	104	859832320	66	23919
2026-01-09 08:09:04.02	2.96	8.70	-48.5	-64.1	3.8	1.49e+00	0	44	104	859832320	67	23073
2026-01-09 08:09:07.03	2.59	8.53	-48.7	-64.3	3.8	1.49e+00	0	44	104	859832320	68	22398
2026-01-09 08:09:10.04	2.22	8.36	-49.0	-64.3	3.8	1.49e+00	0	44	104	859832320	68	22493
2026-01-09 08:09:13.05	1.85	8.19	-49.0	-64.3	3.8	1.49e+00	0	44	104	859832320	68	22495
2026-01-09 08:09:16.06	1.49	8.03	-48.9	-64.3	3.8	1.49e+00	0	44	104	859832320	68	22464
2026-01-09 08:09:19.07	1.13	7.86	-49.0	-64.3	3.8	1.49e+00	0	44	104	859832320	69	21163
2026-01-09 08:09:22.08	0.78	7.69	-49.1	-64.3	3.8	1.49e+00	0	44	104	859832320	69	21130
2026-01-09 08:09:25.09	0.43	7.52	-49.1	-64.3	3.8	1.49e+00	0	44	104	859832320	69	21109
2026-01-09 08:09:28.10	0.09	7.35	-48.8	-64.3	3.8	1.49e+00	0	44	104	859832320	69	21121
2026-01-09 08:09:31.11	359.75	7.18	-48.8	-64.3	3.8	1.49e+00	0	44	104	859832320	69	21040
2026-01-09 08:09:34.13	359.41	7.01	-48.8	-64.3	3.8	1.49e+00	0	44	104	859832320	69	21081
2026-01-09 08:09:37.14	359.08	6.85	-48.8	-64.3	3.8	1.49e+00	0	44	104	859832320	69	21086
2026-01-09 08:09:40.15	358.75	6.68	-48.7	-64.3	3.8	1.49e+00	0	44	104	859832320	69	21022
2026-01-09 08:09:43.16	358.42	6.51	-48.8	-64.2	3.8	1.49e+00	0	44	104	859832320	69	21010
2026-01-09 08:09:46.17	358.10	6.34	-48.7	-64.2	3.8	1.49e+00	0	44	104	859832320	69	20986
2026-01-09 08:09:49.19	357.79	6.18	-48.7	-64.3	3.8	1.49e+00	0	44	104	859832320	69	21049
2026-01-09 08:09:52.20	357.47	6.01	-48.7	-64.2	3.8	1.49e+00	0	44	104	859832320	69	20950
2026-01-09 08:09:55.21	357.16	5.84	-48.7	-64.2	3.8	1.49e+00	0	44	104	859832320	69	20973
2026-01-09 08:09:58.22	356.86	5.68	-48.8	-64.2	3.8	1.49e+00	0	44	104	859832320	69	20948
2026-01-09 08:10:01.23	356.56	5.51	-48.7	-64.2	3.8	1.49e+00	0	44	104	859832320	69	20955
2026-01-09 08:10:04.24	356.26	5.35	-48.7	-64.2	3.8	1.49e+00	0	44	104	859832320	69	20972
2026-01-09 08:10:07.25	355.96	5.18	-48.7	-64.3	3.8	1.49e+00	0	44	104	859832320	69	21019
2026-01-09 08:10:10.26	355.67	5.01	-48.8	-64.2	3.8	1.49e+00	0	44	104	859832320	69	20930

#Closed at: 2026-01-09 08:10:12
#Recorded file [859 MB]: D:/Data/31040_260109_110018.dat