passes_logs/2026/01/09/T1/T1__20260109_015038_AQUA_rec.log

#Pass ID: 20260109_015038_AQUA
#Satellite: AQUA
#Configuration: AQUA
#almurnet v.1.7.20251203
#Start time: 2026-01-09 01:50:40

#Version: 2.0.20230620
#Station: T1
#Location: 37.570604 lon 55.790049 lat
#TLE: 1 27424U 02022A   26004.96787593  .00001598  00000+0  32997-3 0  9996
#TLE: 2 27424  98.4069 331.2279 0002002  90.2377   0.6092 14.61798176259425

#Time	Az	El	Level	Level2	SNR	BER	BlckErr	Temp	State	Recorded	gain1	gain2
2026-01-09 01:50:40.64	11.58	5.17	-44.2	-69.1	3.5	7.57e-01	0	38	0	0	59	65535
2026-01-09 01:50:43.65	11.50	5.39	-44.1	-69.1	3.4	7.58e-01	0	38	104	0	59	65535
2026-01-09 01:50:46.66	11.41	5.62	-44.0	-69.1	3.6	7.45e-01	0	38	104	0	59	65534
2026-01-09 01:50:49.67	11.31	5.84	-44.0	-68.9	3.8	7.44e-01	0	38	104	0	59	63675
2026-01-09 01:50:52.69	11.22	6.08	-44.2	-68.5	3.8	7.42e-01	0	39	104	0	59	60702
2026-01-09 01:50:55.70	11.12	6.31	-43.9	-67.6	3.7	7.44e-01	0	39	104	0	59	55078
2026-01-09 01:50:58.71	11.03	6.54	-43.9	-65.3	4.2	7.17e-01	0	39	104	0	59	42420
2026-01-09 01:51:01.72	10.93	6.78	-44.0	-64.7	5.1	7.08e-01	0	39	0	0	59	39214
2026-01-09 01:51:04.74	10.83	7.02	-44.1	-65.5	4.7	7.15e-01	0	39	104	0	59	43352
2026-01-09 01:51:07.75	10.72	7.26	-44.2	-69.1	3.5	7.51e-01	0	39	104	0	59	65534
2026-01-09 01:51:10.77	10.62	7.51	-44.0	-64.5	5.2	7.03e-01	0	39	0	0	59	38669
2026-01-09 01:51:13.78	10.51	7.75	-43.8	-58.9	10.7	6.18e-01	0	39	0	4718592	59	20090
2026-01-09 01:51:16.79	10.40	8.00	-43.6	-55.3	14.1	6.04e-01	0	39	0	10485760	59	13291
2026-01-09 01:51:19.80	10.29	8.25	-43.3	-53.2	16.2	6.04e-01	0	40	0	16252928	58	11041
2026-01-09 01:51:22.82	10.17	8.51	-43.1	-52.1	17.3	6.06e-01	0	39	0	21495808	57	10380
2026-01-09 01:51:25.83	10.06	8.77	-43.1	-51.7	17.5	6.04e-01	0	40	0	27262976	57	9925
2026-01-09 01:51:28.84	9.94	9.03	-43.3	-53.8	15.4	6.04e-01	0	39	0	33030144	57	12662
2026-01-09 01:51:31.85	9.82	9.29	-42.7	-50.4	18.8	6.03e-01	0	40	0	38797312	57	8506
2026-01-09 01:51:34.94	9.69	9.57	-43.5	-55.5	13.6	6.03e-01	0	40	0	44564480	57	15387
2026-01-09 01:51:37.83	9.57	9.82	-43.5	-54.0	15.2	6.02e-01	0	40	0	49807360	57	12945
2026-01-09 01:51:40.98	9.43	10.11	-43.4	-54.1	15.5	6.04e-01	0	40	0	55574528	58	12338
2026-01-09 01:51:43.85	9.30	10.37	-43.1	-52.2	16.0	6.03e-01	0	40	0	61341696	57	10508
2026-01-09 01:51:47.00	9.16	10.66	-43.3	-51.9	17.0	6.03e-01	0	40	0	67108864	57	10095
2026-01-09 01:51:49.86	9.03	10.93	-43.7	-52.7	16.6	6.05e-01	0	40	0	72351744	58	10525
2026-01-09 01:51:53.01	8.88	11.23	-43.4	-51.3	17.8	6.06e-01	0	40	0	78118912	57	9457
2026-01-09 01:51:55.88	8.74	11.51	-43.4	-51.0	18.3	6.02e-01	0	40	0	83886080	58	8632
2026-01-09 01:51:59.04	8.58	11.82	-43.1	-49.0	20.1	6.04e-01	0	40	0	89653248	57	7267
2026-01-09 01:52:01.90	8.44	12.10	-43.5	-49.2	20.4	6.06e-01	0	40	0	94896128	58	7027
2026-01-09 01:52:05.05	8.28	12.41	-43.3	-48.5	20.9	6.01e-01	0	40	0	101187584	57	6879
2026-01-09 01:52:07.92	8.12	12.71	-43.4	-48.3	21.3	6.04e-01	0	40	0	106430464	58	6301
2026-01-09 01:52:11.10	7.95	13.03	-43.5	-48.2	21.4	6.05e-01	0	40	0	112197632	58	6229
2026-01-09 01:52:13.97	7.79	13.33	-42.9	-47.2	22.2	6.02e-01	0	40	0	117440512	57	5897
2026-01-09 01:52:17.03	7.61	13.65	-43.3	-47.5	21.9	6.03e-01	0	40	0	123207680	57	6121
2026-01-09 01:52:20.04	7.44	13.98	-43.4	-47.2	22.3	6.04e-01	0	40	0	128974848	58	5577
2026-01-09 01:52:23.05	7.26	14.30	-43.1	-46.6	22.9	6.03e-01	0	40	0	134742016	58	5175
2026-01-09 01:52:26.07	7.07	14.63	-43.0	-46.3	23.2	6.04e-01	0	40	0	140509184	57	5315
2026-01-09 01:52:29.05	6.88	14.97	-42.7	-46.0	23.5	6.04e-01	0	40	0	145752064	57	5151
2026-01-09 01:52:32.29	6.67	15.33	-42.8	-45.9	23.7	6.05e-01	0	40	0	152043520	57	5081
2026-01-09 01:52:35.16	6.48	15.66	-42.6	-45.8	23.7	6.03e-01	0	40	0	157286400	57	5017
2026-01-09 01:52:38.31	6.27	16.03	-42.5	-45.5	24.0	6.04e-01	0	40	0	163053568	56	5156
2026-01-09 01:52:41.18	6.07	16.37	-42.3	-45.4	24.1	6.03e-01	0	40	0	168820736	56	5096
2026-01-09 01:52:44.33	5.84	16.75	-42.1	-45.4	24.1	6.04e-01	0	40	0	174587904	56	5077
2026-01-09 01:52:47.20	5.63	17.10	-42.3	-45.5	24.0	6.03e-01	0	40	0	179830784	56	5149
2026-01-09 01:52:50.54	5.37	17.52	-42.3	-45.5	24.1	6.08e-01	0	41	0	186122240	56	5130
2026-01-09 01:52:53.27	5.16	17.86	-42.4	-45.6	24.0	6.02e-01	0	41	0	191365120	56	5166
2026-01-09 01:52:56.81	4.87	18.31	-42.8	-45.9	23.8	6.03e-01	0	40	0	198180864	56	5345
2026-01-09 01:52:59.53	4.65	18.67	-42.8	-45.9	23.7	6.04e-01	0	41	0	202899456	56	5346
2026-01-09 01:53:02.83	4.36	19.10	-42.8	-45.8	23.8	6.06e-01	0	40	0	209190912	56	5326
2026-01-09 01:53:05.70	4.11	19.49	-42.7	-45.6	24.0	6.06e-01	0	40	0	214433792	56	5213
2026-01-09 01:53:08.85	3.83	19.92	-42.4	-45.5	24.1	6.02e-01	0	40	0	220725248	56	5114
2026-01-09 01:53:11.72	3.56	20.32	-42.7	-45.7	23.9	6.03e-01	0	40	0	225968128	56	5269
2026-01-09 01:53:15.01	3.24	20.79	-42.8	-45.9	23.6	6.04e-01	0	40	0	232259584	56	5402
2026-01-09 01:53:17.73	2.97	21.18	-43.1	-46.2	23.7	6.04e-01	0	41	0	236978176	56	5559
2026-01-09 01:53:21.03	2.63	21.66	-43.5	-46.5	23.1	6.04e-01	0	40	0	243269632	58	5122
2026-01-09 01:53:23.75	2.34	22.07	-43.5	-46.3	23.4	6.04e-01	0	40	0	248512512	58	5009
2026-01-09 01:53:27.05	1.98	22.57	-43.1	-45.8	23.8	6.02e-01	0	41	0	254803968	58	4742
2026-01-09 01:53:30.15	1.63	23.05	-42.8	-45.6	24.1	6.04e-01	0	41	0	260571136	57	4881
2026-01-09 01:53:33.48	1.25	23.57	-42.9	-45.8	23.8	6.05e-01	0	41	0	266862592	57	5014
2026-01-09 01:53:36.21	0.92	24.01	-43.1	-45.9	23.8	6.03e-01	0	41	0	272105472	57	5067
2026-01-09 01:53:39.53	0.50	24.55	-43.2	-46.0	23.7	6.04e-01	0	41	0	277872640	57	5119
2026-01-09 01:53:42.26	0.15	25.00	-43.4	-46.1	23.6	6.03e-01	0	41	0	283115520	57	5174
2026-01-09 01:53:45.96	359.65	25.63	-42.9	-45.7	23.9	6.03e-01	0	41	0	289931264	57	4977
2026-01-09 01:53:48.72	359.27	26.10	-43.0	-45.8	23.9	6.05e-01	0	41	0	295174144	57	5019
2026-01-09 01:53:52.01	358.80	26.68	-43.1	-45.7	24.0	6.05e-01	0	41	0	301465600	57	4934
2026-01-09 01:53:54.74	358.39	27.17	-43.0	-45.6	24.1	6.05e-01	0	41	0	306708480	57	4891
2026-01-09 01:53:58.38	357.82	27.83	-43.0	-45.6	24.2	6.05e-01	0	41	0	313524224	57	4871
2026-01-09 01:54:01.33	357.35	28.38	-42.6	-45.2	24.6	6.04e-01	0	41	0	318767104	57	4654
2026-01-09 01:54:05.06	356.72	29.09	-42.5	-45.0	24.7	6.04e-01	0	41	0	326107136	56	4833
2026-01-09 01:54:07.80	356.24	29.61	-42.7	-45.3	24.5	6.04e-01	0	41	0	331350016	56	4989
2026-01-09 01:54:11.46	355.57	30.33	-42.5	-44.9	24.8	6.03e-01	0	41	0	338165760	56	4799
2026-01-09 01:54:14.18	355.05	30.88	-42.6	-45.0	24.7	6.04e-01	0	41	0	342884352	56	4864
2026-01-09 01:54:17.47	354.40	31.55	-42.7	-45.3	24.5	6.03e-01	0	41	0	349175808	56	4989
2026-01-09 01:54:20.19	353.84	32.11	-42.5	-45.1	24.6	6.03e-01	0	41	0	354418688	56	4905
2026-01-09 01:54:23.58	353.12	32.82	-42.5	-45.2	24.4	6.04e-01	0	41	0	360710144	56	4982
2026-01-09 01:54:26.37	352.49	33.42	-42.9	-45.5	24.2	6.05e-01	0	41	0	365953024	56	5138
2026-01-09 01:54:29.69	351.72	34.14	-43.0	-45.8	24.0	6.04e-01	0	41	0	372244480	57	5012
2026-01-09 01:54:32.69	350.98	34.81	-43.1	-45.9	23.9	6.03e-01	0	41	0	378011648	57	5096
2026-01-09 01:54:35.77	350.20	35.50	-43.7	-46.7	23.1	6.07e-01	0	41	0	383254528	58	5259
2026-01-09 01:54:38.71	349.42	36.16	-43.7	-46.8	23.1	6.04e-01	0	41	0	389021696	58	5285
2026-01-09 01:54:42.27	348.43	36.98	-44.1	-47.2	22.7	6.05e-01	0	41	0	395837440	58	5589
2026-01-09 01:54:44.99	347.63	37.62	-43.8	-47.0	22.9	6.04e-01	0	41	0	400556032	59	5106
2026-01-09 01:54:48.28	346.63	38.40	-44.5	-47.8	22.2	6.03e-01	0	41	0	406847488	59	5625
2026-01-09 01:54:51.07	345.73	39.06	-44.5	-47.4	22.5	6.03e-01	0	41	0	412090368	59	5376
2026-01-09 01:54:55.05	344.39	40.02	-44.2	-47.2	22.6	6.05e-01	0	41	0	419954688	60	4961
2026-01-09 01:54:57.79	343.42	40.69	-44.1	-46.9	22.8	6.03e-01	0	41	0	424673280	60	4814
2026-01-09 01:55:01.53	342.03	41.60	-44.0	-47.0	22.8	6.06e-01	0	41	0	432013312	60	4868
2026-01-09 01:55:04.29	340.95	42.28	-44.0	-46.9	23.0	6.04e-01	0	41	0	436731904	59	5084
2026-01-09 01:55:08.03	339.41	43.20	-43.8	-46.9	23.0	6.03e-01	0	41	0	444071936	59	5074
2026-01-09 01:55:11.15	338.05	43.96	-43.6	-46.6	23.3	6.03e-01	0	41	0	449839104	59	4884
2026-01-09 01:55:14.92	336.32	44.89	-43.8	-46.5	23.4	6.04e-01	0	41	0	457179136	59	4847
2026-01-09 01:55:17.66	334.99	45.55	-43.9	-46.7	23.2	6.04e-01	0	41	0	461897728	59	4934
2026-01-09 01:55:21.58	332.99	46.49	-43.8	-46.6	23.3	6.02e-01	0	41	0	469237760	59	4914
2026-01-09 01:55:24.33	331.52	47.14	-44.1	-46.9	23.0	6.05e-01	0	41	0	474480640	59	5088
2026-01-09 01:55:28.09	329.40	48.01	-43.8	-46.7	23.1	6.04e-01	0	41	0	481820672	59	4971
2026-01-09 01:55:30.84	327.77	48.63	-43.8	-46.7	23.1	6.05e-01	0	41	0	487063552	59	4982
2026-01-09 01:55:34.60	325.44	49.45	-43.9	-46.6	23.2	6.04e-01	0	41	0	493879296	59	4926
2026-01-09 01:55:37.56	323.51	50.07	-44.0	-46.7	23.1	6.05e-01	0	41	0	499646464	59	4966
2026-01-09 01:55:40.58	321.46	50.67	-43.8	-46.5	23.4	6.06e-01	0	41	0	504889344	59	4850
2026-01-09 01:55:43.60	319.33	51.24	-43.7	-46.4	23.6	6.03e-01	0	41	0	510656512	58	5059
2026-01-09 01:55:46.60	317.13	51.77	-43.3	-46.0	23.8	6.03e-01	0	41	0	516423680	58	4870
2026-01-09 01:55:49.61	314.85	52.27	-43.1	-45.7	24.0	6.05e-01	0	41	0	522190848	58	4694
2026-01-09 01:55:52.62	312.49	52.72	-43.3	-45.8	24.1	6.02e-01	0	41	0	527433728	58	4755
2026-01-09 01:55:55.63	310.06	53.12	-44.2	-47.2	22.8	6.03e-01	0	41	0	533200896	58	5578
2026-01-09 01:55:58.65	307.56	53.47	-42.9	-45.3	24.1	6.02e-01	0	41	0	538968064	57	4738
2026-01-09 01:56:01.74	304.94	53.78	-43.7	-46.6	23.3	6.08e-01	0	41	0	544735232	57	5474
2026-01-09 01:56:04.89	302.21	54.03	-44.2	-47.0	22.6	6.06e-01	0	41	0	550502400	59	5155
2026-01-09 01:56:07.76	299.69	54.20	-43.6	-46.3	23.2	6.05e-01	0	41	0	556269568	58	5020
2026-01-09 01:56:10.91	296.90	54.32	-43.4	-46.1	23.5	6.02e-01	0	41	0	562036736	58	4917
2026-01-09 01:56:13.86	294.27	54.38	-44.1	-47.0	22.8	6.02e-01	0	41	0	567279616	58	5425
2026-01-09 01:56:17.06	291.41	54.37	-43.5	-46.1	23.7	6.04e-01	0	41	0	573571072	58	4881
2026-01-09 01:56:19.93	288.85	54.30	-43.3	-45.8	24.0	6.01e-01	0	41	0	578813952	58	4754
2026-01-09 01:56:23.05	286.09	54.16	-43.5	-46.2	23.6	6.04e-01	0	41	0	584581120	58	4928
2026-01-09 01:56:26.06	283.45	53.96	-43.2	-45.7	24.1	6.02e-01	0	41	0	590348288	58	4699
2026-01-09 01:56:29.07	280.86	53.71	-43.4	-46.0	23.8	6.04e-01	0	41	0	596115456	58	4828
2026-01-09 01:56:32.07	278.33	53.39	-43.4	-46.0	23.8	6.02e-01	0	41	0	601358336	57	5150
2026-01-09 01:56:35.03	275.89	53.04	-43.1	-45.6	24.2	6.04e-01	0	41	0	607125504	57	4900
2026-01-09 01:56:38.30	273.26	52.58	-42.9	-45.4	24.3	6.03e-01	0	41	0	613416960	57	4765
2026-01-09 01:56:41.23	270.98	52.13	-43.2	-45.9	24.0	6.05e-01	0	41	0	618659840	57	5055
2026-01-09 01:56:44.53	268.50	51.58	-43.7	-46.3	23.6	6.05e-01	0	41	0	624951296	57	5315
2026-01-09 01:56:47.25	266.53	51.08	-43.0	-45.6	24.2	6.03e-01	0	41	0	630194176	57	4899
2026-01-09 01:56:50.59	264.20	50.44	-42.9	-45.4	24.4	6.05e-01	0	41	0	636485632	57	4772
2026-01-09 01:56:53.60	262.19	49.82	-43.2	-45.7	24.1	6.05e-01	0	41	0	641728512	57	4942
2026-01-09 01:56:57.05	259.98	49.09	-43.4	-46.3	23.5	6.04e-01	0	41	0	648544256	57	5308
2026-01-09 01:56:59.78	258.31	48.48	-43.3	-45.9	23.9	6.05e-01	0	41	0	653262848	57	5079
2026-01-09 01:57:02.97	256.44	47.76	-43.0	-45.6	24.0	6.02e-01	0	41	0	659554304	57	4918
2026-01-09 01:57:05.99	254.75	47.05	-43.3	-45.8	24.0	6.02e-01	0	41	0	665321472	57	5030
2026-01-09 01:57:08.99	253.15	46.34	-42.9	-45.5	24.2	6.03e-01	0	41	0	671088640	57	4823
2026-01-09 01:57:12.00	251.61	45.61	-42.8	-45.4	24.4	6.01e-01	0	41	0	676331520	57	4761
2026-01-09 01:57:15.01	250.15	44.88	-43.2	-45.7	24.1	6.05e-01	0	41	0	682098688	57	4943
2026-01-09 01:57:18.02	248.75	44.14	-43.2	-45.9	23.9	6.03e-01	0	41	0	687865856	57	5042
2026-01-09 01:57:21.03	247.42	43.40	-43.3	-46.0	23.8	6.04e-01	0	41	0	693108736	57	5110
2026-01-09 01:57:24.04	246.15	42.66	-44.0	-46.8	23.2	6.04e-01	0	41	0	698875904	58	5307
2026-01-09 01:57:27.05	244.94	41.91	-44.1	-46.8	23.1	6.06e-01	0	41	0	704643072	59	5020
2026-01-09 01:57:30.06	243.78	41.17	-43.9	-46.7	23.2	6.02e-01	0	41	0	710410240	59	4938
2026-01-09 01:57:33.07	242.68	40.43	-44.4	-47.4	22.4	6.07e-01	0	41	0	716177408	59	5387
2026-01-09 01:57:36.74	241.40	39.54	-44.5	-47.4	22.3	6.04e-01	0	41	0	722993152	60	5097
2026-01-09 01:57:39.50	240.49	38.88	-44.6	-47.6	22.2	6.04e-01	0	41	0	728236032	60	5176
2026-01-09 01:57:43.10	239.35	38.02	-44.7	-47.7	22.1	6.02e-01	0	41	0	735051776	60	5268
2026-01-09 01:57:45.83	238.53	37.37	-44.1	-46.8	22.9	6.05e-01	0	41	0	739770368	60	4755
2026-01-09 01:57:49.19	237.56	36.59	-44.5	-47.5	22.2	6.04e-01	0	41	0	746061824	60	5103
2026-01-09 01:57:51.96	236.80	35.95	-44.5	-47.5	22.2	6.03e-01	0	41	0	751304704	60	5149
2026-01-09 01:57:55.29	235.92	35.19	-44.3	-47.2	22.7	6.03e-01	0	41	0	757596160	59	5221
2026-01-09 01:57:58.30	235.16	34.52	-43.7	-46.4	23.4	6.01e-01	0	41	0	763363328	59	4772
2026-01-09 01:58:01.31	234.43	33.85	-44.5	-47.5	22.3	6.05e-01	0	41	0	769130496	59	5420
2026-01-09 01:58:04.60	233.67	33.14	-43.7	-46.5	23.3	6.04e-01	0	41	0	774897664	59	4842
2026-01-09 01:58:07.32	233.07	32.56	-43.5	-46.3	23.5	6.05e-01	0	41	0	780140544	59	4714
2026-01-09 01:58:10.61	232.37	31.87	-43.5	-46.3	23.4	6.04e-01	0	41	0	786432000	58	5033
2026-01-09 01:58:13.33	231.82	31.30	-43.0	-45.7	24.0	6.04e-01	0	41	0	791674880	58	4663
2026-01-09 01:58:16.61	231.17	30.64	-43.4	-46.3	23.4	6.06e-01	0	41	0	797442048	58	4987
2026-01-09 01:58:19.62	230.60	30.03	-43.2	-45.8	23.9	6.04e-01	0	41	0	803209216	58	4723
2026-01-09 01:58:22.62	230.06	29.44	-43.4	-46.1	23.6	6.02e-01	0	41	0	808976384	58	4905
2026-01-09 01:58:25.60	229.54	28.87	-43.2	-45.8	24.0	6.06e-01	0	41	0	814219264	58	4714
2026-01-09 01:58:29.16	228.94	28.19	-43.3	-46.0	23.7	6.05e-01	0	41	0	821035008	58	4842
2026-01-09 01:58:32.22	228.45	27.63	-43.1	-45.7	24.0	6.02e-01	0	41	0	826802176	58	4700
2026-01-09 01:58:35.09	228.00	27.10	-43.7	-46.4	23.4	6.04e-01	0	41	0	832045056	58	5054
2026-01-09 01:58:38.34	227.51	26.52	-43.6	-46.2	23.5	6.03e-01	0	41	0	838336512	58	4950
2026-01-09 01:58:41.21	227.10	26.01	-43.6	-46.2	23.5	6.03e-01	0	41	0	843579392	58	4983
2026-01-09 01:58:44.50	226.64	25.45	-43.8	-46.5	23.3	6.04e-01	0	41	0	849870848	58	5127
2026-01-09 01:58:47.23	226.27	24.98	-43.8	-46.6	23.2	6.03e-01	0	41	0	855113728	58	5164
2026-01-09 01:58:50.53	225.84	24.43	-43.8	-46.4	23.3	6.04e-01	0	41	0	861405184	58	5092
2026-01-09 01:58:53.25	225.50	23.99	-43.7	-46.4	23.3	6.03e-01	0	41	0	866123776	58	5068
2026-01-09 01:58:56.59	225.10	23.45	-44.2	-47.0	22.8	6.04e-01	0	41	0	872415232	58	5408
2026-01-09 01:58:59.69	224.73	22.96	-44.0	-46.8	22.9	6.04e-01	0	41	0	878182400	59	4999
2026-01-09 01:59:02.55	224.41	22.51	-43.7	-46.4	23.3	6.04e-01	0	41	0	883949568	59	4789
2026-01-09 01:59:05.71	224.06	22.03	-43.7	-46.4	23.3	6.05e-01	0	41	0	889716736	59	4784
2026-01-09 01:59:08.68	223.74	21.59	-43.8	-46.5	23.2	6.02e-01	0	41	0	894959616	59	4832
2026-01-09 01:59:12.24	223.37	21.06	-43.9	-46.7	23.0	6.06e-01	0	41	0	901775360	59	4965
2026-01-09 01:59:14.96	223.10	20.67	-44.0	-46.8	22.9	6.07e-01	0	41	0	907018240	59	4988
2026-01-09 01:59:18.26	222.78	20.20	-43.9	-46.7	23.0	6.04e-01	0	41	0	913309696	59	4939
2026-01-09 01:59:20.98	222.52	19.82	-43.9	-46.7	23.0	6.04e-01	0	41	0	918028288	59	4930
2026-01-09 01:59:24.61	222.19	19.32	-43.9	-46.7	23.1	6.04e-01	0	41	0	924844032	59	4962
2026-01-09 01:59:27.33	221.95	18.96	-43.8	-46.7	23.0	6.06e-01	0	41	0	930086912	59	4931
2026-01-09 01:59:30.63	221.67	18.52	-43.7	-46.5	23.1	6.04e-01	0	41	0	936378368	59	4838
2026-01-09 01:59:33.35	221.44	18.16	-43.6	-46.4	23.2	6.03e-01	0	41	0	941621248	59	4779
2026-01-09 01:59:36.70	221.17	17.73	-43.7	-46.6	23.0	6.04e-01	0	41	0	947912704	59	4903
2026-01-09 01:59:39.71	220.93	17.35	-43.7	-46.6	23.0	6.02e-01	0	41	0	953155584	59	4887
2026-01-09 01:59:43.00	220.68	16.94	-43.7	-46.6	23.0	6.04e-01	0	41	0	959447040	59	4904
2026-01-09 01:59:45.76	220.47	16.61	-43.8	-46.7	22.9	6.03e-01	0	41	0	964689920	59	4954
2026-01-09 01:59:49.06	220.23	16.21	-43.8	-46.8	22.8	6.06e-01	0	41	0	970981376	59	5005
2026-01-09 01:59:51.78	220.04	15.88	-43.7	-46.6	23.0	6.06e-01	0	41	0	976224256	59	4878
2026-01-09 01:59:55.03	219.81	15.50	-43.7	-46.6	23.0	6.05e-01	0	41	0	981991424	59	4886
2026-01-09 01:59:57.90	219.62	15.17	-43.7	-46.5	23.0	6.04e-01	0	41	0	987758592	59	4864
2026-01-09 02:00:01.05	219.41	14.82	-43.9	-46.8	22.8	6.04e-01	0	41	0	993525760	59	5016
2026-01-09 02:00:03.92	219.23	14.50	-43.8	-46.7	22.8	6.03e-01	0	41	0	998768640	59	4966
2026-01-09 02:00:07.07	219.03	14.15	-43.7	-46.7	22.8	6.04e-01	0	41	0	1004535808	59	4943
2026-01-09 02:00:09.94	218.86	13.84	-43.7	-46.6	22.9	6.02e-01	0	41	0	1010302976	59	4913
2026-01-09 02:00:13.09	218.67	13.50	-43.7	-46.6	22.8	6.03e-01	0	41	0	1016070144	59	4906
2026-01-09 02:00:15.96	218.51	13.19	-43.9	-46.8	22.6	6.04e-01	0	41	0	1021313024	59	5038
2026-01-09 02:00:19.06	218.33	12.87	-44.0	-47.1	22.4	6.05e-01	0	41	0	1027080192	59	5166
2026-01-09 02:00:22.39	218.15	12.53	-44.0	-47.0	22.4	6.03e-01	0	41	0	1033371648	59	5144
2026-01-09 02:00:25.32	217.99	12.23	-43.9	-47.0	22.4	6.04e-01	0	41	0	1039138816	59	5118
2026-01-09 02:00:29.09	217.79	11.85	-43.8	-46.9	22.5	6.04e-01	0	41	0	1045954560	59	5057
2026-01-09 02:00:31.91	217.65	11.58	-43.8	-46.8	22.6	6.03e-01	0	41	0	1051197440	59	5037
2026-01-09 02:00:35.54	217.47	11.22	-43.7	-46.9	22.5	6.03e-01	0	41	0	1058013184	59	5056
2026-01-09 02:00:38.26	217.33	10.96	-44.0	-47.0	22.4	6.04e-01	0	42	0	1063256064	59	5153
2026-01-09 02:00:41.56	217.18	10.65	-44.0	-47.3	22.1	6.03e-01	0	42	0	1069547520	59	5296
2026-01-09 02:00:44.28	217.05	10.39	-44.1	-47.4	22.0	6.03e-01	0	41	0	1074266112	59	5349
2026-01-09 02:00:47.58	216.90	10.09	-43.8	-47.2	22.1	6.06e-01	0	41	0	1080557568	59	5270
2026-01-09 02:00:50.30	216.78	9.84	-44.0	-47.4	21.9	6.04e-01	0	41	0	1085800448	59	5350
2026-01-09 02:00:53.60	216.63	9.54	-44.2	-47.5	21.8	6.05e-01	0	41	0	1092091904	59	5443
2026-01-09 02:00:56.40	216.51	9.29	-44.4	-47.7	21.6	6.03e-01	0	41	0	1097334784	59	5577
2026-01-09 02:00:59.55	216.38	9.01	-44.7	-48.3	21.2	6.04e-01	0	41	0	1103101952	60	5600
2026-01-09 02:01:02.42	216.26	8.76	-50.1	-70.7	3.8	7.43e-01	0	41	104	1103626240	71	39298
2026-01-09 02:01:05.65	216.13	8.49	-50.2	-71.0	3.8	7.50e-01	0	42	104	1103626240	72	38577
2026-01-09 02:01:08.59	216.02	8.23	-50.7	-71.1	3.8	7.45e-01	0	42	104	1103626240	71	41278
2026-01-09 02:01:11.74	215.90	7.97	-50.8	-71.1	3.8	7.46e-01	0	42	104	1103626240	72	39006
2026-01-09 02:01:14.61	215.79	7.73	-50.9	-71.1	3.8	7.47e-01	0	42	104	1103626240	72	38882
2026-01-09 02:01:17.77	215.67	7.47	-50.4	-71.1	3.8	7.46e-01	0	42	104	1103626240	72	38981
2026-01-09 02:01:20.64	215.57	7.23	-50.0	-71.1	3.8	7.46e-01	0	42	104	1103626240	72	38716
2026-01-09 02:01:23.80	215.45	6.98	-50.1	-71.1	3.8	7.46e-01	0	42	104	1103626240	71	41209
2026-01-09 02:01:26.67	215.35	6.75	-50.1	-71.1	3.8	7.44e-01	0	42	104	1103626240	71	41197
2026-01-09 02:01:29.82	215.24	6.50	-50.0	-71.1	3.8	7.44e-01	0	42	104	1103626240	71	41197
2026-01-09 02:01:32.69	215.15	6.27	-50.1	-71.1	3.8	7.50e-01	0	42	104	1103626240	71	41197
2026-01-09 02:01:35.85	215.04	6.03	-50.1	-71.1	3.8	7.43e-01	0	42	104	1103626240	71	41053
2026-01-09 02:01:38.72	214.95	5.81	-50.1	-71.1	3.8	7.45e-01	0	42	104	1103626240	71	41137
2026-01-09 02:01:41.88	214.85	5.57	-50.1	-71.1	3.8	7.46e-01	0	42	104	1103626240	71	41096
2026-01-09 02:01:44.75	214.76	5.35	-50.1	-71.1	3.8	7.42e-01	0	42	104	1103626240	71	41111
2026-01-09 02:01:47.90	214.66	5.11	-50.1	-71.1	3.8	7.45e-01	0	42	104	1103626240	71	41124

#Closed at: 2026-01-09 02:01:50
#Recorded file [1103 MB]: D:/Data/31040_260109_045040.dat