passes_logs/2026/01/09/T1/T1__20260109_225909_NOAA_21_JPSS-2_rec.log

#Pass ID: 20260109_225909_NOAA 21 (JPSS-2)
#Satellite: NOAA 21 (JPSS-2)
#Configuration: NOAA 21
#almurnet v.1.7.20251203
#Start time: 2026-01-09 22:59:08

#Version: 2.0.20230620
#Station: T1
#Location: 37.570604 lon 55.790049 lat
#TLE: 1 54234U 22150A   26009.23291724  .00000115  00000+0  75298-4 0  9996
#TLE: 2 54234  98.7494 310.2026 0000856 324.9272  35.1848 14.19533567163994

#Time	Az	El	Level	Level2	SNR	BER	BlckErr	Temp	State	Recorded	gain1	gain2
2026-01-09 22:59:08.96	21.45	4.98	-50.8	-63.9	3.8	1.49e+00	0	39	0	0	73	15944
2026-01-09 22:59:11.97	21.58	5.19	-50.8	-63.8	3.8	1.49e+00	0	40	104	0	73	15864
2026-01-09 22:59:14.98	21.71	5.40	-50.8	-63.8	3.8	1.49e+00	0	40	104	0	73	15922
2026-01-09 22:59:17.99	21.84	5.61	-50.8	-63.8	3.8	1.49e+00	0	40	104	0	73	15908
2026-01-09 22:59:21.00	21.97	5.82	-50.8	-63.9	3.8	1.49e+00	0	40	104	0	73	15991
2026-01-09 22:59:24.01	22.10	6.03	-50.8	-63.8	3.8	1.49e+00	0	40	104	0	73	15933
2026-01-09 22:59:27.03	22.24	6.24	-50.8	-63.8	3.8	1.49e+00	0	40	104	0	73	15896
2026-01-09 22:59:30.04	22.38	6.46	-50.8	-63.8	3.8	1.49e+00	0	40	104	0	73	15851
2026-01-09 22:59:33.05	22.52	6.68	-50.8	-63.8	3.8	1.49e+00	0	41	104	0	73	15927
2026-01-09 22:59:36.06	22.66	6.90	-50.8	-63.6	3.8	1.49e+00	0	41	104	0	73	15482
2026-01-09 22:59:39.08	22.80	7.12	-50.7	-62.9	3.8	1.49e+00	0	41	104	0	73	14249
2026-01-09 22:59:42.09	22.95	7.34	-50.7	-62.5	3.8	1.49e+00	0	41	104	0	73	13582
2026-01-09 22:59:45.10	23.10	7.56	-50.7	-62.7	3.8	1.49e+00	0	41	104	0	73	13956
2026-01-09 22:59:48.11	23.25	7.79	-50.7	-62.6	3.8	1.49e+00	0	41	104	0	73	13854
2026-01-09 22:59:51.13	23.40	8.02	-50.6	-61.3	4.0	1.49e+00	0	41	104	0	73	11909
2026-01-09 22:59:54.14	23.55	8.25	-50.5	-61.4	3.9	1.48e+00	0	41	104	0	73	11981
2026-01-09 22:59:57.16	23.71	8.48	-50.5	-60.7	4.1	1.47e+00	0	41	104	0	73	11035
2026-01-09 23:00:00.17	23.87	8.72	-50.3	-59.4	4.5	1.30e+00	0	41	104	0	72	10114
2026-01-09 23:00:03.18	24.03	8.95	-50.2	-58.4	4.9	7.48e-01	0	41	0	0	72	9059
2026-01-09 23:00:06.16	24.19	9.19	-50.3	-60.3	3.9	1.46e+00	0	41	104	0	72	11183
2026-01-09 23:00:09.17	24.36	9.43	-46.5	-49.6	13.0	3.63e-03	0	42	0	0	64	5212
2026-01-09 23:00:12.18	24.52	9.67	-45.9	-48.8	14.0	7.60e-06	0	41	0	0	63	5000
2026-01-09 23:00:15.19	24.70	9.91	-45.2	-47.7	15.0	0.00e+00	0	41	0	0	62	4695
2026-01-09 23:00:18.20	24.87	10.16	-44.5	-46.8	15.9	0.00e+00	0	42	0	0	60	4747
2026-01-09 23:00:21.36	25.05	10.42	-44.2	-46.6	16.2	0.00e+00	0	42	0	0	60	4601
2026-01-09 23:00:24.25	25.23	10.66	-44.0	-46.2	16.5	0.00e+00	0	41	0	0	59	4683
2026-01-09 23:00:27.63	25.43	10.95	-44.0	-46.2	16.5	0.00e+00	0	42	0	0	59	4684
2026-01-09 23:00:30.35	25.60	11.18	-44.0	-46.3	16.4	0.00e+00	0	42	0	0	59	4747
2026-01-09 23:00:33.64	25.80	11.46	-43.9	-46.1	16.6	0.00e+00	0	42	0	0	59	4647
2026-01-09 23:00:36.37	25.98	11.70	-43.7	-45.9	16.8	0.00e+00	0	42	0	0	59	4525
2026-01-09 23:00:39.96	26.21	12.01	-43.7	-45.8	16.9	0.00e+00	0	42	0	0	59	4470
2026-01-09 23:00:42.70	26.39	12.26	-43.7	-45.9	16.9	0.00e+00	0	42	0	0	59	4510
2026-01-09 23:00:45.99	26.61	12.55	-43.6	-45.7	17.0	0.00e+00	0	42	0	0	59	4427
2026-01-09 23:00:48.72	26.80	12.80	-43.7	-45.8	16.9	0.00e+00	0	42	0	0	59	4487
2026-01-09 23:00:52.01	27.02	13.10	-43.5	-45.7	17.1	0.00e+00	0	42	0	0	59	4404
2026-01-09 23:00:54.88	27.23	13.36	-43.5	-45.6	17.2	0.00e+00	0	42	0	0	58	4629
2026-01-09 23:00:58.26	27.47	13.68	-43.4	-45.5	17.3	0.00e+00	0	42	0	0	58	4593
2026-01-09 23:01:00.98	27.67	13.94	-43.5	-45.6	17.2	0.00e+00	0	42	0	0	58	4636
2026-01-09 23:01:04.27	27.91	14.25	-43.4	-45.6	17.2	0.00e+00	0	42	0	0	58	4604
2026-01-09 23:01:07.28	28.14	14.54	-43.4	-45.6	17.2	0.00e+00	0	42	0	0	58	4613
2026-01-09 23:01:10.74	28.41	14.88	-43.5	-45.7	17.2	0.00e+00	0	42	0	0	58	4665
2026-01-09 23:01:13.46	28.63	15.14	-43.6	-45.8	17.0	0.00e+00	0	42	0	0	58	4731
2026-01-09 23:01:16.76	28.89	15.47	-43.8	-45.9	16.9	0.00e+00	0	42	0	0	58	4802
2026-01-09 23:01:19.51	29.12	15.75	-43.7	-45.8	17.0	0.00e+00	0	42	0	0	58	4756
2026-01-09 23:01:22.81	29.39	16.09	-43.9	-46.1	16.8	0.00e+00	0	42	0	0	58	4880
2026-01-09 23:01:25.56	29.63	16.37	-44.0	-46.1	16.8	0.00e+00	0	42	0	0	58	4913
2026-01-09 23:01:28.86	29.92	16.71	-43.8	-45.8	17.1	0.00e+00	0	42	0	0	58	4759
2026-01-09 23:01:31.58	30.16	17.00	-44.0	-46.1	16.9	0.00e+00	0	42	0	0	58	4893
2026-01-09 23:01:35.17	30.48	17.38	-43.9	-46.0	17.0	0.00e+00	0	42	0	0	58	4843
2026-01-09 23:01:38.04	30.75	17.69	-44.0	-46.2	16.8	0.00e+00	0	42	0	0	58	4938
2026-01-09 23:01:41.19	31.05	18.03	-43.9	-46.1	16.9	0.00e+00	0	42	0	0	58	4873
2026-01-09 23:01:44.20	31.34	18.37	-43.9	-46.0	17.0	0.00e+00	0	42	0	0	58	4818
2026-01-09 23:01:47.77	31.69	18.76	-43.8	-45.8	17.1	0.00e+00	0	42	0	0	58	4754
2026-01-09 23:01:50.74	31.99	19.10	-43.5	-45.5	17.4	0.00e+00	0	42	0	0	58	4596
2026-01-09 23:01:54.49	32.38	19.53	-43.4	-45.4	17.5	0.00e+00	0	42	0	0	58	4543
2026-01-09 23:01:57.43	32.69	19.87	-43.2	-45.2	17.7	0.00e+00	0	42	0	0	58	4431
2026-01-09 23:02:01.20	33.10	20.32	-43.0	-45.0	18.0	0.00e+00	0	43	0	0	58	4295
2026-01-09 23:02:04.12	33.43	20.66	-42.8	-44.8	18.1	0.00e+00	0	42	0	0	57	4447
2026-01-09 23:02:07.05	33.76	21.02	-42.8	-44.7	18.1	0.00e+00	0	42	0	0	57	4434
2026-01-09 23:02:10.19	34.13	21.40	-42.6	-44.5	18.4	0.00e+00	0	42	0	0	57	4295
2026-01-09 23:02:13.26	34.50	21.78	-42.5	-44.4	18.5	0.00e+00	0	42	0	0	57	4250
2026-01-09 23:02:16.12	34.85	22.14	-42.5	-44.4	18.5	0.00e+00	0	42	0	0	56	4510
2026-01-09 23:02:19.35	35.25	22.55	-42.4	-44.3	18.6	0.00e+00	0	42	0	0	56	4451
2026-01-09 23:02:22.28	35.63	22.92	-42.3	-44.2	18.7	0.00e+00	0	43	0	0	56	4394
2026-01-09 23:02:25.63	36.07	23.35	-42.3	-44.1	18.7	0.00e+00	0	42	0	0	56	4383
2026-01-09 23:02:28.56	36.46	23.74	-42.3	-44.1	18.8	0.00e+00	0	42	0	0	56	4359
2026-01-09 23:02:31.85	36.92	24.18	-42.4	-44.2	18.7	0.00e+00	0	43	0	0	56	4414
2026-01-09 23:02:34.58	37.30	24.54	-42.4	-44.2	18.7	0.00e+00	0	43	0	0	56	4429
2026-01-09 23:02:37.88	37.78	24.99	-42.5	-44.4	18.6	0.00e+00	0	43	0	0	56	4497
2026-01-09 23:02:40.80	38.22	25.39	-42.7	-44.6	18.4	0.00e+00	0	42	0	0	56	4630
2026-01-09 23:02:44.55	38.80	25.91	-43.1	-45.0	18.0	0.00e+00	0	43	0	0	56	4868
2026-01-09 23:02:47.29	39.23	26.30	-43.0	-44.9	18.1	0.00e+00	0	43	0	0	56	4806
2026-01-09 23:02:50.93	39.82	26.82	-43.1	-45.0	17.9	0.00e+00	0	43	0	0	56	4865
2026-01-09 23:02:53.65	40.27	27.21	-43.1	-45.0	18.0	0.00e+00	0	43	0	0	56	4858
2026-01-09 23:02:56.94	40.84	27.69	-43.1	-45.0	18.0	0.00e+00	0	42	0	0	57	4588
2026-01-09 23:02:59.66	41.32	28.09	-43.1	-45.0	18.0	0.00e+00	0	43	0	0	57	4597
2026-01-09 23:03:02.96	41.91	28.58	-43.3	-45.2	17.8	0.00e+00	0	42	0	0	57	4682
2026-01-09 23:03:05.68	42.42	28.99	-43.2	-45.1	17.9	0.00e+00	0	42	0	0	57	4622
2026-01-09 23:03:08.97	43.05	29.49	-43.3	-45.2	17.8	0.00e+00	0	43	0	0	57	4668
2026-01-09 23:03:11.70	43.59	29.91	-43.1	-45.0	18.0	0.00e+00	0	43	0	0	57	4581
2026-01-09 23:03:15.09	44.27	30.44	-42.9	-44.8	18.2	0.00e+00	0	42	0	0	57	4485
2026-01-09 23:03:17.86	44.85	30.87	-42.9	-44.7	18.3	0.00e+00	0	42	0	0	57	4438
2026-01-09 23:03:21.24	45.58	31.40	-43.0	-44.9	18.1	0.00e+00	0	43	0	0	57	4527
2026-01-09 23:03:23.96	46.18	31.83	-43.2	-45.1	18.0	0.00e+00	0	43	0	0	57	4601
2026-01-09 23:03:27.26	46.93	32.36	-43.5	-45.5	17.6	0.00e+00	0	42	0	0	57	4816
2026-01-09 23:03:29.98	47.56	32.80	-43.6	-45.6	17.4	0.00e+00	0	42	0	0	57	4914
2026-01-09 23:03:33.28	48.36	33.33	-43.9	-45.9	17.2	0.00e+00	0	43	0	0	58	4786
2026-01-09 23:03:36.00	49.03	33.78	-43.9	-45.9	17.2	0.00e+00	0	43	0	0	58	4800
2026-01-09 23:03:39.29	49.88	34.31	-43.8	-45.8	17.3	0.00e+00	0	42	0	0	58	4746
2026-01-09 23:03:42.08	50.61	34.77	-43.8	-45.8	17.2	0.00e+00	0	43	0	0	58	4719
2026-01-09 23:03:45.68	51.59	35.37	-44.0	-46.0	17.1	0.00e+00	0	43	0	0	58	4859
2026-01-09 23:03:48.55	52.40	35.84	-44.5	-46.7	16.5	0.00e+00	0	43	0	0	59	4953
2026-01-09 23:03:51.71	53.31	36.37	-44.7	-46.9	16.4	0.00e+00	0	43	0	0	60	4774
2026-01-09 23:03:54.57	54.17	36.84	-44.8	-47.0	16.2	0.00e+00	0	43	0	0	60	4864
2026-01-09 23:03:57.68	55.12	37.36	-45.0	-47.4	15.9	0.00e+00	0	42	0	0	60	5048
2026-01-09 23:04:00.83	56.12	37.88	-45.1	-47.4	15.8	0.00e+00	0	43	0	0	61	4800
2026-01-09 23:04:03.70	57.06	38.35	-45.0	-47.3	15.9	0.00e+00	0	43	0	0	61	4725
2026-01-09 23:04:06.94	58.16	38.88	-44.7	-46.8	16.4	0.00e+00	0	42	0	0	61	4489
2026-01-09 23:04:09.83	59.16	39.36	-44.4	-46.5	16.7	0.00e+00	0	43	0	0	60	4587
2026-01-09 23:04:13.12	60.34	39.89	-44.5	-46.6	16.7	0.00e+00	0	43	0	0	60	4634
2026-01-09 23:04:15.92	61.38	40.34	-44.6	-46.7	16.6	0.00e+00	0	43	0	0	60	4691
2026-01-09 23:04:19.22	62.63	40.86	-45.3	-47.7	15.6	0.00e+00	0	43	0	0	61	4929
2026-01-09 23:04:22.27	63.83	41.34	-45.4	-47.8	15.5	0.00e+00	0	43	0	0	61	4995
2026-01-09 23:04:25.75	65.24	41.87	-45.1	-47.4	15.9	0.00e+00	0	43	0	0	61	4806
2026-01-09 23:04:28.47	66.37	42.28	-45.1	-47.5	15.9	0.00e+00	0	42	0	0	61	4815
2026-01-09 23:04:31.78	67.79	42.76	-44.9	-47.2	16.1	0.00e+00	0	43	0	0	61	4668
2026-01-09 23:04:34.56	69.01	43.16	-44.9	-47.1	16.2	0.00e+00	0	43	0	0	61	4620
2026-01-09 23:04:37.85	70.50	43.62	-45.3	-47.7	15.6	0.00e+00	0	43	0	0	61	4948
2026-01-09 23:04:40.71	71.83	44.00	-45.5	-48.0	15.3	0.00e+00	0	43	0	0	61	5119
2026-01-09 23:04:43.87	73.33	44.41	-44.9	-47.2	16.1	0.00e+00	0	43	0	0	61	4682
2026-01-09 23:04:46.75	74.73	44.77	-45.2	-47.5	15.9	0.00e+00	0	43	0	0	61	4832
2026-01-09 23:04:50.27	76.49	45.18	-45.4	-47.7	15.6	0.00e+00	0	43	0	0	61	4974
2026-01-09 23:04:52.99	77.88	45.49	-45.3	-47.7	15.7	0.00e+00	0	43	0	0	61	4930
2026-01-09 23:04:56.28	79.59	45.83	-45.2	-47.6	15.7	0.00e+00	0	43	0	0	61	4897
2026-01-09 23:04:59.04	81.05	46.10	-45.2	-47.6	15.7	0.00e+00	0	43	0	0	61	4883
2026-01-09 23:05:02.33	82.83	46.40	-45.5	-48.1	15.3	0.00e+00	0	43	0	0	61	5166
2026-01-09 23:05:05.06	84.33	46.62	-45.5	-48.1	15.0	0.00e+00	0	43	0	0	61	5200
2026-01-09 23:05:08.35	86.17	46.87	-45.0	-47.3	15.9	0.00e+00	0	43	0	0	61	4751
2026-01-09 23:05:11.08	87.71	47.05	-45.0	-47.4	15.8	0.00e+00	0	42	0	0	61	4785
2026-01-09 23:05:14.64	89.75	47.25	-44.5	-46.6	16.5	0.00e+00	0	43	0	0	60	4647
2026-01-09 23:05:17.36	91.32	47.38	-45.1	-47.4	15.9	0.00e+00	0	43	0	0	60	5058
2026-01-09 23:05:20.65	93.24	47.50	-44.6	-46.8	16.5	0.00e+00	0	43	0	0	60	4721
2026-01-09 23:05:23.38	94.85	47.58	-44.9	-47.1	16.1	0.00e+00	0	43	0	0	60	4925
2026-01-09 23:05:26.69	96.80	47.64	-44.9	-47.1	16.1	0.00e+00	0	43	0	0	61	4649
2026-01-09 23:05:29.67	98.56	47.66	-45.2	-47.6	15.6	0.00e+00	0	43	0	0	61	4895
2026-01-09 23:05:32.97	100.51	47.66	-45.2	-47.5	15.7	0.00e+00	0	43	0	0	61	4851
2026-01-09 23:05:35.76	102.16	47.63	-45.0	-47.4	15.9	0.00e+00	0	43	0	0	61	4771
2026-01-09 23:05:39.16	104.17	47.55	-45.4	-47.9	15.5	0.00e+00	0	43	0	0	61	5057
2026-01-09 23:05:41.89	105.77	47.47	-45.7	-48.2	15.1	0.00e+00	0	43	0	0	62	4967
2026-01-09 23:05:45.28	107.74	47.33	-45.2	-47.6	15.7	0.00e+00	0	43	0	0	62	4616
2026-01-09 23:05:48.00	109.31	47.19	-45.2	-47.5	15.8	0.00e+00	0	43	0	0	61	4842
2026-01-09 23:05:51.30	111.19	46.99	-45.2	-47.6	15.7	0.00e+00	0	43	0	0	61	4906
2026-01-09 23:05:54.01	112.72	46.81	-45.2	-47.5	15.8	0.00e+00	0	43	0	0	61	4843
2026-01-09 23:05:57.21	114.50	46.56	-45.7	-48.2	15.1	0.00e+00	0	43	0	0	62	4954
2026-01-09 23:06:00.57	116.34	46.27	-44.8	-47.1	16.2	0.00e+00	0	43	0	0	61	4607
2026-01-09 23:06:03.30	117.81	46.02	-45.4	-47.8	15.5	0.00e+00	0	43	0	0	61	5009
2026-01-09 23:06:06.59	119.55	45.69	-44.6	-46.8	16.4	0.00e+00	0	43	0	0	61	4491
2026-01-09 23:06:09.32	120.96	45.39	-44.5	-46.7	16.5	0.00e+00	0	43	0	0	60	4691
2026-01-09 23:06:12.88	122.77	44.99	-44.9	-47.1	16.1	0.00e+00	0	43	0	0	61	4634
2026-01-09 23:06:15.60	124.12	44.66	-44.6	-46.8	16.4	0.00e+00	0	43	0	0	60	4719
2026-01-09 23:06:19.14	125.83	44.21	-44.8	-47.1	16.1	0.00e+00	0	43	0	0	60	4887
2026-01-09 23:06:22.20	127.27	43.80	-45.0	-47.3	15.8	0.00e+00	0	43	0	0	60	5035
2026-01-09 23:06:25.12	128.61	43.40	-45.6	-48.0	15.2	0.00e+00	0	43	0	0	61	5124
2026-01-09 23:06:28.20	129.99	42.97	-45.7	-48.2	15.0	0.00e+00	0	43	0	0	62	4957
2026-01-09 23:06:31.11	131.26	42.54	-45.5	-48.0	15.3	0.00e+00	0	43	0	0	62	4829
2026-01-09 23:06:34.27	132.60	42.07	-45.2	-47.6	15.7	0.00e+00	0	43	0	0	62	4599
2026-01-09 23:06:37.13	133.78	41.64	-45.1	-47.4	15.9	0.00e+00	0	43	0	0	62	4544
2026-01-09 23:06:40.68	135.20	41.09	-44.5	-46.7	16.5	0.00e+00	0	43	0	0	61	4414
2026-01-09 23:06:43.49	136.29	40.64	-44.6	-46.7	16.5	0.00e+00	0	43	0	0	60	4701
2026-01-09 23:06:46.55	137.45	40.15	-44.9	-47.1	16.0	0.00e+00	0	43	0	0	60	4925
2026-01-09 23:06:49.70	138.60	39.64	-45.0	-47.2	16.0	0.00e+00	0	43	0	0	60	4979
2026-01-09 23:06:52.86	139.72	39.13	-45.5	-48.0	15.3	0.00e+00	0	43	0	0	61	5103
2026-01-09 23:06:55.76	140.72	38.65	-45.0	-47.3	16.0	0.00e+00	0	43	0	0	61	4708
2026-01-09 23:06:59.02	141.81	38.11	-44.2	-46.3	16.8	0.00e+00	0	43	0	0	60	4448
2026-01-09 23:07:01.89	142.74	37.63	-44.1	-46.2	17.0	0.00e+00	0	43	0	0	60	4441
2026-01-09 23:07:05.12	143.76	37.09	-44.0	-46.0	17.1	0.00e+00	0	43	0	0	59	4584
2026-01-09 23:07:07.98	144.63	36.62	-43.9	-45.9	17.2	0.00e+00	0	43	0	0	59	4517
2026-01-09 23:07:11.13	145.56	36.09	-43.9	-45.9	17.2	0.00e+00	0	43	0	0	59	4545
2026-01-09 23:07:14.00	146.38	35.61	-44.3	-46.4	16.8	0.00e+00	0	43	0	0	59	4773
2026-01-09 23:07:17.20	147.27	35.08	-44.5	-46.6	16.5	0.00e+00	0	43	0	0	59	4925
2026-01-09 23:07:20.36	148.12	34.56	-43.9	-46.0	17.0	0.00e+00	0	43	0	0	59	4568
2026-01-09 23:07:23.26	148.88	34.08	-44.2	-46.3	16.8	0.00e+00	0	43	0	0	59	4742
2026-01-09 23:07:26.41	149.68	33.56	-44.2	-46.4	16.8	0.00e+00	0	43	0	0	59	4764
2026-01-09 23:07:29.34	150.40	33.08	-44.0	-46.1	17.0	0.00e+00	0	43	0	0	59	4602
2026-01-09 23:07:32.63	151.19	32.54	-43.6	-45.7	17.4	0.00e+00	0	43	0	0	59	4404
2026-01-09 23:07:35.35	151.82	32.10	-43.4	-45.4	17.6	0.00e+00	0	43	0	0	58	4500
2026-01-09 23:07:38.65	152.56	31.57	-43.4	-45.4	17.5	0.00e+00	0	43	0	0	58	4519
2026-01-09 23:07:41.66	153.22	31.10	-43.2	-45.2	17.8	0.00e+00	0	43	0	0	58	4396
2026-01-09 23:07:45.46	154.02	30.50	-42.6	-44.5	18.4	0.00e+00	0	43	0	0	57	4297
2026-01-09 23:07:48.22	154.59	30.06	-42.6	-44.5	18.4	0.00e+00	0	43	0	0	57	4307
2026-01-09 23:07:52.01	155.34	29.48	-42.8	-44.8	18.2	0.00e+00	0	43	0	0	57	4449
2026-01-09 23:07:55.09	155.94	29.01	-42.9	-44.8	18.2	0.00e+00	0	43	0	0	57	4459
2026-01-09 23:07:58.24	156.53	28.53	-42.6	-44.5	18.5	0.00e+00	0	43	0	0	57	4296
2026-01-09 23:08:01.17	157.06	28.09	-42.8	-44.7	18.2	0.00e+00	0	43	0	0	57	4425
2026-01-09 23:08:04.32	157.62	27.62	-42.9	-44.8	18.2	0.00e+00	0	43	0	0	57	4457
2026-01-09 23:08:07.25	158.12	27.19	-42.6	-44.4	18.5	0.00e+00	0	43	0	0	57	4280
2026-01-09 23:08:10.55	158.67	26.71	-42.5	-44.3	18.5	0.00e+00	0	43	0	0	56	4477
2026-01-09 23:08:13.27	159.12	26.32	-42.5	-44.4	18.5	0.00e+00	0	43	0	0	56	4506
2026-01-09 23:08:16.57	159.64	25.85	-42.5	-44.4	18.5	0.00e+00	0	43	0	0	56	4506
2026-01-09 23:08:19.29	160.06	25.47	-42.3	-44.1	18.7	0.00e+00	0	43	0	0	56	4372
2026-01-09 23:08:22.59	160.56	25.01	-42.4	-44.2	18.6	0.00e+00	0	43	0	0	56	4413
2026-01-09 23:08:25.58	161.00	24.60	-42.5	-44.4	18.5	0.00e+00	0	43	0	0	56	4502
2026-01-09 23:08:28.87	161.47	24.15	-42.7	-44.6	18.3	0.00e+00	0	43	0	0	56	4599
2026-01-09 23:08:31.59	161.85	23.79	-42.7	-44.6	18.3	0.00e+00	0	43	0	0	56	4629
2026-01-09 23:08:34.89	162.29	23.35	-42.9	-44.9	18.0	0.00e+00	0	43	0	0	56	4780
2026-01-09 23:08:37.62	162.66	22.99	-43.2	-45.2	17.6	0.00e+00	0	43	0	0	57	4661
2026-01-09 23:08:40.91	163.08	22.57	-43.2	-45.2	17.6	0.00e+00	0	43	0	0	57	4687
2026-01-09 23:08:43.86	163.46	22.19	-43.0	-45.0	17.8	0.00e+00	0	43	0	0	57	4573
2026-01-09 23:08:47.50	163.90	21.73	-42.7	-44.6	18.2	0.00e+00	0	43	0	0	57	4352
2026-01-09 23:08:50.43	164.25	21.37	-42.7	-44.6	18.1	0.00e+00	0	43	0	0	57	4353
2026-01-09 23:08:54.19	164.69	20.90	-42.8	-44.7	18.0	0.00e+00	0	43	0	0	57	4436
2026-01-09 23:08:56.94	165.01	20.57	-42.8	-44.7	18.0	0.00e+00	0	43	0	0	57	4440
2026-01-09 23:09:01.07	165.47	20.07	-42.8	-44.7	18.1	0.00e+00	0	43	0	0	57	4423
2026-01-09 23:09:03.80	165.76	19.75	-43.0	-44.9	17.9	0.00e+00	0	43	0	0	57	4540
2026-01-09 23:09:07.58	166.16	19.31	-43.0	-45.0	17.7	0.00e+00	0	43	0	0	57	4592
2026-01-09 23:09:10.30	166.44	19.00	-42.9	-44.9	17.8	0.00e+00	0	43	0	0	57	4540
2026-01-09 23:09:14.10	166.82	18.56	-42.9	-45.0	17.7	0.00e+00	0	43	0	0	57	4556
2026-01-09 23:09:17.55	167.16	18.18	-42.8	-44.8	17.8	0.00e+00	0	43	0	0	57	4486
2026-01-09 23:09:20.27	167.42	17.88	-42.8	-44.7	17.9	0.00e+00	0	43	0	0	57	4425
2026-01-09 23:09:23.57	167.73	17.51	-42.6	-44.5	18.1	0.00e+00	0	43	0	0	57	4335
2026-01-09 23:09:26.29	167.98	17.22	-42.6	-44.5	18.1	0.00e+00	0	43	0	0	57	4328
2026-01-09 23:09:29.77	168.30	16.85	-42.7	-44.6	18.1	0.00e+00	0	43	0	0	57	4381
2026-01-09 23:09:32.49	168.54	16.56	-42.8	-44.8	17.9	0.00e+00	0	43	0	0	57	4447
2026-01-09 23:09:35.79	168.82	16.21	-43.0	-45.0	17.7	0.00e+00	0	43	0	0	57	4567
2026-01-09 23:09:38.51	169.06	15.93	-43.2	-45.2	17.4	0.00e+00	0	43	0	0	57	4705
2026-01-09 23:09:41.81	169.33	15.59	-43.4	-45.5	17.2	0.00e+00	0	43	0	0	57	4828
2026-01-09 23:09:44.53	169.55	15.32	-43.4	-45.6	17.1	0.00e+00	0	43	0	0	57	4881
2026-01-09 23:09:47.83	169.82	14.99	-43.4	-45.6	17.0	0.00e+00	0	43	0	0	57	4906
2026-01-09 23:09:50.55	170.03	14.72	-43.4	-45.6	17.0	0.00e+00	0	43	0	0	57	4923
2026-01-09 23:09:54.15	170.31	14.37	-43.4	-45.7	16.9	0.00e+00	0	43	0	0	57	4978
2026-01-09 23:09:57.29	170.54	14.06	-43.6	-45.9	16.7	0.00e+00	0	43	0	0	57	5093
2026-01-09 23:10:00.18	170.76	13.78	-43.6	-45.9	16.7	0.00e+00	0	43	0	0	57	5074
2026-01-09 23:10:03.34	170.98	13.49	-43.7	-46.0	16.6	0.00e+00	0	43	0	0	58	4823
2026-01-09 23:10:06.33	171.20	13.20	-43.8	-46.0	16.5	0.00e+00	0	43	0	0	58	4865
2026-01-09 23:10:09.67	171.43	12.90	-43.8	-46.1	16.5	0.00e+00	0	43	0	0	58	4871
2026-01-09 23:10:12.39	171.62	12.65	-43.8	-46.1	16.4	0.00e+00	0	43	0	0	58	4889
2026-01-09 23:10:15.69	171.84	12.35	-44.0	-46.3	16.3	0.00e+00	0	43	0	0	58	4987
2026-01-09 23:10:18.41	172.02	12.10	-43.8	-46.1	16.4	0.00e+00	0	43	0	0	58	4895
2026-01-09 23:10:21.79	172.24	11.80	-43.8	-46.2	16.3	0.00e+00	0	43	0	0	58	4947
2026-01-09 23:10:24.51	172.41	11.56	-43.8	-46.3	16.2	0.00e+00	0	43	0	0	58	5022
2026-01-09 23:10:27.80	172.62	11.27	-43.6	-46.3	16.2	0.00e+00	0	43	0	0	58	5000
2026-01-09 23:10:30.52	172.79	11.04	-43.5	-46.2	16.3	0.00e+00	0	43	0	0	58	4946
2026-01-09 23:10:33.77	172.99	10.76	-43.6	-46.3	16.2	0.00e+00	0	43	0	0	58	4991
2026-01-09 23:10:36.64	173.16	10.52	-43.6	-46.2	16.2	0.00e+00	0	43	0	0	58	4958
2026-01-09 23:10:39.82	173.34	10.25	-43.5	-46.1	16.3	0.00e+00	0	43	0	0	58	4923
2026-01-09 23:10:42.69	173.51	10.01	-43.6	-46.2	16.2	0.00e+00	0	43	0	0	58	4975
2026-01-09 23:10:45.84	173.69	9.75	-43.7	-46.4	16.0	0.00e+00	0	43	0	0	58	5100
2026-01-09 23:10:48.80	173.86	9.51	-43.7	-46.6	15.8	0.00e+00	0	43	0	0	58	5168
2026-01-09 23:10:52.10	174.04	9.24	-43.7	-46.7	15.7	0.00e+00	0	43	0	0	58	5239
2026-01-09 23:10:55.01	174.19	9.01	-43.7	-46.7	15.7	0.00e+00	0	43	0	0	58	5266
2026-01-09 23:10:58.02	174.36	8.77	-50.9	-64.1	3.8	1.49e+00	0	43	104	0	72	17377
2026-01-09 23:11:01.03	174.51	8.53	-51.1	-64.3	3.8	1.49e+00	0	43	104	0	72	17698
2026-01-09 23:11:04.04	174.67	8.29	-51.4	-64.4	3.8	1.49e+00	0	43	104	0	73	16925
2026-01-09 23:11:07.06	174.82	8.06	-51.5	-64.5	3.8	1.49e+00	0	43	104	0	73	17087
2026-01-09 23:11:10.07	174.97	7.83	-51.5	-64.5	3.8	1.49e+00	0	43	104	0	73	17176
2026-01-09 23:11:13.08	175.12	7.60	-51.6	-64.5	3.8	1.49e+00	0	43	104	0	73	17148
2026-01-09 23:11:16.10	175.27	7.37	-51.7	-64.5	3.8	1.49e+00	0	43	104	0	73	17223
2026-01-09 23:11:19.11	175.42	7.15	-51.5	-64.5	3.8	1.49e+00	0	43	104	0	73	17228
2026-01-09 23:11:22.51	175.58	6.89	-51.4	-64.5	3.8	1.49e+00	0	43	104	0	73	17166
2026-01-09 23:11:25.44	175.71	6.68	-51.4	-64.5	3.8	1.49e+00	0	43	104	0	73	17105
2026-01-09 23:11:29.19	175.88	6.40	-51.4	-64.5	3.8	1.49e+00	0	43	104	0	73	17120
2026-01-09 23:11:31.93	176.01	6.21	-51.4	-64.5	3.8	1.49e+00	0	43	104	0	73	17131
2026-01-09 23:11:35.66	176.17	5.94	-51.4	-64.5	3.8	1.49e+00	0	43	104	0	73	17105
2026-01-09 23:11:38.40	176.29	5.74	-51.4	-64.5	3.8	1.49e+00	0	43	104	0	73	17121
2026-01-09 23:11:42.15	176.46	5.48	-51.4	-64.5	3.8	1.49e+00	0	43	104	0	73	17150
2026-01-09 23:11:44.92	176.58	5.28	-51.4	-64.5	3.8	1.49e+00	0	43	104	0	73	17123
2026-01-09 23:11:48.65	176.73	5.03	-51.4	-64.4	3.8	1.49e+00	0	43	104	0	73	17069

#Closed at: 2026-01-09 23:11:50
#Recorded file [0 MB]: D:/Data/31040_260110_015908.dat