passes_logs/2025/01/08/LEX_Murmansk/LEX_Murmansk__20250108_070830_NOAA_19_rec.log

#Pass ID: 20250108_070830_NOAA 19
#Satellite: NOAA 19
#Configuration: NOAA 19
#Start time: 2025-01-08 07:08:25.369430

#LorettStation: 1.0.0 05.05.2024
#Station: LEX_Murmansk
#Location: 33.156738 lon 68.926811 lat
#TLE: 1 33591U 09005A   25007.78273938  .00000347  00000+0  20907-3 0  9990
#TLE: 2 33591  99.0209  71.4889 0014647  76.7831 283.4973 14.13254046820526

#Time	Az	El	Level	SNR
2025-01-08 07:08:37.567579	36.5	16.1	-92.4	4.1
2025-01-08 07:08:38.730533	36.7	16.2	-91.5	3.2
2025-01-08 07:08:39.890142	36.8	16.3	-92.5	3.5
2025-01-08 07:08:41.053646	37.0	16.4	-92.2	3.3
2025-01-08 07:08:42.213346	37.1	16.5	-92.1	1.8
2025-01-08 07:08:43.379516	37.3	16.6	-92.0	2.2
2025-01-08 07:08:44.545578	37.4	16.7	-92.0	1.5
2025-01-08 07:08:45.710758	37.6	16.8	-92.0	0.1
2025-01-08 07:08:46.872549	37.8	16.9	-92.3	4.4
2025-01-08 07:08:48.034519	37.9	17.0	-90.0	3.5
2025-01-08 07:08:49.199537	38.1	17.1	-91.8	0.5
2025-01-08 07:08:50.353967	38.2	17.2	-92.0	2.1
2025-01-08 07:08:51.522450	38.4	17.3	-91.3	2.4
2025-01-08 07:08:52.686683	38.6	17.4	-91.5	0.0
2025-01-08 07:08:53.854422	38.7	17.5	-91.3	1.1
2025-01-08 07:08:55.016540	38.9	17.6	-91.2	1.2
2025-01-08 07:08:56.181612	39.1	17.7	-90.3	1.3
2025-01-08 07:08:57.442044	39.3	17.8	-91.4	2.6
2025-01-08 07:08:58.597708	39.4	17.9	-91.2	3.3
2025-01-08 07:08:59.730782	39.6	18.1	-91.2	5.3
2025-01-08 07:09:00.850850	39.8	18.2	-91.3	2.9
2025-01-08 07:09:01.971212	39.9	18.3	-91.3	3.7
2025-01-08 07:09:03.093641	40.1	18.4	-89.4	5.9
2025-01-08 07:09:04.215125	40.3	18.5	-90.8	8.4
2025-01-08 07:09:05.337478	40.4	18.6	-91.0	4.3
2025-01-08 07:09:06.458057	40.6	18.7	-91.4	3.6
2025-01-08 07:09:07.580523	40.8	18.8	-91.5	4.8
2025-01-08 07:09:08.712772	41.0	18.9	-92.8	1.6
2025-01-08 07:09:09.866060	41.1	19.0	-92.3	3.1
2025-01-08 07:09:11.019394	41.3	19.1	-91.9	3.4
2025-01-08 07:09:12.191377	41.5	19.2	-92.2	3.4
2025-01-08 07:09:13.343322	41.7	19.3	-91.9	5.7
2025-01-08 07:09:14.503645	41.9	19.4	-91.2	4.6
2025-01-08 07:09:15.645084	42.1	19.5	-92.3	8.9
2025-01-08 07:09:16.784248	42.3	19.6	-92.2	5.9
2025-01-08 07:09:17.943525	42.5	19.7	-92.4	6.1
2025-01-08 07:09:19.090582	42.6	19.9	-92.0	8.0
2025-01-08 07:09:20.242525	42.8	20.0	-92.2	4.1
2025-01-08 07:09:21.390346	43.0	20.1	-92.1	5.7
2025-01-08 07:09:22.542431	43.2	20.2	-92.3	7.1
2025-01-08 07:09:23.707369	43.4	20.3	-91.1	7.5
2025-01-08 07:09:24.867268	43.6	20.4	-91.9	9.8
2025-01-08 07:09:26.032283	43.8	20.5	-90.3	5.3
2025-01-08 07:09:27.195977	44.0	20.6	-92.2	3.3
2025-01-08 07:09:28.355476	44.2	20.7	-91.6	2.1
2025-01-08 07:09:29.518885	44.4	20.8	-91.7	3.4
2025-01-08 07:09:30.680458	44.6	21.0	-92.6	4.2
2025-01-08 07:09:31.849691	44.8	21.1	-92.4	3.4
2025-01-08 07:09:33.011082	45.1	21.2	-92.6	6.3
2025-01-08 07:09:34.179724	45.3	21.3	-92.3	8.0
2025-01-08 07:09:35.344491	45.5	21.4	-92.2	12.0
2025-01-08 07:09:36.507426	45.7	21.5	-92.3	11.6
2025-01-08 07:09:37.671993	45.9	21.6	-91.6	8.4
2025-01-08 07:09:38.828457	46.1	21.7	-92.3	5.5
2025-01-08 07:09:39.988955	46.3	21.9	-92.7	8.4
2025-01-08 07:09:41.147080	46.6	22.0	-92.3	7.7
2025-01-08 07:09:42.312211	46.8	22.1	-92.1	6.5
2025-01-08 07:09:43.482867	47.0	22.2	-92.2	9.9
2025-01-08 07:09:44.639500	47.2	22.3	-92.4	13.2
2025-01-08 07:09:45.803102	47.5	22.4	-92.1	12.4
2025-01-08 07:09:46.970395	47.7	22.5	-90.6	10.4
2025-01-08 07:09:48.129204	47.9	22.6	-92.2	6.8
2025-01-08 07:09:49.288618	48.1	22.8	-92.1	3.9
2025-01-08 07:09:50.450565	48.4	22.9	-92.5	4.4
2025-01-08 07:09:51.607430	48.6	23.0	-91.5	2.7
2025-01-08 07:09:52.778010	48.8	23.1	-91.4	2.9
2025-01-08 07:09:53.937854	49.1	23.2	-91.5	6.0
2025-01-08 07:09:55.105664	49.3	23.3	-90.8	7.4
2025-01-08 07:09:56.269605	49.6	23.4	-91.0	7.6
2025-01-08 07:09:57.434381	49.8	23.5	-91.2	11.6
2025-01-08 07:09:58.592537	50.0	23.7	-92.3	10.0
2025-01-08 07:09:59.757801	50.3	23.8	-91.8	6.4
2025-01-08 07:10:00.907270	50.5	23.9	-92.4	7.3
2025-01-08 07:10:02.077269	50.8	24.0	-92.0	7.6
2025-01-08 07:10:03.247531	51.0	24.1	-92.0	4.1
2025-01-08 07:10:04.411424	51.3	24.2	-91.8	8.0
2025-01-08 07:10:05.576317	51.5	24.3	-90.7	6.2
2025-01-08 07:10:06.731830	51.8	24.4	-92.0	9.9
2025-01-08 07:10:07.897381	52.1	24.5	-91.7	9.9
2025-01-08 07:10:09.057677	52.3	24.7	-91.2	5.9
2025-01-08 07:10:10.226989	52.6	24.8	-91.6	5.8
2025-01-08 07:10:11.391909	52.8	24.9	-92.4	5.4
2025-01-08 07:10:12.560641	53.1	25.0	-92.4	3.0
2025-01-08 07:10:13.725983	53.4	25.1	-90.0	0.9
2025-01-08 07:10:14.890576	53.7	25.2	-91.1	3.5
2025-01-08 07:10:16.054731	53.9	25.3	-91.4	3.3
2025-01-08 07:10:17.217261	54.2	25.4	-91.7	4.9
2025-01-08 07:10:18.377448	54.5	25.6	-92.2	6.2
2025-01-08 07:10:19.531855	54.7	25.7	-92.2	10.4
2025-01-08 07:10:20.698328	55.0	25.8	-91.9	13.8
2025-01-08 07:10:21.858210	55.3	25.9	-92.4	10.8
2025-01-08 07:10:23.019100	55.6	26.0	-92.5	6.7
2025-01-08 07:10:24.183029	55.9	26.1	-92.0	3.4
2025-01-08 07:10:25.348125	56.2	26.2	-92.0	2.8
2025-01-08 07:10:26.511602	56.4	26.3	-92.3	5.3
2025-01-08 07:10:27.671739	56.7	26.4	-92.3	3.9
2025-01-08 07:10:28.827967	57.0	26.5	-92.3	5.6
2025-01-08 07:10:29.987340	57.3	26.6	-92.3	8.9
2025-01-08 07:10:31.150254	57.6	26.7	-92.0	7.9
2025-01-08 07:10:32.311552	57.9	26.9	-92.2	7.4
2025-01-08 07:10:33.479729	58.2	27.0	-92.5	4.9
2025-01-08 07:10:34.643017	58.5	27.1	-92.4	1.5
2025-01-08 07:10:35.809082	58.8	27.2	-92.5	0.9
2025-01-08 07:10:36.968220	59.1	27.3	-91.9	2.9
2025-01-08 07:10:38.131824	59.4	27.4	-92.0	1.9
2025-01-08 07:10:39.289855	59.7	27.5	-92.2	2.8
2025-01-08 07:10:40.453867	60.0	27.6	-92.6	2.4
2025-01-08 07:10:41.618700	60.4	27.7	-92.4	2.2
2025-01-08 07:10:42.787674	60.7	27.8	-92.7	4.2
2025-01-08 07:10:43.954235	61.0	27.9	-92.2	3.7
2025-01-08 07:10:45.121138	61.3	28.0	-92.3	3.5
2025-01-08 07:10:46.286785	61.6	28.1	-92.1	3.9
2025-01-08 07:10:47.449766	62.0	28.2	-92.4	3.3
2025-01-08 07:10:48.616091	62.3	28.3	-92.3	5.1
2025-01-08 07:10:49.775709	62.6	28.4	-92.3	3.7
2025-01-08 07:10:50.938462	62.9	28.5	-91.6	3.7
2025-01-08 07:10:52.094664	63.3	28.6	-92.3	1.9
2025-01-08 07:10:53.259263	63.6	28.7	-91.9	3.5
2025-01-08 07:10:54.426868	63.9	28.8	-91.2	2.3
2025-01-08 07:10:55.591433	64.3	28.9	-92.5	6.2
2025-01-08 07:10:56.757637	64.6	29.0	-91.6	6.6
2025-01-08 07:10:57.922361	65.0	29.1	-91.4	9.6
2025-01-08 07:10:59.077897	65.3	29.2	-90.8	10.1
2025-01-08 07:11:00.237556	65.6	29.3	-90.9	7.1
2025-01-08 07:11:01.391816	66.0	29.3	-91.1	8.0
2025-01-08 07:11:02.557326	66.3	29.4	-91.3	6.4
2025-01-08 07:11:03.725066	66.7	29.5	-92.4	5.8
2025-01-08 07:11:04.885074	67.0	29.6	-92.6	3.8
2025-01-08 07:11:06.050135	67.4	29.7	-92.3	3.0
2025-01-08 07:11:07.181051	67.7	29.8	-91.1	1.5
2025-01-08 07:11:08.301915	68.1	29.9	-91.0	4.2
2025-01-08 07:11:09.423961	68.4	30.0	-89.1	1.9
2025-01-08 07:11:10.544961	68.8	30.0	-89.7	3.9
2025-01-08 07:11:11.666084	69.1	30.1	-87.9	3.6
2025-01-08 07:11:12.787376	69.5	30.2	-88.2	3.8
2025-01-08 07:11:13.908943	69.8	30.3	-89.4	8.5
2025-01-08 07:11:15.034501	70.2	30.4	-89.2	8.4
2025-01-08 07:11:16.169383	70.6	30.4	-89.5	11.0
2025-01-08 07:11:17.330980	70.9	30.5	-88.5	10.6
2025-01-08 07:11:18.486600	71.3	30.6	-85.4	7.2
2025-01-08 07:11:19.641538	71.7	30.7	-83.4	4.5
2025-01-08 07:11:20.806445	72.0	30.7	-84.6	5.4
2025-01-08 07:11:21.970192	72.4	30.8	-86.1	6.3
2025-01-08 07:11:23.127838	72.8	30.9	-88.7	8.0
2025-01-08 07:11:24.290333	73.2	31.0	-87.4	3.0
2025-01-08 07:11:25.451526	73.6	31.0	-90.7	6.1
2025-01-08 07:11:26.615824	74.0	31.1	-88.0	5.6
2025-01-08 07:11:27.777960	74.3	31.2	-89.1	5.7
2025-01-08 07:11:28.942200	74.7	31.2	-82.8	5.7
2025-01-08 07:11:30.103595	75.1	31.3	-83.0	5.8
2025-01-08 07:11:31.268236	75.5	31.4	-88.4	10.0
2025-01-08 07:11:32.433047	75.9	31.4	-90.4	15.3
2025-01-08 07:11:33.597883	76.3	31.5	-91.3	15.8
2025-01-08 07:11:34.762834	76.7	31.6	-91.5	14.9
2025-01-08 07:11:35.926461	77.1	31.6	-91.0	12.4
2025-01-08 07:11:37.088922	77.5	31.7	-91.0	13.6
2025-01-08 07:11:38.252097	77.9	31.7	-90.6	10.8
2025-01-08 07:11:39.400494	78.3	31.8	-91.0	9.2
2025-01-08 07:11:40.561099	78.7	31.8	-91.4	5.9
2025-01-08 07:11:41.727931	79.1	31.9	-92.2	4.3
2025-01-08 07:11:42.868505	79.5	31.9	-92.5	4.1
2025-01-08 07:11:44.012565	79.9	32.0	-92.2	6.7
2025-01-08 07:11:45.170508	80.3	32.0	-92.1	4.1
2025-01-08 07:11:46.334696	80.7	32.1	-92.3	5.1
2025-01-08 07:11:47.492910	81.1	32.1	-92.4	7.9
2025-01-08 07:11:48.652341	81.5	32.2	-90.2	6.9
2025-01-08 07:11:49.814601	82.0	32.2	-92.4	5.6
2025-01-08 07:11:50.980271	82.4	32.2	-92.8	11.4
2025-01-08 07:11:52.144472	82.8	32.3	-92.2	11.2
2025-01-08 07:11:53.309056	83.2	32.3	-92.0	10.6
2025-01-08 07:11:54.467562	83.6	32.4	-92.5	14.4
2025-01-08 07:11:55.630981	84.0	32.4	-92.4	15.2
2025-01-08 07:11:56.759485	84.4	32.4	-92.2	15.4
2025-01-08 07:11:57.879920	84.9	32.4	-92.5	14.5
2025-01-08 07:11:58.999535	85.3	32.5	-92.3	14.5
2025-01-08 07:12:00.121034	85.7	32.5	-92.0	13.6
2025-01-08 07:12:01.241945	86.1	32.5	-91.9	12.4
2025-01-08 07:12:02.362589	86.5	32.6	-91.3	12.5
2025-01-08 07:12:03.484630	86.9	32.6	-91.7	13.8
2025-01-08 07:12:04.609889	87.3	32.6	-92.3	11.2
2025-01-08 07:12:05.740902	87.7	32.6	-92.6	10.3
2025-01-08 07:12:06.901640	88.1	32.6	-92.6	10.7
2025-01-08 07:12:08.062386	88.5	32.6	-92.2	10.3
2025-01-08 07:12:09.215933	89.0	32.7	-92.4	6.3
2025-01-08 07:12:10.379262	89.4	32.7	-92.1	5.2
2025-01-08 07:12:11.543055	89.8	32.7	-92.4	8.4
2025-01-08 07:12:12.708658	90.2	32.7	-92.1	7.0
2025-01-08 07:12:13.872006	90.7	32.7	-92.2	3.2
2025-01-08 07:12:15.036054	91.1	32.7	-92.3	7.4
2025-01-08 07:12:16.199251	91.5	32.7	-92.3	6.2
2025-01-08 07:12:17.366127	92.0	32.7	-91.0	6.6
2025-01-08 07:12:18.519255	92.4	32.7	-91.8	11.3
2025-01-08 07:12:19.662740	92.8	32.7	-92.1	8.9
2025-01-08 07:12:20.787710	93.2	32.7	-91.6	6.9
2025-01-08 07:12:21.944634	93.6	32.7	-92.1	9.2
2025-01-08 07:12:23.097541	94.1	32.7	-90.4	8.2
2025-01-08 07:12:24.244743	94.5	32.7	-91.6	8.1
2025-01-08 07:12:25.399298	94.9	32.7	-91.7	12.8
2025-01-08 07:12:26.573349	95.3	32.7	-91.7	11.6
2025-01-08 07:12:27.727520	95.7	32.6	-92.4	14.6
2025-01-08 07:12:28.888639	96.2	32.6	-91.6	13.9
2025-01-08 07:12:30.048377	96.6	32.6	-92.3	14.6
2025-01-08 07:12:31.208811	97.0	32.6	-92.1	16.0
2025-01-08 07:12:32.370332	97.4	32.6	-91.9	16.4
2025-01-08 07:12:33.528710	97.9	32.6	-92.7	18.1
2025-01-08 07:12:34.685247	98.3	32.5	-92.6	17.9
2025-01-08 07:12:35.851157	98.7	32.5	-91.7	16.5
2025-01-08 07:12:37.006938	99.1	32.5	-92.4	18.4
2025-01-08 07:12:38.165073	99.5	32.5	-92.4	17.7
2025-01-08 07:12:39.302373	100.0	32.4	-91.0	16.2
2025-01-08 07:12:40.441694	100.4	32.4	-92.5	17.2
2025-01-08 07:12:41.594339	100.8	32.4	-91.7	15.6
2025-01-08 07:12:42.738599	101.2	32.3	-91.5	12.4
2025-01-08 07:12:43.894572	101.6	32.3	-91.4	14.4
2025-01-08 07:12:45.051998	102.0	32.3	-92.1	16.5
2025-01-08 07:12:46.205368	102.4	32.2	-92.2	15.6
2025-01-08 07:12:47.370733	102.8	32.2	-91.9	13.9
2025-01-08 07:12:48.527503	103.2	32.1	-92.5	13.5
2025-01-08 07:12:49.686452	103.7	32.1	-92.4	11.8
2025-01-08 07:12:50.841793	104.1	32.0	-92.5	12.3
2025-01-08 07:12:52.006313	104.5	32.0	-92.5	13.5
2025-01-08 07:12:53.167654	104.9	31.9	-92.0	9.6
2025-01-08 07:12:54.331388	105.3	31.9	-91.8	9.2
2025-01-08 07:12:55.495961	105.7	31.8	-92.2	10.8
2025-01-08 07:12:56.668023	106.1	31.8	-92.7	15.1
2025-01-08 07:12:57.837426	106.5	31.7	-92.8	14.9
2025-01-08 07:12:58.998996	106.9	31.7	-92.5	7.7
2025-01-08 07:13:00.154143	107.3	31.6	-92.3	11.9
2025-01-08 07:13:01.297366	107.7	31.6	-91.1	13.5
2025-01-08 07:13:02.464248	108.1	31.5	-92.3	7.9
2025-01-08 07:13:03.625462	108.5	31.4	-91.9	8.8
2025-01-08 07:13:04.785740	108.9	31.4	-92.7	11.2
2025-01-08 07:13:05.950877	109.3	31.3	-92.2	6.6
2025-01-08 07:13:07.112367	109.7	31.2	-92.4	6.3
2025-01-08 07:13:08.270913	110.1	31.2	-91.1	7.0
2025-01-08 07:13:09.422883	110.4	31.1	-92.6	5.7
2025-01-08 07:13:10.570241	110.8	31.0	-92.3	5.6
2025-01-08 07:13:11.708495	111.2	31.0	-92.4	6.8
2025-01-08 07:13:12.855621	111.6	30.9	-92.5	5.9
2025-01-08 07:13:14.010585	112.0	30.8	-92.4	5.9
2025-01-08 07:13:15.153788	112.3	30.8	-92.1	5.3
2025-01-08 07:13:16.308759	112.7	30.7	-92.1	8.6
2025-01-08 07:13:17.461816	113.1	30.6	-92.8	7.3
2025-01-08 07:13:18.614796	113.4	30.5	-93.1	8.2
2025-01-08 07:13:19.769280	113.8	30.4	-92.7	13.6
2025-01-08 07:13:20.925405	114.2	30.4	-92.3	11.3
2025-01-08 07:13:22.092570	114.6	30.3	-92.3	11.0
2025-01-08 07:13:23.253434	114.9	30.2	-92.1	13.9
2025-01-08 07:13:24.413027	115.3	30.1	-90.4	9.3
2025-01-08 07:13:25.577007	115.7	30.0	-92.7	8.1
2025-01-08 07:13:26.741471	116.0	30.0	-92.6	12.8
2025-01-08 07:13:27.905577	116.4	29.9	-92.4	10.4
2025-01-08 07:13:29.065514	116.7	29.8	-90.8	10.3
2025-01-08 07:13:30.228150	117.1	29.7	-92.1	10.8
2025-01-08 07:13:31.394295	117.4	29.6	-91.0	9.4
2025-01-08 07:13:32.552662	117.8	29.5	-92.1	7.3
2025-01-08 07:13:33.715169	118.1	29.4	-91.5	7.7
2025-01-08 07:13:34.875942	118.5	29.3	-91.2	6.2
2025-01-08 07:13:36.039759	118.8	29.2	-92.4	7.6
2025-01-08 07:13:37.200105	119.2	29.2	-92.0	3.6
2025-01-08 07:13:38.365090	119.5	29.1	-91.1	7.6
2025-01-08 07:13:39.527404	119.9	29.0	-92.4	7.5
2025-01-08 07:13:40.682758	120.2	28.9	-92.6	8.1
2025-01-08 07:13:41.848958	120.5	28.8	-92.5	8.2
2025-01-08 07:13:43.011155	120.9	28.7	-89.9	5.3
2025-01-08 07:13:44.170342	121.2	28.6	-91.9	5.9
2025-01-08 07:13:45.329160	121.5	28.5	-91.1	7.7
2025-01-08 07:13:46.493195	121.9	28.4	-91.6	6.7
2025-01-08 07:13:47.660973	122.2	28.3	-91.3	5.9
2025-01-08 07:13:48.820003	122.5	28.2	-91.8	3.6
2025-01-08 07:13:49.977651	122.8	28.1	-92.2	2.6
2025-01-08 07:13:51.135906	123.2	28.0	-91.2	3.3
2025-01-08 07:13:52.288402	123.5	27.9	-91.7	1.9
2025-01-08 07:13:53.426910	123.8	27.8	-92.1	3.5
2025-01-08 07:13:54.547367	124.1	27.7	-92.1	2.0
2025-01-08 07:13:55.669162	124.4	27.6	-92.3	4.4
2025-01-08 07:13:56.789280	124.7	27.5	-92.6	5.9
2025-01-08 07:13:57.910192	125.0	27.4	-92.7	3.0
2025-01-08 07:13:59.031800	125.3	27.3	-93.0	3.9
2025-01-08 07:14:00.151926	125.6	27.2	-92.1	5.4
2025-01-08 07:14:01.274311	125.9	27.1	-92.6	9.6
2025-01-08 07:14:02.395279	126.2	27.0	-90.1	5.7
2025-01-08 07:14:03.547016	126.5	26.9	-92.7	4.1
2025-01-08 07:14:04.688682	126.8	26.8	-92.7	7.1
2025-01-08 07:14:05.842540	127.1	26.7	-92.6	9.5
2025-01-08 07:14:06.991031	127.3	26.6	-92.5	4.3
2025-01-08 07:14:08.140868	127.6	26.4	-92.0	6.6
2025-01-08 07:14:09.304034	127.9	26.3	-90.4	8.8
2025-01-08 07:14:10.464011	128.2	26.2	-92.7	4.5
2025-01-08 07:14:11.626395	128.5	26.1	-92.7	7.9
2025-01-08 07:14:12.793591	128.8	26.0	-92.5	9.4
2025-01-08 07:14:13.951571	129.1	25.9	-91.4	7.3
2025-01-08 07:14:15.113560	129.3	25.8	-90.6	7.3
2025-01-08 07:14:16.269235	129.6	25.7	-92.0	11.6
2025-01-08 07:14:17.406359	129.9	25.6	-92.0	10.1
2025-01-08 07:14:18.539531	130.2	25.5	-92.3	10.8
2025-01-08 07:14:19.683514	130.4	25.4	-91.4	9.9
2025-01-08 07:14:20.830287	130.7	25.2	-91.1	9.4
2025-01-08 07:14:21.990160	131.0	25.1	-92.4	12.4
2025-01-08 07:14:23.144611	131.2	25.0	-92.0	12.2
2025-01-08 07:14:24.310028	131.5	24.9	-92.1	13.3
2025-01-08 07:14:25.466182	131.8	24.8	-92.7	11.7
2025-01-08 07:14:26.626943	132.0	24.7	-92.7	10.2
2025-01-08 07:14:27.786261	132.3	24.6	-92.6	13.7
2025-01-08 07:14:28.948071	132.5	24.5	-92.7	10.7
2025-01-08 07:14:30.102349	132.8	24.4	-92.3	9.5
2025-01-08 07:14:31.236178	133.1	24.2	-91.7	13.5
2025-01-08 07:14:32.377711	133.3	24.1	-91.6	10.7
2025-01-08 07:14:33.526611	133.5	24.0	-91.9	5.9
2025-01-08 07:14:34.666310	133.8	23.9	-91.6	10.0
2025-01-08 07:14:35.828432	134.0	23.8	-91.3	9.5
2025-01-08 07:14:36.988292	134.3	23.7	-90.9	4.5
2025-01-08 07:14:38.143997	134.5	23.6	-91.0	6.5
2025-01-08 07:14:39.290146	134.8	23.5	-90.5	8.7
2025-01-08 07:14:40.425874	135.0	23.4	-91.2	5.1
2025-01-08 07:14:41.580676	135.2	23.2	-92.8	6.3
2025-01-08 07:14:42.723945	135.5	23.1	-91.1	9.0
2025-01-08 07:14:43.852073	135.7	23.0	-92.4	9.6
2025-01-08 07:14:45.001347	135.9	22.9	-92.1	9.1
2025-01-08 07:14:46.153579	136.2	22.8	-91.7	11.4
2025-01-08 07:14:47.303403	136.4	22.7	-92.0	10.6
2025-01-08 07:14:48.465553	136.6	22.6	-91.8	12.2
2025-01-08 07:14:49.624351	136.9	22.5	-91.9	13.9
2025-01-08 07:14:50.775914	137.1	22.4	-92.6	15.5
2025-01-08 07:14:51.936713	137.3	22.2	-92.2	12.9
2025-01-08 07:14:53.097674	137.5	22.1	-91.0	12.0
2025-01-08 07:14:54.262421	137.8	22.0	-91.6	13.9
2025-01-08 07:14:55.427796	138.0	21.9	-92.2	10.0
2025-01-08 07:14:56.584425	138.2	21.8	-92.0	7.2
2025-01-08 07:14:57.746417	138.4	21.7	-91.1	11.8
2025-01-08 07:14:58.911590	138.6	21.6	-92.2	8.6
2025-01-08 07:15:00.071174	138.8	21.5	-91.7	6.9
2025-01-08 07:15:01.218366	139.1	21.3	-91.5	12.6
2025-01-08 07:15:02.377972	139.3	21.2	-91.7	9.7
2025-01-08 07:15:03.542722	139.5	21.1	-92.3	7.3
2025-01-08 07:15:04.697270	139.7	21.0	-91.0	9.5
2025-01-08 07:15:05.862380	139.9	20.9	-91.8	8.0
2025-01-08 07:15:07.028656	140.1	20.8	-92.1	6.6
2025-01-08 07:15:08.188962	140.3	20.7	-91.7	11.8
2025-01-08 07:15:09.350021	140.5	20.6	-91.8	11.9
2025-01-08 07:15:10.507974	140.7	20.5	-92.1	9.5
2025-01-08 07:15:11.665050	140.9	20.3	-91.4	10.9
2025-01-08 07:15:12.824406	141.1	20.2	-91.9	9.7
2025-01-08 07:15:13.980276	141.3	20.1	-92.3	7.9
2025-01-08 07:15:15.142744	141.5	20.0	-91.9	6.8
2025-01-08 07:15:16.303561	141.7	19.9	-91.6	9.4
2025-01-08 07:15:17.469544	141.9	19.8	-92.0	8.2
2025-01-08 07:15:18.632695	142.1	19.7	-91.4	10.0
2025-01-08 07:15:19.781767	142.3	19.6	-91.9	12.2
2025-01-08 07:15:20.938745	142.5	19.5	-92.1	7.0
2025-01-08 07:15:22.069320	142.6	19.4	-92.0	4.3
2025-01-08 07:15:23.190007	142.8	19.2	-92.1	7.1
2025-01-08 07:15:24.311085	143.0	19.1	-92.2	6.5
2025-01-08 07:15:25.431719	143.2	19.0	-92.3	4.5
2025-01-08 07:15:26.556513	143.3	18.9	-92.6	5.1
2025-01-08 07:15:27.676668	143.5	18.8	-92.4	7.7
2025-01-08 07:15:28.798299	143.7	18.7	-92.4	7.5
2025-01-08 07:15:29.923667	143.9	18.6	-92.0	7.4
2025-01-08 07:15:31.062689	144.0	18.5	-91.5	6.2
2025-01-08 07:15:32.222569	144.2	18.4	-92.1	4.9
2025-01-08 07:15:33.377912	144.4	18.3	-90.8	4.1
2025-01-08 07:15:34.537354	144.6	18.2	-92.5	6.6
2025-01-08 07:15:35.699388	144.7	18.1	-92.5	4.9
2025-01-08 07:15:36.854242	144.9	18.0	-90.7	3.5
2025-01-08 07:15:38.019226	145.1	17.9	-92.2	3.6
2025-01-08 07:15:39.183315	145.3	17.8	-92.0	4.4
2025-01-08 07:15:40.348076	145.4	17.7	-92.4	5.1
2025-01-08 07:15:41.506423	145.6	17.6	-91.5	2.8
2025-01-08 07:15:42.670019	145.8	17.4	-91.9	3.6
2025-01-08 07:15:43.833847	145.9	17.3	-91.7	2.7
2025-01-08 07:15:44.995382	146.1	17.2	-91.7	1.9
2025-01-08 07:15:46.161370	146.3	17.1	-92.2	2.5
2025-01-08 07:15:47.328042	146.4	17.0	-92.0	2.2
2025-01-08 07:15:48.491937	146.6	16.9	-91.9	1.9
2025-01-08 07:15:49.655424	146.7	16.8	-92.3	2.2
2025-01-08 07:15:50.810032	146.9	16.7	-92.3	2.5
2025-01-08 07:15:51.966132	147.1	16.6	-92.3	2.5
2025-01-08 07:15:53.113276	147.2	16.5	-91.6	5.2
2025-01-08 07:15:54.252194	147.4	16.4	-92.0	5.3
2025-01-08 07:15:55.410734	147.5	16.3	-92.2	4.2
2025-01-08 07:15:56.549978	147.7	16.2	-92.8	2.4
2025-01-08 07:15:57.712241	147.8	16.1	-92.9	5.7
2025-01-08 07:15:58.865346	148.0	16.0	-92.4	4.8
2025-01-08 07:16:00.022282	148.1	15.9	-92.6	3.0
2025-01-08 07:16:01.176856	148.3	15.8	-89.6	3.8
2025-01-08 07:16:02.337104	148.4	15.7	-92.0	4.2
2025-01-08 07:16:03.502399	148.6	15.6	-91.5	4.0
2025-01-08 07:16:04.663622	148.7	15.5	-90.5	3.3
2025-01-08 07:16:05.836835	148.9	15.4	-91.0	3.9
2025-01-08 07:16:06.999580	149.0	15.3	-92.3	3.6
2025-01-08 07:16:08.159067	149.1	15.2	-91.8	5.9
2025-01-08 07:16:09.312891	149.3	15.1	-91.9	4.2
2025-01-08 07:16:10.461327	149.4	15.0	-92.4	6.5
2025-01-08 07:16:11.591635	149.6	14.9	-92.1	7.9
2025-01-08 07:16:12.746224	149.7	14.8	-92.3	7.6
2025-01-08 07:16:13.883359	149.8	14.7	-92.6	5.9
2025-01-08 07:16:15.044044	150.0	14.6	-92.2	3.8
#Closed at: 2025-01-08 07:08:30.378751