passes_logs/2025/01/08/LEX_Murmansk/LEX_Murmansk__20250108_170825_NOAA_19_rec.log

#Pass ID: 20250108_170825_NOAA 19
#Satellite: NOAA 19
#Configuration: NOAA 19
#Start time: 2025-01-08 17:08:20.832171

#LorettStation: 1.0.0 05.05.2024
#Station: LEX_Murmansk
#Location: 33.156738 lon 68.926811 lat
#TLE: 1 33591U 09005A   25007.78273938  .00000347  00000+0  20907-3 0  9990
#TLE: 2 33591  99.0209  71.4889 0014647  76.7831 283.4973 14.13254046820526

#Time	Az	El	Level	SNR
2025-01-08 17:08:35.052791	134.9	16.5	-87.4	3.0
2025-01-08 17:08:37.363054	134.8	16.8	-87.4	2.4
2025-01-08 17:08:39.681386	134.7	17.1	-87.4	4.3
2025-01-08 17:08:42.003227	134.6	17.3	-87.6	6.1
2025-01-08 17:08:44.320222	134.6	17.6	-87.3	6.3
2025-01-08 17:08:46.643732	134.5	17.9	-87.3	6.6
2025-01-08 17:08:48.972967	134.4	18.1	-87.9	3.7
2025-01-08 17:08:51.294955	134.3	18.4	-87.2	2.7
2025-01-08 17:08:53.595150	134.2	18.7	-87.5	7.6
2025-01-08 17:08:55.856335	134.1	19.0	-88.1	7.5
2025-01-08 17:08:58.096965	134.0	19.3	-87.7	6.8
2025-01-08 17:09:00.338896	133.9	19.5	-87.6	9.3
2025-01-08 17:09:02.584983	133.8	19.8	-87.4	6.4
2025-01-08 17:09:04.861280	133.7	20.1	-87.8	3.0
2025-01-08 17:09:07.165934	133.6	20.4	-86.8	3.1
2025-01-08 17:09:09.488048	133.5	20.7	-87.3	7.7
2025-01-08 17:09:11.817057	133.4	21.0	-87.7	8.4
2025-01-08 17:09:14.133443	133.3	21.3	-87.4	9.0
2025-01-08 17:09:16.452513	133.2	21.6	-87.8	11.3
2025-01-08 17:09:18.771232	133.1	22.0	-87.6	8.2
2025-01-08 17:09:21.090005	133.0	22.3	-87.8	3.3
2025-01-08 17:09:23.419826	132.9	22.6	-87.7	3.8
2025-01-08 17:09:25.729950	132.7	22.9	-87.9	8.8
2025-01-08 17:09:28.055781	132.6	23.3	-87.6	9.8
2025-01-08 17:09:30.375453	132.5	23.6	-87.5	5.6
2025-01-08 17:09:32.682227	132.4	24.0	-87.6	9.1
2025-01-08 17:09:34.950427	132.2	24.3	-87.6	8.1
2025-01-08 17:09:37.245125	132.1	24.6	-87.8	3.9
2025-01-08 17:09:39.521729	132.0	25.0	-88.3	3.4
2025-01-08 17:09:41.834126	131.8	25.4	-87.6	7.0
2025-01-08 17:09:44.153889	131.7	25.7	-87.9	8.6
2025-01-08 17:09:46.465246	131.5	26.1	-87.4	6.9
2025-01-08 17:09:48.730309	131.4	26.5	-87.5	4.3
2025-01-08 17:09:51.035770	131.2	26.8	-87.7	6.5
2025-01-08 17:09:53.331196	131.1	27.2	-87.7	3.9
2025-01-08 17:09:55.644206	130.9	27.6	-87.8	3.4
2025-01-08 17:09:57.959652	130.7	28.0	-87.9	1.7
2025-01-08 17:10:00.281484	130.5	28.4	-87.5	2.7
2025-01-08 17:10:02.594936	130.4	28.8	-87.9	3.0
2025-01-08 17:10:04.908206	130.2	29.2	-87.8	3.7
2025-01-08 17:10:07.228573	130.0	29.6	-87.9	4.5
2025-01-08 17:10:09.542543	129.8	30.1	-87.8	3.4
2025-01-08 17:10:11.861048	129.6	30.5	-88.0	3.2
2025-01-08 17:10:14.180898	129.4	30.9	-88.2	3.5
2025-01-08 17:10:16.510463	129.2	31.4	-87.8	5.7
2025-01-08 17:10:18.822579	129.0	31.8	-88.2	4.8
2025-01-08 17:10:21.135624	128.8	32.3	-88.3	7.8
2025-01-08 17:10:23.445732	128.5	32.7	-87.8	6.2
2025-01-08 17:10:25.783585	128.3	33.2	-88.2	5.3
2025-01-08 17:10:28.109304	128.0	33.7	-87.4	3.4
2025-01-08 17:10:30.418272	127.8	34.1	-88.0	4.0
2025-01-08 17:10:32.729859	127.5	34.6	-88.5	6.4
2025-01-08 17:10:35.056166	127.3	35.1	-87.9	11.7
2025-01-08 17:10:37.364381	127.0	35.6	-88.4	8.2
2025-01-08 17:10:39.681002	126.7	36.1	-88.8	5.1
2025-01-08 17:10:42.002787	126.4	36.6	-88.6	9.5
2025-01-08 17:10:44.323181	126.1	37.2	-88.2	8.8
2025-01-08 17:10:46.653701	125.8	37.7	-87.7	4.7
2025-01-08 17:10:48.968168	125.5	38.2	-88.4	4.0
2025-01-08 17:10:51.281932	125.2	38.8	-88.5	6.6
2025-01-08 17:10:53.595635	124.8	39.3	-88.6	9.5
2025-01-08 17:10:55.915534	124.5	39.9	-88.8	6.4
2025-01-08 17:10:58.236677	124.1	40.5	-88.3	5.2
2025-01-08 17:11:00.541857	123.7	41.0	-88.2	11.1
2025-01-08 17:11:02.865991	123.3	41.6	-88.7	11.7
2025-01-08 17:11:05.190279	122.9	42.2	-88.4	6.6
2025-01-08 17:11:07.514075	122.5	42.8	-88.8	3.0
2025-01-08 17:11:09.832055	122.0	43.4	-88.9	4.1
2025-01-08 17:11:12.148742	121.6	44.0	-88.6	8.8
2025-01-08 17:11:14.466066	121.1	44.6	-88.4	10.3
2025-01-08 17:11:16.782892	120.6	45.3	-88.8	5.1
2025-01-08 17:11:19.090904	120.1	45.9	-88.6	3.8
2025-01-08 17:11:21.416322	119.5	46.5	-88.9	9.2
2025-01-08 17:11:23.727258	118.9	47.2	-88.8	10.5
2025-01-08 17:11:26.055361	118.3	47.8	-89.1	5.9
2025-01-08 17:11:28.370755	117.7	48.5	-89.1	2.5
2025-01-08 17:11:30.673938	117.1	49.2	-89.0	4.2
2025-01-08 17:11:32.931706	116.4	49.8	-88.9	8.6
2025-01-08 17:11:35.174153	115.8	50.5	-88.8	7.2
2025-01-08 17:11:37.415935	115.0	51.2	-89.1	5.2
2025-01-08 17:11:39.662914	114.3	51.8	-89.2	5.7
2025-01-08 17:11:41.947200	113.5	52.5	-88.8	6.8
2025-01-08 17:11:44.256969	112.7	53.2	-88.8	8.0
2025-01-08 17:11:46.574118	111.8	53.9	-89.1	5.7
2025-01-08 17:11:48.885161	110.9	54.6	-88.9	8.4
2025-01-08 17:11:51.203911	109.9	55.3	-88.3	4.4
2025-01-08 17:11:53.525620	108.9	56.0	-88.6	5.4
2025-01-08 17:11:55.838473	107.8	56.7	-88.6	4.4
2025-01-08 17:11:58.166347	106.6	57.4	-88.7	8.5
2025-01-08 17:12:00.479576	105.4	58.1	-88.6	11.8
2025-01-08 17:12:02.795952	104.2	58.8	-88.8	14.5
2025-01-08 17:12:05.127768	102.8	59.5	-88.8	9.9
2025-01-08 17:12:07.436321	101.4	60.2	-88.6	8.1
2025-01-08 17:12:09.728466	100.0	60.9	-88.8	5.5
2025-01-08 17:12:12.049096	98.4	61.5	-87.9	7.4
2025-01-08 17:12:14.374474	96.8	62.2	-87.9	11.3
2025-01-08 17:12:16.702403	95.0	62.8	-88.4	14.1
2025-01-08 17:12:19.021822	93.2	63.4	-87.6	9.0
2025-01-08 17:12:21.341522	91.3	64.0	-88.3	3.7
2025-01-08 17:12:23.665834	89.2	64.6	-88.0	4.3
2025-01-08 17:12:25.987246	87.1	65.1	-88.0	6.9
2025-01-08 17:12:28.291919	84.9	65.7	-88.1	4.6
2025-01-08 17:12:30.612357	82.5	66.1	-88.4	10.5
2025-01-08 17:12:32.932402	80.1	66.6	-88.5	11.4
2025-01-08 17:12:35.241461	77.6	67.0	-88.4	11.1
2025-01-08 17:12:37.558427	74.9	67.4	-88.1	9.0
2025-01-08 17:12:39.870582	72.2	67.7	-88.2	13.6
2025-01-08 17:12:42.189082	69.4	68.0	-88.2	9.2
2025-01-08 17:12:44.502367	66.5	68.2	-88.5	3.9
2025-01-08 17:12:46.814201	63.6	68.4	-88.1	4.3
2025-01-08 17:12:49.129827	60.6	68.5	-88.1	7.5
2025-01-08 17:12:51.452375	57.6	68.6	-87.7	5.8
2025-01-08 17:12:53.767251	54.6	68.6	-88.0	6.5
2025-01-08 17:12:56.084709	51.5	68.6	-87.9	10.2
2025-01-08 17:12:58.401283	48.5	68.5	-88.1	8.7
2025-01-08 17:13:00.697189	45.6	68.3	-87.9	9.8
2025-01-08 17:13:02.957513	42.8	68.1	-88.2	13.0
2025-01-08 17:13:05.200077	40.0	67.9	-88.5	10.9
2025-01-08 17:13:07.440376	37.3	67.6	-87.9	10.5
2025-01-08 17:13:09.686553	34.7	67.3	-87.5	12.0
2025-01-08 17:13:11.968742	32.1	66.9	-88.3	12.0
2025-01-08 17:13:14.269363	29.6	66.5	-88.3	12.0
2025-01-08 17:13:16.584742	27.2	66.0	-87.7	7.2
2025-01-08 17:13:18.904515	24.9	65.5	-87.9	8.2
2025-01-08 17:13:21.218658	22.7	65.0	-88.3	11.0
2025-01-08 17:13:23.530477	20.6	64.4	-88.1	9.6
2025-01-08 17:13:25.856856	18.6	63.9	-88.3	11.6
2025-01-08 17:13:28.171594	16.7	63.3	-87.4	13.6
2025-01-08 17:13:30.484013	15.0	62.6	-88.2	15.2
2025-01-08 17:13:32.810478	13.2	62.0	-88.2	15.8
2025-01-08 17:13:35.128445	11.6	61.4	-88.1	14.5
2025-01-08 17:13:37.448931	10.1	60.7	-88.1	14.0
2025-01-08 17:13:39.772863	8.6	60.0	-88.1	15.5
2025-01-08 17:13:42.093744	7.2	59.3	-88.2	14.4
2025-01-08 17:13:44.403133	5.9	58.6	-87.7	11.5
2025-01-08 17:13:46.716986	4.7	57.9	-87.7	8.0
2025-01-08 17:13:49.040735	3.5	57.2	-88.0	12.0
2025-01-08 17:13:51.359850	2.4	56.5	-88.3	7.2
2025-01-08 17:13:53.668516	1.3	55.8	-88.3	7.3
2025-01-08 17:13:56.000042	0.3	55.1	-87.8	6.6
2025-01-08 17:13:58.329531	359.3	54.4	-87.5	4.7
2025-01-08 17:14:00.637485	358.4	53.7	-88.2	9.4
2025-01-08 17:14:02.959314	357.6	53.0	-88.3	8.2
2025-01-08 17:14:05.274823	356.7	52.3	-88.4	4.3
2025-01-08 17:14:07.553696	356.0	51.7	-88.6	7.2
2025-01-08 17:14:09.796109	355.2	51.0	-88.1	5.7
2025-01-08 17:14:12.039701	354.5	50.3	-88.3	9.3
2025-01-08 17:14:14.279472	353.9	49.7	-88.4	9.8
2025-01-08 17:14:16.522004	353.2	49.0	-88.6	14.8
2025-01-08 17:14:18.834577	352.6	48.4	-88.9	9.7
2025-01-08 17:14:21.141573	352.0	47.7	-88.7	10.4
2025-01-08 17:14:23.454706	351.4	47.0	-89.0	9.0
2025-01-08 17:14:25.762914	350.8	46.4	-88.3	4.9
2025-01-08 17:14:28.082830	350.3	45.8	-88.8	10.0
2025-01-08 17:14:30.390472	349.8	45.1	-88.9	7.6
2025-01-08 17:14:32.707798	349.3	44.5	-88.8	7.1
2025-01-08 17:14:35.035042	348.8	43.9	-89.1	11.6
2025-01-08 17:14:37.350200	348.4	43.3	-88.9	12.2
2025-01-08 17:14:39.662992	347.9	42.7	-89.1	13.5
2025-01-08 17:14:41.983355	347.5	42.1	-89.3	15.5
2025-01-08 17:14:44.307397	347.1	41.5	-88.9	11.7
2025-01-08 17:14:46.621059	346.7	40.9	-89.0	10.2
2025-01-08 17:14:48.936710	346.3	40.4	-89.2	6.2
2025-01-08 17:14:51.216454	346.0	39.8	-88.8	5.5
2025-01-08 17:14:53.457921	345.6	39.3	-89.1	6.1
2025-01-08 17:14:55.701346	345.3	38.7	-89.1	5.7
2025-01-08 17:14:57.942618	345.0	38.2	-88.8	9.9
2025-01-08 17:15:00.185278	344.6	37.7	-88.8	11.3
2025-01-08 17:15:02.485840	344.3	37.2	-89.0	11.6
2025-01-08 17:15:04.801679	344.0	36.6	-89.4	4.9
2025-01-08 17:15:07.105098	343.8	36.1	-89.1	5.8
2025-01-08 17:15:09.413004	343.5	35.6	-89.4	4.0
2025-01-08 17:15:11.733036	343.2	35.1	-89.3	5.5
2025-01-08 17:15:14.055427	342.9	34.6	-89.2	6.3
2025-01-08 17:15:16.365579	342.7	34.2	-89.6	7.7
2025-01-08 17:15:18.686547	342.4	33.7	-89.5	12.2
2025-01-08 17:15:20.998300	342.2	33.2	-89.8	8.5
2025-01-08 17:15:23.321016	342.0	32.7	-89.6	4.1
2025-01-08 17:15:25.628920	341.7	32.3	-89.7	7.2
2025-01-08 17:15:27.907586	341.5	31.8	-89.9	2.1
2025-01-08 17:15:30.204408	341.3	31.4	-89.6	3.0
2025-01-08 17:15:32.500683	341.1	31.0	-89.9	4.6
2025-01-08 17:15:34.816450	340.9	30.5	-89.9	10.2
2025-01-08 17:15:37.124683	340.7	30.1	-90.0	9.7
2025-01-08 17:15:39.438403	340.5	29.7	-90.0	3.5
2025-01-08 17:15:41.746705	340.3	29.3	-89.8	4.1
2025-01-08 17:15:44.082474	340.1	28.9	-89.6	6.2
2025-01-08 17:15:46.395118	340.0	28.5	-89.7	4.9
2025-01-08 17:15:48.723309	339.8	28.1	-89.6	6.8
2025-01-08 17:15:51.037168	339.6	27.7	-89.6	4.0
2025-01-08 17:15:53.354938	339.5	27.3	-89.7	4.9
2025-01-08 17:15:55.671454	339.3	26.9	-89.7	3.2
2025-01-08 17:15:57.983252	339.1	26.5	-89.6	4.0
2025-01-08 17:16:00.287332	339.0	26.1	-89.1	1.1
2025-01-08 17:16:02.594929	338.8	25.8	-89.5	5.1
2025-01-08 17:16:04.913263	338.7	25.4	-89.8	5.9
2025-01-08 17:16:07.228080	338.6	25.1	-89.4	4.5
2025-01-08 17:16:09.555847	338.4	24.7	-89.9	7.1
2025-01-08 17:16:11.872110	338.3	24.3	-89.4	4.1
2025-01-08 17:16:14.194214	338.1	24.0	-89.4	2.1
2025-01-08 17:16:16.509049	338.0	23.7	-89.5	3.7
2025-01-08 17:16:18.824019	337.9	23.3	-89.9	7.1
2025-01-08 17:16:21.138577	337.8	23.0	-89.8	6.2
2025-01-08 17:16:23.451192	337.7	22.7	-89.9	7.4
2025-01-08 17:16:25.762495	337.5	22.3	-90.2	2.4
2025-01-08 17:16:28.077912	337.4	22.0	-89.9	4.2
2025-01-08 17:16:30.386604	337.3	21.7	-89.8	4.0
2025-01-08 17:16:32.700237	337.2	21.4	-88.6	5.9
2025-01-08 17:16:35.018114	337.1	21.1	-89.3	7.7
2025-01-08 17:16:37.331251	337.0	20.8	-89.3	5.1
2025-01-08 17:16:39.642060	336.9	20.5	-90.1	3.5
2025-01-08 17:16:41.957477	336.8	20.2	-89.9	4.4
2025-01-08 17:16:44.283898	336.7	19.9	-90.0	2.8
2025-01-08 17:16:46.595420	336.6	19.6	-90.0	3.0
2025-01-08 17:16:48.921720	336.5	19.3	-89.9	4.5
2025-01-08 17:16:51.232127	336.4	19.0	-90.0	2.0
2025-01-08 17:16:53.550299	336.3	18.7	-90.1	2.7
2025-01-08 17:16:55.858746	336.2	18.5	-90.0	3.1
2025-01-08 17:16:58.158918	336.1	18.2	-89.9	3.0
2025-01-08 17:17:00.400336	336.1	17.9	-90.1	2.0
2025-01-08 17:17:02.642545	336.0	17.7	-89.4	1.7
2025-01-08 17:17:04.885880	335.9	17.4	-89.8	2.4
2025-01-08 17:17:07.244320	335.8	17.1	-89.8	2.1
2025-01-08 17:17:09.547278	335.7	16.9	-90.3	4.0
2025-01-08 17:17:11.851740	335.7	16.6	-89.6	2.5
2025-01-08 17:17:14.133408	335.6	16.4	-89.8	3.5
2025-01-08 17:17:16.416066	335.5	16.1	-90.3	4.6
2025-01-08 17:17:18.724549	335.4	15.9	-90.0	2.4
2025-01-08 17:17:21.039640	335.4	15.6	-90.1	2.0
2025-01-08 17:17:23.360309	335.3	15.4	-90.0	3.5
2025-01-08 17:17:25.676515	335.2	15.1	-89.8	1.8
2025-01-08 17:17:27.986344	335.2	14.9	-90.3	4.1
2025-01-08 17:17:30.302530	335.1	14.6	-90.1	4.1
#Closed at: 2025-01-08 17:08:25.861982