passes_logs/2025/01/08/LEX_Murmansk/LEX_Murmansk__20250108_155624_NOAA_18_rec.log

#Pass ID: 20250108_155624_NOAA 18
#Satellite: NOAA 18
#Configuration: NOAA 18
#Start time: 2025-01-08 15:56:19.886710

#LorettStation: 1.0.0 05.05.2024
#Station: LEX_Murmansk
#Location: 33.156738 lon 68.926811 lat
#TLE: 1 28654U 05018A   25007.80096224  .00000414  00000+0  24332-3 0  9999
#TLE: 2 28654  98.8579  88.9263 0014020 199.4461 160.6178 14.13480585 12168

#Time	Az	El	Level	SNR
2025-01-08 15:56:32.017178	69.5	16.0	-89.9	9.2
2025-01-08 15:56:33.174402	69.3	16.1	-90.3	11.2
2025-01-08 15:56:34.324365	69.2	16.2	-89.8	12.5
2025-01-08 15:56:35.479908	69.0	16.3	-89.5	11.5
2025-01-08 15:56:36.638726	68.8	16.4	-90.6	9.3
2025-01-08 15:56:37.805464	68.7	16.5	-90.8	12.3
2025-01-08 15:56:38.956131	68.5	16.6	-90.4	9.6
2025-01-08 15:56:40.110951	68.3	16.6	-90.4	8.0
2025-01-08 15:56:41.267195	68.2	16.7	-90.2	12.1
2025-01-08 15:56:42.430955	68.0	16.8	-90.5	9.3
2025-01-08 15:56:43.583143	67.8	16.9	-90.4	8.6
2025-01-08 15:56:44.743959	67.6	17.0	-90.1	12.6
2025-01-08 15:56:45.893598	67.5	17.1	-90.3	10.9
2025-01-08 15:56:47.046625	67.3	17.2	-90.0	12.7
2025-01-08 15:56:48.194586	67.1	17.3	-90.2	15.3
2025-01-08 15:56:49.346744	66.9	17.4	-90.0	12.8
2025-01-08 15:56:50.507306	66.7	17.5	-90.7	11.9
2025-01-08 15:56:51.661602	66.6	17.6	-90.4	12.5
2025-01-08 15:56:52.811551	66.4	17.7	-89.8	13.4
2025-01-08 15:56:53.966410	66.2	17.8	-90.0	11.9
2025-01-08 15:56:55.119003	66.0	17.9	-89.2	10.5
2025-01-08 15:56:56.268945	65.8	18.0	-89.6	13.8
2025-01-08 15:56:57.420857	65.6	18.1	-90.1	11.6
2025-01-08 15:56:58.576782	65.5	18.2	-89.8	10.9
2025-01-08 15:56:59.728038	65.3	18.3	-89.9	11.8
2025-01-08 15:57:00.870418	65.1	18.4	-90.1	7.8
2025-01-08 15:57:02.022745	64.9	18.5	-90.3	7.8
2025-01-08 15:57:03.178100	64.7	18.6	-89.9	7.0
2025-01-08 15:57:04.332510	64.5	18.7	-90.2	8.6
2025-01-08 15:57:05.491563	64.3	18.8	-90.3	11.6
2025-01-08 15:57:06.639088	64.1	18.9	-89.9	16.9
2025-01-08 15:57:07.792796	63.9	18.9	-89.8	13.2
2025-01-08 15:57:08.948741	63.7	19.0	-89.8	10.9
2025-01-08 15:57:10.094301	63.5	19.1	-89.9	11.6
2025-01-08 15:57:11.242537	63.3	19.2	-90.5	10.4
2025-01-08 15:57:12.394860	63.1	19.3	-90.6	8.7
2025-01-08 15:57:13.555499	62.9	19.4	-90.7	11.2
2025-01-08 15:57:14.703801	62.7	19.5	-90.5	13.0
2025-01-08 15:57:15.854534	62.5	19.6	-90.8	14.4
2025-01-08 15:57:17.013251	62.3	19.7	-91.0	14.1
2025-01-08 15:57:18.159691	62.1	19.8	-90.1	10.1
2025-01-08 15:57:19.315006	61.9	19.9	-90.5	12.9
2025-01-08 15:57:20.464837	61.7	20.0	-90.6	8.0
2025-01-08 15:57:21.616731	61.5	20.1	-90.9	6.8
2025-01-08 15:57:22.779436	61.2	20.2	-90.8	11.0
2025-01-08 15:57:23.931436	61.0	20.3	-91.1	9.8
2025-01-08 15:57:25.081317	60.8	20.4	-90.8	7.9
2025-01-08 15:57:26.232565	60.6	20.5	-90.4	12.0
2025-01-08 15:57:27.392874	60.4	20.6	-90.6	12.9
2025-01-08 15:57:28.549202	60.1	20.7	-90.4	14.2
2025-01-08 15:57:29.702858	59.9	20.8	-90.4	12.0
2025-01-08 15:57:30.856093	59.7	20.9	-91.0	12.8
2025-01-08 15:57:32.004783	59.5	21.0	-91.2	9.4
2025-01-08 15:57:33.160363	59.2	21.1	-90.9	8.5
2025-01-08 15:57:34.314945	59.0	21.2	-90.7	14.7
2025-01-08 15:57:35.466001	58.8	21.2	-90.7	11.9
2025-01-08 15:57:36.623352	58.6	21.3	-90.8	11.3
2025-01-08 15:57:37.774046	58.3	21.4	-90.8	12.8
2025-01-08 15:57:38.935544	58.1	21.5	-90.8	13.8
2025-01-08 15:57:40.086345	57.9	21.6	-90.6	14.2
2025-01-08 15:57:41.236472	57.6	21.7	-90.4	14.2
2025-01-08 15:57:42.386240	57.4	21.8	-90.9	11.9
2025-01-08 15:57:43.547914	57.1	21.9	-90.7	7.9
2025-01-08 15:57:44.701520	56.9	22.0	-90.3	10.9
2025-01-08 15:57:45.855575	56.7	22.1	-90.5	12.9
2025-01-08 15:57:47.009355	56.4	22.2	-90.8	7.1
2025-01-08 15:57:48.159142	56.2	22.3	-90.6	7.5
2025-01-08 15:57:49.311962	55.9	22.4	-90.2	12.2
2025-01-08 15:57:50.463534	55.7	22.5	-90.7	12.9
2025-01-08 15:57:51.616731	55.4	22.6	-90.6	11.3
2025-01-08 15:57:52.771567	55.2	22.6	-90.4	12.3
2025-01-08 15:57:53.927448	54.9	22.7	-90.8	11.1
2025-01-08 15:57:55.092595	54.7	22.8	-90.5	11.0
2025-01-08 15:57:56.245704	54.4	22.9	-90.5	13.9
2025-01-08 15:57:57.400665	54.1	23.0	-90.7	12.9
2025-01-08 15:57:58.547431	53.9	23.1	-90.7	9.5
2025-01-08 15:57:59.706741	53.6	23.2	-90.5	12.8
2025-01-08 15:58:00.852468	53.4	23.3	-90.3	11.2
2025-01-08 15:58:02.004740	53.1	23.4	-90.3	10.7
2025-01-08 15:58:03.161712	52.8	23.5	-90.3	12.3
2025-01-08 15:58:04.318960	52.6	23.6	-90.0	12.9
2025-01-08 15:58:05.473423	52.3	23.6	-90.6	10.6
2025-01-08 15:58:06.626234	52.0	23.7	-90.9	9.5
2025-01-08 15:58:07.782485	51.8	23.8	-91.0	11.8
2025-01-08 15:58:08.934603	51.5	23.9	-90.5	7.9
2025-01-08 15:58:10.083523	51.2	24.0	-90.4	7.0
2025-01-08 15:58:11.236519	50.9	24.1	-89.9	10.4
2025-01-08 15:58:12.386013	50.7	24.2	-90.2	10.7
2025-01-08 15:58:13.535243	50.4	24.2	-90.3	6.8
2025-01-08 15:58:14.666348	50.1	24.3	-90.4	10.8
2025-01-08 15:58:15.786271	49.8	24.4	-90.7	11.6
2025-01-08 15:58:16.906215	49.6	24.5	-91.0	11.6
2025-01-08 15:58:18.027190	49.3	24.6	-91.2	13.7
2025-01-08 15:58:19.146147	49.0	24.6	-90.0	12.5
2025-01-08 15:58:20.266521	48.7	24.7	-90.9	11.7
2025-01-08 15:58:21.386257	48.5	24.8	-91.1	11.3
2025-01-08 15:58:22.509659	48.2	24.9	-91.3	9.2
2025-01-08 15:58:23.650278	47.9	25.0	-91.3	8.8
2025-01-08 15:58:24.803316	47.6	25.0	-90.6	12.0
2025-01-08 15:58:25.956937	47.3	25.1	-91.0	6.4
2025-01-08 15:58:27.106996	47.0	25.2	-91.2	7.5
2025-01-08 15:58:28.269714	46.7	25.3	-91.2	11.1
2025-01-08 15:58:29.417217	46.4	25.4	-90.7	7.7
2025-01-08 15:58:30.567861	46.1	25.4	-90.7	9.6
2025-01-08 15:58:31.712726	45.8	25.5	-91.2	9.3
2025-01-08 15:58:32.864943	45.5	25.6	-91.0	7.5
2025-01-08 15:58:34.012211	45.2	25.7	-91.1	7.9
2025-01-08 15:58:35.163856	44.9	25.7	-90.6	7.8
2025-01-08 15:58:36.310748	44.6	25.8	-90.4	9.4
2025-01-08 15:58:37.460337	44.3	25.9	-90.4	7.1
2025-01-08 15:58:38.608768	44.0	26.0	-90.8	4.6
2025-01-08 15:58:39.739981	43.7	26.0	-90.5	8.4
2025-01-08 15:58:40.891701	43.3	26.1	-90.7	8.6
2025-01-08 15:58:42.049571	43.0	26.2	-90.5	6.0
2025-01-08 15:58:43.205945	42.7	26.2	-90.2	10.5
2025-01-08 15:58:44.360983	42.4	26.3	-90.2	8.2
2025-01-08 15:58:45.510784	42.1	26.4	-90.5	7.9
2025-01-08 15:58:46.674081	41.8	26.4	-91.1	10.7
2025-01-08 15:58:47.825694	41.4	26.5	-90.8	7.8
2025-01-08 15:58:48.982234	41.1	26.6	-90.5	8.7
2025-01-08 15:58:50.133304	40.8	26.6	-90.5	10.9
2025-01-08 15:58:51.280860	40.5	26.7	-90.4	12.7
2025-01-08 15:58:52.431558	40.1	26.8	-91.0	11.6
2025-01-08 15:58:53.587716	39.8	26.8	-90.8	11.5
2025-01-08 15:58:54.738936	39.5	26.9	-91.1	13.5
2025-01-08 15:58:55.899779	39.1	26.9	-91.0	11.3
2025-01-08 15:58:57.066318	38.8	27.0	-90.7	9.5
2025-01-08 15:58:58.217718	38.5	27.1	-91.0	13.3
2025-01-08 15:58:59.372759	38.1	27.1	-91.1	9.6
2025-01-08 15:59:00.511848	37.8	27.2	-91.0	8.9
2025-01-08 15:59:01.668967	37.5	27.2	-90.8	11.3
2025-01-08 15:59:02.819669	37.1	27.3	-91.2	9.5
2025-01-08 15:59:03.970144	36.8	27.3	-91.4	10.9
2025-01-08 15:59:05.121311	36.5	27.4	-90.8	11.9
2025-01-08 15:59:06.279976	36.1	27.4	-90.6	9.7
2025-01-08 15:59:07.428026	35.8	27.5	-90.9	10.9
2025-01-08 15:59:08.580110	35.4	27.5	-90.9	9.6
2025-01-08 15:59:09.735465	35.1	27.6	-91.2	9.5
2025-01-08 15:59:10.881673	34.7	27.6	-90.9	8.2
2025-01-08 15:59:12.042207	34.4	27.7	-90.8	6.7
2025-01-08 15:59:13.200522	34.0	27.7	-90.7	8.4
2025-01-08 15:59:14.356174	33.7	27.8	-90.9	6.7
2025-01-08 15:59:15.507060	33.3	27.8	-90.8	5.9
2025-01-08 15:59:16.658342	33.0	27.8	-91.0	5.9
2025-01-08 15:59:17.812459	32.6	27.9	-90.9	8.1
2025-01-08 15:59:18.970256	32.3	27.9	-90.9	9.2
2025-01-08 15:59:20.119494	31.9	27.9	-90.8	8.5
2025-01-08 15:59:21.262858	31.6	28.0	-90.5	11.6
2025-01-08 15:59:22.423684	31.2	28.0	-90.7	10.8
2025-01-08 15:59:23.576475	30.9	28.1	-90.8	11.1
2025-01-08 15:59:24.724900	30.5	28.1	-91.0	12.8
2025-01-08 15:59:25.874294	30.2	28.1	-90.8	13.6
2025-01-08 15:59:27.033655	29.8	28.1	-91.0	13.1
2025-01-08 15:59:28.185299	29.5	28.2	-90.7	8.9
2025-01-08 15:59:29.339963	29.1	28.2	-90.6	9.8
2025-01-08 15:59:30.487033	28.7	28.2	-91.1	10.6
2025-01-08 15:59:31.642712	28.4	28.3	-90.9	10.8
2025-01-08 15:59:32.795370	28.0	28.3	-91.1	10.6
2025-01-08 15:59:33.947308	27.7	28.3	-90.8	4.3
2025-01-08 15:59:35.099849	27.3	28.3	-89.1	6.1
2025-01-08 15:59:36.246271	26.9	28.3	-91.0	8.6
2025-01-08 15:59:37.398915	26.6	28.4	-90.1	6.9
2025-01-08 15:59:38.551886	26.2	28.4	-90.4	7.9
2025-01-08 15:59:39.706985	25.8	28.4	-90.4	12.0
2025-01-08 15:59:40.863438	25.5	28.4	-90.3	12.1
2025-01-08 15:59:42.015205	25.1	28.4	-89.8	5.7
2025-01-08 15:59:43.166769	24.8	28.4	-89.6	8.7
2025-01-08 15:59:44.315778	24.4	28.4	-90.0	9.8
2025-01-08 15:59:45.472782	24.0	28.5	-90.8	7.3
2025-01-08 15:59:46.616847	23.7	28.5	-90.4	6.3
2025-01-08 15:59:47.766283	23.3	28.5	-90.8	10.1
2025-01-08 15:59:48.891646	22.9	28.5	-90.7	11.4
2025-01-08 15:59:50.012147	22.6	28.5	-90.9	11.3
2025-01-08 15:59:51.133088	22.2	28.5	-90.3	12.3
2025-01-08 15:59:52.253065	21.9	28.5	-90.6	12.2
2025-01-08 15:59:53.374530	21.5	28.5	-90.5	12.6
2025-01-08 15:59:54.494734	21.2	28.5	-90.8	10.9
2025-01-08 15:59:55.615826	20.8	28.5	-90.9	7.2
2025-01-08 15:59:56.741603	20.5	28.5	-90.7	7.5
2025-01-08 15:59:57.875840	20.1	28.5	-91.4	12.2
2025-01-08 15:59:59.022478	19.7	28.5	-90.8	10.5
2025-01-08 16:00:00.168660	19.4	28.5	-90.1	11.8
2025-01-08 16:00:01.310347	19.0	28.5	-90.4	10.1
2025-01-08 16:00:02.464654	18.6	28.5	-90.8	11.0
2025-01-08 16:00:03.618219	18.3	28.4	-90.5	9.5
2025-01-08 16:00:04.764973	17.9	28.4	-90.2	11.6
2025-01-08 16:00:05.917994	17.6	28.4	-90.5	8.5
2025-01-08 16:00:07.070989	17.2	28.4	-90.2	8.0
2025-01-08 16:00:08.224198	16.8	28.4	-90.1	8.1
2025-01-08 16:00:09.375689	16.5	28.4	-89.8	8.5
2025-01-08 16:00:10.523974	16.1	28.4	-90.5	8.5
2025-01-08 16:00:11.674311	15.7	28.3	-90.1	9.0
2025-01-08 16:00:12.822788	15.4	28.3	-90.0	9.4
2025-01-08 16:00:13.973575	15.0	28.3	-89.9	4.7
2025-01-08 16:00:15.128293	14.7	28.3	-90.1	5.7
2025-01-08 16:00:16.283160	14.3	28.2	-90.7	7.7
2025-01-08 16:00:17.439809	13.9	28.2	-91.4	6.4
2025-01-08 16:00:18.602059	13.6	28.2	-91.2	6.8
2025-01-08 16:00:19.755510	13.2	28.2	-90.5	3.9
2025-01-08 16:00:20.902983	12.9	28.1	-90.5	8.4
2025-01-08 16:00:22.060630	12.5	28.1	-90.4	4.1
2025-01-08 16:00:23.207524	12.2	28.1	-90.2	5.6
2025-01-08 16:00:24.362274	11.8	28.0	-90.1	7.1
2025-01-08 16:00:25.513911	11.4	28.0	-90.3	6.8
2025-01-08 16:00:26.673197	11.1	28.0	-90.3	6.3
2025-01-08 16:00:27.830195	10.7	27.9	-89.9	6.2
2025-01-08 16:00:28.988538	10.4	27.9	-90.2	5.8
2025-01-08 16:00:30.137913	10.0	27.9	-89.4	5.9
2025-01-08 16:00:31.286923	9.7	27.8	-90.3	11.1
2025-01-08 16:00:32.440597	9.3	27.8	-90.2	8.2
2025-01-08 16:00:33.599472	9.0	27.7	-90.1	7.0
2025-01-08 16:00:34.759567	8.6	27.7	-90.0	9.2
2025-01-08 16:00:35.906786	8.3	27.6	-89.9	8.5
2025-01-08 16:00:37.054491	7.9	27.6	-90.2	6.2
2025-01-08 16:00:38.212911	7.6	27.5	-90.0	5.4
2025-01-08 16:00:39.371566	7.2	27.5	-90.0	8.3
2025-01-08 16:00:40.519607	6.9	27.4	-90.2	3.4
2025-01-08 16:00:41.677595	6.6	27.4	-90.9	7.5
2025-01-08 16:00:42.836289	6.2	27.3	-90.9	9.8
2025-01-08 16:00:43.984530	5.9	27.3	-91.0	5.3
2025-01-08 16:00:45.138250	5.5	27.2	-90.7	7.8
2025-01-08 16:00:46.293678	5.2	27.2	-90.5	9.6
2025-01-08 16:00:47.446407	4.9	27.1	-90.8	7.0
2025-01-08 16:00:48.600263	4.5	27.1	-90.5	6.2
2025-01-08 16:00:49.760005	4.2	27.0	-90.4	8.0
2025-01-08 16:00:50.912416	3.9	27.0	-91.0	6.6
2025-01-08 16:00:52.070581	3.5	26.9	-90.6	6.9
2025-01-08 16:00:53.223893	3.2	26.8	-90.4	12.2
2025-01-08 16:00:54.372798	2.9	26.8	-90.7	11.8
2025-01-08 16:00:55.527185	2.5	26.7	-90.9	7.0
2025-01-08 16:00:56.680560	2.2	26.7	-90.9	11.1
2025-01-08 16:00:57.832307	1.9	26.6	-90.7	11.6
2025-01-08 16:00:58.985481	1.6	26.5	-90.8	6.4
2025-01-08 16:01:00.137135	1.2	26.5	-90.6	6.4
2025-01-08 16:01:01.274498	0.9	26.4	-90.5	8.6
2025-01-08 16:01:02.421221	0.6	26.3	-90.7	5.9
2025-01-08 16:01:03.569664	0.3	26.3	-90.9	7.7
2025-01-08 16:01:04.728457	360.0	26.2	-91.2	12.2
2025-01-08 16:01:05.883291	359.7	26.1	-91.1	10.8
2025-01-08 16:01:07.040045	359.3	26.1	-91.1	6.9
2025-01-08 16:01:08.194422	359.0	26.0	-90.6	10.7
2025-01-08 16:01:09.337554	358.7	25.9	-90.8	8.1
2025-01-08 16:01:10.492206	358.4	25.8	-91.2	7.4
2025-01-08 16:01:11.637639	358.1	25.8	-90.8	5.4
2025-01-08 16:01:12.793419	357.8	25.7	-90.7	11.8
2025-01-08 16:01:13.942475	357.5	25.6	-90.8	9.9
2025-01-08 16:01:15.094400	357.2	25.5	-90.5	9.3
2025-01-08 16:01:16.241054	356.9	25.5	-91.0	13.8
2025-01-08 16:01:17.395563	356.6	25.4	-91.1	14.1
2025-01-08 16:01:18.548273	356.3	25.3	-90.9	9.0
2025-01-08 16:01:19.708744	356.0	25.2	-91.1	14.1
2025-01-08 16:01:20.863288	355.7	25.2	-91.2	15.3
2025-01-08 16:01:22.020000	355.4	25.1	-91.0	11.0
2025-01-08 16:01:23.171536	355.1	25.0	-90.5	8.8
2025-01-08 16:01:24.321299	354.8	24.9	-90.9	13.3
2025-01-08 16:01:25.478468	354.5	24.8	-90.9	8.7
2025-01-08 16:01:26.636256	354.2	24.7	-90.3	12.4
2025-01-08 16:01:27.788747	353.9	24.7	-90.4	9.7
2025-01-08 16:01:28.940139	353.6	24.6	-90.4	13.3
2025-01-08 16:01:30.094175	353.4	24.5	-90.6	12.2
2025-01-08 16:01:31.244650	353.1	24.4	-90.4	11.4
2025-01-08 16:01:32.399219	352.8	24.3	-90.2	12.6
2025-01-08 16:01:33.555713	352.5	24.2	-90.5	13.8
2025-01-08 16:01:34.715212	352.2	24.2	-90.5	13.8
2025-01-08 16:01:35.862123	352.0	24.1	-90.7	12.9
2025-01-08 16:01:37.014685	351.7	24.0	-90.4	11.4
2025-01-08 16:01:38.173767	351.4	23.9	-90.1	11.0
2025-01-08 16:01:39.331938	351.1	23.8	-90.1	10.0
2025-01-08 16:01:40.498597	350.9	23.7	-90.0	9.5
2025-01-08 16:01:41.654903	350.6	23.6	-90.7	11.5
2025-01-08 16:01:42.803512	350.3	23.6	-91.0	9.5
2025-01-08 16:01:43.958705	350.1	23.5	-91.2	11.6
2025-01-08 16:01:45.112024	349.8	23.4	-90.6	12.0
2025-01-08 16:01:46.261570	349.5	23.3	-90.7	14.4
2025-01-08 16:01:47.424659	349.3	23.2	-90.5	9.7
2025-01-08 16:01:48.577119	349.0	23.1	-90.7	8.8
2025-01-08 16:01:49.730562	348.7	23.0	-90.1	10.8
2025-01-08 16:01:50.889720	348.5	22.9	-90.3	10.7
2025-01-08 16:01:52.041941	348.2	22.8	-90.6	8.9
2025-01-08 16:01:53.194613	348.0	22.7	-90.5	9.8
2025-01-08 16:01:54.347892	347.7	22.6	-90.6	8.9
2025-01-08 16:01:55.500495	347.5	22.6	-90.6	6.3
2025-01-08 16:01:56.648807	347.2	22.5	-91.1	6.2
2025-01-08 16:01:57.802960	347.0	22.4	-90.5	5.8
2025-01-08 16:01:58.953589	346.7	22.3	-90.8	7.0
2025-01-08 16:02:00.104421	346.5	22.2	-90.3	5.0
2025-01-08 16:02:01.243754	346.2	22.1	-90.1	7.8
2025-01-08 16:02:02.396598	346.0	22.0	-90.2	10.5
2025-01-08 16:02:03.549485	345.7	21.9	-90.6	7.4
2025-01-08 16:02:04.695249	345.5	21.8	-87.4	9.3
2025-01-08 16:02:05.852700	345.3	21.7	-90.2	10.9
2025-01-08 16:02:07.008675	345.0	21.6	-90.5	8.7
2025-01-08 16:02:08.158083	344.8	21.5	-90.1	9.8
2025-01-08 16:02:09.314449	344.6	21.4	-89.9	10.6
2025-01-08 16:02:10.464084	344.3	21.3	-90.5	7.4
2025-01-08 16:02:11.616878	344.1	21.2	-86.7	7.1
2025-01-08 16:02:12.775114	343.9	21.2	-89.5	9.3
2025-01-08 16:02:13.920120	343.6	21.1	-89.8	7.3
2025-01-08 16:02:15.071058	343.4	21.0	-89.8	8.2
2025-01-08 16:02:16.225755	343.2	20.9	-89.9	8.4
2025-01-08 16:02:17.376742	343.0	20.8	-89.3	10.0
2025-01-08 16:02:18.528504	342.7	20.7	-88.6	5.6
2025-01-08 16:02:19.686875	342.5	20.6	-89.6	7.2
2025-01-08 16:02:20.834555	342.3	20.5	-89.6	8.0
2025-01-08 16:02:21.994388	342.1	20.4	-89.9	5.6
2025-01-08 16:02:23.145209	341.9	20.3	-89.4	5.1
2025-01-08 16:02:24.308150	341.6	20.2	-90.2	5.4
2025-01-08 16:02:25.453291	341.4	20.1	-89.2	6.0
2025-01-08 16:02:26.612996	341.2	20.0	-89.9	4.7
2025-01-08 16:02:27.767641	341.0	19.9	-90.6	7.0
2025-01-08 16:02:28.923074	340.8	19.8	-90.4	5.1
2025-01-08 16:02:30.081854	340.6	19.7	-89.5	6.1
2025-01-08 16:02:31.231883	340.4	19.6	-89.5	7.7
2025-01-08 16:02:32.385165	340.2	19.5	-87.5	6.5
2025-01-08 16:02:33.541447	340.0	19.4	-89.2	5.7
2025-01-08 16:02:34.697276	339.8	19.3	-89.8	6.8
2025-01-08 16:02:35.849094	339.5	19.2	-90.3	6.8
2025-01-08 16:02:37.013295	339.3	19.1	-90.1	7.1
2025-01-08 16:02:38.164034	339.1	19.0	-90.0	5.5
2025-01-08 16:02:39.317566	338.9	18.9	-89.1	6.2
2025-01-08 16:02:40.468607	338.7	18.8	-89.8	8.4
2025-01-08 16:02:41.616069	338.6	18.7	-89.6	6.8
2025-01-08 16:02:42.764731	338.4	18.6	-90.3	6.9
2025-01-08 16:02:43.909759	338.2	18.6	-89.7	6.0
2025-01-08 16:02:45.053946	338.0	18.5	-89.6	7.3
2025-01-08 16:02:46.205745	337.8	18.4	-89.5	6.8
2025-01-08 16:02:47.361904	337.6	18.3	-90.1	7.9
2025-01-08 16:02:48.512108	337.4	18.2	-89.6	6.0
2025-01-08 16:02:49.665593	337.2	18.1	-90.0	8.0
2025-01-08 16:02:50.823515	337.0	18.0	-89.9	7.2
2025-01-08 16:02:51.978061	336.8	17.9	-90.2	4.4
2025-01-08 16:02:53.129782	336.7	17.8	-88.9	4.2
2025-01-08 16:02:54.284680	336.5	17.7	-89.8	3.5
2025-01-08 16:02:55.436727	336.3	17.6	-89.9	3.1
2025-01-08 16:02:56.594374	336.1	17.5	-90.2	4.0
2025-01-08 16:02:57.754502	335.9	17.4	-90.8	4.9
2025-01-08 16:02:58.906437	335.8	17.3	-90.4	4.8
2025-01-08 16:03:00.062787	335.6	17.2	-90.1	5.8
2025-01-08 16:03:01.205984	335.4	17.1	-90.5	4.7
2025-01-08 16:03:02.357773	335.2	17.0	-90.5	3.9
2025-01-08 16:03:03.513609	335.0	16.9	-90.7	5.1
2025-01-08 16:03:04.665413	334.9	16.8	-90.7	4.8
2025-01-08 16:03:05.811468	334.7	16.7	-90.7	5.5
2025-01-08 16:03:06.971198	334.5	16.6	-90.9	7.0
2025-01-08 16:03:08.120692	334.4	16.5	-90.2	4.8
2025-01-08 16:03:09.275110	334.2	16.4	-90.6	4.3
2025-01-08 16:03:10.429575	334.0	16.3	-90.6	4.5
2025-01-08 16:03:11.573093	333.9	16.3	-90.4	2.9
2025-01-08 16:03:12.728078	333.7	16.2	-90.2	2.5
2025-01-08 16:03:13.884300	333.5	16.1	-86.2	6.1
2025-01-08 16:03:15.038047	333.4	16.0	-90.7	5.7
2025-01-08 16:03:16.197064	333.2	15.9	-90.4	6.1
2025-01-08 16:03:17.349655	333.0	15.8	-90.6	4.9
2025-01-08 16:03:18.500453	332.9	15.7	-89.9	4.5
2025-01-08 16:03:19.650817	332.7	15.6	-90.5	8.4
2025-01-08 16:03:20.806311	332.6	15.5	-90.6	4.6
2025-01-08 16:03:21.963982	332.4	15.4	-90.7	5.7
2025-01-08 16:03:23.117253	332.3	15.3	-90.5	6.5
2025-01-08 16:03:24.272767	332.1	15.2	-90.5	6.5
2025-01-08 16:03:25.421617	331.9	15.1	-90.8	5.5
2025-01-08 16:03:26.582485	331.8	15.0	-90.8	5.1
2025-01-08 16:03:27.734398	331.6	14.9	-90.8	4.2
2025-01-08 16:03:28.887333	331.5	14.8	-90.6	4.5
2025-01-08 16:03:30.040845	331.3	14.7	-90.4	5.8
2025-01-08 16:03:31.193222	331.2	14.7	-89.8	4.2
2025-01-08 16:03:32.336923	331.0	14.6	-90.2	5.9
#Closed at: 2025-01-08 15:56:24.818913