passes_logs/2025/01/08/LEX_Murmansk/LEX_Murmansk__20250108_152859_NOAA_19_rec.log

#Pass ID: 20250108_152859_NOAA 19
#Satellite: NOAA 19
#Configuration: NOAA 19
#Start time: 2025-01-08 15:28:54.345604

#LorettStation: 1.0.0 05.05.2024
#Station: LEX_Murmansk
#Location: 33.156738 lon 68.926811 lat
#TLE: 1 33591U 09005A   25007.78273938  .00000347  00000+0  20907-3 0  9990
#TLE: 2 33591  99.0209  71.4889 0014647  76.7831 283.4973 14.13254046820526

#Time	Az	El	Level	SNR
2025-01-08 15:29:06.610413	87.4	16.1	-90.3	6.9
2025-01-08 15:29:07.774741	87.3	16.2	-90.3	8.3
2025-01-08 15:29:08.932145	87.2	16.3	-90.6	9.1
2025-01-08 15:29:10.095000	87.0	16.4	-90.5	7.4
2025-01-08 15:29:11.252292	86.9	16.6	-90.4	5.2
2025-01-08 15:29:12.408478	86.7	16.7	-90.8	7.0
2025-01-08 15:29:13.568231	86.6	16.8	-90.8	9.2
2025-01-08 15:29:14.733394	86.4	16.9	-90.6	10.1
2025-01-08 15:29:15.892745	86.3	17.0	-90.7	8.2
2025-01-08 15:29:17.056967	86.2	17.1	-90.3	5.4
2025-01-08 15:29:18.215718	86.0	17.2	-90.4	2.8
2025-01-08 15:29:19.379410	85.9	17.3	-90.2	3.7
2025-01-08 15:29:20.543735	85.7	17.4	-90.7	3.4
2025-01-08 15:29:21.704932	85.5	17.5	-90.8	2.5
2025-01-08 15:29:22.865207	85.4	17.7	-90.9	4.2
2025-01-08 15:29:24.028935	85.2	17.8	-90.5	5.5
2025-01-08 15:29:25.185708	85.1	17.9	-90.3	7.3
2025-01-08 15:29:26.346958	84.9	18.0	-90.7	5.5
2025-01-08 15:29:27.511310	84.8	18.1	-90.4	5.3
2025-01-08 15:29:28.669095	84.6	18.2	-90.8	4.7
2025-01-08 15:29:29.823754	84.4	18.3	-90.6	3.4
2025-01-08 15:29:30.982700	84.3	18.4	-90.7	6.7
2025-01-08 15:29:32.144245	84.1	18.6	-90.6	6.9
2025-01-08 15:29:33.301230	84.0	18.7	-90.7	6.9
2025-01-08 15:29:34.460134	83.8	18.8	-90.2	7.1
2025-01-08 15:29:35.623057	83.6	18.9	-90.6	5.6
2025-01-08 15:29:36.778566	83.5	19.0	-91.1	2.2
2025-01-08 15:29:37.937723	83.3	19.1	-91.0	0.9
2025-01-08 15:29:39.102994	83.1	19.2	-90.7	2.5
2025-01-08 15:29:40.262646	82.9	19.4	-90.5	2.8
2025-01-08 15:29:41.427033	82.8	19.5	-91.0	5.6
2025-01-08 15:29:42.583125	82.6	19.6	-90.3	6.9
2025-01-08 15:29:43.740279	82.4	19.7	-91.0	9.8
2025-01-08 15:29:44.890806	82.2	19.8	-91.1	8.6
2025-01-08 15:29:46.057700	82.1	19.9	-91.3	9.8
2025-01-08 15:29:47.220835	81.9	20.1	-91.0	4.5
2025-01-08 15:29:48.381813	81.7	20.2	-90.6	5.5
2025-01-08 15:29:49.541441	81.5	20.3	-90.9	6.0
2025-01-08 15:29:50.706560	81.3	20.4	-90.8	5.3
2025-01-08 15:29:51.870380	81.1	20.5	-90.9	7.6
2025-01-08 15:29:53.029054	81.0	20.6	-90.1	6.1
2025-01-08 15:29:54.189561	80.8	20.8	-90.3	3.7
2025-01-08 15:29:55.345717	80.6	20.9	-90.4	3.8
2025-01-08 15:29:56.505171	80.4	21.0	-90.7	2.1
2025-01-08 15:29:57.664731	80.2	21.1	-90.7	2.0
2025-01-08 15:29:58.821504	80.0	21.2	-90.7	2.5
2025-01-08 15:29:59.981931	79.8	21.4	-91.0	4.1
2025-01-08 15:30:01.127549	79.6	21.5	-90.6	6.5
2025-01-08 15:30:02.289678	79.4	21.6	-90.8	7.2
2025-01-08 15:30:03.449382	79.2	21.7	-91.1	8.1
2025-01-08 15:30:04.615362	79.0	21.8	-90.9	8.4
2025-01-08 15:30:05.772753	78.8	22.0	-90.8	8.2
2025-01-08 15:30:06.933953	78.6	22.1	-90.7	6.8
2025-01-08 15:30:08.097818	78.4	22.2	-90.9	5.9
2025-01-08 15:30:09.257569	78.2	22.3	-90.7	3.6
2025-01-08 15:30:10.422020	78.0	22.4	-90.9	8.9
2025-01-08 15:30:11.578223	77.7	22.6	-90.7	8.2
2025-01-08 15:30:12.746431	77.5	22.7	-90.3	7.3
2025-01-08 15:30:13.909756	77.3	22.8	-90.5	9.3
2025-01-08 15:30:15.070429	77.1	22.9	-90.5	5.9
2025-01-08 15:30:16.232901	76.9	23.0	-90.7	1.4
2025-01-08 15:30:17.391388	76.7	23.2	-90.6	0.1
2025-01-08 15:30:18.549361	76.4	23.3	-91.0	3.8
2025-01-08 15:30:19.714173	76.2	23.4	-91.1	0.6
2025-01-08 15:30:20.871187	76.0	23.5	-91.1	2.8
2025-01-08 15:30:22.030342	75.8	23.7	-91.0	5.6
2025-01-08 15:30:23.184613	75.5	23.8	-90.6	6.4
2025-01-08 15:30:24.342835	75.3	23.9	-90.8	6.5
2025-01-08 15:30:25.503408	75.1	24.0	-90.6	6.9
2025-01-08 15:30:26.663766	74.8	24.1	-90.1	6.2
2025-01-08 15:30:27.818253	74.6	24.3	-90.2	5.4
2025-01-08 15:30:28.975428	74.3	24.4	-90.5	4.2
2025-01-08 15:30:30.135167	74.1	24.5	-90.1	4.9
2025-01-08 15:30:31.298042	73.9	24.6	-90.0	2.6
2025-01-08 15:30:32.454404	73.6	24.8	-90.6	2.9
2025-01-08 15:30:33.614727	73.4	24.9	-90.8	2.4
2025-01-08 15:30:34.778753	73.1	25.0	-90.6	4.2
2025-01-08 15:30:35.935953	72.9	25.1	-91.0	3.2
2025-01-08 15:30:37.097335	72.6	25.2	-90.7	1.0
2025-01-08 15:30:38.254874	72.4	25.4	-90.6	1.6
2025-01-08 15:30:39.419875	72.1	25.5	-90.7	2.7
2025-01-08 15:30:40.580111	71.9	25.6	-90.9	1.1
2025-01-08 15:30:41.743316	71.6	25.7	-91.0	2.9
2025-01-08 15:30:42.900011	71.3	25.9	-90.9	2.2
2025-01-08 15:30:44.064108	71.1	26.0	-90.7	1.9
2025-01-08 15:30:45.229120	70.8	26.1	-90.5	2.4
2025-01-08 15:30:46.385185	70.5	26.2	-90.9	5.7
2025-01-08 15:30:47.541624	70.3	26.3	-90.8	4.5
2025-01-08 15:30:48.703723	70.0	26.5	-90.5	1.8
2025-01-08 15:30:49.867953	69.7	26.6	-90.9	2.1
2025-01-08 15:30:51.032164	69.4	26.7	-91.0	3.0
2025-01-08 15:30:52.194776	69.1	26.8	-90.5	2.9
2025-01-08 15:30:53.352717	68.9	26.9	-90.7	3.4
2025-01-08 15:30:54.518011	68.6	27.1	-91.1	1.1
2025-01-08 15:30:55.675311	68.3	27.2	-90.6	1.4
2025-01-08 15:30:56.837007	68.0	27.3	-90.8	3.5
2025-01-08 15:30:57.997916	67.7	27.4	-90.9	1.4
2025-01-08 15:30:59.155538	67.4	27.5	-91.2	1.8
2025-01-08 15:31:00.307010	67.1	27.7	-90.7	2.3
2025-01-08 15:31:01.460902	66.8	27.8	-91.0	2.9
2025-01-08 15:31:02.624561	66.5	27.9	-90.8	1.9
2025-01-08 15:31:03.785195	66.2	28.0	-90.9	2.4
2025-01-08 15:31:04.950411	65.9	28.1	-90.8	1.2
2025-01-08 15:31:06.112326	65.6	28.2	-90.4	3.0
2025-01-08 15:31:07.269353	65.3	28.4	-91.1	3.2
2025-01-08 15:31:08.430406	65.0	28.5	-91.2	4.4
2025-01-08 15:31:09.589095	64.7	28.6	-91.2	3.9
2025-01-08 15:31:10.749426	64.4	28.7	-90.5	4.1
2025-01-08 15:31:11.911180	64.1	28.8	-91.2	4.2
2025-01-08 15:31:13.074101	63.7	28.9	-91.2	4.5
2025-01-08 15:31:14.229137	63.4	29.0	-90.9	3.8
2025-01-08 15:31:15.392979	63.1	29.2	-90.9	5.3
2025-01-08 15:31:16.550851	62.8	29.3	-90.9	5.3
2025-01-08 15:31:17.710806	62.5	29.4	-91.1	4.6
2025-01-08 15:31:18.872583	62.1	29.5	-91.1	6.8
2025-01-08 15:31:20.029270	61.8	29.6	-91.2	2.7
2025-01-08 15:31:21.189151	61.5	29.7	-90.6	4.5
2025-01-08 15:31:22.353643	61.1	29.8	-90.3	8.4
2025-01-08 15:31:23.507375	60.8	29.9	-90.9	10.1
2025-01-08 15:31:24.663144	60.4	30.0	-90.4	8.0
2025-01-08 15:31:25.830643	60.1	30.1	-90.5	4.8
2025-01-08 15:31:26.988861	59.7	30.2	-90.5	5.6
2025-01-08 15:31:28.150001	59.4	30.3	-90.7	5.8
2025-01-08 15:31:29.397718	59.0	30.5	-90.3	4.1
2025-01-08 15:31:30.563367	58.7	30.6	-90.3	5.1
2025-01-08 15:31:31.723207	58.3	30.7	-90.8	3.2
2025-01-08 15:31:32.889278	57.9	30.8	-90.8	3.9
2025-01-08 15:31:34.040116	57.6	30.9	-90.1	7.0
2025-01-08 15:31:35.201524	57.2	31.0	-89.9	7.6
2025-01-08 15:31:36.357185	56.9	31.1	-90.0	10.8
2025-01-08 15:31:37.512388	56.5	31.2	-90.4	12.1
2025-01-08 15:31:38.666402	56.1	31.3	-90.7	14.4
2025-01-08 15:31:39.825769	55.8	31.4	-90.6	10.2
2025-01-08 15:31:40.989882	55.4	31.4	-90.7	10.1
2025-01-08 15:31:42.150526	55.0	31.5	-90.4	7.1
2025-01-08 15:31:43.306414	54.6	31.6	-90.7	4.1
2025-01-08 15:31:44.467092	54.3	31.7	-91.2	7.4
2025-01-08 15:31:45.631543	53.9	31.8	-90.8	8.4
2025-01-08 15:31:46.781286	53.5	31.9	-90.5	4.6
2025-01-08 15:31:47.940779	53.1	32.0	-90.8	9.0
2025-01-08 15:31:49.103871	52.7	32.1	-90.9	9.8
2025-01-08 15:31:50.264929	52.3	32.2	-90.9	10.5
2025-01-08 15:31:51.422806	51.9	32.2	-90.8	13.6
2025-01-08 15:31:52.582218	51.5	32.3	-90.8	13.0
2025-01-08 15:31:53.739437	51.1	32.4	-90.9	14.0
2025-01-08 15:31:54.899787	50.7	32.5	-90.3	12.1
2025-01-08 15:31:56.061036	50.3	32.6	-90.4	12.7
2025-01-08 15:31:57.222090	49.9	32.6	-90.5	13.6
2025-01-08 15:31:58.386198	49.5	32.7	-90.2	11.2
2025-01-08 15:31:59.547910	49.1	32.8	-90.7	9.7
2025-01-08 15:32:00.696832	48.7	32.9	-90.4	8.3
2025-01-08 15:32:01.854703	48.3	32.9	-90.5	4.7
2025-01-08 15:32:02.997271	47.9	33.0	-91.2	8.3
2025-01-08 15:32:04.142653	47.5	33.1	-90.5	5.8
2025-01-08 15:32:05.305403	47.1	33.1	-90.3	6.5
2025-01-08 15:32:06.465243	46.7	33.2	-90.8	10.4
2025-01-08 15:32:07.624004	46.3	33.3	-91.0	12.5
2025-01-08 15:32:08.782937	45.8	33.3	-90.7	9.4
2025-01-08 15:32:09.953834	45.4	33.4	-91.1	17.9
2025-01-08 15:32:11.117035	45.0	33.4	-91.1	15.1
2025-01-08 15:32:12.278141	44.6	33.5	-91.1	16.1
2025-01-08 15:32:13.439170	44.1	33.6	-91.0	16.2
2025-01-08 15:32:14.600717	43.7	33.6	-91.4	14.8
2025-01-08 15:32:15.763969	43.3	33.7	-91.0	14.4
2025-01-08 15:32:16.914890	42.9	33.7	-91.3	11.5
2025-01-08 15:32:18.081525	42.4	33.8	-91.1	13.0
2025-01-08 15:32:19.243939	42.0	33.8	-90.7	7.5
2025-01-08 15:32:20.409367	41.6	33.8	-90.7	7.1
2025-01-08 15:32:21.571539	41.1	33.9	-91.0	6.6
2025-01-08 15:32:22.737953	40.7	33.9	-91.0	3.1
2025-01-08 15:32:23.897601	40.2	34.0	-91.1	6.3
2025-01-08 15:32:25.054256	39.8	34.0	-90.9	5.8
2025-01-08 15:32:26.216336	39.4	34.0	-90.1	1.9
2025-01-08 15:32:27.380318	38.9	34.1	-90.6	3.8
2025-01-08 15:32:28.542539	38.5	34.1	-90.7	5.5
2025-01-08 15:32:29.698532	38.0	34.1	-90.7	6.8
2025-01-08 15:32:30.853230	37.6	34.2	-90.6	5.9
2025-01-08 15:32:32.012761	37.2	34.2	-90.8	8.2
2025-01-08 15:32:33.167186	36.7	34.2	-90.8	7.5
2025-01-08 15:32:34.331114	36.3	34.2	-90.8	8.7
2025-01-08 15:32:35.489872	35.8	34.3	-90.7	11.8
2025-01-08 15:32:36.653973	35.4	34.3	-90.7	13.3
2025-01-08 15:32:37.818602	34.9	34.3	-90.9	10.4
2025-01-08 15:32:38.988284	34.5	34.3	-90.5	10.7
2025-01-08 15:32:40.152904	34.0	34.3	-90.5	11.4
2025-01-08 15:32:41.311119	33.6	34.3	-90.7	13.0
2025-01-08 15:32:42.471901	33.1	34.3	-90.8	15.3
2025-01-08 15:32:43.632152	32.7	34.3	-90.5	16.6
2025-01-08 15:32:44.788687	32.3	34.3	-90.6	13.7
2025-01-08 15:32:45.948147	31.8	34.3	-90.3	13.9
2025-01-08 15:32:47.102364	31.4	34.3	-90.7	13.7
2025-01-08 15:32:48.255285	30.9	34.3	-90.5	11.6
2025-01-08 15:32:49.418569	30.5	34.3	-90.7	9.1
2025-01-08 15:32:50.573616	30.0	34.3	-90.8	11.0
2025-01-08 15:32:51.740246	29.6	34.3	-90.9	6.5
2025-01-08 15:32:52.898646	29.1	34.3	-90.6	6.0
2025-01-08 15:32:54.056261	28.7	34.3	-90.6	6.7
2025-01-08 15:32:55.224774	28.2	34.3	-90.4	4.8
2025-01-08 15:32:56.383570	27.8	34.3	-90.4	4.9
2025-01-08 15:32:57.542540	27.3	34.3	-90.7	6.7
2025-01-08 15:32:58.707648	26.9	34.2	-91.0	6.2
2025-01-08 15:32:59.865628	26.5	34.2	-90.7	4.2
2025-01-08 15:33:01.017817	26.0	34.2	-90.9	6.9
2025-01-08 15:33:02.178425	25.6	34.2	-90.7	4.1
2025-01-08 15:33:03.336388	25.1	34.1	-91.1	3.4
2025-01-08 15:33:04.494788	24.7	34.1	-90.9	5.4
2025-01-08 15:33:05.655653	24.3	34.1	-91.0	4.3
2025-01-08 15:33:06.808505	23.8	34.0	-91.0	3.0
2025-01-08 15:33:07.969093	23.4	34.0	-91.2	6.4
2025-01-08 15:33:09.129436	22.9	34.0	-90.7	6.6
2025-01-08 15:33:10.288551	22.5	33.9	-90.8	4.4
2025-01-08 15:33:11.450996	22.1	33.9	-91.0	6.4
2025-01-08 15:33:12.615598	21.6	33.9	-91.2	8.5
2025-01-08 15:33:13.779759	21.2	33.8	-91.3	7.1
2025-01-08 15:33:14.934969	20.8	33.8	-91.0	6.5
2025-01-08 15:33:16.097307	20.3	33.7	-90.8	7.3
2025-01-08 15:33:17.257326	19.9	33.7	-90.7	7.0
2025-01-08 15:33:18.413355	19.5	33.6	-90.8	7.5
2025-01-08 15:33:19.581561	19.0	33.6	-91.4	8.3
2025-01-08 15:33:20.748097	18.6	33.5	-91.3	6.1
2025-01-08 15:33:21.905921	18.2	33.4	-91.4	7.8
2025-01-08 15:33:23.074273	17.8	33.4	-91.0	9.7
2025-01-08 15:33:24.223721	17.4	33.3	-90.9	6.7
2025-01-08 15:33:25.377613	16.9	33.3	-90.8	7.1
2025-01-08 15:33:26.531504	16.5	33.2	-90.7	9.5
2025-01-08 15:33:27.696173	16.1	33.1	-91.1	6.2
2025-01-08 15:33:28.860891	15.7	33.1	-90.9	8.1
2025-01-08 15:33:30.029534	15.3	33.0	-91.1	7.4
2025-01-08 15:33:31.195365	14.9	32.9	-90.7	7.5
2025-01-08 15:33:32.360088	14.4	32.9	-90.9	8.5
2025-01-08 15:33:33.518436	14.0	32.8	-90.5	9.6
2025-01-08 15:33:34.666807	13.6	32.7	-90.9	8.2
2025-01-08 15:33:35.828573	13.2	32.6	-90.9	6.8
2025-01-08 15:33:36.986361	12.8	32.6	-90.8	8.1
2025-01-08 15:33:38.147674	12.4	32.5	-90.6	9.3
2025-01-08 15:33:39.302708	12.0	32.4	-90.7	8.0
2025-01-08 15:33:40.458288	11.6	32.3	-91.0	8.5
2025-01-08 15:33:41.620743	11.3	32.2	-90.9	8.7
2025-01-08 15:33:42.782743	10.9	32.2	-91.0	6.1
2025-01-08 15:33:43.937886	10.5	32.1	-91.1	9.5
2025-01-08 15:33:45.092187	10.1	32.0	-91.0	7.4
2025-01-08 15:33:46.248988	9.7	31.9	-91.1	4.6
2025-01-08 15:33:47.408152	9.3	31.8	-91.4	8.3
2025-01-08 15:33:48.562179	8.9	31.7	-90.9	8.6
2025-01-08 15:33:49.726094	8.6	31.6	-91.0	5.8
2025-01-08 15:33:50.889273	8.2	31.5	-91.3	6.4
2025-01-08 15:33:52.056263	7.8	31.5	-91.1	7.5
2025-01-08 15:33:53.220069	7.4	31.4	-91.0	3.6
2025-01-08 15:33:54.379638	7.1	31.3	-90.9	5.5
2025-01-08 15:33:55.543083	6.7	31.2	-91.3	6.4
2025-01-08 15:33:56.698655	6.3	31.1	-91.3	4.4
2025-01-08 15:33:57.870289	6.0	31.0	-91.2	4.0
2025-01-08 15:33:59.026782	5.6	30.9	-91.1	2.4
2025-01-08 15:34:00.188351	5.2	30.8	-91.1	1.3
2025-01-08 15:34:01.344157	4.9	30.7	-91.2	3.7
2025-01-08 15:34:02.504852	4.5	30.6	-91.5	2.9
2025-01-08 15:34:03.663917	4.2	30.5	-91.0	2.9
2025-01-08 15:34:04.817957	3.8	30.4	-91.3	1.7
2025-01-08 15:34:05.975121	3.5	30.3	-90.9	3.3
2025-01-08 15:34:07.138473	3.1	30.2	-90.7	2.7
2025-01-08 15:34:08.299658	2.8	30.0	-90.6	3.2
2025-01-08 15:34:09.461652	2.4	29.9	-90.9	2.2
2025-01-08 15:34:10.620114	2.1	29.8	-91.2	3.5
2025-01-08 15:34:11.781705	1.8	29.7	-91.2	2.4
2025-01-08 15:34:12.936470	1.4	29.6	-90.7	5.3
2025-01-08 15:34:14.102627	1.1	29.5	-90.4	6.3
2025-01-08 15:34:15.257682	0.8	29.4	-89.6	3.3
2025-01-08 15:34:16.417197	0.4	29.3	-91.1	3.7
2025-01-08 15:34:17.578204	0.1	29.2	-91.1	5.4
2025-01-08 15:34:18.734464	359.8	29.1	-91.0	3.8
2025-01-08 15:34:19.894070	359.5	28.9	-91.2	5.0
2025-01-08 15:34:21.059350	359.2	28.8	-91.3	6.8
2025-01-08 15:34:22.213644	358.8	28.7	-90.6	6.5
2025-01-08 15:34:23.371735	358.5	28.6	-90.7	5.4
2025-01-08 15:34:24.525003	358.2	28.5	-91.1	7.0
2025-01-08 15:34:25.687949	357.9	28.4	-90.6	2.3
2025-01-08 15:34:26.846980	357.6	28.3	-90.6	3.0
2025-01-08 15:34:28.010522	357.3	28.1	-90.5	4.2
2025-01-08 15:34:29.171148	357.0	28.0	-91.0	7.2
2025-01-08 15:34:30.329149	356.7	27.9	-90.8	6.7
2025-01-08 15:34:31.491584	356.4	27.8	-91.1	8.5
2025-01-08 15:34:32.652838	356.1	27.7	-90.8	5.5
2025-01-08 15:34:33.811006	355.8	27.6	-91.2	6.5
2025-01-08 15:34:34.962742	355.5	27.4	-90.9	5.2
2025-01-08 15:34:36.127501	355.2	27.3	-91.0	6.4
2025-01-08 15:34:37.285281	354.9	27.2	-90.8	3.4
2025-01-08 15:34:38.451254	354.7	27.1	-90.8	4.2
2025-01-08 15:34:39.613949	354.4	27.0	-91.3	3.6
2025-01-08 15:34:40.775372	354.1	26.8	-90.3	2.1
2025-01-08 15:34:41.933725	353.8	26.7	-90.8	2.2
2025-01-08 15:34:43.095049	353.5	26.6	-90.5	5.1
2025-01-08 15:34:44.252565	353.3	26.5	-90.8	2.9
2025-01-08 15:34:45.413108	353.0	26.4	-91.1	3.2
2025-01-08 15:34:46.595430	352.7	26.2	-90.9	4.2
2025-01-08 15:34:47.763174	352.4	26.1	-90.8	3.2
2025-01-08 15:34:48.919535	352.2	26.0	-91.0	3.8
2025-01-08 15:34:50.083498	351.9	25.9	-88.8	2.3
2025-01-08 15:34:51.246017	351.6	25.8	-89.9	4.1
2025-01-08 15:34:52.405012	351.4	25.6	-91.0	5.9
2025-01-08 15:34:53.572179	351.1	25.5	-91.2	7.5
2025-01-08 15:34:54.728239	350.9	25.4	-91.0	8.9
2025-01-08 15:34:55.894221	350.6	25.3	-91.1	8.7
2025-01-08 15:34:57.057412	350.4	25.1	-89.1	7.9
2025-01-08 15:34:58.215665	350.1	25.0	-87.1	9.1
2025-01-08 15:34:59.386945	349.9	24.9	-90.6	8.3
2025-01-08 15:35:00.535939	349.6	24.8	-87.9	8.8
2025-01-08 15:35:01.697603	349.4	24.7	-89.6	8.6
2025-01-08 15:35:02.836103	349.1	24.5	-87.1	4.6
2025-01-08 15:35:03.996338	348.9	24.4	-89.5	5.3
2025-01-08 15:35:05.151777	348.7	24.3	-87.7	5.3
2025-01-08 15:35:06.315501	348.4	24.2	-89.1	5.8
2025-01-08 15:35:07.477284	348.2	24.0	-90.3	6.8
2025-01-08 15:35:08.643333	347.9	23.9	-90.2	5.5
2025-01-08 15:35:09.803045	347.7	23.8	-88.3	3.6
2025-01-08 15:35:10.967667	347.5	23.7	-89.4	5.5
2025-01-08 15:35:12.134342	347.3	23.6	-90.2	5.6
2025-01-08 15:35:13.302580	347.0	23.4	-89.4	4.1
2025-01-08 15:35:14.459684	346.8	23.3	-90.9	3.9
2025-01-08 15:35:15.618317	346.6	23.2	-91.1	4.0
2025-01-08 15:35:16.780545	346.4	23.1	-91.3	4.2
2025-01-08 15:35:17.947565	346.1	23.0	-91.0	2.5
2025-01-08 15:35:19.103223	345.9	22.8	-89.7	5.4
2025-01-08 15:35:20.262123	345.7	22.7	-90.9	6.6
2025-01-08 15:35:21.428309	345.5	22.6	-91.3	5.0
2025-01-08 15:35:22.589801	345.3	22.5	-91.5	6.4
2025-01-08 15:35:23.752503	345.1	22.3	-91.1	9.2
2025-01-08 15:35:24.906995	344.9	22.2	-90.5	6.4
2025-01-08 15:35:26.067141	344.7	22.1	-90.9	8.7
2025-01-08 15:35:27.222586	344.5	22.0	-90.9	6.3
2025-01-08 15:35:28.383370	344.3	21.9	-90.3	5.9
2025-01-08 15:35:29.543373	344.0	21.7	-90.9	6.2
2025-01-08 15:35:30.706019	343.8	21.6	-90.9	3.5
2025-01-08 15:35:31.865635	343.6	21.5	-90.6	3.6
2025-01-08 15:35:33.024485	343.5	21.4	-91.0	6.3
2025-01-08 15:35:34.180896	343.3	21.3	-90.5	3.5
2025-01-08 15:35:35.334222	343.1	21.2	-90.7	5.2
2025-01-08 15:35:36.497031	342.9	21.0	-90.7	5.6
2025-01-08 15:35:37.661031	342.7	20.9	-90.8	5.8
2025-01-08 15:35:38.821795	342.5	20.8	-90.7	5.4
2025-01-08 15:35:39.982451	342.3	20.7	-90.7	3.8
2025-01-08 15:35:41.137754	342.1	20.6	-90.4	5.4
2025-01-08 15:35:42.296995	341.9	20.4	-90.7	3.3
2025-01-08 15:35:43.463050	341.7	20.3	-90.8	4.4
2025-01-08 15:35:44.618725	341.6	20.2	-90.7	3.9
2025-01-08 15:35:45.777824	341.4	20.1	-90.8	2.2
2025-01-08 15:35:46.947606	341.2	20.0	-90.6	2.6
2025-01-08 15:35:48.110510	341.0	19.9	-90.2	2.6
2025-01-08 15:35:49.273293	340.8	19.7	-90.5	1.1
2025-01-08 15:35:50.437008	340.7	19.6	-90.7	1.6
2025-01-08 15:35:51.600550	340.5	19.5	-91.0	2.7
2025-01-08 15:35:52.766782	340.3	19.4	-90.9	1.9
2025-01-08 15:35:53.928936	340.1	19.3	-90.9	2.8
2025-01-08 15:35:55.078712	340.0	19.2	-90.8	2.0
2025-01-08 15:35:56.235425	339.8	19.1	-90.8	1.7
2025-01-08 15:35:57.394997	339.6	18.9	-90.7	2.6
2025-01-08 15:35:58.560421	339.5	18.8	-90.9	4.1
2025-01-08 15:35:59.718911	339.3	18.7	-91.0	2.2
2025-01-08 15:36:00.866817	339.1	18.6	-90.5	2.2
2025-01-08 15:36:02.026561	339.0	18.5	-90.0	3.9
2025-01-08 15:36:03.188580	338.8	18.4	-90.5	6.2
2025-01-08 15:36:04.356206	338.7	18.3	-90.9	4.6
2025-01-08 15:36:05.512380	338.5	18.1	-91.5	4.1
2025-01-08 15:36:06.676600	338.3	18.0	-91.0	5.4
2025-01-08 15:36:07.835818	338.2	17.9	-91.0	5.6
2025-01-08 15:36:08.994849	338.0	17.8	-91.0	4.2
2025-01-08 15:36:10.154002	337.9	17.7	-91.1	3.5
2025-01-08 15:36:11.314456	337.7	17.6	-91.2	3.4
2025-01-08 15:36:12.478634	337.6	17.5	-90.8	5.3
2025-01-08 15:36:13.640809	337.4	17.4	-90.9	2.2
2025-01-08 15:36:14.800441	337.3	17.3	-91.0	2.0
2025-01-08 15:36:15.963736	337.1	17.1	-90.8	3.8
2025-01-08 15:36:17.124268	337.0	17.0	-90.8	3.2
2025-01-08 15:36:18.282715	336.8	16.9	-90.7	4.3
2025-01-08 15:36:19.446789	336.7	16.8	-91.1	3.4
2025-01-08 15:36:20.592158	336.5	16.7	-90.8	3.7
2025-01-08 15:36:21.757197	336.4	16.6	-90.7	3.2
2025-01-08 15:36:22.916599	336.2	16.5	-91.0	4.3
2025-01-08 15:36:24.084288	336.1	16.4	-90.3	2.8
2025-01-08 15:36:25.241708	336.0	16.3	-90.3	2.8
2025-01-08 15:36:26.402503	335.8	16.2	-90.6	3.4
2025-01-08 15:36:27.562536	335.7	16.1	-90.4	3.8
2025-01-08 15:36:28.716494	335.5	16.0	-90.8	1.4
2025-01-08 15:36:29.865483	335.4	15.8	-90.6	3.9
2025-01-08 15:36:31.015405	335.3	15.7	-90.6	3.8
2025-01-08 15:36:32.172432	335.1	15.6	-91.0	1.9
2025-01-08 15:36:33.333682	335.0	15.5	-90.8	2.6
2025-01-08 15:36:34.495905	334.9	15.4	-91.1	3.6
2025-01-08 15:36:35.653833	334.7	15.3	-91.1	2.9
2025-01-08 15:36:36.818696	334.6	15.2	-90.7	5.9
2025-01-08 15:36:37.975914	334.5	15.1	-90.7	4.9
2025-01-08 15:36:39.138224	334.4	15.0	-90.6	3.1
2025-01-08 15:36:40.294310	334.2	14.9	-91.0	3.3
2025-01-08 15:36:41.455683	334.1	14.8	-91.2	4.1
2025-01-08 15:36:42.613654	334.0	14.7	-91.1	2.6
2025-01-08 15:36:43.769461	333.9	14.6	-91.0	0.5
#Closed at: 2025-01-08 15:28:59.432855