passes_logs/2025/01/08/LEX_Murmansk/LEX_Murmansk__20250108_123718_NOAA_18_rec.log

#Pass ID: 20250108_123718_NOAA 18
#Satellite: NOAA 18
#Configuration: NOAA 18
#Start time: 2025-01-08 12:37:13.519067

#LorettStation: 1.0.0 05.05.2024
#Station: LEX_Murmansk
#Location: 33.156738 lon 68.926811 lat
#TLE: 1 28654U 05018A   25007.80096224  .00000414  00000+0  24332-3 0  9999
#TLE: 2 28654  98.8579  88.9263 0014020 199.4461 160.6178 14.13480585 12168

#Time	Az	El	Level	SNR
2025-01-08 12:37:25.750017	24.8	16.1	-91.3	8.1
2025-01-08 12:37:26.905498	24.7	16.2	-90.9	6.8
2025-01-08 12:37:28.055442	24.5	16.3	-90.8	6.3
2025-01-08 12:37:29.207289	24.4	16.4	-90.8	9.2
2025-01-08 12:37:30.356858	24.2	16.5	-90.8	7.0
2025-01-08 12:37:31.510847	24.1	16.6	-91.1	6.3
2025-01-08 12:37:32.669293	23.9	16.7	-91.3	6.5
2025-01-08 12:37:33.815431	23.8	16.8	-90.8	9.6
2025-01-08 12:37:34.972218	23.6	16.9	-91.3	8.4
2025-01-08 12:37:36.118949	23.5	17.0	-91.0	8.8
2025-01-08 12:37:37.274334	23.3	17.1	-90.9	9.2
2025-01-08 12:37:38.424490	23.1	17.2	-90.8	4.9
2025-01-08 12:37:39.574747	23.0	17.3	-90.8	6.2
2025-01-08 12:37:40.723149	22.8	17.4	-90.9	8.3
2025-01-08 12:37:41.868667	22.7	17.5	-91.3	7.7
2025-01-08 12:37:43.019511	22.5	17.6	-91.3	7.0
2025-01-08 12:37:44.168162	22.3	17.7	-90.9	8.4
2025-01-08 12:37:45.316085	22.2	17.8	-90.7	7.3
2025-01-08 12:37:46.462985	22.0	17.9	-91.0	6.3
2025-01-08 12:37:47.616910	21.8	18.0	-91.1	6.7
2025-01-08 12:37:48.774570	21.7	18.1	-90.8	5.8
2025-01-08 12:37:49.929406	21.5	18.2	-90.6	5.7
2025-01-08 12:37:51.083947	21.3	18.3	-90.8	7.3
2025-01-08 12:37:52.236299	21.1	18.4	-91.0	13.1
2025-01-08 12:37:53.384798	21.0	18.5	-91.1	11.6
2025-01-08 12:37:54.535264	20.8	18.6	-91.3	10.6
2025-01-08 12:37:55.683978	20.6	18.7	-90.9	12.6
2025-01-08 12:37:56.836472	20.4	18.8	-90.9	8.3
2025-01-08 12:37:57.980947	20.3	18.9	-89.9	9.6
2025-01-08 12:37:59.136188	20.1	19.0	-90.8	8.4
2025-01-08 12:38:00.281720	19.9	19.1	-91.0	9.7
2025-01-08 12:38:01.429239	19.7	19.2	-91.5	5.4
2025-01-08 12:38:02.576582	19.5	19.3	-91.0	5.5
2025-01-08 12:38:03.730599	19.3	19.4	-91.2	9.6
2025-01-08 12:38:04.886819	19.1	19.6	-91.2	6.7
2025-01-08 12:38:06.046531	19.0	19.7	-91.1	8.9
2025-01-08 12:38:07.206015	18.8	19.8	-90.9	10.9
2025-01-08 12:38:08.363524	18.6	19.9	-89.9	10.3
2025-01-08 12:38:09.516233	18.4	20.0	-91.1	8.3
2025-01-08 12:38:10.668283	18.2	20.1	-91.4	9.1
2025-01-08 12:38:11.824697	18.0	20.2	-90.7	9.7
2025-01-08 12:38:12.977079	17.8	20.3	-90.2	8.5
2025-01-08 12:38:14.125229	17.6	20.4	-90.4	10.0
2025-01-08 12:38:15.274629	17.4	20.5	-90.2	8.8
2025-01-08 12:38:16.427186	17.2	20.6	-90.7	8.9
2025-01-08 12:38:17.572852	17.0	20.7	-90.6	7.6
2025-01-08 12:38:18.719162	16.8	20.8	-90.7	6.1
2025-01-08 12:38:19.873491	16.6	20.9	-90.3	7.0
2025-01-08 12:38:21.030897	16.4	21.0	-91.2	6.2
2025-01-08 12:38:22.176474	16.2	21.2	-90.3	7.4
2025-01-08 12:38:23.331009	16.0	21.3	-91.0	9.0
2025-01-08 12:38:24.481443	15.7	21.4	-91.1	6.5
2025-01-08 12:38:25.628290	15.5	21.5	-91.1	8.5
2025-01-08 12:38:26.787320	15.3	21.6	-91.5	7.2
2025-01-08 12:38:27.942272	15.1	21.7	-91.3	8.0
2025-01-08 12:38:29.099388	14.9	21.8	-90.9	7.0
2025-01-08 12:38:30.248273	14.7	21.9	-91.3	6.8
2025-01-08 12:38:31.404854	14.4	22.0	-91.2	9.2
2025-01-08 12:38:32.553442	14.2	22.1	-91.1	7.4
2025-01-08 12:38:33.701252	14.0	22.2	-91.3	8.2
2025-01-08 12:38:34.856470	13.8	22.3	-91.3	10.7
2025-01-08 12:38:36.010503	13.6	22.4	-91.2	10.1
2025-01-08 12:38:37.158765	13.3	22.5	-90.9	9.5
2025-01-08 12:38:38.309839	13.1	22.6	-90.8	13.7
2025-01-08 12:38:39.457466	12.9	22.8	-91.5	13.1
2025-01-08 12:38:40.605513	12.6	22.9	-91.3	9.5
2025-01-08 12:38:41.759625	12.4	23.0	-91.4	11.9
2025-01-08 12:38:42.910304	12.2	23.1	-90.9	10.2
2025-01-08 12:38:44.056657	11.9	23.2	-91.3	8.0
2025-01-08 12:38:45.205299	11.7	23.3	-91.3	12.6
2025-01-08 12:38:46.356791	11.4	23.4	-91.0	10.2
2025-01-08 12:38:47.514026	11.2	23.5	-91.5	7.5
2025-01-08 12:38:48.663954	11.0	23.6	-91.2	10.9
2025-01-08 12:38:49.819788	10.7	23.7	-91.1	10.1
2025-01-08 12:38:50.971172	10.5	23.8	-91.3	10.6
2025-01-08 12:38:52.123227	10.2	23.9	-91.2	7.8
2025-01-08 12:38:53.282057	10.0	24.0	-91.0	10.7
2025-01-08 12:38:54.445157	9.7	24.1	-91.3	5.9
2025-01-08 12:38:55.603329	9.5	24.2	-91.4	5.8
2025-01-08 12:38:56.760749	9.2	24.3	-91.4	9.1
2025-01-08 12:38:57.914900	8.9	24.4	-91.7	8.0
2025-01-08 12:38:59.073536	8.7	24.6	-91.3	9.4
2025-01-08 12:39:00.220809	8.4	24.7	-91.1	10.5
2025-01-08 12:39:01.361551	8.2	24.8	-90.9	9.8
2025-01-08 12:39:02.510758	7.9	24.9	-90.9	9.1
2025-01-08 12:39:03.661279	7.6	25.0	-91.5	8.7
2025-01-08 12:39:04.819864	7.4	25.1	-91.1	8.4
2025-01-08 12:39:05.965252	7.1	25.2	-91.4	6.4
2025-01-08 12:39:07.122455	6.8	25.3	-91.2	5.5
2025-01-08 12:39:08.275729	6.5	25.4	-91.3	10.8
2025-01-08 12:39:09.430984	6.3	25.5	-91.6	6.5
2025-01-08 12:39:10.581416	6.0	25.6	-91.3	8.0
2025-01-08 12:39:11.730124	5.7	25.7	-91.3	10.7
2025-01-08 12:39:12.883865	5.4	25.8	-91.6	7.0
2025-01-08 12:39:14.038798	5.1	25.9	-91.5	7.6
2025-01-08 12:39:15.187147	4.9	26.0	-91.4	8.4
2025-01-08 12:39:16.341702	4.6	26.1	-91.6	11.1
2025-01-08 12:39:17.489426	4.3	26.2	-91.4	8.1
2025-01-08 12:39:18.635631	4.0	26.3	-91.3	9.3
2025-01-08 12:39:19.792104	3.7	26.4	-91.6	13.9
2025-01-08 12:39:20.942029	3.4	26.5	-91.2	10.4
2025-01-08 12:39:22.090464	3.1	26.6	-90.6	10.7
2025-01-08 12:39:23.244558	2.8	26.7	-90.9	11.7
2025-01-08 12:39:24.405090	2.5	26.8	-90.9	11.5
2025-01-08 12:39:25.559834	2.2	26.9	-91.3	14.1
2025-01-08 12:39:26.715642	1.9	26.9	-90.8	12.9
2025-01-08 12:39:27.866281	1.6	27.0	-91.6	12.1
2025-01-08 12:39:29.012726	1.3	27.1	-91.2	8.7
2025-01-08 12:39:30.163753	1.0	27.2	-90.9	9.9
2025-01-08 12:39:31.313072	0.7	27.3	-91.1	10.7
2025-01-08 12:39:32.466522	0.4	27.4	-91.4	4.9
2025-01-08 12:39:33.624820	0.1	27.5	-91.5	6.0
2025-01-08 12:39:34.782110	359.7	27.6	-91.8	8.2
2025-01-08 12:39:35.927445	359.4	27.7	-91.6	5.2
2025-01-08 12:39:37.075068	359.1	27.8	-91.4	6.5
2025-01-08 12:39:38.226379	358.8	27.9	-91.5	8.5
2025-01-08 12:39:39.374399	358.5	27.9	-91.2	5.1
2025-01-08 12:39:40.526477	358.1	28.0	-91.5	6.9
2025-01-08 12:39:41.675265	357.8	28.1	-91.6	4.8
2025-01-08 12:39:42.831818	357.5	28.2	-91.5	7.4
2025-01-08 12:39:43.981319	357.2	28.3	-91.7	6.0
2025-01-08 12:39:45.131453	356.8	28.4	-91.6	7.2
2025-01-08 12:39:46.286934	356.5	28.5	-91.0	9.7
2025-01-08 12:39:47.435322	356.2	28.5	-91.3	9.3
2025-01-08 12:39:48.584095	355.8	28.6	-91.7	7.6
2025-01-08 12:39:49.737345	355.5	28.7	-91.8	13.1
2025-01-08 12:39:50.886166	355.2	28.8	-91.6	12.6
2025-01-08 12:39:52.038517	354.8	28.9	-90.7	10.5
2025-01-08 12:39:53.189185	354.5	28.9	-89.7	11.5
2025-01-08 12:39:54.337697	354.1	29.0	-91.1	11.6
2025-01-08 12:39:55.488752	353.8	29.1	-91.6	9.4
2025-01-08 12:39:56.638030	353.4	29.2	-91.2	9.4
2025-01-08 12:39:57.793874	353.1	29.2	-91.3	8.4
2025-01-08 12:39:58.945956	352.7	29.3	-91.2	8.0
2025-01-08 12:40:00.098541	352.4	29.4	-91.2	9.6
2025-01-08 12:40:01.239381	352.0	29.4	-87.6	9.8
2025-01-08 12:40:02.389770	351.7	29.5	-91.3	10.5
2025-01-08 12:40:03.537652	351.3	29.6	-91.2	4.3
2025-01-08 12:40:04.690708	351.0	29.7	-91.1	8.5
2025-01-08 12:40:05.842661	350.6	29.7	-90.7	9.4
2025-01-08 12:40:06.996128	350.2	29.8	-91.0	3.9
2025-01-08 12:40:08.145032	349.9	29.8	-89.8	6.6
2025-01-08 12:40:09.300838	349.5	29.9	-90.9	8.6
2025-01-08 12:40:10.451879	349.1	30.0	-91.3	6.8
2025-01-08 12:40:11.602643	348.8	30.0	-90.3	8.1
2025-01-08 12:40:12.760891	348.4	30.1	-90.9	11.9
2025-01-08 12:40:13.920162	348.0	30.1	-91.0	9.2
2025-01-08 12:40:15.067647	347.7	30.2	-90.9	8.8
2025-01-08 12:40:16.232944	347.3	30.3	-90.8	12.2
2025-01-08 12:40:17.384728	346.9	30.3	-90.8	11.2
2025-01-08 12:40:18.535113	346.5	30.4	-91.4	11.6
2025-01-08 12:40:19.693327	346.2	30.4	-91.5	14.2
2025-01-08 12:40:20.839966	345.8	30.5	-91.2	14.0
2025-01-08 12:40:21.988296	345.4	30.5	-90.6	9.3
2025-01-08 12:40:23.145780	345.0	30.6	-90.4	10.3
2025-01-08 12:40:24.299576	344.6	30.6	-90.9	9.5
2025-01-08 12:40:25.456968	344.2	30.7	-91.2	8.1
2025-01-08 12:40:26.604181	343.9	30.7	-91.4	6.2
2025-01-08 12:40:27.750586	343.5	30.7	-91.4	8.4
2025-01-08 12:40:28.895742	343.1	30.8	-91.3	11.0
2025-01-08 12:40:30.041234	342.7	30.8	-91.4	9.0
2025-01-08 12:40:31.193720	342.3	30.9	-91.2	8.8
2025-01-08 12:40:32.347412	341.9	30.9	-90.9	8.1
2025-01-08 12:40:33.496523	341.6	30.9	-91.4	9.0
2025-01-08 12:40:34.651311	341.2	31.0	-91.5	7.2
2025-01-08 12:40:35.808092	340.8	31.0	-91.2	9.8
2025-01-08 12:40:36.955426	340.4	31.0	-91.6	10.5
2025-01-08 12:40:38.109075	340.0	31.1	-90.9	11.3
2025-01-08 12:40:39.258316	339.6	31.1	-91.1	12.8
2025-01-08 12:40:40.410551	339.2	31.1	-91.0	11.6
2025-01-08 12:40:41.559605	338.8	31.1	-91.6	9.7
2025-01-08 12:40:42.720828	338.4	31.2	-91.3	13.4
2025-01-08 12:40:43.876004	338.0	31.2	-91.5	13.8
2025-01-08 12:40:45.025245	337.6	31.2	-91.0	9.2
2025-01-08 12:40:46.172890	337.2	31.2	-90.8	10.3
2025-01-08 12:40:47.330448	336.8	31.2	-90.9	10.4
2025-01-08 12:40:48.482905	336.4	31.2	-91.4	7.2
2025-01-08 12:40:49.639271	336.0	31.3	-91.3	10.1
2025-01-08 12:40:50.792562	335.6	31.3	-91.3	13.3
2025-01-08 12:40:51.940146	335.2	31.3	-91.6	7.7
2025-01-08 12:40:53.088769	334.8	31.3	-91.3	8.1
2025-01-08 12:40:54.235593	334.4	31.3	-91.5	11.2
2025-01-08 12:40:55.390129	334.0	31.3	-91.6	11.4
2025-01-08 12:40:56.540565	333.6	31.3	-91.5	9.9
2025-01-08 12:40:57.691312	333.2	31.3	-91.1	10.9
2025-01-08 12:40:58.841089	332.8	31.3	-91.3	10.8
2025-01-08 12:40:59.989272	332.4	31.3	-91.6	8.0
2025-01-08 12:41:01.130334	332.0	31.3	-91.0	7.8
2025-01-08 12:41:02.287264	331.6	31.3	-91.2	8.1
2025-01-08 12:41:03.442042	331.2	31.3	-91.5	11.8
2025-01-08 12:41:04.589677	330.8	31.3	-91.7	11.7
2025-01-08 12:41:05.745530	330.4	31.3	-91.5	14.5
2025-01-08 12:41:06.893840	330.0	31.3	-91.2	13.2
2025-01-08 12:41:08.044993	329.6	31.3	-91.4	11.9
2025-01-08 12:41:09.190394	329.3	31.2	-91.4	13.1
2025-01-08 12:41:10.340042	328.9	31.2	-91.0	13.0
2025-01-08 12:41:11.485652	328.5	31.2	-91.3	16.4
2025-01-08 12:41:12.632624	328.1	31.2	-91.4	15.8
2025-01-08 12:41:13.779267	327.7	31.2	-91.3	14.6
2025-01-08 12:41:14.937881	327.3	31.2	-91.5	14.9
2025-01-08 12:41:16.088583	326.9	31.1	-91.1	16.0
2025-01-08 12:41:17.244222	326.5	31.1	-91.0	15.1
2025-01-08 12:41:18.391749	326.1	31.1	-91.0	12.5
2025-01-08 12:41:19.546521	325.7	31.1	-91.4	12.4
2025-01-08 12:41:20.697865	325.3	31.0	-91.0	12.6
2025-01-08 12:41:21.847766	324.9	31.0	-91.6	13.5
2025-01-08 12:41:22.997601	324.5	31.0	-91.3	10.4
2025-01-08 12:41:24.148842	324.1	30.9	-91.3	10.5
2025-01-08 12:41:25.296766	323.7	30.9	-91.3	16.3
2025-01-08 12:41:26.455643	323.3	30.9	-91.6	11.7
2025-01-08 12:41:27.599298	323.0	30.8	-91.0	12.7
2025-01-08 12:41:28.746011	322.6	30.8	-90.6	14.3
2025-01-08 12:41:29.891259	322.2	30.7	-91.1	13.5
2025-01-08 12:41:31.044902	321.8	30.7	-90.6	9.5
2025-01-08 12:41:32.196999	321.4	30.7	-90.6	13.5
2025-01-08 12:41:33.341641	321.0	30.6	-90.7	14.1
2025-01-08 12:41:34.492948	320.7	30.6	-90.9	7.5
2025-01-08 12:41:35.646208	320.3	30.5	-91.0	10.0
2025-01-08 12:41:36.795144	319.9	30.5	-90.9	13.2
2025-01-08 12:41:37.949409	319.5	30.4	-90.2	9.0
2025-01-08 12:41:39.104373	319.1	30.4	-91.0	7.0
2025-01-08 12:41:40.250983	318.8	30.3	-91.1	11.6
2025-01-08 12:41:41.399673	318.4	30.3	-90.7	9.1
2025-01-08 12:41:42.561498	318.0	30.2	-90.9	8.9
2025-01-08 12:41:43.712415	317.6	30.2	-91.5	10.6
2025-01-08 12:41:44.866658	317.3	30.1	-90.6	13.8
2025-01-08 12:41:46.015256	316.9	30.0	-90.8	7.8
2025-01-08 12:41:47.166431	316.5	30.0	-90.7	12.6
2025-01-08 12:41:48.323332	316.2	29.9	-91.2	10.3
2025-01-08 12:41:49.471352	315.8	29.9	-91.1	6.6
2025-01-08 12:41:50.621653	315.4	29.8	-91.1	9.0
2025-01-08 12:41:51.772268	315.1	29.7	-90.6	11.2
2025-01-08 12:41:52.927966	314.7	29.7	-90.9	6.2
2025-01-08 12:41:54.079733	314.3	29.6	-90.4	6.7
2025-01-08 12:41:55.234147	314.0	29.5	-90.6	9.7
2025-01-08 12:41:56.374670	313.6	29.5	-90.5	10.2
2025-01-08 12:41:57.529555	313.3	29.4	-90.7	6.7
2025-01-08 12:41:58.683883	312.9	29.3	-90.8	8.6
2025-01-08 12:41:59.835970	312.6	29.2	-90.6	12.2
2025-01-08 12:42:00.978275	312.2	29.2	-90.6	6.8
2025-01-08 12:42:02.127943	311.9	29.1	-90.4	9.8
2025-01-08 12:42:03.277118	311.5	29.0	-90.1	15.2
2025-01-08 12:42:04.422933	311.2	28.9	-90.7	8.4
2025-01-08 12:42:05.577279	310.8	28.9	-90.4	9.3
2025-01-08 12:42:06.726981	310.5	28.8	-90.7	15.1
2025-01-08 12:42:07.878708	310.1	28.7	-90.7	15.0
2025-01-08 12:42:09.029399	309.8	28.6	-90.5	7.6
2025-01-08 12:42:10.185341	309.5	28.5	-90.1	12.9
2025-01-08 12:42:11.338572	309.1	28.5	-90.8	16.3
2025-01-08 12:42:12.490952	308.8	28.4	-91.1	10.0
2025-01-08 12:42:13.643124	308.5	28.3	-90.6	10.1
2025-01-08 12:42:14.790556	308.1	28.2	-91.3	13.0
2025-01-08 12:42:15.941508	307.8	28.1	-91.1	11.3
2025-01-08 12:42:17.091874	307.5	28.0	-90.5	11.3
2025-01-08 12:42:18.242301	307.2	28.0	-91.0	12.6
2025-01-08 12:42:19.405695	306.8	27.9	-90.9	12.1
2025-01-08 12:42:20.554662	306.5	27.8	-91.3	11.2
2025-01-08 12:42:21.716776	306.2	27.7	-91.1	12.1
2025-01-08 12:42:22.869205	305.9	27.6	-91.4	13.8
2025-01-08 12:42:24.026605	305.5	27.5	-90.9	12.6
2025-01-08 12:42:25.176803	305.2	27.4	-90.5	11.7
2025-01-08 12:42:26.327016	304.9	27.3	-90.8	12.7
2025-01-08 12:42:27.470248	304.6	27.2	-91.4	12.5
2025-01-08 12:42:28.621220	304.3	27.1	-90.7	10.9
2025-01-08 12:42:29.770153	304.0	27.0	-91.3	9.4
2025-01-08 12:42:30.921270	303.7	26.9	-91.3	9.9
2025-01-08 12:42:32.074388	303.4	26.9	-91.1	9.9
2025-01-08 12:42:33.227148	303.1	26.8	-91.1	9.6
2025-01-08 12:42:34.381361	302.8	26.7	-91.5	7.5
2025-01-08 12:42:35.527759	302.5	26.6	-91.3	8.1
2025-01-08 12:42:36.679245	302.2	26.5	-90.8	9.2
2025-01-08 12:42:37.836376	301.9	26.4	-91.3	7.3
2025-01-08 12:42:38.987384	301.6	26.3	-91.3	9.0
2025-01-08 12:42:40.132809	301.3	26.2	-90.7	9.4
2025-01-08 12:42:41.285651	301.0	26.1	-90.9	9.8
2025-01-08 12:42:42.437128	300.7	26.0	-91.2	3.8
2025-01-08 12:42:43.583384	300.4	25.9	-91.2	8.2
2025-01-08 12:42:44.738937	300.2	25.8	-91.4	10.5
2025-01-08 12:42:45.894594	299.9	25.7	-91.2	8.7
2025-01-08 12:42:47.053053	299.6	25.6	-90.9	9.1
2025-01-08 12:42:48.200235	299.3	25.5	-90.9	9.3
2025-01-08 12:42:49.354046	299.0	25.4	-90.9	11.1
2025-01-08 12:42:50.500959	298.8	25.3	-91.2	10.1
2025-01-08 12:42:51.643974	298.5	25.2	-91.2	7.6
2025-01-08 12:42:52.794415	298.2	25.1	-91.1	9.0
2025-01-08 12:42:53.946786	297.9	25.0	-91.3	4.5
2025-01-08 12:42:55.096241	297.7	24.9	-91.0	5.6
2025-01-08 12:42:56.242690	297.4	24.7	-91.1	10.4
2025-01-08 12:42:57.396394	297.1	24.6	-91.3	11.5
2025-01-08 12:42:58.555324	296.9	24.5	-91.4	7.6
2025-01-08 12:42:59.709976	296.6	24.4	-91.0	12.5
2025-01-08 12:43:00.849213	296.4	24.3	-90.8	13.1
2025-01-08 12:43:02.002271	296.1	24.2	-91.0	8.8
2025-01-08 12:43:03.160212	295.8	24.1	-90.8	5.6
2025-01-08 12:43:04.312256	295.6	24.0	-90.8	6.2
2025-01-08 12:43:05.471379	295.3	23.9	-91.3	11.8
2025-01-08 12:43:06.617576	295.1	23.8	-91.4	9.6
2025-01-08 12:43:07.765271	294.8	23.7	-91.1	7.3
2025-01-08 12:43:08.917155	294.6	23.6	-91.1	6.3
2025-01-08 12:43:10.062336	294.3	23.5	-90.7	8.8
2025-01-08 12:43:11.188912	294.1	23.4	-91.2	6.9
2025-01-08 12:43:12.309857	293.9	23.3	-90.9	5.4
2025-01-08 12:43:13.430703	293.6	23.2	-91.3	5.4
2025-01-08 12:43:14.550717	293.4	23.1	-91.2	4.2
2025-01-08 12:43:15.671429	293.2	23.0	-91.4	11.3
2025-01-08 12:43:16.791590	292.9	22.9	-91.3	13.5
2025-01-08 12:43:17.912616	292.7	22.8	-91.4	3.9
2025-01-08 12:43:19.048423	292.5	22.6	-90.8	7.4
2025-01-08 12:43:20.204770	292.3	22.5	-90.9	14.1
2025-01-08 12:43:21.354666	292.0	22.4	-91.0	7.4
2025-01-08 12:43:22.504322	291.8	22.3	-91.2	5.1
2025-01-08 12:43:23.665947	291.6	22.2	-91.3	7.5
2025-01-08 12:43:24.818563	291.3	22.1	-91.4	8.2
2025-01-08 12:43:25.968230	291.1	22.0	-91.1	3.8
2025-01-08 12:43:27.119879	290.9	21.9	-91.0	5.0
2025-01-08 12:43:28.276398	290.7	21.8	-91.0	6.3
2025-01-08 12:43:29.433491	290.5	21.7	-90.9	9.9
2025-01-08 12:43:30.581953	290.2	21.6	-91.2	7.9
2025-01-08 12:43:31.733724	290.0	21.5	-91.2	10.3
2025-01-08 12:43:32.883540	289.8	21.4	-90.8	12.8
2025-01-08 12:43:34.033643	289.6	21.2	-90.4	11.9
2025-01-08 12:43:35.183239	289.4	21.1	-91.0	12.9
2025-01-08 12:43:36.340160	289.2	21.0	-90.9	13.5
2025-01-08 12:43:37.496472	289.0	20.9	-91.0	8.5
2025-01-08 12:43:38.647015	288.8	20.8	-90.6	10.4
2025-01-08 12:43:39.801388	288.6	20.7	-90.6	10.9
2025-01-08 12:43:40.953073	288.3	20.6	-90.0	10.3
2025-01-08 12:43:42.100900	288.1	20.5	-90.2	7.5
2025-01-08 12:43:43.248316	287.9	20.4	-89.8	7.5
2025-01-08 12:43:44.404305	287.7	20.3	-90.0	5.8
2025-01-08 12:43:45.559526	287.5	20.2	-89.9	6.5
2025-01-08 12:43:46.702557	287.4	20.1	-89.2	9.0
2025-01-08 12:43:47.849419	287.2	20.0	-89.4	10.6
2025-01-08 12:43:48.997221	287.0	19.9	-88.4	7.3
2025-01-08 12:43:50.153452	286.8	19.7	-89.3	10.6
2025-01-08 12:43:51.303236	286.6	19.6	-89.2	10.8
2025-01-08 12:43:52.450677	286.4	19.5	-89.6	9.2
2025-01-08 12:43:53.598489	286.2	19.4	-90.4	10.8
2025-01-08 12:43:54.749153	286.0	19.3	-89.5	9.4
2025-01-08 12:43:55.900870	285.8	19.2	-90.7	12.7
2025-01-08 12:43:57.053548	285.6	19.1	-90.7	10.1
2025-01-08 12:43:58.209844	285.5	19.0	-90.7	12.2
2025-01-08 12:43:59.367203	285.3	18.9	-90.2	9.0
2025-01-08 12:44:00.501950	285.1	18.8	-89.4	6.8
2025-01-08 12:44:01.649078	284.9	18.7	-89.5	7.2
2025-01-08 12:44:02.774456	284.7	18.6	-89.5	8.2
2025-01-08 12:44:03.894972	284.6	18.5	-89.4	10.2
2025-01-08 12:44:05.015729	284.4	18.4	-88.9	7.0
2025-01-08 12:44:06.136394	284.2	18.3	-87.9	4.3
2025-01-08 12:44:07.257704	284.1	18.2	-87.1	9.0
2025-01-08 12:44:08.378899	283.9	18.1	-87.6	8.6
2025-01-08 12:44:09.499349	283.7	18.0	-88.8	9.0
2025-01-08 12:44:10.621435	283.6	17.9	-89.1	7.4
2025-01-08 12:44:11.754790	283.4	17.8	-89.1	7.9
2025-01-08 12:44:12.914796	283.2	17.7	-89.6	8.6
2025-01-08 12:44:14.056378	283.0	17.6	-90.3	7.0
2025-01-08 12:44:15.199709	282.9	17.5	-89.6	10.9
2025-01-08 12:44:16.348816	282.7	17.4	-89.8	10.7
2025-01-08 12:44:17.497065	282.6	17.3	-90.6	6.1
2025-01-08 12:44:18.652208	282.4	17.1	-90.2	7.6
2025-01-08 12:44:19.808897	282.2	17.0	-90.5	11.3
2025-01-08 12:44:20.961846	282.1	16.9	-90.6	8.5
2025-01-08 12:44:22.109674	281.9	16.8	-90.0	7.3
2025-01-08 12:44:23.262746	281.8	16.7	-90.0	5.8
2025-01-08 12:44:24.409552	281.6	16.6	-90.5	6.4
2025-01-08 12:44:25.558072	281.4	16.5	-90.4	5.6
2025-01-08 12:44:26.705134	281.3	16.4	-90.4	6.0
2025-01-08 12:44:27.861374	281.1	16.3	-90.3	5.2
2025-01-08 12:44:29.009915	281.0	16.2	-90.7	5.8
2025-01-08 12:44:30.160193	280.8	16.1	-90.4	5.7
2025-01-08 12:44:31.312076	280.7	16.0	-90.6	6.3
2025-01-08 12:44:32.462641	280.5	15.9	-90.3	3.8
2025-01-08 12:44:33.618820	280.4	15.8	-90.6	6.5
2025-01-08 12:44:34.768575	280.2	15.7	-90.5	7.1
2025-01-08 12:44:35.922975	280.1	15.6	-90.6	6.3
2025-01-08 12:44:37.079024	279.9	15.5	-90.3	3.7
2025-01-08 12:44:38.225516	279.8	15.4	-90.6	6.6
2025-01-08 12:44:39.370909	279.7	15.3	-90.6	6.0
2025-01-08 12:44:40.516432	279.5	15.2	-90.0	4.6
2025-01-08 12:44:41.671265	279.4	15.1	-90.3	3.2
2025-01-08 12:44:42.816484	279.2	15.0	-90.2	6.3
2025-01-08 12:44:43.966004	279.1	14.9	-90.3	5.1
2025-01-08 12:44:45.119307	278.9	14.8	-90.4	4.8
2025-01-08 12:44:46.273063	278.8	14.7	-90.6	6.4
2025-01-08 12:44:47.422844	278.7	14.6	-90.5	7.3
#Closed at: 2025-01-08 12:37:18.543010