passes_logs/2025/01/08/LEX_Murmansk/LEX_Murmansk__20250108_141722_NOAA_18_rec.log

#Pass ID: 20250108_141722_NOAA 18
#Satellite: NOAA 18
#Configuration: NOAA 18
#Start time: 2025-01-08 14:17:17.826499

#LorettStation: 1.0.0 05.05.2024
#Station: LEX_Murmansk
#Location: 33.156738 lon 68.926811 lat
#TLE: 1 28654U 05018A   25007.80096224  .00000414  00000+0  24332-3 0  9999
#TLE: 2 28654  98.8579  88.9263 0014020 199.4461 160.6178 14.13480585 12168

#Time	Az	El	Level	SNR
2025-01-08 14:17:29.985073	38.0	15.9	-89.8	5.4
2025-01-08 14:17:31.144507	37.8	16.0	-90.1	5.8
2025-01-08 14:17:32.299899	37.7	16.0	-90.4	4.4
2025-01-08 14:17:33.456417	37.5	16.1	-90.4	3.9
2025-01-08 14:17:34.609661	37.3	16.2	-90.9	6.4
2025-01-08 14:17:35.763102	37.1	16.3	-90.5	5.6
2025-01-08 14:17:36.920073	36.9	16.4	-90.8	7.1
2025-01-08 14:17:38.075465	36.7	16.4	-90.4	6.6
2025-01-08 14:17:39.227672	36.5	16.5	-90.1	4.8
2025-01-08 14:17:40.383984	36.3	16.6	-91.0	6.7
2025-01-08 14:17:41.539672	36.1	16.7	-90.5	5.3
2025-01-08 14:17:42.698532	35.9	16.8	-90.4	5.7
2025-01-08 14:17:43.846084	35.8	16.9	-90.4	6.3
2025-01-08 14:17:44.995886	35.6	16.9	-90.6	6.7
2025-01-08 14:17:46.150718	35.4	17.0	-90.3	5.7
2025-01-08 14:17:47.313290	35.2	17.1	-90.3	7.0
2025-01-08 14:17:48.472474	35.0	17.2	-90.7	4.9
2025-01-08 14:17:49.629211	34.8	17.3	-90.5	5.0
2025-01-08 14:17:50.785179	34.6	17.3	-90.6	8.5
2025-01-08 14:17:51.938242	34.3	17.4	-90.3	6.1
2025-01-08 14:17:53.099295	34.1	17.5	-90.8	10.2
2025-01-08 14:17:54.257316	33.9	17.6	-90.6	9.7
2025-01-08 14:17:55.410940	33.7	17.7	-90.4	9.6
2025-01-08 14:17:56.557111	33.5	17.8	-90.7	5.5
2025-01-08 14:17:57.711258	33.3	17.8	-90.9	6.5
2025-01-08 14:17:58.867168	33.1	17.9	-89.6	5.2
2025-01-08 14:18:00.031579	32.9	18.0	-90.7	6.4
2025-01-08 14:18:01.169176	32.7	18.1	-89.9	5.4
2025-01-08 14:18:02.330249	32.5	18.2	-90.6	7.5
2025-01-08 14:18:03.483936	32.3	18.2	-90.6	8.2
2025-01-08 14:18:04.639290	32.0	18.3	-91.1	9.0
2025-01-08 14:18:05.790698	31.8	18.4	-90.5	9.1
2025-01-08 14:18:06.952171	31.6	18.5	-90.9	8.0
2025-01-08 14:18:08.103178	31.4	18.6	-90.9	7.4
2025-01-08 14:18:09.265569	31.2	18.6	-90.9	9.1
2025-01-08 14:18:10.418308	30.9	18.7	-90.9	9.0
2025-01-08 14:18:11.579461	30.7	18.8	-90.6	6.6
2025-01-08 14:18:12.731218	30.5	18.9	-90.6	7.8
2025-01-08 14:18:13.884252	30.3	18.9	-90.5	12.2
2025-01-08 14:18:15.032615	30.0	19.0	-90.3	13.1
2025-01-08 14:18:16.161139	29.8	19.1	-90.4	9.2
2025-01-08 14:18:17.313975	29.6	19.2	-90.0	13.1
2025-01-08 14:18:18.474155	29.4	19.3	-90.4	9.4
2025-01-08 14:18:19.634401	29.1	19.3	-89.1	7.8
2025-01-08 14:18:20.792212	28.9	19.4	-91.2	12.4
2025-01-08 14:18:21.947767	28.7	19.5	-91.3	10.6
2025-01-08 14:18:23.104859	28.4	19.6	-91.1	6.0
2025-01-08 14:18:24.259426	28.2	19.6	-89.6	10.7
2025-01-08 14:18:25.412856	28.0	19.7	-91.0	11.9
2025-01-08 14:18:26.567624	27.7	19.8	-91.1	7.7
2025-01-08 14:18:27.726338	27.5	19.9	-90.5	9.4
2025-01-08 14:18:28.881428	27.2	19.9	-91.0	7.5
2025-01-08 14:18:30.042372	27.0	20.0	-89.9	11.9
2025-01-08 14:18:31.197142	26.7	20.1	-90.6	10.9
2025-01-08 14:18:32.349966	26.5	20.2	-90.7	14.9
2025-01-08 14:18:33.510027	26.3	20.2	-90.2	11.1
2025-01-08 14:18:34.682103	26.0	20.3	-87.5	11.7
2025-01-08 14:18:35.841675	25.8	20.4	-91.0	15.5
2025-01-08 14:18:36.998020	25.5	20.5	-90.6	4.8
2025-01-08 14:18:38.159320	25.3	20.5	-90.8	8.7
2025-01-08 14:18:39.307272	25.0	20.6	-90.5	8.9
2025-01-08 14:18:40.466884	24.8	20.7	-89.8	9.2
2025-01-08 14:18:41.625500	24.5	20.7	-89.9	7.2
2025-01-08 14:18:42.777427	24.2	20.8	-90.9	11.8
2025-01-08 14:18:43.936945	24.0	20.9	-90.5	13.9
2025-01-08 14:18:45.093537	23.7	21.0	-90.6	14.8
2025-01-08 14:18:46.241894	23.5	21.0	-90.5	9.3
2025-01-08 14:18:47.400346	23.2	21.1	-90.4	14.9
2025-01-08 14:18:48.555415	23.0	21.2	-90.2	7.2
2025-01-08 14:18:49.709700	22.7	21.2	-90.5	12.1
2025-01-08 14:18:50.866912	22.4	21.3	-90.0	13.6
2025-01-08 14:18:52.019654	22.2	21.4	-90.7	8.3
2025-01-08 14:18:53.169114	21.9	21.4	-90.9	7.2
2025-01-08 14:18:54.325125	21.6	21.5	-89.4	6.9
2025-01-08 14:18:55.481200	21.4	21.6	-91.3	10.8
2025-01-08 14:18:56.635119	21.1	21.6	-90.9	7.7
2025-01-08 14:18:57.823501	20.8	21.7	-90.5	11.0
2025-01-08 14:18:58.980890	20.5	21.8	-90.7	13.7
2025-01-08 14:19:00.135422	20.3	21.8	-90.7	15.0
2025-01-08 14:19:01.287007	20.0	21.9	-90.5	9.4
2025-01-08 14:19:02.439031	19.7	21.9	-90.6	12.4
2025-01-08 14:19:03.593522	19.5	22.0	-90.9	11.9
2025-01-08 14:19:04.756865	19.2	22.1	-90.8	14.8
2025-01-08 14:19:05.904398	18.9	22.1	-90.3	14.4
2025-01-08 14:19:07.064133	18.6	22.2	-88.7	9.1
2025-01-08 14:19:08.213693	18.3	22.2	-90.5	10.6
2025-01-08 14:19:09.386633	18.1	22.3	-90.7	9.9
2025-01-08 14:19:10.542147	17.8	22.4	-90.9	11.7
2025-01-08 14:19:11.708195	17.5	22.4	-90.4	14.4
2025-01-08 14:19:12.863288	17.2	22.5	-90.6	13.6
2025-01-08 14:19:14.020133	16.9	22.5	-90.6	14.4
2025-01-08 14:19:15.175534	16.6	22.6	-90.6	6.8
2025-01-08 14:19:16.330058	16.3	22.6	-90.3	12.0
2025-01-08 14:19:17.483018	16.1	22.7	-90.9	10.4
2025-01-08 14:19:18.645484	15.8	22.7	-90.9	8.6
2025-01-08 14:19:19.797641	15.5	22.8	-90.7	12.5
2025-01-08 14:19:20.957884	15.2	22.9	-90.3	6.4
2025-01-08 14:19:22.109005	14.9	22.9	-90.4	7.4
2025-01-08 14:19:23.273422	14.6	23.0	-90.1	11.4
2025-01-08 14:19:24.423463	14.3	23.0	-90.7	6.7
2025-01-08 14:19:25.591709	14.0	23.1	-90.1	8.7
2025-01-08 14:19:26.747213	13.7	23.1	-90.0	12.6
2025-01-08 14:19:27.905634	13.4	23.1	-89.9	11.0
2025-01-08 14:19:29.056735	13.1	23.2	-90.1	9.5
2025-01-08 14:19:30.217195	12.8	23.2	-90.4	13.9
2025-01-08 14:19:31.367799	12.5	23.3	-90.5	13.5
2025-01-08 14:19:32.529484	12.2	23.3	-89.6	10.6
2025-01-08 14:19:33.694622	11.9	23.4	-89.8	11.6
2025-01-08 14:19:34.852472	11.6	23.4	-89.8	14.4
2025-01-08 14:19:36.007310	11.3	23.5	-90.0	8.7
2025-01-08 14:19:37.166602	11.0	23.5	-90.6	9.8
2025-01-08 14:19:38.317028	10.7	23.5	-90.4	13.6
2025-01-08 14:19:39.468576	10.4	23.6	-89.0	10.1
2025-01-08 14:19:40.629842	10.1	23.6	-89.5	10.0
2025-01-08 14:19:41.789393	9.8	23.7	-90.2	10.8
2025-01-08 14:19:42.943609	9.5	23.7	-89.3	10.5
2025-01-08 14:19:44.099373	9.2	23.7	-89.4	8.6
2025-01-08 14:19:45.255511	8.9	23.8	-90.3	14.6
2025-01-08 14:19:46.408234	8.5	23.8	-90.5	12.1
2025-01-08 14:19:47.567856	8.2	23.8	-90.2	12.8
2025-01-08 14:19:48.726555	7.9	23.9	-88.9	13.1
2025-01-08 14:19:49.872920	7.6	23.9	-90.0	15.3
2025-01-08 14:19:51.030644	7.3	23.9	-90.5	10.9
2025-01-08 14:19:52.179246	7.0	24.0	-90.3	11.1
2025-01-08 14:19:53.330273	6.7	24.0	-89.9	12.2
2025-01-08 14:19:54.491767	6.4	24.0	-89.5	13.5
2025-01-08 14:19:55.642724	6.0	24.1	-90.8	11.9
2025-01-08 14:19:56.806036	5.7	24.1	-89.6	11.6
2025-01-08 14:19:57.968554	5.4	24.1	-90.9	4.2
2025-01-08 14:19:59.129930	5.1	24.1	-90.6	9.6
2025-01-08 14:20:00.263726	4.8	24.2	-90.6	12.5
2025-01-08 14:20:01.414910	4.5	24.2	-90.6	7.1
2025-01-08 14:20:02.566705	4.2	24.2	-90.2	5.6
2025-01-08 14:20:03.723355	3.8	24.2	-90.2	11.2
2025-01-08 14:20:04.887289	3.5	24.2	-90.8	12.3
2025-01-08 14:20:06.042643	3.2	24.3	-91.4	6.3
2025-01-08 14:20:07.195004	2.9	24.3	-90.9	10.6
2025-01-08 14:20:08.355444	2.6	24.3	-91.3	10.8
2025-01-08 14:20:09.511517	2.2	24.3	-91.2	7.5
2025-01-08 14:20:10.670713	1.9	24.3	-89.7	8.4
2025-01-08 14:20:11.822068	1.6	24.3	-89.6	7.2
2025-01-08 14:20:12.970689	1.3	24.4	-89.9	5.0
2025-01-08 14:20:14.091452	1.0	24.4	-90.1	11.4
2025-01-08 14:20:15.237307	0.6	24.4	-90.9	14.4
2025-01-08 14:20:16.394424	0.3	24.4	-90.5	13.9
2025-01-08 14:20:17.550340	360.0	24.4	-90.9	11.6
2025-01-08 14:20:18.704372	359.7	24.4	-91.2	9.6
2025-01-08 14:20:19.868589	359.3	24.4	-91.3	13.6
2025-01-08 14:20:21.029884	359.0	24.4	-91.4	9.3
2025-01-08 14:20:22.177640	358.7	24.4	-91.1	15.9
2025-01-08 14:20:23.338946	358.4	24.4	-91.3	16.5
2025-01-08 14:20:24.495040	358.1	24.4	-90.9	11.9
2025-01-08 14:20:25.668560	357.7	24.4	-91.3	14.1
2025-01-08 14:20:26.818979	357.4	24.4	-90.5	11.0
2025-01-08 14:20:27.976253	357.1	24.4	-91.0	14.4
2025-01-08 14:20:29.142909	356.8	24.4	-90.7	9.0
2025-01-08 14:20:30.300559	356.4	24.4	-90.2	16.6
2025-01-08 14:20:31.458495	356.1	24.4	-90.6	9.7
2025-01-08 14:20:32.617259	355.8	24.4	-90.8	12.6
2025-01-08 14:20:33.766937	355.5	24.4	-90.6	13.8
2025-01-08 14:20:34.922079	355.1	24.4	-90.6	11.6
2025-01-08 14:20:36.075721	354.8	24.4	-90.6	7.5
2025-01-08 14:20:37.235232	354.5	24.4	-90.4	12.1
2025-01-08 14:20:38.395285	354.2	24.4	-90.3	14.0
2025-01-08 14:20:39.555392	353.8	24.4	-90.7	10.5
2025-01-08 14:20:40.717196	353.5	24.4	-90.7	17.1
2025-01-08 14:20:41.869702	353.2	24.4	-91.0	14.9
2025-01-08 14:20:43.021315	352.9	24.3	-90.7	8.5
2025-01-08 14:20:44.173763	352.6	24.3	-90.5	12.6
2025-01-08 14:20:45.334891	352.2	24.3	-90.4	8.3
2025-01-08 14:20:46.496326	351.9	24.3	-90.5	9.6
2025-01-08 14:20:47.652593	351.6	24.3	-91.0	13.2
2025-01-08 14:20:48.803737	351.3	24.3	-90.9	9.8
2025-01-08 14:20:49.958250	351.0	24.3	-90.5	9.0
2025-01-08 14:20:51.119337	350.6	24.2	-90.4	8.2
2025-01-08 14:20:52.282031	350.3	24.2	-90.5	11.5
2025-01-08 14:20:53.441278	350.0	24.2	-91.0	10.7
2025-01-08 14:20:54.600793	349.7	24.2	-90.9	8.5
2025-01-08 14:20:55.754242	349.4	24.1	-90.2	10.4
2025-01-08 14:20:56.910049	349.0	24.1	-90.3	12.5
2025-01-08 14:20:58.066607	348.7	24.1	-90.5	11.2
2025-01-08 14:20:59.220037	348.4	24.1	-90.3	13.1
2025-01-08 14:21:00.365225	348.1	24.0	-90.5	15.0
2025-01-08 14:21:01.517734	347.8	24.0	-91.1	10.2
2025-01-08 14:21:02.669529	347.5	24.0	-90.6	15.5
2025-01-08 14:21:03.833939	347.1	24.0	-90.6	11.7
2025-01-08 14:21:04.989772	346.8	23.9	-90.3	12.4
2025-01-08 14:21:06.143004	346.5	23.9	-90.6	11.9
2025-01-08 14:21:07.303729	346.2	23.9	-90.7	10.2
2025-01-08 14:21:08.463272	345.9	23.8	-90.8	11.6
2025-01-08 14:21:09.625636	345.6	23.8	-90.2	12.1
2025-01-08 14:21:10.784106	345.3	23.8	-90.0	11.6
2025-01-08 14:21:11.940428	345.0	23.7	-90.8	11.7
2025-01-08 14:21:13.089803	344.7	23.7	-90.1	13.4
2025-01-08 14:21:14.250379	344.3	23.7	-89.6	12.5
2025-01-08 14:21:15.407514	344.0	23.6	-90.9	9.7
2025-01-08 14:21:16.569420	343.7	23.6	-90.3	12.9
2025-01-08 14:21:17.722981	343.4	23.5	-90.7	12.0
2025-01-08 14:21:18.883309	343.1	23.5	-91.1	9.6
2025-01-08 14:21:20.039677	342.8	23.5	-90.8	11.7
2025-01-08 14:21:21.197702	342.5	23.4	-90.8	9.0
2025-01-08 14:21:22.351750	342.2	23.4	-90.3	6.9
2025-01-08 14:21:23.510597	341.9	23.3	-90.9	7.1
2025-01-08 14:21:24.662423	341.6	23.3	-90.7	11.6
2025-01-08 14:21:25.828553	341.3	23.2	-90.7	9.1
2025-01-08 14:21:26.979512	341.0	23.2	-90.5	6.5
2025-01-08 14:21:28.137818	340.7	23.1	-90.5	12.6
2025-01-08 14:21:29.293998	340.4	23.1	-90.5	11.4
2025-01-08 14:21:30.457517	340.1	23.0	-90.5	12.5
2025-01-08 14:21:31.613135	339.8	23.0	-90.7	8.6
2025-01-08 14:21:32.767525	339.5	22.9	-90.5	16.4
2025-01-08 14:21:33.926740	339.2	22.9	-90.2	12.1
2025-01-08 14:21:35.084366	338.9	22.8	-90.7	13.9
2025-01-08 14:21:36.239115	338.6	22.8	-89.8	11.8
2025-01-08 14:21:37.397297	338.3	22.7	-89.2	10.1
2025-01-08 14:21:38.549838	338.1	22.7	-90.2	12.6
2025-01-08 14:21:39.710587	337.8	22.6	-90.0	11.2
2025-01-08 14:21:40.865236	337.5	22.6	-90.3	14.7
2025-01-08 14:21:42.021667	337.2	22.5	-91.4	9.5
2025-01-08 14:21:43.181483	336.9	22.5	-91.0	12.4
2025-01-08 14:21:44.337236	336.6	22.4	-91.1	11.9
2025-01-08 14:21:45.494586	336.3	22.3	-91.0	11.0
2025-01-08 14:21:46.652019	336.1	22.3	-91.0	11.0
2025-01-08 14:21:47.804224	335.8	22.2	-90.0	11.0
2025-01-08 14:21:48.966461	335.5	22.2	-91.0	10.8
2025-01-08 14:21:50.123371	335.2	22.1	-91.0	8.0
2025-01-08 14:21:51.281770	334.9	22.0	-90.8	8.6
2025-01-08 14:21:52.433952	334.7	22.0	-91.2	9.4
2025-01-08 14:21:53.595167	334.4	21.9	-91.1	9.3
2025-01-08 14:21:54.751913	334.1	21.9	-89.9	7.7
2025-01-08 14:21:55.910475	333.8	21.8	-89.8	10.2
2025-01-08 14:21:57.057392	333.6	21.7	-91.0	7.7
2025-01-08 14:21:58.210331	333.3	21.7	-91.0	14.6
2025-01-08 14:21:59.363714	333.0	21.6	-90.9	9.4
2025-01-08 14:22:00.502711	332.8	21.5	-91.4	8.3
2025-01-08 14:22:01.644705	332.5	21.5	-91.1	8.0
2025-01-08 14:22:02.801694	332.2	21.4	-91.3	12.0
2025-01-08 14:22:03.961477	332.0	21.3	-90.7	7.7
2025-01-08 14:22:05.109691	331.7	21.3	-90.4	7.3
2025-01-08 14:22:06.264172	331.4	21.2	-89.6	5.0
2025-01-08 14:22:07.416445	331.2	21.1	-90.9	9.2
2025-01-08 14:22:08.574886	330.9	21.1	-90.8	3.1
2025-01-08 14:22:09.736708	330.6	21.0	-91.3	9.1
2025-01-08 14:22:10.888723	330.4	20.9	-91.3	10.4
2025-01-08 14:22:12.044784	330.1	20.9	-89.3	5.6
2025-01-08 14:22:13.204990	329.9	20.8	-89.3	6.7
2025-01-08 14:22:14.360951	329.6	20.7	-90.3	8.2
2025-01-08 14:22:15.523927	329.4	20.6	-91.6	4.8
2025-01-08 14:22:16.671500	329.1	20.6	-91.3	12.5
2025-01-08 14:22:17.832653	328.9	20.5	-90.2	6.6
2025-01-08 14:22:18.976199	328.6	20.4	-90.9	8.5
2025-01-08 14:22:20.097094	328.4	20.4	-89.4	6.9
2025-01-08 14:22:21.217619	328.1	20.3	-90.2	6.4
2025-01-08 14:22:22.338654	327.9	20.2	-91.0	6.4
2025-01-08 14:22:23.458859	327.6	20.1	-91.1	4.8
2025-01-08 14:22:24.579942	327.4	20.1	-91.3	3.6
2025-01-08 14:22:25.701356	327.2	20.0	-91.0	4.4
2025-01-08 14:22:26.821503	326.9	19.9	-91.3	5.5
2025-01-08 14:22:27.959972	326.7	19.9	-90.6	6.5
2025-01-08 14:22:29.106662	326.5	19.8	-90.3	4.5
2025-01-08 14:22:30.259601	326.2	19.7	-90.5	4.7
2025-01-08 14:22:31.407578	326.0	19.6	-90.7	4.8
2025-01-08 14:22:32.562644	325.7	19.6	-90.5	5.6
2025-01-08 14:22:33.713419	325.5	19.5	-89.3	5.2
2025-01-08 14:22:34.870502	325.3	19.4	-90.5	3.9
2025-01-08 14:22:36.026634	325.0	19.3	-90.7	3.9
2025-01-08 14:22:37.176275	324.8	19.2	-90.8	3.5
2025-01-08 14:22:38.333154	324.6	19.2	-90.4	8.6
2025-01-08 14:22:39.495664	324.3	19.1	-89.9	6.2
2025-01-08 14:22:40.651566	324.1	19.0	-90.4	7.8
2025-01-08 14:22:41.806094	323.9	18.9	-90.7	6.4
2025-01-08 14:22:42.963404	323.7	18.9	-90.9	5.2
2025-01-08 14:22:44.122349	323.4	18.8	-90.9	4.7
2025-01-08 14:22:45.284134	323.2	18.7	-90.4	7.0
2025-01-08 14:22:46.435876	323.0	18.6	-90.6	6.6
2025-01-08 14:22:47.590288	322.8	18.5	-90.9	4.4
2025-01-08 14:22:48.751242	322.5	18.5	-91.0	12.2
2025-01-08 14:22:49.916053	322.3	18.4	-91.1	6.4
2025-01-08 14:22:51.072492	322.1	18.3	-90.0	4.3
2025-01-08 14:22:52.226608	321.9	18.2	-91.3	7.2
2025-01-08 14:22:53.383777	321.7	18.1	-91.1	6.8
2025-01-08 14:22:54.540861	321.5	18.1	-90.8	7.1
2025-01-08 14:22:55.699387	321.2	18.0	-90.6	4.7
2025-01-08 14:22:56.855552	321.0	17.9	-90.6	4.8
2025-01-08 14:22:58.016891	320.8	17.8	-90.7	3.9
2025-01-08 14:22:59.174434	320.6	17.7	-90.4	5.5
2025-01-08 14:23:00.321439	320.4	17.7	-90.5	3.7
2025-01-08 14:23:01.477167	320.2	17.6	-90.5	4.9
2025-01-08 14:23:02.640401	320.0	17.5	-91.0	5.9
2025-01-08 14:23:03.803684	319.8	17.4	-90.5	4.3
2025-01-08 14:23:04.967097	319.6	17.3	-90.7	5.9
2025-01-08 14:23:06.116669	319.4	17.2	-90.5	8.3
2025-01-08 14:23:07.271240	319.2	17.2	-90.6	7.4
2025-01-08 14:23:08.431877	319.0	17.1	-90.1	9.1
2025-01-08 14:23:09.590872	318.8	17.0	-91.1	4.3
2025-01-08 14:23:10.734863	318.6	16.9	-90.8	5.6
2025-01-08 14:23:11.872952	318.4	16.8	-90.6	4.8
2025-01-08 14:23:13.023716	318.2	16.8	-90.2	6.5
2025-01-08 14:23:14.169330	318.0	16.7	-89.2	5.8
2025-01-08 14:23:15.329129	317.8	16.6	-90.6	9.9
2025-01-08 14:23:16.487551	317.6	16.5	-90.5	6.7
2025-01-08 14:23:17.645480	317.4	16.4	-90.8	5.8
2025-01-08 14:23:18.805301	317.2	16.3	-90.4	9.7
2025-01-08 14:23:19.967830	317.0	16.3	-90.6	5.7
2025-01-08 14:23:21.125971	316.8	16.2	-88.7	5.5
2025-01-08 14:23:22.283975	316.6	16.1	-91.1	7.1
2025-01-08 14:23:23.438587	316.4	16.0	-90.7	7.7
2025-01-08 14:23:24.598552	316.3	15.9	-90.8	7.3
2025-01-08 14:23:25.752792	316.1	15.8	-90.5	4.8
2025-01-08 14:23:26.905221	315.9	15.8	-88.9	11.3
2025-01-08 14:23:28.063535	315.7	15.7	-90.3	4.3
2025-01-08 14:23:29.220965	315.5	15.6	-90.7	4.7
2025-01-08 14:23:30.369468	315.3	15.5	-91.0	4.7
2025-01-08 14:23:31.527376	315.2	15.4	-91.6	7.1
2025-01-08 14:23:32.682893	315.0	15.3	-90.6	4.0
2025-01-08 14:23:33.836684	314.8	15.3	-91.0	6.0
2025-01-08 14:23:34.994668	314.6	15.2	-90.6	5.1
2025-01-08 14:23:36.153902	314.4	15.1	-90.3	5.3
2025-01-08 14:23:37.302275	314.3	15.0	-90.6	8.2
2025-01-08 14:23:38.462395	314.1	14.9	-90.3	6.8
2025-01-08 14:23:39.616291	313.9	14.8	-89.3	4.1
2025-01-08 14:23:40.777272	313.8	14.8	-88.6	5.6
2025-01-08 14:23:41.928538	313.6	14.7	-90.3	5.8
#Closed at: 2025-01-08 14:17:22.772862