passes_logs/2025/01/08/LEX_Murmansk/LEX_Murmansk__20250108_121028_NOAA_19_rec.log

#Pass ID: 20250108_121028_NOAA 19
#Satellite: NOAA 19
#Configuration: NOAA 19
#Start time: 2025-01-08 12:10:23.563639

#LorettStation: 1.0.0 05.05.2024
#Station: LEX_Murmansk
#Location: 33.156738 lon 68.926811 lat
#TLE: 1 33591U 09005A   25007.78273938  .00000347  00000+0  20907-3 0  9990
#TLE: 2 33591  99.0209  71.4889 0014647  76.7831 283.4973 14.13254046820526

#Time	Az	El	Level	SNR
2025-01-08 12:10:35.729389	28.7	16.0	-90.6	2.9
2025-01-08 12:10:36.890649	28.5	16.1	-90.8	5.6
2025-01-08 12:10:38.057665	28.3	16.1	-90.5	4.9
2025-01-08 12:10:39.215170	28.2	16.2	-90.2	3.4
2025-01-08 12:10:40.380792	28.0	16.3	-89.4	4.5
2025-01-08 12:10:41.541333	27.8	16.4	-90.7	3.4
2025-01-08 12:10:42.706373	27.6	16.5	-90.5	3.8
2025-01-08 12:10:43.865150	27.5	16.6	-89.6	3.5
2025-01-08 12:10:45.021793	27.3	16.7	-89.9	2.1
2025-01-08 12:10:46.182008	27.1	16.8	-89.7	4.6
2025-01-08 12:10:47.343334	26.9	16.9	-90.3	4.2
2025-01-08 12:10:48.501029	26.7	17.0	-89.9	2.8
2025-01-08 12:10:49.671694	26.5	17.1	-90.2	2.3
2025-01-08 12:10:50.829323	26.3	17.2	-89.8	3.0
2025-01-08 12:10:51.984276	26.2	17.3	-90.2	1.7
2025-01-08 12:10:53.133526	26.0	17.3	-89.5	1.3
2025-01-08 12:10:54.285187	25.8	17.4	-90.0	2.5
2025-01-08 12:10:55.407718	25.6	17.5	-89.9	2.2
2025-01-08 12:10:56.527990	25.4	17.6	-89.9	4.2
2025-01-08 12:10:57.648179	25.2	17.7	-89.8	5.5
2025-01-08 12:10:58.768726	25.0	17.8	-90.0	9.0
2025-01-08 12:10:59.890249	24.8	17.9	-90.2	3.5
2025-01-08 12:11:01.011547	24.6	18.0	-90.7	4.6
2025-01-08 12:11:02.132389	24.5	18.1	-90.3	3.2
2025-01-08 12:11:03.256485	24.3	18.2	-90.1	2.6
2025-01-08 12:11:04.406219	24.1	18.2	-90.9	3.2
2025-01-08 12:11:05.562422	23.9	18.3	-90.6	4.0
2025-01-08 12:11:06.715862	23.7	18.4	-90.8	6.1
2025-01-08 12:11:07.872053	23.4	18.5	-89.9	5.7
2025-01-08 12:11:09.033598	23.2	18.6	-90.7	7.6
2025-01-08 12:11:10.197205	23.0	18.7	-90.6	6.9
2025-01-08 12:11:11.361170	22.8	18.8	-90.4	4.8
2025-01-08 12:11:12.523032	22.6	18.9	-90.9	4.6
2025-01-08 12:11:13.684005	22.4	19.0	-90.7	2.6
2025-01-08 12:11:14.840003	22.2	19.1	-90.6	0.4
2025-01-08 12:11:16.000065	22.0	19.2	-90.6	4.0
2025-01-08 12:11:17.162710	21.8	19.3	-90.1	4.4
2025-01-08 12:11:18.326088	21.5	19.4	-90.3	4.8
2025-01-08 12:11:19.484509	21.3	19.4	-90.9	9.2
2025-01-08 12:11:20.645124	21.1	19.5	-90.3	7.6
2025-01-08 12:11:21.801122	20.9	19.6	-90.5	3.5
2025-01-08 12:11:22.961187	20.7	19.7	-90.6	5.2
2025-01-08 12:11:24.120269	20.4	19.8	-90.3	3.7
2025-01-08 12:11:25.277289	20.2	19.9	-90.1	4.2
2025-01-08 12:11:26.438497	20.0	20.0	-90.5	5.5
2025-01-08 12:11:27.603431	19.8	20.1	-90.7	4.8
2025-01-08 12:11:28.758922	19.5	20.2	-90.5	2.4
2025-01-08 12:11:29.926942	19.3	20.3	-90.9	4.5
2025-01-08 12:11:31.089218	19.1	20.4	-90.6	4.1
2025-01-08 12:11:32.253486	18.8	20.5	-90.8	5.0
2025-01-08 12:11:33.418579	18.6	20.5	-90.8	3.3
2025-01-08 12:11:34.577316	18.4	20.6	-90.8	4.1
2025-01-08 12:11:35.740932	18.1	20.7	-90.6	1.3
2025-01-08 12:11:36.901825	17.9	20.8	-90.9	3.6
2025-01-08 12:11:38.063405	17.6	20.9	-90.6	4.4
2025-01-08 12:11:39.225082	17.4	21.0	-90.6	1.6
2025-01-08 12:11:40.390926	17.1	21.1	-90.4	3.3
2025-01-08 12:11:41.553237	16.9	21.2	-90.3	6.2
2025-01-08 12:11:42.710692	16.7	21.3	-90.7	5.7
2025-01-08 12:11:43.866109	16.4	21.3	-90.8	8.0
2025-01-08 12:11:45.029644	16.2	21.4	-90.6	8.5
2025-01-08 12:11:46.189157	15.9	21.5	-90.3	3.6
2025-01-08 12:11:47.347819	15.7	21.6	-89.5	2.6
2025-01-08 12:11:48.511423	15.4	21.7	-90.5	6.3
2025-01-08 12:11:49.764232	15.1	21.8	-91.0	3.4
2025-01-08 12:11:50.922981	14.9	21.9	-90.7	4.8
2025-01-08 12:11:52.086053	14.6	22.0	-90.7	7.9
2025-01-08 12:11:53.249932	14.4	22.0	-90.5	8.8
2025-01-08 12:11:54.408684	14.1	22.1	-90.7	7.2
2025-01-08 12:11:55.535469	13.8	22.2	-90.8	7.6
2025-01-08 12:11:56.693294	13.6	22.3	-90.7	5.9
2025-01-08 12:11:57.853506	13.3	22.4	-90.4	5.9
2025-01-08 12:11:59.012711	13.0	22.5	-90.1	3.9
2025-01-08 12:12:00.169189	12.8	22.5	-90.0	2.6
2025-01-08 12:12:01.322994	12.5	22.6	-90.0	2.7
2025-01-08 12:12:02.478596	12.2	22.7	-90.4	2.4
2025-01-08 12:12:03.641271	12.0	22.8	-90.3	6.0
2025-01-08 12:12:04.800803	11.7	22.9	-90.3	3.9
2025-01-08 12:12:05.963749	11.4	23.0	-90.0	7.8
2025-01-08 12:12:07.129287	11.1	23.0	-89.9	10.9
2025-01-08 12:12:08.296553	10.9	23.1	-89.9	11.5
2025-01-08 12:12:09.456341	10.6	23.2	-90.0	9.0
2025-01-08 12:12:10.614109	10.3	23.3	-90.9	10.7
2025-01-08 12:12:11.777621	10.0	23.4	-90.9	11.2
2025-01-08 12:12:12.941382	9.7	23.4	-91.1	9.1
2025-01-08 12:12:14.099159	9.5	23.5	-90.9	8.9
2025-01-08 12:12:15.256363	9.2	23.6	-90.1	3.2
2025-01-08 12:12:16.419982	8.9	23.7	-91.0	5.4
2025-01-08 12:12:17.578033	8.6	23.7	-90.6	7.3
2025-01-08 12:12:18.739727	8.3	23.8	-90.3	6.0
2025-01-08 12:12:19.903411	8.0	23.9	-90.2	8.6
2025-01-08 12:12:21.079478	7.7	24.0	-89.9	11.2
2025-01-08 12:12:22.243601	7.4	24.0	-90.1	9.1
2025-01-08 12:12:23.403950	7.1	24.1	-90.1	8.1
2025-01-08 12:12:24.561281	6.8	24.2	-90.9	7.8
2025-01-08 12:12:25.717756	6.5	24.3	-90.7	7.1
2025-01-08 12:12:26.882412	6.2	24.3	-90.8	7.5
2025-01-08 12:12:28.042828	5.9	24.4	-90.9	4.1
2025-01-08 12:12:29.206148	5.6	24.5	-90.8	2.7
2025-01-08 12:12:30.366251	5.3	24.5	-90.7	3.6
2025-01-08 12:12:31.529568	5.0	24.6	-90.6	3.1
2025-01-08 12:12:32.690583	4.7	24.7	-91.0	3.0
2025-01-08 12:12:33.853856	4.4	24.7	-90.8	3.0
2025-01-08 12:12:35.004862	4.1	24.8	-90.9	7.0
2025-01-08 12:12:36.168889	3.8	24.9	-90.6	6.9
2025-01-08 12:12:37.329287	3.5	24.9	-90.7	9.4
2025-01-08 12:12:38.490239	3.1	25.0	-90.9	10.5
2025-01-08 12:12:39.651351	2.8	25.1	-90.9	12.4
2025-01-08 12:12:40.808992	2.5	25.1	-90.8	8.4
2025-01-08 12:12:41.970016	2.2	25.2	-90.6	7.5
2025-01-08 12:12:43.129225	1.9	25.2	-90.7	10.1
2025-01-08 12:12:44.282801	1.6	25.3	-90.7	7.5
2025-01-08 12:12:45.455960	1.2	25.4	-90.8	7.4
2025-01-08 12:12:46.617501	0.9	25.4	-90.5	9.7
2025-01-08 12:12:47.782919	0.6	25.5	-90.7	4.4
2025-01-08 12:12:48.957508	0.3	25.5	-90.9	6.6
2025-01-08 12:12:50.119624	359.9	25.6	-90.9	7.5
2025-01-08 12:12:51.285800	359.6	25.6	-90.8	6.5
2025-01-08 12:12:52.446274	359.3	25.7	-91.1	6.2
2025-01-08 12:12:53.614832	358.9	25.8	-90.3	9.0
2025-01-08 12:12:54.773253	358.6	25.8	-90.7	8.7
2025-01-08 12:12:55.936349	358.3	25.9	-91.0	9.1
2025-01-08 12:12:57.098636	358.0	25.9	-90.7	10.8
2025-01-08 12:12:58.262855	357.6	26.0	-90.2	7.3
2025-01-08 12:12:59.430797	357.3	26.0	-90.9	6.5
2025-01-08 12:13:00.580484	356.9	26.0	-90.6	7.3
2025-01-08 12:13:01.744594	356.6	26.1	-90.6	4.6
2025-01-08 12:13:02.904439	356.3	26.1	-90.8	5.3
2025-01-08 12:13:04.066986	355.9	26.2	-90.4	6.1
2025-01-08 12:13:05.227840	355.6	26.2	-90.7	1.4
2025-01-08 12:13:06.384014	355.3	26.3	-90.9	3.3
2025-01-08 12:13:07.546609	354.9	26.3	-91.1	5.0
2025-01-08 12:13:08.712541	354.6	26.3	-90.9	0.3
2025-01-08 12:13:09.874206	354.2	26.4	-91.1	3.1
2025-01-08 12:13:11.034101	353.9	26.4	-90.8	4.6
2025-01-08 12:13:12.199289	353.5	26.5	-90.4	3.9
2025-01-08 12:13:13.360499	353.2	26.5	-89.9	5.6
2025-01-08 12:13:14.523184	352.8	26.5	-90.6	7.0
2025-01-08 12:13:15.684567	352.5	26.6	-90.6	6.9
2025-01-08 12:13:16.850037	352.2	26.6	-91.0	7.7
2025-01-08 12:13:18.010281	351.8	26.6	-90.8	9.3
2025-01-08 12:13:19.173135	351.5	26.7	-90.5	5.3
2025-01-08 12:13:20.335143	351.1	26.7	-90.1	5.7
2025-01-08 12:13:21.494384	350.8	26.7	-90.5	8.9
2025-01-08 12:13:22.656541	350.4	26.7	-89.6	3.4
2025-01-08 12:13:23.824511	350.1	26.8	-90.0	4.8
2025-01-08 12:13:24.981703	349.7	26.8	-90.3	6.5
2025-01-08 12:13:26.139860	349.4	26.8	-90.0	5.8
2025-01-08 12:13:27.303335	349.0	26.8	-90.8	5.2
2025-01-08 12:13:28.465430	348.6	26.8	-90.8	6.5
2025-01-08 12:13:29.631174	348.3	26.9	-90.6	6.3
2025-01-08 12:13:30.794782	347.9	26.9	-90.9	2.9
2025-01-08 12:13:31.962681	347.6	26.9	-91.1	5.9
2025-01-08 12:13:33.119662	347.2	26.9	-90.7	6.1
2025-01-08 12:13:34.273838	346.9	26.9	-90.4	2.2
2025-01-08 12:13:35.435772	346.5	26.9	-90.9	5.3
2025-01-08 12:13:36.597198	346.2	27.0	-91.0	7.3
2025-01-08 12:13:37.759562	345.8	27.0	-90.8	5.4
2025-01-08 12:13:38.934032	345.4	27.0	-90.7	8.1
2025-01-08 12:13:40.827989	344.9	27.0	-90.8	10.2
2025-01-08 12:13:41.993256	344.5	27.0	-90.8	11.3
2025-01-08 12:13:43.153592	344.1	27.0	-90.7	11.4
2025-01-08 12:13:44.313160	343.8	27.0	-90.5	8.8
2025-01-08 12:13:45.473721	343.4	27.0	-90.8	10.1
2025-01-08 12:13:46.637726	343.1	27.0	-90.8	9.9
2025-01-08 12:13:47.800496	342.7	27.0	-90.8	9.0
2025-01-08 12:13:48.966400	342.4	27.0	-91.1	8.4
2025-01-08 12:13:50.127660	342.0	27.0	-90.9	9.1
2025-01-08 12:13:51.284531	341.6	27.0	-90.5	8.0
2025-01-08 12:13:52.444590	341.3	27.0	-91.1	7.2
2025-01-08 12:13:53.606977	340.9	27.0	-91.0	7.4
2025-01-08 12:13:54.763092	340.6	27.0	-91.1	6.2
2025-01-08 12:13:55.925175	340.2	27.0	-90.1	5.3
2025-01-08 12:13:57.090539	339.9	27.0	-90.1	5.1
2025-01-08 12:13:58.247176	339.5	26.9	-90.2	4.4
2025-01-08 12:13:59.410984	339.2	26.9	-90.4	3.5
2025-01-08 12:14:00.560795	338.8	26.9	-90.2	5.7
2025-01-08 12:14:01.724687	338.5	26.9	-90.2	3.6
2025-01-08 12:14:02.886608	338.1	26.9	-90.4	5.2
2025-01-08 12:14:04.047693	337.7	26.9	-90.8	6.7
2025-01-08 12:14:05.209095	337.4	26.8	-90.4	5.6
2025-01-08 12:14:06.365019	337.0	26.8	-90.7	4.5
2025-01-08 12:14:07.522766	336.7	26.8	-90.7	5.6
2025-01-08 12:14:08.680199	336.3	26.8	-91.1	3.1
2025-01-08 12:14:09.841654	336.0	26.8	-90.5	1.2
2025-01-08 12:14:11.006423	335.6	26.7	-90.5	2.5
2025-01-08 12:14:12.164519	335.3	26.7	-90.1	2.4
2025-01-08 12:14:13.327679	334.9	26.7	-90.1	3.0
2025-01-08 12:14:14.488799	334.6	26.7	-90.2	2.1
2025-01-08 12:14:15.647676	334.2	26.6	-90.4	4.0
2025-01-08 12:14:16.810475	333.9	26.6	-90.0	1.8
2025-01-08 12:14:17.970854	333.5	26.6	-90.1	3.9
2025-01-08 12:14:19.139143	333.2	26.5	-90.0	4.9
2025-01-08 12:14:20.298453	332.8	26.5	-89.9	2.1
2025-01-08 12:14:21.458945	332.5	26.5	-89.7	3.9
2025-01-08 12:14:22.612384	332.2	26.4	-90.9	5.1
2025-01-08 12:14:23.763345	331.8	26.4	-90.0	2.4
2025-01-08 12:14:24.920629	331.5	26.4	-90.3	2.8
2025-01-08 12:14:26.087828	331.1	26.3	-90.4	4.9
2025-01-08 12:14:27.247852	330.8	26.3	-90.0	3.8
2025-01-08 12:14:28.406939	330.4	26.2	-90.1	5.7
2025-01-08 12:14:29.571349	330.1	26.2	-90.0	5.2
2025-01-08 12:14:30.734312	329.8	26.1	-89.9	2.8
2025-01-08 12:14:31.894809	329.4	26.1	-90.3	3.3
2025-01-08 12:14:33.062791	329.1	26.1	-90.3	5.8
2025-01-08 12:14:34.226236	328.8	26.0	-90.3	3.5
2025-01-08 12:14:35.390480	328.4	26.0	-90.7	5.2
2025-01-08 12:14:36.549089	328.1	25.9	-89.7	5.3
2025-01-08 12:14:37.708474	327.8	25.9	-89.9	3.3
2025-01-08 12:14:38.867628	327.4	25.8	-90.2	6.6
2025-01-08 12:14:40.031096	327.1	25.8	-89.9	6.8
2025-01-08 12:14:41.195359	326.8	25.7	-89.9	1.4
2025-01-08 12:14:42.354920	326.4	25.7	-90.5	2.5
2025-01-08 12:14:43.517523	326.1	25.6	-89.9	4.1
2025-01-08 12:14:44.676306	325.8	25.5	-90.1	3.3
2025-01-08 12:14:45.843834	325.5	25.5	-89.5	3.2
2025-01-08 12:14:47.007289	325.1	25.4	-90.1	3.5
2025-01-08 12:14:48.185369	324.8	25.4	-90.0	3.8
2025-01-08 12:14:49.350177	324.5	25.3	-89.8	4.2
2025-01-08 12:14:50.513123	324.2	25.3	-90.5	7.2
2025-01-08 12:14:51.668597	323.8	25.2	-90.3	3.6
2025-01-08 12:14:52.831471	323.5	25.1	-90.5	2.6
2025-01-08 12:14:53.999814	323.2	25.1	-90.9	5.2
2025-01-08 12:14:55.159659	322.9	25.0	-90.8	1.2
2025-01-08 12:14:56.321045	322.6	24.9	-90.7	1.7
2025-01-08 12:14:57.481304	322.3	24.9	-90.9	5.1
2025-01-08 12:14:58.641863	322.0	24.8	-90.9	5.0
2025-01-08 12:14:59.806618	321.6	24.8	-91.1	2.2
2025-01-08 12:15:00.955731	321.3	24.7	-91.1	4.4
2025-01-08 12:15:02.116080	321.0	24.6	-90.6	7.2
2025-01-08 12:15:03.285260	320.7	24.6	-89.9	2.0
2025-01-08 12:15:04.446128	320.4	24.5	-87.7	1.7
2025-01-08 12:15:05.609794	320.1	24.4	-90.3	5.7
2025-01-08 12:15:06.769656	319.8	24.3	-90.1	3.3
2025-01-08 12:15:07.931016	319.5	24.3	-90.4	3.2
2025-01-08 12:15:09.089309	319.2	24.2	-90.3	4.7
2025-01-08 12:15:10.250332	318.9	24.1	-90.0	1.1
2025-01-08 12:15:11.413524	318.6	24.1	-90.3	3.3
2025-01-08 12:15:12.577079	318.3	24.0	-90.4	6.1
2025-01-08 12:15:13.737701	318.0	23.9	-90.3	3.6
2025-01-08 12:15:14.900954	317.7	23.8	-90.2	4.6
2025-01-08 12:15:16.063441	317.4	23.8	-90.5	6.3
2025-01-08 12:15:17.228097	317.2	23.7	-90.3	2.2
2025-01-08 12:15:18.391673	316.9	23.6	-90.7	3.3
2025-01-08 12:15:19.554294	316.6	23.5	-91.0	5.8
2025-01-08 12:15:20.715988	316.3	23.4	-89.8	2.7
2025-01-08 12:15:21.872367	316.0	23.4	-89.8	3.1
2025-01-08 12:15:23.033968	315.7	23.3	-89.8	4.8
2025-01-08 12:15:24.194774	315.4	23.2	-89.5	2.8
2025-01-08 12:15:25.351471	315.2	23.1	-90.1	3.9
2025-01-08 12:15:26.518496	314.9	23.1	-90.3	4.3
2025-01-08 12:15:27.679079	314.6	23.0	-90.4	4.5
2025-01-08 12:15:28.833504	314.3	22.9	-90.6	3.6
2025-01-08 12:15:29.994538	314.1	22.8	-90.7	4.0
2025-01-08 12:15:31.154780	313.8	22.7	-90.4	2.0
2025-01-08 12:15:32.311023	313.5	22.6	-90.5	6.3
2025-01-08 12:15:33.471726	313.3	22.6	-90.7	3.1
2025-01-08 12:15:34.633021	313.0	22.5	-90.6	4.2
2025-01-08 12:15:35.794055	312.7	22.4	-90.3	4.8
2025-01-08 12:15:36.956161	312.5	22.3	-90.5	3.0
2025-01-08 12:15:38.109508	312.2	22.2	-90.6	3.1
2025-01-08 12:15:39.273513	311.9	22.1	-90.4	2.8
2025-01-08 12:15:40.431758	311.7	22.1	-89.7	2.7
2025-01-08 12:15:41.596035	311.4	22.0	-90.0	2.5
2025-01-08 12:15:42.754898	311.1	21.9	-89.9	2.4
2025-01-08 12:15:43.913385	310.9	21.8	-90.1	1.7
2025-01-08 12:15:45.071928	310.6	21.7	-89.6	3.2
2025-01-08 12:15:46.239901	310.4	21.6	-89.9	1.2
2025-01-08 12:15:47.400944	310.1	21.5	-89.5	1.0
2025-01-08 12:15:48.566707	309.9	21.5	-89.9	4.5
2025-01-08 12:15:49.733610	309.6	21.4	-89.9	4.2
2025-01-08 12:15:50.894523	309.4	21.3	-90.2	2.3
2025-01-08 12:15:52.054755	309.1	21.2	-89.7	2.1
2025-01-08 12:15:53.328358	308.9	21.1	-90.0	1.8
2025-01-08 12:15:54.490543	308.6	21.0	-90.5	2.4
2025-01-08 12:15:55.648479	308.4	20.9	-90.4	2.3
2025-01-08 12:15:56.814689	308.1	20.8	-90.3	1.1
2025-01-08 12:15:57.972383	307.9	20.7	-90.7	2.8
2025-01-08 12:15:59.134999	307.7	20.6	-90.2	2.8
2025-01-08 12:16:00.286424	307.4	20.6	-90.5	3.3
2025-01-08 12:16:01.453199	307.2	20.5	-91.0	2.5
2025-01-08 12:16:02.621996	307.0	20.4	-90.7	2.7
2025-01-08 12:16:03.785466	306.7	20.3	-91.3	2.4
2025-01-08 12:16:04.943303	306.5	20.2	-90.8	4.1
2025-01-08 12:16:06.103508	306.3	20.1	-90.5	4.6
2025-01-08 12:16:07.265959	306.0	20.0	-90.3	3.1
2025-01-08 12:16:08.419668	305.8	19.9	-90.7	3.0
2025-01-08 12:16:09.582734	305.6	19.8	-90.9	0.6
2025-01-08 12:16:10.743453	305.4	19.7	-91.0	3.5
2025-01-08 12:16:11.910300	305.1	19.6	-91.4	6.3
2025-01-08 12:16:13.067897	304.9	19.6	-91.1	2.0
2025-01-08 12:16:14.227728	304.7	19.5	-90.8	2.6
2025-01-08 12:16:15.384498	304.5	19.4	-91.0	1.6
2025-01-08 12:16:16.542474	304.3	19.3	-91.3	2.3
2025-01-08 12:16:17.707429	304.0	19.2	-91.0	2.0
2025-01-08 12:16:18.872031	303.8	19.1	-91.2	3.3
2025-01-08 12:16:20.033302	303.6	19.0	-91.0	1.5
2025-01-08 12:16:21.194457	303.4	18.9	-90.9	0.4
2025-01-08 12:16:22.360557	303.2	18.8	-90.9	3.2
2025-01-08 12:16:23.519380	303.0	18.7	-90.7	2.7
2025-01-08 12:16:24.686850	302.8	18.6	-91.0	1.4
2025-01-08 12:16:25.840682	302.6	18.5	-91.1	2.4
2025-01-08 12:16:27.007989	302.4	18.4	-91.2	2.7
2025-01-08 12:16:28.166157	302.2	18.4	-90.9	3.4
2025-01-08 12:16:29.321514	302.0	18.3	-90.8	3.8
2025-01-08 12:16:30.485162	301.7	18.2	-90.8	3.1
2025-01-08 12:16:31.653571	301.5	18.1	-91.4	7.7
2025-01-08 12:16:32.813029	301.3	18.0	-91.1	4.0
2025-01-08 12:16:33.977174	301.1	17.9	-91.2	6.3
2025-01-08 12:16:35.131342	301.0	17.8	-90.8	4.3
2025-01-08 12:16:36.295038	300.8	17.7	-90.7	3.6
2025-01-08 12:16:37.456921	300.6	17.6	-90.8	1.9
2025-01-08 12:16:38.616524	300.4	17.5	-90.9	3.0
2025-01-08 12:16:39.779107	300.2	17.4	-90.9	1.7
2025-01-08 12:16:40.932369	300.0	17.3	-90.8	1.3
2025-01-08 12:16:42.095577	299.8	17.2	-90.6	3.4
2025-01-08 12:16:43.258406	299.6	17.1	-90.5	3.4
2025-01-08 12:16:44.418887	299.4	17.1	-90.4	2.1
2025-01-08 12:16:45.578796	299.2	17.0	-90.7	3.9
2025-01-08 12:16:46.738462	299.0	16.9	-90.6	3.8
2025-01-08 12:16:47.895644	298.9	16.8	-90.5	3.1
2025-01-08 12:16:49.052504	298.7	16.7	-90.6	2.6
2025-01-08 12:16:50.216128	298.5	16.6	-90.6	2.9
2025-01-08 12:16:51.380538	298.3	16.5	-90.9	4.3
2025-01-08 12:16:52.540937	298.1	16.4	-90.6	4.6
2025-01-08 12:16:53.707585	298.0	16.3	-90.6	4.8
2025-01-08 12:16:54.873332	297.8	16.2	-91.0	3.7
2025-01-08 12:16:56.037901	297.6	16.1	-91.0	6.3
2025-01-08 12:16:57.198477	297.4	16.0	-90.6	3.8
2025-01-08 12:16:58.366999	297.3	15.9	-90.7	2.7
2025-01-08 12:16:59.535946	297.1	15.9	-90.6	5.1
2025-01-08 12:17:00.684585	296.9	15.8	-90.9	3.0
2025-01-08 12:17:01.852329	296.7	15.7	-90.9	1.5
2025-01-08 12:17:03.012144	296.6	15.6	-90.9	5.4
2025-01-08 12:17:04.175480	296.4	15.5	-90.5	3.6
2025-01-08 12:17:05.329362	296.2	15.4	-90.3	3.9
2025-01-08 12:17:06.489620	296.1	15.3	-90.7	4.1
2025-01-08 12:17:07.655563	295.9	15.2	-90.9	4.8
2025-01-08 12:17:08.817890	295.7	15.1	-91.3	2.5
2025-01-08 12:17:09.985910	295.6	15.0	-91.0	5.6
2025-01-08 12:17:11.148589	295.4	14.9	-90.6	6.5
2025-01-08 12:17:12.313261	295.2	14.8	-91.0	5.8
2025-01-08 12:17:13.474257	295.1	14.8	-91.0	8.7
2025-01-08 12:17:14.636330	294.9	14.7	-90.7	5.6
#Closed at: 2025-01-08 12:10:28.516446