passes_logs/2025/01/08/LEX_Murmansk/LEX_Murmansk__20250108_102955_NOAA_19_rec.log

#Pass ID: 20250108_102955_NOAA 19
#Satellite: NOAA 19
#Configuration: NOAA 19
#Start time: 2025-01-08 10:29:50.368415

#LorettStation: 1.0.0 05.05.2024
#Station: LEX_Murmansk
#Location: 33.156738 lon 68.926811 lat
#TLE: 1 33591U 09005A   25007.78273938  .00000347  00000+0  20907-3 0  9990
#TLE: 2 33591  99.0209  71.4889 0014647  76.7831 283.4973 14.13254046820526

#Time	Az	El	Level	SNR
2025-01-08 10:30:02.608459	23.4	16.2	-89.5	3.3
2025-01-08 10:30:03.761481	23.3	16.3	-89.3	2.1
2025-01-08 10:30:04.913264	23.2	16.4	-89.6	4.0
2025-01-08 10:30:06.067055	23.1	16.6	-88.9	2.7
2025-01-08 10:30:07.229117	23.0	16.7	-89.3	4.2
2025-01-08 10:30:08.376469	22.9	16.8	-89.2	4.2
2025-01-08 10:30:09.530150	22.8	16.9	-89.2	5.5
2025-01-08 10:30:10.679693	22.7	17.0	-89.1	3.9
2025-01-08 10:30:11.832611	22.6	17.2	-89.7	5.8
2025-01-08 10:30:12.981844	22.5	17.3	-89.1	8.6
2025-01-08 10:30:14.132090	22.4	17.4	-89.3	7.0
2025-01-08 10:30:15.278477	22.2	17.5	-89.3	4.1
2025-01-08 10:30:16.435843	22.1	17.6	-89.6	5.1
2025-01-08 10:30:17.588195	22.0	17.8	-89.2	1.1
2025-01-08 10:30:18.737300	21.9	17.9	-89.5	1.5
2025-01-08 10:30:19.888941	21.8	18.0	-89.2	5.4
2025-01-08 10:30:21.038590	21.7	18.1	-89.7	4.7
2025-01-08 10:30:22.196207	21.5	18.3	-89.7	6.1
2025-01-08 10:30:23.343529	21.4	18.4	-89.5	9.5
2025-01-08 10:30:24.495048	21.3	18.5	-89.6	6.2
2025-01-08 10:30:25.644256	21.2	18.6	-88.9	6.1
2025-01-08 10:30:26.798117	21.1	18.8	-89.1	2.9
2025-01-08 10:30:27.949612	20.9	18.9	-89.2	6.2
2025-01-08 10:30:29.098739	20.8	19.0	-88.7	5.8
2025-01-08 10:30:30.256354	20.7	19.1	-89.0	4.2
2025-01-08 10:30:31.411297	20.6	19.3	-88.9	4.7
2025-01-08 10:30:32.565405	20.4	19.4	-89.5	5.8
2025-01-08 10:30:33.716232	20.3	19.5	-89.6	3.5
2025-01-08 10:30:34.867116	20.2	19.7	-89.3	0.8
2025-01-08 10:30:36.017716	20.0	19.8	-89.3	3.4
2025-01-08 10:30:37.170895	19.9	19.9	-88.9	2.9
2025-01-08 10:30:38.319828	19.8	20.1	-88.5	4.7
2025-01-08 10:30:39.472780	19.6	20.2	-88.9	3.5
2025-01-08 10:30:40.625901	19.5	20.3	-89.2	4.9
2025-01-08 10:30:41.779319	19.4	20.4	-89.7	6.0
2025-01-08 10:30:42.933674	19.2	20.6	-89.3	3.9
2025-01-08 10:30:44.098183	19.1	20.7	-89.7	4.3
2025-01-08 10:30:45.253109	18.9	20.9	-89.6	1.5
2025-01-08 10:30:46.404343	18.8	21.0	-89.9	3.4
2025-01-08 10:30:47.559162	18.6	21.1	-89.9	3.1
2025-01-08 10:30:48.708303	18.5	21.3	-89.9	7.1
2025-01-08 10:30:49.865362	18.4	21.4	-90.2	5.5
2025-01-08 10:30:51.039430	18.2	21.5	-89.6	3.7
2025-01-08 10:30:52.188299	18.1	21.7	-89.7	3.4
2025-01-08 10:30:53.344175	17.9	21.8	-89.2	2.2
2025-01-08 10:30:54.501329	17.8	21.9	-89.9	3.9
2025-01-08 10:30:55.655245	17.6	22.1	-90.0	5.9
2025-01-08 10:30:56.815891	17.4	22.2	-89.8	6.4
2025-01-08 10:30:57.964048	17.3	22.4	-89.8	7.6
2025-01-08 10:30:59.116663	17.1	22.5	-89.5	9.7
2025-01-08 10:31:00.262292	17.0	22.6	-89.7	7.0
2025-01-08 10:31:01.406540	16.8	22.8	-89.8	7.2
2025-01-08 10:31:02.552396	16.6	22.9	-89.7	7.6
2025-01-08 10:31:03.706117	16.5	23.1	-90.1	6.9
2025-01-08 10:31:04.855888	16.3	23.2	-89.6	7.6
2025-01-08 10:31:06.009292	16.2	23.4	-89.6	10.6
2025-01-08 10:31:07.160005	16.0	23.5	-89.4	10.1
2025-01-08 10:31:08.309569	15.8	23.7	-89.7	5.4
2025-01-08 10:31:09.460305	15.6	23.8	-90.0	5.4
2025-01-08 10:31:10.608160	15.5	23.9	-89.8	4.3
2025-01-08 10:31:11.766979	15.3	24.1	-90.3	2.3
2025-01-08 10:31:12.923792	15.1	24.2	-90.1	4.0
2025-01-08 10:31:14.073154	14.9	24.4	-88.5	4.7
2025-01-08 10:31:15.228782	14.8	24.5	-89.7	6.6
2025-01-08 10:31:16.381403	14.6	24.7	-89.9	7.4
2025-01-08 10:31:17.536647	14.4	24.8	-89.9	6.9
2025-01-08 10:31:18.687985	14.2	25.0	-89.7	6.9
2025-01-08 10:31:19.843827	14.0	25.1	-89.3	5.0
2025-01-08 10:31:20.998478	13.8	25.3	-90.2	6.7
2025-01-08 10:31:22.146017	13.6	25.4	-89.8	5.6
2025-01-08 10:31:23.294354	13.5	25.6	-89.8	6.7
2025-01-08 10:31:24.449232	13.3	25.7	-90.2	8.4
2025-01-08 10:31:25.604665	13.1	25.9	-90.2	7.2
2025-01-08 10:31:26.755989	12.9	26.0	-90.1	7.1
2025-01-08 10:31:27.907070	12.7	26.2	-89.8	3.2
2025-01-08 10:31:29.059053	12.5	26.3	-89.7	4.5
2025-01-08 10:31:30.208893	12.3	26.5	-89.5	2.7
2025-01-08 10:31:31.356814	12.1	26.7	-89.7	3.4
2025-01-08 10:31:32.511527	11.8	26.8	-89.9	0.1
2025-01-08 10:31:33.662171	11.6	27.0	-90.3	4.2
2025-01-08 10:31:34.813378	11.4	27.1	-90.1	7.4
2025-01-08 10:31:35.967377	11.2	27.3	-90.2	7.3
2025-01-08 10:31:37.128930	11.0	27.4	-90.1	6.9
2025-01-08 10:31:38.281414	10.8	27.6	-89.9	3.6
2025-01-08 10:31:39.438576	10.5	27.8	-90.0	4.7
2025-01-08 10:31:40.596862	10.3	27.9	-89.9	6.0
2025-01-08 10:31:41.752173	10.1	28.1	-90.0	4.8
2025-01-08 10:31:42.907762	9.9	28.2	-90.1	3.3
2025-01-08 10:31:44.062431	9.6	28.4	-89.2	3.8
2025-01-08 10:31:45.215025	9.4	28.6	-89.2	1.3
2025-01-08 10:31:46.368493	9.2	28.7	-89.8	3.7
2025-01-08 10:31:47.521400	8.9	28.9	-90.2	3.8
2025-01-08 10:31:48.680181	8.7	29.0	-90.1	1.1
2025-01-08 10:31:49.829869	8.4	29.2	-89.9	2.4
2025-01-08 10:31:50.973605	8.2	29.4	-90.0	1.4
2025-01-08 10:31:52.123567	8.0	29.5	-89.8	3.4
2025-01-08 10:31:53.276250	7.7	29.7	-89.5	3.7
2025-01-08 10:31:54.431394	7.5	29.9	-90.3	5.3
2025-01-08 10:31:55.586151	7.2	30.0	-90.4	6.0
2025-01-08 10:31:56.740928	6.9	30.2	-90.3	7.0
2025-01-08 10:31:57.897506	6.7	30.3	-90.1	3.5
2025-01-08 10:31:59.051424	6.4	30.5	-90.1	4.2
2025-01-08 10:32:00.206754	6.2	30.7	-89.9	3.2
2025-01-08 10:32:01.352561	5.9	30.8	-89.5	3.7
2025-01-08 10:32:02.508077	5.6	31.0	-90.3	7.1
2025-01-08 10:32:03.662371	5.3	31.2	-90.6	9.3
2025-01-08 10:32:04.815961	5.1	31.3	-90.5	13.3
2025-01-08 10:32:05.966749	4.8	31.5	-90.1	10.2
2025-01-08 10:32:07.116277	4.5	31.7	-90.0	9.4
2025-01-08 10:32:08.273201	4.2	31.8	-90.1	5.8
2025-01-08 10:32:09.425890	3.9	32.0	-90.7	5.4
2025-01-08 10:32:10.574121	3.6	32.2	-90.1	4.5
2025-01-08 10:32:11.727653	3.3	32.3	-90.0	2.1
2025-01-08 10:32:12.883713	3.0	32.5	-90.1	3.1
2025-01-08 10:32:14.039711	2.7	32.7	-90.2	3.6
2025-01-08 10:32:15.193708	2.4	32.8	-90.3	5.1
2025-01-08 10:32:16.346068	2.1	33.0	-90.3	5.3
2025-01-08 10:32:17.502612	1.8	33.2	-90.5	8.9
2025-01-08 10:32:18.654419	1.5	33.3	-90.7	8.1
2025-01-08 10:32:19.809308	1.2	33.5	-90.4	6.3
2025-01-08 10:32:20.962245	0.9	33.7	-90.7	7.2
2025-01-08 10:32:22.114444	0.5	33.8	-90.1	5.3
2025-01-08 10:32:23.271726	0.2	34.0	-90.3	4.2
2025-01-08 10:32:24.423989	359.9	34.1	-90.5	4.6
2025-01-08 10:32:25.583442	359.6	34.3	-90.7	7.9
2025-01-08 10:32:26.746429	359.2	34.5	-90.7	7.5
2025-01-08 10:32:27.890295	358.9	34.6	-90.4	12.8
2025-01-08 10:32:29.045730	358.5	34.8	-90.4	12.8
2025-01-08 10:32:30.194561	358.2	35.0	-90.0	10.6
2025-01-08 10:32:31.353373	357.8	35.1	-89.8	7.6
2025-01-08 10:32:32.505719	357.5	35.3	-90.3	6.5
2025-01-08 10:32:33.661392	357.1	35.5	-90.3	5.0
2025-01-08 10:32:34.819109	356.8	35.6	-90.4	3.1
2025-01-08 10:32:35.975439	356.4	35.8	-90.7	5.8
2025-01-08 10:32:37.128734	356.0	35.9	-90.5	6.3
2025-01-08 10:32:38.276204	355.7	36.1	-90.0	5.2
2025-01-08 10:32:39.429791	355.3	36.3	-90.5	8.0
2025-01-08 10:32:40.579561	354.9	36.4	-90.6	9.9
2025-01-08 10:32:41.736174	354.5	36.6	-90.5	10.1
2025-01-08 10:32:42.889575	354.1	36.7	-90.7	9.9
2025-01-08 10:32:44.036696	353.7	36.9	-90.8	8.3
2025-01-08 10:32:45.186611	353.3	37.0	-90.2	5.4
2025-01-08 10:32:46.335277	353.0	37.2	-90.5	8.0
2025-01-08 10:32:47.495270	352.5	37.4	-90.4	6.7
2025-01-08 10:32:48.638040	352.1	37.5	-90.3	7.1
2025-01-08 10:32:49.788273	351.7	37.7	-90.1	5.3
2025-01-08 10:32:50.948607	351.3	37.8	-90.4	7.1
2025-01-08 10:32:52.102041	350.9	38.0	-90.4	10.0
2025-01-08 10:32:53.259787	350.5	38.1	-90.1	11.1
2025-01-08 10:32:54.411110	350.1	38.3	-90.4	14.3
2025-01-08 10:32:55.563386	349.6	38.4	-90.8	12.6
2025-01-08 10:32:56.705604	349.2	38.6	-90.1	11.9
2025-01-08 10:32:57.861665	348.8	38.7	-90.5	8.2
2025-01-08 10:32:59.012712	348.3	38.8	-90.5	9.7
2025-01-08 10:33:00.161405	347.9	39.0	-90.3	6.8
2025-01-08 10:33:01.308321	347.4	39.1	-90.6	1.6
2025-01-08 10:33:02.458976	347.0	39.3	-90.7	5.1
2025-01-08 10:33:03.612744	346.5	39.4	-90.8	5.6
2025-01-08 10:33:04.766353	346.1	39.5	-90.7	3.5
2025-01-08 10:33:05.914446	345.6	39.7	-90.8	7.6
2025-01-08 10:33:07.067432	345.1	39.8	-90.4	9.9
2025-01-08 10:33:08.222340	344.7	39.9	-90.1	8.0
2025-01-08 10:33:09.370884	344.2	40.1	-90.1	12.9
2025-01-08 10:33:10.525289	343.7	40.2	-90.8	15.7
2025-01-08 10:33:11.679203	343.2	40.3	-90.9	13.6
2025-01-08 10:33:12.827487	342.7	40.4	-90.9	15.8
2025-01-08 10:33:13.977938	342.2	40.6	-90.6	14.4
2025-01-08 10:33:15.132563	341.7	40.7	-89.9	14.1
2025-01-08 10:33:16.292025	341.2	40.8	-90.1	9.0
2025-01-08 10:33:17.444712	340.7	40.9	-90.8	9.3
2025-01-08 10:33:18.595777	340.2	41.0	-91.0	10.3
2025-01-08 10:33:19.746778	339.7	41.1	-90.5	5.0
2025-01-08 10:33:20.904417	339.2	41.2	-90.8	9.0
2025-01-08 10:33:22.051212	338.7	41.3	-89.7	10.0
2025-01-08 10:33:23.204639	338.2	41.4	-90.1	10.0
2025-01-08 10:33:24.356222	337.7	41.5	-90.2	11.7
2025-01-08 10:33:25.510347	337.1	41.6	-89.8	15.7
2025-01-08 10:33:26.665023	336.6	41.7	-90.2	16.3
2025-01-08 10:33:27.820213	336.1	41.8	-90.1	17.4
2025-01-08 10:33:28.970470	335.5	41.9	-90.1	16.8
2025-01-08 10:33:30.123153	335.0	42.0	-89.7	17.1
2025-01-08 10:33:32.281938	334.0	42.2	-90.7	13.0
2025-01-08 10:33:33.431636	333.4	42.3	-90.4	10.5
2025-01-08 10:33:34.586960	332.9	42.3	-90.0	10.8
2025-01-08 10:33:35.732449	332.4	42.4	-89.6	6.3
2025-01-08 10:33:36.880985	331.8	42.5	-89.7	7.2
2025-01-08 10:33:38.034709	331.2	42.6	-89.7	7.6
2025-01-08 10:33:39.190289	330.7	42.6	-89.8	4.7
2025-01-08 10:33:40.342257	330.1	42.7	-89.5	5.6
2025-01-08 10:33:41.493127	329.6	42.7	-90.5	9.5
2025-01-08 10:33:42.645053	329.0	42.8	-90.5	7.7
2025-01-08 10:33:43.798512	328.4	42.9	-90.7	5.4
2025-01-08 10:33:44.950994	327.9	42.9	-90.4	8.7
2025-01-08 10:33:46.103262	327.3	43.0	-90.5	13.1
2025-01-08 10:33:47.260894	326.7	43.0	-90.0	10.6
2025-01-08 10:33:48.410433	326.1	43.0	-90.5	10.6
2025-01-08 10:33:49.562650	325.6	43.1	-90.6	12.6
2025-01-08 10:33:50.717038	325.0	43.1	-90.6	13.3
2025-01-08 10:33:51.868904	324.4	43.2	-90.9	13.4
2025-01-08 10:33:53.022500	323.8	43.2	-90.9	14.0
2025-01-08 10:33:54.172701	323.2	43.2	-90.4	16.5
2025-01-08 10:33:55.324769	322.7	43.2	-90.3	16.9
2025-01-08 10:33:56.479156	322.1	43.3	-90.8	15.1
2025-01-08 10:33:57.632964	321.5	43.3	-90.5	13.6
2025-01-08 10:33:58.781481	320.9	43.3	-90.9	16.1
2025-01-08 10:33:59.934327	320.3	43.3	-91.1	11.0
2025-01-08 10:34:01.071504	319.8	43.3	-90.5	15.2
2025-01-08 10:34:02.226581	319.2	43.3	-90.7	10.0
2025-01-08 10:34:03.376345	318.6	43.3	-90.7	8.7
2025-01-08 10:34:04.524061	318.0	43.3	-90.8	12.9
2025-01-08 10:34:05.679263	317.4	43.3	-90.6	7.3
2025-01-08 10:34:06.833626	316.8	43.3	-90.8	7.4
2025-01-08 10:34:07.989404	316.3	43.3	-91.0	9.7
2025-01-08 10:34:09.141010	315.7	43.2	-90.9	9.2
2025-01-08 10:34:10.295472	315.1	43.2	-90.6	7.0
2025-01-08 10:34:11.451398	314.5	43.2	-90.8	9.0
2025-01-08 10:34:12.602269	313.9	43.2	-90.2	10.6
2025-01-08 10:34:13.752946	313.4	43.1	-90.6	5.4
2025-01-08 10:34:14.906213	312.8	43.1	-90.7	11.7
2025-01-08 10:34:16.062741	312.2	43.1	-90.6	9.2
2025-01-08 10:34:17.215641	311.6	43.0	-90.6	5.7
2025-01-08 10:34:18.368334	311.0	43.0	-90.6	4.1
2025-01-08 10:34:19.515938	310.5	42.9	-90.5	9.4
2025-01-08 10:34:20.663717	309.9	42.9	-90.1	4.0
2025-01-08 10:34:21.816928	309.3	42.8	-90.2	6.2
2025-01-08 10:34:22.972950	308.8	42.8	-90.4	8.6
2025-01-08 10:34:24.125499	308.2	42.7	-90.0	9.3
2025-01-08 10:34:25.275106	307.6	42.7	-90.0	4.4
2025-01-08 10:34:26.422816	307.1	42.6	-90.2	4.0
2025-01-08 10:34:27.583430	306.5	42.5	-90.0	8.3
2025-01-08 10:34:28.735527	306.0	42.5	-90.0	5.6
2025-01-08 10:34:29.886994	305.4	42.4	-89.9	11.4
2025-01-08 10:34:31.041047	304.9	42.3	-90.1	10.8
2025-01-08 10:34:32.193937	304.3	42.2	-89.6	8.1
2025-01-08 10:34:33.345855	303.8	42.1	-89.8	7.1
2025-01-08 10:34:34.500218	303.2	42.1	-90.0	9.7
2025-01-08 10:34:35.651539	302.7	42.0	-90.4	8.8
2025-01-08 10:34:36.809829	302.2	41.9	-90.9	8.0
2025-01-08 10:34:37.968461	301.6	41.8	-90.9	10.2
2025-01-08 10:34:39.123385	301.1	41.7	-90.7	9.8
2025-01-08 10:34:40.274037	300.6	41.6	-90.4	7.9
2025-01-08 10:34:41.427059	300.0	41.5	-90.7	10.7
2025-01-08 10:34:42.578811	299.5	41.4	-90.5	9.9
2025-01-08 10:34:43.727875	299.0	41.3	-90.4	8.2
2025-01-08 10:34:44.882879	298.5	41.2	-90.7	6.8
2025-01-08 10:34:46.048465	298.0	41.1	-90.7	7.5
2025-01-08 10:34:47.205000	297.5	40.9	-90.8	8.6
2025-01-08 10:34:48.347768	297.0	40.8	-90.6	7.7
2025-01-08 10:34:49.496740	296.5	40.7	-90.6	10.3
2025-01-08 10:34:50.659236	296.0	40.6	-90.6	10.7
2025-01-08 10:34:51.810835	295.5	40.5	-90.8	9.1
2025-01-08 10:34:52.957880	295.0	40.4	-90.7	10.3
2025-01-08 10:34:54.080568	294.5	40.2	-90.7	9.2
2025-01-08 10:34:55.233238	294.0	40.1	-90.6	5.0
2025-01-08 10:34:56.381262	293.6	40.0	-90.5	5.3
2025-01-08 10:34:57.532870	293.1	39.9	-90.6	9.4
2025-01-08 10:34:58.686198	292.6	39.7	-91.0	8.1
2025-01-08 10:34:59.836045	292.2	39.6	-91.0	6.0
2025-01-08 10:35:00.979681	291.7	39.5	-90.4	9.7
2025-01-08 10:35:02.132493	291.2	39.3	-90.5	6.3
2025-01-08 10:35:03.279110	290.8	39.2	-90.9	4.8
2025-01-08 10:35:04.434551	290.3	39.0	-90.8	8.9
2025-01-08 10:35:05.581223	289.9	38.9	-90.7	8.2
2025-01-08 10:35:06.739354	289.4	38.8	-91.1	6.9
2025-01-08 10:35:07.895601	289.0	38.6	-90.5	8.2
2025-01-08 10:35:09.050516	288.6	38.5	-90.2	7.6
2025-01-08 10:35:10.194897	288.1	38.3	-90.0	3.7
2025-01-08 10:35:11.352287	287.7	38.2	-90.6	5.1
2025-01-08 10:35:12.498652	287.3	38.0	-90.6	9.9
2025-01-08 10:35:13.654663	286.9	37.9	-90.5	6.7
2025-01-08 10:35:14.803093	286.5	37.7	-90.9	5.3
2025-01-08 10:35:15.955567	286.1	37.6	-90.8	6.6
2025-01-08 10:35:17.114230	285.6	37.4	-89.8	6.0
2025-01-08 10:35:18.266105	285.2	37.3	-90.8	5.8
2025-01-08 10:35:19.422848	284.8	37.1	-90.3	7.7
2025-01-08 10:35:20.565356	284.4	37.0	-90.9	11.1
2025-01-08 10:35:21.716826	284.1	36.8	-90.7	7.3
2025-01-08 10:35:22.872111	283.7	36.6	-91.1	7.9
2025-01-08 10:35:24.029203	283.3	36.5	-90.9	10.1
2025-01-08 10:35:25.186036	282.9	36.3	-90.6	10.3
2025-01-08 10:35:26.343300	282.5	36.2	-90.7	9.3
2025-01-08 10:35:27.497735	282.1	36.0	-91.2	11.6
2025-01-08 10:35:28.652036	281.8	35.8	-90.9	12.4
2025-01-08 10:35:29.799066	281.4	35.7	-91.0	9.1
2025-01-08 10:35:30.957783	281.0	35.5	-91.1	13.1
2025-01-08 10:35:32.102650	280.7	35.4	-90.7	10.7
2025-01-08 10:35:33.256819	280.3	35.2	-90.9	13.0
2025-01-08 10:35:34.406311	280.0	35.0	-90.5	8.9
2025-01-08 10:35:35.556272	279.6	34.9	-90.7	8.0
2025-01-08 10:35:36.710895	279.3	34.7	-90.8	8.8
2025-01-08 10:35:37.863298	278.9	34.5	-91.0	9.6
2025-01-08 10:35:39.014554	278.6	34.4	-91.1	10.0
2025-01-08 10:35:40.163421	278.3	34.2	-90.7	5.7
2025-01-08 10:35:41.313076	277.9	34.1	-90.5	5.8
2025-01-08 10:35:42.465444	277.6	33.9	-90.3	5.8
2025-01-08 10:35:43.617352	277.3	33.7	-90.5	4.2
2025-01-08 10:35:44.770768	277.0	33.6	-90.9	4.8
2025-01-08 10:35:45.921036	276.6	33.4	-90.4	3.8
2025-01-08 10:35:47.078889	276.3	33.2	-90.5	3.5
2025-01-08 10:35:48.234944	276.0	33.1	-90.4	3.6
2025-01-08 10:35:49.386159	275.7	32.9	-90.2	1.5
2025-01-08 10:35:50.535539	275.4	32.7	-90.9	2.5
2025-01-08 10:35:51.686245	275.1	32.6	-91.2	3.6
2025-01-08 10:35:52.835453	274.8	32.4	-90.9	3.1
2025-01-08 10:35:53.993078	274.5	32.2	-91.3	7.4
2025-01-08 10:35:55.142895	274.2	32.1	-90.8	5.6
2025-01-08 10:35:56.299450	273.9	31.9	-90.4	3.7
2025-01-08 10:35:57.451244	273.6	31.7	-91.0	5.5
2025-01-08 10:35:58.603637	273.4	31.6	-91.2	6.4
2025-01-08 10:35:59.757444	273.1	31.4	-90.9	3.1
2025-01-08 10:36:00.898453	272.8	31.2	-91.1	4.7
2025-01-08 10:36:02.053087	272.5	31.1	-91.0	3.4
2025-01-08 10:36:03.204546	272.2	30.9	-90.9	1.4
2025-01-08 10:36:04.360922	272.0	30.7	-90.5	2.3
2025-01-08 10:36:05.515599	271.7	30.6	-90.8	1.3
2025-01-08 10:36:06.670276	271.4	30.4	-91.0	4.1
2025-01-08 10:36:07.821003	271.2	30.3	-90.7	3.1
2025-01-08 10:36:08.970905	270.9	30.1	-91.0	3.0
2025-01-08 10:36:10.120924	270.7	29.9	-90.6	0.9
2025-01-08 10:36:11.272070	270.4	29.8	-89.9	1.6
2025-01-08 10:36:12.424238	270.2	29.6	-89.8	2.3
2025-01-08 10:36:13.573589	269.9	29.4	-90.4	3.5
2025-01-08 10:36:14.730831	269.7	29.3	-90.4	3.8
2025-01-08 10:36:15.888811	269.4	29.1	-90.8	3.4
2025-01-08 10:36:17.046134	269.2	28.9	-90.9	5.6
2025-01-08 10:36:18.195894	268.9	28.8	-90.9	5.3
2025-01-08 10:36:19.354215	268.7	28.6	-90.9	7.7
2025-01-08 10:36:20.505295	268.5	28.5	-91.0	9.8
2025-01-08 10:36:21.662461	268.2	28.3	-91.0	9.2
2025-01-08 10:36:22.820953	268.0	28.1	-90.6	9.2
2025-01-08 10:36:23.972968	267.8	28.0	-90.5	11.6
2025-01-08 10:36:25.130602	267.6	27.8	-89.9	11.3
2025-01-08 10:36:26.286372	267.3	27.7	-90.0	7.9
2025-01-08 10:36:27.448319	267.1	27.5	-90.3	6.6
2025-01-08 10:36:28.601506	266.9	27.3	-90.5	7.8
2025-01-08 10:36:29.755402	266.7	27.2	-90.7	5.0
2025-01-08 10:36:30.903071	266.5	27.0	-90.0	4.8
2025-01-08 10:36:32.056451	266.3	26.9	-90.2	6.2
2025-01-08 10:36:33.209578	266.0	26.7	-90.4	6.0
2025-01-08 10:36:34.366322	265.8	26.6	-89.8	3.0
2025-01-08 10:36:35.517614	265.6	26.4	-90.1	7.4
2025-01-08 10:36:36.663384	265.4	26.3	-90.5	6.4
2025-01-08 10:36:37.814681	265.2	26.1	-90.1	6.5
2025-01-08 10:36:38.966932	265.0	26.0	-90.3	9.0
2025-01-08 10:36:40.118967	264.8	25.8	-90.2	10.4
2025-01-08 10:36:41.277005	264.6	25.6	-90.8	11.1
2025-01-08 10:36:42.429111	264.4	25.5	-90.9	12.3
2025-01-08 10:36:43.574625	264.3	25.3	-90.6	10.0
2025-01-08 10:36:44.723059	264.1	25.2	-90.8	11.4
2025-01-08 10:36:45.877014	263.9	25.0	-90.9	11.5
2025-01-08 10:36:47.026986	263.7	24.9	-91.0	9.0
2025-01-08 10:36:48.174906	263.5	24.7	-90.6	10.6
2025-01-08 10:36:49.332679	263.3	24.6	-90.3	11.9
2025-01-08 10:36:50.482709	263.1	24.4	-90.8	6.0
2025-01-08 10:36:51.629476	263.0	24.3	-90.6	6.4
2025-01-08 10:36:52.784876	262.8	24.2	-90.9	10.4
2025-01-08 10:36:53.937720	262.6	24.0	-90.6	5.4
2025-01-08 10:36:55.085985	262.4	23.9	-90.7	6.2
2025-01-08 10:36:56.238077	262.3	23.7	-90.3	8.8
2025-01-08 10:36:57.391221	262.1	23.6	-90.6	10.5
2025-01-08 10:36:58.544815	261.9	23.4	-90.8	10.4
2025-01-08 10:36:59.700839	261.8	23.3	-91.1	10.1
2025-01-08 10:37:00.847567	261.6	23.1	-90.6	10.7
2025-01-08 10:37:01.993631	261.4	23.0	-90.8	7.9
2025-01-08 10:37:03.154930	261.3	22.8	-90.6	7.3
2025-01-08 10:37:04.297103	261.1	22.7	-90.6	9.7
2025-01-08 10:37:05.448009	260.9	22.6	-90.9	8.0
2025-01-08 10:37:06.597026	260.8	22.4	-91.0	8.1
2025-01-08 10:37:07.754111	260.6	22.3	-90.7	10.6
2025-01-08 10:37:08.904956	260.5	22.1	-90.7	7.3
2025-01-08 10:37:10.052332	260.3	22.0	-90.9	7.8
2025-01-08 10:37:11.206027	260.2	21.9	-90.3	10.5
2025-01-08 10:37:12.356047	260.0	21.7	-90.5	9.5
2025-01-08 10:37:13.508276	259.9	21.6	-90.8	7.9
2025-01-08 10:37:14.657082	259.7	21.5	-90.8	9.0
2025-01-08 10:37:15.808033	259.6	21.3	-90.7	8.8
2025-01-08 10:37:16.965202	259.4	21.2	-90.9	6.7
2025-01-08 10:37:18.114252	259.3	21.0	-90.3	7.1
2025-01-08 10:37:19.262910	259.1	20.9	-90.6	6.8
2025-01-08 10:37:20.417961	259.0	20.8	-90.9	5.6
2025-01-08 10:37:21.570467	258.8	20.6	-90.8	5.2
2025-01-08 10:37:22.721588	258.7	20.5	-90.7	5.9
2025-01-08 10:37:23.872018	258.6	20.4	-90.7	5.7
2025-01-08 10:37:25.023252	258.4	20.2	-90.8	3.0
2025-01-08 10:37:26.175098	258.3	20.1	-90.5	5.5
2025-01-08 10:37:27.325169	258.2	20.0	-90.7	3.1
2025-01-08 10:37:28.486105	258.0	19.8	-90.9	4.3
2025-01-08 10:37:29.644923	257.9	19.7	-90.4	3.6
2025-01-08 10:37:30.794258	257.8	19.6	-90.5	4.2
2025-01-08 10:37:31.965630	257.6	19.5	-90.9	4.3
2025-01-08 10:37:33.117187	257.5	19.3	-90.8	4.5
2025-01-08 10:37:34.268797	257.4	19.2	-90.3	4.2
2025-01-08 10:37:35.417343	257.2	19.1	-90.9	5.3
2025-01-08 10:37:36.573818	257.1	18.9	-90.7	3.9
2025-01-08 10:37:37.720553	257.0	18.8	-91.1	2.6
2025-01-08 10:37:38.875624	256.9	18.7	-90.7	2.0
2025-01-08 10:37:40.029408	256.7	18.6	-91.1	1.5
2025-01-08 10:37:41.184493	256.6	18.4	-90.4	4.2
2025-01-08 10:37:42.337052	256.5	18.3	-90.5	4.2
2025-01-08 10:37:43.494762	256.4	18.2	-90.5	2.9
2025-01-08 10:37:44.646018	256.3	18.1	-90.7	5.2
2025-01-08 10:37:45.797490	256.1	17.9	-90.7	5.6
2025-01-08 10:37:46.945383	256.0	17.8	-90.8	8.1
2025-01-08 10:37:48.114519	255.9	17.7	-90.6	6.0
2025-01-08 10:37:49.269318	255.8	17.6	-90.8	6.7
2025-01-08 10:37:50.419353	255.7	17.4	-90.8	8.4
2025-01-08 10:37:51.572241	255.6	17.3	-91.2	8.0
2025-01-08 10:37:52.723188	255.5	17.2	-91.0	5.3
2025-01-08 10:37:53.890073	255.3	17.1	-90.8	7.3
2025-01-08 10:37:55.044229	255.2	17.0	-90.8	4.4
2025-01-08 10:37:56.197892	255.1	16.8	-90.7	8.1
2025-01-08 10:37:57.351965	255.0	16.7	-90.7	4.1
2025-01-08 10:37:58.508009	254.9	16.6	-90.5	4.2
2025-01-08 10:37:59.662519	254.8	16.5	-90.6	6.6
2025-01-08 10:38:00.804859	254.7	16.4	-90.5	7.1
2025-01-08 10:38:01.952777	254.6	16.3	-90.7	5.8
2025-01-08 10:38:03.107532	254.5	16.1	-90.5	6.7
2025-01-08 10:38:04.256538	254.4	16.0	-90.1	10.3
2025-01-08 10:38:05.407503	254.3	15.9	-90.6	10.5
2025-01-08 10:38:06.555836	254.2	15.8	-90.5	8.6
2025-01-08 10:38:07.709621	254.1	15.7	-90.9	10.4
2025-01-08 10:38:08.864024	254.0	15.6	-90.4	9.9
2025-01-08 10:38:10.015381	253.9	15.5	-90.7	5.7
2025-01-08 10:38:11.167356	253.8	15.3	-90.1	6.5
2025-01-08 10:38:12.312093	253.7	15.2	-91.0	9.0
2025-01-08 10:38:13.460099	253.6	15.1	-91.1	8.4
2025-01-08 10:38:14.610672	253.5	15.0	-90.4	7.8
2025-01-08 10:38:15.765733	253.4	14.9	-90.2	10.6
2025-01-08 10:38:16.925767	253.3	14.8	-89.4	4.8
2025-01-08 10:38:18.084926	253.2	14.7	-89.8	8.5
2025-01-08 10:38:19.236010	253.1	14.6	-90.0	10.1
2025-01-08 10:38:20.382327	253.0	14.4	-89.8	8.9
#Closed at: 2025-01-08 10:29:55.410653