passes_logs/2025/01/08/LEX_Murmansk/LEX_Murmansk__20250108_135006_NOAA_19_rec.log

#Pass ID: 20250108_135006_NOAA 19
#Satellite: NOAA 19
#Configuration: NOAA 19
#Start time: 2025-01-08 13:50:01.837792

#LorettStation: 1.0.0 05.05.2024
#Station: LEX_Murmansk
#Location: 33.156738 lon 68.926811 lat
#TLE: 1 33591U 09005A   25007.78273938  .00000347  00000+0  20907-3 0  9990
#TLE: 2 33591  99.0209  71.4889 0014647  76.7831 283.4973 14.13254046820526

#Time	Az	El	Level	SNR
2025-01-08 13:50:14.006009	49.3	15.9	-90.5	2.8
2025-01-08 13:50:15.174541	49.1	16.0	-90.5	3.4
2025-01-08 13:50:16.338046	48.9	16.1	-90.2	1.8
2025-01-08 13:50:17.500823	48.7	16.2	-90.3	4.1
2025-01-08 13:50:18.662638	48.6	16.2	-90.4	1.7
2025-01-08 13:50:19.823588	48.4	16.3	-91.2	1.6
2025-01-08 13:50:20.990295	48.2	16.4	-91.1	3.1
2025-01-08 13:50:22.151674	48.0	16.5	-90.7	2.4
2025-01-08 13:50:23.317619	47.8	16.6	-90.9	1.8
2025-01-08 13:50:24.479927	47.6	16.7	-91.1	1.7
2025-01-08 13:50:25.638528	47.4	16.8	-90.7	3.1
2025-01-08 13:50:26.805680	47.2	16.8	-90.8	2.6
2025-01-08 13:50:27.963492	47.0	16.9	-90.7	3.0
2025-01-08 13:50:29.127247	46.8	17.0	-90.3	4.8
2025-01-08 13:50:30.297220	46.6	17.1	-90.6	2.7
2025-01-08 13:50:31.456862	46.4	17.2	-91.0	3.2
2025-01-08 13:50:32.631611	46.2	17.3	-90.9	3.9
2025-01-08 13:50:33.799703	46.0	17.4	-90.8	2.9
2025-01-08 13:50:34.964932	45.8	17.4	-90.6	3.5
2025-01-08 13:50:36.133679	45.6	17.5	-90.5	2.4
2025-01-08 13:50:37.298025	45.4	17.6	-90.3	7.0
2025-01-08 13:50:38.459350	45.2	17.7	-90.7	7.4
2025-01-08 13:50:39.622043	44.9	17.8	-90.6	3.4
2025-01-08 13:50:40.779601	44.7	17.9	-90.9	1.9
2025-01-08 13:50:41.943916	44.5	17.9	-90.7	0.6
2025-01-08 13:50:43.108669	44.3	18.0	-90.4	0.8
2025-01-08 13:50:44.274838	44.1	18.1	-90.5	2.5
2025-01-08 13:50:45.435912	43.9	18.2	-91.0	1.5
2025-01-08 13:50:46.604044	43.7	18.3	-90.8	3.5
2025-01-08 13:50:47.763052	43.4	18.4	-90.9	2.8
2025-01-08 13:50:48.919187	43.2	18.5	-90.6	2.8
2025-01-08 13:50:50.082323	43.0	18.5	-91.1	3.2
2025-01-08 13:50:51.242539	42.8	18.6	-91.0	2.7
2025-01-08 13:50:52.402838	42.6	18.7	-90.8	4.0
2025-01-08 13:50:53.563427	42.3	18.8	-90.7	3.1
2025-01-08 13:50:54.726699	42.1	18.9	-91.1	2.0
2025-01-08 13:50:55.887905	41.9	18.9	-91.1	4.9
2025-01-08 13:50:57.052717	41.7	19.0	-91.0	6.0
2025-01-08 13:50:58.213501	41.4	19.1	-90.6	2.5
2025-01-08 13:50:59.380071	41.2	19.2	-90.7	4.5
2025-01-08 13:51:00.528338	41.0	19.3	-91.0	8.6
2025-01-08 13:51:01.693136	40.7	19.4	-91.2	9.5
2025-01-08 13:51:02.851868	40.5	19.4	-90.6	5.8
2025-01-08 13:51:04.006369	40.3	19.5	-91.1	5.4
2025-01-08 13:51:05.171175	40.0	19.6	-90.6	3.4
2025-01-08 13:51:06.332605	39.8	19.7	-90.5	2.6
2025-01-08 13:51:07.493376	39.5	19.8	-90.9	2.6
2025-01-08 13:51:08.652821	39.3	19.8	-90.6	3.2
2025-01-08 13:51:09.820852	39.1	19.9	-91.0	4.0
2025-01-08 13:51:10.974439	38.8	20.0	-90.5	5.1
2025-01-08 13:51:12.137872	38.6	20.1	-90.2	5.7
2025-01-08 13:51:13.301260	38.3	20.2	-90.4	6.9
2025-01-08 13:51:14.480799	38.1	20.2	-90.7	8.5
2025-01-08 13:51:15.638995	37.8	20.3	-90.9	9.6
2025-01-08 13:51:16.800729	37.6	20.4	-90.9	7.8
2025-01-08 13:51:17.958873	37.3	20.5	-90.2	5.1
2025-01-08 13:51:19.118312	37.1	20.5	-90.3	5.3
2025-01-08 13:51:20.279249	36.8	20.6	-90.3	3.7
2025-01-08 13:51:21.441712	36.6	20.7	-90.8	5.9
2025-01-08 13:51:22.608078	36.3	20.8	-90.9	8.0
2025-01-08 13:51:23.769246	36.1	20.8	-90.4	6.4
2025-01-08 13:51:24.935098	35.8	20.9	-90.7	9.4
2025-01-08 13:51:26.103205	35.5	21.0	-90.5	9.5
2025-01-08 13:51:27.270420	35.3	21.1	-90.8	5.5
2025-01-08 13:51:28.425664	35.0	21.1	-90.8	4.6
2025-01-08 13:51:29.582552	34.8	21.2	-90.2	5.2
2025-01-08 13:51:30.747002	34.5	21.3	-88.4	5.0
2025-01-08 13:51:31.911337	34.2	21.4	-90.5	2.3
2025-01-08 13:51:33.071642	34.0	21.4	-90.4	3.5
2025-01-08 13:51:34.233187	33.7	21.5	-90.4	2.1
2025-01-08 13:51:35.398496	33.4	21.6	-90.5	2.2
2025-01-08 13:51:36.559359	33.1	21.7	-90.2	3.5
2025-01-08 13:51:37.720579	32.9	21.7	-90.5	5.8
2025-01-08 13:51:38.877781	32.6	21.8	-90.8	6.9
2025-01-08 13:51:40.038005	32.3	21.9	-91.0	8.8
2025-01-08 13:51:41.192880	32.1	21.9	-90.7	9.7
2025-01-08 13:51:42.358020	31.8	22.0	-90.8	10.3
2025-01-08 13:51:43.519360	31.5	22.1	-90.2	10.3
2025-01-08 13:51:44.678908	31.2	22.1	-90.6	8.4
2025-01-08 13:51:45.842971	30.9	22.2	-90.7	6.6
2025-01-08 13:51:47.011246	30.7	22.3	-90.4	6.4
2025-01-08 13:51:48.171563	30.4	22.3	-90.6	4.8
2025-01-08 13:51:49.329821	30.1	22.4	-90.5	5.4
2025-01-08 13:51:50.496969	29.8	22.5	-90.5	8.3
2025-01-08 13:51:51.661606	29.5	22.5	-90.7	8.4
2025-01-08 13:51:52.826922	29.2	22.6	-90.3	9.4
2025-01-08 13:51:53.992100	28.9	22.6	-90.8	11.0
2025-01-08 13:51:55.157838	28.6	22.7	-90.7	9.2
2025-01-08 13:51:56.319772	28.4	22.8	-90.3	12.6
2025-01-08 13:51:57.483239	28.1	22.8	-91.0	10.4
2025-01-08 13:51:58.647800	27.8	22.9	-90.8	11.3
2025-01-08 13:51:59.796899	27.5	22.9	-91.0	7.4
2025-01-08 13:52:00.944823	27.2	23.0	-91.0	7.0
2025-01-08 13:52:02.108036	26.9	23.1	-91.3	5.2
2025-01-08 13:52:03.272935	26.6	23.1	-91.2	3.3
2025-01-08 13:52:04.437404	26.3	23.2	-91.2	5.3
2025-01-08 13:52:05.605220	26.0	23.2	-91.0	6.2
2025-01-08 13:52:06.767684	25.7	23.3	-91.1	2.3
2025-01-08 13:52:07.934986	25.4	23.3	-91.2	3.6
2025-01-08 13:52:09.097849	25.1	23.4	-90.8	6.3
2025-01-08 13:52:10.265062	24.8	23.4	-91.0	7.2
2025-01-08 13:52:11.423669	24.5	23.5	-90.7	9.1
2025-01-08 13:52:12.587483	24.2	23.5	-90.9	10.4
2025-01-08 13:52:13.752442	23.9	23.6	-91.1	12.9
2025-01-08 13:52:14.912746	23.5	23.6	-91.1	11.8
2025-01-08 13:52:16.079466	23.2	23.7	-90.5	11.5
2025-01-08 13:52:17.238786	22.9	23.7	-90.7	11.4
2025-01-08 13:52:18.402641	22.6	23.8	-91.0	6.1
2025-01-08 13:52:19.567543	22.3	23.8	-90.8	8.4
2025-01-08 13:52:20.724994	22.0	23.9	-90.6	4.0
2025-01-08 13:52:21.887895	21.7	23.9	-90.4	4.9
2025-01-08 13:52:23.049258	21.4	24.0	-90.1	7.2
2025-01-08 13:52:24.217503	21.0	24.0	-90.3	6.1
2025-01-08 13:52:25.377222	20.7	24.0	-90.7	7.6
2025-01-08 13:52:26.539200	20.4	24.1	-91.1	8.1
2025-01-08 13:52:27.697847	20.1	24.1	-91.1	6.7
2025-01-08 13:52:28.849438	19.8	24.2	-90.9	7.7
2025-01-08 13:52:30.009629	19.5	24.2	-91.1	7.2
2025-01-08 13:52:31.176304	19.1	24.2	-91.2	8.6
2025-01-08 13:52:32.340233	18.8	24.3	-90.9	8.1
2025-01-08 13:52:33.503126	18.5	24.3	-90.7	8.7
2025-01-08 13:52:34.670783	18.2	24.3	-90.8	9.5
2025-01-08 13:52:35.830562	17.8	24.4	-90.8	9.1
2025-01-08 13:52:36.994279	17.5	24.4	-90.4	10.5
2025-01-08 13:52:38.158239	17.2	24.4	-90.5	10.1
2025-01-08 13:52:39.321980	16.9	24.5	-90.6	4.8
2025-01-08 13:52:40.488673	16.5	24.5	-91.1	4.4
2025-01-08 13:52:41.655411	16.2	24.5	-91.0	5.4
2025-01-08 13:52:42.820034	15.9	24.6	-90.6	3.3
2025-01-08 13:52:43.979719	15.6	24.6	-90.9	4.6
2025-01-08 13:52:45.144155	15.2	24.6	-90.7	6.2
2025-01-08 13:52:46.309441	14.9	24.6	-91.1	2.2
2025-01-08 13:52:47.473701	14.6	24.7	-90.8	5.3
2025-01-08 13:52:48.636580	14.2	24.7	-91.2	4.3
2025-01-08 13:52:49.803598	13.9	24.7	-91.0	3.6
2025-01-08 13:52:50.962836	13.6	24.7	-90.7	3.8
2025-01-08 13:52:52.121869	13.3	24.7	-90.7	5.1
2025-01-08 13:52:53.284759	12.9	24.8	-90.7	3.9
2025-01-08 13:52:54.451387	12.6	24.8	-90.8	6.0
2025-01-08 13:52:55.613192	12.3	24.8	-90.6	6.1
2025-01-08 13:52:56.776039	11.9	24.8	-90.6	6.1
2025-01-08 13:52:57.944014	11.6	24.8	-90.9	6.6
2025-01-08 13:52:59.094894	11.3	24.8	-90.6	6.1
2025-01-08 13:53:00.251484	10.9	24.8	-89.5	6.8
2025-01-08 13:53:01.405780	10.6	24.9	-90.9	6.8
2025-01-08 13:53:02.570606	10.3	24.9	-90.9	7.4
2025-01-08 13:53:03.733965	9.9	24.9	-90.7	6.1
2025-01-08 13:53:04.899874	9.6	24.9	-90.9	6.2
2025-01-08 13:53:06.062982	9.3	24.9	-90.7	7.0
2025-01-08 13:53:07.230608	8.9	24.9	-90.9	4.3
2025-01-08 13:53:08.392066	8.6	24.9	-91.0	5.3
2025-01-08 13:53:09.547861	8.3	24.9	-91.0	5.7
2025-01-08 13:53:10.710900	7.9	24.9	-90.8	4.3
2025-01-08 13:53:11.867682	7.6	24.9	-90.7	3.0
2025-01-08 13:53:13.032451	7.2	24.9	-90.5	6.2
2025-01-08 13:53:14.191967	6.9	24.9	-90.8	5.3
2025-01-08 13:53:15.356253	6.6	24.9	-91.1	4.8
2025-01-08 13:53:16.515531	6.2	24.9	-91.0	5.2
2025-01-08 13:53:17.680636	5.9	24.9	-89.5	4.9
2025-01-08 13:53:18.835512	5.6	24.9	-90.7	3.3
2025-01-08 13:53:20.001176	5.2	24.9	-90.5	6.3
2025-01-08 13:53:21.161798	4.9	24.9	-88.8	3.2
2025-01-08 13:53:22.325238	4.6	24.9	-89.0	3.4
2025-01-08 13:53:23.487873	4.2	24.9	-89.3	6.0
2025-01-08 13:53:24.654256	3.9	24.8	-90.4	5.2
2025-01-08 13:53:25.811405	3.6	24.8	-90.5	4.9
2025-01-08 13:53:26.969942	3.2	24.8	-90.7	5.1
2025-01-08 13:53:28.134162	2.9	24.8	-90.2	7.5
2025-01-08 13:53:29.295530	2.6	24.8	-90.8	6.2
2025-01-08 13:53:30.456820	2.2	24.8	-90.9	8.3
2025-01-08 13:53:31.618780	1.9	24.8	-90.7	6.9
2025-01-08 13:53:32.782979	1.6	24.7	-90.7	5.2
2025-01-08 13:53:33.936276	1.3	24.7	-91.1	5.0
2025-01-08 13:53:35.104251	0.9	24.7	-90.6	7.3
2025-01-08 13:53:36.267608	0.6	24.7	-90.3	8.3
2025-01-08 13:53:37.436092	0.3	24.7	-90.6	9.9
2025-01-08 13:53:38.600188	359.9	24.6	-91.1	9.1
2025-01-08 13:53:39.761397	359.6	24.6	-91.1	11.0
2025-01-08 13:53:40.921614	359.3	24.6	-91.0	10.3
2025-01-08 13:53:42.085463	358.9	24.6	-91.0	10.6
2025-01-08 13:53:43.250092	358.6	24.5	-91.1	9.6
2025-01-08 13:53:44.411618	358.3	24.5	-90.8	9.5
2025-01-08 13:53:45.579147	358.0	24.5	-91.0	12.1
2025-01-08 13:53:46.738982	357.6	24.5	-90.8	12.3
2025-01-08 13:53:47.903908	357.3	24.4	-90.7	13.2
2025-01-08 13:53:49.058932	357.0	24.4	-91.0	11.3
2025-01-08 13:53:50.220291	356.7	24.4	-90.8	13.4
2025-01-08 13:53:51.379435	356.3	24.3	-91.0	9.7
2025-01-08 13:53:52.546152	356.0	24.3	-90.8	12.2
2025-01-08 13:53:53.710467	355.7	24.3	-90.6	11.9
2025-01-08 13:53:54.873317	355.4	24.2	-90.9	8.4
2025-01-08 13:53:56.044917	355.1	24.2	-91.0	10.5
2025-01-08 13:53:57.204061	354.7	24.1	-90.7	9.4
2025-01-08 13:53:58.367943	354.4	24.1	-90.5	9.1
2025-01-08 13:53:59.525390	354.1	24.1	-90.9	12.8
2025-01-08 13:54:00.676822	353.8	24.0	-90.6	11.5
2025-01-08 13:54:01.835584	353.5	24.0	-91.2	11.0
2025-01-08 13:54:03.011806	353.2	23.9	-91.0	13.5
2025-01-08 13:54:04.172560	352.8	23.9	-90.5	11.6
2025-01-08 13:54:05.330721	352.5	23.8	-90.7	11.9
2025-01-08 13:54:06.490149	352.2	23.8	-91.0	11.2
2025-01-08 13:54:07.657359	351.9	23.8	-91.1	6.6
2025-01-08 13:54:08.821825	351.6	23.7	-91.0	10.2
2025-01-08 13:54:09.981010	351.3	23.7	-91.0	7.7
2025-01-08 13:54:11.144449	351.0	23.6	-90.9	7.8
2025-01-08 13:54:12.307781	350.7	23.6	-90.6	6.3
2025-01-08 13:54:13.472299	350.4	23.5	-90.8	10.2
2025-01-08 13:54:14.632757	350.1	23.5	-90.8	11.0
2025-01-08 13:54:15.794548	349.8	23.4	-90.5	9.1
2025-01-08 13:54:16.953385	349.5	23.4	-90.7	10.9
2025-01-08 13:54:18.116377	349.2	23.3	-88.7	10.9
2025-01-08 13:54:19.271180	348.9	23.2	-87.6	7.1
2025-01-08 13:54:20.434850	348.6	23.2	-91.1	8.1
2025-01-08 13:54:21.594601	348.3	23.1	-91.1	9.4
2025-01-08 13:54:22.768433	348.0	23.1	-90.9	8.4
2025-01-08 13:54:23.931391	347.7	23.0	-90.6	7.4
2025-01-08 13:54:25.102349	347.4	23.0	-91.2	7.0
2025-01-08 13:54:26.269022	347.1	22.9	-90.3	5.5
2025-01-08 13:54:27.437840	346.8	22.8	-90.9	5.7
2025-01-08 13:54:28.600171	346.5	22.8	-90.9	4.1
2025-01-08 13:54:29.759032	346.2	22.7	-91.2	5.5
2025-01-08 13:54:30.923894	345.9	22.7	-91.3	7.0
2025-01-08 13:54:32.086452	345.6	22.6	-89.1	6.2
2025-01-08 13:54:33.246708	345.3	22.5	-89.7	6.9
2025-01-08 13:54:34.409134	345.0	22.5	-89.8	7.5
2025-01-08 13:54:35.573014	344.7	22.4	-88.7	6.7
2025-01-08 13:54:36.737834	344.5	22.3	-90.1	6.9
2025-01-08 13:54:37.901486	344.2	22.3	-90.5	6.7
2025-01-08 13:54:39.061541	343.9	22.2	-90.6	6.0
2025-01-08 13:54:40.224475	343.6	22.1	-88.9	6.6
2025-01-08 13:54:41.382824	343.3	22.1	-88.7	6.3
2025-01-08 13:54:42.550321	343.1	22.0	-87.0	6.4
2025-01-08 13:54:43.713409	342.8	21.9	-89.5	4.1
2025-01-08 13:54:44.880288	342.5	21.9	-90.5	5.7
2025-01-08 13:54:46.038956	342.2	21.8	-90.0	5.3
2025-01-08 13:54:47.201107	342.0	21.7	-91.0	4.3
2025-01-08 13:54:48.364453	341.7	21.7	-90.6	3.9
2025-01-08 13:54:49.522800	341.4	21.6	-89.7	4.1
2025-01-08 13:54:50.688120	341.1	21.5	-90.3	3.1
2025-01-08 13:54:51.859330	340.9	21.5	-85.7	2.3
2025-01-08 13:54:53.023027	340.6	21.4	-89.4	5.0
2025-01-08 13:54:54.195469	340.3	21.3	-86.5	4.7
2025-01-08 13:54:55.356698	340.1	21.2	-90.5	1.9
2025-01-08 13:54:56.523344	339.8	21.2	-89.7	2.4
2025-01-08 13:54:57.690884	339.5	21.1	-90.3	2.8
2025-01-08 13:54:58.853379	339.3	21.0	-90.5	5.2
2025-01-08 13:55:00.015868	339.0	20.9	-89.1	4.2
2025-01-08 13:55:01.161187	338.8	20.9	-91.1	1.7
2025-01-08 13:55:02.328660	338.5	20.8	-90.0	5.2
2025-01-08 13:55:03.488389	338.3	20.7	-90.9	3.5
2025-01-08 13:55:04.650247	338.0	20.6	-90.9	4.6
2025-01-08 13:55:05.816218	337.7	20.6	-90.9	2.5
2025-01-08 13:55:06.971984	337.5	20.5	-91.5	3.8
2025-01-08 13:55:08.138266	337.2	20.4	-91.3	3.9
2025-01-08 13:55:09.296184	337.0	20.3	-90.8	2.8
2025-01-08 13:55:10.460167	336.7	20.3	-91.0	3.7
2025-01-08 13:55:11.610790	336.5	20.2	-91.3	3.2
2025-01-08 13:55:12.776101	336.3	20.1	-91.2	2.4
2025-01-08 13:55:13.926334	336.0	20.0	-90.6	2.7
2025-01-08 13:55:15.089606	335.8	19.9	-90.9	1.1
2025-01-08 13:55:16.248617	335.5	19.9	-90.2	2.4
2025-01-08 13:55:17.414187	335.3	19.8	-91.0	0.3
2025-01-08 13:55:18.577159	335.0	19.7	-90.9	1.8
2025-01-08 13:55:19.727624	334.8	19.6	-91.2	1.8
2025-01-08 13:55:20.891178	334.6	19.5	-90.8	2.5
2025-01-08 13:55:22.053642	334.3	19.5	-91.3	2.9
2025-01-08 13:55:23.331343	334.1	19.4	-90.8	1.9
2025-01-08 13:55:24.492195	333.8	19.3	-91.2	3.1
2025-01-08 13:55:25.658601	333.6	19.2	-91.4	1.8
2025-01-08 13:55:26.822705	333.4	19.1	-91.3	2.0
2025-01-08 13:55:27.988993	333.2	19.0	-91.3	2.7
2025-01-08 13:55:29.150392	332.9	19.0	-91.0	1.8
2025-01-08 13:55:30.303680	332.7	18.9	-90.5	1.1
2025-01-08 13:55:31.466834	332.5	18.8	-90.6	1.8
2025-01-08 13:55:32.627721	332.3	18.7	-91.2	1.2
2025-01-08 13:55:33.783907	332.0	18.6	-90.8	1.9
2025-01-08 13:55:34.947178	331.8	18.6	-91.4	3.3
2025-01-08 13:55:36.112685	331.6	18.5	-90.7	2.2
2025-01-08 13:55:37.272839	331.4	18.4	-90.4	1.3
2025-01-08 13:55:38.439659	331.1	18.3	-91.7	2.2
2025-01-08 13:55:39.597733	330.9	18.2	-91.9	2.4
2025-01-08 13:55:40.759029	330.7	18.1	-91.8	2.4
2025-01-08 13:55:41.923880	330.5	18.1	-91.2	2.6
2025-01-08 13:55:43.089451	330.3	18.0	-91.4	2.1
2025-01-08 13:55:44.253206	330.1	17.9	-91.0	2.2
2025-01-08 13:55:45.424901	329.9	17.8	-90.7	1.2
2025-01-08 13:55:46.585315	329.7	17.7	-91.5	1.5
2025-01-08 13:55:47.749664	329.4	17.6	-91.0	1.2
2025-01-08 13:55:48.913459	329.2	17.5	-91.4	3.9
2025-01-08 13:55:50.073792	329.0	17.5	-91.3	2.5
2025-01-08 13:55:51.238559	328.8	17.4	-91.1	5.8
2025-01-08 13:55:52.396045	328.6	17.3	-91.5	4.9
2025-01-08 13:55:53.561379	328.4	17.2	-91.3	5.0
2025-01-08 13:55:54.727355	328.2	17.1	-91.1	2.6
2025-01-08 13:55:55.892040	328.0	17.0	-91.3	2.1
2025-01-08 13:55:57.056930	327.8	17.0	-90.5	1.5
2025-01-08 13:55:58.217929	327.6	16.9	-91.7	2.5
2025-01-08 13:55:59.384523	327.4	16.8	-91.3	3.7
2025-01-08 13:56:00.530791	327.2	16.7	-91.5	1.9
2025-01-08 13:56:01.691651	327.0	16.6	-91.4	1.3
2025-01-08 13:56:02.856830	326.8	16.5	-91.4	2.1
2025-01-08 13:56:04.030838	326.6	16.4	-91.3	1.8
2025-01-08 13:56:05.195701	326.5	16.4	-91.2	1.2
2025-01-08 13:56:06.358452	326.3	16.3	-91.3	2.2
2025-01-08 13:56:07.514532	326.1	16.2	-91.2	2.1
2025-01-08 13:56:08.678515	325.9	16.1	-91.1	2.9
2025-01-08 13:56:09.835888	325.7	16.0	-91.0	4.4
2025-01-08 13:56:11.000611	325.5	15.9	-91.5	3.7
2025-01-08 13:56:12.163931	325.3	15.8	-91.2	3.6
2025-01-08 13:56:13.323914	325.1	15.8	-91.0	2.5
2025-01-08 13:56:14.491670	325.0	15.7	-91.3	5.0
2025-01-08 13:56:15.650011	324.8	15.6	-91.5	5.4
2025-01-08 13:56:16.813815	324.6	15.5	-91.5	3.0
2025-01-08 13:56:17.976748	324.4	15.4	-91.3	2.9
2025-01-08 13:56:19.138452	324.2	15.3	-91.1	3.1
2025-01-08 13:56:20.408070	324.0	15.2	-91.2	1.4
2025-01-08 13:56:21.572141	323.9	15.1	-90.9	2.0
2025-01-08 13:56:22.733583	323.7	15.1	-90.1	1.0
2025-01-08 13:56:23.900032	323.5	15.0	-91.0	1.2
2025-01-08 13:56:25.069246	323.3	14.9	-91.2	2.1
2025-01-08 13:56:26.233718	323.2	14.8	-90.9	2.5
2025-01-08 13:56:27.400868	323.0	14.7	-90.4	3.1
2025-01-08 13:56:28.566413	322.8	14.6	-90.5	3.2
#Closed at: 2025-01-08 13:50:06.790506