passes_logs/2025/01/08/LEX_Murmansk/LEX_Murmansk__20250108_205811_NOAA_18_rec.log

#Pass ID: 20250108_205811_NOAA 18
#Satellite: NOAA 18
#Configuration: NOAA 18
#Start time: 2025-01-08 20:58:06.968011

#LorettStation: 1.0.0 05.05.2024
#Station: LEX_Murmansk
#Location: 33.156738 lon 68.926811 lat
#TLE: 1 28654U 05018A   25007.80096224  .00000414  00000+0  24332-3 0  9999
#TLE: 2 28654  98.8579  88.9263 0014020 199.4461 160.6178 14.13480585 12168

#Time	Az	El	Level	SNR
2025-01-08 20:58:19.150754	222.7	16.0	-91.7	12.2
2025-01-08 20:58:20.279429	222.8	16.1	-91.9	10.9
2025-01-08 20:58:21.422687	223.0	16.1	-91.9	9.9
2025-01-08 20:58:22.572116	223.2	16.2	-91.9	8.1
2025-01-08 20:58:23.721916	223.3	16.3	-92.2	10.1
2025-01-08 20:58:24.866234	223.5	16.4	-92.0	12.8
2025-01-08 20:58:25.990879	223.7	16.5	-92.3	11.3
2025-01-08 20:58:27.141747	223.9	16.6	-92.0	12.7
2025-01-08 20:58:28.283562	224.0	16.7	-91.6	12.0
2025-01-08 20:58:29.434410	224.2	16.8	-92.1	9.4
2025-01-08 20:58:30.589154	224.4	16.9	-92.3	7.7
2025-01-08 20:58:31.737167	224.6	17.0	-91.9	12.4
2025-01-08 20:58:32.891035	224.7	17.1	-92.1	11.7
2025-01-08 20:58:34.036081	224.9	17.2	-92.3	8.6
2025-01-08 20:58:35.188789	225.1	17.2	-89.4	9.1
2025-01-08 20:58:36.317390	225.3	17.3	-88.3	9.8
2025-01-08 20:58:37.454690	225.5	17.4	-91.7	12.0
2025-01-08 20:58:38.589691	225.6	17.5	-92.0	13.5
2025-01-08 20:58:39.737435	225.8	17.6	-92.2	10.7
2025-01-08 20:58:40.878505	226.0	17.7	-92.3	13.4
2025-01-08 20:58:42.023711	226.2	17.8	-92.0	9.9
2025-01-08 20:58:43.161822	226.4	17.9	-91.5	9.5
2025-01-08 20:58:44.287673	226.6	18.0	-91.5	13.5
2025-01-08 20:58:45.424037	226.8	18.1	-92.4	11.5
2025-01-08 20:58:46.571828	227.0	18.2	-91.8	12.1
2025-01-08 20:58:47.719010	227.2	18.3	-91.8	11.9
2025-01-08 20:58:48.866443	227.3	18.4	-92.2	12.3
2025-01-08 20:58:50.020208	227.5	18.4	-91.8	7.7
2025-01-08 20:58:51.186863	227.7	18.5	-91.8	9.7
2025-01-08 20:58:52.338327	227.9	18.6	-92.0	12.3
2025-01-08 20:58:53.492519	228.1	18.7	-91.8	6.7
2025-01-08 20:58:54.647295	228.3	18.8	-91.8	8.4
2025-01-08 20:58:55.804605	228.5	18.9	-92.2	12.4
2025-01-08 20:58:56.959230	228.8	19.0	-92.0	10.2
2025-01-08 20:58:58.122800	229.0	19.1	-91.6	10.1
2025-01-08 20:58:59.282238	229.2	19.2	-91.6	10.4
2025-01-08 20:59:00.431650	229.4	19.3	-92.1	9.9
2025-01-08 20:59:01.587156	229.6	19.4	-92.3	11.9
2025-01-08 20:59:02.736887	229.8	19.5	-92.3	13.2
2025-01-08 20:59:03.887953	230.0	19.6	-92.3	13.3
2025-01-08 20:59:05.022895	230.2	19.7	-92.3	7.1
2025-01-08 20:59:06.149144	230.4	19.8	-91.9	11.0
2025-01-08 20:59:07.306139	230.6	19.8	-92.1	13.4
2025-01-08 20:59:08.444736	230.8	19.9	-91.6	13.2
2025-01-08 20:59:09.596904	231.1	20.0	-92.0	13.5
2025-01-08 20:59:10.750749	231.3	20.1	-92.1	11.5
2025-01-08 20:59:11.903656	231.5	20.2	-92.6	12.5
2025-01-08 20:59:13.030374	231.7	20.3	-92.0	7.0
2025-01-08 20:59:14.172006	231.9	20.4	-91.5	8.0
2025-01-08 20:59:15.312254	232.2	20.5	-92.0	12.5
2025-01-08 20:59:16.465297	232.4	20.6	-92.4	7.2
2025-01-08 20:59:17.614731	232.6	20.7	-91.9	8.4
2025-01-08 20:59:18.758849	232.8	20.8	-92.1	12.5
2025-01-08 20:59:19.914935	233.1	20.9	-91.7	11.8
2025-01-08 20:59:21.044797	233.3	21.0	-92.2	13.1
2025-01-08 20:59:22.182041	233.5	21.0	-91.2	12.7
2025-01-08 20:59:23.330793	233.8	21.1	-91.1	12.7
2025-01-08 20:59:24.478873	234.0	21.2	-92.2	10.2
2025-01-08 20:59:25.625648	234.2	21.3	-92.5	10.0
2025-01-08 20:59:26.781692	234.5	21.4	-92.1	14.5
2025-01-08 20:59:27.932302	234.7	21.5	-91.5	13.4
2025-01-08 20:59:29.060729	234.9	21.6	-92.2	13.4
2025-01-08 20:59:30.207325	235.2	21.7	-91.9	13.8
2025-01-08 20:59:31.349786	235.4	21.8	-91.6	14.0
2025-01-08 20:59:32.498115	235.7	21.9	-92.3	16.8
2025-01-08 20:59:33.651482	235.9	22.0	-92.3	14.3
2025-01-08 20:59:34.802186	236.1	22.0	-92.0	13.2
2025-01-08 20:59:35.953629	236.4	22.1	-92.0	7.1
2025-01-08 20:59:37.109788	236.6	22.2	-91.9	7.4
2025-01-08 20:59:38.239978	236.9	22.3	-91.6	12.3
2025-01-08 20:59:39.381119	237.1	22.4	-91.8	14.6
2025-01-08 20:59:40.507291	237.4	22.5	-92.1	7.7
2025-01-08 20:59:41.647191	237.6	22.6	-92.0	8.7
2025-01-08 20:59:42.788265	237.9	22.7	-92.3	8.9
2025-01-08 20:59:43.935653	238.1	22.7	-92.3	12.8
2025-01-08 20:59:45.087201	238.4	22.8	-92.1	9.4
2025-01-08 20:59:46.235767	238.7	22.9	-91.9	9.4
2025-01-08 20:59:47.384363	238.9	23.0	-92.1	6.1
2025-01-08 20:59:48.527877	239.2	23.1	-92.3	5.4
2025-01-08 20:59:49.656815	239.4	23.2	-92.3	6.0
2025-01-08 20:59:50.807339	239.7	23.3	-92.0	7.2
2025-01-08 20:59:51.946870	240.0	23.4	-92.0	3.8
2025-01-08 20:59:53.097433	240.2	23.4	-91.8	5.7
2025-01-08 20:59:54.243906	240.5	23.5	-91.6	4.2
2025-01-08 20:59:55.393999	240.8	23.6	-92.2	4.2
2025-01-08 20:59:56.534040	241.0	23.7	-92.3	5.1
2025-01-08 20:59:57.665578	241.3	23.8	-92.4	6.0
2025-01-08 20:59:58.816865	241.6	23.9	-91.9	5.7
2025-01-08 20:59:59.977888	241.9	23.9	-92.3	5.7
2025-01-08 21:00:01.105482	242.1	24.0	-91.8	6.2
2025-01-08 21:00:02.234274	242.4	24.1	-91.7	6.6
2025-01-08 21:00:03.373908	242.7	24.2	-91.3	8.6
2025-01-08 21:00:04.519150	243.0	24.3	-91.8	6.5
2025-01-08 21:00:05.662627	243.3	24.3	-92.0	7.5
2025-01-08 21:00:06.809660	243.5	24.4	-92.4	15.2
2025-01-08 21:00:07.961184	243.8	24.5	-91.7	9.7
2025-01-08 21:00:09.117886	244.1	24.6	-91.7	10.0
2025-01-08 21:00:10.269190	244.4	24.7	-91.5	12.7
2025-01-08 21:00:11.417506	244.7	24.7	-92.2	13.9
2025-01-08 21:00:12.548905	245.0	24.8	-92.2	13.7
2025-01-08 21:00:13.700182	245.3	24.9	-92.4	14.7
2025-01-08 21:00:14.839302	245.6	25.0	-92.2	14.9
2025-01-08 21:00:15.979290	245.9	25.0	-92.3	14.3
2025-01-08 21:00:17.135479	246.2	25.1	-92.2	9.4
2025-01-08 21:00:18.292661	246.5	25.2	-92.1	11.7
2025-01-08 21:00:19.450034	246.8	25.3	-92.2	6.3
2025-01-08 21:00:20.612777	247.1	25.3	-92.2	12.0
2025-01-08 21:00:21.771463	247.4	25.4	-92.4	15.7
2025-01-08 21:00:22.932753	247.7	25.5	-92.3	14.3
2025-01-08 21:00:24.092072	248.0	25.6	-92.0	14.2
2025-01-08 21:00:25.245871	248.3	25.6	-91.9	15.0
2025-01-08 21:00:26.405130	248.6	25.7	-92.4	17.6
2025-01-08 21:00:27.556848	248.9	25.8	-92.3	14.2
2025-01-08 21:00:28.711174	249.2	25.8	-92.6	15.2
2025-01-08 21:00:29.873034	249.5	25.9	-92.5	15.1
2025-01-08 21:00:31.033958	249.9	26.0	-92.4	11.2
2025-01-08 21:00:32.187172	250.2	26.1	-92.0	13.8
2025-01-08 21:00:33.347740	250.5	26.1	-92.3	16.4
2025-01-08 21:00:34.502491	250.8	26.2	-92.3	9.1
2025-01-08 21:00:35.656103	251.1	26.3	-92.2	10.6
2025-01-08 21:00:36.814465	251.5	26.3	-92.4	17.8
2025-01-08 21:00:37.965535	251.8	26.4	-92.0	10.3
2025-01-08 21:00:39.112770	252.1	26.4	-92.2	12.0
2025-01-08 21:00:40.257362	252.4	26.5	-91.9	18.7
2025-01-08 21:00:41.389738	252.7	26.6	-92.6	18.4
2025-01-08 21:00:42.538425	253.1	26.6	-92.1	17.1
2025-01-08 21:00:43.677922	253.4	26.7	-92.6	18.7
2025-01-08 21:00:44.826303	253.7	26.7	-92.2	16.8
2025-01-08 21:00:45.953486	254.0	26.8	-92.8	16.7
2025-01-08 21:00:47.094494	254.4	26.8	-92.2	14.7
2025-01-08 21:00:48.238507	254.7	26.9	-92.2	15.2
2025-01-08 21:00:49.374597	255.0	27.0	-91.9	17.2
2025-01-08 21:00:50.503751	255.4	27.0	-92.3	12.0
2025-01-08 21:00:51.653182	255.7	27.1	-92.2	10.8
2025-01-08 21:00:52.799848	256.0	27.1	-92.5	15.3
2025-01-08 21:00:53.951889	256.4	27.2	-92.6	11.9
2025-01-08 21:00:55.101128	256.7	27.2	-91.8	8.6
2025-01-08 21:00:56.262893	257.0	27.3	-92.0	11.1
2025-01-08 21:00:57.411025	257.4	27.3	-92.4	14.2
2025-01-08 21:00:58.558831	257.7	27.4	-92.7	12.3
2025-01-08 21:00:59.691230	258.1	27.4	-92.0	12.9
2025-01-08 21:01:00.829164	258.4	27.4	-92.6	13.1
2025-01-08 21:01:01.970719	258.7	27.5	-92.5	12.0
2025-01-08 21:01:03.116919	259.1	27.5	-92.4	12.3
2025-01-08 21:01:04.269682	259.4	27.6	-92.4	11.5
2025-01-08 21:01:05.419168	259.8	27.6	-92.4	8.9
2025-01-08 21:01:06.568545	260.1	27.7	-92.5	6.0
2025-01-08 21:01:07.721669	260.5	27.7	-92.6	9.1
2025-01-08 21:01:08.867651	260.8	27.7	-92.5	10.2
2025-01-08 21:01:10.017321	261.2	27.8	-92.6	4.5
2025-01-08 21:01:11.148632	261.5	27.8	-92.4	3.8
2025-01-08 21:01:12.284399	261.9	27.8	-92.1	6.7
2025-01-08 21:01:13.430695	262.2	27.9	-92.3	6.4
2025-01-08 21:01:14.576677	262.6	27.9	-92.2	4.9
2025-01-08 21:01:15.724900	262.9	27.9	-92.7	4.0
2025-01-08 21:01:16.878264	263.3	28.0	-92.4	6.2
2025-01-08 21:01:18.024602	263.6	28.0	-92.6	6.2
2025-01-08 21:01:19.183543	264.0	28.0	-91.9	5.6
2025-01-08 21:01:20.343976	264.4	28.0	-92.2	8.5
2025-01-08 21:01:21.502920	264.7	28.1	-92.4	6.1
2025-01-08 21:01:22.655641	265.1	28.1	-92.1	9.9
2025-01-08 21:01:23.804798	265.4	28.1	-92.5	9.4
2025-01-08 21:01:24.963126	265.8	28.1	-92.3	7.3
2025-01-08 21:01:26.122099	266.1	28.2	-92.1	6.9
2025-01-08 21:01:27.279908	266.5	28.2	-92.5	8.9
2025-01-08 21:01:28.431665	266.9	28.2	-92.2	11.0
2025-01-08 21:01:29.576740	267.2	28.2	-92.4	11.7
2025-01-08 21:01:30.697684	267.6	28.2	-92.7	13.2
2025-01-08 21:01:31.842927	267.9	28.2	-92.3	13.3
2025-01-08 21:01:32.984463	268.3	28.3	-92.3	9.2
2025-01-08 21:01:34.129439	268.7	28.3	-92.1	11.7
2025-01-08 21:01:35.276264	269.0	28.3	-92.0	13.0
2025-01-08 21:01:36.428849	269.4	28.3	-92.7	10.0
2025-01-08 21:01:37.559974	269.7	28.3	-92.2	9.9
2025-01-08 21:01:38.703830	270.1	28.3	-92.6	12.7
2025-01-08 21:01:39.840083	270.5	28.3	-92.4	14.0
2025-01-08 21:01:40.984779	270.8	28.3	-92.4	9.9
2025-01-08 21:01:42.137148	271.2	28.3	-91.8	10.4
2025-01-08 21:01:43.291717	271.5	28.3	-92.3	15.6
2025-01-08 21:01:44.434541	271.9	28.3	-92.0	9.8
2025-01-08 21:01:45.582690	272.3	28.3	-92.7	10.0
2025-01-08 21:01:46.738466	272.6	28.3	-92.7	15.5
2025-01-08 21:01:47.884488	273.0	28.3	-92.3	14.0
2025-01-08 21:01:49.007942	273.3	28.3	-92.5	10.4
2025-01-08 21:01:50.158004	273.7	28.3	-92.1	11.3
2025-01-08 21:01:51.299394	274.1	28.3	-92.2	14.0
2025-01-08 21:01:52.445124	274.4	28.3	-92.2	7.7
2025-01-08 21:01:53.596083	274.8	28.3	-92.3	11.2
2025-01-08 21:01:54.751532	275.1	28.3	-92.4	13.0
2025-01-08 21:01:55.903497	275.5	28.3	-92.3	13.2
2025-01-08 21:01:57.046446	275.9	28.3	-92.2	10.4
2025-01-08 21:01:58.174882	276.2	28.2	-92.4	8.1
2025-01-08 21:01:59.341609	276.6	28.2	-92.5	7.8
2025-01-08 21:02:00.480750	276.9	28.2	-92.5	10.2
2025-01-08 21:02:01.626532	277.3	28.2	-92.5	12.1
2025-01-08 21:02:02.779503	277.7	28.2	-92.4	8.9
2025-01-08 21:02:03.931216	278.0	28.2	-92.5	10.8
2025-01-08 21:02:05.084033	278.4	28.1	-92.0	11.5
2025-01-08 21:02:06.236614	278.7	28.1	-92.1	12.4
2025-01-08 21:02:07.381282	279.1	28.1	-92.4	9.1
2025-01-08 21:02:08.525750	279.5	28.1	-92.6	9.4
2025-01-08 21:02:09.670344	279.8	28.0	-92.2	10.9
2025-01-08 21:02:10.802542	280.2	28.0	-92.4	13.0
2025-01-08 21:02:11.955990	280.5	28.0	-92.3	12.6
2025-01-08 21:02:13.095849	280.9	28.0	-92.2	9.9
2025-01-08 21:02:14.249639	281.2	27.9	-92.1	12.6
2025-01-08 21:02:15.390888	281.6	27.9	-92.0	11.3
2025-01-08 21:02:16.538762	281.9	27.9	-92.7	11.5
2025-01-08 21:02:17.686380	282.3	27.8	-92.6	12.6
2025-01-08 21:02:18.811765	282.6	27.8	-92.4	16.0
2025-01-08 21:02:19.947680	283.0	27.8	-92.5	11.3
2025-01-08 21:02:21.081586	283.3	27.7	-91.9	9.4
2025-01-08 21:02:22.229821	283.7	27.7	-92.2	11.8
2025-01-08 21:02:23.370211	284.0	27.7	-92.4	11.2
2025-01-08 21:02:24.522457	284.4	27.6	-92.0	9.0
2025-01-08 21:02:25.679550	284.7	27.6	-92.4	8.2
2025-01-08 21:02:26.833827	285.0	27.5	-92.3	11.2
2025-01-08 21:02:27.981262	285.4	27.5	-92.3	9.6
2025-01-08 21:02:29.141613	285.7	27.5	-92.2	7.2
2025-01-08 21:02:30.283227	286.1	27.4	-92.2	10.7
2025-01-08 21:02:31.419242	286.4	27.4	-92.5	4.6
2025-01-08 21:02:32.573925	286.8	27.3	-92.5	7.7
2025-01-08 21:02:33.721322	287.1	27.3	-92.3	9.5
2025-01-08 21:02:34.873195	287.4	27.2	-92.2	3.1
2025-01-08 21:02:36.017484	287.8	27.2	-92.4	6.4
2025-01-08 21:02:37.171269	288.1	27.1	-91.9	4.9
2025-01-08 21:02:38.323530	288.5	27.1	-91.8	8.9
2025-01-08 21:02:39.477395	288.8	27.0	-92.2	8.3
2025-01-08 21:02:40.636337	289.1	27.0	-92.7	8.3
2025-01-08 21:02:41.798422	289.5	26.9	-92.3	13.0
2025-01-08 21:02:42.952251	289.8	26.9	-92.5	9.5
2025-01-08 21:02:44.104524	290.1	26.8	-92.1	11.2
2025-01-08 21:02:45.266725	290.5	26.7	-92.0	14.8
2025-01-08 21:02:46.413274	290.8	26.7	-92.5	11.8
2025-01-08 21:02:47.569760	291.1	26.6	-92.3	10.3
2025-01-08 21:02:48.720078	291.4	26.6	-92.4	14.4
2025-01-08 21:02:49.863737	291.8	26.5	-92.2	10.5
2025-01-08 21:02:50.988425	292.1	26.4	-92.6	12.0
2025-01-08 21:02:52.150587	292.4	26.4	-91.9	9.3
2025-01-08 21:02:53.288303	292.7	26.3	-92.3	11.1
2025-01-08 21:02:54.426386	293.0	26.3	-92.3	13.3
2025-01-08 21:02:55.577303	293.4	26.2	-92.2	9.3
2025-01-08 21:02:56.723961	293.7	26.1	-92.6	10.6
2025-01-08 21:02:57.873606	294.0	26.1	-92.6	13.3
2025-01-08 21:02:59.019952	294.3	26.0	-92.3	9.9
2025-01-08 21:03:00.173582	294.6	25.9	-92.4	10.4
2025-01-08 21:03:01.323933	294.9	25.9	-92.1	9.3
2025-01-08 21:03:02.484293	295.2	25.8	-92.2	9.3
2025-01-08 21:03:03.633755	295.6	25.7	-92.0	8.7
2025-01-08 21:03:04.784554	295.9	25.6	-92.6	5.0
2025-01-08 21:03:05.910143	296.2	25.6	-92.3	5.9
2025-01-08 21:03:07.062519	296.5	25.5	-92.4	9.2
2025-01-08 21:03:08.200291	296.8	25.4	-92.1	6.2
2025-01-08 21:03:09.354858	297.1	25.4	-91.9	8.4
2025-01-08 21:03:10.497347	297.4	25.3	-91.7	11.1
2025-01-08 21:03:11.646729	297.7	25.2	-92.7	9.2
2025-01-08 21:03:12.796934	298.0	25.1	-92.8	13.2
2025-01-08 21:03:13.937130	298.3	25.1	-92.4	13.4
2025-01-08 21:03:15.073190	298.6	25.0	-92.2	9.7
2025-01-08 21:03:16.217064	298.9	24.9	-92.1	12.8
2025-01-08 21:03:17.364638	299.2	24.8	-92.0	13.7
2025-01-08 21:03:18.510950	299.4	24.8	-92.3	18.7
2025-01-08 21:03:19.654751	299.7	24.7	-92.2	16.2
2025-01-08 21:03:20.811561	300.0	24.6	-92.5	16.4
2025-01-08 21:03:21.959087	300.3	24.5	-92.6	11.2
2025-01-08 21:03:23.118979	300.6	24.4	-92.1	8.9
2025-01-08 21:03:24.262355	300.9	24.4	-92.5	10.5
2025-01-08 21:03:25.406383	301.2	24.3	-92.6	9.7
2025-01-08 21:03:26.529176	301.4	24.2	-92.7	6.6
2025-01-08 21:03:27.675557	301.7	24.1	-92.6	7.5
2025-01-08 21:03:28.826143	302.0	24.0	-92.8	8.5
2025-01-08 21:03:29.971928	302.3	24.0	-92.4	8.3
2025-01-08 21:03:31.122803	302.6	23.9	-92.5	7.2
2025-01-08 21:03:32.273522	302.8	23.8	-92.3	9.2
2025-01-08 21:03:33.426335	303.1	23.7	-92.7	9.3
2025-01-08 21:03:34.586500	303.4	23.6	-92.6	8.1
2025-01-08 21:03:35.734002	303.6	23.5	-92.8	10.4
2025-01-08 21:03:36.889881	303.9	23.5	-92.7	13.7
2025-01-08 21:03:38.040541	304.2	23.4	-92.8	8.3
2025-01-08 21:03:39.192099	304.5	23.3	-92.3	8.0
2025-01-08 21:03:40.347916	304.7	23.2	-92.5	9.9
2025-01-08 21:03:41.498818	305.0	23.1	-92.9	5.5
2025-01-08 21:03:42.650495	305.2	23.0	-92.0	4.8
2025-01-08 21:03:43.805678	305.5	22.9	-92.0	6.2
2025-01-08 21:03:44.952907	305.8	22.9	-93.0	5.5
2025-01-08 21:03:46.097246	306.0	22.8	-92.3	3.7
2025-01-08 21:03:47.241208	306.3	22.7	-92.4	7.4
2025-01-08 21:03:48.373828	306.5	22.6	-92.0	7.7
2025-01-08 21:03:49.523274	306.8	22.5	-92.4	4.8
2025-01-08 21:03:50.666324	307.0	22.4	-92.9	3.4
2025-01-08 21:03:51.816597	307.3	22.3	-92.5	5.5
2025-01-08 21:03:52.958143	307.5	22.2	-92.6	5.4
2025-01-08 21:03:54.103864	307.8	22.1	-92.6	4.7
2025-01-08 21:03:55.251421	308.0	22.1	-92.7	5.7
2025-01-08 21:03:56.381877	308.3	22.0	-92.6	7.6
2025-01-08 21:03:57.527851	308.5	21.9	-92.7	4.8
2025-01-08 21:03:58.665524	308.8	21.8	-93.0	9.8
2025-01-08 21:03:59.813736	309.0	21.7	-92.4	9.0
2025-01-08 21:04:00.950954	309.2	21.6	-92.8	7.8
2025-01-08 21:04:02.109431	309.5	21.5	-92.8	8.6
2025-01-08 21:04:03.265973	309.7	21.4	-92.5	6.9
2025-01-08 21:04:04.416876	309.9	21.3	-92.4	6.8
2025-01-08 21:04:05.563638	310.2	21.2	-92.5	5.0
2025-01-08 21:04:06.705227	310.4	21.2	-92.8	4.7
2025-01-08 21:04:07.833013	310.6	21.1	-92.7	5.2
2025-01-08 21:04:08.990565	310.9	21.0	-92.8	5.8
2025-01-08 21:04:10.124155	311.1	20.9	-92.7	3.0
2025-01-08 21:04:11.254628	311.3	20.8	-92.7	4.0
2025-01-08 21:04:12.401937	311.6	20.7	-92.4	2.7
2025-01-08 21:04:13.537965	311.8	20.6	-92.8	4.8
2025-01-08 21:04:14.683189	312.0	20.5	-92.7	5.2
2025-01-08 21:04:15.828868	312.2	20.4	-92.8	6.1
2025-01-08 21:04:16.976477	312.4	20.3	-92.9	4.8
2025-01-08 21:04:18.126088	312.7	20.2	-92.3	5.2
2025-01-08 21:04:19.269924	312.9	20.2	-92.5	3.8
2025-01-08 21:04:20.418399	313.1	20.1	-92.9	5.0
2025-01-08 21:04:21.568716	313.3	20.0	-92.1	4.6
2025-01-08 21:04:22.723554	313.5	19.9	-92.9	4.9
2025-01-08 21:04:23.879765	313.7	19.8	-92.6	3.2
2025-01-08 21:04:25.029047	314.0	19.7	-92.4	5.3
2025-01-08 21:04:26.185018	314.2	19.6	-92.4	8.3
2025-01-08 21:04:27.329449	314.4	19.5	-92.6	5.9
2025-01-08 21:04:28.475591	314.6	19.4	-92.4	3.9
2025-01-08 21:04:29.604111	314.8	19.3	-92.5	5.6
2025-01-08 21:04:30.739133	315.0	19.2	-92.8	3.5
2025-01-08 21:04:31.875566	315.2	19.1	-92.5	7.6
2025-01-08 21:04:33.010152	315.4	19.0	-92.9	5.6
2025-01-08 21:04:34.146123	315.6	18.9	-92.3	4.6
2025-01-08 21:04:35.271372	315.8	18.9	-92.3	6.3
2025-01-08 21:04:36.413816	316.0	18.8	-92.9	5.7
2025-01-08 21:04:37.551664	316.2	18.7	-92.7	5.6
2025-01-08 21:04:38.708232	316.4	18.6	-92.6	6.1
2025-01-08 21:04:39.857474	316.6	18.5	-92.9	7.4
2025-01-08 21:04:41.000186	316.8	18.4	-92.6	4.8
2025-01-08 21:04:42.161413	317.0	18.3	-92.3	3.7
2025-01-08 21:04:43.316834	317.2	18.2	-92.6	5.0
2025-01-08 21:04:44.475890	317.4	18.1	-92.6	5.6
2025-01-08 21:04:45.632957	317.6	18.0	-92.3	4.0
2025-01-08 21:04:46.781632	317.8	17.9	-92.8	3.9
2025-01-08 21:04:47.939225	318.0	17.8	-92.6	5.0
2025-01-08 21:04:49.087932	318.1	17.7	-92.3	5.6
2025-01-08 21:04:50.246357	318.3	17.6	-92.5	3.9
2025-01-08 21:04:51.400236	318.5	17.6	-92.9	3.1
2025-01-08 21:04:52.552311	318.7	17.5	-92.4	4.0
2025-01-08 21:04:53.706892	318.9	17.4	-92.4	4.8
2025-01-08 21:04:54.858317	319.1	17.3	-92.9	8.2
2025-01-08 21:04:56.010275	319.3	17.2	-92.6	8.8
2025-01-08 21:04:57.155515	319.4	17.1	-92.4	6.1
2025-01-08 21:04:58.313095	319.6	17.0	-92.4	7.3
2025-01-08 21:04:59.476445	319.8	16.9	-92.9	10.1
2025-01-08 21:05:00.622618	320.0	16.8	-92.5	8.6
2025-01-08 21:05:01.776207	320.2	16.7	-92.6	11.7
2025-01-08 21:05:02.934000	320.3	16.6	-92.3	7.1
2025-01-08 21:05:04.090546	320.5	16.5	-92.6	4.4
2025-01-08 21:05:05.243054	320.7	16.4	-92.2	9.1
2025-01-08 21:05:06.397841	320.9	16.4	-92.3	5.2
2025-01-08 21:05:07.561893	321.0	16.3	-92.7	6.6
2025-01-08 21:05:08.722895	321.2	16.2	-92.7	8.3
2025-01-08 21:05:09.882651	321.4	16.1	-92.9	5.4
2025-01-08 21:05:11.035941	321.5	16.0	-92.7	5.5
2025-01-08 21:05:12.176043	321.7	15.9	-92.3	5.5
2025-01-08 21:05:13.332484	321.9	15.8	-92.2	6.9
2025-01-08 21:05:14.488582	322.0	15.7	-92.6	7.8
2025-01-08 21:05:15.650529	322.2	15.6	-92.8	7.1
2025-01-08 21:05:16.804854	322.4	15.5	-92.8	7.5
2025-01-08 21:05:17.959452	322.5	15.4	-92.6	6.8
2025-01-08 21:05:19.117960	322.7	15.3	-92.5	4.8
2025-01-08 21:05:20.268661	322.9	15.3	-92.6	4.7
2025-01-08 21:05:21.430174	323.0	15.2	-92.9	6.5
2025-01-08 21:05:22.581125	323.2	15.1	-92.8	6.0
2025-01-08 21:05:23.744903	323.3	15.0	-92.9	6.1
2025-01-08 21:05:24.900152	323.5	14.9	-92.9	11.6
2025-01-08 21:05:26.061241	323.7	14.8	-92.4	4.5
2025-01-08 21:05:27.226663	323.8	14.7	-92.4	5.7
2025-01-08 21:05:28.374373	324.0	14.6	-92.5	2.9
#Closed at: 2025-01-08 20:58:11.952252