passes_logs/2025/01/08/LEX_Murmansk/LEX_Murmansk__20250108_173524_NOAA_18_rec.log

#Pass ID: 20250108_173524_NOAA 18
#Satellite: NOAA 18
#Configuration: NOAA 18
#Start time: 2025-01-08 17:35:19.559673

#LorettStation: 1.0.0 05.05.2024
#Station: LEX_Murmansk
#Location: 33.156738 lon 68.926811 lat
#TLE: 1 28654U 05018A   25007.80096224  .00000414  00000+0  24332-3 0  9999
#TLE: 2 28654  98.8579  88.9263 0014020 199.4461 160.6178 14.13480585 12168

#Time	Az	El	Level	SNR
2025-01-08 17:35:31.671729	113.7	16.2	-89.6	12.5
2025-01-08 17:35:32.841074	113.6	16.3	-89.5	13.0
2025-01-08 17:35:34.007791	113.5	16.5	-89.5	14.8
2025-01-08 17:35:35.172502	113.4	16.6	-89.1	13.8
2025-01-08 17:35:36.327269	113.4	16.7	-89.1	10.9
2025-01-08 17:35:37.475974	113.3	16.8	-89.5	11.7
2025-01-08 17:35:38.626992	113.2	17.0	-89.7	12.5
2025-01-08 17:35:39.794030	113.1	17.1	-89.7	12.0
2025-01-08 17:35:40.957699	113.0	17.2	-89.2	10.3
2025-01-08 17:35:42.121242	112.9	17.3	-89.3	10.0
2025-01-08 17:35:43.286230	112.8	17.4	-89.2	9.8
2025-01-08 17:35:44.445910	112.7	17.6	-89.4	12.8
2025-01-08 17:35:45.598666	112.6	17.7	-89.2	11.3
2025-01-08 17:35:46.764384	112.5	17.8	-88.5	10.5
2025-01-08 17:35:47.929404	112.4	18.0	-89.5	11.9
2025-01-08 17:35:49.094888	112.3	18.1	-89.5	11.6
2025-01-08 17:35:50.257269	112.2	18.2	-89.0	11.2
2025-01-08 17:35:51.422373	112.1	18.3	-89.8	10.7
2025-01-08 17:35:52.593862	112.0	18.5	-89.7	10.5
2025-01-08 17:35:53.761052	111.9	18.6	-89.6	9.2
2025-01-08 17:35:54.922255	111.8	18.7	-89.4	8.0
2025-01-08 17:35:56.089377	111.7	18.9	-89.4	6.6
2025-01-08 17:35:57.252643	111.6	19.0	-89.5	8.5
2025-01-08 17:35:58.414140	111.5	19.1	-89.2	6.9
2025-01-08 17:35:59.579577	111.4	19.3	-89.4	7.1
2025-01-08 17:36:00.737292	111.3	19.4	-89.9	6.4
2025-01-08 17:36:01.899592	111.2	19.5	-89.4	7.4
2025-01-08 17:36:03.072766	111.1	19.7	-89.4	8.0
2025-01-08 17:36:04.230369	111.0	19.8	-88.8	6.7
2025-01-08 17:36:05.395024	110.8	19.9	-89.1	10.0
2025-01-08 17:36:06.551668	110.7	20.1	-89.3	9.9
2025-01-08 17:36:07.717230	110.6	20.2	-89.3	10.0
2025-01-08 17:36:08.881487	110.5	20.3	-89.2	8.9
2025-01-08 17:36:10.046473	110.4	20.5	-89.9	9.5
2025-01-08 17:36:11.212939	110.3	20.6	-89.6	10.0
2025-01-08 17:36:12.373772	110.1	20.8	-89.9	10.9
2025-01-08 17:36:13.538490	110.0	20.9	-89.6	6.0
2025-01-08 17:36:14.704755	109.9	21.0	-89.7	7.8
2025-01-08 17:36:15.865834	109.8	21.2	-89.5	8.7
2025-01-08 17:36:17.027889	109.7	21.3	-89.6	9.3
2025-01-08 17:36:18.188769	109.5	21.5	-89.5	11.8
2025-01-08 17:36:19.356626	109.4	21.6	-89.9	10.7
2025-01-08 17:36:20.519987	109.3	21.8	-89.9	10.8
2025-01-08 17:36:21.682246	109.2	21.9	-90.0	11.4
2025-01-08 17:36:22.847831	109.0	22.1	-90.3	9.2
2025-01-08 17:36:24.015457	108.9	22.2	-90.4	12.0
2025-01-08 17:36:25.181688	108.8	22.3	-90.0	13.8
2025-01-08 17:36:26.343403	108.6	22.5	-90.0	10.3
2025-01-08 17:36:27.507656	108.5	22.6	-90.0	8.6
2025-01-08 17:36:28.666372	108.4	22.8	-90.2	9.4
2025-01-08 17:36:29.830488	108.2	22.9	-89.8	10.0
2025-01-08 17:36:30.994089	108.1	23.1	-90.2	8.1
2025-01-08 17:36:32.163832	108.0	23.2	-89.9	8.1
2025-01-08 17:36:33.327749	107.8	23.4	-90.4	11.9
2025-01-08 17:36:34.493007	107.7	23.5	-90.5	11.7
2025-01-08 17:36:35.654864	107.5	23.7	-90.8	8.5
2025-01-08 17:36:36.819349	107.4	23.9	-90.8	11.0
2025-01-08 17:36:37.977791	107.3	24.0	-90.4	11.1
2025-01-08 17:36:39.133240	107.1	24.2	-90.4	11.3
2025-01-08 17:36:40.274868	107.0	24.3	-90.2	12.3
2025-01-08 17:36:41.397163	106.8	24.5	-89.9	11.8
2025-01-08 17:36:42.518866	106.7	24.6	-90.2	14.3
2025-01-08 17:36:43.638921	106.5	24.8	-90.3	9.8
2025-01-08 17:36:44.759140	106.4	24.9	-90.1	10.4
2025-01-08 17:36:45.879715	106.2	25.1	-90.3	10.5
2025-01-08 17:36:47.000228	106.1	25.2	-89.9	5.8
2025-01-08 17:36:48.121694	105.9	25.4	-90.0	6.1
2025-01-08 17:36:49.246522	105.8	25.5	-90.2	9.2
2025-01-08 17:36:50.401783	105.6	25.7	-90.1	9.9
2025-01-08 17:36:51.556963	105.4	25.9	-90.3	8.4
2025-01-08 17:36:52.724199	105.3	26.0	-90.1	8.8
2025-01-08 17:36:53.879534	105.1	26.2	-90.5	8.0
2025-01-08 17:36:55.038272	104.9	26.4	-90.3	6.9
2025-01-08 17:36:56.198837	104.8	26.5	-89.8	7.8
2025-01-08 17:36:57.365420	104.6	26.7	-89.9	7.3
2025-01-08 17:36:58.532327	104.4	26.9	-90.6	7.9
2025-01-08 17:36:59.693900	104.2	27.0	-90.8	7.7
2025-01-08 17:37:00.850236	104.1	27.2	-90.7	7.1
2025-01-08 17:37:02.016788	103.9	27.4	-90.5	8.3
2025-01-08 17:37:03.181144	103.7	27.5	-90.3	6.0
2025-01-08 17:37:04.346570	103.5	27.7	-90.4	6.6
2025-01-08 17:37:05.505206	103.3	27.9	-90.5	8.9
2025-01-08 17:37:06.666417	103.1	28.0	-90.1	8.0
2025-01-08 17:37:07.829321	103.0	28.2	-89.8	7.1
2025-01-08 17:37:08.994781	102.8	28.4	-89.6	8.2
2025-01-08 17:37:10.162242	102.6	28.6	-89.9	7.5
2025-01-08 17:37:11.323399	102.4	28.7	-89.9	9.7
2025-01-08 17:37:12.491779	102.2	28.9	-89.7	11.5
2025-01-08 17:37:13.655975	102.0	29.1	-90.0	11.9
2025-01-08 17:37:14.819257	101.8	29.3	-89.7	11.2
2025-01-08 17:37:15.977814	101.6	29.4	-90.2	11.5
2025-01-08 17:37:17.141333	101.4	29.6	-89.7	11.3
2025-01-08 17:37:18.302358	101.1	29.8	-89.7	17.2
2025-01-08 17:37:19.469924	100.9	30.0	-89.9	17.8
2025-01-08 17:37:20.632999	100.7	30.2	-89.9	17.1
2025-01-08 17:37:21.794332	100.5	30.3	-90.2	16.2
2025-01-08 17:37:22.951621	100.3	30.5	-90.2	12.5
2025-01-08 17:37:24.094320	100.1	30.7	-89.7	9.3
2025-01-08 17:37:25.258020	99.8	30.9	-89.8	16.3
2025-01-08 17:37:26.423280	99.6	31.1	-90.6	12.6
2025-01-08 17:37:27.587770	99.4	31.2	-90.7	9.3
2025-01-08 17:37:28.748289	99.1	31.4	-90.6	18.0
2025-01-08 17:37:29.913063	98.9	31.6	-90.4	17.0
2025-01-08 17:37:31.073802	98.7	31.8	-90.4	17.4
2025-01-08 17:37:32.249638	98.4	32.0	-90.2	16.7
2025-01-08 17:37:33.415768	98.2	32.2	-90.7	15.1
2025-01-08 17:37:34.580206	97.9	32.4	-90.7	9.7
2025-01-08 17:37:35.727991	97.7	32.6	-90.6	11.8
2025-01-08 17:37:36.872996	97.4	32.7	-90.3	11.5
2025-01-08 17:37:37.993365	97.2	32.9	-90.6	11.8
2025-01-08 17:37:39.114236	96.9	33.1	-90.0	13.2
2025-01-08 17:37:40.235431	96.7	33.3	-90.1	12.6
2025-01-08 17:37:41.357085	96.4	33.5	-90.4	14.1
2025-01-08 17:37:42.477997	96.2	33.7	-90.3	12.3
2025-01-08 17:37:43.599483	95.9	33.8	-90.3	10.8
2025-01-08 17:37:44.720264	95.7	34.0	-90.3	15.6
2025-01-08 17:37:45.840445	95.4	34.2	-90.6	15.5
2025-01-08 17:37:46.997631	95.1	34.4	-90.4	9.3
2025-01-08 17:37:48.156899	94.8	34.6	-90.4	9.1
2025-01-08 17:37:49.326931	94.5	34.8	-90.3	15.3
2025-01-08 17:37:50.483525	94.3	35.0	-90.5	13.9
2025-01-08 17:37:51.652051	94.0	35.2	-90.3	16.1
2025-01-08 17:37:52.813540	93.7	35.4	-90.6	18.5
2025-01-08 17:37:53.979291	93.4	35.6	-90.2	17.4
2025-01-08 17:37:55.144367	93.1	35.8	-90.4	18.4
2025-01-08 17:37:56.303425	92.7	35.9	-89.9	16.9
2025-01-08 17:37:57.472591	92.4	36.1	-90.4	12.5
2025-01-08 17:37:58.630897	92.1	36.3	-90.4	13.7
2025-01-08 17:37:59.792110	91.8	36.5	-90.3	17.2
2025-01-08 17:38:00.944776	91.5	36.7	-90.5	18.0
2025-01-08 17:38:02.104140	91.2	36.9	-90.1	15.0
2025-01-08 17:38:03.275270	90.8	37.1	-90.3	14.5
2025-01-08 17:38:04.438417	90.5	37.3	-90.2	10.3
2025-01-08 17:38:05.598945	90.2	37.5	-89.9	8.0
2025-01-08 17:38:06.768657	89.8	37.7	-89.3	6.8
2025-01-08 17:38:07.927430	89.5	37.9	-90.5	7.3
2025-01-08 17:38:09.104372	89.1	38.1	-90.3	5.2
2025-01-08 17:38:10.268453	88.7	38.3	-90.1	9.2
2025-01-08 17:38:11.430849	88.4	38.5	-90.4	8.3
2025-01-08 17:38:12.589972	88.0	38.7	-90.3	8.4
2025-01-08 17:38:13.755718	87.7	38.9	-90.2	11.4
2025-01-08 17:38:14.923404	87.3	39.1	-90.3	13.7
2025-01-08 17:38:16.075450	86.9	39.3	-89.8	12.7
2025-01-08 17:38:17.227742	86.5	39.5	-89.7	12.9
2025-01-08 17:38:18.388067	86.1	39.7	-89.7	14.2
2025-01-08 17:38:19.548166	85.8	39.8	-89.8	11.6
2025-01-08 17:38:20.716616	85.4	40.0	-90.1	12.4
2025-01-08 17:38:21.876313	85.0	40.2	-89.7	15.7
2025-01-08 17:38:23.042623	84.5	40.4	-89.7	10.2
2025-01-08 17:38:24.199577	84.1	40.6	-90.0	10.8
2025-01-08 17:38:25.355830	83.7	40.8	-90.0	13.9
2025-01-08 17:38:26.515510	83.3	41.0	-89.8	9.2
2025-01-08 17:38:27.680693	82.9	41.2	-90.0	6.3
2025-01-08 17:38:28.838638	82.5	41.4	-90.4	11.7
2025-01-08 17:38:30.005619	82.0	41.6	-89.8	6.0
2025-01-08 17:38:31.169334	81.6	41.7	-89.3	6.3
2025-01-08 17:38:32.335090	81.1	41.9	-89.5	11.7
2025-01-08 17:38:33.500824	80.7	42.1	-89.8	6.9
2025-01-08 17:38:34.665402	80.2	42.3	-89.7	10.8
2025-01-08 17:38:35.829336	79.8	42.5	-90.1	15.3
2025-01-08 17:38:36.992486	79.3	42.7	-89.9	11.1
2025-01-08 17:38:38.156471	78.8	42.8	-89.8	11.4
2025-01-08 17:38:39.319848	78.3	43.0	-89.5	14.6
2025-01-08 17:38:40.482160	77.9	43.2	-89.4	13.3
2025-01-08 17:38:41.650119	77.4	43.4	-89.6	8.6
2025-01-08 17:38:42.804008	76.9	43.5	-89.1	12.6
2025-01-08 17:38:43.959292	76.4	43.7	-89.5	12.8
2025-01-08 17:38:45.125488	75.9	43.9	-89.7	8.8
2025-01-08 17:38:46.283881	75.4	44.0	-89.6	10.9
2025-01-08 17:38:47.446587	74.9	44.2	-89.7	12.3
2025-01-08 17:38:48.607305	74.3	44.4	-89.4	6.9
2025-01-08 17:38:49.770715	73.8	44.5	-89.6	9.9
2025-01-08 17:38:50.933082	73.3	44.7	-90.1	8.2
2025-01-08 17:38:52.097306	72.8	44.9	-89.7	9.1
2025-01-08 17:38:53.254616	72.2	45.0	-89.6	11.6
2025-01-08 17:38:54.415881	71.7	45.2	-89.8	13.8
2025-01-08 17:38:55.583830	71.1	45.3	-89.5	14.0
2025-01-08 17:38:56.742977	70.6	45.5	-89.9	15.9
2025-01-08 17:38:57.907738	70.0	45.6	-89.8	14.0
2025-01-08 17:38:59.072969	69.4	45.7	-89.5	10.6
2025-01-08 17:39:00.237689	68.9	45.9	-89.5	7.8
2025-01-08 17:39:01.391316	68.3	46.0	-89.3	11.4
2025-01-08 17:39:02.559356	67.7	46.2	-90.0	7.3
2025-01-08 17:39:03.722051	67.1	46.3	-89.5	9.6
2025-01-08 17:39:04.884195	66.5	46.4	-89.4	10.6
2025-01-08 17:39:06.046776	65.9	46.5	-89.5	6.2
2025-01-08 17:39:07.211048	65.3	46.7	-89.8	8.3
2025-01-08 17:39:08.378465	64.7	46.8	-89.7	10.6
2025-01-08 17:39:09.541281	64.1	46.9	-89.7	8.5
2025-01-08 17:39:10.701682	63.5	47.0	-89.4	7.3
2025-01-08 17:39:11.870108	62.9	47.1	-88.7	12.2
2025-01-08 17:39:13.024124	62.2	47.2	-90.0	8.9
2025-01-08 17:39:14.189275	61.6	47.3	-89.8	8.3
2025-01-08 17:39:15.348617	61.0	47.4	-89.9	9.7
2025-01-08 17:39:16.509046	60.3	47.5	-90.0	9.3
2025-01-08 17:39:17.676222	59.7	47.6	-89.8	9.1
2025-01-08 17:39:18.836222	59.1	47.7	-90.1	10.4
2025-01-08 17:39:19.999511	58.4	47.8	-90.0	6.6
2025-01-08 17:39:21.167393	57.8	47.9	-89.7	5.1
2025-01-08 17:39:22.328953	57.1	48.0	-89.5	5.1
2025-01-08 17:39:23.503662	56.4	48.0	-89.7	4.9
2025-01-08 17:39:24.672244	55.8	48.1	-90.0	8.9
2025-01-08 17:39:25.834230	55.1	48.2	-90.3	5.8
2025-01-08 17:39:27.001223	54.4	48.2	-90.3	3.3
2025-01-08 17:39:28.166797	53.8	48.3	-90.4	4.8
2025-01-08 17:39:29.328086	53.1	48.3	-89.6	7.0
2025-01-08 17:39:30.493837	52.4	48.4	-90.4	3.4
2025-01-08 17:39:31.657093	51.7	48.4	-90.5	4.0
2025-01-08 17:39:32.817018	51.1	48.5	-90.3	5.1
2025-01-08 17:39:33.978730	50.4	48.5	-90.2	5.1
2025-01-08 17:39:35.146114	49.7	48.5	-90.6	5.8
2025-01-08 17:39:36.309203	49.0	48.6	-90.3	10.9
2025-01-08 17:39:37.475193	48.3	48.6	-89.8	8.9
2025-01-08 17:39:38.634320	47.7	48.6	-90.7	7.4
2025-01-08 17:39:39.801546	47.0	48.6	-90.3	3.8
2025-01-08 17:39:40.966427	46.3	48.6	-90.2	10.8
2025-01-08 17:39:42.123840	45.6	48.6	-90.1	8.1
2025-01-08 17:39:43.291894	44.9	48.6	-90.4	9.2
2025-01-08 17:39:44.457661	44.2	48.6	-90.7	12.6
2025-01-08 17:39:45.626112	43.5	48.6	-90.6	10.9
2025-01-08 17:39:46.785718	42.9	48.6	-90.5	11.1
2025-01-08 17:39:47.947240	42.2	48.6	-90.3	10.9
2025-01-08 17:39:49.114655	41.5	48.6	-89.8	8.4
2025-01-08 17:39:50.277983	40.8	48.5	-90.0	10.2
2025-01-08 17:39:51.441725	40.1	48.5	-90.3	8.3
2025-01-08 17:39:52.606880	39.5	48.5	-90.6	7.7
2025-01-08 17:39:53.773568	38.8	48.4	-90.5	12.1
2025-01-08 17:39:54.928819	38.1	48.4	-90.5	10.5
2025-01-08 17:39:56.083764	37.4	48.3	-89.6	7.1
2025-01-08 17:39:57.243108	36.8	48.3	-90.2	7.8
2025-01-08 17:39:58.410838	36.1	48.2	-90.1	5.9
2025-01-08 17:39:59.568440	35.4	48.2	-90.4	5.4
2025-01-08 17:40:00.718002	34.8	48.1	-90.0	8.4
2025-01-08 17:40:01.878469	34.1	48.0	-90.0	9.9
2025-01-08 17:40:03.042653	33.5	48.0	-90.3	5.8
2025-01-08 17:40:04.208510	32.8	47.9	-90.4	10.5
2025-01-08 17:40:05.371851	32.1	47.8	-90.3	7.4
2025-01-08 17:40:06.536858	31.5	47.7	-90.3	9.2
2025-01-08 17:40:07.698881	30.9	47.6	-90.2	12.3
2025-01-08 17:40:08.860939	30.2	47.5	-90.3	7.4
2025-01-08 17:40:10.020072	29.6	47.4	-90.2	5.9
2025-01-08 17:40:11.183686	28.9	47.3	-90.0	13.7
2025-01-08 17:40:12.347438	28.3	47.2	-90.1	15.1
2025-01-08 17:40:13.525653	27.7	47.1	-90.2	12.6
2025-01-08 17:40:14.684870	27.1	47.0	-90.3	16.1
2025-01-08 17:40:15.848954	26.4	46.9	-90.2	20.4
2025-01-08 17:40:17.008909	25.8	46.8	-89.9	9.9
2025-01-08 17:40:18.174780	25.2	46.7	-90.0	14.6
2025-01-08 17:40:19.338698	24.6	46.5	-90.0	16.4
2025-01-08 17:40:20.501139	24.0	46.4	-89.9	9.0
2025-01-08 17:40:21.668721	23.4	46.3	-89.9	13.7
2025-01-08 17:40:22.830857	22.9	46.2	-89.7	17.2
2025-01-08 17:40:23.999660	22.3	46.0	-89.5	10.8
2025-01-08 17:40:25.160354	21.7	45.9	-89.5	13.7
2025-01-08 17:40:26.321676	21.1	45.7	-89.7	18.8
2025-01-08 17:40:27.481704	20.6	45.6	-90.2	9.3
2025-01-08 17:40:28.640567	20.0	45.4	-90.0	12.2
2025-01-08 17:40:29.769561	19.5	45.3	-90.4	19.3
2025-01-08 17:40:30.889984	18.9	45.2	-90.0	17.9
2025-01-08 17:40:32.011495	18.4	45.0	-90.2	9.1
2025-01-08 17:40:33.133008	17.9	44.9	-90.1	10.8
2025-01-08 17:40:34.253905	17.4	44.7	-90.1	17.6
2025-01-08 17:40:35.374829	16.8	44.6	-90.7	19.9
2025-01-08 17:40:36.495636	16.3	44.4	-90.5	12.5
2025-01-08 17:40:37.616144	15.8	44.2	-90.5	11.7
2025-01-08 17:40:38.736856	15.3	44.1	-90.6	18.6
2025-01-08 17:40:39.883477	14.8	43.9	-90.5	17.1
2025-01-08 17:40:41.028475	14.3	43.8	-90.3	11.7
2025-01-08 17:40:42.182908	13.8	43.6	-90.1	16.3
2025-01-08 17:40:43.329134	13.4	43.4	-89.9	16.5
2025-01-08 17:40:44.471741	12.9	43.2	-90.2	11.1
2025-01-08 17:40:45.632564	12.4	43.1	-90.3	12.4
2025-01-08 17:40:46.789293	11.9	42.9	-90.3	19.8
2025-01-08 17:40:47.949517	11.4	42.7	-90.0	14.3
2025-01-08 17:40:49.111281	11.0	42.5	-90.0	13.9
2025-01-08 17:40:50.275116	10.5	42.3	-89.9	17.5
2025-01-08 17:40:51.431031	10.1	42.2	-90.4	13.9
2025-01-08 17:40:52.590320	9.6	42.0	-90.4	16.6
2025-01-08 17:40:53.764726	9.2	41.8	-89.7	19.0
2025-01-08 17:40:54.930771	8.7	41.6	-90.1	15.4
2025-01-08 17:40:56.099184	8.3	41.4	-90.1	16.8
2025-01-08 17:40:57.255448	7.8	41.2	-90.4	19.9
2025-01-08 17:40:58.422791	7.4	41.1	-90.3	20.2
2025-01-08 17:40:59.598824	7.0	40.9	-90.1	17.0
2025-01-08 17:41:00.742047	6.6	40.7	-90.4	18.0
2025-01-08 17:41:01.905396	6.2	40.5	-90.4	18.4
2025-01-08 17:41:03.070225	5.8	40.3	-90.3	18.0
2025-01-08 17:41:04.238458	5.4	40.1	-89.0	17.0
2025-01-08 17:41:05.405296	5.0	39.9	-90.5	17.5
2025-01-08 17:41:06.560659	4.6	39.7	-90.3	16.0
2025-01-08 17:41:07.724583	4.2	39.5	-90.4	13.9
2025-01-08 17:41:08.888868	3.8	39.3	-90.7	18.1
2025-01-08 17:41:10.057006	3.4	39.1	-90.3	12.5
2025-01-08 17:41:11.219093	3.0	38.9	-90.5	16.7
2025-01-08 17:41:12.381996	2.7	38.7	-90.5	17.3
2025-01-08 17:41:13.541812	2.3	38.5	-90.5	12.8
2025-01-08 17:41:14.704912	1.9	38.3	-90.1	16.4
2025-01-08 17:41:15.874469	1.6	38.2	-90.3	18.9
2025-01-08 17:41:17.024672	1.2	38.0	-90.2	11.5
2025-01-08 17:41:18.184320	0.9	37.8	-90.3	15.5
2025-01-08 17:41:19.356787	0.5	37.6	-90.5	17.3
2025-01-08 17:41:20.518475	0.2	37.4	-90.8	11.2
2025-01-08 17:41:21.682499	359.9	37.2	-90.7	11.7
2025-01-08 17:41:22.845872	359.5	37.0	-91.0	14.2
2025-01-08 17:41:24.009754	359.2	36.8	-90.8	8.7
2025-01-08 17:41:25.187637	358.9	36.6	-90.3	16.6
2025-01-08 17:41:26.352412	358.6	36.4	-90.3	15.3
2025-01-08 17:41:27.515240	358.2	36.2	-90.9	11.8
2025-01-08 17:41:28.686065	357.9	36.0	-90.0	13.1
2025-01-08 17:41:29.839243	357.6	35.8	-90.7	15.9
2025-01-08 17:41:30.990478	357.3	35.6	-90.8	12.9
2025-01-08 17:41:32.111750	357.0	35.4	-90.4	17.5
2025-01-08 17:41:33.231619	356.7	35.2	-90.5	14.9
2025-01-08 17:41:34.353186	356.5	35.0	-90.6	16.7
2025-01-08 17:41:35.473867	356.2	34.9	-90.5	15.9
2025-01-08 17:41:36.595885	355.9	34.7	-90.4	15.4
2025-01-08 17:41:37.714591	355.6	34.5	-90.5	14.1
2025-01-08 17:41:38.836146	355.3	34.3	-90.7	13.4
2025-01-08 17:41:39.961375	355.1	34.1	-90.4	11.4
2025-01-08 17:41:41.100961	354.8	33.9	-90.3	10.5
2025-01-08 17:41:42.264309	354.5	33.7	-90.5	10.5
2025-01-08 17:41:43.413035	354.3	33.5	-90.3	5.9
2025-01-08 17:41:44.555769	354.0	33.4	-90.9	8.6
2025-01-08 17:41:45.676304	353.8	33.2	-90.5	9.9
2025-01-08 17:41:46.823985	353.5	33.0	-90.6	11.3
2025-01-08 17:41:47.974831	353.2	32.8	-90.6	6.2
2025-01-08 17:41:49.137204	353.0	32.6	-90.4	8.1
2025-01-08 17:41:50.289443	352.7	32.4	-90.4	10.4
2025-01-08 17:41:51.434370	352.5	32.2	-90.6	9.7
2025-01-08 17:41:52.598352	352.3	32.1	-90.7	12.5
2025-01-08 17:41:53.761049	352.0	31.9	-90.5	10.7
2025-01-08 17:41:54.915093	351.8	31.7	-90.5	10.5
2025-01-08 17:41:56.066213	351.5	31.5	-90.0	8.4
2025-01-08 17:41:57.198997	351.3	31.3	-90.3	8.9
2025-01-08 17:41:58.344051	351.1	31.1	-90.1	13.1
2025-01-08 17:41:59.502359	350.9	31.0	-90.2	10.8
2025-01-08 17:42:00.637403	350.6	30.8	-90.4	11.6
2025-01-08 17:42:01.791194	350.4	30.6	-90.3	13.5
2025-01-08 17:42:02.948169	350.2	30.4	-90.2	7.9
2025-01-08 17:42:04.113027	350.0	30.2	-90.0	7.4
2025-01-08 17:42:05.273668	349.8	30.1	-90.3	11.7
2025-01-08 17:42:06.438915	349.6	29.9	-90.2	6.0
2025-01-08 17:42:07.602320	349.3	29.7	-90.4	5.8
2025-01-08 17:42:08.767745	349.1	29.5	-90.2	10.6
2025-01-08 17:42:09.902306	348.9	29.3	-90.8	10.4
2025-01-08 17:42:11.065508	348.7	29.2	-90.7	8.4
2025-01-08 17:42:12.233526	348.5	29.0	-90.5	8.7
2025-01-08 17:42:13.401072	348.3	28.8	-90.7	11.9
2025-01-08 17:42:14.573258	348.1	28.6	-90.5	8.0
2025-01-08 17:42:15.737225	347.9	28.5	-90.5	12.6
2025-01-08 17:42:16.910296	347.7	28.3	-90.4	13.1
2025-01-08 17:42:18.070494	347.5	28.1	-90.7	8.3
2025-01-08 17:42:19.229949	347.4	27.9	-90.8	9.6
2025-01-08 17:42:20.396584	347.2	27.8	-90.7	7.0
2025-01-08 17:42:21.561385	347.0	27.6	-90.5	7.4
2025-01-08 17:42:22.723789	346.8	27.4	-89.6	7.7
2025-01-08 17:42:23.889942	346.6	27.3	-90.6	7.0
2025-01-08 17:42:25.054772	346.4	27.1	-90.3	7.3
2025-01-08 17:42:26.222625	346.3	26.9	-90.6	10.2
2025-01-08 17:42:27.382638	346.1	26.7	-90.7	12.5
2025-01-08 17:42:28.545642	345.9	26.6	-90.3	9.6
2025-01-08 17:42:29.709234	345.7	26.4	-90.5	12.6
2025-01-08 17:42:30.866772	345.6	26.3	-90.7	14.6
2025-01-08 17:42:32.031017	345.4	26.1	-90.6	11.1
2025-01-08 17:42:33.188574	345.2	25.9	-90.6	11.7
2025-01-08 17:42:34.354750	345.1	25.8	-90.6	11.5
2025-01-08 17:42:35.516296	344.9	25.6	-90.3	10.7
2025-01-08 17:42:36.682340	344.7	25.4	-90.0	11.9
2025-01-08 17:42:37.841408	344.6	25.3	-90.3	11.8
2025-01-08 17:42:39.006245	344.4	25.1	-90.6	8.5
2025-01-08 17:42:40.166963	344.3	25.0	-90.5	10.1
2025-01-08 17:42:41.330863	344.1	24.8	-90.4	12.8
2025-01-08 17:42:42.476631	344.0	24.6	-90.6	7.9
2025-01-08 17:42:43.604363	343.8	24.5	-90.7	7.9
2025-01-08 17:42:44.725566	343.7	24.3	-90.8	12.5
2025-01-08 17:42:45.850165	343.5	24.2	-90.5	12.2
2025-01-08 17:42:46.970695	343.4	24.0	-90.6	8.4
2025-01-08 17:42:48.091009	343.2	23.9	-90.6	8.2
2025-01-08 17:42:49.210976	343.1	23.7	-90.2	9.7
2025-01-08 17:42:50.330369	343.0	23.6	-90.8	12.3
2025-01-08 17:42:51.452849	342.8	23.4	-91.2	11.6
2025-01-08 17:42:52.593679	342.7	23.3	-90.3	11.8
2025-01-08 17:42:53.745847	342.6	23.1	-90.1	13.4
2025-01-08 17:42:54.896112	342.4	23.0	-90.0	10.7
2025-01-08 17:42:56.054046	342.3	22.8	-90.2	10.8
2025-01-08 17:42:57.213508	342.2	22.7	-89.7	11.4
2025-01-08 17:42:58.376178	342.0	22.5	-90.2	12.5
2025-01-08 17:42:59.530081	341.9	22.4	-90.4	6.7
2025-01-08 17:43:00.677593	341.8	22.3	-91.1	10.6
2025-01-08 17:43:01.838651	341.6	22.1	-90.6	11.4
2025-01-08 17:43:03.003247	341.5	22.0	-89.4	7.8
2025-01-08 17:43:04.167868	341.4	21.8	-90.6	9.1
2025-01-08 17:43:05.336272	341.2	21.7	-90.4	13.3
2025-01-08 17:43:06.495919	341.1	21.5	-89.6	9.6
2025-01-08 17:43:07.658741	341.0	21.4	-90.6	12.0
2025-01-08 17:43:08.822923	340.9	21.2	-90.3	10.3
2025-01-08 17:43:09.982126	340.8	21.1	-90.5	9.9
2025-01-08 17:43:11.140579	340.6	21.0	-90.6	8.5
2025-01-08 17:43:12.303438	340.5	20.8	-90.5	11.2
2025-01-08 17:43:13.468943	340.4	20.7	-90.5	8.7
2025-01-08 17:43:14.631926	340.3	20.5	-90.4	6.2
2025-01-08 17:43:15.799388	340.2	20.4	-90.6	6.6
2025-01-08 17:43:16.983846	340.0	20.3	-90.2	5.2
2025-01-08 17:43:18.151873	339.9	20.1	-90.6	6.6
2025-01-08 17:43:19.309793	339.8	20.0	-90.1	5.5
2025-01-08 17:43:20.473640	339.7	19.8	-90.3	7.3
2025-01-08 17:43:21.632167	339.6	19.7	-89.6	7.4
2025-01-08 17:43:22.797129	339.5	19.6	-90.3	7.9
2025-01-08 17:43:23.964194	339.4	19.4	-90.7	6.9
2025-01-08 17:43:25.121380	339.3	19.3	-89.9	7.2
2025-01-08 17:43:26.283678	339.2	19.2	-90.2	5.4
2025-01-08 17:43:27.444090	339.1	19.0	-90.3	5.5
2025-01-08 17:43:28.612243	339.0	18.9	-90.6	5.2
2025-01-08 17:43:29.770559	338.9	18.8	-90.5	6.6
2025-01-08 17:43:30.936473	338.7	18.6	-90.0	5.3
2025-01-08 17:43:32.088032	338.6	18.5	-89.9	5.9
2025-01-08 17:43:33.252037	338.5	18.4	-89.0	7.9
2025-01-08 17:43:34.408019	338.4	18.3	-89.7	6.3
2025-01-08 17:43:35.572328	338.3	18.1	-88.0	7.6
2025-01-08 17:43:36.734954	338.2	18.0	-89.7	6.0
2025-01-08 17:43:37.890783	338.2	17.9	-90.5	6.9
2025-01-08 17:43:39.053081	338.1	17.7	-90.4	6.6
2025-01-08 17:43:40.214576	338.0	17.6	-90.6	6.5
2025-01-08 17:43:41.382247	337.9	17.5	-90.1	5.6
2025-01-08 17:43:42.538472	337.8	17.4	-90.4	4.6
2025-01-08 17:43:43.702289	337.7	17.2	-90.0	5.4
2025-01-08 17:43:44.862524	337.6	17.1	-89.6	5.8
2025-01-08 17:43:46.030761	337.5	17.0	-89.3	4.9
2025-01-08 17:43:47.187345	337.4	16.9	-87.9	3.1
2025-01-08 17:43:48.355219	337.3	16.7	-87.2	5.4
2025-01-08 17:43:49.516771	337.2	16.6	-89.6	6.4
2025-01-08 17:43:50.679536	337.1	16.5	-89.5	6.2
2025-01-08 17:43:51.851343	337.0	16.4	-89.1	4.6
2025-01-08 17:43:53.008326	337.0	16.3	-90.3	7.7
2025-01-08 17:43:54.173863	336.9	16.1	-90.4	7.3
2025-01-08 17:43:55.341172	336.8	16.0	-89.9	9.0
2025-01-08 17:43:56.508200	336.7	15.9	-90.5	6.1
2025-01-08 17:43:57.667805	336.6	15.8	-90.4	8.4
2025-01-08 17:43:58.836998	336.5	15.7	-90.0	5.6
2025-01-08 17:43:59.997958	336.4	15.5	-90.3	5.3
2025-01-08 17:44:01.153528	336.4	15.4	-90.0	8.0
2025-01-08 17:44:02.316910	336.3	15.3	-90.1	6.8
2025-01-08 17:44:03.481323	336.2	15.2	-90.3	7.3
2025-01-08 17:44:04.640182	336.1	15.1	-90.0	7.1
2025-01-08 17:44:05.806138	336.0	15.0	-89.4	7.5
2025-01-08 17:44:06.970551	336.0	14.9	-89.9	4.1
2025-01-08 17:44:08.127182	335.9	14.7	-90.0	6.8
2025-01-08 17:44:09.294729	335.8	14.6	-89.8	5.4
2025-01-08 17:44:10.459144	335.7	14.5	-89.9	3.1
#Closed at: 2025-01-08 17:35:24.481872