passes_logs/2025/01/08/LEX_Murmansk/LEX_Murmansk__20250108_184933_NOAA_19_rec.log

#Pass ID: 20250108_184933_NOAA 19
#Satellite: NOAA 19
#Configuration: NOAA 19
#Start time: 2025-01-08 18:49:28.928294

#LorettStation: 1.0.0 05.05.2024
#Station: LEX_Murmansk
#Location: 33.156738 lon 68.926811 lat
#TLE: 1 33591U 09005A   25007.78273938  .00000347  00000+0  20907-3 0  9990
#TLE: 2 33591  99.0209  71.4889 0014647  76.7831 283.4973 14.13254046820526

#Time	Az	El	Level	SNR
2025-01-08 18:49:45.158405	188.8	16.7	-88.8	4.0
2025-01-08 18:49:46.321525	188.9	16.8	-88.8	3.6
2025-01-08 18:49:47.486861	189.0	16.9	-89.0	4.9
2025-01-08 18:49:48.645567	189.1	17.0	-89.1	3.8
2025-01-08 18:49:49.810503	189.2	17.1	-89.4	4.3
2025-01-08 18:49:50.973842	189.3	17.3	-89.0	3.8
2025-01-08 18:49:52.133268	189.5	17.4	-89.0	3.3
2025-01-08 18:49:53.292606	189.6	17.5	-89.2	3.8
2025-01-08 18:49:54.453408	189.7	17.6	-89.6	3.1
2025-01-08 18:49:55.617160	189.8	17.8	-89.1	3.3
2025-01-08 18:49:56.782029	189.9	17.9	-89.5	3.4
2025-01-08 18:49:57.945854	190.0	18.0	-89.7	2.4
2025-01-08 18:49:59.109946	190.1	18.2	-89.3	4.0
2025-01-08 18:50:00.268105	190.2	18.3	-89.3	3.2
2025-01-08 18:50:01.422114	190.3	18.4	-89.3	4.7
2025-01-08 18:50:02.585824	190.4	18.5	-89.3	4.4
2025-01-08 18:50:03.739674	190.5	18.7	-89.4	3.4
2025-01-08 18:50:04.893542	190.7	18.8	-90.5	6.1
2025-01-08 18:50:06.050684	190.8	18.9	-89.8	7.7
2025-01-08 18:50:07.179642	190.9	19.1	-89.6	6.0
2025-01-08 18:50:08.300017	191.0	19.2	-89.4	5.3
2025-01-08 18:50:09.422543	191.1	19.3	-89.9	3.3
2025-01-08 18:50:10.545464	191.2	19.4	-89.7	3.3
2025-01-08 18:50:11.666272	191.3	19.6	-89.2	2.7
2025-01-08 18:50:12.787263	191.5	19.7	-89.7	1.3
2025-01-08 18:50:13.907538	191.6	19.8	-90.1	6.0
2025-01-08 18:50:15.031291	191.7	20.0	-89.9	7.1
2025-01-08 18:50:16.166317	191.8	20.1	-89.6	8.1
2025-01-08 18:50:17.336309	191.9	20.2	-90.0	8.2
2025-01-08 18:50:18.490225	192.1	20.4	-89.8	6.9
2025-01-08 18:50:19.654479	192.2	20.5	-89.8	5.8
2025-01-08 18:50:20.819403	192.3	20.7	-90.0	4.7
2025-01-08 18:50:21.986506	192.4	20.8	-90.1	5.8
2025-01-08 18:50:23.146277	192.6	20.9	-89.7	4.7
2025-01-08 18:50:24.306532	192.7	21.1	-89.6	6.3
2025-01-08 18:50:25.470827	192.8	21.2	-89.9	4.7
2025-01-08 18:50:26.628036	193.0	21.4	-89.7	4.5
2025-01-08 18:50:27.782808	193.1	21.5	-90.1	2.4
2025-01-08 18:50:28.946671	193.2	21.6	-90.2	3.7
2025-01-08 18:50:30.110874	193.4	21.8	-90.0	5.0
2025-01-08 18:50:31.270581	193.5	21.9	-89.6	5.5
2025-01-08 18:50:32.439956	193.7	22.1	-90.1	8.7
2025-01-08 18:50:33.600573	193.8	22.2	-90.3	10.1
2025-01-08 18:50:34.765590	193.9	22.4	-90.5	8.6
2025-01-08 18:50:35.942864	194.1	22.5	-90.3	8.6
2025-01-08 18:50:37.103684	194.2	22.7	-89.9	7.1
2025-01-08 18:50:38.263333	194.4	22.8	-90.0	5.3
2025-01-08 18:50:39.422149	194.5	23.0	-90.4	7.6
2025-01-08 18:50:40.585444	194.7	23.1	-91.0	11.6
2025-01-08 18:50:41.753570	194.8	23.3	-90.5	9.0
2025-01-08 18:50:42.910081	195.0	23.4	-90.5	7.6
2025-01-08 18:50:44.071157	195.1	23.6	-90.4	4.1
2025-01-08 18:50:45.230873	195.3	23.7	-90.6	1.4
2025-01-08 18:50:46.393869	195.4	23.9	-90.7	3.2
2025-01-08 18:50:47.558481	195.6	24.0	-90.8	4.0
2025-01-08 18:50:48.715641	195.8	24.2	-90.9	4.5
2025-01-08 18:50:49.865557	195.9	24.3	-90.8	9.4
2025-01-08 18:50:51.029311	196.1	24.5	-90.5	10.9
2025-01-08 18:50:52.166359	196.2	24.7	-90.5	10.2
2025-01-08 18:50:53.287743	196.4	24.8	-90.5	6.8
2025-01-08 18:50:54.408360	196.6	25.0	-90.7	6.7
2025-01-08 18:50:55.530270	196.7	25.1	-90.2	6.9
2025-01-08 18:50:56.650507	196.9	25.3	-90.4	7.4
2025-01-08 18:50:57.771885	197.1	25.4	-90.3	7.5
2025-01-08 18:50:58.892572	197.2	25.6	-90.3	10.2
2025-01-08 18:51:00.017679	197.4	25.7	-89.9	8.2
2025-01-08 18:51:01.146994	197.6	25.9	-90.5	6.4
2025-01-08 18:51:02.290934	197.7	26.1	-90.3	2.4
2025-01-08 18:51:03.446700	197.9	26.2	-90.2	2.6
2025-01-08 18:51:04.589289	198.1	26.4	-90.6	3.0
2025-01-08 18:51:05.752622	198.3	26.5	-90.7	3.9
2025-01-08 18:51:06.911104	198.5	26.7	-90.5	4.6
2025-01-08 18:51:08.058261	198.7	26.9	-90.5	6.2
2025-01-08 18:51:09.184370	198.8	27.0	-90.4	7.1
2025-01-08 18:51:10.337853	199.0	27.2	-90.3	8.3
2025-01-08 18:51:11.471587	199.2	27.4	-90.6	5.6
2025-01-08 18:51:12.620487	199.4	27.5	-90.0	5.3
2025-01-08 18:51:13.772897	199.6	27.7	-90.6	1.9
2025-01-08 18:51:14.917317	199.8	27.9	-90.4	5.7
2025-01-08 18:51:16.062571	200.0	28.0	-90.4	4.5
2025-01-08 18:51:17.214979	200.2	28.2	-90.3	6.7
2025-01-08 18:51:18.373497	200.4	28.4	-90.3	4.9
2025-01-08 18:51:19.522721	200.6	28.6	-90.2	3.9
2025-01-08 18:51:20.687604	200.8	28.7	-89.8	3.2
2025-01-08 18:51:21.821096	201.0	28.9	-90.4	3.3
2025-01-08 18:51:22.965354	201.2	29.1	-90.4	1.0
2025-01-08 18:51:24.111888	201.5	29.3	-90.4	3.1
2025-01-08 18:51:25.266765	201.7	29.4	-90.2	2.3
2025-01-08 18:51:26.427654	201.9	29.6	-90.5	1.5
2025-01-08 18:51:27.586158	202.1	29.8	-90.7	2.5
2025-01-08 18:51:28.748214	202.3	30.0	-90.6	3.8
2025-01-08 18:51:29.909697	202.6	30.1	-90.5	4.4
2025-01-08 18:51:31.077293	202.8	30.3	-90.3	2.9
2025-01-08 18:51:32.234604	203.0	30.5	-90.1	1.7
2025-01-08 18:51:33.389827	203.3	30.7	-90.2	4.0
2025-01-08 18:51:34.547893	203.5	30.9	-90.4	2.9
2025-01-08 18:51:35.706321	203.8	31.1	-90.5	2.8
2025-01-08 18:51:36.866651	204.0	31.2	-90.4	3.8
2025-01-08 18:51:38.028293	204.2	31.4	-89.8	0.2
2025-01-08 18:51:39.186364	204.5	31.6	-90.2	3.9
2025-01-08 18:51:40.342385	204.7	31.8	-90.2	2.1
2025-01-08 18:51:41.510900	205.0	32.0	-89.4	2.1
2025-01-08 18:51:42.675144	205.3	32.2	-90.2	1.8
2025-01-08 18:51:43.838897	205.5	32.3	-89.9	3.0
2025-01-08 18:51:45.000151	205.8	32.5	-90.0	4.3
2025-01-08 18:51:46.160284	206.0	32.7	-89.1	2.9
2025-01-08 18:51:47.324083	206.3	32.9	-90.0	3.3
2025-01-08 18:51:48.486054	206.6	33.1	-90.0	4.3
2025-01-08 18:51:49.652332	206.9	33.3	-90.2	1.9
2025-01-08 18:51:50.812326	207.1	33.5	-90.3	3.5
2025-01-08 18:51:51.975367	207.4	33.7	-89.9	4.5
2025-01-08 18:51:53.139739	207.7	33.9	-90.0	2.5
2025-01-08 18:51:54.302577	208.0	34.1	-90.0	3.0
2025-01-08 18:51:55.463266	208.3	34.2	-90.0	5.9
2025-01-08 18:51:56.627636	208.6	34.4	-89.5	9.9
2025-01-08 18:51:57.784775	208.9	34.6	-89.6	8.9
2025-01-08 18:51:58.957851	209.2	34.8	-89.9	7.7
2025-01-08 18:52:00.122897	209.5	35.0	-90.2	5.1
2025-01-08 18:52:01.269143	209.8	35.2	-90.1	5.5
2025-01-08 18:52:02.432518	210.1	35.4	-90.0	1.3
2025-01-08 18:52:03.583616	210.4	35.6	-90.3	3.8
2025-01-08 18:52:04.737878	210.8	35.8	-90.2	1.2
2025-01-08 18:52:05.865523	211.1	36.0	-90.0	1.9
2025-01-08 18:52:06.986159	211.4	36.2	-89.7	2.2
2025-01-08 18:52:08.106611	211.7	36.3	-90.4	6.4
2025-01-08 18:52:09.227703	212.0	36.5	-89.9	8.5
2025-01-08 18:52:10.347944	212.4	36.7	-90.3	5.8
2025-01-08 18:52:11.468376	212.7	36.9	-89.7	7.5
2025-01-08 18:52:12.588356	213.0	37.1	-89.5	6.8
2025-01-08 18:52:13.712426	213.4	37.3	-89.9	7.0
2025-01-08 18:52:14.851420	213.7	37.5	-90.1	6.8
2025-01-08 18:52:16.015659	214.1	37.7	-90.3	10.2
2025-01-08 18:52:17.171272	214.4	37.9	-90.2	6.7
2025-01-08 18:52:18.327008	214.8	38.0	-90.2	8.0
2025-01-08 18:52:19.492305	215.2	38.2	-90.2	13.3
2025-01-08 18:52:20.654708	215.5	38.4	-90.3	10.8
2025-01-08 18:52:21.818136	215.9	38.6	-90.0	6.8
2025-01-08 18:52:22.984447	216.3	38.8	-90.6	8.3
2025-01-08 18:52:24.144001	216.7	39.0	-89.9	5.0
2025-01-08 18:52:25.304915	217.1	39.2	-90.0	4.6
2025-01-08 18:52:26.481778	217.5	39.4	-90.1	3.2
2025-01-08 18:52:27.644736	217.9	39.6	-91.6	1.5
2025-01-08 18:52:28.809077	218.3	39.8	-92.2	2.4
2025-01-08 18:52:29.973955	218.7	40.0	-92.3	4.4
2025-01-08 18:52:31.137747	219.1	40.2	-91.7	6.3
2025-01-08 18:52:32.301795	219.6	40.4	-91.7	6.2
2025-01-08 18:52:33.471172	220.0	40.5	-92.3	8.5
2025-01-08 18:52:34.637569	220.4	40.7	-92.1	9.9
2025-01-08 18:52:35.801961	220.9	40.9	-92.0	8.4
2025-01-08 18:52:36.962210	221.3	41.1	-92.2	8.7
2025-01-08 18:52:38.127355	221.7	41.3	-91.8	6.0
2025-01-08 18:52:39.294916	222.2	41.5	-91.8	3.8
2025-01-08 18:52:40.457648	222.7	41.7	-92.5	6.4
2025-01-08 18:52:41.621370	223.1	41.8	-92.4	3.1
2025-01-08 18:52:42.794584	223.6	42.0	-92.2	3.6
2025-01-08 18:52:43.947876	224.1	42.2	-92.5	1.8
2025-01-08 18:52:45.122538	224.5	42.4	-91.9	5.3
2025-01-08 18:52:46.285553	225.0	42.5	-92.1	2.8
2025-01-08 18:52:47.430722	225.5	42.7	-92.2	0.9
2025-01-08 18:52:48.587379	226.0	42.9	-92.1	4.3
2025-01-08 18:52:49.732329	226.5	43.1	-92.0	2.2
2025-01-08 18:52:50.853093	227.0	43.2	-92.4	3.7
2025-01-08 18:52:51.975304	227.5	43.4	-92.5	4.6
2025-01-08 18:52:53.096785	228.0	43.6	-92.0	4.8
2025-01-08 18:52:54.217275	228.5	43.7	-92.1	1.2
2025-01-08 18:52:55.338448	229.0	43.9	-92.1	1.5
2025-01-08 18:52:56.459622	229.5	44.0	-92.3	2.6
2025-01-08 18:52:57.584597	230.0	44.2	-92.4	1.7
2025-01-08 18:52:58.706307	230.5	44.3	-92.2	2.1
2025-01-08 18:52:59.865545	231.1	44.5	-92.3	2.6
2025-01-08 18:53:00.999869	231.6	44.6	-92.3	3.9
2025-01-08 18:53:02.168018	232.2	44.8	-91.9	4.3
2025-01-08 18:53:03.329116	232.7	44.9	-92.0	4.7
2025-01-08 18:53:04.484967	233.3	45.1	-92.2	9.3
2025-01-08 18:53:05.649047	233.8	45.2	-92.2	8.9
2025-01-08 18:53:06.814904	234.4	45.4	-92.6	7.1
2025-01-08 18:53:07.980305	235.0	45.5	-92.2	12.2
2025-01-08 18:53:09.132411	235.6	45.6	-92.1	11.5
2025-01-08 18:53:10.283372	236.2	45.8	-91.7	10.3
2025-01-08 18:53:11.410593	236.7	45.9	-92.1	8.5
2025-01-08 18:53:12.572327	237.3	46.0	-92.0	9.0
2025-01-08 18:53:13.716323	237.9	46.1	-91.9	6.7
2025-01-08 18:53:14.866331	238.5	46.3	-91.2	8.9
2025-01-08 18:53:16.019736	239.1	46.4	-92.1	9.8
2025-01-08 18:53:17.170763	239.8	46.5	-92.2	9.5
2025-01-08 18:53:18.318650	240.4	46.6	-91.6	10.6
2025-01-08 18:53:19.478259	241.0	46.7	-92.2	13.9
2025-01-08 18:53:20.633057	241.6	46.8	-92.1	14.6
2025-01-08 18:53:21.792990	242.3	46.9	-91.1	14.8
2025-01-08 18:53:22.950420	242.9	47.0	-92.0	16.1
2025-01-08 18:53:24.112187	243.5	47.1	-91.9	15.5
2025-01-08 18:53:25.272556	244.2	47.2	-92.0	14.2
2025-01-08 18:53:26.435834	244.8	47.3	-91.9	13.0
2025-01-08 18:53:27.592218	245.5	47.4	-91.7	13.6
2025-01-08 18:53:28.756559	246.1	47.4	-92.2	12.0
2025-01-08 18:53:29.915731	246.8	47.5	-92.5	9.3
2025-01-08 18:53:31.077309	247.5	47.6	-92.3	12.5
2025-01-08 18:53:32.243538	248.1	47.7	-91.7	6.7
2025-01-08 18:53:33.402269	248.8	47.7	-90.6	8.1
2025-01-08 18:53:34.561968	249.5	47.8	-92.1	9.5
2025-01-08 18:53:35.722191	250.1	47.8	-92.4	5.7
2025-01-08 18:53:36.883663	250.8	47.9	-92.3	8.0
2025-01-08 18:53:38.048413	251.5	47.9	-91.7	8.6
2025-01-08 18:53:39.215260	252.2	48.0	-91.5	3.4
2025-01-08 18:53:40.373661	252.9	48.0	-92.0	9.3
2025-01-08 18:53:41.534432	253.5	48.0	-92.1	12.3
2025-01-08 18:53:42.695534	254.2	48.1	-91.9	11.0
2025-01-08 18:53:43.860630	254.9	48.1	-92.0	13.1
2025-01-08 18:53:45.015812	255.6	48.1	-92.2	17.0
2025-01-08 18:53:46.180553	256.3	48.1	-90.7	15.5
2025-01-08 18:53:47.340544	257.0	48.2	-91.5	19.1
2025-01-08 18:53:48.502287	257.7	48.2	-91.7	19.9
2025-01-08 18:53:49.666028	258.3	48.2	-92.0	20.8
2025-01-08 18:53:50.826126	259.0	48.2	-92.1	21.2
2025-01-08 18:53:51.993027	259.7	48.2	-92.1	20.0
2025-01-08 18:53:53.154755	260.4	48.2	-91.5	21.2
2025-01-08 18:53:54.310904	261.1	48.1	-91.9	21.9
2025-01-08 18:53:55.475931	261.8	48.1	-92.0	23.4
2025-01-08 18:53:56.604997	262.5	48.1	-92.0	21.9
2025-01-08 18:53:57.734654	263.1	48.1	-92.1	21.3
2025-01-08 18:53:58.896512	263.8	48.0	-91.9	20.6
2025-01-08 18:54:00.059647	264.5	48.0	-91.9	18.8
2025-01-08 18:54:01.203585	265.2	48.0	-91.8	16.8
2025-01-08 18:54:02.359948	265.8	47.9	-91.9	18.2
2025-01-08 18:54:03.517239	266.5	47.9	-92.0	16.7
2025-01-08 18:54:04.638089	267.2	47.8	-92.2	17.4
2025-01-08 18:54:05.758831	267.8	47.8	-92.0	12.3
2025-01-08 18:54:06.880018	268.5	47.7	-92.1	13.3
2025-01-08 18:54:08.000231	269.1	47.6	-92.4	16.3
2025-01-08 18:54:09.120315	269.7	47.6	-92.0	11.3
2025-01-08 18:54:10.241107	270.4	47.5	-91.8	9.1
2025-01-08 18:54:11.360902	271.0	47.4	-91.6	9.1
2025-01-08 18:54:12.493788	271.6	47.4	-91.9	12.8
2025-01-08 18:54:13.639668	272.3	47.3	-92.4	12.9
2025-01-08 18:54:14.800466	272.9	47.2	-91.3	4.2
2025-01-08 18:54:15.954870	273.6	47.1	-91.9	9.9
2025-01-08 18:54:17.129223	274.2	47.0	-91.4	13.5
2025-01-08 18:54:18.296095	274.9	46.9	-91.9	7.3
2025-01-08 18:54:19.458369	275.5	46.8	-91.8	10.3
2025-01-08 18:54:20.623610	276.1	46.7	-92.0	10.5
2025-01-08 18:54:21.789516	276.8	46.6	-92.0	4.8
2025-01-08 18:54:22.955714	277.4	46.5	-91.8	8.2
2025-01-08 18:54:24.120016	278.0	46.4	-91.8	12.3
2025-01-08 18:54:25.283752	278.6	46.3	-91.7	5.2
2025-01-08 18:54:26.448892	279.2	46.1	-91.9	8.3
2025-01-08 18:54:27.613775	279.8	46.0	-92.1	12.5
2025-01-08 18:54:28.771575	280.4	45.9	-92.1	7.2
2025-01-08 18:54:29.935193	281.0	45.8	-91.9	9.4
2025-01-08 18:54:31.099394	281.6	45.6	-91.6	9.5
2025-01-08 18:54:32.257314	282.2	45.5	-91.3	5.8
2025-01-08 18:54:33.421914	282.8	45.3	-91.6	8.9
2025-01-08 18:54:34.577534	283.3	45.2	-92.1	11.2
2025-01-08 18:54:35.741586	283.9	45.1	-90.8	6.8
2025-01-08 18:54:36.904784	284.5	44.9	-92.3	9.4
2025-01-08 18:54:38.071336	285.0	44.8	-91.8	10.1
2025-01-08 18:54:39.226142	285.6	44.6	-92.0	7.4
2025-01-08 18:54:40.387266	286.1	44.5	-91.9	8.0
2025-01-08 18:54:41.546267	286.7	44.3	-91.9	12.4
2025-01-08 18:54:42.707135	287.2	44.2	-91.8	8.6
2025-01-08 18:54:43.869926	287.7	44.0	-91.7	9.7
2025-01-08 18:54:45.033292	288.3	43.8	-91.6	11.8
2025-01-08 18:54:46.190434	288.8	43.7	-90.8	9.1
2025-01-08 18:54:47.349784	289.3	43.5	-91.1	9.4
2025-01-08 18:54:48.517507	289.8	43.3	-92.0	11.6
2025-01-08 18:54:49.681064	290.3	43.2	-91.9	14.3
2025-01-08 18:54:50.849592	290.8	43.0	-91.8	12.7
2025-01-08 18:54:52.013681	291.3	42.8	-91.9	14.7
2025-01-08 18:54:53.178191	291.8	42.6	-91.7	12.6
2025-01-08 18:54:54.337445	292.3	42.5	-92.0	13.0
2025-01-08 18:54:55.503357	292.8	42.3	-92.0	15.6
2025-01-08 18:54:56.667301	293.2	42.1	-91.9	16.6
2025-01-08 18:54:57.830995	293.7	41.9	-92.2	17.1
2025-01-08 18:54:58.992536	294.2	41.8	-91.6	17.8
2025-01-08 18:55:00.145675	294.6	41.6	-91.8	16.8
2025-01-08 18:55:01.298849	295.1	41.4	-91.8	17.4
2025-01-08 18:55:02.459400	295.5	41.2	-92.0	18.7
2025-01-08 18:55:03.619122	296.0	41.0	-92.1	16.7
2025-01-08 18:55:04.778531	296.4	40.8	-92.2	15.9
2025-01-08 18:55:05.943499	296.9	40.7	-92.3	15.4
2025-01-08 18:55:07.107389	297.3	40.5	-91.4	13.7
2025-01-08 18:55:08.272214	297.7	40.3	-92.0	15.5
2025-01-08 18:55:09.435733	298.1	40.1	-92.2	14.6
2025-01-08 18:55:10.599638	298.5	39.9	-91.9	17.6
2025-01-08 18:55:11.761904	299.0	39.7	-92.1	12.3
2025-01-08 18:55:12.925760	299.4	39.5	-92.1	12.8
2025-01-08 18:55:14.088971	299.8	39.3	-91.7	10.0
2025-01-08 18:55:15.249216	300.2	39.1	-91.8	8.4
2025-01-08 18:55:16.415133	300.5	39.0	-92.2	10.0
2025-01-08 18:55:17.571268	300.9	38.8	-92.0	10.5
2025-01-08 18:55:18.731185	301.3	38.6	-91.9	6.2
2025-01-08 18:55:19.894341	301.7	38.4	-92.3	6.5
2025-01-08 18:55:21.070321	302.1	38.2	-92.1	6.5
2025-01-08 18:55:22.230459	302.4	38.0	-92.1	5.2
2025-01-08 18:55:23.388971	302.8	37.8	-92.0	7.0
2025-01-08 18:55:24.545352	303.2	37.6	-92.2	6.8
2025-01-08 18:55:25.705766	303.5	37.4	-92.0	4.5
2025-01-08 18:55:26.873818	303.9	37.2	-92.1	7.1
2025-01-08 18:55:28.033793	304.2	37.0	-92.2	5.7
2025-01-08 18:55:29.200127	304.6	36.8	-92.0	6.3
2025-01-08 18:55:30.360598	304.9	36.6	-91.5	6.8
2025-01-08 18:55:31.522758	305.2	36.4	-92.7	8.8
2025-01-08 18:55:32.681642	305.6	36.3	-92.4	7.2
2025-01-08 18:55:33.845172	305.9	36.1	-92.3	4.9
2025-01-08 18:55:35.006608	306.2	35.9	-92.1	3.1
2025-01-08 18:55:36.167942	306.5	35.7	-91.7	4.5
2025-01-08 18:55:37.325917	306.9	35.5	-92.3	9.5
2025-01-08 18:55:38.489983	307.2	35.3	-92.2	9.9
2025-01-08 18:55:39.650684	307.5	35.1	-92.2	6.4
2025-01-08 18:55:40.814110	307.8	34.9	-92.4	2.0
2025-01-08 18:55:41.978159	308.1	34.7	-91.9	2.6
2025-01-08 18:55:43.141241	308.4	34.5	-91.7	3.1
2025-01-08 18:55:44.310607	308.7	34.3	-91.9	2.8
2025-01-08 18:55:45.469917	309.0	34.1	-91.1	4.9
2025-01-08 18:55:46.635077	309.3	34.0	-92.3	6.6
2025-01-08 18:55:47.795671	309.6	33.8	-92.3	2.4
2025-01-08 18:55:48.956769	309.8	33.6	-92.7	8.2
2025-01-08 18:55:50.124152	310.1	33.4	-92.2	5.3
2025-01-08 18:55:51.288496	310.4	33.2	-92.1	2.8
2025-01-08 18:55:52.450070	310.7	33.0	-92.1	3.6
2025-01-08 18:55:53.614817	310.9	32.8	-90.5	5.9
2025-01-08 18:55:54.775149	311.2	32.6	-91.6	4.1
2025-01-08 18:55:55.940483	311.5	32.4	-91.8	7.9
2025-01-08 18:55:57.102741	311.7	32.3	-92.1	8.3
2025-01-08 18:55:58.255546	312.0	32.1	-91.9	8.7
2025-01-08 18:55:59.407476	312.2	31.9	-91.8	11.7
2025-01-08 18:56:00.528189	312.5	31.7	-92.1	15.3
2025-01-08 18:56:01.649715	312.7	31.5	-91.6	13.7
2025-01-08 18:56:02.769324	313.0	31.4	-91.5	13.0
2025-01-08 18:56:03.889528	313.2	31.2	-90.5	8.4
2025-01-08 18:56:05.011169	313.4	31.0	-91.7	9.6
2025-01-08 18:56:06.132130	313.7	30.8	-91.3	6.6
2025-01-08 18:56:07.253084	313.9	30.7	-91.6	3.5
2025-01-08 18:56:08.373893	314.1	30.5	-91.9	7.3
2025-01-08 18:56:09.523278	314.4	30.3	-92.0	6.5
2025-01-08 18:56:10.685630	314.6	30.1	-91.3	3.1
2025-01-08 18:56:11.826545	314.8	29.9	-92.1	3.2
2025-01-08 18:56:12.978400	315.0	29.8	-91.9	6.4
2025-01-08 18:56:14.127109	315.3	29.6	-91.9	4.7
2025-01-08 18:56:15.286538	315.5	29.4	-91.8	3.5
2025-01-08 18:56:16.442348	315.7	29.2	-91.9	6.6
2025-01-08 18:56:17.607034	315.9	29.1	-92.0	5.8
2025-01-08 18:56:18.761679	316.1	28.9	-92.2	7.4
2025-01-08 18:56:19.923406	316.3	28.7	-92.0	9.6
2025-01-08 18:56:21.082741	316.5	28.5	-91.5	12.3
2025-01-08 18:56:22.240625	316.7	28.4	-91.8	7.8
2025-01-08 18:56:23.415152	316.9	28.2	-91.6	10.0
2025-01-08 18:56:24.572740	317.2	28.0	-92.0	7.8
2025-01-08 18:56:25.729212	317.3	27.9	-92.6	7.1
2025-01-08 18:56:26.907133	317.6	27.7	-92.4	8.2
2025-01-08 18:56:28.070478	317.7	27.5	-92.3	5.0
2025-01-08 18:56:29.234677	317.9	27.4	-92.0	4.1
2025-01-08 18:56:30.390480	318.1	27.2	-91.9	4.0
2025-01-08 18:56:31.554796	318.3	27.0	-92.1	4.4
2025-01-08 18:56:32.735394	318.5	26.8	-92.1	2.7
2025-01-08 18:56:33.890767	318.7	26.7	-92.1	5.1
2025-01-08 18:56:35.057986	318.9	26.5	-91.5	6.3
2025-01-08 18:56:36.228125	319.1	26.4	-91.9	5.1
2025-01-08 18:56:37.391690	319.3	26.2	-92.0	6.4
2025-01-08 18:56:38.557343	319.4	26.0	-92.1	12.3
2025-01-08 18:56:39.722244	319.6	25.9	-92.0	10.3
2025-01-08 18:56:40.877650	319.8	25.7	-91.9	12.1
2025-01-08 18:56:42.036038	320.0	25.5	-92.2	11.2
2025-01-08 18:56:43.184163	320.1	25.4	-92.0	8.4
2025-01-08 18:56:44.353279	320.3	25.2	-91.7	8.2
2025-01-08 18:56:45.507568	320.5	25.1	-91.7	8.0
2025-01-08 18:56:46.673467	320.6	24.9	-92.0	4.2
2025-01-08 18:56:47.836362	320.8	24.7	-92.1	3.3
2025-01-08 18:56:48.998681	321.0	24.6	-92.3	7.3
2025-01-08 18:56:50.156675	321.1	24.4	-91.2	4.0
2025-01-08 18:56:51.321755	321.3	24.3	-90.8	5.1
2025-01-08 18:56:52.479008	321.4	24.1	-92.0	6.0
2025-01-08 18:56:53.642872	321.6	24.0	-92.4	8.1
2025-01-08 18:56:54.802818	321.8	23.8	-92.0	8.9
2025-01-08 18:56:55.959238	321.9	23.7	-92.1	4.9
2025-01-08 18:56:57.123421	322.1	23.5	-91.8	7.9
2025-01-08 18:56:58.285628	322.2	23.4	-92.1	3.6
2025-01-08 18:56:59.448032	322.4	23.2	-92.1	2.0
2025-01-08 18:57:00.592051	322.5	23.1	-92.1	3.3
2025-01-08 18:57:01.751291	322.7	22.9	-92.3	2.2
2025-01-08 18:57:03.019839	322.8	22.8	-91.8	2.4
2025-01-08 18:57:04.184267	323.0	22.6	-91.3	2.0
2025-01-08 18:57:05.343202	323.1	22.5	-91.7	2.3
2025-01-08 18:57:06.512984	323.3	22.3	-91.7	1.5
2025-01-08 18:57:07.673757	323.4	22.2	-91.9	3.0
2025-01-08 18:57:08.838829	323.5	22.0	-92.0	4.2
2025-01-08 18:57:09.995793	323.7	21.9	-92.1	5.3
2025-01-08 18:57:11.157638	323.8	21.7	-91.8	3.3
2025-01-08 18:57:12.323939	324.0	21.6	-92.0	4.5
2025-01-08 18:57:13.491906	324.1	21.4	-92.1	3.8
2025-01-08 18:57:14.654756	324.2	21.3	-92.1	4.0
2025-01-08 18:57:15.821877	324.4	21.2	-92.3	1.9
2025-01-08 18:57:16.986780	324.5	21.0	-92.4	2.5
2025-01-08 18:57:18.155228	324.6	20.9	-92.2	2.9
2025-01-08 18:57:19.321306	324.7	20.7	-92.0	1.0
2025-01-08 18:57:20.482183	324.9	20.6	-92.2	3.4
2025-01-08 18:57:21.642124	325.0	20.5	-92.2	2.9
2025-01-08 18:57:22.801481	325.1	20.3	-92.2	1.7
2025-01-08 18:57:23.969281	325.3	20.2	-92.1	2.1
2025-01-08 18:57:25.125161	325.4	20.1	-92.2	1.4
2025-01-08 18:57:26.290601	325.5	19.9	-92.4	3.2
2025-01-08 18:57:27.454097	325.6	19.8	-92.3	2.4
2025-01-08 18:57:28.616707	325.7	19.6	-92.3	1.9
2025-01-08 18:57:29.780850	325.9	19.5	-92.3	1.5
2025-01-08 18:57:30.943345	326.0	19.4	-91.9	2.1
2025-01-08 18:57:32.106877	326.1	19.2	-91.9	0.1
2025-01-08 18:57:33.265750	326.2	19.1	-92.1	1.7
2025-01-08 18:57:34.427657	326.3	19.0	-91.8	1.0
2025-01-08 18:57:35.589517	326.4	18.9	-91.7	2.0
2025-01-08 18:57:36.752895	326.6	18.7	-92.2	1.9
2025-01-08 18:57:37.918841	326.7	18.6	-92.2	1.4
2025-01-08 18:57:39.084240	326.8	18.5	-91.7	0.8
2025-01-08 18:57:40.245915	326.9	18.3	-91.1	2.5
2025-01-08 18:57:41.414254	327.0	18.2	-92.2	2.7
2025-01-08 18:57:42.570535	327.1	18.1	-92.5	2.7
2025-01-08 18:57:43.734697	327.2	18.0	-92.2	1.7
2025-01-08 18:57:44.899291	327.3	17.8	-92.0	1.3
2025-01-08 18:57:46.057015	327.4	17.7	-92.2	2.5
2025-01-08 18:57:47.221340	327.6	17.6	-92.0	3.0
2025-01-08 18:57:48.380885	327.7	17.5	-92.0	1.2
2025-01-08 18:57:49.546835	327.8	17.3	-92.0	1.4
2025-01-08 18:57:50.716100	327.9	17.2	-92.1	0.8
2025-01-08 18:57:51.876068	328.0	17.1	-92.3	0.8
2025-01-08 18:57:53.039146	328.1	17.0	-92.3	2.3
2025-01-08 18:57:54.204449	328.2	16.8	-92.2	2.1
2025-01-08 18:57:55.365558	328.3	16.7	-92.1	3.3
2025-01-08 18:57:56.528395	328.4	16.6	-92.4	5.3
2025-01-08 18:57:57.689529	328.5	16.5	-92.1	4.8
2025-01-08 18:57:58.855339	328.6	16.4	-92.2	6.6
2025-01-08 18:58:00.018480	328.7	16.2	-92.1	5.3
2025-01-08 18:58:01.165515	328.8	16.1	-92.0	6.4
2025-01-08 18:58:02.329662	328.9	16.0	-92.0	4.9
2025-01-08 18:58:03.487008	329.0	15.9	-92.0	2.4
2025-01-08 18:58:04.651908	329.1	15.8	-92.1	4.4
2025-01-08 18:58:05.811175	329.1	15.6	-91.8	1.4
2025-01-08 18:58:06.975118	329.2	15.5	-92.1	2.2
2025-01-08 18:58:08.138774	329.3	15.4	-92.3	1.9
2025-01-08 18:58:09.296033	329.4	15.3	-91.9	1.8
2025-01-08 18:58:10.462314	329.5	15.2	-92.3	0.9
2025-01-08 18:58:11.625339	329.6	15.1	-92.3	3.0
2025-01-08 18:58:12.787810	329.7	15.0	-91.8	5.1
2025-01-08 18:58:13.947708	329.8	14.8	-92.5	6.7
2025-01-08 18:58:15.109136	329.9	14.7	-91.8	4.5
2025-01-08 18:58:16.259271	330.0	14.6	-92.2	2.8
2025-01-08 18:58:17.425892	330.1	14.5	-92.0	5.0
#Closed at: 2025-01-08 18:49:33.943683