passes_logs/2025/01/08/LEX_Murmansk/LEX_Murmansk__20250108_073536_NOAA_18_rec.log

#Pass ID: 20250108_073536_NOAA 18
#Satellite: NOAA 18
#Configuration: NOAA 18
#Start time: 2025-01-08 07:35:31.897717

#LorettStation: 1.0.0 05.05.2024
#Station: LEX_Murmansk
#Location: 33.156738 lon 68.926811 lat
#TLE: 1 28654U 05018A   25007.80096224  .00000414  00000+0  24332-3 0  9999
#TLE: 2 28654  98.8579  88.9263 0014020 199.4461 160.6178 14.13480585 12168

#Time	Az	El	Level	SNR
2025-01-08 07:35:44.163525	44.3	15.8	-90.7	4.4
2025-01-08 07:35:45.326022	44.5	15.8	-90.6	6.6
2025-01-08 07:35:46.482789	44.7	15.9	-91.0	8.1
2025-01-08 07:35:47.643537	44.9	16.0	-91.0	5.7
2025-01-08 07:35:48.801620	45.1	16.1	-90.9	7.4
2025-01-08 07:35:49.966499	45.3	16.1	-90.0	6.2
2025-01-08 07:35:51.120707	45.5	16.2	-91.0	6.6
2025-01-08 07:35:52.285403	45.7	16.3	-91.0	4.4
2025-01-08 07:35:53.445835	45.9	16.3	-91.1	4.8
2025-01-08 07:35:54.604627	46.2	16.4	-91.3	7.5
2025-01-08 07:35:55.759978	46.4	16.5	-91.6	5.2
2025-01-08 07:35:56.923257	46.6	16.6	-91.5	8.7
2025-01-08 07:35:58.092341	46.8	16.6	-91.5	7.2
2025-01-08 07:35:59.252552	47.0	16.7	-91.2	7.5
2025-01-08 07:36:00.405811	47.2	16.8	-91.3	10.4
2025-01-08 07:36:01.557050	47.4	16.8	-91.4	8.7
2025-01-08 07:36:02.715266	47.6	16.9	-91.1	9.4
2025-01-08 07:36:03.871376	47.9	17.0	-91.2	6.2
2025-01-08 07:36:05.044135	48.1	17.0	-91.1	8.5
2025-01-08 07:36:06.200736	48.3	17.1	-90.9	9.1
2025-01-08 07:36:07.365175	48.5	17.2	-91.1	7.5
2025-01-08 07:36:08.522303	48.7	17.2	-91.6	8.4
2025-01-08 07:36:09.684929	49.0	17.3	-92.3	10.9
2025-01-08 07:36:10.845968	49.2	17.4	-92.7	11.8
2025-01-08 07:36:12.003876	49.4	17.5	-92.8	10.0
2025-01-08 07:36:13.160555	49.6	17.5	-92.1	13.1
2025-01-08 07:36:14.326147	49.9	17.6	-90.8	11.7
2025-01-08 07:36:15.481913	50.1	17.7	-91.5	10.2
2025-01-08 07:36:16.647855	50.3	17.7	-91.4	9.0
2025-01-08 07:36:17.810316	50.5	17.8	-91.4	11.4
2025-01-08 07:36:18.980540	50.8	17.9	-91.2	9.9
2025-01-08 07:36:20.145360	51.0	17.9	-90.8	11.8
2025-01-08 07:36:21.303527	51.2	18.0	-91.1	9.2
2025-01-08 07:36:22.465302	51.5	18.1	-91.7	12.9
2025-01-08 07:36:23.626739	51.7	18.1	-91.2	11.2
2025-01-08 07:36:24.789818	51.9	18.2	-91.2	13.6
2025-01-08 07:36:25.947671	52.2	18.2	-92.6	14.1
2025-01-08 07:36:27.097224	52.4	18.3	-91.9	12.5
2025-01-08 07:36:28.253758	52.6	18.4	-91.6	11.6
2025-01-08 07:36:29.387063	52.9	18.4	-92.3	15.6
2025-01-08 07:36:30.551164	53.1	18.5	-92.4	14.4
2025-01-08 07:36:31.714594	53.4	18.6	-92.6	16.4
2025-01-08 07:36:32.878570	53.6	18.6	-92.3	15.4
2025-01-08 07:36:34.040906	53.8	18.7	-92.0	11.6
2025-01-08 07:36:35.196960	54.1	18.8	-91.3	12.4
2025-01-08 07:36:36.352805	54.3	18.8	-92.1	13.3
2025-01-08 07:36:37.514080	54.6	18.9	-92.1	8.8
2025-01-08 07:36:38.673369	54.8	18.9	-92.3	13.6
2025-01-08 07:36:39.840171	55.1	19.0	-92.4	16.7
2025-01-08 07:36:41.002143	55.3	19.1	-92.7	14.5
2025-01-08 07:36:42.162251	55.6	19.1	-91.9	15.3
2025-01-08 07:36:43.320259	55.8	19.2	-91.9	12.8
2025-01-08 07:36:44.480358	56.1	19.2	-92.5	10.8
2025-01-08 07:36:45.638429	56.3	19.3	-92.6	12.2
2025-01-08 07:36:46.798030	56.6	19.4	-92.2	15.1
2025-01-08 07:36:47.958232	56.8	19.4	-92.4	13.4
2025-01-08 07:36:49.117339	57.1	19.5	-91.8	12.0
2025-01-08 07:36:50.282668	57.3	19.5	-91.4	14.6
2025-01-08 07:36:51.444010	57.6	19.6	-92.0	13.0
2025-01-08 07:36:52.605618	57.8	19.6	-91.6	12.5
2025-01-08 07:36:53.769669	58.1	19.7	-91.4	13.7
2025-01-08 07:36:54.926122	58.4	19.8	-91.5	11.9
2025-01-08 07:36:56.086039	58.6	19.8	-90.7	12.7
2025-01-08 07:36:57.248184	58.9	19.9	-90.6	13.1
2025-01-08 07:36:58.405724	59.2	19.9	-90.7	14.4
2025-01-08 07:36:59.569649	59.4	20.0	-90.6	14.8
2025-01-08 07:37:00.716492	59.7	20.0	-90.0	12.5
2025-01-08 07:37:01.869576	59.9	20.1	-91.0	14.7
2025-01-08 07:37:03.024262	60.2	20.1	-90.8	10.5
2025-01-08 07:37:04.183464	60.5	20.2	-90.4	13.5
2025-01-08 07:37:05.338533	60.7	20.2	-91.9	14.3
2025-01-08 07:37:06.482075	61.0	20.3	-92.6	11.6
2025-01-08 07:37:07.605735	61.3	20.3	-91.3	10.4
2025-01-08 07:37:08.725875	61.5	20.4	-91.4	15.6
2025-01-08 07:37:09.846807	61.8	20.4	-91.1	14.8
2025-01-08 07:37:10.968162	62.0	20.5	-91.1	13.6
2025-01-08 07:37:12.088305	62.3	20.5	-90.8	12.4
2025-01-08 07:37:13.210139	62.6	20.6	-90.9	14.5
2025-01-08 07:37:14.331299	62.8	20.6	-90.6	14.0
2025-01-08 07:37:15.458709	63.1	20.7	-90.8	12.7
2025-01-08 07:37:16.595239	63.4	20.7	-90.9	14.3
2025-01-08 07:37:17.755024	63.7	20.7	-90.8	17.6
2025-01-08 07:37:18.907387	63.9	20.8	-90.3	15.9
2025-01-08 07:37:20.069073	64.2	20.8	-90.2	14.8
2025-01-08 07:37:21.224110	64.5	20.9	-90.2	15.7
2025-01-08 07:37:22.381669	64.8	20.9	-90.9	15.7
2025-01-08 07:37:23.537263	65.0	21.0	-90.5	12.4
2025-01-08 07:37:24.691350	65.3	21.0	-90.7	12.9
2025-01-08 07:37:25.847971	65.6	21.0	-91.2	16.0
2025-01-08 07:37:27.007671	65.9	21.1	-90.9	13.3
2025-01-08 07:37:28.161565	66.2	21.1	-90.7	15.7
2025-01-08 07:37:29.311930	66.4	21.2	-90.0	16.0
2025-01-08 07:37:30.439095	66.7	21.2	-91.1	15.9
2025-01-08 07:37:31.578543	67.0	21.2	-90.9	15.0
2025-01-08 07:37:32.723304	67.3	21.3	-91.0	14.7
2025-01-08 07:37:33.873946	67.6	21.3	-90.9	16.1
2025-01-08 07:37:35.029299	67.9	21.4	-91.3	17.4
2025-01-08 07:37:36.175892	68.1	21.4	-90.7	16.6
2025-01-08 07:37:37.331565	68.4	21.4	-89.9	16.5
2025-01-08 07:37:38.479472	68.7	21.5	-90.7	15.0
2025-01-08 07:37:39.632774	69.0	21.5	-91.4	15.6
2025-01-08 07:37:40.771307	69.3	21.5	-91.0	14.9
2025-01-08 07:37:41.905282	69.6	21.6	-91.0	13.4
2025-01-08 07:37:43.052027	69.9	21.6	-91.0	11.4
2025-01-08 07:37:44.197440	70.2	21.6	-91.6	16.6
2025-01-08 07:37:45.349807	70.4	21.6	-92.0	13.9
2025-01-08 07:37:46.496696	70.7	21.7	-92.0	12.5
2025-01-08 07:37:47.655766	71.0	21.7	-91.8	13.0
2025-01-08 07:37:48.810795	71.3	21.7	-92.4	16.6
2025-01-08 07:37:49.968989	71.6	21.8	-92.2	13.8
2025-01-08 07:37:51.130756	71.9	21.8	-91.8	11.0
2025-01-08 07:37:52.294643	72.2	21.8	-91.2	14.1
2025-01-08 07:37:53.450754	72.5	21.8	-91.8	12.8
2025-01-08 07:37:54.608110	72.8	21.9	-92.3	16.0
2025-01-08 07:37:55.764273	73.1	21.9	-90.8	14.3
2025-01-08 07:37:56.924279	73.4	21.9	-90.5	15.2
2025-01-08 07:37:58.086369	73.7	21.9	-90.6	13.4
2025-01-08 07:37:59.249366	74.0	21.9	-90.6	12.6
2025-01-08 07:38:00.396279	74.3	22.0	-90.9	12.6
2025-01-08 07:38:01.554570	74.6	22.0	-91.3	12.2
2025-01-08 07:38:02.710039	74.9	22.0	-91.0	14.4
2025-01-08 07:38:03.868718	75.2	22.0	-91.0	14.7
2025-01-08 07:38:05.028222	75.5	22.0	-91.4	14.0
2025-01-08 07:38:06.184202	75.8	22.1	-91.0	10.8
2025-01-08 07:38:07.343641	76.1	22.1	-90.9	14.0
2025-01-08 07:38:08.504375	76.4	22.1	-91.3	9.7
2025-01-08 07:38:09.658811	76.7	22.1	-91.0	11.0
2025-01-08 07:38:10.828483	77.0	22.1	-91.0	12.0
2025-01-08 07:38:11.993949	77.3	22.1	-91.4	10.7
2025-01-08 07:38:13.158731	77.6	22.1	-90.5	9.8
2025-01-08 07:38:14.316006	77.9	22.1	-90.3	10.7
2025-01-08 07:38:15.479648	78.2	22.2	-90.7	9.1
2025-01-08 07:38:16.642358	78.5	22.2	-91.5	9.6
2025-01-08 07:38:17.805063	78.8	22.2	-91.5	11.4
2025-01-08 07:38:18.968737	79.1	22.2	-91.8	12.4
2025-01-08 07:38:20.121656	79.4	22.2	-91.3	9.6
2025-01-08 07:38:21.279496	79.7	22.2	-91.0	12.6
2025-01-08 07:38:22.441152	80.0	22.2	-90.9	11.7
2025-01-08 07:38:23.605254	80.3	22.2	-91.7	12.5
2025-01-08 07:38:24.758356	80.6	22.2	-91.6	10.0
2025-01-08 07:38:25.904684	80.9	22.2	-91.5	11.9
2025-01-08 07:38:27.025937	81.2	22.2	-91.3	12.0
2025-01-08 07:38:28.150508	81.5	22.2	-91.0	9.2
2025-01-08 07:38:29.270388	81.8	22.2	-90.9	10.2
2025-01-08 07:38:30.390937	82.1	22.2	-91.3	6.8
2025-01-08 07:38:31.511875	82.4	22.2	-91.7	7.1
2025-01-08 07:38:32.632011	82.7	22.2	-91.5	6.8
2025-01-08 07:38:33.752571	83.0	22.2	-92.3	7.2
2025-01-08 07:38:34.874915	83.3	22.2	-92.5	8.1
2025-01-08 07:38:36.021228	83.6	22.2	-92.8	7.3
2025-01-08 07:38:37.169944	83.9	22.2	-92.6	7.2
2025-01-08 07:38:38.292651	84.2	22.2	-92.7	11.3
2025-01-08 07:38:39.446332	84.5	22.2	-93.2	10.6
2025-01-08 07:38:40.584550	84.8	22.2	-92.5	7.6
2025-01-08 07:38:41.741031	85.1	22.2	-92.8	11.6
2025-01-08 07:38:42.883005	85.4	22.2	-93.1	11.8
2025-01-08 07:38:44.025048	85.7	22.1	-92.7	8.9
2025-01-08 07:38:45.170714	86.0	22.1	-90.7	7.7
2025-01-08 07:38:46.328064	86.3	22.1	-91.6	9.8
2025-01-08 07:38:47.487962	86.6	22.1	-92.1	8.0
2025-01-08 07:38:48.649472	86.9	22.1	-91.8	9.8
2025-01-08 07:38:49.788377	87.2	22.1	-91.7	13.3
2025-01-08 07:38:50.932819	87.5	22.1	-92.1	8.8
2025-01-08 07:38:52.087184	87.8	22.1	-92.0	8.2
2025-01-08 07:38:53.240676	88.1	22.0	-92.5	9.9
2025-01-08 07:38:54.396634	88.4	22.0	-92.7	11.3
2025-01-08 07:38:55.553093	88.7	22.0	-93.0	7.8
2025-01-08 07:38:56.711750	89.0	22.0	-91.9	11.5
2025-01-08 07:38:57.869530	89.3	22.0	-91.7	12.0
2025-01-08 07:38:59.028605	89.6	21.9	-91.2	9.5
2025-01-08 07:39:00.186287	89.9	21.9	-91.3	7.6
2025-01-08 07:39:01.335488	90.2	21.9	-91.6	10.5
2025-01-08 07:39:02.498349	90.5	21.9	-91.5	6.8
2025-01-08 07:39:03.656076	90.8	21.9	-91.7	7.7
2025-01-08 07:39:04.805826	91.1	21.8	-91.4	9.1
2025-01-08 07:39:05.959428	91.4	21.8	-91.9	8.3
2025-01-08 07:39:07.119700	91.7	21.8	-91.4	9.9
2025-01-08 07:39:08.268250	92.0	21.8	-91.1	7.7
2025-01-08 07:39:09.417581	92.2	21.7	-91.9	11.0
2025-01-08 07:39:10.548186	92.5	21.7	-91.5	11.1
2025-01-08 07:39:11.704352	92.8	21.7	-91.2	8.8
2025-01-08 07:39:12.836000	93.1	21.6	-91.5	10.9
2025-01-08 07:39:13.988331	93.4	21.6	-91.3	9.7
2025-01-08 07:39:15.137367	93.7	21.6	-91.0	8.5
2025-01-08 07:39:16.298470	94.0	21.5	-90.9	8.5
2025-01-08 07:39:17.449364	94.3	21.5	-91.1	7.1
2025-01-08 07:39:18.608368	94.6	21.5	-91.4	7.7
2025-01-08 07:39:19.765005	94.9	21.5	-92.9	8.2
2025-01-08 07:39:20.919183	95.2	21.4	-92.9	8.6
2025-01-08 07:39:22.074845	95.4	21.4	-92.4	9.7
2025-01-08 07:39:23.231490	95.7	21.3	-92.2	9.6
2025-01-08 07:39:24.390196	96.0	21.3	-92.9	11.9
2025-01-08 07:39:25.539677	96.3	21.3	-92.6	10.3
2025-01-08 07:39:26.681194	96.6	21.2	-92.3	11.4
2025-01-08 07:39:27.815870	96.9	21.2	-92.6	11.2
2025-01-08 07:39:28.963971	97.1	21.2	-92.5	11.5
2025-01-08 07:39:30.103374	97.4	21.1	-92.6	11.8
2025-01-08 07:39:31.248717	97.7	21.1	-91.9	10.8
2025-01-08 07:39:32.403474	98.0	21.0	-91.6	9.1
2025-01-08 07:39:33.556588	98.3	21.0	-91.2	11.2
2025-01-08 07:39:34.712275	98.6	21.0	-91.6	13.2
2025-01-08 07:39:35.872387	98.8	20.9	-91.8	14.6
2025-01-08 07:39:37.027309	99.1	20.9	-92.0	14.7
2025-01-08 07:39:38.187959	99.4	20.8	-91.6	13.6
2025-01-08 07:39:39.339902	99.7	20.8	-91.5	14.5
2025-01-08 07:39:40.499026	100.0	20.7	-91.4	10.7
2025-01-08 07:39:41.656969	100.2	20.7	-92.3	15.2
2025-01-08 07:39:42.816494	100.5	20.6	-92.1	14.0
2025-01-08 07:39:43.938129	100.8	20.6	-93.1	15.5
2025-01-08 07:39:45.061522	101.0	20.6	-92.6	14.7
2025-01-08 07:39:46.218070	101.3	20.5	-92.5	14.5
2025-01-08 07:39:47.379797	101.6	20.5	-92.7	14.9
2025-01-08 07:39:48.543838	101.9	20.4	-93.1	15.7
2025-01-08 07:39:49.698080	102.1	20.4	-93.1	15.5
2025-01-08 07:39:50.860604	102.4	20.3	-92.9	17.7
2025-01-08 07:39:52.016675	102.7	20.3	-93.2	16.2
2025-01-08 07:39:53.180064	102.9	20.2	-92.3	17.7
2025-01-08 07:39:54.338742	103.2	20.2	-92.4	18.5
2025-01-08 07:39:55.495367	103.5	20.1	-92.8	18.3
2025-01-08 07:39:56.649537	103.7	20.1	-93.2	18.6
2025-01-08 07:39:57.808881	104.0	20.0	-93.2	19.8
2025-01-08 07:39:58.969690	104.3	19.9	-92.9	15.3
2025-01-08 07:40:00.122119	104.5	19.9	-92.3	16.1
2025-01-08 07:40:01.272368	104.8	19.8	-92.4	18.1
2025-01-08 07:40:02.429711	105.1	19.8	-92.7	17.9
2025-01-08 07:40:03.594609	105.3	19.7	-92.4	15.5
2025-01-08 07:40:04.756613	105.6	19.7	-92.9	16.7
2025-01-08 07:40:05.910649	105.8	19.6	-92.7	15.2
2025-01-08 07:40:07.068550	106.1	19.6	-92.2	13.4
2025-01-08 07:40:08.232312	106.4	19.5	-92.0	16.2
2025-01-08 07:40:09.396843	106.6	19.4	-92.5	17.2
2025-01-08 07:40:10.556934	106.9	19.4	-92.9	11.6
2025-01-08 07:40:11.713009	107.1	19.3	-93.1	13.9
2025-01-08 07:40:12.873652	107.4	19.3	-90.9	12.4
2025-01-08 07:40:14.033802	107.6	19.2	-91.3	9.0
2025-01-08 07:40:15.193162	107.9	19.1	-92.5	12.9
2025-01-08 07:40:16.350453	108.1	19.1	-92.6	13.1
2025-01-08 07:40:17.509525	108.4	19.0	-92.5	10.0
2025-01-08 07:40:18.667061	108.6	19.0	-92.6	10.9
2025-01-08 07:40:19.828284	108.9	18.9	-93.0	12.3
2025-01-08 07:40:20.990316	109.1	18.8	-93.0	8.5
2025-01-08 07:40:22.143852	109.4	18.8	-92.4	6.8
2025-01-08 07:40:23.297485	109.6	18.7	-92.7	12.5
2025-01-08 07:40:24.456893	109.9	18.6	-91.7	7.7
2025-01-08 07:40:25.620657	110.1	18.6	-91.6	8.3
2025-01-08 07:40:26.781941	110.4	18.5	-91.7	12.2
2025-01-08 07:40:27.943051	110.6	18.5	-91.7	5.6
2025-01-08 07:40:29.103196	110.8	18.4	-91.5	6.7
2025-01-08 07:40:30.261559	111.1	18.3	-91.7	12.0
2025-01-08 07:40:31.418250	111.3	18.3	-90.5	8.6
2025-01-08 07:40:32.565895	111.6	18.2	-91.9	11.1
2025-01-08 07:40:33.731662	111.8	18.1	-91.9	13.7
2025-01-08 07:40:34.886906	112.0	18.1	-91.9	12.7
2025-01-08 07:40:36.051459	112.3	18.0	-92.4	9.6
2025-01-08 07:40:37.207836	112.5	17.9	-92.2	10.6
2025-01-08 07:40:38.370801	112.7	17.9	-92.4	10.9
2025-01-08 07:40:39.529260	113.0	17.8	-92.7	8.3
2025-01-08 07:40:40.692461	113.2	17.7	-92.7	11.2
2025-01-08 07:40:41.848237	113.4	17.7	-92.7	10.3
2025-01-08 07:40:43.013808	113.6	17.6	-92.9	12.3
2025-01-08 07:40:44.186655	113.9	17.5	-92.4	11.5
2025-01-08 07:40:45.343997	114.1	17.5	-92.4	13.7
2025-01-08 07:40:46.498043	114.3	17.4	-92.9	13.8
2025-01-08 07:40:47.657291	114.6	17.3	-92.7	15.7
2025-01-08 07:40:48.815299	114.8	17.3	-93.0	13.9
2025-01-08 07:40:49.965523	115.0	17.2	-92.8	13.4
2025-01-08 07:40:51.118951	115.2	17.1	-92.3	12.1
2025-01-08 07:40:52.289231	115.4	17.0	-92.2	13.9
2025-01-08 07:40:53.447893	115.7	17.0	-92.8	11.1
2025-01-08 07:40:54.606014	115.9	16.9	-93.0	13.9
2025-01-08 07:40:55.760490	116.1	16.8	-92.7	14.0
2025-01-08 07:40:56.921097	116.3	16.8	-92.8	11.6
2025-01-08 07:40:58.082510	116.5	16.7	-92.8	9.7
2025-01-08 07:40:59.240831	116.7	16.6	-90.6	12.8
2025-01-08 07:41:00.389320	117.0	16.6	-92.4	12.6
2025-01-08 07:41:01.553454	117.2	16.5	-92.9	9.3
2025-01-08 07:41:02.726823	117.4	16.4	-92.9	13.4
2025-01-08 07:41:03.882430	117.6	16.3	-92.9	8.9
2025-01-08 07:41:05.046416	117.8	16.3	-92.9	8.3
2025-01-08 07:41:06.201773	118.0	16.2	-92.3	10.8
2025-01-08 07:41:07.356816	118.2	16.1	-92.5	10.3
2025-01-08 07:41:08.516311	118.4	16.1	-93.0	8.4
2025-01-08 07:41:09.667101	118.6	16.0	-91.6	11.4
2025-01-08 07:41:10.825305	118.8	15.9	-92.6	13.5
2025-01-08 07:41:11.988542	119.0	15.8	-92.5	7.9
2025-01-08 07:41:13.145785	119.3	15.8	-92.5	9.2
2025-01-08 07:41:14.303024	119.5	15.7	-91.9	10.6
2025-01-08 07:41:15.464190	119.7	15.6	-92.1	8.4
2025-01-08 07:41:16.615904	119.9	15.5	-92.2	11.3
2025-01-08 07:41:17.764203	120.1	15.5	-92.4	13.6
2025-01-08 07:41:18.887274	120.2	15.4	-92.8	11.1
2025-01-08 07:41:20.008726	120.4	15.3	-92.7	8.8
2025-01-08 07:41:21.131774	120.6	15.3	-92.2	9.5
2025-01-08 07:41:22.252347	120.8	15.2	-91.8	8.8
2025-01-08 07:41:23.372286	121.0	15.1	-92.6	11.1
2025-01-08 07:41:24.493409	121.2	15.0	-92.7	11.5
2025-01-08 07:41:25.613291	121.4	15.0	-92.5	10.3
2025-01-08 07:41:26.735552	121.6	14.9	-92.7	10.6
2025-01-08 07:41:27.882936	121.8	14.8	-92.9	7.1
2025-01-08 07:41:29.044175	122.0	14.8	-92.7	8.0
2025-01-08 07:41:30.194254	122.1	14.7	-92.9	4.3
#Closed at: 2025-01-08 07:35:36.953571