passes_logs/2025/01/08/LEX_Murmansk/LEX_Murmansk__20250108_191539_NOAA_18_rec.log

#Pass ID: 20250108_191539_NOAA 18
#Satellite: NOAA 18
#Configuration: NOAA 18
#Start time: 2025-01-08 19:15:34.903745

#LorettStation: 1.0.0 05.05.2024
#Station: LEX_Murmansk
#Location: 33.156738 lon 68.926811 lat
#TLE: 1 28654U 05018A   25007.80096224  .00000414  00000+0  24332-3 0  9999
#TLE: 2 28654  98.8579  88.9263 0014020 199.4461 160.6178 14.13480585 12168

#Time	Az	El	Level	SNR
2025-01-08 19:15:47.076377	164.2	16.3	-91.5	9.4
2025-01-08 19:15:49.371215	164.2	16.6	-91.8	8.4
2025-01-08 19:15:51.676077	164.3	16.8	-92.0	7.8
2025-01-08 19:15:53.991428	164.4	17.1	-92.1	9.0
2025-01-08 19:15:56.316968	164.4	17.3	-91.2	6.3
2025-01-08 19:15:58.651847	164.5	17.6	-92.1	7.6
2025-01-08 19:16:00.958002	164.6	17.9	-92.2	7.9
2025-01-08 19:16:03.285271	164.7	18.1	-92.0	7.7
2025-01-08 19:16:05.613047	164.7	18.4	-89.5	5.5
2025-01-08 19:16:07.939517	164.8	18.7	-91.6	9.0
2025-01-08 19:16:10.261223	164.9	19.0	-91.8	7.3
2025-01-08 19:16:12.588507	165.0	19.3	-92.4	7.6
2025-01-08 19:16:14.920277	165.0	19.6	-89.6	7.0
2025-01-08 19:16:17.245191	165.1	19.8	-92.0	5.9
2025-01-08 19:16:19.572990	165.2	20.1	-92.3	5.3
2025-01-08 19:16:21.907068	165.3	20.4	-92.2	5.3
2025-01-08 19:16:24.232002	165.4	20.7	-92.1	8.6
2025-01-08 19:16:26.569667	165.5	21.0	-92.4	11.1
2025-01-08 19:16:28.897231	165.6	21.4	-92.2	9.4
2025-01-08 19:16:31.219832	165.6	21.7	-91.6	10.8
2025-01-08 19:16:33.520385	165.7	22.0	-92.3	8.3
2025-01-08 19:16:35.767166	165.8	22.3	-92.5	11.2
2025-01-08 19:16:38.008807	165.9	22.6	-92.2	6.5
2025-01-08 19:16:40.252108	166.0	22.9	-91.8	11.1
2025-01-08 19:16:42.501240	166.1	23.2	-92.3	11.0
2025-01-08 19:16:44.816885	166.2	23.6	-92.4	11.6
2025-01-08 19:16:47.125445	166.3	23.9	-92.0	12.1
2025-01-08 19:16:49.402429	166.4	24.3	-92.7	11.4
2025-01-08 19:16:51.701042	166.5	24.6	-92.6	11.8
2025-01-08 19:16:54.011717	166.6	24.9	-92.1	6.4
2025-01-08 19:16:56.284620	166.8	25.3	-92.0	11.4
2025-01-08 19:16:58.586871	166.9	25.7	-92.6	12.1
2025-01-08 19:17:00.890558	167.0	26.0	-92.4	10.5
2025-01-08 19:17:03.204741	167.1	26.4	-92.0	7.3
2025-01-08 19:17:05.521198	167.2	26.8	-92.5	6.9
2025-01-08 19:17:07.850197	167.3	27.1	-92.2	7.3
2025-01-08 19:17:10.169914	167.5	27.5	-92.1	6.2
2025-01-08 19:17:12.490599	167.6	27.9	-92.5	7.8
2025-01-08 19:17:14.815955	167.7	28.3	-92.4	12.3
2025-01-08 19:17:17.094693	167.9	28.7	-92.3	10.1
2025-01-08 19:17:19.389337	168.0	29.1	-92.5	9.8
2025-01-08 19:17:21.692309	168.2	29.5	-92.2	9.5
2025-01-08 19:17:24.004471	168.3	30.0	-92.2	6.8
2025-01-08 19:17:26.333574	168.5	30.4	-91.2	6.5
2025-01-08 19:17:28.640473	168.6	30.8	-92.0	8.4
2025-01-08 19:17:30.920737	168.8	31.2	-91.8	11.0
2025-01-08 19:17:33.214522	168.9	31.7	-91.2	12.6
2025-01-08 19:17:35.490632	169.1	32.1	-91.6	10.9
2025-01-08 19:17:37.789481	169.3	32.6	-91.5	13.0
2025-01-08 19:17:40.086593	169.4	33.0	-91.5	12.2
2025-01-08 19:17:42.399998	169.6	33.5	-91.7	10.1
2025-01-08 19:17:44.719880	169.8	34.0	-91.7	11.9
2025-01-08 19:17:47.053964	170.0	34.5	-91.7	11.1
2025-01-08 19:17:49.373384	170.2	35.0	-91.1	13.2
2025-01-08 19:17:51.696341	170.4	35.5	-91.3	15.7
2025-01-08 19:17:54.024765	170.6	36.0	-91.8	9.0
2025-01-08 19:17:56.349916	170.8	36.5	-91.2	16.5
2025-01-08 19:17:58.674657	171.0	37.0	-91.5	11.8
2025-01-08 19:18:00.975763	171.2	37.5	-91.5	6.7
2025-01-08 19:18:03.307023	171.5	38.1	-90.1	13.6
2025-01-08 19:18:05.631740	171.7	38.6	-87.8	8.2
2025-01-08 19:18:07.945015	172.0	39.2	-90.4	14.8
2025-01-08 19:18:10.244690	172.2	39.7	-91.1	15.4
2025-01-08 19:18:12.487811	172.5	40.3	-91.4	9.5
2025-01-08 19:18:14.731122	172.7	40.9	-89.1	13.0
2025-01-08 19:18:16.972198	173.0	41.4	-92.0	12.9
2025-01-08 19:18:19.216812	173.3	42.0	-91.7	15.4
2025-01-08 19:18:21.519431	173.6	42.6	-92.1	6.3
2025-01-08 19:18:23.836962	173.9	43.2	-92.4	19.8
2025-01-08 19:18:26.164593	174.3	43.8	-91.8	16.6
2025-01-08 19:18:28.497962	174.6	44.5	-92.0	16.7
2025-01-08 19:18:30.817768	175.0	45.1	-91.9	16.8
2025-01-08 19:18:33.142092	175.3	45.8	-91.7	14.4
2025-01-08 19:18:35.467255	175.7	46.4	-92.0	18.5
2025-01-08 19:18:37.793964	176.1	47.1	-92.0	17.6
2025-01-08 19:18:40.126017	176.5	47.8	-91.8	9.0
2025-01-08 19:18:42.450689	177.0	48.5	-91.6	6.7
2025-01-08 19:18:44.778922	177.4	49.2	-91.5	15.5
2025-01-08 19:18:47.099365	177.9	49.9	-91.8	17.1
2025-01-08 19:18:49.423313	178.4	50.6	-92.0	14.9
2025-01-08 19:18:51.760306	178.9	51.3	-91.5	13.6
2025-01-08 19:18:54.084411	179.5	52.1	-91.5	13.4
2025-01-08 19:18:56.408011	180.1	52.8	-92.3	10.5
2025-01-08 19:18:58.729041	180.7	53.6	-92.4	12.0
2025-01-08 19:19:01.036412	181.3	54.3	-91.8	11.0
2025-01-08 19:19:03.367603	182.0	55.1	-92.2	13.3
2025-01-08 19:19:05.692765	182.7	55.8	-92.6	7.8
2025-01-08 19:19:08.017274	183.4	56.6	-92.2	7.2
2025-01-08 19:19:10.339146	184.2	57.4	-91.9	17.5
2025-01-08 19:19:12.644509	185.1	58.2	-92.4	12.8
2025-01-08 19:19:14.895059	185.9	59.0	-92.2	13.8
2025-01-08 19:19:17.137731	186.8	59.7	-92.0	12.6
2025-01-08 19:19:19.380008	187.8	60.5	-92.3	17.5
2025-01-08 19:19:21.633575	188.8	61.3	-92.5	15.9
2025-01-08 19:19:23.929588	190.0	62.1	-92.3	18.4
2025-01-08 19:19:26.238848	191.2	62.9	-92.3	18.2
2025-01-08 19:19:28.566434	192.4	63.7	-92.6	11.5
2025-01-08 19:19:30.879330	193.8	64.5	-92.8	13.7
2025-01-08 19:19:33.205582	195.3	65.3	-92.4	16.9
2025-01-08 19:19:35.529850	196.9	66.0	-92.4	10.9
2025-01-08 19:19:37.857239	198.6	66.8	-92.5	15.1
2025-01-08 19:19:40.187112	200.4	67.6	-92.1	14.6
2025-01-08 19:19:42.509823	202.4	68.3	-92.7	19.5
2025-01-08 19:19:44.832840	204.5	69.1	-92.5	18.9
2025-01-08 19:19:47.175747	206.8	69.8	-92.2	19.8
2025-01-08 19:19:49.506058	209.3	70.4	-92.6	13.6
2025-01-08 19:19:51.827670	211.9	71.1	-92.5	19.8
2025-01-08 19:19:54.159719	214.7	71.7	-92.0	19.7
2025-01-08 19:19:56.490502	217.8	72.3	-92.2	17.7
2025-01-08 19:19:58.822015	221.0	72.8	-92.6	21.2
2025-01-08 19:20:01.145741	224.4	73.3	-92.1	21.5
2025-01-08 19:20:03.476441	228.0	73.7	-92.1	23.7
2025-01-08 19:20:05.809589	231.9	74.0	-92.4	21.6
2025-01-08 19:20:08.137074	235.8	74.3	-92.2	15.6
2025-01-08 19:20:10.438524	239.9	74.5	-91.7	12.6
2025-01-08 19:20:12.760272	244.0	74.6	-92.0	24.0
2025-01-08 19:20:15.100370	248.3	74.7	-91.6	12.8
2025-01-08 19:20:17.430543	252.5	74.6	-92.2	14.5
2025-01-08 19:20:19.768701	256.7	74.5	-91.9	26.3
2025-01-08 19:20:22.091629	260.8	74.3	-91.7	17.2
2025-01-08 19:20:24.421145	264.8	74.1	-92.0	17.1
2025-01-08 19:20:26.754330	268.7	73.7	-91.2	24.8
2025-01-08 19:20:29.073361	272.3	73.3	-92.0	23.2
2025-01-08 19:20:31.328781	275.7	72.9	-91.8	29.0
2025-01-08 19:20:33.569670	278.8	72.4	-92.3	23.7
2025-01-08 19:20:35.811551	281.8	71.9	-92.4	26.0
2025-01-08 19:20:38.052569	284.6	71.3	-92.1	22.8
2025-01-08 19:20:40.353802	287.2	70.6	-91.8	24.0
2025-01-08 19:20:42.663332	289.7	70.0	-92.2	23.6
2025-01-08 19:20:44.989561	292.0	69.3	-92.5	18.7
2025-01-08 19:20:47.319063	294.2	68.6	-92.2	15.2
2025-01-08 19:20:49.640182	296.2	67.8	-92.5	16.0
2025-01-08 19:20:51.963391	298.1	67.1	-92.4	10.4
2025-01-08 19:20:54.290640	299.8	66.3	-91.6	7.9
2025-01-08 19:20:56.613789	301.5	65.5	-92.5	5.4
2025-01-08 19:20:58.922069	303.0	64.7	-92.3	9.1
2025-01-08 19:21:01.194070	304.3	64.0	-92.2	11.4
2025-01-08 19:21:03.487392	305.6	63.2	-92.4	12.6
2025-01-08 19:21:05.760571	306.9	62.4	-92.5	18.7
2025-01-08 19:21:08.057004	308.0	61.6	-91.8	14.3
2025-01-08 19:21:10.359708	309.1	60.8	-92.1	20.1
2025-01-08 19:21:12.670317	310.1	60.0	-92.3	18.3
2025-01-08 19:21:14.981831	311.0	59.2	-92.7	14.6
2025-01-08 19:21:17.259448	311.9	58.4	-91.9	21.6
2025-01-08 19:21:19.560950	312.8	57.6	-92.3	14.1
2025-01-08 19:21:21.867809	313.6	56.9	-92.5	20.8
2025-01-08 19:21:24.191700	314.3	56.1	-92.2	20.0
2025-01-08 19:21:26.513458	315.1	55.3	-92.3	14.8
2025-01-08 19:21:28.835920	315.7	54.5	-92.3	19.2
2025-01-08 19:21:31.152584	316.4	53.8	-92.0	16.4
2025-01-08 19:21:33.480760	317.0	53.0	-92.2	17.3
2025-01-08 19:21:35.811685	317.6	52.3	-92.8	10.7
2025-01-08 19:21:38.127855	318.2	51.5	-92.5	8.5
2025-01-08 19:21:40.447373	318.7	50.8	-92.7	7.8
2025-01-08 19:21:42.770547	319.2	50.1	-92.9	10.5
2025-01-08 19:21:45.099408	319.7	49.4	-91.9	4.7
2025-01-08 19:21:47.399373	320.1	48.7	-92.1	9.4
2025-01-08 19:21:49.667033	320.6	48.0	-92.1	14.4
2025-01-08 19:21:51.924408	321.0	47.4	-92.5	10.5
2025-01-08 19:21:54.204784	321.4	46.7	-92.1	18.0
2025-01-08 19:21:56.505333	321.8	46.0	-92.3	15.1
2025-01-08 19:21:58.824502	322.2	45.4	-92.1	19.8
2025-01-08 19:22:01.130229	322.5	44.7	-91.7	18.1
2025-01-08 19:22:03.441877	322.9	44.1	-92.4	20.0
2025-01-08 19:22:05.720443	323.2	43.5	-92.5	20.2
2025-01-08 19:22:08.023312	323.5	42.9	-92.2	16.2
2025-01-08 19:22:10.324094	323.8	42.3	-91.6	18.5
2025-01-08 19:22:12.636007	324.1	41.7	-92.5	12.8
2025-01-08 19:22:14.932299	324.4	41.1	-92.4	12.7
2025-01-08 19:22:17.254882	324.7	40.5	-91.7	14.9
2025-01-08 19:22:19.570555	325.0	39.9	-92.5	15.5
2025-01-08 19:22:21.894091	325.2	39.4	-92.1	15.9
2025-01-08 19:22:24.212717	325.5	38.8	-92.2	14.0
2025-01-08 19:22:26.539673	325.7	38.3	-92.2	10.9
2025-01-08 19:22:28.861325	326.0	37.7	-92.6	14.4
2025-01-08 19:22:31.160231	326.2	37.2	-92.4	10.6
2025-01-08 19:22:33.443120	326.4	36.7	-92.5	8.4
2025-01-08 19:22:35.753420	326.6	36.2	-92.3	11.7
2025-01-08 19:22:38.052492	326.8	35.7	-92.2	11.5
2025-01-08 19:22:40.337881	327.0	35.2	-92.3	16.0
2025-01-08 19:22:42.629771	327.2	34.7	-92.5	12.8
2025-01-08 19:22:44.924115	327.4	34.2	-92.6	14.8
2025-01-08 19:22:47.230493	327.6	33.7	-92.1	16.1
2025-01-08 19:22:49.551355	327.8	33.2	-92.6	10.9
2025-01-08 19:22:51.869970	328.0	32.8	-92.4	14.2
2025-01-08 19:22:54.157990	328.1	32.3	-91.9	16.9
2025-01-08 19:22:56.451760	328.3	31.9	-92.7	19.0
2025-01-08 19:22:58.750194	328.5	31.4	-92.5	17.2
2025-01-08 19:23:01.055688	328.6	31.0	-92.3	11.8
2025-01-08 19:23:03.381086	328.8	30.6	-92.3	14.7
2025-01-08 19:23:05.708551	328.9	30.1	-92.5	13.2
2025-01-08 19:23:08.028380	329.1	29.7	-92.7	7.1
2025-01-08 19:23:10.357210	329.2	29.3	-92.4	12.3
2025-01-08 19:23:12.675929	329.4	28.9	-92.4	15.2
2025-01-08 19:23:15.001834	329.5	28.5	-92.7	12.6
2025-01-08 19:23:17.316265	329.6	28.1	-91.4	9.0
2025-01-08 19:23:19.591119	329.8	27.7	-92.1	6.3
2025-01-08 19:23:21.893244	329.9	27.3	-92.2	9.3
2025-01-08 19:23:24.195218	330.0	26.9	-92.1	11.4
2025-01-08 19:23:26.511753	330.1	26.5	-92.8	12.8
2025-01-08 19:23:28.819856	330.3	26.2	-92.3	14.1
2025-01-08 19:23:31.148083	330.4	25.8	-92.4	13.7
2025-01-08 19:23:33.468400	330.5	25.4	-92.4	7.3
2025-01-08 19:23:35.795607	330.6	25.1	-93.1	13.6
2025-01-08 19:23:38.125003	330.7	24.7	-92.4	8.9
2025-01-08 19:23:40.445661	330.8	24.4	-92.5	9.6
2025-01-08 19:23:42.757446	330.9	24.0	-92.7	12.5
2025-01-08 19:23:45.083882	331.0	23.7	-92.3	14.9
2025-01-08 19:23:47.418195	331.1	23.4	-92.4	14.7
2025-01-08 19:23:49.727170	331.3	23.0	-92.7	14.3
2025-01-08 19:23:52.012705	331.3	22.7	-92.1	9.8
2025-01-08 19:23:54.304947	331.4	22.4	-92.6	14.7
2025-01-08 19:23:56.603064	331.5	22.1	-92.5	9.4
2025-01-08 19:23:58.922691	331.6	21.7	-92.4	12.4
2025-01-08 19:24:01.236281	331.7	21.4	-92.3	11.6
2025-01-08 19:24:03.558561	331.8	21.1	-92.5	5.8
2025-01-08 19:24:05.875767	331.9	20.8	-92.7	10.4
2025-01-08 19:24:08.164225	332.0	20.5	-92.1	10.9
2025-01-08 19:24:10.464397	332.1	20.2	-93.0	10.3
2025-01-08 19:24:12.758548	332.2	19.9	-92.5	4.4
2025-01-08 19:24:15.081153	332.2	19.6	-92.3	3.4
2025-01-08 19:24:17.392456	332.3	19.4	-92.4	3.6
2025-01-08 19:24:19.728491	332.4	19.1	-92.8	5.5
2025-01-08 19:24:22.048051	332.5	18.8	-92.7	7.3
2025-01-08 19:24:24.368469	332.6	18.5	-92.7	6.6
2025-01-08 19:24:26.697630	332.6	18.2	-92.7	5.3
2025-01-08 19:24:29.014838	332.7	18.0	-92.6	3.4
2025-01-08 19:24:31.338088	332.8	17.7	-92.6	4.1
2025-01-08 19:24:33.659210	332.9	17.4	-92.7	4.9
2025-01-08 19:24:35.994404	332.9	17.2	-92.7	3.7
2025-01-08 19:24:38.328500	333.0	16.9	-92.5	4.7
2025-01-08 19:24:40.654355	333.1	16.6	-92.5	5.5
2025-01-08 19:24:42.966049	333.2	16.4	-92.6	3.4
2025-01-08 19:24:45.238154	333.2	16.1	-92.5	4.6
2025-01-08 19:24:47.478220	333.3	15.9	-92.7	5.0
2025-01-08 19:24:49.719773	333.3	15.6	-93.0	3.4
2025-01-08 19:24:51.959802	333.4	15.4	-92.7	4.2
2025-01-08 19:24:54.233304	333.5	15.2	-92.4	6.9
2025-01-08 19:24:56.541919	333.5	14.9	-92.9	4.2
2025-01-08 19:24:58.861354	333.6	14.7	-92.5	5.7
2025-01-08 19:25:01.159452	333.7	14.5	-91.7	4.1
#Closed at: 2025-01-08 19:15:39.879712