passes_logs/2026/01/21/R4.6S_Anadyr/R4.6S_Anadyr__20260121_145245_NOAA_20_JPSS-1_rec.log

#Pass ID: 20260121_145245_NOAA 20 (JPSS-1)
#Satellite: NOAA 20 (JPSS-1)
#Configuration: NOAA 20
#almurnet v.1.7.20251203
#Start time: 2026-01-21 14:52:46

#Version: 2.2.20231116
#Station: R4.6S_Anadyr
#Location: 177.4865 lon 64.73178 lat
#TLE: 1 43013U 17073A   26020.82785136  .00000155  00000+0  94366-4 0  9991
#TLE: 2 43013  98.7643 321.7058 0001260  30.3785 329.7464 14.19537992423566

#Time	Az	El	Level	Level2	SNR	BER	BlckErr	Temp	State	Recorded	gain1	gain2
2026-01-21 14:52:46.66	20.84	0.04	-51.4	-66.3	3.5	1.51e+00	0	39	0	0	60	74828
2026-01-21 14:52:50.70	20.84	0.28	-51.5	-66.8	3.6	1.51e+00	0	40	104	0	60	78743
2026-01-21 14:52:54.74	20.84	0.53	-51.5	-66.7	3.6	1.51e+00	0	40	104	0	60	78328
2026-01-21 14:52:58.78	20.84	0.77	-51.3	-66.6	3.6	1.51e+00	0	40	104	0	60	77046
2026-01-21 14:53:02.81	20.84	1.02	-51.1	-66.3	3.6	1.51e+00	0	40	104	0	60	74823
2026-01-21 14:53:06.86	20.84	1.27	-50.5	-65.8	3.6	1.51e+00	0	41	104	0	60	70477
2026-01-21 14:53:10.89	20.84	1.52	-49.8	-64.8	3.6	1.51e+00	0	40	104	0	60	63060
2026-01-21 14:53:14.93	20.84	1.78	-49.8	-65.0	3.6	1.51e+00	0	41	104	0	60	64298
2026-01-21 14:53:18.97	20.84	2.04	-49.8	-65.0	3.6	1.51e+00	0	41	104	0	60	64462
2026-01-21 14:53:23.01	20.84	2.30	-49.8	-64.8	3.6	1.51e+00	0	41	104	0	60	62598
2026-01-21 14:53:27.06	20.84	2.56	-49.7	-64.1	3.6	1.51e+00	0	41	104	0	60	58053
2026-01-21 14:53:31.10	20.83	2.82	-49.7	-64.7	3.6	1.51e+00	0	41	104	0	60	61966
2026-01-21 14:53:35.13	20.83	3.09	-49.5	-59.4	4.1	1.29e+00	18	41	0	1048576	60	33914
2026-01-21 14:53:39.17	20.83	3.36	-49.0	-56.0	7.0	1.47e-01	0	41	0	8388608	60	22752
2026-01-21 14:53:43.21	20.82	3.63	-49.4	-58.4	4.6	6.79e-01	0	41	0	15728640	60	30135
2026-01-21 14:53:47.26	20.82	3.90	-49.7	-64.0	3.6	1.46e+00	0	41	104	22020096	60	56966
2026-01-21 14:53:51.30	20.82	4.18	-46.4	-49.2	15.0	0.00e+00	0	41	0	23068672	60	10398
2026-01-21 14:53:55.34	20.81	4.46	-45.4	-47.6	16.6	0.00e+00	0	41	0	30408704	60	8714
2026-01-21 14:53:59.38	20.81	4.74	-45.1	-47.3	16.9	0.00e+00	0	41	0	37748736	60	8337
2026-01-21 14:54:03.42	20.80	5.03	-44.7	-46.6	17.8	0.00e+00	0	41	0	45088768	60	7699
2026-01-21 14:54:07.45	20.79	5.32	-45.1	-47.2	17.2	0.00e+00	0	41	0	53477376	60	8290
2026-01-21 14:54:11.50	20.79	5.61	-44.7	-46.6	17.8	0.00e+00	0	41	0	60817408	60	7762
2026-01-21 14:54:15.53	20.78	5.91	-44.9	-46.8	17.5	0.00e+00	0	41	0	68157440	60	7951
2026-01-21 14:54:19.57	20.77	6.21	-44.6	-46.4	18.1	0.00e+00	0	41	0	75497472	60	7553
2026-01-21 14:54:23.61	20.76	6.51	-44.3	-46.0	18.5	0.00e+00	0	41	0	82837504	60	7211
2026-01-21 14:54:27.65	20.75	6.81	-44.6	-46.4	18.0	0.00e+00	0	41	0	91226112	60	7577
2026-01-21 14:54:31.69	20.75	7.12	-44.5	-46.2	18.2	0.00e+00	0	41	0	98566144	60	7419
2026-01-21 14:54:35.72	20.74	7.44	-44.4	-46.1	18.5	0.00e+00	0	41	0	105906176	60	7328
2026-01-21 14:54:39.76	20.72	7.75	-44.1	-45.8	18.8	0.00e+00	0	41	0	113246208	60	7033
2026-01-21 14:54:43.80	20.71	8.08	-44.1	-45.8	19.0	0.00e+00	0	41	0	121634816	60	7015
2026-01-21 14:54:47.84	20.70	8.40	-44.0	-45.6	19.1	0.00e+00	0	41	0	128974848	60	6860
2026-01-21 14:54:51.88	20.69	8.73	-44.0	-45.6	19.0	0.00e+00	0	41	0	136314880	60	6905
2026-01-21 14:54:55.92	20.68	9.07	-43.6	-45.0	19.7	0.00e+00	0	41	0	143654912	60	6453
2026-01-21 14:54:59.97	20.66	9.41	-43.5	-45.0	19.8	0.00e+00	0	41	0	150994944	60	6411
2026-01-21 14:55:04.00	20.65	9.75	-43.5	-44.9	19.9	0.00e+00	0	41	0	159383552	60	6357
2026-01-21 14:55:08.04	20.63	10.10	-43.3	-44.6	20.1	0.00e+00	0	41	0	166723584	60	6156
2026-01-21 14:55:12.09	20.62	10.45	-43.3	-44.7	20.2	0.00e+00	0	41	0	174063616	60	6190
2026-01-21 14:55:16.13	20.60	10.81	-43.2	-44.5	20.3	0.00e+00	0	41	0	181403648	60	6084
2026-01-21 14:55:20.17	20.58	11.17	-43.2	-44.5	20.4	0.00e+00	0	41	0	189792256	60	6069
2026-01-21 14:55:24.21	20.56	11.54	-43.0	-44.3	20.6	0.00e+00	0	41	0	197132288	60	5954
2026-01-21 14:55:28.24	20.54	11.92	-43.0	-44.3	20.6	0.00e+00	0	41	0	204472320	60	5953
2026-01-21 14:55:32.28	20.52	12.30	-42.9	-44.1	20.8	0.00e+00	0	41	0	211812352	60	5823
2026-01-21 14:55:36.31	20.50	12.68	-42.8	-44.0	20.8	0.00e+00	0	41	0	219152384	58	6431
2026-01-21 14:55:40.36	20.48	13.08	-42.5	-43.7	21.0	0.00e+00	0	41	0	227540992	58	6242
2026-01-21 14:55:44.40	20.45	13.48	-42.4	-43.6	21.3	0.00e+00	0	41	0	234881024	58	6136
2026-01-21 14:55:48.43	20.43	13.88	-42.4	-43.5	21.3	0.00e+00	0	41	0	242221056	58	6098
2026-01-21 14:55:52.47	20.40	14.29	-42.3	-43.5	21.4	0.00e+00	0	42	0	249561088	58	6041
2026-01-21 14:55:56.52	20.38	14.72	-42.1	-43.2	21.6	0.00e+00	0	41	0	257949696	58	5879
2026-01-21 14:56:00.55	20.35	15.14	-42.0	-43.1	21.7	0.00e+00	0	41	0	265289728	58	5823
2026-01-21 14:56:04.59	20.32	15.58	-42.1	-43.2	21.8	0.00e+00	0	41	0	272629760	58	5868
2026-01-21 14:56:08.63	20.29	16.02	-41.8	-42.8	22.1	0.00e+00	0	41	0	279969792	58	5629
2026-01-21 14:56:12.65	20.25	16.47	-41.7	-42.7	22.3	0.00e+00	0	41	0	287309824	56	6220
2026-01-21 14:56:16.70	20.22	16.93	-41.5	-42.5	22.4	0.00e+00	0	41	0	295698432	56	6101
2026-01-21 14:56:20.73	20.18	17.40	-41.5	-42.5	22.4	0.00e+00	0	41	0	303038464	56	6064
2026-01-21 14:56:24.77	20.14	17.87	-41.3	-42.3	22.6	0.00e+00	0	41	0	310378496	56	5914
2026-01-21 14:56:28.81	20.11	18.36	-41.4	-42.4	22.6	0.00e+00	0	41	0	317718528	56	5976
2026-01-21 14:56:32.85	20.06	18.86	-41.1	-42.1	22.9	0.00e+00	0	41	0	326107136	56	5783
2026-01-21 14:56:36.89	20.02	19.37	-41.2	-42.2	22.8	0.00e+00	0	41	0	333447168	56	5881
2026-01-21 14:56:40.92	19.98	19.88	-41.3	-42.3	22.7	0.00e+00	0	41	0	340787200	56	5948
2026-01-21 14:56:44.95	19.93	20.41	-41.2	-42.2	22.7	0.00e+00	0	41	0	348127232	56	5878
2026-01-21 14:56:49.00	19.88	20.95	-41.1	-42.1	22.9	0.00e+00	0	42	0	355467264	56	5771
2026-01-21 14:56:53.04	19.83	21.50	-41.0	-42.0	23.1	0.00e+00	0	41	0	363855872	56	5736
2026-01-21 14:56:57.08	19.77	22.07	-41.0	-41.9	23.1	0.00e+00	0	41	0	371195904	56	5681
2026-01-21 14:57:01.11	19.72	22.64	-40.9	-41.8	23.2	0.00e+00	0	41	0	378535936	56	5627
2026-01-21 14:57:05.15	19.66	23.23	-40.7	-41.6	23.2	0.00e+00	0	41	0	385875968	54	6156
2026-01-21 14:57:09.19	19.59	23.84	-40.7	-41.6	23.2	0.00e+00	0	41	0	394264576	54	6147
2026-01-21 14:57:13.23	19.53	24.45	-40.8	-41.7	23.3	0.00e+00	0	41	0	401604608	54	6229
2026-01-21 14:57:17.27	19.46	25.09	-40.7	-41.6	23.3	0.00e+00	0	41	0	408944640	54	6162
2026-01-21 14:57:21.31	19.39	25.74	-40.9	-41.8	23.2	0.00e+00	0	41	0	416284672	54	6278
2026-01-21 14:57:25.34	19.31	26.40	-41.2	-42.1	22.8	0.00e+00	0	41	0	423624704	54	6539
2026-01-21 14:57:29.38	19.23	27.08	-41.5	-42.5	22.6	0.00e+00	0	41	0	432013312	54	6781
2026-01-21 14:57:33.42	19.14	27.78	-42.0	-43.1	22.2	0.00e+00	0	41	0	439353344	56	6493
2026-01-21 14:57:37.46	19.05	28.50	-42.6	-43.7	21.5	0.00e+00	0	41	0	446693376	56	6985
2026-01-21 14:57:41.50	18.96	29.23	-43.3	-44.5	20.8	0.00e+00	0	41	0	454033408	58	6848
2026-01-21 14:57:45.54	18.86	29.99	-44.0	-45.4	20.0	0.00e+00	0	41	0	462422016	60	6699
2026-01-21 14:57:49.58	18.75	30.77	-44.6	-46.2	19.2	0.00e+00	0	41	0	469762048	60	7360
2026-01-21 14:57:53.62	18.64	31.56	-44.9	-46.5	19.0	0.00e+00	0	41	0	477102080	60	7610
2026-01-21 14:57:57.66	18.53	32.38	-44.4	-45.9	19.6	0.00e+00	0	41	0	484442112	60	7140
2026-01-21 14:58:01.70	18.40	33.23	-43.4	-44.6	20.7	0.00e+00	0	41	0	491782144	60	6171
2026-01-21 14:58:05.73	18.27	34.09	-42.2	-43.3	22.0	0.00e+00	0	41	0	500170752	58	5959
2026-01-21 14:58:09.77	18.13	34.98	-41.2	-42.2	23.0	0.00e+00	0	41	0	507510784	56	5835
2026-01-21 14:58:13.81	17.98	35.90	-40.8	-41.7	23.4	0.00e+00	0	41	0	514850816	54	6191
2026-01-21 14:58:17.85	17.82	36.84	-39.9	-40.8	24.3	0.00e+00	0	41	0	522190848	54	5570
2026-01-21 14:58:21.89	17.65	37.81	-39.7	-40.6	24.4	0.00e+00	0	41	0	530579456	52	6133
2026-01-21 14:58:25.93	17.47	38.81	-40.0	-40.9	24.1	0.00e+00	0	41	0	537919488	52	6355
2026-01-21 14:58:29.97	17.27	39.84	-40.5	-41.4	23.7	0.00e+00	0	41	0	545259520	52	6758
2026-01-21 14:58:34.00	17.07	40.90	-40.7	-41.6	23.5	0.00e+00	0	41	0	552599552	54	6161
2026-01-21 14:58:38.04	16.84	41.99	-41.2	-42.2	23.1	0.00e+00	0	41	0	559939584	54	6589
2026-01-21 14:58:42.08	16.60	43.12	-41.0	-42.0	23.2	0.00e+00	0	41	0	568328192	54	6403
2026-01-21 14:58:46.12	16.34	44.28	-41.7	-42.7	22.5	0.00e+00	0	41	0	575668224	54	6991
2026-01-21 14:58:50.16	16.06	45.47	-43.1	-44.3	21.1	0.00e+00	0	41	0	583008256	58	6662
2026-01-21 14:58:54.19	15.76	46.70	-44.2	-45.6	20.0	0.00e+00	0	41	0	590348288	60	6921
2026-01-21 14:58:58.23	15.43	47.96	-44.2	-45.6	20.0	0.00e+00	0	41	0	598736896	60	6897
2026-01-21 14:59:02.27	15.07	49.27	-43.4	-44.6	21.0	0.00e+00	0	41	0	606076928	60	6159
2026-01-21 14:59:06.31	14.68	50.61	-42.0	-43.1	22.4	0.00e+00	0	41	0	613416960	58	5767
2026-01-21 14:59:10.34	14.24	51.98	-39.7	-40.5	24.5	0.00e+00	0	41	0	620756992	52	6076
2026-01-21 14:59:14.38	13.77	53.40	-39.6	-40.4	24.6	0.00e+00	0	41	0	628097024	52	6022
2026-01-21 14:59:18.42	13.24	54.86	-40.1	-40.9	24.2	0.00e+00	0	41	0	636485632	52	6389
2026-01-21 14:59:22.46	12.65	56.35	-41.7	-42.7	22.6	0.00e+00	0	41	0	643825664	54	6966
2026-01-21 14:59:26.50	11.99	57.89	-44.5	-45.9	19.7	0.00e+00	0	41	0	651165696	60	7169
2026-01-21 14:59:30.53	11.26	59.45	-44.7	-46.2	19.5	0.00e+00	0	41	0	658505728	60	7420
2026-01-21 14:59:34.57	10.42	61.06	-41.7	-42.7	22.6	0.00e+00	0	41	0	665845760	56	6236
2026-01-21 14:59:38.61	9.46	62.70	-40.4	-41.3	23.9	0.00e+00	0	41	0	674234368	54	5898
2026-01-21 14:59:42.65	8.37	64.37	-40.1	-41.0	24.1	0.00e+00	0	41	0	681574400	54	5722
2026-01-21 14:59:46.69	7.09	66.07	-41.4	-42.3	22.8	0.00e+00	0	41	0	688914432	54	6682
2026-01-21 14:59:50.73	5.59	67.80	-41.7	-42.7	22.6	0.00e+00	0	41	0	696254464	56	6202
2026-01-21 14:59:54.77	3.81	69.54	-40.9	-41.8	23.3	0.00e+00	0	41	0	704643072	56	5587
2026-01-21 14:59:58.82	1.67	71.30	-41.8	-42.8	22.5	0.00e+00	0	41	0	711983104	56	6267
2026-01-21 15:00:02.86	359.05	73.05	-41.9	-43.0	22.7	0.00e+00	0	41	0	719323136	56	6399
2026-01-21 15:00:06.90	355.80	74.79	-43.0	-44.3	21.1	0.00e+00	0	41	0	726663168	58	6627
2026-01-21 15:00:10.93	351.68	76.48	-42.1	-43.2	22.0	0.00e+00	0	41	0	735051776	58	5852
2026-01-21 15:00:14.97	346.35	78.11	-42.6	-43.7	21.7	0.00e+00	0	41	0	742391808	58	6232
2026-01-21 15:00:19.01	339.36	79.62	-40.1	-41.0	24.1	0.00e+00	0	41	0	749731840	54	5709
2026-01-21 15:00:23.05	330.10	80.94	-40.9	-41.8	23.5	0.00e+00	0	41	0	757071872	54	6272
2026-01-21 15:00:27.09	318.06	81.96	-43.2	-44.4	21.1	0.00e+00	0	41	0	764411904	58	6738
2026-01-21 15:00:31.13	303.35	82.54	-44.2	-45.6	19.9	0.00e+00	0	41	0	772800512	60	6880
2026-01-21 15:00:35.17	287.37	82.58	-44.2	-45.6	19.8	0.00e+00	0	41	0	780140544	60	6912
2026-01-21 15:00:39.20	272.43	82.07	-43.1	-44.3	21.1	0.00e+00	0	41	0	787480576	60	5937
2026-01-21 15:00:43.24	260.01	81.09	-41.5	-42.5	22.6	0.00e+00	0	41	0	794820608	56	6080
2026-01-21 15:00:47.28	250.42	79.81	-40.6	-41.5	23.5	0.00e+00	0	41	0	803209216	54	6100
2026-01-21 15:00:51.32	243.16	78.31	-43.4	-44.6	20.7	0.00e+00	0	41	0	810549248	58	6914
2026-01-21 15:00:55.36	237.64	76.69	-42.4	-43.5	21.9	0.00e+00	0	41	0	817889280	58	6065
2026-01-21 15:00:59.39	233.39	75.00	-43.2	-44.4	21.0	0.00e+00	0	41	0	825229312	58	6729
2026-01-21 15:01:03.43	230.04	73.27	-40.5	-41.4	23.9	0.00e+00	0	41	0	832569344	54	5967
2026-01-21 15:01:07.47	227.35	71.51	-38.9	-39.7	25.2	0.00e+00	0	41	0	840957952	52	5539
2026-01-21 15:01:11.51	225.15	69.76	-40.7	-41.6	23.5	0.00e+00	0	41	0	848297984	52	6883
2026-01-21 15:01:15.56	223.33	68.00	-42.7	-43.8	21.5	0.00e+00	0	41	0	855638016	58	6293
2026-01-21 15:01:19.59	221.80	66.28	-44.8	-46.4	19.1	0.00e+00	0	41	0	862978048	60	7584
2026-01-21 15:01:23.63	220.50	64.57	-41.3	-42.3	23.0	0.00e+00	0	41	0	871366656	56	5898
2026-01-21 15:01:27.67	219.38	62.89	-39.2	-40.0	24.9	0.00e+00	0	41	0	878706688	52	5717
2026-01-21 15:01:31.71	218.40	61.24	-40.3	-41.1	23.9	0.00e+00	0	41	0	886046720	52	6532
2026-01-21 15:01:35.75	217.55	59.63	-43.3	-44.6	20.7	0.00e+00	0	41	0	893386752	58	6900
2026-01-21 15:01:39.79	216.80	58.05	-43.1	-44.3	21.2	0.00e+00	0	41	0	900726784	60	5964
2026-01-21 15:01:43.83	216.13	56.51	-42.2	-43.3	22.1	0.00e+00	0	41	0	909115392	58	5906
2026-01-21 15:01:47.87	215.53	55.00	-39.7	-40.5	24.5	0.00e+00	0	41	0	916455424	52	6081
2026-01-21 15:01:51.91	215.00	53.54	-39.6	-40.5	24.5	0.00e+00	0	41	0	923795456	52	6048
2026-01-21 15:01:55.95	214.51	52.11	-39.9	-40.8	24.2	0.00e+00	0	41	0	931135488	52	6259
2026-01-21 15:01:59.98	214.08	50.73	-42.2	-43.3	21.9	0.00e+00	0	41	0	939524096	56	6633
2026-01-21 15:02:04.02	213.68	49.38	-44.0	-45.4	20.0	0.00e+00	0	41	0	946864128	60	6763
2026-01-21 15:02:08.06	213.31	48.07	-44.7	-46.2	19.2	0.00e+00	0	41	0	954204160	60	7417
2026-01-21 15:02:12.10	212.98	46.79	-43.6	-44.9	20.4	0.00e+00	0	41	0	961544192	60	6371
2026-01-21 15:02:16.14	212.67	45.55	-42.5	-43.6	21.5	0.00e+00	0	41	0	968884224	58	6150
2026-01-21 15:02:20.18	212.38	44.35	-44.2	-45.7	19.7	0.00e+00	0	41	0	977272832	60	6943
2026-01-21 15:02:24.21	212.12	43.19	-43.5	-44.8	20.7	0.00e+00	0	41	0	984612864	60	6287
2026-01-21 15:02:28.25	211.88	42.06	-43.1	-44.3	21.2	0.00e+00	0	41	0	991952896	60	5931
2026-01-21 15:02:32.29	211.65	40.96	-43.6	-44.9	20.5	0.00e+00	0	41	0	999292928	60	6384
2026-01-21 15:02:36.33	211.44	39.89	-44.2	-45.6	19.8	0.00e+00	0	41	0	1007681536	60	6908
2026-01-21 15:02:40.37	211.24	38.85	-43.5	-44.8	20.6	0.00e+00	0	41	0	1015021568	60	6263
2026-01-21 15:02:44.41	211.06	37.85	-43.4	-44.6	20.7	0.00e+00	0	41	0	1022361600	60	6160
2026-01-21 15:02:48.45	210.89	36.87	-43.0	-44.2	21.2	0.00e+00	0	41	0	1029701632	60	5833
2026-01-21 15:02:52.49	210.73	35.92	-42.5	-43.6	21.6	0.00e+00	0	41	0	1037041664	58	6138
2026-01-21 15:02:56.53	210.57	35.00	-42.2	-43.3	21.9	0.00e+00	0	41	0	1045430272	58	5938
2026-01-21 15:03:00.56	210.43	34.10	-42.2	-43.3	21.9	0.00e+00	0	41	0	1052770304	58	5913
2026-01-21 15:03:04.60	210.30	33.23	-42.5	-43.7	21.5	0.00e+00	0	41	0	1060110336	58	6179
2026-01-21 15:03:08.64	210.17	32.38	-44.0	-45.4	19.9	0.00e+00	0	41	0	1067450368	60	6767
2026-01-21 15:03:12.69	210.05	31.56	-43.7	-45.0	20.4	0.00e+00	0	41	0	1075838976	60	6462
2026-01-21 15:03:16.73	209.94	30.76	-43.2	-44.4	21.1	0.00e+00	0	41	0	1083179008	60	6013
2026-01-21 15:03:20.76	209.83	29.98	-42.6	-43.7	21.5	0.00e+00	0	41	0	1090519040	58	6238
2026-01-21 15:03:24.80	209.73	29.22	-42.6	-43.8	21.3	0.00e+00	0	41	0	1097859072	58	6266
2026-01-21 15:03:28.85	209.63	28.47	-43.1	-44.3	21.0	0.00e+00	0	41	0	1105199104	58	6654
2026-01-21 15:03:32.88	209.54	27.75	-43.1	-44.3	21.0	0.00e+00	0	41	0	1113587712	58	6676
2026-01-21 15:03:36.92	209.45	27.05	-42.9	-44.2	21.0	0.00e+00	0	41	0	1120927744	58	6541
2026-01-21 15:03:40.96	209.37	26.37	-42.2	-43.3	21.8	0.00e+00	0	41	0	1128267776	58	5956
2026-01-21 15:03:44.99	209.29	25.70	-41.9	-42.9	22.1	0.00e+00	0	41	0	1135607808	58	5691
2026-01-21 15:03:49.04	209.21	25.05	-41.8	-42.8	22.3	0.00e+00	0	41	0	1143996416	56	6296
2026-01-21 15:03:53.08	209.14	24.41	-41.8	-42.9	22.3	0.00e+00	0	41	0	1151336448	56	6323
2026-01-21 15:03:57.12	209.07	23.79	-41.8	-42.9	22.3	0.00e+00	0	41	0	1158676480	56	6348
2026-01-21 15:04:01.15	209.01	23.18	-41.9	-42.9	22.2	0.00e+00	0	41	0	1166016512	56	6387
2026-01-21 15:04:05.19	208.95	22.59	-41.7	-42.7	22.4	0.00e+00	0	41	0	1173356544	56	6226
2026-01-21 15:04:09.23	208.89	22.01	-41.8	-42.8	22.3	0.00e+00	0	41	0	1181745152	56	6309
2026-01-21 15:04:13.28	208.83	21.44	-41.9	-42.9	22.2	0.00e+00	0	41	0	1189085184	56	6375
2026-01-21 15:04:17.32	208.78	20.89	-42.2	-43.4	21.8	0.00e+00	0	41	0	1196425216	56	6697
2026-01-21 15:04:21.36	208.72	20.34	-42.4	-43.5	21.6	0.00e+00	0	41	0	1203765248	56	6836
2026-01-21 15:04:25.39	208.68	19.81	-42.4	-43.5	21.5	0.00e+00	0	41	0	1212153856	56	6831
2026-01-21 15:04:29.43	208.63	19.29	-42.5	-43.6	21.4	0.00e+00	0	41	0	1219493888	56	6911
2026-01-21 15:04:33.48	208.58	18.78	-42.4	-43.6	21.5	0.00e+00	0	41	0	1226833920	58	6134
2026-01-21 15:04:37.51	208.54	18.29	-42.6	-43.8	21.2	0.00e+00	0	41	0	1234173952	58	6312
2026-01-21 15:04:41.55	208.50	17.80	-43.0	-44.3	20.8	0.00e+00	0	41	0	1241513984	58	6626
2026-01-21 15:04:45.59	208.46	17.32	-43.2	-44.5	20.6	0.00e+00	0	41	0	1249902592	58	6770
2026-01-21 15:04:49.63	208.42	16.85	-43.3	-44.7	20.4	0.00e+00	0	41	0	1257242624	58	6934
2026-01-21 15:04:53.67	208.38	16.38	-43.5	-44.8	20.3	0.00e+00	0	41	0	1264582656	58	7072
2026-01-21 15:04:57.70	208.35	15.93	-43.6	-45.0	20.2	0.00e+00	0	41	0	1271922688	58	7171
2026-01-21 15:05:01.74	208.31	15.49	-43.7	-45.1	20.1	0.00e+00	0	41	0	1280311296	58	7328
2026-01-21 15:05:05.78	208.28	15.05	-43.6	-45.0	20.1	0.00e+00	0	41	0	1287651328	58	7208
2026-01-21 15:05:09.81	208.25	14.62	-43.4	-44.7	20.3	0.00e+00	0	41	0	1294991360	58	6982
2026-01-21 15:05:13.85	208.22	14.20	-43.3	-44.7	20.4	0.00e+00	0	41	0	1302331392	58	6952
2026-01-21 15:05:17.89	208.19	13.79	-43.2	-44.5	20.5	0.00e+00	0	41	0	1309671424	58	6834
2026-01-21 15:05:21.93	208.16	13.38	-43.2	-44.5	20.5	0.00e+00	0	41	0	1318060032	58	6812
2026-01-21 15:05:25.97	208.14	12.98	-43.1	-44.4	20.5	0.00e+00	0	41	0	1325400064	58	6764
2026-01-21 15:05:30.01	208.11	12.58	-43.1	-44.4	20.5	0.00e+00	0	41	0	1332740096	58	6765
2026-01-21 15:05:34.05	208.09	12.20	-43.1	-44.4	20.5	0.00e+00	0	41	0	1340080128	58	6750
2026-01-21 15:05:38.08	208.06	11.81	-43.2	-44.6	20.4	0.00e+00	0	41	0	1347420160	58	6852
2026-01-21 15:05:42.12	208.04	11.44	-43.4	-44.7	20.2	0.00e+00	0	41	0	1355808768	58	6986
2026-01-21 15:05:46.16	208.02	11.07	-43.5	-44.9	19.9	0.00e+00	0	41	0	1363148800	58	7158
2026-01-21 15:05:50.19	208.00	10.70	-43.5	-44.9	19.9	0.00e+00	0	42	0	1370488832	58	7154
2026-01-21 15:05:54.23	207.98	10.34	-43.8	-45.3	19.7	0.00e+00	0	42	0	1377828864	60	6671
2026-01-21 15:05:58.27	207.96	9.99	-44.0	-45.5	19.4	0.00e+00	0	42	0	1386217472	60	6780
2026-01-21 15:06:02.29	207.94	9.64	-44.0	-45.5	19.3	0.00e+00	0	42	0	1393557504	60	6843
2026-01-21 15:06:06.33	207.92	9.30	-44.1	-45.7	19.3	0.00e+00	0	42	0	1400897536	60	6947
2026-01-21 15:06:10.38	207.90	8.96	-44.3	-45.9	18.9	0.00e+00	0	41	0	1408237568	60	7113
2026-01-21 15:06:14.42	207.89	8.62	-44.1	-45.6	19.2	0.00e+00	0	41	0	1415577600	60	6922
2026-01-21 15:06:18.46	207.87	8.29	-44.3	-45.9	19.0	0.00e+00	0	41	0	1423966208	60	7162
2026-01-21 15:06:22.50	207.86	7.96	-44.1	-45.7	19.2	0.00e+00	0	41	0	1431306240	60	6967
2026-01-21 15:06:26.54	207.84	7.64	-44.1	-45.8	19.1	0.00e+00	0	42	0	1438646272	60	7017
2026-01-21 15:06:30.57	207.83	7.32	-44.2	-45.8	19.0	0.00e+00	0	41	0	1445986304	60	7075
2026-01-21 15:06:34.61	207.81	7.01	-44.1	-45.7	19.1	0.00e+00	0	42	0	1454374912	60	6936
2026-01-21 15:06:38.65	207.80	6.70	-44.1	-45.7	18.9	0.00e+00	0	42	0	1461714944	60	7005
2026-01-21 15:06:42.69	207.79	6.39	-44.1	-45.7	18.9	0.00e+00	0	41	0	1469054976	60	6987
2026-01-21 15:06:46.73	207.78	6.09	-43.9	-45.5	19.2	0.00e+00	0	41	0	1476395008	60	6779
2026-01-21 15:06:50.77	207.77	5.79	-44.2	-45.9	18.7	0.00e+00	0	41	0	1483735040	60	7116
2026-01-21 15:06:54.81	207.76	5.49	-44.0	-45.6	18.8	0.00e+00	0	41	0	1492123648	60	6924
2026-01-21 15:06:58.85	207.75	5.20	-43.8	-45.4	19.1	0.00e+00	0	42	0	1499463680	60	6722
2026-01-21 15:07:02.89	207.74	4.91	-44.2	-45.9	18.5	0.00e+00	0	41	0	1506803712	60	7104
2026-01-21 15:07:06.93	207.73	4.62	-44.1	-45.8	18.6	0.00e+00	0	42	0	1514143744	60	7047
2026-01-21 15:07:10.96	207.72	4.34	-44.2	-45.9	18.5	0.00e+00	0	42	0	1522532352	60	7097
2026-01-21 15:07:15.00	207.71	4.05	-44.6	-46.4	17.9	0.00e+00	0	41	0	1529872384	60	7583
2026-01-21 15:07:19.04	207.70	3.78	-44.4	-46.2	17.7	0.00e+00	0	42	0	1537212416	60	7403
2026-01-21 15:07:23.08	207.69	3.50	-44.5	-46.3	17.8	0.00e+00	0	42	0	1544552448	60	7506
2026-01-21 15:07:27.12	207.68	3.23	-45.4	-47.7	16.5	0.00e+00	0	42	0	1551892480	60	8779
2026-01-21 15:07:31.16	207.68	2.96	-50.3	-65.5	3.6	1.51e+00	0	42	104	1558183936	60	68077
2026-01-21 15:07:35.20	207.67	2.69	-50.9	-66.2	3.6	1.51e+00	0	42	104	1558183936	60	74004
2026-01-21 15:07:39.24	207.66	2.43	-51.1	-66.4	3.6	1.51e+00	0	42	104	1558183936	60	75817
2026-01-21 15:07:43.29	207.66	2.16	-51.2	-66.5	3.6	1.51e+00	0	42	104	1558183936	60	76602
2026-01-21 15:07:47.33	207.65	1.90	-51.3	-66.6	3.6	1.51e+00	0	42	104	1558183936	60	77071
2026-01-21 15:07:51.37	207.65	1.65	-51.3	-66.5	3.6	1.51e+00	0	42	104	1558183936	60	76361
2026-01-21 15:07:55.41	207.64	1.39	-51.4	-66.6	3.6	1.51e+00	0	42	104	1558183936	60	77256
2026-01-21 15:07:59.45	207.64	1.14	-51.4	-66.6	3.6	1.51e+00	0	42	104	1558183936	60	77578
2026-01-21 15:08:03.48	207.63	0.89	-51.4	-66.6	3.6	1.51e+00	0	42	104	1558183936	60	77168
2026-01-21 15:08:07.52	207.63	0.64	-51.4	-66.6	3.6	1.51e+00	0	42	104	1558183936	60	77209
2026-01-21 15:08:11.56	207.62	0.39	-51.4	-66.6	3.6	1.51e+00	0	42	104	1558183936	60	77597
2026-01-21 15:08:15.60	207.62	0.15	-51.4	-66.6	3.6	1.51e+00	0	42	104	1558183936	60	77506

#Closed at: 2026-01-21 15:08:18
#Recorded file [1558 MB]: D:/lorett/data/35029_260122_025246.dat