passes_logs/2026/01/21/R4.6S_Anadyr/R4.6S_Anadyr__20260121_113203_NOAA_20_JPSS-1_rec.log

#Pass ID: 20260121_113203_NOAA 20 (JPSS-1)
#Satellite: NOAA 20 (JPSS-1)
#Configuration: NOAA 20
#almurnet v.1.7.20251203
#Start time: 2026-01-21 11:32:06

#Version: 2.2.20231116
#Station: R4.6S_Anadyr
#Location: 177.4865 lon 64.73178 lat
#TLE: 1 43013U 17073A   26020.82785136  .00000155  00000+0  94366-4 0  9991
#TLE: 2 43013  98.7643 321.7058 0001260  30.3785 329.7464 14.19537992423566

#Time	Az	El	Level	Level2	SNR	BER	BlckErr	Temp	State	Recorded	gain1	gain2
2026-01-21 11:32:06.39	21.01	0.11	-53.6	-65.3	3.5	8.45e-01	0	39	0	0	60	66186
2026-01-21 11:32:09.41	21.30	0.23	-53.2	-68.4	3.6	1.51e+00	0	40	104	0	60	95229
2026-01-21 11:32:12.44	21.60	0.35	-53.0	-68.3	3.6	1.51e+00	0	40	104	0	60	93933
2026-01-21 11:32:15.48	21.90	0.46	-52.1	-67.4	3.6	1.51e+00	0	40	104	0	60	84266
2026-01-21 11:32:18.51	22.20	0.58	-52.5	-67.7	3.6	1.51e+00	0	40	104	0	60	88184
2026-01-21 11:32:21.53	22.50	0.70	-51.6	-66.8	3.6	1.51e+00	0	40	104	0	60	79527
2026-01-21 11:32:24.56	22.81	0.82	-51.0	-66.2	3.6	1.51e+00	0	40	104	0	60	74127
2026-01-21 11:32:27.59	23.12	0.93	-51.5	-66.7	3.6	1.51e+00	0	40	104	0	60	78391
2026-01-21 11:32:30.62	23.43	1.05	-49.9	-65.1	3.6	1.51e+00	0	40	104	0	60	65117
2026-01-21 11:32:33.64	23.74	1.17	-49.0	-64.2	3.6	1.51e+00	0	40	104	0	60	58519
2026-01-21 11:32:36.68	24.05	1.28	-49.0	-64.2	3.6	1.51e+00	0	40	104	0	60	58466
2026-01-21 11:32:39.71	24.37	1.40	-49.0	-64.1	3.6	1.51e+00	0	40	104	0	60	58257
2026-01-21 11:32:42.74	24.69	1.52	-48.9	-64.1	3.6	1.51e+00	0	40	104	0	60	57901
2026-01-21 11:32:45.76	25.01	1.63	-48.9	-64.2	3.6	1.51e+00	0	41	104	0	60	58543
2026-01-21 11:32:48.80	25.34	1.75	-49.0	-64.1	3.6	1.51e+00	0	40	104	0	60	58255
2026-01-21 11:32:51.82	25.66	1.86	-48.9	-64.1	3.6	1.51e+00	0	41	104	0	60	58233
2026-01-21 11:32:54.86	25.99	1.98	-49.0	-64.2	3.6	1.51e+00	0	41	104	0	60	58665
2026-01-21 11:32:57.89	26.33	2.10	-49.3	-64.5	3.6	1.51e+00	0	41	104	0	60	60927
2026-01-21 11:33:00.92	26.66	2.21	-49.1	-64.2	3.6	1.51e+00	0	41	104	0	60	58925
2026-01-21 11:33:03.95	27.00	2.33	-49.3	-64.4	3.6	1.51e+00	0	41	104	0	60	60289
2026-01-21 11:33:06.98	27.33	2.44	-49.1	-64.4	3.6	1.51e+00	0	41	104	0	60	59725
2026-01-21 11:33:10.01	27.68	2.55	-49.0	-63.2	3.6	1.51e+00	0	41	104	0	60	52247
2026-01-21 11:33:13.04	28.02	2.67	-48.8	-57.8	4.5	1.51e+00	0	41	104	0	60	28098
2026-01-21 11:33:16.07	28.37	2.78	-44.8	-47.2	16.3	0.00e+00	0	41	0	3145728	60	8252
2026-01-21 11:33:19.10	28.72	2.89	-44.9	-47.4	16.0	0.00e+00	0	41	0	9437184	60	8440
2026-01-21 11:33:22.13	29.07	3.01	-48.0	-54.1	10.2	1.59e-01	0	41	0	14680064	60	18383
2026-01-21 11:33:25.16	29.42	3.12	-49.3	-62.1	3.8	8.63e-01	0	41	104	15728640	60	46000
2026-01-21 11:33:28.19	29.78	3.23	-45.0	-47.4	15.6	8.80e-01	82	41	104	16777216	60	8507
2026-01-21 11:33:31.22	30.14	3.34	-45.6	-48.2	15.9	0.00e+00	0	41	0	20971520	60	9248
2026-01-21 11:33:34.25	30.50	3.45	-44.3	-46.3	17.5	0.00e+00	92	41	0	27262976	60	7425
2026-01-21 11:33:37.28	30.87	3.56	-44.4	-46.3	17.7	0.00e+00	0	41	0	32505856	60	7433
2026-01-21 11:33:40.30	31.23	3.67	-45.0	-47.1	17.0	0.00e+00	0	41	0	38797312	60	8151
2026-01-21 11:33:43.33	31.60	3.78	-44.4	-46.3	18.1	0.00e+00	81	41	0	44040192	60	7446
2026-01-21 11:33:46.36	31.97	3.89	-44.7	-46.7	17.2	0.00e+00	0	41	0	49283072	60	7838
2026-01-21 11:33:49.39	32.35	4.00	-44.2	-46.0	18.2	0.00e+00	82	41	0	55574528	60	7197
2026-01-21 11:33:52.42	32.73	4.11	-44.2	-46.0	18.1	0.00e+00	6	41	0	60817408	60	7238
2026-01-21 11:33:55.45	33.11	4.21	-44.3	-46.2	18.0	0.00e+00	90	41	0	67108864	60	7353
2026-01-21 11:33:58.48	33.49	4.32	-44.0	-45.7	18.3	0.00e+00	0	41	0	72351744	60	6950
2026-01-21 11:34:01.51	33.88	4.42	-44.3	-46.1	18.7	0.00e+00	0	41	0	77594624	60	7310
2026-01-21 11:34:04.54	34.27	4.53	-44.2	-45.9	18.6	0.00e+00	92	41	0	83886080	60	7128
2026-01-21 11:34:07.57	34.66	4.63	-44.2	-45.8	18.7	0.00e+00	4	41	0	89128960	60	7086
2026-01-21 11:34:10.60	35.05	4.74	-43.6	-45.2	19.2	0.00e+00	7	41	0	95420416	60	6580
2026-01-21 11:34:13.63	35.45	4.84	-43.4	-44.9	19.4	0.00e+00	91	41	0	100663296	60	6333
2026-01-21 11:34:16.66	35.85	4.94	-43.6	-45.2	19.1	0.00e+00	5	41	0	106954752	60	6547
2026-01-21 11:34:19.69	36.25	5.05	-43.4	-44.9	19.3	0.00e+00	7	41	0	112197632	60	6381
2026-01-21 11:34:22.72	36.65	5.15	-43.7	-45.4	19.0	0.00e+00	81	41	0	117440512	60	6700
2026-01-21 11:34:25.75	37.06	5.25	-43.3	-44.9	19.4	0.00e+00	82	41	0	123731968	60	6338
2026-01-21 11:34:28.78	37.47	5.35	-43.1	-44.6	19.3	0.00e+00	79	41	0	128974848	60	6153
2026-01-21 11:34:31.81	37.88	5.45	-43.5	-45.0	19.0	0.00e+00	0	41	0	135266304	60	6452
2026-01-21 11:34:34.83	38.30	5.54	-43.2	-44.7	19.4	0.00e+00	92	41	0	140509184	60	6193
2026-01-21 11:34:37.86	38.72	5.64	-43.4	-44.9	19.2	0.00e+00	0	41	0	145752064	60	6384
2026-01-21 11:34:40.90	39.14	5.74	-43.7	-45.3	19.0	0.00e+00	2	41	0	152043520	60	6627
2026-01-21 11:34:43.92	39.56	5.83	-43.3	-44.9	19.2	0.00e+00	92	41	0	157286400	60	6337
2026-01-21 11:34:46.95	39.99	5.92	-43.4	-45.0	19.1	0.00e+00	0	41	0	163577856	60	6408
2026-01-21 11:34:49.98	40.42	6.02	-43.5	-45.1	18.9	0.00e+00	82	41	0	168820736	60	6489
2026-01-21 11:34:53.01	40.85	6.11	-43.5	-45.1	19.0	0.00e+00	55	41	0	175112192	60	6480
2026-01-21 11:34:56.04	41.28	6.20	-43.9	-45.6	18.5	0.00e+00	0	41	0	180355072	60	6909
2026-01-21 11:34:59.06	41.72	6.29	-43.7	-45.4	18.8	0.00e+00	0	41	0	185597952	60	6717
2026-01-21 11:35:02.09	42.16	6.38	-44.0	-45.7	18.4	0.00e+00	0	41	0	191889408	60	6987
2026-01-21 11:35:05.12	42.60	6.47	-43.9	-45.6	18.4	0.00e+00	69	41	0	197132288	60	6918
2026-01-21 11:35:08.15	43.04	6.55	-43.8	-45.5	18.6	0.00e+00	81	41	0	203423744	60	6842
2026-01-21 11:35:11.18	43.49	6.64	-43.9	-45.6	18.4	0.00e+00	0	41	0	208666624	60	6910
2026-01-21 11:35:14.21	43.94	6.72	-44.2	-45.9	18.3	0.00e+00	91	41	0	213909504	60	7131
2026-01-21 11:35:17.24	44.39	6.81	-44.7	-46.6	17.7	0.00e+00	0	41	0	220200960	60	7753
2026-01-21 11:35:20.26	44.84	6.89	-43.7	-45.3	19.0	0.00e+00	0	41	0	225443840	60	6652
2026-01-21 11:35:23.29	45.30	6.97	-43.8	-45.5	18.7	0.00e+00	68	41	0	231735296	60	6794
2026-01-21 11:35:26.32	45.76	7.05	-43.7	-45.3	18.7	0.00e+00	0	41	0	236978176	60	6686
2026-01-21 11:35:29.35	46.22	7.13	-43.8	-45.5	18.4	0.00e+00	82	41	0	243269632	60	6842
2026-01-21 11:35:32.38	46.69	7.20	-43.9	-45.6	18.4	0.00e+00	0	41	0	248512512	60	6885
2026-01-21 11:35:35.41	47.15	7.28	-43.9	-45.6	18.4	0.00e+00	77	41	0	253755392	60	6919
2026-01-21 11:35:38.44	47.62	7.35	-43.7	-45.4	18.7	0.00e+00	5	41	0	260046848	60	6716
2026-01-21 11:35:41.47	48.09	7.42	-43.7	-45.2	19.0	0.00e+00	5	42	0	265289728	60	6608
2026-01-21 11:35:44.49	48.57	7.50	-43.6	-45.2	18.9	0.00e+00	92	41	0	271581184	60	6607
2026-01-21 11:35:47.52	49.04	7.57	-43.5	-45.0	19.3	0.00e+00	79	41	0	276824064	60	6428
2026-01-21 11:35:50.55	49.52	7.63	-43.8	-45.3	19.2	0.00e+00	84	41	0	282066944	60	6661
2026-01-21 11:35:53.58	50.00	7.70	-43.6	-45.1	19.2	0.00e+00	92	41	0	288358400	60	6523
2026-01-21 11:35:56.61	50.48	7.77	-44.0	-45.6	18.7	0.00e+00	0	42	0	293601280	60	6882
2026-01-21 11:35:59.63	50.96	7.83	-43.8	-45.3	19.4	0.00e+00	2	41	0	299892736	60	6655
2026-01-21 11:36:02.66	51.45	7.89	-44.0	-45.6	18.8	0.00e+00	7	41	0	305135616	60	6876
2026-01-21 11:36:05.69	51.94	7.95	-44.0	-45.6	19.3	0.00e+00	5	41	0	310378496	60	6863
2026-01-21 11:36:08.72	52.43	8.01	-43.5	-44.9	19.7	0.00e+00	0	41	0	316669952	60	6384
2026-01-21 11:36:11.75	52.92	8.07	-43.5	-45.0	19.7	0.00e+00	80	41	0	321912832	60	6414
2026-01-21 11:36:14.77	53.41	8.12	-43.8	-45.3	19.5	0.00e+00	91	41	0	328204288	60	6635
2026-01-21 11:36:17.80	53.91	8.18	-43.8	-45.3	19.2	0.00e+00	2	41	0	333447168	60	6671
2026-01-21 11:36:20.83	54.41	8.23	-43.5	-45.0	19.7	0.00e+00	0	41	0	339738624	60	6415
2026-01-21 11:36:23.86	54.91	8.28	-43.5	-44.9	19.8	0.00e+00	92	41	0	344981504	60	6355
2026-01-21 11:36:27.16	55.45	8.33	-43.7	-45.1	19.7	0.00e+00	0	41	0	350224384	60	6505
2026-01-21 11:36:29.89	55.91	8.37	-43.6	-45.1	19.7	0.00e+00	0	41	0	355467264	60	6474
2026-01-21 11:36:33.21	56.46	8.42	-43.8	-45.3	19.6	0.00e+00	92	41	0	361758720	60	6690
2026-01-21 11:36:35.95	56.92	8.46	-43.6	-45.0	19.5	0.00e+00	0	41	0	367001600	60	6438
2026-01-21 11:36:39.27	57.47	8.51	-43.9	-45.4	19.4	0.00e+00	0	41	0	373293056	60	6701
2026-01-21 11:36:42.01	57.93	8.54	-44.0	-45.6	19.2	0.00e+00	92	41	0	378535936	60	6859
2026-01-21 11:36:45.33	58.49	8.58	-44.3	-45.9	18.8	0.00e+00	2	41	0	384827392	60	7159
2026-01-21 11:36:48.06	58.95	8.61	-44.4	-46.1	18.7	0.00e+00	0	41	0	390070272	60	7287
2026-01-21 11:36:51.38	59.51	8.65	-44.3	-45.9	19.0	0.00e+00	0	41	0	396361728	60	7104
2026-01-21 11:36:54.12	59.98	8.68	-44.0	-45.6	19.2	0.00e+00	0	41	0	401604608	60	6853
2026-01-21 11:36:57.44	60.54	8.71	-44.0	-45.5	19.3	0.00e+00	81	41	0	407896064	60	6821
2026-01-21 11:37:00.18	61.01	8.74	-44.2	-45.8	19.0	0.00e+00	18	41	0	412090368	60	7020
2026-01-21 11:37:03.50	61.57	8.77	-44.5	-46.2	18.6	0.00e+00	90	41	0	418381824	60	7414
2026-01-21 11:37:06.24	62.04	8.79	-44.5	-46.2	18.9	0.00e+00	0	41	0	423624704	60	7347
2026-01-21 11:37:09.56	62.61	8.81	-44.6	-46.3	18.5	0.00e+00	0	41	0	429916160	60	7508
2026-01-21 11:37:12.30	63.08	8.83	-43.8	-45.3	19.4	0.00e+00	92	41	0	435159040	60	6689
2026-01-21 11:37:15.62	63.65	8.85	-43.7	-45.2	19.5	0.00e+00	0	41	0	441450496	60	6594
2026-01-21 11:37:18.36	64.12	8.86	-43.7	-45.2	19.6	0.00e+00	0	41	0	446693376	60	6570
2026-01-21 11:37:21.68	64.69	8.88	-44.0	-45.6	19.5	0.00e+00	6	41	0	452984832	60	6862
2026-01-21 11:37:24.42	65.16	8.89	-44.5	-46.1	19.3	0.00e+00	82	41	0	458227712	60	7295
2026-01-21 11:37:27.74	65.73	8.90	-43.9	-45.4	19.2	0.00e+00	6	41	0	464519168	60	6733
2026-01-21 11:37:30.48	66.20	8.91	-44.1	-45.6	19.5	0.00e+00	31	41	0	469762048	60	6894
2026-01-21 11:37:33.79	66.77	8.91	-42.9	-44.2	20.5	0.00e+00	90	41	0	476053504	60	5860
2026-01-21 11:37:36.53	67.24	8.92	-43.0	-44.3	20.3	0.00e+00	0	41	0	480247808	60	5911
2026-01-21 11:37:39.85	67.82	8.92	-43.9	-45.3	20.0	0.00e+00	85	41	0	486539264	60	6677
2026-01-21 11:37:42.60	68.29	8.92	-43.4	-44.8	20.0	0.00e+00	50	41	0	491782144	60	6258
2026-01-21 11:37:45.91	68.86	8.91	-42.9	-44.2	20.1	0.00e+00	0	41	0	498073600	60	5846
2026-01-21 11:37:48.65	69.33	8.91	-42.4	-43.6	21.1	0.00e+00	3	41	0	503316480	58	6163
2026-01-21 11:37:51.97	69.90	8.90	-42.3	-43.5	21.0	0.00e+00	71	41	0	509607936	58	6097
2026-01-21 11:37:54.71	70.38	8.89	-42.7	-44.0	20.8	0.00e+00	6	41	0	514850816	58	6391
2026-01-21 11:37:58.02	70.95	8.88	-42.6	-43.9	20.6	0.00e+00	0	41	0	521142272	58	6338
2026-01-21 11:38:00.76	71.42	8.87	-42.6	-43.9	20.7	0.00e+00	92	41	0	526385152	58	6319
2026-01-21 11:38:04.08	71.99	8.85	-42.5	-43.7	21.1	0.00e+00	92	41	0	532676608	58	6236
2026-01-21 11:38:06.83	72.46	8.84	-42.3	-43.6	20.9	0.00e+00	84	41	0	537919488	58	6108
2026-01-21 11:38:10.15	73.03	8.82	-42.5	-43.7	20.7	0.00e+00	0	41	0	544210944	58	6243
2026-01-21 11:38:12.89	73.50	8.80	-42.4	-43.6	20.8	0.00e+00	75	41	0	548405248	58	6171
2026-01-21 11:38:16.21	74.07	8.77	-42.2	-43.4	21.2	0.00e+00	81	41	0	554696704	58	5996
2026-01-21 11:38:18.95	74.53	8.75	-42.3	-43.5	21.0	0.00e+00	0	41	0	559939584	58	6089
2026-01-21 11:38:22.27	75.10	8.72	-42.6	-43.9	20.8	0.00e+00	92	41	0	566231040	58	6332
2026-01-21 11:38:25.01	75.57	8.70	-42.5	-43.7	20.8	0.00e+00	81	41	0	571473920	58	6244
2026-01-21 11:38:28.32	76.13	8.66	-42.6	-43.8	20.9	0.00e+00	0	41	0	577765376	58	6306
2026-01-21 11:38:31.06	76.59	8.63	-42.5	-43.8	20.9	0.00e+00	92	41	0	583008256	58	6287
2026-01-21 11:38:34.38	77.16	8.60	-42.8	-44.2	20.4	0.00e+00	44	41	0	589299712	58	6595
2026-01-21 11:38:37.12	77.62	8.56	-42.8	-44.3	20.4	0.00e+00	0	41	0	594542592	58	6634
2026-01-21 11:38:40.43	78.17	8.52	-42.5	-43.8	20.8	0.00e+00	81	41	0	600834048	58	6314
2026-01-21 11:38:43.18	78.64	8.48	-42.5	-43.8	20.9	0.00e+00	0	41	0	606076928	58	6251
2026-01-21 11:38:46.50	79.19	8.44	-42.4	-43.8	20.9	0.00e+00	0	41	0	612368384	58	6256
2026-01-21 11:38:49.23	79.65	8.40	-42.4	-43.8	20.8	0.00e+00	13	41	0	616562688	58	6256
2026-01-21 11:38:52.55	80.20	8.35	-42.6	-43.9	20.7	0.00e+00	92	41	0	622854144	58	6353
2026-01-21 11:38:55.29	80.66	8.30	-42.7	-44.0	20.7	0.00e+00	0	41	0	628097024	58	6412
2026-01-21 11:38:58.61	81.20	8.25	-42.2	-43.5	21.0	0.00e+00	0	41	0	634388480	58	6042
2026-01-21 11:39:01.35	81.66	8.20	-41.9	-43.1	21.3	0.00e+00	92	41	0	639631360	58	5772
2026-01-21 11:39:04.67	82.20	8.14	-42.1	-43.3	21.2	0.00e+00	0	41	0	645922816	58	5932
2026-01-21 11:39:07.41	82.65	8.10	-41.9	-43.1	21.5	0.00e+00	0	41	0	651165696	56	6466
2026-01-21 11:39:10.72	83.19	8.03	-42.0	-43.3	21.2	0.00e+00	6	41	0	657457152	56	6664
2026-01-21 11:39:13.46	83.64	7.98	-42.1	-43.3	21.3	0.00e+00	80	41	0	662700032	56	6645
2026-01-21 11:39:16.78	84.17	7.92	-42.4	-43.7	21.0	0.00e+00	77	41	0	668991488	56	6932
2026-01-21 11:39:19.52	84.62	7.86	-42.1	-43.3	21.1	0.00e+00	56	41	0	674234368	56	6692
2026-01-21 11:39:22.84	85.15	7.79	-42.5	-43.8	20.6	0.00e+00	90	41	0	680525824	58	6252
2026-01-21 11:39:25.57	85.59	7.73	-42.4	-43.7	21.0	0.00e+00	0	41	0	684720128	58	6180
2026-01-21 11:39:28.90	86.12	7.66	-42.3	-43.5	21.1	0.00e+00	6	41	0	691011584	58	6058
2026-01-21 11:39:31.63	86.55	7.60	-42.0	-43.2	21.4	0.00e+00	90	41	0	696254464	56	6563
2026-01-21 11:39:34.95	87.07	7.52	-42.4	-43.6	20.9	0.00e+00	4	41	0	702545920	56	6912
2026-01-21 11:39:37.69	87.50	7.46	-42.7	-44.0	20.6	0.00e+00	0	41	0	707788800	56	7195
2026-01-21 11:39:41.01	88.02	7.38	-42.9	-44.2	20.1	0.00e+00	69	41	0	714080256	58	6614
2026-01-21 11:39:43.75	88.45	7.31	-42.7	-44.1	20.3	0.00e+00	0	41	0	719323136	58	6465
2026-01-21 11:39:47.07	88.96	7.23	-42.2	-43.5	20.9	0.00e+00	1	41	0	725614592	58	6039
2026-01-21 11:39:49.80	89.38	7.16	-42.7	-44.0	20.4	0.00e+00	90	41	0	730857472	58	6443
2026-01-21 11:39:53.12	89.89	7.08	-42.9	-44.2	20.2	0.00e+00	92	41	0	737148928	58	6579
2026-01-21 11:39:55.86	90.31	7.00	-43.0	-44.4	20.0	0.00e+00	4	41	0	742391808	58	6709
2026-01-21 11:39:59.18	90.81	6.92	-43.5	-45.2	19.2	0.00e+00	82	41	0	748683264	58	7409
2026-01-21 11:40:01.92	91.23	6.84	-44.5	-46.4	18.1	0.00e+00	92	41	0	752877568	60	7521
2026-01-21 11:40:05.24	91.73	6.75	-44.6	-46.4	18.0	0.00e+00	0	41	0	759169024	60	7578
2026-01-21 11:40:07.98	92.14	6.67	-44.1	-45.9	18.4	0.00e+00	0	41	0	764411904	60	7154
2026-01-21 11:40:11.29	92.63	6.58	-44.0	-45.8	18.6	0.00e+00	83	41	0	770703360	60	7020
2026-01-21 11:40:14.03	93.03	6.50	-44.0	-45.8	18.6	0.00e+00	80	41	0	775946240	60	7060
2026-01-21 11:40:17.35	93.52	6.41	-43.7	-45.3	19.0	0.00e+00	0	41	0	782237696	60	6673
2026-01-21 11:40:20.09	93.92	6.33	-44.0	-45.7	18.6	0.00e+00	92	41	0	787480576	60	6950
2026-01-21 11:40:23.40	94.40	6.23	-44.4	-46.6	17.6	0.00e+00	41	41	0	793772032	60	7739
2026-01-21 11:40:26.14	94.79	6.14	-44.9	-47.6	16.8	0.00e+00	0	41	0	799014912	60	8687
2026-01-21 11:40:29.46	95.27	6.04	-45.3	-47.7	16.5	0.00e+00	2	41	0	805306368	60	8803
2026-01-21 11:40:32.20	95.66	5.96	-45.4	-47.9	16.5	0.00e+00	0	41	0	810549248	60	8946
2026-01-21 11:40:35.52	96.13	5.86	-45.3	-47.8	16.0	0.00e+00	0	41	0	816840704	60	8833
2026-01-21 11:40:38.26	96.52	5.77	-44.8	-47.0	17.2	0.00e+00	80	41	0	821035008	60	8136
2026-01-21 11:40:41.58	96.98	5.66	-44.8	-46.9	17.2	0.00e+00	92	41	0	827326464	60	7960
2026-01-21 11:40:44.32	97.36	5.58	-45.2	-47.4	16.5	0.00e+00	0	41	0	832569344	60	8506
2026-01-21 11:40:47.63	97.82	5.47	-45.1	-47.3	16.7	0.00e+00	6	41	0	838860800	60	8400
2026-01-21 11:40:50.37	98.19	5.38	-44.8	-47.0	17.3	0.00e+00	90	41	0	844103680	60	8078
2026-01-21 11:40:53.69	98.65	5.27	-44.2	-46.5	17.7	0.00e+00	79	41	0	850395136	60	7662
2026-01-21 11:40:56.43	99.02	5.18	-44.2	-46.7	17.3	0.00e+00	0	41	0	855638016	60	7799
2026-01-21 11:40:59.74	99.46	5.07	-45.0	-47.2	16.9	0.00e+00	0	41	0	861929472	60	8238
2026-01-21 11:41:02.48	99.83	4.98	-45.2	-47.7	16.2	0.00e+00	0	41	0	867172352	60	8721
2026-01-21 11:41:05.80	100.27	4.86	-45.0	-47.4	16.1	0.00e+00	5	41	0	873463808	60	8459
2026-01-21 11:41:08.54	100.63	4.77	-44.5	-47.1	17.0	0.00e+00	3	41	0	878706688	60	8165
2026-01-21 11:41:11.86	101.06	4.65	-44.1	-46.3	17.7	0.00e+00	90	41	0	883949568	60	7464
2026-01-21 11:41:14.60	101.42	4.56	-43.9	-46.1	17.9	0.00e+00	0	41	0	889192448	60	7290
2026-01-21 11:41:17.92	101.85	4.44	-44.6	-46.8	17.1	0.00e+00	6	41	0	895483904	60	7943
2026-01-21 11:41:20.66	102.20	4.35	-44.7	-46.8	17.0	0.00e+00	92	41	0	900726784	60	7933
2026-01-21 11:41:23.98	102.62	4.23	-44.3	-46.5	17.3	0.00e+00	0	41	0	907018240	60	7666
2026-01-21 11:41:26.72	102.97	4.13	-44.5	-46.6	17.1	0.00e+00	6	41	0	912261120	60	7697
2026-01-21 11:41:30.03	103.39	4.01	-44.5	-46.6	17.2	0.00e+00	0	41	0	918552576	60	7738
2026-01-21 11:41:32.78	103.73	3.91	-44.4	-46.6	17.0	0.00e+00	0	41	0	923795456	60	7738
2026-01-21 11:41:36.09	104.14	3.79	-43.9	-45.9	17.9	0.00e+00	0	41	0	930086912	60	7102
2026-01-21 11:41:38.83	104.47	3.70	-44.0	-47.0	16.8	0.00e+00	81	41	0	935329792	60	8071
2026-01-21 11:41:42.15	104.88	3.57	-43.2	-45.1	18.4	0.00e+00	91	41	0	941621248	60	6488
2026-01-21 11:41:44.88	105.21	3.47	-43.5	-45.7	17.8	0.00e+00	7	41	0	946864128	60	6952
2026-01-21 11:41:48.20	105.61	3.35	-43.3	-45.5	17.7	0.00e+00	76	41	0	952107008	60	6774
2026-01-21 11:41:50.95	105.94	3.25	-43.7	-45.7	17.5	0.00e+00	91	41	0	957349888	60	7003
2026-01-21 11:41:54.26	106.33	3.13	-43.0	-46.2	16.8	0.00e+00	2	41	0	963641344	60	7355
2026-01-21 11:41:57.00	106.65	3.02	-44.5	-47.1	16.0	0.00e+00	0	41	0	968884224	60	8181
2026-01-21 11:42:00.32	107.04	2.90	-50.4	-65.8	3.6	1.51e+00	0	41	104	969932800	60	70530
2026-01-21 11:42:03.06	107.36	2.80	-51.0	-66.3	3.6	1.51e+00	0	41	104	969932800	60	74294
2026-01-21 11:42:06.38	107.74	2.67	-51.0	-66.5	3.6	1.51e+00	0	41	104	969932800	60	76049
2026-01-21 11:42:09.13	108.05	2.57	-51.3	-66.5	3.6	1.51e+00	0	41	104	969932800	60	76481
2026-01-21 11:42:12.44	108.43	2.44	-51.6	-66.8	3.6	1.51e+00	0	41	104	969932800	60	78764
2026-01-21 11:42:15.18	108.74	2.34	-51.5	-66.7	3.6	1.51e+00	0	41	104	969932800	60	78162
2026-01-21 11:42:18.50	109.11	2.21	-51.8	-67.0	3.6	1.51e+00	0	41	104	969932800	60	80619
2026-01-21 11:42:21.24	109.41	2.11	-52.2	-67.4	3.6	1.51e+00	0	41	104	969932800	60	84968
2026-01-21 11:42:24.56	109.78	1.98	-52.2	-67.5	3.6	1.51e+00	0	41	104	969932800	60	85264
2026-01-21 11:42:27.30	110.08	1.87	-51.8	-67.1	3.6	1.51e+00	0	41	104	969932800	60	81527
2026-01-21 11:42:30.62	110.44	1.75	-52.3	-67.5	3.6	1.51e+00	0	41	104	969932800	60	85969
2026-01-21 11:42:33.36	110.73	1.64	-51.6	-66.9	3.6	1.51e+00	0	41	104	969932800	60	79685
2026-01-21 11:42:36.68	111.08	1.51	-51.5	-66.7	3.6	1.51e+00	0	41	104	969932800	60	78516
2026-01-21 11:42:39.42	111.38	1.41	-51.7	-66.9	3.6	1.51e+00	0	41	104	969932800	60	80156
2026-01-21 11:42:42.74	111.72	1.28	-51.5	-66.8	3.6	1.51e+00	0	41	104	969932800	60	78718
2026-01-21 11:42:45.48	112.01	1.17	-51.9	-67.2	3.6	1.51e+00	0	41	104	969932800	60	82415
2026-01-21 11:42:48.80	112.35	1.04	-51.9	-67.2	3.6	1.51e+00	0	41	104	969932800	60	82890
2026-01-21 11:42:51.54	112.64	0.93	-51.7	-66.9	3.6	1.51e+00	0	41	104	969932800	60	80237
2026-01-21 11:42:54.86	112.97	0.80	-51.7	-67.0	3.6	1.51e+00	0	41	104	969932800	60	80489
2026-01-21 11:42:57.60	113.25	0.70	-52.3	-67.5	3.6	1.51e+00	0	41	104	969932800	60	86016
2026-01-21 11:43:00.91	113.58	0.57	-52.3	-67.6	3.6	1.51e+00	0	41	104	969932800	60	86309
2026-01-21 11:43:03.66	113.86	0.46	-52.7	-67.9	3.6	1.51e+00	0	41	104	969932800	60	89748
2026-01-21 11:43:06.98	114.19	0.33	-52.8	-68.1	3.6	1.51e+00	0	41	104	969932800	60	91527
2026-01-21 11:43:09.72	114.46	0.22	-52.3	-67.6	3.6	1.51e+00	0	41	104	969932800	60	86397
2026-01-21 11:43:13.04	114.78	0.09	-52.5	-67.8	3.6	1.51e+00	0	41	104	969932800	60	88295
2026-01-21 11:43:15.78	115.05	-0.02	-52.3	-67.6	3.6	1.51e+00	0	41	104	969932800	60	86381

#Closed at: 2026-01-21 11:43:16
#Recorded file [969 MB]: D:/lorett/data/35029_260121_233206.dat