passes_logs/2026/01/21/R4.6S_Anadyr/R4.6S_Anadyr__20260121_134944_FENGYUN_3D_rec.log

#Pass ID: 20260121_134944_FENGYUN 3D
#Satellite: FENGYUN 3D
#Configuration: FENGYUN 3D
#almurnet v.1.7.20251203
#Start time: 2026-01-21 13:49:46

#Version: 2.2.20231116
#Station: R4.6S_Anadyr
#Location: 177.4865 lon 64.73178 lat
#TLE: 1 43010U 17072A   26020.92362722 -.00000077  00000+0 -14488-4 0  9992
#TLE: 2 43010  98.9946 352.8312 0002486  99.3651 260.7806 14.19696535424099

#Time	Az	El	Level	Level2	SNR	BER	BlckErr	Temp	State	Recorded	gain1	gain2
2026-01-21 13:49:46.12	21.02	0.08	-51.4	-66.3	3.5	1.51e+00	0	38	0	0	60	74359
2026-01-21 13:49:49.15	21.30	0.21	-52.0	-64.1	3.6	8.45e-01	0	40	104	0	60	58079
2026-01-21 13:49:52.18	21.58	0.33	-52.0	-64.1	3.6	8.46e-01	0	40	104	0	60	58083
2026-01-21 13:49:55.21	21.87	0.46	-51.5	-63.7	3.6	8.46e-01	0	40	104	0	60	55382
2026-01-21 13:49:58.24	22.15	0.59	-51.4	-63.5	3.6	8.46e-01	0	40	104	0	60	54110
2026-01-21 13:50:01.27	22.44	0.71	-51.1	-63.3	3.6	8.45e-01	0	40	104	0	60	52627
2026-01-21 13:50:04.30	22.73	0.84	-50.9	-63.0	3.6	8.46e-01	0	40	104	0	60	51346
2026-01-21 13:50:07.33	23.03	0.96	-50.6	-62.8	3.6	8.45e-01	0	40	104	0	60	49971
2026-01-21 13:50:10.36	23.32	1.09	-50.1	-62.2	3.6	8.45e-01	0	40	104	0	60	46478
2026-01-21 13:50:13.40	23.62	1.21	-49.6	-61.7	3.6	8.45e-01	0	40	104	0	60	44052
2026-01-21 13:50:16.42	23.92	1.34	-49.6	-61.7	3.6	8.45e-01	0	40	104	0	60	44056
2026-01-21 13:50:19.46	24.22	1.47	-49.5	-61.6	3.6	8.43e-01	0	40	104	0	60	43489
2026-01-21 13:50:22.49	24.53	1.59	-49.5	-61.6	3.6	8.45e-01	0	40	104	0	60	43559
2026-01-21 13:50:25.52	24.84	1.72	-49.5	-61.7	3.6	8.45e-01	0	40	104	0	60	43714
2026-01-21 13:50:28.55	25.15	1.84	-49.5	-61.6	3.6	8.46e-01	0	40	104	0	60	43368
2026-01-21 13:50:31.58	25.46	1.97	-49.5	-61.6	3.6	8.45e-01	0	40	104	0	60	43512
2026-01-21 13:50:34.60	25.77	2.09	-49.5	-61.5	3.6	8.46e-01	0	40	104	0	60	43050
2026-01-21 13:50:37.63	26.09	2.22	-49.5	-61.6	3.6	8.46e-01	0	40	104	0	60	43244
2026-01-21 13:50:40.67	26.41	2.34	-49.5	-61.5	3.6	8.45e-01	0	40	104	0	60	42980
2026-01-21 13:50:43.70	26.74	2.47	-49.4	-60.5	3.6	8.44e-01	0	40	104	0	60	38228
2026-01-21 13:50:46.73	27.06	2.59	-49.0	-57.3	3.9	8.41e-01	0	40	104	0	60	26339
2026-01-21 13:50:49.76	27.39	2.72	-42.3	-43.7	17.1	0.00e+00	0	40	0	11534336	60	5514
2026-01-21 13:50:52.79	27.72	2.84	-39.7	-40.7	19.8	0.00e+00	0	40	0	28311552	52	6199
2026-01-21 13:50:55.82	28.05	2.96	-44.4	-46.4	14.2	0.00e+00	0	40	0	45088768	60	7509
2026-01-21 13:50:58.85	28.39	3.09	-49.3	-61.4	3.6	1.55e-01	0	41	104	61865984	60	42313
2026-01-21 13:51:01.88	28.73	3.21	-49.5	-60.6	3.6	2.47e-01	0	41	104	67108864	60	38540
2026-01-21 13:51:04.91	29.07	3.34	-42.6	-43.9	16.7	0.00e+00	0	40	0	74448896	60	5665
2026-01-21 13:51:07.94	29.42	3.46	-42.9	-44.4	16.4	0.00e+00	0	41	0	91226112	58	6707
2026-01-21 13:51:10.97	29.76	3.58	-42.5	-43.8	15.8	0.00e+00	0	41	0	108003328	58	6256
2026-01-21 13:51:14.00	30.11	3.70	-43.3	-44.8	16.2	0.00e+00	0	41	0	124780544	60	6259
2026-01-21 13:51:17.03	30.47	3.83	-42.4	-43.7	17.1	0.00e+00	0	41	0	142606336	58	6193
2026-01-21 13:51:20.06	30.82	3.95	-41.2	-42.3	18.6	0.00e+00	0	41	0	159383552	56	5928
2026-01-21 13:51:23.09	31.18	4.07	-40.9	-41.9	18.9	0.00e+00	0	41	0	176160768	54	6382
2026-01-21 13:51:26.13	31.54	4.19	-40.1	-41.1	19.8	0.00e+00	0	40	0	192937984	54	5788
2026-01-21 13:51:29.16	31.91	4.31	-39.0	-39.9	21.1	0.00e+00	0	41	0	210763776	52	5631
2026-01-21 13:51:32.19	32.27	4.43	-38.4	-39.2	21.5	0.00e+00	0	41	0	227540992	50	5845
2026-01-21 13:51:35.21	32.64	4.55	-39.1	-40.0	20.9	0.00e+00	0	41	0	244318208	50	6440
2026-01-21 13:51:38.24	33.02	4.67	-38.4	-39.3	21.7	0.00e+00	0	41	0	262144000	50	5916
2026-01-21 13:51:41.27	33.39	4.79	-38.4	-39.3	21.6	0.00e+00	0	41	0	278921216	50	5898
2026-01-21 13:51:44.30	33.77	4.91	-38.1	-38.9	22.1	0.00e+00	0	41	0	295698432	50	5638
2026-01-21 13:51:47.33	34.15	5.03	-37.7	-38.5	22.5	0.00e+00	0	41	0	312475648	50	5438
2026-01-21 13:51:50.37	34.54	5.15	-38.4	-39.2	21.7	0.00e+00	0	41	0	329252864	48	6605
2026-01-21 13:51:53.39	34.92	5.26	-38.3	-39.1	22.0	0.00e+00	0	41	0	347078656	50	5770
2026-01-21 13:51:56.42	35.31	5.38	-38.4	-39.2	21.9	0.00e+00	0	41	0	363855872	50	5870
2026-01-21 13:51:59.45	35.71	5.49	-38.5	-39.3	21.9	0.00e+00	0	41	0	380633088	50	5901
2026-01-21 13:52:02.48	36.11	5.61	-38.4	-39.2	21.9	0.00e+00	0	41	0	397410304	50	5892
2026-01-21 13:52:05.51	36.50	5.72	-38.5	-39.3	22.0	0.00e+00	0	41	0	415236096	50	5906
2026-01-21 13:52:08.54	36.91	5.84	-37.9	-38.7	22.4	0.00e+00	0	41	0	432013312	50	5550
2026-01-21 13:52:11.57	37.31	5.95	-37.8	-38.6	22.6	0.00e+00	0	41	0	448790528	48	6113
2026-01-21 13:52:14.60	37.72	6.07	-38.0	-38.8	22.3	0.00e+00	0	41	0	466616320	48	6306
2026-01-21 13:52:17.63	38.13	6.18	-37.7	-38.5	22.6	0.00e+00	0	41	0	483393536	48	6051
2026-01-21 13:52:20.65	38.55	6.29	-37.8	-38.6	22.6	0.00e+00	0	41	0	500170752	48	6127
2026-01-21 13:52:23.68	38.97	6.40	-37.9	-38.6	22.5	0.00e+00	0	41	0	516947968	48	6163
2026-01-21 13:52:26.71	39.39	6.51	-38.1	-38.8	22.2	0.00e+00	0	41	0	533725184	48	6317
2026-01-21 13:52:29.74	39.81	6.62	-37.9	-38.7	22.5	0.00e+00	0	41	0	551550976	48	6229
2026-01-21 13:52:32.77	40.24	6.73	-37.7	-38.4	22.7	0.00e+00	0	41	0	568328192	48	6027
2026-01-21 13:52:35.80	40.67	6.83	-37.7	-38.5	22.6	0.00e+00	0	41	0	585105408	48	6071
2026-01-21 13:52:38.83	41.10	6.94	-37.9	-38.7	22.6	0.00e+00	0	41	0	601882624	48	6190
2026-01-21 13:52:41.85	41.54	7.04	-38.1	-38.9	22.3	0.00e+00	0	41	0	619708416	48	6389
2026-01-21 13:52:44.88	41.98	7.15	-37.7	-38.5	22.6	0.00e+00	0	41	0	636485632	48	6084
2026-01-21 13:52:47.91	42.42	7.25	-37.7	-38.5	22.8	0.00e+00	0	41	0	653262848	48	6082
2026-01-21 13:52:50.94	42.86	7.35	-37.6	-38.4	22.8	0.00e+00	0	41	0	671088640	48	6016
2026-01-21 13:52:53.98	43.31	7.46	-37.7	-38.4	22.7	0.00e+00	0	41	0	687865856	48	6018
2026-01-21 13:52:57.01	43.77	7.56	-37.2	-38.0	23.1	0.00e+00	0	41	0	704643072	48	5726
2026-01-21 13:53:00.04	44.22	7.66	-37.4	-38.1	23.1	0.00e+00	0	41	0	721420288	48	5823
2026-01-21 13:53:03.07	44.68	7.75	-37.1	-37.8	23.4	0.00e+00	0	41	0	738197504	48	5606
2026-01-21 13:53:06.10	45.14	7.85	-37.1	-37.9	23.4	0.00e+00	0	41	0	756023296	48	5642
2026-01-21 13:53:09.13	45.60	7.95	-37.2	-38.0	23.3	0.00e+00	0	41	0	772800512	48	5702
2026-01-21 13:53:12.16	46.07	8.04	-37.4	-38.1	23.2	0.00e+00	0	41	0	789577728	48	5805
2026-01-21 13:53:15.19	46.54	8.13	-37.5	-38.2	23.1	0.00e+00	0	41	0	807403520	48	5864
2026-01-21 13:53:18.22	47.01	8.22	-37.2	-37.9	23.4	0.00e+00	0	41	0	824180736	48	5679
2026-01-21 13:53:21.25	47.49	8.32	-37.0	-37.8	23.4	0.00e+00	0	41	0	840957952	48	5572
2026-01-21 13:53:24.28	47.96	8.40	-37.4	-38.2	23.1	0.00e+00	0	41	0	857735168	48	5864
2026-01-21 13:53:27.31	48.44	8.49	-37.2	-38.0	23.3	0.00e+00	0	41	0	875560960	48	5713
2026-01-21 13:53:30.34	48.93	8.58	-37.1	-37.9	23.3	0.00e+00	0	41	0	892338176	48	5649
2026-01-21 13:53:33.37	49.41	8.66	-37.3	-38.1	23.1	0.00e+00	0	41	0	909115392	48	5777
2026-01-21 13:53:36.40	49.90	8.75	-37.3	-38.0	23.2	0.00e+00	0	41	0	925892608	48	5747
2026-01-21 13:53:39.43	50.40	8.83	-37.4	-38.1	23.2	0.00e+00	0	41	0	943718400	48	5801
2026-01-21 13:53:42.46	50.89	8.91	-37.0	-37.8	23.3	0.00e+00	0	41	0	960495616	48	5587
2026-01-21 13:53:45.50	51.39	8.99	-36.9	-37.7	23.5	0.00e+00	0	41	0	977272832	48	5505
2026-01-21 13:53:48.53	51.89	9.06	-37.1	-37.9	23.4	0.00e+00	0	41	0	994050048	48	5654
2026-01-21 13:53:51.56	52.39	9.14	-37.3	-38.1	23.2	0.00e+00	0	41	0	1011875840	48	5770
2026-01-21 13:53:54.59	52.90	9.21	-36.9	-37.6	23.5	0.00e+00	0	41	0	1028653056	48	5500
2026-01-21 13:53:57.62	53.40	9.29	-37.0	-37.7	23.2	0.00e+00	0	41	0	1045430272	48	5553
2026-01-21 13:54:00.65	53.91	9.36	-36.8	-37.6	23.5	0.00e+00	0	41	0	1062207488	46	6114
2026-01-21 13:54:03.68	54.42	9.42	-36.7	-37.4	23.8	0.00e+00	0	41	0	1080033280	46	6008
2026-01-21 13:54:06.71	54.94	9.49	-36.8	-37.5	23.8	0.00e+00	0	41	0	1096810496	46	6075
2026-01-21 13:54:09.74	55.46	9.56	-36.7	-37.4	23.8	0.00e+00	0	41	0	1113587712	46	6020
2026-01-21 13:54:12.76	55.97	9.62	-36.6	-37.4	24.0	0.00e+00	0	41	0	1130364928	46	5976
2026-01-21 13:54:15.79	56.49	9.68	-36.4	-37.1	24.1	0.00e+00	0	41	0	1148190720	46	5799
2026-01-21 13:54:18.82	57.02	9.74	-36.4	-37.1	24.1	0.00e+00	0	41	0	1164967936	46	5789
2026-01-21 13:54:21.85	57.54	9.80	-36.7	-37.4	23.8	0.00e+00	0	41	0	1181745152	46	5996
2026-01-21 13:54:24.88	58.07	9.85	-36.9	-37.6	23.7	0.00e+00	0	41	0	1198522368	46	6135
2026-01-21 13:54:27.91	58.60	9.90	-36.9	-37.7	23.7	0.00e+00	0	41	0	1216348160	46	6177
2026-01-21 13:54:30.94	59.13	9.96	-36.5	-37.2	24.0	0.00e+00	0	41	0	1233125376	46	5846
2026-01-21 13:54:33.97	59.66	10.00	-36.6	-37.3	24.0	0.00e+00	0	41	0	1249902592	46	5908
2026-01-21 13:54:37.00	60.20	10.05	-36.6	-37.3	24.0	0.00e+00	0	41	0	1266679808	46	5944
2026-01-21 13:54:40.03	60.73	10.10	-36.8	-37.5	23.8	0.00e+00	0	41	0	1284505600	46	6083
2026-01-21 13:54:43.07	61.27	10.14	-36.8	-37.6	23.7	0.00e+00	0	41	0	1301282816	46	6128
2026-01-21 13:54:46.10	61.81	10.18	-36.6	-37.3	23.9	0.00e+00	0	41	0	1318060032	46	5922
2026-01-21 13:54:49.13	62.35	10.22	-36.6	-37.3	23.7	0.00e+00	0	41	0	1334837248	46	5964
2026-01-21 13:54:52.16	62.90	10.26	-36.7	-37.4	23.7	0.00e+00	0	41	0	1352663040	46	6025
2026-01-21 13:54:55.19	63.44	10.29	-36.6	-37.4	23.3	0.00e+00	0	41	0	1369440256	46	6014
2026-01-21 13:54:58.22	63.98	10.32	-36.4	-37.1	24.0	0.00e+00	0	41	0	1386217472	46	5800
2026-01-21 13:55:01.25	64.53	10.35	-36.5	-37.2	24.0	0.00e+00	0	41	0	1404043264	46	5846
2026-01-21 13:55:04.28	65.08	10.38	-36.4	-37.1	24.1	0.00e+00	0	41	0	1420820480	46	5804
2026-01-21 13:55:07.31	65.62	10.40	-36.6	-37.3	23.9	0.00e+00	0	41	0	1437597696	46	5947
2026-01-21 13:55:10.35	66.18	10.43	-36.8	-37.6	23.7	0.00e+00	0	41	0	1454374912	46	6113
2026-01-21 13:55:13.37	66.72	10.45	-36.5	-37.2	24.0	0.00e+00	0	41	0	1471152128	46	5883
2026-01-21 13:55:16.40	67.27	10.47	-36.4	-37.2	23.9	0.00e+00	0	41	0	1488977920	46	5840
2026-01-21 13:55:19.43	67.82	10.48	-36.5	-37.3	23.7	0.00e+00	0	41	0	1505755136	46	5917
2026-01-21 13:55:22.46	68.38	10.50	-36.5	-37.2	23.7	0.00e+00	0	41	0	1522532352	46	5893
2026-01-21 13:55:25.50	68.93	10.51	-36.4	-37.2	23.8	0.00e+00	0	41	0	1540358144	46	5839
2026-01-21 13:55:28.53	69.48	10.52	-36.4	-37.1	24.0	0.00e+00	0	41	0	1557135360	46	5777
2026-01-21 13:55:31.56	70.04	10.52	-36.5	-37.2	24.0	0.00e+00	0	41	0	1573912576	46	5857
2026-01-21 13:55:34.59	70.59	10.53	-36.7	-37.5	23.9	0.00e+00	0	41	0	1590689792	46	6051
2026-01-21 13:55:37.62	71.14	10.53	-36.6	-37.3	23.9	0.00e+00	0	41	0	1608515584	46	5938
2026-01-21 13:55:40.65	71.69	10.53	-36.3	-37.1	24.2	0.00e+00	0	41	0	1625292800	46	5799
2026-01-21 13:55:43.68	72.25	10.53	-36.4	-37.1	24.1	0.00e+00	0	41	0	1642070016	46	5797
2026-01-21 13:55:46.71	72.80	10.52	-36.4	-37.2	24.1	0.00e+00	0	41	0	1658847232	46	5829
2026-01-21 13:55:49.75	73.36	10.51	-36.5	-37.2	24.0	0.00e+00	0	41	0	1676673024	46	5858
2026-01-21 13:55:52.78	73.91	10.50	-36.4	-37.1	23.9	0.00e+00	0	41	0	1693450240	46	5823
2026-01-21 13:55:55.80	74.46	10.49	-36.5	-37.3	23.9	0.00e+00	0	41	0	1710227456	46	5901
2026-01-21 13:55:58.83	75.01	10.48	-36.6	-37.4	23.7	0.00e+00	0	41	0	1727004672	46	5994
2026-01-21 13:56:01.86	75.56	10.46	-36.7	-37.4	23.7	0.00e+00	0	41	0	1744830464	46	6026
2026-01-21 13:56:04.89	76.11	10.44	-36.6	-37.3	23.9	0.00e+00	0	41	0	1761607680	46	5962
2026-01-21 13:56:07.92	76.66	10.42	-36.5	-37.2	24.0	0.00e+00	0	41	0	1778384896	46	5883
2026-01-21 13:56:10.95	77.21	10.40	-36.6	-37.3	24.0	0.00e+00	0	41	0	1795162112	46	5908
2026-01-21 13:56:13.98	77.76	10.37	-36.3	-37.0	24.1	0.00e+00	0	41	0	1812987904	46	5713
2026-01-21 13:56:17.02	78.31	10.34	-36.3	-37.0	24.2	0.00e+00	0	41	0	1829765120	46	5711
2026-01-21 13:56:20.05	78.86	10.31	-36.9	-37.6	23.7	0.00e+00	0	41	0	1846542336	46	6140
2026-01-21 13:56:23.08	79.40	10.28	-36.9	-37.6	23.7	0.00e+00	0	41	0	1863319552	46	6171
2026-01-21 13:56:26.11	79.94	10.25	-36.4	-37.1	24.1	0.00e+00	0	41	0	1881145344	46	5799
2026-01-21 13:56:29.14	80.49	10.21	-36.4	-37.1	24.1	0.00e+00	0	41	0	1897922560	46	5811
2026-01-21 13:56:32.17	81.03	10.17	-36.6	-37.4	23.9	0.00e+00	0	41	0	1914699776	46	5988
2026-01-21 13:56:35.20	81.57	10.13	-36.7	-37.4	23.8	0.00e+00	0	41	0	1932525568	46	6027
2026-01-21 13:56:38.23	82.11	10.08	-36.6	-37.4	23.8	0.00e+00	0	41	0	1949302784	46	6003
2026-01-21 13:56:41.26	82.64	10.04	-36.6	-37.4	23.9	0.00e+00	0	41	0	1966080000	46	5979
2026-01-21 13:56:44.29	83.18	9.99	-36.8	-37.5	23.7	0.00e+00	0	41	0	1982857216	46	6065
2026-01-21 13:56:47.33	83.71	9.94	-37.0	-37.8	23.6	0.00e+00	0	42	0	1999634432	46	6247
2026-01-21 13:56:50.36	84.25	9.89	-36.9	-37.7	23.5	0.00e+00	0	41	0	2017460224	48	5510
2026-01-21 13:56:53.39	84.78	9.83	-36.8	-37.6	23.7	0.00e+00	0	42	0	2034237440	46	6126
2026-01-21 13:56:56.42	85.30	9.78	-37.0	-37.7	23.5	0.00e+00	0	42	0	2051014656	46	6186
2026-01-21 13:56:59.45	85.83	9.72	-36.7	-37.4	23.8	0.00e+00	0	41	0	2068840448	46	6020
2026-01-21 13:57:02.48	86.35	9.66	-36.7	-37.4	23.8	0.00e+00	0	42	0	2085617664	46	6021
2026-01-21 13:57:05.51	86.88	9.60	-36.9	-37.7	23.6	0.00e+00	0	42	0	2102394880	46	6175
2026-01-21 13:57:08.54	87.40	9.53	-36.9	-37.7	23.6	0.00e+00	0	41	0	2119172096	46	6214
2026-01-21 13:57:11.57	87.91	9.47	-36.9	-37.7	23.6	0.00e+00	0	41	0	2136997888	46	6188
2026-01-21 13:57:14.60	88.43	9.40	-37.0	-37.8	23.5	0.00e+00	0	41	0	2153775104	46	6299
2026-01-21 13:57:17.63	88.94	9.33	-37.1	-37.8	23.3	0.00e+00	0	41	0	2170552320	46	6285
2026-01-21 13:57:20.66	89.45	9.26	-37.0	-37.8	23.4	0.00e+00	0	41	0	2187329536	46	6254
2026-01-21 13:57:23.68	89.96	9.19	-37.0	-37.7	23.5	0.00e+00	0	41	0	2204106752	46	6178
2026-01-21 13:57:26.71	90.46	9.11	-36.9	-37.7	23.5	0.00e+00	0	41	0	2221932544	46	6183
2026-01-21 13:57:29.73	90.97	9.04	-36.7	-37.5	23.8	0.00e+00	0	41	0	2238709760	46	6039
2026-01-21 13:57:32.76	91.47	8.96	-37.0	-37.7	23.5	0.00e+00	0	41	0	2255486976	46	6230
2026-01-21 13:57:35.79	91.96	8.88	-37.1	-37.9	23.3	0.00e+00	0	42	0	2273312768	46	6326
2026-01-21 13:57:38.83	92.46	8.80	-37.7	-38.5	22.8	0.00e+00	0	42	0	2290089984	46	6804
2026-01-21 13:57:41.86	92.95	8.72	-37.1	-37.9	23.3	0.00e+00	0	41	0	2306867200	48	5657
2026-01-21 13:57:44.89	93.44	8.63	-37.3	-38.1	23.1	0.00e+00	0	41	0	2323644416	48	5800
2026-01-21 13:57:47.92	93.93	8.55	-37.2	-38.0	23.1	0.00e+00	0	42	0	2341470208	48	5711
2026-01-21 13:57:50.95	94.42	8.46	-37.1	-38.0	23.2	0.00e+00	0	42	0	2358247424	48	5699
2026-01-21 13:57:53.99	94.90	8.37	-37.0	-37.7	23.4	0.00e+00	0	42	0	2375024640	48	5548
2026-01-21 13:57:57.02	95.38	8.28	-37.2	-37.9	23.2	0.00e+00	0	42	0	2391801856	48	5685
2026-01-21 13:58:00.05	95.86	8.19	-37.3	-38.0	23.1	0.00e+00	0	42	0	2409627648	48	5737
2026-01-21 13:58:03.09	96.33	8.09	-37.5	-38.3	22.9	0.00e+00	0	42	0	2426404864	48	5962
2026-01-21 13:58:06.12	96.80	8.00	-37.5	-38.3	22.8	0.00e+00	0	42	0	2443182080	48	5927
2026-01-21 13:58:09.15	97.27	7.90	-37.6	-38.4	22.8	0.00e+00	0	42	0	2459959296	48	5980
2026-01-21 13:58:12.18	97.73	7.81	-37.5	-38.3	22.9	0.00e+00	0	42	0	2477785088	48	5904
2026-01-21 13:58:15.21	98.19	7.71	-37.4	-38.2	22.9	0.00e+00	0	42	0	2494562304	48	5876
2026-01-21 13:58:18.24	98.65	7.61	-37.4	-38.2	22.8	0.00e+00	0	42	0	2511339520	48	5836
2026-01-21 13:58:21.27	99.11	7.51	-37.4	-38.1	22.9	0.00e+00	0	42	0	2528116736	48	5776
2026-01-21 13:58:24.30	99.56	7.41	-37.3	-38.0	23.0	0.00e+00	0	42	0	2545942528	48	5733
2026-01-21 13:58:27.33	100.01	7.31	-37.2	-38.0	23.1	0.00e+00	0	42	0	2562719744	48	5752
2026-01-21 13:58:30.36	100.46	7.20	-37.4	-38.1	22.8	0.00e+00	0	42	0	2579496960	48	5821
2026-01-21 13:58:33.39	100.90	7.10	-37.8	-38.6	22.5	0.00e+00	0	42	0	2597322752	48	6147
2026-01-21 13:58:36.42	101.34	6.99	-37.9	-38.7	22.4	0.00e+00	0	42	0	2614099968	48	6235
2026-01-21 13:58:39.45	101.78	6.89	-37.7	-38.6	22.4	0.00e+00	0	42	0	2630877184	48	6112
2026-01-21 13:58:42.48	102.21	6.78	-37.6	-38.5	22.5	0.00e+00	0	42	0	2647654400	48	6068
2026-01-21 13:58:45.51	102.64	6.67	-37.7	-38.5	22.6	0.00e+00	0	42	0	2664431616	48	6098
2026-01-21 13:58:48.54	103.07	6.56	-38.0	-38.8	22.3	0.00e+00	0	42	0	2682257408	48	6290
2026-01-21 13:58:51.58	103.49	6.45	-37.9	-38.7	22.3	0.00e+00	0	42	0	2699034624	48	6206
2026-01-21 13:58:54.61	103.92	6.34	-38.2	-39.0	21.9	0.00e+00	0	42	0	2715811840	48	6400
2026-01-21 13:58:57.64	104.34	6.23	-38.1	-38.9	22.2	0.00e+00	0	42	0	2733637632	48	6385
2026-01-21 13:59:00.67	104.75	6.12	-38.1	-38.8	22.1	0.00e+00	0	42	0	2750414848	48	6312
2026-01-21 13:59:03.70	105.16	6.00	-37.7	-38.4	22.5	0.00e+00	0	42	0	2767192064	48	6018
2026-01-21 13:59:06.73	105.57	5.89	-37.9	-38.6	22.2	0.00e+00	0	42	0	2783969280	48	6161
2026-01-21 13:59:09.76	105.98	5.77	-38.4	-39.3	21.6	0.00e+00	0	42	0	2801795072	48	6618
2026-01-21 13:59:12.79	106.38	5.66	-38.2	-39.2	21.7	0.00e+00	0	42	0	2818572288	48	6613
2026-01-21 13:59:15.82	106.78	5.54	-38.4	-39.3	21.6	0.00e+00	0	42	0	2835349504	48	6651
2026-01-21 13:59:18.86	107.18	5.43	-38.2	-39.1	21.8	0.00e+00	0	42	0	2852126720	48	6475
2026-01-21 13:59:21.89	107.57	5.31	-38.8	-39.7	21.3	0.00e+00	0	42	0	2869952512	50	6212
2026-01-21 13:59:24.92	107.97	5.19	-38.7	-39.5	21.3	0.00e+00	0	42	0	2886729728	50	6094
2026-01-21 13:59:27.95	108.35	5.07	-39.0	-39.8	21.0	0.00e+00	0	42	0	2903506944	50	6311
2026-01-21 13:59:30.98	108.74	4.95	-39.1	-40.0	20.8	0.00e+00	0	42	0	2921332736	50	6449
2026-01-21 13:59:34.01	109.12	4.83	-38.8	-39.7	21.0	0.00e+00	0	42	0	2938109952	50	6175
2026-01-21 13:59:37.04	109.50	4.71	-38.9	-39.9	20.8	0.00e+00	0	42	0	2954887168	50	6326
2026-01-21 13:59:40.07	109.88	4.59	-39.0	-40.0	20.8	0.00e+00	0	42	0	2971664384	50	6422
2026-01-21 13:59:43.10	110.25	4.47	-38.7	-39.7	20.9	0.00e+00	0	42	0	2988441600	50	6224
2026-01-21 13:59:46.14	110.62	4.35	-38.8	-39.7	20.9	0.00e+00	0	42	0	3006267392	50	6229
2026-01-21 13:59:49.17	110.99	4.23	-38.9	-40.0	20.6	0.00e+00	0	42	0	3023044608	50	6395
2026-01-21 13:59:52.20	111.35	4.11	-38.8	-39.7	20.8	0.00e+00	0	42	0	3039821824	50	6199
2026-01-21 13:59:55.23	111.71	3.98	-39.2	-40.1	20.4	0.00e+00	0	42	0	3056599040	50	6529
2026-01-21 13:59:58.25	112.07	3.86	-39.4	-40.3	20.0	0.00e+00	0	42	0	3074424832	50	6622
2026-01-21 14:00:01.29	112.43	3.74	-39.5	-40.6	19.9	0.00e+00	0	42	0	3091202048	50	6919
2026-01-21 14:00:04.32	112.78	3.61	-39.5	-40.5	19.8	0.00e+00	0	42	0	3107979264	52	6035
2026-01-21 14:00:07.35	113.13	3.49	-39.2	-40.3	20.1	0.00e+00	0	42	0	3125805056	52	5908
2026-01-21 14:00:10.38	113.48	3.37	-39.7	-40.9	19.4	0.00e+00	0	42	0	3142582272	52	6338
2026-01-21 14:00:13.41	113.82	3.24	-40.1	-41.3	19.0	0.00e+00	0	42	0	3159359488	52	6655
2026-01-21 14:00:16.44	114.16	3.12	-40.2	-41.3	18.7	0.00e+00	0	42	0	3176136704	52	6671
2026-01-21 14:00:19.48	114.50	2.99	-42.2	-43.9	4.2	0.00e+00	0	42	0	3192913920	52	8961
2026-01-21 14:00:22.51	114.84	2.87	-50.4	-62.7	3.6	8.46e-01	0	42	104	3192913920	60	49288
2026-01-21 14:00:25.54	115.17	2.74	-50.7	-63.0	3.6	8.46e-01	0	42	104	3192913920	60	50821
2026-01-21 14:00:28.57	115.50	2.61	-50.8	-63.2	3.6	8.45e-01	0	42	104	3192913920	60	52100
2026-01-21 14:00:31.60	115.83	2.49	-51.1	-63.2	3.6	8.46e-01	0	42	104	3192913920	60	52546
2026-01-21 14:00:34.63	116.15	2.36	-51.2	-63.3	3.6	8.44e-01	0	42	104	3192913920	60	52818
2026-01-21 14:00:37.66	116.48	2.24	-51.1	-63.3	3.6	8.46e-01	0	42	104	3192913920	60	52860
2026-01-21 14:00:40.70	116.80	2.11	-51.3	-63.4	3.6	8.45e-01	0	42	104	3192913920	60	53574
2026-01-21 14:00:43.72	117.11	1.98	-51.4	-63.5	3.6	8.45e-01	0	42	104	3192913920	60	54279
2026-01-21 14:00:46.75	117.43	1.86	-51.7	-63.9	3.6	8.46e-01	0	42	104	3192913920	60	56309
2026-01-21 14:00:49.78	117.74	1.73	-52.0	-64.1	3.6	8.45e-01	0	42	104	3192913920	60	58237
2026-01-21 14:00:52.81	118.05	1.60	-51.5	-63.7	3.6	8.45e-01	0	42	104	3192913920	60	55343
2026-01-21 14:00:55.84	118.36	1.48	-51.6	-63.8	3.6	8.47e-01	0	42	104	3192913920	60	55853
2026-01-21 14:00:58.87	118.66	1.35	-51.5	-63.7	3.6	8.46e-01	0	42	104	3192913920	60	55301
2026-01-21 14:01:01.90	118.96	1.22	-51.8	-64.0	3.6	8.45e-01	0	42	104	3192913920	60	57280
2026-01-21 14:01:04.93	119.26	1.10	-51.6	-63.8	3.6	8.46e-01	0	42	104	3192913920	60	55701
2026-01-21 14:01:07.96	119.56	0.97	-51.5	-63.7	3.6	8.45e-01	0	42	104	3192913920	60	55269
2026-01-21 14:01:10.99	119.86	0.84	-51.5	-63.7	3.6	8.46e-01	0	42	104	3192913920	60	55509
2026-01-21 14:01:14.02	120.15	0.71	-51.6	-63.7	3.6	8.44e-01	0	42	104	3192913920	60	55653
2026-01-21 14:01:17.05	120.44	0.59	-51.5	-63.6	3.6	8.45e-01	0	42	104	3192913920	60	54822
2026-01-21 14:01:20.08	120.73	0.46	-51.5	-63.6	3.6	8.46e-01	0	42	104	3192913920	60	54621
2026-01-21 14:01:23.11	121.01	0.33	-51.6	-63.7	3.6	8.46e-01	0	42	104	3192913920	60	55335
2026-01-21 14:01:26.14	121.29	0.21	-51.7	-63.9	3.6	8.46e-01	0	42	104	3192913920	60	56308
2026-01-21 14:01:29.17	121.57	0.08	-51.8	-64.0	3.6	8.45e-01	0	42	104	3192913920	60	57067

#Closed at: 2026-01-21 14:01:31
#Recorded file [3192 MB]: D:/lorett/data/35029_260122_014946.dat