passes_logs/2026/01/21/R4.6S_Anadyr/R4.6S_Anadyr__20260121_235743_NOAA_21_JPSS-2_rec.log

#Pass ID: 20260121_235743_NOAA 21 (JPSS-2)
#Satellite: NOAA 21 (JPSS-2)
#Configuration: NOAA-21
#almurnet v.1.7.20251203
#Start time: 2026-01-21 23:57:45

#Version: 2.2.20231116
#Station: R4.6S_Anadyr
#Location: 177.4865 lon 64.73178 lat
#TLE: 1 54234U 22150A   26020.93347024  .00000206  00000+0  11859-3 0  9994
#TLE: 2 54234  98.7506 321.7615 0000627 245.8100 114.3011 14.19536899165654

#Time	Az	El	Level	Level2	SNR	BER	BlckErr	Temp	State	Recorded	gain1	gain2
2026-01-21 23:57:45.22	149.92	0.09	-51.6	-66.5	3.5	1.51e+00	0	38	0	0	60	76253
2026-01-21 23:57:49.25	149.91	0.33	-51.5	-64.4	3.5	1.51e+00	0	40	104	0	60	58028
2026-01-21 23:57:53.30	149.89	0.58	-51.1	-64.0	3.5	1.52e+00	0	40	104	0	60	55570
2026-01-21 23:57:57.34	149.87	0.83	-51.0	-63.8	3.5	1.52e+00	0	40	104	0	60	54600
2026-01-21 23:58:01.38	149.86	1.08	-50.7	-63.5	3.5	1.52e+00	0	40	104	0	60	52763
2026-01-21 23:58:05.42	149.84	1.33	-50.2	-63.1	3.5	1.52e+00	0	40	104	0	60	50181
2026-01-21 23:58:09.46	149.82	1.59	-49.3	-62.2	3.5	1.52e+00	0	40	104	0	60	45219
2026-01-21 23:58:13.50	149.80	1.84	-49.3	-62.3	3.5	1.52e+00	0	40	104	0	60	45520
2026-01-21 23:58:17.54	149.79	2.10	-49.4	-62.2	3.5	1.52e+00	0	40	104	0	60	45405
2026-01-21 23:58:21.59	149.77	2.36	-49.3	-61.8	3.5	1.51e+00	0	40	104	0	60	43409
2026-01-21 23:58:25.62	149.75	2.63	-49.3	-61.6	3.5	1.52e+00	0	40	104	0	60	42258
2026-01-21 23:58:29.67	149.73	2.89	-49.2	-60.7	3.6	1.51e+00	0	40	104	0	60	38249
2026-01-21 23:58:33.71	149.70	3.16	-49.3	-61.7	3.5	1.52e+00	0	40	104	0	60	42459
2026-01-21 23:58:37.74	149.68	3.43	-49.0	-58.7	4.3	1.36e+00	0	41	104	0	60	30209
2026-01-21 23:58:41.79	149.66	3.71	-47.0	-50.9	9.8	3.48e-03	122	41	0	8388608	60	12260
2026-01-21 23:58:45.82	149.64	3.99	-48.3	-55.3	5.6	5.93e-01	123	41	104	12582912	60	20412
2026-01-21 23:58:49.86	149.61	4.27	-40.1	-41.4	19.9	0.00e+00	122	41	0	13631488	54	5804
2026-01-21 23:58:53.89	149.59	4.55	-40.4	-41.6	19.9	0.00e+00	120	41	0	27262976	52	6671
2026-01-21 23:58:57.93	149.56	4.83	-40.3	-41.5	20.1	0.00e+00	122	40	0	39845888	52	6626
2026-01-21 23:59:01.97	149.54	5.12	-39.7	-40.8	20.8	0.00e+00	123	41	0	52428800	52	6103
2026-01-21 23:59:06.01	149.51	5.42	-40.5	-41.7	20.0	0.00e+00	122	41	0	65011712	54	6014
2026-01-21 23:59:10.05	149.48	5.71	-39.7	-40.8	21.0	0.00e+00	120	41	0	77594624	52	6106
2026-01-21 23:59:14.09	149.46	6.01	-39.9	-41.0	20.7	0.00e+00	123	41	0	90177536	52	6260
2026-01-21 23:59:18.13	149.43	6.31	-39.8	-40.9	21.0	0.00e+00	120	41	0	102760448	52	6157
2026-01-21 23:59:22.17	149.40	6.62	-39.6	-40.7	21.1	0.00e+00	120	41	0	115343360	52	6025
2026-01-21 23:59:26.21	149.37	6.93	-39.1	-40.2	21.6	0.00e+00	123	41	0	127926272	52	5683
2026-01-21 23:59:30.25	149.33	7.24	-40.5	-41.7	20.3	0.00e+00	123	41	0	140509184	54	6064
2026-01-21 23:59:34.29	149.30	7.56	-39.8	-41.0	21.0	0.00e+00	120	41	0	153092096	52	6220
2026-01-21 23:59:38.33	149.27	7.88	-39.9	-41.1	20.6	0.00e+00	122	41	0	165675008	52	6298
2026-01-21 23:59:42.37	149.23	8.21	-39.4	-40.5	21.5	0.00e+00	122	41	0	178257920	52	5894
2026-01-21 23:59:46.41	149.20	8.53	-39.2	-40.3	21.6	0.00e+00	122	41	0	190840832	52	5759
2026-01-21 23:59:50.45	149.16	8.87	-38.9	-40.0	21.9	0.00e+00	123	41	0	203423744	50	6236
2026-01-21 23:59:54.50	149.12	9.21	-38.6	-39.7	22.2	0.00e+00	123	41	0	216006656	50	6000
2026-01-21 23:59:58.54	149.08	9.55	-39.1	-40.1	21.8	0.00e+00	123	41	0	228589568	50	6329
2026-01-22 00:00:02.57	149.04	9.90	-38.5	-39.5	22.3	0.00e+00	122	41	0	241172480	50	5916
2026-01-22 00:00:06.61	149.00	10.25	-38.0	-39.0	22.8	0.00e+00	122	41	0	253755392	50	5544
2026-01-22 00:00:10.65	148.96	10.61	-38.2	-39.2	22.6	0.00e+00	123	41	0	266338304	50	5690
2026-01-22 00:00:14.68	148.91	10.97	-38.0	-39.0	22.8	0.00e+00	123	41	0	278921216	48	6221
2026-01-22 00:00:18.72	148.87	11.34	-37.9	-38.9	22.9	0.00e+00	123	41	0	291504128	48	6146
2026-01-22 00:00:22.76	148.82	11.71	-37.9	-38.9	23.0	0.00e+00	123	41	0	304087040	48	6144
2026-01-22 00:00:26.80	148.77	12.09	-37.7	-38.7	23.1	0.00e+00	123	41	0	316669952	48	6017
2026-01-22 00:00:30.83	148.72	12.48	-37.7	-38.7	23.1	0.00e+00	122	41	0	329252864	48	6027
2026-01-22 00:00:34.87	148.67	12.87	-37.3	-38.3	23.5	0.00e+00	121	41	0	341835776	48	5743
2026-01-22 00:00:38.91	148.61	13.27	-37.5	-38.4	23.3	0.00e+00	123	41	0	354418688	48	5855
2026-01-22 00:00:42.94	148.56	13.67	-37.2	-38.2	23.6	0.00e+00	123	41	0	368050176	48	5671
2026-01-22 00:00:46.98	148.50	14.09	-37.3	-38.2	23.6	0.00e+00	123	41	0	379584512	48	5693
2026-01-22 00:00:51.02	148.44	14.50	-37.2	-38.2	23.6	0.00e+00	122	41	0	393216000	48	5676
2026-01-22 00:00:55.06	148.38	14.93	-37.5	-38.5	23.4	0.00e+00	121	41	0	405798912	48	5870
2026-01-22 00:00:59.09	148.31	15.36	-37.4	-38.3	23.6	0.00e+00	122	41	0	418381824	48	5773
2026-01-22 00:01:03.13	148.25	15.80	-37.4	-38.4	23.5	0.00e+00	123	41	0	430964736	48	5808
2026-01-22 00:01:07.16	148.18	16.25	-37.5	-38.4	23.4	0.00e+00	123	41	0	443547648	48	5843
2026-01-22 00:01:11.21	148.11	16.71	-37.6	-38.6	23.3	0.00e+00	123	41	0	456130560	48	5952
2026-01-22 00:01:15.25	148.03	17.18	-37.7	-38.6	23.2	0.00e+00	122	41	0	468713472	48	5976
2026-01-22 00:01:19.29	147.96	17.65	-37.8	-38.8	23.2	0.00e+00	122	41	0	481296384	48	6087
2026-01-22 00:01:23.32	147.88	18.14	-37.8	-38.8	23.0	0.00e+00	123	41	0	493879296	48	6087
2026-01-22 00:01:27.36	147.80	18.63	-37.6	-38.6	23.2	0.00e+00	122	41	0	506462208	48	5952
2026-01-22 00:01:31.40	147.71	19.14	-37.6	-38.6	23.1	0.00e+00	122	41	0	519045120	48	5957
2026-01-22 00:01:35.44	147.62	19.65	-37.5	-38.4	23.4	0.00e+00	122	41	0	531628032	48	5844
2026-01-22 00:01:39.48	147.53	20.18	-37.5	-38.4	23.5	0.00e+00	121	41	0	544210944	48	5844
2026-01-22 00:01:43.51	147.43	20.72	-37.1	-38.0	23.9	0.00e+00	122	41	0	556793856	48	5588
2026-01-22 00:01:47.55	147.33	21.26	-36.7	-37.6	24.2	0.00e+00	122	41	0	569376768	46	5958
2026-01-22 00:01:51.59	147.23	21.82	-36.4	-37.3	24.5	0.00e+00	123	41	0	581959680	46	5757
2026-01-22 00:01:55.63	147.12	22.40	-36.1	-37.0	24.6	0.00e+00	123	41	0	594542592	46	5558
2026-01-22 00:01:59.67	147.00	22.98	-35.9	-36.8	24.8	0.00e+00	123	41	0	607125504	46	5429
2026-01-22 00:02:03.71	146.89	23.58	-35.8	-36.7	24.9	0.00e+00	122	41	0	619708416	44	6035
2026-01-22 00:02:07.75	146.76	24.20	-35.9	-36.8	24.8	0.00e+00	122	41	0	632291328	44	6083
2026-01-22 00:02:11.79	146.63	24.83	-36.1	-37.0	24.6	0.00e+00	123	41	0	644874240	44	6216
2026-01-22 00:02:15.83	146.50	25.47	-36.6	-37.5	24.4	0.00e+00	122	41	0	657457152	44	6637
2026-01-22 00:02:19.87	146.36	26.13	-36.9	-37.9	24.1	0.00e+00	123	41	0	670040064	46	6142
2026-01-22 00:02:23.91	146.21	26.81	-37.3	-38.3	23.8	0.00e+00	123	41	0	682622976	46	6430
2026-01-22 00:02:27.95	146.06	27.50	-37.9	-38.8	23.5	0.00e+00	123	41	0	695205888	48	6102
2026-01-22 00:02:31.99	145.89	28.21	-38.0	-38.9	23.4	0.00e+00	123	41	0	708837376	48	6195
2026-01-22 00:02:36.03	145.72	28.94	-37.9	-38.8	23.5	0.00e+00	122	41	0	721420288	48	6126
2026-01-22 00:02:40.07	145.54	29.68	-37.7	-38.6	23.5	0.00e+00	122	41	0	734003200	48	5989
2026-01-22 00:02:44.11	145.36	30.45	-37.0	-37.9	24.1	0.00e+00	120	42	0	746586112	48	5500
2026-01-22 00:02:48.14	145.16	31.24	-36.6	-37.5	24.5	0.00e+00	120	42	0	759169024	46	5893
2026-01-22 00:02:52.19	144.95	32.05	-36.5	-37.4	24.5	0.00e+00	120	41	0	771751936	46	5838
2026-01-22 00:02:56.22	144.73	32.88	-37.0	-37.8	24.2	0.00e+00	123	41	0	784334848	46	6126
2026-01-22 00:03:00.26	144.50	33.73	-37.2	-38.1	24.0	0.00e+00	123	42	0	796917760	46	6331
2026-01-22 00:03:04.30	144.25	34.61	-37.7	-38.7	23.5	0.00e+00	123	42	0	809500672	48	6014
2026-01-22 00:03:08.34	143.99	35.51	-38.6	-39.5	22.7	0.00e+00	122	41	0	822083584	50	5911
2026-01-22 00:03:12.37	143.72	36.44	-38.5	-39.5	22.9	0.00e+00	122	42	0	834666496	50	5872
2026-01-22 00:03:16.41	143.42	37.39	-38.9	-39.9	22.6	0.00e+00	123	42	0	847249408	50	6200
2026-01-22 00:03:20.45	143.11	38.38	-39.0	-40.0	22.5	0.00e+00	123	42	0	859832320	50	6224
2026-01-22 00:03:24.49	142.78	39.39	-38.5	-39.5	23.1	0.00e+00	120	42	0	872415232	50	5867
2026-01-22 00:03:28.53	142.42	40.43	-38.1	-39.1	23.2	0.00e+00	123	42	0	884998144	50	5604
2026-01-22 00:03:32.56	142.04	41.49	-38.7	-39.7	22.9	0.00e+00	123	42	0	897581056	50	5996
2026-01-22 00:03:36.60	141.64	42.59	-39.5	-40.5	22.2	0.00e+00	122	42	0	910163968	50	6599
2026-01-22 00:03:40.63	141.20	43.72	-39.9	-41.0	21.5	0.00e+00	122	42	0	922746880	52	6232
2026-01-22 00:03:44.67	140.73	44.88	-40.1	-41.2	21.7	0.00e+00	123	42	0	935329792	52	6398
2026-01-22 00:03:48.71	140.22	46.07	-40.1	-41.1	21.7	0.00e+00	122	42	0	947912704	52	6342
2026-01-22 00:03:52.75	139.68	47.30	-39.1	-40.1	22.5	0.00e+00	123	42	0	960495616	52	5616
2026-01-22 00:03:56.79	139.08	48.56	-39.1	-40.1	22.5	0.00e+00	123	42	0	973078528	52	5628
2026-01-22 00:04:00.83	138.43	49.86	-39.3	-40.4	22.3	0.00e+00	123	42	0	985661440	52	5792
2026-01-22 00:04:04.86	137.73	51.18	-38.7	-39.7	22.8	0.00e+00	122	42	0	998244352	50	6055
2026-01-22 00:04:08.90	136.95	52.54	-38.3	-39.2	23.1	0.00e+00	122	42	0	1010827264	50	5720
2026-01-22 00:04:12.93	136.10	53.93	-37.5	-38.4	23.8	0.00e+00	123	42	0	1023410176	48	5850
2026-01-22 00:04:16.97	135.16	55.36	-37.6	-38.5	23.8	0.00e+00	120	42	0	1035993088	48	5897
2026-01-22 00:04:21.01	134.11	56.81	-36.5	-37.4	24.6	0.00e+00	120	42	0	1048576000	46	5801
2026-01-22 00:04:25.05	132.95	58.29	-36.6	-37.6	24.2	0.00e+00	123	42	0	1061158912	46	5943
2026-01-22 00:04:29.09	131.65	59.80	-36.7	-37.6	24.5	0.00e+00	122	42	0	1074790400	46	5948
2026-01-22 00:04:33.12	130.19	61.32	-36.2	-37.1	24.6	0.00e+00	122	42	0	1086324736	46	5628
2026-01-22 00:04:37.16	128.53	62.87	-35.7	-36.5	25.2	0.00e+00	123	42	0	1099956224	44	5916
2026-01-22 00:04:41.21	126.63	64.43	-35.5	-36.4	25.2	0.00e+00	123	42	0	1112539136	44	5807
2026-01-22 00:04:45.25	124.46	65.99	-35.7	-36.6	24.9	0.00e+00	122	42	0	1125122048	44	5931
2026-01-22 00:04:49.29	121.95	67.54	-36.1	-37.0	24.9	0.00e+00	122	42	0	1137704960	44	6260
2026-01-22 00:04:53.33	119.04	69.08	-35.1	-35.9	25.6	0.00e+00	122	42	0	1150287872	44	5519
2026-01-22 00:04:57.37	115.63	70.58	-34.8	-35.6	25.8	0.00e+00	122	42	0	1162870784	44	5342
2026-01-22 00:05:01.41	111.61	72.03	-35.6	-36.5	24.9	0.00e+00	123	42	0	1175453696	44	5874
2026-01-22 00:05:05.45	106.87	73.39	-35.6	-36.5	25.3	0.00e+00	120	42	0	1188036608	44	5881
2026-01-22 00:05:09.49	101.28	74.64	-35.3	-36.1	25.5	0.00e+00	123	42	0	1200619520	44	5629
2026-01-22 00:05:13.53	94.73	75.73	-35.7	-36.6	25.2	0.00e+00	123	42	0	1213202432	44	5937
2026-01-22 00:05:17.57	87.16	76.63	-35.8	-36.7	25.2	0.00e+00	127	42	0	1225785344	44	6029
2026-01-22 00:05:21.61	78.64	77.26	-35.7	-36.5	25.2	0.00e+00	120	42	0	1238368256	44	5918
2026-01-22 00:05:25.65	69.42	77.60	-35.9	-36.8	24.2	0.00e+00	123	42	0	1250951168	44	6129
2026-01-22 00:05:29.69	59.93	77.62	-36.0	-36.9	24.9	0.00e+00	122	42	0	1263534080	44	6172
2026-01-22 00:05:33.73	50.68	77.30	-36.0	-36.9	25.1	0.00e+00	123	42	0	1276116992	44	6159
2026-01-22 00:05:37.76	42.12	76.69	-35.8	-36.7	25.0	0.00e+00	123	42	0	1288699904	44	6033
2026-01-22 00:05:41.81	34.45	75.81	-36.3	-37.2	24.9	0.00e+00	123	42	0	1301282816	44	6392
2026-01-22 00:05:45.85	27.82	74.73	-35.6	-36.5	25.4	0.00e+00	122	42	0	1313865728	44	5884
2026-01-22 00:05:49.89	22.16	73.50	-35.9	-36.8	24.8	0.00e+00	123	42	0	1326448640	44	6117
2026-01-22 00:05:53.93	17.36	72.14	-36.9	-37.9	23.5	0.00e+00	120	42	0	1339031552	46	6156
2026-01-22 00:05:57.97	13.30	70.70	-35.9	-36.7	25.3	0.00e+00	122	42	0	1351614464	46	5387
2026-01-22 00:06:02.01	9.85	69.21	-35.1	-35.9	25.5	0.00e+00	123	42	0	1364197376	44	5505
2026-01-22 00:06:06.05	6.90	67.68	-37.3	-38.3	23.4	0.00e+00	123	42	0	1376780288	46	6431
2026-01-22 00:06:10.09	4.37	66.13	-36.3	-37.2	24.8	0.00e+00	123	42	0	1390411776	46	5672
2026-01-22 00:06:14.13	2.17	64.57	-37.1	-38.0	24.1	0.00e+00	123	42	0	1402994688	48	5555
2026-01-22 00:06:18.17	0.26	63.02	-36.5	-37.4	24.6	0.00e+00	122	42	0	1415577600	44	6562
2026-01-22 00:06:22.22	358.58	61.47	-37.5	-38.5	23.7	0.00e+00	123	42	0	1428160512	50	5238
2026-01-22 00:06:26.26	357.10	59.95	-37.3	-38.2	24.0	0.00e+00	120	42	0	1440743424	46	6381
2026-01-22 00:06:30.30	355.79	58.44	-38.7	-39.8	22.7	0.00e+00	123	42	0	1453326336	50	6125
2026-01-22 00:06:34.34	354.62	56.96	-36.7	-37.6	24.3	0.00e+00	122	42	0	1465909248	46	5957
2026-01-22 00:06:38.39	353.56	55.50	-38.7	-39.7	22.9	0.00e+00	123	42	0	1478492160	52	5372
2026-01-22 00:06:42.43	352.62	54.08	-36.8	-37.7	24.5	0.00e+00	123	42	0	1491075072	48	5356
2026-01-22 00:06:46.47	351.76	52.69	-39.8	-40.9	21.9	0.00e+00	122	42	0	1503657984	50	6944
2026-01-22 00:06:50.51	350.98	51.33	-38.6	-39.6	22.6	0.00e+00	123	42	0	1516240896	50	5948
2026-01-22 00:06:54.56	350.27	50.00	-39.1	-40.1	22.6	0.00e+00	123	42	0	1528823808	50	6294
2026-01-22 00:06:58.59	349.62	48.71	-39.5	-40.5	22.3	0.00e+00	123	42	0	1541406720	50	6597
2026-01-22 00:07:02.64	349.02	47.45	-39.5	-40.5	21.8	0.00e+00	123	42	0	1553989632	52	5916
2026-01-22 00:07:06.68	348.47	46.22	-38.8	-39.8	22.8	0.00e+00	122	42	0	1566572544	50	6087
2026-01-22 00:07:10.72	347.96	45.03	-39.2	-40.2	22.5	0.00e+00	123	42	0	1579155456	50	6423
2026-01-22 00:07:14.76	347.49	43.87	-41.8	-43.1	20.1	0.00e+00	120	42	0	1591738368	54	7060
2026-01-22 00:07:18.80	347.05	42.74	-41.1	-42.2	20.9	0.00e+00	120	42	0	1604321280	56	5724
2026-01-22 00:07:22.84	346.64	41.64	-38.6	-39.6	23.0	0.00e+00	123	42	0	1616904192	52	5323
2026-01-22 00:07:26.88	346.26	40.58	-39.3	-40.3	22.4	0.00e+00	123	42	0	1629487104	50	6468
2026-01-22 00:07:30.92	345.91	39.54	-39.7	-40.8	21.9	0.00e+00	120	42	0	1642070016	52	6085
2026-01-22 00:07:34.96	345.57	38.53	-39.4	-40.4	22.4	0.00e+00	123	41	0	1654652928	52	5845
2026-01-22 00:07:39.01	345.26	37.55	-39.1	-40.1	22.6	0.00e+00	122	42	0	1667235840	52	5639
2026-01-22 00:07:43.04	344.97	36.59	-38.7	-39.7	23.0	0.00e+00	120	42	0	1680867328	50	5999
2026-01-22 00:07:47.08	344.69	35.67	-38.1	-39.1	23.4	0.00e+00	122	42	0	1693450240	50	5621
2026-01-22 00:07:51.12	344.43	34.77	-38.3	-39.3	23.2	0.00e+00	123	41	0	1706033152	50	5737
2026-01-22 00:07:55.16	344.19	33.89	-37.9	-38.8	23.6	0.00e+00	123	41	0	1718616064	50	5466
2026-01-22 00:07:59.21	343.96	33.03	-37.5	-38.5	23.7	0.00e+00	123	41	0	1731198976	48	5875
2026-01-22 00:08:03.22	343.74	32.21	-37.6	-38.5	23.7	0.00e+00	123	41	0	1743781888	48	5924
2026-01-22 00:08:07.26	343.53	31.40	-37.2	-38.1	24.1	0.00e+00	123	41	0	1756364800	48	5646
2026-01-22 00:08:11.30	343.33	30.61	-37.3	-38.2	24.0	0.00e+00	122	41	0	1768947712	48	5720
2026-01-22 00:08:15.35	343.15	29.84	-37.1	-38.0	24.2	0.00e+00	122	41	0	1781530624	48	5546
2026-01-22 00:08:19.39	342.97	29.10	-37.2	-38.2	24.1	0.00e+00	123	41	0	1794113536	48	5667
2026-01-22 00:08:23.43	342.80	28.37	-37.6	-38.6	23.8	0.00e+00	123	41	0	1806696448	48	5930
2026-01-22 00:08:27.47	342.64	27.66	-37.4	-38.3	23.9	0.00e+00	123	41	0	1819279360	48	5781
2026-01-22 00:08:31.51	342.48	26.97	-37.1	-38.0	24.3	0.00e+00	123	41	0	1831862272	48	5548
2026-01-22 00:08:35.55	342.34	26.29	-36.7	-37.6	24.3	0.00e+00	120	41	0	1844445184	46	5935
2026-01-22 00:08:39.60	342.20	25.63	-36.5	-37.4	24.4	0.00e+00	122	41	0	1857028096	46	5854
2026-01-22 00:08:43.64	342.06	24.99	-36.6	-37.5	24.3	0.00e+00	122	41	0	1869611008	46	5886
2026-01-22 00:08:47.68	341.94	24.36	-36.7	-37.7	24.0	0.00e+00	120	41	0	1882193920	46	5997
2026-01-22 00:08:51.72	341.81	23.75	-36.8	-37.7	24.1	0.00e+00	122	41	0	1894776832	46	6010
2026-01-22 00:08:55.76	341.70	23.15	-36.8	-37.7	24.4	0.00e+00	123	41	0	1907359744	46	6014
2026-01-22 00:08:59.80	341.59	22.56	-36.5	-37.3	24.6	0.00e+00	123	41	0	1919942656	46	5787
2026-01-22 00:09:03.85	341.48	21.99	-36.3	-37.2	24.7	0.00e+00	122	41	0	1932525568	46	5680
2026-01-22 00:09:07.89	341.38	21.43	-36.3	-37.2	24.6	0.00e+00	123	41	0	1945108480	46	5703
2026-01-22 00:09:11.93	341.28	20.88	-36.9	-37.7	24.4	0.00e+00	120	41	0	1957691392	46	6057
2026-01-22 00:09:15.97	341.18	20.35	-36.6	-37.5	24.5	0.00e+00	121	41	0	1970274304	46	5883
2026-01-22 00:09:20.01	341.09	19.82	-36.8	-37.6	24.3	0.00e+00	123	41	0	1982857216	46	5985
2026-01-22 00:09:24.05	341.00	19.31	-37.1	-38.0	24.1	0.00e+00	120	41	0	1996488704	46	6215
2026-01-22 00:09:28.10	340.92	18.80	-37.5	-38.5	23.7	0.00e+00	120	41	0	2009071616	46	6576
2026-01-22 00:09:32.13	340.84	18.31	-37.4	-38.3	23.8	0.00e+00	122	41	0	2021654528	48	5777
2026-01-22 00:09:36.17	340.76	17.82	-37.7	-38.6	23.4	0.00e+00	120	41	0	2034237440	48	5986
2026-01-22 00:09:40.22	340.69	17.35	-37.7	-38.7	23.3	0.00e+00	122	41	0	2046820352	48	6036
2026-01-22 00:09:44.25	340.62	16.88	-37.8	-38.8	23.4	0.00e+00	124	41	0	2059403264	48	6071
2026-01-22 00:09:48.29	340.55	16.42	-37.9	-38.9	23.3	0.00e+00	122	41	0	2071986176	48	6175
2026-01-22 00:09:52.33	340.48	15.98	-37.9	-38.9	23.3	0.00e+00	122	41	0	2084569088	48	6168
2026-01-22 00:09:56.37	340.42	15.53	-38.2	-39.2	23.1	0.00e+00	123	41	0	2097152000	48	6372
2026-01-22 00:10:00.41	340.36	15.10	-38.3	-39.3	22.9	0.00e+00	123	41	0	2109734912	48	6430
2026-01-22 00:10:04.45	340.30	14.68	-38.1	-39.0	23.0	0.00e+00	122	41	0	2122317824	48	6276
2026-01-22 00:10:08.49	340.24	14.26	-38.2	-39.2	22.9	0.00e+00	123	41	0	2134900736	48	6375
2026-01-22 00:10:12.53	340.18	13.85	-38.4	-39.4	22.7	0.00e+00	122	41	0	2147483648	48	6529
2026-01-22 00:10:16.56	340.13	13.44	-38.5	-39.4	22.8	0.00e+00	123	41	0	2160066560	48	6566
2026-01-22 00:10:20.60	340.08	13.04	-38.5	-39.5	22.6	0.00e+00	121	41	0	2172649472	50	5885
2026-01-22 00:10:24.63	340.03	12.65	-38.5	-39.5	22.6	0.00e+00	122	41	0	2185232384	50	5908
2026-01-22 00:10:28.67	339.98	12.27	-39.0	-40.0	22.3	0.00e+00	123	41	0	2197815296	50	6253
2026-01-22 00:10:32.71	339.93	11.89	-38.5	-39.5	22.5	0.00e+00	123	41	0	2210398208	50	5901
2026-01-22 00:10:36.74	339.89	11.52	-38.6	-39.6	22.4	0.00e+00	123	41	0	2222981120	50	5947
2026-01-22 00:10:40.78	339.85	11.15	-38.6	-39.6	22.4	0.00e+00	123	41	0	2235564032	50	5986
2026-01-22 00:10:44.82	339.80	10.78	-38.8	-39.9	22.3	0.00e+00	123	41	0	2248146944	50	6139
2026-01-22 00:10:48.86	339.76	10.43	-38.9	-39.9	22.2	0.00e+00	122	41	0	2260729856	50	6186
2026-01-22 00:10:52.90	339.73	10.07	-38.9	-40.0	22.1	0.00e+00	120	41	0	2273312768	50	6208
2026-01-22 00:10:56.94	339.69	9.73	-39.4	-40.4	21.7	0.00e+00	122	41	0	2285895680	50	6569
2026-01-22 00:11:00.98	339.65	9.38	-39.2	-40.3	21.8	0.00e+00	123	41	0	2298478592	50	6473
2026-01-22 00:11:05.02	339.62	9.05	-39.3	-40.4	21.8	0.00e+00	121	41	0	2311061504	52	5825
2026-01-22 00:11:09.06	339.58	8.71	-39.5	-40.6	21.5	0.00e+00	123	41	0	2323644416	52	5939
2026-01-22 00:11:13.09	339.55	8.38	-39.8	-40.9	21.3	0.00e+00	123	41	0	2337275904	52	6180
2026-01-22 00:11:17.13	339.52	8.06	-39.2	-40.3	21.8	0.00e+00	120	41	0	2349858816	52	5761
2026-01-22 00:11:21.17	339.49	7.74	-39.9	-41.1	21.0	0.00e+00	123	41	0	2362441728	52	6318
2026-01-22 00:11:25.21	339.46	7.42	-40.2	-41.4	20.7	0.00e+00	123	41	0	2375024640	54	5858
2026-01-22 00:11:29.26	339.43	7.11	-40.8	-42.0	20.4	0.00e+00	122	41	0	2387607552	54	6274
2026-01-22 00:11:33.29	339.40	6.80	-40.6	-41.9	20.1	0.00e+00	123	41	0	2400190464	54	6170
2026-01-22 00:11:37.33	339.38	6.49	-40.1	-41.3	20.7	0.00e+00	120	41	0	2412773376	54	5741
2026-01-22 00:11:41.37	339.35	6.19	-40.5	-41.7	20.2	0.00e+00	123	41	0	2425356288	54	6058
2026-01-22 00:11:45.40	339.33	5.89	-40.2	-41.5	20.3	0.00e+00	123	41	0	2437939200	54	5884
2026-01-22 00:11:49.44	339.30	5.60	-40.0	-41.3	20.2	0.00e+00	122	41	0	2450522112	54	5771
2026-01-22 00:11:53.48	339.28	5.31	-41.9	-43.6	17.6	0.00e+00	123	41	0	2463105024	56	6655
2026-01-22 00:11:57.52	339.26	5.02	-43.3	-45.5	15.1	7.00e-07	122	41	0	2475687936	58	7456
2026-01-22 00:12:01.56	339.23	4.73	-44.7	-48.2	11.3	1.78e-04	123	41	0	2488270848	60	8978
2026-01-22 00:12:05.59	339.21	4.45	-45.3	-50.1	8.6	5.12e-02	122	41	0	2500853760	60	11219
2026-01-22 00:12:09.63	339.19	4.17	-45.8	-54.5	4.9	1.28e+00	123	41	104	2508193792	60	18618
2026-01-22 00:12:13.66	339.17	3.89	-46.1	-58.2	3.5	1.51e+00	0	41	104	2508193792	60	28633
2026-01-22 00:12:17.70	339.16	3.62	-46.2	-58.6	3.5	1.51e+00	0	41	104	2508193792	60	29806
2026-01-22 00:12:21.73	339.14	3.35	-46.1	-59.1	3.5	1.52e+00	0	41	104	2508193792	60	31580
2026-01-22 00:12:25.76	339.12	3.08	-46.4	-59.4	3.5	1.52e+00	0	41	104	2508193792	60	32779
2026-01-22 00:12:29.80	339.10	2.82	-50.7	-63.6	3.5	1.52e+00	0	42	104	2508193792	60	52991
2026-01-22 00:12:33.85	339.09	2.55	-51.2	-64.1	3.5	1.52e+00	0	41	104	2508193792	60	55983
2026-01-22 00:12:37.89	339.07	2.29	-51.3	-64.2	3.5	1.52e+00	0	41	104	2508193792	60	56764
2026-01-22 00:12:41.93	339.06	2.03	-51.1	-64.1	3.5	1.52e+00	0	41	104	2508193792	60	56465
2026-01-22 00:12:45.97	339.04	1.77	-51.1	-64.1	3.5	1.52e+00	0	41	104	2508193792	60	56426
2026-01-22 00:12:50.01	339.03	1.52	-51.3	-64.2	3.5	1.52e+00	0	42	104	2508193792	60	56916
2026-01-22 00:12:54.05	339.02	1.27	-51.3	-64.2	3.5	1.51e+00	0	41	104	2508193792	60	56954
2026-01-22 00:12:58.09	339.00	1.02	-51.4	-64.3	3.5	1.52e+00	0	41	104	2508193792	60	57545
2026-01-22 00:13:02.13	338.99	0.77	-51.4	-64.3	3.5	1.52e+00	0	41	104	2508193792	60	57373
2026-01-22 00:13:06.18	338.98	0.52	-51.4	-64.3	3.5	1.52e+00	0	41	104	2508193792	60	57455
2026-01-22 00:13:10.22	338.97	0.28	-51.4	-64.3	3.5	1.52e+00	0	42	104	2508193792	60	57479
2026-01-22 00:13:14.25	338.96	0.04	-51.4	-64.3	3.5	1.51e+00	0	41	104	2508193792	60	57693

#Closed at: 2026-01-22 00:13:17
#Recorded file [2508 MB]: D:/lorett/data/35029_260122_115745.dat