passes_logs/2026/01/21/R4.6S_Anadyr/R4.6S_Anadyr__20260121_140223_NOAA_21_JPSS-2_rec.log

#Pass ID: 20260121_140223_NOAA 21 (JPSS-2)
#Satellite: NOAA 21 (JPSS-2)
#Configuration: NOAA-21
#almurnet v.1.7.20251203
#Start time: 2026-01-21 14:02:24

#Version: 2.2.20231116
#Station: R4.6S_Anadyr
#Location: 177.4865 lon 64.73178 lat
#TLE: 1 54234U 22150A   26020.93347024  .00000206  00000+0  11859-3 0  9994
#TLE: 2 54234  98.7506 321.7615 0000627 245.8100 114.3011 14.19536899165654

#Time	Az	El	Level	Level2	SNR	BER	BlckErr	Temp	State	Recorded	gain1	gain2
2026-01-21 14:02:24.77	19.37	0.09	-51.8	-63.4	3.5	8.45e-01	0	40	0	0	60	53675
2026-01-21 14:02:28.80	19.47	0.33	-51.8	-64.7	3.5	1.51e+00	0	41	104	0	60	60082
2026-01-21 14:02:32.84	19.57	0.57	-51.4	-64.4	3.5	1.52e+00	0	41	104	0	60	58027
2026-01-21 14:02:36.88	19.67	0.81	-51.3	-64.1	3.5	1.52e+00	0	41	104	0	60	56543
2026-01-21 14:02:40.93	19.78	1.06	-50.9	-63.9	3.5	1.52e+00	0	41	104	0	60	54963
2026-01-21 14:02:44.97	19.88	1.30	-50.5	-63.4	3.5	1.52e+00	0	41	104	0	60	51851
2026-01-21 14:02:49.01	19.99	1.55	-49.9	-62.7	3.5	1.52e+00	0	41	104	0	60	48152
2026-01-21 14:02:53.05	20.10	1.80	-49.6	-62.4	3.5	1.52e+00	0	41	104	0	60	46414
2026-01-21 14:02:57.09	20.21	2.05	-49.7	-62.6	3.5	1.52e+00	0	42	104	0	60	47285
2026-01-21 14:03:01.13	20.32	2.30	-49.5	-60.9	3.5	1.51e+00	0	41	104	0	60	38992
2026-01-21 14:03:05.16	20.43	2.56	-49.5	-61.3	3.5	1.52e+00	0	41	104	0	60	40737
2026-01-21 14:03:09.20	20.54	2.82	-48.4	-53.7	7.4	2.29e-01	122	42	0	2097152	60	17057
2026-01-21 14:03:13.24	20.66	3.08	-45.3	-47.7	13.7	7.00e-07	123	41	0	14680064	60	8553
2026-01-21 14:03:17.28	20.78	3.34	-44.9	-47.3	14.4	0.00e+00	123	41	0	27262976	60	8098
2026-01-21 14:03:21.33	20.90	3.61	-48.2	-53.3	7.7	8.61e-02	122	42	0	39845888	60	16157
2026-01-21 14:03:25.37	21.02	3.88	-49.7	-62.3	3.5	1.52e+00	0	42	104	44040192	60	45770
2026-01-21 14:03:29.41	21.14	4.15	-45.1	-47.3	14.6	0.00e+00	122	42	0	47185920	60	8175
2026-01-21 14:03:33.45	21.26	4.42	-43.8	-45.7	16.4	0.00e+00	123	41	0	59768832	60	6727
2026-01-21 14:03:37.49	21.39	4.70	-42.7	-44.3	17.5	0.00e+00	123	41	0	72351744	58	6444
2026-01-21 14:03:41.53	21.52	4.97	-42.8	-44.4	17.9	0.00e+00	122	41	0	84934656	58	6506
2026-01-21 14:03:45.56	21.65	5.25	-42.0	-43.4	18.7	0.00e+00	123	41	0	97517568	58	5835
2026-01-21 14:03:49.60	21.78	5.54	-41.1	-42.4	19.2	0.00e+00	122	41	0	110100480	56	5814
2026-01-21 14:03:53.64	21.92	5.83	-40.7	-42.0	19.9	0.00e+00	122	42	0	122683392	54	6219
2026-01-21 14:03:57.68	22.06	6.12	-40.4	-41.5	20.3	0.00e+00	123	42	0	135266304	54	5913
2026-01-21 14:04:01.72	22.20	6.41	-40.4	-41.6	20.5	0.00e+00	122	42	0	147849216	52	6654
2026-01-21 14:04:05.76	22.34	6.71	-39.7	-40.8	20.9	0.00e+00	122	42	0	160432128	52	6123
2026-01-21 14:04:09.80	22.49	7.01	-40.1	-41.3	20.8	0.00e+00	123	42	0	173015040	52	6435
2026-01-21 14:04:13.84	22.63	7.31	-40.9	-42.1	19.9	0.00e+00	123	42	0	185597952	54	6328
2026-01-21 14:04:17.89	22.79	7.62	-39.6	-40.7	21.2	0.00e+00	123	42	0	198180864	52	6038
2026-01-21 14:04:21.93	22.94	7.93	-39.4	-40.4	21.5	0.00e+00	121	41	0	210763776	52	5857
2026-01-21 14:04:25.97	23.10	8.25	-39.2	-40.3	21.7	0.00e+00	123	42	0	223346688	52	5751
2026-01-21 14:04:30.01	23.26	8.56	-39.0	-40.1	22.0	0.00e+00	122	42	0	235929600	52	5596
2026-01-21 14:04:34.05	23.42	8.89	-39.1	-40.1	21.8	0.00e+00	122	41	0	248512512	52	5656
2026-01-21 14:04:38.10	23.58	9.21	-39.3	-40.4	21.7	0.00e+00	122	41	0	261095424	52	5819
2026-01-21 14:04:42.14	23.75	9.55	-39.1	-40.2	21.9	0.00e+00	120	41	0	273678336	52	5671
2026-01-21 14:04:46.19	23.93	9.88	-38.6	-39.6	22.5	0.00e+00	123	42	0	286261248	50	5959
2026-01-21 14:04:50.22	24.10	10.22	-38.5	-39.6	22.4	0.00e+00	123	42	0	298844160	50	5930
2026-01-21 14:04:54.26	24.28	10.56	-38.5	-39.5	22.5	0.00e+00	122	42	0	311427072	50	5879
2026-01-21 14:04:58.30	24.47	10.91	-38.4	-39.4	22.5	0.00e+00	122	41	0	325058560	50	5817
2026-01-21 14:05:02.35	24.66	11.27	-38.4	-39.4	22.5	0.00e+00	123	42	0	337641472	50	5812
2026-01-21 14:05:06.39	24.85	11.62	-38.4	-39.4	22.7	0.00e+00	123	42	0	350224384	50	5799
2026-01-21 14:05:10.43	25.04	11.99	-38.3	-39.2	22.7	0.00e+00	120	42	0	362807296	50	5725
2026-01-21 14:05:14.47	25.24	12.36	-38.3	-39.3	22.7	0.00e+00	120	42	0	375390208	50	5745
2026-01-21 14:05:18.51	25.45	12.73	-38.1	-39.1	22.9	0.00e+00	122	42	0	387973120	50	5597
2026-01-21 14:05:22.54	25.66	13.11	-38.2	-39.2	22.8	0.00e+00	123	42	0	400556032	50	5705
2026-01-21 14:05:26.59	25.88	13.49	-38.2	-39.2	22.8	0.00e+00	123	42	0	413138944	50	5688
2026-01-21 14:05:30.63	26.10	13.89	-38.4	-39.4	22.8	0.00e+00	123	42	0	425721856	50	5852
2026-01-21 14:05:34.67	26.32	14.28	-37.9	-38.8	23.2	0.00e+00	122	42	0	438304768	50	5447
2026-01-21 14:05:38.71	26.55	14.69	-37.9	-38.9	23.2	0.00e+00	123	42	0	450887680	50	5491
2026-01-21 14:05:42.75	26.79	15.10	-38.2	-39.1	23.1	0.00e+00	123	42	0	463470592	50	5652
2026-01-21 14:05:46.79	27.04	15.51	-38.0	-39.0	23.1	0.00e+00	122	42	0	476053504	50	5551
2026-01-21 14:05:50.83	27.29	15.94	-37.9	-38.8	23.2	0.00e+00	122	42	0	488636416	50	5466
2026-01-21 14:05:54.87	27.54	16.37	-38.1	-39.0	23.1	0.00e+00	123	42	0	501219328	50	5579
2026-01-21 14:05:58.91	27.81	16.80	-38.6	-39.5	22.6	0.00e+00	123	42	0	513802240	50	5923
2026-01-21 14:06:02.93	28.08	17.25	-38.2	-39.2	22.9	0.00e+00	122	42	0	526385152	50	5669
2026-01-21 14:06:06.96	28.35	17.70	-38.0	-38.9	23.2	0.00e+00	122	42	0	538968064	50	5510
2026-01-21 14:06:11.00	28.64	18.16	-38.0	-39.0	23.1	0.00e+00	123	42	0	551550976	50	5540
2026-01-21 14:06:15.05	28.94	18.63	-38.2	-39.1	23.0	0.00e+00	123	42	0	564133888	50	5655
2026-01-21 14:06:19.09	29.24	19.10	-38.0	-39.0	23.1	0.00e+00	122	42	0	576716800	50	5548
2026-01-21 14:06:23.13	29.55	19.59	-37.9	-38.8	23.2	0.00e+00	120	42	0	589299712	50	5467
2026-01-21 14:06:27.17	29.88	20.08	-37.6	-38.6	23.4	0.00e+00	123	42	0	601882624	48	5951
2026-01-21 14:06:31.21	30.21	20.59	-37.7	-38.7	23.4	0.00e+00	122	42	0	614465536	48	6006
2026-01-21 14:06:35.25	30.55	21.10	-37.3	-38.2	23.7	0.00e+00	123	42	0	627048448	48	5712
2026-01-21 14:06:39.29	30.91	21.62	-37.1	-38.1	23.8	0.00e+00	122	42	0	640679936	48	5595
2026-01-21 14:06:43.33	31.27	22.15	-36.9	-37.8	24.1	0.00e+00	120	42	0	653262848	48	5449
2026-01-21 14:06:47.38	31.65	22.70	-36.8	-37.7	24.2	0.00e+00	122	42	0	665845760	46	6034
2026-01-21 14:06:51.42	32.04	23.25	-36.7	-37.6	24.3	0.00e+00	122	42	0	678428672	46	5962
2026-01-21 14:06:55.46	32.45	23.82	-36.5	-37.4	24.5	0.00e+00	120	42	0	691011584	46	5799
2026-01-21 14:06:59.50	32.87	24.39	-36.6	-37.5	24.5	0.00e+00	122	42	0	703594496	46	5911
2026-01-21 14:07:03.54	33.30	24.98	-36.6	-37.5	24.5	0.00e+00	123	42	0	716177408	46	5887
2026-01-21 14:07:07.58	33.75	25.57	-36.9	-37.8	24.2	0.00e+00	123	42	0	728760320	46	6098
2026-01-21 14:07:11.63	34.22	26.19	-37.3	-38.2	23.9	0.00e+00	120	42	0	741343232	46	6358
2026-01-21 14:07:15.67	34.70	26.81	-37.6	-38.5	23.7	0.00e+00	123	42	0	753926144	46	6604
2026-01-21 14:07:19.71	35.21	27.44	-37.8	-38.7	23.5	0.00e+00	123	42	0	766509056	48	6026
2026-01-21 14:07:23.75	35.73	28.09	-37.6	-38.5	23.7	0.00e+00	123	42	0	779091968	48	5895
2026-01-21 14:07:27.80	36.27	28.75	-37.8	-38.7	23.5	0.00e+00	123	42	0	791674880	48	6035
2026-01-21 14:07:31.84	36.84	29.43	-37.7	-38.7	23.4	0.00e+00	123	42	0	804257792	48	6012
2026-01-21 14:07:35.88	37.43	30.11	-37.6	-38.6	23.5	0.00e+00	122	42	0	816840704	48	5928
2026-01-21 14:07:39.92	38.05	30.81	-37.6	-38.5	23.7	0.00e+00	123	42	0	829423616	48	5919
2026-01-21 14:07:43.96	38.69	31.53	-37.8	-38.7	23.7	0.00e+00	123	42	0	842006528	48	6045
2026-01-21 14:07:48.00	39.36	32.26	-37.6	-38.5	23.8	0.00e+00	123	42	0	854589440	48	5897
2026-01-21 14:07:52.04	40.06	33.00	-37.9	-38.9	23.5	0.00e+00	120	42	0	867172352	48	6151
2026-01-21 14:07:56.09	40.79	33.76	-38.7	-39.7	22.9	0.00e+00	123	42	0	879755264	48	6766
2026-01-21 14:08:00.13	41.56	34.53	-39.1	-40.1	22.6	0.00e+00	123	42	0	892338176	50	6306
2026-01-21 14:08:04.15	42.36	35.31	-39.2	-40.3	22.5	0.00e+00	123	42	0	904921088	50	6436
2026-01-21 14:08:08.20	43.21	36.10	-39.6	-40.6	22.1	0.00e+00	123	42	0	917504000	50	6680
2026-01-21 14:08:12.24	44.09	36.91	-39.6	-40.6	22.3	0.00e+00	122	42	0	931135488	52	5992
2026-01-21 14:08:16.28	45.02	37.74	-40.0	-41.0	21.9	0.00e+00	122	42	0	943718400	52	6258
2026-01-21 14:08:20.32	46.00	38.57	-40.0	-41.1	21.4	0.00e+00	122	42	0	956301312	52	6311
2026-01-21 14:08:24.36	47.02	39.42	-40.8	-41.9	20.9	0.00e+00	122	42	0	968884224	54	6198
2026-01-21 14:08:28.40	48.10	40.27	-40.2	-41.3	21.5	0.00e+00	123	42	0	981467136	54	5738
2026-01-21 14:08:32.44	49.24	41.14	-39.8	-40.8	22.0	0.00e+00	120	42	0	994050048	52	6104
2026-01-21 14:08:36.48	50.44	42.01	-39.8	-40.9	21.9	0.00e+00	122	42	0	1006632960	52	6147
2026-01-21 14:08:40.52	51.71	42.89	-40.1	-41.2	21.6	0.00e+00	122	42	0	1019215872	52	6358
2026-01-21 14:08:44.57	53.05	43.78	-40.9	-42.0	20.9	0.00e+00	121	42	0	1031798784	54	6259
2026-01-21 14:08:48.61	54.47	44.67	-40.2	-41.2	21.6	0.00e+00	123	42	0	1044381696	54	5715
2026-01-21 14:08:52.65	55.96	45.55	-40.0	-41.1	21.7	0.00e+00	120	42	0	1056964608	54	5640
2026-01-21 14:08:56.69	57.54	46.44	-39.3	-40.3	22.4	0.00e+00	120	42	0	1069547520	52	5759
2026-01-21 14:09:00.73	59.21	47.32	-39.8	-40.8	22.0	0.00e+00	122	42	0	1082130432	52	6108
2026-01-21 14:09:04.77	60.97	48.19	-39.7	-40.8	21.7	0.00e+00	123	42	0	1094713344	52	6094
2026-01-21 14:09:08.82	62.84	49.05	-39.9	-41.0	21.8	0.00e+00	123	42	0	1107296256	52	6216
2026-01-21 14:09:12.86	64.81	49.89	-39.4	-40.5	22.2	0.00e+00	123	42	0	1119879168	52	5860
2026-01-21 14:09:16.90	66.89	50.71	-39.2	-40.2	22.4	0.00e+00	123	42	0	1132462080	52	5693
2026-01-21 14:09:20.94	69.09	51.50	-38.8	-39.8	22.9	0.00e+00	123	42	0	1145044992	50	6118
2026-01-21 14:09:24.99	71.40	52.26	-38.4	-39.4	23.2	0.00e+00	120	42	0	1157627904	50	5816
2026-01-21 14:09:29.03	73.83	52.98	-38.9	-39.9	22.7	0.00e+00	120	42	0	1170210816	50	6141
2026-01-21 14:09:33.08	76.38	53.66	-38.4	-39.4	23.2	0.00e+00	123	42	0	1182793728	50	5792
2026-01-21 14:09:37.12	79.05	54.28	-38.4	-39.3	23.1	0.00e+00	123	42	0	1195376640	50	5791
2026-01-21 14:09:41.16	81.82	54.85	-38.1	-39.1	23.0	0.00e+00	120	42	0	1207959552	48	6326
2026-01-21 14:09:45.20	84.70	55.36	-37.6	-38.6	23.8	0.00e+00	120	42	0	1221591040	48	5939
2026-01-21 14:09:49.24	87.68	55.80	-37.8	-38.7	23.4	0.00e+00	123	42	0	1234173952	48	6053
2026-01-21 14:09:53.29	90.76	56.16	-37.4	-38.3	24.0	0.00e+00	123	42	0	1246756864	48	5740
2026-01-21 14:09:57.33	93.90	56.45	-37.2	-38.1	23.9	0.00e+00	123	42	0	1259339776	48	5612
2026-01-21 14:10:01.37	97.09	56.65	-38.0	-38.9	23.3	0.00e+00	123	42	0	1271922688	48	6188
2026-01-21 14:10:05.41	100.32	56.77	-37.4	-38.3	24.1	0.00e+00	123	42	0	1284505600	48	5728
2026-01-21 14:10:09.45	103.57	56.80	-37.5	-38.4	23.8	0.00e+00	123	42	0	1297088512	48	5837
2026-01-21 14:10:13.49	106.82	56.74	-37.3	-38.2	23.9	0.00e+00	123	42	0	1309671424	48	5674
2026-01-21 14:10:17.53	110.04	56.60	-37.1	-38.0	24.2	0.00e+00	123	42	0	1322254336	48	5584
2026-01-21 14:10:21.57	113.22	56.37	-37.6	-38.5	23.7	0.00e+00	123	42	0	1334837248	48	5906
2026-01-21 14:10:25.62	116.35	56.06	-37.7	-38.7	23.6	0.00e+00	123	42	0	1347420160	48	6035
2026-01-21 14:10:29.66	119.40	55.68	-38.2	-39.2	23.1	0.00e+00	123	42	0	1360003072	48	6407
2026-01-21 14:10:33.70	122.35	55.22	-38.0	-39.0	23.3	0.00e+00	123	42	0	1372585984	48	6223
2026-01-21 14:10:37.74	125.21	54.69	-38.3	-39.2	23.2	0.00e+00	123	42	0	1385168896	48	6411
2026-01-21 14:10:41.78	127.96	54.10	-37.0	-37.8	24.2	0.00e+00	123	42	0	1397751808	48	5461
2026-01-21 14:10:45.81	130.58	53.46	-38.3	-39.2	23.2	0.00e+00	120	42	0	1410334720	48	6415
2026-01-21 14:10:49.86	133.11	52.77	-38.5	-39.4	23.0	0.00e+00	122	42	0	1422917632	48	6551
2026-01-21 14:10:53.90	135.50	52.03	-39.2	-40.2	22.4	0.00e+00	123	42	0	1435500544	50	6423
2026-01-21 14:10:57.94	137.79	51.26	-38.9	-39.9	22.5	0.00e+00	122	42	0	1448083456	50	6163
2026-01-21 14:11:01.99	139.96	50.46	-39.4	-40.4	22.0	0.00e+00	122	42	0	1460666368	50	6552
2026-01-21 14:11:06.03	142.01	49.63	-39.4	-40.4	22.1	0.00e+00	123	42	0	1474297856	52	5855
2026-01-21 14:11:10.07	143.95	48.78	-39.6	-40.7	22.0	0.00e+00	123	42	0	1485832192	52	5999
2026-01-21 14:11:14.11	145.79	47.92	-39.4	-40.4	21.9	0.00e+00	122	42	0	1499463680	52	5846
2026-01-21 14:11:18.15	147.53	47.04	-38.6	-39.5	22.9	0.00e+00	122	42	0	1512046592	50	5890
2026-01-21 14:11:22.19	149.18	46.15	-40.2	-41.3	21.0	0.00e+00	123	42	0	1524629504	52	6447
2026-01-21 14:11:26.24	150.74	45.26	-39.5	-40.6	22.1	0.00e+00	122	42	0	1537212416	52	5932
2026-01-21 14:11:30.28	152.21	44.37	-40.9	-42.1	20.8	0.00e+00	120	42	0	1549795328	54	6306
2026-01-21 14:11:34.32	153.60	43.48	-39.7	-40.8	21.6	0.00e+00	122	42	0	1562378240	52	6072
2026-01-21 14:11:38.36	154.92	42.59	-40.2	-41.3	21.4	0.00e+00	123	42	0	1574961152	52	6458
2026-01-21 14:11:42.40	156.17	41.71	-40.8	-41.9	20.8	0.00e+00	122	42	0	1587544064	54	6196
2026-01-21 14:11:46.44	157.36	40.83	-40.5	-41.6	21.1	0.00e+00	123	42	0	1600126976	54	5966
2026-01-21 14:11:50.48	158.48	39.97	-40.6	-41.8	21.1	0.00e+00	122	42	0	1612709888	52	6834
2026-01-21 14:11:54.52	159.55	39.11	-39.5	-40.5	22.1	0.00e+00	122	42	0	1625292800	52	5891
2026-01-21 14:11:58.56	160.56	38.26	-39.1	-40.1	22.5	0.00e+00	123	42	0	1637875712	52	5603
2026-01-21 14:12:02.60	161.52	37.43	-38.7	-39.7	22.6	0.00e+00	120	42	0	1650458624	50	6000
2026-01-21 14:12:06.64	162.44	36.61	-38.5	-39.5	22.9	0.00e+00	122	42	0	1663041536	50	5872
2026-01-21 14:12:10.68	163.31	35.80	-38.4	-39.4	23.0	0.00e+00	122	42	0	1675624448	50	5828
2026-01-21 14:12:14.72	164.14	35.00	-38.2	-39.2	23.0	0.00e+00	123	42	0	1688207360	50	5671
2026-01-21 14:12:18.76	164.94	34.22	-39.1	-40.2	21.8	0.00e+00	120	42	0	1700790272	50	6391
2026-01-21 14:12:22.80	165.69	33.45	-38.4	-39.4	22.9	0.00e+00	122	42	0	1713373184	50	5812
2026-01-21 14:12:26.84	166.42	32.69	-38.5	-39.5	22.8	0.00e+00	123	42	0	1725956096	50	5862
2026-01-21 14:12:30.88	167.11	31.95	-38.5	-39.5	22.8	0.00e+00	120	42	0	1738539008	50	5865
2026-01-21 14:12:34.92	167.77	31.22	-37.8	-38.8	23.3	0.00e+00	122	42	0	1751121920	50	5420
2026-01-21 14:12:38.97	168.41	30.51	-37.2	-38.1	23.5	0.00e+00	120	42	0	1763704832	48	5646
2026-01-21 14:12:43.01	169.01	29.81	-37.2	-38.1	23.6	0.00e+00	123	42	0	1776287744	48	5653
2026-01-21 14:12:47.05	169.60	29.12	-37.1	-38.0	23.7	0.00e+00	122	42	0	1789919232	48	5570
2026-01-21 14:12:51.09	170.15	28.45	-37.2	-38.2	23.7	0.00e+00	123	42	0	1802502144	48	5674
2026-01-21 14:12:55.13	170.69	27.79	-37.5	-38.5	23.7	0.00e+00	122	42	0	1815085056	48	5863
2026-01-21 14:12:59.17	171.21	27.14	-37.0	-38.0	24.0	0.00e+00	122	42	0	1827667968	48	5535
2026-01-21 14:13:03.21	171.70	26.51	-36.8	-37.7	24.2	0.00e+00	123	42	0	1840250880	48	5360
2026-01-21 14:13:07.25	172.18	25.89	-36.8	-37.7	24.2	0.00e+00	122	42	0	1852833792	48	5348
2026-01-21 14:13:11.30	172.64	25.28	-36.6	-37.5	24.3	0.00e+00	123	42	0	1865416704	46	5902
2026-01-21 14:13:15.33	173.09	24.68	-36.4	-37.3	24.4	0.00e+00	123	42	0	1877999616	46	5736
2026-01-21 14:13:19.38	173.52	24.09	-36.9	-37.8	24.0	0.00e+00	122	42	0	1890582528	46	6099
2026-01-21 14:13:23.42	173.93	23.52	-37.0	-37.9	24.0	0.00e+00	123	42	0	1903165440	46	6173
2026-01-21 14:13:27.46	174.33	22.96	-37.3	-38.2	23.8	0.00e+00	123	42	0	1915748352	46	6401
2026-01-21 14:13:31.50	174.72	22.40	-37.3	-38.2	23.8	0.00e+00	123	42	0	1928331264	46	6419
2026-01-21 14:13:35.54	175.09	21.86	-37.2	-38.2	23.7	0.00e+00	123	42	0	1940914176	46	6364
2026-01-21 14:13:39.59	175.45	21.33	-37.3	-38.2	23.5	0.00e+00	122	42	0	1953497088	46	6411
2026-01-21 14:13:43.63	175.80	20.81	-37.2	-38.2	23.8	0.00e+00	122	42	0	1966080000	46	6365
2026-01-21 14:13:47.67	176.14	20.29	-36.8	-37.7	24.1	0.00e+00	123	42	0	1978662912	46	6013
2026-01-21 14:13:51.71	176.47	19.79	-36.9	-37.8	23.9	0.00e+00	123	42	0	1991245824	46	6086
2026-01-21 14:13:55.75	176.78	19.30	-36.9	-37.8	24.0	0.00e+00	123	42	0	2003828736	46	6117
2026-01-21 14:13:59.79	177.09	18.81	-37.2	-38.1	23.6	0.00e+00	120	42	0	2016411648	46	6330
2026-01-21 14:14:03.84	177.39	18.34	-37.3	-38.2	23.6	0.00e+00	122	42	0	2028994560	46	6402
2026-01-21 14:14:07.88	177.68	17.87	-37.5	-38.5	23.5	0.00e+00	122	42	0	2041577472	46	6574
2026-01-21 14:14:11.92	177.97	17.41	-37.7	-38.6	23.3	0.00e+00	122	42	0	2054160384	46	6714
2026-01-21 14:14:15.96	178.24	16.96	-37.6	-38.6	23.3	0.00e+00	120	42	0	2066743296	48	5944
2026-01-21 14:14:20.00	178.51	16.51	-37.8	-38.7	23.1	0.00e+00	122	42	0	2080374784	48	6064
2026-01-21 14:14:24.04	178.77	16.08	-38.0	-38.9	23.0	0.00e+00	122	42	0	2092957696	48	6203
2026-01-21 14:14:28.08	179.02	15.65	-38.1	-39.0	23.0	0.00e+00	122	43	0	2105540608	48	6268
2026-01-21 14:14:32.12	179.27	15.22	-38.1	-39.1	22.9	0.00e+00	123	42	0	2118123520	48	6333
2026-01-21 14:14:36.16	179.51	14.81	-38.2	-39.2	22.8	0.00e+00	123	42	0	2130706432	48	6396
2026-01-21 14:14:40.20	179.74	14.40	-38.4	-39.4	22.6	0.00e+00	122	42	0	2143289344	48	6546
2026-01-21 14:14:44.24	179.97	14.00	-38.3	-39.3	22.7	0.00e+00	123	42	0	2155872256	48	6471
2026-01-21 14:14:48.28	180.19	13.60	-38.3	-39.2	22.8	0.00e+00	120	42	0	2168455168	48	6407
2026-01-21 14:14:52.32	180.41	13.21	-38.2	-39.2	22.8	0.00e+00	123	42	0	2181038080	48	6378
2026-01-21 14:14:56.36	180.62	12.82	-38.2	-39.2	22.8	0.00e+00	122	42	0	2193620992	48	6359
2026-01-21 14:15:00.40	180.82	12.44	-38.1	-39.1	22.8	0.00e+00	123	42	0	2206203904	48	6326
2026-01-21 14:15:04.44	181.02	12.07	-38.3	-39.3	22.6	0.00e+00	123	42	0	2218786816	48	6452
2026-01-21 14:15:08.48	181.22	11.70	-38.5	-39.5	22.5	0.00e+00	122	42	0	2231369728	48	6587
2026-01-21 14:15:12.53	181.41	11.34	-38.3	-39.3	22.6	0.00e+00	123	42	0	2243952640	48	6490
2026-01-21 14:15:16.57	181.60	10.98	-38.4	-39.4	22.5	0.00e+00	123	42	0	2256535552	48	6508
2026-01-21 14:15:20.61	181.79	10.63	-38.5	-39.5	22.4	0.00e+00	123	42	0	2269118464	48	6613
2026-01-21 14:15:24.65	181.97	10.28	-38.6	-39.6	22.3	0.00e+00	122	42	0	2281701376	48	6687
2026-01-21 14:15:28.69	182.14	9.94	-38.5	-39.5	22.4	0.00e+00	123	42	0	2294284288	48	6603
2026-01-21 14:15:32.73	182.31	9.60	-38.6	-39.6	22.3	0.00e+00	123	42	0	2306867200	48	6691
2026-01-21 14:15:36.77	182.48	9.26	-38.4	-39.4	22.5	0.00e+00	122	42	0	2319450112	50	5829
2026-01-21 14:15:40.81	182.65	8.93	-38.6	-39.6	22.3	0.00e+00	121	42	0	2332033024	50	5979
2026-01-21 14:15:44.86	182.81	8.60	-38.9	-39.9	22.0	0.00e+00	123	42	0	2344615936	50	6163
2026-01-21 14:15:48.90	182.97	8.28	-39.2	-40.3	21.7	0.00e+00	122	42	0	2357198848	50	6446
2026-01-21 14:15:52.94	183.12	7.96	-39.2	-40.3	21.7	0.00e+00	123	42	0	2370830336	50	6459
2026-01-21 14:15:56.98	183.28	7.65	-39.4	-40.5	21.5	0.00e+00	122	42	0	2383413248	50	6627
2026-01-21 14:16:01.02	183.43	7.34	-39.8	-40.9	21.1	0.00e+00	123	42	0	2395996160	52	6171
2026-01-21 14:16:05.06	183.57	7.03	-40.2	-41.3	20.8	0.00e+00	123	42	0	2408579072	52	6465
2026-01-21 14:16:09.09	183.72	6.73	-40.3	-41.5	20.6	0.00e+00	120	42	0	2421161984	52	6589
2026-01-21 14:16:13.13	183.86	6.43	-40.1	-41.3	20.8	0.00e+00	123	42	0	2433744896	52	6449
2026-01-21 14:16:17.17	184.00	6.13	-40.6	-41.8	20.2	0.00e+00	122	42	0	2446327808	52	6844
2026-01-21 14:16:21.21	184.13	5.84	-40.7	-42.0	20.1	0.00e+00	123	42	0	2458910720	54	6206
2026-01-21 14:16:25.26	184.27	5.54	-40.9	-42.2	20.0	0.00e+00	123	42	0	2471493632	54	6366
2026-01-21 14:16:29.30	184.40	5.26	-41.6	-42.9	19.1	0.00e+00	120	42	0	2484076544	54	6953
2026-01-21 14:16:33.34	184.53	4.97	-41.1	-42.3	19.7	0.00e+00	122	42	0	2496659456	54	6474
2026-01-21 14:16:37.38	184.65	4.69	-41.5	-42.9	18.4	0.00e+00	122	42	0	2509242368	54	6903
2026-01-21 14:16:41.42	184.78	4.41	-41.4	-42.8	19.1	0.00e+00	123	42	0	2521825280	54	6807
2026-01-21 14:16:45.45	184.90	4.14	-41.0	-42.3	19.5	0.00e+00	123	42	0	2534408192	54	6498
2026-01-21 14:16:49.49	185.02	3.86	-41.8	-43.2	18.8	0.00e+00	123	42	0	2546991104	56	6368
2026-01-21 14:16:53.53	185.14	3.59	-41.2	-42.4	19.3	0.00e+00	123	42	0	2559574016	56	5852
2026-01-21 14:16:57.57	185.25	3.32	-41.8	-43.2	18.2	0.00e+00	123	42	0	2572156928	56	6420
2026-01-21 14:17:01.61	185.37	3.06	-43.3	-45.0	16.8	0.00e+00	122	42	0	2584739840	58	6978
2026-01-21 14:17:05.66	185.48	2.79	-50.5	-63.3	3.5	1.51e+00	0	42	104	2587885568	60	51612
2026-01-21 14:17:09.70	185.59	2.53	-50.8	-63.8	3.5	1.52e+00	0	42	104	2587885568	60	54193
2026-01-21 14:17:13.74	185.70	2.28	-51.0	-63.9	3.5	1.52e+00	0	42	104	2587885568	60	54755
2026-01-21 14:17:17.78	185.81	2.02	-51.0	-63.9	3.5	1.51e+00	0	42	104	2587885568	60	54958
2026-01-21 14:17:21.82	185.92	1.77	-51.1	-64.0	3.5	1.52e+00	0	42	104	2587885568	60	55441
2026-01-21 14:17:25.86	186.02	1.51	-51.2	-64.1	3.5	1.51e+00	0	42	104	2587885568	60	56019
2026-01-21 14:17:29.90	186.12	1.26	-51.2	-64.1	3.5	1.52e+00	0	42	104	2587885568	60	56123
2026-01-21 14:17:33.93	186.23	1.02	-51.2	-64.1	3.5	1.52e+00	0	42	104	2587885568	60	56418
2026-01-21 14:17:37.97	186.33	0.77	-51.3	-64.1	3.5	1.52e+00	0	42	104	2587885568	60	56567
2026-01-21 14:17:42.00	186.42	0.53	-51.4	-64.3	3.5	1.51e+00	0	42	104	2587885568	60	57353
2026-01-21 14:17:46.05	186.52	0.29	-51.3	-64.2	3.5	1.52e+00	0	42	104	2587885568	60	56652
2026-01-21 14:17:50.09	186.62	0.05	-51.3	-64.3	3.5	1.52e+00	0	42	104	2587885568	60	57405

#Closed at: 2026-01-21 14:17:53
#Recorded file [2587 MB]: D:/lorett/data/35029_260122_020224.dat