passes_logs/2026/01/21/R4.6S_Anadyr/R4.6S_Anadyr__20260121_213705_TY-42_rec.log

#Pass ID: 20260121_213705_TY-42
#Satellite: TY-42
#Configuration: TY-42_900M
#almurnet v.1.7.20251203
#Start time: 2026-01-21 21:37:37

#Version: 2.2.20231116
#Station: R4.6S_Anadyr
#Location: 177.4865 lon 64.73178 lat
#TLE: 1 64048U 25103A   26020.90027778  .00008008  00000-0  38191-3 0 09994
#TLE: 2 64048 097.4121 096.2065 0001560 086.9654 301.4475 15.19159220 37713

#Time	Az	El	Level	Level2	SNR	BER	BlckErr	Temp	State	Recorded	gain1	gain2
2026-01-21 21:37:37.59	26.74	1.71	-51.6	-53.0	3.4	0.00e+00	0	39	0	0	60	54791
2026-01-21 21:37:40.52	27.07	1.87	-49.2	-51.7	6.1	0.00e+00	0	41	104	0	60	47375
2026-01-21 21:37:43.46	27.40	2.03	-49.3	-51.8	6.1	0.00e+00	0	41	104	0	60	47499
2026-01-21 21:37:46.39	27.73	2.19	-49.3	-51.8	6.1	0.00e+00	0	41	104	0	60	47507
2026-01-21 21:37:49.32	28.06	2.35	-49.2	-51.7	6.1	0.00e+00	0	41	104	0	60	47210
2026-01-21 21:37:52.26	28.41	2.51	-49.2	-51.8	6.1	0.00e+00	0	41	104	0	60	47695
2026-01-21 21:37:55.19	28.75	2.67	-49.2	-51.8	6.1	0.00e+00	0	41	104	0	60	47434
2026-01-21 21:37:58.12	29.10	2.84	-49.2	-51.7	6.1	0.00e+00	0	41	104	0	60	47070
2026-01-21 21:38:01.05	29.46	3.00	-49.2	-51.7	6.1	0.00e+00	0	41	104	0	60	47111
2026-01-21 21:38:03.98	29.82	3.16	-49.2	-51.8	6.1	0.00e+00	0	41	104	0	60	47471
2026-01-21 21:38:06.92	30.18	3.33	-49.5	-51.9	6.1	0.00e+00	0	41	104	0	60	48398
2026-01-21 21:38:09.86	30.56	3.49	-49.3	-51.8	6.1	0.00e+00	0	42	104	0	60	47694
2026-01-21 21:38:12.79	30.93	3.66	-49.4	-51.9	6.1	0.00e+00	0	42	104	0	60	48080
2026-01-21 21:38:15.72	31.31	3.82	-49.6	-52.1	6.1	0.00e+00	0	42	104	0	60	49519
2026-01-21 21:38:18.65	31.70	3.99	-49.4	-51.9	6.1	0.00e+00	0	42	104	0	60	48278
2026-01-21 21:38:21.58	32.09	4.15	-49.5	-52.0	6.1	0.00e+00	0	42	104	0	60	48923
2026-01-21 21:38:24.51	32.48	4.32	-49.9	-52.4	6.1	0.00e+00	0	42	104	0	60	50913
2026-01-21 21:38:27.45	32.89	4.49	-49.8	-52.2	6.1	0.00e+00	0	42	104	0	60	50102
2026-01-21 21:38:30.38	33.29	4.65	-49.7	-52.2	6.1	0.00e+00	0	42	104	0	60	50152
2026-01-21 21:38:33.31	33.71	4.82	-49.9	-52.3	6.1	0.00e+00	0	42	104	0	60	50514
2026-01-21 21:38:36.24	34.13	4.99	-49.7	-52.3	6.1	0.00e+00	0	42	104	0	60	50440
2026-01-21 21:38:39.18	34.55	5.16	-49.7	-52.2	6.1	0.00e+00	0	42	104	0	60	49871
2026-01-21 21:38:42.12	34.99	5.33	-49.9	-52.4	6.1	0.00e+00	0	42	104	0	60	51149
2026-01-21 21:38:45.05	35.42	5.50	-50.1	-52.5	6.1	0.00e+00	0	42	104	0	60	51858
2026-01-21 21:38:47.98	35.87	5.67	-50.0	-52.5	6.1	0.00e+00	0	42	104	0	60	51523
2026-01-21 21:38:50.92	36.32	5.84	-30.1	-30.4	13.1	0.00e+00	1660	43	104	16777216	36	16072
2026-01-21 21:38:53.85	36.78	6.01	-29.1	-29.6	16.4	1.68e-02	0	43	0	301989888	32	18562
2026-01-21 21:38:56.78	37.24	6.18	-29.2	-29.7	16.4	8.17e-05	0	43	0	637534208	32	18765
2026-01-21 21:38:59.72	37.71	6.35	-29.2	-29.7	16.5	1.20e-04	0	43	0	964689920	32	18648
2026-01-21 21:39:02.66	38.19	6.52	-28.7	-29.2	16.6	1.09e-04	0	43	0	1291845632	32	17729
2026-01-21 21:39:05.59	38.67	6.69	-28.8	-29.3	16.5	4.90e-05	0	43	0	1627389952	32	17861
2026-01-21 21:39:08.52	39.16	6.86	-28.7	-29.2	16.5	1.09e-04	0	43	0	1954545664	32	17793
2026-01-21 21:39:11.45	39.66	7.03	-28.5	-29.0	16.7	9.80e-05	0	43	0	2281701376	32	17356
2026-01-21 21:39:14.39	40.16	7.20	-28.6	-29.1	16.5	4.35e-05	0	43	0	2617245696	32	17461
2026-01-21 21:39:17.32	40.67	7.37	-28.3	-28.7	16.4	1.03e-04	0	43	0	2944401408	30	18855
2026-01-21 21:39:20.26	41.19	7.54	-28.4	-28.9	16.4	1.52e-04	0	43	0	3271557120	30	19140
2026-01-21 21:39:23.19	41.72	7.71	-28.4	-28.9	16.6	8.71e-05	0	43	0	3607101440	30	19221
2026-01-21 21:39:26.12	42.25	7.88	-28.4	-28.9	16.6	3.81e-05	0	43	0	3934257152	32	17063
2026-01-21 21:39:29.06	42.79	8.05	-28.3	-28.8	16.6	4.35e-05	0	43	0	4269801472	32	16837
2026-01-21 21:39:31.99	43.34	8.22	-28.1	-28.6	16.8	3.26e-05	0	43	0	4596957184	32	16551
2026-01-21 21:39:34.93	43.90	8.38	-28.0	-28.5	16.8	4.35e-05	0	43	0	4924112896	32	16420
2026-01-21 21:39:37.86	44.47	8.55	-28.2	-28.8	16.7	4.35e-05	0	43	0	5259657216	32	16847
2026-01-21 21:39:40.79	45.04	8.72	-28.0	-28.5	16.6	4.35e-05	0	43	0	5586812928	32	16335
2026-01-21 21:39:43.73	45.62	8.89	-28.1	-28.6	16.7	5.40e-06	0	43	0	5913968640	32	16492
2026-01-21 21:39:46.66	46.21	9.05	-28.0	-28.5	16.7	2.72e-05	0	44	0	6249512960	32	16332
2026-01-21 21:39:49.59	46.80	9.22	-28.0	-28.5	16.6	4.35e-05	0	44	0	6576668672	32	16340
2026-01-21 21:39:52.52	47.41	9.38	-27.9	-28.4	16.7	2.72e-05	0	44	0	6903824384	30	18086
2026-01-21 21:39:55.46	48.02	9.54	-27.8	-28.3	16.7	3.26e-05	0	44	0	7230980096	30	17916
2026-01-21 21:39:58.39	48.64	9.70	-28.3	-28.9	16.2	1.03e-04	0	43	0	7566524416	32	17005
2026-01-21 21:40:01.33	49.27	9.86	-27.7	-28.3	16.5	1.80e-04	0	44	0	7893680128	30	17811
2026-01-21 21:40:04.26	49.91	10.02	-27.6	-28.1	16.5	7.08e-05	0	44	0	8229224448	30	17551
2026-01-21 21:40:07.19	50.55	10.18	-27.6	-28.1	16.7	3.26e-05	0	44	0	8556380160	30	17488
2026-01-21 21:40:10.12	51.21	10.34	-27.7	-28.2	16.6	2.17e-05	0	44	0	8883535872	30	17786
2026-01-21 21:40:13.05	51.87	10.49	-28.4	-28.9	16.2	9.80e-05	0	44	0	9210691584	30	19173
2026-01-21 21:40:15.99	52.54	10.65	-27.8	-28.3	16.3	2.45e-04	0	44	0	9546235904	30	17859
2026-01-21 21:40:18.93	53.22	10.80	-27.7	-28.2	16.6	9.26e-05	0	44	0	9873391616	30	17674
2026-01-21 21:40:21.86	53.91	10.95	-27.5	-28.0	16.5	2.17e-05	0	44	0	10208935936	30	17257
2026-01-21 21:40:24.80	54.61	11.09	-27.6	-28.1	16.6	4.35e-05	0	44	0	10536091648	30	17412
2026-01-21 21:40:27.74	55.31	11.24	-27.3	-27.8	16.8	1.08e-05	0	44	0	10863247360	30	16919
2026-01-21 21:40:30.67	56.03	11.38	-27.2	-27.7	16.5	4.35e-05	0	44	0	11198791680	30	16711
2026-01-21 21:40:33.61	56.75	11.52	-27.0	-27.5	16.7	7.08e-05	0	44	0	11525947392	30	16335
2026-01-21 21:40:36.53	57.47	11.66	-26.7	-27.2	16.5	5.40e-06	0	44	0	11853103104	28	17733
2026-01-21 21:40:39.47	58.21	11.80	-26.9	-27.5	16.8	1.08e-05	0	44	0	12188647424	28	18226
2026-01-21 21:40:42.40	58.96	11.93	-26.8	-27.3	16.3	1.08e-05	0	44	0	12515803136	28	17860
2026-01-21 21:40:45.33	59.71	12.06	-26.7	-27.2	16.7	4.35e-05	0	44	0	12842958848	28	17786
2026-01-21 21:40:48.26	60.47	12.19	-26.6	-27.1	16.9	1.08e-05	0	44	0	13178503168	28	17588
2026-01-21 21:40:51.20	61.24	12.31	-26.5	-27.0	16.6	1.63e-05	0	44	0	13505658880	28	17332
2026-01-21 21:40:54.13	62.02	12.43	-26.6	-27.1	17.0	4.35e-05	0	44	0	13832814592	28	17592
2026-01-21 21:40:57.07	62.80	12.55	-26.4	-26.9	15.9	6.53e-05	0	44	0	14168358912	28	17178
2026-01-21 21:41:00.01	63.60	12.66	-26.4	-26.9	16.9	9.80e-05	0	44	0	14503903232	28	17058
2026-01-21 21:41:02.94	64.39	12.77	-26.5	-27.0	16.8	5.40e-06	0	44	0	14822670336	28	17211
2026-01-21 21:41:05.87	65.20	12.87	-26.2	-26.7	16.9	5.40e-06	0	44	0	15158214656	28	16739
2026-01-21 21:41:08.80	66.01	12.97	-26.3	-26.8	16.8	0.00e+00	0	44	0	15485370368	28	16990
2026-01-21 21:41:11.74	66.83	13.07	-26.3	-26.8	16.3	1.08e-05	0	44	0	15812526080	28	16872
2026-01-21 21:41:14.67	67.65	13.17	-26.3	-26.8	16.7	1.08e-05	0	44	0	16148070400	28	16902
2026-01-21 21:41:17.61	68.49	13.25	-26.2	-26.7	16.6	0.00e+00	0	44	0	16475226112	28	16747
2026-01-21 21:41:20.54	69.32	13.34	-26.3	-26.8	16.6	1.63e-05	0	44	0	16802381824	28	16932
2026-01-21 21:41:23.48	70.17	13.42	-26.3	-26.8	16.5	3.26e-05	0	44	0	17137926144	28	16866
2026-01-21 21:41:26.41	71.01	13.49	-26.2	-26.7	16.8	1.63e-05	0	44	0	17473470464	28	16767
2026-01-21 21:41:29.35	71.87	13.56	-26.3	-26.7	16.9	1.08e-05	0	44	0	17792237568	28	16788
2026-01-21 21:41:32.28	72.73	13.63	-26.3	-26.8	16.9	5.40e-06	0	44	0	18127781888	28	16921
2026-01-21 21:41:35.21	73.59	13.69	-26.2	-26.7	16.9	0.00e+00	0	44	0	18454937600	28	16696
2026-01-21 21:41:38.13	74.45	13.74	-26.3	-26.8	16.9	0.00e+00	0	44	0	18782093312	28	16817
2026-01-21 21:41:41.07	75.32	13.79	-26.4	-26.8	16.3	1.08e-05	0	44	0	19117637632	28	16955
2026-01-21 21:41:44.00	76.19	13.84	-26.4	-26.8	16.3	1.52e-04	0	44	0	19444793344	28	16972
2026-01-21 21:41:46.94	77.07	13.88	-26.2	-26.7	16.9	1.63e-05	0	44	0	19780337664	28	16743
2026-01-21 21:41:49.87	77.94	13.91	-26.2	-26.7	16.7	0.00e+00	0	44	0	20107493376	28	16640
2026-01-21 21:41:52.79	78.82	13.94	-26.3	-26.8	16.3	1.08e-05	0	44	0	20434649088	28	16927
2026-01-21 21:41:55.72	79.70	13.96	-26.4	-26.8	16.8	5.44e-05	0	44	0	20770193408	28	17000
2026-01-21 21:41:58.65	80.58	13.98	-26.4	-26.8	16.7	1.08e-05	0	44	0	21088960512	28	16958
2026-01-21 21:42:01.59	81.47	13.99	-26.5	-26.9	16.6	0.00e+00	0	44	0	21424504832	28	17159
2026-01-21 21:42:04.52	82.36	14.00	-26.3	-26.7	16.7	5.40e-06	0	44	0	21760049152	28	16808
2026-01-21 21:42:07.46	83.24	14.00	-26.2	-26.7	16.8	0.00e+00	0	44	0	22087204864	28	16692
2026-01-21 21:42:10.39	84.13	13.99	-26.4	-26.9	16.7	1.63e-05	0	44	0	22414360576	28	17105
2026-01-21 21:42:13.32	85.01	13.98	-26.4	-26.9	16.7	1.08e-05	0	44	0	22749904896	28	17024
2026-01-21 21:42:16.25	85.90	13.97	-26.5	-26.9	16.6	2.17e-05	0	45	0	23068672000	28	17196
2026-01-21 21:42:19.17	86.78	13.95	-26.3	-26.8	16.7	0.00e+00	0	45	0	23404216320	28	16906
2026-01-21 21:42:22.10	87.66	13.92	-26.5	-27.0	16.6	0.00e+00	0	45	0	23731372032	28	17209
2026-01-21 21:42:25.04	88.54	13.89	-26.8	-27.3	16.7	1.08e-05	0	45	0	24058527744	28	17842
2026-01-21 21:42:27.97	89.41	13.85	-26.5	-27.0	16.7	0.00e+00	0	45	0	24394072064	28	17218
2026-01-21 21:42:30.91	90.29	13.80	-26.4	-26.9	16.7	3.81e-05	0	45	0	24721227776	28	17077
2026-01-21 21:42:33.84	91.16	13.76	-26.4	-26.8	16.7	1.63e-05	0	45	0	25048383488	28	16915
2026-01-21 21:42:36.78	92.03	13.70	-26.6	-27.0	16.7	2.17e-05	0	45	0	25383927808	28	17264
2026-01-21 21:42:39.72	92.90	13.64	-26.4	-26.8	16.7	1.08e-05	0	44	0	25719472128	28	16964
2026-01-21 21:42:42.65	93.76	13.58	-26.3	-26.7	16.7	1.63e-05	0	45	0	26046627840	28	16699
2026-01-21 21:42:45.59	94.62	13.51	-49.9	-52.6	6.1	1.08e-05	0	44	104	26231177216	60	52186
2026-01-21 21:42:48.52	95.47	13.44	-50.3	-52.9	6.1	1.08e-05	0	44	104	26231177216	60	53920
2026-01-21 21:42:51.45	96.31	13.36	-50.4	-52.9	6.1	1.08e-05	0	44	104	26231177216	60	54252
2026-01-21 21:42:54.39	97.15	13.27	-50.0	-52.6	6.1	0.00e+00	0	44	104	26231177216	60	52023
2026-01-21 21:42:57.32	97.99	13.19	-50.6	-53.0	6.1	0.00e+00	0	44	104	26231177216	60	54995
2026-01-21 21:43:00.25	98.82	13.09	-50.4	-52.9	6.0	0.00e+00	0	44	104	26231177216	60	54239
2026-01-21 21:43:03.19	99.64	13.00	-50.4	-53.0	6.1	0.00e+00	0	44	104	26231177216	60	54412
2026-01-21 21:43:06.12	100.46	12.90	-50.5	-53.0	6.1	0.00e+00	0	44	104	26231177216	60	54492
2026-01-21 21:43:09.05	101.27	12.79	-50.1	-52.7	6.1	0.00e+00	0	44	104	26231177216	60	53020
2026-01-21 21:43:11.98	102.07	12.68	-50.2	-52.8	6.1	0.00e+00	0	44	104	26231177216	60	53569
2026-01-21 21:43:14.92	102.87	12.57	-50.2	-52.8	6.1	0.00e+00	0	44	104	26231177216	60	53177
2026-01-21 21:43:17.86	103.66	12.45	-50.4	-52.9	6.1	0.00e+00	0	44	104	26231177216	60	53993
2026-01-21 21:43:20.79	104.44	12.33	-50.4	-52.9	6.1	0.00e+00	0	44	104	26231177216	60	53882
2026-01-21 21:43:23.73	105.21	12.21	-50.4	-52.8	6.1	0.00e+00	0	44	104	26231177216	60	53658
2026-01-21 21:43:26.66	105.98	12.08	-50.3	-52.8	6.1	0.00e+00	0	44	104	26231177216	60	53474
2026-01-21 21:43:29.60	106.74	11.95	-50.2	-52.7	6.1	0.00e+00	0	44	104	26231177216	60	53120
2026-01-21 21:43:32.52	107.49	11.82	-50.1	-52.7	6.1	0.00e+00	0	44	104	26231177216	60	52677
2026-01-21 21:43:35.46	108.23	11.68	-50.4	-52.9	6.1	0.00e+00	0	44	104	26231177216	60	54129
2026-01-21 21:43:38.40	108.97	11.55	-50.1	-52.7	6.1	0.00e+00	0	44	104	26231177216	60	52936
2026-01-21 21:43:41.33	109.70	11.40	-50.0	-52.7	6.1	0.00e+00	0	44	104	26231177216	60	52849
2026-01-21 21:43:44.27	110.42	11.26	-50.4	-52.9	6.1	0.00e+00	0	44	104	26231177216	60	53797
2026-01-21 21:43:47.21	111.13	11.11	-50.2	-52.7	6.1	0.00e+00	0	44	104	26231177216	60	53097
2026-01-21 21:43:50.14	111.83	10.97	-50.2	-52.7	6.1	0.00e+00	0	44	104	26231177216	60	53047
2026-01-21 21:43:53.08	112.52	10.82	-50.2	-52.7	6.1	0.00e+00	0	44	104	26231177216	60	52876
2026-01-21 21:43:56.01	113.21	10.66	-50.3	-52.8	6.1	0.00e+00	0	44	104	26231177216	60	53429
2026-01-21 21:43:58.94	113.88	10.51	-50.2	-52.8	6.1	0.00e+00	0	44	104	26231177216	60	53624
2026-01-21 21:44:01.87	114.55	10.36	-50.0	-52.6	6.1	0.00e+00	0	44	104	26231177216	60	52150
2026-01-21 21:44:04.80	115.21	10.20	-50.3	-52.8	6.1	0.00e+00	0	44	104	26231177216	60	53344
2026-01-21 21:44:07.73	115.86	10.04	-50.3	-52.8	6.1	0.00e+00	0	44	104	26231177216	60	53562
2026-01-21 21:44:10.67	116.51	9.88	-50.3	-52.8	6.1	0.00e+00	0	44	104	26231177216	60	53310
2026-01-21 21:44:13.61	117.14	9.72	-50.1	-52.6	6.1	0.00e+00	0	44	104	26231177216	60	52262
2026-01-21 21:44:16.54	117.77	9.55	-50.2	-52.7	6.1	0.00e+00	0	44	104	26231177216	60	53042
2026-01-21 21:44:19.48	118.39	9.39	-50.2	-52.8	6.1	0.00e+00	0	44	104	26231177216	60	53255
2026-01-21 21:44:22.41	119.00	9.22	-50.3	-52.8	6.1	0.00e+00	0	44	104	26231177216	60	53487
2026-01-21 21:44:25.34	119.60	9.06	-50.3	-52.8	6.1	0.00e+00	0	44	104	26231177216	60	53389
2026-01-21 21:44:28.27	120.19	8.89	-50.2	-52.7	6.1	0.00e+00	0	44	104	26231177216	60	53085
2026-01-21 21:44:31.20	120.77	8.72	-50.3	-52.8	6.1	0.00e+00	0	44	104	26231177216	60	53641
2026-01-21 21:44:34.13	121.35	8.56	-50.1	-52.6	6.1	0.00e+00	0	44	104	26231177216	60	52338
2026-01-21 21:44:37.06	121.92	8.39	-50.1	-52.6	6.1	0.00e+00	0	44	104	26231177216	60	52455
2026-01-21 21:44:40.00	122.48	8.22	-50.3	-52.7	6.1	0.00e+00	0	44	104	26231177216	60	52920
2026-01-21 21:44:42.93	123.04	8.05	-50.3	-52.7	6.1	0.00e+00	0	44	104	26231177216	60	53156
2026-01-21 21:44:45.87	123.58	7.88	-50.0	-52.5	6.1	0.00e+00	0	44	104	26231177216	60	51742
2026-01-21 21:44:48.80	124.12	7.71	-49.8	-52.4	6.1	0.00e+00	0	44	104	26231177216	60	51145
2026-01-21 21:44:51.74	124.65	7.53	-50.2	-52.7	6.1	0.00e+00	0	44	104	26231177216	60	52608
2026-01-21 21:44:54.67	125.18	7.36	-50.1	-52.6	6.1	0.00e+00	0	44	104	26231177216	60	52111
2026-01-21 21:44:57.60	125.69	7.19	-50.0	-52.5	6.1	0.00e+00	0	44	104	26231177216	60	51766
2026-01-21 21:45:00.53	126.20	7.02	-50.0	-52.6	6.1	0.00e+00	0	44	104	26231177216	60	52097
2026-01-21 21:45:03.47	126.70	6.85	-50.0	-52.6	6.1	0.00e+00	0	44	104	26231177216	60	52548
2026-01-21 21:45:06.40	127.20	6.68	-50.0	-52.5	6.1	0.00e+00	0	44	104	26231177216	60	51591
2026-01-21 21:45:09.33	127.68	6.50	-50.1	-52.5	6.1	0.00e+00	0	44	104	26231177216	60	51811
2026-01-21 21:45:12.26	128.16	6.33	-50.0	-52.5	6.1	0.00e+00	0	44	104	26231177216	60	51761
2026-01-21 21:45:15.20	128.64	6.16	-50.1	-52.6	6.1	0.00e+00	0	44	104	26231177216	60	52076
2026-01-21 21:45:18.13	129.10	5.99	-50.0	-52.4	6.1	0.00e+00	0	44	104	26231177216	60	51282
2026-01-21 21:45:21.06	129.56	5.82	-50.0	-52.5	6.1	0.00e+00	0	44	104	26231177216	60	51673
2026-01-21 21:45:24.00	130.02	5.65	-50.0	-52.4	6.1	0.00e+00	0	44	104	26231177216	60	51038
2026-01-21 21:45:26.93	130.46	5.48	-50.0	-52.5	6.1	0.00e+00	0	44	104	26231177216	60	51499
2026-01-21 21:45:29.85	130.90	5.31	-49.9	-52.4	6.1	0.00e+00	0	44	104	26231177216	60	50807
2026-01-21 21:45:32.79	131.34	5.13	-49.9	-52.4	6.1	0.00e+00	0	44	104	26231177216	60	50922
2026-01-21 21:45:35.72	131.77	4.96	-49.8	-52.3	6.1	0.00e+00	0	44	104	26231177216	60	50653
2026-01-21 21:45:38.66	132.19	4.79	-49.8	-52.3	6.0	0.00e+00	0	44	104	26231177216	60	50754
2026-01-21 21:45:41.59	132.61	4.62	-49.8	-52.3	6.1	0.00e+00	0	44	104	26231177216	60	50216
2026-01-21 21:45:44.52	133.02	4.46	-49.8	-52.3	6.1	0.00e+00	0	44	104	26231177216	60	50561
2026-01-21 21:45:47.46	133.42	4.29	-49.7	-52.2	6.1	0.00e+00	0	44	104	26231177216	60	49854
2026-01-21 21:45:50.39	133.82	4.12	-49.7	-52.1	6.1	0.00e+00	0	44	104	26231177216	60	49594
2026-01-21 21:45:53.33	134.22	3.95	-49.6	-52.1	6.1	0.00e+00	0	44	104	26231177216	60	49426
2026-01-21 21:45:56.27	134.61	3.78	-49.6	-52.1	6.1	0.00e+00	0	44	104	26231177216	60	49460
2026-01-21 21:45:59.19	134.99	3.62	-49.7	-52.2	6.1	0.00e+00	0	44	104	26231177216	60	49727
2026-01-21 21:46:02.12	135.37	3.45	-49.4	-51.8	6.1	0.00e+00	0	44	104	26231177216	60	47924
2026-01-21 21:46:05.06	135.74	3.28	-49.6	-52.0	6.1	0.00e+00	0	44	104	26231177216	60	48913
2026-01-21 21:46:07.99	136.11	3.12	-49.3	-51.9	6.1	0.00e+00	0	44	104	26231177216	60	48074
2026-01-21 21:46:10.92	136.47	2.95	-49.6	-52.1	6.1	0.00e+00	0	44	104	26231177216	60	49279
2026-01-21 21:46:13.86	136.83	2.79	-50.5	-52.9	6.0	0.00e+00	0	44	104	26231177216	60	54363
2026-01-21 21:46:16.80	137.18	2.62	-50.7	-53.2	6.1	0.00e+00	0	44	104	26231177216	60	55946
2026-01-21 21:46:19.73	137.53	2.46	-51.0	-53.4	6.1	0.00e+00	0	44	104	26231177216	60	57554
2026-01-21 21:46:22.66	137.87	2.30	-50.9	-53.4	6.1	0.00e+00	0	43	104	26231177216	60	57264
2026-01-21 21:46:25.60	138.21	2.13	-51.1	-53.5	6.1	0.00e+00	0	44	104	26231177216	60	58090
2026-01-21 21:46:28.53	138.54	1.97	-51.1	-53.5	6.1	0.00e+00	0	44	104	26231177216	60	57809
2026-01-21 21:46:31.47	138.87	1.81	-51.0	-53.4	6.1	0.00e+00	0	43	104	26231177216	60	57315
2026-01-21 21:46:34.41	139.20	1.65	-51.0	-53.5	6.1	0.00e+00	0	43	104	26231177216	60	57788
2026-01-21 21:46:37.34	139.52	1.49	-51.0	-53.5	6.1	0.00e+00	0	43	104	26231177216	60	57697
2026-01-21 21:46:40.27	139.84	1.33	-51.2	-53.7	6.1	0.00e+00	0	43	104	26231177216	60	59332
2026-01-21 21:46:43.21	140.15	1.17	-51.3	-53.7	6.1	0.00e+00	0	43	104	26231177216	60	59523
2026-01-21 21:46:46.14	140.46	1.01	-51.2	-53.7	6.1	0.00e+00	0	43	104	26231177216	60	59096
2026-01-21 21:46:49.08	140.76	0.85	-51.2	-53.7	6.1	0.00e+00	0	43	104	26231177216	60	59165
2026-01-21 21:46:52.01	141.06	0.70	-51.2	-53.6	6.1	0.00e+00	0	43	104	26231177216	60	58517
2026-01-21 21:46:54.94	141.36	0.54	-51.2	-53.7	6.1	0.00e+00	0	43	104	26231177216	60	59419
2026-01-21 21:46:57.88	141.65	0.38	-51.2	-53.6	6.1	0.00e+00	0	43	104	26231177216	60	58883
2026-01-21 21:47:00.82	141.94	0.23	-51.1	-53.6	6.1	0.00e+00	0	43	104	26231177216	60	58638
2026-01-21 21:47:03.76	142.23	0.07	-51.1	-53.5	6.1	0.00e+00	0	43	104	26231177216	60	57981
2026-01-21 21:47:06.69	142.51	-0.08	-51.2	-53.7	6.1	0.00e+00	0	43	104	26231177216	60	59452

#Closed at: 2026-01-21 21:47:08
#Recorded file [26231 MB]: D:/lorett/data/35029_260122_093737.dat