passes_logs/2026/01/21/R4.6S_Anadyr/R4.6S_Anadyr__20260121_204024_NOAA_21_JPSS-2_rec.log

#Pass ID: 20260121_204024_NOAA 21 (JPSS-2)
#Satellite: NOAA 21 (JPSS-2)
#Configuration: NOAA-21
#almurnet v.1.7.20251203
#Start time: 2026-01-21 20:40:26

#Version: 2.2.20231116
#Station: R4.6S_Anadyr
#Location: 177.4865 lon 64.73178 lat
#TLE: 1 54234U 22150A   26020.93347024  .00000206  00000+0  11859-3 0  9994
#TLE: 2 54234  98.7506 321.7615 0000627 245.8100 114.3011 14.19536899165654

#Time	Az	El	Level	Level2	SNR	BER	BlckErr	Temp	State	Recorded	gain1	gain2
2026-01-21 20:40:26.94	74.55	0.11	-50.9	-65.8	3.5	1.51e+00	0	39	0	0	60	70811
2026-01-21 20:40:30.97	74.27	0.32	-51.1	-63.9	3.5	1.52e+00	0	40	104	0	60	55274
2026-01-21 20:40:35.01	73.98	0.52	-50.8	-63.7	3.5	1.52e+00	0	40	104	0	60	54047
2026-01-21 20:40:39.05	73.68	0.73	-50.8	-63.7	3.5	1.52e+00	0	40	104	0	60	53473
2026-01-21 20:40:43.09	73.39	0.93	-50.6	-63.6	3.5	1.52e+00	0	40	104	0	60	53289
2026-01-21 20:40:47.13	73.08	1.14	-50.3	-63.4	3.5	1.52e+00	0	40	104	0	60	51822
2026-01-21 20:40:51.17	72.78	1.34	-49.9	-62.7	3.5	1.52e+00	0	41	104	0	60	48062
2026-01-21 20:40:55.21	72.47	1.55	-49.2	-62.1	3.5	1.52e+00	0	41	104	0	60	44610
2026-01-21 20:40:59.25	72.15	1.76	-49.2	-62.0	3.5	1.52e+00	0	41	104	0	60	44295
2026-01-21 20:41:03.29	71.83	1.97	-49.2	-62.1	3.5	1.51e+00	0	41	104	0	60	44698
2026-01-21 20:41:07.33	71.51	2.18	-49.2	-61.9	3.5	1.52e+00	0	41	104	0	60	43580
2026-01-21 20:41:11.38	71.17	2.39	-49.2	-61.7	3.5	1.52e+00	0	41	104	0	60	42808
2026-01-21 20:41:15.42	70.84	2.60	-49.2	-61.9	3.5	1.51e+00	0	41	104	0	60	43629
2026-01-21 20:41:19.46	70.50	2.81	-49.2	-61.1	3.5	1.51e+00	0	41	104	0	60	39700
2026-01-21 20:41:23.50	70.15	3.02	-48.8	-58.2	4.4	1.50e+00	0	41	104	0	60	28444
2026-01-21 20:41:27.54	69.80	3.24	-48.0	-54.1	4.6	1.51e+00	0	41	104	4194304	60	17892
2026-01-21 20:41:31.58	69.45	3.45	-42.9	-45.0	16.1	0.00e+00	120	41	104	7340032	58	7039
2026-01-21 20:41:35.61	69.09	3.66	-42.5	-44.1	17.3	0.00e+00	123	41	0	18874368	58	6323
2026-01-21 20:41:39.65	68.72	3.88	-42.6	-44.2	17.3	0.00e+00	123	41	0	31457280	56	7202
2026-01-21 20:41:43.69	68.35	4.10	-40.0	-41.3	20.1	0.00e+00	123	41	0	44040192	54	5739
2026-01-21 20:41:47.73	67.97	4.31	-40.8	-42.1	19.2	0.00e+00	123	41	0	56623104	54	6313
2026-01-21 20:41:51.77	67.59	4.53	-40.5	-41.8	19.6	0.00e+00	123	41	0	69206016	54	6103
2026-01-21 20:41:55.82	67.20	4.75	-40.3	-41.5	19.9	0.00e+00	123	41	0	82837504	54	5898
2026-01-21 20:41:59.86	66.80	4.96	-40.3	-41.5	20.1	0.00e+00	123	41	0	95420416	52	6637
2026-01-21 20:42:03.90	66.40	5.18	-40.3	-41.5	20.0	0.00e+00	123	41	0	108003328	52	6622
2026-01-21 20:42:07.94	65.99	5.40	-40.3	-41.6	20.0	0.00e+00	122	41	0	120586240	52	6661
2026-01-21 20:42:11.99	65.58	5.62	-40.1	-41.3	20.2	0.00e+00	122	41	0	133169152	52	6433
2026-01-21 20:42:16.03	65.16	5.84	-39.6	-40.7	20.7	0.00e+00	120	41	0	145752064	52	6058
2026-01-21 20:42:20.07	64.73	6.06	-39.6	-40.8	20.7	0.00e+00	122	41	0	158334976	52	6094
2026-01-21 20:42:24.11	64.30	6.28	-39.8	-41.0	20.5	0.00e+00	123	41	0	170917888	52	6231
2026-01-21 20:42:28.15	63.86	6.50	-39.4	-40.6	21.0	0.00e+00	123	41	0	183500800	52	5937
2026-01-21 20:42:32.19	63.41	6.72	-39.1	-40.2	21.3	0.00e+00	123	41	0	196083712	52	5688
2026-01-21 20:42:36.24	62.95	6.94	-39.2	-40.3	21.2	0.00e+00	123	41	0	208666624	52	5764
2026-01-21 20:42:40.28	62.49	7.16	-38.8	-39.8	21.6	0.00e+00	122	41	0	221249536	50	6124
2026-01-21 20:42:44.32	62.02	7.38	-38.9	-40.0	21.6	0.00e+00	123	41	0	233832448	50	6211
2026-01-21 20:42:48.36	61.55	7.60	-39.0	-40.1	21.4	0.00e+00	123	42	0	246415360	50	6306
2026-01-21 20:42:52.40	61.06	7.82	-38.7	-39.8	21.6	0.00e+00	120	41	0	258998272	50	6075
2026-01-21 20:42:56.44	60.57	8.04	-38.7	-39.8	21.7	0.00e+00	122	41	0	271581184	50	6095
2026-01-21 20:43:00.48	60.07	8.26	-38.3	-39.4	22.1	0.00e+00	123	41	0	284164096	50	5813
2026-01-21 20:43:04.52	59.57	8.49	-38.1	-39.1	22.4	0.00e+00	123	42	0	296747008	50	5634
2026-01-21 20:43:08.56	59.05	8.71	-38.0	-39.0	22.5	0.00e+00	122	42	0	309329920	50	5590
2026-01-21 20:43:12.60	58.53	8.93	-37.7	-38.7	22.8	0.00e+00	123	41	0	321912832	48	6012
2026-01-21 20:43:16.64	58.00	9.15	-37.8	-38.8	22.7	0.00e+00	122	41	0	334495744	48	6080
2026-01-21 20:43:20.68	57.46	9.36	-37.9	-38.9	22.6	0.00e+00	123	41	0	347078656	48	6180
2026-01-21 20:43:24.72	56.91	9.58	-38.4	-39.4	22.2	0.00e+00	123	41	0	360710144	48	6549
2026-01-21 20:43:28.77	56.36	9.80	-37.9	-38.8	22.7	0.00e+00	123	42	0	373293056	48	6133
2026-01-21 20:43:32.81	55.79	10.02	-37.7	-38.7	22.9	0.00e+00	120	41	0	385875968	48	6007
2026-01-21 20:43:36.85	55.22	10.24	-37.8	-38.8	22.8	0.00e+00	123	42	0	398458880	48	6075
2026-01-21 20:43:40.89	54.64	10.45	-37.9	-38.9	22.6	0.00e+00	123	41	0	411041792	48	6177
2026-01-21 20:43:44.94	54.05	10.67	-38.4	-39.4	22.2	0.00e+00	122	41	0	423624704	48	6527
2026-01-21 20:43:48.98	53.45	10.88	-38.2	-39.2	22.4	0.00e+00	123	41	0	436207616	48	6395
2026-01-21 20:43:53.02	52.84	11.09	-38.0	-39.0	22.7	0.00e+00	123	41	0	448790528	48	6227
2026-01-21 20:43:57.06	52.23	11.30	-38.3	-39.3	22.4	0.00e+00	123	41	0	461373440	48	6470
2026-01-21 20:44:01.11	51.60	11.51	-38.2	-39.2	22.6	0.00e+00	123	41	0	473956352	48	6351
2026-01-21 20:44:05.15	50.96	11.72	-38.0	-39.0	22.7	0.00e+00	120	41	0	486539264	48	6245
2026-01-21 20:44:09.19	50.32	11.92	-38.0	-39.0	22.6	0.00e+00	123	41	0	499122176	48	6264
2026-01-21 20:44:13.22	49.67	12.13	-37.4	-38.3	23.2	0.00e+00	122	41	0	511705088	48	5783
2026-01-21 20:44:17.26	49.01	12.33	-37.5	-38.5	23.0	0.00e+00	122	41	0	524288000	48	5902
2026-01-21 20:44:21.31	48.33	12.53	-37.8	-38.8	22.8	0.00e+00	123	41	0	536870912	48	6114
2026-01-21 20:44:25.34	47.66	12.73	-37.6	-38.6	23.0	0.00e+00	123	41	0	549453824	48	5972
2026-01-21 20:44:29.39	46.96	12.92	-37.6	-38.6	23.0	0.00e+00	120	41	0	562036736	48	5939
2026-01-21 20:44:33.43	46.26	13.11	-37.5	-38.5	23.1	0.00e+00	120	41	0	574619648	48	5869
2026-01-21 20:44:37.47	45.56	13.30	-37.9	-38.9	22.7	0.00e+00	123	41	0	587202560	48	6172
2026-01-21 20:44:41.51	44.84	13.49	-37.4	-38.3	23.2	0.00e+00	123	41	0	599785472	48	5791
2026-01-21 20:44:45.55	44.11	13.67	-37.3	-38.2	23.4	0.00e+00	123	41	0	612368384	48	5720
2026-01-21 20:44:49.59	43.38	13.85	-37.5	-38.4	23.1	0.00e+00	123	41	0	624951296	48	5838
2026-01-21 20:44:53.64	42.63	14.03	-37.4	-38.4	23.2	0.00e+00	123	41	0	637534208	48	5817
2026-01-21 20:44:57.68	41.88	14.20	-37.4	-38.3	23.3	0.00e+00	122	41	0	651165696	48	5780
2026-01-21 20:45:01.72	41.12	14.37	-37.3	-38.3	23.3	0.00e+00	123	41	0	663748608	48	5748
2026-01-21 20:45:05.76	40.34	14.54	-37.2	-38.2	23.3	0.00e+00	123	41	0	676331520	48	5682
2026-01-21 20:45:09.80	39.56	14.70	-37.4	-38.3	23.3	0.00e+00	120	41	0	688914432	48	5787
2026-01-21 20:45:13.85	38.77	14.85	-37.4	-38.4	23.2	0.00e+00	120	41	0	701497344	48	5821
2026-01-21 20:45:17.89	37.98	15.01	-37.4	-38.4	23.3	0.00e+00	122	41	0	714080256	48	5798
2026-01-21 20:45:21.93	37.17	15.15	-37.3	-38.2	23.4	0.00e+00	120	41	0	726663168	48	5714
2026-01-21 20:45:25.97	36.36	15.30	-37.4	-38.3	23.4	0.00e+00	123	41	0	739246080	48	5777
2026-01-21 20:45:30.01	35.54	15.43	-37.4	-38.3	23.3	0.00e+00	123	41	0	751828992	48	5782
2026-01-21 20:45:34.05	34.71	15.57	-37.2	-38.2	23.4	0.00e+00	123	41	0	764411904	48	5679
2026-01-21 20:45:38.09	33.88	15.69	-37.3	-38.2	23.4	0.00e+00	123	41	0	776994816	48	5713
2026-01-21 20:45:42.14	33.03	15.81	-37.1	-38.1	23.5	0.00e+00	123	41	0	789577728	48	5596
2026-01-21 20:45:46.18	32.19	15.93	-37.1	-38.0	23.5	0.00e+00	123	41	0	802160640	48	5568
2026-01-21 20:45:50.22	31.33	16.04	-37.1	-38.1	23.6	0.00e+00	123	41	0	814743552	48	5601
2026-01-21 20:45:54.26	30.47	16.14	-37.1	-38.0	23.6	0.00e+00	122	41	0	827326464	48	5591
2026-01-21 20:45:58.31	29.60	16.24	-36.8	-37.7	23.9	0.00e+00	122	41	0	839909376	48	5372
2026-01-21 20:46:02.35	28.73	16.33	-36.8	-37.7	23.8	0.00e+00	123	41	0	852492288	46	6047
2026-01-21 20:46:06.39	27.85	16.41	-36.8	-37.7	23.9	0.00e+00	123	41	0	865075200	46	6023
2026-01-21 20:46:10.43	26.97	16.49	-36.9	-37.8	23.7	0.00e+00	123	41	0	877658112	46	6134
2026-01-21 20:46:14.48	26.08	16.56	-37.1	-38.0	23.7	0.00e+00	123	41	0	890241024	46	6243
2026-01-21 20:46:18.52	25.19	16.63	-37.0	-38.0	23.6	0.00e+00	122	41	0	902823936	46	6222
2026-01-21 20:46:22.56	24.29	16.68	-36.7	-37.6	23.9	0.00e+00	120	41	0	916455424	46	5992
2026-01-21 20:46:26.60	23.40	16.73	-37.0	-37.9	23.6	0.00e+00	123	41	0	927989760	46	6184
2026-01-21 20:46:30.64	22.50	16.78	-37.1	-38.0	23.4	0.00e+00	122	41	0	941621248	46	6247
2026-01-21 20:46:34.67	21.60	16.81	-37.0	-37.9	23.5	0.00e+00	120	41	0	954204160	46	6183
2026-01-21 20:46:38.71	20.69	16.84	-37.5	-38.5	23.2	0.00e+00	120	41	0	966787072	46	6578
2026-01-21 20:46:42.76	19.78	16.86	-37.4	-38.3	23.3	0.00e+00	123	41	0	979369984	46	6493
2026-01-21 20:46:46.80	18.88	16.88	-37.0	-37.9	23.7	0.00e+00	120	41	0	991952896	46	6161
2026-01-21 20:46:50.84	17.97	16.88	-36.8	-37.7	23.8	0.00e+00	123	41	0	1004535808	46	6041
2026-01-21 20:46:54.88	17.06	16.88	-36.8	-37.8	23.7	0.00e+00	123	41	0	1017118720	46	6071
2026-01-21 20:46:58.92	16.15	16.87	-36.8	-37.7	23.7	0.00e+00	123	41	0	1029701632	46	6053
2026-01-21 20:47:02.97	15.24	16.86	-36.7	-37.6	23.7	0.00e+00	122	41	0	1042284544	46	5994
2026-01-21 20:47:07.01	14.34	16.83	-36.7	-37.6	23.9	0.00e+00	123	41	0	1054867456	46	5955
2026-01-21 20:47:11.05	13.43	16.80	-36.6	-37.5	23.9	0.00e+00	123	41	0	1067450368	46	5914
2026-01-21 20:47:15.09	12.53	16.77	-36.6	-37.6	24.0	0.00e+00	122	41	0	1080033280	46	5931
2026-01-21 20:47:19.13	11.63	16.72	-36.8	-37.7	23.9	0.00e+00	121	41	0	1092616192	46	6015
2026-01-21 20:47:23.18	10.73	16.67	-37.1	-38.0	23.6	0.00e+00	123	41	0	1105199104	46	6260
2026-01-21 20:47:27.21	9.84	16.61	-37.3	-38.3	23.3	0.00e+00	123	41	0	1117782016	46	6458
2026-01-21 20:47:31.26	8.95	16.55	-37.0	-38.0	23.6	0.00e+00	123	41	0	1130364928	46	6227
2026-01-21 20:47:35.29	8.07	16.47	-37.0	-37.9	23.6	0.00e+00	123	41	0	1142947840	46	6200
2026-01-21 20:47:39.33	7.19	16.40	-37.2	-38.2	23.3	0.00e+00	120	41	0	1155530752	46	6397
2026-01-21 20:47:43.38	6.31	16.31	-37.2	-38.1	23.4	0.00e+00	123	41	0	1168113664	46	6340
2026-01-21 20:47:47.42	5.44	16.22	-36.9	-37.8	23.8	0.00e+00	120	41	0	1180696576	46	6080
2026-01-21 20:47:51.46	4.57	16.12	-36.8	-37.7	23.9	0.00e+00	123	41	0	1193279488	46	6036
2026-01-21 20:47:55.50	3.71	16.01	-36.8	-37.8	23.8	0.00e+00	120	41	0	1206910976	46	6078
2026-01-21 20:47:59.55	2.86	15.90	-36.8	-37.7	23.9	0.00e+00	123	41	0	1218445312	46	6028
2026-01-21 20:48:03.59	2.01	15.79	-36.9	-37.8	23.8	0.00e+00	123	41	0	1232076800	46	6095
2026-01-21 20:48:07.63	1.17	15.66	-36.9	-37.8	23.8	0.00e+00	123	41	0	1244659712	46	6107
2026-01-21 20:48:11.67	0.34	15.54	-37.0	-37.9	23.6	0.00e+00	122	41	0	1257242624	46	6173
2026-01-21 20:48:15.72	359.51	15.40	-37.0	-38.0	23.7	0.00e+00	123	41	0	1269825536	46	6221
2026-01-21 20:48:19.76	358.70	15.26	-37.0	-37.9	23.7	0.00e+00	123	41	0	1282408448	46	6205
2026-01-21 20:48:23.80	357.89	15.12	-37.0	-37.9	23.7	0.00e+00	122	41	0	1294991360	46	6168
2026-01-21 20:48:27.84	357.09	14.97	-37.0	-37.9	23.6	0.00e+00	121	41	0	1307574272	46	6182
2026-01-21 20:48:31.88	356.29	14.82	-37.0	-37.9	23.6	0.00e+00	123	41	0	1320157184	46	6150
2026-01-21 20:48:35.92	355.51	14.66	-37.0	-37.9	23.7	0.00e+00	123	41	0	1332740096	46	6173
2026-01-21 20:48:39.96	354.73	14.50	-37.1	-38.0	23.5	0.00e+00	122	41	0	1345323008	46	6270
2026-01-21 20:48:44.00	353.96	14.33	-37.1	-38.1	23.4	0.00e+00	123	41	0	1357905920	46	6286
2026-01-21 20:48:48.04	353.20	14.16	-37.5	-38.5	23.2	0.00e+00	122	41	0	1370488832	46	6575
2026-01-21 20:48:52.09	352.45	13.99	-37.3	-38.2	23.4	0.00e+00	122	41	0	1383071744	46	6402
2026-01-21 20:48:56.13	351.71	13.81	-37.3	-38.2	23.4	0.00e+00	123	41	0	1395654656	46	6383
2026-01-21 20:49:00.17	350.98	13.63	-37.3	-38.2	23.3	0.00e+00	123	41	0	1408237568	46	6409
2026-01-21 20:49:04.21	350.25	13.45	-37.4	-38.3	23.2	0.00e+00	123	41	0	1420820480	46	6481
2026-01-21 20:49:08.25	349.54	13.26	-37.4	-38.3	23.2	0.00e+00	123	41	0	1433403392	46	6486
2026-01-21 20:49:12.29	348.83	13.07	-37.6	-38.6	23.1	0.00e+00	122	41	0	1445986304	48	5961
2026-01-21 20:49:16.33	348.14	12.88	-38.2	-39.2	22.5	0.00e+00	123	41	0	1458569216	48	6388
2026-01-21 20:49:20.37	347.45	12.68	-37.8	-38.8	22.8	0.00e+00	120	41	0	1471152128	48	6090
2026-01-21 20:49:24.41	346.78	12.49	-37.5	-38.5	23.1	0.00e+00	123	41	0	1484783616	48	5866
2026-01-21 20:49:28.45	346.11	12.29	-37.6	-38.6	23.1	0.00e+00	123	41	0	1497366528	48	5930
2026-01-21 20:49:32.50	345.45	12.08	-37.4	-38.4	23.1	0.00e+00	120	41	0	1508900864	48	5814
2026-01-21 20:49:36.54	344.80	11.88	-37.9	-38.9	22.6	0.00e+00	120	41	0	1522532352	48	6152
2026-01-21 20:49:40.58	344.16	11.67	-38.2	-39.3	22.4	0.00e+00	122	41	0	1535115264	48	6434
2026-01-21 20:49:44.62	343.53	11.47	-38.2	-39.2	22.3	0.00e+00	123	41	0	1547698176	48	6413
2026-01-21 20:49:48.66	342.90	11.26	-38.4	-39.4	22.2	0.00e+00	122	41	0	1560281088	48	6573
2026-01-21 20:49:52.71	342.29	11.05	-38.3	-39.3	22.4	0.00e+00	120	41	0	1572864000	48	6496
2026-01-21 20:49:56.75	341.68	10.83	-38.2	-39.2	22.5	0.00e+00	120	41	0	1585446912	48	6368
2026-01-21 20:50:00.79	341.09	10.62	-38.5	-39.6	22.3	0.00e+00	120	41	0	1598029824	48	6658
2026-01-21 20:50:04.83	340.50	10.41	-38.6	-39.7	22.0	0.00e+00	122	41	0	1610612736	50	6024
2026-01-21 20:50:08.87	339.92	10.19	-38.2	-39.2	22.3	0.00e+00	123	41	0	1623195648	50	5714
2026-01-21 20:50:12.91	339.36	9.98	-38.2	-39.2	22.4	0.00e+00	120	41	0	1635778560	50	5689
2026-01-21 20:50:16.95	338.79	9.76	-38.2	-39.2	22.5	0.00e+00	122	41	0	1648361472	50	5713
2026-01-21 20:50:20.99	338.24	9.54	-38.5	-39.5	22.2	0.00e+00	123	41	0	1660944384	50	5896
2026-01-21 20:50:25.03	337.70	9.32	-38.3	-39.3	22.4	0.00e+00	122	41	0	1673527296	50	5780
2026-01-21 20:50:29.07	337.16	9.10	-38.5	-39.6	22.2	0.00e+00	123	41	0	1686110208	50	5933
2026-01-21 20:50:33.11	336.64	8.88	-38.5	-39.5	22.1	0.00e+00	123	41	0	1698693120	50	5900
2026-01-21 20:50:37.16	336.12	8.66	-38.7	-39.7	22.0	0.00e+00	123	41	0	1711276032	50	6029
2026-01-21 20:50:41.20	335.60	8.44	-38.5	-39.5	22.1	0.00e+00	122	41	0	1723858944	50	5896
2026-01-21 20:50:45.24	335.10	8.22	-38.8	-39.9	21.9	0.00e+00	122	41	0	1736441856	50	6138
2026-01-21 20:50:49.28	334.61	8.00	-38.8	-39.8	21.8	0.00e+00	121	41	0	1749024768	50	6123
2026-01-21 20:50:53.32	334.12	7.78	-39.2	-40.3	21.4	0.00e+00	122	41	0	1761607680	50	6438
2026-01-21 20:50:57.36	333.64	7.56	-38.9	-40.0	21.7	0.00e+00	122	41	0	1775239168	50	6210
2026-01-21 20:51:01.41	333.16	7.34	-38.9	-39.9	21.8	0.00e+00	122	42	0	1787822080	50	6187
2026-01-21 20:51:05.45	332.70	7.12	-39.1	-40.2	21.5	0.00e+00	120	41	0	1800404992	50	6381
2026-01-21 20:51:09.49	332.24	6.90	-39.3	-40.4	21.3	0.00e+00	120	41	0	1812987904	52	5798
2026-01-21 20:51:13.53	331.79	6.68	-38.9	-40.0	21.6	0.00e+00	122	41	0	1825570816	52	5538
2026-01-21 20:51:17.57	331.34	6.46	-38.9	-39.9	21.6	0.00e+00	121	42	0	1838153728	50	6203
2026-01-21 20:51:21.61	330.90	6.24	-38.3	-39.3	22.0	0.00e+00	123	42	0	1850736640	50	5767
2026-01-21 20:51:25.65	330.47	6.02	-38.9	-40.0	21.5	0.00e+00	123	41	0	1863319552	50	6217
2026-01-21 20:51:29.69	330.05	5.80	-39.6	-40.7	20.9	0.00e+00	124	41	0	1875902464	52	6033
2026-01-21 20:51:33.73	329.63	5.58	-39.3	-40.4	21.2	0.00e+00	123	41	0	1888485376	52	5794
2026-01-21 20:51:37.77	329.22	5.36	-38.9	-40.0	21.4	0.00e+00	123	41	0	1901068288	52	5570
2026-01-21 20:51:41.82	328.81	5.14	-39.6	-40.8	20.9	0.00e+00	120	41	0	1913651200	52	6067
2026-01-21 20:51:45.86	328.42	4.92	-39.6	-40.8	20.8	0.00e+00	123	41	0	1926234112	52	6070
2026-01-21 20:51:49.90	328.02	4.71	-40.0	-41.2	20.4	0.00e+00	120	41	0	1938817024	54	5677
2026-01-21 20:51:53.94	327.64	4.49	-41.1	-42.4	19.2	0.00e+00	123	42	0	1951399936	54	6518
2026-01-21 20:51:57.99	327.26	4.27	-40.1	-41.3	20.1	0.00e+00	120	42	0	1963982848	54	5757
2026-01-21 20:52:02.03	326.88	4.06	-39.6	-40.8	20.7	0.00e+00	122	42	0	1976565760	52	6090
2026-01-21 20:52:06.07	326.51	3.84	-40.9	-42.2	19.2	0.00e+00	122	41	0	1989148672	54	6419
2026-01-21 20:52:10.11	326.15	3.63	-40.6	-41.8	19.7	0.00e+00	122	42	0	2001731584	54	6120
2026-01-21 20:52:14.15	325.79	3.41	-41.1	-42.4	18.6	0.00e+00	122	42	0	2014314496	54	6570
2026-01-21 20:52:18.19	325.44	3.20	-41.2	-42.6	18.7	0.00e+00	123	42	0	2026897408	54	6665
2026-01-21 20:52:22.23	325.09	2.99	-41.2	-42.5	18.6	0.00e+00	122	42	0	2039480320	54	6628
2026-01-21 20:52:26.27	324.75	2.78	-50.5	-63.4	3.5	1.52e+00	0	41	104	2040528896	60	51831
2026-01-21 20:52:30.31	324.41	2.57	-50.9	-63.7	3.5	1.51e+00	0	42	104	2040528896	60	53903
2026-01-21 20:52:34.35	324.08	2.35	-51.0	-63.9	3.5	1.52e+00	0	42	104	2040528896	60	54817
2026-01-21 20:52:38.38	323.75	2.15	-50.8	-63.7	3.5	1.52e+00	0	42	104	2040528896	60	53738
2026-01-21 20:52:42.43	323.43	1.94	-50.7	-63.7	3.5	1.52e+00	0	42	104	2040528896	60	53529
2026-01-21 20:52:46.47	323.11	1.73	-50.6	-63.7	3.5	1.52e+00	0	42	104	2040528896	60	53660
2026-01-21 20:52:50.50	322.80	1.52	-50.9	-63.8	3.6	1.52e+00	0	42	104	2040528896	60	54153
2026-01-21 20:52:54.54	322.49	1.31	-50.8	-63.7	3.5	1.51e+00	0	42	104	2040528896	60	53708
2026-01-21 20:52:58.58	322.18	1.11	-50.9	-63.7	3.5	1.52e+00	0	42	104	2040528896	60	53915
2026-01-21 20:53:02.63	321.88	0.90	-50.9	-63.8	3.5	1.52e+00	0	42	104	2040528896	60	54233
2026-01-21 20:53:06.67	321.59	0.69	-50.9	-63.8	3.5	1.52e+00	0	42	104	2040528896	60	54406
2026-01-21 20:53:10.71	321.30	0.49	-51.0	-63.9	3.5	1.52e+00	0	42	104	2040528896	60	54812
2026-01-21 20:53:14.75	321.01	0.29	-50.9	-63.8	3.5	1.52e+00	0	42	104	2040528896	60	54508
2026-01-21 20:53:18.79	320.73	0.08	-50.9	-63.7	3.5	1.52e+00	0	42	104	2040528896	60	53739
2026-01-21 20:53:22.83	320.45	-0.12	-50.9	-63.8	3.5	1.52e+00	0	42	104	2040528896	60	54094

#Closed at: 2026-01-21 20:53:23
#Recorded file [2040 MB]: D:/lorett/data/35029_260122_084026.dat