passes_logs/2026/01/21/R4.6S_Anadyr/R4.6S_Anadyr__20260121_154247_NOAA_21_JPSS-2_rec.log

#Pass ID: 20260121_154247_NOAA 21 (JPSS-2)
#Satellite: NOAA 21 (JPSS-2)
#Configuration: NOAA-21
#almurnet v.1.7.20251203
#Start time: 2026-01-21 15:42:48

#Version: 2.2.20231116
#Station: R4.6S_Anadyr
#Location: 177.4865 lon 64.73178 lat
#TLE: 1 54234U 22150A   26020.93347024  .00000206  00000+0  11859-3 0  9994
#TLE: 2 54234  98.7506 321.7615 0000627 245.8100 114.3011 14.19536899165654

#Time	Az	El	Level	Level2	SNR	BER	BlckErr	Temp	State	Recorded	gain1	gain2
2026-01-21 15:42:48.43	23.17	0.04	-51.5	-66.4	3.5	1.51e+00	0	38	0	0	60	75348
2026-01-21 15:42:52.46	23.08	0.28	-52.4	-65.2	3.5	1.52e+00	0	40	104	0	60	64053
2026-01-21 15:42:56.50	22.99	0.52	-51.9	-64.8	3.5	1.52e+00	0	40	104	0	60	60960
2026-01-21 15:43:00.54	22.89	0.76	-51.5	-64.4	3.5	1.52e+00	0	40	104	0	60	58035
2026-01-21 15:43:04.58	22.80	1.01	-51.2	-64.0	3.5	1.51e+00	0	40	104	0	60	55714
2026-01-21 15:43:08.62	22.70	1.25	-50.6	-63.5	3.5	1.52e+00	0	40	104	0	60	52406
2026-01-21 15:43:12.67	22.60	1.50	-49.9	-62.8	3.5	1.51e+00	0	40	104	0	60	48182
2026-01-21 15:43:16.70	22.50	1.75	-49.8	-62.6	3.5	1.52e+00	0	40	104	0	60	47140
2026-01-21 15:43:20.75	22.39	2.00	-49.8	-62.5	3.5	1.51e+00	0	40	104	0	60	46779
2026-01-21 15:43:24.79	22.28	2.26	-49.8	-62.7	3.5	1.52e+00	0	41	104	0	60	47842
2026-01-21 15:43:28.83	22.18	2.51	-49.8	-62.4	3.5	1.52e+00	0	40	104	0	60	46462
2026-01-21 15:43:32.86	22.07	2.77	-49.7	-61.7	3.5	1.51e+00	0	41	104	0	60	42515
2026-01-21 15:43:36.90	21.95	3.03	-49.8	-62.2	3.5	1.52e+00	0	41	104	0	60	44981
2026-01-21 15:43:40.94	21.84	3.29	-49.5	-59.7	3.8	1.51e+00	0	41	104	0	60	34060
2026-01-21 15:43:44.98	21.72	3.56	-49.1	-56.8	5.6	9.32e-01	123	41	104	0	60	24334
2026-01-21 15:43:49.02	21.60	3.83	-49.6	-61.3	3.6	1.51e+00	0	41	104	0	60	40844
2026-01-21 15:43:53.06	21.48	4.10	-42.6	-44.1	17.9	0.00e+00	120	41	0	6291456	56	7049
2026-01-21 15:43:57.10	21.35	4.37	-40.8	-42.0	20.0	0.00e+00	120	41	0	18874368	54	6251
2026-01-21 15:44:01.14	21.23	4.65	-40.3	-41.4	20.5	0.00e+00	123	41	0	31457280	54	5849
2026-01-21 15:44:05.18	21.10	4.92	-40.4	-41.6	20.4	0.00e+00	123	41	0	44040192	54	5938
2026-01-21 15:44:09.22	20.96	5.21	-40.4	-41.5	20.5	0.00e+00	122	41	0	56623104	54	5925
2026-01-21 15:44:13.25	20.83	5.49	-40.4	-41.6	20.4	0.00e+00	122	41	0	69206016	54	5993
2026-01-21 15:44:17.30	20.69	5.78	-40.2	-41.3	20.7	0.00e+00	123	41	0	82837504	54	5761
2026-01-21 15:44:21.34	20.54	6.07	-40.4	-41.6	20.5	0.00e+00	123	41	0	94371840	54	5933
2026-01-21 15:44:25.38	20.40	6.36	-40.1	-41.2	20.9	0.00e+00	122	41	0	108003328	54	5692
2026-01-21 15:44:29.42	20.25	6.65	-40.3	-41.4	20.7	0.00e+00	122	41	0	120586240	52	6548
2026-01-21 15:44:33.46	20.10	6.95	-40.0	-41.1	21.1	0.00e+00	122	41	0	133169152	54	5616
2026-01-21 15:44:37.51	19.94	7.26	-39.8	-40.9	21.3	0.00e+00	121	41	0	145752064	54	5515
2026-01-21 15:44:41.55	19.78	7.56	-39.6	-40.7	21.6	0.00e+00	123	41	0	158334976	52	6024
2026-01-21 15:44:45.59	19.62	7.87	-39.1	-40.1	22.0	0.00e+00	123	41	0	170917888	52	5630
2026-01-21 15:44:49.63	19.45	8.18	-39.0	-40.0	22.1	0.00e+00	122	41	0	183500800	52	5584
2026-01-21 15:44:53.67	19.28	8.50	-38.9	-39.9	22.2	0.00e+00	120	41	0	196083712	50	6175
2026-01-21 15:44:57.71	19.10	8.82	-39.0	-40.0	22.2	0.00e+00	123	41	0	208666624	50	6257
2026-01-21 15:45:01.75	18.93	9.14	-38.8	-39.8	22.4	0.00e+00	122	41	0	221249536	50	6068
2026-01-21 15:45:05.79	18.74	9.47	-38.6	-39.6	22.5	0.00e+00	123	41	0	233832448	50	5983
2026-01-21 15:45:09.83	18.55	9.80	-38.3	-39.3	22.7	0.00e+00	123	41	0	246415360	50	5770
2026-01-21 15:45:13.87	18.36	10.14	-38.3	-39.3	22.7	0.00e+00	123	41	0	258998272	50	5750
2026-01-21 15:45:17.91	18.16	10.48	-38.2	-39.2	22.8	0.00e+00	123	41	0	271581184	50	5690
2026-01-21 15:45:21.95	17.96	10.83	-38.4	-39.4	22.8	0.00e+00	123	41	0	284164096	50	5801
2026-01-21 15:45:25.99	17.75	11.18	-38.3	-39.3	22.9	0.00e+00	122	41	0	296747008	50	5760
2026-01-21 15:45:30.03	17.54	11.53	-38.2	-39.2	23.0	0.00e+00	122	41	0	309329920	50	5697
2026-01-21 15:45:34.07	17.32	11.89	-38.1	-39.1	23.1	0.00e+00	122	41	0	321912832	50	5638
2026-01-21 15:45:38.11	17.09	12.25	-37.9	-38.9	23.2	0.00e+00	120	41	0	334495744	50	5485
2026-01-21 15:45:42.16	16.86	12.62	-37.8	-38.7	23.3	0.00e+00	122	41	0	347078656	48	6058
2026-01-21 15:45:46.20	16.62	12.99	-37.6	-38.5	23.5	0.00e+00	123	41	0	360710144	48	5916
2026-01-21 15:45:50.24	16.38	13.37	-37.5	-38.4	23.7	0.00e+00	122	41	0	373293056	48	5835
2026-01-21 15:45:54.29	16.12	13.76	-37.4	-38.3	23.7	0.00e+00	122	41	0	385875968	48	5784
2026-01-21 15:45:58.33	15.87	14.15	-37.4	-38.3	23.7	0.00e+00	123	42	0	398458880	48	5744
2026-01-21 15:46:02.36	15.60	14.54	-37.5	-38.4	23.6	0.00e+00	123	41	0	411041792	48	5853
2026-01-21 15:46:06.40	15.33	14.95	-37.4	-38.3	23.7	0.00e+00	123	42	0	423624704	48	5776
2026-01-21 15:46:10.45	15.05	15.35	-37.6	-38.6	23.5	0.00e+00	120	42	0	436207616	48	5949
2026-01-21 15:46:14.49	14.76	15.77	-37.6	-38.6	23.6	0.00e+00	122	42	0	448790528	48	5963
2026-01-21 15:46:18.53	14.46	16.19	-37.8	-38.8	23.5	0.00e+00	123	42	0	461373440	48	6073
2026-01-21 15:46:22.57	14.15	16.61	-37.8	-38.8	23.6	0.00e+00	123	41	0	473956352	48	6080
2026-01-21 15:46:26.62	13.83	17.05	-37.9	-38.9	23.4	0.00e+00	123	41	0	486539264	48	6157
2026-01-21 15:46:30.66	13.51	17.49	-38.0	-39.0	23.3	0.00e+00	123	41	0	499122176	48	6237
2026-01-21 15:46:34.70	13.17	17.93	-38.2	-39.1	23.2	0.00e+00	123	41	0	511705088	48	6332
2026-01-21 15:46:38.74	12.83	18.39	-38.2	-39.1	23.3	0.00e+00	123	42	0	524288000	48	6330
2026-01-21 15:46:42.78	12.47	18.85	-38.2	-39.2	23.2	0.00e+00	120	41	0	536870912	48	6374
2026-01-21 15:46:46.82	12.10	19.32	-38.1	-39.0	23.4	0.00e+00	122	42	0	549453824	48	6238
2026-01-21 15:46:50.86	11.72	19.80	-37.7	-38.6	23.6	0.00e+00	122	41	0	562036736	48	5958
2026-01-21 15:46:54.90	11.32	20.28	-37.6	-38.5	23.7	0.00e+00	123	42	0	574619648	48	5882
2026-01-21 15:46:58.94	10.91	20.77	-37.2	-38.1	24.1	0.00e+00	122	41	0	587202560	48	5616
2026-01-21 15:47:02.98	10.49	21.27	-36.9	-37.8	24.3	0.00e+00	122	42	0	599785472	48	5442
2026-01-21 15:47:07.03	10.06	21.78	-36.7	-37.6	24.6	0.00e+00	120	42	0	612368384	46	5948
2026-01-21 15:47:11.06	9.61	22.30	-36.4	-37.3	24.6	0.00e+00	122	42	0	624951296	46	5766
2026-01-21 15:47:15.10	9.14	22.83	-36.5	-37.4	24.7	0.00e+00	123	42	0	637534208	46	5801
2026-01-21 15:47:19.14	8.66	23.36	-36.9	-37.8	24.3	0.00e+00	120	42	0	651165696	46	6121
2026-01-21 15:47:23.18	8.16	23.90	-36.6	-37.5	24.6	0.00e+00	121	42	0	662700032	46	5861
2026-01-21 15:47:27.22	7.64	24.46	-36.5	-37.4	24.7	0.00e+00	120	42	0	676331520	46	5820
2026-01-21 15:47:31.26	7.10	25.02	-36.8	-37.8	24.4	0.00e+00	123	42	0	688914432	46	6065
2026-01-21 15:47:35.31	6.54	25.59	-37.0	-38.0	24.2	0.00e+00	123	42	0	701497344	46	6217
2026-01-21 15:47:39.34	5.96	26.17	-37.3	-38.2	24.0	0.00e+00	123	42	0	714080256	46	6411
2026-01-21 15:47:43.38	5.36	26.76	-37.5	-38.4	23.9	0.00e+00	122	42	0	726663168	46	6560
2026-01-21 15:47:47.42	4.73	27.36	-37.7	-38.7	23.5	0.00e+00	122	42	0	739246080	48	6010
2026-01-21 15:47:51.46	4.08	27.97	-37.9	-38.8	23.6	0.00e+00	122	42	0	751828992	48	6121
2026-01-21 15:47:55.51	3.41	28.59	-37.5	-38.5	23.9	0.00e+00	123	42	0	764411904	48	5867
2026-01-21 15:47:59.55	2.70	29.21	-37.6	-38.6	23.7	0.00e+00	123	42	0	776994816	48	5929
2026-01-21 15:48:03.59	1.97	29.85	-37.9	-38.9	23.6	0.00e+00	120	42	0	789577728	48	6153
2026-01-21 15:48:07.63	1.21	30.50	-37.6	-38.6	23.9	0.00e+00	123	42	0	802160640	48	5927
2026-01-21 15:48:11.68	0.41	31.15	-37.8	-38.8	23.5	0.00e+00	123	42	0	814743552	48	6079
2026-01-21 15:48:15.72	359.58	31.81	-37.7	-38.7	23.7	0.00e+00	122	42	0	827326464	48	6005
2026-01-21 15:48:19.76	358.72	32.48	-37.6	-38.5	23.9	0.00e+00	122	42	0	839909376	48	5878
2026-01-21 15:48:23.80	357.82	33.16	-37.4	-38.3	24.0	0.00e+00	123	42	0	852492288	48	5779
2026-01-21 15:48:27.84	356.88	33.84	-37.8	-38.8	23.7	0.00e+00	123	42	0	865075200	48	6068
2026-01-21 15:48:31.88	355.90	34.53	-38.2	-39.2	23.3	0.00e+00	123	42	0	877658112	48	6383
2026-01-21 15:48:35.93	354.88	35.23	-38.9	-39.9	22.8	0.00e+00	123	42	0	890241024	50	6176
2026-01-21 15:48:39.97	353.81	35.93	-39.4	-40.5	22.3	0.00e+00	123	42	0	902823936	50	6595
2026-01-21 15:48:44.01	352.69	36.63	-39.8	-40.8	22.1	0.00e+00	123	42	0	915406848	52	6114
2026-01-21 15:48:48.05	351.53	37.34	-39.8	-40.9	22.0	0.00e+00	122	42	0	927989760	52	6142
2026-01-21 15:48:52.09	350.31	38.04	-39.1	-40.1	22.7	0.00e+00	122	42	0	941621248	52	5613
2026-01-21 15:48:56.14	349.03	38.75	-38.9	-39.9	22.6	0.00e+00	120	42	0	953155584	52	5510
2026-01-21 15:49:00.18	347.70	39.45	-39.0	-40.0	22.7	0.00e+00	123	42	0	966787072	52	5566
2026-01-21 15:49:04.22	346.31	40.15	-39.4	-40.5	22.5	0.00e+00	122	42	0	979369984	52	5871
2026-01-21 15:49:08.26	344.86	40.84	-39.6	-40.7	22.3	0.00e+00	122	42	0	991952896	52	6001
2026-01-21 15:49:12.30	343.35	41.53	-40.0	-41.0	21.9	0.00e+00	123	42	0	1004535808	52	6276
2026-01-21 15:49:16.34	341.77	42.20	-40.4	-41.5	21.6	0.00e+00	122	42	0	1017118720	52	6610
2026-01-21 15:49:20.38	340.12	42.86	-40.8	-42.0	21.1	0.00e+00	123	42	0	1029701632	54	6221
2026-01-21 15:49:24.42	338.41	43.50	-40.8	-41.9	21.2	0.00e+00	123	42	0	1042284544	54	6189
2026-01-21 15:49:28.47	336.62	44.12	-40.4	-41.6	21.5	0.00e+00	123	42	0	1054867456	54	5942
2026-01-21 15:49:32.51	334.76	44.72	-39.4	-40.5	22.4	0.00e+00	123	42	0	1067450368	52	5868
2026-01-21 15:49:36.55	332.84	45.30	-40.0	-41.1	21.9	0.00e+00	120	42	0	1080033280	52	6298
2026-01-21 15:49:40.59	330.84	45.84	-40.5	-41.7	21.3	0.00e+00	123	42	0	1092616192	54	5995
2026-01-21 15:49:44.63	328.78	46.35	-40.7	-41.9	21.1	0.00e+00	123	42	0	1105199104	54	6157
2026-01-21 15:49:48.67	326.65	46.83	-40.4	-41.5	21.4	0.00e+00	122	42	0	1117782016	54	5874
2026-01-21 15:49:52.72	324.45	47.26	-39.9	-40.9	22.1	0.00e+00	123	42	0	1130364928	54	5524
2026-01-21 15:49:56.76	322.19	47.65	-39.9	-41.0	22.1	0.00e+00	122	42	0	1142947840	52	6236
2026-01-21 15:50:00.80	319.88	48.00	-41.2	-42.4	20.8	0.00e+00	122	42	0	1155530752	54	6551
2026-01-21 15:50:04.84	317.53	48.29	-40.2	-41.3	21.7	0.00e+00	123	42	0	1168113664	54	5771
2026-01-21 15:50:08.88	315.13	48.54	-39.5	-40.5	22.5	0.00e+00	120	42	0	1180696576	52	5914
2026-01-21 15:50:12.92	312.70	48.73	-39.9	-41.0	22.0	0.00e+00	123	42	0	1193279488	52	6256
2026-01-21 15:50:16.96	310.24	48.86	-40.1	-41.2	21.8	0.00e+00	120	42	0	1205862400	52	6359
2026-01-21 15:50:21.00	307.76	48.94	-40.1	-41.2	21.9	0.00e+00	123	42	0	1218445312	52	6385
2026-01-21 15:50:25.05	305.27	48.96	-39.8	-40.8	22.1	0.00e+00	124	42	0	1232076800	52	6131
2026-01-21 15:50:29.08	302.80	48.92	-39.8	-40.8	22.1	0.00e+00	123	42	0	1243611136	52	6100
2026-01-21 15:50:33.12	300.32	48.82	-39.3	-40.3	22.6	0.00e+00	123	42	0	1257242624	52	5775
2026-01-21 15:50:37.17	297.87	48.67	-40.2	-41.3	21.7	0.00e+00	122	42	0	1269825536	52	6468
2026-01-21 15:50:41.21	295.44	48.46	-40.1	-41.1	22.0	0.00e+00	123	42	0	1282408448	52	6337
2026-01-21 15:50:45.25	293.06	48.20	-40.3	-41.4	21.7	0.00e+00	121	42	0	1294991360	52	6534
2026-01-21 15:50:49.29	290.71	47.89	-39.2	-40.1	22.8	0.00e+00	123	42	0	1307574272	52	5651
2026-01-21 15:50:53.33	288.42	47.52	-41.2	-42.4	20.6	0.00e+00	123	42	0	1320157184	54	6523
2026-01-21 15:50:57.36	286.19	47.12	-40.2	-41.3	21.8	0.00e+00	122	42	0	1332740096	54	5754
2026-01-21 15:51:01.41	284.01	46.67	-40.8	-42.0	21.2	0.00e+00	122	42	0	1345323008	54	6215
2026-01-21 15:51:05.45	281.90	46.18	-38.4	-39.3	23.5	0.00e+00	122	42	0	1357905920	50	5790
2026-01-21 15:51:09.49	279.85	45.65	-41.2	-42.3	21.0	0.00e+00	122	42	0	1370488832	54	6470
2026-01-21 15:51:13.53	277.88	45.10	-38.8	-39.8	23.1	0.00e+00	120	42	0	1383071744	52	5406
2026-01-21 15:51:17.57	275.97	44.51	-39.0	-41.4	18.9	1.38e-02	122	42	0	1395654656	50	7362
2026-01-21 15:51:21.61	274.14	43.90	-39.0	-40.0	22.8	0.00e+00	122	42	0	1408237568	50	6247
2026-01-21 15:51:25.65	272.37	43.27	-40.6	-41.8	20.8	0.00e+00	122	42	0	1420820480	54	6118
2026-01-21 15:51:29.69	270.68	42.62	-39.7	-40.7	22.0	0.00e+00	123	42	0	1433403392	52	6038
2026-01-21 15:51:33.72	269.05	41.96	-40.1	-41.2	21.4	0.00e+00	123	42	0	1445986304	54	5707
2026-01-21 15:51:37.76	267.49	41.28	-38.4	-39.3	23.0	0.00e+00	123	42	0	1458569216	50	5776
2026-01-21 15:51:41.80	266.00	40.59	-42.6	-44.0	19.4	0.00e+00	122	42	0	1471152128	56	6979
2026-01-21 15:51:45.84	264.56	39.89	-40.2	-41.3	22.1	0.00e+00	120	42	0	1483735040	52	6457
2026-01-21 15:51:49.88	263.19	39.19	-40.7	-41.8	21.3	0.00e+00	123	42	0	1496317952	52	6830
2026-01-21 15:51:53.93	261.87	38.48	-39.1	-40.1	22.7	0.00e+00	123	42	0	1508900864	52	5615
2026-01-21 15:51:57.97	260.62	37.78	-39.7	-40.8	22.1	0.00e+00	123	42	0	1521483776	52	6079
2026-01-21 15:52:02.01	259.41	37.07	-40.3	-41.4	21.1	0.00e+00	121	42	0	1534066688	54	5831
2026-01-21 15:52:06.05	258.26	36.36	-39.0	-39.9	22.9	0.00e+00	123	42	0	1547698176	52	5519
2026-01-21 15:52:10.09	257.16	35.66	-38.8	-39.8	23.0	0.00e+00	120	42	0	1560281088	50	6087
2026-01-21 15:52:14.13	256.10	34.96	-38.1	-39.0	23.6	0.00e+00	122	42	0	1572864000	50	5561
2026-01-21 15:52:18.17	255.09	34.26	-38.2	-39.2	23.5	0.00e+00	120	42	0	1585446912	48	6356
2026-01-21 15:52:22.21	254.12	33.57	-39.2	-40.2	22.7	0.00e+00	123	42	0	1598029824	50	6391
2026-01-21 15:52:26.24	253.19	32.89	-38.0	-38.9	23.6	0.00e+00	122	42	0	1610612736	50	5510
2026-01-21 15:52:30.29	252.30	32.21	-37.6	-38.5	23.7	0.00e+00	121	42	0	1623195648	48	5893
2026-01-21 15:52:34.32	251.45	31.54	-37.5	-38.4	24.1	0.00e+00	120	42	0	1635778560	48	5839
2026-01-21 15:52:38.36	250.63	30.88	-37.2	-38.1	24.3	0.00e+00	123	42	0	1648361472	48	5652
2026-01-21 15:52:42.40	249.85	30.23	-37.3	-38.2	24.0	0.00e+00	120	42	0	1660944384	48	5703
2026-01-21 15:52:46.43	249.09	29.58	-37.5	-38.4	23.9	0.00e+00	123	42	0	1673527296	48	5848
2026-01-21 15:52:50.47	248.37	28.95	-37.5	-38.5	24.0	0.00e+00	121	42	0	1686110208	48	5865
2026-01-21 15:52:54.50	247.67	28.32	-37.9	-38.8	23.7	0.00e+00	123	42	0	1698693120	48	6134
2026-01-21 15:52:58.54	247.00	27.71	-37.8	-38.8	23.6	0.00e+00	123	42	0	1711276032	48	6085
2026-01-21 15:53:02.57	246.36	27.10	-37.2	-38.1	24.2	0.00e+00	123	42	0	1723858944	48	5630
2026-01-21 15:53:06.61	245.74	26.50	-37.3	-38.3	24.0	0.00e+00	122	42	0	1736441856	48	5757
2026-01-21 15:53:10.65	245.14	25.91	-37.8	-38.8	23.8	0.00e+00	122	42	0	1749024768	48	6066
2026-01-21 15:53:14.69	244.57	25.33	-37.2	-38.1	24.3	0.00e+00	122	42	0	1761607680	48	5644
2026-01-21 15:53:18.73	244.01	24.76	-37.0	-37.9	24.4	0.00e+00	122	42	0	1774190592	48	5485
2026-01-21 15:53:22.77	243.48	24.20	-37.1	-38.0	24.3	0.00e+00	123	42	0	1786773504	48	5567
2026-01-21 15:53:26.81	242.96	23.65	-37.1	-38.0	24.4	0.00e+00	123	42	0	1799356416	48	5557
2026-01-21 15:53:30.84	242.47	23.11	-37.4	-38.3	24.0	0.00e+00	122	42	0	1811939328	48	5777
2026-01-21 15:53:34.88	241.99	22.57	-37.2	-38.1	24.2	0.00e+00	123	42	0	1824522240	48	5641
2026-01-21 15:53:38.92	241.52	22.05	-37.0	-37.9	24.3	0.00e+00	123	42	0	1837105152	48	5505
2026-01-21 15:53:42.96	241.07	21.53	-37.2	-38.1	24.2	0.00e+00	122	41	0	1849688064	48	5608
2026-01-21 15:53:46.99	240.64	21.03	-37.2	-38.1	24.4	0.00e+00	122	42	0	1862270976	48	5611
2026-01-21 15:53:51.03	240.22	20.53	-37.3	-38.2	24.1	0.00e+00	123	42	0	1874853888	48	5698
2026-01-21 15:53:55.07	239.82	20.04	-37.5	-38.4	23.9	0.00e+00	124	42	0	1887436800	48	5843
2026-01-21 15:53:59.11	239.42	19.55	-37.3	-38.2	23.8	0.00e+00	123	41	0	1900019712	48	5714
2026-01-21 15:54:03.15	239.04	19.08	-37.1	-38.0	24.1	0.00e+00	122	41	0	1913651200	48	5575
2026-01-21 15:54:07.19	238.68	18.61	-37.2	-38.2	24.0	0.00e+00	123	42	0	1925185536	48	5667
2026-01-21 15:54:11.23	238.32	18.15	-37.4	-38.4	24.0	0.00e+00	122	41	0	1938817024	48	5798
2026-01-21 15:54:15.27	237.97	17.69	-37.8	-38.8	23.6	0.00e+00	122	42	0	1951399936	48	6085
2026-01-21 15:54:19.32	237.64	17.25	-38.1	-39.0	23.4	0.00e+00	123	42	0	1963982848	48	6249
2026-01-21 15:54:23.36	237.31	16.81	-38.2	-39.2	23.3	0.00e+00	122	41	0	1976565760	48	6386
2026-01-21 15:54:27.40	237.00	16.38	-38.4	-39.3	23.2	0.00e+00	122	41	0	1989148672	48	6485
2026-01-21 15:54:31.44	236.69	15.95	-38.2	-39.2	23.3	0.00e+00	123	41	0	2001731584	48	6369
2026-01-21 15:54:35.48	236.39	15.53	-38.2	-39.2	23.4	0.00e+00	123	42	0	2014314496	48	6367
2026-01-21 15:54:39.52	236.10	15.12	-38.3	-39.2	23.3	0.00e+00	120	42	0	2026897408	48	6383
2026-01-21 15:54:43.56	235.82	14.71	-38.5	-39.5	23.1	0.00e+00	122	41	0	2039480320	48	6581
2026-01-21 15:54:47.60	235.55	14.31	-38.6	-39.6	22.8	0.00e+00	123	41	0	2052063232	50	5939
2026-01-21 15:54:51.64	235.28	13.92	-39.0	-40.0	22.6	0.00e+00	123	42	0	2064646144	50	6224
2026-01-21 15:54:55.68	235.02	13.53	-39.3	-40.4	22.1	0.00e+00	122	42	0	2077229056	50	6504
2026-01-21 15:54:59.72	234.77	13.14	-39.7	-40.8	21.7	0.00e+00	123	42	0	2089811968	50	6805
2026-01-21 15:55:03.75	234.53	12.77	-40.3	-41.4	21.2	0.00e+00	120	42	0	2102394880	52	6530
2026-01-21 15:55:07.80	234.29	12.39	-40.7	-41.9	20.7	0.00e+00	123	42	0	2114977792	54	6177
2026-01-21 15:55:11.83	234.06	12.03	-41.1	-42.4	20.2	0.00e+00	123	42	0	2127560704	54	6500
2026-01-21 15:55:15.87	233.83	11.66	-41.3	-42.6	20.0	0.00e+00	123	42	0	2140143616	54	6686
2026-01-21 15:55:19.91	233.61	11.30	-41.6	-43.0	19.5	0.00e+00	123	42	0	2152726528	54	6963
2026-01-21 15:55:23.94	233.40	10.95	-41.9	-43.3	19.3	0.00e+00	122	42	0	2165309440	56	6450
2026-01-21 15:55:27.99	233.19	10.60	-42.3	-43.6	19.0	0.00e+00	120	42	0	2177892352	56	6701
2026-01-21 15:55:32.02	232.98	10.26	-42.8	-44.2	18.3	0.00e+00	122	42	0	2190475264	58	6392
2026-01-21 15:55:36.06	232.78	9.92	-42.9	-44.4	18.1	0.00e+00	122	42	0	2203058176	58	6525
2026-01-21 15:55:40.10	232.59	9.58	-43.2	-44.8	17.9	0.00e+00	120	42	0	2215641088	58	6806
2026-01-21 15:55:44.13	232.40	9.25	-43.7	-45.4	17.3	0.00e+00	122	42	0	2228224000	58	7300
2026-01-21 15:55:48.17	232.21	8.93	-44.1	-45.9	16.8	0.00e+00	122	42	0	2240806912	60	6896
2026-01-21 15:55:52.21	232.03	8.60	-44.6	-46.4	16.3	0.00e+00	122	42	0	2254438400	60	7342
2026-01-21 15:55:56.24	231.86	8.28	-44.8	-46.8	15.9	0.00e+00	122	42	0	2267021312	60	7669
2026-01-21 15:56:00.28	231.68	7.97	-45.5	-47.7	15.1	7.00e-07	122	42	0	2279604224	60	8524
2026-01-21 15:56:04.32	231.51	7.65	-45.8	-48.2	14.4	7.00e-07	123	42	0	2292187136	60	8993
2026-01-21 15:56:08.36	231.35	7.35	-45.9	-48.4	14.0	3.00e-06	123	42	0	2304770048	60	9225
2026-01-21 15:56:12.40	231.19	7.04	-46.5	-49.2	13.1	2.74e-05	123	42	0	2317352960	60	10158
2026-01-21 15:56:16.44	231.03	6.74	-46.8	-49.8	12.4	1.40e-04	123	42	0	2329935872	60	10852
2026-01-21 15:56:20.47	230.88	6.44	-46.9	-50.1	11.9	2.83e-04	123	42	0	2342518784	60	11191
2026-01-21 15:56:24.51	230.72	6.15	-47.3	-50.9	10.9	1.66e-03	123	42	0	2355101696	60	12257
2026-01-21 15:56:28.55	230.58	5.85	-47.3	-51.0	10.5	2.92e-03	120	42	0	2367684608	60	12494
2026-01-21 15:56:32.59	230.43	5.56	-47.2	-50.8	10.6	2.78e-03	123	42	0	2380267520	60	12234
2026-01-21 15:56:36.63	230.29	5.28	-47.6	-51.7	9.8	1.11e-02	123	42	0	2392850432	60	13490
2026-01-21 15:56:40.66	230.15	4.99	-47.7	-52.0	9.1	2.11e-02	120	42	0	2405433344	60	14050
2026-01-21 15:56:44.71	230.02	4.71	-47.6	-52.1	8.7	2.40e-02	123	42	0	2418016256	60	14147
2026-01-21 15:56:48.74	229.88	4.44	-47.9	-52.7	8.1	4.33e-02	121	42	0	2430599168	60	15185
2026-01-21 15:56:52.78	229.75	4.16	-48.0	-53.0	7.7	5.48e-02	123	42	0	2443182080	60	15750
2026-01-21 15:56:56.82	229.63	3.89	-48.0	-53.6	6.8	1.56e-01	123	42	0	2455764992	60	16814
2026-01-21 15:57:00.85	229.50	3.62	-48.0	-53.8	6.6	1.75e-01	120	42	0	2468347904	60	17152
2026-01-21 15:57:04.90	229.38	3.35	-47.9	-53.9	6.1	2.91e-01	123	42	0	2480930816	60	17341
2026-01-21 15:57:08.92	229.26	3.09	-47.9	-54.1	5.9	3.47e-01	123	42	0	2486173696	60	17832
2026-01-21 15:57:12.96	229.14	2.82	-50.8	-63.7	3.5	1.52e+00	0	42	104	2488270848	60	53662
2026-01-21 15:57:17.00	229.03	2.56	-51.5	-64.4	3.5	1.52e+00	0	42	104	2488270848	60	58186
2026-01-21 15:57:21.04	228.91	2.31	-51.5	-64.4	3.5	1.52e+00	0	42	104	2488270848	60	57940
2026-01-21 15:57:25.08	228.80	2.05	-51.5	-64.4	3.5	1.52e+00	0	42	104	2488270848	60	58170
2026-01-21 15:57:29.12	228.69	1.80	-51.5	-64.4	3.5	1.51e+00	0	42	104	2488270848	60	58286
2026-01-21 15:57:33.16	228.58	1.54	-51.4	-64.3	3.5	1.52e+00	0	42	104	2488270848	60	57771
2026-01-21 15:57:37.20	228.48	1.29	-51.4	-64.4	3.5	1.52e+00	0	42	104	2488270848	60	58075
2026-01-21 15:57:41.24	228.38	1.05	-51.4	-64.3	3.5	1.51e+00	0	42	104	2488270848	60	57793
2026-01-21 15:57:45.28	228.28	0.80	-51.5	-64.5	3.5	1.52e+00	0	42	104	2488270848	60	58687
2026-01-21 15:57:49.32	228.18	0.56	-51.5	-64.4	3.5	1.52e+00	0	42	104	2488270848	60	57994
2026-01-21 15:57:53.36	228.08	0.32	-51.5	-64.4	3.5	1.52e+00	0	42	104	2488270848	60	58295
2026-01-21 15:57:57.40	227.98	0.08	-51.5	-64.4	3.5	1.52e+00	0	42	104	2488270848	60	58362

#Closed at: 2026-01-21 15:58:00
#Recorded file [2488 MB]: D:/lorett/data/35029_260122_034248.dat