passes_logs/2026/01/21/R4.6S_Anadyr/R4.6S_Anadyr__20260121_131218_NOAA_20_JPSS-1_rec.log

#Pass ID: 20260121_131218_NOAA 20 (JPSS-1)
#Satellite: NOAA 20 (JPSS-1)
#Configuration: NOAA 20
#almurnet v.1.7.20251203
#Start time: 2026-01-21 13:12:20

#Version: 2.2.20231116
#Station: R4.6S_Anadyr
#Location: 177.4865 lon 64.73178 lat
#TLE: 1 43013U 17073A   26020.82785136  .00000155  00000+0  94366-4 0  9991
#TLE: 2 43013  98.7643 321.7058 0001260  30.3785 329.7464 14.19537992423566

#Time	Az	El	Level	Level2	SNR	BER	BlckErr	Temp	State	Recorded	gain1	gain2
2026-01-21 13:12:20.43	18.82	0.12	-51.8	-66.8	3.5	1.51e+00	0	39	0	0	60	78786
2026-01-21 13:12:24.47	19.03	0.34	-52.6	-67.8	3.6	1.51e+00	0	40	104	0	60	88574
2026-01-21 13:12:28.51	19.23	0.57	-51.6	-66.8	3.6	1.51e+00	0	40	104	0	60	78942
2026-01-21 13:12:32.55	19.44	0.79	-51.6	-66.8	3.6	1.51e+00	0	40	104	0	60	79465
2026-01-21 13:12:36.59	19.65	1.02	-51.0	-66.2	3.6	1.51e+00	0	40	104	0	60	74110
2026-01-21 13:12:40.63	19.86	1.25	-50.4	-65.7	3.6	1.51e+00	0	41	104	0	60	69444
2026-01-21 13:12:44.68	20.08	1.48	-49.7	-64.9	3.6	1.51e+00	0	41	104	0	60	63450
2026-01-21 13:12:48.72	20.30	1.71	-49.6	-64.8	3.6	1.51e+00	0	41	104	0	60	62622
2026-01-21 13:12:52.76	20.52	1.95	-49.5	-64.7	3.6	1.51e+00	0	41	104	0	60	62364
2026-01-21 13:12:56.80	20.75	2.18	-49.5	-64.6	3.6	1.51e+00	0	41	104	0	60	61343
2026-01-21 13:13:00.84	20.97	2.42	-49.5	-64.0	3.6	1.51e+00	0	41	104	0	60	57432
2026-01-21 13:13:04.88	21.21	2.66	-49.2	-59.8	4.7	1.45e+00	0	41	104	0	60	35289
2026-01-21 13:13:08.92	21.44	2.90	-45.8	-48.5	15.5	4.78e-04	0	41	0	7340032	60	9564
2026-01-21 13:13:12.96	21.68	3.14	-46.2	-49.2	14.3	0.00e+00	0	41	0	14680064	60	10422
2026-01-21 13:13:17.01	21.93	3.38	-48.8	-56.1	6.5	3.79e-02	0	41	0	22020096	60	22962
2026-01-21 13:13:21.05	22.17	3.63	-49.7	-64.9	3.6	1.46e+00	0	41	104	27262976	60	63361
2026-01-21 13:13:25.09	22.42	3.88	-48.6	-54.7	8.7	5.15e-02	0	41	0	28311552	60	19648
2026-01-21 13:13:29.13	22.68	4.13	-47.6	-51.6	12.1	1.30e-04	0	41	0	35651584	60	13744
2026-01-21 13:13:33.17	22.94	4.38	-46.5	-49.5	14.6	1.50e-06	0	41	0	42991616	60	10778
2026-01-21 13:13:37.21	23.20	4.63	-45.3	-47.5	17.1	0.00e+00	0	41	0	50331648	60	8598
2026-01-21 13:13:41.25	23.47	4.89	-44.8	-46.8	17.4	0.00e+00	0	41	0	58720256	60	7953
2026-01-21 13:13:45.29	23.74	5.14	-44.4	-46.3	18.1	0.00e+00	0	41	0	66060288	60	7434
2026-01-21 13:13:49.33	24.02	5.40	-43.8	-45.4	19.0	0.00e+00	0	41	0	73400320	60	6764
2026-01-21 13:13:53.37	24.30	5.66	-43.6	-45.2	19.2	0.00e+00	0	41	0	80740352	60	6579
2026-01-21 13:13:57.41	24.58	5.93	-42.6	-44.0	20.3	0.00e+00	0	41	0	88080384	58	6403
2026-01-21 13:14:01.45	24.87	6.19	-43.5	-45.0	19.2	0.00e+00	0	41	0	96468992	58	7212
2026-01-21 13:14:05.49	25.17	6.46	-43.3	-44.8	19.6	0.00e+00	0	41	0	103809024	60	6278
2026-01-21 13:14:09.53	25.47	6.73	-43.1	-44.5	20.0	0.00e+00	0	41	0	111149056	58	6772
2026-01-21 13:14:13.57	25.77	7.00	-42.3	-43.5	20.7	0.00e+00	0	41	0	118489088	58	6095
2026-01-21 13:14:17.60	26.08	7.28	-43.2	-44.6	19.6	0.00e+00	0	41	0	126877696	58	6897
2026-01-21 13:14:21.64	26.40	7.55	-42.7	-44.0	20.5	0.00e+00	0	41	0	134217728	58	6444
2026-01-21 13:14:25.68	26.72	7.83	-42.4	-43.6	20.8	0.00e+00	0	41	0	141557760	58	6168
2026-01-21 13:14:29.71	27.05	8.11	-42.2	-43.4	21.0	0.00e+00	0	41	0	148897792	58	6029
2026-01-21 13:14:33.75	27.38	8.40	-42.3	-43.6	21.0	0.00e+00	0	41	0	156237824	58	6108
2026-01-21 13:14:37.79	27.72	8.68	-42.1	-43.3	21.4	0.00e+00	0	41	0	164626432	58	5921
2026-01-21 13:14:41.83	28.07	8.97	-42.1	-43.3	21.3	0.00e+00	0	41	0	171966464	58	5926
2026-01-21 13:14:45.87	28.42	9.26	-42.3	-43.5	20.8	0.00e+00	0	41	0	179306496	58	6099
2026-01-21 13:14:49.90	28.78	9.55	-41.9	-43.0	21.6	0.00e+00	0	41	0	186646528	58	5731
2026-01-21 13:14:53.94	29.15	9.85	-42.0	-43.2	21.4	0.00e+00	0	41	0	193986560	58	5835
2026-01-21 13:14:57.98	29.52	10.15	-42.0	-43.1	21.5	0.00e+00	0	41	0	202375168	58	5806
2026-01-21 13:15:02.02	29.91	10.45	-41.6	-42.7	21.9	0.00e+00	0	41	0	209715200	56	6208
2026-01-21 13:15:06.06	30.30	10.75	-41.7	-42.8	21.7	0.00e+00	0	41	0	217055232	56	6283
2026-01-21 13:15:10.10	30.69	11.06	-41.7	-42.8	21.9	0.00e+00	0	41	0	224395264	56	6254
2026-01-21 13:15:14.13	31.10	11.37	-41.3	-42.4	22.3	0.00e+00	0	41	0	232783872	56	5979
2026-01-21 13:15:18.17	31.51	11.68	-41.4	-42.4	22.2	0.00e+00	0	41	0	240123904	56	6019
2026-01-21 13:15:22.21	31.93	12.00	-41.4	-42.5	22.3	0.00e+00	0	41	0	247463936	56	6048
2026-01-21 13:15:26.25	32.36	12.31	-41.7	-42.8	22.0	0.00e+00	0	42	0	254803968	56	6303
2026-01-21 13:15:30.28	32.80	12.63	-41.7	-42.8	21.9	0.00e+00	0	41	0	262144000	56	6284
2026-01-21 13:15:34.32	33.25	12.96	-41.8	-42.9	21.7	0.00e+00	0	41	0	270532608	56	6342
2026-01-21 13:15:38.36	33.71	13.28	-41.9	-43.0	21.8	0.00e+00	0	41	0	277872640	56	6437
2026-01-21 13:15:42.40	34.17	13.61	-42.2	-43.3	21.3	0.00e+00	0	41	0	285212672	56	6684
2026-01-21 13:15:46.44	34.65	13.94	-41.7	-42.8	22.0	0.00e+00	0	41	0	292552704	56	6304
2026-01-21 13:15:50.48	35.14	14.28	-42.0	-43.1	21.8	0.00e+00	0	41	0	300941312	56	6518
2026-01-21 13:15:54.52	35.64	14.61	-41.7	-42.7	22.0	0.00e+00	0	42	0	308281344	56	6224
2026-01-21 13:15:58.56	36.15	14.95	-41.8	-42.9	21.9	0.00e+00	0	42	0	315621376	56	6320
2026-01-21 13:16:02.60	36.67	15.29	-41.7	-42.8	22.0	0.00e+00	0	41	0	322961408	56	6279
2026-01-21 13:16:06.64	37.20	15.64	-41.5	-42.6	22.2	0.00e+00	0	41	0	330301440	56	6135
2026-01-21 13:16:10.68	37.75	15.99	-41.6	-42.6	22.2	0.00e+00	0	42	0	338690048	56	6145
2026-01-21 13:16:14.72	38.31	16.34	-41.6	-42.6	22.3	0.00e+00	0	41	0	346030080	56	6142
2026-01-21 13:16:18.76	38.88	16.69	-41.7	-42.8	22.0	0.00e+00	0	42	0	353370112	56	6278
2026-01-21 13:16:22.80	39.46	17.04	-41.4	-42.5	22.4	0.00e+00	0	42	0	360710144	56	6052
2026-01-21 13:16:26.84	40.06	17.40	-41.3	-42.3	22.5	0.00e+00	0	42	0	369098752	56	5936
2026-01-21 13:16:30.88	40.67	17.76	-41.5	-42.5	22.4	0.00e+00	0	42	0	376438784	56	6077
2026-01-21 13:16:34.92	41.29	18.12	-40.9	-41.9	22.4	0.00e+00	0	41	0	383778816	56	5653
2026-01-21 13:16:38.95	41.93	18.49	-40.5	-41.5	23.3	0.00e+00	0	42	0	391118848	54	6035
2026-01-21 13:16:42.99	42.58	18.85	-40.2	-41.1	23.6	0.00e+00	0	42	0	398458880	54	5806
2026-01-21 13:16:47.03	43.25	19.22	-40.1	-41.0	23.6	0.00e+00	0	42	0	406847488	54	5724
2026-01-21 13:16:51.07	43.94	19.59	-40.3	-41.3	23.4	0.00e+00	0	42	0	414187520	54	5920
2026-01-21 13:16:55.11	44.64	19.96	-40.1	-41.1	23.7	0.00e+00	0	42	0	421527552	54	5763
2026-01-21 13:16:59.14	45.36	20.33	-39.9	-40.8	23.9	0.00e+00	0	42	0	428867584	54	5612
2026-01-21 13:17:03.18	46.10	20.70	-40.0	-40.8	23.8	0.00e+00	0	42	0	437256192	54	5628
2026-01-21 13:17:07.22	46.85	21.08	-39.9	-40.8	23.9	0.00e+00	0	42	0	444596224	54	5613
2026-01-21 13:17:11.25	47.62	21.45	-39.5	-40.3	24.4	0.00e+00	0	42	0	451936256	52	5939
2026-01-21 13:17:15.29	48.41	21.83	-39.6	-40.4	24.2	0.00e+00	0	42	0	459276288	52	6031
2026-01-21 13:17:19.33	49.22	22.20	-39.8	-40.7	24.1	0.00e+00	0	42	0	466616320	52	6225
2026-01-21 13:17:23.37	50.05	22.57	-39.4	-40.3	24.4	0.00e+00	0	42	0	475004928	52	5902
2026-01-21 13:17:27.41	50.89	22.95	-39.9	-40.8	23.9	0.00e+00	0	42	0	482344960	52	6276
2026-01-21 13:17:31.45	51.76	23.32	-39.9	-40.8	24.0	0.00e+00	0	42	0	489684992	52	6280
2026-01-21 13:17:35.48	52.65	23.69	-39.9	-40.8	23.9	0.00e+00	0	42	0	497025024	52	6296
2026-01-21 13:17:39.52	53.56	24.06	-40.1	-41.0	23.8	0.00e+00	0	42	0	505413632	52	6396
2026-01-21 13:17:43.56	54.49	24.43	-40.4	-41.3	23.5	0.00e+00	0	42	0	512753664	52	6660
2026-01-21 13:17:47.60	55.44	24.79	-41.0	-41.9	22.9	0.00e+00	0	42	0	520093696	54	6385
2026-01-21 13:17:51.64	56.41	25.15	-41.0	-41.9	23.0	0.00e+00	0	42	0	527433728	54	6367
2026-01-21 13:17:55.68	57.41	25.51	-41.0	-42.0	22.8	0.00e+00	0	42	0	534773760	54	6435
2026-01-21 13:17:59.72	58.43	25.87	-41.0	-42.0	22.9	0.00e+00	0	42	0	543162368	54	6394
2026-01-21 13:18:03.76	59.47	26.21	-41.8	-42.8	22.2	0.00e+00	0	42	0	550502400	56	6291
2026-01-21 13:18:07.80	60.53	26.56	-42.4	-43.5	21.5	0.00e+00	0	42	0	557842432	56	6812
2026-01-21 13:18:11.84	61.62	26.89	-42.3	-43.5	21.6	0.00e+00	0	42	0	565182464	56	6785
2026-01-21 13:18:15.88	62.72	27.22	-42.7	-43.8	21.2	0.00e+00	0	42	0	573571072	58	6314
2026-01-21 13:18:19.92	63.85	27.54	-42.9	-44.2	20.9	0.00e+00	0	42	0	580911104	58	6566
2026-01-21 13:18:23.95	65.00	27.86	-42.8	-44.0	21.1	0.00e+00	0	42	0	588251136	58	6450
2026-01-21 13:18:27.99	66.18	28.16	-42.3	-43.5	21.5	0.00e+00	0	42	0	595591168	58	6061
2026-01-21 13:18:32.03	67.37	28.46	-42.6	-43.8	21.3	0.00e+00	0	42	0	602931200	58	6264
2026-01-21 13:18:36.07	68.59	28.74	-42.3	-43.4	21.7	0.00e+00	0	42	0	611319808	58	5990
2026-01-21 13:18:40.10	69.83	29.02	-42.7	-43.9	21.3	0.00e+00	0	42	0	618659840	58	6354
2026-01-21 13:18:44.14	71.09	29.28	-43.6	-45.0	20.2	0.00e+00	0	42	0	625999872	58	7189
2026-01-21 13:18:48.18	72.37	29.53	-44.4	-45.9	19.4	0.00e+00	0	42	0	633339904	60	7120
2026-01-21 13:18:52.21	73.66	29.76	-44.7	-46.3	19.0	0.00e+00	0	42	0	641728512	60	7429
2026-01-21 13:18:56.25	74.98	29.98	-44.9	-46.6	18.7	0.00e+00	0	42	0	649068544	60	7700
2026-01-21 13:19:00.29	76.32	30.19	-44.4	-46.0	19.2	0.00e+00	0	42	0	656408576	60	7200
2026-01-21 13:19:04.33	77.67	30.38	-45.0	-46.5	19.0	0.00e+00	0	42	0	663748608	60	7638
2026-01-21 13:19:08.37	79.03	30.55	-44.3	-45.7	19.7	0.00e+00	0	42	0	671088640	60	6983
2026-01-21 13:19:12.41	80.41	30.71	-43.2	-44.5	20.9	0.00e+00	0	41	0	679477248	60	6058
2026-01-21 13:19:16.45	81.81	30.85	-43.6	-45.0	20.3	0.00e+00	0	42	0	686817280	60	6399
2026-01-21 13:19:20.49	83.21	30.98	-43.2	-44.4	20.9	0.00e+00	0	42	0	694157312	60	6028
2026-01-21 13:19:24.53	84.62	31.08	-44.0	-45.4	19.9	0.00e+00	0	42	0	701497344	60	6758
2026-01-21 13:19:28.57	86.05	31.17	-44.0	-45.4	20.0	0.00e+00	0	41	0	709885952	60	6759
2026-01-21 13:19:32.60	87.47	31.24	-43.5	-44.9	20.5	0.00e+00	0	41	0	717225984	60	6319
2026-01-21 13:19:36.64	88.91	31.28	-42.8	-44.0	21.5	0.00e+00	0	41	0	724566016	60	5696
2026-01-21 13:19:40.68	90.35	31.31	-42.0	-43.1	22.0	0.00e+00	0	41	0	731906048	58	5786
2026-01-21 13:19:44.72	91.79	31.32	-42.5	-43.7	21.4	0.00e+00	0	42	0	739246080	58	6191
2026-01-21 13:19:48.76	93.23	31.31	-43.5	-44.9	20.3	0.00e+00	0	41	0	747634688	58	7116
2026-01-21 13:19:52.80	94.66	31.28	-43.2	-44.5	20.7	0.00e+00	0	41	0	754974720	58	6778
2026-01-21 13:19:56.83	96.10	31.23	-43.5	-44.9	20.4	0.00e+00	0	41	0	762314752	58	7111
2026-01-21 13:20:00.87	97.53	31.16	-43.1	-44.4	20.7	0.00e+00	0	41	0	769654784	58	6737
2026-01-21 13:20:04.91	98.95	31.08	-44.4	-46.0	19.3	0.00e+00	0	41	0	778043392	60	7177
2026-01-21 13:20:08.95	100.36	30.97	-44.6	-46.2	19.2	0.00e+00	0	41	0	785383424	60	7387
2026-01-21 13:20:12.99	101.77	30.85	-43.7	-45.2	20.1	0.00e+00	0	41	0	792723456	60	6550
2026-01-21 13:20:17.03	103.16	30.70	-44.8	-46.4	19.0	0.00e+00	0	41	0	800063488	60	7545
2026-01-21 13:20:21.06	104.54	30.54	-43.9	-45.2	20.4	0.00e+00	0	41	0	807403520	60	6601
2026-01-21 13:20:25.11	105.91	30.37	-42.8	-44.0	21.4	0.00e+00	0	41	0	815792128	60	5734
2026-01-21 13:20:29.15	107.27	30.17	-42.6	-43.8	21.4	0.00e+00	0	41	0	823132160	58	6266
2026-01-21 13:20:33.19	108.60	29.97	-43.3	-44.6	20.7	0.00e+00	0	41	0	830472192	58	6878
2026-01-21 13:20:37.23	109.92	29.74	-42.6	-43.7	21.4	0.00e+00	0	41	0	837812224	58	6205
2026-01-21 13:20:41.27	111.22	29.51	-42.5	-43.7	21.5	0.00e+00	0	41	0	846200832	58	6199
2026-01-21 13:20:45.31	112.50	29.26	-43.2	-44.4	20.7	0.00e+00	0	41	0	853540864	58	6764
2026-01-21 13:20:49.35	113.76	28.99	-43.8	-45.2	20.1	0.00e+00	0	41	0	860880896	60	6607
2026-01-21 13:20:53.39	115.00	28.72	-43.0	-44.2	21.0	0.00e+00	0	41	0	868220928	60	5879
2026-01-21 13:20:57.42	116.22	28.43	-43.5	-44.8	20.2	0.00e+00	0	41	0	875560960	60	6306
2026-01-21 13:21:01.46	117.42	28.13	-44.1	-45.6	19.7	0.00e+00	0	41	0	883949568	60	6899
2026-01-21 13:21:05.50	118.60	27.83	-43.8	-45.2	20.0	0.00e+00	0	41	0	891289600	60	6580
2026-01-21 13:21:09.54	119.75	27.51	-43.0	-44.2	21.0	0.00e+00	0	41	0	898629632	60	5874
2026-01-21 13:21:13.58	120.88	27.19	-41.9	-42.9	22.1	0.00e+00	0	41	0	905969664	58	5689
2026-01-21 13:21:17.62	121.99	26.85	-42.1	-43.2	21.7	0.00e+00	0	41	0	914358272	56	6580
2026-01-21 13:21:21.67	123.08	26.51	-42.7	-43.9	21.1	0.00e+00	0	41	0	921698304	58	6379
2026-01-21 13:21:25.71	124.15	26.17	-42.1	-43.2	21.8	0.00e+00	0	41	0	929038336	58	5882
2026-01-21 13:21:29.74	125.19	25.82	-41.5	-42.5	22.2	0.00e+00	0	41	0	936378368	56	6088
2026-01-21 13:21:33.77	126.20	25.47	-41.3	-42.4	22.6	0.00e+00	0	41	0	943718400	56	5991
2026-01-21 13:21:37.82	127.20	25.10	-42.9	-44.2	20.8	0.00e+00	0	41	0	952107008	58	6584
2026-01-21 13:21:41.86	128.18	24.74	-42.9	-44.2	21.0	0.00e+00	0	41	0	959447040	60	5881
2026-01-21 13:21:45.90	129.13	24.37	-42.9	-44.2	20.7	0.00e+00	0	41	0	966787072	58	6563
2026-01-21 13:21:49.94	130.06	24.00	-40.8	-41.8	23.1	0.00e+00	0	41	0	974127104	56	5577
2026-01-21 13:21:53.97	130.97	23.63	-41.6	-42.7	22.3	0.00e+00	0	41	0	982515712	54	6955
2026-01-21 13:21:58.01	131.86	23.26	-40.9	-41.9	22.9	0.00e+00	0	41	0	989855744	56	5679
2026-01-21 13:22:02.05	132.73	22.88	-41.9	-43.0	21.8	0.00e+00	0	41	0	997195776	56	6445
2026-01-21 13:22:06.09	133.58	22.51	-41.6	-42.6	22.4	0.00e+00	0	41	0	1004535808	56	6142
2026-01-21 13:22:10.13	134.41	22.13	-41.0	-42.0	22.9	0.00e+00	0	41	0	1011875840	56	5728
2026-01-21 13:22:14.17	135.22	21.75	-41.0	-42.0	22.9	0.00e+00	0	41	0	1020264448	56	5741
2026-01-21 13:22:18.21	136.01	21.37	-40.8	-41.8	23.0	0.00e+00	0	41	0	1027604480	54	6248
2026-01-21 13:22:22.25	136.78	21.00	-40.8	-41.8	22.8	0.00e+00	0	41	0	1034944512	54	6304
2026-01-21 13:22:26.29	137.53	20.62	-40.2	-41.1	23.1	0.00e+00	0	41	0	1042284544	54	5808
2026-01-21 13:22:30.33	138.27	20.25	-40.1	-41.0	23.0	0.00e+00	0	41	0	1050673152	54	5731
2026-01-21 13:22:34.36	138.99	19.87	-39.9	-40.8	23.8	0.00e+00	0	41	0	1058013184	52	6295
2026-01-21 13:22:38.40	139.69	19.50	-39.9	-40.8	23.8	0.00e+00	0	41	0	1065353216	52	6295
2026-01-21 13:22:42.43	140.37	19.13	-40.0	-40.9	23.7	0.00e+00	0	41	0	1072693248	52	6372
2026-01-21 13:22:46.47	141.04	18.76	-39.7	-40.6	23.9	0.00e+00	0	41	0	1080033280	52	6153
2026-01-21 13:22:50.51	141.70	18.39	-39.8	-40.7	23.8	0.00e+00	0	41	0	1088421888	52	6187
2026-01-21 13:22:54.55	142.34	18.02	-40.4	-41.3	23.2	0.00e+00	0	41	0	1095761920	52	6690
2026-01-21 13:22:58.59	142.96	17.66	-40.5	-41.4	23.1	0.00e+00	0	41	0	1103101952	54	6023
2026-01-21 13:23:02.62	143.57	17.30	-40.5	-41.5	23.1	0.00e+00	0	41	0	1110441984	54	6060
2026-01-21 13:23:06.67	144.17	16.94	-40.8	-41.8	22.7	0.00e+00	0	41	0	1118830592	54	6268
2026-01-21 13:23:10.71	144.75	16.58	-40.7	-41.7	22.8	0.00e+00	0	41	0	1126170624	54	6199
2026-01-21 13:23:14.75	145.32	16.23	-41.2	-42.3	22.4	0.00e+00	0	41	0	1133510656	54	6632
2026-01-21 13:23:18.78	145.88	15.88	-41.6	-42.7	21.8	0.00e+00	0	41	0	1140850688	54	7006
2026-01-21 13:23:22.82	146.42	15.53	-41.7	-42.8	21.8	0.00e+00	0	41	0	1148190720	56	6308
2026-01-21 13:23:26.86	146.95	15.18	-42.1	-43.2	21.5	0.00e+00	0	41	0	1156579328	56	6587
2026-01-21 13:23:30.90	147.47	14.83	-41.4	-42.5	22.1	0.00e+00	0	41	0	1163919360	56	6071
2026-01-21 13:23:34.94	147.98	14.49	-41.2	-42.2	22.4	0.00e+00	0	41	0	1171259392	56	5895
2026-01-21 13:23:38.98	148.48	14.15	-41.6	-42.7	21.9	0.00e+00	0	41	0	1178599424	56	6187
2026-01-21 13:23:43.02	148.97	13.82	-42.1	-43.2	21.4	0.00e+00	0	41	0	1186988032	56	6612
2026-01-21 13:23:47.06	149.45	13.49	-41.7	-42.8	21.8	0.00e+00	0	41	0	1194328064	56	6272
2026-01-21 13:23:51.10	149.91	13.15	-41.7	-42.8	21.8	0.00e+00	0	41	0	1201668096	56	6264
2026-01-21 13:23:55.14	150.37	12.83	-41.6	-42.7	21.8	0.00e+00	0	41	0	1209008128	56	6238
2026-01-21 13:23:59.18	150.82	12.50	-41.9	-43.1	21.5	0.00e+00	0	41	0	1216348160	56	6498
2026-01-21 13:24:03.22	151.25	12.18	-41.7	-42.8	21.7	0.00e+00	0	41	0	1224736768	56	6278
2026-01-21 13:24:07.25	151.68	11.86	-41.1	-42.2	22.3	0.00e+00	0	41	0	1232076800	56	5846
2026-01-21 13:24:11.29	152.10	11.54	-41.1	-42.1	22.3	0.00e+00	0	41	0	1239416832	56	5805
2026-01-21 13:24:15.33	152.51	11.23	-41.7	-42.8	21.5	0.00e+00	0	41	0	1246756864	56	6293
2026-01-21 13:24:19.37	152.91	10.92	-42.2	-43.5	20.8	0.00e+00	0	41	0	1255145472	56	6772
2026-01-21 13:24:23.40	153.31	10.61	-42.8	-44.2	19.9	0.00e+00	0	41	0	1262485504	56	7371
2026-01-21 13:24:27.44	153.70	10.31	-43.4	-45.1	18.6	0.00e+00	0	41	0	1269825536	58	7256
2026-01-21 13:24:31.48	154.08	10.00	-44.2	-46.2	17.4	0.00e+00	0	41	0	1277165568	60	7392
2026-01-21 13:24:35.52	154.45	9.70	-45.1	-47.7	15.6	0.00e+00	0	41	0	1284505600	60	8724
2026-01-21 13:24:39.56	154.81	9.41	-45.6	-48.7	14.3	0.00e+00	0	41	0	1292894208	60	9887
2026-01-21 13:24:43.59	155.17	9.11	-45.6	-48.7	14.6	0.00e+00	0	41	0	1300234240	60	9797
2026-01-21 13:24:47.64	155.52	8.82	-45.0	-47.3	16.3	0.00e+00	0	41	0	1307574272	60	8410
2026-01-21 13:24:51.67	155.86	8.53	-44.2	-46.1	17.7	0.00e+00	0	41	0	1314914304	60	7274
2026-01-21 13:24:55.71	156.20	8.24	-43.6	-45.2	18.8	0.00e+00	0	41	0	1323302912	60	6609
2026-01-21 13:24:59.75	156.53	7.96	-43.1	-44.6	19.4	0.00e+00	0	41	0	1330642944	60	6164
2026-01-21 13:25:03.79	156.86	7.67	-43.0	-44.4	19.8	0.00e+00	0	42	0	1337982976	60	6004
2026-01-21 13:25:07.84	157.18	7.39	-42.8	-44.2	20.0	0.00e+00	0	41	0	1345323008	60	5875
2026-01-21 13:25:11.88	157.49	7.11	-42.7	-44.0	20.3	0.00e+00	0	41	0	1352663040	58	6460
2026-01-21 13:25:15.91	157.80	6.84	-42.9	-44.3	20.0	0.00e+00	0	41	0	1361051648	58	6631
2026-01-21 13:25:19.95	158.11	6.56	-42.8	-44.2	20.0	0.00e+00	0	41	0	1368391680	58	6567
2026-01-21 13:25:23.99	158.40	6.29	-43.0	-44.4	19.8	0.00e+00	0	41	0	1375731712	58	6722
2026-01-21 13:25:28.03	158.69	6.02	-43.1	-44.5	19.6	0.00e+00	0	41	0	1383071744	58	6831
2026-01-21 13:25:32.07	158.98	5.76	-43.6	-45.2	19.0	0.00e+00	0	42	0	1391460352	58	7360
2026-01-21 13:25:36.10	159.26	5.49	-43.8	-45.4	18.9	0.00e+00	0	41	0	1398800384	60	6728
2026-01-21 13:25:40.14	159.54	5.23	-44.0	-45.8	18.5	0.00e+00	0	41	0	1406140416	60	7027
2026-01-21 13:25:44.18	159.81	4.97	-44.1	-45.9	18.3	0.00e+00	0	41	0	1413480448	60	7093
2026-01-21 13:25:48.22	160.08	4.71	-44.2	-46.0	18.1	0.00e+00	0	41	0	1420820480	60	7241
2026-01-21 13:25:52.26	160.35	4.45	-44.2	-46.0	18.1	0.00e+00	0	41	0	1429209088	60	7197
2026-01-21 13:25:56.30	160.61	4.20	-44.1	-45.9	18.1	0.00e+00	0	41	0	1436549120	60	7139
2026-01-21 13:26:00.34	160.86	3.95	-44.5	-46.5	17.5	0.00e+00	0	41	0	1443889152	60	7607
2026-01-21 13:26:04.38	161.11	3.70	-44.5	-46.5	17.5	0.00e+00	0	41	0	1451229184	60	7636
2026-01-21 13:26:08.42	161.36	3.45	-44.7	-46.8	17.0	0.00e+00	0	42	0	1459617792	60	7920
2026-01-21 13:26:12.46	161.60	3.20	-45.1	-47.4	16.0	0.00e+00	0	42	0	1466957824	60	8448
2026-01-21 13:26:16.50	161.84	2.96	-49.9	-65.1	3.6	1.51e+00	0	42	104	1472200704	60	64875
2026-01-21 13:26:20.54	162.08	2.71	-50.6	-65.9	3.6	1.51e+00	0	42	104	1472200704	60	71300
2026-01-21 13:26:24.58	162.31	2.47	-51.0	-66.2	3.6	1.51e+00	0	42	104	1472200704	60	73719
2026-01-21 13:26:28.62	162.54	2.23	-51.2	-66.4	3.6	1.51e+00	0	42	104	1472200704	60	75694
2026-01-21 13:26:32.66	162.77	1.99	-51.4	-66.7	3.6	1.51e+00	0	42	104	1472200704	60	77742
2026-01-21 13:26:36.70	162.99	1.75	-51.8	-67.0	3.6	1.51e+00	0	42	104	1472200704	60	80663
2026-01-21 13:26:40.74	163.21	1.52	-51.8	-67.1	3.6	1.51e+00	0	42	104	1472200704	60	81727
2026-01-21 13:26:44.79	163.42	1.29	-51.4	-66.7	3.5	1.51e+00	0	42	104	1472200704	60	77986
2026-01-21 13:26:48.83	163.64	1.05	-51.6	-66.8	3.6	1.51e+00	0	42	104	1472200704	60	79070
2026-01-21 13:26:52.87	163.84	0.82	-51.6	-66.9	3.6	1.51e+00	0	42	104	1472200704	60	79668
2026-01-21 13:26:56.91	164.05	0.59	-51.4	-66.7	3.6	1.51e+00	0	42	104	1472200704	60	77804
2026-01-21 13:27:00.95	164.25	0.37	-51.5	-66.7	3.6	1.51e+00	0	42	104	1472200704	60	78400
2026-01-21 13:27:04.99	164.45	0.14	-51.5	-66.7	3.6	1.51e+00	0	42	104	1472200704	60	78134
2026-01-21 13:27:09.03	164.65	-0.08	-51.4	-66.6	3.6	1.51e+00	0	42	104	1472200704	60	77177

#Closed at: 2026-01-21 13:27:09
#Recorded file [1472 MB]: D:/lorett/data/35029_260122_011220.dat