passes_logs/2026/01/21/R4.6S_Anadyr/R4.6S_Anadyr__20260121_001630_NOAA_21_JPSS-2_rec.log

#Pass ID: 20260121_001630_NOAA 21 (JPSS-2)
#Satellite: NOAA 21 (JPSS-2)
#Configuration: NOAA-21
#almurnet v.1.7.20251203
#Start time: 2026-01-21 00:16:31

#Version: 2.2.20231116
#Station: R4.6S_Anadyr
#Location: 177.4865 lon 64.73178 lat
#TLE: 1 54234U 22150A   26020.29910383  .00000141  00000+0  87571-4 0  9990
#TLE: 2 54234  98.7506 321.1348 0000615 250.8428 109.2682 14.19536295165564

#Time	Az	El	Level	Level2	SNR	BER	BlckErr	Temp	State	Recorded	gain1	gain2
2026-01-21 00:16:31.81	157.69	0.11	-51.2	-66.1	3.5	1.51e+00	0	39	0	0	60	73370
2026-01-21 00:16:35.84	157.71	0.35	-51.4	-64.2	3.5	1.52e+00	0	40	104	0	60	57117
2026-01-21 00:16:39.88	157.73	0.60	-51.1	-64.0	3.5	1.52e+00	0	41	104	0	60	55578
2026-01-21 00:16:43.92	157.76	0.85	-50.8	-63.7	3.5	1.52e+00	0	41	104	0	60	53718
2026-01-21 00:16:47.96	157.78	1.10	-50.5	-63.4	3.5	1.51e+00	0	41	104	0	60	51679
2026-01-21 00:16:52.00	157.80	1.35	-49.1	-61.9	3.5	1.52e+00	0	41	104	0	60	43646
2026-01-21 00:16:56.04	157.82	1.61	-49.3	-62.1	3.5	1.52e+00	0	41	104	0	60	44867
2026-01-21 00:17:00.08	157.84	1.86	-49.3	-62.1	3.5	1.52e+00	0	41	104	0	60	44645
2026-01-21 00:17:04.12	157.87	2.12	-49.3	-62.1	3.5	1.51e+00	0	41	104	0	60	44651
2026-01-21 00:17:08.16	157.89	2.38	-49.3	-61.8	3.5	1.52e+00	0	41	104	0	60	43367
2026-01-21 00:17:12.20	157.91	2.65	-49.2	-61.4	3.5	1.52e+00	0	41	104	0	60	41246
2026-01-21 00:17:16.24	157.93	2.91	-49.2	-61.3	3.5	1.51e+00	0	41	104	0	60	40757
2026-01-21 00:17:20.28	157.96	3.18	-49.2	-61.4	3.5	1.52e+00	0	41	104	0	60	41346
2026-01-21 00:17:24.32	157.98	3.46	-47.3	-51.6	9.3	2.95e-02	122	41	0	6291456	60	13342
2026-01-21 00:17:28.36	158.00	3.73	-45.1	-47.6	13.3	8.30e-06	120	41	0	18874368	60	8449
2026-01-21 00:17:32.40	158.03	4.01	-41.6	-43.0	17.9	0.00e+00	120	41	0	31457280	56	6248
2026-01-21 00:17:36.44	158.05	4.29	-41.2	-42.6	18.7	0.00e+00	123	41	0	36700160	56	5952
2026-01-21 00:17:40.48	158.07	4.57	-40.9	-42.2	19.3	0.00e+00	123	41	0	49283072	54	6355
2026-01-21 00:17:44.52	158.10	4.86	-40.6	-41.8	20.0	0.00e+00	122	41	0	61865984	54	6113
2026-01-21 00:17:48.56	158.12	5.15	-40.0	-41.2	20.4	0.00e+00	123	41	0	74448896	54	5660
2026-01-21 00:17:52.60	158.15	5.44	-40.3	-41.5	20.2	0.00e+00	123	41	0	87031808	54	5908
2026-01-21 00:17:56.63	158.17	5.74	-39.8	-41.0	20.5	0.00e+00	123	41	0	99614720	52	6243
2026-01-21 00:18:00.67	158.20	6.03	-39.9	-41.0	20.5	0.00e+00	123	41	0	112197632	52	6272
2026-01-21 00:18:04.71	158.22	6.34	-39.9	-41.0	20.7	0.00e+00	123	41	0	124780544	52	6276
2026-01-21 00:18:08.75	158.25	6.64	-39.6	-40.7	20.9	0.00e+00	122	42	0	137363456	52	6057
2026-01-21 00:18:12.78	158.28	6.95	-39.8	-41.0	20.8	0.00e+00	123	42	0	149946368	52	6209
2026-01-21 00:18:16.82	158.30	7.27	-39.9	-41.0	20.7	0.00e+00	122	42	0	162529280	52	6256
2026-01-21 00:18:20.86	158.33	7.58	-39.4	-40.5	21.2	0.00e+00	123	42	0	175112192	52	5922
2026-01-21 00:18:24.89	158.36	7.91	-39.5	-40.6	21.3	0.00e+00	122	42	0	187695104	52	5938
2026-01-21 00:18:28.93	158.38	8.23	-38.9	-40.0	21.7	0.00e+00	122	42	0	200278016	52	5551
2026-01-21 00:18:32.98	158.41	8.56	-39.0	-40.0	21.7	0.00e+00	123	42	0	212860928	52	5580
2026-01-21 00:18:37.01	158.44	8.90	-39.1	-40.1	21.5	0.00e+00	123	42	0	225443840	52	5657
2026-01-21 00:18:41.05	158.47	9.24	-39.1	-40.1	21.6	0.00e+00	122	42	0	238026752	50	6328
2026-01-21 00:18:45.09	158.50	9.58	-38.7	-39.8	21.9	0.00e+00	122	42	0	251658240	50	6073
2026-01-21 00:18:49.13	158.52	9.93	-38.6	-39.7	22.1	0.00e+00	122	42	0	264241152	50	6011
2026-01-21 00:18:53.17	158.55	10.28	-38.6	-39.6	22.2	0.00e+00	122	42	0	276824064	50	5983
2026-01-21 00:18:57.21	158.58	10.64	-38.1	-39.1	22.6	0.00e+00	123	42	0	289406976	50	5630
2026-01-21 00:19:01.25	158.61	11.00	-37.9	-38.9	22.8	0.00e+00	122	42	0	301989888	50	5473
2026-01-21 00:19:05.29	158.64	11.37	-37.8	-38.8	22.9	0.00e+00	120	42	0	314572800	50	5455
2026-01-21 00:19:09.33	158.68	11.75	-37.8	-38.7	23.0	0.00e+00	118	42	0	327155712	48	6048
2026-01-21 00:19:13.37	158.71	12.13	-37.6	-38.6	23.0	0.00e+00	123	42	0	339738624	48	5969
2026-01-21 00:19:17.41	158.74	12.52	-37.4	-38.4	23.2	0.00e+00	122	42	0	352321536	48	5810
2026-01-21 00:19:21.45	158.77	12.91	-37.4	-38.4	23.2	0.00e+00	120	42	0	364904448	48	5815
2026-01-21 00:19:25.49	158.81	13.31	-37.3	-38.2	23.4	0.00e+00	122	42	0	377487360	48	5690
2026-01-21 00:19:29.53	158.84	13.72	-37.3	-38.2	23.4	0.00e+00	122	42	0	390070272	48	5700
2026-01-21 00:19:33.57	158.87	14.13	-37.0	-37.9	23.6	0.00e+00	123	42	0	402653184	48	5521
2026-01-21 00:19:37.61	158.91	14.55	-37.2	-38.1	23.6	0.00e+00	121	42	0	415236096	48	5641
2026-01-21 00:19:41.65	158.94	14.98	-37.0	-38.0	23.6	0.00e+00	123	42	0	427819008	48	5546
2026-01-21 00:19:45.68	158.98	15.41	-37.1	-38.1	23.6	0.00e+00	120	42	0	440401920	48	5604
2026-01-21 00:19:49.73	159.02	15.86	-37.2	-38.2	23.5	0.00e+00	123	42	0	452984832	48	5665
2026-01-21 00:19:53.76	159.05	16.31	-37.1	-38.0	23.6	0.00e+00	123	42	0	465567744	48	5579
2026-01-21 00:19:57.80	159.09	16.77	-37.3	-38.3	23.5	0.00e+00	122	42	0	478150656	48	5731
2026-01-21 00:20:01.84	159.13	17.24	-37.5	-38.4	23.4	0.00e+00	123	42	0	490733568	48	5827
2026-01-21 00:20:05.88	159.17	17.72	-37.5	-38.4	23.4	0.00e+00	123	42	0	503316480	48	5827
2026-01-21 00:20:09.91	159.21	18.20	-37.5	-38.5	23.4	0.00e+00	123	42	0	515899392	48	5886
2026-01-21 00:20:13.95	159.25	18.70	-37.6	-38.6	23.3	0.00e+00	122	42	0	528482304	48	5959
2026-01-21 00:20:17.99	159.30	19.21	-37.7	-38.7	23.3	0.00e+00	123	42	0	541065216	48	6001
2026-01-21 00:20:22.03	159.34	19.73	-37.8	-38.8	23.4	0.00e+00	123	42	0	553648128	48	6084
2026-01-21 00:20:26.07	159.38	20.26	-37.2	-38.1	23.7	0.00e+00	122	42	0	566231040	48	5650
2026-01-21 00:20:30.11	159.43	20.80	-37.3	-38.2	23.7	0.00e+00	123	42	0	578813952	48	5703
2026-01-21 00:20:34.15	159.48	21.35	-36.6	-37.5	24.2	0.00e+00	123	42	0	592445440	46	5901
2026-01-21 00:20:38.19	159.52	21.91	-36.2	-37.1	24.4	0.00e+00	120	42	0	605028352	46	5641
2026-01-21 00:20:42.23	159.57	22.49	-36.1	-37.0	24.6	0.00e+00	123	42	0	617611264	46	5583
2026-01-21 00:20:46.27	159.62	23.08	-35.8	-36.6	24.8	0.00e+00	123	42	0	630194176	46	5333
2026-01-21 00:20:50.30	159.68	23.69	-35.7	-36.5	24.9	0.00e+00	122	42	0	642777088	44	5923
2026-01-21 00:20:54.34	159.73	24.31	-35.6	-36.5	24.9	0.00e+00	123	42	0	655360000	44	5902
2026-01-21 00:20:58.37	159.78	24.94	-35.9	-36.8	24.8	0.00e+00	120	42	0	667942912	44	6099
2026-01-21 00:21:02.41	159.84	25.59	-36.2	-37.0	24.6	0.00e+00	122	42	0	680525824	44	6265
2026-01-21 00:21:06.45	159.90	26.26	-36.4	-37.3	24.4	0.00e+00	123	42	0	693108736	44	6451
2026-01-21 00:21:10.49	159.96	26.94	-36.8	-37.7	24.2	0.00e+00	123	42	0	705691648	46	6031
2026-01-21 00:21:14.53	160.02	27.64	-37.2	-38.1	23.9	0.00e+00	123	42	0	718274560	46	6310
2026-01-21 00:21:18.57	160.09	28.36	-37.7	-38.7	23.6	0.00e+00	120	42	0	730857472	46	6731
2026-01-21 00:21:22.61	160.15	29.10	-37.6	-38.5	23.7	0.00e+00	122	42	0	743440384	46	6649
2026-01-21 00:21:26.65	160.22	29.86	-37.4	-38.3	23.8	0.00e+00	123	42	0	756023296	48	5760
2026-01-21 00:21:30.69	160.30	30.63	-37.2	-38.2	23.9	0.00e+00	123	42	0	768606208	48	5677
2026-01-21 00:21:34.73	160.37	31.43	-36.8	-37.7	24.2	0.00e+00	120	42	0	781189120	46	6016
2026-01-21 00:21:38.77	160.45	32.26	-36.8	-37.7	24.2	0.00e+00	122	42	0	793772032	46	6019
2026-01-21 00:21:42.80	160.53	33.10	-37.0	-37.9	24.1	0.00e+00	120	42	0	806354944	46	6148
2026-01-21 00:21:46.84	160.62	33.97	-37.6	-38.5	23.6	0.00e+00	123	42	0	818937856	46	6640
2026-01-21 00:21:50.87	160.71	34.86	-38.2	-39.1	23.1	0.00e+00	123	42	0	831520768	48	6350
2026-01-21 00:21:54.92	160.80	35.79	-38.6	-39.6	23.0	0.00e+00	123	42	0	844103680	48	6662
2026-01-21 00:21:58.96	160.90	36.73	-39.2	-40.2	22.4	0.00e+00	123	42	0	856686592	50	6398
2026-01-21 00:22:03.00	161.00	37.71	-39.5	-40.6	22.1	0.00e+00	123	42	0	869269504	50	6672
2026-01-21 00:22:07.04	161.11	38.72	-39.3	-40.4	22.2	0.00e+00	122	42	0	881852416	50	6540
2026-01-21 00:22:11.09	161.23	39.75	-38.9	-39.9	22.7	0.00e+00	120	42	0	894435328	50	6159
2026-01-21 00:22:15.13	161.35	40.82	-38.4	-39.3	23.2	0.00e+00	123	42	0	908066816	50	5790
2026-01-21 00:22:19.17	161.48	41.92	-38.7	-39.6	22.9	0.00e+00	121	42	0	919601152	50	5989
2026-01-21 00:22:23.21	161.61	43.06	-40.0	-41.1	21.4	0.00e+00	120	42	0	933232640	52	6331
2026-01-21 00:22:27.25	161.76	44.22	-40.0	-41.1	21.8	0.00e+00	122	42	0	945815552	52	6299
2026-01-21 00:22:31.29	161.92	45.43	-39.8	-40.9	21.9	0.00e+00	123	42	0	958398464	52	6139
2026-01-21 00:22:35.33	162.08	46.67	-39.5	-40.5	21.9	0.00e+00	120	42	0	970981376	52	5884
2026-01-21 00:22:39.36	162.26	47.95	-38.9	-39.9	22.4	0.00e+00	123	42	0	983564288	52	5479
2026-01-21 00:22:43.40	162.46	49.26	-38.5	-39.5	23.0	0.00e+00	123	42	0	996147200	50	5877
2026-01-21 00:22:47.43	162.67	50.62	-38.3	-39.2	23.1	0.00e+00	123	42	0	1008730112	50	5714
2026-01-21 00:22:51.47	162.90	52.02	-37.7	-38.6	23.7	0.00e+00	121	42	0	1021313024	48	5949
2026-01-21 00:22:55.52	163.15	53.46	-37.8	-38.8	23.6	0.00e+00	121	42	0	1033895936	48	6067
2026-01-21 00:22:59.56	163.43	54.94	-37.8	-38.8	23.4	0.00e+00	122	42	0	1046478848	48	6075
2026-01-21 00:23:03.60	163.73	56.46	-37.4	-38.4	23.7	0.00e+00	123	42	0	1059061760	48	5822
2026-01-21 00:23:07.64	164.08	58.03	-36.7	-37.6	24.3	0.00e+00	120	42	0	1071644672	46	5975
2026-01-21 00:23:11.68	164.46	59.63	-36.8	-37.7	24.4	0.00e+00	123	42	0	1084227584	46	6034
2026-01-21 00:23:15.71	164.89	61.28	-36.1	-37.0	24.8	0.00e+00	121	42	0	1096810496	46	5580
2026-01-21 00:23:19.75	165.37	62.96	-35.8	-36.7	25.1	0.00e+00	123	42	0	1109393408	46	5353
2026-01-21 00:23:23.79	165.94	64.69	-35.8	-36.6	25.0	0.00e+00	120	42	0	1121976320	44	5986
2026-01-21 00:23:27.84	166.59	66.46	-35.7	-36.6	25.0	0.00e+00	122	42	0	1134559232	44	5973
2026-01-21 00:23:31.87	167.36	68.26	-35.2	-36.0	25.3	0.00e+00	121	42	0	1147142144	44	5592
2026-01-21 00:23:35.91	168.28	70.09	-35.7	-36.6	24.9	0.00e+00	122	42	0	1159725056	44	5973
2026-01-21 00:23:39.95	169.40	71.95	-35.0	-35.8	25.7	0.00e+00	123	42	0	1172307968	44	5418
2026-01-21 00:23:43.99	170.79	73.84	-34.9	-35.7	25.8	0.00e+00	122	42	0	1184890880	44	5396
2026-01-21 00:23:48.02	172.56	75.74	-34.9	-35.8	25.4	0.00e+00	123	42	0	1197473792	44	5436
2026-01-21 00:23:52.07	174.90	77.66	-35.6	-36.5	25.0	0.00e+00	123	42	0	1210056704	44	5871
2026-01-21 00:23:56.11	178.13	79.58	-36.1	-37.0	24.6	0.00e+00	122	42	0	1222639616	44	6261
2026-01-21 00:24:00.15	182.81	81.46	-37.0	-37.9	24.4	0.00e+00	122	42	0	1235222528	46	6188
2026-01-21 00:24:04.19	190.10	83.27	-36.6	-37.5	24.5	0.00e+00	122	42	0	1248854016	46	5896
2026-01-21 00:24:08.23	202.42	84.91	-36.6	-37.5	24.5	0.00e+00	118	42	0	1261436928	46	5883
2026-01-21 00:24:12.27	224.17	86.12	-37.0	-37.9	24.7	0.00e+00	120	42	0	1274019840	46	6143
2026-01-21 00:24:16.32	256.23	86.43	-36.6	-37.5	24.8	0.00e+00	122	42	0	1286602752	46	5912
2026-01-21 00:24:20.35	284.30	85.64	-36.8	-37.7	24.8	0.00e+00	120	42	0	1299185664	46	6047
2026-01-21 00:24:24.40	301.15	84.19	-36.6	-37.4	24.9	0.00e+00	122	42	0	1311768576	46	5853
2026-01-21 00:24:28.44	310.74	82.45	-36.4	-37.3	24.5	0.00e+00	120	42	0	1324351488	46	5782
2026-01-21 00:24:32.47	316.62	80.61	-36.9	-37.8	24.8	0.00e+00	122	42	0	1336934400	46	6116
2026-01-21 00:24:36.51	320.54	78.71	-36.3	-37.1	25.4	0.00e+00	120	42	0	1349517312	44	6316
2026-01-21 00:24:40.56	323.31	76.79	-35.6	-36.5	25.4	0.00e+00	123	42	0	1362100224	44	5873
2026-01-21 00:24:44.60	325.37	74.88	-36.4	-37.2	25.0	0.00e+00	122	42	0	1374683136	46	5724
2026-01-21 00:24:48.64	326.95	72.99	-36.7	-37.6	24.8	0.00e+00	123	42	0	1387266048	46	5979
2026-01-21 00:24:52.68	328.20	71.11	-35.1	-36.0	25.7	0.00e+00	120	42	0	1399848960	44	5545
2026-01-21 00:24:56.72	329.22	69.27	-37.8	-38.8	24.0	0.00e+00	120	42	0	1412431872	48	6074
2026-01-21 00:25:00.76	330.07	67.45	-35.4	-36.2	25.3	0.00e+00	123	42	0	1425014784	44	5707
2026-01-21 00:25:04.80	330.78	65.67	-37.1	-37.9	24.8	0.00e+00	123	42	0	1437597696	48	5521
2026-01-21 00:25:08.84	331.39	63.93	-34.9	-35.7	26.0	0.00e+00	122	42	0	1450180608	44	5387
2026-01-21 00:25:12.88	331.92	62.22	-37.9	-38.9	24.0	0.00e+00	123	42	0	1462763520	48	6156
2026-01-21 00:25:16.92	332.38	60.56	-35.5	-36.3	25.5	0.00e+00	123	42	0	1475346432	44	5783
2026-01-21 00:25:20.97	332.79	58.93	-36.9	-37.8	24.5	0.00e+00	123	42	0	1487929344	46	6099
2026-01-21 00:25:25.01	333.15	57.34	-36.3	-37.2	25.1	0.00e+00	123	42	0	1500512256	46	5685
2026-01-21 00:25:29.05	333.47	55.80	-39.1	-40.2	23.0	0.00e+00	123	42	0	1513095168	50	6356
2026-01-21 00:25:33.09	333.77	54.30	-38.5	-39.4	23.3	0.00e+00	123	42	0	1525678080	50	5825
2026-01-21 00:25:37.13	334.03	52.85	-37.6	-38.5	24.1	0.00e+00	123	42	0	1539309568	48	5892
2026-01-21 00:25:41.17	334.27	51.43	-39.2	-40.2	22.7	0.00e+00	123	42	0	1551892480	50	6384
2026-01-21 00:25:45.21	334.50	50.06	-40.0	-41.2	21.6	0.00e+00	122	42	0	1564475392	52	6356
2026-01-21 00:25:49.25	334.70	48.72	-39.5	-40.5	22.6	0.00e+00	123	42	0	1577058304	52	5895
2026-01-21 00:25:53.29	334.89	47.43	-40.3	-41.4	21.9	0.00e+00	121	42	0	1589641216	52	6510
2026-01-21 00:25:57.32	335.06	46.17	-41.4	-42.6	20.9	0.00e+00	123	42	0	1602224128	56	5964
2026-01-21 00:26:01.36	335.23	44.95	-40.3	-41.5	21.5	0.00e+00	122	42	0	1614807040	52	6588
2026-01-21 00:26:05.40	335.38	43.77	-42.0	-43.4	20.1	0.00e+00	123	42	0	1627389952	56	6534
2026-01-21 00:26:09.44	335.52	42.62	-39.8	-40.8	22.3	0.00e+00	122	42	0	1639972864	54	5447
2026-01-21 00:26:13.47	335.66	41.51	-40.3	-41.3	21.7	0.00e+00	123	42	0	1652555776	52	6476
2026-01-21 00:26:17.52	335.78	40.42	-40.3	-41.4	21.8	0.00e+00	122	42	0	1665138688	54	5804
2026-01-21 00:26:21.56	335.90	39.37	-39.6	-40.6	22.3	0.00e+00	122	42	0	1677721600	52	5971
2026-01-21 00:26:25.60	336.02	38.35	-39.6	-40.6	22.3	0.00e+00	123	42	0	1690304512	52	5993
2026-01-21 00:26:29.64	336.12	37.36	-38.4	-39.4	23.0	0.00e+00	120	42	0	1702887424	50	5820
2026-01-21 00:26:33.68	336.23	36.40	-38.2	-39.1	23.3	0.00e+00	120	42	0	1715470336	50	5648
2026-01-21 00:26:37.73	336.32	35.47	-38.5	-39.5	23.2	0.00e+00	123	42	0	1728053248	50	5874
2026-01-21 00:26:41.77	336.42	34.56	-38.7	-39.6	23.0	0.00e+00	122	42	0	1740636160	50	5976
2026-01-21 00:26:45.81	336.51	33.68	-39.0	-39.9	22.9	0.00e+00	123	42	0	1753219072	50	6202
2026-01-21 00:26:49.85	336.59	32.82	-38.0	-38.9	23.7	0.00e+00	122	42	0	1765801984	50	5514
2026-01-21 00:26:53.89	336.67	31.99	-37.7	-38.6	23.8	0.00e+00	123	42	0	1778384896	48	5966
2026-01-21 00:26:57.94	336.75	31.18	-37.6	-38.5	24.0	0.00e+00	122	42	0	1790967808	48	5872
2026-01-21 00:27:01.98	336.83	30.39	-38.3	-39.3	23.3	0.00e+00	123	42	0	1803550720	48	6454
2026-01-21 00:27:06.02	336.90	29.63	-38.3	-39.2	23.4	0.00e+00	122	42	0	1816133632	48	6413
2026-01-21 00:27:10.02	336.97	28.89	-38.2	-39.2	23.3	0.00e+00	123	42	0	1828716544	48	6378
2026-01-21 00:27:14.06	337.04	28.16	-38.3	-39.3	22.9	0.00e+00	123	42	0	1841299456	48	6462
2026-01-21 00:27:18.10	337.10	27.45	-38.1	-39.1	23.1	0.00e+00	121	42	0	1853882368	48	6312
2026-01-21 00:27:22.14	337.16	26.76	-37.7	-38.6	23.6	0.00e+00	123	42	0	1866465280	48	5967
2026-01-21 00:27:26.18	337.23	26.09	-37.1	-38.0	24.0	0.00e+00	123	42	0	1880096768	48	5577
2026-01-21 00:27:30.22	337.29	25.43	-37.1	-38.0	24.3	0.00e+00	123	42	0	1892679680	48	5552
2026-01-21 00:27:34.27	337.34	24.79	-36.9	-37.8	24.3	0.00e+00	123	42	0	1905262592	48	5421
2026-01-21 00:27:38.30	337.40	24.16	-37.3	-38.2	24.2	0.00e+00	122	42	0	1917845504	48	5705
2026-01-21 00:27:42.35	337.45	23.55	-37.0	-37.9	24.2	0.00e+00	123	42	0	1930428416	48	5516
2026-01-21 00:27:46.39	337.51	22.95	-36.7	-37.6	24.4	0.00e+00	120	42	0	1943011328	48	5319
2026-01-21 00:27:50.43	337.56	22.37	-36.9	-37.7	24.5	0.00e+00	120	42	0	1955594240	46	6051
2026-01-21 00:27:54.47	337.61	21.80	-37.0	-37.8	24.4	0.00e+00	123	42	0	1968177152	46	6134
2026-01-21 00:27:58.51	337.66	21.24	-37.3	-38.2	24.1	0.00e+00	121	42	0	1980760064	46	6365
2026-01-21 00:28:02.56	337.71	20.69	-37.4	-38.2	24.0	0.00e+00	120	42	0	1993342976	46	6423
2026-01-21 00:28:06.60	337.76	20.16	-37.6	-38.5	23.9	0.00e+00	122	42	0	2005925888	46	6641
2026-01-21 00:28:10.64	337.80	19.64	-37.6	-38.5	23.7	0.00e+00	123	42	0	2018508800	48	5895
2026-01-21 00:28:14.68	337.85	19.12	-37.6	-38.5	23.6	0.00e+00	122	42	0	2031091712	48	5916
2026-01-21 00:28:18.72	337.89	18.62	-37.6	-38.5	23.6	0.00e+00	120	42	0	2043674624	48	5916
2026-01-21 00:28:22.76	337.93	18.13	-37.7	-38.6	23.6	0.00e+00	123	42	0	2056257536	48	5993
2026-01-21 00:28:26.80	337.98	17.65	-37.8	-38.8	23.4	0.00e+00	122	42	0	2068840448	48	6086
2026-01-21 00:28:30.85	338.02	17.17	-37.9	-38.8	23.4	0.00e+00	123	42	0	2081423360	48	6106
2026-01-21 00:28:34.89	338.06	16.71	-38.0	-39.0	23.2	0.00e+00	123	42	0	2094006272	48	6225
2026-01-21 00:28:38.93	338.10	16.26	-38.0	-39.0	23.2	0.00e+00	123	42	0	2106589184	48	6235
2026-01-21 00:28:42.96	338.14	15.81	-38.0	-39.0	23.1	0.00e+00	123	42	0	2119172096	48	6233
2026-01-21 00:28:47.00	338.18	15.37	-38.1	-39.0	23.0	0.00e+00	122	42	0	2131755008	48	6275
2026-01-21 00:28:51.04	338.22	14.94	-38.1	-39.0	23.0	0.00e+00	120	42	0	2144337920	48	6250
2026-01-21 00:28:55.08	338.26	14.52	-38.3	-39.2	22.8	0.00e+00	123	42	0	2156920832	48	6408
2026-01-21 00:28:59.12	338.29	14.10	-38.4	-39.4	22.6	0.00e+00	122	42	0	2170552320	48	6569
2026-01-21 00:29:03.17	338.33	13.69	-38.4	-39.4	22.7	0.00e+00	123	42	0	2182086656	48	6510
2026-01-21 00:29:07.21	338.37	13.29	-38.6	-39.6	22.6	0.00e+00	120	42	0	2195718144	50	5938
2026-01-21 00:29:11.24	338.40	12.89	-38.6	-39.6	22.6	0.00e+00	123	42	0	2208301056	50	5945
2026-01-21 00:29:15.28	338.44	12.50	-38.9	-39.9	22.3	0.00e+00	123	42	0	2220883968	50	6173
2026-01-21 00:29:19.32	338.47	12.12	-38.9	-40.0	22.3	0.00e+00	123	42	0	2233466880	50	6224
2026-01-21 00:29:23.36	338.51	11.74	-38.9	-40.0	22.2	0.00e+00	122	42	0	2246049792	50	6215
2026-01-21 00:29:27.40	338.54	11.37	-38.6	-39.6	22.5	0.00e+00	122	42	0	2258632704	50	5967
2026-01-21 00:29:31.43	338.57	11.00	-38.5	-39.6	22.3	0.00e+00	123	42	0	2271215616	50	5948
2026-01-21 00:29:35.47	338.61	10.64	-38.6	-39.6	22.3	0.00e+00	122	42	0	2283798528	50	5987
2026-01-21 00:29:39.51	338.64	10.29	-38.7	-39.7	22.2	0.00e+00	122	42	0	2296381440	50	6048
2026-01-21 00:29:43.55	338.67	9.94	-38.9	-40.0	21.9	0.00e+00	123	42	0	2308964352	50	6227
2026-01-21 00:29:47.60	338.70	9.59	-39.1	-40.1	21.9	0.00e+00	123	42	0	2321547264	50	6342
2026-01-21 00:29:51.63	338.73	9.25	-39.0	-40.1	21.8	0.00e+00	120	42	0	2334130176	50	6292
2026-01-21 00:29:55.67	338.77	8.91	-39.1	-40.2	21.7	0.00e+00	120	42	0	2346713088	50	6393
2026-01-21 00:29:59.71	338.80	8.58	-39.0	-40.0	21.8	0.00e+00	123	42	0	2359296000	50	6268
2026-01-21 00:30:03.75	338.83	8.26	-39.7	-40.8	20.9	0.00e+00	123	42	0	2371878912	52	6127
2026-01-21 00:30:07.79	338.86	7.93	-39.5	-40.6	21.2	0.00e+00	122	42	0	2384461824	52	5956
2026-01-21 00:30:11.83	338.89	7.61	-39.7	-40.8	21.2	0.00e+00	120	42	0	2397044736	52	6089
2026-01-21 00:30:15.87	338.92	7.30	-39.5	-40.6	21.2	0.00e+00	123	42	0	2409627648	52	5978
2026-01-21 00:30:19.90	338.95	6.99	-40.2	-41.4	20.4	0.00e+00	122	42	0	2422210560	52	6524
2026-01-21 00:30:23.95	338.98	6.68	-40.6	-41.9	19.9	0.00e+00	122	42	0	2434793472	54	6158
2026-01-21 00:30:27.98	339.01	6.38	-40.4	-41.7	20.0	0.00e+00	123	42	0	2447376384	54	6005
2026-01-21 00:30:32.03	339.03	6.07	-40.1	-41.4	20.2	0.00e+00	121	42	0	2459959296	54	5816
2026-01-21 00:30:36.07	339.06	5.78	-40.3	-41.6	19.9	0.00e+00	123	42	0	2472542208	54	5942
2026-01-21 00:30:40.11	339.09	5.48	-41.2	-42.6	18.8	0.00e+00	122	42	0	2485125120	54	6722
2026-01-21 00:30:44.14	339.12	5.19	-42.3	-44.0	16.8	0.00e+00	123	42	0	2497708032	56	6982
2026-01-21 00:30:48.19	339.15	4.91	-44.2	-46.6	14.2	7.00e-07	123	42	0	2511339520	60	7522
2026-01-21 00:30:52.23	339.18	4.62	-45.3	-49.0	10.4	1.67e-03	122	42	0	2523922432	60	9848
2026-01-21 00:30:56.27	339.20	4.34	-46.2	-51.8	7.0	1.13e-01	122	42	0	2536505344	60	13713
2026-01-21 00:31:00.30	339.23	4.06	-46.5	-56.2	3.7	1.46e+00	0	42	104	2538602496	60	22690
2026-01-21 00:31:04.34	339.26	3.79	-46.8	-59.6	3.5	1.51e+00	0	42	104	2538602496	60	33365
2026-01-21 00:31:08.38	339.29	3.51	-46.4	-59.0	3.5	1.51e+00	0	42	104	2538602496	60	31305
2026-01-21 00:31:12.42	339.31	3.24	-46.7	-59.6	3.5	1.52e+00	0	42	104	2538602496	60	33376
2026-01-21 00:31:16.46	339.34	2.98	-46.6	-59.5	3.5	1.52e+00	0	42	104	2538602496	60	33029
2026-01-21 00:31:20.50	339.37	2.71	-50.7	-63.5	3.5	1.52e+00	0	42	104	2538602496	60	52471
2026-01-21 00:31:24.55	339.39	2.45	-51.2	-64.0	3.5	1.52e+00	0	42	104	2538602496	60	55669
2026-01-21 00:31:28.59	339.42	2.19	-51.4	-64.3	3.5	1.52e+00	0	42	104	2538602496	60	57484
2026-01-21 00:31:32.63	339.45	1.93	-51.1	-64.3	3.5	1.51e+00	0	42	104	2538602496	60	57293
2026-01-21 00:31:36.67	339.47	1.67	-51.4	-64.3	3.5	1.52e+00	0	42	104	2538602496	60	57825
2026-01-21 00:31:40.71	339.50	1.42	-51.5	-64.4	3.5	1.52e+00	0	42	104	2538602496	60	58196
2026-01-21 00:31:44.75	339.52	1.17	-51.5	-64.4	3.5	1.52e+00	0	42	104	2538602496	60	57972
2026-01-21 00:31:48.79	339.55	0.92	-51.8	-64.7	3.5	1.52e+00	0	42	104	2538602496	60	60212
2026-01-21 00:31:52.83	339.58	0.67	-51.8	-64.7	3.5	1.52e+00	0	42	104	2538602496	60	60091
2026-01-21 00:31:56.87	339.60	0.43	-51.6	-64.5	3.5	1.52e+00	0	42	104	2538602496	60	58847
2026-01-21 00:32:00.91	339.63	0.19	-52.0	-64.9	3.5	1.52e+00	0	42	104	2538602496	60	61410
2026-01-21 00:32:04.95	339.65	-0.05	-51.4	-64.3	3.5	1.52e+00	0	42	104	2538602496	60	57409

#Closed at: 2026-01-21 00:32:06
#Recorded file [2538 MB]: D:/lorett/data/35029_260121_121631.dat