passes_logs/2026/01/21/R4.6S_Anadyr/R4.6S_Anadyr__20260121_024113_AQUA_rec.log

#Pass ID: 20260121_024113_AQUA
#Satellite: AQUA
#Configuration: AQUA
#almurnet v.1.7.20251203
#Start time: 2026-01-21 02:42:18

#Version: 2.2.20231116
#Station: R4.6S_Anadyr
#Location: 177.4865 lon 64.73178 lat
#TLE: 1 27424U 02022A   26020.30984080  .00001497  00000+0  30942-3 0  9998
#TLE: 2 27424  98.4092 346.8266 0001984  71.7888  69.0903 14.61835321261661

#Time	Az	El	Level	Level2	SNR	BER	BlckErr	Temp	State	Recorded	gain1	gain2
2026-01-21 02:42:18.02	177.63	4.22	-53.0	-67.9	3.5	1.51e+00	0	41	0	0	60	90065
2026-01-21 02:42:22.06	177.78	4.51	-54.5	-72.4	3.5	3.02e+01	0	41	104	0	60	160394
2026-01-21 02:42:26.10	177.93	4.80	-54.4	-72.3	3.5	3.02e+01	0	41	104	0	60	158095
2026-01-21 02:42:30.14	178.09	5.10	-54.5	-72.3	3.5	3.02e+01	0	41	104	0	60	159457
2026-01-21 02:42:34.18	178.25	5.39	-54.5	-72.6	3.5	3.02e+01	0	41	104	0	60	164376
2026-01-21 02:42:38.21	178.42	5.70	-53.0	-71.3	3.5	3.02e+01	0	41	104	0	60	140584
2026-01-21 02:42:42.25	178.59	6.00	-51.3	-69.2	3.5	3.02e+01	0	41	104	0	60	110931
2026-01-21 02:42:46.29	178.76	6.31	-51.1	-69.0	3.5	3.02e+01	0	41	104	0	60	108832
2026-01-21 02:42:50.33	178.93	6.63	-51.0	-68.7	3.5	3.02e+01	0	41	104	0	60	104905
2026-01-21 02:42:54.38	179.11	6.95	-51.2	-69.2	3.5	3.02e+01	0	41	104	0	60	111047
2026-01-21 02:42:58.42	179.30	7.27	-51.0	-68.6	3.5	3.02e+01	0	41	104	0	60	102997
2026-01-21 02:43:02.46	179.48	7.60	-51.5	-68.5	3.5	3.02e+01	0	41	104	0	60	101879
2026-01-21 02:43:06.49	179.68	7.93	-51.1	-65.9	4.3	3.02e+01	0	41	104	0	60	75695
2026-01-21 02:43:10.53	179.87	8.26	-50.9	-66.6	3.8	3.02e+01	0	42	104	2621440	60	82386
2026-01-21 02:43:14.57	180.07	8.61	-42.0	-43.5	24.9	3.02e+01	92	41	0	8912896	60	5786
2026-01-21 02:43:18.61	180.28	8.95	-39.7	-41.0	27.3	3.02e+01	92	41	0	14155776	54	6094
2026-01-21 02:43:22.64	180.49	9.30	-40.6	-41.9	26.9	3.02e+01	90	41	0	21495808	56	6060
2026-01-21 02:43:26.68	180.71	9.66	-40.5	-41.9	26.8	3.02e+01	92	41	0	28835840	56	6052
2026-01-21 02:43:30.72	180.93	10.02	-40.1	-41.5	27.1	3.02e+01	92	41	0	36700160	56	5746
2026-01-21 02:43:34.76	181.16	10.39	-40.2	-41.5	27.6	3.02e+01	91	41	0	44040192	56	5789
2026-01-21 02:43:38.79	181.39	10.76	-39.9	-41.2	28.1	3.02e+01	90	41	0	51904512	54	6247
2026-01-21 02:43:42.83	181.63	11.14	-39.3	-40.6	28.3	3.02e+01	92	41	0	59244544	54	5839
2026-01-21 02:43:46.87	181.87	11.53	-39.3	-40.6	28.3	3.02e+01	92	41	0	67108864	54	5828
2026-01-21 02:43:50.91	182.13	11.92	-39.4	-40.7	28.2	3.02e+01	92	41	0	74448896	54	5904
2026-01-21 02:43:54.95	182.39	12.32	-40.0	-41.2	28.2	3.02e+01	92	41	0	82313216	54	6263
2026-01-21 02:43:58.99	182.65	12.73	-38.9	-40.2	28.4	3.02e+01	91	41	0	89653248	54	5538
2026-01-21 02:44:03.03	182.93	13.14	-40.1	-41.5	27.5	3.02e+01	92	41	0	96993280	54	6441
2026-01-21 02:44:07.06	183.21	13.56	-39.7	-41.0	28.2	3.02e+01	91	41	0	104857600	54	6110
2026-01-21 02:44:11.10	183.50	13.99	-39.5	-40.8	28.5	3.02e+01	91	41	0	112197632	54	5954
2026-01-21 02:44:15.14	183.80	14.42	-39.7	-41.0	28.0	3.02e+01	92	41	0	120061952	54	6087
2026-01-21 02:44:19.18	184.11	14.87	-39.3	-40.6	28.4	3.02e+01	92	41	0	127401984	54	5806
2026-01-21 02:44:23.22	184.42	15.32	-38.8	-40.1	28.9	3.02e+01	92	41	0	135266304	52	6146
2026-01-21 02:44:27.26	184.75	15.78	-38.5	-39.8	28.9	3.02e+01	92	41	0	142606336	52	5930
2026-01-21 02:44:31.29	185.09	16.25	-38.4	-39.7	29.0	3.02e+01	92	41	0	150470656	52	5862
2026-01-21 02:44:35.34	185.44	16.73	-38.8	-40.1	28.9	3.02e+01	90	41	0	157810688	52	6143
2026-01-21 02:44:39.36	185.80	17.22	-38.3	-39.5	29.0	3.02e+01	92	41	0	165150720	52	5750
2026-01-21 02:44:43.40	186.17	17.72	-38.4	-39.6	29.1	3.02e+01	91	41	0	173015040	52	5822
2026-01-21 02:44:47.44	186.56	18.23	-39.5	-40.7	28.7	3.02e+01	92	41	0	180355072	54	5923
2026-01-21 02:44:51.48	186.96	18.75	-39.3	-40.5	29.0	3.02e+01	92	41	0	188219392	52	6481
2026-01-21 02:44:55.52	187.37	19.28	-38.4	-39.7	29.1	3.02e+01	89	41	0	195559424	52	5878
2026-01-21 02:44:59.55	187.80	19.82	-39.1	-40.3	29.3	3.02e+01	92	41	0	203423744	52	6331
2026-01-21 02:45:03.59	188.24	20.38	-39.0	-40.3	29.2	3.02e+01	92	41	0	210763776	52	6303
2026-01-21 02:45:07.63	188.71	20.94	-39.2	-40.5	28.9	3.02e+01	92	41	0	218103808	54	5730
2026-01-21 02:45:11.66	189.18	21.52	-39.4	-40.7	29.2	3.02e+01	92	41	0	225968128	52	6578
2026-01-21 02:45:15.71	189.68	22.11	-39.7	-40.9	29.0	3.02e+01	92	41	0	233308160	52	6791
2026-01-21 02:45:19.75	190.20	22.72	-39.3	-40.6	29.0	3.02e+01	92	41	0	241172480	54	5810
2026-01-21 02:45:23.79	190.74	23.34	-40.2	-41.5	28.9	3.02e+01	92	41	0	248512512	54	6447
2026-01-21 02:45:27.82	191.30	23.97	-39.3	-40.5	29.0	3.02e+01	91	41	0	256376832	54	5769
2026-01-21 02:45:31.86	191.88	24.61	-40.0	-41.2	28.7	3.02e+01	92	41	0	263716864	54	6256
2026-01-21 02:45:35.90	192.49	25.27	-40.5	-41.7	28.9	3.02e+01	92	41	0	271581184	54	6649
2026-01-21 02:45:39.94	193.13	25.95	-40.7	-42.1	28.2	3.02e+01	92	41	0	278921216	54	6888
2026-01-21 02:45:43.98	193.79	26.64	-40.3	-41.6	28.9	3.02e+01	92	41	0	286261248	54	6507
2026-01-21 02:45:48.01	194.49	27.35	-39.7	-40.9	29.3	3.02e+01	89	41	0	294125568	54	6028
2026-01-21 02:45:52.05	195.21	28.07	-40.5	-41.7	29.1	3.02e+01	92	41	0	301465600	56	5899
2026-01-21 02:45:56.09	195.97	28.81	-39.4	-40.6	29.4	3.02e+01	90	41	0	309329920	54	5824
2026-01-21 02:46:00.12	196.77	29.56	-38.8	-40.0	29.2	3.02e+01	91	41	0	316669952	52	6134
2026-01-21 02:46:04.16	197.61	30.33	-39.4	-40.6	29.2	3.02e+01	92	41	0	324534272	52	6513
2026-01-21 02:46:08.20	198.48	31.11	-39.8	-41.0	29.2	3.02e+01	89	41	0	331874304	54	6103
2026-01-21 02:46:12.24	199.41	31.91	-41.3	-42.5	28.9	3.02e+01	92	41	0	339738624	54	7255
2026-01-21 02:46:16.28	200.38	32.73	-40.2	-41.4	29.2	3.02e+01	92	42	0	347078656	54	6369
2026-01-21 02:46:20.32	201.40	33.56	-39.7	-40.9	28.8	3.02e+01	92	41	0	354418688	54	6020
2026-01-21 02:46:24.36	202.47	34.41	-41.0	-42.2	28.2	3.02e+01	90	41	0	362283008	56	6269
2026-01-21 02:46:28.40	203.60	35.27	-39.6	-40.8	28.5	3.02e+01	92	41	0	369623040	54	5987
2026-01-21 02:46:32.44	204.80	36.14	-40.1	-41.4	28.2	3.02e+01	92	41	0	377487360	54	6372
2026-01-21 02:46:36.47	206.06	37.02	-41.0	-42.3	27.8	3.02e+01	89	41	0	384827392	56	6318
2026-01-21 02:46:40.51	207.39	37.91	-41.8	-43.1	28.2	3.02e+01	90	41	0	392691712	58	6185
2026-01-21 02:46:44.55	208.80	38.81	-42.0	-43.2	28.1	3.02e+01	91	42	0	400031744	58	6276
2026-01-21 02:46:48.59	210.29	39.72	-42.8	-44.1	27.6	3.02e+01	91	41	0	407896064	60	6146
2026-01-21 02:46:52.63	211.87	40.62	-40.5	-41.7	28.7	3.02e+01	92	41	0	415236096	56	5908
2026-01-21 02:46:56.67	213.53	41.53	-40.6	-41.8	29.3	3.02e+01	92	41	0	422576128	56	5946
2026-01-21 02:47:00.71	215.30	42.43	-39.7	-40.9	29.5	3.02e+01	92	41	0	430440448	54	6045
2026-01-21 02:47:04.74	217.16	43.33	-40.2	-41.4	29.6	3.02e+01	92	41	0	437780480	54	6368
2026-01-21 02:47:08.79	219.13	44.21	-39.7	-40.9	29.9	3.02e+01	90	42	0	445644800	54	5999
2026-01-21 02:47:12.83	221.21	45.07	-39.8	-41.0	29.8	3.02e+01	92	42	0	452984832	54	6102
2026-01-21 02:47:16.87	223.41	45.91	-38.9	-40.1	30.0	3.02e+01	90	41	0	460849152	52	6154
2026-01-21 02:47:20.90	225.72	46.72	-39.2	-40.4	30.2	3.02e+01	92	41	0	468189184	52	6366
2026-01-21 02:47:24.94	228.16	47.50	-38.6	-39.8	29.7	3.02e+01	89	41	0	476053504	52	5982
2026-01-21 02:47:28.98	230.72	48.23	-39.7	-40.9	29.7	3.02e+01	92	41	0	483393536	54	6004
2026-01-21 02:47:33.01	233.39	48.90	-39.4	-40.5	29.6	3.02e+01	92	42	0	490733568	52	6489
2026-01-21 02:47:37.05	236.18	49.52	-39.6	-40.8	29.4	3.02e+01	92	42	0	498597888	52	6659
2026-01-21 02:47:41.09	239.08	50.08	-40.4	-41.6	28.3	3.02e+01	91	42	0	505937920	58	5210
2026-01-21 02:47:45.13	242.09	50.56	-42.3	-43.6	28.3	3.02e+01	92	42	0	513802240	60	5801
2026-01-21 02:47:49.17	245.18	50.97	-40.4	-41.6	29.3	3.02e+01	91	42	0	521142272	54	6560
2026-01-21 02:47:53.21	248.35	51.29	-40.3	-41.5	29.3	3.02e+01	92	42	0	529006592	56	5775
2026-01-21 02:47:57.25	251.58	51.52	-40.3	-41.5	29.3	3.02e+01	92	41	0	536346624	56	5791
2026-01-21 02:48:01.28	254.83	51.65	-41.4	-42.5	25.8	3.02e+01	92	41	0	544210944	60	5155
2026-01-21 02:48:05.32	258.12	51.70	-41.3	-42.5	29.0	3.02e+01	92	42	0	551550976	56	6451
2026-01-21 02:48:09.36	261.40	51.64	-41.0	-42.3	29.1	3.02e+01	86	42	0	558891008	56	6283
2026-01-21 02:48:13.40	264.67	51.49	-41.5	-42.7	28.5	3.02e+01	92	42	0	566755328	56	6640
2026-01-21 02:48:17.44	267.88	51.25	-41.2	-42.5	29.1	3.02e+01	92	41	0	574095360	56	6432
2026-01-21 02:48:21.48	271.04	50.92	-42.1	-43.3	28.4	3.02e+01	90	41	0	581959680	58	6348
2026-01-21 02:48:25.52	274.12	50.51	-40.8	-42.1	28.6	3.02e+01	90	42	0	589299712	56	6158
2026-01-21 02:48:29.55	277.10	50.02	-40.4	-41.7	28.5	3.02e+01	91	42	0	597164032	56	5895
2026-01-21 02:48:33.59	279.99	49.46	-43.0	-44.3	27.9	3.02e+01	92	42	0	604504064	60	6295
2026-01-21 02:48:37.63	282.76	48.83	-41.5	-42.8	28.0	3.02e+01	92	42	0	611844096	58	5982
2026-01-21 02:48:41.67	285.42	48.15	-42.3	-43.6	27.9	3.02e+01	92	42	0	619708416	58	6562
2026-01-21 02:48:45.71	287.96	47.41	-39.4	-40.7	29.0	3.02e+01	92	42	0	627048448	54	5868
2026-01-21 02:48:49.74	290.37	46.64	-40.2	-41.4	29.2	3.02e+01	92	42	0	634912768	54	6360
2026-01-21 02:48:53.78	292.67	45.83	-43.2	-44.6	26.5	3.02e+01	92	42	0	642252800	58	7350
2026-01-21 02:48:57.81	294.84	44.99	-40.9	-42.1	29.3	3.02e+01	92	42	0	650117120	56	6190
2026-01-21 02:49:01.85	296.91	44.13	-40.9	-42.1	28.9	3.02e+01	92	42	0	657457152	56	6200
2026-01-21 02:49:05.89	298.86	43.25	-40.6	-41.9	29.1	3.02e+01	89	42	0	665321472	56	6005
2026-01-21 02:49:09.92	300.70	42.36	-40.5	-41.7	28.7	3.02e+01	92	42	0	672661504	56	5899
2026-01-21 02:49:13.96	302.45	41.46	-40.6	-41.8	28.7	3.02e+01	92	42	0	680001536	56	5985
2026-01-21 02:49:18.00	304.10	40.55	-41.4	-42.7	28.2	3.02e+01	92	42	0	687865856	56	6607
2026-01-21 02:49:22.03	305.66	39.65	-40.9	-42.1	28.7	3.02e+01	92	42	0	695205888	56	6204
2026-01-21 02:49:26.07	307.14	38.75	-40.9	-42.2	28.6	3.02e+01	90	42	0	703070208	56	6232
2026-01-21 02:49:30.11	308.54	37.86	-40.8	-42.1	28.8	3.02e+01	91	42	0	710410240	56	6140
2026-01-21 02:49:34.14	309.86	36.97	-40.1	-41.4	29.0	3.02e+01	92	42	0	718274560	56	5670
2026-01-21 02:49:38.18	311.11	36.10	-39.2	-40.4	29.7	3.02e+01	92	42	0	725614592	52	6382
2026-01-21 02:49:42.22	312.29	35.23	-39.0	-40.2	29.9	3.02e+01	92	41	0	732954624	52	6213
2026-01-21 02:49:46.26	313.42	34.38	-38.9	-40.1	30.0	3.02e+01	58	42	0	740818944	52	6160
2026-01-21 02:49:50.29	314.48	33.54	-39.0	-40.1	30.4	3.02e+01	48	42	0	748158976	52	6197
2026-01-21 02:49:54.33	315.50	32.71	-38.1	-39.3	30.5	3.02e+01	61	41	0	756023296	52	5622
2026-01-21 02:49:58.37	316.46	31.90	-38.8	-39.9	30.3	3.02e+01	48	42	0	763363328	52	6041
2026-01-21 02:50:02.40	317.37	31.11	-38.5	-39.7	30.5	3.02e+01	59	41	0	771227648	52	5874
2026-01-21 02:50:06.44	318.25	30.33	-39.0	-40.2	29.6	3.02e+01	53	42	0	778567680	52	6214
2026-01-21 02:50:10.47	319.08	29.57	-38.8	-40.0	30.0	3.02e+01	60	41	0	785907712	52	6073
2026-01-21 02:50:14.51	319.87	28.82	-38.4	-39.6	30.2	3.02e+01	51	41	0	793772032	52	5808
2026-01-21 02:50:18.55	320.63	28.08	-38.1	-39.2	30.2	3.02e+01	59	42	0	801112064	52	5580
2026-01-21 02:50:22.59	321.35	27.37	-39.0	-40.2	30.0	3.02e+01	50	41	0	808976384	52	6231
2026-01-21 02:50:26.62	322.04	26.67	-39.4	-40.6	29.7	3.02e+01	60	41	0	816316416	54	5831
2026-01-21 02:50:30.66	322.70	25.98	-38.9	-40.2	29.5	3.02e+01	49	41	0	824180736	52	6206
2026-01-21 02:50:34.70	323.33	25.31	-41.1	-42.4	26.8	3.02e+01	59	41	0	831520768	54	7126
2026-01-21 02:50:38.74	323.94	24.65	-39.8	-41.0	29.5	3.02e+01	47	41	0	839385088	54	6128
2026-01-21 02:50:42.77	324.52	24.01	-40.0	-41.2	29.5	3.02e+01	61	41	0	846725120	54	6237
2026-01-21 02:50:46.81	325.08	23.39	-39.9	-41.1	29.3	3.02e+01	57	41	0	854065152	54	6187
2026-01-21 02:50:50.85	325.62	22.77	-40.4	-41.6	29.1	3.02e+01	57	41	0	861929472	54	6533
2026-01-21 02:50:54.89	326.13	22.17	-38.9	-40.1	29.7	3.02e+01	59	41	0	869269504	52	6194
2026-01-21 02:50:58.92	326.63	21.58	-39.8	-41.0	29.2	3.02e+01	59	41	0	877133824	54	6069
2026-01-21 02:51:02.96	327.11	21.01	-39.3	-40.5	29.8	3.02e+01	59	41	0	884473856	54	5754
2026-01-21 02:51:07.00	327.57	20.45	-39.5	-40.6	29.8	3.02e+01	59	41	0	892338176	54	5851
2026-01-21 02:51:11.04	328.01	19.90	-38.5	-39.7	29.7	3.02e+01	59	41	0	899678208	52	5870
2026-01-21 02:51:15.08	328.44	19.36	-39.4	-40.6	29.5	3.02e+01	62	41	0	907018240	54	5794
2026-01-21 02:51:19.12	328.85	18.83	-39.1	-40.3	29.7	3.02e+01	58	41	0	914882560	54	5607
2026-01-21 02:51:23.16	329.25	18.31	-40.7	-41.9	29.2	3.02e+01	57	41	0	922222592	56	6047
2026-01-21 02:51:27.19	329.64	17.81	-40.8	-42.1	29.0	3.02e+01	54	41	0	930086912	56	6173
2026-01-21 02:51:31.22	330.01	17.31	-41.0	-42.2	28.7	3.02e+01	59	41	0	937426944	56	6266
2026-01-21 02:51:35.26	330.37	16.82	-40.1	-41.4	29.3	3.02e+01	59	41	0	945291264	54	6357
2026-01-21 02:51:39.30	330.72	16.35	-42.1	-43.4	27.7	3.02e+01	61	41	0	952631296	60	5676
2026-01-21 02:51:43.34	331.06	15.88	-39.7	-40.9	29.5	3.02e+01	61	41	0	960495616	54	6046
2026-01-21 02:51:47.37	331.39	15.42	-39.4	-40.6	29.4	3.02e+01	61	41	0	967835648	52	6554
2026-01-21 02:51:51.41	331.71	14.97	-39.8	-41.0	28.6	3.02e+01	58	41	0	975175680	52	6878
2026-01-21 02:51:55.45	332.02	14.53	-39.8	-41.0	29.2	3.02e+01	46	41	0	983040000	54	6130
2026-01-21 02:51:59.49	332.32	14.10	-39.2	-40.4	29.5	3.02e+01	58	41	0	990380032	54	5668
2026-01-21 02:52:03.53	332.61	13.67	-39.7	-40.9	29.4	3.02e+01	45	41	0	998244352	54	6006
2026-01-21 02:52:07.56	332.89	13.25	-40.0	-41.2	29.2	3.02e+01	61	41	0	1005584384	54	6267
2026-01-21 02:52:11.59	333.17	12.84	-40.2	-41.4	29.0	3.02e+01	58	41	0	1013448704	58	5049
2026-01-21 02:52:15.63	333.43	12.44	-41.2	-42.5	28.7	3.02e+01	58	41	0	1020788736	56	6429
2026-01-21 02:52:19.67	333.70	12.04	-40.6	-41.8	28.8	3.02e+01	44	41	0	1028128768	56	5991
2026-01-21 02:52:23.71	333.95	11.65	-40.3	-41.6	28.9	3.02e+01	59	41	0	1035993088	56	5805
2026-01-21 02:52:27.75	334.20	11.27	-40.6	-41.9	28.4	3.02e+01	56	41	0	1043333120	56	6005
2026-01-21 02:52:31.78	334.44	10.89	-40.0	-41.3	28.1	3.02e+01	60	41	0	1051197440	54	6305
2026-01-21 02:52:35.82	334.67	10.52	-40.2	-41.5	28.4	3.02e+01	54	41	0	1058537472	56	5760
2026-01-21 02:52:39.86	334.90	10.15	-41.7	-43.1	27.0	3.02e+01	60	41	0	1066401792	56	6912
2026-01-21 02:52:43.90	335.13	9.79	-41.2	-42.4	28.3	3.02e+01	48	41	0	1073741824	56	6422
2026-01-21 02:52:47.93	335.34	9.44	-42.3	-43.7	26.9	3.02e+01	60	41	0	1081606144	60	5861
2026-01-21 02:52:51.97	335.56	9.09	-42.8	-44.3	26.0	3.02e+01	47	41	0	1088946176	60	6278
2026-01-21 02:52:56.01	335.76	8.74	-41.6	-43.0	27.0	3.02e+01	57	41	0	1096286208	58	6073
2026-01-21 02:53:00.04	335.97	8.40	-40.8	-42.2	27.2	3.02e+01	46	41	0	1104150528	56	6222
2026-01-21 02:53:04.08	336.17	8.07	-41.1	-42.4	27.7	3.02e+01	58	41	0	1111490560	56	6373
2026-01-21 02:53:08.12	336.36	7.74	-40.7	-42.0	27.4	3.02e+01	46	41	0	1119354880	56	6091
2026-01-21 02:53:12.16	336.55	7.41	-40.8	-42.0	27.7	3.02e+01	58	41	0	1126694912	56	6133
2026-01-21 02:53:16.20	336.74	7.09	-42.3	-43.7	27.0	3.02e+01	59	41	0	1134559232	60	5884
2026-01-21 02:53:20.23	336.92	6.78	-41.3	-42.6	27.2	3.02e+01	59	41	0	1141899264	56	6570
2026-01-21 02:53:24.27	337.10	6.46	-42.1	-43.5	25.5	3.02e+01	61	41	0	1149239296	60	5753
2026-01-21 02:53:28.31	337.27	6.15	-42.3	-43.8	26.1	3.02e+01	60	41	0	1157103616	58	6656
2026-01-21 02:53:32.35	337.44	5.85	-43.1	-44.7	25.1	3.02e+01	61	41	0	1164443648	60	6578
2026-01-21 02:53:36.38	337.61	5.55	-43.1	-44.6	25.4	3.02e+01	60	41	0	1172307968	60	6525
2026-01-21 02:53:40.42	337.77	5.25	-45.1	-47.0	22.7	3.02e+01	59	41	0	1179648000	60	8608
2026-01-21 02:53:44.46	337.94	4.96	-45.8	-48.0	21.1	3.02e+01	59	41	0	1187512320	60	9644
2026-01-21 02:53:48.50	338.09	4.67	-46.7	-49.5	19.0	3.02e+01	60	41	0	1194852352	60	11527
2026-01-21 02:53:52.53	338.25	4.38	-47.5	-52.3	14.7	3.02e+01	61	41	0	1202716672	60	15771
2026-01-21 02:53:56.57	338.40	4.10	-49.8	-58.5	8.4	3.02e+01	58	41	0	1210056704	60	32396
2026-01-21 02:54:00.61	338.55	3.81	-49.9	-62.3	5.8	3.02e+01	9	41	104	1215823872	60	50041
2026-01-21 02:54:04.65	338.70	3.54	-49.5	-65.2	3.5	3.02e+01	0	41	104	1215823872	60	69868
2026-01-21 02:54:08.69	338.84	3.26	-49.0	-66.2	3.5	3.02e+01	0	41	104	1215823872	60	78859
2026-01-21 02:54:12.73	338.98	2.99	-49.4	-67.3	3.5	3.02e+01	0	41	104	1215823872	60	89680
2026-01-21 02:54:16.76	339.12	2.72	-53.8	-71.8	3.5	3.02e+01	0	41	104	1215823872	60	149467
2026-01-21 02:54:20.80	339.26	2.45	-53.4	-71.4	3.5	3.02e+01	0	41	104	1215823872	60	142472
2026-01-21 02:54:24.84	339.39	2.19	-54.1	-72.2	3.5	3.02e+01	0	41	104	1215823872	60	156571
2026-01-21 02:54:28.88	339.53	1.93	-54.6	-72.7	3.6	3.02e+01	0	41	104	1215823872	60	166228
2026-01-21 02:54:32.91	339.65	1.67	-53.5	-71.5	3.5	3.02e+01	0	41	104	1215823872	60	144820
2026-01-21 02:54:36.95	339.78	1.41	-54.0	-71.8	3.5	3.02e+01	0	41	104	1215823872	60	150385
2026-01-21 02:54:40.99	339.91	1.16	-53.4	-71.2	3.5	3.02e+01	0	41	104	1215823872	60	139467
2026-01-21 02:54:45.03	340.03	0.91	-53.5	-71.4	3.5	3.02e+01	0	41	104	1215823872	60	142544
2026-01-21 02:54:49.07	340.15	0.66	-54.0	-71.9	3.5	3.02e+01	0	41	104	1215823872	60	150908
2026-01-21 02:54:53.11	340.28	0.41	-53.6	-71.5	3.5	3.02e+01	0	41	104	1215823872	60	143819
2026-01-21 02:54:57.14	340.39	0.17	-54.1	-71.9	3.5	3.02e+01	0	41	104	1215823872	60	152069

#Closed at: 2026-01-21 02:55:00
#Recorded file [1215 MB]: D:/lorett/data/35029_260121_144218.dat