passes_logs/2026/01/21/R4.6S_Anadyr/R4.6S_Anadyr__20260121_022822_SUOMI_NPP_rec.log

#Pass ID: 20260121_022822_SUOMI NPP
#Satellite: SUOMI NPP
#Configuration: NPP
#almurnet v.1.7.20251203
#Start time: 2026-01-21 02:28:23

#Version: 2.2.20231116
#Station: R4.6S_Anadyr
#Location: 177.4865 lon 64.73178 lat
#TLE: 1 37849U 11061A   26020.31993517  .00000142  00000+0  88240-4 0  9990
#TLE: 2 37849  98.7818 322.3228 0002330  54.3778 305.7615 14.19527005737466

#Time	Az	El	Level	Level2	SNR	BER	BlckErr	Temp	State	Recorded	gain1	gain2
2026-01-21 02:28:23.10	213.15	0.04	-52.0	-63.7	3.5	8.46e-01	0	38	0	0	60	55313
2026-01-21 02:28:27.14	213.43	0.25	-54.0	-69.2	3.6	1.51e+00	0	40	104	0	60	104603
2026-01-21 02:28:31.18	213.71	0.46	-53.8	-69.0	3.6	1.51e+00	0	40	104	0	60	101504
2026-01-21 02:28:35.22	213.99	0.66	-54.4	-69.7	3.6	1.51e+00	0	40	104	0	60	110054
2026-01-21 02:28:39.26	214.28	0.87	-52.6	-67.9	3.6	1.51e+00	0	40	104	0	60	90022
2026-01-21 02:28:43.30	214.57	1.08	-52.9	-68.2	3.6	1.51e+00	0	40	104	0	60	92698
2026-01-21 02:28:47.34	214.87	1.30	-51.0	-66.1	3.6	1.51e+00	0	40	104	0	60	73211
2026-01-21 02:28:51.38	215.17	1.51	-50.0	-65.2	3.6	1.51e+00	0	40	104	0	60	66052
2026-01-21 02:28:55.42	215.47	1.72	-49.9	-65.0	3.6	1.51e+00	0	40	104	0	60	64573
2026-01-21 02:28:59.46	215.78	1.94	-50.7	-65.8	3.6	1.51e+00	0	40	104	0	60	70818
2026-01-21 02:29:03.50	216.09	2.15	-50.3	-65.4	3.6	1.51e+00	0	40	104	0	60	67659
2026-01-21 02:29:07.54	216.41	2.37	-50.1	-64.9	3.6	1.51e+00	0	40	104	0	60	63788
2026-01-21 02:29:11.58	216.73	2.58	-50.2	-64.3	3.5	1.51e+00	0	40	104	0	60	59550
2026-01-21 02:29:15.62	217.06	2.80	-50.2	-64.1	3.6	1.51e+00	0	40	104	0	60	58044
2026-01-21 02:29:19.66	217.39	3.02	-48.6	-53.2	11.6	1.12e-04	92	41	0	4194304	60	16473
2026-01-21 02:29:23.70	217.72	3.24	-48.2	-52.9	10.1	1.99e-04	90	41	0	9437184	60	15914
2026-01-21 02:29:27.74	218.06	3.46	-44.7	-46.3	19.0	0.00e+00	0	40	0	12582912	60	7437
2026-01-21 02:29:31.78	218.41	3.69	-45.1	-46.8	18.4	0.00e+00	0	41	0	19922944	60	7921
2026-01-21 02:29:35.82	218.76	3.91	-45.0	-46.6	19.0	0.00e+00	92	41	0	28311552	60	7724
2026-01-21 02:29:39.86	219.11	4.13	-46.0	-47.7	18.3	0.00e+00	92	40	0	35651584	60	8747
2026-01-21 02:29:43.90	219.47	4.36	-45.3	-46.9	18.8	0.00e+00	0	41	0	42991616	60	8042
2026-01-21 02:29:47.94	219.84	4.58	-46.4	-48.1	18.7	0.00e+00	92	41	0	50331648	60	9159
2026-01-21 02:29:51.98	220.21	4.81	-45.3	-46.9	18.9	0.00e+00	92	41	0	58720256	60	8026
2026-01-21 02:29:56.02	220.59	5.04	-44.7	-46.3	18.8	0.00e+00	90	41	0	66060288	60	7480
2026-01-21 02:30:00.07	220.97	5.27	-44.5	-46.1	18.9	0.00e+00	0	41	0	73400320	60	7297
2026-01-21 02:30:04.11	221.36	5.50	-44.4	-45.9	19.2	0.00e+00	84	41	0	80740352	60	7120
2026-01-21 02:30:08.14	221.75	5.73	-43.9	-45.4	19.2	0.00e+00	92	41	0	88080384	60	6745
2026-01-21 02:30:12.18	222.15	5.96	-43.8	-45.3	19.5	0.00e+00	0	41	0	96468992	60	6650
2026-01-21 02:30:16.22	222.56	6.19	-44.8	-46.4	19.0	0.00e+00	65	41	0	103809024	60	7525
2026-01-21 02:30:20.26	222.97	6.42	-44.6	-46.2	18.9	0.00e+00	92	41	0	111149056	60	7343
2026-01-21 02:30:24.30	223.39	6.66	-45.1	-46.8	18.5	0.00e+00	92	41	0	118489088	60	7888
2026-01-21 02:30:28.33	223.82	6.89	-45.2	-47.0	18.2	0.00e+00	0	41	0	126877696	60	8088
2026-01-21 02:30:32.37	224.25	7.13	-45.5	-47.3	18.3	0.00e+00	92	41	0	134217728	60	8354
2026-01-21 02:30:36.41	224.69	7.37	-45.5	-47.2	18.5	0.00e+00	90	41	0	141557760	60	8289
2026-01-21 02:30:40.45	225.13	7.60	-45.8	-47.7	17.9	0.00e+00	91	41	0	148897792	60	8758
2026-01-21 02:30:44.48	225.58	7.84	-46.5	-48.2	18.3	0.00e+00	0	41	0	156237824	60	9302
2026-01-21 02:30:48.52	226.04	8.08	-45.7	-47.3	18.5	0.00e+00	92	41	0	164626432	60	8336
2026-01-21 02:30:52.56	226.51	8.32	-45.9	-47.4	19.0	0.00e+00	92	41	0	171966464	60	8499
2026-01-21 02:30:56.60	226.99	8.56	-46.2	-47.8	18.8	0.00e+00	0	41	0	179306496	60	8852
2026-01-21 02:31:00.64	227.47	8.80	-46.2	-47.7	19.0	0.00e+00	0	41	0	186646528	60	8777
2026-01-21 02:31:04.68	227.96	9.04	-46.7	-48.4	18.7	0.00e+00	92	41	0	195035136	60	9492
2026-01-21 02:31:08.72	228.46	9.29	-45.8	-47.6	18.0	0.00e+00	92	41	0	202375168	60	8628
2026-01-21 02:31:12.76	228.96	9.53	-47.6	-49.5	17.8	0.00e+00	0	41	0	209715200	60	10791
2026-01-21 02:31:16.80	229.48	9.77	-46.7	-48.4	18.1	0.00e+00	1	41	0	217055232	60	9492
2026-01-21 02:31:20.84	230.00	10.01	-46.7	-48.3	18.6	0.00e+00	56	41	0	224395264	60	9405
2026-01-21 02:31:24.88	230.53	10.26	-46.6	-48.2	19.1	0.00e+00	92	41	0	232783872	60	9316
2026-01-21 02:31:28.92	231.07	10.50	-46.2	-47.8	18.7	0.00e+00	0	41	0	240123904	60	8922
2026-01-21 02:31:32.96	231.62	10.75	-46.3	-48.1	18.1	0.00e+00	92	41	0	247463936	60	9164
2026-01-21 02:31:37.00	232.18	10.99	-45.7	-47.1	19.3	0.00e+00	90	41	0	254803968	60	8227
2026-01-21 02:31:41.03	232.74	11.23	-46.1	-47.7	18.8	0.00e+00	0	41	0	263192576	60	8772
2026-01-21 02:31:45.07	233.32	11.48	-46.1	-47.7	19.1	0.00e+00	0	41	0	270532608	60	8748
2026-01-21 02:31:49.10	233.90	11.72	-45.2	-46.7	19.3	0.00e+00	90	41	0	277872640	60	7849
2026-01-21 02:31:53.14	234.49	11.96	-45.6	-47.0	20.0	0.00e+00	91	41	0	285212672	60	8072
2026-01-21 02:31:57.18	235.10	12.21	-45.5	-46.9	19.9	0.00e+00	31	41	0	292552704	60	8026
2026-01-21 02:32:01.22	235.71	12.45	-44.5	-45.8	20.4	0.00e+00	92	41	0	300941312	60	7012
2026-01-21 02:32:05.26	236.33	12.69	-44.7	-45.8	21.0	0.00e+00	91	41	0	308281344	60	7084
2026-01-21 02:32:09.29	236.97	12.93	-44.3	-45.4	21.5	0.00e+00	92	41	0	315621376	60	6711
2026-01-21 02:32:13.33	237.61	13.17	-43.6	-44.7	21.5	0.00e+00	0	41	0	322961408	60	6242
2026-01-21 02:32:17.36	238.26	13.41	-42.7	-43.8	21.6	0.00e+00	90	41	0	331350016	58	6282
2026-01-21 02:32:21.41	238.93	13.65	-42.0	-43.1	21.7	0.00e+00	90	41	0	338690048	58	5792
2026-01-21 02:32:25.45	239.60	13.89	-42.3	-43.4	21.7	0.00e+00	54	41	0	346030080	58	5994
2026-01-21 02:32:29.49	240.28	14.12	-43.3	-44.4	21.5	0.00e+00	0	41	0	353370112	58	6724
2026-01-21 02:32:33.52	240.98	14.36	-42.5	-43.5	22.2	0.00e+00	92	41	0	360710144	58	6070
2026-01-21 02:32:37.56	241.68	14.59	-42.4	-43.4	22.2	0.00e+00	86	41	0	369098752	58	5999
2026-01-21 02:32:41.60	242.40	14.82	-41.6	-42.6	22.5	0.00e+00	0	41	0	376438784	56	6153
2026-01-21 02:32:45.63	243.13	15.05	-41.5	-42.5	22.9	0.00e+00	0	41	0	383778816	56	6065
2026-01-21 02:32:49.67	243.86	15.28	-41.9	-42.8	23.0	0.00e+00	92	41	0	391118848	56	6294
2026-01-21 02:32:53.71	244.61	15.50	-41.8	-42.7	22.7	0.00e+00	92	41	0	399507456	56	6228
2026-01-21 02:32:57.75	245.37	15.72	-41.9	-42.9	22.9	0.00e+00	0	41	0	406847488	56	6360
2026-01-21 02:33:01.78	246.14	15.94	-41.5	-42.5	22.8	0.00e+00	56	41	0	414187520	56	6067
2026-01-21 02:33:05.82	246.92	16.16	-41.8	-42.8	22.5	0.00e+00	85	41	0	421527552	56	6299
2026-01-21 02:33:09.86	247.72	16.37	-43.3	-44.4	22.1	0.00e+00	92	41	0	428867584	58	6712
2026-01-21 02:33:13.89	248.52	16.58	-42.5	-43.5	22.6	0.00e+00	0	41	0	437256192	58	6060
2026-01-21 02:33:17.93	249.33	16.78	-43.1	-44.2	22.2	0.00e+00	92	41	0	444596224	58	6559
2026-01-21 02:33:21.97	250.16	16.99	-43.3	-44.3	22.0	0.00e+00	91	41	0	451936256	58	6686
2026-01-21 02:33:26.01	250.99	17.18	-43.9	-45.0	21.9	0.00e+00	0	41	0	459276288	60	6407
2026-01-21 02:33:30.04	251.84	17.38	-44.0	-45.1	21.8	0.00e+00	0	41	0	467664896	60	6506
2026-01-21 02:33:34.08	252.69	17.57	-43.6	-44.8	21.4	0.00e+00	78	41	0	475004928	60	6263
2026-01-21 02:33:38.12	253.56	17.75	-45.0	-46.2	21.2	0.00e+00	92	41	0	482344960	60	7380
2026-01-21 02:33:42.16	254.44	17.93	-44.7	-46.0	20.9	0.00e+00	0	41	0	489684992	60	7192
2026-01-21 02:33:46.19	255.32	18.10	-43.8	-44.9	21.8	0.00e+00	2	41	0	497025024	60	6329
2026-01-21 02:33:50.23	256.22	18.27	-44.1	-45.2	21.7	0.00e+00	80	41	0	505413632	60	6545
2026-01-21 02:33:54.27	257.13	18.43	-42.9	-43.9	22.1	0.00e+00	92	42	0	512753664	60	5678
2026-01-21 02:33:58.30	258.04	18.59	-42.8	-43.8	21.5	0.00e+00	0	41	0	520093696	58	6308
2026-01-21 02:34:02.34	258.96	18.74	-43.0	-43.9	22.2	0.00e+00	67	42	0	527433728	58	6361
2026-01-21 02:34:06.38	259.90	18.88	-43.0	-44.0	22.6	0.00e+00	78	41	0	535822336	60	5717
2026-01-21 02:34:10.41	260.84	19.02	-42.3	-43.2	22.7	0.00e+00	0	42	0	543162368	58	5869
2026-01-21 02:34:14.45	261.79	19.15	-42.6	-43.6	23.1	0.00e+00	33	42	0	550502400	58	6121
2026-01-21 02:34:18.49	262.74	19.27	-41.8	-42.6	23.6	0.00e+00	92	42	0	557842432	56	6157
2026-01-21 02:34:22.53	263.71	19.39	-41.7	-42.6	23.1	0.00e+00	92	42	0	565182464	56	6128
2026-01-21 02:34:26.57	264.68	19.50	-41.1	-42.0	23.3	0.00e+00	0	42	0	573571072	56	5715
2026-01-21 02:34:30.61	265.66	19.60	-43.1	-44.0	23.0	0.00e+00	0	42	0	580911104	60	5743
2026-01-21 02:34:34.65	266.64	19.69	-42.4	-43.3	22.8	0.00e+00	85	42	0	588251136	58	5937
2026-01-21 02:34:38.68	267.63	19.77	-42.2	-43.2	22.8	0.00e+00	92	42	0	595591168	58	5856
2026-01-21 02:34:42.72	268.62	19.85	-41.1	-42.1	23.1	0.00e+00	0	42	0	602931200	56	5767
2026-01-21 02:34:46.76	269.62	19.92	-42.3	-43.3	22.6	0.00e+00	0	41	0	611319808	58	5938
2026-01-21 02:34:50.80	270.62	19.98	-42.3	-43.3	22.1	0.00e+00	91	42	0	618659840	58	5947
2026-01-21 02:34:54.83	271.63	20.03	-41.7	-42.7	22.8	0.00e+00	14	42	0	625999872	56	6191
2026-01-21 02:34:58.87	272.64	20.07	-41.6	-42.6	22.9	0.00e+00	0	42	0	633339904	56	6132
2026-01-21 02:35:02.91	273.65	20.11	-41.4	-42.3	22.9	0.00e+00	92	42	0	641728512	56	5914
2026-01-21 02:35:06.94	274.66	20.13	-42.6	-43.6	22.0	0.00e+00	92	42	0	649068544	56	6907
2026-01-21 02:35:10.98	275.67	20.15	-42.5	-43.6	21.9	0.00e+00	0	42	0	656408576	58	6128
2026-01-21 02:35:15.02	276.69	20.15	-42.8	-43.9	21.8	0.00e+00	0	42	0	663748608	58	6322
2026-01-21 02:35:19.06	277.70	20.15	-43.5	-44.6	21.7	0.00e+00	90	42	0	671088640	60	6167
2026-01-21 02:35:23.10	278.72	20.14	-44.0	-45.2	21.3	0.00e+00	70	42	0	679477248	60	6583
2026-01-21 02:35:27.13	279.73	20.12	-43.5	-44.6	21.1	0.00e+00	0	42	0	686817280	60	6172
2026-01-21 02:35:31.17	280.74	20.10	-42.7	-43.7	22.1	0.00e+00	25	42	0	694157312	58	6217
2026-01-21 02:35:35.21	281.75	20.06	-43.2	-44.3	21.6	0.00e+00	90	42	0	701497344	58	6616
2026-01-21 02:35:39.25	282.76	20.01	-43.7	-44.9	21.4	0.00e+00	83	42	0	709885952	60	6345
2026-01-21 02:35:43.28	283.76	19.96	-43.1	-44.1	21.7	0.00e+00	0	42	0	717225984	60	5821
2026-01-21 02:35:47.32	284.76	19.90	-43.5	-44.5	22.1	0.00e+00	91	42	0	724566016	60	6103
2026-01-21 02:35:51.36	285.76	19.83	-44.9	-46.1	20.9	0.00e+00	92	42	0	731906048	60	7277
2026-01-21 02:35:55.40	286.75	19.75	-43.4	-44.4	22.3	0.00e+00	0	42	0	739246080	60	6011
2026-01-21 02:35:59.43	287.73	19.66	-44.8	-45.8	22.0	0.00e+00	0	42	0	747634688	60	7067
2026-01-21 02:36:03.47	288.71	19.57	-43.4	-44.4	22.6	0.00e+00	79	42	0	754974720	60	6001
2026-01-21 02:36:07.51	289.68	19.46	-44.2	-45.2	21.8	0.00e+00	87	42	0	762314752	60	6604
2026-01-21 02:36:11.55	290.65	19.35	-44.0	-45.0	22.6	0.00e+00	0	42	0	769654784	60	6411
2026-01-21 02:36:15.59	291.61	19.23	-43.8	-44.9	21.5	0.00e+00	0	42	0	778043392	60	6350
2026-01-21 02:36:19.62	292.56	19.11	-43.0	-44.1	22.3	0.00e+00	0	42	0	785383424	58	6497
2026-01-21 02:36:23.65	293.50	18.98	-42.7	-43.7	23.0	0.00e+00	90	42	0	792723456	58	6208
2026-01-21 02:36:27.69	294.44	18.84	-42.7	-43.7	22.7	0.00e+00	31	42	0	800063488	58	6198
2026-01-21 02:36:31.72	295.36	18.70	-42.6	-43.6	23.0	0.00e+00	0	42	0	807403520	58	6116
2026-01-21 02:36:35.76	296.28	18.54	-43.0	-44.0	22.8	0.00e+00	71	42	0	815792128	58	6394
2026-01-21 02:36:39.80	297.19	18.39	-41.4	-42.3	23.3	0.00e+00	0	42	0	823132160	56	5923
2026-01-21 02:36:43.83	298.09	18.22	-41.5	-42.4	23.3	0.00e+00	0	42	0	830472192	54	6745
2026-01-21 02:36:47.87	298.98	18.05	-41.8	-42.7	23.0	0.00e+00	92	42	0	837812224	56	6244
2026-01-21 02:36:51.91	299.86	17.88	-43.0	-43.9	22.7	0.00e+00	92	42	0	846200832	58	6389
2026-01-21 02:36:55.95	300.73	17.70	-43.3	-44.3	21.9	0.00e+00	0	42	0	853540864	58	6690
2026-01-21 02:36:59.99	301.59	17.52	-42.7	-43.7	22.7	0.00e+00	0	41	0	860880896	58	6214
2026-01-21 02:37:04.02	302.44	17.33	-43.3	-44.3	22.7	0.00e+00	0	41	0	868220928	60	5924
2026-01-21 02:37:08.06	303.28	17.13	-44.2	-45.4	21.6	0.00e+00	92	41	0	875560960	60	6713
2026-01-21 02:37:12.10	304.11	16.94	-44.0	-45.1	21.7	0.00e+00	0	42	0	883949568	60	6508
2026-01-21 02:37:16.13	304.93	16.74	-43.1	-44.1	22.8	0.00e+00	1	41	0	891289600	60	5812
2026-01-21 02:37:20.17	305.73	16.53	-42.4	-43.4	22.8	0.00e+00	92	41	0	898629632	58	5990
2026-01-21 02:37:24.21	306.53	16.32	-42.6	-43.6	22.3	0.00e+00	0	41	0	905969664	58	6148
2026-01-21 02:37:28.25	307.32	16.11	-45.0	-46.2	21.0	0.00e+00	0	41	0	913309696	60	7369
2026-01-21 02:37:32.28	308.09	15.89	-44.3	-45.5	21.3	0.00e+00	92	41	0	921698304	60	6815
2026-01-21 02:37:36.32	308.86	15.68	-43.1	-44.2	22.2	0.00e+00	88	41	0	929038336	60	5840
2026-01-21 02:37:40.36	309.61	15.46	-42.8	-43.8	22.3	0.00e+00	0	41	0	936378368	58	6262
2026-01-21 02:37:44.40	310.35	15.23	-43.7	-44.9	21.5	0.00e+00	0	41	0	943718400	60	6331
2026-01-21 02:37:48.43	311.08	15.01	-43.7	-44.9	21.3	0.00e+00	35	41	0	952107008	60	6368
2026-01-21 02:37:52.47	311.80	14.78	-43.7	-44.8	21.8	0.00e+00	89	41	0	959447040	60	6296
2026-01-21 02:37:56.50	312.51	14.55	-43.6	-44.7	21.7	0.00e+00	0	41	0	966787072	60	6196
2026-01-21 02:38:00.54	313.21	14.32	-42.8	-43.8	22.6	0.00e+00	0	41	0	974127104	58	6297
2026-01-21 02:38:04.58	313.90	14.09	-44.0	-45.2	21.3	0.00e+00	77	41	0	981467136	60	6563
2026-01-21 02:38:08.61	314.58	13.85	-43.6	-44.7	22.1	0.00e+00	0	41	0	989855744	60	6222
2026-01-21 02:38:12.65	315.24	13.62	-43.3	-44.4	22.2	0.00e+00	0	41	0	997195776	60	5982
2026-01-21 02:38:16.69	315.90	13.38	-44.3	-45.4	21.8	0.00e+00	75	41	0	1004535808	60	6754
2026-01-21 02:38:20.73	316.55	13.14	-44.2	-45.3	22.0	0.00e+00	38	41	0	1011875840	60	6637
2026-01-21 02:38:24.77	317.19	12.90	-44.2	-45.2	21.8	0.00e+00	0	41	0	1020264448	60	6615
2026-01-21 02:38:28.80	317.81	12.66	-43.9	-44.9	22.2	0.00e+00	0	41	0	1027604480	60	6325
2026-01-21 02:38:32.84	318.43	12.42	-42.6	-43.5	22.9	0.00e+00	92	41	0	1034944512	58	6055
2026-01-21 02:38:36.88	319.04	12.18	-42.3	-43.3	22.7	0.00e+00	85	41	0	1042284544	56	6625
2026-01-21 02:38:40.91	319.64	11.94	-43.2	-44.3	22.1	0.00e+00	0	41	0	1049624576	58	6620
2026-01-21 02:38:44.95	320.23	11.70	-42.9	-44.0	22.3	0.00e+00	0	41	0	1058013184	58	6399
2026-01-21 02:38:48.98	320.81	11.46	-42.2	-43.3	22.1	0.00e+00	88	41	0	1065353216	58	5911
2026-01-21 02:38:53.02	321.38	11.22	-44.1	-45.4	20.9	0.00e+00	0	41	0	1072693248	60	6697
2026-01-21 02:38:57.05	321.94	10.98	-43.1	-44.1	22.5	0.00e+00	0	41	0	1080033280	60	5768
2026-01-21 02:39:01.09	322.49	10.74	-44.5	-45.7	21.1	0.00e+00	0	41	0	1087373312	60	6988
2026-01-21 02:39:05.12	323.03	10.49	-43.9	-45.2	21.0	0.00e+00	90	41	0	1095761920	60	6556
2026-01-21 02:39:09.15	323.57	10.25	-44.0	-45.3	20.7	0.00e+00	0	41	0	1103101952	60	6690
2026-01-21 02:39:13.19	324.09	10.01	-43.3	-44.5	21.3	0.00e+00	0	41	0	1110441984	60	6047
2026-01-21 02:39:17.23	324.61	9.77	-44.0	-45.2	20.9	0.00e+00	0	41	0	1117782016	60	6560
2026-01-21 02:39:21.27	325.12	9.53	-44.2	-45.4	20.9	0.00e+00	0	41	0	1126170624	60	6695
2026-01-21 02:39:25.30	325.63	9.29	-44.5	-45.7	21.0	0.00e+00	0	41	0	1133510656	60	6949
2026-01-21 02:39:29.33	326.12	9.05	-44.3	-45.5	20.9	0.00e+00	0	41	0	1140850688	60	6809
2026-01-21 02:39:33.37	326.61	8.81	-44.1	-45.3	20.9	0.00e+00	43	41	0	1148190720	60	6652
2026-01-21 02:39:37.41	327.09	8.57	-43.5	-44.6	21.6	0.00e+00	0	41	0	1155530752	60	6156
2026-01-21 02:39:41.45	327.56	8.34	-42.7	-43.8	21.5	0.00e+00	0	41	0	1163919360	58	6248
2026-01-21 02:39:45.49	328.02	8.10	-44.7	-46.0	20.6	0.00e+00	0	41	0	1171259392	60	7201
2026-01-21 02:39:49.53	328.48	7.86	-45.0	-46.3	19.9	0.00e+00	90	41	0	1178599424	60	7460
2026-01-21 02:39:53.57	328.93	7.63	-43.1	-44.2	21.3	0.00e+00	0	41	0	1185939456	60	5855
2026-01-21 02:39:57.60	329.37	7.39	-42.4	-43.5	21.2	0.00e+00	0	41	0	1193279488	58	6071
2026-01-21 02:40:01.64	329.81	7.16	-44.0	-45.3	20.2	0.00e+00	73	41	0	1201668096	60	6635
2026-01-21 02:40:05.68	330.24	6.92	-43.6	-44.9	20.5	0.00e+00	0	41	0	1209008128	60	6324
2026-01-21 02:40:09.72	330.66	6.69	-44.8	-46.2	19.7	0.00e+00	0	41	0	1216348160	60	7343
2026-01-21 02:40:13.76	331.08	6.46	-46.2	-47.8	19.0	0.00e+00	0	41	0	1223688192	60	8883
2026-01-21 02:40:17.79	331.49	6.23	-45.5	-47.1	19.1	0.00e+00	83	41	0	1232076800	60	8180
2026-01-21 02:40:21.83	331.90	6.00	-45.8	-47.6	18.1	0.00e+00	0	41	0	1239416832	60	8651
2026-01-21 02:40:25.87	332.30	5.77	-45.7	-47.5	17.8	0.00e+00	0	41	0	1246756864	60	8612
2026-01-21 02:40:29.91	332.69	5.54	-47.4	-49.6	16.5	0.00e+00	0	41	0	1254096896	60	10935
2026-01-21 02:40:33.95	333.08	5.31	-46.9	-49.6	15.0	0.00e+00	61	41	0	1261436928	60	10894
2026-01-21 02:40:37.98	333.46	5.09	-47.4	-52.5	9.7	4.98e-03	0	41	0	1269825536	60	15179
2026-01-21 02:40:42.02	333.83	4.86	-48.2	-57.4	4.5	4.42e-01	0	41	0	1277165568	60	26654
2026-01-21 02:40:46.05	334.20	4.64	-48.1	-61.1	3.7	1.50e+00	0	41	104	1279262720	60	40896
2026-01-21 02:40:50.09	334.57	4.42	-47.5	-61.3	3.6	1.51e+00	0	41	104	1279262720	60	41834
2026-01-21 02:40:54.13	334.93	4.19	-47.7	-62.8	3.6	1.51e+00	0	41	104	1279262720	60	49729
2026-01-21 02:40:58.16	335.28	3.97	-48.5	-63.2	3.6	1.51e+00	0	41	104	1279262720	60	52028
2026-01-21 02:41:02.20	335.63	3.75	-47.7	-62.9	3.6	1.51e+00	0	41	104	1279262720	60	50223
2026-01-21 02:41:06.24	335.98	3.53	-48.1	-63.2	3.6	1.51e+00	0	41	104	1279262720	60	52297
2026-01-21 02:41:10.28	336.32	3.31	-47.5	-62.6	3.6	1.51e+00	0	41	104	1279262720	60	48923
2026-01-21 02:41:14.32	336.65	3.09	-48.3	-63.4	3.6	1.51e+00	0	41	104	1279262720	60	53571
2026-01-21 02:41:18.36	336.98	2.88	-52.0	-67.2	3.6	1.51e+00	0	41	104	1279262720	60	82531
2026-01-21 02:41:22.40	337.31	2.66	-53.8	-69.0	3.6	1.51e+00	0	41	104	1279262720	60	101420
2026-01-21 02:41:26.44	337.63	2.45	-52.3	-67.5	3.6	1.51e+00	0	41	104	1279262720	60	85830
2026-01-21 02:41:30.47	337.95	2.23	-53.2	-68.6	3.6	1.51e+00	0	41	104	1279262720	60	97371
2026-01-21 02:41:34.51	338.26	2.02	-53.5	-68.9	3.6	1.51e+00	0	41	104	1279262720	60	100139
2026-01-21 02:41:38.55	338.57	1.81	-53.4	-68.6	3.6	1.51e+00	0	41	104	1279262720	60	97612
2026-01-21 02:41:42.59	338.88	1.60	-53.7	-68.9	3.6	1.51e+00	0	41	104	1279262720	60	100289
2026-01-21 02:41:46.63	339.18	1.39	-53.1	-68.3	3.5	1.51e+00	0	41	104	1279262720	60	93735
2026-01-21 02:41:50.67	339.47	1.18	-53.9	-69.1	3.5	1.51e+00	0	41	104	1279262720	60	103343
2026-01-21 02:41:54.71	339.77	0.97	-54.1	-69.4	3.6	1.51e+00	0	41	104	1279262720	60	106122
2026-01-21 02:41:58.75	340.06	0.76	-53.5	-68.7	3.6	1.51e+00	0	41	104	1279262720	60	98039
2026-01-21 02:42:02.79	340.34	0.56	-53.2	-68.4	3.6	1.51e+00	0	41	104	1279262720	60	95378
2026-01-21 02:42:06.83	340.63	0.35	-53.4	-68.5	3.6	1.51e+00	0	41	104	1279262720	60	96696
2026-01-21 02:42:10.87	340.90	0.15	-53.6	-68.8	3.6	1.51e+00	0	41	104	1279262720	60	99825

#Closed at: 2026-01-21 02:42:14
#Recorded file [1279 MB]: D:/lorett/data/35029_260121_142823.dat