passes_logs/2026/01/21/R4.6S_Anadyr/R4.6S_Anadyr__20260121_185035_FENGYUN_3D_rec.log

#Pass ID: 20260121_185035_FENGYUN 3D
#Satellite: FENGYUN 3D
#Configuration: FENGYUN 3D
#almurnet v.1.7.20251203
#Start time: 2026-01-21 18:50:36

#Version: 2.2.20231116
#Station: R4.6S_Anadyr
#Location: 177.4865 lon 64.73178 lat
#TLE: 1 43010U 17072A   26020.92362722 -.00000077  00000+0 -14488-4 0  9992
#TLE: 2 43010  98.9946 352.8312 0002486  99.3651 260.7806 14.19696535424099

#Time	Az	El	Level	Level2	SNR	BER	BlckErr	Temp	State	Recorded	gain1	gain2
2026-01-21 18:50:36.46	28.29	0.04	-51.5	-66.4	3.4	1.51e+00	0	38	0	0	60	75936
2026-01-21 18:50:40.50	28.10	0.26	-51.9	-64.0	3.6	8.45e-01	0	39	104	0	60	57314
2026-01-21 18:50:44.54	27.92	0.49	-51.5	-63.7	3.5	8.46e-01	0	40	104	0	60	55353
2026-01-21 18:50:48.58	27.73	0.72	-51.3	-63.4	3.6	8.46e-01	0	40	104	0	60	53371
2026-01-21 18:50:52.63	27.53	0.95	-51.0	-63.1	3.6	8.45e-01	0	40	104	0	60	51913
2026-01-21 18:50:56.67	27.33	1.18	-50.6	-62.7	3.6	8.45e-01	0	40	104	0	60	49210
2026-01-21 18:51:00.71	27.13	1.42	-49.8	-61.9	3.6	8.46e-01	0	40	104	0	60	44853
2026-01-21 18:51:04.75	26.93	1.65	-49.5	-61.6	3.6	8.47e-01	0	40	104	0	60	43367
2026-01-21 18:51:08.79	26.72	1.89	-49.5	-61.6	3.5	8.45e-01	0	40	104	0	60	43372
2026-01-21 18:51:12.83	26.51	2.13	-49.4	-61.1	3.6	8.46e-01	0	40	104	0	60	41033
2026-01-21 18:51:16.87	26.29	2.37	-49.4	-61.2	3.6	8.44e-01	0	40	104	0	60	41462
2026-01-21 18:51:20.91	26.07	2.61	-49.4	-61.5	3.6	8.45e-01	0	40	104	0	60	42839
2026-01-21 18:51:24.95	25.85	2.85	-49.4	-61.0	3.6	8.46e-01	0	40	104	0	60	40645
2026-01-21 18:51:28.99	25.62	3.10	-49.4	-60.9	3.6	8.44e-01	0	40	104	0	60	40145
2026-01-21 18:51:33.03	25.39	3.34	-49.2	-57.0	3.8	8.36e-01	0	40	0	0	60	25471
2026-01-21 18:51:37.07	25.16	3.59	-48.2	-53.7	5.7	3.87e-01	0	41	104	0	60	17531
2026-01-21 18:51:41.12	24.92	3.84	-38.8	-39.7	21.1	0.00e+00	0	40	0	7340032	52	5542
2026-01-21 18:51:45.16	24.67	4.09	-38.9	-39.8	21.0	0.00e+00	0	40	0	30408704	50	6274
2026-01-21 18:51:49.20	24.42	4.35	-38.9	-39.8	21.0	0.00e+00	0	40	0	53477376	50	6265
2026-01-21 18:51:53.24	24.17	4.60	-37.9	-38.7	22.3	0.00e+00	0	40	0	75497472	50	5558
2026-01-21 18:51:57.28	23.91	4.86	-37.1	-37.9	22.9	0.00e+00	0	41	0	98566144	48	5657
2026-01-21 18:52:01.32	23.65	5.12	-38.3	-39.1	21.7	0.00e+00	0	41	0	121634816	50	5781
2026-01-21 18:52:05.36	23.38	5.38	-38.2	-39.0	21.9	0.00e+00	0	41	0	143654912	48	6441
2026-01-21 18:52:09.40	23.11	5.65	-38.0	-38.8	22.3	0.00e+00	0	41	0	166723584	48	6282
2026-01-21 18:52:13.44	22.83	5.91	-38.1	-38.9	22.2	0.00e+00	0	41	0	189792256	48	6324
2026-01-21 18:52:17.49	22.55	6.18	-37.7	-38.5	22.5	0.00e+00	0	41	0	212860928	48	6072
2026-01-21 18:52:21.53	22.26	6.45	-37.3	-38.1	23.1	0.00e+00	0	41	0	234881024	48	5777
2026-01-21 18:52:25.57	21.96	6.72	-37.3	-38.0	23.1	0.00e+00	0	41	0	257949696	48	5759
2026-01-21 18:52:29.62	21.66	6.99	-36.7	-37.5	23.4	0.00e+00	0	41	0	279969792	46	6039
2026-01-21 18:52:33.66	21.35	7.27	-36.7	-37.4	23.7	0.00e+00	0	41	0	303038464	48	5334
2026-01-21 18:52:37.70	21.04	7.55	-37.6	-38.4	23.1	0.00e+00	0	41	0	326107136	48	5978
2026-01-21 18:52:41.74	20.72	7.83	-37.3	-38.1	23.0	0.00e+00	0	41	0	349175808	48	5800
2026-01-21 18:52:45.78	20.39	8.11	-37.5	-38.3	22.9	0.00e+00	0	41	0	371195904	48	5918
2026-01-21 18:52:49.83	20.06	8.40	-37.1	-37.8	23.3	0.00e+00	0	41	0	394264576	48	5609
2026-01-21 18:52:53.87	19.72	8.68	-37.1	-37.8	23.4	0.00e+00	0	41	0	417333248	46	6312
2026-01-21 18:52:57.90	19.37	8.97	-37.2	-37.9	23.4	0.00e+00	0	41	0	439353344	46	6358
2026-01-21 18:53:01.95	19.02	9.27	-37.1	-37.9	23.5	0.00e+00	0	41	0	462422016	46	6323
2026-01-21 18:53:05.99	18.66	9.56	-37.0	-37.7	23.7	0.00e+00	0	41	0	485490688	46	6212
2026-01-21 18:53:10.03	18.29	9.86	-36.6	-37.3	24.0	0.00e+00	0	41	0	507510784	46	5913
2026-01-21 18:53:14.08	17.91	10.15	-36.4	-37.1	24.2	0.00e+00	0	41	0	530579456	46	5819
2026-01-21 18:53:18.12	17.52	10.46	-36.2	-36.9	24.5	0.00e+00	0	41	0	553648128	46	5632
2026-01-21 18:53:22.16	17.13	10.76	-36.3	-36.9	24.4	0.00e+00	0	41	0	575668224	46	5694
2026-01-21 18:53:26.20	16.73	11.07	-36.2	-36.9	24.3	0.00e+00	0	41	0	598736896	46	5664
2026-01-21 18:53:30.24	16.32	11.37	-35.9	-36.6	24.7	0.00e+00	0	41	0	621805568	46	5461
2026-01-21 18:53:34.28	15.90	11.68	-36.0	-36.7	24.7	0.00e+00	0	41	0	644874240	46	5545
2026-01-21 18:53:38.32	15.47	12.00	-35.8	-36.5	24.9	0.00e+00	0	41	0	666894336	44	6043
2026-01-21 18:53:42.37	15.03	12.31	-35.7	-36.4	24.9	0.00e+00	0	41	0	689963008	44	5981
2026-01-21 18:53:46.40	14.58	12.63	-35.7	-36.4	24.9	0.00e+00	0	41	0	711983104	44	6019
2026-01-21 18:53:50.45	14.12	12.95	-35.7	-36.4	25.1	0.00e+00	0	41	0	735051776	44	5992
2026-01-21 18:53:54.49	13.65	13.27	-35.6	-36.3	25.1	0.00e+00	0	41	0	758120448	44	5918
2026-01-21 18:53:58.53	13.17	13.60	-35.8	-36.4	24.9	0.00e+00	0	41	0	781189120	44	6028
2026-01-21 18:54:02.57	12.68	13.93	-35.6	-36.2	25.1	0.00e+00	0	41	0	803209216	44	5891
2026-01-21 18:54:06.61	12.18	14.25	-35.5	-36.1	25.2	0.00e+00	0	41	0	826277888	44	5824
2026-01-21 18:54:10.66	11.66	14.59	-35.5	-36.2	25.1	0.00e+00	0	41	0	849346560	44	5873
2026-01-21 18:54:14.70	11.13	14.92	-36.0	-36.6	24.7	0.00e+00	0	41	0	871366656	44	6168
2026-01-21 18:54:18.74	10.59	15.26	-35.4	-36.0	25.3	0.00e+00	0	41	0	894435328	44	5755
2026-01-21 18:54:22.78	10.04	15.59	-35.4	-36.1	25.2	0.00e+00	0	41	0	917504000	44	5764
2026-01-21 18:54:26.83	9.48	15.93	-34.8	-35.4	25.9	0.00e+00	0	41	0	939524096	42	6019
2026-01-21 18:54:30.87	8.90	16.28	-34.7	-35.3	26.0	0.00e+00	0	41	0	962592768	42	5963
2026-01-21 18:54:34.91	8.31	16.62	-34.6	-35.3	26.1	0.00e+00	0	41	0	985661440	42	5924
2026-01-21 18:54:38.95	7.70	16.96	-34.5	-35.1	26.2	0.00e+00	0	41	0	1007681536	42	5810
2026-01-21 18:54:43.00	7.08	17.31	-34.5	-35.2	26.2	0.00e+00	0	41	0	1030750208	42	5829
2026-01-21 18:54:47.04	6.45	17.66	-34.4	-35.1	26.3	0.00e+00	0	41	0	1053818880	42	5806
2026-01-21 18:54:51.08	5.80	18.01	-34.6	-35.2	26.1	0.00e+00	0	41	0	1076887552	42	5879
2026-01-21 18:54:55.13	5.13	18.36	-34.3	-35.0	26.4	0.00e+00	0	41	0	1098907648	42	5709
2026-01-21 18:54:59.17	4.45	18.71	-34.2	-34.9	26.5	0.00e+00	0	41	0	1121976320	42	5634
2026-01-21 18:55:03.21	3.76	19.06	-33.9	-34.5	26.8	0.00e+00	0	41	0	1143996416	42	5396
2026-01-21 18:55:07.25	3.04	19.41	-34.4	-35.0	26.4	0.00e+00	0	41	0	1167065088	42	5735
2026-01-21 18:55:11.29	2.31	19.77	-34.1	-34.7	26.6	0.00e+00	0	41	0	1190133760	42	5525
2026-01-21 18:55:15.33	1.57	20.12	-33.8	-34.4	26.9	0.00e+00	0	41	0	1213202432	40	5992
2026-01-21 18:55:19.38	0.80	20.47	-34.0	-34.6	26.7	0.00e+00	0	41	0	1235222528	40	6127
2026-01-21 18:55:23.42	0.01	20.82	-33.7	-34.4	26.9	0.00e+00	0	41	0	1258291200	40	5965
2026-01-21 18:55:27.46	359.21	21.17	-33.8	-34.4	26.9	0.00e+00	0	41	0	1281359872	40	6003
2026-01-21 18:55:31.50	358.39	21.52	-33.7	-34.4	26.9	0.00e+00	0	41	0	1303379968	40	5978
2026-01-21 18:55:35.55	357.55	21.87	-33.5	-34.2	27.1	0.00e+00	0	41	0	1326448640	40	5842
2026-01-21 18:55:39.58	356.70	22.21	-33.5	-34.1	27.2	0.00e+00	0	41	0	1349517312	40	5784
2026-01-21 18:55:43.63	355.82	22.56	-33.2	-33.9	27.2	0.00e+00	0	41	0	1371537408	40	5640
2026-01-21 18:55:47.67	354.92	22.90	-33.0	-33.6	27.5	0.00e+00	0	41	0	1394606080	40	5447
2026-01-21 18:55:51.71	354.00	23.23	-33.2	-33.9	27.4	0.00e+00	0	41	0	1417674752	40	5641
2026-01-21 18:55:55.75	353.06	23.56	-33.2	-33.8	27.3	0.00e+00	0	41	0	1439694848	40	5624
2026-01-21 18:55:59.79	352.10	23.89	-33.0	-33.6	27.5	0.00e+00	0	41	0	1462763520	40	5500
2026-01-21 18:56:03.84	351.12	24.22	-33.2	-33.8	27.3	0.00e+00	0	41	0	1485832192	40	5602
2026-01-21 18:56:07.88	350.12	24.54	-33.3	-34.0	27.2	0.00e+00	0	41	0	1508900864	40	5711
2026-01-21 18:56:11.92	349.10	24.85	-33.1	-33.8	27.4	0.00e+00	0	41	0	1530920960	40	5572
2026-01-21 18:56:15.96	348.06	25.15	-33.1	-33.7	27.4	0.00e+00	0	41	0	1553989632	40	5562
2026-01-21 18:56:20.01	347.00	25.45	-32.9	-33.5	27.6	0.00e+00	0	41	0	1576009728	40	5402
2026-01-21 18:56:24.04	345.92	25.74	-33.0	-33.6	27.5	0.00e+00	0	41	0	1599078400	40	5470
2026-01-21 18:56:28.09	344.82	26.03	-32.9	-33.5	27.6	0.00e+00	0	41	0	1622147072	40	5439
2026-01-21 18:56:32.13	343.70	26.30	-32.9	-33.5	27.7	0.00e+00	0	41	0	1645215744	40	5411
2026-01-21 18:56:36.17	342.56	26.57	-32.8	-33.4	27.7	0.00e+00	0	41	0	1667235840	38	5996
2026-01-21 18:56:40.22	341.40	26.82	-33.2	-33.8	27.4	0.00e+00	0	41	0	1690304512	38	6278
2026-01-21 18:56:44.26	340.22	27.06	-33.0	-33.7	27.6	0.00e+00	0	41	0	1713373184	38	6190
2026-01-21 18:56:48.30	339.02	27.29	-32.8	-33.4	27.7	0.00e+00	0	41	0	1735393280	38	6029
2026-01-21 18:56:52.34	337.81	27.51	-32.7	-33.3	27.9	0.00e+00	0	41	0	1758461952	38	5930
2026-01-21 18:56:56.39	336.58	27.72	-32.9	-33.5	27.7	0.00e+00	0	41	0	1781530624	38	6077
2026-01-21 18:57:00.43	335.34	27.91	-32.6	-33.3	27.8	0.00e+00	0	41	0	1803550720	38	5919
2026-01-21 18:57:04.47	334.08	28.09	-32.6	-33.3	27.9	0.00e+00	0	41	0	1826619392	38	5912
2026-01-21 18:57:08.51	332.80	28.26	-32.3	-33.0	28.1	0.00e+00	0	41	0	1849688064	38	5723
2026-01-21 18:57:12.56	331.51	28.41	-32.5	-33.1	28.1	0.00e+00	0	41	0	1871708160	38	5787
2026-01-21 18:57:16.60	330.22	28.54	-32.6	-33.1	27.9	0.00e+00	0	41	0	1894776832	38	5823
2026-01-21 18:57:20.64	328.91	28.66	-32.6	-33.1	28.0	0.00e+00	0	41	0	1917845504	38	5818
2026-01-21 18:57:24.68	327.59	28.76	-32.6	-33.2	27.9	0.00e+00	0	41	0	1940914176	38	5836
2026-01-21 18:57:28.73	326.26	28.85	-32.2	-32.7	28.3	0.00e+00	0	41	0	1962934272	38	5564
2026-01-21 18:57:32.77	324.93	28.91	-32.1	-32.7	28.3	0.00e+00	0	41	0	1986002944	38	5531
2026-01-21 18:57:36.81	323.60	28.97	-32.2	-32.8	28.3	0.00e+00	0	41	0	2008023040	38	5624
2026-01-21 18:57:40.85	322.26	29.00	-32.8	-33.4	27.8	0.00e+00	0	41	0	2031091712	38	5996
2026-01-21 18:57:44.89	320.92	29.02	-32.5	-33.1	28.1	0.00e+00	0	41	0	2054160384	38	5790
2026-01-21 18:57:48.93	319.57	29.01	-32.1	-32.6	28.4	0.00e+00	0	41	0	2077229056	38	5482
2026-01-21 18:57:52.98	318.23	28.99	-32.3	-32.9	28.2	0.00e+00	0	41	0	2099249152	38	5637
2026-01-21 18:57:57.02	316.89	28.96	-32.3	-32.9	27.9	0.00e+00	0	41	0	2122317824	38	5680
2026-01-21 18:58:01.06	315.55	28.90	-32.2	-32.8	28.2	0.00e+00	0	41	0	2145386496	38	5615
2026-01-21 18:58:05.10	314.22	28.83	-32.2	-32.8	28.3	0.00e+00	0	41	0	2167406592	38	5596
2026-01-21 18:58:09.14	312.90	28.74	-32.4	-33.0	28.2	0.00e+00	0	41	0	2190475264	38	5752
2026-01-21 18:58:13.19	311.58	28.64	-32.3	-32.9	28.2	0.00e+00	0	41	0	2213543936	38	5691
2026-01-21 18:58:17.23	310.27	28.52	-32.2	-32.8	28.4	0.00e+00	0	41	0	2235564032	38	5580
2026-01-21 18:58:21.27	308.97	28.38	-32.3	-32.9	28.1	0.00e+00	0	41	0	2258632704	38	5666
2026-01-21 18:58:25.32	307.69	28.23	-32.3	-33.0	28.1	0.00e+00	0	41	0	2281701376	38	5727
2026-01-21 18:58:29.36	306.41	28.06	-32.5	-33.2	28.0	0.00e+00	0	41	0	2303721472	38	5852
2026-01-21 18:58:33.40	305.16	27.88	-32.2	-32.7	28.2	0.00e+00	0	41	0	2326790144	38	5559
2026-01-21 18:58:37.44	303.91	27.68	-32.3	-32.9	28.2	0.00e+00	0	41	0	2349858816	38	5685
2026-01-21 18:58:41.49	302.68	27.47	-32.6	-33.3	27.9	0.00e+00	0	41	0	2371878912	38	5897
2026-01-21 18:58:45.52	301.47	27.25	-32.5	-33.1	28.1	0.00e+00	0	41	0	2394947584	38	5813
2026-01-21 18:58:49.57	300.28	27.01	-32.6	-33.2	27.9	0.00e+00	0	41	0	2418016256	38	5866
2026-01-21 18:58:53.61	299.10	26.77	-32.4	-33.0	28.2	0.00e+00	0	41	0	2440036352	38	5751
2026-01-21 18:58:57.66	297.94	26.51	-32.6	-33.3	28.0	0.00e+00	0	41	0	2463105024	38	5899
2026-01-21 18:59:01.70	296.80	26.25	-32.4	-33.0	28.0	0.00e+00	0	41	0	2486173696	38	5700
2026-01-21 18:59:05.74	295.68	25.97	-32.7	-33.4	27.8	0.00e+00	0	41	0	2509242368	38	5979
2026-01-21 18:59:09.79	294.58	25.68	-33.2	-33.7	27.5	0.00e+00	0	41	0	2531262464	38	6240
2026-01-21 18:59:13.83	293.50	25.39	-33.3	-34.0	27.4	0.00e+00	0	41	0	2554331136	38	6406
2026-01-21 18:59:17.87	292.44	25.09	-32.9	-33.6	27.7	0.00e+00	0	41	0	2576351232	38	6108
2026-01-21 18:59:21.91	291.40	24.78	-32.9	-33.6	27.6	0.00e+00	0	41	0	2599419904	38	6105
2026-01-21 18:59:25.95	290.39	24.47	-32.9	-33.6	27.6	0.00e+00	0	41	0	2622488576	38	6149
2026-01-21 18:59:29.99	289.39	24.15	-32.7	-33.4	27.7	0.00e+00	0	41	0	2645557248	38	6013
2026-01-21 18:59:34.03	288.41	23.82	-33.3	-33.9	27.2	0.00e+00	0	41	0	2667577344	38	6326
2026-01-21 18:59:38.07	287.45	23.49	-33.0	-33.7	27.3	0.00e+00	0	41	0	2690646016	38	6192
2026-01-21 18:59:42.12	286.51	23.16	-32.9	-33.6	27.4	0.00e+00	0	41	0	2713714688	38	6154
2026-01-21 18:59:46.16	285.60	22.82	-33.1	-33.7	27.3	0.00e+00	0	41	0	2735734784	38	6180
2026-01-21 18:59:50.21	284.70	22.48	-33.0	-33.6	27.3	0.00e+00	0	41	0	2758803456	38	6135
2026-01-21 18:59:54.25	283.82	22.13	-33.5	-34.1	26.7	0.00e+00	0	41	0	2781872128	38	6485
2026-01-21 18:59:58.29	282.97	21.78	-33.5	-34.1	26.7	0.00e+00	0	41	0	2803892224	38	6488
2026-01-21 19:00:02.33	282.13	21.44	-33.4	-34.0	27.0	0.00e+00	0	41	0	2826960896	38	6422
2026-01-21 19:00:06.38	281.31	21.09	-33.6	-34.1	26.9	0.00e+00	0	41	0	2850029568	38	6532
2026-01-21 19:00:10.42	280.50	20.73	-33.4	-34.0	27.0	0.00e+00	0	41	0	2872049664	38	6408
2026-01-21 19:00:14.46	279.72	20.38	-33.7	-34.3	26.7	0.00e+00	0	41	0	2895118336	40	5917
2026-01-21 19:00:18.50	278.96	20.03	-33.8	-34.4	26.7	0.00e+00	0	41	0	2918187008	40	5974
2026-01-21 19:00:22.55	278.21	19.67	-33.5	-34.0	26.9	0.00e+00	0	41	0	2941255680	40	5753
2026-01-21 19:00:26.58	277.48	19.32	-33.6	-34.2	26.8	0.00e+00	0	41	0	2963275776	40	5850
2026-01-21 19:00:30.63	276.77	18.97	-33.8	-34.5	26.6	0.00e+00	0	41	0	2986344448	40	6073
2026-01-21 19:00:34.67	276.07	18.62	-33.9	-34.4	26.7	0.00e+00	0	41	0	3008364544	40	6015
2026-01-21 19:00:38.71	275.39	18.26	-34.1	-34.8	26.4	0.00e+00	0	41	0	3031433216	40	6261
2026-01-21 19:00:42.75	274.73	17.91	-34.3	-34.9	26.2	0.00e+00	0	41	0	3054501888	40	6341
2026-01-21 19:00:46.80	274.08	17.56	-34.3	-34.9	26.2	0.00e+00	0	41	0	3077570560	40	6367
2026-01-21 19:00:50.84	273.44	17.21	-34.3	-34.9	26.4	0.00e+00	0	41	0	3099590656	40	6356
2026-01-21 19:00:54.88	272.82	16.87	-34.3	-34.9	26.2	0.00e+00	0	41	0	3122659328	40	6343
2026-01-21 19:00:58.92	272.22	16.52	-34.8	-35.5	25.9	0.00e+00	0	41	0	3145728000	42	6078
2026-01-21 19:01:02.97	271.63	16.18	-34.8	-35.4	25.9	0.00e+00	0	41	0	3167748096	42	5993
2026-01-21 19:01:07.01	271.05	15.84	-34.8	-35.5	25.8	0.00e+00	0	41	0	3190816768	42	6098
2026-01-21 19:01:11.05	270.48	15.50	-35.0	-35.7	25.7	0.00e+00	0	41	0	3213885440	42	6203
2026-01-21 19:01:15.09	269.93	15.16	-34.9	-35.7	25.6	0.00e+00	0	41	0	3235905536	42	6193
2026-01-21 19:01:19.14	269.39	14.82	-35.3	-36.0	25.3	0.00e+00	0	41	0	3258974208	42	6393
2026-01-21 19:01:23.18	268.87	14.49	-35.2	-36.0	25.3	0.00e+00	0	41	0	3282042880	42	6412
2026-01-21 19:01:27.22	268.35	14.15	-35.4	-36.2	25.3	0.00e+00	0	41	0	3304062976	42	6543
2026-01-21 19:01:31.26	267.85	13.82	-35.4	-36.0	25.2	0.00e+00	0	41	0	3327131648	42	6397
2026-01-21 19:01:35.30	267.36	13.50	-35.2	-35.8	25.4	0.00e+00	0	41	0	3350200320	42	6274
2026-01-21 19:01:39.34	266.88	13.17	-35.3	-35.8	25.4	0.00e+00	0	41	0	3373268992	42	6315
2026-01-21 19:01:43.38	266.41	12.85	-35.6	-36.2	25.0	0.00e+00	0	41	0	3395289088	44	5868
2026-01-21 19:01:47.42	265.95	12.53	-35.7	-36.4	24.9	0.00e+00	0	41	0	3418357760	44	6002
2026-01-21 19:01:51.46	265.50	12.21	-35.6	-36.3	24.9	0.00e+00	0	41	0	3440377856	44	5929
2026-01-21 19:01:55.51	265.06	11.89	-35.9	-36.7	24.7	0.00e+00	0	41	0	3463446528	44	6211
2026-01-21 19:01:59.54	264.63	11.58	-36.1	-36.9	24.5	0.00e+00	0	41	0	3486515200	46	5639
2026-01-21 19:02:03.58	264.21	11.27	-36.1	-36.7	24.6	0.00e+00	0	41	0	3509583872	46	5510
2026-01-21 19:02:07.63	263.79	10.96	-36.6	-37.2	24.1	0.00e+00	0	41	0	3531603968	46	5880
2026-01-21 19:02:11.67	263.39	10.65	-36.4	-37.0	24.3	0.00e+00	0	41	0	3554672640	46	5753
2026-01-21 19:02:15.71	263.00	10.35	-36.6	-37.4	24.0	0.00e+00	0	41	0	3577741312	46	6027
2026-01-21 19:02:19.75	262.61	10.05	-36.4	-37.0	24.2	0.00e+00	0	41	0	3599761408	46	5727
2026-01-21 19:02:23.79	262.23	9.75	-36.6	-37.4	24.0	0.00e+00	0	41	0	3622830080	46	6002
2026-01-21 19:02:27.84	261.86	9.45	-36.6	-37.4	23.9	0.00e+00	0	41	0	3645898752	46	6004
2026-01-21 19:02:31.88	261.50	9.16	-36.9	-37.5	23.6	0.00e+00	0	41	0	3667918848	46	6098
2026-01-21 19:02:35.92	261.14	8.87	-36.9	-37.7	23.7	0.00e+00	0	41	0	3690987520	46	6233
2026-01-21 19:02:39.96	260.79	8.58	-36.7	-37.3	23.9	0.00e+00	0	41	0	3714056192	46	5936
2026-01-21 19:02:44.00	260.45	8.29	-36.7	-37.4	23.7	0.00e+00	0	41	0	3736076288	46	6002
2026-01-21 19:02:48.05	260.12	8.00	-36.8	-37.4	23.7	0.00e+00	0	41	0	3759144960	46	6017
2026-01-21 19:02:52.09	259.79	7.72	-36.9	-37.6	23.6	0.00e+00	0	41	0	3782213632	46	6172
2026-01-21 19:02:56.13	259.47	7.44	-37.0	-37.8	23.5	0.00e+00	0	41	0	3805282304	46	6263
2026-01-21 19:03:00.18	259.15	7.16	-37.3	-38.1	23.2	0.00e+00	0	41	0	3827302400	46	6477
2026-01-21 19:03:04.22	258.84	6.89	-37.6	-38.4	23.0	0.00e+00	0	41	0	3850371072	46	6744
2026-01-21 19:03:08.26	258.54	6.61	-37.3	-38.1	23.3	0.00e+00	0	41	0	3872391168	46	6480
2026-01-21 19:03:12.30	258.25	6.34	-37.7	-38.4	22.7	0.00e+00	0	41	0	3895459840	46	6713
2026-01-21 19:03:16.34	257.95	6.07	-37.6	-38.4	22.8	0.00e+00	0	41	0	3918528512	48	6023
2026-01-21 19:03:20.38	257.67	5.80	-37.3	-38.0	23.0	0.00e+00	0	41	0	3941597184	48	5702
2026-01-21 19:03:24.43	257.39	5.54	-37.8	-38.5	22.4	0.00e+00	0	41	0	3963617280	48	6077
2026-01-21 19:03:28.46	257.11	5.27	-37.7	-38.4	22.6	0.00e+00	0	41	0	3986685952	48	5993
2026-01-21 19:03:32.51	256.84	5.01	-37.9	-38.6	22.4	0.00e+00	0	41	0	4009754624	48	6134
2026-01-21 19:03:36.55	256.58	4.75	-38.1	-38.9	22.1	0.00e+00	0	41	0	4031774720	48	6370
2026-01-21 19:03:40.59	256.32	4.49	-38.4	-39.2	21.7	0.00e+00	0	41	0	4054843392	48	6586
2026-01-21 19:03:44.64	256.06	4.24	-38.6	-39.4	21.5	0.00e+00	0	41	0	4077912064	50	6031
2026-01-21 19:03:48.68	255.81	3.98	-38.5	-39.4	21.6	0.00e+00	0	41	0	4099932160	50	6032
2026-01-21 19:03:52.73	255.57	3.73	-38.6	-39.6	21.3	0.00e+00	0	41	0	4123000832	50	6110
2026-01-21 19:03:56.77	255.32	3.48	-38.8	-39.6	21.2	0.00e+00	0	41	0	4146069504	50	6133
2026-01-21 19:04:00.81	255.09	3.23	-38.0	-38.8	21.6	0.00e+00	0	41	0	4168089600	50	5587
2026-01-21 19:04:04.85	254.85	2.99	-49.9	-61.4	3.6	5.25e-01	0	41	104	4190109696	60	42427
2026-01-21 19:04:08.89	254.63	2.74	-51.0	-63.1	3.6	8.45e-01	0	41	104	4190109696	60	51632
2026-01-21 19:04:12.93	254.40	2.50	-51.1	-63.3	3.6	8.46e-01	0	41	104	4190109696	60	52725
2026-01-21 19:04:16.98	254.18	2.26	-51.2	-63.3	3.6	8.47e-01	0	41	104	4190109696	60	52974
2026-01-21 19:04:21.02	253.96	2.02	-50.7	-63.3	3.6	8.45e-01	0	41	104	4190109696	60	52734
2026-01-21 19:04:25.06	253.75	1.78	-51.1	-63.2	3.6	8.44e-01	0	41	104	4190109696	60	52179
2026-01-21 19:04:29.10	253.54	1.54	-51.0	-63.2	3.6	8.45e-01	0	41	104	4190109696	60	52376
2026-01-21 19:04:33.14	253.33	1.31	-51.2	-63.3	3.6	8.46e-01	0	41	104	4190109696	60	52939
2026-01-21 19:04:37.18	253.13	1.07	-51.2	-63.3	3.6	8.46e-01	0	41	104	4190109696	60	53093
2026-01-21 19:04:41.22	252.93	0.84	-51.2	-63.4	3.6	8.44e-01	0	41	104	4190109696	60	53296
2026-01-21 19:04:45.26	252.73	0.61	-51.2	-63.4	3.6	8.45e-01	0	41	104	4190109696	60	53328
2026-01-21 19:04:49.30	252.54	0.38	-51.3	-63.4	3.6	8.46e-01	0	41	104	4190109696	60	53545
2026-01-21 19:04:53.34	252.35	0.15	-51.3	-63.4	3.6	8.46e-01	0	41	104	4190109696	60	53644
2026-01-21 19:04:57.38	252.16	-0.07	-51.2	-63.4	3.6	8.44e-01	0	41	104	4190109696	60	53299

#Closed at: 2026-01-21 19:04:57
#Recorded file [4190 MB]: D:/lorett/data/35029_260122_065036.dat