passes_logs/2026/01/21/R4.6S_Anadyr/R4.6S_Anadyr__20260121_004617_SUOMI_NPP_rec.log

#Pass ID: 20260121_004617_SUOMI NPP
#Satellite: SUOMI NPP
#Configuration: NPP
#almurnet v.1.7.20251203
#Start time: 2026-01-21 00:46:20

#Version: 2.2.20231116
#Station: R4.6S_Anadyr
#Location: 177.4865 lon 64.73178 lat
#TLE: 1 37849U 11061A   26020.31993517  .00000142  00000+0  88240-4 0  9990
#TLE: 2 37849  98.7818 322.3228 0002330  54.3778 305.7615 14.19527005737466

#Time	Az	El	Level	Level2	SNR	BER	BlckErr	Temp	State	Recorded	gain1	gain2
2026-01-21 00:46:20.34	168.27	0.19	-52.2	-65.9	3.3	1.54e+00	0	40	0	0	60	71457
2026-01-21 00:46:24.37	168.35	0.43	-51.3	-66.6	3.6	1.51e+00	0	40	104	0	60	76874
2026-01-21 00:46:28.42	168.42	0.68	-51.0	-66.2	3.6	1.51e+00	0	40	104	0	60	73909
2026-01-21 00:46:32.45	168.49	0.92	-50.7	-66.0	3.6	1.51e+00	0	40	104	0	60	71843
2026-01-21 00:46:36.49	168.57	1.17	-49.7	-64.9	3.6	1.51e+00	0	40	104	0	60	63361
2026-01-21 00:46:40.53	168.65	1.42	-50.0	-65.2	3.6	1.51e+00	0	41	104	0	60	65590
2026-01-21 00:46:44.57	168.72	1.68	-49.8	-64.7	3.6	1.51e+00	0	41	104	0	60	61829
2026-01-21 00:46:48.60	168.80	1.93	-49.8	-64.8	3.5	1.51e+00	0	41	104	0	60	62851
2026-01-21 00:46:52.64	168.88	2.19	-49.8	-64.9	3.6	1.51e+00	0	41	104	0	60	63276
2026-01-21 00:46:56.68	168.96	2.45	-49.7	-64.2	3.6	1.51e+00	0	41	104	0	60	58761
2026-01-21 00:47:00.72	169.04	2.71	-49.7	-64.1	3.6	1.51e+00	0	41	104	0	60	58069
2026-01-21 00:47:04.75	169.13	2.98	-49.5	-60.7	4.2	1.31e+00	92	41	104	0	60	38976
2026-01-21 00:47:08.79	169.21	3.24	-47.8	-52.2	11.7	6.93e-03	91	41	0	7340032	60	14672
2026-01-21 00:47:12.83	169.30	3.51	-45.7	-48.3	15.6	0.00e+00	0	41	0	14680064	60	9370
2026-01-21 00:47:16.87	169.39	3.79	-49.0	-55.5	7.2	2.30e-03	56	41	0	22020096	60	21598
2026-01-21 00:47:20.91	169.48	4.06	-44.8	-46.8	6.0	1.46e+00	0	41	104	24117248	60	7949
2026-01-21 00:47:24.94	169.57	4.34	-43.7	-45.2	18.9	0.00e+00	92	41	0	29360128	60	6614
2026-01-21 00:47:28.98	169.66	4.62	-43.7	-45.3	18.9	0.00e+00	0	41	0	36700160	60	6622
2026-01-21 00:47:33.02	169.75	4.90	-43.7	-45.3	19.0	0.00e+00	85	41	0	45088768	60	6623
2026-01-21 00:47:37.05	169.84	5.19	-43.5	-45.1	19.2	0.00e+00	92	41	0	52428800	60	6505
2026-01-21 00:47:41.09	169.94	5.48	-43.5	-45.0	19.2	0.00e+00	30	41	0	59768832	60	6403
2026-01-21 00:47:45.12	170.04	5.77	-43.1	-44.5	19.5	0.00e+00	0	41	0	67108864	58	6818
2026-01-21 00:47:49.16	170.14	6.07	-43.0	-44.4	19.7	0.00e+00	91	41	0	75497472	58	6754
2026-01-21 00:47:53.20	170.24	6.37	-42.8	-44.1	20.0	0.00e+00	92	41	0	82837504	58	6535
2026-01-21 00:47:57.24	170.34	6.67	-42.7	-44.0	20.1	0.00e+00	0	41	0	90177536	58	6444
2026-01-21 00:48:01.27	170.45	6.98	-42.7	-44.1	20.2	0.00e+00	0	41	0	97517568	58	6492
2026-01-21 00:48:05.31	170.56	7.29	-42.9	-44.4	19.9	0.00e+00	72	41	0	104857600	58	6701
2026-01-21 00:48:09.35	170.67	7.60	-42.6	-43.9	20.4	0.00e+00	92	41	0	113246208	58	6375
2026-01-21 00:48:13.39	170.78	7.92	-42.0	-43.2	21.0	0.00e+00	0	41	0	120586240	56	6568
2026-01-21 00:48:17.42	170.89	8.24	-41.9	-43.0	21.1	0.00e+00	35	41	0	127926272	56	6461
2026-01-21 00:48:21.46	171.01	8.57	-41.7	-42.8	21.2	0.00e+00	70	41	0	135266304	56	6312
2026-01-21 00:48:25.50	171.13	8.90	-41.7	-42.9	21.3	0.00e+00	0	41	0	143654912	56	6328
2026-01-21 00:48:29.54	171.25	9.23	-42.0	-43.2	20.9	0.00e+00	0	41	0	150994944	56	6582
2026-01-21 00:48:33.58	171.37	9.57	-41.2	-42.3	21.6	0.00e+00	92	41	0	158334976	56	5954
2026-01-21 00:48:37.62	171.50	9.92	-40.6	-41.6	22.2	0.00e+00	92	41	0	165675008	54	6125
2026-01-21 00:48:41.65	171.63	10.27	-40.6	-41.6	22.2	0.00e+00	26	41	0	173015040	54	6170
2026-01-21 00:48:45.69	171.76	10.62	-40.7	-41.7	22.2	0.00e+00	0	41	0	181403648	54	6213
2026-01-21 00:48:49.73	171.89	10.98	-40.7	-41.8	22.2	0.00e+00	27	41	0	188743680	54	6247
2026-01-21 00:48:53.76	172.03	11.34	-40.4	-41.4	22.5	0.00e+00	92	41	0	196083712	54	6020
2026-01-21 00:48:57.80	172.17	11.71	-40.1	-41.1	22.6	0.00e+00	0	41	0	203423744	54	5784
2026-01-21 00:49:01.84	172.31	12.08	-39.8	-40.7	23.0	0.00e+00	28	41	0	210763776	54	5532
2026-01-21 00:49:05.88	172.46	12.47	-40.1	-41.0	22.7	0.00e+00	73	41	0	219152384	54	5749
2026-01-21 00:49:09.92	172.61	12.85	-40.5	-41.5	22.5	0.00e+00	78	41	0	226492416	54	6072
2026-01-21 00:49:13.96	172.76	13.24	-39.8	-40.7	23.1	0.00e+00	0	41	0	233832448	52	6239
2026-01-21 00:49:18.00	172.92	13.64	-39.7	-40.6	23.1	0.00e+00	92	41	0	241172480	52	6147
2026-01-21 00:49:22.04	173.08	14.05	-39.8	-40.7	23.2	0.00e+00	92	41	0	249561088	52	6225
2026-01-21 00:49:26.06	173.25	14.46	-39.6	-40.5	23.3	0.00e+00	0	41	0	256901120	52	6076
2026-01-21 00:49:30.10	173.42	14.88	-40.1	-41.0	22.9	0.00e+00	0	42	0	264241152	52	6442
2026-01-21 00:49:34.13	173.59	15.30	-39.9	-40.8	23.0	0.00e+00	92	41	0	271581184	52	6281
2026-01-21 00:49:38.17	173.77	15.73	-40.0	-40.9	23.0	0.00e+00	92	42	0	278921216	52	6364
2026-01-21 00:49:42.21	173.96	16.17	-40.2	-41.2	22.8	0.00e+00	0	41	0	287309824	52	6545
2026-01-21 00:49:46.24	174.15	16.62	-40.2	-41.2	22.8	0.00e+00	0	41	0	294649856	52	6592
2026-01-21 00:49:50.28	174.34	17.08	-40.1	-41.0	22.9	0.00e+00	92	41	0	301989888	52	6457
2026-01-21 00:49:54.32	174.54	17.54	-40.1	-41.0	22.9	0.00e+00	92	42	0	309329920	52	6439
2026-01-21 00:49:58.36	174.75	18.02	-40.5	-41.5	22.6	0.00e+00	0	41	0	317718528	52	6840
2026-01-21 00:50:02.40	174.96	18.50	-40.5	-41.5	22.7	0.00e+00	29	42	0	325058560	54	6045
2026-01-21 00:50:06.43	175.18	18.99	-40.2	-41.2	22.8	0.00e+00	92	41	0	332398592	54	5860
2026-01-21 00:50:10.47	175.40	19.49	-40.2	-41.2	22.7	0.00e+00	90	42	0	339738624	54	5862
2026-01-21 00:50:14.51	175.64	20.00	-40.9	-42.0	22.2	0.00e+00	0	42	0	347078656	54	6432
2026-01-21 00:50:18.55	175.88	20.53	-41.3	-42.4	21.8	0.00e+00	92	42	0	355467264	54	6762
2026-01-21 00:50:22.59	176.13	21.06	-41.1	-42.2	22.0	0.00e+00	92	42	0	362807296	54	6578
2026-01-21 00:50:26.62	176.38	21.60	-40.6	-41.6	22.6	0.00e+00	0	42	0	370147328	54	6131
2026-01-21 00:50:30.66	176.65	22.15	-40.6	-41.6	22.5	0.00e+00	0	42	0	377487360	54	6114
2026-01-21 00:50:34.69	176.92	22.72	-40.3	-41.3	22.8	0.00e+00	92	42	0	384827392	54	5930
2026-01-21 00:50:38.73	177.20	23.30	-40.1	-41.1	22.9	0.00e+00	90	41	0	393216000	54	5781
2026-01-21 00:50:42.76	177.50	23.89	-39.9	-40.9	23.2	0.00e+00	0	42	0	400556032	52	6320
2026-01-21 00:50:46.80	177.80	24.49	-40.5	-41.5	22.6	0.00e+00	0	42	0	407896064	52	6794
2026-01-21 00:50:50.84	178.12	25.11	-40.7	-41.7	22.5	0.00e+00	90	42	0	415236096	54	6201
2026-01-21 00:50:54.88	178.44	25.74	-40.2	-41.1	22.9	0.00e+00	92	42	0	423624704	54	5810
2026-01-21 00:50:58.92	178.78	26.39	-40.1	-41.1	23.0	0.00e+00	0	42	0	430964736	54	5779
2026-01-21 00:51:02.95	179.14	27.05	-39.7	-40.7	23.3	0.00e+00	81	42	0	438304768	52	6184
2026-01-21 00:51:06.99	179.51	27.72	-38.9	-39.8	23.8	0.00e+00	92	42	0	445644800	52	5573
2026-01-21 00:51:11.03	179.89	28.41	-39.5	-40.4	23.5	0.00e+00	26	42	0	452984832	52	6011
2026-01-21 00:51:15.06	180.29	29.12	-39.8	-40.7	23.2	0.00e+00	0	41	0	461373440	52	6210
2026-01-21 00:51:19.10	180.71	29.84	-40.9	-41.9	22.1	0.00e+00	92	42	0	468713472	54	6386
2026-01-21 00:51:23.14	181.15	30.59	-41.9	-43.0	21.5	0.00e+00	92	42	0	476053504	56	6442
2026-01-21 00:51:27.18	181.60	31.34	-42.0	-43.1	21.2	0.00e+00	0	42	0	483393536	56	6521
2026-01-21 00:51:31.22	182.08	32.12	-43.2	-44.7	20.0	0.00e+00	3	42	0	491782144	58	6947
2026-01-21 00:51:35.25	182.58	32.92	-43.2	-44.6	20.2	0.00e+00	92	42	0	499122176	58	6857
2026-01-21 00:51:39.29	183.11	33.73	-42.9	-44.2	20.4	0.00e+00	92	42	0	506462208	58	6597
2026-01-21 00:51:43.33	183.66	34.57	-42.2	-43.3	21.3	0.00e+00	0	42	0	513802240	58	5923
2026-01-21 00:51:47.37	184.24	35.42	-43.1	-44.5	20.2	0.00e+00	32	42	0	521142272	58	6793
2026-01-21 00:51:51.40	184.85	36.29	-43.5	-45.0	19.9	0.00e+00	65	42	0	529530880	58	7233
2026-01-21 00:51:55.44	185.49	37.19	-43.2	-44.6	20.0	0.00e+00	92	42	0	536870912	58	6910
2026-01-21 00:51:59.48	186.17	38.10	-42.8	-44.1	20.4	0.00e+00	0	42	0	544210944	58	6477
2026-01-21 00:52:03.51	186.89	39.04	-44.7	-46.4	18.5	0.00e+00	90	42	0	551550976	60	7587
2026-01-21 00:52:07.55	187.65	39.99	-45.8	-48.0	17.1	0.00e+00	92	42	0	559939584	60	9055
2026-01-21 00:52:11.59	188.46	40.97	-44.9	-46.8	18.0	0.00e+00	0	42	0	567279616	60	7910
2026-01-21 00:52:15.63	189.31	41.97	-42.7	-44.0	20.4	0.00e+00	0	42	0	574619648	60	5731
2026-01-21 00:52:19.66	190.22	42.99	-42.2	-43.4	21.2	0.00e+00	92	42	0	581959680	56	6768
2026-01-21 00:52:23.70	191.19	44.03	-41.8	-43.0	21.5	0.00e+00	90	42	0	589299712	56	6405
2026-01-21 00:52:27.74	192.23	45.08	-41.8	-42.9	21.6	0.00e+00	0	42	0	597688320	56	6353
2026-01-21 00:52:31.78	193.33	46.16	-42.3	-43.5	21.1	0.00e+00	0	42	0	605028352	56	6773
2026-01-21 00:52:35.81	194.51	47.25	-42.1	-43.3	21.3	0.00e+00	92	42	0	612368384	56	6650
2026-01-21 00:52:39.85	195.77	48.36	-42.3	-43.5	21.1	0.00e+00	92	42	0	619708416	56	6826
2026-01-21 00:52:43.89	197.13	49.47	-39.8	-40.7	23.2	0.00e+00	0	42	0	628097024	52	6229
2026-01-21 00:52:47.93	198.60	50.60	-40.7	-41.8	22.3	0.00e+00	91	42	0	635437056	52	7054
2026-01-21 00:52:51.96	200.17	51.74	-39.4	-40.3	23.7	0.00e+00	92	42	0	642777088	52	5933
2026-01-21 00:52:56.00	201.86	52.88	-37.4	-38.2	25.0	0.00e+00	0	42	0	650117120	48	5862
2026-01-21 00:53:00.04	203.70	54.02	-39.0	-39.9	23.9	0.00e+00	0	42	0	657457152	50	6325
2026-01-21 00:53:04.08	205.68	55.15	-38.0	-38.8	24.8	0.00e+00	90	42	0	665845760	50	5621
2026-01-21 00:53:08.11	207.82	56.27	-39.5	-40.5	23.7	0.00e+00	92	42	0	673185792	50	6788
2026-01-21 00:53:12.15	210.14	57.37	-38.6	-39.4	24.4	0.00e+00	0	42	0	680525824	50	6019
2026-01-21 00:53:16.18	212.65	58.44	-38.8	-39.6	24.2	0.00e+00	0	42	0	687865856	50	6138
2026-01-21 00:53:20.22	215.36	59.48	-41.3	-42.4	22.0	0.00e+00	92	42	0	696254464	54	6742
2026-01-21 00:53:24.26	218.30	60.47	-40.0	-40.9	23.3	0.00e+00	92	42	0	703594496	54	5669
2026-01-21 00:53:28.30	221.47	61.40	-41.2	-42.3	22.3	0.00e+00	0	42	0	710934528	56	5930
2026-01-21 00:53:32.33	224.86	62.27	-39.5	-40.3	23.7	0.00e+00	14	42	0	718274560	52	5934
2026-01-21 00:53:36.37	228.50	63.05	-38.2	-39.0	24.6	0.00e+00	66	42	0	725614592	50	5716
2026-01-21 00:53:40.41	232.38	63.75	-38.6	-39.3	24.2	0.00e+00	19	42	0	734003200	50	5961
2026-01-21 00:53:44.45	236.46	64.33	-38.2	-39.0	24.6	0.00e+00	0	42	0	741343232	50	5720
2026-01-21 00:53:48.48	240.73	64.80	-40.4	-41.4	23.0	0.00e+00	90	42	0	748683264	54	5980
2026-01-21 00:53:52.53	245.18	65.14	-41.2	-42.2	22.2	0.00e+00	90	42	0	756023296	54	6599
2026-01-21 00:53:56.56	249.71	65.35	-41.8	-43.0	21.7	0.00e+00	0	42	0	764411904	56	6408
2026-01-21 00:54:00.60	254.31	65.42	-38.5	-39.3	24.5	0.00e+00	0	42	0	771751936	50	5923
2026-01-21 00:54:04.64	258.91	65.34	-39.6	-40.5	23.5	0.00e+00	92	42	0	779091968	50	6772
2026-01-21 00:54:08.68	263.44	65.12	-39.6	-40.5	23.8	0.00e+00	92	42	0	786432000	52	6070
2026-01-21 00:54:12.72	267.86	64.77	-38.9	-39.8	24.2	0.00e+00	0	42	0	793772032	50	6246
2026-01-21 00:54:16.75	272.12	64.30	-38.2	-39.0	24.5	0.00e+00	56	42	0	802160640	50	5740
2026-01-21 00:54:20.79	276.19	63.70	-37.4	-38.1	25.3	0.00e+00	40	42	0	809500672	48	5796
2026-01-21 00:54:24.83	280.04	63.00	-41.1	-42.1	22.4	0.00e+00	84	42	0	816840704	54	6486
2026-01-21 00:54:28.86	283.65	62.21	-39.6	-40.5	23.7	0.00e+00	0	41	0	824180736	50	6817
2026-01-21 00:54:32.90	287.03	61.34	-39.2	-40.0	24.0	0.00e+00	92	41	0	831520768	52	5756
2026-01-21 00:54:36.93	290.17	60.41	-39.5	-40.4	23.9	0.00e+00	78	41	0	839909376	52	6004
2026-01-21 00:54:40.97	293.09	59.42	-40.3	-41.2	23.4	0.00e+00	0	41	0	847249408	54	5895
2026-01-21 00:54:45.01	295.79	58.38	-37.0	-37.8	25.5	0.00e+00	0	42	0	854589440	48	5579
2026-01-21 00:54:49.05	298.28	57.30	-37.2	-38.0	25.4	0.00e+00	92	41	0	861929472	46	6437
2026-01-21 00:54:53.09	300.59	56.21	-38.3	-39.1	24.8	0.00e+00	90	41	0	870318080	50	5787
2026-01-21 00:54:57.12	302.71	55.09	-37.5	-38.3	25.3	0.00e+00	0	41	0	877658112	48	5904
2026-01-21 00:55:01.16	304.68	53.96	-40.4	-41.5	23.0	0.00e+00	0	41	0	884998144	54	6038
2026-01-21 00:55:05.19	306.50	52.83	-38.0	-38.8	24.7	0.00e+00	92	41	0	892338176	48	6264
2026-01-21 00:55:09.23	308.18	51.69	-38.8	-39.6	24.4	0.00e+00	67	41	0	899678208	50	6162
2026-01-21 00:55:13.27	309.75	50.56	-38.8	-39.6	24.4	0.00e+00	0	41	0	908066816	50	6135
2026-01-21 00:55:17.31	311.20	49.44	-39.1	-40.0	24.0	0.00e+00	36	41	0	915406848	50	6405
2026-01-21 00:55:21.34	312.55	48.33	-41.8	-42.9	22.1	0.00e+00	86	41	0	922746880	56	6375
2026-01-21 00:55:25.37	313.80	47.23	-40.6	-41.5	23.0	0.00e+00	0	41	0	930086912	54	6087
2026-01-21 00:55:29.41	314.98	46.14	-42.0	-43.2	21.7	0.00e+00	0	41	0	938475520	56	6558
2026-01-21 00:55:33.45	316.08	45.07	-42.6	-43.9	21.1	0.00e+00	92	41	0	945815552	58	6332
2026-01-21 00:55:37.49	317.11	44.02	-43.4	-44.8	20.4	0.00e+00	92	41	0	953155584	60	6290
2026-01-21 00:55:41.53	318.07	42.99	-40.6	-41.6	23.1	0.00e+00	0	41	0	960495616	54	6104
2026-01-21 00:55:45.57	318.98	41.97	-42.0	-43.3	21.5	0.00e+00	0	41	0	967835648	58	5931
2026-01-21 00:55:49.61	319.83	40.98	-39.8	-40.6	23.7	0.00e+00	78	41	0	976224256	50	6923
2026-01-21 00:55:53.65	320.63	40.01	-43.5	-45.0	20.1	0.00e+00	64	41	0	983564288	58	7179
2026-01-21 00:55:57.68	321.39	39.06	-39.7	-40.6	23.9	0.00e+00	0	41	0	990904320	54	5466
2026-01-21 00:56:01.72	322.10	38.13	-39.1	-40.0	24.2	0.00e+00	30	41	0	998244352	50	6395
2026-01-21 00:56:05.75	322.78	37.22	-42.6	-43.8	21.3	0.00e+00	52	41	0	1005584384	58	6292
2026-01-21 00:56:09.79	323.42	36.33	-40.5	-41.4	23.1	0.00e+00	0	41	0	1013972992	54	6023
2026-01-21 00:56:13.82	324.03	35.46	-42.9	-44.2	20.9	0.00e+00	0	41	0	1021313024	58	6557
2026-01-21 00:56:17.86	324.61	34.61	-41.7	-42.7	22.0	0.00e+00	86	41	0	1028653056	58	5549
2026-01-21 00:56:21.90	325.16	33.78	-39.7	-40.5	23.8	0.00e+00	92	41	0	1035993088	52	6084
2026-01-21 00:56:25.93	325.69	32.97	-40.0	-40.8	23.5	0.00e+00	0	41	0	1044381696	52	6312
2026-01-21 00:56:29.98	326.19	32.18	-40.6	-41.5	23.2	0.00e+00	0	41	0	1051721728	54	6059
2026-01-21 00:56:34.02	326.67	31.41	-42.2	-43.3	21.5	0.00e+00	66	41	0	1059061760	56	6686
2026-01-21 00:56:38.05	327.12	30.65	-43.0	-44.3	20.7	0.00e+00	92	41	0	1066401792	58	6644
2026-01-21 00:56:42.09	327.56	29.91	-42.5	-43.7	21.1	0.00e+00	0	41	0	1073741824	58	6222
2026-01-21 00:56:46.12	327.97	29.20	-41.3	-42.2	22.5	0.00e+00	27	41	0	1082130432	56	5884
2026-01-21 00:56:50.16	328.38	28.49	-40.9	-41.9	22.3	0.00e+00	29	41	0	1089470464	54	6332
2026-01-21 00:56:54.21	328.76	27.80	-40.9	-41.8	22.7	0.00e+00	0	41	0	1096810496	54	6315
2026-01-21 00:56:58.25	329.13	27.13	-40.6	-41.6	22.7	0.00e+00	0	41	0	1104150528	54	6152
2026-01-21 00:57:02.28	329.48	26.47	-41.2	-42.2	22.4	0.00e+00	92	41	0	1112539136	54	6588
2026-01-21 00:57:06.32	329.83	25.83	-40.5	-41.4	22.9	0.00e+00	90	41	0	1119879168	54	6006
2026-01-21 00:57:10.35	330.15	25.21	-40.9	-41.9	22.6	0.00e+00	0	41	0	1127219200	54	6384
2026-01-21 00:57:14.39	330.47	24.59	-40.5	-41.4	22.9	0.00e+00	0	41	0	1134559232	54	6028
2026-01-21 00:57:18.43	330.78	23.99	-40.9	-41.9	22.6	0.00e+00	92	41	0	1141899264	54	6332
2026-01-21 00:57:22.46	331.07	23.40	-39.2	-40.1	23.9	0.00e+00	92	41	0	1150287872	52	5768
2026-01-21 00:57:26.50	331.35	22.83	-37.8	-38.6	25.0	0.00e+00	0	41	0	1157627904	50	5442
2026-01-21 00:57:30.54	331.63	22.26	-37.9	-38.7	25.0	0.00e+00	0	41	0	1164967936	48	6198
2026-01-21 00:57:34.58	331.90	21.71	-38.8	-39.6	24.3	0.00e+00	23	41	0	1172307968	50	6107
2026-01-21 00:57:38.62	332.15	21.17	-39.3	-40.2	23.8	0.00e+00	0	41	0	1180696576	50	6551
2026-01-21 00:57:42.66	332.40	20.64	-39.3	-40.2	23.9	0.00e+00	0	41	0	1188036608	50	6543
2026-01-21 00:57:46.69	332.64	20.12	-38.7	-39.5	24.3	0.00e+00	42	41	0	1195376640	50	6079
2026-01-21 00:57:50.73	332.88	19.61	-38.8	-39.6	24.3	0.00e+00	66	41	0	1202716672	50	6157
2026-01-21 00:57:54.76	333.10	19.12	-38.4	-39.2	24.6	0.00e+00	0	41	0	1210056704	50	5859
2026-01-21 00:57:58.80	333.32	18.63	-38.8	-39.7	24.1	0.00e+00	0	41	0	1218445312	50	6174
2026-01-21 00:58:02.85	333.54	18.14	-39.1	-39.9	23.9	0.00e+00	62	41	0	1225785344	50	6389
2026-01-21 00:58:06.88	333.75	17.67	-39.3	-40.2	23.6	0.00e+00	0	41	0	1233125376	52	5870
2026-01-21 00:58:10.92	333.95	17.21	-39.8	-40.7	23.4	0.00e+00	0	41	0	1240465408	52	6203
2026-01-21 00:58:14.96	334.15	16.76	-39.9	-40.9	23.1	0.00e+00	0	41	0	1248854016	52	6320
2026-01-21 00:58:19.00	334.34	16.31	-39.6	-40.5	23.3	0.00e+00	92	41	0	1256194048	52	6060
2026-01-21 00:58:23.04	334.52	15.87	-39.8	-40.7	23.4	0.00e+00	0	41	0	1263534080	52	6204
2026-01-21 00:58:27.08	334.71	15.44	-39.4	-40.3	23.5	0.00e+00	0	41	0	1270874112	52	5906
2026-01-21 00:58:31.12	334.88	15.02	-39.7	-40.6	23.4	0.00e+00	27	41	0	1278214144	52	6133
2026-01-21 00:58:35.16	335.06	14.60	-40.2	-41.1	22.6	0.00e+00	63	41	0	1286602752	52	6529
2026-01-21 00:58:39.19	335.22	14.19	-40.4	-41.4	22.7	0.00e+00	25	41	0	1293942784	52	6699
2026-01-21 00:58:43.23	335.39	13.79	-40.5	-41.5	22.5	0.00e+00	0	41	0	1301282816	52	6788
2026-01-21 00:58:47.27	335.55	13.39	-40.8	-41.9	22.2	0.00e+00	80	41	0	1308622848	54	6323
2026-01-21 00:58:51.31	335.70	13.00	-41.2	-42.3	21.8	0.00e+00	0	41	0	1317011456	54	6620
2026-01-21 00:58:55.35	335.86	12.61	-41.2	-42.3	21.8	0.00e+00	0	41	0	1324351488	54	6616
2026-01-21 00:58:59.39	336.01	12.24	-41.2	-42.3	21.8	0.00e+00	0	42	0	1331691520	54	6667
2026-01-21 00:59:03.43	336.15	11.86	-41.2	-42.3	21.9	0.00e+00	92	41	0	1339031552	54	6649
2026-01-21 00:59:07.47	336.30	11.49	-41.6	-42.8	21.3	0.00e+00	0	41	0	1346371584	54	7043
2026-01-21 00:59:11.51	336.44	11.13	-41.4	-42.5	21.5	0.00e+00	0	41	0	1354760192	56	6099
2026-01-21 00:59:15.55	336.57	10.77	-41.7	-42.9	21.2	0.00e+00	0	41	0	1362100224	56	6336
2026-01-21 00:59:19.59	336.71	10.42	-41.5	-42.7	21.3	0.00e+00	91	41	0	1369440256	56	6242
2026-01-21 00:59:23.63	336.84	10.08	-41.0	-42.2	21.8	0.00e+00	0	41	0	1376780288	56	5839
2026-01-21 00:59:27.67	336.97	9.73	-41.5	-42.7	21.4	0.00e+00	0	41	0	1385168896	56	6197
2026-01-21 00:59:31.71	337.09	9.39	-40.5	-41.6	22.2	0.00e+00	61	41	0	1392508928	54	6120
2026-01-21 00:59:35.74	337.22	9.06	-40.5	-41.6	22.2	0.00e+00	0	42	0	1399848960	54	6123
2026-01-21 00:59:39.78	337.34	8.73	-40.6	-41.7	22.0	0.00e+00	0	42	0	1407188992	54	6212
2026-01-21 00:59:43.81	337.46	8.41	-40.8	-41.9	21.8	0.00e+00	0	42	0	1414529024	54	6353
2026-01-21 00:59:47.85	337.58	8.09	-40.9	-42.0	21.7	0.00e+00	21	41	0	1422917632	54	6427
2026-01-21 00:59:51.89	337.69	7.77	-41.2	-42.4	21.3	0.00e+00	0	41	0	1430257664	54	6742
2026-01-21 00:59:55.92	337.80	7.46	-41.3	-42.5	21.2	0.00e+00	0	41	0	1437597696	54	6809
2026-01-21 00:59:59.96	337.91	7.15	-41.5	-42.8	20.9	0.00e+00	0	41	0	1444937728	54	7008
2026-01-21 01:00:03.97	338.02	6.85	-41.5	-42.7	20.7	0.00e+00	92	42	0	1452277760	56	6215
2026-01-21 01:00:08.01	338.13	6.54	-41.6	-42.8	20.6	0.00e+00	0	41	0	1460666368	56	6303
2026-01-21 01:00:12.05	338.23	6.24	-42.0	-43.4	20.2	0.00e+00	0	41	0	1468006400	56	6700
2026-01-21 01:00:16.09	338.34	5.95	-42.7	-44.3	18.9	0.00e+00	9	41	0	1475346432	58	6679
2026-01-21 01:00:20.13	338.44	5.66	-42.2	-43.7	19.5	0.00e+00	86	41	0	1482686464	58	6195
2026-01-21 01:00:24.17	338.54	5.37	-43.3	-45.2	18.0	0.00e+00	0	41	0	1491075072	58	7349
2026-01-21 01:00:28.20	338.64	5.08	-44.1	-46.5	16.2	0.00e+00	0	42	0	1498415104	60	7672
2026-01-21 01:00:32.24	338.73	4.80	-45.1	-48.8	13.0	7.60e-06	20	42	0	1505755136	60	10002
2026-01-21 01:00:36.28	338.83	4.52	-45.8	-51.3	9.5	1.26e-02	15	42	0	1513095168	60	13266
2026-01-21 01:00:40.32	338.92	4.24	-46.2	-54.6	5.1	4.37e-01	0	42	0	1520435200	60	19331
2026-01-21 01:00:44.36	339.02	3.97	-46.3	-58.8	3.9	1.47e+00	0	42	104	1526726656	60	31429
2026-01-21 01:00:48.40	339.11	3.70	-46.3	-60.8	3.6	1.51e+00	0	42	104	1526726656	60	39766
2026-01-21 01:00:52.44	339.20	3.43	-46.3	-61.4	3.6	1.51e+00	0	42	104	1526726656	60	42521
2026-01-21 01:00:56.48	339.29	3.16	-46.4	-61.6	3.6	1.51e+00	0	42	104	1526726656	60	43665
2026-01-21 01:01:00.52	339.37	2.90	-50.0	-65.2	3.5	1.51e+00	0	42	104	1526726656	60	65806
2026-01-21 01:01:04.57	339.46	2.63	-51.0	-66.2	3.6	1.51e+00	0	42	104	1526726656	60	73663
2026-01-21 01:01:08.61	339.55	2.38	-51.3	-66.4	3.6	1.51e+00	0	42	104	1526726656	60	75852
2026-01-21 01:01:12.65	339.63	2.12	-51.1	-66.5	3.6	1.51e+00	0	42	104	1526726656	60	76504
2026-01-21 01:01:16.69	339.71	1.86	-51.2	-66.4	3.6	1.51e+00	0	42	104	1526726656	60	75829
2026-01-21 01:01:20.73	339.79	1.61	-51.2	-66.5	3.6	1.51e+00	0	42	104	1526726656	60	76127
2026-01-21 01:01:24.77	339.87	1.36	-51.3	-66.5	3.6	1.51e+00	0	42	104	1526726656	60	76344
2026-01-21 01:01:28.81	339.95	1.11	-51.3	-66.5	3.6	1.51e+00	0	42	104	1526726656	60	76152
2026-01-21 01:01:32.85	340.03	0.87	-51.3	-66.5	3.6	1.51e+00	0	42	104	1526726656	60	76222
2026-01-21 01:01:36.88	340.11	0.62	-51.5	-66.7	3.6	1.51e+00	0	42	104	1526726656	60	78352
2026-01-21 01:01:40.92	340.19	0.38	-51.4	-66.6	3.6	1.51e+00	0	42	104	1526726656	60	77526
2026-01-21 01:01:44.97	340.26	0.14	-51.5	-66.7	3.6	1.51e+00	0	42	104	1526726656	60	77916

#Closed at: 2026-01-21 01:01:49
#Recorded file [1526 MB]: D:/lorett/data/35029_260121_124620.dat