passes_logs/2026/01/21/R4.6S_Anadyr/R4.6S_Anadyr__20260121_212127_TY-39_rec.log

#Pass ID: 20260121_212127_TY-39
#Satellite: TY-39
#Configuration: TY-39
#almurnet v.1.7.20251203
#Start time: 2026-01-21 21:21:31

#Version: 2.2.20231116
#Station: R4.6S_Anadyr
#Location: 177.4865 lon 64.73178 lat
#TLE: 1 51832U 22019J   26020.29215168  .00001979  00000-0  95847-4 0  9990
#TLE: 2 51832  97.3639  86.8534 0009549  36.8814 323.3076 15.19660791215332

#Time	Az	El	Level	Level2	SNR	BER	BlckErr	Temp	State	Recorded	gain1	gain2
2026-01-21 21:21:31.43	22.15	0.22	-51.5	-69.2	3.5	3.04e+01	0	38	0	0	60	111010
2026-01-21 21:21:34.46	22.40	0.39	-51.5	-54.0	3.6	0.00e+00	0	40	104	0	60	61153
2026-01-21 21:21:37.49	22.65	0.57	-51.4	-53.8	3.6	0.00e+00	0	40	104	0	60	60097
2026-01-21 21:21:40.51	22.91	0.74	-51.2	-53.6	3.6	0.00e+00	0	40	104	0	60	58830
2026-01-21 21:21:43.54	23.17	0.91	-51.1	-53.5	3.6	0.00e+00	0	40	104	0	60	58220
2026-01-21 21:21:46.57	23.43	1.09	-50.7	-53.2	3.6	0.00e+00	0	40	104	0	60	55833
2026-01-21 21:21:49.60	23.70	1.26	-50.4	-52.9	3.6	0.00e+00	0	40	104	0	60	53981
2026-01-21 21:21:52.63	23.97	1.44	-49.8	-52.2	3.6	0.00e+00	0	40	104	0	60	50040
2026-01-21 21:21:55.66	24.25	1.62	-49.8	-52.3	3.6	0.00e+00	0	41	104	0	60	50239
2026-01-21 21:21:58.69	24.53	1.80	-49.7	-52.2	3.6	0.00e+00	0	41	104	0	60	50046
2026-01-21 21:22:01.72	24.81	1.98	-49.8	-52.3	3.6	0.00e+00	0	41	104	0	60	50621
2026-01-21 21:22:04.75	25.10	2.16	-49.7	-52.2	3.6	0.00e+00	0	41	104	0	60	50149
2026-01-21 21:22:07.78	25.39	2.34	-49.7	-52.2	3.6	0.00e+00	0	41	104	0	60	49912
2026-01-21 21:22:10.81	25.68	2.52	-49.8	-52.3	3.6	0.00e+00	0	41	104	0	60	50283
2026-01-21 21:22:13.84	25.99	2.71	-49.8	-52.3	3.6	0.00e+00	0	41	104	0	60	50295
2026-01-21 21:22:16.87	26.29	2.89	-49.8	-52.3	3.6	0.00e+00	0	41	104	0	60	50587
2026-01-21 21:22:19.90	26.60	3.08	-49.7	-52.2	3.5	0.00e+00	0	41	104	0	60	50029
2026-01-21 21:22:22.93	26.92	3.27	-49.8	-52.3	3.5	0.00e+00	0	41	104	0	60	50434
2026-01-21 21:22:25.96	27.24	3.45	-49.8	-52.4	3.6	0.00e+00	0	41	104	0	60	50837
2026-01-21 21:22:28.99	27.56	3.64	-49.7	-52.2	3.6	0.00e+00	0	41	104	0	60	50110
2026-01-21 21:22:32.02	27.89	3.83	-49.8	-52.3	3.6	0.00e+00	0	41	104	0	60	50243
2026-01-21 21:22:35.05	28.23	4.03	-50.0	-52.4	3.6	0.00e+00	0	41	104	0	60	51244
2026-01-21 21:22:38.08	28.57	4.22	-50.0	-52.5	3.6	0.00e+00	0	41	104	0	60	51917
2026-01-21 21:22:41.10	28.91	4.41	-49.9	-52.4	3.6	0.00e+00	0	41	104	0	60	50783
2026-01-21 21:22:44.13	29.26	4.61	-49.9	-52.4	3.6	0.00e+00	0	42	104	0	60	50775
2026-01-21 21:22:47.17	29.62	4.80	-49.4	-51.7	3.6	0.00e+00	0	42	104	0	60	47049
2026-01-21 21:22:50.19	29.98	5.00	-48.9	-50.8	3.6	0.00e+00	0	42	104	0	60	42626
2026-01-21 21:22:53.22	30.35	5.20	-49.7	-52.2	3.6	0.00e+00	0	42	104	0	60	50116
2026-01-21 21:22:56.25	30.73	5.40	-39.5	-39.9	9.5	0.00e+00	48	42	104	8388608	56	15169
2026-01-21 21:22:59.27	31.11	5.60	-34.6	-35.0	13.9	0.00e+00	0	42	0	176160768	44	17386
2026-01-21 21:23:02.30	31.50	5.80	-33.5	-34.0	14.5	0.00e+00	0	42	0	411041792	42	17225
2026-01-21 21:23:05.33	31.89	6.01	-32.4	-32.9	15.1	0.00e+00	0	42	0	629145600	40	17030
2026-01-21 21:23:08.36	32.29	6.21	-31.8	-32.2	15.4	0.00e+00	0	42	0	864026624	38	17757
2026-01-21 21:23:11.39	32.70	6.42	-31.2	-31.6	15.7	0.00e+00	0	42	0	1082130432	38	16593
2026-01-21 21:23:14.42	33.12	6.62	-31.7	-32.2	15.5	0.00e+00	0	42	0	1317011456	38	17680
2026-01-21 21:23:17.45	33.54	6.83	-31.5	-31.9	15.6	0.00e+00	0	42	0	1543503872	38	17138
2026-01-21 21:23:20.48	33.97	7.04	-31.5	-31.9	15.5	0.00e+00	0	42	0	1769996288	38	17129
2026-01-21 21:23:23.51	34.41	7.25	-31.6	-32.1	15.5	0.00e+00	0	42	0	1996488704	38	17475
2026-01-21 21:23:26.54	34.85	7.46	-31.3	-31.8	15.6	0.00e+00	0	43	0	2222981120	38	16859
2026-01-21 21:23:29.57	35.31	7.67	-31.0	-31.4	15.8	0.00e+00	0	43	0	2449473536	38	16188
2026-01-21 21:23:32.60	35.77	7.89	-31.1	-31.5	15.7	0.00e+00	0	43	0	2675965952	36	18407
2026-01-21 21:23:35.63	36.24	8.10	-31.0	-31.5	15.7	0.00e+00	0	43	0	2902458368	36	18265
2026-01-21 21:23:38.66	36.71	8.31	-31.8	-32.3	14.9	0.00e+00	0	43	0	3137339392	38	17943
2026-01-21 21:23:41.68	37.20	8.53	-31.0	-31.4	15.3	0.00e+00	0	43	0	3355443200	38	16163
2026-01-21 21:23:44.72	37.70	8.75	-31.7	-32.2	15.4	0.00e+00	0	43	0	3590324224	36	19782
2026-01-21 21:23:47.74	38.20	8.97	-31.0	-31.5	15.8	0.00e+00	0	43	0	3816816640	36	18270
2026-01-21 21:23:50.78	38.71	9.19	-30.6	-31.1	15.8	0.00e+00	0	43	0	4043309056	36	17445
2026-01-21 21:23:53.81	39.23	9.41	-30.5	-31.0	15.9	0.00e+00	0	43	0	4269801472	36	17264
2026-01-21 21:23:56.84	39.77	9.63	-30.4	-30.9	16.0	0.00e+00	0	43	0	4496293888	36	17108
2026-01-21 21:23:59.87	40.31	9.85	-30.5	-30.9	16.0	0.00e+00	0	43	0	4722786304	36	17190
2026-01-21 21:24:02.89	40.86	10.07	-30.3	-30.7	16.0	0.00e+00	0	43	0	4949278720	36	16741
2026-01-21 21:24:05.92	41.42	10.29	-30.3	-30.7	16.1	0.00e+00	0	43	0	5175771136	36	16784
2026-01-21 21:24:08.95	41.99	10.51	-30.2	-30.7	16.0	0.00e+00	0	43	0	5402263552	36	16652
2026-01-21 21:24:11.98	42.57	10.74	-29.8	-30.3	16.1	0.00e+00	0	43	0	5628755968	36	15959
2026-01-21 21:24:15.01	43.16	10.96	-29.7	-30.2	15.9	0.00e+00	0	43	0	5863636992	34	17679
2026-01-21 21:24:18.04	43.77	11.19	-29.6	-30.1	15.9	0.00e+00	0	43	0	6081740800	34	17452
2026-01-21 21:24:21.07	44.38	11.41	-29.7	-30.2	15.7	0.00e+00	0	43	0	6316621824	34	17697
2026-01-21 21:24:24.10	45.01	11.64	-29.5	-30.0	16.2	0.00e+00	0	43	0	6543114240	34	17247
2026-01-21 21:24:27.13	45.65	11.86	-29.5	-29.9	16.1	0.00e+00	0	43	0	6769606656	34	17115
2026-01-21 21:24:30.15	46.29	12.09	-29.4	-29.8	16.2	0.00e+00	0	43	0	6996099072	34	16968
2026-01-21 21:24:33.18	46.95	12.31	-29.3	-29.8	16.3	0.00e+00	0	43	0	7222591488	34	16818
2026-01-21 21:24:36.21	47.63	12.53	-29.1	-29.6	15.8	0.00e+00	0	43	0	7449083904	34	16505
2026-01-21 21:24:39.24	48.31	12.76	-29.1	-29.6	16.3	0.00e+00	0	43	0	7675576320	34	16498
2026-01-21 21:24:42.26	49.00	12.98	-29.4	-29.8	16.3	0.00e+00	0	43	0	7902068736	34	16978
2026-01-21 21:24:45.29	49.71	13.20	-29.0	-29.5	16.3	0.00e+00	0	43	0	8128561152	34	16277
2026-01-21 21:24:48.32	50.44	13.42	-29.1	-29.6	16.4	0.00e+00	0	43	0	8355053568	34	16457
2026-01-21 21:24:51.35	51.17	13.64	-29.0	-29.4	16.4	0.00e+00	0	43	0	8589934592	34	16225
2026-01-21 21:24:54.38	51.92	13.86	-28.8	-29.2	16.4	0.00e+00	0	43	0	8808038400	34	15862
2026-01-21 21:24:57.41	52.68	14.08	-28.7	-29.2	16.2	0.00e+00	0	43	0	9042919424	32	17723
2026-01-21 21:25:00.44	53.45	14.30	-28.8	-29.2	16.4	0.00e+00	0	43	0	9261023232	32	17752
2026-01-21 21:25:03.47	54.24	14.51	-28.7	-29.2	16.4	0.00e+00	0	44	0	9495904256	32	17617
2026-01-21 21:25:06.50	55.04	14.72	-28.6	-29.0	16.4	0.00e+00	0	43	0	9722396672	32	17399
2026-01-21 21:25:09.53	55.85	14.93	-28.5	-29.0	16.6	0.00e+00	0	44	0	9948889088	32	17309
2026-01-21 21:25:12.56	56.68	15.14	-28.5	-28.9	16.5	0.00e+00	0	44	0	10175381504	32	17198
2026-01-21 21:25:15.58	57.51	15.34	-28.4	-28.9	16.4	0.00e+00	0	43	0	10401873920	32	17091
2026-01-21 21:25:18.61	58.37	15.54	-28.4	-28.8	15.5	0.00e+00	0	44	0	10628366336	32	16946
2026-01-21 21:25:21.64	59.23	15.74	-28.3	-28.8	16.3	0.00e+00	0	44	0	10854858752	32	16835
2026-01-21 21:25:24.66	60.11	15.94	-28.2	-28.7	16.4	0.00e+00	0	44	0	11081351168	32	16696
2026-01-21 21:25:27.69	61.00	16.13	-28.0	-28.5	15.4	0.00e+00	0	44	0	11307843584	32	16335
2026-01-21 21:25:30.72	61.91	16.31	-28.1	-28.6	16.6	0.00e+00	0	44	0	11534336000	32	16456
2026-01-21 21:25:33.75	62.83	16.50	-28.2	-28.7	16.6	0.00e+00	0	44	0	11769217024	32	16618
2026-01-21 21:25:36.78	63.76	16.67	-28.0	-28.5	16.6	0.00e+00	0	44	0	11987320832	32	16299
2026-01-21 21:25:39.81	64.70	16.85	-28.0	-28.5	16.6	0.00e+00	0	44	0	12222201856	32	16353
2026-01-21 21:25:42.84	65.66	17.02	-28.4	-28.9	16.0	0.00e+00	0	44	0	12448694272	32	17067
2026-01-21 21:25:45.87	66.63	17.18	-27.8	-28.3	16.4	0.00e+00	0	44	0	12675186688	32	15986
2026-01-21 21:25:48.90	67.61	17.33	-27.8	-28.2	16.7	0.00e+00	0	44	0	12901679104	30	17762
2026-01-21 21:25:51.93	68.60	17.48	-27.9	-28.4	16.5	0.00e+00	0	43	0	13128171520	30	18113
2026-01-21 21:25:54.96	69.60	17.63	-28.3	-28.7	16.6	0.00e+00	0	44	0	13354663936	30	18835
2026-01-21 21:25:57.99	70.62	17.77	-27.8	-28.3	15.8	0.00e+00	0	44	0	13581156352	30	17852
2026-01-21 21:26:01.02	71.64	17.90	-27.7	-28.2	16.4	0.00e+00	0	44	0	13807648768	30	17746
2026-01-21 21:26:04.05	72.67	18.02	-27.8	-28.3	16.7	0.00e+00	0	44	0	14042529792	30	17945
2026-01-21 21:26:07.08	73.72	18.14	-27.5	-28.0	16.7	0.00e+00	0	44	0	14260633600	30	17216
2026-01-21 21:26:10.11	74.77	18.24	-27.5	-28.0	16.7	0.00e+00	0	44	0	14495514624	30	17245
2026-01-21 21:26:13.14	75.83	18.34	-27.4	-27.9	16.8	0.00e+00	0	44	0	14713618432	30	17074
2026-01-21 21:26:16.17	76.90	18.44	-27.5	-28.0	16.6	0.00e+00	0	44	0	14948499456	30	17217
2026-01-21 21:26:19.20	77.97	18.52	-27.6	-28.1	16.1	0.00e+00	0	44	0	15174991872	30	17439
2026-01-21 21:26:22.23	79.05	18.60	-27.4	-27.9	16.7	0.00e+00	0	44	0	15401484288	30	17165
2026-01-21 21:26:25.26	80.14	18.66	-27.4	-27.9	16.7	0.00e+00	0	44	0	15627976704	30	17052
2026-01-21 21:26:28.28	81.23	18.72	-27.4	-27.9	16.6	0.00e+00	0	44	0	15854469120	30	17117
2026-01-21 21:26:31.31	82.33	18.77	-27.7	-28.1	16.6	0.00e+00	0	44	0	16080961536	30	17551
2026-01-21 21:26:34.34	83.43	18.81	-27.4	-27.9	16.1	0.00e+00	0	44	0	16307453952	30	17021
2026-01-21 21:26:37.37	84.53	18.84	-27.2	-27.7	16.7	0.00e+00	0	44	0	16533946368	30	16719
2026-01-21 21:26:40.40	85.63	18.86	-27.4	-27.9	16.7	0.00e+00	0	44	0	16768827392	30	17063
2026-01-21 21:26:43.43	86.74	18.87	-27.3	-27.7	16.7	0.00e+00	0	44	0	16986931200	30	16779
2026-01-21 21:26:46.46	87.85	18.87	-27.4	-27.9	16.8	0.00e+00	0	44	0	17221812224	30	17031
2026-01-21 21:26:49.49	88.96	18.86	-27.3	-27.8	16.7	0.00e+00	0	44	0	17448304640	30	16869
2026-01-21 21:26:52.52	90.06	18.85	-27.4	-27.8	16.7	0.00e+00	0	44	0	17674797056	30	16952
2026-01-21 21:26:55.55	91.17	18.82	-27.3	-27.8	16.8	0.00e+00	0	44	0	17901289472	30	16911
2026-01-21 21:26:58.58	92.27	18.78	-27.3	-27.8	16.7	0.00e+00	0	44	0	18127781888	30	16895
2026-01-21 21:27:01.60	93.36	18.74	-27.3	-27.8	16.7	0.00e+00	0	44	0	18354274304	30	16950
2026-01-21 21:27:04.63	94.46	18.68	-27.4	-27.9	16.8	0.00e+00	0	44	0	18580766720	30	17079
2026-01-21 21:27:07.66	95.55	18.62	-27.3	-27.8	16.7	0.00e+00	0	44	0	18807259136	30	16925
2026-01-21 21:27:10.69	96.63	18.55	-27.5	-27.9	16.6	0.00e+00	0	44	0	19033751552	30	17181
2026-01-21 21:27:13.71	97.71	18.47	-27.5	-28.0	16.7	0.00e+00	0	44	0	19260243968	30	17277
2026-01-21 21:27:16.74	98.78	18.38	-27.6	-28.1	16.7	0.00e+00	0	44	0	19495124992	30	17556
2026-01-21 21:27:19.77	99.84	18.28	-27.5	-27.9	16.7	0.00e+00	0	44	0	19713228800	30	17200
2026-01-21 21:27:22.80	100.90	18.18	-27.7	-28.2	16.7	0.00e+00	0	44	0	19948109824	30	17650
2026-01-21 21:27:25.83	101.95	18.06	-27.7	-28.2	16.7	0.00e+00	0	44	0	20166213632	30	17660
2026-01-21 21:27:28.86	102.99	17.94	-27.8	-28.3	16.7	0.00e+00	0	44	0	20401094656	30	17835
2026-01-21 21:27:31.89	104.01	17.82	-27.6	-28.1	16.7	0.00e+00	0	44	0	20627587072	30	17449
2026-01-21 21:27:34.92	105.03	17.68	-27.7	-28.2	16.7	0.00e+00	0	44	0	20854079488	30	17659
2026-01-21 21:27:37.95	106.04	17.54	-27.8	-28.3	16.7	0.00e+00	0	44	0	21080571904	30	17909
2026-01-21 21:27:40.98	107.04	17.39	-27.9	-28.4	16.7	0.00e+00	0	44	0	21307064320	30	18019
2026-01-21 21:27:44.01	108.03	17.24	-27.9	-28.3	16.7	0.00e+00	0	44	0	21533556736	30	17984
2026-01-21 21:27:47.04	109.00	17.07	-27.9	-28.3	16.7	0.00e+00	0	44	0	21760049152	30	17983
2026-01-21 21:27:50.07	109.96	16.91	-27.8	-28.3	16.7	0.00e+00	0	44	0	21986541568	30	17886
2026-01-21 21:27:53.10	110.91	16.74	-27.9	-28.4	16.7	0.00e+00	0	44	0	22221422592	30	18103
2026-01-21 21:27:56.12	111.85	16.56	-28.0	-28.5	16.7	0.00e+00	0	44	0	22439526400	30	18318
2026-01-21 21:27:59.15	112.77	16.38	-28.0	-28.5	16.6	0.00e+00	0	44	0	22674407424	30	18372
2026-01-21 21:28:02.18	113.68	16.19	-28.2	-28.7	16.6	0.00e+00	0	44	0	22892511232	30	18671
2026-01-21 21:28:05.21	114.58	16.00	-28.2	-28.6	16.6	0.00e+00	0	44	0	23127392256	30	18610
2026-01-21 21:28:08.24	115.47	15.81	-28.5	-28.9	16.5	0.00e+00	0	44	0	23353884672	30	19291
2026-01-21 21:28:11.27	116.34	15.61	-28.3	-28.8	16.5	0.00e+00	0	44	0	23580377088	30	19000
2026-01-21 21:28:14.31	117.21	15.41	-28.2	-28.7	16.5	0.00e+00	0	44	0	23806869504	30	18766
2026-01-21 21:28:17.34	118.05	15.21	-28.4	-28.9	16.5	0.00e+00	0	44	0	24033361920	30	19215
2026-01-21 21:28:20.37	118.88	15.00	-28.5	-28.9	16.6	0.00e+00	0	44	0	24259854336	30	19255
2026-01-21 21:28:23.40	119.70	14.79	-28.7	-29.2	16.5	0.00e+00	0	44	0	24486346752	32	17718
2026-01-21 21:28:26.43	120.51	14.58	-28.6	-29.1	16.5	0.00e+00	0	44	0	24712839168	32	17419
2026-01-21 21:28:29.46	121.30	14.36	-28.8	-29.3	16.5	0.00e+00	0	44	0	24947720192	32	17857
2026-01-21 21:28:32.49	122.08	14.15	-28.8	-29.3	16.4	0.00e+00	0	44	0	25174212608	32	17865
2026-01-21 21:28:35.52	122.85	13.93	-28.9	-29.4	16.4	0.00e+00	0	44	0	25400705024	32	18034
2026-01-21 21:28:38.56	123.61	13.71	-28.9	-29.4	16.4	0.00e+00	0	44	0	25627197440	32	18052
2026-01-21 21:28:41.58	124.34	13.49	-28.9	-29.3	16.4	0.00e+00	0	44	0	25853689856	32	18002
2026-01-21 21:28:44.61	125.07	13.27	-29.1	-29.5	16.4	0.00e+00	0	44	0	26080182272	32	18428
2026-01-21 21:28:47.64	125.79	13.05	-29.1	-29.6	16.3	0.00e+00	0	44	0	26306674688	32	18470
2026-01-21 21:28:50.67	126.49	12.82	-29.1	-29.6	16.3	0.00e+00	0	44	0	26533167104	32	18548
2026-01-21 21:28:53.70	127.18	12.60	-29.2	-29.7	16.3	0.00e+00	0	44	0	26759659520	32	18655
2026-01-21 21:28:56.73	127.86	12.37	-29.4	-29.9	16.2	0.00e+00	0	44	0	26986151936	32	19121
2026-01-21 21:28:59.76	128.52	12.15	-29.9	-30.3	16.2	0.00e+00	0	44	0	27212644352	34	17988
2026-01-21 21:29:02.79	129.18	11.92	-29.7	-30.1	16.3	0.00e+00	0	44	0	27439136768	34	17580
2026-01-21 21:29:05.81	129.82	11.70	-29.4	-29.9	16.3	0.00e+00	0	44	0	27674017792	34	17144
2026-01-21 21:29:08.84	130.45	11.47	-29.7	-30.2	16.2	0.00e+00	0	44	0	27900510208	34	17617
2026-01-21 21:29:11.87	131.07	11.24	-29.8	-30.2	16.1	0.00e+00	0	44	0	28127002624	34	17749
2026-01-21 21:29:14.90	131.68	11.02	-29.8	-30.3	16.1	0.00e+00	0	44	0	28353495040	34	17938
2026-01-21 21:29:17.93	132.27	10.79	-29.8	-30.3	16.1	0.00e+00	0	44	0	28579987456	34	17846
2026-01-21 21:29:20.96	132.86	10.57	-30.1	-30.5	16.0	0.00e+00	0	44	0	28806479872	34	18413
2026-01-21 21:29:23.98	133.43	10.35	-29.8	-30.2	16.2	0.00e+00	0	44	0	29032972288	34	17774
2026-01-21 21:29:27.02	134.00	10.12	-30.2	-30.7	16.0	0.00e+00	0	44	0	29259464704	34	18774
2026-01-21 21:29:30.04	134.56	9.90	-30.2	-30.6	16.1	0.00e+00	0	44	0	29485957120	34	18612
2026-01-21 21:29:33.08	135.10	9.68	-30.2	-30.6	16.0	0.00e+00	0	44	0	29712449536	34	18637
2026-01-21 21:29:36.11	135.64	9.45	-30.4	-30.9	15.9	0.00e+00	0	44	0	29938941952	34	19084
2026-01-21 21:29:39.14	136.16	9.23	-30.6	-31.0	15.9	0.00e+00	0	44	0	30165434368	34	19485
2026-01-21 21:29:42.17	136.68	9.01	-30.4	-30.9	15.9	0.00e+00	0	44	0	30400315392	34	19243
2026-01-21 21:29:45.20	137.19	8.79	-30.6	-31.0	15.9	0.00e+00	0	44	0	30626807808	34	19458
2026-01-21 21:29:48.23	137.69	8.57	-30.5	-30.9	15.9	0.00e+00	0	44	0	30853300224	36	17178
2026-01-21 21:29:51.26	138.18	8.36	-30.9	-31.4	15.8	0.00e+00	0	44	0	31079792640	36	18037
2026-01-21 21:29:54.29	138.66	8.14	-31.4	-31.9	15.5	0.00e+00	0	44	0	31306285056	36	19213
2026-01-21 21:29:57.32	139.13	7.92	-32.5	-33.0	14.9	0.00e+00	0	44	0	31532777472	38	19337
2026-01-21 21:30:00.35	139.59	7.71	-33.5	-34.0	14.2	0.00e+00	0	44	0	31759269888	40	19337
2026-01-21 21:30:03.39	140.05	7.50	-35.6	-36.0	12.6	6.90e-06	0	44	0	31985762304	44	19423
2026-01-21 21:30:06.42	140.50	7.28	-36.7	-37.1	11.9	2.64e-04	0	44	0	32212254720	48	17519
2026-01-21 21:30:09.45	140.94	7.07	-37.6	-37.9	10.9	1.14e-03	0	44	0	32447135744	48	19241
2026-01-21 21:30:12.47	141.37	6.86	-37.2	-37.6	11.3	8.60e-04	0	44	0	32665239552	48	18521
2026-01-21 21:30:15.51	141.79	6.65	-36.9	-37.3	11.7	3.54e-04	0	44	0	32900120576	48	17818
2026-01-21 21:30:18.53	142.21	6.44	-36.0	-36.4	12.5	4.85e-05	0	44	0	33126612992	48	16173
2026-01-21 21:30:21.56	142.62	6.24	-34.6	-35.0	13.5	1.38e-05	0	44	0	33353105408	44	17378
2026-01-21 21:30:24.59	143.02	6.03	-34.1	-34.6	13.8	0.00e+00	0	44	0	33579597824	44	16477
2026-01-21 21:30:27.63	143.42	5.83	-33.9	-34.3	13.9	0.00e+00	0	44	0	33806090240	42	17931
2026-01-21 21:30:30.65	143.81	5.62	-33.7	-34.2	14.1	0.00e+00	0	44	0	34032582656	42	17684
2026-01-21 21:30:33.68	144.20	5.42	-33.0	-33.4	14.5	0.00e+00	0	44	0	34259075072	42	16183
2026-01-21 21:30:36.71	144.57	5.22	-49.7	-52.2	3.6	0.00e+00	0	44	104	34452013056	60	49836
2026-01-21 21:30:39.74	144.94	5.02	-49.5	-52.0	3.6	0.00e+00	0	44	104	34452013056	60	48866
2026-01-21 21:30:42.77	145.31	4.82	-49.5	-52.0	3.6	0.00e+00	0	44	104	34452013056	60	48875
2026-01-21 21:30:45.81	145.67	4.62	-49.7	-52.2	3.6	0.00e+00	0	44	104	34452013056	60	49886
2026-01-21 21:30:48.84	146.02	4.43	-49.7	-52.2	3.6	0.00e+00	0	44	104	34452013056	60	49891
2026-01-21 21:30:51.86	146.37	4.23	-49.8	-52.3	3.6	0.00e+00	0	43	104	34452013056	60	50210
2026-01-21 21:30:54.89	146.71	4.04	-49.0	-51.5	3.6	0.00e+00	0	44	104	34452013056	60	45892
2026-01-21 21:30:57.92	147.04	3.85	-49.0	-51.5	3.6	0.00e+00	0	44	104	34452013056	60	46078
2026-01-21 21:31:00.95	147.37	3.65	-48.0	-50.6	3.6	0.00e+00	0	43	104	34452013056	60	41360
2026-01-21 21:31:03.98	147.70	3.46	-49.1	-51.7	3.6	0.00e+00	0	44	104	34452013056	60	46936
2026-01-21 21:31:07.01	148.02	3.27	-49.4	-52.0	3.6	0.00e+00	0	43	104	34452013056	60	48611
2026-01-21 21:31:10.04	148.34	3.09	-48.7	-51.2	3.6	0.00e+00	0	43	104	34452013056	60	44586
2026-01-21 21:31:13.07	148.65	2.90	-49.9	-52.4	3.6	0.00e+00	0	43	104	34452013056	60	50782
2026-01-21 21:31:16.10	148.95	2.71	-50.9	-53.3	3.6	0.00e+00	0	43	104	34452013056	60	56916
2026-01-21 21:31:19.13	149.25	2.53	-51.0	-53.5	3.6	0.00e+00	0	43	104	34452013056	60	58014
2026-01-21 21:31:22.16	149.55	2.34	-51.0	-53.5	3.6	0.00e+00	0	43	104	34452013056	60	58036
2026-01-21 21:31:25.19	149.84	2.16	-51.2	-53.6	3.6	0.00e+00	0	43	104	34452013056	60	58852
2026-01-21 21:31:28.22	150.13	1.98	-51.4	-53.8	3.6	0.00e+00	0	43	104	34452013056	60	60156
2026-01-21 21:31:31.25	150.41	1.80	-51.3	-53.8	3.6	0.00e+00	0	43	104	34452013056	60	59792
2026-01-21 21:31:34.28	150.69	1.62	-51.4	-53.8	3.5	0.00e+00	0	43	104	34452013056	60	60018
2026-01-21 21:31:37.31	150.97	1.44	-51.4	-53.8	3.6	0.00e+00	0	43	104	34452013056	60	60183
2026-01-21 21:31:40.34	151.24	1.26	-51.5	-53.9	3.6	0.00e+00	0	43	104	34452013056	60	60830
2026-01-21 21:31:43.37	151.50	1.08	-51.5	-53.9	3.6	0.00e+00	0	43	104	34452013056	60	60715
2026-01-21 21:31:46.40	151.77	0.91	-51.5	-53.9	3.6	0.00e+00	0	43	104	34452013056	60	60950
2026-01-21 21:31:49.42	152.03	0.73	-51.6	-54.0	3.6	0.00e+00	0	43	104	34452013056	60	61712
2026-01-21 21:31:52.46	152.28	0.56	-51.5	-54.0	3.6	0.00e+00	0	43	104	34452013056	60	61208
2026-01-21 21:31:55.49	152.54	0.38	-51.5	-54.0	3.6	0.00e+00	0	43	104	34452013056	60	61136
2026-01-21 21:31:58.52	152.78	0.21	-51.7	-54.1	3.6	0.00e+00	0	43	104	34452013056	60	62293
2026-01-21 21:32:01.55	153.03	0.04	-51.7	-54.2	3.6	0.00e+00	0	43	104	34452013056	60	62638
2026-01-21 21:32:04.58	153.27	-0.13	-51.8	-54.2	3.6	0.00e+00	0	43	104	34452013056	60	62844

#Closed at: 2026-01-21 21:32:05
#Recorded file [34452 MB]: D:/lorett/data/35029_260122_092131.dat