passes_logs/2026/01/21/R4.6S_Anadyr/R4.6S_Anadyr__20260121_042047_AQUA_rec.log

#Pass ID: 20260121_042047_AQUA
#Satellite: AQUA
#Configuration: AQUA
#almurnet v.1.7.20251203
#Start time: 2026-01-21 04:20:49

#Version: 2.2.20231116
#Station: R4.6S_Anadyr
#Location: 177.4865 lon 64.73178 lat
#TLE: 1 27424U 02022A   26020.30984080  .00001497  00000+0  30942-3 0  9998
#TLE: 2 27424  98.4092 346.8266 0001984  71.7888  69.0903 14.61835321261661

#Time	Az	El	Level	Level2	SNR	BER	BlckErr	Temp	State	Recorded	gain1	gain2
2026-01-21 04:20:49.11	222.53	0.07	-53.0	-64.6	3.5	8.45e-01	0	39	0	0	60	61636
2026-01-21 04:20:52.14	222.80	0.22	-53.6	-71.5	3.5	3.02e+01	0	40	104	0	60	144134
2026-01-21 04:20:55.17	223.07	0.37	-52.9	-70.9	3.5	3.02e+01	0	40	104	0	60	134970
2026-01-21 04:20:58.20	223.34	0.52	-53.0	-70.9	3.5	3.02e+01	0	40	104	0	60	134974
2026-01-21 04:21:01.22	223.61	0.67	-52.8	-70.7	3.5	3.02e+01	0	40	104	0	60	131799
2026-01-21 04:21:04.26	223.89	0.82	-53.6	-71.4	3.5	3.02e+01	0	41	104	0	60	143574
2026-01-21 04:21:07.29	224.17	0.97	-52.3	-70.4	3.5	3.02e+01	0	41	104	0	60	127501
2026-01-21 04:21:10.32	224.45	1.12	-51.6	-69.6	3.5	3.02e+01	0	40	104	0	60	115999
2026-01-21 04:21:13.35	224.74	1.27	-50.4	-68.4	3.5	3.02e+01	0	41	104	0	60	101359
2026-01-21 04:21:16.38	225.02	1.43	-46.6	-68.1	3.5	3.02e+01	0	41	104	0	60	97973
2026-01-21 04:21:19.41	225.32	1.58	-46.0	-67.4	3.5	3.02e+01	0	41	104	0	60	89997
2026-01-21 04:21:22.45	225.61	1.73	-45.6	-67.0	3.5	3.02e+01	0	41	104	0	60	85951
2026-01-21 04:21:25.48	225.91	1.89	-46.3	-67.5	3.5	3.02e+01	0	41	104	0	60	91650
2026-01-21 04:21:28.51	226.21	2.04	-47.5	-68.5	3.5	3.02e+01	0	41	104	0	60	101986
2026-01-21 04:21:31.54	226.52	2.19	-46.8	-68.3	3.5	3.02e+01	0	41	104	0	60	100076
2026-01-21 04:21:34.57	226.82	2.35	-46.8	-68.1	3.5	3.02e+01	0	41	104	0	60	97928
2026-01-21 04:21:37.60	227.14	2.50	-46.7	-67.4	3.5	3.02e+01	0	41	104	0	60	89865
2026-01-21 04:21:40.63	227.45	2.66	-45.4	-64.8	3.8	3.02e+01	0	41	104	0	60	66887
2026-01-21 04:21:43.66	227.77	2.81	-45.4	-57.9	7.8	3.02e+01	47	41	0	1048576	60	30118
2026-01-21 04:21:46.69	228.09	2.97	-45.7	-57.4	8.5	3.02e+01	6	41	0	6815744	60	28394
2026-01-21 04:21:49.72	228.42	3.12	-47.1	-61.3	3.7	3.02e+01	8	41	104	12058624	60	44740
2026-01-21 04:21:52.74	228.74	3.28	-47.2	-55.1	12.2	3.02e+01	0	41	0	13631488	60	21768
2026-01-21 04:21:55.77	229.08	3.43	-48.2	-55.7	10.9	3.02e+01	0	41	0	19398656	60	23465
2026-01-21 04:21:58.80	229.41	3.59	-47.9	-53.7	13.0	3.02e+01	0	41	0	24641536	60	18528
2026-01-21 04:22:01.83	229.75	3.75	-47.6	-54.8	11.9	3.02e+01	0	41	0	30408704	60	21069
2026-01-21 04:22:04.86	230.10	3.90	-47.9	-54.3	12.5	3.02e+01	0	41	0	36175872	60	19858
2026-01-21 04:22:07.89	230.45	4.06	-48.1	-55.5	11.0	3.02e+01	0	41	0	41943040	60	23033
2026-01-21 04:22:10.92	230.80	4.22	-48.8	-56.2	10.7	3.02e+01	0	41	0	47710208	60	24730
2026-01-21 04:22:13.95	231.16	4.37	-48.6	-56.5	10.2	3.02e+01	0	41	0	52953088	60	25763
2026-01-21 04:22:16.98	231.52	4.53	-49.3	-57.5	9.2	3.02e+01	0	41	0	58720256	60	28889
2026-01-21 04:22:20.01	231.88	4.69	-49.4	-57.1	9.7	3.02e+01	0	41	0	64487424	60	27684
2026-01-21 04:22:23.04	232.25	4.85	-49.3	-57.2	9.9	3.02e+01	0	41	0	70254592	60	27854
2026-01-21 04:22:26.06	232.62	5.01	-49.7	-57.9	9.7	3.02e+01	0	41	0	76021760	60	30080
2026-01-21 04:22:29.09	233.00	5.16	-50.0	-58.1	9.3	3.02e+01	0	41	0	81788928	60	30867
2026-01-21 04:22:32.12	233.38	5.32	-49.6	-57.3	10.1	3.02e+01	0	41	0	87556096	60	28089
2026-01-21 04:22:35.15	233.76	5.48	-49.5	-58.0	9.4	3.02e+01	0	41	0	92798976	60	30480
2026-01-21 04:22:38.18	234.15	5.64	-49.3	-57.1	10.0	3.02e+01	0	41	0	98566144	60	27446
2026-01-21 04:22:41.21	234.55	5.80	-49.3	-56.9	10.3	3.02e+01	0	41	0	104333312	60	26962
2026-01-21 04:22:44.24	234.95	5.95	-49.5	-56.9	10.6	3.02e+01	0	41	0	110100480	60	26797
2026-01-21 04:22:47.27	235.35	6.11	-49.4	-56.4	11.3	3.02e+01	0	41	0	115867648	60	25297
2026-01-21 04:22:50.30	235.76	6.27	-48.9	-55.9	11.6	3.02e+01	0	41	0	121110528	60	24002
2026-01-21 04:22:53.33	236.17	6.43	-48.6	-55.2	12.4	3.02e+01	0	41	0	126877696	60	22100
2026-01-21 04:22:56.36	236.59	6.59	-48.2	-54.1	13.7	3.02e+01	0	41	0	132644864	60	19431
2026-01-21 04:22:59.39	237.01	6.75	-47.9	-53.3	14.3	3.02e+01	0	41	0	138412032	60	17853
2026-01-21 04:23:02.42	237.44	6.90	-47.7	-52.5	15.1	3.02e+01	0	41	0	144179200	60	16251
2026-01-21 04:23:05.45	237.87	7.06	-47.7	-51.9	15.8	3.02e+01	0	41	0	149946368	60	15165
2026-01-21 04:23:08.48	238.31	7.22	-47.3	-51.1	16.9	3.02e+01	0	41	0	155713536	60	13738
2026-01-21 04:23:11.50	238.75	7.37	-46.5	-50.1	17.9	3.02e+01	0	41	0	160956416	60	12241
2026-01-21 04:23:14.53	239.20	7.53	-46.2	-49.7	18.3	3.02e+01	0	41	0	166723584	60	11748
2026-01-21 04:23:17.56	239.65	7.69	-46.1	-49.2	18.7	3.02e+01	0	41	0	172490752	60	11119
2026-01-21 04:23:20.59	240.11	7.84	-45.3	-48.0	20.1	3.02e+01	0	41	0	178257920	60	9615
2026-01-21 04:23:23.62	240.57	8.00	-45.2	-47.6	20.5	3.02e+01	0	41	0	184025088	60	9184
2026-01-21 04:23:26.64	241.03	8.15	-45.1	-47.3	21.1	3.02e+01	0	41	0	189267968	60	8950
2026-01-21 04:23:29.67	241.51	8.31	-45.2	-47.2	22.2	3.02e+01	0	41	0	195035136	60	8797
2026-01-21 04:23:32.70	241.99	8.46	-44.2	-46.1	22.6	3.02e+01	0	41	0	200802304	60	7742
2026-01-21 04:23:35.73	242.47	8.62	-43.4	-45.2	23.3	3.02e+01	0	41	0	206569472	60	6987
2026-01-21 04:23:38.76	242.96	8.77	-43.3	-45.0	23.8	3.02e+01	0	41	0	212336640	60	6810
2026-01-21 04:23:41.79	243.45	8.92	-42.7	-44.3	24.4	3.02e+01	0	41	0	218103808	60	6311
2026-01-21 04:23:44.82	243.95	9.07	-42.1	-43.6	25.1	3.02e+01	0	41	0	223346688	60	5836
2026-01-21 04:23:47.85	244.46	9.22	-41.4	-42.9	25.5	3.02e+01	0	41	0	229113856	58	6029
2026-01-21 04:23:50.88	244.97	9.37	-41.0	-42.4	25.9	3.02e+01	0	41	0	234881024	56	6413
2026-01-21 04:23:53.90	245.48	9.52	-40.9	-42.3	26.1	3.02e+01	0	41	0	240648192	56	6299
2026-01-21 04:23:56.93	246.00	9.67	-41.0	-42.4	25.9	3.02e+01	0	41	0	246415360	56	6410
2026-01-21 04:23:59.96	246.53	9.82	-39.7	-41.1	26.8	3.02e+01	0	41	0	252182528	54	6155
2026-01-21 04:24:02.99	247.06	9.96	-39.6	-40.9	26.9	3.02e+01	0	41	0	257425408	54	6059
2026-01-21 04:24:06.02	247.60	10.11	-39.4	-40.7	27.2	3.02e+01	0	41	0	263192576	54	5913
2026-01-21 04:24:09.04	248.14	10.25	-39.6	-40.9	27.0	3.02e+01	0	41	0	268959744	54	6063
2026-01-21 04:24:12.07	248.69	10.39	-39.2	-40.6	27.3	3.02e+01	0	41	0	274726912	54	5793
2026-01-21 04:24:15.10	249.25	10.53	-39.2	-40.5	27.3	3.02e+01	0	41	0	280494080	54	5763
2026-01-21 04:24:18.13	249.81	10.67	-39.2	-40.5	27.5	3.02e+01	0	41	0	286261248	54	5744
2026-01-21 04:24:21.15	250.37	10.81	-39.1	-40.5	27.4	3.02e+01	0	41	0	291504128	52	6437
2026-01-21 04:24:24.18	250.94	10.95	-38.9	-40.2	27.6	3.02e+01	0	41	0	297271296	52	6209
2026-01-21 04:24:27.21	251.52	11.08	-39.4	-40.7	27.4	3.02e+01	0	41	0	303038464	52	6596
2026-01-21 04:24:30.24	252.10	11.21	-39.1	-40.4	27.7	3.02e+01	0	41	0	308805632	52	6364
2026-01-21 04:24:33.27	252.69	11.35	-39.1	-40.4	27.7	3.02e+01	0	41	0	314572800	52	6391
2026-01-21 04:24:36.30	253.29	11.48	-39.2	-40.5	27.6	3.02e+01	0	41	0	320339968	52	6444
2026-01-21 04:24:39.33	253.89	11.60	-39.1	-40.4	27.7	3.02e+01	0	41	0	325582848	52	6375
2026-01-21 04:24:42.36	254.49	11.73	-39.3	-40.6	27.5	3.02e+01	0	41	0	331350016	52	6561
2026-01-21 04:24:45.39	255.10	11.85	-39.6	-40.8	27.8	3.02e+01	0	41	0	337117184	52	6723
2026-01-21 04:24:48.42	255.72	11.98	-39.3	-40.6	28.0	3.02e+01	0	41	0	342884352	54	5834
2026-01-21 04:24:51.45	256.34	12.09	-39.4	-40.7	27.8	3.02e+01	0	41	0	348651520	54	5873
2026-01-21 04:24:54.48	256.96	12.21	-39.3	-40.6	28.1	3.02e+01	0	41	0	354418688	54	5819
2026-01-21 04:24:57.51	257.59	12.33	-39.3	-40.6	28.0	3.02e+01	0	41	0	359661568	54	5808
2026-01-21 04:25:00.54	258.23	12.44	-39.3	-40.5	28.1	3.02e+01	0	41	0	365428736	54	5786
2026-01-21 04:25:03.57	258.87	12.55	-39.0	-40.2	28.2	3.02e+01	0	41	0	371195904	54	5576
2026-01-21 04:25:06.60	259.52	12.66	-39.4	-40.7	27.9	3.02e+01	0	41	0	376963072	52	6578
2026-01-21 04:25:09.63	260.17	12.76	-39.3	-40.6	28.1	3.02e+01	0	41	0	382730240	52	6519
2026-01-21 04:25:12.66	260.82	12.86	-39.3	-40.5	28.1	3.02e+01	0	41	0	388497408	52	6479
2026-01-21 04:25:15.68	261.48	12.96	-38.8	-40.1	28.1	3.02e+01	0	41	0	393740288	52	6183
2026-01-21 04:25:18.71	262.15	13.06	-39.1	-40.4	28.2	3.02e+01	0	41	0	399507456	52	6353
2026-01-21 04:25:21.74	262.81	13.15	-39.0	-40.2	28.1	3.02e+01	0	41	0	405274624	52	6271
2026-01-21 04:25:24.77	263.49	13.24	-39.0	-40.3	27.8	3.02e+01	0	41	0	411041792	52	6315
2026-01-21 04:25:27.80	264.17	13.33	-38.9	-40.2	28.3	3.02e+01	0	41	0	416808960	52	6239
2026-01-21 04:25:30.83	264.85	13.41	-39.4	-40.7	27.6	3.02e+01	0	41	0	422576128	54	5887
2026-01-21 04:25:33.86	265.53	13.50	-39.2	-40.4	28.1	3.02e+01	0	41	0	427819008	54	5723
2026-01-21 04:25:36.89	266.22	13.57	-38.8	-40.1	28.4	3.02e+01	0	41	0	433586176	52	6160
2026-01-21 04:25:39.91	266.91	13.65	-38.7	-39.9	28.4	3.02e+01	0	41	0	439353344	52	6063
2026-01-21 04:25:42.94	267.61	13.72	-38.5	-39.7	28.5	3.02e+01	0	41	0	445120512	52	5885
2026-01-21 04:25:45.98	268.31	13.79	-39.1	-40.4	28.2	3.02e+01	0	41	0	450887680	52	6372
2026-01-21 04:25:49.00	269.02	13.85	-39.0	-40.2	28.1	3.02e+01	0	41	0	456654848	52	6273
2026-01-21 04:25:52.04	269.72	13.91	-39.4	-40.6	27.9	3.02e+01	0	41	0	461897728	54	5853
2026-01-21 04:25:55.06	270.43	13.96	-39.5	-40.7	28.2	3.02e+01	0	41	0	467664896	54	5916
2026-01-21 04:25:58.09	271.14	14.02	-38.6	-39.8	28.4	3.02e+01	0	41	0	473432064	52	5991
2026-01-21 04:26:01.12	271.86	14.07	-39.0	-40.2	28.3	3.02e+01	0	41	0	479199232	52	6264
2026-01-21 04:26:04.14	272.57	14.11	-39.4	-40.7	28.3	3.02e+01	0	41	0	484966400	52	6575
2026-01-21 04:26:07.17	273.29	14.15	-39.8	-41.0	28.2	3.02e+01	0	41	0	490733568	54	6124
2026-01-21 04:26:10.20	274.01	14.19	-40.0	-41.3	28.0	3.02e+01	0	41	0	495976448	52	7099
2026-01-21 04:26:13.23	274.73	14.22	-39.3	-40.6	28.4	3.02e+01	0	41	0	501743616	54	5815
2026-01-21 04:26:16.26	275.46	14.25	-39.3	-40.6	28.4	3.02e+01	0	41	0	507510784	54	5811
2026-01-21 04:26:19.29	276.18	14.28	-38.9	-40.2	28.6	3.02e+01	0	41	0	513277952	54	5541
2026-01-21 04:26:22.32	276.91	14.30	-39.3	-40.6	28.3	3.02e+01	0	41	0	519045120	52	6542
2026-01-21 04:26:25.35	277.64	14.32	-39.0	-40.3	28.6	3.02e+01	0	41	0	524812288	52	6292
2026-01-21 04:26:28.38	278.36	14.33	-39.4	-40.7	28.3	3.02e+01	0	41	0	530055168	52	6579
2026-01-21 04:26:31.40	279.09	14.34	-39.0	-40.3	28.7	3.02e+01	0	41	0	535822336	52	6293
2026-01-21 04:26:34.43	279.82	14.34	-39.5	-40.8	28.4	3.02e+01	0	41	0	541589504	54	5928
2026-01-21 04:26:37.46	280.55	14.34	-39.3	-40.6	28.6	3.02e+01	0	41	0	547356672	52	6526
2026-01-21 04:26:40.48	281.28	14.34	-39.1	-40.4	28.8	3.02e+01	0	41	0	553123840	52	6351
2026-01-21 04:26:43.50	282.00	14.33	-39.4	-40.6	28.6	3.02e+01	0	41	0	558366720	52	6521
2026-01-21 04:26:46.53	282.73	14.32	-39.4	-40.6	28.2	3.02e+01	0	41	0	564133888	52	6541
2026-01-21 04:26:49.57	283.46	14.30	-38.9	-40.2	28.7	3.02e+01	0	41	0	569901056	52	6218
2026-01-21 04:26:52.59	284.18	14.29	-39.0	-40.2	28.5	3.02e+01	0	41	0	575668224	52	6241
2026-01-21 04:26:55.62	284.91	14.26	-38.8	-40.0	28.4	3.02e+01	0	41	0	581435392	52	6126
2026-01-21 04:26:58.65	285.63	14.23	-38.6	-39.8	28.6	3.02e+01	0	41	0	587202560	52	5981
2026-01-21 04:27:01.68	286.35	14.20	-38.3	-39.5	28.6	3.02e+01	0	41	0	592969728	52	5787
2026-01-21 04:27:04.71	287.07	14.17	-38.8	-40.1	28.6	3.02e+01	0	41	0	598212608	52	6142
2026-01-21 04:27:07.74	287.79	14.13	-38.3	-39.6	28.6	3.02e+01	0	41	0	603979776	52	5797
2026-01-21 04:27:10.77	288.51	14.08	-38.1	-39.4	28.8	3.02e+01	0	41	0	609746944	52	5676
2026-01-21 04:27:13.79	289.22	14.04	-38.5	-39.7	28.6	3.02e+01	0	41	0	615514112	52	5918
2026-01-21 04:27:16.81	289.93	13.99	-38.6	-39.9	28.4	3.02e+01	0	41	0	621281280	52	6032
2026-01-21 04:27:19.85	290.64	13.93	-38.3	-39.5	28.6	3.02e+01	0	41	0	626524160	52	5754
2026-01-21 04:27:22.88	291.35	13.87	-38.5	-39.7	28.5	3.02e+01	0	41	0	632291328	52	5904
2026-01-21 04:27:25.90	292.05	13.81	-38.3	-39.6	28.6	3.02e+01	0	41	0	638058496	52	5807
2026-01-21 04:27:28.93	292.75	13.74	-38.4	-39.6	28.4	3.02e+01	0	41	0	643825664	52	5853
2026-01-21 04:27:31.96	293.44	13.68	-38.2	-39.5	28.7	3.02e+01	0	41	0	649592832	52	5733
2026-01-21 04:27:34.99	294.14	13.60	-38.5	-39.7	28.7	3.02e+01	0	41	0	655360000	52	5894
2026-01-21 04:27:38.02	294.83	13.53	-38.7	-39.9	28.5	3.02e+01	0	41	0	661127168	52	6055
2026-01-21 04:27:41.05	295.51	13.45	-38.8	-40.1	28.5	3.02e+01	0	41	0	666370048	52	6138
2026-01-21 04:27:44.08	296.19	13.37	-38.6	-39.9	28.5	3.02e+01	0	41	0	672137216	52	6009
2026-01-21 04:27:47.10	296.87	13.28	-38.3	-39.6	28.7	3.02e+01	0	41	0	677904384	52	5807
2026-01-21 04:27:50.13	297.54	13.19	-38.3	-39.5	28.7	3.02e+01	0	41	0	683671552	52	5770
2026-01-21 04:27:53.17	298.21	13.10	-38.4	-39.7	28.5	3.02e+01	0	41	0	689438720	52	5880
2026-01-21 04:27:56.19	298.87	13.00	-38.4	-39.7	28.3	3.02e+01	0	41	0	694681600	52	5882
2026-01-21 04:27:59.22	299.53	12.91	-38.9	-40.2	27.9	3.02e+01	0	41	0	700448768	52	6216
2026-01-21 04:28:02.25	300.19	12.81	-38.6	-39.9	28.3	3.02e+01	0	41	0	706215936	52	6004
2026-01-21 04:28:05.28	300.84	12.70	-38.3	-39.6	28.5	3.02e+01	0	41	0	711983104	52	5807
2026-01-21 04:28:08.31	301.48	12.60	-38.1	-39.3	28.8	3.02e+01	0	41	0	717750272	50	6320
2026-01-21 04:28:11.33	302.12	12.49	-38.4	-39.6	28.3	3.02e+01	0	41	0	723517440	50	6550
2026-01-21 04:28:14.36	302.76	12.38	-38.1	-39.3	28.8	3.02e+01	0	41	0	728760320	50	6350
2026-01-21 04:28:17.39	303.39	12.27	-38.2	-39.4	28.6	3.02e+01	0	41	0	734527488	50	6407
2026-01-21 04:28:20.42	304.01	12.15	-38.4	-39.7	28.4	3.02e+01	0	41	0	740294656	50	6579
2026-01-21 04:28:23.45	304.63	12.03	-38.2	-39.4	28.7	3.02e+01	0	41	0	746061824	50	6408
2026-01-21 04:28:26.48	305.25	11.91	-38.4	-39.7	28.5	3.02e+01	0	41	0	751828992	50	6584
2026-01-21 04:28:29.50	305.86	11.79	-38.2	-39.4	28.6	3.02e+01	0	41	0	757071872	50	6422
2026-01-21 04:28:32.52	306.46	11.67	-38.4	-39.6	28.5	3.02e+01	0	41	0	762839040	50	6561
2026-01-21 04:28:35.55	307.06	11.54	-38.5	-39.9	28.4	3.02e+01	0	41	0	768606208	50	6730
2026-01-21 04:28:38.58	307.65	11.41	-38.9	-40.3	28.1	3.02e+01	0	41	0	774373376	50	7065
2026-01-21 04:28:41.61	308.24	11.28	-38.5	-39.8	28.4	3.02e+01	0	41	0	780140544	50	6706
2026-01-21 04:28:44.64	308.82	11.15	-38.6	-39.9	28.4	3.02e+01	0	41	0	785907712	50	6758
2026-01-21 04:28:47.67	309.40	11.02	-39.1	-40.3	27.9	3.02e+01	0	41	0	791150592	52	6350
2026-01-21 04:28:50.70	309.97	10.88	-38.9	-40.2	28.1	3.02e+01	0	41	0	796917760	52	6252
2026-01-21 04:28:53.73	310.53	10.75	-39.6	-40.9	27.7	3.02e+01	0	41	0	802684928	52	6747
2026-01-21 04:28:56.76	311.09	10.61	-39.1	-40.4	28.0	3.02e+01	0	41	0	808452096	52	6369
2026-01-21 04:28:59.79	311.65	10.47	-39.6	-40.9	27.5	3.02e+01	0	41	0	814219264	52	6790
2026-01-21 04:29:02.81	312.20	10.33	-39.3	-40.6	27.6	3.02e+01	0	41	0	819986432	52	6571
2026-01-21 04:29:05.84	312.74	10.19	-39.0	-40.2	28.1	3.02e+01	0	41	0	825229312	52	6274
2026-01-21 04:29:08.87	313.28	10.04	-39.1	-40.4	28.1	3.02e+01	0	41	0	830996480	52	6389
2026-01-21 04:29:11.90	313.81	9.90	-39.5	-40.8	27.6	3.02e+01	0	41	0	836763648	52	6679
2026-01-21 04:29:14.93	314.34	9.75	-38.8	-40.1	28.1	3.02e+01	0	41	0	842530816	52	6154
2026-01-21 04:29:17.95	314.86	9.61	-38.8	-40.1	28.0	3.02e+01	0	41	0	848297984	52	6164
2026-01-21 04:29:20.98	315.37	9.46	-39.4	-40.7	27.6	3.02e+01	0	41	0	854065152	52	6605
2026-01-21 04:29:24.01	315.88	9.31	-37.9	-39.1	28.8	3.02e+01	0	41	0	859308032	52	5509
2026-01-21 04:29:27.04	316.39	9.16	-37.8	-39.0	26.9	3.02e+01	0	41	0	865075200	52	5456
2026-01-21 04:29:30.07	316.89	9.01	-38.9	-40.2	27.4	3.02e+01	0	41	0	870842368	52	6232
2026-01-21 04:29:33.09	317.38	8.86	-38.7	-39.9	28.0	3.02e+01	0	41	0	876609536	52	6062
2026-01-21 04:29:36.12	317.87	8.71	-39.4	-40.8	27.1	3.02e+01	0	41	0	882376704	52	6665
2026-01-21 04:29:39.15	318.35	8.56	-38.8	-40.1	27.7	3.02e+01	0	41	0	888143872	52	6183
2026-01-21 04:29:42.18	318.83	8.41	-39.3	-40.7	27.1	3.02e+01	0	41	0	893386752	50	7377
2026-01-21 04:29:45.21	319.30	8.26	-38.8	-40.1	27.8	3.02e+01	0	41	0	899153920	52	6195
2026-01-21 04:29:48.24	319.77	8.10	-39.3	-40.6	27.2	3.02e+01	0	41	0	904921088	54	5840
2026-01-21 04:29:51.27	320.23	7.95	-39.4	-40.7	27.1	3.02e+01	0	41	0	910688256	54	5884
2026-01-21 04:29:54.30	320.69	7.79	-39.9	-41.3	26.7	3.02e+01	0	41	0	916455424	54	6314
2026-01-21 04:29:57.33	321.14	7.64	-39.1	-40.4	27.3	3.02e+01	0	41	0	922222592	54	5724
2026-01-21 04:30:00.35	321.59	7.48	-39.3	-40.6	27.3	3.02e+01	0	41	0	927465472	54	5834
2026-01-21 04:30:03.38	322.03	7.33	-39.7	-41.1	26.8	3.02e+01	0	41	0	933232640	54	6171
2026-01-21 04:30:06.40	322.47	7.17	-39.5	-40.8	26.8	3.02e+01	0	41	0	938999808	54	5970
2026-01-21 04:30:09.43	322.90	7.02	-39.3	-40.6	27.2	3.02e+01	0	41	0	944766976	54	5812
2026-01-21 04:30:12.46	323.33	6.86	-40.2	-41.6	26.3	3.02e+01	0	41	0	950534144	54	6509
2026-01-21 04:30:15.49	323.75	6.71	-40.0	-41.4	26.6	3.02e+01	0	41	0	956301312	54	6361
2026-01-21 04:30:18.51	324.17	6.55	-39.8	-41.2	26.4	3.02e+01	0	41	0	961544192	54	6219
2026-01-21 04:30:21.54	324.58	6.39	-39.9	-41.3	26.5	3.02e+01	0	41	0	967311360	54	6294
2026-01-21 04:30:24.57	324.99	6.24	-40.3	-41.7	26.1	3.02e+01	0	41	0	973078528	54	6592
2026-01-21 04:30:27.60	325.39	6.08	-39.5	-40.9	26.7	3.02e+01	0	41	0	978845696	54	6024
2026-01-21 04:30:30.63	325.79	5.92	-40.3	-41.8	26.0	3.02e+01	0	41	0	984612864	54	6697
2026-01-21 04:30:33.66	326.19	5.77	-40.3	-41.8	25.9	3.02e+01	0	41	0	989855744	54	6675
2026-01-21 04:30:36.68	326.58	5.61	-40.2	-41.6	26.1	3.02e+01	0	41	0	995622912	54	6570
2026-01-21 04:30:39.71	326.96	5.45	-40.2	-41.7	25.8	3.02e+01	0	41	0	1001390080	54	6580
2026-01-21 04:30:42.74	327.35	5.30	-41.0	-42.5	25.5	3.02e+01	0	41	0	1007157248	56	6449
2026-01-21 04:30:45.77	327.72	5.14	-40.4	-41.9	25.9	3.02e+01	0	41	0	1012924416	56	5997
2026-01-21 04:30:48.80	328.10	4.98	-41.2	-42.7	25.1	3.02e+01	0	41	0	1018691584	56	6616
2026-01-21 04:30:51.83	328.47	4.83	-40.9	-42.4	25.9	3.02e+01	0	41	0	1024458752	56	6384
2026-01-21 04:30:54.85	328.83	4.67	-40.2	-41.6	26.1	3.02e+01	0	41	0	1029701632	56	5830
2026-01-21 04:30:57.88	329.19	4.52	-41.5	-43.2	24.6	3.02e+01	0	41	0	1035468800	58	6209
2026-01-21 04:31:00.91	329.55	4.36	-41.1	-42.6	25.1	3.02e+01	0	41	0	1041235968	56	6519
2026-01-21 04:31:03.94	329.90	4.20	-42.2	-43.9	24.2	3.02e+01	0	41	0	1047003136	58	6746
2026-01-21 04:31:06.96	330.25	4.05	-41.5	-43.0	24.6	3.02e+01	0	41	0	1052770304	58	6124
2026-01-21 04:31:09.99	330.60	3.89	-42.1	-43.8	24.2	3.02e+01	0	41	0	1058013184	58	6696
2026-01-21 04:31:13.02	330.94	3.74	-41.6	-43.2	24.0	3.02e+01	0	41	0	1063780352	58	6267
2026-01-21 04:31:16.05	331.27	3.58	-43.8	-46.2	20.3	3.02e+01	0	41	0	1069547520	60	7841
2026-01-21 04:31:19.08	331.61	3.43	-45.6	-49.7	16.4	3.02e+01	0	41	0	1075314688	60	11713
2026-01-21 04:31:22.11	331.94	3.27	-46.4	-53.0	11.4	3.02e+01	0	41	0	1081081856	60	17235
2026-01-21 04:31:25.14	332.27	3.12	-46.9	-59.5	3.9	3.02e+01	0	41	104	1085800448	60	36192
2026-01-21 04:31:28.17	332.59	2.97	-50.3	-68.1	3.5	3.02e+01	0	41	104	1085800448	60	97783
2026-01-21 04:31:31.20	332.91	2.81	-51.1	-69.2	3.5	3.02e+01	0	41	104	1085800448	60	110416
2026-01-21 04:31:34.23	333.23	2.66	-51.3	-69.4	3.5	3.02e+01	0	41	104	1085800448	60	112961
2026-01-21 04:31:37.26	333.54	2.51	-51.6	-69.6	3.5	3.02e+01	0	41	104	1085800448	60	115819
2026-01-21 04:31:40.29	333.85	2.35	-51.4	-69.4	3.5	3.02e+01	0	42	104	1085800448	60	114154
2026-01-21 04:31:43.32	334.15	2.20	-51.4	-69.4	3.5	3.02e+01	0	42	104	1085800448	60	113359
2026-01-21 04:31:46.35	334.46	2.05	-51.6	-69.4	3.5	3.02e+01	0	42	104	1085800448	60	114166
2026-01-21 04:31:49.38	334.76	1.90	-52.0	-70.0	3.5	3.02e+01	0	41	104	1085800448	60	121560
2026-01-21 04:31:52.41	335.05	1.74	-52.6	-70.4	3.5	3.02e+01	0	42	104	1085800448	60	127824
2026-01-21 04:31:55.44	335.35	1.59	-52.5	-70.3	3.5	3.02e+01	0	42	104	1085800448	60	125748
2026-01-21 04:31:58.47	335.64	1.44	-52.4	-70.3	3.5	3.02e+01	0	42	104	1085800448	60	125853
2026-01-21 04:32:01.50	335.92	1.29	-52.3	-70.1	3.5	3.02e+01	0	42	104	1085800448	60	123374
2026-01-21 04:32:04.53	336.21	1.14	-53.0	-70.8	3.5	3.02e+01	0	42	104	1085800448	60	133104
2026-01-21 04:32:07.56	336.49	0.99	-52.7	-70.6	3.5	3.02e+01	0	41	104	1085800448	60	130116
2026-01-21 04:32:10.58	336.77	0.84	-52.6	-70.4	3.5	3.02e+01	0	41	104	1085800448	60	127693
2026-01-21 04:32:13.61	337.04	0.69	-52.8	-70.6	3.5	3.02e+01	0	41	104	1085800448	60	129977
2026-01-21 04:32:16.64	337.32	0.55	-53.3	-71.1	3.5	3.02e+01	0	41	104	1085800448	60	138414
2026-01-21 04:32:19.67	337.59	0.40	-52.9	-70.7	3.5	3.02e+01	0	42	104	1085800448	60	131665
2026-01-21 04:32:22.70	337.85	0.25	-52.7	-70.5	3.5	3.02e+01	0	42	104	1085800448	60	129311
2026-01-21 04:32:25.73	338.12	0.10	-52.6	-70.4	3.5	3.02e+01	0	42	104	1085800448	60	127184
2026-01-21 04:32:28.76	338.38	-0.05	-52.8	-70.7	3.5	3.02e+01	0	41	104	1085800448	60	131220

#Closed at: 2026-01-21 04:32:29
#Recorded file [1085 MB]: D:/lorett/data/35029_260121_162049.dat