passes_logs/2026/01/21/R4.6S_Anadyr/R4.6S_Anadyr__20260121_195130_NOAA_20_JPSS-1_rec.log

#Pass ID: 20260121_195130_NOAA 20 (JPSS-1)
#Satellite: NOAA 20 (JPSS-1)
#Configuration: NOAA 20
#almurnet v.1.7.20251203
#Start time: 2026-01-21 19:51:32

#Version: 2.2.20231116
#Station: R4.6S_Anadyr
#Location: 177.4865 lon 64.73178 lat
#TLE: 1 43013U 17073A   26020.82785136  .00000155  00000+0  94366-4 0  9991
#TLE: 2 43013  98.7643 321.7058 0001260  30.3785 329.7464 14.19537992423566

#Time	Az	El	Level	Level2	SNR	BER	BlckErr	Temp	State	Recorded	gain1	gain2
2026-01-21 19:51:32.56	59.69	0.12	-50.9	-65.9	3.5	1.51e+00	0	38	0	0	60	70905
2026-01-21 19:51:35.59	59.46	0.27	-51.0	-66.3	3.6	1.51e+00	0	40	104	0	60	74699
2026-01-21 19:51:38.62	59.23	0.42	-50.9	-66.2	3.6	1.51e+00	0	40	104	0	60	73812
2026-01-21 19:51:41.65	59.00	0.57	-51.0	-66.2	3.6	1.51e+00	0	40	104	0	60	73763
2026-01-21 19:51:44.68	58.76	0.71	-50.9	-66.2	3.6	1.51e+00	0	40	104	0	60	73651
2026-01-21 19:51:47.71	58.52	0.86	-50.9	-66.1	3.6	1.51e+00	0	40	104	0	60	72939
2026-01-21 19:51:50.74	58.28	1.01	-50.5	-66.0	3.6	1.51e+00	0	40	104	0	60	71729
2026-01-21 19:51:53.77	58.04	1.16	-50.5	-65.8	3.6	1.51e+00	0	40	104	0	60	70371
2026-01-21 19:51:56.81	57.79	1.31	-50.1	-65.2	3.6	1.51e+00	0	40	104	0	60	66009
2026-01-21 19:51:59.84	57.54	1.46	-49.4	-64.6	3.6	1.51e+00	0	40	104	0	60	61421
2026-01-21 19:52:02.87	57.29	1.61	-49.3	-64.6	3.6	1.51e+00	0	40	104	0	60	61147
2026-01-21 19:52:05.89	57.03	1.76	-49.4	-64.5	3.6	1.51e+00	0	40	104	0	60	60778
2026-01-21 19:52:08.92	56.78	1.91	-49.4	-64.6	3.6	1.51e+00	0	40	104	0	60	61264
2026-01-21 19:52:11.95	56.52	2.06	-49.4	-64.5	3.6	1.51e+00	0	41	104	0	60	60964
2026-01-21 19:52:14.98	56.26	2.21	-49.3	-64.3	3.6	1.51e+00	0	40	104	0	60	58967
2026-01-21 19:52:18.01	55.99	2.36	-49.3	-64.5	3.6	1.51e+00	0	41	104	0	60	60919
2026-01-21 19:52:21.04	55.72	2.51	-49.4	-64.5	3.6	1.51e+00	0	40	104	0	60	60543
2026-01-21 19:52:24.07	55.45	2.67	-49.3	-64.5	3.6	1.51e+00	0	41	104	0	60	60761
2026-01-21 19:52:27.09	55.18	2.82	-49.3	-63.9	3.6	1.51e+00	0	40	104	0	60	56481
2026-01-21 19:52:30.12	54.90	2.97	-49.2	-61.6	3.9	1.51e+00	0	40	104	0	60	43452
2026-01-21 19:52:33.15	54.62	3.12	-49.0	-58.0	6.4	1.51e+00	2	41	104	1048576	60	28609
2026-01-21 19:52:36.18	54.34	3.27	-46.7	-50.5	13.0	1.03e+00	92	41	104	1048576	60	12075
2026-01-21 19:52:39.21	54.05	3.43	-46.4	-49.7	13.4	9.90e-06	92	41	0	5242880	60	11051
2026-01-21 19:52:42.24	53.76	3.58	-46.1	-49.1	14.6	0.00e+00	2	41	0	11534336	60	10272
2026-01-21 19:52:45.27	53.47	3.73	-45.3	-47.7	16.0	0.00e+00	92	41	0	16777216	60	8812
2026-01-21 19:52:48.30	53.18	3.89	-44.5	-46.6	17.3	0.00e+00	90	41	0	23068672	60	7686
2026-01-21 19:52:51.33	52.88	4.04	-44.5	-46.5	17.3	0.00e+00	4	41	0	28311552	60	7627
2026-01-21 19:52:54.35	52.58	4.19	-44.6	-46.6	17.2	0.00e+00	92	40	0	34603008	60	7771
2026-01-21 19:52:57.38	52.27	4.35	-44.8	-46.9	16.9	0.00e+00	90	41	0	39845888	60	7998
2026-01-21 19:53:00.41	51.96	4.50	-44.3	-46.2	17.7	0.00e+00	0	41	0	45088768	60	7394
2026-01-21 19:53:03.44	51.65	4.65	-44.1	-45.9	18.0	0.00e+00	75	41	0	51380224	60	7134
2026-01-21 19:53:06.47	51.34	4.81	-43.7	-45.4	18.5	0.00e+00	92	41	0	56623104	60	6722
2026-01-21 19:53:09.49	51.02	4.96	-43.8	-45.5	18.6	0.00e+00	92	41	0	62914560	60	6795
2026-01-21 19:53:12.52	50.70	5.11	-43.9	-45.7	18.3	0.00e+00	0	41	0	68157440	60	6954
2026-01-21 19:53:15.55	50.37	5.27	-43.7	-45.3	18.7	0.00e+00	92	41	0	73400320	60	6679
2026-01-21 19:53:18.58	50.04	5.42	-43.7	-45.4	18.7	0.00e+00	92	41	0	79691776	60	6731
2026-01-21 19:53:21.61	49.71	5.58	-43.3	-44.9	19.2	0.00e+00	0	41	0	84934656	60	6340
2026-01-21 19:53:24.64	49.38	5.73	-43.8	-45.5	18.7	0.00e+00	9	41	0	91226112	60	6817
2026-01-21 19:53:27.67	49.04	5.88	-43.1	-44.6	19.4	0.00e+00	92	41	0	96468992	60	6154
2026-01-21 19:53:30.70	48.69	6.04	-43.7	-45.4	18.8	0.00e+00	0	41	0	102760448	60	6718
2026-01-21 19:53:33.72	48.35	6.19	-43.3	-44.9	19.3	0.00e+00	21	41	0	108003328	60	6331
2026-01-21 19:53:36.75	48.00	6.35	-43.6	-45.1	19.1	0.00e+00	92	41	0	113246208	60	6526
2026-01-21 19:53:39.78	47.64	6.50	-43.4	-44.9	19.2	0.00e+00	91	41	0	119537664	60	6390
2026-01-21 19:53:42.81	47.28	6.65	-43.7	-45.3	19.0	0.00e+00	7	41	0	124780544	60	6632
2026-01-21 19:53:45.84	46.92	6.81	-43.4	-45.0	19.3	0.00e+00	92	41	0	131072000	60	6396
2026-01-21 19:53:48.86	46.55	6.96	-43.2	-44.7	19.6	0.00e+00	92	41	0	136314880	60	6191
2026-01-21 19:53:51.89	46.18	7.11	-43.1	-44.6	19.6	0.00e+00	0	41	0	141557760	60	6153
2026-01-21 19:53:54.92	45.81	7.26	-43.3	-44.8	19.3	0.00e+00	0	41	0	147849216	60	6316
2026-01-21 19:53:57.95	45.43	7.42	-43.5	-45.1	19.2	0.00e+00	92	41	0	153092096	60	6497
2026-01-21 19:54:00.97	45.05	7.57	-43.4	-44.9	19.4	0.00e+00	0	41	0	159383552	60	6370
2026-01-21 19:54:04.00	44.66	7.72	-43.3	-44.7	19.6	0.00e+00	8	41	0	164626432	60	6234
2026-01-21 19:54:07.03	44.27	7.87	-42.9	-44.3	20.0	0.00e+00	92	41	0	170917888	60	5959
2026-01-21 19:54:10.06	43.88	8.02	-42.8	-44.2	20.1	0.00e+00	1	41	0	176160768	60	5874
2026-01-21 19:54:13.10	43.48	8.17	-43.0	-44.4	20.0	0.00e+00	0	41	0	181403648	60	5999
2026-01-21 19:54:16.13	43.07	8.32	-42.6	-43.9	20.3	0.00e+00	92	41	0	187695104	58	6378
2026-01-21 19:54:19.16	42.67	8.47	-42.6	-44.0	20.3	0.00e+00	92	41	0	192937984	58	6422
2026-01-21 19:54:22.19	42.25	8.62	-42.7	-44.0	20.3	0.00e+00	71	41	0	199229440	58	6418
2026-01-21 19:54:25.22	41.84	8.77	-42.5	-43.8	20.5	0.00e+00	92	41	0	204472320	58	6313
2026-01-21 19:54:28.25	41.42	8.92	-42.7	-44.0	20.3	0.00e+00	92	41	0	209715200	58	6414
2026-01-21 19:54:31.28	40.99	9.07	-42.9	-44.2	20.2	0.00e+00	0	41	0	216006656	58	6603
2026-01-21 19:54:34.31	40.56	9.21	-42.7	-44.1	20.3	0.00e+00	2	41	0	221249536	58	6465
2026-01-21 19:54:37.34	40.13	9.36	-42.6	-43.9	20.5	0.00e+00	91	41	0	227540992	58	6387
2026-01-21 19:54:40.37	39.69	9.50	-42.4	-43.7	20.7	0.00e+00	0	41	0	232783872	58	6177
2026-01-21 19:54:43.41	39.25	9.65	-42.4	-43.7	20.7	0.00e+00	0	41	0	239075328	58	6200
2026-01-21 19:54:46.44	38.80	9.79	-42.2	-43.5	20.9	0.00e+00	92	41	0	244318208	58	6060
2026-01-21 19:54:49.46	38.35	9.94	-41.9	-43.1	21.2	0.00e+00	0	41	0	249561088	58	5815
2026-01-21 19:54:52.49	37.89	10.08	-41.5	-42.6	21.7	0.00e+00	5	41	0	255852544	56	6125
2026-01-21 19:54:55.52	37.43	10.22	-41.7	-42.8	21.5	0.00e+00	92	41	0	261095424	56	6276
2026-01-21 19:54:58.55	36.97	10.36	-41.2	-42.2	22.0	0.00e+00	92	41	0	267386880	56	5882
2026-01-21 19:55:01.57	36.50	10.50	-41.1	-42.2	22.1	0.00e+00	6	41	0	272629760	56	5851
2026-01-21 19:55:04.60	36.03	10.63	-41.7	-42.9	21.6	0.00e+00	83	41	0	277872640	56	6351
2026-01-21 19:55:07.64	35.55	10.77	-41.3	-42.4	22.0	0.00e+00	90	41	0	284164096	56	6003
2026-01-21 19:55:10.67	35.06	10.91	-40.9	-42.0	22.4	0.00e+00	0	41	0	289406976	56	5717
2026-01-21 19:55:13.70	34.57	11.04	-40.8	-41.8	22.5	0.00e+00	0	41	0	295698432	56	5614
2026-01-21 19:55:16.73	34.08	11.17	-40.6	-41.6	22.6	0.00e+00	9	41	0	300941312	54	6156
2026-01-21 19:55:19.76	33.59	11.30	-40.6	-41.6	22.6	0.00e+00	0	41	0	307232768	54	6164
2026-01-21 19:55:22.79	33.08	11.43	-40.5	-41.4	22.1	0.00e+00	72	41	0	312475648	54	6029
2026-01-21 19:55:25.82	32.58	11.56	-40.1	-41.0	23.2	0.00e+00	9	41	0	317718528	54	5747
2026-01-21 19:55:28.85	32.07	11.69	-40.2	-41.1	23.0	0.00e+00	90	41	0	324009984	54	5797
2026-01-21 19:55:31.87	31.55	11.82	-40.5	-41.5	22.8	0.00e+00	71	41	0	329252864	54	6054
2026-01-21 19:55:34.90	31.04	11.94	-40.7	-41.7	22.6	0.00e+00	0	41	0	335544320	54	6188
2026-01-21 19:55:37.93	30.51	12.06	-40.7	-41.7	22.6	0.00e+00	91	41	0	340787200	54	6234
2026-01-21 19:55:40.96	29.98	12.18	-40.7	-41.7	22.5	0.00e+00	9	41	0	346030080	54	6242
2026-01-21 19:55:43.99	29.45	12.30	-40.7	-41.7	22.6	0.00e+00	11	41	0	352321536	54	6177
2026-01-21 19:55:47.02	28.92	12.42	-40.9	-41.9	22.5	0.00e+00	71	41	0	357564416	54	6339
2026-01-21 19:55:50.05	28.37	12.53	-40.8	-41.8	22.5	0.00e+00	0	41	0	363855872	54	6278
2026-01-21 19:55:53.08	27.83	12.64	-40.7	-41.7	22.5	0.00e+00	0	41	0	369098752	54	6212
2026-01-21 19:55:56.11	27.28	12.75	-40.6	-41.5	22.7	0.00e+00	4	41	0	375390208	54	6103
2026-01-21 19:55:59.14	26.73	12.86	-40.5	-41.5	22.7	0.00e+00	89	41	0	380633088	54	6084
2026-01-21 19:56:02.17	26.17	12.97	-40.6	-41.6	22.8	0.00e+00	0	41	0	385875968	54	6157
2026-01-21 19:56:05.19	25.61	13.07	-40.4	-41.3	23.0	0.00e+00	70	41	0	392167424	54	5953
2026-01-21 19:56:08.22	25.04	13.17	-40.4	-41.4	22.8	0.00e+00	92	41	0	397410304	54	6007
2026-01-21 19:56:11.25	24.47	13.27	-40.9	-41.9	22.5	0.00e+00	0	41	0	403701760	54	6329
2026-01-21 19:56:14.29	23.90	13.37	-40.5	-41.5	22.8	0.00e+00	0	41	0	408944640	54	6052
2026-01-21 19:56:17.32	23.32	13.46	-40.4	-41.4	22.9	0.00e+00	92	41	0	414187520	54	6016
2026-01-21 19:56:20.35	22.74	13.56	-40.3	-41.3	23.0	0.00e+00	0	41	0	420478976	54	5905
2026-01-21 19:56:23.38	22.16	13.64	-40.0	-40.9	23.4	0.00e+00	73	41	0	425721856	54	5657
2026-01-21 19:56:26.41	21.57	13.73	-40.3	-41.2	23.1	0.00e+00	0	41	0	432013312	54	5878
2026-01-21 19:56:29.44	20.98	13.81	-40.8	-41.8	22.6	0.00e+00	3	41	0	437256192	54	6250
2026-01-21 19:56:32.47	20.38	13.90	-40.1	-41.0	23.3	0.00e+00	0	41	0	443547648	54	5754
2026-01-21 19:56:35.50	19.78	13.97	-40.4	-41.4	22.8	0.00e+00	0	41	0	448790528	54	5999
2026-01-21 19:56:38.53	19.18	14.05	-40.5	-41.5	22.9	0.00e+00	92	41	0	454033408	54	6052
2026-01-21 19:56:41.55	18.58	14.12	-40.6	-41.6	22.8	0.00e+00	0	41	0	460324864	54	6110
2026-01-21 19:56:44.58	17.97	14.19	-40.8	-41.7	22.6	0.00e+00	8	41	0	465567744	54	6243
2026-01-21 19:56:47.61	17.36	14.26	-40.8	-41.8	22.6	0.00e+00	92	41	0	471859200	54	6258
2026-01-21 19:56:50.64	16.75	14.32	-41.3	-42.3	22.1	0.00e+00	75	41	0	477102080	54	6664
2026-01-21 19:56:53.67	16.14	14.38	-41.0	-42.1	22.2	0.00e+00	0	41	0	482344960	54	6487
2026-01-21 19:56:56.70	15.52	14.44	-41.2	-42.3	22.1	0.00e+00	92	41	0	488636416	54	6639
2026-01-21 19:56:59.73	14.90	14.49	-40.7	-41.7	22.5	0.00e+00	0	41	0	493879296	54	6225
2026-01-21 19:57:02.76	14.28	14.54	-40.4	-41.4	22.9	0.00e+00	7	41	0	500170752	54	6009
2026-01-21 19:57:05.79	13.65	14.59	-40.4	-41.4	23.0	0.00e+00	9	41	0	505413632	54	6000
2026-01-21 19:57:08.82	13.03	14.63	-40.5	-41.4	22.9	0.00e+00	91	41	0	511705088	54	6027
2026-01-21 19:57:11.85	12.40	14.67	-40.7	-41.7	22.6	0.00e+00	77	41	0	516947968	54	6193
2026-01-21 19:57:14.88	11.77	14.71	-40.8	-41.8	22.8	0.00e+00	0	41	0	522190848	54	6264
2026-01-21 19:57:17.92	11.14	14.74	-40.6	-41.6	22.7	0.00e+00	92	41	0	528482304	54	6144
2026-01-21 19:57:20.94	10.51	14.77	-40.7	-41.7	22.8	0.00e+00	0	41	0	533725184	54	6175
2026-01-21 19:57:23.97	9.87	14.80	-40.5	-41.5	22.9	0.00e+00	2	41	0	540016640	54	6057
2026-01-21 19:57:26.99	9.24	14.82	-40.7	-41.7	22.7	0.00e+00	92	41	0	545259520	54	6207
2026-01-21 19:57:30.03	8.60	14.84	-40.9	-42.0	22.4	0.00e+00	72	41	0	551550976	54	6402
2026-01-21 19:57:33.06	7.97	14.86	-40.4	-41.4	23.0	0.00e+00	0	41	0	556793856	54	5969
2026-01-21 19:57:36.09	7.33	14.87	-40.5	-41.5	22.7	0.00e+00	50	41	0	562036736	54	6081
2026-01-21 19:57:39.12	6.69	14.88	-40.6	-41.6	22.8	0.00e+00	0	41	0	568328192	54	6107
2026-01-21 19:57:42.15	6.05	14.89	-40.5	-41.4	22.9	0.00e+00	5	41	0	573571072	54	6013
2026-01-21 19:57:45.18	5.42	14.89	-40.6	-41.6	22.8	0.00e+00	77	41	0	579862528	54	6133
2026-01-21 19:57:48.21	4.78	14.89	-40.7	-41.7	22.7	0.00e+00	92	41	0	585105408	54	6211
2026-01-21 19:57:51.23	4.14	14.88	-40.4	-41.4	22.9	0.00e+00	72	41	0	590348288	54	5977
2026-01-21 19:57:54.26	3.51	14.87	-40.5	-41.4	22.9	0.00e+00	0	41	0	596639744	54	6031
2026-01-21 19:57:57.29	2.87	14.86	-40.7	-41.7	22.7	0.00e+00	92	41	0	601882624	54	6215
2026-01-21 19:58:00.32	2.23	14.84	-40.8	-41.8	22.6	0.00e+00	0	41	0	608174080	54	6315
2026-01-21 19:58:03.35	1.60	14.83	-40.9	-42.0	22.5	0.00e+00	0	41	0	613416960	54	6399
2026-01-21 19:58:06.38	0.96	14.80	-41.1	-42.1	22.4	0.00e+00	92	41	0	619708416	54	6515
2026-01-21 19:58:09.41	0.33	14.78	-40.9	-41.9	22.5	0.00e+00	0	41	0	624951296	54	6387
2026-01-21 19:58:12.44	359.70	14.75	-40.7	-41.7	22.5	0.00e+00	0	41	0	630194176	54	6228
2026-01-21 19:58:15.47	359.07	14.71	-41.0	-42.0	22.4	0.00e+00	0	41	0	636485632	54	6425
2026-01-21 19:58:18.50	358.44	14.68	-41.0	-42.1	22.3	0.00e+00	81	41	0	641728512	54	6484
2026-01-21 19:58:21.52	357.81	14.64	-40.6	-41.6	22.8	0.00e+00	0	41	0	648019968	54	6148
2026-01-21 19:58:24.55	357.19	14.59	-40.6	-41.6	22.8	0.00e+00	8	41	0	653262848	54	6104
2026-01-21 19:58:27.59	356.56	14.55	-40.6	-41.6	22.7	0.00e+00	92	41	0	658505728	54	6142
2026-01-21 19:58:30.62	355.94	14.50	-40.5	-41.5	22.8	0.00e+00	79	41	0	664797184	54	6048
2026-01-21 19:58:33.65	355.32	14.44	-40.4	-41.3	23.0	0.00e+00	0	41	0	670040064	54	5960
2026-01-21 19:58:36.67	354.70	14.39	-40.4	-41.4	22.9	0.00e+00	92	41	0	676331520	54	5970
2026-01-21 19:58:39.70	354.09	14.33	-40.4	-41.4	22.9	0.00e+00	4	41	0	681574400	54	5979
2026-01-21 19:58:42.73	353.47	14.26	-40.4	-41.3	23.0	0.00e+00	5	41	0	687865856	54	5955
2026-01-21 19:58:45.76	352.86	14.20	-40.6	-41.6	22.8	0.00e+00	5	41	0	693108736	54	6119
2026-01-21 19:58:48.78	352.26	14.13	-40.7	-41.7	22.6	0.00e+00	0	41	0	698351616	54	6236
2026-01-21 19:58:51.81	351.66	14.06	-40.6	-41.5	22.8	0.00e+00	73	41	0	704643072	54	6098
2026-01-21 19:58:54.84	351.05	13.98	-40.7	-41.7	22.7	0.00e+00	74	41	0	709885952	54	6186
2026-01-21 19:58:57.87	350.46	13.90	-40.7	-41.7	22.6	0.00e+00	92	41	0	716177408	54	6213
2026-01-21 19:59:00.90	349.86	13.82	-40.8	-41.9	22.5	0.00e+00	0	41	0	721420288	54	6337
2026-01-21 19:59:03.93	349.27	13.74	-40.9	-42.0	22.4	0.00e+00	0	41	0	726663168	54	6392
2026-01-21 19:59:06.96	348.68	13.65	-40.8	-41.8	22.5	0.00e+00	92	41	0	732954624	54	6279
2026-01-21 19:59:09.99	348.10	13.56	-40.8	-41.8	22.6	0.00e+00	72	41	0	738197504	54	6267
2026-01-21 19:59:13.02	347.52	13.47	-40.7	-41.7	22.7	0.00e+00	78	41	0	744488960	54	6175
2026-01-21 19:59:16.05	346.94	13.38	-40.5	-41.4	22.8	0.00e+00	92	41	0	749731840	54	6023
2026-01-21 19:59:19.08	346.37	13.28	-40.5	-41.5	22.6	0.00e+00	0	41	0	756023296	54	6052
2026-01-21 19:59:22.11	345.80	13.18	-40.4	-41.4	22.9	0.00e+00	0	41	0	761266176	54	6011
2026-01-21 19:59:25.14	345.23	13.08	-40.2	-41.2	23.2	0.00e+00	9	41	0	766509056	54	5835
2026-01-21 19:59:28.17	344.67	12.98	-40.5	-41.5	22.8	0.00e+00	68	41	0	772800512	54	6036
2026-01-21 19:59:31.21	344.11	12.87	-40.5	-41.5	22.7	0.00e+00	0	41	0	778043392	54	6061
2026-01-21 19:59:34.24	343.56	12.76	-40.5	-41.6	22.7	0.00e+00	72	41	0	784334848	54	6105
2026-01-21 19:59:37.26	343.01	12.65	-40.4	-41.4	22.8	0.00e+00	92	41	0	789577728	54	6001
2026-01-21 19:59:40.29	342.46	12.54	-40.5	-41.5	22.8	0.00e+00	2	41	0	794820608	54	6061
2026-01-21 19:59:43.31	341.92	12.43	-40.8	-41.9	22.5	0.00e+00	0	41	0	801112064	54	6330
2026-01-21 19:59:46.34	341.39	12.31	-40.6	-41.5	22.8	0.00e+00	63	41	0	806354944	54	6098
2026-01-21 19:59:49.37	340.86	12.19	-40.4	-41.4	22.8	0.00e+00	0	41	0	812646400	54	6015
2026-01-21 19:59:52.40	340.33	12.07	-41.0	-42.0	22.3	0.00e+00	7	41	0	817889280	54	6448
2026-01-21 19:59:55.43	339.80	11.95	-41.3	-42.4	22.1	0.00e+00	0	41	0	824180736	54	6696
2026-01-21 19:59:58.46	339.29	11.83	-41.4	-42.5	21.9	0.00e+00	79	41	0	829423616	54	6816
2026-01-21 20:00:01.49	338.77	11.70	-41.6	-42.7	21.7	0.00e+00	6	41	0	834666496	54	6987
2026-01-21 20:00:04.52	338.26	11.58	-41.6	-42.8	21.6	0.00e+00	0	41	0	840957952	54	7019
2026-01-21 20:00:07.55	337.75	11.45	-41.8	-42.9	21.5	0.00e+00	92	41	0	846200832	56	6384
2026-01-21 20:00:10.57	337.25	11.32	-42.3	-43.5	21.0	0.00e+00	8	41	0	852492288	56	6828
2026-01-21 20:00:13.61	336.76	11.19	-42.5	-43.8	20.8	0.00e+00	83	41	0	857735168	56	7017
2026-01-21 20:00:16.64	336.26	11.05	-42.8	-44.2	20.3	0.00e+00	92	41	0	862978048	58	6561
2026-01-21 20:00:19.66	335.78	10.92	-43.0	-44.4	20.1	0.00e+00	0	41	0	869269504	58	6715
2026-01-21 20:00:22.69	335.29	10.79	-42.8	-44.1	20.3	0.00e+00	0	41	0	874512384	58	6484
2026-01-21 20:00:25.72	334.82	10.65	-43.4	-44.8	19.9	0.00e+00	77	41	0	880803840	58	7068
2026-01-21 20:00:28.75	334.34	10.51	-43.5	-45.0	19.5	0.00e+00	6	41	0	886046720	58	7230
2026-01-21 20:00:31.77	333.87	10.37	-43.3	-44.8	19.7	0.00e+00	7	41	0	891289600	58	7009
2026-01-21 20:00:34.80	333.41	10.23	-43.2	-44.6	19.9	0.00e+00	7	41	0	897581056	58	6855
2026-01-21 20:00:37.83	332.95	10.09	-43.4	-44.9	19.5	0.00e+00	3	41	0	902823936	58	7096
2026-01-21 20:00:40.86	332.49	9.95	-43.6	-45.0	19.5	0.00e+00	0	41	0	909115392	58	7252
2026-01-21 20:00:43.90	332.04	9.81	-43.5	-45.0	19.4	0.00e+00	0	41	0	914358272	58	7220
2026-01-21 20:00:46.93	331.59	9.67	-43.6	-45.1	19.3	0.00e+00	92	41	0	920649728	58	7329
2026-01-21 20:00:49.96	331.15	9.52	-43.6	-45.1	19.4	0.00e+00	2	41	0	925892608	58	7332
2026-01-21 20:00:52.99	330.71	9.38	-43.7	-45.3	19.2	0.00e+00	6	41	0	931135488	60	6646
2026-01-21 20:00:56.02	330.28	9.23	-43.8	-45.3	19.3	0.00e+00	92	41	0	937426944	60	6678
2026-01-21 20:00:59.05	329.85	9.08	-43.3	-44.8	19.7	0.00e+00	0	41	0	942669824	60	6267
2026-01-21 20:01:02.08	329.42	8.94	-43.0	-44.4	20.0	0.00e+00	0	41	0	948961280	60	5976
2026-01-21 20:01:05.11	329.00	8.79	-43.2	-44.6	19.8	0.00e+00	2	41	0	954204160	60	6171
2026-01-21 20:01:08.14	328.59	8.64	-43.4	-44.9	19.6	0.00e+00	0	41	0	960495616	60	6334
2026-01-21 20:01:11.17	328.17	8.49	-43.3	-44.8	19.7	0.00e+00	1	41	0	965738496	60	6247
2026-01-21 20:01:14.20	327.77	8.34	-42.9	-44.3	20.2	0.00e+00	0	41	0	970981376	60	5910
2026-01-21 20:01:17.22	327.37	8.19	-42.5	-43.8	20.5	0.00e+00	91	41	0	977272832	58	6291
2026-01-21 20:01:20.25	326.97	8.04	-42.5	-43.8	20.4	0.00e+00	0	41	0	982515712	58	6311
2026-01-21 20:01:23.28	326.57	7.89	-42.0	-43.2	21.1	0.00e+00	0	41	0	988807168	58	5848
2026-01-21 20:01:26.31	326.18	7.74	-41.8	-43.0	21.3	0.00e+00	90	41	0	994050048	58	5698
2026-01-21 20:01:29.34	325.79	7.59	-41.8	-43.0	21.2	0.00e+00	4	41	0	999292928	56	6441
2026-01-21 20:01:32.37	325.41	7.44	-41.8	-43.0	21.3	0.00e+00	5	41	0	1005584384	56	6428
2026-01-21 20:01:35.40	325.03	7.28	-41.8	-43.0	21.2	0.00e+00	92	41	0	1010827264	56	6408
2026-01-21 20:01:38.43	324.66	7.13	-41.9	-43.0	21.0	0.00e+00	0	41	0	1017118720	56	6460
2026-01-21 20:01:41.46	324.29	6.98	-41.7	-42.9	21.3	0.00e+00	80	41	0	1022361600	56	6323
2026-01-21 20:01:44.49	323.92	6.83	-41.5	-42.7	21.0	0.00e+00	6	41	0	1028653056	56	6179
2026-01-21 20:01:47.52	323.56	6.67	-41.3	-42.4	21.7	0.00e+00	83	41	0	1033895936	56	6012
2026-01-21 20:01:50.55	323.20	6.52	-41.6	-42.7	21.4	0.00e+00	0	41	0	1039138816	56	6218
2026-01-21 20:01:53.57	322.85	6.37	-41.7	-42.9	21.3	0.00e+00	4	41	0	1045430272	56	6341
2026-01-21 20:01:56.60	322.50	6.21	-41.5	-42.7	21.5	0.00e+00	92	41	0	1050673152	56	6176
2026-01-21 20:01:59.63	322.15	6.06	-41.4	-42.5	21.6	0.00e+00	86	41	0	1056964608	56	6087
2026-01-21 20:02:02.66	321.81	5.90	-41.5	-42.6	21.4	0.00e+00	0	41	0	1062207488	56	6156
2026-01-21 20:02:05.69	321.47	5.75	-41.7	-42.9	21.1	0.00e+00	92	41	0	1067450368	56	6386
2026-01-21 20:02:08.71	321.13	5.60	-41.8	-43.0	21.1	0.00e+00	0	41	0	1073741824	56	6399
2026-01-21 20:02:11.74	320.80	5.44	-41.9	-43.1	21.0	0.00e+00	4	41	0	1078984704	56	6504
2026-01-21 20:02:14.77	320.47	5.29	-42.4	-43.7	20.4	0.00e+00	92	41	0	1085276160	56	6961
2026-01-21 20:02:17.80	320.14	5.14	-42.4	-43.7	20.5	0.00e+00	0	41	0	1090519040	56	6972
2026-01-21 20:02:20.83	319.82	4.98	-42.1	-43.3	20.9	0.00e+00	79	41	0	1096810496	56	6656
2026-01-21 20:02:23.86	319.50	4.83	-42.0	-43.3	20.7	0.00e+00	81	41	0	1102053376	56	6656
2026-01-21 20:02:26.89	319.19	4.67	-42.2	-43.5	20.4	0.00e+00	92	41	0	1107296256	56	6846
2026-01-21 20:02:29.92	318.88	4.52	-42.4	-43.7	20.3	0.00e+00	0	41	0	1113587712	56	6986
2026-01-21 20:02:32.95	318.57	4.37	-42.8	-44.2	19.7	0.00e+00	0	41	0	1118830592	58	6571
2026-01-21 20:02:35.98	318.27	4.21	-42.5	-43.8	20.0	0.00e+00	92	41	0	1125122048	58	6314
2026-01-21 20:02:39.01	317.96	4.06	-42.7	-44.1	19.8	0.00e+00	80	41	0	1130364928	58	6525
2026-01-21 20:02:42.04	317.67	3.91	-42.6	-44.1	19.8	0.00e+00	2	41	0	1135607808	58	6468
2026-01-21 20:02:45.07	317.37	3.75	-43.7	-45.4	18.5	0.00e+00	92	41	0	1141899264	58	7560
2026-01-21 20:02:48.09	317.08	3.60	-42.9	-44.5	19.2	0.00e+00	0	41	0	1147142144	58	6770
2026-01-21 20:02:51.12	316.79	3.45	-43.4	-45.0	18.9	0.00e+00	0	41	0	1153433600	58	7245
2026-01-21 20:02:54.15	316.51	3.30	-43.9	-45.8	17.7	0.00e+00	4	41	0	1158676480	60	7024
2026-01-21 20:02:57.18	316.22	3.14	-43.6	-45.4	18.4	0.00e+00	17	41	0	1164967936	60	6695
2026-01-21 20:03:00.21	315.94	2.99	-43.7	-45.5	18.1	0.00e+00	79	41	0	1170210816	60	6822
2026-01-21 20:03:03.24	315.67	2.84	-50.5	-65.7	3.6	1.51e+00	0	41	104	1171259392	60	70069
2026-01-21 20:03:06.27	315.39	2.69	-50.8	-66.1	3.6	1.51e+00	0	41	104	1171259392	60	72726
2026-01-21 20:03:09.30	315.12	2.54	-50.9	-66.1	3.6	1.51e+00	0	41	104	1171259392	60	73320
2026-01-21 20:03:12.33	314.85	2.39	-51.0	-66.2	3.6	1.51e+00	0	41	104	1171259392	60	73560
2026-01-21 20:03:15.35	314.59	2.23	-50.8	-66.2	3.6	1.51e+00	0	41	104	1171259392	60	73482
2026-01-21 20:03:18.38	314.33	2.08	-50.8	-66.1	3.6	1.51e+00	0	41	104	1171259392	60	72962
2026-01-21 20:03:21.41	314.07	1.93	-50.8	-66.1	3.6	1.51e+00	0	41	104	1171259392	60	72994
2026-01-21 20:03:24.44	313.81	1.78	-50.8	-66.1	3.6	1.51e+00	0	41	104	1171259392	60	72852
2026-01-21 20:03:27.47	313.56	1.63	-50.9	-66.1	3.6	1.51e+00	0	41	104	1171259392	60	72830
2026-01-21 20:03:30.50	313.31	1.48	-50.9	-66.1	3.6	1.51e+00	0	41	104	1171259392	60	73107
2026-01-21 20:03:33.53	313.06	1.33	-50.9	-66.1	3.6	1.51e+00	0	41	104	1171259392	60	73078
2026-01-21 20:03:36.56	312.81	1.18	-51.0	-66.1	3.6	1.51e+00	0	41	104	1171259392	60	73140
2026-01-21 20:03:39.59	312.57	1.03	-50.9	-66.1	3.6	1.51e+00	0	41	104	1171259392	60	72737
2026-01-21 20:03:42.62	312.33	0.89	-50.9	-66.1	3.6	1.51e+00	0	41	104	1171259392	60	72873
2026-01-21 20:03:45.65	312.09	0.74	-50.9	-66.1	3.6	1.51e+00	0	41	104	1171259392	60	72638
2026-01-21 20:03:48.68	311.85	0.59	-50.9	-66.1	3.6	1.51e+00	0	41	104	1171259392	60	72658
2026-01-21 20:03:51.71	311.62	0.44	-50.9	-66.1	3.6	1.51e+00	0	41	104	1171259392	60	73314
2026-01-21 20:03:54.73	311.39	0.29	-50.9	-66.1	3.6	1.51e+00	0	41	104	1171259392	60	72945
2026-01-21 20:03:57.77	311.16	0.15	-50.9	-66.2	3.5	1.51e+00	0	41	104	1171259392	60	73524
2026-01-21 20:04:00.80	310.93	-0.00	-51.0	-66.2	3.6	1.51e+00	0	41	104	1171259392	60	73545

#Closed at: 2026-01-21 20:04:03
#Recorded file [1171 MB]: D:/lorett/data/35029_260122_075132.dat