passes_logs/2026/01/21/R4.6S_Anadyr/R4.6S_Anadyr__20260121_181244_NOAA_20_JPSS-1_rec.log

#Pass ID: 20260121_181244_NOAA 20 (JPSS-1)
#Satellite: NOAA 20 (JPSS-1)
#Configuration: NOAA 20
#almurnet v.1.7.20251203
#Start time: 2026-01-21 18:12:45

#Version: 2.2.20231116
#Station: R4.6S_Anadyr
#Location: 177.4865 lon 64.73178 lat
#TLE: 1 43013U 17073A   26020.82785136  .00000155  00000+0  94366-4 0  9991
#TLE: 2 43013  98.7643 321.7058 0001260  30.3785 329.7464 14.19537992423566

#Time	Az	El	Level	Level2	SNR	BER	BlckErr	Temp	State	Recorded	gain1	gain2
2026-01-21 18:12:45.38	38.38	0.04	-52.1	-69.8	3.5	3.02e+01	0	39	0	0	60	119132
2026-01-21 18:12:49.41	38.10	0.25	-52.0	-67.4	3.6	1.51e+00	0	40	104	0	60	84590
2026-01-21 18:12:53.46	37.82	0.45	-51.9	-67.1	3.6	1.51e+00	0	40	104	0	60	81908
2026-01-21 18:12:57.49	37.53	0.66	-51.5	-66.7	3.6	1.51e+00	0	40	104	0	60	78149
2026-01-21 18:13:01.53	37.24	0.86	-51.3	-66.4	3.6	1.51e+00	0	40	104	0	60	75774
2026-01-21 18:13:05.57	36.95	1.07	-50.9	-66.2	3.6	1.51e+00	0	40	104	0	60	73422
2026-01-21 18:13:09.61	36.65	1.28	-50.2	-65.4	3.6	1.51e+00	0	40	104	0	60	67002
2026-01-21 18:13:13.65	36.34	1.49	-49.6	-64.8	3.6	1.51e+00	0	40	104	0	60	63121
2026-01-21 18:13:17.69	36.04	1.70	-49.6	-64.8	3.6	1.51e+00	0	40	104	0	60	62553
2026-01-21 18:13:21.73	35.72	1.91	-49.6	-64.8	3.6	1.51e+00	0	40	104	0	60	62804
2026-01-21 18:13:25.78	35.40	2.12	-49.6	-64.6	3.6	1.51e+00	0	40	104	0	60	61573
2026-01-21 18:13:29.82	35.08	2.33	-49.6	-64.8	3.6	1.51e+00	0	40	104	0	60	62804
2026-01-21 18:13:33.86	34.75	2.54	-49.6	-64.7	3.6	1.51e+00	0	40	104	0	60	62301
2026-01-21 18:13:37.90	34.42	2.76	-49.6	-64.1	3.6	1.51e+00	0	40	104	0	60	57790
2026-01-21 18:13:41.93	34.09	2.97	-49.5	-63.7	3.6	1.51e+00	0	41	104	0	60	55461
2026-01-21 18:13:45.97	33.74	3.18	-49.4	-64.3	3.6	1.10e+00	0	40	104	0	60	59179
2026-01-21 18:13:50.02	33.39	3.40	-46.6	-49.8	14.2	0.00e+00	9	41	0	2097152	60	11219
2026-01-21 18:13:54.06	33.04	3.61	-45.1	-47.3	16.7	0.00e+00	0	40	0	9437184	60	8388
2026-01-21 18:13:58.10	32.68	3.83	-44.8	-46.9	17.4	0.00e+00	0	40	0	16777216	60	7978
2026-01-21 18:14:02.14	32.32	4.05	-45.7	-48.1	16.1	0.00e+00	90	40	0	25165824	60	9197
2026-01-21 18:14:06.18	31.95	4.27	-44.5	-46.5	17.7	0.00e+00	6	41	0	32505856	60	7609
2026-01-21 18:14:10.21	31.57	4.48	-44.5	-46.4	17.7	0.00e+00	0	41	0	39845888	60	7589
2026-01-21 18:14:14.26	31.19	4.70	-44.9	-46.9	17.4	0.00e+00	0	40	0	47185920	60	7961
2026-01-21 18:14:18.29	30.81	4.92	-44.9	-47.0	17.2	0.00e+00	2	40	0	55574528	60	8071
2026-01-21 18:14:22.33	30.41	5.14	-44.3	-46.1	18.2	0.00e+00	73	40	0	62914560	60	7319
2026-01-21 18:14:26.37	30.01	5.36	-45.0	-47.0	17.4	0.00e+00	0	40	0	70254592	60	8119
2026-01-21 18:14:30.41	29.61	5.58	-44.5	-46.3	18.1	0.00e+00	92	41	0	77594624	60	7457
2026-01-21 18:14:34.45	29.19	5.81	-45.2	-47.3	17.3	0.00e+00	0	41	0	84934656	60	8337
2026-01-21 18:14:38.49	28.78	6.03	-44.7	-46.5	18.0	0.00e+00	0	40	0	93323264	60	7668
2026-01-21 18:14:42.53	28.35	6.25	-44.9	-46.8	17.7	0.00e+00	76	41	0	100663296	60	7905
2026-01-21 18:14:46.57	27.92	6.47	-44.2	-45.9	18.7	0.00e+00	92	41	0	108003328	60	7139
2026-01-21 18:14:50.60	27.48	6.69	-44.4	-46.1	18.5	0.00e+00	6	41	0	115343360	60	7300
2026-01-21 18:14:54.64	27.03	6.92	-44.2	-45.9	18.8	0.00e+00	7	40	0	123731968	60	7111
2026-01-21 18:14:58.68	26.58	7.14	-44.3	-45.9	18.8	0.00e+00	6	41	0	131072000	60	7143
2026-01-21 18:15:02.72	26.12	7.37	-43.5	-45.0	19.7	0.00e+00	90	41	0	138412032	60	6428
2026-01-21 18:15:06.77	25.65	7.59	-43.3	-44.7	19.9	0.00e+00	4	41	0	145752064	60	6237
2026-01-21 18:15:10.80	25.18	7.81	-43.4	-44.8	19.8	0.00e+00	6	41	0	153092096	60	6286
2026-01-21 18:15:14.84	24.69	8.04	-43.4	-44.9	19.9	0.00e+00	0	41	0	161480704	60	6322
2026-01-21 18:15:18.88	24.20	8.26	-43.5	-44.9	19.9	0.00e+00	92	41	0	168820736	60	6356
2026-01-21 18:15:22.92	23.70	8.49	-43.5	-44.9	19.8	0.00e+00	0	41	0	176160768	60	6381
2026-01-21 18:15:26.96	23.20	8.71	-43.4	-44.8	19.9	0.00e+00	77	41	0	183500800	60	6288
2026-01-21 18:15:30.99	22.69	8.93	-43.6	-45.0	19.7	0.00e+00	0	41	0	191889408	60	6440
2026-01-21 18:15:35.03	22.16	9.16	-43.6	-45.0	19.9	0.00e+00	92	41	0	199229440	60	6417
2026-01-21 18:15:39.07	21.63	9.38	-43.2	-44.6	20.2	0.00e+00	0	40	0	206569472	60	6121
2026-01-21 18:15:43.11	21.09	9.60	-43.6	-45.0	19.8	0.00e+00	72	41	0	213909504	60	6452
2026-01-21 18:15:47.14	20.55	9.82	-43.4	-44.8	20.1	0.00e+00	65	41	0	221249536	60	6296
2026-01-21 18:15:51.18	19.99	10.05	-42.9	-44.1	20.7	0.00e+00	71	40	0	229638144	60	5811
2026-01-21 18:15:55.22	19.43	10.27	-43.3	-44.6	20.3	0.00e+00	0	40	0	236978176	60	6145
2026-01-21 18:15:59.26	18.85	10.49	-43.0	-44.3	20.5	0.00e+00	0	40	0	244318208	60	5936
2026-01-21 18:16:03.29	18.27	10.71	-43.0	-44.3	20.6	0.00e+00	91	41	0	251658240	60	5953
2026-01-21 18:16:07.33	17.68	10.92	-43.0	-44.4	20.5	0.00e+00	78	40	0	258998272	60	5965
2026-01-21 18:16:11.37	17.08	11.14	-42.9	-44.1	20.6	0.00e+00	0	41	0	267386880	60	5823
2026-01-21 18:16:15.41	16.47	11.36	-43.0	-44.3	20.6	0.00e+00	6	41	0	274726912	60	5935
2026-01-21 18:16:19.45	15.85	11.57	-43.2	-44.6	20.4	0.00e+00	90	40	0	282066944	60	6130
2026-01-21 18:16:23.49	15.22	11.79	-42.9	-44.2	20.7	0.00e+00	0	41	0	289406976	60	5859
2026-01-21 18:16:27.53	14.59	12.00	-42.5	-43.7	21.1	0.00e+00	0	41	0	297795584	58	6236
2026-01-21 18:16:31.57	13.94	12.21	-42.3	-43.5	21.4	0.00e+00	10	41	0	305135616	58	6045
2026-01-21 18:16:35.61	13.28	12.42	-42.2	-43.3	21.5	0.00e+00	92	41	0	312475648	58	5939
2026-01-21 18:16:39.65	12.62	12.62	-41.8	-42.9	22.0	0.00e+00	0	41	0	319815680	56	6320
2026-01-21 18:16:43.69	11.94	12.83	-41.6	-42.6	22.2	0.00e+00	73	41	0	328204288	56	6156
2026-01-21 18:16:47.73	11.26	13.03	-41.4	-42.5	22.3	0.00e+00	0	41	0	335544320	56	6038
2026-01-21 18:16:51.77	10.57	13.23	-41.5	-42.5	22.3	0.00e+00	91	41	0	342884352	56	6087
2026-01-21 18:16:55.81	9.86	13.42	-41.3	-42.3	22.5	0.00e+00	2	41	0	350224384	56	5936
2026-01-21 18:16:59.85	9.15	13.62	-41.0	-42.0	22.8	0.00e+00	0	41	0	357564416	56	5702
2026-01-21 18:17:03.89	8.43	13.81	-40.6	-41.6	23.0	0.00e+00	0	41	0	365953024	54	6107
2026-01-21 18:17:07.93	7.70	13.99	-40.5	-41.5	23.2	0.00e+00	90	41	0	373293056	54	6056
2026-01-21 18:17:11.96	6.96	14.18	-40.4	-41.3	23.3	0.00e+00	9	41	0	380633088	54	5936
2026-01-21 18:17:16.00	6.21	14.36	-40.4	-41.3	23.2	0.00e+00	0	41	0	387973120	54	5960
2026-01-21 18:17:20.04	5.45	14.54	-40.9	-41.9	22.8	0.00e+00	47	41	0	396361728	54	6370
2026-01-21 18:17:24.08	4.68	14.71	-41.0	-42.0	22.6	0.00e+00	0	41	0	403701760	54	6435
2026-01-21 18:17:28.12	3.90	14.88	-41.4	-42.5	22.4	0.00e+00	81	41	0	411041792	54	6811
2026-01-21 18:17:32.17	3.11	15.04	-40.9	-41.9	22.8	0.00e+00	80	41	0	418381824	54	6367
2026-01-21 18:17:36.20	2.32	15.20	-40.8	-41.8	22.9	0.00e+00	70	41	0	425721856	54	6247
2026-01-21 18:17:40.24	1.51	15.36	-40.7	-41.6	23.1	0.00e+00	59	41	0	434110464	54	6166
2026-01-21 18:17:44.28	0.70	15.51	-40.2	-41.1	22.6	0.00e+00	0	41	0	441450496	54	5795
2026-01-21 18:17:48.32	359.88	15.66	-40.5	-41.4	23.3	0.00e+00	0	41	0	448790528	54	6010
2026-01-21 18:17:52.36	359.05	15.80	-40.2	-41.1	23.5	0.00e+00	90	41	0	456130560	54	5767
2026-01-21 18:17:56.40	358.21	15.93	-40.1	-41.0	23.6	0.00e+00	6	41	0	464519168	54	5717
2026-01-21 18:18:00.44	357.37	16.06	-40.0	-40.9	23.7	0.00e+00	6	41	0	471859200	54	5687
2026-01-21 18:18:04.48	356.52	16.19	-40.3	-41.2	23.5	0.00e+00	0	41	0	479199232	54	5845
2026-01-21 18:18:08.52	355.66	16.31	-40.5	-41.4	23.3	0.00e+00	92	41	0	486539264	54	6004
2026-01-21 18:18:12.56	354.79	16.42	-40.3	-41.2	23.4	0.00e+00	72	41	0	493879296	54	5856
2026-01-21 18:18:16.60	353.92	16.52	-40.2	-41.1	23.6	0.00e+00	13	41	0	502267904	54	5779
2026-01-21 18:18:20.64	353.04	16.62	-40.3	-41.2	23.4	0.00e+00	5	41	0	509607936	54	5881
2026-01-21 18:18:24.68	352.16	16.72	-40.5	-41.5	23.2	0.00e+00	92	41	0	516947968	54	6051
2026-01-21 18:18:28.71	351.27	16.80	-40.9	-41.9	22.8	0.00e+00	0	41	0	524288000	54	6358
2026-01-21 18:18:32.75	350.38	16.88	-41.0	-41.9	22.7	0.00e+00	1	41	0	532676608	54	6383
2026-01-21 18:18:36.79	349.48	16.96	-41.0	-41.9	22.8	0.00e+00	72	41	0	540016640	54	6375
2026-01-21 18:18:40.83	348.58	17.02	-40.7	-41.7	23.0	0.00e+00	92	41	0	547356672	54	6208
2026-01-21 18:18:44.86	347.68	17.08	-41.0	-42.0	22.8	0.00e+00	0	41	0	554696704	54	6398
2026-01-21 18:18:48.90	346.77	17.13	-41.0	-42.0	22.7	0.00e+00	77	41	0	562036736	54	6407
2026-01-21 18:18:52.94	345.85	17.17	-41.5	-42.5	22.3	0.00e+00	0	41	0	570425344	54	6818
2026-01-21 18:18:56.98	344.94	17.21	-41.2	-42.3	22.5	0.00e+00	90	41	0	577765376	54	6640
2026-01-21 18:19:01.01	344.02	17.24	-41.4	-42.4	22.4	0.00e+00	0	41	0	585105408	54	6763
2026-01-21 18:19:05.05	343.10	17.26	-41.0	-42.0	22.9	0.00e+00	0	41	0	592445440	54	6400
2026-01-21 18:19:09.08	342.19	17.28	-41.0	-42.0	22.9	0.00e+00	0	41	0	599785472	54	6400
2026-01-21 18:19:13.12	341.27	17.28	-41.0	-42.1	22.8	0.00e+00	79	41	0	608174080	54	6465
2026-01-21 18:19:17.16	340.35	17.28	-41.4	-42.5	22.1	0.00e+00	1	41	0	615514112	54	6804
2026-01-21 18:19:21.20	339.43	17.27	-41.1	-42.1	22.6	0.00e+00	1	41	0	622854144	54	6530
2026-01-21 18:19:25.24	338.51	17.26	-41.0	-42.0	22.8	0.00e+00	92	41	0	630194176	54	6457
2026-01-21 18:19:29.27	337.59	17.23	-41.2	-42.2	22.6	0.00e+00	0	41	0	638582784	54	6561
2026-01-21 18:19:33.31	336.67	17.20	-41.3	-42.3	22.5	0.00e+00	78	41	0	645922816	54	6691
2026-01-21 18:19:37.35	335.76	17.16	-40.8	-41.8	23.0	0.00e+00	4	41	0	653262848	54	6263
2026-01-21 18:19:41.39	334.85	17.12	-40.6	-41.5	23.2	0.00e+00	92	41	0	660602880	54	6082
2026-01-21 18:19:45.43	333.94	17.06	-41.0	-42.0	22.9	0.00e+00	4	41	0	667942912	54	6394
2026-01-21 18:19:49.47	333.03	17.00	-40.5	-41.5	23.3	0.00e+00	0	41	0	676331520	54	6041
2026-01-21 18:19:53.52	332.13	16.93	-40.4	-41.3	23.4	0.00e+00	5	41	0	683671552	54	5963
2026-01-21 18:19:57.56	331.23	16.86	-40.3	-41.2	23.6	0.00e+00	92	41	0	691011584	54	5849
2026-01-21 18:20:01.60	330.34	16.78	-40.5	-41.4	23.4	0.00e+00	0	41	0	698351616	54	5985
2026-01-21 18:20:05.64	329.45	16.69	-40.4	-41.3	23.4	0.00e+00	7	41	0	706740224	54	5951
2026-01-21 18:20:09.68	328.57	16.59	-40.6	-41.5	23.3	0.00e+00	8	41	0	714080256	54	6092
2026-01-21 18:20:13.71	327.69	16.49	-40.5	-41.5	23.3	0.00e+00	91	41	0	721420288	54	6045
2026-01-21 18:20:17.76	326.82	16.38	-40.7	-41.6	23.1	0.00e+00	78	41	0	728760320	54	6144
2026-01-21 18:20:21.79	325.96	16.27	-41.1	-42.1	22.8	0.00e+00	3	41	0	737148928	54	6517
2026-01-21 18:20:25.83	325.10	16.15	-41.3	-42.3	22.5	0.00e+00	15	41	0	744488960	54	6690
2026-01-21 18:20:29.86	324.25	16.02	-41.3	-42.3	22.5	0.00e+00	91	41	0	751828992	54	6630
2026-01-21 18:20:33.90	323.41	15.89	-41.3	-42.3	22.5	0.00e+00	78	41	0	759169024	54	6681
2026-01-21 18:20:37.94	322.58	15.76	-41.4	-42.5	22.4	0.00e+00	3	41	0	766509056	54	6776
2026-01-21 18:20:41.97	321.75	15.61	-41.2	-42.2	22.7	0.00e+00	0	41	0	774897664	54	6544
2026-01-21 18:20:46.01	320.93	15.47	-40.8	-41.8	22.9	0.00e+00	66	41	0	782237696	54	6290
2026-01-21 18:20:50.04	320.12	15.31	-40.9	-41.9	22.9	0.00e+00	0	41	0	789577728	54	6365
2026-01-21 18:20:54.08	319.32	15.16	-40.8	-41.8	23.0	0.00e+00	0	41	0	796917760	54	6296
2026-01-21 18:20:58.12	318.53	14.99	-40.8	-41.7	23.0	0.00e+00	92	41	0	804257792	54	6236
2026-01-21 18:21:02.15	317.74	14.83	-40.9	-41.9	23.0	0.00e+00	2	41	0	812646400	54	6363
2026-01-21 18:21:06.19	316.97	14.66	-41.1	-42.1	22.8	0.00e+00	0	41	0	819986432	54	6513
2026-01-21 18:21:10.23	316.20	14.48	-41.1	-42.1	22.7	0.00e+00	0	41	0	827326464	54	6509
2026-01-21 18:21:14.27	315.44	14.31	-41.1	-42.1	22.6	0.00e+00	91	41	0	834666496	54	6534
2026-01-21 18:21:18.31	314.69	14.12	-41.5	-42.6	22.3	0.00e+00	0	41	0	843055104	54	6853
2026-01-21 18:21:22.35	313.95	13.94	-41.9	-43.0	22.0	0.00e+00	0	41	0	850395136	56	6413
2026-01-21 18:21:26.39	313.22	13.75	-42.0	-43.1	21.9	0.00e+00	6	41	0	857735168	56	6479
2026-01-21 18:21:30.43	312.50	13.56	-42.1	-43.2	21.7	0.00e+00	92	41	0	865075200	56	6597
2026-01-21 18:21:34.47	311.79	13.36	-42.3	-43.5	21.4	0.00e+00	7	41	0	872415232	56	6799
2026-01-21 18:21:38.50	311.09	13.17	-42.8	-44.0	21.0	0.00e+00	0	41	0	880803840	58	6415
2026-01-21 18:21:42.54	310.40	12.97	-42.8	-44.1	20.9	0.00e+00	70	41	0	888143872	58	6470
2026-01-21 18:21:46.58	309.72	12.76	-42.5	-43.7	21.1	0.00e+00	92	41	0	895483904	58	6223
2026-01-21 18:21:50.62	309.04	12.56	-43.4	-44.8	20.2	0.00e+00	6	41	0	902823936	58	7051
2026-01-21 18:21:54.66	308.38	12.35	-43.2	-44.5	20.4	0.00e+00	0	41	0	911212544	58	6842
2026-01-21 18:21:58.69	307.73	12.14	-43.2	-44.6	20.4	0.00e+00	0	41	0	918552576	58	6853
2026-01-21 18:22:02.73	307.08	11.93	-43.3	-44.7	20.4	0.00e+00	91	41	0	925892608	58	6944
2026-01-21 18:22:06.77	306.45	11.72	-43.2	-44.5	20.4	0.00e+00	4	41	0	933232640	58	6831
2026-01-21 18:22:10.80	305.82	11.51	-43.1	-44.4	20.5	0.00e+00	11	41	0	940572672	58	6725
2026-01-21 18:22:14.84	305.20	11.29	-43.3	-44.6	20.4	0.00e+00	50	41	0	948961280	58	6875
2026-01-21 18:22:18.88	304.59	11.08	-43.2	-44.5	20.4	0.00e+00	92	41	0	956301312	58	6789
2026-01-21 18:22:22.92	304.00	10.86	-42.6	-43.8	21.1	0.00e+00	0	41	0	963641344	58	6269
2026-01-21 18:22:26.95	303.41	10.64	-42.7	-43.9	21.0	0.00e+00	4	41	0	970981376	58	6331
2026-01-21 18:22:30.99	302.83	10.42	-42.4	-43.6	21.2	0.00e+00	90	41	0	979369984	58	6147
2026-01-21 18:22:35.03	302.25	10.20	-42.3	-43.5	21.3	0.00e+00	12	41	0	986710016	58	6041
2026-01-21 18:22:39.06	301.69	9.98	-42.1	-43.2	21.5	0.00e+00	2	41	0	994050048	58	5896
2026-01-21 18:22:43.10	301.14	9.76	-41.9	-43.1	21.6	0.00e+00	0	41	0	1001390080	58	5777
2026-01-21 18:22:47.14	300.59	9.53	-41.7	-42.7	22.0	0.00e+00	92	41	0	1008730112	56	6234
2026-01-21 18:22:51.18	300.05	9.31	-41.6	-42.6	21.8	0.00e+00	0	41	0	1017118720	56	6168
2026-01-21 18:22:55.23	299.52	9.09	-41.5	-42.6	22.0	0.00e+00	8	41	0	1024458752	56	6138
2026-01-21 18:22:59.27	299.00	8.86	-41.3	-42.3	22.3	0.00e+00	0	41	0	1031798784	56	5962
2026-01-21 18:23:03.31	298.49	8.64	-41.6	-42.6	22.1	0.00e+00	92	41	0	1039138816	56	6154
2026-01-21 18:23:07.34	297.98	8.42	-41.5	-42.6	22.2	0.00e+00	0	41	0	1047527424	56	6125
2026-01-21 18:23:11.38	297.49	8.19	-41.5	-42.5	22.1	0.00e+00	13	41	0	1054867456	56	6084
2026-01-21 18:23:15.42	297.00	7.97	-41.4	-42.5	22.2	0.00e+00	0	41	0	1062207488	56	6063
2026-01-21 18:23:19.46	296.52	7.74	-41.7	-42.8	21.9	0.00e+00	92	41	0	1069547520	56	6246
2026-01-21 18:23:23.50	296.04	7.52	-41.9	-43.0	21.6	0.00e+00	70	41	0	1076887552	56	6413
2026-01-21 18:23:27.54	295.57	7.29	-42.1	-43.2	21.5	0.00e+00	72	41	0	1085276160	56	6590
2026-01-21 18:23:31.59	295.11	7.07	-42.1	-43.2	21.4	0.00e+00	62	41	0	1092616192	56	6577
2026-01-21 18:23:35.62	294.66	6.85	-41.6	-42.7	21.8	0.00e+00	92	41	0	1099956224	56	6239
2026-01-21 18:23:39.67	294.22	6.62	-41.7	-42.8	21.8	0.00e+00	7	41	0	1107296256	56	6277
2026-01-21 18:23:43.71	293.78	6.40	-42.1	-43.2	21.3	0.00e+00	67	41	0	1115684864	56	6602
2026-01-21 18:23:47.74	293.35	6.18	-42.6	-43.8	20.7	0.00e+00	67	41	0	1123024896	56	7076
2026-01-21 18:23:51.78	292.92	5.95	-42.4	-43.6	20.8	0.00e+00	92	41	0	1130364928	56	6925
2026-01-21 18:23:55.82	292.50	5.73	-42.7	-44.0	20.4	0.00e+00	2	41	0	1137704960	58	6414
2026-01-21 18:23:59.87	292.09	5.51	-42.7	-44.0	20.4	0.00e+00	0	41	0	1145044992	58	6457
2026-01-21 18:24:03.90	291.69	5.29	-43.0	-44.4	20.0	0.00e+00	91	41	0	1153433600	58	6714
2026-01-21 18:24:07.94	291.29	5.07	-44.0	-45.6	18.6	0.00e+00	72	41	0	1160773632	60	6907
2026-01-21 18:24:11.97	290.89	4.85	-43.8	-45.4	19.1	0.00e+00	66	41	0	1168113664	60	6698
2026-01-21 18:24:16.01	290.51	4.63	-43.8	-45.4	19.1	0.00e+00	15	41	0	1175453696	60	6700
2026-01-21 18:24:20.05	290.13	4.41	-43.5	-45.0	19.5	0.00e+00	90	41	0	1183842304	60	6414
2026-01-21 18:24:24.09	289.75	4.19	-44.4	-46.3	18.2	0.00e+00	72	41	0	1191182336	60	7423
2026-01-21 18:24:28.13	289.38	3.98	-43.6	-45.2	19.0	0.00e+00	71	41	0	1198522368	60	6591
2026-01-21 18:24:32.17	289.02	3.76	-44.4	-46.2	18.1	0.00e+00	9	41	0	1205862400	60	7360
2026-01-21 18:24:36.21	288.66	3.54	-44.6	-46.5	17.7	0.00e+00	92	41	0	1213202432	60	7628
2026-01-21 18:24:40.25	288.31	3.33	-44.4	-46.3	17.8	0.00e+00	0	41	0	1221591040	60	7500
2026-01-21 18:24:44.28	287.96	3.11	-44.4	-46.3	17.8	0.00e+00	0	41	0	1228931072	60	7485
2026-01-21 18:24:48.32	287.62	2.90	-50.7	-65.9	3.6	1.51e+00	0	41	104	1233125376	60	71277
2026-01-21 18:24:52.36	287.28	2.68	-51.1	-66.3	3.6	1.51e+00	0	41	104	1233125376	60	75080
2026-01-21 18:24:56.40	286.95	2.47	-51.3	-66.5	3.6	1.51e+00	0	41	104	1233125376	60	76109
2026-01-21 18:25:00.43	286.62	2.26	-51.3	-66.5	3.6	1.51e+00	0	41	104	1233125376	60	76759
2026-01-21 18:25:04.48	286.30	2.05	-51.1	-66.5	3.6	1.51e+00	0	42	104	1233125376	60	76199
2026-01-21 18:25:08.51	285.98	1.84	-51.2	-66.5	3.6	1.51e+00	0	41	104	1233125376	60	76213
2026-01-21 18:25:12.56	285.67	1.63	-51.3	-66.5	3.6	1.51e+00	0	41	104	1233125376	60	76304
2026-01-21 18:25:16.59	285.36	1.42	-51.3	-66.5	3.6	1.51e+00	0	42	104	1233125376	60	76644
2026-01-21 18:25:20.63	285.05	1.21	-51.6	-66.8	3.6	1.51e+00	0	41	104	1233125376	60	78665
2026-01-21 18:25:24.67	284.75	1.00	-51.5	-66.7	3.6	1.51e+00	0	42	104	1233125376	60	77771
2026-01-21 18:25:28.70	284.46	0.79	-51.5	-66.7	3.6	1.51e+00	0	41	104	1233125376	60	78084
2026-01-21 18:25:32.74	284.17	0.59	-51.5	-66.7	3.6	1.51e+00	0	41	104	1233125376	60	78329
2026-01-21 18:25:36.78	283.88	0.38	-51.5	-66.8	3.6	1.51e+00	0	42	104	1233125376	60	78644
2026-01-21 18:25:40.83	283.60	0.18	-51.6	-66.7	3.6	1.51e+00	0	42	104	1233125376	60	78431
2026-01-21 18:25:44.87	283.32	-0.03	-51.5	-66.7	3.6	1.51e+00	0	42	104	1233125376	60	78356

#Closed at: 2026-01-21 18:25:45
#Recorded file [1233 MB]: D:/lorett/data/35029_260122_061245.dat