passes_logs/2026/01/21/R4.6S_Anadyr/R4.6S_Anadyr__20260121_032500_FENGYUN_3D_rec.log

#Pass ID: 20260121_032500_FENGYUN 3D
#Satellite: FENGYUN 3D
#Configuration: FENGYUN 3D
#almurnet v.1.7.20251203
#Start time: 2026-01-21 03:25:03

#Version: 2.2.20231116
#Station: R4.6S_Anadyr
#Location: 177.4865 lon 64.73178 lat
#TLE: 1 43010U 17072A   26020.28933472  .00000051  00000+0  46008-4 0  9990
#TLE: 2 43010  98.9944 352.1871 0002476  99.7001 260.4455 14.19696838424006

#Time	Az	El	Level	Level2	SNR	BER	BlckErr	Temp	State	Recorded	gain1	gain2
2026-01-21 03:25:03.25	185.28	0.16	-54.7	-72.5	3.5	3.02e+01	0	38	0	0	60	161380
2026-01-21 03:25:07.28	185.43	0.39	-53.9	-66.1	3.6	8.45e-01	0	40	104	0	60	72974
2026-01-21 03:25:11.32	185.59	0.62	-53.4	-65.6	3.6	8.45e-01	0	40	104	0	60	68620
2026-01-21 03:25:15.36	185.75	0.86	-51.5	-63.8	3.6	8.45e-01	0	40	104	0	60	55858
2026-01-21 03:25:19.41	185.91	1.10	-51.3	-63.4	3.6	8.46e-01	0	40	104	0	60	53555
2026-01-21 03:25:23.45	186.08	1.34	-51.5	-63.6	3.6	8.45e-01	0	40	104	0	60	54950
2026-01-21 03:25:27.49	186.25	1.59	-50.0	-62.2	3.6	8.46e-01	0	40	104	0	60	46319
2026-01-21 03:25:31.53	186.42	1.83	-50.2	-62.3	3.6	8.44e-01	0	40	104	0	60	47039
2026-01-21 03:25:35.57	186.59	2.08	-50.6	-62.6	3.6	8.46e-01	0	40	104	0	60	48897
2026-01-21 03:25:39.61	186.77	2.32	-50.8	-62.8	3.6	8.44e-01	0	40	104	0	60	49906
2026-01-21 03:25:43.65	186.94	2.58	-51.1	-63.1	3.6	8.45e-01	0	40	104	0	60	51759
2026-01-21 03:25:47.69	187.12	2.83	-50.6	-61.8	3.6	8.46e-01	0	40	104	0	60	44259
2026-01-21 03:25:51.73	187.31	3.08	-50.5	-60.9	3.6	8.45e-01	0	40	104	0	60	39963
2026-01-21 03:25:55.77	187.50	3.34	-48.1	-51.4	10.2	4.02e-02	0	40	0	7340032	60	13369
2026-01-21 03:25:59.81	187.69	3.60	-41.8	-42.9	18.6	0.00e+00	0	40	0	29360128	56	6370
2026-01-21 03:26:03.85	187.88	3.86	-46.3	-48.7	11.5	0.00e+00	0	40	0	52428800	60	9803
2026-01-21 03:26:07.89	188.08	4.12	-40.4	-41.3	19.7	0.00e+00	0	40	0	67108864	54	5955
2026-01-21 03:26:11.93	188.28	4.39	-41.9	-43.0	18.4	0.00e+00	0	40	0	90177536	56	6422
2026-01-21 03:26:15.96	188.48	4.66	-40.0	-40.9	20.2	0.00e+00	0	40	0	113246208	52	6334
2026-01-21 03:26:20.00	188.69	4.93	-41.1	-42.0	19.9	0.00e+00	0	40	0	135266304	54	6457
2026-01-21 03:26:24.04	188.90	5.20	-40.4	-41.4	20.3	0.00e+00	0	40	0	158334976	54	5992
2026-01-21 03:26:28.08	189.11	5.48	-40.5	-41.4	20.8	0.00e+00	0	40	0	181403648	52	6760
2026-01-21 03:26:32.12	189.33	5.75	-40.7	-41.6	20.1	0.00e+00	0	40	0	203423744	54	6153
2026-01-21 03:26:36.16	189.55	6.04	-40.1	-41.0	21.2	0.00e+00	0	40	0	226492416	54	5721
2026-01-21 03:26:40.20	189.78	6.32	-39.4	-40.2	21.5	0.00e+00	0	41	0	249561088	52	5892
2026-01-21 03:26:44.24	190.01	6.61	-37.9	-38.7	23.0	0.00e+00	0	41	0	271581184	50	5528
2026-01-21 03:26:48.28	190.24	6.89	-38.2	-39.0	22.9	0.00e+00	0	41	0	294649856	48	6439
2026-01-21 03:26:52.32	190.48	7.19	-37.6	-38.3	23.5	0.00e+00	0	41	0	317718528	48	5960
2026-01-21 03:26:56.36	190.72	7.48	-39.2	-39.9	22.7	0.00e+00	0	41	0	339738624	50	6390
2026-01-21 03:27:00.40	190.97	7.78	-38.5	-39.2	23.3	0.00e+00	0	41	0	362807296	50	5895
2026-01-21 03:27:04.44	191.22	8.08	-38.8	-39.5	23.2	0.00e+00	0	41	0	385875968	50	6088
2026-01-21 03:27:08.48	191.48	8.39	-38.5	-39.3	23.4	0.00e+00	0	41	0	407896064	50	5902
2026-01-21 03:27:12.52	191.75	8.69	-37.2	-37.9	24.0	0.00e+00	0	41	0	430964736	48	5675
2026-01-21 03:27:16.56	192.01	9.01	-37.5	-38.2	23.7	0.00e+00	0	41	0	454033408	46	6608
2026-01-21 03:27:20.61	192.29	9.32	-36.7	-37.4	24.1	0.00e+00	0	41	0	476053504	46	5982
2026-01-21 03:27:24.65	192.57	9.64	-36.6	-37.3	24.3	0.00e+00	0	41	0	499122176	46	5940
2026-01-21 03:27:28.69	192.86	9.96	-36.8	-37.4	24.5	0.00e+00	0	41	0	522190848	46	6033
2026-01-21 03:27:32.73	193.15	10.29	-37.0	-37.7	24.3	0.00e+00	0	41	0	544210944	46	6191
2026-01-21 03:27:36.77	193.44	10.61	-36.5	-37.2	24.4	0.00e+00	0	41	0	567279616	46	5851
2026-01-21 03:27:40.81	193.75	10.95	-36.0	-36.7	24.5	0.00e+00	0	41	0	590348288	46	5562
2026-01-21 03:27:44.85	194.06	11.28	-36.3	-37.0	24.3	0.00e+00	0	41	0	612368384	46	5748
2026-01-21 03:27:48.89	194.38	11.62	-36.2	-36.8	24.5	0.00e+00	0	41	0	635437056	46	5626
2026-01-21 03:27:52.93	194.70	11.97	-36.0	-36.7	24.6	0.00e+00	0	41	0	658505728	46	5543
2026-01-21 03:27:56.97	195.04	12.32	-36.2	-36.9	24.7	0.00e+00	0	41	0	681574400	46	5648
2026-01-21 03:28:01.01	195.38	12.67	-35.9	-36.6	24.8	0.00e+00	0	41	0	703594496	44	6107
2026-01-21 03:28:05.05	195.72	13.03	-35.6	-36.3	25.2	0.00e+00	0	41	0	726663168	44	5915
2026-01-21 03:28:09.09	196.08	13.39	-35.8	-36.5	25.1	0.00e+00	0	41	0	748683264	44	6034
2026-01-21 03:28:13.13	196.45	13.75	-36.0	-36.6	25.3	0.00e+00	0	41	0	771751936	46	5501
2026-01-21 03:28:17.17	196.82	14.13	-37.2	-37.8	25.3	0.00e+00	0	41	0	794820608	46	6314
2026-01-21 03:28:21.21	197.20	14.50	-37.5	-38.2	25.3	0.00e+00	0	41	0	817889280	48	5848
2026-01-21 03:28:25.25	197.59	14.88	-36.1	-36.8	25.5	0.00e+00	0	41	0	839909376	46	5572
2026-01-21 03:28:29.29	198.00	15.26	-36.2	-36.9	25.6	0.00e+00	0	41	0	862978048	44	6341
2026-01-21 03:28:33.33	198.41	15.65	-36.5	-37.2	25.3	0.00e+00	0	41	0	886046720	46	5875
2026-01-21 03:28:37.38	198.83	16.05	-35.6	-36.2	26.0	0.00e+00	0	41	0	908066816	44	5877
2026-01-21 03:28:41.42	199.26	16.45	-36.5	-37.1	25.9	0.00e+00	0	41	0	931135488	44	6523
2026-01-21 03:28:45.46	199.71	16.85	-35.1	-35.8	26.2	0.00e+00	0	41	0	954204160	44	5581
2026-01-21 03:28:49.50	200.16	17.26	-35.8	-36.5	26.2	0.00e+00	0	41	0	976224256	44	6045
2026-01-21 03:28:53.53	200.63	17.68	-35.3	-35.9	26.6	0.00e+00	0	41	0	999292928	44	5657
2026-01-21 03:28:57.57	201.11	18.10	-34.8	-35.4	26.4	0.00e+00	0	41	0	1022361600	42	6000
2026-01-21 03:29:01.61	201.61	18.52	-35.1	-35.7	26.7	0.00e+00	0	41	0	1044381696	42	6227
2026-01-21 03:29:05.65	202.11	18.95	-34.3	-34.9	26.8	0.00e+00	0	41	0	1067450368	42	5669
2026-01-21 03:29:09.69	202.64	19.39	-34.6	-35.3	26.7	0.00e+00	0	41	0	1090519040	42	5912
2026-01-21 03:29:13.73	203.17	19.83	-34.5	-35.2	26.7	0.00e+00	0	41	0	1112539136	42	5831
2026-01-21 03:29:17.77	203.72	20.28	-34.2	-34.8	26.8	0.00e+00	0	41	0	1135607808	42	5589
2026-01-21 03:29:21.81	204.29	20.73	-34.1	-34.7	27.1	0.00e+00	0	41	0	1158676480	42	5528
2026-01-21 03:29:25.84	204.88	21.19	-34.2	-34.8	27.3	0.00e+00	0	41	0	1180696576	42	5597
2026-01-21 03:29:29.88	205.48	21.65	-34.7	-35.3	27.0	0.00e+00	0	41	0	1203765248	42	5936
2026-01-21 03:29:33.93	206.10	22.12	-34.3	-35.0	27.0	0.00e+00	0	41	0	1226833920	42	5703
2026-01-21 03:29:37.97	206.73	22.59	-34.7	-35.3	27.0	0.00e+00	0	41	0	1248854016	42	5952
2026-01-21 03:29:42.01	207.39	23.07	-34.6	-35.2	27.4	0.00e+00	0	41	0	1271922688	42	5862
2026-01-21 03:29:46.05	208.07	23.56	-33.9	-34.5	27.6	0.00e+00	0	41	0	1294991360	40	6054
2026-01-21 03:29:50.09	208.77	24.05	-33.6	-34.2	27.6	0.00e+00	0	41	0	1317011456	40	5850
2026-01-21 03:29:54.13	209.48	24.54	-34.0	-34.6	27.2	0.00e+00	0	41	0	1340080128	40	6163
2026-01-21 03:29:58.17	210.23	25.04	-33.3	-33.9	27.5	0.00e+00	0	41	0	1363148800	40	5688
2026-01-21 03:30:02.21	210.99	25.54	-33.3	-33.9	27.7	0.00e+00	0	41	0	1385168896	40	5662
2026-01-21 03:30:06.25	211.78	26.05	-33.4	-34.1	27.8	0.00e+00	0	41	0	1408237568	38	6467
2026-01-21 03:30:10.28	212.59	26.56	-33.2	-33.8	27.9	0.00e+00	0	41	0	1431306240	40	5591
2026-01-21 03:30:14.32	213.43	27.08	-32.6	-33.2	28.1	0.00e+00	0	41	0	1453326336	38	5874
2026-01-21 03:30:18.36	214.30	27.60	-32.6	-33.2	28.1	0.00e+00	0	41	0	1476395008	38	5868
2026-01-21 03:30:22.40	215.19	28.12	-33.2	-33.8	27.8	0.00e+00	0	41	0	1499463680	38	6249
2026-01-21 03:30:26.43	216.12	28.64	-32.7	-33.2	28.0	0.00e+00	0	41	0	1521483776	40	5252
2026-01-21 03:30:30.48	217.07	29.16	-32.4	-33.0	28.2	0.00e+00	0	41	0	1544552448	38	5760
2026-01-21 03:30:34.52	218.06	29.69	-32.4	-33.0	28.2	0.00e+00	0	41	0	1567621120	38	5743
2026-01-21 03:30:38.56	219.07	30.22	-32.6	-33.2	27.8	0.00e+00	0	41	0	1589641216	38	5893
2026-01-21 03:30:42.60	220.12	30.74	-32.9	-33.5	27.8	0.00e+00	0	41	0	1612709888	38	6068
2026-01-21 03:30:46.63	221.21	31.27	-33.0	-33.6	27.9	0.00e+00	0	41	0	1635778560	38	6163
2026-01-21 03:30:50.67	222.32	31.79	-32.8	-33.4	28.2	0.00e+00	0	41	0	1657798656	40	5359
2026-01-21 03:30:54.70	223.48	32.31	-32.5	-33.1	28.4	0.00e+00	0	41	0	1680867328	38	5785
2026-01-21 03:30:58.74	224.67	32.82	-33.3	-33.9	27.9	0.00e+00	0	42	0	1703936000	38	6375
2026-01-21 03:31:02.78	225.90	33.33	-33.6	-34.3	28.1	0.00e+00	0	41	0	1725956096	40	5922
2026-01-21 03:31:06.82	227.16	33.84	-33.0	-33.6	28.2	0.00e+00	0	41	0	1749024768	40	5445
2026-01-21 03:31:10.86	228.47	34.34	-33.3	-33.9	27.9	0.00e+00	0	41	0	1771044864	40	5656
2026-01-21 03:31:14.90	229.81	34.82	-32.4	-33.0	28.4	0.00e+00	0	41	0	1794113536	38	5733
2026-01-21 03:31:18.93	231.19	35.30	-32.2	-32.8	28.5	0.00e+00	0	42	0	1817182208	38	5621
2026-01-21 03:31:22.97	232.62	35.77	-32.1	-32.7	28.6	0.00e+00	0	41	0	1840250880	38	5505
2026-01-21 03:31:27.01	234.08	36.22	-32.4	-33.0	28.4	0.00e+00	0	41	0	1862270976	38	5725
2026-01-21 03:31:31.04	235.58	36.65	-32.0	-32.6	28.5	0.00e+00	0	42	0	1885339648	38	5472
2026-01-21 03:31:35.08	237.13	37.07	-31.6	-32.2	28.6	0.00e+00	0	42	0	1908408320	36	5873
2026-01-21 03:31:39.12	238.71	37.48	-32.1	-32.7	28.4	0.00e+00	0	41	0	1930428416	36	6193
2026-01-21 03:31:43.16	240.33	37.86	-31.8	-32.4	28.6	0.00e+00	0	41	0	1953497088	36	6009
2026-01-21 03:31:47.20	241.99	38.22	-31.8	-32.4	28.6	0.00e+00	0	41	0	1975517184	36	5978
2026-01-21 03:31:51.24	243.68	38.56	-32.0	-32.5	28.5	0.00e+00	0	41	0	1998585856	36	6100
2026-01-21 03:31:55.28	245.41	38.87	-31.8	-32.5	28.5	0.00e+00	0	42	0	2021654528	36	6037
2026-01-21 03:31:59.32	247.16	39.16	-32.0	-32.6	28.5	0.00e+00	0	41	0	2044723200	36	6125
2026-01-21 03:32:03.36	248.95	39.41	-32.3	-32.9	28.0	0.00e+00	0	41	0	2066743296	36	6348
2026-01-21 03:32:07.41	250.77	39.64	-32.2	-32.8	28.8	0.00e+00	0	42	0	2089811968	36	6281
2026-01-21 03:32:11.44	252.60	39.84	-32.1	-32.7	28.5	0.00e+00	0	42	0	2112880640	36	6183
2026-01-21 03:32:15.48	254.46	40.01	-32.4	-32.9	28.5	0.00e+00	0	42	0	2134900736	36	6371
2026-01-21 03:32:19.52	256.33	40.14	-32.7	-33.3	28.4	0.00e+00	0	41	0	2157969408	36	6662
2026-01-21 03:32:23.55	258.21	40.24	-32.6	-33.2	28.2	0.00e+00	0	42	0	2179989504	38	5882
2026-01-21 03:32:27.59	260.11	40.30	-32.4	-33.0	28.4	0.00e+00	0	42	0	2203058176	38	5750
2026-01-21 03:32:31.63	262.01	40.34	-32.2	-32.8	28.6	0.00e+00	0	42	0	2226126848	38	5625
2026-01-21 03:32:35.67	263.91	40.33	-32.3	-32.9	28.4	0.00e+00	0	42	0	2249195520	38	5683
2026-01-21 03:32:39.71	265.81	40.29	-32.6	-33.2	28.1	0.00e+00	0	42	0	2271215616	38	5882
2026-01-21 03:32:43.75	267.71	40.22	-33.3	-33.9	28.1	0.00e+00	0	42	0	2294284288	40	5668
2026-01-21 03:32:47.80	269.59	40.11	-34.2	-34.7	28.0	0.00e+00	0	42	0	2317352960	40	6242
2026-01-21 03:32:51.83	271.46	39.97	-34.0	-34.6	28.4	0.00e+00	0	42	0	2339373056	42	5482
2026-01-21 03:32:55.87	273.31	39.80	-34.6	-35.2	28.1	0.00e+00	0	42	0	2362441728	42	5836
2026-01-21 03:32:59.91	275.14	39.60	-33.7	-34.2	28.7	0.00e+00	0	41	0	2385510400	40	5878
2026-01-21 03:33:03.95	276.94	39.36	-33.5	-34.1	28.6	0.00e+00	0	41	0	2407530496	40	5812
2026-01-21 03:33:07.99	278.72	39.10	-33.2	-33.8	28.8	0.00e+00	0	42	0	2430599168	40	5585
2026-01-21 03:33:12.03	280.47	38.81	-33.1	-33.7	28.4	0.00e+00	0	42	0	2453667840	40	5535
2026-01-21 03:33:16.07	282.19	38.49	-33.1	-33.8	28.4	0.00e+00	0	42	0	2475687936	40	5586
2026-01-21 03:33:20.11	283.87	38.15	-33.0	-33.5	28.7	0.00e+00	0	42	0	2498756608	38	6061
2026-01-21 03:33:24.16	285.52	37.78	-32.4	-33.0	28.5	0.00e+00	0	41	0	2521825280	38	5758
2026-01-21 03:33:28.19	287.12	37.40	-32.5	-33.1	28.5	0.00e+00	0	41	0	2543845376	38	5807
2026-01-21 03:33:32.23	288.69	36.99	-32.5	-33.1	28.6	0.00e+00	0	42	0	2566914048	38	5777
2026-01-21 03:33:36.27	290.23	36.57	-32.2	-32.8	28.4	0.00e+00	0	42	0	2589982720	38	5574
2026-01-21 03:33:40.31	291.72	36.13	-32.6	-33.2	28.1	0.00e+00	0	42	0	2612002816	38	5867
2026-01-21 03:33:44.35	293.17	35.68	-32.2	-32.8	28.5	0.00e+00	0	42	0	2635071488	38	5616
2026-01-21 03:33:48.40	294.59	35.21	-32.7	-33.3	28.1	0.00e+00	0	42	0	2658140160	38	5948
2026-01-21 03:33:52.43	295.95	34.73	-33.2	-33.9	27.8	0.00e+00	0	42	0	2680160256	38	6333
2026-01-21 03:33:56.47	297.29	34.25	-34.0	-34.6	27.3	0.00e+00	0	42	0	2703228928	40	6157
2026-01-21 03:34:00.51	298.58	33.75	-33.9	-34.6	28.1	0.00e+00	0	42	0	2726297600	40	6113
2026-01-21 03:34:04.55	299.84	33.25	-34.1	-34.7	28.1	0.00e+00	0	42	0	2748317696	40	6182
2026-01-21 03:34:08.60	301.06	32.74	-33.1	-33.7	28.1	0.00e+00	0	42	0	2771386368	40	5549
2026-01-21 03:34:12.64	302.24	32.22	-33.2	-33.8	28.0	0.00e+00	0	42	0	2794455040	40	5620
2026-01-21 03:34:16.67	303.38	31.70	-33.0	-33.5	27.8	0.00e+00	0	42	0	2816475136	40	5425
2026-01-21 03:34:20.71	304.49	31.18	-32.9	-33.5	27.8	0.00e+00	0	42	0	2839543808	40	5431
2026-01-21 03:34:24.75	305.56	30.66	-33.7	-34.2	27.7	0.00e+00	0	42	0	2862612480	40	5887
2026-01-21 03:34:28.79	306.60	30.14	-33.4	-34.1	27.7	0.00e+00	0	42	0	2884632576	40	5818
2026-01-21 03:34:32.83	307.61	29.62	-33.6	-34.3	27.7	0.00e+00	0	42	0	2907701248	40	5924
2026-01-21 03:34:36.87	308.58	29.09	-34.0	-34.7	27.5	0.00e+00	0	42	0	2930769920	40	6245
2026-01-21 03:34:40.91	309.53	28.57	-33.8	-34.3	28.0	0.00e+00	0	42	0	2953838592	40	5951
2026-01-21 03:34:44.95	310.44	28.05	-35.0	-35.7	27.9	0.00e+00	0	41	0	2975858688	42	6209
2026-01-21 03:34:48.99	311.33	27.53	-34.5	-35.1	27.5	0.00e+00	0	42	0	2998927360	42	5796
2026-01-21 03:34:53.03	312.19	27.02	-34.7	-35.2	27.8	0.00e+00	0	42	0	3020947456	42	5862
2026-01-21 03:34:57.07	313.02	26.51	-33.7	-34.4	27.8	0.00e+00	0	42	0	3044016128	40	5995
2026-01-21 03:35:01.11	313.83	26.00	-33.7	-34.2	27.8	0.00e+00	0	42	0	3067084800	40	5892
2026-01-21 03:35:05.15	314.61	25.50	-34.0	-34.7	27.5	0.00e+00	0	42	0	3089104896	40	6234
2026-01-21 03:35:09.19	315.37	25.00	-34.5	-35.2	27.3	0.00e+00	0	42	0	3112173568	40	6587
2026-01-21 03:35:13.23	316.11	24.50	-34.1	-34.8	27.4	0.00e+00	0	42	0	3135242240	42	5597
2026-01-21 03:35:17.27	316.82	24.01	-34.4	-35.0	27.4	0.00e+00	0	42	0	3158310912	42	5720
2026-01-21 03:35:21.30	317.51	23.53	-34.5	-35.1	27.3	0.00e+00	0	42	0	3180331008	42	5791
2026-01-21 03:35:25.35	318.18	23.05	-34.2	-34.9	27.1	0.00e+00	0	42	0	3203399680	42	5664
2026-01-21 03:35:29.38	318.83	22.57	-34.5	-35.2	27.1	0.00e+00	0	42	0	3225419776	42	5892
2026-01-21 03:35:33.42	319.47	22.10	-34.1	-34.6	27.2	0.00e+00	0	42	0	3248488448	42	5497
2026-01-21 03:35:37.46	320.08	21.64	-34.7	-35.4	26.9	0.00e+00	0	42	0	3271557120	42	6011
2026-01-21 03:35:41.50	320.68	21.18	-34.8	-35.3	26.8	0.00e+00	0	42	0	3293577216	42	5935
2026-01-21 03:35:45.53	321.26	20.72	-34.4	-34.9	26.9	0.00e+00	0	42	0	3316645888	42	5676
2026-01-21 03:35:49.58	321.82	20.27	-34.8	-35.5	26.5	0.00e+00	0	42	0	3339714560	42	6075
2026-01-21 03:35:53.62	322.37	19.83	-35.0	-35.7	26.5	0.00e+00	0	41	0	3361734656	42	6196
2026-01-21 03:35:57.66	322.91	19.39	-35.6	-36.2	26.3	0.00e+00	0	41	0	3384803328	42	6596
2026-01-21 03:36:01.70	323.43	18.96	-35.2	-35.9	26.2	0.00e+00	0	41	0	3407872000	44	5659
2026-01-21 03:36:05.73	323.93	18.53	-36.0	-36.7	26.1	0.00e+00	0	41	0	3429892096	44	6182
2026-01-21 03:36:09.77	324.42	18.11	-35.8	-36.5	26.2	0.00e+00	0	41	0	3452960768	44	6066
2026-01-21 03:36:13.81	324.90	17.69	-36.2	-36.8	26.1	0.00e+00	0	41	0	3476029440	44	6257
2026-01-21 03:36:17.85	325.37	17.28	-36.2	-36.9	25.9	0.00e+00	0	41	0	3498049536	44	6357
2026-01-21 03:36:21.89	325.82	16.88	-36.1	-36.7	25.8	0.00e+00	0	41	0	3521118208	44	6230
2026-01-21 03:36:25.92	326.26	16.48	-36.0	-36.7	25.9	0.00e+00	0	41	0	3544186880	44	6199
2026-01-21 03:36:29.95	326.70	16.08	-36.5	-37.2	25.6	0.00e+00	0	41	0	3566206976	44	6591
2026-01-21 03:36:34.00	327.12	15.69	-36.7	-37.3	25.8	0.00e+00	0	41	0	3589275648	46	5903
2026-01-21 03:36:38.04	327.53	15.30	-36.8	-37.5	25.5	0.00e+00	0	41	0	3612344320	46	6100
2026-01-21 03:36:42.08	327.93	14.92	-36.8	-37.6	25.1	0.00e+00	0	41	0	3634364416	46	6115
2026-01-21 03:36:46.12	328.32	14.54	-36.8	-37.4	25.0	0.00e+00	0	41	0	3657433088	46	5998
2026-01-21 03:36:50.16	328.70	14.17	-36.8	-37.6	24.9	0.00e+00	0	41	0	3680501760	46	6148
2026-01-21 03:36:54.20	329.08	13.80	-37.7	-38.4	24.4	0.00e+00	0	41	0	3703570432	48	5998
2026-01-21 03:36:58.24	329.44	13.44	-37.8	-38.4	24.7	0.00e+00	0	41	0	3725590528	48	5983
2026-01-21 03:37:02.28	329.80	13.08	-37.4	-38.2	24.8	0.00e+00	0	41	0	3748659200	48	5850
2026-01-21 03:37:06.32	330.15	12.73	-37.5	-38.3	24.7	0.00e+00	0	41	0	3770679296	48	5903
2026-01-21 03:37:10.36	330.49	12.38	-37.6	-38.4	24.6	0.00e+00	0	41	0	3793747968	48	6009
2026-01-21 03:37:14.40	330.82	12.03	-37.0	-37.7	24.7	0.00e+00	0	41	0	3816816640	48	5516
2026-01-21 03:37:18.44	331.14	11.69	-37.4	-38.0	24.9	0.00e+00	0	41	0	3838836736	48	5747
2026-01-21 03:37:22.48	331.46	11.35	-38.0	-38.8	24.3	0.00e+00	0	41	0	3861905408	48	6298
2026-01-21 03:37:26.52	331.77	11.02	-37.4	-38.0	24.6	0.00e+00	0	41	0	3884974080	46	6422
2026-01-21 03:37:30.56	332.08	10.69	-37.3	-37.9	24.5	0.00e+00	0	41	0	3908042752	48	5684
2026-01-21 03:37:34.60	332.38	10.36	-37.5	-38.3	24.1	0.00e+00	0	41	0	3930062848	48	5921
2026-01-21 03:37:38.64	332.67	10.04	-38.0	-38.8	24.1	0.00e+00	0	41	0	3953131520	48	6255
2026-01-21 03:37:42.67	332.96	9.72	-38.3	-39.1	23.7	0.00e+00	0	41	0	3975151616	48	6492
2026-01-21 03:37:46.71	333.24	9.40	-39.0	-39.7	22.9	0.00e+00	0	41	0	3998220288	50	6209
2026-01-21 03:37:50.76	333.52	9.09	-38.2	-39.1	23.4	0.00e+00	0	41	0	4021288960	48	6478
2026-01-21 03:37:54.80	333.79	8.78	-38.0	-38.7	23.4	0.00e+00	0	41	0	4043309056	48	6181
2026-01-21 03:37:58.84	334.05	8.48	-38.0	-38.8	23.5	0.00e+00	0	41	0	4066377728	48	6264
2026-01-21 03:38:02.88	334.31	8.17	-38.9	-39.8	22.8	0.00e+00	0	41	0	4089446400	48	7043
2026-01-21 03:38:06.92	334.56	7.87	-39.0	-39.7	22.6	0.00e+00	0	41	0	4112515072	50	6179
2026-01-21 03:38:10.96	334.82	7.58	-39.0	-39.7	22.5	0.00e+00	0	41	0	4134535168	50	6242
2026-01-21 03:38:15.00	335.06	7.28	-39.1	-39.8	22.2	0.00e+00	0	41	0	4157603840	50	6303
2026-01-21 03:38:19.04	335.30	6.99	-39.4	-40.2	22.3	0.00e+00	0	41	0	4179623936	52	5851
2026-01-21 03:38:23.08	335.54	6.71	-37.7	-38.3	23.6	0.00e+00	0	41	0	4202692608	48	5942
2026-01-21 03:38:27.12	335.77	6.42	-38.7	-39.5	22.6	0.00e+00	0	41	0	4225761280	50	6074
2026-01-21 03:38:31.16	336.00	6.14	-39.4	-40.2	21.5	0.00e+00	0	41	0	4248829952	52	5865
2026-01-21 03:38:35.20	336.22	5.86	-38.9	-39.7	21.2	0.00e+00	0	41	0	4270850048	50	6209
2026-01-21 03:38:39.24	336.44	5.58	-39.7	-40.7	19.6	0.00e+00	0	41	0	4293918720	52	6222
2026-01-21 03:38:43.28	336.66	5.31	-41.4	-42.8	17.4	0.00e+00	0	41	0	4316987392	54	7029
2026-01-21 03:38:47.33	336.87	5.04	-42.8	-44.6	14.4	0.00e+00	0	41	0	4339007488	58	6912
2026-01-21 03:38:51.37	337.08	4.77	-44.6	-47.4	11.5	7.39e-04	0	41	0	4362076160	60	8491
2026-01-21 03:38:55.41	337.29	4.50	-46.4	-50.5	8.3	6.20e-02	0	41	0	4385144832	60	12073
2026-01-21 03:38:59.44	337.49	4.24	-46.8	-52.5	5.5	4.03e-01	0	41	0	4407164928	60	15190
2026-01-21 03:39:03.48	337.69	3.98	-47.2	-56.7	3.9	8.43e-01	0	41	104	4408213504	60	24698
2026-01-21 03:39:07.52	337.89	3.72	-47.0	-58.2	3.6	8.46e-01	0	41	104	4408213504	60	29312
2026-01-21 03:39:11.56	338.08	3.46	-47.6	-59.6	3.6	8.46e-01	0	41	104	4408213504	60	34371
2026-01-21 03:39:15.59	338.27	3.21	-47.4	-59.5	3.6	8.45e-01	0	41	104	4408213504	60	34291
2026-01-21 03:39:19.63	338.46	2.95	-49.8	-62.0	3.6	8.47e-01	0	41	104	4408213504	60	45421
2026-01-21 03:39:23.67	338.64	2.70	-52.2	-64.3	3.6	8.45e-01	0	41	104	4408213504	60	59548
2026-01-21 03:39:27.71	338.82	2.45	-52.4	-64.6	3.6	8.45e-01	0	41	104	4408213504	60	61283
2026-01-21 03:39:31.75	339.00	2.21	-51.7	-64.0	3.6	8.44e-01	0	41	104	4408213504	60	57169
2026-01-21 03:39:35.80	339.18	1.96	-51.7	-63.8	3.6	8.45e-01	0	41	104	4408213504	60	56129
2026-01-21 03:39:39.84	339.35	1.72	-52.5	-64.7	3.6	8.45e-01	0	41	104	4408213504	60	61806
2026-01-21 03:39:43.88	339.52	1.48	-53.3	-65.4	3.6	8.46e-01	0	41	104	4408213504	60	67235
2026-01-21 03:39:47.92	339.69	1.24	-53.1	-65.3	3.6	8.45e-01	0	41	104	4408213504	60	66461
2026-01-21 03:39:51.96	339.86	1.00	-52.6	-64.8	3.6	8.45e-01	0	41	104	4408213504	60	62493
2026-01-21 03:39:56.00	340.02	0.76	-53.0	-65.2	3.6	8.46e-01	0	41	104	4408213504	60	65794
2026-01-21 03:40:00.04	340.18	0.53	-52.3	-64.5	3.6	8.45e-01	0	41	104	4408213504	60	60392
2026-01-21 03:40:04.08	340.34	0.30	-52.4	-64.6	3.6	8.46e-01	0	41	104	4408213504	60	61258
2026-01-21 03:40:08.12	340.50	0.07	-52.7	-64.9	3.6	8.44e-01	0	41	104	4408213504	60	63261

#Closed at: 2026-01-21 03:40:11
#Recorded file [4408 MB]: D:/lorett/data/35029_260121_152503.dat