passes_logs/2026/01/21/R4.6S_Anadyr/R4.6S_Anadyr__20260121_171024_FENGYUN_3D_rec.log

#Pass ID: 20260121_171024_FENGYUN 3D
#Satellite: FENGYUN 3D
#Configuration: FENGYUN 3D
#almurnet v.1.7.20251203
#Start time: 2026-01-21 17:10:27

#Version: 2.2.20231116
#Station: R4.6S_Anadyr
#Location: 177.4865 lon 64.73178 lat
#TLE: 1 43010U 17072A   26020.92362722 -.00000077  00000+0 -14488-4 0  9992
#TLE: 2 43010  98.9946 352.8312 0002486  99.3651 260.7806 14.19696535424099

#Time	Az	El	Level	Level2	SNR	BER	BlckErr	Temp	State	Recorded	gain1	gain2
2026-01-21 17:10:27.57	21.85	0.18	-52.5	-63.3	3.3	8.41e-01	0	40	0	0	60	52604
2026-01-21 17:10:31.61	21.83	0.42	-51.8	-63.9	3.6	8.43e-01	0	40	104	0	60	56894
2026-01-21 17:10:35.65	21.81	0.67	-51.6	-63.7	3.6	8.47e-01	0	40	104	0	60	55116
2026-01-21 17:10:39.69	21.79	0.92	-51.3	-63.4	3.6	8.45e-01	0	40	104	0	60	53535
2026-01-21 17:10:43.73	21.77	1.17	-50.7	-62.9	3.6	8.45e-01	0	40	104	0	60	50365
2026-01-21 17:10:47.77	21.74	1.42	-50.2	-62.3	3.6	8.45e-01	0	40	104	0	60	47210
2026-01-21 17:10:51.81	21.72	1.67	-49.7	-61.3	3.6	8.45e-01	0	40	104	0	60	41785
2026-01-21 17:10:55.85	21.69	1.93	-49.8	-61.9	3.6	8.45e-01	0	41	104	0	60	45090
2026-01-21 17:10:59.89	21.67	2.18	-49.7	-61.6	3.6	8.46e-01	0	40	104	0	60	43624
2026-01-21 17:11:03.93	21.64	2.44	-49.6	-60.7	3.6	8.44e-01	0	41	104	0	60	39194
2026-01-21 17:11:07.98	21.61	2.71	-49.6	-61.0	3.6	8.45e-01	0	41	104	0	60	40381
2026-01-21 17:11:12.02	21.58	2.97	-49.6	-59.8	3.6	8.44e-01	0	41	104	0	60	35464
2026-01-21 17:11:16.05	21.56	3.24	-48.6	-53.6	5.7	6.41e-01	0	41	0	8388608	60	17360
2026-01-21 17:11:20.09	21.53	3.51	-48.3	-52.8	7.2	1.02e-01	0	41	0	31457280	60	15860
2026-01-21 17:11:24.13	21.49	3.78	-41.3	-42.5	17.5	0.00e+00	0	41	0	54525952	54	6777
2026-01-21 17:11:28.17	21.46	4.06	-43.6	-45.3	15.6	7.91e-01	0	41	104	61865984	60	6623
2026-01-21 17:11:32.22	21.43	4.34	-41.0	-42.1	18.5	0.00e+00	0	41	0	80740352	54	6508
2026-01-21 17:11:36.26	21.40	4.62	-41.7	-42.8	18.1	0.00e+00	0	41	0	103809024	56	6296
2026-01-21 17:11:40.30	21.36	4.90	-39.8	-40.7	20.3	0.00e+00	0	41	0	125829120	54	5557
2026-01-21 17:11:44.34	21.33	5.19	-39.6	-40.5	20.4	0.00e+00	0	41	0	148897792	52	6090
2026-01-21 17:11:48.38	21.29	5.48	-39.4	-40.3	20.7	0.00e+00	0	41	0	171966464	52	5938
2026-01-21 17:11:52.42	21.25	5.78	-38.8	-39.6	21.5	0.00e+00	0	41	0	193986560	50	6151
2026-01-21 17:11:56.46	21.21	6.07	-39.3	-40.1	21.3	0.00e+00	0	41	0	217055232	50	6539
2026-01-21 17:12:00.50	21.17	6.37	-39.1	-39.9	21.6	0.00e+00	0	41	0	240123904	50	6342
2026-01-21 17:12:04.53	21.13	6.68	-39.1	-39.9	21.8	0.00e+00	0	41	0	262144000	50	6365
2026-01-21 17:12:08.58	21.09	6.99	-39.3	-40.1	21.5	0.00e+00	0	41	0	285212672	50	6528
2026-01-21 17:12:12.62	21.04	7.30	-37.7	-38.5	22.9	0.00e+00	0	41	0	308281344	50	5411
2026-01-21 17:12:16.66	21.00	7.61	-37.6	-38.4	23.0	0.00e+00	0	41	0	330301440	48	6000
2026-01-21 17:12:20.70	20.95	7.93	-37.7	-38.4	23.1	0.00e+00	0	41	0	353370112	48	6006
2026-01-21 17:12:24.74	20.90	8.26	-37.6	-38.3	23.1	0.00e+00	0	41	0	376438784	48	5958
2026-01-21 17:12:28.78	20.85	8.58	-37.8	-38.6	22.9	0.00e+00	0	41	0	398458880	48	6138
2026-01-21 17:12:32.82	20.80	8.92	-37.0	-37.7	23.7	0.00e+00	0	41	0	421527552	48	5560
2026-01-21 17:12:36.86	20.75	9.25	-36.7	-37.4	24.1	0.00e+00	0	41	0	444596224	46	5974
2026-01-21 17:12:40.90	20.70	9.59	-36.7	-37.4	24.1	0.00e+00	0	41	0	466616320	46	5985
2026-01-21 17:12:44.94	20.64	9.94	-36.5	-37.2	24.3	0.00e+00	0	41	0	489684992	46	5867
2026-01-21 17:12:48.98	20.58	10.29	-36.5	-37.2	24.3	0.00e+00	0	41	0	512753664	46	5853
2026-01-21 17:12:53.02	20.52	10.64	-36.5	-37.2	24.2	0.00e+00	0	41	0	534773760	46	5847
2026-01-21 17:12:57.05	20.46	11.00	-36.4	-37.1	24.4	0.00e+00	0	41	0	557842432	46	5781
2026-01-21 17:13:01.09	20.40	11.37	-36.4	-37.1	24.4	0.00e+00	0	41	0	580911104	46	5777
2026-01-21 17:13:05.13	20.33	11.74	-36.2	-36.9	24.7	0.00e+00	0	41	0	602931200	46	5636
2026-01-21 17:13:09.16	20.27	12.12	-36.2	-36.9	24.6	0.00e+00	0	41	0	625999872	46	5643
2026-01-21 17:13:13.21	20.20	12.50	-36.1	-36.7	24.6	0.00e+00	0	41	0	649068544	46	5562
2026-01-21 17:13:17.25	20.12	12.89	-36.0	-36.7	24.8	0.00e+00	0	41	0	671088640	46	5551
2026-01-21 17:13:21.29	20.05	13.29	-35.9	-36.6	24.8	0.00e+00	0	41	0	694157312	46	5485
2026-01-21 17:13:25.32	19.97	13.69	-35.9	-36.6	24.9	0.00e+00	0	41	0	717225984	46	5443
2026-01-21 17:13:29.36	19.89	14.10	-35.7	-36.4	25.1	0.00e+00	0	41	0	739246080	44	5965
2026-01-21 17:13:33.39	19.81	14.51	-35.5	-36.2	25.2	0.00e+00	0	41	0	762314752	44	5874
2026-01-21 17:13:37.43	19.72	14.93	-35.4	-36.1	25.4	0.00e+00	0	41	0	785383424	44	5818
2026-01-21 17:13:41.47	19.64	15.36	-35.3	-36.0	25.6	0.00e+00	0	41	0	807403520	44	5703
2026-01-21 17:13:45.51	19.55	15.80	-35.1	-35.8	25.7	0.00e+00	0	41	0	830472192	44	5594
2026-01-21 17:13:49.54	19.45	16.24	-35.0	-35.7	25.9	0.00e+00	0	41	0	853540864	44	5507
2026-01-21 17:13:53.58	19.35	16.70	-35.1	-35.8	25.7	0.00e+00	0	41	0	875560960	42	6289
2026-01-21 17:13:57.61	19.25	17.16	-35.0	-35.7	25.9	0.00e+00	0	41	0	898629632	42	6183
2026-01-21 17:14:01.65	19.15	17.63	-34.5	-35.1	26.4	0.00e+00	0	41	0	921698304	42	5814
2026-01-21 17:14:05.69	19.04	18.11	-34.6	-35.2	26.4	0.00e+00	0	41	0	943718400	42	5859
2026-01-21 17:14:09.73	18.93	18.60	-34.4	-35.1	26.5	0.00e+00	0	41	0	966787072	42	5778
2026-01-21 17:14:13.77	18.81	19.10	-34.3	-34.9	26.6	0.00e+00	0	41	0	989855744	42	5688
2026-01-21 17:14:17.82	18.69	19.61	-34.2	-34.8	26.7	0.00e+00	0	41	0	1011875840	42	5596
2026-01-21 17:14:21.86	18.56	20.13	-34.3	-35.0	26.6	0.00e+00	0	41	0	1034944512	42	5728
2026-01-21 17:14:25.90	18.43	20.66	-34.3	-34.9	26.7	0.00e+00	0	41	0	1058013184	42	5670
2026-01-21 17:14:29.94	18.29	21.20	-34.0	-34.6	26.9	0.00e+00	0	41	0	1080033280	42	5499
2026-01-21 17:14:33.98	18.15	21.76	-33.9	-34.5	27.0	0.00e+00	0	41	0	1103101952	40	6078
2026-01-21 17:14:38.02	18.00	22.32	-33.6	-34.3	27.2	0.00e+00	0	42	0	1126170624	40	5905
2026-01-21 17:14:42.06	17.85	22.90	-33.6	-34.2	27.2	0.00e+00	0	41	0	1148190720	40	5880
2026-01-21 17:14:46.10	17.69	23.49	-33.5	-34.2	27.3	0.00e+00	0	42	0	1171259392	40	5859
2026-01-21 17:14:50.13	17.52	24.10	-33.4	-34.1	27.4	0.00e+00	0	41	0	1194328064	40	5767
2026-01-21 17:14:54.17	17.34	24.72	-33.4	-34.0	27.4	0.00e+00	0	42	0	1216348160	40	5760
2026-01-21 17:14:58.22	17.16	25.35	-33.2	-33.8	27.5	0.00e+00	0	41	0	1239416832	40	5626
2026-01-21 17:15:02.26	16.97	26.00	-33.2	-33.9	27.6	0.00e+00	0	42	0	1262485504	40	5641
2026-01-21 17:15:06.30	16.77	26.67	-33.2	-33.9	27.6	0.00e+00	0	41	0	1284505600	40	5645
2026-01-21 17:15:10.33	16.56	27.35	-33.1	-33.8	27.6	0.00e+00	0	42	0	1307574272	40	5605
2026-01-21 17:15:14.37	16.34	28.05	-33.2	-33.8	27.6	0.00e+00	0	41	0	1330642944	40	5630
2026-01-21 17:15:18.41	16.11	28.76	-33.0	-33.6	27.8	0.00e+00	0	42	0	1352663040	40	5497
2026-01-21 17:15:22.45	15.87	29.50	-32.8	-33.4	27.9	0.00e+00	0	41	0	1375731712	40	5376
2026-01-21 17:15:26.48	15.62	30.25	-33.0	-33.7	27.9	0.00e+00	0	41	0	1398800384	40	5527
2026-01-21 17:15:30.52	15.35	31.02	-32.8	-33.5	28.0	0.00e+00	0	41	0	1420820480	40	5380
2026-01-21 17:15:34.56	15.07	31.82	-32.8	-33.4	28.0	0.00e+00	0	41	0	1443889152	38	6008
2026-01-21 17:15:38.60	14.78	32.63	-32.4	-33.0	28.3	0.00e+00	0	41	0	1466957824	38	5738
2026-01-21 17:15:42.64	14.47	33.47	-32.6	-33.2	28.2	0.00e+00	0	41	0	1488977920	38	5891
2026-01-21 17:15:46.68	14.14	34.33	-32.4	-33.1	28.3	0.00e+00	0	41	0	1512046592	38	5768
2026-01-21 17:15:50.72	13.79	35.21	-31.9	-32.5	28.7	0.00e+00	0	41	0	1535115264	38	5402
2026-01-21 17:15:54.75	13.43	36.11	-32.2	-32.8	28.4	0.00e+00	0	41	0	1557135360	38	5624
2026-01-21 17:15:58.80	13.04	37.04	-32.2	-32.8	28.5	0.00e+00	0	41	0	1580204032	38	5571
2026-01-21 17:16:02.83	12.62	38.00	-32.3	-32.9	28.4	0.00e+00	0	41	0	1603272704	38	5633
2026-01-21 17:16:06.87	12.18	38.98	-32.8	-33.4	28.1	0.00e+00	0	41	0	1625292800	38	6000
2026-01-21 17:16:10.92	11.71	39.99	-32.6	-33.2	28.1	0.00e+00	0	41	0	1648361472	38	5833
2026-01-21 17:16:14.96	11.21	41.03	-32.8	-33.5	28.0	0.00e+00	0	41	0	1671430144	38	6037
2026-01-21 17:16:19.00	10.68	42.09	-33.2	-33.8	27.7	0.00e+00	0	41	0	1693450240	38	6315
2026-01-21 17:16:23.04	10.10	43.19	-32.9	-33.5	28.0	0.00e+00	0	41	0	1716518912	38	6062
2026-01-21 17:16:27.08	9.49	44.31	-33.1	-33.8	27.8	0.00e+00	0	41	0	1739587584	38	6255
2026-01-21 17:16:31.11	8.83	45.46	-33.5	-34.1	27.6	0.00e+00	0	41	0	1761607680	38	6508
2026-01-21 17:16:35.15	8.11	46.64	-33.0	-33.6	27.8	0.00e+00	0	41	0	1784676352	38	6140
2026-01-21 17:16:39.19	7.34	47.84	-33.0	-33.6	27.8	0.00e+00	0	41	0	1807745024	38	6170
2026-01-21 17:16:43.22	6.51	49.08	-32.7	-33.3	28.1	0.00e+00	0	41	0	1829765120	38	5936
2026-01-21 17:16:47.26	5.60	50.34	-33.6	-34.2	27.5	0.00e+00	0	41	0	1852833792	38	6588
2026-01-21 17:16:51.30	4.61	51.64	-34.6	-35.2	26.6	0.00e+00	0	41	0	1875902464	40	6596
2026-01-21 17:16:55.34	3.53	52.96	-34.1	-34.8	27.0	0.00e+00	0	41	0	1897922560	40	6279
2026-01-21 17:16:59.39	2.34	54.30	-34.6	-35.2	26.6	0.00e+00	0	41	0	1920991232	40	6609
2026-01-21 17:17:03.43	1.04	55.67	-34.0	-34.6	27.1	0.00e+00	0	41	0	1944059904	42	5472
2026-01-21 17:17:07.47	359.59	57.05	-33.4	-34.0	27.6	0.00e+00	0	41	0	1966080000	40	5751
2026-01-21 17:17:11.51	358.00	58.45	-32.9	-33.5	27.8	0.00e+00	0	41	0	1989148672	40	5409
2026-01-21 17:17:15.55	356.22	59.85	-32.9	-33.5	27.9	0.00e+00	0	41	0	2012217344	40	5414
2026-01-21 17:17:19.59	354.24	61.27	-33.2	-33.8	27.6	0.00e+00	0	41	0	2035286016	40	5608
2026-01-21 17:17:23.62	352.02	62.67	-33.1	-33.7	27.8	0.00e+00	0	41	0	2057306112	40	5539
2026-01-21 17:17:27.67	349.51	64.07	-33.3	-33.9	27.6	0.00e+00	0	41	0	2080374784	40	5683
2026-01-21 17:17:31.71	346.69	65.44	-32.5	-33.1	28.3	0.00e+00	0	41	0	2102394880	38	5821
2026-01-21 17:17:35.74	343.51	66.77	-32.1	-32.6	28.6	0.00e+00	0	41	0	2125463552	38	5498
2026-01-21 17:17:39.79	339.89	68.05	-31.6	-32.2	29.0	0.00e+00	0	41	0	2148532224	36	5863
2026-01-21 17:17:43.83	335.81	69.26	-31.6	-32.2	28.9	0.00e+00	0	41	0	2170552320	36	5878
2026-01-21 17:17:47.86	331.21	70.37	-32.3	-32.9	28.3	0.00e+00	0	41	0	2193620992	36	6390
2026-01-21 17:17:51.90	326.05	71.35	-31.7	-32.4	28.7	0.00e+00	0	41	0	2216689664	36	5975
2026-01-21 17:17:55.94	320.32	72.19	-31.8	-32.4	28.8	0.00e+00	0	41	0	2239758336	36	5972
2026-01-21 17:17:59.98	314.05	72.84	-31.7	-32.3	28.7	0.00e+00	0	41	0	2261778432	36	5942
2026-01-21 17:18:04.02	307.36	73.29	-31.7	-32.4	28.8	0.00e+00	0	41	0	2284847104	36	5971
2026-01-21 17:18:08.06	300.37	73.50	-31.8	-32.4	28.9	0.00e+00	0	41	0	2306867200	36	5987
2026-01-21 17:18:12.09	293.32	73.48	-31.8	-32.4	28.7	0.00e+00	0	41	0	2329935872	36	6018
2026-01-21 17:18:16.13	286.37	73.22	-31.8	-32.4	28.7	0.00e+00	0	41	0	2353004544	36	5987
2026-01-21 17:18:20.17	279.73	72.74	-32.1	-32.7	28.5	0.00e+00	0	41	0	2375024640	36	6230
2026-01-21 17:18:24.21	273.56	72.05	-32.6	-33.2	28.6	0.00e+00	0	41	0	2398093312	36	6548
2026-01-21 17:18:28.25	267.92	71.19	-32.0	-32.7	28.6	0.00e+00	0	41	0	2421161984	38	5524
2026-01-21 17:18:32.29	262.85	70.18	-32.1	-32.7	28.8	0.00e+00	0	41	0	2444230656	36	6230
2026-01-21 17:18:36.33	258.34	69.05	-31.8	-32.5	29.0	0.00e+00	0	41	0	2466250752	36	6038
2026-01-21 17:18:40.37	254.34	67.82	-32.0	-32.6	28.8	0.00e+00	0	41	0	2489319424	36	6117
2026-01-21 17:18:44.41	250.80	66.53	-32.4	-33.0	28.7	0.00e+00	0	41	0	2511339520	36	6402
2026-01-21 17:18:48.45	247.68	65.19	-32.5	-33.1	28.5	0.00e+00	0	41	0	2534408192	38	5819
2026-01-21 17:18:52.49	244.92	63.81	-32.5	-33.1	28.6	0.00e+00	0	41	0	2557476864	38	5824
2026-01-21 17:18:56.53	242.47	62.41	-32.8	-33.4	28.4	0.00e+00	0	41	0	2579496960	38	6010
2026-01-21 17:19:00.57	240.29	60.99	-33.0	-33.5	28.0	0.00e+00	0	41	0	2602565632	38	6079
2026-01-21 17:19:04.60	238.35	59.58	-32.9	-33.6	28.1	0.00e+00	0	41	0	2625634304	38	6119
2026-01-21 17:19:08.64	236.61	58.17	-33.1	-33.7	27.9	0.00e+00	0	41	0	2648702976	38	6184
2026-01-21 17:19:12.68	235.04	56.77	-33.6	-34.3	27.6	0.00e+00	0	41	0	2670723072	38	6631
2026-01-21 17:19:16.72	233.62	55.39	-33.7	-34.3	27.5	0.00e+00	0	41	0	2693791744	40	5902
2026-01-21 17:19:20.76	232.33	54.02	-34.0	-34.7	27.1	0.00e+00	0	41	0	2715811840	40	6203
2026-01-21 17:19:24.80	231.17	52.68	-33.7	-34.4	27.2	0.00e+00	0	41	0	2738880512	40	6028
2026-01-21 17:19:28.84	230.10	51.36	-33.2	-33.8	27.5	0.00e+00	0	41	0	2761949184	40	5626
2026-01-21 17:19:32.87	229.13	50.08	-33.3	-34.0	27.6	0.00e+00	0	41	0	2783969280	40	5748
2026-01-21 17:19:36.91	228.23	48.81	-33.1	-33.6	27.9	0.00e+00	0	41	0	2807037952	40	5476
2026-01-21 17:19:40.95	227.40	47.58	-33.1	-33.8	27.9	0.00e+00	0	41	0	2830106624	40	5605
2026-01-21 17:19:44.98	226.64	46.37	-32.9	-33.5	28.0	0.00e+00	0	41	0	2853175296	38	6096
2026-01-21 17:19:49.03	225.94	45.19	-32.6	-33.3	28.1	0.00e+00	0	41	0	2875195392	38	5923
2026-01-21 17:19:53.07	225.28	44.04	-32.4	-32.9	28.3	0.00e+00	0	41	0	2898264064	38	5687
2026-01-21 17:19:57.11	224.67	42.92	-32.7	-33.2	28.2	0.00e+00	0	41	0	2920284160	38	5882
2026-01-21 17:20:01.15	224.11	41.83	-32.6	-33.2	28.2	0.00e+00	0	41	0	2943352832	38	5845
2026-01-21 17:20:05.19	223.58	40.77	-32.2	-32.8	28.5	0.00e+00	0	41	0	2966421504	38	5623
2026-01-21 17:20:09.23	223.08	39.73	-32.4	-33.2	28.3	0.00e+00	0	41	0	2988441600	38	5830
2026-01-21 17:20:13.27	222.61	38.73	-32.3	-33.0	28.5	0.00e+00	0	41	0	3011510272	38	5734
2026-01-21 17:20:17.31	222.18	37.75	-32.2	-32.8	28.4	0.00e+00	0	41	0	3034578944	38	5572
2026-01-21 17:20:21.35	221.77	36.79	-32.1	-32.7	28.5	0.00e+00	0	41	0	3057647616	38	5507
2026-01-21 17:20:25.39	221.38	35.86	-32.5	-33.2	28.2	0.00e+00	0	41	0	3079667712	38	5843
2026-01-21 17:20:29.43	221.01	34.96	-32.5	-33.0	28.0	0.00e+00	0	41	0	3102736384	38	5739
2026-01-21 17:20:33.47	220.67	34.08	-32.7	-33.3	28.1	0.00e+00	0	41	0	3124756480	38	5899
2026-01-21 17:20:37.51	220.34	33.22	-32.6	-33.1	28.2	0.00e+00	0	41	0	3147825152	38	5812
2026-01-21 17:20:41.55	220.03	32.39	-33.2	-33.7	27.9	0.00e+00	0	41	0	3170893824	38	6208
2026-01-21 17:20:45.59	219.74	31.57	-32.9	-33.4	28.0	0.00e+00	0	41	0	3193962496	38	6017
2026-01-21 17:20:49.62	219.46	30.78	-32.7	-33.2	27.9	0.00e+00	0	41	0	3215982592	38	5888
2026-01-21 17:20:53.66	219.20	30.01	-32.6	-33.3	28.1	0.00e+00	0	41	0	3239051264	38	5928
2026-01-21 17:20:57.71	218.94	29.26	-32.8	-33.3	28.0	0.00e+00	0	41	0	3262119936	38	5950
2026-01-21 17:21:01.75	218.70	28.53	-32.8	-33.4	27.8	0.00e+00	0	41	0	3284140032	38	5995
2026-01-21 17:21:05.79	218.47	27.81	-32.8	-33.5	27.9	0.00e+00	0	41	0	3307208704	38	6053
2026-01-21 17:21:09.83	218.26	27.11	-32.6	-33.3	27.9	0.00e+00	0	41	0	3330277376	38	5947
2026-01-21 17:21:13.87	218.05	26.43	-32.8	-33.5	27.9	0.00e+00	0	41	0	3352297472	38	6042
2026-01-21 17:21:17.92	217.85	25.77	-32.9	-33.6	27.8	0.00e+00	0	41	0	3375366144	38	6147
2026-01-21 17:21:21.96	217.66	25.12	-33.2	-33.9	27.5	0.00e+00	0	41	0	3398434816	38	6353
2026-01-21 17:21:26.00	217.47	24.49	-33.2	-33.7	27.6	0.00e+00	0	41	0	3420454912	38	6234
2026-01-21 17:21:30.04	217.30	23.87	-33.1	-33.7	27.6	0.00e+00	0	41	0	3443523584	38	6210
2026-01-21 17:21:34.08	217.13	23.26	-33.4	-33.9	27.4	0.00e+00	0	41	0	3465543680	38	6384
2026-01-21 17:21:38.12	216.97	22.67	-33.5	-34.2	27.3	0.00e+00	0	41	0	3488612352	38	6555
2026-01-21 17:21:42.16	216.81	22.09	-33.6	-34.2	27.2	0.00e+00	0	41	0	3511681024	40	5848
2026-01-21 17:21:46.20	216.66	21.53	-33.9	-34.5	27.0	0.00e+00	0	41	0	3534749696	40	6050
2026-01-21 17:21:50.24	216.52	20.98	-33.7	-34.4	27.1	0.00e+00	0	41	0	3556769792	40	6014
2026-01-21 17:21:54.28	216.38	20.43	-33.9	-34.5	27.0	0.00e+00	0	41	0	3579838464	40	6074
2026-01-21 17:21:58.32	216.25	19.90	-34.2	-34.8	26.7	0.00e+00	0	41	0	3602907136	40	6284
2026-01-21 17:22:02.36	216.12	19.39	-34.1	-34.7	26.7	0.00e+00	0	41	0	3624927232	40	6220
2026-01-21 17:22:06.40	216.00	18.88	-34.4	-35.1	26.6	0.00e+00	0	41	0	3647995904	40	6480
2026-01-21 17:22:10.44	215.88	18.38	-34.4	-35.1	26.5	0.00e+00	0	41	0	3671064576	40	6502
2026-01-21 17:22:14.48	215.77	17.89	-34.3	-35.0	26.6	0.00e+00	0	41	0	3693084672	42	5737
2026-01-21 17:22:18.52	215.66	17.41	-34.6	-35.4	26.2	0.00e+00	0	41	0	3716153344	42	5987
2026-01-21 17:22:22.55	215.55	16.94	-34.7	-35.3	26.2	0.00e+00	0	41	0	3739222016	42	5900
2026-01-21 17:22:26.59	215.45	16.48	-34.8	-35.4	26.2	0.00e+00	0	41	0	3761242112	42	5984
2026-01-21 17:22:30.63	215.35	16.03	-35.0	-35.6	26.0	0.00e+00	0	41	0	3784310784	42	6153
2026-01-21 17:22:34.67	215.25	15.58	-35.3	-36.0	25.9	0.00e+00	0	41	0	3807379456	42	6434
2026-01-21 17:22:38.72	215.16	15.14	-35.2	-36.0	25.8	0.00e+00	0	41	0	3829399552	42	6408
2026-01-21 17:22:42.76	215.07	14.71	-35.3	-36.1	25.6	0.00e+00	0	41	0	3852468224	42	6489
2026-01-21 17:22:46.80	214.98	14.29	-35.4	-36.0	25.7	0.00e+00	0	41	0	3875536896	42	6406
2026-01-21 17:22:50.84	214.90	13.88	-35.5	-36.1	25.7	0.00e+00	0	41	0	3897556992	42	6466
2026-01-21 17:22:54.88	214.81	13.47	-35.6	-36.2	25.5	0.00e+00	0	41	0	3920625664	44	5856
2026-01-21 17:22:58.92	214.74	13.07	-35.8	-36.4	25.3	0.00e+00	0	41	0	3943694336	44	5965
2026-01-21 17:23:02.95	214.66	12.67	-35.9	-36.5	25.1	0.00e+00	0	41	0	3965714432	44	6084
2026-01-21 17:23:06.99	214.58	12.28	-35.9	-36.5	25.1	0.00e+00	0	41	0	3988783104	44	6090
2026-01-21 17:23:11.03	214.51	11.90	-35.9	-36.7	25.1	0.00e+00	0	41	0	4011851776	44	6197
2026-01-21 17:23:15.07	214.44	11.53	-36.1	-36.7	24.9	0.00e+00	0	41	0	4033871872	44	6218
2026-01-21 17:23:19.11	214.37	11.15	-36.3	-37.0	24.7	0.00e+00	0	41	0	4056940544	44	6397
2026-01-21 17:23:23.15	214.31	10.79	-36.4	-37.0	24.7	0.00e+00	0	41	0	4080009216	44	6449
2026-01-21 17:23:27.19	214.24	10.43	-36.8	-37.6	24.4	0.00e+00	0	41	0	4102029312	46	6121
2026-01-21 17:23:31.23	214.18	10.07	-36.8	-37.5	24.3	0.00e+00	0	41	0	4125097984	46	6096
2026-01-21 17:23:35.27	214.12	9.72	-36.7	-37.5	24.2	0.00e+00	0	41	0	4148166656	46	6076
2026-01-21 17:23:39.31	214.06	9.38	-36.8	-37.5	24.3	0.00e+00	0	41	0	4170186752	46	6043
2026-01-21 17:23:43.36	214.01	9.04	-37.2	-37.8	23.9	0.00e+00	0	41	0	4193255424	46	6292
2026-01-21 17:23:47.40	213.95	8.70	-36.9	-37.6	24.0	0.00e+00	0	41	0	4216324096	46	6108
2026-01-21 17:23:51.44	213.90	8.37	-37.5	-38.2	23.5	0.00e+00	0	41	0	4239392768	46	6563
2026-01-21 17:23:55.48	213.84	8.04	-37.3	-38.1	23.5	0.00e+00	0	41	0	4261412864	48	5790
2026-01-21 17:23:59.53	213.79	7.72	-37.4	-38.0	23.5	0.00e+00	0	41	0	4284481536	48	5736
2026-01-21 17:24:03.56	213.74	7.40	-37.1	-37.7	23.6	0.00e+00	0	41	0	4306501632	48	5536
2026-01-21 17:24:07.61	213.70	7.08	-37.1	-37.7	23.4	0.00e+00	0	41	0	4329570304	48	5564
2026-01-21 17:24:11.65	213.65	6.77	-37.2	-37.9	23.3	0.00e+00	0	41	0	4352638976	48	5638
2026-01-21 17:24:15.68	213.60	6.47	-37.9	-38.7	22.7	0.00e+00	0	41	0	4374659072	48	6244
2026-01-21 17:24:19.72	213.56	6.16	-37.9	-38.7	22.5	0.00e+00	0	41	0	4397727744	48	6220
2026-01-21 17:24:23.75	213.52	5.86	-38.1	-38.8	22.6	0.00e+00	0	41	0	4420796416	48	6271
2026-01-21 17:24:27.79	213.47	5.56	-37.7	-38.4	22.8	0.00e+00	0	41	0	4443865088	48	6020
2026-01-21 17:24:31.82	213.43	5.27	-37.6	-38.3	22.9	0.00e+00	0	41	0	4465885184	48	5920
2026-01-21 17:24:35.86	213.39	4.98	-38.3	-39.0	22.3	0.00e+00	0	41	0	4488953856	48	6422
2026-01-21 17:24:39.90	213.35	4.69	-38.6	-39.4	21.8	0.00e+00	0	41	0	4510973952	50	5966
2026-01-21 17:24:43.94	213.32	4.41	-38.7	-39.5	21.6	0.00e+00	0	41	0	4534042624	50	6057
2026-01-21 17:24:47.98	213.28	4.13	-38.6	-39.3	21.7	0.00e+00	0	41	0	4557111296	50	5962
2026-01-21 17:24:52.01	213.24	3.85	-39.5	-40.4	20.6	0.00e+00	0	41	0	4579131392	52	5984
2026-01-21 17:24:56.05	213.21	3.57	-38.9	-39.9	21.1	0.00e+00	0	41	0	4602200064	50	6319
2026-01-21 17:25:00.09	213.17	3.30	-40.3	-41.3	19.8	0.00e+00	0	41	0	4625268736	52	6645
2026-01-21 17:25:04.13	213.14	3.03	-39.0	-39.8	20.8	0.00e+00	0	41	0	4647288832	50	6311
2026-01-21 17:25:08.17	213.11	2.76	-51.0	-63.2	3.6	8.44e-01	0	41	104	4649385984	60	52125
2026-01-21 17:25:12.21	213.07	2.50	-51.4	-63.6	3.5	8.45e-01	0	41	104	4649385984	60	54772
2026-01-21 17:25:16.25	213.04	2.24	-51.4	-63.6	3.6	8.45e-01	0	41	104	4649385984	60	54718
2026-01-21 17:25:20.29	213.01	1.98	-51.4	-63.6	3.6	8.45e-01	0	41	104	4649385984	60	54416
2026-01-21 17:25:24.33	212.98	1.72	-51.4	-63.7	3.6	8.46e-01	0	42	104	4649385984	60	55119
2026-01-21 17:25:28.36	212.95	1.46	-51.6	-63.6	3.6	8.45e-01	0	41	104	4649385984	60	54923
2026-01-21 17:25:32.41	212.93	1.21	-51.6	-63.7	3.6	8.46e-01	0	42	104	4649385984	60	55559
2026-01-21 17:25:36.45	212.90	0.96	-51.6	-63.8	3.6	8.45e-01	0	42	104	4649385984	60	55878
2026-01-21 17:25:40.49	212.87	0.71	-51.7	-63.9	3.6	8.46e-01	0	42	104	4649385984	60	56378
2026-01-21 17:25:44.53	212.85	0.46	-51.9	-64.0	3.6	8.45e-01	0	42	104	4649385984	60	57344
2026-01-21 17:25:48.57	212.82	0.22	-51.6	-63.8	3.6	8.45e-01	0	42	104	4649385984	60	56100
2026-01-21 17:25:52.61	212.80	-0.03	-51.8	-63.9	3.6	8.44e-01	0	42	104	4649385984	60	56868

#Closed at: 2026-01-21 17:25:54
#Recorded file [4649 MB]: D:/lorett/data/35029_260122_051027.dat