passes_logs/2026/01/21/R4.6S_Anadyr/R4.6S_Anadyr__20260121_193122_SUOMI_NPP_rec.log

#Pass ID: 20260121_193122_SUOMI NPP
#Satellite: SUOMI NPP
#Configuration: NPP
#almurnet v.1.7.20251203
#Start time: 2026-01-21 19:31:26

#Version: 2.2.20231116
#Station: R4.6S_Anadyr
#Location: 177.4865 lon 64.73178 lat
#TLE: 1 37849U 11061A   26020.95430537  .00000198  00000+0  11470-3 0  9999
#TLE: 2 37849  98.7819 322.9518 0002315  53.3069 306.8320 14.19527555737555

#Time	Az	El	Level	Level2	SNR	BER	BlckErr	Temp	State	Recorded	gain1	gain2
2026-01-21 19:31:26.01	53.25	0.15	-51.4	-65.2	3.3	1.54e+00	0	40	0	0	60	65425
2026-01-21 19:31:29.04	53.02	0.30	-51.2	-66.5	3.6	1.51e+00	0	40	104	0	60	76154
2026-01-21 19:31:32.07	52.79	0.44	-51.1	-66.3	3.6	1.51e+00	0	40	104	0	60	74633
2026-01-21 19:31:35.10	52.55	0.59	-51.1	-66.3	3.6	1.51e+00	0	40	104	0	60	74232
2026-01-21 19:31:38.12	52.31	0.74	-50.8	-66.2	3.6	1.51e+00	0	40	104	0	60	73940
2026-01-21 19:31:41.15	52.07	0.89	-50.8	-66.0	3.6	1.51e+00	0	40	104	0	60	72526
2026-01-21 19:31:44.18	51.83	1.03	-50.6	-65.8	3.6	1.51e+00	0	40	104	0	60	70292
2026-01-21 19:31:47.21	51.58	1.18	-50.1	-65.3	3.6	1.51e+00	0	40	104	0	60	66354
2026-01-21 19:31:50.24	51.34	1.33	-49.2	-64.5	3.6	1.51e+00	0	40	104	0	60	60603
2026-01-21 19:31:53.27	51.08	1.48	-49.2	-64.4	3.6	1.51e+00	0	40	104	0	60	60257
2026-01-21 19:31:56.30	50.83	1.63	-49.2	-64.5	3.6	1.51e+00	0	40	104	0	60	60367
2026-01-21 19:31:59.33	50.58	1.78	-49.3	-64.5	3.6	1.51e+00	0	40	104	0	60	60695
2026-01-21 19:32:02.36	50.32	1.93	-49.2	-64.4	3.6	1.51e+00	0	41	104	0	60	60029
2026-01-21 19:32:05.39	50.05	2.08	-49.2	-64.4	3.6	1.51e+00	0	40	104	0	60	59766
2026-01-21 19:32:08.42	49.79	2.23	-49.2	-64.2	3.6	1.51e+00	0	40	104	0	60	58346
2026-01-21 19:32:11.45	49.52	2.38	-49.2	-64.4	3.6	1.51e+00	0	41	104	0	60	60236
2026-01-21 19:32:14.48	49.25	2.53	-49.2	-64.3	3.6	1.51e+00	0	41	104	0	60	59559
2026-01-21 19:32:17.51	48.98	2.68	-49.2	-64.3	3.6	1.51e+00	0	41	104	0	60	59624
2026-01-21 19:32:20.54	48.70	2.83	-49.2	-63.7	3.6	1.51e+00	0	41	104	0	60	55423
2026-01-21 19:32:23.57	48.43	2.99	-49.0	-61.0	4.2	1.50e+00	10	41	104	0	60	40510
2026-01-21 19:32:26.60	48.14	3.14	-49.4	-64.3	3.6	1.51e+00	0	41	104	0	60	59515
2026-01-21 19:32:29.63	47.86	3.29	-49.2	-64.1	3.6	1.51e+00	0	41	104	2097152	60	57948
2026-01-21 19:32:32.66	47.57	3.44	-45.1	-47.5	16.0	0.00e+00	0	41	0	5242880	60	8617
2026-01-21 19:32:35.70	47.28	3.59	-44.8	-47.0	16.9	0.00e+00	90	41	0	10485760	60	8110
2026-01-21 19:32:38.72	46.99	3.74	-44.5	-46.7	16.9	0.00e+00	58	41	0	16777216	60	7799
2026-01-21 19:32:41.75	46.69	3.90	-44.3	-46.3	17.5	0.00e+00	0	40	0	22020096	60	7445
2026-01-21 19:32:44.78	46.39	4.05	-44.5	-46.6	17.2	0.00e+00	92	40	0	27262976	60	7735
2026-01-21 19:32:47.81	46.08	4.20	-44.4	-46.4	17.4	0.00e+00	41	41	0	33554432	60	7512
2026-01-21 19:32:50.84	45.78	4.36	-44.6	-46.7	17.0	0.00e+00	0	41	0	38797312	60	7816
2026-01-21 19:32:53.87	45.47	4.51	-44.4	-46.4	17.6	0.00e+00	0	41	0	45088768	60	7588
2026-01-21 19:32:56.90	45.15	4.66	-44.3	-46.3	17.7	0.00e+00	78	41	0	50331648	60	7428
2026-01-21 19:32:59.93	44.84	4.81	-44.1	-45.9	17.9	0.00e+00	9	41	0	56623104	60	7146
2026-01-21 19:33:02.96	44.52	4.97	-44.9	-47.1	17.0	0.00e+00	0	41	0	61865984	60	8169
2026-01-21 19:33:05.99	44.19	5.12	-44.8	-47.0	17.1	0.00e+00	90	41	0	67108864	60	8049
2026-01-21 19:33:09.02	43.86	5.27	-44.5	-46.5	17.5	0.00e+00	92	41	0	73400320	60	7679
2026-01-21 19:33:12.05	43.53	5.43	-43.8	-45.6	18.4	0.00e+00	0	41	0	78643200	60	6903
2026-01-21 19:33:15.08	43.20	5.58	-44.2	-46.1	18.1	0.00e+00	33	41	0	84934656	60	7266
2026-01-21 19:33:18.11	42.86	5.73	-43.8	-45.5	18.6	0.00e+00	4	41	0	90177536	60	6845
2026-01-21 19:33:21.14	42.52	5.88	-43.1	-44.6	19.4	0.00e+00	0	41	0	95420416	60	6116
2026-01-21 19:33:24.18	42.17	6.04	-42.9	-44.3	19.7	0.00e+00	0	41	0	101711872	60	5939
2026-01-21 19:33:27.21	41.82	6.19	-43.2	-44.7	19.3	0.00e+00	66	41	0	106954752	60	6200
2026-01-21 19:33:30.24	41.47	6.34	-43.1	-44.6	19.2	0.00e+00	63	41	0	113246208	60	6121
2026-01-21 19:33:33.27	41.11	6.50	-43.1	-44.6	19.5	0.00e+00	0	41	0	118489088	60	6138
2026-01-21 19:33:36.30	40.75	6.65	-43.4	-45.0	19.2	0.00e+00	29	41	0	124780544	60	6433
2026-01-21 19:33:39.33	40.38	6.80	-42.6	-44.1	19.9	0.00e+00	53	41	0	130023424	58	6469
2026-01-21 19:33:42.36	40.02	6.95	-43.2	-44.7	19.4	0.00e+00	0	41	0	135266304	58	6940
2026-01-21 19:33:45.39	39.64	7.10	-43.5	-45.1	19.0	0.00e+00	0	41	0	141557760	60	6534
2026-01-21 19:33:48.42	39.27	7.26	-43.3	-44.8	19.5	0.00e+00	63	41	0	146800640	60	6278
2026-01-21 19:33:51.45	38.89	7.41	-43.5	-45.1	19.0	0.00e+00	0	41	0	153092096	60	6465
2026-01-21 19:33:54.48	38.50	7.56	-43.8	-45.4	18.9	0.00e+00	0	41	0	158334976	60	6726
2026-01-21 19:33:57.51	38.11	7.71	-42.9	-44.3	19.9	0.00e+00	92	41	0	163577856	60	5914
2026-01-21 19:34:00.54	37.72	7.86	-43.1	-44.6	19.7	0.00e+00	90	41	0	169869312	60	6148
2026-01-21 19:34:03.57	37.32	8.01	-42.9	-44.3	19.9	0.00e+00	0	41	0	175112192	60	5905
2026-01-21 19:34:06.60	36.92	8.16	-42.7	-44.0	20.1	0.00e+00	92	41	0	181403648	58	6445
2026-01-21 19:34:09.63	36.52	8.30	-43.0	-44.5	19.7	0.00e+00	6	41	0	186646528	58	6808
2026-01-21 19:34:12.66	36.11	8.45	-43.3	-44.8	19.4	0.00e+00	0	41	0	192937984	58	7038
2026-01-21 19:34:15.69	35.69	8.60	-43.8	-45.4	19.0	0.00e+00	0	41	0	198180864	58	7588
2026-01-21 19:34:18.72	35.27	8.75	-43.5	-45.1	19.4	0.00e+00	0	41	0	203423744	60	6520
2026-01-21 19:34:21.75	34.85	8.89	-43.0	-44.5	19.8	0.00e+00	0	41	0	209715200	60	6040
2026-01-21 19:34:24.78	34.42	9.04	-43.0	-44.5	19.8	0.00e+00	0	41	0	214958080	60	6064
2026-01-21 19:34:27.81	33.99	9.18	-42.7	-44.1	20.1	0.00e+00	0	41	0	221249536	58	6491
2026-01-21 19:34:30.84	33.56	9.33	-42.2	-43.5	20.6	0.00e+00	92	41	0	226492416	58	6078
2026-01-21 19:34:33.87	33.12	9.47	-42.2	-43.5	20.5	0.00e+00	0	41	0	231735296	58	6084
2026-01-21 19:34:36.90	32.67	9.62	-42.0	-43.2	20.6	0.00e+00	0	41	0	238026752	58	5896
2026-01-21 19:34:39.93	32.22	9.76	-41.6	-42.8	21.2	0.00e+00	65	41	0	243269632	56	6263
2026-01-21 19:34:42.96	31.77	9.90	-41.5	-42.6	21.5	0.00e+00	0	41	0	249561088	56	6151
2026-01-21 19:34:45.98	31.31	10.04	-41.4	-42.5	21.6	0.00e+00	0	41	0	254803968	56	6072
2026-01-21 19:34:49.01	30.85	10.18	-41.5	-42.7	21.4	0.00e+00	1	41	0	261095424	56	6209
2026-01-21 19:34:52.04	30.38	10.31	-41.6	-42.9	21.3	0.00e+00	10	41	0	266338304	56	6323
2026-01-21 19:34:55.07	29.91	10.45	-41.7	-42.9	21.2	0.00e+00	0	41	0	271581184	56	6384
2026-01-21 19:34:58.10	29.44	10.59	-41.7	-42.8	21.3	0.00e+00	0	41	0	277872640	56	6302
2026-01-21 19:35:01.13	28.96	10.72	-41.0	-42.1	21.8	0.00e+00	65	41	0	283115520	56	5809
2026-01-21 19:35:04.16	28.47	10.86	-40.6	-41.6	22.3	0.00e+00	0	41	0	289406976	54	6135
2026-01-21 19:35:07.19	27.98	10.99	-40.3	-41.3	22.6	0.00e+00	0	41	0	294649856	54	5944
2026-01-21 19:35:10.23	27.49	11.12	-40.6	-41.7	22.3	0.00e+00	78	41	0	300941312	54	6190
2026-01-21 19:35:13.26	26.99	11.25	-40.7	-41.7	22.1	0.00e+00	0	41	0	306184192	54	6227
2026-01-21 19:35:16.29	26.49	11.37	-40.2	-41.2	22.6	0.00e+00	0	41	0	311427072	54	5873
2026-01-21 19:35:19.32	25.98	11.50	-40.1	-41.1	22.7	0.00e+00	0	41	0	317718528	54	5795
2026-01-21 19:35:22.35	25.47	11.63	-40.2	-41.2	22.7	0.00e+00	36	41	0	322961408	54	5856
2026-01-21 19:35:25.38	24.95	11.75	-40.4	-41.5	22.4	0.00e+00	0	41	0	329252864	54	6047
2026-01-21 19:35:28.41	24.43	11.87	-40.7	-41.8	21.9	0.00e+00	0	41	0	334495744	54	6263
2026-01-21 19:35:31.44	23.91	11.99	-41.0	-42.0	22.0	0.00e+00	66	41	0	339738624	54	6455
2026-01-21 19:35:34.47	23.38	12.11	-40.6	-41.6	22.3	0.00e+00	0	41	0	346030080	54	6135
2026-01-21 19:35:37.50	22.84	12.22	-40.9	-41.9	22.0	0.00e+00	0	41	0	351272960	54	6369
2026-01-21 19:35:40.53	22.31	12.34	-41.2	-42.4	21.8	0.00e+00	92	41	0	357564416	54	6695
2026-01-21 19:35:43.56	21.76	12.45	-41.2	-42.3	21.8	0.00e+00	0	41	0	362807296	54	6681
2026-01-21 19:35:46.59	21.22	12.56	-40.7	-41.8	22.3	0.00e+00	0	41	0	369098752	54	6275
2026-01-21 19:35:49.62	20.67	12.67	-40.3	-41.3	22.6	0.00e+00	0	41	0	374341632	54	5919
2026-01-21 19:35:52.65	20.11	12.77	-40.6	-41.7	22.3	0.00e+00	70	41	0	379584512	54	6195
2026-01-21 19:35:55.68	19.56	12.88	-40.5	-41.5	22.5	0.00e+00	0	41	0	385875968	54	6050
2026-01-21 19:35:58.71	18.99	12.98	-40.3	-41.3	22.4	0.00e+00	0	41	0	391118848	54	5953
2026-01-21 19:36:01.74	18.43	13.08	-40.4	-41.4	22.5	0.00e+00	91	41	0	397410304	54	6031
2026-01-21 19:36:04.77	17.86	13.17	-41.1	-42.2	21.8	0.00e+00	0	41	0	402653184	54	6587
2026-01-21 19:36:07.80	17.29	13.27	-41.6	-42.8	21.5	0.00e+00	0	41	0	407896064	56	6281
2026-01-21 19:36:10.83	16.71	13.36	-40.5	-41.6	22.4	0.00e+00	0	41	0	414187520	54	6112
2026-01-21 19:36:13.86	16.13	13.45	-39.9	-40.9	22.9	0.00e+00	25	41	0	419430400	54	5648
2026-01-21 19:36:16.88	15.55	13.53	-39.7	-40.6	23.2	0.00e+00	0	41	0	425721856	52	6151
2026-01-21 19:36:19.91	14.96	13.62	-40.1	-41.1	22.8	0.00e+00	0	41	0	430964736	52	6499
2026-01-21 19:36:22.94	14.37	13.70	-40.3	-41.3	22.7	0.00e+00	92	41	0	437256192	52	6643
2026-01-21 19:36:25.76	13.81	13.77	-39.6	-40.5	23.2	0.00e+00	0	41	0	442499072	52	6079
2026-01-21 19:36:28.93	13.19	13.85	-40.2	-41.2	22.8	0.00e+00	0	41	0	448790528	52	6582
2026-01-21 19:36:31.82	12.62	13.92	-40.6	-41.6	22.3	0.00e+00	92	41	0	454033408	54	6166
2026-01-21 19:36:34.99	11.99	13.99	-40.7	-41.8	22.2	0.00e+00	65	41	0	459276288	54	6253
2026-01-21 19:36:37.88	11.41	14.06	-41.0	-42.0	21.7	0.00e+00	0	41	0	465567744	54	6458
2026-01-21 19:36:41.05	10.77	14.12	-40.8	-41.9	22.1	0.00e+00	0	41	0	470810624	54	6346
2026-01-21 19:36:43.93	10.19	14.18	-41.1	-42.3	21.9	0.00e+00	0	41	0	476053504	54	6619
2026-01-21 19:36:47.11	9.55	14.24	-40.8	-41.9	22.1	0.00e+00	0	41	0	482344960	54	6360
2026-01-21 19:36:49.99	8.96	14.29	-40.3	-41.3	22.5	0.00e+00	0	41	0	487587840	54	5925
2026-01-21 19:36:53.16	8.32	14.35	-40.1	-41.1	22.8	0.00e+00	40	41	0	493879296	54	5796
2026-01-21 19:36:56.05	7.72	14.39	-40.2	-41.2	22.6	0.00e+00	0	41	0	499122176	54	5857
2026-01-21 19:36:59.22	7.07	14.44	-40.6	-41.7	22.3	0.00e+00	0	41	0	505413632	54	6177
2026-01-21 19:37:02.10	6.48	14.48	-40.6	-41.7	22.3	0.00e+00	76	41	0	510656512	54	6204
2026-01-21 19:37:05.27	5.83	14.52	-40.1	-41.1	22.8	0.00e+00	0	41	0	516947968	54	5763
2026-01-21 19:37:08.15	5.23	14.55	-40.3	-41.3	22.6	0.00e+00	0	41	0	522190848	54	5960
2026-01-21 19:37:11.33	4.57	14.58	-40.6	-41.7	22.3	0.00e+00	0	41	0	527433728	54	6207
2026-01-21 19:37:14.21	3.97	14.61	-40.7	-41.8	22.2	0.00e+00	65	41	0	533725184	54	6251
2026-01-21 19:37:17.39	3.31	14.63	-40.9	-42.1	22.2	0.00e+00	0	41	0	538968064	54	6465
2026-01-21 19:37:20.27	2.71	14.65	-40.7	-41.8	22.3	0.00e+00	0	41	0	544210944	54	6250
2026-01-21 19:37:23.44	2.05	14.67	-40.7	-41.7	22.3	0.00e+00	91	41	0	550502400	54	6208
2026-01-21 19:37:26.33	1.44	14.68	-40.8	-41.8	22.3	0.00e+00	0	41	0	555745280	54	6301
2026-01-21 19:37:29.51	0.78	14.70	-40.6	-41.7	22.4	0.00e+00	0	41	0	562036736	54	6180
2026-01-21 19:37:32.39	0.18	14.70	-40.9	-42.0	22.2	0.00e+00	92	41	0	567279616	54	6396
2026-01-21 19:37:35.56	359.51	14.71	-40.8	-41.8	22.2	0.00e+00	62	41	0	573571072	54	6316
2026-01-21 19:37:38.45	358.91	14.71	-40.3	-41.3	22.5	0.00e+00	0	41	0	578813952	54	5926
2026-01-21 19:37:41.62	358.24	14.70	-40.0	-41.0	22.9	0.00e+00	0	41	0	585105408	54	5699
2026-01-21 19:37:44.50	357.64	14.69	-40.5	-41.6	22.3	0.00e+00	63	41	0	590348288	54	6122
2026-01-21 19:37:47.68	356.97	14.68	-40.9	-42.0	22.0	0.00e+00	0	41	0	595591168	54	6457
2026-01-21 19:37:50.56	356.37	14.67	-41.0	-42.1	21.8	0.00e+00	0	41	0	601882624	54	6526
2026-01-21 19:37:53.73	355.71	14.65	-41.1	-42.2	21.7	0.00e+00	39	41	0	607125504	54	6582
2026-01-21 19:37:56.62	355.11	14.63	-41.4	-42.6	21.6	0.00e+00	0	41	0	612368384	54	6901
2026-01-21 19:37:59.79	354.45	14.61	-41.0	-42.1	22.0	0.00e+00	0	41	0	618659840	54	6524
2026-01-21 19:38:02.68	353.85	14.58	-40.3	-41.3	22.6	0.00e+00	0	41	0	623902720	54	5959
2026-01-21 19:38:05.85	353.19	14.55	-40.2	-41.2	22.7	0.00e+00	66	41	0	630194176	54	5844
2026-01-21 19:38:08.74	352.59	14.51	-40.5	-41.6	22.5	0.00e+00	0	41	0	635437056	54	6119
2026-01-21 19:38:11.91	351.94	14.47	-40.9	-42.0	22.2	0.00e+00	0	41	0	641728512	54	6422
2026-01-21 19:38:14.80	351.34	14.43	-40.2	-41.2	22.7	0.00e+00	61	41	0	646971392	54	5841
2026-01-21 19:38:17.97	350.69	14.38	-39.9	-40.8	23.0	0.00e+00	0	41	0	653262848	54	5613
2026-01-21 19:38:20.85	350.10	14.34	-40.3	-41.3	22.6	0.00e+00	0	41	0	658505728	54	5962
2026-01-21 19:38:24.03	349.46	14.29	-40.6	-41.6	22.5	0.00e+00	0	41	0	663748608	54	6128
2026-01-21 19:38:26.91	348.87	14.23	-41.1	-42.2	21.9	0.00e+00	0	41	0	670040064	54	6576
2026-01-21 19:38:30.08	348.23	14.17	-40.5	-41.6	22.4	0.00e+00	0	41	0	675282944	54	6118
2026-01-21 19:38:32.97	347.65	14.11	-40.7	-41.8	22.2	0.00e+00	0	41	0	680525824	54	6293
2026-01-21 19:38:36.14	347.01	14.05	-40.6	-41.7	22.4	0.00e+00	71	41	0	686817280	54	6183
2026-01-21 19:38:39.03	346.43	13.98	-39.9	-40.8	23.0	0.00e+00	0	41	0	692060160	54	5616
2026-01-21 19:38:42.20	345.80	13.91	-40.1	-41.2	22.7	0.00e+00	0	41	0	698351616	54	5839
2026-01-21 19:38:45.09	345.23	13.84	-40.3	-41.3	22.7	0.00e+00	38	41	0	703594496	54	5962
2026-01-21 19:38:48.26	344.61	13.76	-40.1	-41.1	22.7	0.00e+00	32	41	0	709885952	54	5828
2026-01-21 19:38:51.14	344.04	13.69	-40.7	-41.8	22.3	0.00e+00	0	41	0	715128832	54	6272
2026-01-21 19:38:54.31	343.43	13.60	-40.9	-42.0	22.0	0.00e+00	4	41	0	721420288	54	6436
2026-01-21 19:38:57.20	342.87	13.52	-40.5	-41.6	22.3	0.00e+00	0	41	0	726663168	54	6116
2026-01-21 19:39:00.37	342.26	13.43	-40.7	-41.8	22.2	0.00e+00	0	41	0	731906048	54	6298
2026-01-21 19:39:03.26	341.70	13.34	-41.1	-42.3	21.9	0.00e+00	0	41	0	738197504	54	6623
2026-01-21 19:39:06.43	341.10	13.25	-40.8	-41.8	22.3	0.00e+00	92	41	0	743440384	54	6298
2026-01-21 19:39:09.32	340.55	13.16	-40.3	-41.4	22.6	0.00e+00	0	41	0	748683264	54	5967
2026-01-21 19:39:12.49	339.96	13.06	-40.3	-41.3	22.6	0.00e+00	0	41	0	754974720	54	5959
2026-01-21 19:39:15.37	339.42	12.96	-40.2	-41.2	22.7	0.00e+00	73	41	0	760217600	54	5848
2026-01-21 19:39:18.55	338.83	12.86	-40.0	-41.0	22.9	0.00e+00	0	41	0	766509056	54	5698
2026-01-21 19:39:21.43	338.30	12.76	-39.7	-40.6	23.1	0.00e+00	0	41	0	771751936	52	6127
2026-01-21 19:39:24.60	337.73	12.65	-39.7	-40.6	22.8	0.00e+00	0	41	0	778043392	52	6161
2026-01-21 19:39:27.49	337.20	12.54	-40.2	-41.2	22.6	0.00e+00	0	41	0	783286272	52	6565
2026-01-21 19:39:30.66	336.63	12.43	-40.6	-41.6	22.3	0.00e+00	0	41	0	789577728	52	6892
2026-01-21 19:39:33.55	336.12	12.32	-41.1	-42.3	21.7	0.00e+00	0	41	0	794820608	54	6632
2026-01-21 19:39:36.71	335.56	12.20	-41.3	-42.5	21.5	0.00e+00	41	41	0	800063488	54	6781
2026-01-21 19:39:39.60	335.05	12.09	-41.2	-42.3	21.5	0.00e+00	0	41	0	806354944	54	6654
2026-01-21 19:39:42.77	334.50	11.97	-41.2	-42.4	21.6	0.00e+00	0	41	0	811597824	54	6704
2026-01-21 19:39:45.66	334.00	11.85	-41.3	-42.5	21.5	0.00e+00	92	41	0	816840704	54	6779
2026-01-21 19:39:48.84	333.45	11.73	-41.3	-42.4	21.7	0.00e+00	0	41	0	823132160	54	6736
2026-01-21 19:39:51.72	332.96	11.61	-41.2	-42.3	21.7	0.00e+00	0	41	0	828375040	54	6647
2026-01-21 19:39:54.89	332.43	11.48	-41.6	-42.8	21.4	0.00e+00	0	41	0	834666496	54	7024
2026-01-21 19:39:57.77	331.95	11.36	-41.6	-42.7	21.5	0.00e+00	33	41	0	839909376	56	6235
2026-01-21 19:40:00.95	331.42	11.22	-40.9	-42.0	22.1	0.00e+00	0	41	0	846200832	56	5696
2026-01-21 19:40:03.83	330.95	11.10	-41.2	-42.2	21.9	0.00e+00	0	41	0	851443712	56	5885
2026-01-21 19:40:07.00	330.43	10.96	-42.1	-43.2	21.0	0.00e+00	64	41	0	857735168	56	6607
2026-01-21 19:40:09.89	329.97	10.84	-42.7	-44.0	20.3	0.00e+00	0	41	0	862978048	58	6442
2026-01-21 19:40:13.07	329.46	10.70	-42.7	-43.9	20.4	0.00e+00	0	41	0	868220928	58	6390
2026-01-21 19:40:15.95	329.00	10.57	-42.3	-43.5	20.8	0.00e+00	78	41	0	874512384	56	6793
2026-01-21 19:40:19.13	328.50	10.43	-42.2	-43.4	20.7	0.00e+00	0	41	0	879755264	56	6758
2026-01-21 19:40:22.01	328.06	10.30	-43.6	-45.2	18.5	0.00e+00	0	41	0	884998144	58	7375
2026-01-21 19:40:25.18	327.57	10.15	-44.9	-46.9	17.6	0.00e+00	0	41	0	891289600	60	7982
2026-01-21 19:40:28.07	327.13	10.02	-44.3	-46.0	18.5	0.00e+00	36	41	0	896532480	60	7193
2026-01-21 19:40:31.24	326.65	9.87	-43.9	-45.5	19.0	0.00e+00	0	41	0	902823936	60	6823
2026-01-21 19:40:34.13	326.22	9.74	-43.8	-45.3	19.1	0.00e+00	0	41	0	908066816	60	6666
2026-01-21 19:40:37.30	325.75	9.59	-43.2	-44.6	19.7	0.00e+00	90	41	0	914358272	60	6159
2026-01-21 19:40:40.19	325.33	9.45	-43.1	-44.5	19.9	0.00e+00	0	41	0	919601152	60	6075
2026-01-21 19:40:43.37	324.87	9.30	-43.2	-44.6	19.8	0.00e+00	0	41	0	925892608	60	6125
2026-01-21 19:40:46.25	324.45	9.17	-43.1	-44.5	20.0	0.00e+00	92	41	0	931135488	60	6038
2026-01-21 19:40:49.42	324.00	9.01	-42.6	-43.9	20.3	0.00e+00	0	41	0	936378368	60	5664
2026-01-21 19:40:52.30	323.60	8.88	-42.4	-43.6	20.5	0.00e+00	0	41	0	942669824	58	6140
2026-01-21 19:40:55.48	323.16	8.72	-42.2	-43.4	20.7	0.00e+00	0	41	0	947912704	58	6022
2026-01-21 19:40:58.36	322.76	8.58	-42.3	-43.6	20.6	0.00e+00	0	41	0	953155584	58	6111
2026-01-21 19:41:01.54	322.32	8.43	-42.5	-43.8	20.5	0.00e+00	0	41	0	959447040	58	6287
2026-01-21 19:41:04.42	321.94	8.29	-42.7	-44.1	20.0	0.00e+00	0	41	0	964689920	58	6482
2026-01-21 19:41:07.60	321.51	8.13	-42.7	-44.1	20.1	0.00e+00	66	41	0	970981376	58	6469
2026-01-21 19:41:10.48	321.13	7.99	-42.5	-43.8	20.4	0.00e+00	0	41	0	976224256	58	6251
2026-01-21 19:41:13.65	320.72	7.83	-42.5	-43.8	20.4	0.00e+00	0	41	0	982515712	58	6250
2026-01-21 19:41:16.54	320.34	7.69	-42.4	-43.7	20.5	0.00e+00	57	41	0	987758592	58	6204
2026-01-21 19:41:19.71	319.94	7.53	-42.1	-43.3	20.9	0.00e+00	61	41	0	994050048	58	5924
2026-01-21 19:41:22.60	319.57	7.39	-41.6	-42.7	21.3	0.00e+00	0	41	0	999292928	56	6225
2026-01-21 19:41:25.77	319.17	7.23	-41.2	-42.3	21.6	0.00e+00	0	41	0	1004535808	56	5930
2026-01-21 19:41:28.66	318.81	7.09	-41.1	-42.2	21.6	0.00e+00	60	41	0	1010827264	56	5879
2026-01-21 19:41:31.83	318.43	6.93	-41.6	-42.8	21.3	0.00e+00	0	41	0	1016070144	56	6247
2026-01-21 19:41:34.72	318.07	6.78	-41.2	-42.3	21.5	0.00e+00	0	42	0	1021313024	56	5932
2026-01-21 19:41:37.89	317.69	6.62	-41.1	-42.2	21.6	0.00e+00	79	41	0	1027604480	56	5877
2026-01-21 19:41:40.78	317.35	6.48	-41.0	-42.0	21.8	0.00e+00	0	41	0	1032847360	56	5757
2026-01-21 19:41:43.96	316.98	6.32	-41.3	-42.4	21.4	0.00e+00	0	41	0	1039138816	56	5995
2026-01-21 19:41:46.84	316.64	6.17	-41.7	-42.9	21.0	0.00e+00	67	41	0	1044381696	56	6358
2026-01-21 19:41:50.02	316.28	6.01	-41.8	-43.1	20.8	0.00e+00	64	41	0	1050673152	56	6480
2026-01-21 19:41:52.90	315.95	5.87	-42.1	-43.3	20.7	0.00e+00	0	41	0	1055916032	56	6680
2026-01-21 19:41:56.08	315.59	5.71	-41.7	-42.9	20.7	0.00e+00	0	41	0	1062207488	56	6366
2026-01-21 19:41:58.96	315.27	5.56	-41.7	-42.9	20.9	0.00e+00	62	41	0	1067450368	56	6356
2026-01-21 19:42:02.14	314.92	5.40	-41.9	-43.2	20.6	0.00e+00	0	41	0	1072693248	56	6556
2026-01-21 19:42:05.02	314.60	5.26	-41.6	-42.8	20.9	0.00e+00	0	41	0	1078984704	56	6270
2026-01-21 19:42:08.19	314.26	5.10	-41.5	-42.6	21.1	0.00e+00	91	41	0	1084227584	56	6156
2026-01-21 19:42:11.07	313.95	4.95	-41.2	-42.4	21.1	0.00e+00	0	41	0	1089470464	56	5970
2026-01-21 19:42:14.24	313.62	4.79	-41.9	-43.1	20.6	0.00e+00	0	41	0	1095761920	56	6529
2026-01-21 19:42:17.12	313.32	4.65	-42.4	-43.7	20.1	0.00e+00	0	41	0	1101004800	56	6998
2026-01-21 19:42:20.29	312.99	4.49	-42.7	-44.1	19.6	0.00e+00	62	41	0	1107296256	56	7312
2026-01-21 19:42:23.18	312.70	4.34	-42.5	-43.9	19.7	0.00e+00	0	41	0	1112539136	58	6363
2026-01-21 19:42:26.35	312.38	4.18	-42.6	-44.0	19.8	0.00e+00	0	41	0	1118830592	58	6417
2026-01-21 19:42:29.24	312.09	4.03	-42.5	-43.9	19.8	0.00e+00	77	41	0	1124073472	58	6353
2026-01-21 19:42:32.41	311.77	3.87	-42.2	-43.5	20.2	0.00e+00	0	41	0	1130364928	58	6078
2026-01-21 19:42:35.30	311.49	3.73	-41.4	-42.6	20.9	0.00e+00	0	41	0	1135607808	56	6115
2026-01-21 19:42:38.47	311.18	3.57	-41.5	-42.8	20.6	0.00e+00	51	41	0	1140850688	56	6247
2026-01-21 19:42:41.36	310.91	3.43	-42.2	-43.6	20.0	0.00e+00	0	41	0	1147142144	56	6854
2026-01-21 19:42:44.53	310.60	3.27	-42.6	-44.1	19.4	0.00e+00	0	41	0	1152385024	58	6474
2026-01-21 19:42:47.42	310.33	3.12	-43.2	-44.8	18.7	0.00e+00	0	41	0	1157627904	58	7066
2026-01-21 19:42:50.60	310.04	2.96	-50.2	-65.4	3.6	1.51e+00	0	41	104	1161822208	60	67077
2026-01-21 19:42:53.48	309.77	2.82	-50.7	-65.9	3.6	1.51e+00	0	41	104	1161822208	60	71545
2026-01-21 19:42:56.65	309.49	2.66	-50.9	-66.1	3.6	1.51e+00	0	41	104	1161822208	60	73156
2026-01-21 19:42:59.54	309.23	2.52	-51.0	-66.2	3.6	1.51e+00	0	41	104	1161822208	60	73855
2026-01-21 19:43:02.71	308.94	2.36	-50.9	-66.2	3.6	1.51e+00	0	41	104	1161822208	60	73991
2026-01-21 19:43:05.60	308.69	2.22	-50.7	-66.1	3.6	1.51e+00	0	41	104	1161822208	60	73321
2026-01-21 19:43:08.77	308.41	2.06	-50.9	-66.1	3.6	1.51e+00	0	41	104	1161822208	60	73289
2026-01-21 19:43:11.66	308.17	1.92	-50.9	-66.1	3.6	1.51e+00	0	41	104	1161822208	60	72926
2026-01-21 19:43:14.83	307.89	1.76	-50.9	-66.1	3.6	1.51e+00	0	41	104	1161822208	60	73076
2026-01-21 19:43:17.71	307.65	1.62	-50.9	-66.2	3.6	1.51e+00	0	41	104	1161822208	60	73578
2026-01-21 19:43:20.89	307.39	1.46	-50.9	-66.1	3.6	1.51e+00	0	41	104	1161822208	60	73237
2026-01-21 19:43:23.77	307.15	1.32	-50.9	-66.2	3.6	1.51e+00	0	41	104	1161822208	60	73471
2026-01-21 19:43:26.94	306.89	1.16	-51.0	-66.2	3.6	1.51e+00	0	41	104	1161822208	60	73752
2026-01-21 19:43:29.83	306.66	1.02	-50.9	-66.2	3.6	1.51e+00	0	41	104	1161822208	60	73380
2026-01-21 19:43:33.00	306.40	0.87	-50.9	-66.2	3.6	1.51e+00	0	41	104	1161822208	60	73412
2026-01-21 19:43:35.88	306.17	0.73	-50.9	-66.1	3.6	1.51e+00	0	41	104	1161822208	60	72926
2026-01-21 19:43:39.06	305.92	0.57	-50.9	-66.2	3.6	1.51e+00	0	41	104	1161822208	60	73676
2026-01-21 19:43:41.95	305.70	0.43	-50.9	-66.1	3.6	1.51e+00	0	41	104	1161822208	60	73067
2026-01-21 19:43:45.12	305.46	0.28	-50.9	-66.1	3.6	1.51e+00	0	41	104	1161822208	60	73053
2026-01-21 19:43:48.01	305.24	0.14	-50.9	-66.1	3.6	1.51e+00	0	41	104	1161822208	60	73322

#Closed at: 2026-01-21 19:43:51
#Recorded file [1161 MB]: D:/lorett/data/35029_260122_073125.dat