passes_logs/2026/01/21/R4.6S_Anadyr/R4.6S_Anadyr__20260121_191806_AQUA_rec.log

#Pass ID: 20260121_191806_AQUA
#Satellite: AQUA
#Configuration: AQUA
#almurnet v.1.7.20251203
#Start time: 2026-01-21 19:18:07

#Version: 2.2.20231116
#Station: R4.6S_Anadyr
#Location: 177.4865 lon 64.73178 lat
#TLE: 1 27424U 02022A   26020.90316333  .00002787  00000+0  56766-3 0  9999
#TLE: 2 27424  98.4095 347.4297 0002000  71.6339 309.8236 14.61840001261750

#Time	Az	El	Level	Level2	SNR	BER	BlckErr	Temp	State	Recorded	gain1	gain2
2026-01-21 19:18:07.71	29.14	0.07	-51.3	-63.0	3.5	8.45e-01	0	38	0	0	60	51208
2026-01-21 19:18:10.73	28.91	0.22	-52.0	-69.8	3.5	3.02e+01	0	39	104	0	60	119211
2026-01-21 19:18:13.76	28.68	0.38	-51.8	-69.7	3.5	3.02e+01	0	39	104	0	60	117270
2026-01-21 19:18:16.80	28.44	0.54	-51.7	-69.6	3.5	3.02e+01	0	40	104	0	60	115756
2026-01-21 19:18:19.82	28.20	0.70	-51.6	-69.5	3.5	3.02e+01	0	40	104	0	60	114329
2026-01-21 19:18:22.86	27.96	0.86	-51.4	-69.3	3.5	3.02e+01	0	40	104	0	60	112110
2026-01-21 19:18:25.88	27.72	1.02	-51.1	-69.0	3.5	3.02e+01	0	40	104	0	60	108871
2026-01-21 19:18:28.91	27.47	1.18	-50.9	-68.7	3.5	3.02e+01	0	40	104	0	60	105281
2026-01-21 19:18:31.94	27.22	1.35	-50.1	-68.0	3.5	3.02e+01	0	40	104	0	60	96410
2026-01-21 19:18:34.97	26.96	1.51	-49.8	-67.7	3.5	3.02e+01	0	40	104	0	60	93514
2026-01-21 19:18:38.00	26.71	1.67	-49.8	-67.8	3.5	3.02e+01	0	40	104	0	60	93966
2026-01-21 19:18:41.02	26.45	1.83	-49.8	-67.7	3.5	3.02e+01	0	40	104	0	60	93775
2026-01-21 19:18:44.05	26.18	2.00	-49.8	-67.6	3.5	3.02e+01	0	40	104	0	60	92661
2026-01-21 19:18:47.08	25.92	2.16	-49.8	-67.8	3.5	3.02e+01	0	40	104	0	60	93931
2026-01-21 19:18:50.11	25.65	2.33	-49.8	-67.5	3.5	3.02e+01	0	40	104	0	60	91075
2026-01-21 19:18:53.14	25.37	2.49	-49.8	-67.6	3.5	3.02e+01	0	40	104	0	60	92584
2026-01-21 19:18:56.17	25.09	2.66	-49.7	-67.6	3.5	3.02e+01	0	40	104	0	60	92146
2026-01-21 19:18:59.20	24.81	2.82	-49.8	-67.6	3.5	3.02e+01	0	40	104	0	60	92267
2026-01-21 19:19:02.23	24.53	2.99	-49.6	-66.9	3.5	3.02e+01	0	40	104	0	60	85085
2026-01-21 19:19:05.26	24.24	3.16	-49.4	-65.6	3.5	3.02e+01	0	40	104	0	60	73287
2026-01-21 19:19:08.29	23.95	3.32	-47.7	-60.9	3.5	3.02e+01	0	40	104	0	60	42631
2026-01-21 19:19:11.32	23.65	3.49	-40.7	-51.2	3.5	3.02e+01	0	40	104	0	56	17577
2026-01-21 19:19:14.35	23.35	3.66	-40.1	-50.5	3.5	3.02e+01	0	40	104	0	56	16258
2026-01-21 19:19:17.38	23.05	3.83	-50.0	-67.1	3.5	3.02e+01	0	40	104	0	60	87320
2026-01-21 19:19:20.41	22.74	4.00	-40.8	-51.3	3.5	3.02e+01	0	40	104	0	56	17697
2026-01-21 19:19:23.44	22.43	4.17	-40.9	-51.3	3.5	3.02e+01	0	40	104	0	56	17867
2026-01-21 19:19:26.47	22.11	4.34	-50.1	-67.2	3.5	3.02e+01	0	40	104	0	60	88385
2026-01-21 19:19:29.50	21.79	4.51	-42.0	-52.6	3.5	3.02e+01	0	40	104	0	58	18335
2026-01-21 19:19:32.54	21.46	4.68	-41.6	-52.1	3.5	3.02e+01	0	40	104	0	56	19612
2026-01-21 19:19:35.57	21.14	4.85	-50.1	-67.5	3.5	3.02e+01	0	40	104	0	60	90944
2026-01-21 19:19:38.60	20.80	5.03	-41.4	-51.9	3.5	3.02e+01	0	40	104	0	58	17033
2026-01-21 19:19:41.63	20.46	5.20	-40.6	-51.0	3.5	3.02e+01	0	40	104	0	56	17221
2026-01-21 19:19:44.66	20.12	5.37	-50.4	-68.0	3.5	3.02e+01	0	40	104	0	60	96249
2026-01-21 19:19:47.69	19.78	5.54	-41.4	-51.9	3.5	3.02e+01	0	40	104	0	58	16961
2026-01-21 19:19:50.72	19.42	5.72	-40.3	-50.8	3.5	3.02e+01	0	40	104	0	56	16789
2026-01-21 19:19:53.74	19.07	5.89	-48.7	-62.3	3.5	3.02e+01	0	41	104	0	60	50016
2026-01-21 19:19:56.77	18.71	6.06	-41.3	-51.8	3.5	3.02e+01	0	40	104	0	58	16847
2026-01-21 19:19:59.80	18.34	6.24	-44.4	-55.4	3.5	3.02e+01	0	41	104	0	56	28429
2026-01-21 19:20:02.83	17.97	6.41	-47.6	-60.0	3.6	3.02e+01	0	40	104	0	60	38328
2026-01-21 19:20:05.86	17.59	6.59	-40.7	-51.1	3.5	3.02e+01	0	41	104	0	56	17416
2026-01-21 19:20:08.89	17.21	6.76	-48.3	-61.2	3.5	3.02e+01	0	41	104	0	60	44126
2026-01-21 19:20:11.93	16.83	6.94	-44.0	-55.0	3.6	3.02e+01	0	41	104	0	60	21682
2026-01-21 19:20:14.95	16.44	7.11	-41.0	-51.5	3.5	3.02e+01	0	41	104	0	58	16175
2026-01-21 19:20:17.98	16.04	7.29	-47.3	-59.4	3.5	3.02e+01	0	41	104	0	60	35935
2026-01-21 19:20:21.01	15.64	7.46	-43.5	-54.3	3.5	3.02e+01	0	41	104	0	60	19902
2026-01-21 19:20:24.04	15.23	7.64	-41.7	-52.2	3.5	3.02e+01	0	41	104	0	58	17641
2026-01-21 19:20:27.07	14.82	7.81	-50.4	-66.7	3.5	3.02e+01	0	41	104	0	60	83040
2026-01-21 19:20:30.10	14.40	7.99	-50.6	-67.7	3.5	3.02e+01	0	41	104	0	60	93926
2026-01-21 19:20:33.13	13.97	8.17	-41.8	-52.2	3.5	3.02e+01	0	41	104	0	56	19810
2026-01-21 19:20:36.16	13.54	8.34	-39.1	-49.4	3.5	3.02e+01	0	41	104	0	52	18012
2026-01-21 19:20:39.19	13.11	8.52	-39.8	-50.1	3.5	3.02e+01	0	41	104	0	56	15586
2026-01-21 19:20:42.22	12.67	8.69	-40.9	-51.3	3.5	3.02e+01	0	41	104	0	58	15869
2026-01-21 19:20:45.25	12.22	8.87	-48.7	-61.9	3.5	3.02e+01	0	41	104	0	60	47896
2026-01-21 19:20:48.28	11.77	9.04	-40.2	-50.5	3.6	3.02e+01	0	41	104	0	56	16281
2026-01-21 19:20:51.31	11.31	9.22	-39.5	-49.8	3.5	3.02e+01	0	41	104	0	54	16785
2026-01-21 19:20:54.34	10.84	9.39	-50.1	-65.5	3.6	3.02e+01	0	41	104	0	60	72411
2026-01-21 19:20:57.37	10.37	9.56	-39.3	-49.6	3.6	3.02e+01	0	41	104	0	54	16470
2026-01-21 19:21:00.40	9.89	9.74	-39.4	-49.7	3.5	3.02e+01	0	41	104	0	54	16632
2026-01-21 19:21:03.43	9.41	9.91	-50.8	-68.1	3.5	3.02e+01	0	41	104	0	60	98302
2026-01-21 19:21:06.46	8.92	10.08	-50.8	-68.3	3.5	3.02e+01	0	41	104	0	60	100260
2026-01-21 19:21:09.49	8.42	10.25	-39.4	-49.6	3.5	3.02e+01	0	41	104	0	54	16507
2026-01-21 19:21:12.52	7.92	10.43	-39.6	-49.9	3.5	3.02e+01	0	41	104	0	52	19126
2026-01-21 19:21:15.55	7.41	10.60	-40.4	-50.8	3.5	3.02e+01	0	41	104	0	56	16802
2026-01-21 19:21:18.58	6.89	10.76	-39.9	-50.2	3.5	3.02e+01	0	41	104	0	54	17531
2026-01-21 19:21:21.61	6.37	10.93	-49.2	-62.7	3.6	3.02e+01	0	41	104	0	60	52564
2026-01-21 19:21:24.64	5.84	11.10	-49.8	-64.3	3.6	3.02e+01	0	41	104	0	60	63476
2026-01-21 19:21:27.67	5.30	11.27	-39.8	-50.1	3.5	3.02e+01	0	41	104	0	54	17323
2026-01-21 19:21:30.70	4.76	11.43	-40.0	-50.4	3.6	3.02e+01	0	41	104	0	52	20111
2026-01-21 19:21:33.73	4.21	11.60	-45.6	-56.7	3.5	3.02e+01	0	41	104	0	56	32957
2026-01-21 19:21:36.76	3.65	11.76	-39.2	-49.5	3.6	3.02e+01	0	41	104	0	54	16248
2026-01-21 19:21:39.78	3.09	11.92	-49.4	-63.3	3.5	3.02e+01	0	41	104	0	60	56103
2026-01-21 19:21:42.81	2.52	12.08	-42.7	-53.4	3.6	3.02e+01	0	41	104	0	60	17959
2026-01-21 19:21:45.84	1.94	12.24	-39.4	-49.8	3.5	3.02e+01	0	41	104	0	54	16780
2026-01-21 19:21:48.87	1.36	12.40	-40.4	-50.8	3.5	3.02e+01	0	41	104	0	54	18819
2026-01-21 19:21:51.90	0.77	12.55	-39.9	-50.1	3.5	3.02e+01	0	41	104	0	56	15525
2026-01-21 19:21:54.93	0.17	12.71	-38.9	-49.1	3.5	3.02e+01	0	41	104	0	54	15495
2026-01-21 19:21:57.96	359.56	12.86	-40.1	-50.4	3.5	3.02e+01	0	41	104	0	52	20254
2026-01-21 19:22:00.99	358.95	13.01	-38.4	-48.6	3.5	3.02e+01	0	41	104	0	52	16404
2026-01-21 19:22:04.02	358.34	13.16	-38.9	-49.2	3.5	3.02e+01	0	41	104	0	52	17570
2026-01-21 19:22:07.05	357.71	13.30	-39.4	-49.7	3.5	3.02e+01	0	41	104	0	52	18740
2026-01-21 19:22:10.08	357.08	13.45	-40.4	-50.8	3.6	3.02e+01	0	41	104	0	54	18775
2026-01-21 19:22:13.11	356.44	13.59	-39.2	-49.5	3.5	3.02e+01	0	41	104	0	54	16250
2026-01-21 19:22:16.13	355.80	13.73	-39.1	-49.4	3.5	3.02e+01	0	41	104	0	52	17998
2026-01-21 19:22:19.17	355.15	13.86	-40.6	-51.0	3.5	3.02e+01	0	41	104	0	52	21604
2026-01-21 19:22:22.20	354.49	13.99	-38.5	-48.7	3.6	3.02e+01	0	41	104	0	52	16545
2026-01-21 19:22:25.23	353.83	14.13	-38.8	-49.0	3.5	3.02e+01	0	41	104	0	52	17223
2026-01-21 19:22:28.26	353.16	14.25	-43.2	-53.9	3.5	3.02e+01	0	41	104	0	58	21286
2026-01-21 19:22:31.28	352.48	14.38	-39.7	-50.0	3.5	3.02e+01	0	41	104	0	54	17209
2026-01-21 19:22:34.31	351.80	14.50	-38.6	-48.9	3.5	3.02e+01	0	41	104	0	52	16937
2026-01-21 19:22:37.34	351.11	14.62	-46.2	-57.7	3.5	3.02e+01	0	41	104	0	60	29469
2026-01-21 19:22:40.37	350.42	14.73	-38.8	-49.1	3.6	3.02e+01	0	41	104	0	52	17346
2026-01-21 19:22:43.40	349.72	14.84	-38.6	-48.8	3.5	3.02e+01	0	41	104	0	52	16893
2026-01-21 19:22:46.42	349.01	14.95	-46.3	-57.8	3.6	3.02e+01	0	41	104	0	60	29829
2026-01-21 19:22:49.46	348.30	15.05	-38.6	-48.8	3.5	3.02e+01	0	41	104	0	52	16840
2026-01-21 19:22:52.48	347.59	15.15	-38.7	-48.9	3.5	3.02e+01	0	41	104	0	52	17048
2026-01-21 19:22:55.51	346.86	15.25	-48.2	-60.7	3.5	3.02e+01	0	41	104	0	60	41723
2026-01-21 19:22:58.54	346.14	15.34	-40.4	-50.6	3.6	3.02e+01	0	41	104	0	56	16402
2026-01-21 19:23:01.57	345.41	15.43	-38.7	-40.0	27.2	3.02e+01	59	41	0	2097152	52	6097
2026-01-21 19:23:04.60	344.67	15.52	-47.9	-51.4	18.9	3.02e+01	58	41	0	3670016	60	14352
2026-01-21 19:23:07.64	343.93	15.60	-38.6	-39.9	28.3	3.02e+01	58	41	0	9437184	52	6002
2026-01-21 19:23:10.67	343.18	15.67	-38.3	-39.6	28.5	3.02e+01	50	41	0	15204352	52	5816
2026-01-21 19:23:13.70	342.44	15.74	-38.4	-39.7	28.5	3.02e+01	54	41	0	20971520	52	5880
2026-01-21 19:23:16.73	341.68	15.81	-38.2	-39.4	28.6	3.02e+01	58	41	0	26738688	52	5708
2026-01-21 19:23:19.76	340.93	15.87	-38.4	-39.6	28.4	3.02e+01	60	41	0	31981568	52	5855
2026-01-21 19:23:22.79	340.17	15.93	-38.3	-39.6	28.5	3.02e+01	60	41	0	37748736	52	5806
2026-01-21 19:23:25.82	339.41	15.98	-38.4	-39.7	28.4	3.02e+01	58	41	0	43515904	52	5894
2026-01-21 19:23:28.85	338.64	16.03	-38.2	-39.4	28.6	3.02e+01	59	41	0	49283072	52	5720
2026-01-21 19:23:31.85	337.88	16.07	-38.5	-39.8	28.4	3.02e+01	47	41	0	55050240	52	5944
2026-01-21 19:23:34.84	337.13	16.11	-38.3	-39.6	28.5	3.02e+01	46	41	0	60293120	52	5808
2026-01-21 19:23:37.87	336.35	16.14	-38.3	-39.5	28.7	3.02e+01	62	41	0	66060288	52	5765
2026-01-21 19:23:40.90	335.58	16.17	-38.4	-39.6	28.6	3.02e+01	56	41	0	71827456	52	5832
2026-01-21 19:23:43.93	334.81	16.20	-38.5	-39.7	28.5	3.02e+01	55	41	0	77594624	52	5925
2026-01-21 19:23:46.96	334.03	16.21	-38.5	-39.8	28.4	3.02e+01	57	41	0	83361792	52	5927
2026-01-21 19:23:49.99	333.25	16.23	-38.5	-39.8	28.4	3.02e+01	60	41	0	89128960	52	5927
2026-01-21 19:23:53.02	332.48	16.24	-38.5	-39.7	28.5	3.02e+01	60	41	0	94896128	52	5905
2026-01-21 19:23:56.05	331.70	16.24	-38.4	-39.6	28.6	3.02e+01	58	41	0	100139008	52	5830
2026-01-21 19:23:59.08	330.92	16.24	-38.7	-40.0	28.3	3.02e+01	59	41	0	105906176	52	6072
2026-01-21 19:24:02.11	330.14	16.23	-38.6	-39.8	28.4	3.02e+01	59	41	0	111673344	52	5970
2026-01-21 19:24:05.14	329.37	16.22	-38.6	-39.9	28.4	3.02e+01	59	41	0	117440512	52	6010
2026-01-21 19:24:08.16	328.59	16.20	-38.3	-39.5	28.7	3.02e+01	56	41	0	123207680	52	5791
2026-01-21 19:24:11.19	327.82	16.18	-38.4	-39.6	28.5	3.02e+01	62	41	0	128450560	52	5857
2026-01-21 19:24:14.22	327.04	16.15	-38.6	-39.9	28.3	3.02e+01	61	41	0	134217728	52	6017
2026-01-21 19:24:17.25	326.27	16.12	-38.6	-39.8	28.4	3.02e+01	57	41	0	139984896	52	5991
2026-01-21 19:24:20.28	325.50	16.08	-38.9	-40.2	28.1	3.02e+01	45	41	0	145752064	52	6251
2026-01-21 19:24:23.31	324.73	16.04	-38.4	-39.6	28.5	3.02e+01	57	41	0	151519232	52	5825
2026-01-21 19:24:26.34	323.97	15.99	-38.4	-39.7	28.5	3.02e+01	58	41	0	157286400	52	5884
2026-01-21 19:24:29.37	323.21	15.94	-38.4	-39.6	28.5	3.02e+01	58	41	0	163053568	52	5831
2026-01-21 19:24:32.40	322.45	15.89	-38.6	-39.8	28.4	3.02e+01	59	41	0	168296448	52	5985
2026-01-21 19:24:35.43	321.69	15.83	-38.9	-40.2	28.1	3.02e+01	60	41	0	174063616	52	6224
2026-01-21 19:24:38.46	320.93	15.76	-38.7	-40.0	28.3	3.02e+01	46	41	0	179830784	52	6076
2026-01-21 19:24:41.49	320.18	15.69	-38.7	-39.9	28.3	3.02e+01	45	41	0	185597952	52	6058
2026-01-21 19:24:44.52	319.44	15.61	-38.9	-40.1	28.2	3.02e+01	61	41	0	191365120	52	6188
2026-01-21 19:24:47.55	318.70	15.54	-38.7	-40.0	28.2	3.02e+01	59	41	0	196608000	52	6099
2026-01-21 19:24:50.58	317.96	15.45	-38.7	-40.0	28.2	3.02e+01	61	41	0	202375168	52	6095
2026-01-21 19:24:53.61	317.23	15.36	-38.5	-39.8	28.5	3.02e+01	57	41	0	208142336	52	5956
2026-01-21 19:24:56.64	316.50	15.27	-38.7	-39.9	28.3	3.02e+01	60	41	0	213909504	52	6061
2026-01-21 19:24:59.67	315.77	15.18	-38.3	-39.5	28.6	3.02e+01	59	41	0	219676672	52	5775
2026-01-21 19:25:02.70	315.06	15.08	-38.6	-39.9	28.4	3.02e+01	52	41	0	225443840	52	6016
2026-01-21 19:25:05.73	314.34	14.97	-37.8	-39.0	29.0	3.02e+01	53	41	0	231211008	50	6115
2026-01-21 19:25:08.76	313.63	14.87	-38.6	-39.9	28.3	3.02e+01	57	41	0	236453888	52	6026
2026-01-21 19:25:11.79	312.93	14.76	-38.4	-39.6	28.3	3.02e+01	61	41	0	242221056	52	5845
2026-01-21 19:25:14.82	312.24	14.64	-39.2	-40.5	27.1	3.02e+01	59	41	0	247988224	54	5744
2026-01-21 19:25:17.85	311.54	14.53	-39.5	-40.9	27.5	3.02e+01	60	41	0	253755392	52	6727
2026-01-21 19:25:20.88	310.86	14.40	-39.5	-40.8	27.4	3.02e+01	59	41	0	259522560	52	6720
2026-01-21 19:25:23.91	310.18	14.28	-38.0	-39.2	28.7	3.02e+01	55	41	0	264765440	50	6243
2026-01-21 19:25:26.94	309.51	14.15	-38.5	-39.8	28.3	3.02e+01	51	41	0	270532608	52	5938
2026-01-21 19:25:29.97	308.84	14.02	-38.4	-39.7	28.5	3.02e+01	62	41	0	276299776	52	5863
2026-01-21 19:25:32.99	308.18	13.89	-38.6	-39.9	28.2	3.02e+01	60	41	0	282066944	52	6047
2026-01-21 19:25:36.02	307.53	13.76	-38.9	-40.1	28.0	3.02e+01	59	41	0	287834112	52	6202
2026-01-21 19:25:39.05	306.88	13.62	-38.7	-40.0	28.2	3.02e+01	64	41	0	293601280	52	6083
2026-01-21 19:25:42.08	306.24	13.48	-38.4	-39.6	28.5	3.02e+01	60	41	0	299368448	52	5814
2026-01-21 19:25:45.11	305.61	13.33	-38.6	-39.9	28.4	3.02e+01	45	41	0	304611328	52	5999
2026-01-21 19:25:48.14	304.98	13.19	-38.6	-39.9	28.3	3.02e+01	45	41	0	310378496	52	6028
2026-01-21 19:25:51.17	304.36	13.04	-39.8	-41.1	27.1	3.02e+01	59	41	0	316145664	52	6962
2026-01-21 19:25:54.20	303.74	12.89	-38.5	-39.7	28.3	3.02e+01	59	41	0	321912832	52	5911
2026-01-21 19:25:57.24	303.14	12.74	-38.9	-40.2	28.0	3.02e+01	59	41	0	327680000	52	6226
2026-01-21 19:26:00.27	302.53	12.59	-39.0	-40.3	27.9	3.02e+01	58	41	0	332922880	52	6315
2026-01-21 19:26:03.29	301.94	12.43	-38.2	-39.4	28.5	3.02e+01	61	41	0	338690048	52	5719
2026-01-21 19:26:06.32	301.36	12.27	-39.0	-40.2	27.9	3.02e+01	63	41	0	344457216	52	6257
2026-01-21 19:26:09.36	300.77	12.12	-38.7	-39.9	27.9	3.02e+01	54	41	0	350224384	52	6034
2026-01-21 19:26:12.39	300.20	11.95	-39.3	-40.6	27.6	3.02e+01	49	41	0	355991552	52	6534
2026-01-21 19:26:15.42	299.63	11.79	-39.4	-40.7	27.6	3.02e+01	58	41	0	361758720	52	6615
2026-01-21 19:26:18.45	299.07	11.63	-39.2	-40.5	27.6	3.02e+01	62	41	0	367525888	52	6436
2026-01-21 19:26:21.48	298.52	11.47	-38.9	-40.2	27.8	3.02e+01	61	41	0	372768768	52	6221
2026-01-21 19:26:24.51	297.97	11.30	-39.4	-40.7	27.4	3.02e+01	59	41	0	378535936	54	5893
2026-01-21 19:26:27.54	297.43	11.13	-39.7	-41.0	27.1	3.02e+01	61	41	0	384303104	54	6112
2026-01-21 19:26:30.57	296.90	10.97	-40.0	-41.3	26.9	3.02e+01	61	41	0	390070272	54	6338
2026-01-21 19:26:33.60	296.38	10.80	-39.1	-40.4	27.7	3.02e+01	45	41	0	395837440	54	5661
2026-01-21 19:26:36.63	295.86	10.63	-39.1	-40.4	27.7	3.02e+01	57	42	0	401604608	54	5678
2026-01-21 19:26:39.66	295.34	10.46	-38.8	-40.0	28.1	3.02e+01	60	41	0	406847488	52	6111
2026-01-21 19:26:42.69	294.84	10.29	-39.4	-40.7	27.3	3.02e+01	57	41	0	412614656	52	6589
2026-01-21 19:26:45.72	294.34	10.11	-39.4	-40.7	27.4	3.02e+01	55	41	0	418381824	52	6610
2026-01-21 19:26:48.75	293.84	9.94	-39.1	-40.3	27.7	3.02e+01	59	41	0	424148992	52	6346
2026-01-21 19:26:51.78	293.35	9.77	-39.1	-40.4	27.6	3.02e+01	48	41	0	429916160	52	6387
2026-01-21 19:26:54.81	292.87	9.60	-39.2	-40.5	27.5	3.02e+01	47	41	0	435683328	52	6437
2026-01-21 19:26:57.84	292.40	9.42	-39.0	-40.3	27.7	3.02e+01	58	41	0	440926208	52	6340
2026-01-21 19:27:00.87	291.93	9.25	-39.4	-40.8	27.2	3.02e+01	60	41	0	446693376	52	6656
2026-01-21 19:27:03.90	291.47	9.07	-39.6	-40.9	27.2	3.02e+01	59	41	0	452460544	52	6775
2026-01-21 19:27:06.93	291.01	8.90	-39.5	-40.8	27.2	3.02e+01	57	41	0	458227712	52	6722
2026-01-21 19:27:09.96	290.56	8.72	-39.6	-41.0	27.1	3.02e+01	60	41	0	463994880	52	6814
2026-01-21 19:27:12.99	290.12	8.55	-39.9	-41.2	26.7	3.02e+01	60	41	0	469762048	52	7042
2026-01-21 19:27:16.02	289.68	8.37	-39.4	-40.8	27.2	3.02e+01	60	41	0	475529216	54	5927
2026-01-21 19:27:19.05	289.24	8.20	-39.7	-41.1	26.9	3.02e+01	57	41	0	480772096	54	6176
2026-01-21 19:27:22.08	288.82	8.02	-39.7	-41.0	26.9	3.02e+01	59	41	0	486539264	54	6122
2026-01-21 19:27:25.11	288.40	7.84	-39.5	-40.8	27.1	3.02e+01	58	41	0	492306432	54	5985
2026-01-21 19:27:28.14	287.98	7.67	-40.3	-41.7	26.3	3.02e+01	59	41	0	498073600	54	6595
2026-01-21 19:27:31.17	287.57	7.49	-39.7	-41.1	26.8	3.02e+01	59	41	0	503840768	54	6170
2026-01-21 19:27:34.20	287.16	7.32	-39.9	-41.3	26.7	3.02e+01	55	41	0	509083648	54	6279
2026-01-21 19:27:37.23	286.76	7.14	-39.8	-41.2	26.7	3.02e+01	51	41	0	514850816	54	6212
2026-01-21 19:27:40.27	286.37	6.96	-40.0	-41.4	26.4	3.02e+01	50	41	0	520617984	54	6376
2026-01-21 19:27:43.29	285.98	6.79	-40.2	-41.6	26.3	3.02e+01	55	41	0	526385152	54	6560
2026-01-21 19:27:46.33	285.60	6.61	-40.3	-41.7	26.1	3.02e+01	49	41	0	532152320	54	6588
2026-01-21 19:27:49.35	285.22	6.44	-40.0	-41.3	26.5	3.02e+01	61	41	0	537919488	54	6330
2026-01-21 19:27:52.38	284.85	6.26	-40.1	-41.5	26.3	3.02e+01	58	41	0	543686656	54	6457
2026-01-21 19:27:55.41	284.48	6.09	-40.4	-41.8	26.0	3.02e+01	59	41	0	548929536	54	6679
2026-01-21 19:27:58.44	284.11	5.91	-40.4	-41.8	26.0	3.02e+01	49	41	0	554696704	54	6673
2026-01-21 19:28:01.47	283.75	5.74	-40.3	-41.7	26.0	3.02e+01	46	41	0	560463872	54	6642
2026-01-21 19:28:04.50	283.40	5.57	-40.4	-41.8	25.9	3.02e+01	57	41	0	566231040	54	6714
2026-01-21 19:28:07.53	283.05	5.39	-40.6	-42.0	25.7	3.02e+01	58	41	0	571998208	54	6867
2026-01-21 19:28:10.56	282.70	5.22	-40.1	-41.6	26.1	3.02e+01	59	41	0	577241088	54	6513
2026-01-21 19:28:13.59	282.36	5.05	-40.5	-41.9	25.7	3.02e+01	58	41	0	583008256	54	6792
2026-01-21 19:28:16.62	282.03	4.88	-40.5	-42.0	25.7	3.02e+01	60	41	0	588775424	54	6832
2026-01-21 19:28:19.65	281.70	4.70	-40.6	-42.0	25.7	3.02e+01	58	41	0	594542592	56	6112
2026-01-21 19:28:22.68	281.37	4.53	-40.8	-42.2	25.5	3.02e+01	51	41	0	600309760	56	6275
2026-01-21 19:28:25.71	281.05	4.36	-41.3	-42.8	24.9	3.02e+01	52	41	0	606076928	56	6708
2026-01-21 19:28:28.74	280.73	4.19	-41.1	-42.6	25.0	3.02e+01	59	41	0	611844096	56	6570
2026-01-21 19:28:31.77	280.41	4.02	-41.3	-42.9	24.7	3.02e+01	60	41	0	617086976	56	6760
2026-01-21 19:28:34.81	280.10	3.85	-41.8	-43.4	24.1	3.02e+01	59	41	0	622854144	58	6402
2026-01-21 19:28:37.84	279.80	3.68	-41.1	-42.7	24.7	3.02e+01	59	41	0	628621312	58	5907
2026-01-21 19:28:40.86	279.49	3.51	-41.3	-42.9	24.7	3.02e+01	60	41	0	634388480	56	6762
2026-01-21 19:28:43.89	279.19	3.34	-41.6	-43.3	24.2	3.02e+01	52	41	0	640155648	58	6283
2026-01-21 19:28:46.92	278.90	3.18	-42.0	-43.7	23.5	3.02e+01	46	41	0	645922816	56	7432
2026-01-21 19:28:49.95	278.61	3.01	-41.5	-43.2	24.0	3.02e+01	57	41	0	651165696	56	7003
2026-01-21 19:28:52.98	278.32	2.84	-51.1	-68.9	3.5	3.02e+01	0	41	104	652738560	60	107705
2026-01-21 19:28:56.01	278.04	2.67	-51.4	-69.2	3.5	3.02e+01	0	41	104	652738560	60	110851
2026-01-21 19:28:59.04	277.76	2.51	-51.5	-69.3	3.5	3.02e+01	0	41	104	652738560	60	112435
2026-01-21 19:29:02.06	277.48	2.34	-51.6	-69.4	3.5	3.02e+01	0	41	104	652738560	60	112994
2026-01-21 19:29:05.09	277.21	2.18	-51.5	-69.3	3.5	3.02e+01	0	41	104	652738560	60	112600
2026-01-21 19:29:08.13	276.94	2.01	-51.5	-69.4	3.5	3.02e+01	0	41	104	652738560	60	113415
2026-01-21 19:29:11.15	276.67	1.85	-51.5	-69.3	3.5	3.02e+01	0	41	104	652738560	60	112668
2026-01-21 19:29:14.18	276.41	1.69	-51.4	-69.4	3.5	3.02e+01	0	41	104	652738560	60	113131
2026-01-21 19:29:17.21	276.15	1.52	-51.6	-69.4	3.5	3.02e+01	0	41	104	652738560	60	112984
2026-01-21 19:29:20.25	275.89	1.36	-51.6	-69.4	3.5	3.02e+01	0	41	104	652738560	60	113373
2026-01-21 19:29:23.28	275.64	1.20	-51.6	-69.4	3.5	3.02e+01	0	41	104	652738560	60	113390
2026-01-21 19:29:26.30	275.39	1.04	-51.6	-69.4	3.5	3.02e+01	0	41	104	652738560	60	113499
2026-01-21 19:29:29.33	275.14	0.88	-51.6	-69.4	3.5	3.02e+01	0	41	104	652738560	60	113971
2026-01-21 19:29:32.37	274.90	0.71	-51.6	-69.5	3.5	3.02e+01	0	41	104	652738560	60	114524
2026-01-21 19:29:35.40	274.66	0.55	-51.7	-69.4	3.5	3.02e+01	0	41	104	652738560	60	114132
2026-01-21 19:29:38.43	274.42	0.40	-51.7	-69.5	3.5	3.02e+01	0	41	104	652738560	60	114688
2026-01-21 19:29:41.46	274.18	0.24	-51.6	-69.4	3.5	3.02e+01	0	41	104	652738560	60	113438
2026-01-21 19:29:44.49	273.95	0.08	-51.6	-69.4	3.5	3.02e+01	0	41	104	652738560	60	112988
2026-01-21 19:29:47.52	273.72	-0.08	-51.7	-69.5	3.5	3.02e+01	0	41	104	652738560	60	114300

#Closed at: 2026-01-21 19:29:47
#Recorded file [652 MB]: D:/lorett/data/35029_260122_071807.dat