passes_logs/2026/01/21/R4.6S_Anadyr/R4.6S_Anadyr__20260121_205433_AQUA_rec.log

#Pass ID: 20260121_205433_AQUA
#Satellite: AQUA
#Configuration: AQUA
#almurnet v.1.7.20251203
#Start time: 2026-01-21 20:54:36

#Version: 2.2.20231116
#Station: R4.6S_Anadyr
#Location: 177.4865 lon 64.73178 lat
#TLE: 1 27424U 02022A   26020.90316333  .00002787  00000+0  56766-3 0  9999
#TLE: 2 27424  98.4095 347.4297 0002000  71.6339 309.8236 14.61840001261750

#Time	Az	El	Level	Level2	SNR	BER	BlckErr	Temp	State	Recorded	gain1	gain2
2026-01-21 20:54:36.07	44.59	0.14	-51.4	-67.8	3.3	3.04e+01	0	41	0	0	60	94575
2026-01-21 20:54:39.09	44.30	0.28	-51.4	-69.2	3.5	3.04e+01	0	41	104	0	60	110453
2026-01-21 20:54:42.12	44.01	0.42	-51.4	-69.3	3.5	3.04e+01	0	41	104	0	60	112143
2026-01-21 20:54:45.15	43.72	0.56	-51.2	-69.1	3.5	3.04e+01	0	41	104	0	60	109633
2026-01-21 20:54:48.18	43.43	0.70	-51.2	-69.0	3.5	3.04e+01	0	41	104	0	60	109078
2026-01-21 20:54:51.21	43.13	0.85	-50.9	-68.9	3.5	3.04e+01	0	41	104	0	60	106731
2026-01-21 20:54:54.23	42.83	0.99	-50.9	-68.7	3.5	3.04e+01	0	41	104	0	60	105026
2026-01-21 20:54:57.27	42.53	1.13	-50.2	-68.3	3.5	3.04e+01	0	41	104	0	60	99730
2026-01-21 20:55:00.29	42.22	1.27	-49.8	-67.6	3.5	3.04e+01	0	41	104	0	60	92638
2026-01-21 20:55:03.32	41.91	1.41	-49.7	-67.5	3.5	3.04e+01	0	41	104	0	60	91042
2026-01-21 20:55:06.35	41.60	1.56	-49.6	-67.5	3.5	3.04e+01	0	41	104	0	60	91314
2026-01-21 20:55:09.38	41.28	1.70	-49.7	-67.5	3.5	3.04e+01	0	41	104	0	60	91606
2026-01-21 20:55:12.42	40.96	1.84	-49.7	-67.4	3.5	3.04e+01	0	41	104	0	60	89778
2026-01-21 20:55:15.45	40.64	1.98	-49.6	-67.3	3.5	3.04e+01	0	41	104	0	60	89673
2026-01-21 20:55:18.48	40.31	2.13	-49.7	-67.0	3.5	3.04e+01	0	41	104	0	60	86040
2026-01-21 20:55:21.51	39.98	2.27	-49.7	-67.3	3.5	3.04e+01	0	41	104	0	60	89563
2026-01-21 20:55:24.54	39.65	2.41	-49.6	-65.7	3.6	3.04e+01	0	41	104	0	60	74237
2026-01-21 20:55:27.57	39.31	2.55	-49.7	-66.3	3.5	3.04e+01	0	41	104	0	60	79714
2026-01-21 20:55:30.60	38.97	2.70	-49.6	-66.1	3.5	3.04e+01	0	41	104	0	60	77772
2026-01-21 20:55:33.63	38.62	2.84	-49.6	-63.8	4.3	3.04e+01	0	41	104	0	60	59283
2026-01-21 20:55:36.66	38.27	2.98	-49.5	-64.7	3.9	3.04e+01	0	41	104	0	60	66113
2026-01-21 20:55:39.70	37.92	3.12	-49.7	-64.9	4.2	3.04e+01	0	41	104	2621440	60	67335
2026-01-21 20:55:42.73	37.56	3.26	-48.7	-56.7	4.0	3.04e+01	48	41	0	5242880	60	26174
2026-01-21 20:55:45.76	37.20	3.40	-40.6	-42.2	24.9	3.04e+01	58	41	0	8912896	56	6221
2026-01-21 20:55:48.79	36.83	3.55	-39.7	-41.2	25.9	3.04e+01	61	41	0	14155776	54	6230
2026-01-21 20:55:51.81	36.47	3.69	-40.4	-42.0	25.2	3.04e+01	61	41	0	19922944	56	6076
2026-01-21 20:55:54.84	36.09	3.83	-39.9	-41.4	25.7	3.04e+01	59	41	0	25690112	54	6382
2026-01-21 20:55:57.87	35.72	3.97	-39.8	-41.2	25.9	3.04e+01	61	41	0	31457280	54	6261
2026-01-21 20:56:00.90	35.33	4.11	-39.7	-41.1	26.3	3.04e+01	46	41	0	37224448	54	6175
2026-01-21 20:56:03.93	34.95	4.25	-39.4	-40.8	26.6	3.04e+01	46	41	0	42467328	54	5950
2026-01-21 20:56:06.96	34.56	4.39	-39.9	-41.4	25.9	3.04e+01	58	41	0	48234496	54	6375
2026-01-21 20:56:09.99	34.17	4.53	-39.5	-40.9	26.1	3.04e+01	58	41	0	54001664	54	6060
2026-01-21 20:56:13.02	33.77	4.67	-39.2	-40.6	26.5	3.04e+01	61	41	0	59768832	54	5820
2026-01-21 20:56:16.05	33.37	4.80	-39.3	-40.7	26.6	3.04e+01	60	41	0	65536000	52	6592
2026-01-21 20:56:19.08	32.96	4.94	-39.0	-40.3	26.9	3.04e+01	58	41	0	71303168	52	6346
2026-01-21 20:56:22.11	32.55	5.08	-40.4	-41.9	25.5	3.04e+01	57	41	0	77070336	54	6737
2026-01-21 20:56:25.14	32.14	5.22	-39.7	-41.2	26.1	3.04e+01	58	41	0	82313216	54	6228
2026-01-21 20:56:28.17	31.72	5.35	-39.3	-40.7	26.6	3.04e+01	37	41	0	88080384	54	5890
2026-01-21 20:56:31.20	31.29	5.49	-40.1	-41.6	25.8	3.04e+01	58	41	0	93847552	54	6533
2026-01-21 20:56:34.23	30.86	5.62	-39.3	-40.7	26.6	3.04e+01	59	41	0	99614720	52	6583
2026-01-21 20:56:37.26	30.43	5.76	-39.3	-40.7	26.7	3.04e+01	59	41	0	105381888	52	6587
2026-01-21 20:56:40.29	30.00	5.89	-38.9	-40.3	27.0	3.04e+01	57	41	0	111149056	52	6299
2026-01-21 20:56:43.32	29.55	6.03	-39.1	-40.5	26.8	3.04e+01	60	41	0	116391936	52	6463
2026-01-21 20:56:46.35	29.11	6.16	-39.0	-40.4	27.0	3.04e+01	63	41	0	122159104	52	6378
2026-01-21 20:56:49.38	28.66	6.29	-38.8	-40.1	27.3	3.04e+01	47	41	0	127926272	52	6180
2026-01-21 20:56:52.41	28.20	6.42	-39.5	-40.9	26.6	3.04e+01	58	41	0	133693440	52	6729
2026-01-21 20:56:55.44	27.74	6.55	-39.0	-40.4	27.0	3.04e+01	58	41	0	139460608	52	6373
2026-01-21 20:56:58.47	27.28	6.68	-38.8	-40.1	27.4	3.04e+01	62	41	0	145227776	52	6161
2026-01-21 20:57:01.50	26.81	6.81	-38.7	-40.0	27.4	3.04e+01	59	41	0	150470656	52	6095
2026-01-21 20:57:04.53	26.34	6.94	-38.9	-40.3	27.2	3.04e+01	61	41	0	156237824	52	6280
2026-01-21 20:57:07.57	25.86	7.06	-38.7	-40.1	27.3	3.04e+01	47	41	0	162004992	52	6141
2026-01-21 20:57:10.60	25.38	7.19	-39.0	-40.4	27.1	3.04e+01	46	41	0	167772160	52	6353
2026-01-21 20:57:13.63	24.89	7.31	-38.6	-39.9	27.5	3.04e+01	57	41	0	173539328	52	6013
2026-01-21 20:57:16.66	24.40	7.43	-39.0	-40.4	27.1	3.04e+01	56	41	0	179306496	52	6369
2026-01-21 20:57:19.69	23.90	7.56	-38.3	-39.6	27.8	3.04e+01	59	41	0	185073664	52	5804
2026-01-21 20:57:22.72	23.40	7.68	-38.8	-40.1	27.3	3.04e+01	55	41	0	190316544	52	6159
2026-01-21 20:57:25.75	22.90	7.79	-38.8	-40.2	27.4	3.04e+01	50	41	0	196083712	52	6208
2026-01-21 20:57:28.78	22.39	7.91	-38.6	-39.9	27.6	3.04e+01	57	41	0	201850880	52	6036
2026-01-21 20:57:31.81	21.87	8.03	-38.8	-40.1	27.4	3.04e+01	57	41	0	207618048	52	6201
2026-01-21 20:57:34.84	21.35	8.14	-38.6	-39.9	27.6	3.04e+01	52	41	0	213385216	52	6016
2026-01-21 20:57:37.87	20.83	8.26	-38.5	-39.8	27.6	3.04e+01	63	41	0	218628096	52	5936
2026-01-21 20:57:40.89	20.30	8.37	-38.7	-40.0	27.5	3.04e+01	60	41	0	224395264	52	6073
2026-01-21 20:57:43.93	19.77	8.48	-38.4	-39.7	27.8	3.04e+01	58	41	0	230162432	52	5890
2026-01-21 20:57:46.96	19.23	8.58	-38.2	-39.5	28.0	3.04e+01	57	41	0	235929600	52	5764
2026-01-21 20:57:49.99	18.69	8.69	-38.6	-39.9	27.6	3.04e+01	57	41	0	241696768	52	6064
2026-01-21 20:57:53.02	18.15	8.80	-38.7	-40.0	27.6	3.04e+01	57	41	0	247463936	52	6087
2026-01-21 20:57:56.05	17.60	8.90	-38.7	-40.0	27.6	3.04e+01	51	41	0	253231104	52	6131
2026-01-21 20:57:59.08	17.04	9.00	-38.6	-39.9	27.7	3.04e+01	62	41	0	258473984	52	6028
2026-01-21 20:58:02.11	16.49	9.10	-38.8	-40.1	27.3	3.04e+01	59	41	0	264241152	52	6184
2026-01-21 20:58:05.14	15.92	9.19	-38.3	-39.6	27.9	3.04e+01	59	41	0	270008320	52	5837
2026-01-21 20:58:08.17	15.36	9.29	-38.5	-39.9	27.7	3.04e+01	60	41	0	275775488	52	6006
2026-01-21 20:58:11.20	14.79	9.38	-38.6	-39.9	27.7	3.04e+01	61	41	0	281542656	52	6044
2026-01-21 20:58:14.23	14.21	9.47	-38.8	-40.1	27.4	3.04e+01	46	41	0	287309824	52	6179
2026-01-21 20:58:17.26	13.64	9.56	-38.6	-39.9	27.9	3.04e+01	48	41	0	292552704	52	6048
2026-01-21 20:58:20.30	13.05	9.65	-38.5	-39.8	27.7	3.04e+01	57	41	0	298319872	52	5972
2026-01-21 20:58:23.32	12.47	9.73	-38.6	-39.9	27.7	3.04e+01	59	41	0	304087040	52	6053
2026-01-21 20:58:26.35	11.88	9.81	-38.5	-39.8	27.8	3.04e+01	60	41	0	309854208	52	5962
2026-01-21 20:58:29.38	11.29	9.89	-38.3	-39.6	28.0	3.04e+01	61	41	0	315621376	52	5854
2026-01-21 20:58:32.41	10.69	9.96	-38.2	-39.4	28.1	3.04e+01	61	41	0	321388544	52	5722
2026-01-21 20:58:35.44	10.09	10.04	-38.2	-39.5	28.1	3.04e+01	59	41	0	326631424	52	5736
2026-01-21 20:58:38.47	9.49	10.11	-38.1	-39.4	28.0	3.04e+01	56	41	0	332398592	52	5697
2026-01-21 20:58:41.50	8.88	10.18	-38.5	-39.8	27.9	3.04e+01	47	41	0	338165760	52	5937
2026-01-21 20:58:44.53	8.27	10.24	-38.2	-39.5	28.0	3.04e+01	61	41	0	343932928	52	5769
2026-01-21 20:58:47.56	7.66	10.30	-38.1	-39.4	28.2	3.04e+01	62	41	0	349700096	52	5680
2026-01-21 20:58:50.60	7.05	10.36	-38.2	-39.5	28.1	3.04e+01	59	41	0	355467264	52	5736
2026-01-21 20:58:53.63	6.43	10.42	-38.3	-39.6	28.0	3.04e+01	61	41	0	360710144	52	5804
2026-01-21 20:58:56.66	5.81	10.48	-38.1	-39.4	28.2	3.04e+01	57	41	0	366477312	52	5681
2026-01-21 20:58:59.69	5.19	10.53	-38.2	-39.5	28.1	3.04e+01	59	41	0	372244480	52	5729
2026-01-21 20:59:02.72	4.56	10.57	-38.0	-39.2	28.3	3.04e+01	51	41	0	378011648	52	5578
2026-01-21 20:59:05.75	3.94	10.62	-38.2	-39.5	28.1	3.04e+01	59	41	0	383778816	50	6467
2026-01-21 20:59:08.78	3.31	10.66	-38.1	-39.4	28.2	3.04e+01	60	41	0	389545984	50	6362
2026-01-21 20:59:11.81	2.68	10.70	-38.2	-39.5	28.1	3.04e+01	61	41	0	394788864	50	6478
2026-01-21 20:59:14.84	2.04	10.74	-38.3	-39.6	28.0	3.04e+01	61	41	0	400556032	50	6539
2026-01-21 20:59:17.87	1.41	10.77	-38.2	-39.5	28.1	3.04e+01	59	41	0	406323200	50	6481
2026-01-21 20:59:20.90	0.77	10.80	-37.9	-39.2	28.4	3.04e+01	39	41	0	412090368	50	6237
2026-01-21 20:59:23.93	0.14	10.83	-38.3	-39.6	28.1	3.04e+01	47	41	0	417857536	50	6531
2026-01-21 20:59:26.95	359.50	10.85	-38.0	-39.3	28.3	3.04e+01	59	41	0	423624704	50	6309
2026-01-21 20:59:29.98	358.86	10.87	-38.3	-39.6	28.0	3.04e+01	60	41	0	429391872	50	6501
2026-01-21 20:59:33.01	358.22	10.89	-38.1	-39.3	28.3	3.04e+01	60	41	0	434634752	50	6331
2026-01-21 20:59:36.04	357.58	10.90	-38.2	-39.5	28.1	3.04e+01	59	41	0	440401920	50	6464
2026-01-21 20:59:39.07	356.94	10.91	-38.2	-39.4	28.1	3.04e+01	58	41	0	446169088	50	6423
2026-01-21 20:59:42.10	356.30	10.92	-38.1	-39.4	28.1	3.04e+01	62	41	0	451936256	50	6364
2026-01-21 20:59:45.13	355.66	10.92	-38.3	-39.5	28.1	3.04e+01	47	41	0	457703424	50	6486
2026-01-21 20:59:48.16	355.01	10.92	-38.2	-39.5	28.1	3.04e+01	56	41	0	462946304	50	6454
2026-01-21 20:59:51.19	354.37	10.92	-38.3	-39.5	28.1	3.04e+01	57	41	0	468713472	50	6495
2026-01-21 20:59:54.22	353.73	10.91	-38.3	-39.5	28.1	3.04e+01	62	41	0	474480640	50	6486
2026-01-21 20:59:57.25	353.09	10.90	-38.2	-39.4	28.2	3.04e+01	59	41	0	480247808	50	6404
2026-01-21 21:00:00.28	352.45	10.89	-38.0	-39.3	28.2	3.04e+01	56	41	0	486014976	50	6285
2026-01-21 21:00:03.31	351.81	10.87	-38.4	-39.7	27.8	3.04e+01	62	41	0	491782144	50	6623
2026-01-21 21:00:06.34	351.17	10.86	-38.1	-39.4	28.2	3.04e+01	52	41	0	497549312	50	6387
2026-01-21 21:00:09.37	350.53	10.83	-38.5	-39.8	27.8	3.04e+01	47	41	0	502792192	50	6687
2026-01-21 21:00:12.40	349.89	10.81	-38.4	-39.7	27.9	3.04e+01	59	41	0	508559360	50	6631
2026-01-21 21:00:15.43	349.26	10.78	-38.4	-39.7	27.9	3.04e+01	59	41	0	514326528	50	6615
2026-01-21 21:00:18.46	348.62	10.75	-38.5	-39.8	27.9	3.04e+01	57	41	0	520093696	50	6650
2026-01-21 21:00:21.49	347.99	10.71	-38.5	-39.8	27.7	3.04e+01	55	41	0	525860864	50	6690
2026-01-21 21:00:24.52	347.36	10.67	-38.9	-40.2	27.5	3.04e+01	57	41	0	531103744	50	7038
2026-01-21 21:00:27.55	346.73	10.63	-38.4	-39.7	27.9	3.04e+01	46	41	0	536870912	50	6629
2026-01-21 21:00:30.58	346.10	10.59	-38.5	-39.8	27.7	3.04e+01	53	41	0	542638080	50	6700
2026-01-21 21:00:33.61	345.48	10.54	-38.6	-39.9	27.8	3.04e+01	55	41	0	548405248	50	6731
2026-01-21 21:00:36.64	344.85	10.49	-38.4	-39.7	27.9	3.04e+01	60	41	0	554172416	50	6635
2026-01-21 21:00:39.67	344.23	10.44	-38.7	-40.0	27.7	3.04e+01	61	41	0	559939584	50	6822
2026-01-21 21:00:42.69	343.62	10.38	-38.5	-39.8	27.8	3.04e+01	56	41	0	565706752	50	6711
2026-01-21 21:00:45.72	343.00	10.32	-38.5	-39.8	27.9	3.04e+01	59	41	0	570949632	50	6668
2026-01-21 21:00:48.75	342.39	10.26	-39.0	-40.4	27.3	3.04e+01	58	41	0	576716800	52	6362
2026-01-21 21:00:51.78	341.78	10.20	-38.7	-40.0	27.7	3.04e+01	49	41	0	582483968	52	6078
2026-01-21 21:00:54.81	341.17	10.13	-38.6	-39.9	27.8	3.04e+01	44	41	0	588251136	52	6013
2026-01-21 21:00:57.84	340.57	10.06	-38.7	-40.0	27.7	3.04e+01	57	41	0	594018304	52	6087
2026-01-21 21:01:00.87	339.97	9.99	-38.7	-40.1	27.6	3.04e+01	60	41	0	599261184	52	6138
2026-01-21 21:01:03.90	339.37	9.91	-38.7	-40.0	27.6	3.04e+01	58	41	0	605028352	52	6125
2026-01-21 21:01:06.93	338.78	9.83	-38.9	-40.3	27.4	3.04e+01	60	41	0	610795520	52	6300
2026-01-21 21:01:09.96	338.19	9.75	-38.7	-40.0	27.6	3.04e+01	56	41	0	616562688	52	6090
2026-01-21 21:01:12.99	337.60	9.67	-38.7	-40.0	27.7	3.04e+01	59	41	0	622329856	52	6086
2026-01-21 21:01:16.03	337.02	9.58	-38.9	-40.2	27.4	3.04e+01	51	41	0	628097024	52	6274
2026-01-21 21:01:19.06	336.44	9.50	-39.2	-40.5	27.2	3.04e+01	63	41	0	633864192	52	6458
2026-01-21 21:01:22.09	335.86	9.41	-39.6	-41.0	26.8	3.04e+01	59	41	0	639107072	52	6828
2026-01-21 21:01:25.12	335.29	9.32	-38.6	-39.9	27.7	3.04e+01	59	41	0	644874240	52	6019
2026-01-21 21:01:28.14	334.72	9.22	-38.9	-40.3	27.4	3.04e+01	61	41	0	650641408	52	6281
2026-01-21 21:01:31.17	334.16	9.13	-39.5	-40.9	26.6	3.04e+01	59	40	0	656408576	52	6795
2026-01-21 21:01:34.21	333.60	9.03	-39.1	-40.4	26.9	3.04e+01	48	41	0	662175744	52	6417
2026-01-21 21:01:37.24	333.05	8.93	-39.9	-41.3	26.4	3.04e+01	45	41	0	667942912	54	6296
2026-01-21 21:01:40.27	332.49	8.82	-38.7	-39.9	27.7	3.04e+01	59	41	0	673185792	52	6062
2026-01-21 21:01:43.30	331.95	8.72	-40.0	-41.5	26.2	3.04e+01	61	41	0	678952960	54	6465
2026-01-21 21:01:46.33	331.41	8.62	-39.4	-40.7	27.0	3.04e+01	59	41	0	684720128	52	6633
2026-01-21 21:01:49.36	330.87	8.51	-39.3	-40.7	26.7	3.04e+01	61	41	0	690487296	54	5863
2026-01-21 21:01:52.39	330.33	8.40	-39.7	-41.1	26.5	3.04e+01	59	41	0	696254464	54	6199
2026-01-21 21:01:55.42	329.81	8.29	-39.3	-40.6	27.0	3.04e+01	58	41	0	702021632	52	6568
2026-01-21 21:01:58.45	329.28	8.17	-39.0	-40.4	27.2	3.04e+01	48	41	0	707264512	52	6361
2026-01-21 21:02:01.48	328.76	8.06	-39.9	-41.4	26.2	3.04e+01	48	41	0	713031680	52	7180
2026-01-21 21:02:04.51	328.24	7.95	-40.3	-41.8	25.9	3.04e+01	57	41	0	718798848	54	6721
2026-01-21 21:02:07.54	327.73	7.83	-39.6	-41.0	26.7	3.04e+01	59	41	0	724566016	52	6849
2026-01-21 21:02:10.57	327.23	7.71	-39.3	-40.6	27.0	3.04e+01	58	41	0	730333184	54	5856
2026-01-21 21:02:13.60	326.72	7.59	-39.5	-40.8	26.9	3.04e+01	61	41	0	736100352	54	5960
2026-01-21 21:02:16.62	326.23	7.47	-39.6	-41.0	26.7	3.04e+01	58	41	0	741343232	54	6094
2026-01-21 21:02:19.65	325.74	7.35	-39.6	-41.0	26.7	3.04e+01	52	41	0	747110400	54	6111
2026-01-21 21:02:22.68	325.25	7.22	-39.8	-41.2	26.5	3.04e+01	50	41	0	752877568	54	6231
2026-01-21 21:02:25.71	324.76	7.10	-39.8	-41.2	26.4	3.04e+01	57	41	0	758644736	54	6211
2026-01-21 21:02:28.73	324.29	6.97	-40.0	-41.4	26.2	3.04e+01	59	41	0	764411904	54	6408
2026-01-21 21:02:31.76	323.81	6.85	-39.7	-41.1	26.5	3.04e+01	59	41	0	770179072	54	6194
2026-01-21 21:02:34.79	323.34	6.72	-40.0	-41.4	26.2	3.04e+01	59	41	0	775421952	54	6420
2026-01-21 21:02:37.82	322.88	6.59	-40.3	-41.8	25.9	3.04e+01	57	41	0	781189120	54	6675
2026-01-21 21:02:40.85	322.41	6.46	-40.2	-41.6	25.8	3.04e+01	62	41	0	786956288	54	6503
2026-01-21 21:02:43.88	321.96	6.33	-39.2	-40.5	26.9	3.04e+01	46	41	0	792723456	52	6480
2026-01-21 21:02:46.91	321.51	6.20	-40.3	-41.8	25.8	3.04e+01	61	41	0	798490624	54	6692
2026-01-21 21:02:49.94	321.06	6.07	-40.2	-41.7	25.9	3.04e+01	59	41	0	804257792	54	6620
2026-01-21 21:02:52.97	320.62	5.93	-40.3	-41.8	25.8	3.04e+01	60	41	0	809500672	54	6669
2026-01-21 21:02:56.00	320.18	5.80	-40.7	-42.2	25.3	3.04e+01	59	41	0	815267840	54	6997
2026-01-21 21:02:59.03	319.74	5.66	-40.2	-41.6	25.8	3.04e+01	61	41	0	821035008	54	6558
2026-01-21 21:03:02.06	319.31	5.53	-40.4	-41.9	25.6	3.04e+01	57	41	0	826802176	54	6760
2026-01-21 21:03:05.09	318.89	5.39	-40.9	-42.5	25.0	3.04e+01	46	41	0	832569344	56	6473
2026-01-21 21:03:08.12	318.47	5.26	-40.6	-42.1	25.5	3.04e+01	44	41	0	838336512	54	6902
2026-01-21 21:03:11.15	318.05	5.12	-40.3	-41.8	25.8	3.04e+01	58	41	0	843579392	54	6684
2026-01-21 21:03:14.18	317.64	4.98	-40.5	-42.0	25.6	3.04e+01	60	41	0	849346560	56	6120
2026-01-21 21:03:17.21	317.23	4.84	-40.8	-42.4	25.2	3.04e+01	59	41	0	855113728	56	6354
2026-01-21 21:03:20.24	316.83	4.71	-40.3	-41.8	25.7	3.04e+01	59	41	0	860880896	56	5951
2026-01-21 21:03:23.27	316.43	4.57	-40.2	-41.7	25.7	3.04e+01	63	41	0	866648064	54	6617
2026-01-21 21:03:26.30	316.04	4.43	-40.8	-42.4	25.0	3.04e+01	62	41	0	872415232	54	7159
2026-01-21 21:03:29.33	315.65	4.29	-40.8	-42.4	25.1	3.04e+01	49	41	0	877658112	56	6363
2026-01-21 21:03:32.36	315.26	4.15	-41.0	-42.6	24.9	3.04e+01	63	41	0	883425280	56	6563
2026-01-21 21:03:35.38	314.88	4.01	-41.1	-42.7	24.8	3.04e+01	59	41	0	889192448	56	6614
2026-01-21 21:03:38.41	314.50	3.87	-41.1	-42.8	24.6	3.04e+01	60	41	0	894959616	56	6660
2026-01-21 21:03:41.45	314.12	3.73	-40.2	-41.7	25.6	3.04e+01	58	41	0	900726784	56	5896
2026-01-21 21:03:44.48	313.75	3.59	-42.7	-44.6	22.7	3.04e+01	61	41	0	906493952	58	7318
2026-01-21 21:03:47.51	313.39	3.45	-41.4	-43.0	24.2	3.04e+01	48	41	0	911736832	58	6088
2026-01-21 21:03:50.54	313.03	3.30	-40.7	-42.2	25.1	3.04e+01	49	41	0	917504000	56	6234
2026-01-21 21:03:53.57	312.67	3.16	-41.7	-43.5	23.8	3.04e+01	61	41	0	923271168	56	7236
2026-01-21 21:03:56.60	312.31	3.02	-41.4	-43.1	24.1	3.04e+01	62	41	0	929038336	56	6889
2026-01-21 21:03:59.63	311.96	2.88	-50.5	-68.7	3.5	3.04e+01	0	41	104	930611200	60	105015
2026-01-21 21:04:02.66	311.61	2.74	-51.3	-69.1	3.5	3.04e+01	0	41	104	930611200	60	109617
2026-01-21 21:04:05.68	311.27	2.60	-51.4	-69.2	3.5	3.04e+01	0	41	104	930611200	60	110918
2026-01-21 21:04:08.71	310.93	2.45	-51.5	-69.2	3.5	3.04e+01	0	41	104	930611200	60	111321
2026-01-21 21:04:11.74	310.60	2.31	-51.4	-69.2	3.5	3.04e+01	0	41	104	930611200	60	111169
2026-01-21 21:04:14.77	310.26	2.17	-51.4	-69.2	3.5	3.04e+01	0	41	104	930611200	60	111026
2026-01-21 21:04:17.80	309.94	2.03	-51.3	-69.2	3.5	3.04e+01	0	41	104	930611200	60	110973
2026-01-21 21:04:20.83	309.61	1.88	-51.1	-69.2	3.5	3.04e+01	0	41	104	930611200	60	110506
2026-01-21 21:04:23.86	309.29	1.74	-51.4	-69.2	3.5	3.04e+01	0	41	104	930611200	60	111616
2026-01-21 21:04:26.89	308.97	1.60	-51.4	-69.2	3.5	3.04e+01	0	41	104	930611200	60	110559
2026-01-21 21:04:29.92	308.66	1.46	-51.3	-69.2	3.5	3.04e+01	0	41	104	930611200	60	110665
2026-01-21 21:04:32.95	308.35	1.32	-51.4	-69.2	3.5	3.04e+01	0	41	104	930611200	60	111426
2026-01-21 21:04:35.98	308.04	1.17	-51.4	-69.2	3.5	3.04e+01	0	41	104	930611200	60	110925
2026-01-21 21:04:39.01	307.73	1.03	-51.4	-69.2	3.5	3.04e+01	0	41	104	930611200	60	110778
2026-01-21 21:04:42.04	307.43	0.89	-51.5	-69.3	3.5	3.04e+01	0	41	104	930611200	60	112634
2026-01-21 21:04:45.07	307.13	0.75	-51.3	-69.1	3.5	3.04e+01	0	41	104	930611200	60	110143
2026-01-21 21:04:48.10	306.84	0.61	-51.4	-69.2	3.5	3.04e+01	0	41	104	930611200	60	111547
2026-01-21 21:04:51.13	306.55	0.46	-51.4	-69.3	3.5	3.04e+01	0	41	104	930611200	60	111986
2026-01-21 21:04:54.16	306.26	0.32	-51.5	-69.3	3.5	3.04e+01	0	41	104	930611200	60	112025
2026-01-21 21:04:57.19	305.97	0.18	-51.5	-69.3	3.5	3.04e+01	0	41	104	930611200	60	111938
2026-01-21 21:05:00.23	305.69	0.04	-51.5	-69.3	3.5	3.04e+01	0	41	104	930611200	60	112487

#Closed at: 2026-01-21 21:05:02
#Recorded file [930 MB]: D:/lorett/data/35029_260122_085436.dat