passes_logs/2026/01/21/R4.6S_Anadyr/R4.6S_Anadyr__20260121_010706_NOAA_20_JPSS-1_rec.log

#Pass ID: 20260121_010706_NOAA 20 (JPSS-1)
#Satellite: NOAA 20 (JPSS-1)
#Configuration: NOAA 20
#almurnet v.1.7.20251203
#Start time: 2026-01-21 01:07:09

#Version: 2.2.20231116
#Station: R4.6S_Anadyr
#Location: 177.4865 lon 64.73178 lat
#TLE: 1 43013U 17073A   26020.26397077  .00000127  00000+0  80954-4 0  9999
#TLE: 2 43013  98.7643 321.1479 0001288  31.3158 328.8095 14.19537595423482

#Time	Az	El	Level	Level2	SNR	BER	BlckErr	Temp	State	Recorded	gain1	gain2
2026-01-21 01:07:09.57	179.04	0.21	-52.1	-65.9	3.3	1.54e+00	0	40	0	0	60	71307
2026-01-21 01:07:13.61	179.16	0.44	-51.4	-66.6	3.6	1.51e+00	0	41	104	0	60	77317
2026-01-21 01:07:17.65	179.29	0.68	-51.2	-66.5	3.6	1.51e+00	0	41	104	0	60	76036
2026-01-21 01:07:21.69	179.42	0.93	-51.1	-66.3	3.6	1.51e+00	0	41	104	0	60	74545
2026-01-21 01:07:25.72	179.55	1.17	-50.9	-66.1	3.6	1.51e+00	0	41	104	0	60	72692
2026-01-21 01:07:29.76	179.68	1.42	-50.2	-65.4	3.6	1.51e+00	0	41	104	0	60	67576
2026-01-21 01:07:33.80	179.81	1.66	-50.0	-65.2	3.6	1.51e+00	0	41	104	0	60	65474
2026-01-21 01:07:37.84	179.95	1.91	-50.0	-65.1	3.6	1.51e+00	0	41	104	0	60	64806
2026-01-21 01:07:41.88	180.08	2.17	-50.0	-65.1	3.6	1.51e+00	0	41	104	0	60	65065
2026-01-21 01:07:45.92	180.22	2.42	-50.0	-65.2	3.6	1.51e+00	0	41	104	0	60	65420
2026-01-21 01:07:49.96	180.36	2.68	-49.9	-63.7	3.6	1.51e+00	0	41	104	0	60	55362
2026-01-21 01:07:54.00	180.51	2.94	-50.0	-64.7	3.6	1.51e+00	0	41	104	0	60	62171
2026-01-21 01:07:58.03	180.65	3.20	-48.7	-54.2	9.4	6.21e-02	91	41	0	2097152	60	18488
2026-01-21 01:08:02.07	180.80	3.46	-45.1	-47.2	17.0	0.00e+00	92	41	0	9437184	60	8296
2026-01-21 01:08:06.11	180.95	3.72	-49.9	-63.3	3.7	3.40e-02	0	41	104	16777216	60	52695
2026-01-21 01:08:10.15	181.11	3.99	-45.0	-47.0	17.3	0.00e+00	0	41	0	17825792	60	8047
2026-01-21 01:08:14.18	181.26	4.26	-46.1	-48.6	16.0	0.00e+00	92	41	0	26214400	60	9740
2026-01-21 01:08:18.23	181.42	4.54	-45.4	-47.5	16.9	0.00e+00	92	41	0	33554432	60	8538
2026-01-21 01:08:22.26	181.59	4.81	-44.8	-46.6	18.2	0.00e+00	91	41	0	40894464	60	7734
2026-01-21 01:08:26.30	181.75	5.09	-44.1	-45.7	18.8	0.00e+00	2	41	0	48234496	60	6985
2026-01-21 01:08:30.34	181.92	5.37	-43.3	-44.7	19.6	0.00e+00	92	41	0	56623104	60	6242
2026-01-21 01:08:34.38	182.09	5.66	-43.6	-45.1	19.5	0.00e+00	90	41	0	63963136	60	6500
2026-01-21 01:08:38.42	182.26	5.94	-43.7	-45.3	19.2	0.00e+00	84	41	0	71303168	60	6658
2026-01-21 01:08:42.46	182.44	6.24	-43.1	-44.5	20.0	0.00e+00	83	41	0	78643200	60	6078
2026-01-21 01:08:46.50	182.62	6.53	-43.1	-44.5	20.0	0.00e+00	92	41	0	85983232	58	6808
2026-01-21 01:08:50.54	182.80	6.82	-43.0	-44.3	20.2	0.00e+00	90	41	0	94371840	58	6653
2026-01-21 01:08:54.57	182.99	7.12	-42.1	-43.3	21.2	0.00e+00	1	41	0	101711872	58	5904
2026-01-21 01:08:58.60	183.18	7.43	-42.7	-44.0	20.5	0.00e+00	90	41	0	109051904	58	6404
2026-01-21 01:09:02.64	183.37	7.73	-42.4	-43.6	21.0	0.00e+00	92	41	0	116391936	58	6121
2026-01-21 01:09:06.68	183.57	8.04	-42.6	-43.9	20.7	0.00e+00	65	41	0	123731968	58	6336
2026-01-21 01:09:10.72	183.77	8.36	-42.4	-43.6	21.0	0.00e+00	10	42	0	132120576	58	6157
2026-01-21 01:09:14.75	183.98	8.67	-42.1	-43.3	21.4	0.00e+00	92	42	0	139460608	58	5927
2026-01-21 01:09:18.79	184.19	8.99	-42.3	-43.5	21.0	0.00e+00	91	42	0	146800640	58	6085
2026-01-21 01:09:22.83	184.41	9.32	-41.9	-43.1	21.6	0.00e+00	92	42	0	154140672	56	6472
2026-01-21 01:09:26.87	184.63	9.65	-41.8	-42.9	21.8	0.00e+00	0	42	0	162529280	56	6356
2026-01-21 01:09:30.91	184.85	9.98	-41.8	-42.9	21.8	0.00e+00	90	42	0	169869312	56	6334
2026-01-21 01:09:34.94	185.08	10.32	-41.6	-42.7	22.0	0.00e+00	92	42	0	177209344	56	6194
2026-01-21 01:09:38.98	185.31	10.66	-41.4	-42.4	22.3	0.00e+00	20	42	0	184549376	56	6021
2026-01-21 01:09:43.01	185.55	11.00	-41.7	-42.8	22.0	0.00e+00	0	42	0	191889408	56	6277
2026-01-21 01:09:47.05	185.80	11.35	-41.6	-42.6	22.0	0.00e+00	92	42	0	200278016	56	6158
2026-01-21 01:09:51.09	186.05	11.71	-41.2	-42.2	22.4	0.00e+00	92	42	0	207618048	56	5892
2026-01-21 01:09:55.13	186.30	12.07	-41.0	-42.0	22.6	0.00e+00	7	42	0	214958080	56	5752
2026-01-21 01:09:59.16	186.56	12.43	-40.8	-41.8	22.9	0.00e+00	12	42	0	222298112	56	5581
2026-01-21 01:10:03.20	186.83	12.80	-40.6	-41.6	22.9	0.00e+00	92	42	0	230686720	54	6135
2026-01-21 01:10:07.24	187.11	13.18	-40.6	-41.5	23.0	0.00e+00	92	42	0	238026752	54	6103
2026-01-21 01:10:11.28	187.39	13.56	-40.6	-41.6	23.0	0.00e+00	29	42	0	245366784	54	6145
2026-01-21 01:10:15.31	187.68	13.94	-40.4	-41.3	23.2	0.00e+00	7	42	0	252706816	54	5963
2026-01-21 01:10:19.35	187.97	14.33	-40.2	-41.2	23.4	0.00e+00	92	42	0	260046848	54	5836
2026-01-21 01:10:23.39	188.27	14.73	-40.0	-40.9	23.6	0.00e+00	92	42	0	268435456	54	5637
2026-01-21 01:10:27.42	188.58	15.13	-39.9	-40.8	23.8	0.00e+00	2	42	0	275775488	54	5571
2026-01-21 01:10:31.46	188.90	15.54	-39.8	-40.7	23.8	0.00e+00	92	42	0	283115520	54	5505
2026-01-21 01:10:35.49	189.23	15.95	-39.9	-40.8	23.6	0.00e+00	91	42	0	290455552	54	5612
2026-01-21 01:10:39.53	189.57	16.37	-39.8	-40.7	23.9	0.00e+00	92	42	0	298844160	52	6185
2026-01-21 01:10:43.57	189.91	16.80	-39.7	-40.6	24.0	0.00e+00	11	41	0	306184192	52	6141
2026-01-21 01:10:47.61	190.27	17.23	-39.5	-40.4	24.2	0.00e+00	90	42	0	313524224	52	5996
2026-01-21 01:10:51.65	190.63	17.67	-39.6	-40.4	24.0	0.00e+00	90	42	0	320864256	52	6014
2026-01-21 01:10:55.68	191.01	18.12	-39.5	-40.3	24.1	0.00e+00	90	42	0	328204288	52	5964
2026-01-21 01:10:59.72	191.39	18.57	-39.6	-40.4	24.1	0.00e+00	7	42	0	336592896	52	6010
2026-01-21 01:11:03.76	191.79	19.04	-39.6	-40.5	24.1	0.00e+00	90	41	0	343932928	52	6061
2026-01-21 01:11:07.79	192.20	19.50	-39.7	-40.6	24.0	0.00e+00	92	41	0	351272960	52	6141
2026-01-21 01:11:11.82	192.62	19.98	-39.7	-40.5	24.0	0.00e+00	90	41	0	358612992	52	6102
2026-01-21 01:11:15.86	193.05	20.47	-39.5	-40.3	24.3	0.00e+00	1	41	0	367001600	52	5938
2026-01-21 01:11:19.90	193.50	20.96	-39.5	-40.3	24.3	0.00e+00	92	41	0	374341632	52	5962
2026-01-21 01:11:23.94	193.96	21.46	-39.5	-40.4	24.2	0.00e+00	92	41	0	381681664	52	5978
2026-01-21 01:11:27.98	194.44	21.97	-39.6	-40.5	24.2	0.00e+00	92	41	0	389021696	52	6054
2026-01-21 01:11:32.01	194.93	22.48	-39.5	-40.4	24.3	0.00e+00	86	41	0	396361728	52	5992
2026-01-21 01:11:36.05	195.44	23.01	-39.6	-40.5	24.1	0.00e+00	92	41	0	404750336	52	6074
2026-01-21 01:11:40.09	195.96	23.54	-40.0	-40.9	23.8	0.00e+00	92	41	0	412090368	52	6326
2026-01-21 01:11:44.13	196.51	24.09	-39.8	-40.6	24.1	0.00e+00	92	41	0	419430400	52	6162
2026-01-21 01:11:48.16	197.07	24.64	-40.1	-41.0	23.9	0.00e+00	0	41	0	426770432	52	6407
2026-01-21 01:11:52.19	197.65	25.20	-40.2	-41.1	23.8	0.00e+00	91	41	0	435159040	52	6467
2026-01-21 01:11:56.23	198.25	25.77	-40.2	-41.1	23.7	0.00e+00	92	41	0	442499072	52	6513
2026-01-21 01:12:00.27	198.87	26.34	-40.4	-41.3	23.5	0.00e+00	92	41	0	449839104	52	6644
2026-01-21 01:12:04.30	199.51	26.93	-40.7	-41.6	23.2	0.00e+00	0	41	0	457179136	52	6924
2026-01-21 01:12:08.34	200.18	27.53	-40.8	-41.8	23.1	0.00e+00	90	41	0	464519168	54	6259
2026-01-21 01:12:12.38	200.88	28.13	-40.8	-41.7	23.1	0.00e+00	92	41	0	472907776	54	6240
2026-01-21 01:12:16.42	201.60	28.75	-41.2	-42.2	22.8	0.00e+00	92	41	0	480247808	54	6569
2026-01-21 01:12:20.45	202.34	29.37	-42.0	-43.1	22.0	0.00e+00	67	41	0	487587840	56	6487
2026-01-21 01:12:24.49	203.12	30.00	-42.6	-43.8	21.3	0.00e+00	92	41	0	494927872	56	7044
2026-01-21 01:12:28.53	203.93	30.64	-42.9	-44.1	21.0	0.00e+00	90	41	0	502267904	58	6514
2026-01-21 01:12:32.56	204.77	31.29	-43.2	-44.5	20.7	0.00e+00	92	41	0	510656512	58	6787
2026-01-21 01:12:36.59	205.64	31.94	-42.8	-44.0	21.1	0.00e+00	92	41	0	517996544	58	6419
2026-01-21 01:12:40.64	206.55	32.61	-42.2	-43.3	21.8	0.00e+00	92	41	0	525336576	58	5963
2026-01-21 01:12:44.68	207.49	33.28	-41.8	-42.8	22.2	0.00e+00	92	41	0	532676608	58	5616
2026-01-21 01:12:48.71	208.47	33.95	-40.8	-41.8	23.2	0.00e+00	17	41	0	541065216	56	5575
2026-01-21 01:12:52.75	209.50	34.63	-40.6	-41.5	23.4	0.00e+00	92	41	0	548405248	54	6098
2026-01-21 01:12:56.79	210.57	35.32	-39.8	-40.7	24.2	0.00e+00	92	41	0	555745280	52	6184
2026-01-21 01:13:00.83	211.68	36.01	-40.6	-41.5	23.4	0.00e+00	92	41	0	563085312	52	6841
2026-01-21 01:13:04.86	212.84	36.70	-40.6	-41.5	23.4	0.00e+00	0	41	0	570425344	54	6087
2026-01-21 01:13:08.91	214.05	37.39	-39.6	-40.5	24.3	0.00e+00	92	41	0	578813952	52	6042
2026-01-21 01:13:12.94	215.31	38.08	-40.0	-40.9	24.0	0.00e+00	92	41	0	586153984	52	6334
2026-01-21 01:13:16.98	216.62	38.77	-40.2	-41.1	23.8	0.00e+00	92	41	0	593494016	52	6473
2026-01-21 01:13:21.02	218.00	39.46	-39.8	-40.7	24.2	0.00e+00	0	41	0	600834048	52	6187
2026-01-21 01:13:25.06	219.42	40.14	-40.5	-41.4	23.5	0.00e+00	90	41	0	609222656	52	6758
2026-01-21 01:13:29.10	220.91	40.82	-40.8	-41.8	23.2	0.00e+00	91	41	0	616562688	54	6256
2026-01-21 01:13:33.13	222.46	41.48	-41.2	-42.2	22.8	0.00e+00	90	41	0	623902720	54	6581
2026-01-21 01:13:37.17	224.08	42.14	-41.5	-42.5	22.5	0.00e+00	0	41	0	631242752	54	6823
2026-01-21 01:13:41.20	225.75	42.77	-42.4	-43.5	21.7	0.00e+00	92	41	0	638582784	56	6810
2026-01-21 01:13:45.24	227.50	43.39	-41.3	-42.3	22.8	0.00e+00	92	41	0	646971392	56	5914
2026-01-21 01:13:49.28	229.31	43.99	-42.6	-43.7	21.5	0.00e+00	92	41	0	654311424	56	6977
2026-01-21 01:13:53.31	231.19	44.57	-40.9	-41.8	23.2	0.00e+00	52	41	0	661651456	56	5614
2026-01-21 01:13:57.35	233.13	45.12	-42.1	-43.2	22.0	0.00e+00	92	41	0	668991488	56	6582
2026-01-21 01:14:01.39	235.15	45.64	-40.4	-41.3	23.7	0.00e+00	91	41	0	677380096	54	5943
2026-01-21 01:14:05.43	237.22	46.13	-42.9	-44.1	21.1	0.00e+00	91	41	0	684720128	58	6538
2026-01-21 01:14:09.47	239.36	46.58	-42.1	-43.2	22.0	0.00e+00	91	41	0	692060160	58	5880
2026-01-21 01:14:13.51	241.56	47.00	-42.5	-43.7	21.5	0.00e+00	91	41	0	699400192	58	6219
2026-01-21 01:14:17.55	243.82	47.37	-43.0	-44.3	21.0	0.00e+00	91	41	0	706740224	58	6656
2026-01-21 01:14:21.58	246.12	47.69	-41.7	-42.7	22.5	0.00e+00	0	41	0	715128832	58	5547
2026-01-21 01:14:25.62	248.46	47.97	-42.9	-44.1	21.2	0.00e+00	92	41	0	722468864	58	6534
2026-01-21 01:14:29.66	250.85	48.19	-41.9	-42.9	22.3	0.00e+00	92	41	0	729808896	58	5691
2026-01-21 01:14:33.70	253.27	48.37	-42.6	-43.7	21.7	0.00e+00	91	41	0	737148928	58	6239
2026-01-21 01:14:37.74	255.71	48.49	-42.5	-43.6	21.7	0.00e+00	16	41	0	745537536	58	6119
2026-01-21 01:14:41.78	258.16	48.55	-41.9	-42.9	22.3	0.00e+00	91	41	0	752877568	56	6383
2026-01-21 01:14:45.82	260.62	48.56	-41.7	-42.8	22.5	0.00e+00	92	41	0	760217600	56	6263
2026-01-21 01:14:49.86	263.07	48.51	-41.5	-42.4	22.8	0.00e+00	92	41	0	767557632	56	6028
2026-01-21 01:14:53.90	265.52	48.41	-42.2	-43.3	22.2	0.00e+00	0	41	0	774897664	56	6624
2026-01-21 01:14:57.94	267.94	48.26	-41.3	-42.2	23.0	0.00e+00	92	41	0	783286272	56	5895
2026-01-21 01:15:01.98	270.34	48.05	-42.4	-43.5	21.9	0.00e+00	92	41	0	790626304	56	6818
2026-01-21 01:15:06.01	272.69	47.79	-42.7	-43.8	21.6	0.00e+00	0	41	0	797966336	56	7079
2026-01-21 01:15:10.05	275.01	47.48	-42.7	-43.9	20.6	0.00e+00	0	41	0	805306368	56	7114
2026-01-21 01:15:14.08	277.27	47.13	-43.0	-44.1	21.3	0.00e+00	92	41	0	813694976	60	5826
2026-01-21 01:15:18.12	279.48	46.73	-44.5	-46.0	19.6	0.00e+00	91	41	0	821035008	60	7219
2026-01-21 01:15:22.16	281.64	46.29	-44.2	-45.6	20.0	0.00e+00	7	41	0	828375040	60	6915
2026-01-21 01:15:26.20	283.73	45.82	-43.4	-44.6	20.9	0.00e+00	0	41	0	835715072	60	6130
2026-01-21 01:15:30.23	285.76	45.31	-42.1	-43.1	22.3	0.00e+00	92	41	0	843055104	58	5824
2026-01-21 01:15:34.27	287.73	44.77	-42.1	-43.1	22.2	0.00e+00	91	41	0	851443712	58	5819
2026-01-21 01:15:38.31	289.62	44.20	-41.0	-42.0	23.2	0.00e+00	0	41	0	858783744	54	6405
2026-01-21 01:15:42.35	291.46	43.61	-40.3	-41.2	23.8	0.00e+00	92	41	0	866123776	54	5849
2026-01-21 01:15:46.39	293.22	43.00	-39.2	-40.0	24.9	0.00e+00	92	41	0	873463808	52	5747
2026-01-21 01:15:50.42	294.91	42.37	-39.8	-40.6	24.4	0.00e+00	92	41	0	880803840	52	6148
2026-01-21 01:15:54.46	296.55	41.72	-40.3	-41.2	23.9	0.00e+00	13	41	0	889192448	52	6550
2026-01-21 01:15:58.50	298.12	41.07	-41.1	-42.0	23.2	0.00e+00	92	41	0	896532480	54	6433
2026-01-21 01:16:02.53	299.62	40.40	-40.7	-41.6	23.7	0.00e+00	92	41	0	903872512	56	5457
2026-01-21 01:16:06.57	301.06	39.72	-41.5	-42.4	22.9	0.00e+00	82	41	0	911212544	54	6763
2026-01-21 01:16:10.61	302.45	39.04	-40.6	-41.5	23.5	0.00e+00	3	41	0	919601152	54	6061
2026-01-21 01:16:14.64	303.78	38.35	-41.7	-42.7	22.7	0.00e+00	92	41	0	926941184	56	6243
2026-01-21 01:16:18.67	305.05	37.67	-42.3	-43.4	22.1	0.00e+00	92	41	0	934281216	56	6693
2026-01-21 01:16:22.71	306.28	36.98	-42.4	-43.5	22.1	0.00e+00	22	41	0	941621248	58	6095
2026-01-21 01:16:26.75	307.45	36.29	-44.7	-46.3	19.3	0.00e+00	66	42	0	948961280	60	7476
2026-01-21 01:16:30.79	308.58	35.60	-41.1	-42.0	23.3	0.00e+00	92	42	0	957349888	56	5741
2026-01-21 01:16:34.83	309.66	34.92	-43.3	-44.5	20.9	0.00e+00	92	41	0	964689920	58	6831
2026-01-21 01:16:38.87	310.70	34.24	-41.3	-42.3	23.1	0.00e+00	0	41	0	972029952	56	5917
2026-01-21 01:16:42.91	311.69	33.57	-43.6	-44.9	20.3	0.00e+00	0	41	0	979369984	58	7125
2026-01-21 01:16:46.94	312.65	32.90	-43.1	-44.3	21.2	0.00e+00	91	41	0	987758592	60	5910
2026-01-21 01:16:50.98	313.57	32.24	-41.7	-42.7	22.6	0.00e+00	92	41	0	995098624	56	6224
2026-01-21 01:16:55.02	314.45	31.58	-45.3	-47.1	18.6	0.00e+00	68	41	0	1002438656	60	8151
2026-01-21 01:16:59.06	315.30	30.94	-41.7	-42.7	22.6	0.00e+00	0	41	0	1009778688	58	5544
2026-01-21 01:17:03.09	316.12	30.30	-42.2	-43.2	22.0	0.00e+00	92	41	0	1017118720	56	6607
2026-01-21 01:17:07.13	316.90	29.67	-42.8	-43.9	21.5	0.00e+00	0	41	0	1025507328	58	6383
2026-01-21 01:17:11.17	317.66	29.04	-41.7	-42.7	22.5	0.00e+00	67	42	0	1032847360	56	6181
2026-01-21 01:17:15.20	318.39	28.43	-42.5	-43.6	21.7	0.00e+00	66	41	0	1040187392	56	6891
2026-01-21 01:17:19.23	319.09	27.83	-41.5	-42.5	22.8	0.00e+00	92	42	0	1047527424	56	6080
2026-01-21 01:17:23.28	319.77	27.23	-39.9	-40.7	24.3	0.00e+00	0	41	0	1054867456	54	5528
2026-01-21 01:17:27.32	320.42	26.64	-41.1	-42.0	23.1	0.00e+00	14	41	0	1063256064	54	6458
2026-01-21 01:17:31.36	321.05	26.06	-41.2	-42.2	23.0	0.00e+00	91	42	0	1070596096	54	6543
2026-01-21 01:17:35.39	321.66	25.50	-40.7	-41.6	23.4	0.00e+00	92	41	0	1077936128	54	6150
2026-01-21 01:17:39.43	322.25	24.94	-40.6	-41.5	23.6	0.00e+00	0	41	0	1085276160	54	6051
2026-01-21 01:17:43.47	322.81	24.38	-40.9	-41.9	23.2	0.00e+00	0	42	0	1093664768	54	6333
2026-01-21 01:17:47.51	323.36	23.84	-42.2	-43.3	22.0	0.00e+00	91	41	0	1101004800	56	6656
2026-01-21 01:17:51.55	323.89	23.31	-41.8	-42.8	22.5	0.00e+00	92	41	0	1108344832	56	6285
2026-01-21 01:17:55.58	324.41	22.78	-41.1	-42.0	23.2	0.00e+00	74	41	0	1115684864	56	5714
2026-01-21 01:17:59.62	324.91	22.26	-41.4	-42.3	22.9	0.00e+00	75	42	0	1123024896	56	5952
2026-01-21 01:18:03.66	325.39	21.75	-41.6	-42.6	22.7	0.00e+00	92	42	0	1131413504	56	6112
2026-01-21 01:18:07.70	325.86	21.25	-41.3	-42.3	22.9	0.00e+00	90	41	0	1138753536	56	5914
2026-01-21 01:18:11.73	326.31	20.76	-41.4	-42.3	22.9	0.00e+00	10	42	0	1146093568	56	5937
2026-01-21 01:18:15.77	326.75	20.28	-41.6	-42.6	22.7	0.00e+00	72	41	0	1153433600	56	6146
2026-01-21 01:18:19.80	327.17	19.80	-41.2	-42.1	23.0	0.00e+00	92	41	0	1161822208	56	5818
2026-01-21 01:18:23.84	327.59	19.33	-41.6	-42.6	22.5	0.00e+00	8	42	0	1169162240	56	6143
2026-01-21 01:18:27.88	327.99	18.87	-42.0	-43.1	22.1	0.00e+00	0	41	0	1176502272	56	6490
2026-01-21 01:18:31.92	328.38	18.41	-41.9	-42.9	22.2	0.00e+00	2	41	0	1183842304	56	6384
2026-01-21 01:18:35.96	328.76	17.97	-41.6	-42.6	22.4	0.00e+00	92	41	0	1191182336	56	6153
2026-01-21 01:18:40.00	329.13	17.53	-41.6	-42.6	22.4	0.00e+00	0	41	0	1199570944	56	6152
2026-01-21 01:18:44.04	329.49	17.09	-41.7	-42.8	22.3	0.00e+00	0	42	0	1206910976	56	6248
2026-01-21 01:18:48.08	329.84	16.66	-41.9	-42.9	22.1	0.00e+00	92	42	0	1214251008	56	6387
2026-01-21 01:18:52.12	330.19	16.24	-41.6	-42.6	22.4	0.00e+00	79	42	0	1221591040	56	6160
2026-01-21 01:18:56.16	330.52	15.83	-41.7	-42.8	22.3	0.00e+00	69	42	0	1229979648	56	6248
2026-01-21 01:19:00.20	330.84	15.42	-41.3	-42.3	22.7	0.00e+00	71	42	0	1237319680	56	5907
2026-01-21 01:19:04.23	331.16	15.02	-41.9	-42.9	22.0	0.00e+00	92	42	0	1244659712	56	6377
2026-01-21 01:19:08.27	331.46	14.62	-42.4	-43.5	21.5	0.00e+00	22	42	0	1251999744	58	6083
2026-01-21 01:19:12.31	331.76	14.23	-42.1	-43.2	21.7	0.00e+00	9	41	0	1259339776	58	5867
2026-01-21 01:19:16.34	332.06	13.85	-42.4	-43.6	21.2	0.00e+00	73	42	0	1267728384	58	6112
2026-01-21 01:19:20.38	332.34	13.47	-42.0	-43.2	21.8	0.00e+00	91	42	0	1275068416	58	5840
2026-01-21 01:19:24.42	332.62	13.09	-41.9	-42.9	21.9	0.00e+00	0	42	0	1282408448	58	5695
2026-01-21 01:19:28.46	332.89	12.72	-41.5	-42.6	22.3	0.00e+00	5	41	0	1289748480	56	6118
2026-01-21 01:19:32.50	333.16	12.36	-41.4	-42.4	22.6	0.00e+00	8	41	0	1298137088	56	5994
2026-01-21 01:19:36.53	333.42	12.00	-41.5	-42.6	22.2	0.00e+00	92	42	0	1305477120	56	6118
2026-01-21 01:19:40.57	333.67	11.64	-41.9	-43.0	21.9	0.00e+00	5	42	0	1312817152	56	6399
2026-01-21 01:19:44.61	333.92	11.29	-42.2	-43.4	21.4	0.00e+00	77	42	0	1320157184	56	6722
2026-01-21 01:19:48.65	334.17	10.95	-42.7	-44.0	20.8	0.00e+00	0	42	0	1327497216	58	6405
2026-01-21 01:19:52.69	334.41	10.61	-42.9	-44.2	20.6	0.00e+00	92	42	0	1335885824	58	6573
2026-01-21 01:19:56.73	334.64	10.27	-42.9	-44.2	20.5	0.00e+00	6	42	0	1343225856	58	6615
2026-01-21 01:20:00.76	334.87	9.94	-43.0	-44.3	20.4	0.00e+00	74	42	0	1350565888	58	6653
2026-01-21 01:20:04.80	335.09	9.61	-43.3	-44.7	20.2	0.00e+00	81	42	0	1357905920	58	6994
2026-01-21 01:20:08.84	335.31	9.28	-43.0	-44.4	20.3	0.00e+00	89	42	0	1366294528	58	6695
2026-01-21 01:20:12.88	335.53	8.96	-43.8	-45.3	19.2	0.00e+00	0	42	0	1373634560	60	6679
2026-01-21 01:20:16.91	335.74	8.65	-44.9	-46.8	17.9	0.00e+00	0	42	0	1380974592	60	7886
2026-01-21 01:20:20.95	335.94	8.33	-44.9	-46.8	18.2	0.00e+00	7	42	0	1388314624	60	7917
2026-01-21 01:20:24.99	336.15	8.02	-44.7	-46.5	18.1	0.00e+00	91	42	0	1395654656	60	7658
2026-01-21 01:20:29.03	336.34	7.72	-44.7	-46.6	17.9	0.00e+00	77	42	0	1404043264	60	7689
2026-01-21 01:20:33.07	336.54	7.41	-44.6	-46.5	18.0	0.00e+00	0	42	0	1411383296	60	7612
2026-01-21 01:20:37.10	336.73	7.11	-44.1	-45.8	18.9	0.00e+00	92	42	0	1418723328	60	7041
2026-01-21 01:20:41.14	336.92	6.82	-43.7	-45.4	18.7	0.00e+00	82	42	0	1426063360	60	6700
2026-01-21 01:20:45.18	337.10	6.52	-44.4	-46.2	18.1	0.00e+00	1	42	0	1434451968	60	7364
2026-01-21 01:20:49.21	337.28	6.24	-44.3	-46.1	18.1	0.00e+00	0	42	0	1441792000	60	7264
2026-01-21 01:20:53.25	337.46	5.95	-44.0	-45.8	18.2	0.00e+00	92	42	0	1449132032	60	7043
2026-01-21 01:20:57.29	337.64	5.66	-44.6	-46.7	17.0	0.00e+00	2	42	0	1456472064	60	7809
2026-01-21 01:21:01.32	337.81	5.38	-44.3	-46.5	16.6	0.00e+00	0	42	0	1463812096	60	7610
2026-01-21 01:21:05.36	337.98	5.10	-45.2	-48.3	14.3	0.00e+00	79	42	0	1472200704	60	9418
2026-01-21 01:21:09.40	338.14	4.83	-45.9	-50.4	11.3	4.56e-04	92	42	0	1479540736	60	11926
2026-01-21 01:21:13.43	338.31	4.56	-46.3	-52.1	8.9	2.54e-02	5	42	0	1486880768	60	14615
2026-01-21 01:21:17.48	338.47	4.29	-46.6	-54.6	5.8	2.90e-01	5	42	0	1494220800	60	19335
2026-01-21 01:21:21.52	338.63	4.02	-46.6	-56.8	3.8	1.34e+00	0	42	0	1501560832	60	25136
2026-01-21 01:21:25.56	338.78	3.75	-46.5	-60.4	3.6	1.51e+00	0	42	104	1501560832	60	38002
2026-01-21 01:21:29.59	338.94	3.49	-46.5	-61.7	3.6	1.51e+00	0	42	104	1501560832	60	43794
2026-01-21 01:21:33.63	339.09	3.23	-46.5	-61.6	3.5	1.51e+00	0	42	104	1501560832	60	43560
2026-01-21 01:21:37.67	339.24	2.97	-46.4	-61.6	3.6	1.51e+00	0	42	104	1501560832	60	43346
2026-01-21 01:21:41.72	339.38	2.71	-51.0	-66.2	3.6	1.51e+00	0	42	104	1501560832	60	73913
2026-01-21 01:21:45.75	339.53	2.46	-51.3	-66.5	3.6	1.51e+00	0	42	104	1501560832	60	76581
2026-01-21 01:21:49.80	339.67	2.21	-51.4	-66.7	3.6	1.51e+00	0	42	104	1501560832	60	78007
2026-01-21 01:21:53.83	339.81	1.96	-51.2	-66.6	3.6	1.51e+00	0	42	104	1501560832	60	77604
2026-01-21 01:21:57.87	339.95	1.71	-51.4	-66.6	3.6	1.51e+00	0	42	104	1501560832	60	77506
2026-01-21 01:22:01.91	340.08	1.46	-51.3	-66.6	3.6	1.51e+00	0	42	104	1501560832	60	76987
2026-01-21 01:22:05.95	340.22	1.22	-51.4	-66.6	3.6	1.51e+00	0	42	104	1501560832	60	77275
2026-01-21 01:22:09.99	340.35	0.98	-51.5	-66.7	3.6	1.51e+00	0	42	104	1501560832	60	77845
2026-01-21 01:22:14.03	340.48	0.74	-51.4	-66.6	3.6	1.51e+00	0	42	104	1501560832	60	76848
2026-01-21 01:22:18.07	340.61	0.50	-51.5	-66.7	3.6	1.51e+00	0	42	104	1501560832	60	78315
2026-01-21 01:22:22.11	340.74	0.26	-51.6	-66.8	3.6	1.51e+00	0	42	104	1501560832	60	78765
2026-01-21 01:22:26.15	340.86	0.03	-51.6	-66.7	3.6	1.51e+00	0	42	104	1501560832	60	78565

#Closed at: 2026-01-21 01:22:29
#Recorded file [1501 MB]: D:/lorett/data/35029_260121_130709.dat