passes_logs/2026/01/21/R4.6S_Anadyr/R4.6S_Anadyr__20260121_174052_AQUA_rec.log

#Pass ID: 20260121_174052_AQUA
#Satellite: AQUA
#Configuration: AQUA
#almurnet v.1.7.20251203
#Start time: 2026-01-21 17:40:53

#Version: 2.2.20231116
#Station: R4.6S_Anadyr
#Location: 177.4865 lon 64.73178 lat
#TLE: 1 27424U 02022A   26020.90316333  .00002787  00000+0  56766-3 0  9999
#TLE: 2 27424  98.4095 347.4297 0002000  71.6339 309.8236 14.61840001261750

#Time	Az	El	Level	Level2	SNR	BER	BlckErr	Temp	State	Recorded	gain1	gain2
2026-01-21 17:40:53.56	22.04	0.04	-51.6	-63.3	3.5	8.45e-01	0	39	0	0	60	52819
2026-01-21 17:40:57.60	21.89	0.28	-52.5	-70.4	3.5	3.02e+01	0	41	104	0	60	126975
2026-01-21 17:41:01.64	21.74	0.52	-52.2	-70.1	3.5	3.02e+01	0	41	104	0	60	123103
2026-01-21 17:41:05.68	21.58	0.77	-52.1	-70.0	3.5	3.02e+01	0	41	104	0	60	121514
2026-01-21 17:41:09.72	21.42	1.01	-51.9	-69.7	3.5	3.02e+01	0	41	104	0	60	117566
2026-01-21 17:41:13.76	21.26	1.26	-51.2	-69.1	3.5	3.02e+01	0	41	104	0	60	109256
2026-01-21 17:41:17.80	21.10	1.51	-50.3	-68.2	3.5	3.02e+01	0	41	104	0	60	98575
2026-01-21 17:41:21.84	20.93	1.77	-50.4	-68.0	3.5	3.02e+01	0	41	104	0	60	97214
2026-01-21 17:41:25.88	20.76	2.02	-50.3	-68.1	3.5	3.02e+01	0	41	104	0	60	97995
2026-01-21 17:41:29.91	20.58	2.28	-50.3	-68.0	3.5	3.02e+01	0	41	104	0	60	96742
2026-01-21 17:41:33.95	20.40	2.54	-50.3	-68.1	3.5	3.02e+01	0	41	104	0	60	97528
2026-01-21 17:41:37.99	20.22	2.80	-50.3	-68.0	3.5	3.02e+01	0	41	104	0	60	97180
2026-01-21 17:41:42.02	20.03	3.06	-50.2	-67.8	3.5	3.02e+01	0	41	104	0	60	94460
2026-01-21 17:41:46.06	19.84	3.33	-50.2	-67.7	3.5	3.02e+01	0	42	104	0	60	93542
2026-01-21 17:41:50.11	19.64	3.60	-49.8	-66.0	3.5	3.02e+01	0	41	104	0	60	76586
2026-01-21 17:41:54.14	19.44	3.87	-50.0	-66.8	3.5	3.02e+01	0	41	104	0	60	84616
2026-01-21 17:41:58.18	19.24	4.15	-40.7	-51.1	3.5	3.02e+01	0	41	104	0	56	17416
2026-01-21 17:42:02.22	19.03	4.43	-44.3	-55.4	3.5	3.02e+01	0	42	104	0	60	22553
2026-01-21 17:42:06.26	18.82	4.71	-40.8	-51.2	3.5	3.02e+01	0	41	104	0	56	17636
2026-01-21 17:42:10.29	18.60	4.99	-40.4	-50.8	3.5	3.02e+01	0	41	104	0	56	16828
2026-01-21 17:42:14.32	18.38	5.28	-42.7	-53.4	3.5	3.02e+01	0	42	104	0	60	18011
2026-01-21 17:42:18.36	18.15	5.57	-42.4	-53.0	3.5	3.02e+01	0	41	104	0	58	19328
2026-01-21 17:42:22.40	17.91	5.86	-47.2	-59.2	3.5	3.02e+01	0	41	104	0	60	34901
2026-01-21 17:42:26.44	17.67	6.16	-48.0	-60.6	3.5	3.02e+01	0	42	104	0	60	41162
2026-01-21 17:42:30.48	17.43	6.46	-50.7	-68.0	3.5	3.02e+01	0	41	104	0	60	97056
2026-01-21 17:42:34.52	17.18	6.76	-40.4	-50.8	3.5	3.02e+01	0	41	104	0	56	16784
2026-01-21 17:42:38.56	16.92	7.07	-50.4	-66.3	3.5	3.02e+01	0	42	104	0	60	79276
2026-01-21 17:42:42.60	16.65	7.38	-42.8	-53.4	3.5	3.02e+01	0	42	104	0	60	18073
2026-01-21 17:42:46.64	16.38	7.69	-48.6	-61.6	3.5	3.02e+01	0	42	104	0	60	46366
2026-01-21 17:42:50.68	16.11	8.01	-50.6	-66.7	3.5	3.02e+01	0	42	104	0	60	83096
2026-01-21 17:42:54.72	15.82	8.33	-50.8	-67.9	3.5	3.02e+01	0	42	104	0	60	95217
2026-01-21 17:42:58.75	15.53	8.65	-39.9	-50.2	3.5	3.02e+01	0	42	104	0	54	17525
2026-01-21 17:43:02.79	15.23	8.98	-39.8	-50.1	3.5	3.02e+01	0	42	104	0	54	17417
2026-01-21 17:43:06.83	14.92	9.32	-51.0	-68.3	3.5	3.02e+01	0	42	104	0	60	100012
2026-01-21 17:43:10.87	14.61	9.65	-39.6	-49.9	3.5	3.02e+01	0	42	104	0	54	16981
2026-01-21 17:43:14.91	14.28	10.00	-50.9	-67.8	3.5	3.02e+01	0	42	104	0	60	95009
2026-01-21 17:43:18.95	13.95	10.34	-41.4	-51.8	3.5	3.02e+01	0	42	104	0	56	18946
2026-01-21 17:43:22.99	13.61	10.69	-50.6	-67.5	3.5	3.02e+01	0	42	104	0	60	91339
2026-01-21 17:43:27.03	13.26	11.05	-45.6	-56.7	3.5	3.02e+01	0	42	104	0	60	26221
2026-01-21 17:43:31.07	12.90	11.41	-51.2	-68.7	3.5	3.02e+01	0	42	104	0	60	104330
2026-01-21 17:43:35.10	12.53	11.77	-40.9	-51.3	3.5	3.02e+01	0	42	104	0	56	17824
2026-01-21 17:43:39.14	12.14	12.14	-38.6	-48.8	3.5	3.02e+01	0	42	104	0	52	16832
2026-01-21 17:43:43.18	11.75	12.52	-50.7	-66.6	3.6	3.02e+01	0	42	104	0	60	82013
2026-01-21 17:43:47.22	11.35	12.90	-40.3	-50.6	3.5	3.02e+01	0	42	104	0	56	16343
2026-01-21 17:43:51.26	10.93	13.29	-51.0	-67.2	3.5	3.02e+01	0	42	104	0	60	87732
2026-01-21 17:43:55.30	10.50	13.68	-39.4	-49.6	3.6	3.02e+01	0	41	104	0	54	16421
2026-01-21 17:43:59.33	10.06	14.07	-41.9	-52.4	3.5	3.02e+01	0	41	104	0	54	22712
2026-01-21 17:44:03.37	9.61	14.47	-38.3	-48.6	3.5	3.02e+01	0	42	104	0	50	18318
2026-01-21 17:44:07.41	9.14	14.88	-40.7	-51.0	3.6	3.02e+01	0	42	104	0	56	17244
2026-01-21 17:44:11.45	8.66	15.30	-41.2	-51.6	3.5	3.02e+01	0	41	104	0	58	16483
2026-01-21 17:44:15.48	8.16	15.71	-39.1	-49.3	3.5	3.02e+01	0	41	104	0	52	17866
2026-01-21 17:44:19.53	7.65	16.14	-40.6	-50.9	3.6	3.02e+01	0	42	104	0	60	13484
2026-01-21 17:44:23.56	7.12	16.57	-38.2	-48.4	3.5	3.02e+01	0	41	104	0	52	16059
2026-01-21 17:44:27.60	6.57	17.01	-50.1	-64.2	3.5	3.02e+01	0	41	104	0	60	62240
2026-01-21 17:44:31.63	6.01	17.45	-38.8	-49.0	3.5	3.02e+01	0	41	104	0	52	17201
2026-01-21 17:44:35.67	5.43	17.90	-51.1	-67.7	3.5	3.02e+01	0	41	104	0	60	92871
2026-01-21 17:44:39.70	4.83	18.35	-40.9	-51.3	3.6	3.02e+01	0	41	104	0	56	17791
2026-01-21 17:44:43.74	4.21	18.81	-38.9	-49.2	3.6	3.02e+01	0	41	104	0	52	17497
2026-01-21 17:44:47.78	3.57	19.28	-39.4	-49.6	3.5	3.02e+01	0	41	104	0	54	16502
2026-01-21 17:44:51.82	2.90	19.75	-42.0	-52.4	3.5	3.02e+01	0	41	104	0	56	20243
2026-01-21 17:44:55.85	2.22	20.23	-41.9	-52.4	3.5	3.02e+01	0	41	104	0	52	25385
2026-01-21 17:44:59.89	1.51	20.72	-38.3	-48.5	3.6	3.02e+01	0	41	104	0	52	16255
2026-01-21 17:45:03.93	0.77	21.21	-49.2	-62.3	3.5	3.02e+01	0	41	104	0	60	50373
2026-01-21 17:45:07.96	0.01	21.70	-41.8	-52.2	3.5	3.02e+01	0	41	104	0	58	17656
2026-01-21 17:45:12.00	359.23	22.21	-51.5	-69.3	3.5	3.02e+01	0	41	104	0	60	111639
2026-01-21 17:45:16.04	358.41	22.71	-40.4	-50.7	3.5	3.02e+01	0	41	104	0	56	16585
2026-01-21 17:45:20.08	357.57	23.22	-38.5	-48.7	3.5	3.02e+01	0	41	104	0	52	16619
2026-01-21 17:45:24.11	356.70	23.74	-38.8	-49.1	3.5	3.02e+01	0	41	104	0	52	17434
2026-01-21 17:45:28.14	355.80	24.26	-45.7	-56.8	3.5	3.02e+01	0	41	104	0	60	26726
2026-01-21 17:45:32.18	354.86	24.78	-48.3	-60.7	3.6	3.02e+01	0	41	104	0	60	41856
2026-01-21 17:45:36.22	353.89	25.31	-38.7	-48.9	3.5	3.02e+01	0	41	104	0	52	17079
2026-01-21 17:45:40.26	352.89	25.84	-41.7	-52.2	3.4	3.02e+01	0	41	104	0	60	15625
2026-01-21 17:45:44.30	351.85	26.37	-39.1	-49.3	3.5	3.02e+01	0	41	104	0	54	15825
2026-01-21 17:45:48.34	350.77	26.90	-51.5	-68.7	3.5	3.02e+01	0	41	104	0	60	104603
2026-01-21 17:45:52.38	349.65	27.43	-38.2	-48.4	3.5	3.02e+01	0	41	104	0	52	15956
2026-01-21 17:45:56.42	348.49	27.96	-44.4	-55.0	3.7	3.02e+01	0	41	104	0	54	30618
2026-01-21 17:46:00.46	347.30	28.49	-38.9	-49.1	3.5	3.02e+01	0	41	104	0	52	17344
2026-01-21 17:46:04.50	346.06	29.01	-39.3	-49.5	3.5	3.02e+01	0	41	104	0	54	16289
2026-01-21 17:46:08.53	344.78	29.53	-41.9	-52.4	3.4	3.02e+01	0	41	104	0	60	16012
2026-01-21 17:46:12.57	343.46	30.04	-37.6	-47.8	3.5	3.02e+01	0	41	104	0	52	14978
2026-01-21 17:46:16.61	342.09	30.55	-40.1	-50.4	3.5	3.02e+01	0	41	104	0	50	22538
2026-01-21 17:46:20.64	340.67	31.05	-37.5	-47.7	3.5	3.02e+01	0	41	104	0	50	16526
2026-01-21 17:46:24.68	339.22	31.53	-44.0	-54.7	3.5	3.02e+01	0	41	104	0	60	20903
2026-01-21 17:46:28.72	337.71	32.00	-39.7	-50.0	3.5	3.02e+01	0	41	104	0	54	17213
2026-01-21 17:46:32.76	336.16	32.46	-51.5	-68.3	3.5	3.02e+01	0	41	104	0	60	100414
2026-01-21 17:46:36.80	334.56	32.91	-37.8	-47.9	3.5	3.02e+01	0	41	104	0	50	16972
2026-01-21 17:46:40.84	332.92	33.33	-38.1	-48.2	3.5	3.02e+01	0	41	104	0	52	15758
2026-01-21 17:46:44.87	331.24	33.73	-38.6	-48.8	3.5	3.02e+01	0	41	104	0	52	16833
2026-01-21 17:46:48.92	329.51	34.11	-51.4	-68.1	3.5	3.02e+01	0	41	104	0	60	98253
2026-01-21 17:46:52.95	327.74	34.46	-51.0	-66.3	3.5	3.02e+01	0	41	104	0	60	79523
2026-01-21 17:46:56.99	325.94	34.79	-38.8	-49.0	3.5	3.02e+01	0	41	104	0	52	17174
2026-01-21 17:47:01.03	324.10	35.09	-44.7	-55.4	3.6	3.02e+01	0	41	104	0	60	22589
2026-01-21 17:47:05.06	322.22	35.36	-39.3	-49.5	3.5	3.02e+01	0	41	104	0	54	16169
2026-01-21 17:47:09.10	320.32	35.59	-51.6	-68.5	3.5	3.02e+01	0	41	104	0	60	102558
2026-01-21 17:47:13.14	318.38	35.79	-39.3	-49.6	3.5	3.02e+01	0	41	104	0	54	16365
2026-01-21 17:47:17.18	316.43	35.96	-39.7	-50.0	3.5	3.02e+01	0	41	104	0	54	17245
2026-01-21 17:47:21.21	314.46	36.08	-39.5	-49.8	3.5	3.02e+01	0	41	104	0	54	16760
2026-01-21 17:47:25.25	312.47	36.17	-48.2	-60.3	3.5	3.02e+01	0	41	104	0	60	39764
2026-01-21 17:47:29.29	310.47	36.23	-51.5	-68.0	3.5	3.02e+01	0	41	104	0	60	96784
2026-01-21 17:47:33.33	308.47	36.24	-40.9	-51.4	3.5	3.02e+01	0	41	104	0	56	17936
2026-01-21 17:47:37.36	306.48	36.21	-39.4	-49.7	3.6	3.02e+01	0	41	104	0	56	14877
2026-01-21 17:47:41.40	304.48	36.15	-39.1	-49.1	3.5	3.02e+01	0	41	104	0	54	15509
2026-01-21 17:47:45.44	302.50	36.04	-51.0	-67.1	3.6	3.02e+01	0	41	104	0	60	86987
2026-01-21 17:47:49.47	300.53	35.90	-39.9	-50.5	3.5	3.02e+01	0	41	104	0	54	18142
2026-01-21 17:47:53.51	298.58	35.73	-44.0	-54.5	3.5	3.02e+01	0	41	104	0	56	25648
2026-01-21 17:47:57.54	296.66	35.51	-40.5	-50.4	3.5	3.02e+01	0	41	104	0	56	15986
2026-01-21 17:48:01.58	294.76	35.27	-38.6	-40.1	16.7	3.02e+01	0	41	104	0	54	5499
2026-01-21 17:48:05.63	292.89	34.99	-41.9	-43.7	22.9	3.02e+01	61	41	104	2621440	60	5901
2026-01-21 17:48:09.66	291.06	34.68	-40.2	-41.6	27.4	3.02e+01	59	41	0	8912896	54	6502
2026-01-21 17:48:13.69	289.27	34.34	-38.3	-39.5	29.0	3.02e+01	60	41	0	16777216	52	5779
2026-01-21 17:48:17.72	287.52	33.98	-40.3	-41.7	27.2	3.02e+01	59	41	0	24117248	52	7416
2026-01-21 17:48:21.75	285.81	33.59	-38.7	-39.9	28.7	3.02e+01	61	41	0	31981568	52	6026
2026-01-21 17:48:25.79	284.13	33.18	-38.6	-39.8	28.5	3.02e+01	60	41	0	39321600	52	5971
2026-01-21 17:48:29.83	282.50	32.75	-39.0	-40.3	28.3	3.02e+01	61	41	0	46661632	52	6303
2026-01-21 17:48:33.86	280.92	32.30	-38.9	-40.1	28.6	3.02e+01	59	41	0	54525952	52	6172
2026-01-21 17:48:37.90	279.38	31.84	-39.0	-40.3	28.1	3.02e+01	60	41	0	61865984	52	6325
2026-01-21 17:48:41.93	277.89	31.36	-39.2	-40.5	28.1	3.02e+01	61	41	0	69730304	52	6439
2026-01-21 17:48:45.96	276.45	30.87	-39.1	-40.4	27.5	3.02e+01	61	41	0	77070336	52	6388
2026-01-21 17:48:50.00	275.04	30.37	-39.0	-40.3	27.1	3.02e+01	63	41	0	84934656	52	6341
2026-01-21 17:48:54.04	273.69	29.86	-39.5	-40.9	27.0	3.02e+01	61	41	0	92274688	52	6776
2026-01-21 17:48:58.07	272.38	29.34	-37.9	-39.1	28.4	3.02e+01	58	41	0	99614720	50	6141
2026-01-21 17:49:02.11	271.10	28.82	-38.8	-40.0	28.0	3.02e+01	48	41	0	107479040	52	6084
2026-01-21 17:49:06.15	269.88	28.29	-39.5	-40.8	27.5	3.02e+01	60	41	0	114819072	52	6711
2026-01-21 17:49:10.19	268.69	27.76	-38.8	-40.1	28.1	3.02e+01	53	41	0	122683392	52	6135
2026-01-21 17:49:14.23	267.54	27.23	-38.3	-39.5	28.8	3.02e+01	60	41	0	130023424	52	5757
2026-01-21 17:49:18.27	266.44	26.69	-38.2	-39.4	29.0	3.02e+01	50	41	0	137887744	52	5690
2026-01-21 17:49:22.31	265.37	26.16	-38.2	-39.4	29.0	3.02e+01	63	41	0	145227776	52	5713
2026-01-21 17:49:26.35	264.34	25.63	-38.5	-39.6	29.0	3.02e+01	49	41	0	153092096	52	5850
2026-01-21 17:49:30.39	263.34	25.10	-38.7	-40.0	28.5	3.02e+01	57	41	0	160432128	52	6073
2026-01-21 17:49:34.43	262.38	24.57	-38.8	-40.0	28.4	3.02e+01	55	41	0	167772160	52	6126
2026-01-21 17:49:38.47	261.45	24.05	-38.9	-40.2	28.5	3.02e+01	62	41	0	175636480	52	6213
2026-01-21 17:49:42.50	260.55	23.53	-38.8	-40.1	28.5	3.02e+01	54	41	0	182976512	52	6148
2026-01-21 17:49:46.53	259.69	23.01	-38.7	-40.0	28.6	3.02e+01	57	41	0	190840832	52	6090
2026-01-21 17:49:50.57	258.85	22.50	-38.6	-39.9	28.7	3.02e+01	44	41	0	198180864	52	6000
2026-01-21 17:49:54.60	258.05	22.00	-38.7	-39.9	28.6	3.02e+01	59	41	0	206045184	52	6056
2026-01-21 17:49:58.64	257.27	21.49	-39.0	-40.2	28.3	3.02e+01	52	41	0	213385216	52	6263
2026-01-21 17:50:02.68	256.51	21.00	-38.4	-39.6	28.9	3.02e+01	60	41	0	221249536	52	5831
2026-01-21 17:50:06.72	255.78	20.51	-38.8	-40.1	28.5	3.02e+01	44	41	0	228589568	52	6137
2026-01-21 17:50:10.76	255.08	20.02	-38.4	-39.7	28.8	3.02e+01	54	41	0	235929600	52	5865
2026-01-21 17:50:14.80	254.40	19.54	-38.5	-39.8	28.7	3.02e+01	60	41	0	243793920	52	5946
2026-01-21 17:50:18.84	253.74	19.07	-38.8	-40.0	28.5	3.02e+01	60	41	0	251133952	52	6122
2026-01-21 17:50:22.88	253.10	18.60	-38.5	-39.8	28.6	3.02e+01	56	41	0	258998272	52	5931
2026-01-21 17:50:26.92	252.48	18.14	-38.9	-40.1	28.5	3.02e+01	59	41	0	266338304	52	6191
2026-01-21 17:50:30.96	251.89	17.69	-38.4	-39.7	28.8	3.02e+01	60	41	0	274202624	52	5865
2026-01-21 17:50:34.99	251.31	17.24	-38.6	-39.8	28.6	3.02e+01	57	41	0	281542656	52	5994
2026-01-21 17:50:39.03	250.75	16.80	-38.5	-39.7	28.8	3.02e+01	59	41	0	289406976	52	5883
2026-01-21 17:50:43.07	250.21	16.36	-38.9	-40.1	28.4	3.02e+01	59	41	0	296747008	52	6197
2026-01-21 17:50:47.10	249.68	15.93	-39.1	-40.3	28.1	3.02e+01	56	41	0	304087040	52	6349
2026-01-21 17:50:51.14	249.17	15.51	-38.7	-39.9	28.6	3.02e+01	60	41	0	311951360	52	6025
2026-01-21 17:50:55.18	248.68	15.09	-38.8	-40.0	28.5	3.02e+01	59	41	0	319291392	52	6119
2026-01-21 17:50:59.22	248.20	14.68	-38.8	-40.1	28.4	3.02e+01	59	41	0	327155712	52	6175
2026-01-21 17:51:03.26	247.73	14.27	-38.6	-39.8	28.6	3.02e+01	58	41	0	334495744	52	5951
2026-01-21 17:51:07.29	247.28	13.87	-38.8	-40.1	28.4	3.02e+01	56	41	0	342360064	52	6143
2026-01-21 17:51:11.33	246.84	13.47	-38.9	-40.2	28.1	3.02e+01	57	41	0	349700096	52	6229
2026-01-21 17:51:15.37	246.41	13.08	-38.8	-40.1	28.2	3.02e+01	60	41	0	357040128	52	6140
2026-01-21 17:51:19.40	246.00	12.70	-39.0	-40.3	28.0	3.02e+01	61	41	0	364904448	52	6306
2026-01-21 17:51:23.44	245.60	12.32	-39.3	-40.6	27.8	3.02e+01	56	41	0	372244480	52	6507
2026-01-21 17:51:27.48	245.20	11.94	-39.5	-40.7	27.7	3.02e+01	52	41	0	380108800	52	6647
2026-01-21 17:51:31.52	244.82	11.57	-39.5	-40.8	27.6	3.02e+01	47	41	0	387448832	52	6699
2026-01-21 17:51:35.55	244.45	11.21	-39.6	-40.9	27.4	3.02e+01	58	41	0	395313152	52	6755
2026-01-21 17:51:39.59	244.09	10.85	-40.0	-41.3	26.9	3.02e+01	57	41	0	402653184	54	6346
2026-01-21 17:51:43.63	243.74	10.50	-40.4	-41.8	26.4	3.02e+01	61	41	0	410517504	54	6672
2026-01-21 17:51:47.67	243.40	10.15	-40.6	-42.0	26.3	3.02e+01	44	41	0	417857536	54	6811
2026-01-21 17:51:51.71	243.07	9.80	-41.1	-42.6	25.7	3.02e+01	60	41	0	425197568	56	6535
2026-01-21 17:51:55.74	242.75	9.46	-41.8	-43.3	25.0	3.02e+01	58	41	0	433061888	58	6316
2026-01-21 17:51:59.78	242.43	9.12	-42.1	-43.7	24.4	3.02e+01	60	41	0	440401920	58	6609
2026-01-21 17:52:03.82	242.12	8.79	-42.6	-44.4	23.8	3.02e+01	54	41	0	448266240	58	7141
2026-01-21 17:52:07.86	241.82	8.46	-43.3	-45.1	23.1	3.02e+01	60	41	0	455606272	60	6936
2026-01-21 17:52:11.89	241.53	8.14	-44.1	-46.1	22.2	3.02e+01	50	41	0	463470592	60	7786
2026-01-21 17:52:15.92	241.25	7.82	-44.6	-46.7	21.4	3.02e+01	60	41	0	470810624	60	8368
2026-01-21 17:52:19.96	240.97	7.50	-44.9	-47.3	20.8	3.02e+01	50	41	0	478150656	60	8901
2026-01-21 17:52:23.99	240.70	7.19	-45.4	-48.1	19.9	3.02e+01	62	41	0	486014976	60	9752
2026-01-21 17:52:28.03	240.43	6.88	-46.0	-49.0	19.0	3.02e+01	46	41	0	493355008	60	10796
2026-01-21 17:52:32.07	240.18	6.57	-46.6	-50.0	18.0	3.02e+01	59	41	0	501219328	60	12200
2026-01-21 17:52:36.10	239.92	6.27	-46.7	-51.0	16.7	3.02e+01	44	41	0	508559360	60	13715
2026-01-21 17:52:40.14	239.68	5.97	-48.0	-52.7	15.1	3.02e+01	61	41	0	516423680	60	16679
2026-01-21 17:52:44.17	239.44	5.68	-48.1	-53.8	13.8	3.02e+01	59	42	0	523763712	60	18747
2026-01-21 17:52:48.21	239.20	5.38	-48.6	-55.1	12.5	3.02e+01	57	41	0	531103744	60	22016
2026-01-21 17:52:52.25	238.97	5.09	-49.1	-56.7	10.5	3.02e+01	57	41	0	538968064	60	26258
2026-01-21 17:52:56.28	238.75	4.81	-49.4	-57.9	9.0	3.02e+01	59	42	0	546308096	60	30128
2026-01-21 17:53:00.31	238.53	4.52	-48.9	-59.5	6.8	3.02e+01	90	42	0	554172416	60	36494
2026-01-21 17:53:04.35	238.31	4.24	-48.8	-61.9	5.7	3.02e+01	82	42	104	559939584	60	47751
2026-01-21 17:53:08.39	238.10	3.97	-49.2	-63.5	4.5	3.02e+01	0	42	104	559939584	60	57566
2026-01-21 17:53:12.43	237.90	3.69	-49.2	-65.9	3.6	3.02e+01	0	42	104	559939584	60	75866
2026-01-21 17:53:16.46	237.69	3.42	-49.4	-65.4	3.6	3.02e+01	0	42	104	559939584	60	71927
2026-01-21 17:53:20.49	237.50	3.15	-48.7	-67.2	3.5	3.02e+01	0	42	104	559939584	60	88247
2026-01-21 17:53:24.53	237.30	2.88	-51.3	-69.1	3.5	3.02e+01	0	42	104	559939584	60	109273
2026-01-21 17:53:28.57	237.12	2.62	-51.9	-69.7	3.5	3.02e+01	0	42	104	559939584	60	118126
2026-01-21 17:53:32.61	236.93	2.36	-52.1	-69.9	3.5	3.02e+01	0	42	104	559939584	60	120180
2026-01-21 17:53:36.65	236.75	2.10	-52.0	-69.8	3.5	3.02e+01	0	42	104	559939584	60	118793
2026-01-21 17:53:40.69	236.57	1.84	-51.9	-69.8	3.5	3.02e+01	0	42	104	559939584	60	118351
2026-01-21 17:53:44.73	236.40	1.59	-52.0	-69.8	3.5	3.02e+01	0	42	104	559939584	60	119390
2026-01-21 17:53:48.76	236.23	1.33	-52.1	-69.9	3.5	3.02e+01	0	42	104	559939584	60	120272
2026-01-21 17:53:52.80	236.06	1.08	-52.0	-69.8	3.5	3.02e+01	0	41	104	559939584	60	119213
2026-01-21 17:53:56.84	235.89	0.84	-52.1	-69.9	3.5	3.02e+01	0	42	104	559939584	60	120935
2026-01-21 17:54:00.88	235.73	0.59	-52.2	-70.0	3.5	3.02e+01	0	42	104	559939584	60	121470
2026-01-21 17:54:04.92	235.58	0.34	-52.3	-70.1	3.5	3.02e+01	0	42	104	559939584	60	123263
2026-01-21 17:54:08.96	235.42	0.10	-52.3	-70.1	3.5	3.02e+01	0	42	104	559939584	60	123360

#Closed at: 2026-01-21 17:54:12
#Recorded file [559 MB]: D:/lorett/data/35029_260122_054053.dat