passes_logs/2026/01/21/R4.6S_Anadyr/R4.6S_Anadyr__20260121_014420_FENGYUN_3D_rec.log

#Pass ID: 20260121_014420_FENGYUN 3D
#Satellite: FENGYUN 3D
#Configuration: FENGYUN 3D
#almurnet v.1.7.20251203
#Start time: 2026-01-21 01:44:23

#Version: 2.2.20231116
#Station: R4.6S_Anadyr
#Location: 177.4865 lon 64.73178 lat
#TLE: 1 43010U 17072A   26020.28933472  .00000051  00000+0  46008-4 0  9990
#TLE: 2 43010  98.9944 352.1871 0002476  99.7001 260.4455 14.19696838424006

#Time	Az	El	Level	Level2	SNR	BER	BlckErr	Temp	State	Recorded	gain1	gain2
2026-01-21 01:44:23.71	142.98	0.18	-53.8	-64.5	3.3	8.40e-01	0	40	0	0	60	60695
2026-01-21 01:44:27.74	142.93	0.43	-51.9	-64.1	3.6	8.45e-01	0	40	104	0	60	58121
2026-01-21 01:44:31.78	142.89	0.67	-51.5	-63.7	3.6	8.45e-01	0	40	104	0	60	55076
2026-01-21 01:44:35.82	142.84	0.92	-51.7	-63.9	3.6	8.46e-01	0	40	104	0	60	56825
2026-01-21 01:44:39.86	142.79	1.17	-50.8	-62.9	3.6	8.44e-01	0	40	104	0	60	50418
2026-01-21 01:44:43.90	142.74	1.42	-49.1	-61.5	3.6	8.46e-01	0	40	104	0	60	42775
2026-01-21 01:44:47.94	142.69	1.68	-48.4	-60.4	3.5	8.46e-01	0	40	104	0	60	38040
2026-01-21 01:44:51.98	142.64	1.94	-48.1	-60.5	3.6	8.47e-01	0	40	104	0	60	38280
2026-01-21 01:44:56.01	142.59	2.19	-48.3	-60.7	3.6	8.47e-01	0	40	104	0	60	39190
2026-01-21 01:45:00.05	142.54	2.46	-48.2	-60.5	3.6	8.45e-01	0	41	104	0	60	38230
2026-01-21 01:45:04.09	142.48	2.72	-47.9	-60.3	3.6	8.46e-01	0	40	104	0	60	37220
2026-01-21 01:45:08.13	142.43	2.99	-47.8	-57.8	3.6	8.46e-01	0	40	104	0	60	28105
2026-01-21 01:45:12.17	142.37	3.26	-47.6	-56.5	4.1	8.93e-01	0	40	104	0	60	24021
2026-01-21 01:45:16.21	142.31	3.53	-47.3	-52.8	6.0	3.50e-01	0	41	0	5242880	60	15811
2026-01-21 01:45:20.24	142.25	3.80	-47.9	-57.2	4.0	8.43e-01	0	41	104	16777216	60	26313
2026-01-21 01:45:24.28	142.19	4.08	-44.5	-47.0	12.4	1.34e-01	0	41	104	18874368	60	8095
2026-01-21 01:45:28.33	142.13	4.36	-45.2	-47.8	11.7	1.53e-04	0	41	0	39845888	60	8910
2026-01-21 01:45:32.36	142.07	4.64	-45.0	-47.3	12.3	1.83e-04	0	41	0	61865984	60	8390
2026-01-21 01:45:36.40	142.00	4.93	-44.9	-47.3	12.6	3.16e-04	0	41	0	84934656	60	8415
2026-01-21 01:45:40.44	141.94	5.21	-44.9	-47.1	12.7	3.54e-04	0	41	0	108003328	60	8231
2026-01-21 01:45:44.48	141.87	5.51	-44.5	-46.7	12.6	2.70e-04	0	41	0	131072000	60	7804
2026-01-21 01:45:48.52	141.80	5.80	-44.1	-46.0	13.5	3.23e-04	0	41	0	153092096	60	7232
2026-01-21 01:45:52.56	141.73	6.10	-44.3	-46.1	13.5	3.47e-03	0	41	0	176160768	60	7313
2026-01-21 01:45:56.60	141.65	6.40	-44.1	-45.8	14.4	3.64e-03	0	41	0	199229440	60	7044
2026-01-21 01:46:00.64	141.58	6.71	-43.3	-44.8	15.5	6.88e-04	0	41	0	221249536	60	6272
2026-01-21 01:46:04.68	141.50	7.02	-42.7	-44.2	16.0	4.50e-06	0	41	0	244318208	58	6568
2026-01-21 01:46:08.72	141.42	7.33	-42.4	-43.6	17.3	0.00e+00	0	41	0	267386880	58	6147
2026-01-21 01:46:12.76	141.34	7.65	-41.9	-43.1	17.5	0.00e+00	0	41	0	289406976	58	5823
2026-01-21 01:46:16.80	141.26	7.97	-41.7	-42.9	17.7	0.00e+00	0	41	0	312475648	56	6368
2026-01-21 01:46:20.84	141.17	8.29	-40.8	-41.8	19.5	0.00e+00	0	41	0	335544320	54	6315
2026-01-21 01:46:24.88	141.09	8.62	-41.4	-42.4	19.2	0.00e+00	0	41	0	357564416	54	6742
2026-01-21 01:46:28.92	141.00	8.95	-39.9	-40.9	20.6	0.00e+00	0	41	0	380633088	54	5632
2026-01-21 01:46:32.96	140.91	9.29	-40.1	-41.1	19.9	0.00e+00	0	41	0	403701760	52	6478
2026-01-21 01:46:36.99	140.81	9.63	-40.3	-41.3	19.8	0.00e+00	0	41	0	425721856	52	6620
2026-01-21 01:46:41.03	140.71	9.98	-39.8	-40.7	20.8	0.00e+00	0	41	0	448790528	52	6219
2026-01-21 01:46:45.07	140.62	10.33	-39.1	-40.0	20.9	0.00e+00	0	41	0	470810624	52	5737
2026-01-21 01:46:49.11	140.51	10.69	-38.6	-39.4	21.6	0.00e+00	0	41	0	493879296	50	6015
2026-01-21 01:46:53.15	140.41	11.05	-38.3	-39.2	21.8	0.00e+00	0	41	0	516947968	50	5834
2026-01-21 01:46:57.18	140.30	11.41	-38.5	-39.3	22.2	0.00e+00	0	41	0	540016640	50	5901
2026-01-21 01:47:01.22	140.19	11.79	-38.7	-39.5	22.4	0.00e+00	0	41	0	562036736	50	6081
2026-01-21 01:47:05.26	140.08	12.16	-37.5	-38.2	23.2	0.00e+00	0	41	0	585105408	48	5882
2026-01-21 01:47:09.29	139.96	12.55	-37.9	-38.7	22.9	0.00e+00	0	41	0	608174080	48	6181
2026-01-21 01:47:13.34	139.84	12.94	-37.6	-38.3	23.7	0.00e+00	0	41	0	630194176	48	5903
2026-01-21 01:47:17.37	139.71	13.33	-36.4	-37.1	24.8	0.00e+00	0	41	0	653262848	46	5768
2026-01-21 01:47:21.41	139.58	13.73	-37.2	-37.9	24.1	0.00e+00	0	41	0	676331520	46	6365
2026-01-21 01:47:25.45	139.45	14.14	-37.3	-38.0	24.1	0.00e+00	0	41	0	698351616	46	6426
2026-01-21 01:47:29.49	139.32	14.56	-35.9	-36.5	25.4	0.00e+00	0	41	0	721420288	46	5432
2026-01-21 01:47:33.53	139.17	14.98	-35.7	-36.4	25.5	0.00e+00	0	41	0	744488960	44	5990
2026-01-21 01:47:37.57	139.03	15.41	-35.7	-36.4	25.7	0.00e+00	0	41	0	766509056	44	5977
2026-01-21 01:47:41.61	138.88	15.85	-35.4	-36.1	26.0	0.00e+00	0	41	0	789577728	44	5776
2026-01-21 01:47:45.65	138.73	16.30	-35.4	-36.0	26.3	0.00e+00	0	41	0	812646400	44	5761
2026-01-21 01:47:49.69	138.57	16.75	-34.6	-35.3	26.3	0.00e+00	0	41	0	834666496	42	5941
2026-01-21 01:47:53.74	138.40	17.21	-34.4	-35.0	26.4	0.00e+00	0	41	0	857735168	42	5747
2026-01-21 01:47:57.78	138.23	17.68	-34.9	-35.5	26.6	0.00e+00	0	41	0	880803840	42	6099
2026-01-21 01:48:01.82	138.05	18.16	-34.8	-35.4	26.8	0.00e+00	0	41	0	902823936	42	5996
2026-01-21 01:48:05.86	137.87	18.65	-34.4	-35.0	26.8	0.00e+00	0	41	0	925892608	42	5758
2026-01-21 01:48:09.90	137.68	19.15	-36.1	-36.7	26.1	0.00e+00	0	41	0	948961280	42	6999
2026-01-21 01:48:13.93	137.49	19.66	-34.8	-35.4	27.0	0.00e+00	0	41	0	970981376	42	6010
2026-01-21 01:48:17.98	137.28	20.18	-35.0	-35.6	26.8	0.00e+00	0	41	0	994050048	42	6148
2026-01-21 01:48:22.02	137.07	20.71	-34.6	-35.2	26.8	0.00e+00	0	41	0	1017118720	42	5868
2026-01-21 01:48:26.06	136.86	21.25	-35.0	-35.7	26.6	0.00e+00	0	41	0	1039138816	42	6180
2026-01-21 01:48:30.10	136.63	21.80	-34.5	-35.1	27.1	0.00e+00	0	41	0	1062207488	42	5826
2026-01-21 01:48:34.14	136.40	22.36	-33.9	-34.5	27.4	0.00e+00	0	41	0	1085276160	42	5412
2026-01-21 01:48:38.17	136.15	22.93	-33.7	-34.3	27.7	0.00e+00	0	41	0	1107296256	40	5940
2026-01-21 01:48:42.21	135.90	23.52	-33.2	-33.8	27.6	0.00e+00	0	41	0	1130364928	40	5619
2026-01-21 01:48:46.25	135.63	24.12	-33.5	-34.1	27.6	0.00e+00	0	41	0	1153433600	40	5792
2026-01-21 01:48:50.29	135.36	24.73	-33.1	-33.8	27.6	0.00e+00	0	41	0	1175453696	40	5585
2026-01-21 01:48:54.33	135.07	25.36	-33.3	-34.0	27.8	0.00e+00	0	41	0	1198522368	40	5709
2026-01-21 01:48:58.36	134.77	26.00	-33.2	-33.8	27.7	0.00e+00	0	41	0	1221591040	40	5583
2026-01-21 01:49:02.40	134.46	26.66	-32.9	-33.5	27.8	0.00e+00	0	41	0	1243611136	38	6073
2026-01-21 01:49:06.44	134.14	27.33	-33.6	-34.3	27.3	0.00e+00	0	41	0	1266679808	40	5917
2026-01-21 01:49:10.48	133.80	28.02	-33.0	-33.6	27.8	0.00e+00	0	41	0	1289748480	40	5467
2026-01-21 01:49:14.52	133.44	28.72	-33.3	-33.9	27.5	0.00e+00	0	41	0	1311768576	40	5669
2026-01-21 01:49:18.56	133.07	29.44	-34.1	-34.8	27.1	0.00e+00	0	41	0	1334837248	42	5573
2026-01-21 01:49:22.60	132.68	30.18	-33.5	-34.1	28.1	0.00e+00	0	41	0	1357905920	40	5787
2026-01-21 01:49:26.64	132.27	30.94	-32.9	-33.6	27.9	0.00e+00	0	41	0	1379926016	38	6104
2026-01-21 01:49:30.67	131.84	31.71	-32.9	-33.5	28.0	0.00e+00	0	41	0	1402994688	38	6064
2026-01-21 01:49:34.71	131.39	32.50	-32.3	-32.9	28.3	0.00e+00	0	41	0	1426063360	38	5674
2026-01-21 01:49:38.75	130.91	33.31	-32.6	-33.3	28.4	0.00e+00	0	41	0	1448083456	38	5923
2026-01-21 01:49:42.79	130.41	34.14	-33.3	-33.9	28.0	0.00e+00	0	41	0	1471152128	38	6361
2026-01-21 01:49:46.83	129.89	35.00	-33.0	-33.6	28.3	0.00e+00	0	41	0	1494220800	40	5467
2026-01-21 01:49:50.86	129.33	35.87	-33.0	-33.6	28.6	0.00e+00	0	41	0	1516240896	38	6110
2026-01-21 01:49:54.90	128.74	36.76	-33.4	-34.0	28.2	0.00e+00	0	41	0	1539309568	38	6442
2026-01-21 01:49:58.94	128.12	37.68	-33.9	-34.5	27.3	0.00e+00	0	41	0	1562378240	40	6081
2026-01-21 01:50:02.99	127.46	38.61	-33.8	-34.4	28.2	0.00e+00	0	41	0	1584398336	40	6012
2026-01-21 01:50:07.03	126.76	39.57	-33.3	-33.9	28.3	0.00e+00	0	41	0	1607467008	40	5685
2026-01-21 01:50:11.07	126.01	40.55	-33.0	-33.7	28.0	0.00e+00	0	41	0	1630535680	38	6182
2026-01-21 01:50:15.11	125.22	41.55	-32.6	-33.3	28.2	0.00e+00	0	41	0	1652555776	38	5901
2026-01-21 01:50:19.15	124.38	42.57	-33.3	-33.9	27.9	0.00e+00	0	41	0	1675624448	38	6387
2026-01-21 01:50:23.18	123.48	43.61	-33.0	-33.6	27.9	0.00e+00	0	41	0	1698693120	40	5493
2026-01-21 01:50:27.22	122.52	44.68	-33.5	-34.1	27.7	0.00e+00	0	41	0	1720713216	40	5794
2026-01-21 01:50:31.27	121.49	45.76	-33.6	-34.1	27.4	0.00e+00	0	41	0	1743781888	40	5822
2026-01-21 01:50:35.31	120.39	46.86	-34.1	-34.7	27.7	0.00e+00	0	41	0	1766850560	40	6221
2026-01-21 01:50:39.35	119.20	47.98	-33.9	-34.5	27.8	0.00e+00	0	41	0	1788870656	40	6089
2026-01-21 01:50:43.39	117.92	49.11	-33.6	-34.3	27.8	0.00e+00	0	41	0	1811939328	40	5916
2026-01-21 01:50:47.43	116.55	50.26	-34.4	-35.1	27.1	0.00e+00	0	41	0	1835008000	42	5811
2026-01-21 01:50:51.47	115.06	51.41	-34.6	-35.2	27.1	0.00e+00	0	41	0	1858076672	42	5880
2026-01-21 01:50:55.51	113.46	52.57	-34.4	-35.1	27.3	0.00e+00	0	41	0	1880096768	42	5768
2026-01-21 01:50:59.55	111.72	53.74	-34.4	-35.1	27.2	0.00e+00	0	41	0	1903165440	42	5814
2026-01-21 01:51:03.59	109.84	54.90	-34.3	-34.9	27.6	0.00e+00	0	41	0	1925185536	42	5668
2026-01-21 01:51:07.63	107.79	56.05	-35.1	-35.7	27.0	0.00e+00	0	41	0	1948254208	42	6226
2026-01-21 01:51:11.67	105.57	57.18	-34.6	-35.3	27.3	0.00e+00	0	41	0	1971322880	42	5932
2026-01-21 01:51:15.71	103.16	58.30	-34.1	-34.7	27.6	0.00e+00	0	41	0	1993342976	42	5557
2026-01-21 01:51:19.75	100.54	59.38	-35.0	-35.7	27.3	0.00e+00	0	41	0	2016411648	42	6184
2026-01-21 01:51:23.79	97.70	60.42	-34.6	-35.2	27.5	0.00e+00	0	41	0	2039480320	42	5883
2026-01-21 01:51:27.83	94.62	61.41	-33.5	-34.1	27.9	0.00e+00	0	41	0	2062548992	40	5797
2026-01-21 01:51:31.87	91.29	62.33	-33.2	-33.8	28.1	0.00e+00	0	42	0	2084569088	40	5626
2026-01-21 01:51:35.91	87.71	63.18	-33.4	-34.1	28.0	0.00e+00	0	41	0	2107637760	40	5768
2026-01-21 01:51:39.95	83.88	63.93	-33.6	-34.2	28.3	0.00e+00	0	41	0	2129657856	40	5851
2026-01-21 01:51:43.99	79.81	64.59	-32.9	-33.5	28.6	0.00e+00	0	41	0	2152726528	38	6102
2026-01-21 01:51:48.03	75.53	65.12	-32.4	-33.0	28.8	0.00e+00	0	41	0	2175795200	38	5750
2026-01-21 01:51:52.07	71.05	65.53	-33.1	-33.7	28.3	0.00e+00	0	42	0	2198863872	40	5519
2026-01-21 01:51:56.11	66.44	65.79	-32.5	-33.1	29.0	0.00e+00	0	41	0	2220883968	38	5780
2026-01-21 01:52:00.15	61.75	65.92	-32.0	-32.6	29.1	0.00e+00	0	41	0	2243952640	36	6123
2026-01-21 01:52:04.19	57.04	65.89	-32.2	-32.8	28.5	0.00e+00	0	41	0	2267021312	36	6271
2026-01-21 01:52:08.22	52.38	65.72	-31.4	-32.1	28.7	0.00e+00	0	41	0	2289041408	36	5774
2026-01-21 01:52:12.26	47.82	65.40	-31.2	-31.8	29.1	0.00e+00	0	41	0	2312110080	36	5599
2026-01-21 01:52:16.30	43.41	64.95	-32.6	-33.1	28.9	0.00e+00	0	41	0	2334130176	36	6514
2026-01-21 01:52:20.34	39.19	64.38	-32.6	-33.1	28.5	0.00e+00	0	42	0	2357198848	38	5827
2026-01-21 01:52:24.38	35.21	63.69	-32.0	-32.7	28.5	0.00e+00	0	41	0	2380267520	38	5523
2026-01-21 01:52:28.41	31.48	62.90	-32.9	-33.5	28.3	0.00e+00	0	41	0	2402287616	38	6048
2026-01-21 01:52:32.45	27.99	62.03	-32.8	-33.5	28.5	0.00e+00	0	41	0	2425356288	38	6043
2026-01-21 01:52:36.49	24.75	61.08	-32.4	-32.9	28.6	0.00e+00	0	42	0	2448424960	38	5689
2026-01-21 01:52:40.54	21.75	60.08	-33.7	-34.3	28.1	0.00e+00	0	41	0	2471493632	40	5938
2026-01-21 01:52:44.58	18.98	59.02	-33.0	-33.6	28.0	0.00e+00	0	42	0	2493513728	40	5464
2026-01-21 01:52:48.62	16.44	57.93	-33.1	-33.7	28.0	0.00e+00	0	42	0	2516582400	38	6201
2026-01-21 01:52:52.66	14.10	56.81	-33.9	-34.5	27.8	0.00e+00	0	41	0	2538602496	40	6084
2026-01-21 01:52:56.69	11.95	55.67	-33.7	-34.3	28.0	0.00e+00	0	41	0	2561671168	40	5936
2026-01-21 01:53:00.74	9.96	54.52	-34.3	-34.9	27.9	0.00e+00	0	42	0	2584739840	42	5675
2026-01-21 01:53:04.78	8.13	53.36	-34.2	-34.9	27.8	0.00e+00	0	42	0	2607808512	40	6386
2026-01-21 01:53:08.82	6.44	52.20	-34.5	-35.2	27.8	0.00e+00	0	42	0	2629828608	40	6568
2026-01-21 01:53:12.86	4.88	51.05	-33.2	-33.8	27.8	0.00e+00	0	42	0	2652897280	40	5586
2026-01-21 01:53:16.90	3.44	49.90	-33.3	-34.0	27.8	0.00e+00	0	42	0	2675965952	40	5722
2026-01-21 01:53:20.93	2.10	48.76	-33.9	-34.5	27.6	0.00e+00	0	41	0	2697986048	40	6046
2026-01-21 01:53:24.97	0.86	47.64	-33.1	-33.6	28.4	0.00e+00	0	42	0	2721054720	40	5500
2026-01-21 01:53:29.01	359.70	46.53	-33.6	-34.4	27.7	0.00e+00	0	42	0	2743074816	40	5972
2026-01-21 01:53:33.05	358.63	45.44	-32.2	-32.7	28.3	0.00e+00	0	41	0	2766143488	38	5559
2026-01-21 01:53:37.10	357.62	44.36	-32.3	-32.9	28.5	0.00e+00	0	41	0	2789212160	38	5687
2026-01-21 01:53:41.14	356.68	43.31	-32.4	-32.9	28.3	0.00e+00	0	41	0	2812280832	38	5692
2026-01-21 01:53:45.17	355.81	42.28	-32.4	-33.1	28.6	0.00e+00	0	41	0	2834300928	38	5803
2026-01-21 01:53:49.22	354.98	41.26	-32.9	-33.5	28.3	0.00e+00	0	42	0	2857369600	38	6047
2026-01-21 01:53:53.26	354.21	40.27	-33.1	-33.6	28.2	0.00e+00	0	42	0	2880438272	38	6155
2026-01-21 01:53:57.30	353.48	39.30	-32.7	-33.4	28.5	0.00e+00	0	42	0	2902458368	38	5972
2026-01-21 01:54:01.34	352.80	38.36	-32.1	-32.8	28.6	0.00e+00	0	42	0	2925527040	38	5608
2026-01-21 01:54:05.39	352.15	37.43	-32.1	-32.7	28.8	0.00e+00	0	42	0	2948595712	38	5561
2026-01-21 01:54:09.43	351.54	36.52	-32.0	-32.6	28.5	0.00e+00	0	42	0	2970615808	38	5447
2026-01-21 01:54:13.47	350.97	35.64	-32.6	-33.3	28.4	0.00e+00	0	42	0	2993684480	38	5946
2026-01-21 01:54:17.51	350.42	34.78	-32.3	-32.8	28.5	0.00e+00	0	42	0	3016753152	38	5628
2026-01-21 01:54:21.55	349.91	33.93	-33.3	-33.8	28.2	0.00e+00	0	42	0	3038773248	38	6307
2026-01-21 01:54:25.60	349.41	33.11	-33.7	-34.4	28.1	0.00e+00	0	42	0	3061841920	40	5971
2026-01-21 01:54:29.64	348.95	32.31	-32.3	-32.8	28.4	0.00e+00	0	42	0	3084910592	38	5629
2026-01-21 01:54:33.68	348.51	31.52	-32.9	-33.4	28.4	0.00e+00	0	42	0	3107979264	38	6029
2026-01-21 01:54:37.72	348.09	30.76	-32.5	-33.1	28.4	0.00e+00	0	42	0	3129999360	38	5786
2026-01-21 01:54:41.75	347.69	30.01	-32.7	-33.2	28.3	0.00e+00	0	42	0	3153068032	38	5887
2026-01-21 01:54:45.79	347.30	29.28	-33.0	-33.7	28.1	0.00e+00	0	42	0	3175088128	38	6210
2026-01-21 01:54:49.83	346.94	28.57	-33.5	-34.0	28.1	0.00e+00	0	42	0	3198156800	40	5728
2026-01-21 01:54:53.86	346.59	27.87	-33.9	-34.6	28.0	0.00e+00	0	42	0	3221225472	40	6121
2026-01-21 01:54:57.90	346.26	27.19	-33.2	-33.9	28.0	0.00e+00	0	42	0	3243245568	40	5648
2026-01-21 01:55:01.94	345.94	26.53	-34.1	-34.6	27.6	0.00e+00	0	42	0	3266314240	42	5500
2026-01-21 01:55:05.98	345.63	25.88	-34.6	-35.3	27.6	0.00e+00	0	42	0	3289382912	40	6635
2026-01-21 01:55:10.02	345.34	25.24	-34.2	-34.8	27.7	0.00e+00	0	42	0	3312451584	42	5572
2026-01-21 01:55:14.06	345.06	24.62	-33.9	-34.5	27.7	0.00e+00	0	42	0	3334471680	40	6035
2026-01-21 01:55:18.10	344.79	24.01	-34.6	-35.1	27.4	0.00e+00	0	42	0	3357540352	42	5826
2026-01-21 01:55:22.13	344.53	23.42	-34.2	-34.8	27.6	0.00e+00	0	42	0	3379560448	40	6297
2026-01-21 01:55:26.17	344.28	22.84	-34.3	-34.8	27.5	0.00e+00	0	42	0	3402629120	40	6316
2026-01-21 01:55:30.21	344.04	22.27	-34.3	-35.1	27.0	0.00e+00	0	42	0	3425697792	42	5768
2026-01-21 01:55:34.26	343.81	21.71	-34.7	-35.4	27.3	0.00e+00	0	42	0	3447717888	42	6018
2026-01-21 01:55:38.30	343.59	21.17	-34.9	-35.6	27.2	0.00e+00	0	42	0	3470786560	42	6148
2026-01-21 01:55:42.34	343.38	20.63	-34.8	-35.5	27.2	0.00e+00	0	42	0	3493855232	42	6103
2026-01-21 01:55:46.38	343.17	20.11	-34.8	-35.4	27.1	0.00e+00	0	42	0	3516923904	42	5971
2026-01-21 01:55:50.43	342.98	19.59	-35.1	-35.8	26.9	0.00e+00	0	42	0	3538944000	42	6276
2026-01-21 01:55:54.46	342.79	19.09	-34.3	-35.0	26.7	0.00e+00	0	42	0	3562012672	42	5745
2026-01-21 01:55:58.50	342.60	18.60	-35.8	-36.4	26.5	0.00e+00	0	42	0	3584032768	42	6709
2026-01-21 01:56:02.54	342.42	18.11	-35.9	-36.6	26.0	0.00e+00	0	42	0	3607101440	44	6141
2026-01-21 01:56:06.58	342.25	17.64	-35.5	-36.1	26.3	0.00e+00	0	42	0	3630170112	44	5822
2026-01-21 01:56:10.62	342.08	17.17	-35.8	-36.5	26.2	0.00e+00	0	42	0	3652190208	44	6102
2026-01-21 01:56:14.65	341.92	16.71	-36.1	-36.9	25.4	0.00e+00	0	42	0	3675258880	44	6348
2026-01-21 01:56:18.69	341.77	16.26	-36.1	-36.8	25.8	0.00e+00	0	42	0	3698327552	44	6312
2026-01-21 01:56:22.73	341.62	15.82	-35.8	-36.6	25.3	0.00e+00	0	42	0	3721396224	44	6142
2026-01-21 01:56:26.76	341.47	15.39	-35.7	-36.4	26.0	0.00e+00	0	42	0	3743416320	44	6028
2026-01-21 01:56:30.80	341.33	14.96	-36.5	-37.1	25.5	0.00e+00	0	42	0	3766484992	46	5821
2026-01-21 01:56:34.84	341.19	14.54	-35.8	-36.5	25.8	0.00e+00	0	41	0	3788505088	46	5428
2026-01-21 01:56:38.88	341.06	14.13	-36.8	-37.4	25.5	0.00e+00	0	42	0	3811573760	46	6011
2026-01-21 01:56:42.92	340.93	13.72	-36.2	-37.0	25.3	0.00e+00	0	42	0	3834642432	46	5699
2026-01-21 01:56:46.96	340.81	13.32	-36.5	-37.2	25.3	0.00e+00	0	41	0	3856662528	44	6608
2026-01-21 01:56:51.00	340.69	12.93	-37.1	-37.8	24.9	0.00e+00	0	41	0	3879731200	46	6248
2026-01-21 01:56:55.04	340.57	12.54	-36.7	-37.5	24.9	0.00e+00	0	42	0	3902799872	46	6046
2026-01-21 01:56:59.08	340.46	12.16	-37.2	-37.9	24.9	0.00e+00	0	42	0	3925868544	46	6318
2026-01-21 01:57:03.11	340.35	11.79	-37.2	-37.8	24.8	0.00e+00	0	41	0	3947888640	46	6284
2026-01-21 01:57:07.16	340.24	11.42	-36.8	-37.5	25.0	0.00e+00	0	41	0	3970957312	46	6086
2026-01-21 01:57:11.20	340.14	11.05	-36.7	-37.4	24.6	0.00e+00	0	41	0	3992977408	46	5980
2026-01-21 01:57:15.24	340.03	10.69	-37.1	-37.8	24.5	0.00e+00	0	41	0	4016046080	48	5581
2026-01-21 01:57:19.28	339.94	10.34	-37.5	-38.3	24.4	0.00e+00	0	41	0	4039114752	48	5915
2026-01-21 01:57:23.32	339.84	9.99	-38.0	-38.8	23.9	0.00e+00	0	41	0	4062183424	48	6285
2026-01-21 01:57:27.36	339.75	9.64	-38.3	-39.0	24.2	0.00e+00	0	41	0	4084203520	48	6408
2026-01-21 01:57:31.40	339.66	9.30	-38.4	-39.1	23.9	0.00e+00	0	41	0	4107272192	48	6539
2026-01-21 01:57:35.44	339.57	8.97	-38.2	-39.0	24.0	0.00e+00	0	41	0	4130340864	48	6413
2026-01-21 01:57:39.48	339.48	8.64	-37.5	-38.2	23.8	0.00e+00	0	41	0	4152360960	48	5851
2026-01-21 01:57:43.52	339.40	8.31	-38.1	-38.9	23.9	0.00e+00	0	41	0	4175429632	48	6337
2026-01-21 01:57:47.56	339.32	7.99	-38.0	-38.7	23.3	0.00e+00	0	41	0	4197449728	48	6180
2026-01-21 01:57:51.60	339.24	7.67	-37.7	-38.3	23.3	0.00e+00	0	41	0	4220518400	48	5951
2026-01-21 01:57:55.64	339.16	7.36	-37.7	-38.5	23.4	0.00e+00	0	41	0	4243587072	48	6064
2026-01-21 01:57:59.68	339.09	7.04	-37.8	-38.5	23.1	0.00e+00	0	41	0	4266655744	48	6040
2026-01-21 01:58:03.72	339.01	6.74	-38.3	-39.1	23.3	0.00e+00	0	41	0	4288675840	48	6502
2026-01-21 01:58:07.76	338.94	6.43	-38.8	-39.6	22.7	0.00e+00	0	41	0	4311744512	50	6143
2026-01-21 01:58:11.80	338.87	6.13	-38.2	-39.0	23.1	0.00e+00	0	41	0	4334813184	50	5750
2026-01-21 01:58:15.85	338.81	5.84	-38.2	-39.0	22.0	0.00e+00	0	41	0	4356833280	48	6396
2026-01-21 01:58:19.89	338.74	5.54	-39.4	-40.2	21.7	0.00e+00	0	41	0	4379901952	50	6568
2026-01-21 01:58:23.93	338.68	5.25	-40.5	-41.4	19.8	0.00e+00	0	41	0	4402970624	54	5991
2026-01-21 01:58:27.97	338.61	4.96	-41.7	-42.9	18.0	0.00e+00	0	41	0	4424990720	56	6361
2026-01-21 01:58:32.01	338.55	4.68	-44.1	-45.9	14.1	1.10e-06	0	41	0	4448059392	60	7169
2026-01-21 01:58:36.06	338.49	4.40	-45.1	-47.8	11.6	5.08e-03	0	41	0	4471128064	60	8864
2026-01-21 01:58:40.10	338.44	4.12	-46.5	-51.7	6.0	2.55e-01	0	41	0	4493148160	60	13890
2026-01-21 01:58:44.13	338.38	3.85	-46.8	-56.6	3.7	8.43e-01	0	41	104	4502585344	60	24463
2026-01-21 01:58:48.18	338.32	3.57	-47.4	-58.4	3.6	8.46e-01	0	41	104	4502585344	60	29990
2026-01-21 01:58:52.21	338.27	3.30	-47.4	-59.5	3.6	8.46e-01	0	41	104	4502585344	60	33944
2026-01-21 01:58:56.25	338.22	3.03	-47.4	-59.5	3.6	8.45e-01	0	41	104	4502585344	60	34158
2026-01-21 01:59:00.29	338.17	2.77	-51.8	-64.0	3.6	8.44e-01	0	41	104	4502585344	60	57236
2026-01-21 01:59:04.33	338.12	2.51	-52.3	-64.5	3.6	8.46e-01	0	41	104	4502585344	60	60546
2026-01-21 01:59:08.37	338.07	2.25	-51.7	-63.9	3.6	8.45e-01	0	41	104	4502585344	60	56426
2026-01-21 01:59:12.41	338.02	1.99	-51.7	-64.3	3.6	8.46e-01	0	41	104	4502585344	60	59032
2026-01-21 01:59:16.45	337.97	1.73	-53.1	-65.2	3.6	8.44e-01	0	41	104	4502585344	60	65767
2026-01-21 01:59:20.49	337.93	1.48	-52.8	-65.0	3.6	8.45e-01	0	41	104	4502585344	60	64123
2026-01-21 01:59:24.53	337.88	1.23	-52.4	-64.5	3.6	8.45e-01	0	41	104	4502585344	60	60987
2026-01-21 01:59:28.57	337.84	0.98	-52.6	-64.7	3.6	8.44e-01	0	41	104	4502585344	60	62416
2026-01-21 01:59:32.60	337.80	0.73	-53.1	-65.3	3.6	8.46e-01	0	41	104	4502585344	60	66318
2026-01-21 01:59:36.64	337.75	0.49	-53.1	-65.2	3.6	8.45e-01	0	41	104	4502585344	60	65998
2026-01-21 01:59:40.68	337.71	0.24	-52.3	-64.4	3.6	8.45e-01	0	41	104	4502585344	60	60230
2026-01-21 01:59:44.72	337.67	0.00	-52.3	-64.4	3.6	8.47e-01	0	41	104	4502585344	60	59820

#Closed at: 2026-01-21 01:59:47
#Recorded file [4502 MB]: D:/lorett/data/35029_260121_134423.dat