passes_logs/2026/01/21/R4.6S_Anadyr/R4.6S_Anadyr__20260121_050809_FENGYUN_3D_rec.log

#Pass ID: 20260121_050809_FENGYUN 3D
#Satellite: FENGYUN 3D
#Configuration: FENGYUN 3D
#almurnet v.1.7.20251203
#Start time: 2026-01-21 05:08:12

#Version: 2.2.20231116
#Station: R4.6S_Anadyr
#Location: 177.4865 lon 64.73178 lat
#TLE: 1 43010U 17072A   26020.28933472  .00000051  00000+0  46008-4 0  9990
#TLE: 2 43010  98.9944 352.1871 0002476  99.7001 260.4455 14.19696838424006

#Time	Az	El	Level	Level2	SNR	BER	BlckErr	Temp	State	Recorded	gain1	gain2
2026-01-21 05:08:12.14	232.98	0.11	-52.8	-70.5	3.5	3.02e+01	0	39	0	0	60	128338
2026-01-21 05:08:15.16	233.25	0.24	-52.6	-64.9	3.6	8.44e-01	0	40	104	0	60	63401
2026-01-21 05:08:18.19	233.51	0.37	-53.0	-65.3	3.6	8.46e-01	0	40	104	0	60	66201
2026-01-21 05:08:21.21	233.79	0.51	-52.7	-64.9	3.6	8.45e-01	0	40	104	0	60	63891
2026-01-21 05:08:24.24	234.06	0.64	-52.9	-65.2	3.6	8.46e-01	0	40	104	0	60	66039
2026-01-21 05:08:27.27	234.34	0.77	-53.4	-65.6	3.6	8.45e-01	0	40	104	0	60	68602
2026-01-21 05:08:30.30	234.61	0.91	-52.4	-64.6	3.5	8.44e-01	0	41	104	0	60	61127
2026-01-21 05:08:33.33	234.89	1.04	-51.3	-63.4	3.6	8.45e-01	0	41	104	0	60	53686
2026-01-21 05:08:36.36	235.18	1.18	-49.9	-62.0	3.6	8.45e-01	0	41	104	0	60	45344
2026-01-21 05:08:39.38	235.46	1.31	-48.8	-60.8	3.6	8.45e-01	0	41	104	0	60	39834
2026-01-21 05:08:42.41	235.75	1.45	-48.8	-60.8	3.6	8.44e-01	0	41	104	0	60	39739
2026-01-21 05:08:45.44	236.04	1.58	-48.8	-60.8	3.6	8.45e-01	0	41	104	0	60	39762
2026-01-21 05:08:48.47	236.34	1.72	-48.8	-60.8	3.6	8.46e-01	0	41	104	0	60	39559
2026-01-21 05:08:51.50	236.63	1.85	-48.8	-60.8	3.6	8.45e-01	0	41	104	0	60	39634
2026-01-21 05:08:54.52	236.93	1.99	-48.7	-60.8	3.6	8.46e-01	0	41	104	0	60	39408
2026-01-21 05:08:57.55	237.23	2.12	-48.7	-60.7	3.6	8.46e-01	0	41	104	0	60	39052
2026-01-21 05:09:00.58	237.53	2.26	-48.7	-60.7	3.6	8.45e-01	0	41	104	0	60	39040
2026-01-21 05:09:03.61	237.84	2.39	-48.6	-60.7	3.6	8.45e-01	0	41	104	0	60	39080
2026-01-21 05:09:06.64	238.15	2.53	-48.6	-60.6	3.6	8.45e-01	0	41	104	0	60	38736
2026-01-21 05:09:09.67	238.46	2.66	-48.6	-60.7	3.6	8.45e-01	0	41	104	0	60	38958
2026-01-21 05:09:12.70	238.78	2.80	-48.6	-60.7	3.6	8.46e-01	0	41	104	0	60	39136
2026-01-21 05:09:15.73	239.09	2.93	-48.6	-60.6	3.6	8.47e-01	0	41	104	0	60	38713
2026-01-21 05:09:18.75	239.41	3.06	-48.6	-60.2	3.6	8.47e-01	0	41	104	0	60	36980
2026-01-21 05:09:21.78	239.74	3.20	-48.3	-55.7	4.9	8.35e-01	0	41	104	0	60	22049
2026-01-21 05:09:24.81	240.06	3.33	-48.2	-54.2	5.3	7.50e-01	0	41	0	0	60	18525
2026-01-21 05:09:27.83	240.39	3.47	-48.0	-53.5	5.5	3.96e-01	0	41	0	12582912	60	17129
2026-01-21 05:09:30.86	240.72	3.60	-47.6	-52.1	7.0	1.94e-01	0	41	0	29360128	60	14611
2026-01-21 05:09:33.89	241.05	3.74	-47.0	-50.8	8.7	5.91e-02	0	41	0	46137344	60	12486
2026-01-21 05:09:36.92	241.39	3.87	-46.4	-49.6	10.3	1.59e-02	0	41	0	63963136	60	10859
2026-01-21 05:09:39.95	241.73	4.00	-46.4	-49.4	10.4	3.97e-03	0	41	0	80740352	60	10647
2026-01-21 05:09:42.98	242.08	4.14	-45.7	-48.2	12.0	5.95e-04	0	41	0	97517568	60	9272
2026-01-21 05:09:46.01	242.42	4.27	-45.7	-48.2	12.1	3.98e-04	0	41	0	115343360	60	9253
2026-01-21 05:09:49.03	242.77	4.40	-44.9	-46.9	13.5	1.25e-05	0	41	0	132120576	60	8023
2026-01-21 05:09:52.06	243.12	4.54	-44.5	-46.4	14.4	3.40e-06	0	41	0	148897792	60	7571
2026-01-21 05:09:55.10	243.48	4.67	-43.4	-44.9	15.8	0.00e+00	0	41	0	165675008	60	6366
2026-01-21 05:09:58.12	243.84	4.80	-42.7	-44.0	16.7	0.00e+00	0	41	0	183500800	58	6464
2026-01-21 05:10:01.15	244.20	4.94	-42.8	-44.2	16.6	0.00e+00	0	41	0	200278016	58	6557
2026-01-21 05:10:04.18	244.56	5.07	-42.4	-43.7	17.0	0.00e+00	0	41	0	217055232	58	6233
2026-01-21 05:10:07.21	244.93	5.20	-42.6	-44.0	16.9	0.00e+00	0	41	0	233832448	58	6393
2026-01-21 05:10:10.23	245.30	5.33	-41.4	-42.5	18.5	0.00e+00	0	41	0	250609664	56	6101
2026-01-21 05:10:13.26	245.68	5.46	-41.5	-42.6	18.7	0.00e+00	0	41	0	268435456	56	6136
2026-01-21 05:10:16.30	246.06	5.59	-40.6	-41.6	19.6	0.00e+00	0	41	0	285212672	54	6135
2026-01-21 05:10:19.33	246.44	5.72	-39.4	-40.3	20.9	0.00e+00	0	41	0	301989888	52	5923
2026-01-21 05:10:22.36	246.82	5.85	-39.2	-40.1	21.1	0.00e+00	0	41	0	319815680	52	5779
2026-01-21 05:10:25.39	247.21	5.98	-38.9	-39.7	21.4	0.00e+00	0	41	0	336592896	50	6192
2026-01-21 05:10:28.42	247.60	6.11	-38.8	-39.7	21.5	0.00e+00	0	41	0	353370112	50	6177
2026-01-21 05:10:31.45	247.99	6.24	-39.0	-39.8	21.5	0.00e+00	0	41	0	370147328	50	6296
2026-01-21 05:10:34.48	248.39	6.37	-38.5	-39.3	21.9	0.00e+00	0	41	0	387973120	50	5899
2026-01-21 05:10:37.52	248.80	6.50	-38.0	-38.8	22.4	0.00e+00	0	41	0	404750336	50	5601
2026-01-21 05:10:40.55	249.20	6.63	-38.5	-39.3	21.9	0.00e+00	0	41	0	421527552	50	5936
2026-01-21 05:10:43.58	249.61	6.75	-38.2	-39.0	22.4	0.00e+00	0	41	0	438304768	50	5748
2026-01-21 05:10:46.61	250.02	6.88	-37.8	-38.5	22.5	0.00e+00	0	41	0	456130560	48	6084
2026-01-21 05:10:49.64	250.43	7.00	-37.0	-37.7	23.4	0.00e+00	0	41	0	472907776	48	5524
2026-01-21 05:10:52.67	250.85	7.13	-37.2	-38.0	23.2	0.00e+00	0	41	0	489684992	48	5715
2026-01-21 05:10:55.70	251.27	7.25	-37.4	-38.2	23.2	0.00e+00	0	41	0	507510784	48	5829
2026-01-21 05:10:58.73	251.70	7.38	-37.6	-38.4	23.2	0.00e+00	0	41	0	524288000	48	5997
2026-01-21 05:11:01.77	252.13	7.50	-37.8	-38.6	22.6	0.00e+00	0	41	0	541065216	48	6163
2026-01-21 05:11:04.80	252.56	7.62	-37.7	-38.4	23.2	0.00e+00	0	41	0	557842432	48	6029
2026-01-21 05:11:07.83	253.00	7.74	-37.3	-38.0	23.5	0.00e+00	0	41	0	574619648	48	5748
2026-01-21 05:11:10.86	253.44	7.86	-37.3	-38.1	23.4	0.00e+00	0	41	0	592445440	48	5782
2026-01-21 05:11:13.88	253.88	7.98	-37.5	-38.2	23.5	0.00e+00	0	41	0	609222656	48	5884
2026-01-21 05:11:16.92	254.32	8.10	-37.2	-38.0	23.5	0.00e+00	0	41	0	625999872	48	5702
2026-01-21 05:11:19.95	254.77	8.22	-36.9	-37.6	23.6	0.00e+00	0	41	0	642777088	48	5502
2026-01-21 05:11:22.97	255.22	8.33	-36.7	-37.4	23.8	0.00e+00	0	41	0	660602880	46	5988
2026-01-21 05:11:26.01	255.68	8.45	-36.8	-37.5	23.7	0.00e+00	0	42	0	677380096	46	6055
2026-01-21 05:11:29.03	256.14	8.56	-36.5	-37.2	24.0	0.00e+00	0	41	0	694157312	46	5831
2026-01-21 05:11:32.07	256.61	8.68	-37.0	-37.7	23.8	0.00e+00	0	41	0	711983104	46	6188
2026-01-21 05:11:35.10	257.07	8.79	-37.0	-37.7	23.5	0.00e+00	0	42	0	728760320	46	6227
2026-01-21 05:11:38.12	257.54	8.90	-37.0	-37.8	23.6	0.00e+00	0	41	0	745537536	46	6247
2026-01-21 05:11:41.16	258.02	9.01	-36.7	-37.5	23.9	0.00e+00	0	41	0	762314752	46	6035
2026-01-21 05:11:44.19	258.49	9.12	-36.8	-37.5	23.9	0.00e+00	0	42	0	779091968	46	6100
2026-01-21 05:11:47.22	258.97	9.22	-37.0	-37.7	23.8	0.00e+00	0	41	0	796917760	46	6195
2026-01-21 05:11:50.25	259.46	9.33	-37.2	-38.0	23.4	0.00e+00	0	42	0	813694976	46	6393
2026-01-21 05:11:53.28	259.95	9.44	-36.8	-37.5	23.9	0.00e+00	0	42	0	830472192	46	6077
2026-01-21 05:11:56.31	260.44	9.54	-36.7	-37.4	23.8	0.00e+00	0	42	0	848297984	46	6012
2026-01-21 05:11:59.34	260.93	9.64	-36.7	-37.4	23.9	0.00e+00	0	42	0	865075200	46	5987
2026-01-21 05:12:02.37	261.43	9.74	-36.9	-37.6	23.8	0.00e+00	0	42	0	881852416	46	6172
2026-01-21 05:12:05.40	261.93	9.84	-36.5	-37.2	24.2	0.00e+00	0	41	0	898629632	46	5883
2026-01-21 05:12:08.43	262.43	9.94	-36.3	-36.9	24.4	0.00e+00	0	42	0	916455424	46	5677
2026-01-21 05:12:11.46	262.94	10.03	-36.5	-37.2	24.4	0.00e+00	0	41	0	933232640	46	5836
2026-01-21 05:12:14.49	263.45	10.13	-36.5	-37.2	24.3	0.00e+00	0	42	0	950009856	46	5889
2026-01-21 05:12:17.51	263.96	10.22	-36.5	-37.3	24.3	0.00e+00	0	42	0	966787072	46	5901
2026-01-21 05:12:20.54	264.48	10.31	-36.3	-37.0	24.5	0.00e+00	0	42	0	983564288	46	5728
2026-01-21 05:12:23.57	265.00	10.40	-36.5	-37.2	24.6	0.00e+00	0	42	0	1001390080	46	5832
2026-01-21 05:12:26.60	265.52	10.49	-36.3	-37.0	24.5	0.00e+00	0	42	0	1018167296	46	5737
2026-01-21 05:12:29.63	266.05	10.57	-36.4	-37.1	24.4	0.00e+00	0	41	0	1034944512	46	5791
2026-01-21 05:12:32.66	266.57	10.66	-36.9	-37.6	24.2	0.00e+00	0	42	0	1052770304	46	6147
2026-01-21 05:12:35.69	267.11	10.74	-36.3	-37.0	24.5	0.00e+00	0	41	0	1069547520	46	5716
2026-01-21 05:12:38.72	267.64	10.82	-36.2	-36.9	24.5	0.00e+00	0	42	0	1086324736	46	5662
2026-01-21 05:12:41.75	268.18	10.90	-36.5	-37.3	24.3	0.00e+00	0	42	0	1103101952	46	5910
2026-01-21 05:12:44.78	268.72	10.97	-36.3	-37.0	24.4	0.00e+00	0	41	0	1120927744	46	5755
2026-01-21 05:12:47.81	269.26	11.05	-36.1	-36.8	24.6	0.00e+00	0	42	0	1137704960	46	5591
2026-01-21 05:12:50.84	269.80	11.12	-36.6	-37.3	24.3	0.00e+00	0	41	0	1154482176	46	5938
2026-01-21 05:12:53.87	270.35	11.19	-36.7	-37.5	24.0	0.00e+00	0	42	0	1171259392	46	6044
2026-01-21 05:12:56.90	270.90	11.26	-36.4	-37.1	24.5	0.00e+00	0	42	0	1189085184	46	5801
2026-01-21 05:12:59.93	271.45	11.32	-36.2	-36.9	24.5	0.00e+00	0	42	0	1205862400	46	5653
2026-01-21 05:13:02.96	272.01	11.38	-36.0	-36.7	24.8	0.00e+00	0	42	0	1222639616	46	5538
2026-01-21 05:13:05.99	272.57	11.44	-35.7	-36.3	25.0	0.00e+00	0	42	0	1239416832	44	5957
2026-01-21 05:13:09.02	273.13	11.50	-35.7	-36.3	24.9	0.00e+00	0	42	0	1257242624	44	5954
2026-01-21 05:13:12.04	273.68	11.56	-35.8	-36.5	24.8	0.00e+00	0	42	0	1274019840	44	6068
2026-01-21 05:13:15.07	274.25	11.61	-35.7	-36.4	25.1	0.00e+00	0	41	0	1290797056	44	5993
2026-01-21 05:13:18.10	274.81	11.67	-35.8	-36.4	25.2	0.00e+00	0	42	0	1307574272	44	6014
2026-01-21 05:13:21.13	275.38	11.72	-35.8	-36.4	25.1	0.00e+00	0	42	0	1325400064	44	6007
2026-01-21 05:13:24.16	275.95	11.76	-36.1	-36.8	24.8	0.00e+00	0	42	0	1342177280	44	6272
2026-01-21 05:13:27.19	276.52	11.81	-35.9	-36.6	24.9	0.00e+00	0	41	0	1358954496	44	6130
2026-01-21 05:13:30.23	277.09	11.85	-36.0	-36.7	24.9	0.00e+00	0	42	0	1375731712	44	6188
2026-01-21 05:13:33.26	277.67	11.89	-35.7	-36.4	24.9	0.00e+00	0	42	0	1393557504	44	6029
2026-01-21 05:13:36.29	278.24	11.92	-35.8	-36.5	24.9	0.00e+00	0	41	0	1410334720	44	6064
2026-01-21 05:13:39.32	278.82	11.96	-36.1	-36.8	24.6	0.00e+00	0	42	0	1427111936	44	6280
2026-01-21 05:13:42.35	279.40	11.99	-36.0	-36.7	24.6	0.00e+00	0	41	0	1444937728	44	6222
2026-01-21 05:13:45.38	279.98	12.02	-36.0	-36.7	24.7	0.00e+00	0	42	0	1461714944	44	6227
2026-01-21 05:13:48.41	280.56	12.05	-35.7	-36.4	24.9	0.00e+00	0	41	0	1478492160	44	6032
2026-01-21 05:13:51.44	281.14	12.07	-35.8	-36.4	24.9	0.00e+00	0	42	0	1495269376	44	6032
2026-01-21 05:13:54.47	281.72	12.09	-35.5	-36.2	25.1	0.00e+00	0	42	0	1512046592	44	5877
2026-01-21 05:13:57.50	282.30	12.11	-35.5	-36.1	25.1	0.00e+00	0	42	0	1529872384	44	5814
2026-01-21 05:14:00.53	282.88	12.13	-35.6	-36.3	25.0	0.00e+00	0	42	0	1546649600	44	5916
2026-01-21 05:14:03.56	283.47	12.14	-35.7	-36.4	24.9	0.00e+00	0	42	0	1563426816	44	5996
2026-01-21 05:14:06.59	284.05	12.15	-35.6	-36.4	25.0	0.00e+00	0	42	0	1580204032	44	5968
2026-01-21 05:14:09.62	284.64	12.16	-35.6	-36.3	24.9	0.00e+00	0	42	0	1598029824	44	5961
2026-01-21 05:14:12.65	285.22	12.17	-35.7	-36.4	24.9	0.00e+00	0	41	0	1614807040	44	5996
2026-01-21 05:14:15.68	285.81	12.17	-35.7	-36.4	24.8	0.00e+00	0	42	0	1631584256	44	6028
2026-01-21 05:14:18.71	286.39	12.17	-35.9	-36.6	25.0	0.00e+00	0	42	0	1649410048	44	6127
2026-01-21 05:14:21.74	286.97	12.17	-35.7	-36.4	25.0	0.00e+00	0	42	0	1666187264	44	6000
2026-01-21 05:14:24.77	287.56	12.16	-36.1	-36.8	24.8	0.00e+00	0	42	0	1682964480	44	6286
2026-01-21 05:14:27.80	288.14	12.15	-36.2	-36.9	24.6	0.00e+00	0	42	0	1699741696	44	6339
2026-01-21 05:14:30.82	288.73	12.14	-35.9	-36.6	24.7	0.00e+00	0	42	0	1716518912	44	6124
2026-01-21 05:14:33.85	289.31	12.13	-35.7	-36.4	25.0	0.00e+00	0	41	0	1734344704	44	6002
2026-01-21 05:14:36.88	289.89	12.11	-36.0	-36.7	24.8	0.00e+00	0	42	0	1751121920	44	6182
2026-01-21 05:14:39.91	290.47	12.09	-35.8	-36.5	24.8	0.00e+00	0	42	0	1767899136	44	6096
2026-01-21 05:14:42.94	291.05	12.07	-36.2	-36.9	24.7	0.00e+00	0	42	0	1784676352	44	6331
2026-01-21 05:14:45.97	291.64	12.05	-36.0	-36.7	24.9	0.00e+00	0	41	0	1802502144	44	6188
2026-01-21 05:14:48.99	292.21	12.02	-36.0	-36.7	24.7	0.00e+00	0	42	0	1819279360	44	6242
2026-01-21 05:14:52.02	292.79	11.99	-36.5	-37.2	24.2	0.00e+00	0	42	0	1836056576	44	6566
2026-01-21 05:14:55.05	293.37	11.96	-36.2	-36.9	24.6	0.00e+00	0	42	0	1853882368	44	6369
2026-01-21 05:14:58.08	293.94	11.93	-36.2	-37.0	24.7	0.00e+00	0	42	0	1870659584	44	6406
2026-01-21 05:15:01.11	294.52	11.89	-36.2	-36.9	24.6	0.00e+00	0	42	0	1887436800	44	6380
2026-01-21 05:15:04.14	295.09	11.85	-36.1	-36.7	24.9	0.00e+00	0	42	0	1904214016	44	6212
2026-01-21 05:15:07.17	295.66	11.81	-36.1	-36.8	24.9	0.00e+00	0	42	0	1920991232	44	6304
2026-01-21 05:15:10.20	296.23	11.77	-36.2	-36.9	24.7	0.00e+00	0	42	0	1938817024	44	6364
2026-01-21 05:15:13.23	296.80	11.72	-36.0	-36.7	24.7	0.00e+00	0	42	0	1955594240	44	6236
2026-01-21 05:15:16.26	297.37	11.67	-35.9	-36.6	24.9	0.00e+00	0	42	0	1972371456	44	6161
2026-01-21 05:15:19.29	297.93	11.62	-35.9	-36.6	24.9	0.00e+00	0	42	0	1989148672	44	6150
2026-01-21 05:15:22.32	298.49	11.57	-36.4	-37.2	24.4	0.00e+00	0	42	0	2006974464	44	6558
2026-01-21 05:15:25.36	299.06	11.51	-36.2	-36.9	24.7	0.00e+00	0	42	0	2023751680	46	5670
2026-01-21 05:15:28.38	299.61	11.45	-36.3	-36.9	24.8	0.00e+00	0	41	0	2040528896	46	5694
2026-01-21 05:15:31.41	300.17	11.39	-36.6	-37.3	24.7	0.00e+00	0	42	0	2058354688	46	5921
2026-01-21 05:15:34.44	300.72	11.33	-36.2	-36.8	24.7	0.00e+00	0	42	0	2075131904	46	5630
2026-01-21 05:15:37.47	301.27	11.27	-36.8	-37.4	24.3	0.00e+00	0	42	0	2091909120	46	6005
2026-01-21 05:15:40.49	301.82	11.20	-37.0	-37.8	24.1	0.00e+00	0	42	0	2108686336	46	6284
2026-01-21 05:15:43.52	302.37	11.13	-36.5	-37.1	24.5	0.00e+00	0	42	0	2125463552	46	5828
2026-01-21 05:15:46.56	302.91	11.06	-36.7	-37.5	24.4	0.00e+00	0	42	0	2143289344	46	6037
2026-01-21 05:15:49.59	303.45	10.98	-37.0	-37.8	24.1	0.00e+00	0	42	0	2160066560	46	6253
2026-01-21 05:15:52.62	303.99	10.91	-36.9	-37.6	24.1	0.00e+00	0	42	0	2176843776	46	6119
2026-01-21 05:15:55.65	304.53	10.83	-36.8	-37.6	24.1	0.00e+00	0	42	0	2194669568	46	6157
2026-01-21 05:15:58.68	305.06	10.75	-36.7	-37.4	24.0	0.00e+00	0	42	0	2211446784	46	5983
2026-01-21 05:16:01.71	305.59	10.67	-36.7	-37.4	24.3	0.00e+00	0	42	0	2228224000	46	6003
2026-01-21 05:16:04.74	306.12	10.59	-36.9	-37.7	24.2	0.00e+00	0	42	0	2245001216	46	6197
2026-01-21 05:16:07.77	306.64	10.50	-36.9	-37.5	24.1	0.00e+00	0	42	0	2262827008	46	6092
2026-01-21 05:16:10.80	307.16	10.42	-36.6	-37.3	24.3	0.00e+00	0	42	0	2279604224	46	5964
2026-01-21 05:16:13.83	307.68	10.33	-37.1	-37.7	24.1	0.00e+00	0	42	0	2296381440	46	6240
2026-01-21 05:16:16.86	308.20	10.24	-36.9	-37.7	24.1	0.00e+00	0	42	0	2313158656	46	6192
2026-01-21 05:16:19.89	308.71	10.15	-36.9	-37.6	24.2	0.00e+00	0	42	0	2329935872	46	6154
2026-01-21 05:16:22.92	309.22	10.05	-36.9	-37.6	24.4	0.00e+00	0	42	0	2347761664	46	6135
2026-01-21 05:16:25.94	309.72	9.96	-36.7	-37.4	24.3	0.00e+00	0	42	0	2364538880	46	6017
2026-01-21 05:16:28.97	310.22	9.86	-37.5	-38.2	24.2	0.00e+00	0	42	0	2381316096	48	5844
2026-01-21 05:16:32.01	310.73	9.76	-37.8	-38.6	23.9	0.00e+00	0	42	0	2399141888	48	6107
2026-01-21 05:16:35.03	311.22	9.66	-37.6	-38.3	23.7	0.00e+00	0	42	0	2415919104	48	5930
2026-01-21 05:16:38.07	311.71	9.56	-38.1	-38.9	23.7	0.00e+00	0	42	0	2432696320	48	6333
2026-01-21 05:16:41.10	312.20	9.46	-37.2	-37.9	24.2	0.00e+00	0	42	0	2449473536	48	5695
2026-01-21 05:16:44.13	312.69	9.36	-37.6	-38.3	24.0	0.00e+00	0	42	0	2466250752	48	5900
2026-01-21 05:16:47.16	313.17	9.25	-37.4	-38.1	23.8	0.00e+00	0	42	0	2484076544	48	5793
2026-01-21 05:16:50.19	313.65	9.15	-37.2	-38.0	23.9	0.00e+00	0	42	0	2500853760	48	5707
2026-01-21 05:16:53.22	314.13	9.04	-37.4	-38.2	23.7	0.00e+00	0	42	0	2517630976	48	5843
2026-01-21 05:16:56.24	314.60	8.93	-37.5	-38.2	23.8	0.00e+00	0	42	0	2534408192	48	5853
2026-01-21 05:16:59.27	315.07	8.82	-37.7	-38.5	23.7	0.00e+00	0	42	0	2552233984	48	6051
2026-01-21 05:17:02.30	315.53	8.71	-37.6	-38.3	23.9	0.00e+00	0	42	0	2569011200	48	5946
2026-01-21 05:17:05.33	316.00	8.60	-37.7	-38.4	23.7	0.00e+00	0	42	0	2585788416	48	6020
2026-01-21 05:17:08.36	316.45	8.48	-37.6	-38.2	23.8	0.00e+00	0	42	0	2603614208	48	5895
2026-01-21 05:17:11.39	316.91	8.37	-37.7	-38.4	23.7	0.00e+00	0	42	0	2620391424	48	5988
2026-01-21 05:17:14.42	317.36	8.25	-38.3	-39.0	23.2	0.00e+00	0	42	0	2637168640	48	6410
2026-01-21 05:17:17.44	317.81	8.14	-37.5	-38.2	23.6	0.00e+00	0	42	0	2653945856	50	5204
2026-01-21 05:17:20.48	318.25	8.02	-38.6	-39.5	22.5	0.00e+00	0	42	0	2670723072	50	6053
2026-01-21 05:17:23.51	318.70	7.90	-37.9	-38.7	23.2	0.00e+00	0	42	0	2688548864	48	6183
2026-01-21 05:17:26.53	319.13	7.78	-37.9	-38.6	23.3	0.00e+00	0	42	0	2705326080	48	6161
2026-01-21 05:17:29.57	319.57	7.66	-38.3	-39.2	22.9	0.00e+00	0	42	0	2722103296	48	6544
2026-01-21 05:17:32.60	320.00	7.54	-38.0	-38.7	23.5	0.00e+00	0	42	0	2738880512	50	5528
2026-01-21 05:17:35.63	320.43	7.42	-39.6	-40.3	22.1	0.00e+00	0	42	0	2756706304	50	6657
2026-01-21 05:17:38.66	320.85	7.30	-38.8	-39.5	22.7	0.00e+00	0	42	0	2773483520	50	6099
2026-01-21 05:17:41.69	321.27	7.18	-38.5	-39.3	22.9	0.00e+00	0	42	0	2790260736	50	5943
2026-01-21 05:17:44.72	321.69	7.05	-38.9	-39.6	22.6	0.00e+00	0	42	0	2808086528	50	6141
2026-01-21 05:17:47.75	322.10	6.93	-38.7	-39.5	22.4	0.00e+00	0	42	0	2824863744	50	6055
2026-01-21 05:17:50.78	322.51	6.80	-38.9	-39.7	22.7	0.00e+00	0	42	0	2841640960	50	6223
2026-01-21 05:17:53.80	322.92	6.68	-38.0	-38.7	23.0	0.00e+00	0	42	0	2858418176	50	5539
2026-01-21 05:17:56.83	323.32	6.55	-38.8	-39.5	22.6	0.00e+00	0	42	0	2875195392	50	6051
2026-01-21 05:17:59.87	323.72	6.43	-39.0	-39.7	22.7	0.00e+00	0	42	0	2893021184	50	6217
2026-01-21 05:18:02.90	324.12	6.30	-39.4	-40.2	22.1	0.00e+00	0	42	0	2909798400	52	5847
2026-01-21 05:18:05.93	324.52	6.17	-39.5	-40.4	21.8	0.00e+00	0	42	0	2926575616	52	6023
2026-01-21 05:18:08.96	324.91	6.04	-39.6	-40.5	22.1	0.00e+00	0	42	0	2944401408	52	6048
2026-01-21 05:18:11.99	325.29	5.92	-39.4	-40.2	22.1	0.00e+00	0	42	0	2961178624	52	5886
2026-01-21 05:18:15.02	325.68	5.79	-39.2	-39.8	22.5	0.00e+00	0	42	0	2977955840	52	5624
2026-01-21 05:18:18.05	326.06	5.66	-39.4	-40.3	22.1	0.00e+00	0	42	0	2994733056	52	5915
2026-01-21 05:18:21.09	326.44	5.53	-40.1	-40.9	21.5	0.00e+00	0	42	0	3012558848	52	6355
2026-01-21 05:18:24.12	326.81	5.40	-39.8	-40.5	21.8	0.00e+00	0	42	0	3029336064	52	6075
2026-01-21 05:18:27.15	327.18	5.27	-40.3	-41.2	21.1	0.00e+00	0	42	0	3046113280	52	6583
2026-01-21 05:18:30.18	327.55	5.14	-39.9	-40.7	21.2	0.00e+00	0	42	0	3062890496	52	6230
2026-01-21 05:18:33.21	327.91	5.01	-39.3	-40.2	21.8	0.00e+00	0	42	0	3080716288	52	5880
2026-01-21 05:18:36.24	328.27	4.87	-39.5	-40.3	21.6	0.00e+00	0	42	0	3097493504	52	5922
2026-01-21 05:18:39.27	328.63	4.74	-40.7	-41.5	20.9	0.00e+00	0	42	0	3114270720	52	6793
2026-01-21 05:18:42.30	328.99	4.61	-40.7	-41.6	21.3	0.00e+00	0	42	0	3132096512	54	6119
2026-01-21 05:18:45.33	329.34	4.48	-40.6	-41.4	21.2	0.00e+00	0	41	0	3148873728	52	6723
2026-01-21 05:18:48.37	329.69	4.35	-39.8	-40.6	21.6	0.00e+00	0	42	0	3165650944	54	5451
2026-01-21 05:18:51.40	330.04	4.21	-40.5	-41.5	21.0	0.00e+00	0	42	0	3182428160	54	6050
2026-01-21 05:18:54.43	330.38	4.08	-40.0	-40.9	21.1	0.00e+00	0	42	0	3199205376	54	5636
2026-01-21 05:18:57.46	330.72	3.95	-39.5	-40.4	21.3	0.00e+00	0	42	0	3217031168	52	6021
2026-01-21 05:19:00.48	331.06	3.82	-40.7	-41.6	20.0	0.00e+00	0	42	0	3233808384	54	6164
2026-01-21 05:19:03.51	331.39	3.68	-42.4	-43.6	17.2	0.00e+00	0	42	0	3250585600	56	6926
2026-01-21 05:19:06.54	331.72	3.55	-45.1	-47.4	12.6	8.35e-05	0	42	0	3267362816	60	8515
2026-01-21 05:19:09.57	332.05	3.42	-46.4	-49.9	9.1	7.87e-03	0	42	0	3285188608	60	11332
2026-01-21 05:19:12.60	332.38	3.28	-47.6	-54.5	4.1	7.59e-01	0	42	0	3298820096	60	19086
2026-01-21 05:19:15.64	332.70	3.15	-47.0	-58.3	3.6	8.44e-01	0	42	104	3298820096	60	29714
2026-01-21 05:19:18.67	333.02	3.02	-47.5	-59.4	3.6	8.46e-01	0	42	104	3298820096	60	33763
2026-01-21 05:19:21.70	333.34	2.88	-51.3	-63.4	3.6	8.45e-01	0	42	104	3298820096	60	53348
2026-01-21 05:19:24.73	333.65	2.75	-52.8	-64.9	3.6	8.45e-01	0	42	104	3298820096	60	63592
2026-01-21 05:19:27.76	333.97	2.62	-52.6	-64.7	3.6	8.45e-01	0	42	104	3298820096	60	62026
2026-01-21 05:19:30.79	334.28	2.48	-52.4	-64.6	3.6	8.45e-01	0	42	104	3298820096	60	61262
2026-01-21 05:19:33.82	334.58	2.35	-52.5	-64.6	3.6	8.45e-01	0	42	104	3298820096	60	61295
2026-01-21 05:19:36.85	334.89	2.22	-52.5	-64.7	3.5	8.45e-01	0	41	104	3298820096	60	62102
2026-01-21 05:19:39.88	335.19	2.08	-52.7	-65.0	3.6	8.46e-01	0	42	104	3298820096	60	64378
2026-01-21 05:19:42.91	335.49	1.95	-52.8	-64.9	3.6	8.46e-01	0	42	104	3298820096	60	63403
2026-01-21 05:19:45.94	335.78	1.82	-52.5	-64.7	3.6	8.43e-01	0	41	104	3298820096	60	61777
2026-01-21 05:19:48.97	336.08	1.68	-52.8	-65.0	3.6	8.45e-01	0	42	104	3298820096	60	64069
2026-01-21 05:19:52.00	336.37	1.55	-52.9	-65.1	3.6	8.47e-01	0	42	104	3298820096	60	64818
2026-01-21 05:19:55.03	336.66	1.42	-52.7	-64.8	3.6	8.46e-01	0	41	104	3298820096	60	62960
2026-01-21 05:19:58.06	336.95	1.28	-52.8	-64.9	3.6	8.45e-01	0	41	104	3298820096	60	63356
2026-01-21 05:20:01.09	337.23	1.15	-52.9	-65.0	3.6	8.45e-01	0	41	104	3298820096	60	64198
2026-01-21 05:20:04.12	337.51	1.02	-53.0	-65.2	3.6	8.46e-01	0	42	104	3298820096	60	65807
2026-01-21 05:20:07.15	337.79	0.88	-52.5	-64.6	3.6	8.46e-01	0	41	104	3298820096	60	61669
2026-01-21 05:20:10.17	338.07	0.75	-52.8	-65.0	3.6	8.44e-01	0	41	104	3298820096	60	63957
2026-01-21 05:20:13.20	338.34	0.62	-53.5	-65.6	3.6	8.45e-01	0	41	104	3298820096	60	69139
2026-01-21 05:20:16.24	338.62	0.49	-52.7	-64.9	3.6	8.45e-01	0	41	104	3298820096	60	63697
2026-01-21 05:20:19.27	338.89	0.35	-53.1	-65.2	3.6	8.45e-01	0	41	104	3298820096	60	65849
2026-01-21 05:20:22.30	339.15	0.22	-52.9	-65.1	3.6	8.45e-01	0	41	104	3298820096	60	64656
2026-01-21 05:20:25.33	339.42	0.09	-53.4	-65.6	3.5	8.45e-01	0	41	104	3298820096	60	68956

#Closed at: 2026-01-21 05:20:28
#Recorded file [3298 MB]: D:/lorett/data/35029_260121_170812.dat