passes_logs/2026/01/21/R4.6S_Anadyr/R4.6S_Anadyr__20260121_230806_NOAA_20_JPSS-1_rec.log

#Pass ID: 20260121_230806_NOAA 20 (JPSS-1)
#Satellite: NOAA 20 (JPSS-1)
#Configuration: NOAA 20
#almurnet v.1.7.20251203
#Start time: 2026-01-21 23:08:09

#Version: 2.2.20231116
#Station: R4.6S_Anadyr
#Location: 177.4865 lon 64.73178 lat
#TLE: 1 43013U 17073A   26020.82785136  .00000155  00000+0  94366-4 0  9991
#TLE: 2 43013  98.7643 321.7058 0001260  30.3785 329.7464 14.19537992423566

#Time	Az	El	Level	Level2	SNR	BER	BlckErr	Temp	State	Recorded	gain1	gain2
2026-01-21 23:08:09.71	129.63	0.18	-51.7	-65.5	3.3	1.54e+00	0	39	0	0	60	68047
2026-01-21 23:08:13.74	129.52	0.42	-50.9	-66.1	3.6	1.51e+00	0	40	104	0	60	73009
2026-01-21 23:08:17.78	129.41	0.66	-50.9	-66.1	3.6	1.51e+00	0	40	104	0	60	72914
2026-01-21 23:08:21.82	129.30	0.90	-50.4	-65.8	3.6	1.51e+00	0	40	104	0	60	70257
2026-01-21 23:08:25.85	129.19	1.15	-49.5	-65.6	3.6	1.51e+00	0	40	104	0	60	69152
2026-01-21 23:08:29.89	129.08	1.39	-49.8	-65.1	3.6	1.51e+00	0	40	104	0	60	64930
2026-01-21 23:08:33.93	128.96	1.64	-49.2	-64.4	3.6	1.51e+00	0	40	104	0	60	59936
2026-01-21 23:08:37.97	128.84	1.89	-49.2	-64.4	3.6	1.51e+00	0	40	104	0	60	60273
2026-01-21 23:08:42.01	128.72	2.15	-49.2	-64.2	3.6	1.51e+00	0	40	104	0	60	58649
2026-01-21 23:08:46.05	128.59	2.40	-49.2	-64.5	3.6	1.51e+00	0	40	104	0	60	60358
2026-01-21 23:08:50.09	128.47	2.66	-49.2	-64.4	3.6	1.51e+00	0	40	104	0	60	59890
2026-01-21 23:08:54.13	128.34	2.92	-49.1	-63.8	3.6	1.51e+00	0	40	104	0	60	55817
2026-01-21 23:08:58.17	128.21	3.18	-49.1	-64.2	3.6	1.51e+00	0	40	104	0	60	58640
2026-01-21 23:09:02.21	128.08	3.45	-48.4	-55.6	7.1	3.20e-01	92	40	0	2097152	60	21802
2026-01-21 23:09:06.24	127.94	3.72	-45.6	-48.5	14.9	3.46e-01	92	40	104	6291456	60	9583
2026-01-21 23:09:10.28	127.80	3.99	-44.2	-46.2	17.4	0.00e+00	0	40	0	7340032	60	7391
2026-01-21 23:09:14.32	127.66	4.26	-42.8	-44.4	19.3	0.00e+00	92	40	0	14680064	58	6733
2026-01-21 23:09:18.36	127.52	4.53	-43.2	-44.8	18.7	0.00e+00	92	40	0	22020096	58	7058
2026-01-21 23:09:22.40	127.37	4.81	-42.7	-44.2	19.7	0.00e+00	92	40	0	30408704	58	6557
2026-01-21 23:09:26.43	127.22	5.09	-42.0	-43.3	20.3	0.00e+00	0	40	0	37748736	58	5937
2026-01-21 23:09:30.47	127.06	5.37	-42.4	-43.8	20.0	0.00e+00	91	41	0	45088768	58	6271
2026-01-21 23:09:34.51	126.91	5.66	-42.3	-43.7	20.1	0.00e+00	90	40	0	52428800	58	6235
2026-01-21 23:09:38.55	126.75	5.95	-42.6	-44.1	19.9	0.00e+00	34	40	0	60817408	58	6537
2026-01-21 23:09:42.58	126.58	6.24	-41.9	-43.3	20.5	0.00e+00	92	40	0	68157440	58	5933
2026-01-21 23:09:46.62	126.42	6.53	-41.9	-43.3	20.6	0.00e+00	92	41	0	75497472	56	6632
2026-01-21 23:09:50.65	126.25	6.83	-42.3	-43.7	20.2	0.00e+00	92	41	0	82837504	56	6932
2026-01-21 23:09:54.69	126.07	7.13	-42.0	-43.3	20.7	0.00e+00	0	40	0	90177536	56	6623
2026-01-21 23:09:58.73	125.89	7.43	-41.9	-43.2	20.8	0.00e+00	92	41	0	98566144	56	6610
2026-01-21 23:10:02.76	125.71	7.74	-42.1	-43.4	20.6	0.00e+00	92	41	0	105906176	56	6695
2026-01-21 23:10:06.79	125.52	8.05	-42.0	-43.3	20.8	0.00e+00	92	41	0	113246208	56	6634
2026-01-21 23:10:10.84	125.33	8.37	-41.6	-42.8	21.3	0.00e+00	0	41	0	120586240	56	6281
2026-01-21 23:10:14.88	125.14	8.69	-41.6	-42.7	21.2	0.00e+00	92	41	0	128974848	56	6241
2026-01-21 23:10:18.92	124.94	9.01	-41.4	-42.5	21.5	0.00e+00	92	41	0	136314880	56	6080
2026-01-21 23:10:22.95	124.73	9.33	-41.4	-42.5	21.6	0.00e+00	90	41	0	143654912	56	6097
2026-01-21 23:10:26.99	124.52	9.66	-40.9	-41.9	22.2	0.00e+00	6	41	0	150994944	56	5668
2026-01-21 23:10:31.02	124.31	10.00	-41.1	-42.2	21.8	0.00e+00	92	41	0	158334976	56	5892
2026-01-21 23:10:35.06	124.09	10.33	-41.1	-42.1	22.1	0.00e+00	92	41	0	166723584	56	5815
2026-01-21 23:10:39.10	123.86	10.68	-40.7	-41.7	22.3	0.00e+00	92	41	0	174063616	54	6236
2026-01-21 23:10:43.14	123.63	11.02	-40.8	-41.8	22.3	0.00e+00	0	41	0	181403648	54	6292
2026-01-21 23:10:47.18	123.39	11.37	-40.9	-42.0	22.0	0.00e+00	92	41	0	188743680	54	6434
2026-01-21 23:10:51.22	123.15	11.73	-40.3	-41.3	22.8	0.00e+00	90	41	0	197132288	54	5948
2026-01-21 23:10:55.26	122.90	12.09	-40.3	-41.2	22.8	0.00e+00	91	41	0	204472320	54	5882
2026-01-21 23:10:59.30	122.64	12.46	-40.3	-41.3	22.8	0.00e+00	0	41	0	211812352	54	5938
2026-01-21 23:11:03.34	122.38	12.83	-40.3	-41.3	22.8	0.00e+00	90	41	0	219152384	54	5914
2026-01-21 23:11:07.37	122.11	13.20	-40.3	-41.3	22.8	0.00e+00	92	41	0	226492416	54	5922
2026-01-21 23:11:11.41	121.83	13.58	-40.2	-41.3	22.8	0.00e+00	92	41	0	234881024	54	5898
2026-01-21 23:11:15.45	121.55	13.97	-40.1	-41.1	23.1	0.00e+00	5	41	0	242221056	54	5808
2026-01-21 23:11:19.49	121.26	14.36	-40.2	-41.3	22.8	0.00e+00	90	41	0	249561088	54	5907
2026-01-21 23:11:23.53	120.95	14.76	-40.3	-41.3	23.0	0.00e+00	92	41	0	256901120	54	5923
2026-01-21 23:11:27.57	120.65	15.16	-40.1	-41.1	23.1	0.00e+00	92	41	0	265289728	54	5796
2026-01-21 23:11:31.60	120.33	15.57	-40.2	-41.2	23.0	0.00e+00	13	41	0	272629760	54	5894
2026-01-21 23:11:35.64	120.00	15.98	-40.2	-41.2	23.0	0.00e+00	92	41	0	279969792	54	5894
2026-01-21 23:11:39.68	119.66	16.40	-40.4	-41.3	22.9	0.00e+00	90	41	0	287309824	54	5957
2026-01-21 23:11:43.72	119.32	16.83	-40.2	-41.2	23.0	0.00e+00	48	41	0	294649856	54	5846
2026-01-21 23:11:47.76	118.96	17.26	-40.4	-41.4	22.9	0.00e+00	89	41	0	303038464	54	5976
2026-01-21 23:11:51.80	118.59	17.70	-40.6	-41.6	22.7	0.00e+00	92	41	0	310378496	54	6143
2026-01-21 23:11:55.84	118.21	18.15	-40.5	-41.5	22.8	0.00e+00	92	41	0	317718528	54	6092
2026-01-21 23:11:59.88	117.82	18.60	-40.7	-41.7	22.7	0.00e+00	35	41	0	325058560	54	6218
2026-01-21 23:12:03.91	117.42	19.06	-40.5	-41.5	22.7	0.00e+00	91	41	0	333447168	54	6064
2026-01-21 23:12:07.95	117.00	19.53	-40.5	-41.5	22.8	0.00e+00	91	41	0	340787200	54	6087
2026-01-21 23:12:11.98	116.58	20.00	-40.9	-41.9	22.6	0.00e+00	92	41	0	348127232	54	6320
2026-01-21 23:12:16.03	116.13	20.48	-40.8	-41.8	22.5	0.00e+00	7	41	0	355467264	54	6317
2026-01-21 23:12:20.06	115.67	20.97	-40.9	-41.9	22.6	0.00e+00	90	41	0	362807296	54	6377
2026-01-21 23:12:24.10	115.20	21.47	-40.8	-41.8	22.7	0.00e+00	90	41	0	371195904	54	6297
2026-01-21 23:12:28.14	114.71	21.97	-41.0	-42.0	22.5	0.00e+00	90	41	0	378535936	54	6424
2026-01-21 23:12:32.18	114.21	22.49	-40.9	-41.9	22.7	0.00e+00	49	41	0	385875968	54	6376
2026-01-21 23:12:36.22	113.68	23.01	-40.9	-42.0	22.7	0.00e+00	90	41	0	393216000	54	6392
2026-01-21 23:12:40.26	113.14	23.53	-40.8	-41.8	22.6	0.00e+00	92	41	0	401604608	54	6279
2026-01-21 23:12:44.30	112.58	24.07	-40.6	-41.6	22.8	0.00e+00	0	41	0	408944640	54	6145
2026-01-21 23:12:48.34	112.00	24.61	-40.8	-41.8	22.8	0.00e+00	31	41	0	416284672	54	6264
2026-01-21 23:12:52.37	111.40	25.17	-40.8	-41.8	22.7	0.00e+00	92	41	0	423624704	54	6308
2026-01-21 23:12:56.41	110.78	25.73	-41.0	-42.1	22.5	0.00e+00	92	41	0	430964736	54	6469
2026-01-21 23:13:00.45	110.14	26.29	-40.7	-41.7	22.9	0.00e+00	25	41	0	439353344	54	6218
2026-01-21 23:13:04.49	109.47	26.87	-40.9	-41.9	22.7	0.00e+00	78	41	0	446693376	54	6350
2026-01-21 23:13:08.53	108.77	27.46	-40.8	-41.8	22.7	0.00e+00	92	41	0	454033408	54	6299
2026-01-21 23:13:12.56	108.05	28.05	-40.9	-41.9	22.7	0.00e+00	92	41	0	461373440	54	6343
2026-01-21 23:13:16.60	107.30	28.65	-41.0	-42.0	22.6	0.00e+00	12	41	0	469762048	54	6464
2026-01-21 23:13:20.64	106.52	29.25	-41.3	-42.5	22.2	0.00e+00	92	41	0	477102080	54	6810
2026-01-21 23:13:24.67	105.72	29.86	-42.6	-43.8	21.1	0.00e+00	91	41	0	484442112	56	7063
2026-01-21 23:13:28.71	104.88	30.48	-43.2	-44.5	20.5	0.00e+00	92	41	0	491782144	58	6845
2026-01-21 23:13:32.75	104.00	31.11	-43.8	-45.2	19.8	0.00e+00	42	41	0	499122176	60	6577
2026-01-21 23:13:36.79	103.10	31.74	-44.0	-45.4	19.6	0.00e+00	92	41	0	507510784	60	6768
2026-01-21 23:13:40.82	102.15	32.38	-43.5	-44.9	20.1	0.00e+00	92	41	0	514850816	60	6338
2026-01-21 23:13:44.86	101.17	33.02	-43.5	-44.9	20.1	0.00e+00	91	41	0	522190848	60	6368
2026-01-21 23:13:48.90	100.15	33.66	-43.6	-45.0	19.9	0.00e+00	0	41	0	529530880	60	6458
2026-01-21 23:13:52.94	99.08	34.31	-43.4	-44.7	20.3	0.00e+00	92	41	0	537919488	60	6223
2026-01-21 23:13:56.97	97.97	34.96	-43.5	-44.8	20.6	0.00e+00	92	41	0	545259520	60	6297
2026-01-21 23:14:01.00	96.82	35.61	-42.2	-43.3	21.7	0.00e+00	92	41	0	552599552	58	5964
2026-01-21 23:14:05.05	95.62	36.26	-42.2	-43.4	21.5	0.00e+00	0	41	0	559939584	58	5998
2026-01-21 23:14:09.08	94.37	36.90	-41.9	-43.0	21.9	0.00e+00	92	41	0	567279616	58	5748
2026-01-21 23:14:13.12	93.07	37.55	-41.9	-42.9	21.9	0.00e+00	90	41	0	575668224	58	5687
2026-01-21 23:14:17.16	91.72	38.19	-42.5	-43.7	21.4	0.00e+00	92	41	0	583008256	58	6186
2026-01-21 23:14:21.20	90.31	38.82	-42.4	-43.6	21.4	0.00e+00	0	41	0	590348288	58	6113
2026-01-21 23:14:25.24	88.85	39.44	-43.1	-44.4	20.6	0.00e+00	92	41	0	597688320	58	6726
2026-01-21 23:14:29.27	87.33	40.05	-42.6	-43.8	21.3	0.00e+00	92	41	0	606076928	58	6289
2026-01-21 23:14:33.31	85.75	40.64	-42.0	-43.1	21.8	0.00e+00	35	41	0	613416960	58	5812
2026-01-21 23:14:37.35	84.12	41.23	-41.0	-42.0	23.1	0.00e+00	0	41	0	620756992	56	5696
2026-01-21 23:14:41.39	82.42	41.79	-40.2	-41.1	23.6	0.00e+00	91	41	0	628097024	54	5795
2026-01-21 23:14:45.43	80.67	42.33	-40.1	-41.0	23.7	0.00e+00	92	41	0	635437056	52	6435
2026-01-21 23:14:49.48	78.85	42.85	-40.0	-40.9	23.9	0.00e+00	0	41	0	643825664	52	6348
2026-01-21 23:14:53.52	76.98	43.34	-40.7	-41.6	23.1	0.00e+00	78	41	0	651165696	54	6168
2026-01-21 23:14:57.55	75.05	43.80	-41.3	-42.3	22.5	0.00e+00	91	41	0	658505728	54	6631
2026-01-21 23:15:01.60	73.07	44.23	-41.0	-42.0	22.9	0.00e+00	91	41	0	665845760	54	6412
2026-01-21 23:15:05.63	71.04	44.62	-41.4	-42.4	22.5	0.00e+00	7	41	0	674234368	56	5984
2026-01-21 23:15:09.67	68.95	44.98	-41.5	-42.6	22.4	0.00e+00	92	41	0	681574400	56	6127
2026-01-21 23:15:13.71	66.83	45.30	-41.9	-43.0	22.0	0.00e+00	92	41	0	688914432	56	6455
2026-01-21 23:15:17.74	64.66	45.57	-42.5	-43.7	21.4	0.00e+00	92	41	0	696254464	56	6940
2026-01-21 23:15:21.78	62.46	45.80	-41.9	-42.9	21.9	0.00e+00	6	41	0	703594496	56	6372
2026-01-21 23:15:25.81	60.24	45.98	-43.2	-44.6	20.6	0.00e+00	92	41	0	711983104	58	6860
2026-01-21 23:15:29.85	57.98	46.11	-42.9	-44.2	20.8	0.00e+00	92	41	0	719323136	58	6577
2026-01-21 23:15:33.89	55.71	46.20	-43.5	-44.8	20.2	0.00e+00	48	41	0	726663168	60	6285
2026-01-21 23:15:37.93	53.44	46.24	-42.0	-43.1	22.0	0.00e+00	39	41	0	734003200	58	5815
2026-01-21 23:15:41.97	51.16	46.22	-42.9	-44.2	20.8	0.00e+00	92	41	0	741343232	58	6551
2026-01-21 23:15:46.01	48.88	46.16	-42.5	-43.7	21.5	0.00e+00	92	41	0	749731840	58	6187
2026-01-21 23:15:50.05	46.62	46.04	-43.0	-44.2	21.0	0.00e+00	0	41	0	757071872	58	6596
2026-01-21 23:15:54.08	44.39	45.88	-43.7	-45.0	20.3	0.00e+00	0	41	0	764411904	60	6462
2026-01-21 23:15:58.12	42.17	45.67	-43.7	-45.0	20.2	0.00e+00	92	41	0	771751936	60	6455
2026-01-21 23:16:02.16	39.99	45.42	-43.3	-44.6	20.6	0.00e+00	92	41	0	780140544	60	6156
2026-01-21 23:16:06.20	37.85	45.12	-42.7	-43.9	21.3	0.00e+00	37	41	0	787480576	58	6328
2026-01-21 23:16:10.24	35.75	44.78	-41.8	-42.8	22.2	0.00e+00	23	41	0	794820608	56	6280
2026-01-21 23:16:14.28	33.70	44.41	-41.4	-42.4	22.7	0.00e+00	90	41	0	802160640	56	5985
2026-01-21 23:16:18.31	31.70	43.99	-40.5	-41.5	23.4	0.00e+00	0	41	0	809500672	54	6050
2026-01-21 23:16:22.35	29.75	43.55	-40.1	-40.9	24.0	0.00e+00	41	41	0	817889280	54	5687
2026-01-21 23:16:26.39	27.86	43.07	-39.2	-40.0	24.7	0.00e+00	19	41	0	825229312	52	5729
2026-01-21 23:16:30.43	26.02	42.56	-39.0	-39.9	24.9	0.00e+00	92	41	0	832569344	52	5637
2026-01-21 23:16:34.46	24.25	42.04	-39.0	-39.8	24.7	0.00e+00	7	41	0	839909376	52	5586
2026-01-21 23:16:38.50	22.53	41.48	-39.0	-39.8	24.8	0.00e+00	0	41	0	848297984	52	5623
2026-01-21 23:16:42.54	20.88	40.91	-38.6	-39.4	25.2	0.00e+00	92	41	0	855638016	50	6004
2026-01-21 23:16:46.58	19.28	40.32	-39.3	-40.1	24.6	0.00e+00	92	41	0	862978048	50	6515
2026-01-21 23:16:50.62	17.73	39.72	-39.5	-40.4	24.4	0.00e+00	5	41	0	870318080	50	6729
2026-01-21 23:16:54.66	16.25	39.10	-39.7	-40.6	24.2	0.00e+00	6	41	0	877658112	52	6145
2026-01-21 23:16:58.69	14.83	38.48	-40.2	-41.1	23.9	0.00e+00	92	41	0	886046720	52	6465
2026-01-21 23:17:02.73	13.45	37.85	-40.2	-41.1	23.7	0.00e+00	92	41	0	893386752	52	6486
2026-01-21 23:17:06.76	12.14	37.21	-41.2	-42.2	22.4	0.00e+00	42	41	0	900726784	54	6581
2026-01-21 23:17:10.80	10.87	36.57	-41.3	-42.3	22.8	0.00e+00	39	41	0	908066816	54	6678
2026-01-21 23:17:14.84	9.65	35.92	-42.1	-43.2	22.0	0.00e+00	90	41	0	916455424	56	6560
2026-01-21 23:17:18.88	8.48	35.27	-42.6	-43.8	21.3	0.00e+00	92	41	0	923795456	58	6279
2026-01-21 23:17:22.91	7.36	34.63	-43.6	-44.9	20.4	0.00e+00	4	41	0	931135488	58	7143
2026-01-21 23:17:26.95	6.27	33.98	-44.7	-46.3	19.3	0.00e+00	38	41	0	938475520	60	7455
2026-01-21 23:17:30.99	5.24	33.34	-44.3	-45.8	19.4	0.00e+00	92	41	0	945815552	60	7080
2026-01-21 23:17:35.03	4.24	32.70	-44.4	-46.0	19.4	0.00e+00	91	41	0	954204160	60	7176
2026-01-21 23:17:39.06	3.28	32.06	-43.6	-45.0	20.3	0.00e+00	0	41	0	961544192	60	6402
2026-01-21 23:17:43.10	2.36	31.43	-42.8	-44.0	21.2	0.00e+00	0	41	0	968884224	60	5742
2026-01-21 23:17:47.13	1.48	30.81	-42.4	-43.5	21.6	0.00e+00	90	41	0	976224256	58	6084
2026-01-21 23:17:51.17	0.63	30.19	-42.8	-44.0	21.1	0.00e+00	40	41	0	984612864	58	6427
2026-01-21 23:17:55.21	359.81	29.57	-42.4	-43.5	21.4	0.00e+00	0	41	0	991952896	58	6103
2026-01-21 23:17:59.24	359.02	28.97	-42.6	-43.8	21.3	0.00e+00	29	41	0	999292928	58	6258
2026-01-21 23:18:03.29	358.26	28.36	-42.2	-43.3	21.6	0.00e+00	0	41	0	1006632960	58	5950
2026-01-21 23:18:07.32	357.53	27.77	-42.3	-43.5	21.4	0.00e+00	38	41	0	1013972992	58	6045
2026-01-21 23:18:11.35	356.83	27.19	-42.4	-43.6	21.3	0.00e+00	0	41	0	1022361600	58	6147
2026-01-21 23:18:15.39	356.15	26.61	-42.3	-43.5	21.5	0.00e+00	92	41	0	1029701632	58	6071
2026-01-21 23:18:19.43	355.50	26.04	-41.8	-43.0	22.0	0.00e+00	5	41	0	1037041664	56	6392
2026-01-21 23:18:23.47	354.87	25.48	-41.9	-43.0	21.8	0.00e+00	0	41	0	1044381696	56	6445
2026-01-21 23:18:27.51	354.26	24.92	-42.0	-43.1	21.8	0.00e+00	37	41	0	1051721728	56	6535
2026-01-21 23:18:31.55	353.67	24.38	-41.7	-42.7	22.1	0.00e+00	90	41	0	1060110336	56	6245
2026-01-21 23:18:35.59	353.11	23.84	-41.2	-42.3	22.5	0.00e+00	48	41	0	1067450368	56	5902
2026-01-21 23:18:39.63	352.56	23.31	-41.2	-42.2	22.6	0.00e+00	6	41	0	1074790400	56	5896
2026-01-21 23:18:43.67	352.03	22.79	-41.4	-42.5	22.4	0.00e+00	38	41	0	1082130432	56	6036
2026-01-21 23:18:47.72	351.52	22.27	-41.0	-42.1	22.7	0.00e+00	90	41	0	1090519040	56	5764
2026-01-21 23:18:51.76	351.03	21.77	-41.4	-42.4	22.6	0.00e+00	43	41	0	1097859072	56	6012
2026-01-21 23:18:55.79	350.55	21.27	-41.3	-42.3	22.6	0.00e+00	41	41	0	1105199104	56	5915
2026-01-21 23:18:59.83	350.09	20.78	-41.1	-42.1	22.6	0.00e+00	0	41	0	1112539136	56	5819
2026-01-21 23:19:03.87	349.64	20.30	-41.3	-42.3	22.5	0.00e+00	92	41	0	1120927744	56	5951
2026-01-21 23:19:07.91	349.21	19.82	-41.3	-42.4	22.4	0.00e+00	38	41	0	1128267776	56	5979
2026-01-21 23:19:11.95	348.79	19.35	-41.3	-42.4	22.3	0.00e+00	36	41	0	1135607808	56	5969
2026-01-21 23:19:15.98	348.38	18.89	-41.3	-42.4	22.3	0.00e+00	59	41	0	1142947840	56	5978
2026-01-21 23:19:20.02	347.99	18.43	-41.3	-42.3	22.3	0.00e+00	29	41	0	1150287872	56	5926
2026-01-21 23:19:24.06	347.61	17.99	-41.7	-42.8	22.0	0.00e+00	0	41	0	1158676480	56	6249
2026-01-21 23:19:28.10	347.24	17.55	-41.8	-43.0	21.7	0.00e+00	0	41	0	1166016512	56	6391
2026-01-21 23:19:32.13	346.88	17.11	-41.8	-42.9	21.8	0.00e+00	0	41	0	1173356544	56	6375
2026-01-21 23:19:36.17	346.53	16.68	-41.7	-42.8	21.9	0.00e+00	92	41	0	1180696576	56	6269
2026-01-21 23:19:40.21	346.19	16.26	-41.5	-42.6	22.0	0.00e+00	0	41	0	1188036608	56	6139
2026-01-21 23:19:44.25	345.86	15.85	-41.5	-42.5	22.0	0.00e+00	0	41	0	1196425216	56	6096
2026-01-21 23:19:48.29	345.54	15.44	-41.2	-42.3	22.3	0.00e+00	91	41	0	1203765248	56	5932
2026-01-21 23:19:52.33	345.23	15.03	-41.5	-42.6	22.0	0.00e+00	35	41	0	1211105280	56	6140
2026-01-21 23:19:56.37	344.93	14.63	-41.8	-43.0	21.6	0.00e+00	6	41	0	1218445312	56	6420
2026-01-21 23:20:00.40	344.64	14.24	-42.1	-43.3	21.2	0.00e+00	5	41	0	1226833920	56	6663
2026-01-21 23:20:04.44	344.35	13.86	-42.0	-43.3	21.2	0.00e+00	92	41	0	1234173952	56	6619
2026-01-21 23:20:08.48	344.07	13.47	-42.4	-43.7	20.9	0.00e+00	35	41	0	1241513984	56	6928
2026-01-21 23:20:12.51	343.80	13.10	-42.4	-43.6	20.9	0.00e+00	29	41	0	1248854016	56	6921
2026-01-21 23:20:16.55	343.54	12.73	-42.6	-43.9	20.7	0.00e+00	56	41	0	1256194048	56	7170
2026-01-21 23:20:20.59	343.28	12.36	-42.6	-43.9	20.7	0.00e+00	90	41	0	1264582656	58	6324
2026-01-21 23:20:24.63	343.03	12.00	-43.0	-44.4	20.1	0.00e+00	6	41	0	1271922688	58	6733
2026-01-21 23:20:28.67	342.79	11.64	-42.7	-44.0	20.5	0.00e+00	34	41	0	1279262720	58	6455
2026-01-21 23:20:32.72	342.55	11.29	-42.5	-43.8	20.7	0.00e+00	33	41	0	1286602752	58	6277
2026-01-21 23:20:36.76	342.32	10.94	-42.6	-43.9	20.5	0.00e+00	90	41	0	1294991360	58	6383
2026-01-21 23:20:40.79	342.10	10.60	-42.8	-44.1	20.4	0.00e+00	48	41	0	1302331392	58	6533
2026-01-21 23:20:44.83	341.88	10.26	-42.9	-44.3	20.3	0.00e+00	0	41	0	1309671424	58	6631
2026-01-21 23:20:48.87	341.66	9.92	-43.3	-44.7	19.8	0.00e+00	0	41	0	1317011456	58	6995
2026-01-21 23:20:52.90	341.45	9.59	-43.6	-45.1	19.7	0.00e+00	92	40	0	1324351488	60	6484
2026-01-21 23:20:56.94	341.25	9.27	-43.4	-44.9	19.6	0.00e+00	49	41	0	1332740096	60	6351
2026-01-21 23:21:00.98	341.05	8.94	-43.4	-44.8	19.7	0.00e+00	49	41	0	1340080128	60	6304
2026-01-21 23:21:05.02	340.85	8.62	-43.1	-44.5	20.0	0.00e+00	0	41	0	1347420160	60	6046
2026-01-21 23:21:09.06	340.66	8.31	-43.4	-44.8	19.6	0.00e+00	92	41	0	1354760192	60	6296
2026-01-21 23:21:13.10	340.48	8.00	-43.3	-44.8	19.6	0.00e+00	27	41	0	1363148800	60	6268
2026-01-21 23:21:17.14	340.30	7.69	-43.8	-45.4	19.0	0.00e+00	28	41	0	1370488832	60	6720
2026-01-21 23:21:21.17	340.12	7.38	-43.8	-45.4	19.1	0.00e+00	92	41	0	1377828864	60	6758
2026-01-21 23:21:25.21	339.95	7.08	-43.9	-45.5	19.0	0.00e+00	90	41	0	1385168896	60	6796
2026-01-21 23:21:29.25	339.78	6.78	-43.4	-45.0	19.3	0.00e+00	0	41	0	1392508928	60	6410
2026-01-21 23:21:33.29	339.61	6.49	-43.5	-45.1	19.2	0.00e+00	0	41	0	1400897536	60	6466
2026-01-21 23:21:37.32	339.45	6.20	-43.6	-45.2	18.8	0.00e+00	92	41	0	1408237568	60	6596
2026-01-21 23:21:41.36	339.29	5.91	-43.6	-45.2	18.6	0.00e+00	55	41	0	1415577600	60	6594
2026-01-21 23:21:45.40	339.13	5.62	-44.3	-46.2	17.4	0.00e+00	5	41	0	1422917632	60	7395
2026-01-21 23:21:49.44	338.98	5.34	-45.6	-48.3	15.3	0.00e+00	0	41	0	1431306240	60	9387
2026-01-21 23:21:53.47	338.83	5.06	-45.7	-48.9	14.1	3.00e-06	91	41	0	1438646272	60	10047
2026-01-21 23:21:57.51	338.69	4.78	-45.9	-50.4	11.5	1.11e-03	30	41	0	1445986304	60	11967
2026-01-21 23:22:01.55	338.55	4.50	-46.4	-52.8	8.1	6.48e-02	4	41	0	1453326336	60	15745
2026-01-21 23:22:05.59	338.41	4.23	-46.4	-55.5	4.6	7.38e-01	5	41	0	1460666368	60	21617
2026-01-21 23:22:09.63	338.27	3.96	-46.2	-59.5	3.6	1.49e+00	0	41	104	1464860672	60	34216
2026-01-21 23:22:13.67	338.14	3.69	-45.9	-60.7	3.6	1.51e+00	0	41	104	1464860672	60	39247
2026-01-21 23:22:17.71	338.01	3.43	-45.9	-61.0	3.6	1.51e+00	0	41	104	1464860672	60	40747
2026-01-21 23:22:21.74	337.88	3.17	-45.9	-61.2	3.6	1.51e+00	0	41	104	1464860672	60	41413
2026-01-21 23:22:25.78	337.75	2.90	-47.3	-62.5	3.6	1.51e+00	0	41	104	1464860672	60	48372
2026-01-21 23:22:29.82	337.63	2.65	-50.8	-66.1	3.6	1.51e+00	0	41	104	1464860672	60	72691
2026-01-21 23:22:33.85	337.51	2.39	-51.1	-66.3	3.6	1.51e+00	0	41	104	1464860672	60	74515
2026-01-21 23:22:37.90	337.39	2.14	-51.1	-66.3	3.6	1.51e+00	0	41	104	1464860672	60	74539
2026-01-21 23:22:41.94	337.27	1.88	-51.0	-66.2	3.6	1.51e+00	0	41	104	1464860672	60	74111
2026-01-21 23:22:45.98	337.16	1.63	-50.8	-66.3	3.6	1.51e+00	0	41	104	1464860672	60	74383
2026-01-21 23:22:50.02	337.05	1.39	-51.1	-66.3	3.6	1.51e+00	0	41	104	1464860672	60	74977
2026-01-21 23:22:54.06	336.94	1.14	-51.3	-66.5	3.6	1.51e+00	0	41	104	1464860672	60	76181
2026-01-21 23:22:58.10	336.83	0.90	-51.2	-66.4	3.6	1.51e+00	0	41	104	1464860672	60	75380
2026-01-21 23:23:02.13	336.72	0.66	-51.4	-66.5	3.6	1.51e+00	0	41	104	1464860672	60	76622
2026-01-21 23:23:06.18	336.62	0.41	-51.3	-66.5	3.6	1.51e+00	0	41	104	1464860672	60	76342
2026-01-21 23:23:10.22	336.52	0.18	-51.2	-66.4	3.6	1.51e+00	0	41	104	1464860672	60	75880
2026-01-21 23:23:14.26	336.42	-0.06	-51.5	-66.8	3.6	1.51e+00	0	41	104	1464860672	60	78998

#Closed at: 2026-01-21 23:23:15
#Recorded file [1464 MB]: D:/lorett/data/35029_260122_110809.dat