passes_logs/2026/01/21/R4.6S_Anadyr/R4.6S_Anadyr__20260121_122157_NOAA_21_JPSS-2_rec.log

#Pass ID: 20260121_122157_NOAA 21 (JPSS-2)
#Satellite: NOAA 21 (JPSS-2)
#Configuration: NOAA-21
#almurnet v.1.7.20251203
#Start time: 2026-01-21 12:21:59

#Version: 2.2.20231116
#Station: R4.6S_Anadyr
#Location: 177.4865 lon 64.73178 lat
#TLE: 1 54234U 22150A   26020.93347024  .00000206  00000+0  11859-3 0  9994
#TLE: 2 54234  98.7506 321.7615 0000627 245.8100 114.3011 14.19536899165654

#Time	Az	El	Level	Level2	SNR	BER	BlckErr	Temp	State	Recorded	gain1	gain2
2026-01-21 12:21:59.63	19.11	0.10	-52.0	-67.0	3.5	1.51e+00	0	39	0	0	60	80472
2026-01-21 12:22:03.66	19.41	0.29	-52.6	-65.5	3.5	1.52e+00	0	40	104	0	60	66076
2026-01-21 12:22:07.70	19.71	0.49	-52.0	-64.9	3.5	1.51e+00	0	40	104	0	60	61423
2026-01-21 12:22:11.73	20.02	0.69	-51.6	-64.5	3.5	1.52e+00	0	40	104	0	60	58746
2026-01-21 12:22:15.77	20.33	0.89	-51.3	-64.1	3.5	1.52e+00	0	40	104	0	60	56166
2026-01-21 12:22:19.81	20.64	1.09	-50.7	-63.6	3.5	1.52e+00	0	40	104	0	60	53100
2026-01-21 12:22:23.85	20.96	1.29	-49.8	-62.7	3.5	1.52e+00	0	40	104	0	60	47746
2026-01-21 12:22:27.89	21.29	1.49	-49.4	-62.3	3.5	1.51e+00	0	40	104	0	60	45693
2026-01-21 12:22:31.92	21.61	1.69	-49.2	-62.1	3.5	1.52e+00	0	40	104	0	60	44492
2026-01-21 12:22:35.96	21.95	1.90	-49.4	-62.2	3.5	1.52e+00	0	40	104	0	60	44964
2026-01-21 12:22:40.00	22.28	2.10	-49.6	-62.2	3.5	1.52e+00	0	40	104	0	60	45136
2026-01-21 12:22:44.04	22.62	2.30	-49.8	-62.1	3.5	1.52e+00	0	41	104	0	60	44765
2026-01-21 12:22:48.08	22.97	2.51	-46.9	-49.9	11.5	4.28e-03	123	40	0	4194304	60	10989
2026-01-21 12:22:52.12	23.32	2.71	-42.9	-44.4	17.8	0.00e+00	123	41	0	16777216	60	5850
2026-01-21 12:22:56.15	23.67	2.92	-45.6	-48.4	12.5	1.06e-05	123	40	0	29360128	60	9267
2026-01-21 12:23:00.19	24.03	3.13	-43.0	-44.7	16.6	0.00e+00	123	40	0	37748736	58	6802
2026-01-21 12:23:04.22	24.39	3.33	-45.3	-47.7	14.2	7.00e-07	120	40	0	44040192	60	8509
2026-01-21 12:23:08.26	24.76	3.54	-44.5	-46.4	15.5	7.00e-07	122	41	0	56623104	60	7354
2026-01-21 12:23:12.30	25.13	3.75	-44.2	-46.2	15.6	0.00e+00	122	41	0	69206016	60	7149
2026-01-21 12:23:16.34	25.51	3.96	-44.2	-46.0	16.8	0.00e+00	123	41	0	81788928	60	6974
2026-01-21 12:23:20.38	25.90	4.17	-44.2	-46.0	16.3	0.00e+00	123	41	0	94371840	60	7027
2026-01-21 12:23:24.42	26.29	4.38	-44.0	-45.8	16.4	0.00e+00	123	41	0	106954752	60	6862
2026-01-21 12:23:28.46	26.68	4.59	-44.6	-46.6	16.3	0.00e+00	123	41	0	119537664	60	7489
2026-01-21 12:23:32.50	27.08	4.81	-45.0	-47.1	15.3	0.00e+00	123	41	0	132120576	60	7952
2026-01-21 12:23:36.54	27.49	5.02	-44.0	-45.8	16.2	0.00e+00	123	41	0	144703488	60	6863
2026-01-21 12:23:40.58	27.90	5.23	-44.7	-46.7	16.1	0.00e+00	123	41	0	157286400	60	7593
2026-01-21 12:23:44.62	28.31	5.44	-44.1	-45.9	16.3	0.00e+00	123	41	0	169869312	60	6936
2026-01-21 12:23:48.66	28.74	5.66	-43.0	-44.5	17.7	0.00e+00	120	41	0	183500800	58	6638
2026-01-21 12:23:52.70	29.16	5.87	-43.1	-44.6	17.9	0.00e+00	123	41	0	196083712	58	6686
2026-01-21 12:23:56.73	29.60	6.09	-42.4	-43.9	18.4	0.00e+00	123	41	0	208666624	58	6147
2026-01-21 12:24:00.77	30.04	6.30	-43.0	-44.5	18.1	0.00e+00	120	41	0	221249536	58	6640
2026-01-21 12:24:04.80	30.49	6.52	-42.3	-43.7	18.7	0.00e+00	122	41	0	233832448	56	6784
2026-01-21 12:24:08.85	30.94	6.74	-40.7	-41.9	20.4	0.00e+00	122	41	0	246415360	56	5488
2026-01-21 12:24:12.88	31.40	6.95	-40.3	-41.4	20.6	0.00e+00	123	41	0	258998272	54	5858
2026-01-21 12:24:16.92	31.87	7.17	-40.2	-41.3	20.8	0.00e+00	123	41	0	271581184	54	5761
2026-01-21 12:24:20.96	32.34	7.39	-40.1	-41.2	20.9	0.00e+00	123	41	0	284164096	54	5694
2026-01-21 12:24:24.99	32.82	7.60	-39.9	-41.1	21.1	0.00e+00	123	41	0	296747008	54	5617
2026-01-21 12:24:29.03	33.30	7.82	-39.8	-40.9	21.3	0.00e+00	122	41	0	309329920	54	5490
2026-01-21 12:24:33.07	33.80	8.04	-39.5	-40.6	21.6	0.00e+00	123	41	0	321912832	52	5968
2026-01-21 12:24:37.11	34.30	8.26	-39.8	-40.9	21.3	0.00e+00	123	41	0	334495744	52	6182
2026-01-21 12:24:41.15	34.81	8.47	-39.7	-40.8	21.4	0.00e+00	123	41	0	347078656	52	6090
2026-01-21 12:24:45.18	35.32	8.69	-39.3	-40.3	21.7	0.00e+00	123	41	0	359661568	52	5786
2026-01-21 12:24:49.22	35.85	8.91	-39.5	-40.6	21.5	0.00e+00	123	41	0	372244480	52	5935
2026-01-21 12:24:53.26	36.38	9.13	-39.2	-40.3	21.8	0.00e+00	122	41	0	384827392	52	5759
2026-01-21 12:24:57.29	36.91	9.34	-39.4	-40.4	21.8	0.00e+00	120	41	0	397410304	52	5853
2026-01-21 12:25:01.33	37.46	9.56	-40.2	-41.3	20.8	0.00e+00	123	41	0	409993216	52	6488
2026-01-21 12:25:05.37	38.01	9.78	-39.3	-40.4	21.9	0.00e+00	120	41	0	422576128	52	5794
2026-01-21 12:25:09.41	38.58	9.99	-39.1	-40.1	22.2	0.00e+00	121	41	0	435159040	52	5654
2026-01-21 12:25:13.45	39.15	10.21	-38.8	-39.8	22.4	0.00e+00	123	41	0	447741952	50	6082
2026-01-21 12:25:17.49	39.72	10.42	-38.8	-39.8	22.4	0.00e+00	120	41	0	460324864	50	6109
2026-01-21 12:25:21.53	40.31	10.64	-38.7	-39.7	22.3	0.00e+00	120	41	0	472907776	50	5996
2026-01-21 12:25:25.57	40.91	10.85	-38.7	-39.7	22.5	0.00e+00	122	41	0	485490688	50	6026
2026-01-21 12:25:29.60	41.51	11.07	-38.8	-39.8	22.5	0.00e+00	123	41	0	498073600	50	6119
2026-01-21 12:25:33.64	42.12	11.28	-38.8	-39.8	22.5	0.00e+00	122	41	0	510656512	50	6103
2026-01-21 12:25:37.68	42.74	11.49	-38.5	-39.5	22.8	0.00e+00	122	41	0	523239424	50	5890
2026-01-21 12:25:41.72	43.37	11.70	-38.4	-39.4	22.7	0.00e+00	122	41	0	535822336	50	5797
2026-01-21 12:25:45.76	44.01	11.91	-38.7	-39.7	22.5	0.00e+00	122	41	0	549453824	50	6035
2026-01-21 12:25:49.79	44.65	12.11	-38.4	-39.4	22.7	0.00e+00	120	41	0	562036736	50	5796
2026-01-21 12:25:53.83	45.31	12.32	-38.6	-39.6	22.6	0.00e+00	122	41	0	574619648	50	5978
2026-01-21 12:25:57.88	45.97	12.52	-39.1	-40.0	22.5	0.00e+00	123	41	0	587202560	50	6274
2026-01-21 12:26:01.91	46.64	12.72	-38.3	-39.3	22.9	0.00e+00	120	41	0	599785472	50	5754
2026-01-21 12:26:05.96	47.33	12.92	-38.8	-39.8	22.4	0.00e+00	122	41	0	612368384	50	6087
2026-01-21 12:26:10.00	48.02	13.12	-38.8	-39.8	22.4	0.00e+00	123	41	0	624951296	50	6116
2026-01-21 12:26:14.04	48.72	13.32	-39.2	-40.2	22.3	0.00e+00	123	41	0	637534208	50	6391
2026-01-21 12:26:18.08	49.43	13.51	-38.6	-39.6	22.7	0.00e+00	121	41	0	650117120	50	5974
2026-01-21 12:26:22.12	50.15	13.70	-38.5	-39.5	22.8	0.00e+00	123	41	0	662700032	50	5887
2026-01-21 12:26:26.16	50.87	13.89	-38.6	-39.6	22.6	0.00e+00	123	41	0	675282944	50	5966
2026-01-21 12:26:30.19	51.61	14.07	-38.6	-39.6	22.7	0.00e+00	123	41	0	687865856	50	5938
2026-01-21 12:26:34.23	52.35	14.26	-38.4	-39.4	22.9	0.00e+00	122	41	0	700448768	50	5807
2026-01-21 12:26:38.27	53.11	14.44	-38.5	-39.5	22.7	0.00e+00	123	41	0	713031680	50	5912
2026-01-21 12:26:42.31	53.87	14.61	-38.7	-39.7	22.6	0.00e+00	122	41	0	725614592	50	6005
2026-01-21 12:26:46.35	54.64	14.78	-38.5	-39.4	22.9	0.00e+00	123	41	0	738197504	50	5839
2026-01-21 12:26:50.38	55.42	14.95	-38.2	-39.2	23.0	0.00e+00	120	41	0	750780416	50	5686
2026-01-21 12:26:54.43	56.21	15.12	-38.2	-39.1	23.0	0.00e+00	120	41	0	763363328	50	5651
2026-01-21 12:26:58.46	57.01	15.28	-38.1	-39.1	23.1	0.00e+00	123	41	0	775946240	50	5624
2026-01-21 12:27:02.50	57.81	15.44	-38.1	-39.0	23.1	0.00e+00	122	41	0	788529152	48	6272
2026-01-21 12:27:06.54	58.63	15.59	-38.3	-39.3	22.9	0.00e+00	123	42	0	801112064	48	6431
2026-01-21 12:27:10.57	59.45	15.74	-38.1	-39.0	23.1	0.00e+00	120	41	0	813694976	50	5587
2026-01-21 12:27:14.61	60.28	15.88	-38.0	-39.0	23.2	0.00e+00	123	41	0	826277888	48	6237
2026-01-21 12:27:18.65	61.12	16.02	-37.8	-38.7	23.5	0.00e+00	120	41	0	838860800	48	6062
2026-01-21 12:27:22.69	61.96	16.15	-38.0	-39.0	23.3	0.00e+00	122	41	0	851443712	48	6224
2026-01-21 12:27:26.73	62.81	16.28	-37.8	-38.7	23.4	0.00e+00	123	41	0	864026624	48	6059
2026-01-21 12:27:30.77	63.67	16.40	-37.9	-38.9	23.4	0.00e+00	123	41	0	876609536	48	6145
2026-01-21 12:27:34.81	64.54	16.52	-37.7	-38.6	23.4	0.00e+00	120	41	0	890241024	48	5992
2026-01-21 12:27:38.85	65.41	16.63	-37.7	-38.6	23.6	0.00e+00	123	41	0	902823936	48	5980
2026-01-21 12:27:42.89	66.29	16.74	-37.9	-38.9	23.4	0.00e+00	123	41	0	915406848	48	6171
2026-01-21 12:27:46.92	67.17	16.84	-38.0	-38.9	23.3	0.00e+00	123	41	0	927989760	48	6187
2026-01-21 12:27:50.95	68.06	16.93	-37.4	-38.4	23.6	0.00e+00	123	41	0	940572672	48	5796
2026-01-21 12:27:54.99	68.96	17.02	-37.6	-38.6	23.4	0.00e+00	122	41	0	953155584	48	5954
2026-01-21 12:27:59.03	69.86	17.10	-37.9	-38.8	23.4	0.00e+00	123	42	0	965738496	48	6109
2026-01-21 12:28:03.07	70.77	17.17	-37.7	-38.6	23.4	0.00e+00	122	42	0	978321408	48	5975
2026-01-21 12:28:07.10	71.67	17.24	-37.9	-38.9	23.3	0.00e+00	123	41	0	990904320	48	6139
2026-01-21 12:28:11.14	72.59	17.30	-37.5	-38.4	23.7	0.00e+00	122	42	0	1003487232	48	5822
2026-01-21 12:28:15.18	73.50	17.35	-38.1	-39.1	23.4	0.00e+00	123	42	0	1016070144	48	6291
2026-01-21 12:28:19.21	74.42	17.40	-37.7	-38.6	23.4	0.00e+00	122	42	0	1028653056	48	5994
2026-01-21 12:28:23.25	75.34	17.44	-37.7	-38.7	23.4	0.00e+00	120	41	0	1041235968	48	6007
2026-01-21 12:28:27.29	76.27	17.48	-37.6	-38.6	23.5	0.00e+00	120	41	0	1053818880	48	5943
2026-01-21 12:28:31.33	77.20	17.50	-37.6	-38.6	23.6	0.00e+00	121	42	0	1066401792	48	5929
2026-01-21 12:28:35.37	78.12	17.52	-37.6	-38.5	23.7	0.00e+00	123	42	0	1078984704	48	5899
2026-01-21 12:28:39.40	79.05	17.53	-37.9	-38.8	23.5	0.00e+00	123	41	0	1091567616	48	6125
2026-01-21 12:28:43.44	79.98	17.54	-37.7	-38.7	23.4	0.00e+00	123	41	0	1104150528	48	6028
2026-01-21 12:28:47.48	80.91	17.53	-37.6	-38.6	23.6	0.00e+00	123	41	0	1116733440	48	5940
2026-01-21 12:28:51.52	81.84	17.52	-37.9	-38.9	23.3	0.00e+00	122	42	0	1129316352	48	6138
2026-01-21 12:28:55.56	82.77	17.51	-38.1	-39.1	23.5	0.00e+00	123	41	0	1141899264	48	6293
2026-01-21 12:28:59.59	83.70	17.48	-38.1	-39.1	23.1	0.00e+00	123	42	0	1154482176	48	6304
2026-01-21 12:29:03.63	84.62	17.45	-37.9	-38.9	23.4	0.00e+00	122	42	0	1167065088	50	5498
2026-01-21 12:29:07.67	85.55	17.41	-37.8	-38.8	23.4	0.00e+00	123	42	0	1179648000	48	6102
2026-01-21 12:29:11.71	86.47	17.37	-38.0	-38.9	23.3	0.00e+00	122	42	0	1192230912	48	6179
2026-01-21 12:29:15.75	87.39	17.31	-37.6	-38.6	23.5	0.00e+00	123	41	0	1204813824	48	5936
2026-01-21 12:29:19.79	88.30	17.25	-37.8	-38.8	23.4	0.00e+00	122	42	0	1217396736	48	6068
2026-01-21 12:29:23.83	89.22	17.19	-37.7	-38.7	23.3	0.00e+00	120	42	0	1229979648	48	5998
2026-01-21 12:29:27.86	90.12	17.11	-37.6	-38.6	23.5	0.00e+00	120	42	0	1242562560	48	5942
2026-01-21 12:29:31.90	91.03	17.03	-37.5	-38.4	23.6	0.00e+00	120	42	0	1256194048	48	5858
2026-01-21 12:29:35.94	91.92	16.95	-37.6	-38.6	23.4	0.00e+00	122	42	0	1268776960	48	5950
2026-01-21 12:29:39.98	92.82	16.85	-37.6	-38.6	23.5	0.00e+00	122	42	0	1280311296	48	5949
2026-01-21 12:29:44.02	93.71	16.76	-37.7	-38.6	23.7	0.00e+00	123	42	0	1293942784	48	5942
2026-01-21 12:29:48.05	94.59	16.65	-37.9	-38.8	23.8	0.00e+00	123	42	0	1306525696	48	6121
2026-01-21 12:29:52.09	95.46	16.54	-37.5	-38.5	23.7	0.00e+00	122	42	0	1319108608	48	5861
2026-01-21 12:29:56.13	96.33	16.42	-37.4	-38.4	23.7	0.00e+00	123	42	0	1331691520	48	5818
2026-01-21 12:30:00.17	97.20	16.30	-37.5	-38.4	23.7	0.00e+00	122	42	0	1344274432	48	5848
2026-01-21 12:30:04.21	98.05	16.17	-37.6	-38.5	23.6	0.00e+00	122	42	0	1356857344	48	5917
2026-01-21 12:30:08.25	98.90	16.04	-37.4	-38.3	23.7	0.00e+00	120	42	0	1369440256	48	5770
2026-01-21 12:30:12.29	99.75	15.90	-37.4	-38.4	23.7	0.00e+00	123	42	0	1382023168	48	5810
2026-01-21 12:30:16.33	100.58	15.76	-37.8	-38.7	23.5	0.00e+00	123	42	0	1394606080	48	6041
2026-01-21 12:30:20.36	101.40	15.61	-37.4	-38.3	23.7	0.00e+00	123	42	0	1407188992	48	5783
2026-01-21 12:30:24.40	102.22	15.46	-37.9	-38.8	23.4	0.00e+00	123	42	0	1419771904	48	6124
2026-01-21 12:30:28.44	103.03	15.30	-38.1	-39.0	23.2	0.00e+00	122	42	0	1432354816	48	6277
2026-01-21 12:30:32.48	103.84	15.14	-37.7	-38.7	23.5	0.00e+00	122	42	0	1444937728	48	6020
2026-01-21 12:30:36.53	104.63	14.98	-38.0	-39.0	23.0	0.00e+00	123	42	0	1457520640	48	6255
2026-01-21 12:30:40.56	105.42	14.81	-38.4	-39.5	22.9	0.00e+00	123	42	0	1470103552	50	5859
2026-01-21 12:30:44.61	106.19	14.63	-39.4	-40.4	22.1	0.00e+00	123	42	0	1482686464	52	5840
2026-01-21 12:30:48.64	106.96	14.46	-38.2	-39.2	23.0	0.00e+00	123	42	0	1495269376	50	5676
2026-01-21 12:30:52.69	107.72	14.28	-38.6	-39.6	22.7	0.00e+00	123	42	0	1507852288	50	5946
2026-01-21 12:30:56.72	108.47	14.09	-38.3	-39.2	22.8	0.00e+00	123	42	0	1520435200	50	5725
2026-01-21 12:31:00.76	109.21	13.91	-38.4	-39.4	22.8	0.00e+00	122	42	0	1533018112	50	5808
2026-01-21 12:31:04.80	109.94	13.72	-38.1	-39.0	22.9	0.00e+00	123	42	0	1545601024	50	5589
2026-01-21 12:31:08.84	110.67	13.53	-38.1	-39.1	23.0	0.00e+00	122	42	0	1558183936	50	5622
2026-01-21 12:31:12.88	111.38	13.33	-38.5	-39.5	22.6	0.00e+00	122	42	0	1570766848	50	5901
2026-01-21 12:31:16.92	112.08	13.14	-38.8	-39.8	22.6	0.00e+00	123	42	0	1583349760	50	6075
2026-01-21 12:31:20.96	112.78	12.94	-38.7	-39.7	22.7	0.00e+00	122	42	0	1595932672	50	6046
2026-01-21 12:31:25.01	113.47	12.73	-38.8	-39.8	22.4	0.00e+00	123	42	0	1609564160	50	6106
2026-01-21 12:31:29.04	114.14	12.53	-38.6	-39.6	22.6	0.00e+00	123	42	0	1622147072	50	5967
2026-01-21 12:31:33.08	114.81	12.33	-38.7	-39.7	22.5	0.00e+00	123	42	0	1634729984	50	6064
2026-01-21 12:31:37.13	115.48	12.12	-38.3	-39.3	22.8	0.00e+00	123	42	0	1647312896	50	5786
2026-01-21 12:31:41.17	116.13	11.91	-38.3	-39.3	22.6	0.00e+00	122	42	0	1659895808	50	5764
2026-01-21 12:31:45.21	116.77	11.70	-38.4	-39.4	22.7	0.00e+00	123	42	0	1672478720	50	5798
2026-01-21 12:31:49.25	117.40	11.49	-38.4	-39.4	22.6	0.00e+00	122	42	0	1685061632	50	5816
2026-01-21 12:31:53.29	118.03	11.28	-38.4	-39.4	22.5	0.00e+00	123	42	0	1697644544	50	5831
2026-01-21 12:31:57.33	118.64	11.06	-38.3	-39.3	22.8	0.00e+00	122	42	0	1710227456	50	5750
2026-01-21 12:32:01.37	119.25	10.85	-38.4	-39.4	22.6	0.00e+00	122	42	0	1722810368	50	5805
2026-01-21 12:32:05.41	119.85	10.63	-38.3	-39.3	22.7	0.00e+00	123	42	0	1735393280	50	5734
2026-01-21 12:32:09.45	120.44	10.42	-39.1	-40.1	22.2	0.00e+00	123	42	0	1747976192	50	6340
2026-01-21 12:32:13.49	121.02	10.20	-39.2	-40.2	21.9	0.00e+00	120	42	0	1760559104	50	6403
2026-01-21 12:32:17.52	121.59	9.98	-38.9	-40.0	22.1	0.00e+00	122	42	0	1773142016	50	6210
2026-01-21 12:32:21.57	122.16	9.76	-39.1	-40.1	21.9	0.00e+00	123	42	0	1785724928	50	6324
2026-01-21 12:32:25.60	122.71	9.55	-39.3	-40.3	21.6	0.00e+00	122	42	0	1798307840	50	6490
2026-01-21 12:32:29.64	123.26	9.33	-39.3	-40.4	21.6	0.00e+00	122	42	0	1810890752	50	6540
2026-01-21 12:32:33.68	123.80	9.11	-39.5	-40.6	21.5	0.00e+00	123	42	0	1823473664	50	6697
2026-01-21 12:32:37.72	124.34	8.89	-39.3	-40.4	21.5	0.00e+00	123	42	0	1836056576	50	6557
2026-01-21 12:32:41.75	124.86	8.67	-39.5	-40.6	21.4	0.00e+00	123	42	0	1848639488	52	5942
2026-01-21 12:32:45.78	125.38	8.45	-39.5	-40.5	21.5	0.00e+00	122	42	0	1861222400	52	5908
2026-01-21 12:32:49.83	125.89	8.23	-39.6	-40.7	21.3	0.00e+00	120	42	0	1873805312	52	6035
2026-01-21 12:32:53.87	126.40	8.01	-39.5	-40.6	21.4	0.00e+00	121	42	0	1886388224	52	5977
2026-01-21 12:32:57.91	126.89	7.79	-39.7	-40.8	21.1	0.00e+00	122	42	0	1898971136	52	6109
2026-01-21 12:33:01.94	127.38	7.57	-39.8	-40.9	21.0	0.00e+00	123	42	0	1911554048	52	6197
2026-01-21 12:33:05.98	127.86	7.35	-40.0	-41.2	20.7	0.00e+00	120	42	0	1924136960	52	6395
2026-01-21 12:33:10.01	128.34	7.13	-39.8	-40.9	21.0	0.00e+00	120	42	0	1936719872	52	6195
2026-01-21 12:33:14.04	128.80	6.91	-40.1	-41.2	20.9	0.00e+00	120	42	0	1950351360	52	6410
2026-01-21 12:33:18.07	129.26	6.69	-40.1	-41.3	20.9	0.00e+00	122	42	0	1961885696	52	6428
2026-01-21 12:33:22.11	129.72	6.48	-40.6	-41.8	20.0	0.00e+00	122	42	0	1975517184	52	6876
2026-01-21 12:33:26.15	130.17	6.26	-40.6	-41.8	20.4	0.00e+00	123	42	0	1988100096	54	6129
2026-01-21 12:33:30.19	130.61	6.04	-40.5	-41.7	20.4	0.00e+00	122	42	0	2000683008	54	6062
2026-01-21 12:33:34.23	131.05	5.82	-40.4	-41.6	20.6	0.00e+00	123	42	0	2013265920	54	5962
2026-01-21 12:33:38.27	131.48	5.60	-40.6	-41.8	20.4	0.00e+00	123	42	0	2025848832	54	6072
2026-01-21 12:33:42.31	131.90	5.39	-40.4	-41.6	20.4	0.00e+00	122	42	0	2038431744	54	5929
2026-01-21 12:33:46.35	132.32	5.17	-41.0	-42.3	19.7	0.00e+00	123	42	0	2051014656	54	6453
2026-01-21 12:33:50.39	132.73	4.96	-40.2	-41.4	20.5	0.00e+00	122	42	0	2063597568	54	5798
2026-01-21 12:33:54.44	133.14	4.74	-41.7	-43.1	18.8	0.00e+00	122	42	0	2076180480	54	7060
2026-01-21 12:33:58.48	133.54	4.53	-40.5	-41.8	20.1	0.00e+00	123	42	0	2088763392	54	6069
2026-01-21 12:34:02.52	133.93	4.31	-42.3	-43.8	18.3	0.00e+00	123	42	0	2101346304	58	6101
2026-01-21 12:34:06.56	134.32	4.10	-41.3	-42.7	18.7	0.00e+00	123	42	0	2113929216	54	6781
2026-01-21 12:34:10.59	134.70	3.89	-41.8	-43.2	18.9	0.00e+00	123	42	0	2126512128	56	6393
2026-01-21 12:34:14.63	135.08	3.68	-42.2	-43.6	18.5	0.00e+00	122	42	0	2139095040	56	6720
2026-01-21 12:34:18.67	135.46	3.47	-42.7	-44.2	17.6	0.00e+00	122	42	0	2151677952	56	7191
2026-01-21 12:34:22.70	135.83	3.26	-41.4	-42.8	18.9	0.00e+00	123	42	0	2164260864	56	6068
2026-01-21 12:34:26.75	136.19	3.05	-40.7	-42.0	19.4	0.00e+00	123	42	0	2176843776	54	6220
2026-01-21 12:34:30.79	136.55	2.84	-50.7	-63.6	3.5	1.52e+00	0	42	104	2179989504	60	53087
2026-01-21 12:34:34.82	136.90	2.63	-51.1	-63.9	3.5	1.52e+00	0	42	104	2179989504	60	54912
2026-01-21 12:34:38.86	137.25	2.42	-51.3	-64.2	3.5	1.51e+00	0	42	104	2179989504	60	56680
2026-01-21 12:34:42.89	137.59	2.21	-51.4	-64.3	3.5	1.51e+00	0	42	104	2179989504	60	57558
2026-01-21 12:34:46.93	137.93	2.01	-51.4	-64.2	3.5	1.52e+00	0	42	104	2179989504	60	57137
2026-01-21 12:34:50.97	138.27	1.80	-51.7	-64.6	3.5	1.52e+00	0	42	104	2179989504	60	59447
2026-01-21 12:34:55.01	138.60	1.60	-51.6	-64.5	3.5	1.52e+00	0	42	104	2179989504	60	58602
2026-01-21 12:34:59.05	138.93	1.39	-51.6	-64.5	3.5	1.52e+00	0	42	104	2179989504	60	59136
2026-01-21 12:35:03.09	139.25	1.19	-51.6	-64.5	3.5	1.52e+00	0	42	104	2179989504	60	59123
2026-01-21 12:35:07.12	139.57	0.99	-52.4	-65.3	3.5	1.52e+00	0	42	104	2179989504	60	64709
2026-01-21 12:35:11.16	139.88	0.79	-51.8	-64.7	3.5	1.52e+00	0	42	104	2179989504	60	60019
2026-01-21 12:35:15.21	140.19	0.58	-53.0	-65.9	3.5	1.52e+00	0	42	104	2179989504	60	69141
2026-01-21 12:35:19.24	140.50	0.38	-52.3	-65.2	3.5	1.52e+00	0	42	104	2179989504	60	63800
2026-01-21 12:35:23.28	140.80	0.18	-52.4	-65.3	3.5	1.51e+00	0	42	104	2179989504	60	64903
2026-01-21 12:35:27.32	141.10	-0.02	-52.7	-65.6	3.5	1.52e+00	0	42	104	2179989504	60	66954

#Closed at: 2026-01-21 12:35:27
#Recorded file [2179 MB]: D:/lorett/data/35029_260122_002159.dat