passes_logs/2026/01/21/R4.6S_Anadyr/R4.6S_Anadyr__20260121_163302_NOAA_20_JPSS-1_rec.log

#Pass ID: 20260121_163302_NOAA 20 (JPSS-1)
#Satellite: NOAA 20 (JPSS-1)
#Configuration: NOAA 20
#almurnet v.1.7.20251203
#Start time: 2026-01-21 16:33:03

#Version: 2.2.20231116
#Station: R4.6S_Anadyr
#Location: 177.4865 lon 64.73178 lat
#TLE: 1 43013U 17073A   26020.82785136  .00000155  00000+0  94366-4 0  9991
#TLE: 2 43013  98.7643 321.7058 0001260  30.3785 329.7464 14.19537992423566

#Time	Az	El	Level	Level2	SNR	BER	BlckErr	Temp	State	Recorded	gain1	gain2
2026-01-21 16:33:03.37	26.62	0.06	-52.1	-69.9	3.5	3.04e+01	0	39	0	0	60	119682
2026-01-21 16:33:07.40	26.45	0.29	-51.9	-67.2	3.6	1.51e+00	0	40	104	0	60	82495
2026-01-21 16:33:11.44	26.28	0.52	-51.6	-66.9	3.6	1.51e+00	0	40	104	0	60	79600
2026-01-21 16:33:15.49	26.10	0.76	-51.4	-66.7	3.6	1.51e+00	0	40	104	0	60	78113
2026-01-21 16:33:19.53	25.92	0.99	-51.1	-66.3	3.6	1.51e+00	0	40	104	0	60	74739
2026-01-21 16:33:23.57	25.74	1.22	-50.6	-65.8	3.6	1.51e+00	0	40	104	0	60	70469
2026-01-21 16:33:27.61	25.56	1.46	-49.8	-65.0	3.6	1.51e+00	0	40	104	0	60	64592
2026-01-21 16:33:31.65	25.37	1.70	-49.7	-65.0	3.6	1.51e+00	0	40	104	0	60	64052
2026-01-21 16:33:35.69	25.17	1.94	-49.7	-65.0	3.6	1.51e+00	0	40	104	0	60	64372
2026-01-21 16:33:39.73	24.98	2.18	-49.7	-64.7	3.6	1.51e+00	0	41	104	0	60	62297
2026-01-21 16:33:43.77	24.78	2.42	-49.7	-64.9	3.6	1.51e+00	0	41	104	0	60	63675
2026-01-21 16:33:47.81	24.58	2.67	-49.7	-64.9	3.6	1.51e+00	0	41	104	0	60	63671
2026-01-21 16:33:51.85	24.37	2.92	-49.7	-64.7	3.5	1.51e+00	0	40	104	0	60	62045
2026-01-21 16:33:55.89	24.16	3.16	-49.7	-64.4	3.6	1.51e+00	0	41	104	0	60	59943
2026-01-21 16:33:59.93	23.95	3.41	-49.6	-62.5	3.8	1.51e+00	0	40	104	0	60	48084
2026-01-21 16:34:03.97	23.73	3.67	-49.5	-62.7	3.6	1.50e+00	0	41	104	0	60	49331
2026-01-21 16:34:08.01	23.51	3.92	-44.4	-46.2	17.8	0.00e+00	90	41	0	2097152	60	7384
2026-01-21 16:34:12.04	23.28	4.18	-44.9	-46.9	17.3	0.00e+00	0	40	0	9437184	60	7976
2026-01-21 16:34:16.08	23.05	4.43	-44.1	-45.8	18.3	0.00e+00	0	41	0	16777216	60	7087
2026-01-21 16:34:20.12	22.82	4.70	-43.8	-45.5	18.9	0.00e+00	34	41	0	24117248	60	6807
2026-01-21 16:34:24.16	22.58	4.96	-43.7	-45.3	19.0	0.00e+00	92	41	0	31457280	60	6619
2026-01-21 16:34:28.19	22.33	5.22	-44.0	-45.6	18.6	0.00e+00	33	41	0	39845888	60	6902
2026-01-21 16:34:32.23	22.09	5.49	-43.8	-45.3	19.2	0.00e+00	0	41	0	47185920	60	6683
2026-01-21 16:34:36.27	21.83	5.76	-44.0	-45.7	18.9	0.00e+00	0	41	0	54525952	60	6933
2026-01-21 16:34:40.31	21.57	6.03	-43.4	-44.9	19.5	0.00e+00	92	41	0	61865984	60	6364
2026-01-21 16:34:44.34	21.31	6.30	-43.4	-44.8	19.8	0.00e+00	40	40	0	70254592	60	6292
2026-01-21 16:34:48.37	21.04	6.57	-43.7	-45.2	19.3	0.00e+00	42	41	0	77594624	60	6564
2026-01-21 16:34:52.41	20.77	6.85	-43.5	-45.0	19.6	0.00e+00	82	41	0	84934656	60	6428
2026-01-21 16:34:56.45	20.49	7.13	-43.5	-45.0	19.8	0.00e+00	34	41	0	92274688	60	6392
2026-01-21 16:35:00.49	20.20	7.41	-43.3	-44.7	20.0	0.00e+00	0	41	0	99614720	60	6174
2026-01-21 16:35:04.52	19.91	7.70	-43.3	-44.7	20.0	0.00e+00	0	41	0	108003328	60	6213
2026-01-21 16:35:08.55	19.61	7.99	-43.3	-44.7	20.1	0.00e+00	55	41	0	115343360	60	6222
2026-01-21 16:35:12.60	19.31	8.28	-43.6	-45.1	19.6	0.00e+00	6	41	0	122683392	60	6507
2026-01-21 16:35:16.64	19.00	8.57	-43.2	-44.6	20.1	0.00e+00	6	41	0	130023424	60	6139
2026-01-21 16:35:20.67	18.68	8.86	-43.2	-44.6	20.0	0.00e+00	6	41	0	137363456	60	6111
2026-01-21 16:35:24.70	18.36	9.16	-43.1	-44.4	20.4	0.00e+00	92	41	0	145752064	60	5986
2026-01-21 16:35:28.73	18.03	9.46	-43.0	-44.3	20.5	0.00e+00	50	41	0	153092096	60	5954
2026-01-21 16:35:32.77	17.69	9.76	-42.5	-43.8	20.9	0.00e+00	31	41	0	160432128	58	6275
2026-01-21 16:35:36.81	17.34	10.07	-42.4	-43.6	21.1	0.00e+00	0	41	0	167772160	58	6128
2026-01-21 16:35:40.84	16.99	10.38	-42.4	-43.6	21.2	0.00e+00	92	41	0	176160768	58	6141
2026-01-21 16:35:44.88	16.63	10.69	-42.2	-43.4	21.4	0.00e+00	0	41	0	183500800	58	5991
2026-01-21 16:35:48.92	16.26	11.00	-42.2	-43.4	21.4	0.00e+00	51	41	0	190840832	58	6005
2026-01-21 16:35:52.95	15.88	11.32	-42.2	-43.4	21.4	0.00e+00	32	41	0	198180864	58	5990
2026-01-21 16:35:56.99	15.50	11.64	-42.2	-43.4	21.5	0.00e+00	92	41	0	205520896	58	5980
2026-01-21 16:36:01.03	15.10	11.96	-42.1	-43.3	21.5	0.00e+00	2	41	0	213909504	58	5932
2026-01-21 16:36:05.07	14.70	12.28	-42.1	-43.2	21.5	0.00e+00	0	41	0	221249536	58	5891
2026-01-21 16:36:09.10	14.29	12.61	-41.9	-43.0	21.8	0.00e+00	0	41	0	228589568	58	5746
2026-01-21 16:36:13.14	13.86	12.94	-41.9	-43.0	21.9	0.00e+00	91	41	0	235929600	56	6428
2026-01-21 16:36:17.18	13.43	13.28	-41.7	-42.8	22.0	0.00e+00	36	41	0	243269632	56	6273
2026-01-21 16:36:21.22	12.99	13.61	-41.8	-42.9	21.9	0.00e+00	0	41	0	251658240	56	6346
2026-01-21 16:36:25.25	12.53	13.95	-41.8	-42.9	21.9	0.00e+00	0	41	0	258998272	56	6359
2026-01-21 16:36:29.29	12.07	14.29	-42.0	-43.1	21.8	0.00e+00	92	41	0	266338304	56	6467
2026-01-21 16:36:33.33	11.59	14.64	-42.0	-43.1	21.7	0.00e+00	50	41	0	273678336	56	6477
2026-01-21 16:36:37.37	11.11	14.99	-42.0	-43.1	21.7	0.00e+00	51	41	0	282066944	56	6536
2026-01-21 16:36:41.41	10.61	15.34	-42.1	-43.2	21.7	0.00e+00	39	41	0	289406976	56	6553
2026-01-21 16:36:45.45	10.09	15.69	-42.0	-43.2	21.8	0.00e+00	18	41	0	296747008	56	6553
2026-01-21 16:36:49.48	9.57	16.05	-42.0	-43.1	21.9	0.00e+00	0	41	0	304087040	56	6468
2026-01-21 16:36:53.52	9.03	16.41	-42.1	-43.2	21.8	0.00e+00	52	41	0	311427072	56	6570
2026-01-21 16:36:57.56	8.48	16.77	-42.1	-43.2	21.9	0.00e+00	47	41	0	319815680	56	6548
2026-01-21 16:37:01.59	7.92	17.13	-41.9	-43.0	22.0	0.00e+00	35	41	0	327155712	56	6445
2026-01-21 16:37:05.64	7.34	17.50	-41.8	-42.9	22.2	0.00e+00	7	41	0	334495744	56	6320
2026-01-21 16:37:09.68	6.75	17.87	-41.7	-42.7	22.3	0.00e+00	53	41	0	341835776	56	6206
2026-01-21 16:37:13.71	6.14	18.24	-41.8	-42.9	22.2	0.00e+00	92	41	0	350224384	56	6337
2026-01-21 16:37:17.75	5.51	18.62	-41.5	-42.5	22.5	0.00e+00	33	41	0	357564416	56	6056
2026-01-21 16:37:21.79	4.87	18.99	-41.5	-42.5	22.1	0.00e+00	2	41	0	364904448	56	6068
2026-01-21 16:37:25.83	4.22	19.37	-41.5	-42.5	22.5	0.00e+00	0	41	0	372244480	56	6054
2026-01-21 16:37:29.88	3.54	19.75	-41.2	-42.2	22.9	0.00e+00	92	41	0	380633088	56	5829
2026-01-21 16:37:33.92	2.85	20.13	-41.3	-42.3	22.7	0.00e+00	0	41	0	387973120	56	5909
2026-01-21 16:37:37.95	2.15	20.52	-41.0	-42.0	23.0	0.00e+00	44	41	0	395313152	56	5702
2026-01-21 16:37:41.99	1.42	20.90	-41.4	-42.4	22.6	0.00e+00	0	41	0	402653184	56	5971
2026-01-21 16:37:46.03	0.68	21.28	-41.4	-42.5	22.5	0.00e+00	91	41	0	409993216	56	6046
2026-01-21 16:37:50.07	359.91	21.67	-41.8	-42.8	22.2	0.00e+00	54	41	0	418381824	56	6284
2026-01-21 16:37:54.11	359.13	22.05	-41.8	-42.8	22.2	0.00e+00	0	41	0	425721856	56	6292
2026-01-21 16:37:58.15	358.33	22.44	-41.8	-42.8	22.3	0.00e+00	0	41	0	433061888	56	6284
2026-01-21 16:38:02.19	357.50	22.82	-41.4	-42.4	22.5	0.00e+00	92	41	0	440401920	56	6008
2026-01-21 16:38:06.22	356.66	23.21	-41.3	-42.3	22.7	0.00e+00	0	41	0	448790528	56	5944
2026-01-21 16:38:10.27	355.79	23.59	-41.1	-42.0	22.9	0.00e+00	2	41	0	456130560	56	5739
2026-01-21 16:38:14.31	354.90	23.97	-40.8	-41.7	23.2	0.00e+00	52	41	0	463470592	56	5529
2026-01-21 16:38:18.35	353.99	24.35	-40.4	-41.3	23.6	0.00e+00	0	41	0	470810624	54	5908
2026-01-21 16:38:22.38	353.06	24.72	-40.5	-41.4	23.3	0.00e+00	28	41	0	478150656	54	5975
2026-01-21 16:38:26.42	352.11	25.10	-40.6	-41.6	23.4	0.00e+00	0	41	0	486539264	54	6112
2026-01-21 16:38:30.46	351.13	25.47	-40.4	-41.3	23.6	0.00e+00	90	41	0	493879296	54	5899
2026-01-21 16:38:34.50	350.13	25.83	-40.5	-41.4	23.4	0.00e+00	0	41	0	501219328	54	5985
2026-01-21 16:38:38.54	349.11	26.19	-40.5	-41.4	23.6	0.00e+00	53	41	0	508559360	54	5965
2026-01-21 16:38:42.58	348.06	26.54	-41.3	-42.3	22.8	0.00e+00	45	41	0	516947968	54	6675
2026-01-21 16:38:46.62	346.99	26.89	-41.6	-42.6	22.5	0.00e+00	92	41	0	524288000	54	6872
2026-01-21 16:38:50.66	345.89	27.23	-41.5	-42.5	22.6	0.00e+00	6	41	0	531628032	54	6836
2026-01-21 16:38:54.69	344.77	27.57	-42.0	-43.0	22.1	0.00e+00	55	41	0	538968064	56	6433
2026-01-21 16:38:58.73	343.63	27.89	-42.3	-43.4	21.9	0.00e+00	31	41	0	546308096	56	6706
2026-01-21 16:39:02.76	342.47	28.20	-42.4	-43.6	21.6	0.00e+00	90	41	0	554696704	56	6860
2026-01-21 16:39:06.80	341.28	28.51	-42.4	-43.6	21.6	0.00e+00	0	41	0	562036736	58	6117
2026-01-21 16:39:10.83	340.07	28.80	-42.3	-43.4	21.8	0.00e+00	0	41	0	569376768	58	6020
2026-01-21 16:39:14.87	338.84	29.09	-42.2	-43.3	21.2	0.00e+00	3	41	0	576716800	58	5936
2026-01-21 16:39:18.91	337.58	29.36	-42.1	-43.2	22.0	0.00e+00	92	41	0	584056832	58	5839
2026-01-21 16:39:22.94	336.31	29.61	-42.1	-43.2	22.0	0.00e+00	0	41	0	592445440	58	5860
2026-01-21 16:39:26.98	335.01	29.86	-42.2	-43.3	22.0	0.00e+00	0	41	0	599785472	58	5919
2026-01-21 16:39:31.02	333.70	30.09	-42.3	-43.4	21.8	0.00e+00	0	41	0	607125504	58	6029
2026-01-21 16:39:35.06	332.36	30.30	-42.4	-43.6	21.7	0.00e+00	92	41	0	614465536	58	6104
2026-01-21 16:39:39.10	331.01	30.50	-42.7	-43.8	21.5	0.00e+00	0	41	0	622854144	58	6308
2026-01-21 16:39:43.14	329.64	30.68	-42.2	-43.3	21.9	0.00e+00	27	41	0	630194176	58	5921
2026-01-21 16:39:47.18	328.26	30.84	-42.3	-43.4	21.8	0.00e+00	57	41	0	637534208	58	6005
2026-01-21 16:39:51.22	326.86	30.98	-42.2	-43.3	21.9	0.00e+00	95	41	0	644874240	58	5924
2026-01-21 16:39:55.26	325.46	31.11	-42.1	-43.1	22.1	0.00e+00	0	41	0	652214272	58	5814
2026-01-21 16:39:59.29	324.04	31.21	-42.2	-43.2	22.0	0.00e+00	0	41	0	660602880	58	5894
2026-01-21 16:40:03.33	322.62	31.30	-42.4	-43.5	21.8	0.00e+00	55	41	0	667942912	58	6098
2026-01-21 16:40:07.36	321.19	31.37	-42.4	-43.5	21.8	0.00e+00	92	41	0	675282944	58	6099
2026-01-21 16:40:11.40	319.75	31.41	-43.6	-44.9	20.6	0.00e+00	0	41	0	682622976	58	7113
2026-01-21 16:40:15.44	318.31	31.44	-43.5	-44.8	20.7	0.00e+00	5	41	0	691011584	58	7023
2026-01-21 16:40:19.48	316.86	31.45	-43.5	-44.7	20.6	0.00e+00	92	41	0	698351616	58	6993
2026-01-21 16:40:23.51	315.42	31.43	-43.1	-44.3	21.1	0.00e+00	54	41	0	705691648	58	6668
2026-01-21 16:40:27.55	313.98	31.40	-42.6	-43.7	21.7	0.00e+00	33	41	0	713031680	58	6183
2026-01-21 16:40:31.59	312.55	31.34	-42.5	-43.6	21.8	0.00e+00	32	41	0	720371712	58	6128
2026-01-21 16:40:35.62	311.12	31.26	-42.7	-43.8	21.7	0.00e+00	92	41	0	728760320	58	6267
2026-01-21 16:40:39.66	309.70	31.17	-43.1	-44.3	21.2	0.00e+00	6	41	0	736100352	58	6680
2026-01-21 16:40:43.70	308.28	31.05	-42.7	-43.9	21.6	0.00e+00	49	41	0	743440384	58	6322
2026-01-21 16:40:47.74	306.88	30.92	-42.6	-43.8	21.6	0.00e+00	36	41	0	750780416	58	6258
2026-01-21 16:40:51.77	305.49	30.77	-42.5	-43.6	21.8	0.00e+00	92	41	0	759169024	58	6128
2026-01-21 16:40:55.81	304.11	30.60	-42.6	-43.7	21.7	0.00e+00	0	41	0	766509056	58	6223
2026-01-21 16:40:59.85	302.75	30.41	-42.4	-43.5	21.9	0.00e+00	0	41	0	773849088	58	6043
2026-01-21 16:41:03.89	301.41	30.20	-43.0	-44.2	21.3	0.00e+00	0	41	0	781189120	58	6572
2026-01-21 16:41:07.92	300.08	29.98	-42.7	-43.9	21.4	0.00e+00	92	41	0	788529152	58	6330
2026-01-21 16:41:11.96	298.77	29.75	-43.0	-44.2	21.2	0.00e+00	49	41	0	796917760	58	6570
2026-01-21 16:41:16.00	297.48	29.50	-43.0	-44.2	21.2	0.00e+00	2	41	0	804257792	58	6604
2026-01-21 16:41:20.04	296.21	29.23	-43.1	-44.4	21.0	0.00e+00	0	41	0	811597824	58	6700
2026-01-21 16:41:24.07	294.97	28.96	-43.6	-44.9	20.5	0.00e+00	92	41	0	818937856	58	7140
2026-01-21 16:41:28.11	293.74	28.67	-42.8	-44.0	21.3	0.00e+00	55	41	0	827326464	58	6433
2026-01-21 16:41:32.15	292.54	28.37	-42.7	-43.9	21.5	0.00e+00	26	41	0	834666496	58	6340
2026-01-21 16:41:36.19	291.36	28.06	-42.6	-43.7	21.6	0.00e+00	92	41	0	842006528	58	6192
2026-01-21 16:41:40.22	290.20	27.74	-42.5	-43.6	21.8	0.00e+00	92	41	0	849346560	58	6126
2026-01-21 16:41:44.26	289.07	27.41	-42.2	-43.2	22.1	0.00e+00	0	41	0	856686592	58	5881
2026-01-21 16:41:48.30	287.96	27.07	-42.3	-43.4	21.9	0.00e+00	0	41	0	865075200	58	6004
2026-01-21 16:41:52.34	286.87	26.73	-42.2	-43.3	22.0	0.00e+00	92	41	0	872415232	58	5944
2026-01-21 16:41:56.37	285.81	26.38	-41.4	-42.4	22.9	0.00e+00	6	41	0	879755264	56	5974
2026-01-21 16:42:00.41	284.77	26.02	-41.6	-42.7	22.5	0.00e+00	6	41	0	887095296	56	6176
2026-01-21 16:42:04.45	283.75	25.66	-41.4	-42.4	22.7	0.00e+00	6	41	0	895483904	56	5989
2026-01-21 16:42:08.49	282.76	25.29	-40.9	-41.8	23.3	0.00e+00	92	41	0	902823936	56	5614
2026-01-21 16:42:12.53	281.79	24.92	-40.6	-41.5	23.5	0.00e+00	40	41	0	910163968	54	6050
2026-01-21 16:42:16.57	280.84	24.54	-39.9	-40.7	24.1	0.00e+00	46	41	0	917504000	54	5552
2026-01-21 16:42:20.60	279.92	24.16	-39.7	-40.6	24.3	0.00e+00	34	41	0	924844032	52	6104
2026-01-21 16:42:24.64	279.02	23.78	-39.6	-40.5	24.4	0.00e+00	92	41	0	933232640	52	6053
2026-01-21 16:42:28.68	278.14	23.40	-39.2	-40.1	24.7	0.00e+00	54	41	0	940572672	52	5770
2026-01-21 16:42:32.72	277.28	23.02	-38.9	-39.6	25.1	0.00e+00	0	41	0	947912704	52	5498
2026-01-21 16:42:36.75	276.44	22.63	-39.1	-39.9	24.9	0.00e+00	29	41	0	955252736	52	5642
2026-01-21 16:42:40.79	275.62	22.25	-38.8	-39.6	25.0	0.00e+00	92	41	0	963641344	52	5491
2026-01-21 16:42:44.83	274.83	21.86	-38.9	-39.7	25.0	0.00e+00	0	41	0	970981376	50	6224
2026-01-21 16:42:48.86	274.05	21.47	-39.2	-40.0	24.8	0.00e+00	0	41	0	978321408	50	6403
2026-01-21 16:42:52.89	273.30	21.09	-39.2	-40.0	24.6	0.00e+00	0	41	0	985661440	50	6453
2026-01-21 16:42:56.92	272.56	20.70	-39.5	-40.3	24.3	0.00e+00	92	41	0	993001472	50	6677
2026-01-21 16:43:00.96	271.84	20.32	-39.6	-40.4	24.4	0.00e+00	44	41	0	1001390080	50	6768
2026-01-21 16:43:04.99	271.14	19.94	-39.7	-40.5	24.3	0.00e+00	0	41	0	1008730112	50	6844
2026-01-21 16:43:09.03	270.45	19.56	-40.1	-41.0	23.8	0.00e+00	0	41	0	1016070144	52	6440
2026-01-21 16:43:13.07	269.78	19.18	-40.6	-41.5	23.4	0.00e+00	92	41	0	1023410176	52	6805
2026-01-21 16:43:17.11	269.13	18.80	-40.2	-41.1	23.7	0.00e+00	0	41	0	1030750208	52	6521
2026-01-21 16:43:21.14	268.50	18.42	-40.4	-41.3	23.7	0.00e+00	31	41	0	1039138816	52	6664
2026-01-21 16:43:25.18	267.88	18.05	-40.8	-41.7	23.2	0.00e+00	26	41	0	1046478848	54	6244
2026-01-21 16:43:29.22	267.27	17.68	-40.7	-41.6	23.4	0.00e+00	91	41	0	1053818880	54	6140
2026-01-21 16:43:33.25	266.69	17.31	-41.0	-41.9	23.0	0.00e+00	0	41	0	1061158912	54	6363
2026-01-21 16:43:37.29	266.11	16.94	-40.8	-41.7	23.2	0.00e+00	0	42	0	1069547520	54	6202
2026-01-21 16:43:41.33	265.55	16.58	-41.0	-42.0	22.9	0.00e+00	90	41	0	1076887552	54	6410
2026-01-21 16:43:45.37	265.00	16.21	-41.5	-42.6	22.4	0.00e+00	43	41	0	1084227584	54	6867
2026-01-21 16:43:49.40	264.47	15.86	-41.6	-42.7	22.4	0.00e+00	6	42	0	1091567616	56	6180
2026-01-21 16:43:53.44	263.95	15.50	-41.7	-42.8	22.3	0.00e+00	6	41	0	1098907648	56	6266
2026-01-21 16:43:57.48	263.44	15.15	-41.8	-42.8	22.3	0.00e+00	92	41	0	1107296256	56	6280
2026-01-21 16:44:01.52	262.94	14.79	-42.1	-43.2	21.8	0.00e+00	0	41	0	1114636288	56	6591
2026-01-21 16:44:05.55	262.46	14.45	-42.0	-43.1	21.9	0.00e+00	49	41	0	1121976320	56	6516
2026-01-21 16:44:09.59	261.98	14.10	-42.0	-43.1	22.0	0.00e+00	0	41	0	1129316352	56	6472
2026-01-21 16:44:13.63	261.52	13.76	-42.2	-43.3	21.7	0.00e+00	92	42	0	1137704960	56	6654
2026-01-21 16:44:17.67	261.07	13.42	-42.3	-43.4	21.7	0.00e+00	0	41	0	1145044992	56	6704
2026-01-21 16:44:21.70	260.63	13.09	-42.1	-43.2	21.8	0.00e+00	0	41	0	1152385024	56	6605
2026-01-21 16:44:25.74	260.20	12.75	-42.1	-43.1	21.7	0.00e+00	33	41	0	1159725056	56	6533
2026-01-21 16:44:29.78	259.78	12.42	-42.3	-43.4	21.6	0.00e+00	91	41	0	1167065088	56	6762
2026-01-21 16:44:33.82	259.37	12.09	-42.6	-43.8	21.3	0.00e+00	34	41	0	1175453696	56	7047
2026-01-21 16:44:37.85	258.96	11.77	-42.5	-43.7	21.4	0.00e+00	0	42	0	1182793728	56	6976
2026-01-21 16:44:41.89	258.57	11.45	-42.6	-43.7	21.3	0.00e+00	0	41	0	1190133760	56	6975
2026-01-21 16:44:45.93	258.18	11.13	-42.6	-43.8	21.2	0.00e+00	92	42	0	1197473792	56	7032
2026-01-21 16:44:49.96	257.81	10.81	-43.1	-44.4	20.5	0.00e+00	48	42	0	1204813824	58	6703
2026-01-21 16:44:54.00	257.44	10.50	-43.2	-44.5	20.4	0.00e+00	0	42	0	1213202432	58	6825
2026-01-21 16:44:58.04	257.08	10.19	-42.9	-44.1	20.7	0.00e+00	13	42	0	1220542464	58	6532
2026-01-21 16:45:02.08	256.73	9.88	-42.8	-44.1	20.8	0.00e+00	93	41	0	1227882496	58	6470
2026-01-21 16:45:06.12	256.38	9.58	-43.1	-44.4	20.5	0.00e+00	0	42	0	1235222528	58	6699
2026-01-21 16:45:10.16	256.05	9.27	-43.1	-44.4	20.5	0.00e+00	39	42	0	1243611136	58	6700
2026-01-21 16:45:14.19	255.72	8.97	-43.3	-44.7	20.2	0.00e+00	92	42	0	1250951168	58	6959
2026-01-21 16:45:18.23	255.39	8.68	-43.3	-44.7	20.3	0.00e+00	0	42	0	1258291200	58	6929
2026-01-21 16:45:22.27	255.08	8.38	-43.6	-45.0	19.9	0.00e+00	2	42	0	1265631232	58	7210
2026-01-21 16:45:26.31	254.76	8.09	-44.0	-45.5	19.3	0.00e+00	0	42	0	1272971264	60	6801
2026-01-21 16:45:30.35	254.46	7.80	-44.3	-45.9	19.0	0.00e+00	90	42	0	1281359872	60	7111
2026-01-21 16:45:34.38	254.16	7.52	-44.4	-46.0	18.9	0.00e+00	7	42	0	1288699904	60	7205
2026-01-21 16:45:38.42	253.87	7.23	-44.0	-45.6	19.3	0.00e+00	5	42	0	1296039936	60	6849
2026-01-21 16:45:42.46	253.59	6.95	-44.1	-45.6	19.2	0.00e+00	0	42	0	1303379968	60	6883
2026-01-21 16:45:46.49	253.31	6.67	-44.0	-45.6	19.2	0.00e+00	92	42	0	1311768576	60	6860
2026-01-21 16:45:50.53	253.03	6.39	-44.3	-46.0	18.9	0.00e+00	44	42	0	1319108608	60	7193
2026-01-21 16:45:54.56	252.76	6.12	-44.6	-46.3	18.5	0.00e+00	42	42	0	1326448640	60	7440
2026-01-21 16:45:58.60	252.50	5.85	-44.4	-46.1	18.5	0.00e+00	7	42	0	1333788672	60	7334
2026-01-21 16:46:02.64	252.24	5.58	-44.7	-46.4	18.3	0.00e+00	92	42	0	1341128704	60	7580
2026-01-21 16:46:06.67	251.99	5.31	-44.7	-46.5	18.3	0.00e+00	44	42	0	1349517312	60	7606
2026-01-21 16:46:10.71	251.74	5.04	-44.9	-46.8	17.8	0.00e+00	39	42	0	1356857344	60	7901
2026-01-21 16:46:14.75	251.49	4.78	-45.0	-47.0	17.6	0.00e+00	45	42	0	1364197376	60	8074
2026-01-21 16:46:18.79	251.25	4.52	-45.1	-47.1	17.5	0.00e+00	92	42	0	1371537408	60	8165
2026-01-21 16:46:22.82	251.02	4.26	-45.4	-47.5	16.9	0.00e+00	0	42	0	1379926016	60	8592
2026-01-21 16:46:26.86	250.78	4.00	-45.0	-47.0	17.5	0.00e+00	0	42	0	1387266048	60	8064
2026-01-21 16:46:30.90	250.56	3.74	-45.2	-47.2	17.2	0.00e+00	0	42	0	1394606080	60	8323
2026-01-21 16:46:34.93	250.34	3.49	-45.8	-48.2	16.3	0.00e+00	92	42	0	1401946112	60	9305
2026-01-21 16:46:38.97	250.12	3.24	-45.4	-47.7	16.5	0.00e+00	38	42	0	1409286144	60	8806
2026-01-21 16:46:43.00	249.90	2.99	-50.5	-65.7	3.6	6.10e-01	0	42	104	1416626176	60	69855
2026-01-21 16:46:47.04	249.69	2.74	-51.3	-66.5	3.6	1.51e+00	0	42	104	1416626176	60	76450
2026-01-21 16:46:51.08	249.48	2.50	-51.4	-66.7	3.6	1.51e+00	0	42	104	1416626176	60	77875
2026-01-21 16:46:55.11	249.28	2.25	-51.5	-66.8	3.6	1.51e+00	0	42	104	1416626176	60	79089
2026-01-21 16:46:59.15	249.08	2.01	-51.3	-66.7	3.6	1.51e+00	0	42	104	1416626176	60	78087
2026-01-21 16:47:03.19	248.88	1.77	-51.3	-66.6	3.6	1.51e+00	0	42	104	1416626176	60	77541
2026-01-21 16:47:07.23	248.69	1.53	-51.3	-66.6	3.6	1.51e+00	0	42	104	1416626176	60	77219
2026-01-21 16:47:11.27	248.50	1.29	-51.5	-66.7	3.6	1.51e+00	0	42	104	1416626176	60	78063
2026-01-21 16:47:15.31	248.31	1.05	-51.6	-66.8	3.6	1.51e+00	0	42	104	1416626176	60	78983
2026-01-21 16:47:19.35	248.13	0.82	-51.5	-66.8	3.6	1.51e+00	0	42	104	1416626176	60	78630
2026-01-21 16:47:23.38	247.95	0.59	-51.6	-66.8	3.6	1.51e+00	0	42	104	1416626176	60	79064
2026-01-21 16:47:27.42	247.77	0.36	-51.5	-66.8	3.6	1.51e+00	0	42	104	1416626176	60	78638
2026-01-21 16:47:31.46	247.59	0.13	-51.6	-66.8	3.6	1.51e+00	0	42	104	1416626176	60	78836

#Closed at: 2026-01-21 16:47:34
#Recorded file [1416 MB]: D:/lorett/data/35029_260122_043303.dat