passes_logs/2026/01/21/R4.6S_Anadyr/R4.6S_Anadyr__20260121_125140_SUOMI_NPP_rec.log

#Pass ID: 20260121_125140_SUOMI NPP
#Satellite: SUOMI NPP
#Configuration: NPP
#almurnet v.1.7.20251203
#Start time: 2026-01-21 12:51:42

#Version: 2.2.20231116
#Station: R4.6S_Anadyr
#Location: 177.4865 lon 64.73178 lat
#TLE: 1 37849U 11061A   26020.95430537  .00000198  00000+0  11470-3 0  9999
#TLE: 2 37849  98.7819 322.9518 0002315  53.3069 306.8320 14.19527555737555

#Time	Az	El	Level	Level2	SNR	BER	BlckErr	Temp	State	Recorded	gain1	gain2
2026-01-21 12:51:42.99	18.92	0.12	-52.8	-65.4	3.5	1.51e+00	0	39	0	0	60	65157
2026-01-21 12:51:47.03	19.18	0.33	-52.5	-67.7	3.6	1.51e+00	0	40	104	0	60	88182
2026-01-21 12:51:51.07	19.43	0.54	-51.8	-67.0	3.6	1.51e+00	0	40	104	0	60	81170
2026-01-21 12:51:55.11	19.69	0.75	-51.7	-67.0	3.6	1.51e+00	0	40	104	0	60	81095
2026-01-21 12:51:59.15	19.96	0.97	-51.1	-66.4	3.6	1.51e+00	0	40	104	0	60	75106
2026-01-21 12:52:03.19	20.22	1.18	-50.6	-65.9	3.6	1.51e+00	0	40	104	0	60	70930
2026-01-21 12:52:07.23	20.49	1.40	-49.7	-64.9	3.6	1.51e+00	0	40	104	0	60	63226
2026-01-21 12:52:11.27	20.77	1.62	-49.7	-64.9	3.6	1.51e+00	0	40	104	0	60	63509
2026-01-21 12:52:15.31	21.04	1.84	-49.6	-64.7	3.6	1.51e+00	0	40	104	0	60	62321
2026-01-21 12:52:19.35	21.33	2.06	-49.6	-64.7	3.6	1.51e+00	0	40	104	0	60	62048
2026-01-21 12:52:23.38	21.61	2.28	-49.7	-64.3	3.6	1.51e+00	0	40	104	0	60	59631
2026-01-21 12:52:27.43	21.90	2.51	-49.5	-62.7	3.6	1.51e+00	0	40	104	0	60	49507
2026-01-21 12:52:31.46	22.19	2.73	-46.1	-48.9	14.5	8.30e-06	0	40	0	5242880	60	10094
2026-01-21 12:52:35.50	22.49	2.96	-43.8	-45.6	18.1	0.00e+00	0	40	0	12582912	60	6866
2026-01-21 12:52:39.54	22.79	3.18	-48.2	-53.4	10.0	3.87e-04	0	40	0	19922944	60	16926
2026-01-21 12:52:43.58	23.10	3.41	-49.4	-60.2	4.1	1.51e+00	0	40	104	26214400	60	36973
2026-01-21 12:52:47.63	23.41	3.64	-48.9	-54.9	9.1	3.58e-02	0	41	0	26214400	60	20113
2026-01-21 12:52:51.67	23.73	3.87	-48.0	-52.3	11.5	6.22e-03	0	41	0	33554432	60	14857
2026-01-21 12:52:55.71	24.05	4.10	-48.2	-52.5	12.4	1.45e-03	0	40	0	40894464	60	15306
2026-01-21 12:52:59.75	24.37	4.34	-47.9	-51.9	12.6	2.59e-05	0	40	0	48234496	60	14182
2026-01-21 12:53:03.78	24.70	4.57	-47.4	-50.9	13.5	7.93e-05	0	41	0	56623104	60	12683
2026-01-21 12:53:07.82	25.03	4.81	-46.7	-49.4	14.9	7.00e-07	0	40	0	63963136	60	10678
2026-01-21 12:53:11.86	25.38	5.05	-48.0	-51.9	12.9	1.14e-05	0	41	0	71303168	60	14263
2026-01-21 12:53:15.89	25.72	5.28	-47.8	-51.5	12.7	3.12e-05	0	41	0	78643200	60	13658
2026-01-21 12:53:19.93	26.07	5.52	-47.7	-51.3	13.5	5.49e-05	0	41	0	87031808	60	13331
2026-01-21 12:53:23.97	26.43	5.77	-46.7	-49.4	14.6	1.50e-06	0	41	0	94371840	60	10727
2026-01-21 12:53:28.00	26.79	6.01	-46.2	-48.6	15.9	0.00e+00	0	41	0	101711872	60	9778
2026-01-21 12:53:32.04	27.15	6.25	-45.2	-47.3	17.3	0.00e+00	0	41	0	109051904	60	8356
2026-01-21 12:53:36.08	27.53	6.50	-43.8	-45.4	18.8	0.00e+00	0	41	0	116391936	60	6722
2026-01-21 12:53:40.12	27.91	6.74	-44.1	-45.7	18.7	0.00e+00	0	41	0	124780544	60	6996
2026-01-21 12:53:44.16	28.29	6.99	-43.2	-44.6	19.7	0.00e+00	0	40	0	132120576	60	6159
2026-01-21 12:53:48.20	28.68	7.24	-43.1	-44.5	19.8	0.00e+00	0	41	0	139460608	58	6812
2026-01-21 12:53:52.24	29.08	7.49	-43.6	-45.1	19.2	0.00e+00	0	41	0	146800640	58	7311
2026-01-21 12:53:56.28	29.49	7.74	-43.6	-45.2	19.1	0.00e+00	0	41	0	155189248	58	7388
2026-01-21 12:54:00.32	29.90	8.00	-43.5	-45.0	19.4	0.00e+00	0	41	0	162529280	60	6433
2026-01-21 12:54:04.36	30.32	8.25	-43.3	-44.8	19.7	0.00e+00	0	41	0	169869312	60	6253
2026-01-21 12:54:08.39	30.74	8.51	-43.2	-44.7	19.8	0.00e+00	0	41	0	177209344	60	6175
2026-01-21 12:54:12.43	31.18	8.77	-42.8	-44.2	20.3	0.00e+00	0	41	0	184549376	60	5835
2026-01-21 12:54:16.47	31.62	9.03	-42.4	-43.7	20.6	0.00e+00	0	41	0	192937984	58	6220
2026-01-21 12:54:20.50	32.06	9.28	-42.2	-43.4	20.9	0.00e+00	0	41	0	200278016	58	6031
2026-01-21 12:54:24.54	32.52	9.55	-41.9	-43.1	20.8	0.00e+00	0	41	0	207618048	58	5808
2026-01-21 12:54:28.58	32.98	9.81	-41.8	-42.9	21.2	0.00e+00	0	41	0	214958080	56	6364
2026-01-21 12:54:32.62	33.45	10.07	-42.1	-43.3	21.1	0.00e+00	0	41	0	223346688	56	6689
2026-01-21 12:54:36.65	33.93	10.34	-41.8	-43.0	21.3	0.00e+00	0	41	0	230686720	56	6414
2026-01-21 12:54:40.69	34.42	10.60	-41.8	-43.0	21.3	0.00e+00	0	41	0	238026752	56	6418
2026-01-21 12:54:44.73	34.91	10.87	-41.9	-43.0	21.4	0.00e+00	0	41	0	245366784	56	6448
2026-01-21 12:54:48.77	35.42	11.14	-42.0	-43.2	21.2	0.00e+00	0	41	0	252706816	56	6586
2026-01-21 12:54:52.81	35.93	11.41	-41.6	-42.7	21.6	0.00e+00	0	41	0	261095424	56	6243
2026-01-21 12:54:56.85	36.46	11.68	-41.6	-42.7	21.6	0.00e+00	0	41	0	268435456	56	6216
2026-01-21 12:55:00.89	36.99	11.95	-41.5	-42.6	21.8	0.00e+00	0	41	0	275775488	56	6171
2026-01-21 12:55:04.93	37.53	12.22	-41.2	-42.2	22.1	0.00e+00	0	41	0	283115520	56	5891
2026-01-21 12:55:08.96	38.08	12.49	-40.9	-41.9	22.4	0.00e+00	0	41	0	291504128	56	5679
2026-01-21 12:55:13.00	38.65	12.76	-41.8	-42.9	21.3	0.00e+00	0	41	0	298844160	56	6355
2026-01-21 12:55:17.04	39.22	13.04	-41.4	-42.5	21.8	0.00e+00	0	41	0	306184192	56	6089
2026-01-21 12:55:21.08	39.80	13.31	-41.0	-42.1	21.5	0.00e+00	0	41	0	313524224	56	5770
2026-01-21 12:55:25.12	40.39	13.59	-41.1	-42.1	22.1	0.00e+00	0	41	0	320864256	56	5810
2026-01-21 12:55:29.16	41.00	13.86	-41.6	-42.7	21.8	0.00e+00	0	41	0	329252864	56	6218
2026-01-21 12:55:33.20	41.61	14.14	-41.0	-42.0	22.2	0.00e+00	0	41	0	336592896	56	5740
2026-01-21 12:55:37.24	42.24	14.41	-41.2	-42.3	22.2	0.00e+00	0	41	0	343932928	56	5900
2026-01-21 12:55:41.28	42.88	14.69	-40.9	-41.9	22.2	0.00e+00	0	41	0	351272960	54	6383
2026-01-21 12:55:45.31	43.52	14.96	-40.8	-41.8	22.5	0.00e+00	0	41	0	359661568	54	6302
2026-01-21 12:55:49.35	44.18	15.24	-40.9	-41.9	22.3	0.00e+00	0	41	0	367001600	54	6355
2026-01-21 12:55:53.39	44.86	15.51	-40.8	-41.8	22.5	0.00e+00	0	41	0	374341632	54	6287
2026-01-21 12:55:57.43	45.54	15.78	-41.7	-42.8	21.7	0.00e+00	0	41	0	381681664	58	5613
2026-01-21 12:56:01.47	46.24	16.06	-41.3	-42.4	22.1	0.00e+00	0	41	0	389021696	56	5987
2026-01-21 12:56:05.51	46.95	16.33	-41.1	-42.2	22.4	0.00e+00	0	41	0	397410304	56	5847
2026-01-21 12:56:09.54	47.67	16.60	-41.3	-42.3	22.1	0.00e+00	0	41	0	404750336	56	5963
2026-01-21 12:56:13.58	48.40	16.87	-41.3	-42.4	22.2	0.00e+00	0	41	0	412090368	56	6002
2026-01-21 12:56:17.62	49.15	17.14	-40.9	-41.9	22.6	0.00e+00	0	41	0	419430400	56	5677
2026-01-21 12:56:21.66	49.91	17.40	-40.7	-41.7	22.6	0.00e+00	0	41	0	427819008	54	6203
2026-01-21 12:56:25.69	50.68	17.67	-40.5	-41.5	22.8	0.00e+00	0	41	0	435159040	54	6060
2026-01-21 12:56:29.73	51.47	17.93	-41.2	-42.2	22.3	0.00e+00	0	41	0	442499072	54	6582
2026-01-21 12:56:33.77	52.27	18.19	-40.8	-41.8	22.5	0.00e+00	0	41	0	449839104	54	6262
2026-01-21 12:56:37.81	53.08	18.45	-40.6	-41.6	22.7	0.00e+00	0	41	0	457179136	54	6114
2026-01-21 12:56:41.84	53.90	18.70	-41.4	-42.5	21.9	0.00e+00	0	41	0	465567744	54	6799
2026-01-21 12:56:45.88	54.74	18.95	-41.3	-42.4	22.5	0.00e+00	0	41	0	472907776	56	5965
2026-01-21 12:56:49.93	55.60	19.20	-42.4	-43.7	21.2	0.00e+00	0	41	0	480247808	56	6942
2026-01-21 12:56:53.96	56.46	19.44	-41.9	-43.0	21.6	0.00e+00	0	41	0	487587840	56	6454
2026-01-21 12:56:58.00	57.35	19.68	-42.2	-43.3	21.4	0.00e+00	0	41	0	494927872	56	6688
2026-01-21 12:57:02.04	58.24	19.91	-42.3	-43.5	21.2	0.00e+00	0	41	0	503316480	56	6833
2026-01-21 12:57:06.08	59.15	20.14	-42.7	-43.9	20.8	0.00e+00	0	41	0	510656512	58	6359
2026-01-21 12:57:10.11	60.07	20.37	-41.9	-43.1	21.5	0.00e+00	0	41	0	517996544	58	5799
2026-01-21 12:57:14.15	61.00	20.59	-41.7	-42.9	21.7	0.00e+00	0	41	0	525336576	56	6338
2026-01-21 12:57:18.19	61.95	20.80	-41.7	-42.8	21.9	0.00e+00	0	41	0	533725184	56	6315
2026-01-21 12:57:22.22	62.91	21.01	-42.5	-43.7	21.0	0.00e+00	0	41	0	541065216	56	6992
2026-01-21 12:57:26.26	63.88	21.21	-41.2	-42.3	22.1	0.00e+00	0	41	0	548405248	56	5931
2026-01-21 12:57:30.30	64.86	21.40	-41.7	-42.8	21.9	0.00e+00	0	41	0	555745280	56	6300
2026-01-21 12:57:34.34	65.86	21.59	-41.9	-43.1	21.6	0.00e+00	0	41	0	563085312	56	6469
2026-01-21 12:57:38.38	66.87	21.77	-42.2	-43.3	21.4	0.00e+00	0	41	0	571473920	56	6687
2026-01-21 12:57:42.42	67.89	21.94	-41.3	-42.3	22.4	0.00e+00	0	41	0	578813952	56	5929
2026-01-21 12:57:46.46	68.92	22.11	-42.0	-43.1	21.7	0.00e+00	0	41	0	586153984	56	6487
2026-01-21 12:57:50.50	69.96	22.26	-41.5	-42.5	22.1	0.00e+00	0	41	0	593494016	56	6078
2026-01-21 12:57:54.54	71.01	22.41	-41.2	-42.2	22.3	0.00e+00	0	41	0	601882624	56	5883
2026-01-21 12:57:58.58	72.07	22.55	-41.8	-42.9	21.8	0.00e+00	0	41	0	609222656	56	6367
2026-01-21 12:58:02.62	73.14	22.68	-42.9	-44.2	20.7	0.00e+00	0	41	0	616562688	58	6543
2026-01-21 12:58:06.65	74.22	22.79	-42.2	-43.4	21.3	0.00e+00	0	41	0	623902720	58	5973
2026-01-21 12:58:10.69	75.30	22.90	-42.0	-43.1	21.7	0.00e+00	0	41	0	631242752	56	6507
2026-01-21 12:58:14.73	76.40	23.00	-40.9	-41.9	22.6	0.00e+00	0	41	0	639631360	56	5678
2026-01-21 12:58:18.76	77.49	23.09	-42.1	-43.2	21.5	0.00e+00	0	41	0	646971392	56	6601
2026-01-21 12:58:22.80	78.60	23.17	-41.0	-42.0	22.5	0.00e+00	0	41	0	654311424	56	5698
2026-01-21 12:58:26.83	79.71	23.24	-41.3	-42.3	22.1	0.00e+00	0	42	0	661651456	56	5953
2026-01-21 12:58:30.87	80.82	23.29	-41.3	-42.4	22.1	0.00e+00	0	41	0	670040064	56	5981
2026-01-21 12:58:34.91	81.94	23.34	-41.4	-42.5	22.2	0.00e+00	0	41	0	677380096	56	6041
2026-01-21 12:58:38.94	83.06	23.37	-41.3	-42.4	22.2	0.00e+00	0	41	0	684720128	56	5996
2026-01-21 12:58:42.98	84.19	23.40	-41.4	-42.5	22.0	0.00e+00	0	41	0	692060160	56	6065
2026-01-21 12:58:47.02	85.31	23.41	-41.1	-42.1	22.4	0.00e+00	0	41	0	699400192	56	5768
2026-01-21 12:58:51.06	86.44	23.41	-40.7	-41.7	22.6	0.00e+00	0	41	0	707788800	54	6230
2026-01-21 12:58:55.09	87.56	23.40	-40.7	-41.7	22.6	0.00e+00	0	41	0	715128832	54	6185
2026-01-21 12:58:59.13	88.69	23.38	-39.9	-40.8	23.3	0.00e+00	0	41	0	722468864	54	5604
2026-01-21 12:59:03.17	89.81	23.35	-40.3	-41.3	22.9	0.00e+00	0	41	0	729808896	54	5919
2026-01-21 12:59:07.21	90.93	23.30	-40.9	-41.9	22.4	0.00e+00	0	41	0	738197504	54	6360
2026-01-21 12:59:11.25	92.05	23.25	-41.3	-42.4	22.2	0.00e+00	0	41	0	745537536	54	6695
2026-01-21 12:59:15.29	93.16	23.18	-40.4	-41.4	22.9	0.00e+00	0	41	0	752877568	54	5972
2026-01-21 12:59:19.33	94.27	23.11	-40.8	-41.8	22.5	0.00e+00	0	41	0	760217600	54	6279
2026-01-21 12:59:23.36	95.37	23.02	-40.0	-40.9	23.2	0.00e+00	0	41	0	767557632	54	5679
2026-01-21 12:59:27.40	96.46	22.92	-40.1	-41.1	23.2	0.00e+00	0	41	0	775946240	52	6497
2026-01-21 12:59:31.44	97.55	22.81	-39.2	-40.1	23.9	0.00e+00	0	42	0	783286272	52	5773
2026-01-21 12:59:35.48	98.63	22.70	-39.7	-40.6	23.4	0.00e+00	0	41	0	790626304	52	6173
2026-01-21 12:59:39.52	99.71	22.57	-39.9	-40.8	23.3	0.00e+00	0	42	0	797966336	52	6283
2026-01-21 12:59:43.56	100.77	22.43	-39.9	-40.8	23.3	0.00e+00	0	42	0	806354944	52	6267
2026-01-21 12:59:47.60	101.83	22.29	-39.0	-39.8	24.1	0.00e+00	0	41	0	813694976	52	5612
2026-01-21 12:59:51.63	102.87	22.13	-38.7	-39.5	24.3	0.00e+00	0	42	0	821035008	50	6102
2026-01-21 12:59:55.67	103.91	21.97	-39.1	-40.0	23.8	0.00e+00	0	41	0	828375040	50	6411
2026-01-21 12:59:59.71	104.93	21.80	-38.9	-39.7	24.1	0.00e+00	0	42	0	835715072	50	6244
2026-01-21 13:00:03.75	105.94	21.62	-39.3	-40.2	23.8	0.00e+00	0	41	0	844103680	50	6575
2026-01-21 13:00:07.78	106.94	21.43	-39.4	-40.3	23.7	0.00e+00	0	41	0	851443712	50	6667
2026-01-21 13:00:11.82	107.93	21.24	-39.6	-40.5	23.4	0.00e+00	0	42	0	858783744	52	6065
2026-01-21 13:00:15.86	108.91	21.04	-39.6	-40.5	23.6	0.00e+00	0	41	0	866123776	52	6081
2026-01-21 13:00:19.90	109.87	20.83	-39.8	-40.7	23.0	0.00e+00	0	42	0	874512384	52	6244
2026-01-21 13:00:23.94	110.83	20.62	-40.6	-41.6	22.6	0.00e+00	0	42	0	881852416	52	6915
2026-01-21 13:00:27.98	111.77	20.40	-41.1	-42.1	22.1	0.00e+00	0	42	0	889192448	54	6526
2026-01-21 13:00:32.02	112.69	20.17	-40.1	-41.1	22.8	0.00e+00	0	42	0	896532480	52	6497
2026-01-21 13:00:36.06	113.60	19.94	-40.7	-41.9	22.3	0.00e+00	0	42	0	903872512	54	6332
2026-01-21 13:00:40.10	114.50	19.71	-41.3	-42.4	22.0	0.00e+00	0	42	0	912261120	54	6721
2026-01-21 13:00:44.14	115.39	19.47	-41.5	-42.6	21.8	0.00e+00	0	41	0	919601152	56	6155
2026-01-21 13:00:48.18	116.26	19.22	-40.9	-41.9	22.3	0.00e+00	0	41	0	926941184	56	5665
2026-01-21 13:00:52.22	117.12	18.97	-41.2	-42.3	21.9	0.00e+00	0	42	0	934281216	54	6628
2026-01-21 13:00:56.26	117.97	18.72	-41.0	-42.1	22.1	0.00e+00	0	42	0	942669824	54	6481
2026-01-21 13:01:00.30	118.80	18.47	-41.3	-42.5	21.9	0.00e+00	0	42	0	950009856	54	6772
2026-01-21 13:01:04.34	119.62	18.21	-41.1	-42.3	21.9	0.00e+00	0	42	0	957349888	54	6654
2026-01-21 13:01:08.37	120.42	17.95	-40.8	-41.9	22.2	0.00e+00	0	42	0	964689920	54	6384
2026-01-21 13:01:12.41	121.21	17.69	-40.7	-41.7	22.4	0.00e+00	0	42	0	972029952	54	6225
2026-01-21 13:01:16.45	121.99	17.42	-40.4	-41.4	22.6	0.00e+00	0	42	0	980418560	54	6005
2026-01-21 13:01:20.48	122.75	17.15	-40.8	-41.8	22.4	0.00e+00	0	42	0	987758592	54	6300
2026-01-21 13:01:24.52	123.50	16.88	-41.0	-42.1	22.1	0.00e+00	0	42	0	995098624	54	6500
2026-01-21 13:01:28.55	124.24	16.61	-42.1	-43.3	21.1	0.00e+00	0	42	0	1002438656	56	6678
2026-01-21 13:01:32.59	124.97	16.34	-41.2	-42.2	21.9	0.00e+00	0	42	0	1010827264	56	5891
2026-01-21 13:01:36.63	125.68	16.07	-40.8	-41.9	22.4	0.00e+00	0	42	0	1018167296	54	6340
2026-01-21 13:01:40.67	126.38	15.79	-41.3	-42.5	21.8	0.00e+00	0	42	0	1025507328	54	6787
2026-01-21 13:01:44.71	127.07	15.52	-40.4	-41.4	22.5	0.00e+00	0	42	0	1032847360	54	5974
2026-01-21 13:01:48.75	127.74	15.24	-40.8	-41.8	22.3	0.00e+00	0	42	0	1040187392	54	6273
2026-01-21 13:01:52.78	128.41	14.96	-41.1	-42.2	21.9	0.00e+00	0	42	0	1048576000	54	6607
2026-01-21 13:01:56.82	129.06	14.69	-41.0	-42.0	22.1	0.00e+00	0	42	0	1055916032	54	6456
2026-01-21 13:02:00.86	129.70	14.41	-41.8	-43.0	21.3	0.00e+00	0	42	0	1063256064	56	6415
2026-01-21 13:02:04.89	130.33	14.13	-41.3	-42.4	21.7	0.00e+00	0	42	0	1070596096	56	6027
2026-01-21 13:02:08.94	130.95	13.85	-41.5	-42.6	21.6	0.00e+00	0	42	0	1078984704	56	6157
2026-01-21 13:02:12.98	131.55	13.58	-42.5	-43.8	20.7	0.00e+00	0	42	0	1086324736	56	7021
2026-01-21 13:02:17.01	132.15	13.30	-41.7	-42.9	21.4	0.00e+00	0	42	0	1093664768	56	6342
2026-01-21 13:02:21.05	132.73	13.03	-41.4	-42.5	21.7	0.00e+00	0	42	0	1101004800	56	6100
2026-01-21 13:02:25.09	133.31	12.75	-41.1	-42.2	22.0	0.00e+00	0	42	0	1108344832	56	5867
2026-01-21 13:02:29.12	133.87	12.47	-41.8	-42.9	21.4	0.00e+00	0	42	0	1116733440	56	6371
2026-01-21 13:02:33.16	134.43	12.20	-41.0	-42.1	21.6	0.00e+00	0	42	0	1124073472	56	5812
2026-01-21 13:02:37.20	134.97	11.93	-41.6	-42.8	21.4	0.00e+00	0	42	0	1131413504	56	6263
2026-01-21 13:02:41.24	135.51	11.65	-41.2	-42.3	21.7	0.00e+00	0	42	0	1138753536	56	5951
2026-01-21 13:02:45.28	136.03	11.38	-41.0	-42.1	21.9	0.00e+00	0	42	0	1146093568	56	5807
2026-01-21 13:02:49.32	136.55	11.11	-41.2	-42.3	21.8	0.00e+00	0	42	0	1154482176	56	5909
2026-01-21 13:02:53.36	137.05	10.84	-41.6	-42.8	21.3	0.00e+00	0	42	0	1161822208	56	6279
2026-01-21 13:02:57.39	137.55	10.57	-41.7	-42.8	21.1	0.00e+00	0	42	0	1169162240	56	6306
2026-01-21 13:03:01.43	138.04	10.30	-41.5	-42.6	21.4	0.00e+00	0	42	0	1176502272	56	6171
2026-01-21 13:03:05.47	138.52	10.03	-41.9	-43.1	21.0	0.00e+00	0	42	0	1184890880	56	6496
2026-01-21 13:03:09.51	138.99	9.77	-42.7	-44.1	20.2	0.00e+00	0	42	0	1192230912	56	7291
2026-01-21 13:03:13.55	139.46	9.50	-43.3	-44.8	19.4	0.00e+00	0	42	0	1199570944	58	7025
2026-01-21 13:03:17.58	139.91	9.24	-43.2	-44.9	19.1	0.00e+00	0	42	0	1206910976	58	7096
2026-01-21 13:03:21.62	140.36	8.98	-43.5	-45.2	18.5	0.00e+00	0	42	0	1214251008	58	7362
2026-01-21 13:03:25.65	140.80	8.72	-44.0	-46.0	17.4	0.00e+00	0	42	0	1222639616	60	7196
2026-01-21 13:03:29.69	141.24	8.46	-44.1	-46.2	17.3	0.00e+00	0	42	0	1229979648	60	7342
2026-01-21 13:03:33.73	141.66	8.20	-44.0	-46.1	17.3	0.00e+00	0	42	0	1237319680	60	7277
2026-01-21 13:03:37.77	142.08	7.94	-44.2	-46.2	17.5	0.00e+00	0	42	0	1244659712	60	7351
2026-01-21 13:03:41.81	142.49	7.69	-44.5	-46.6	16.9	0.00e+00	0	42	0	1253048320	60	7752
2026-01-21 13:03:45.85	142.90	7.43	-44.7	-46.8	16.9	0.00e+00	0	42	0	1260388352	60	7939
2026-01-21 13:03:49.89	143.30	7.18	-44.0	-46.0	17.7	0.00e+00	0	42	0	1267728384	60	7212
2026-01-21 13:03:53.92	143.69	6.93	-43.5	-45.5	18.2	0.00e+00	0	42	0	1275068416	60	6782
2026-01-21 13:03:57.96	144.07	6.68	-43.2	-44.9	18.9	0.00e+00	0	42	0	1282408448	60	6342
2026-01-21 13:04:02.00	144.45	6.43	-43.5	-45.3	18.4	0.00e+00	0	42	0	1290797056	60	6692
2026-01-21 13:04:06.03	144.82	6.18	-43.7	-45.6	18.1	0.00e+00	0	42	0	1298137088	60	6897
2026-01-21 13:04:10.07	145.19	5.94	-44.1	-46.1	17.8	0.00e+00	0	42	0	1305477120	60	7275
2026-01-21 13:04:14.11	145.55	5.69	-44.0	-45.9	18.0	0.00e+00	0	42	0	1312817152	60	7158
2026-01-21 13:04:18.15	145.91	5.45	-43.6	-45.4	18.5	0.00e+00	0	42	0	1321205760	60	6710
2026-01-21 13:04:22.19	146.26	5.21	-43.4	-45.1	18.7	0.00e+00	0	42	0	1328545792	60	6478
2026-01-21 13:04:26.23	146.60	4.97	-43.4	-45.0	18.8	0.00e+00	0	42	0	1335885824	60	6459
2026-01-21 13:04:30.26	146.94	4.73	-43.6	-45.4	18.2	0.00e+00	0	42	0	1343225856	60	6707
2026-01-21 13:04:34.30	147.27	4.49	-43.3	-45.0	18.7	0.00e+00	0	42	0	1350565888	60	6420
2026-01-21 13:04:38.34	147.60	4.25	-44.0	-45.9	17.7	0.00e+00	0	42	0	1358954496	60	7114
2026-01-21 13:04:42.38	147.93	4.02	-44.1	-46.3	17.2	0.00e+00	0	42	0	1366294528	60	7434
2026-01-21 13:04:46.42	148.24	3.78	-44.0	-46.1	17.4	0.00e+00	0	42	0	1373634560	60	7268
2026-01-21 13:04:50.46	148.56	3.55	-44.1	-46.2	17.2	0.00e+00	0	42	0	1380974592	60	7405
2026-01-21 13:04:54.50	148.87	3.32	-44.4	-46.7	16.7	0.00e+00	0	42	0	1389363200	60	7859
2026-01-21 13:04:58.53	149.17	3.09	-44.9	-47.5	15.5	0.00e+00	0	42	0	1396703232	60	8573
2026-01-21 13:05:02.56	149.47	2.86	-49.6	-64.8	3.6	1.51e+00	0	42	104	1399848960	60	62962
2026-01-21 13:05:06.59	149.77	2.63	-50.8	-66.0	3.6	1.51e+00	0	42	104	1399848960	60	72425
2026-01-21 13:05:10.63	150.06	2.41	-51.0	-66.3	3.6	1.51e+00	0	42	104	1399848960	60	74256
2026-01-21 13:05:14.67	150.35	2.18	-51.1	-66.3	3.6	1.51e+00	0	42	104	1399848960	60	74537
2026-01-21 13:05:18.71	150.63	1.96	-51.4	-66.6	3.6	1.51e+00	0	42	104	1399848960	60	76967
2026-01-21 13:05:22.76	150.91	1.73	-51.5	-66.7	3.6	1.51e+00	0	42	104	1399848960	60	78124
2026-01-21 13:05:26.79	151.18	1.51	-51.5	-66.7	3.6	1.51e+00	0	42	104	1399848960	60	78608
2026-01-21 13:05:30.83	151.45	1.29	-51.7	-66.9	3.6	1.51e+00	0	42	104	1399848960	60	80436
2026-01-21 13:05:34.87	151.72	1.07	-51.8	-67.1	3.6	1.51e+00	0	42	104	1399848960	60	81792
2026-01-21 13:05:38.91	151.99	0.86	-52.3	-67.6	3.6	1.51e+00	0	42	104	1399848960	60	86386
2026-01-21 13:05:42.95	152.25	0.64	-52.0	-67.3	3.6	1.51e+00	0	42	104	1399848960	60	83359
2026-01-21 13:05:46.98	152.50	0.42	-51.7	-67.0	3.6	1.51e+00	0	42	104	1399848960	60	80954
2026-01-21 13:05:51.02	152.76	0.21	-51.5	-66.7	3.6	1.51e+00	0	42	104	1399848960	60	78271
2026-01-21 13:05:55.06	153.01	-0.00	-51.8	-67.0	3.6	1.51e+00	0	42	104	1399848960	60	80908

#Closed at: 2026-01-21 13:05:56
#Recorded file [1399 MB]: D:/lorett/data/35029_260122_005142.dat