passes_logs/2026/01/21/R4.6S_Anadyr/R4.6S_Anadyr__20260121_224751_SUOMI_NPP_rec.log

#Pass ID: 20260121_224751_SUOMI NPP
#Satellite: SUOMI NPP
#Configuration: NPP
#almurnet v.1.7.20251203
#Start time: 2026-01-21 22:47:53

#Version: 2.2.20231116
#Station: R4.6S_Anadyr
#Location: 177.4865 lon 64.73178 lat
#TLE: 1 37849U 11061A   26020.95430537  .00000198  00000+0  11470-3 0  9999
#TLE: 2 37849  98.7819 322.9518 0002315  53.3069 306.8320 14.19527555737555

#Time	Az	El	Level	Level2	SNR	BER	BlckErr	Temp	State	Recorded	gain1	gain2
2026-01-21 22:47:53.20	119.80	0.11	-51.0	-63.6	3.4	1.52e+00	0	39	0	0	60	53155
2026-01-21 22:47:57.23	119.66	0.34	-51.1	-66.3	3.6	1.51e+00	0	40	104	0	60	74462
2026-01-21 22:48:01.28	119.51	0.58	-50.9	-66.1	3.6	1.51e+00	0	40	104	0	60	72861
2026-01-21 22:48:05.32	119.36	0.82	-50.8	-66.0	3.6	1.51e+00	0	40	104	0	60	72359
2026-01-21 22:48:09.36	119.20	1.06	-50.7	-65.9	3.6	1.51e+00	0	40	104	0	60	71278
2026-01-21 22:48:13.40	119.05	1.30	-50.0	-65.4	3.6	1.51e+00	0	40	104	0	60	67614
2026-01-21 22:48:17.44	118.89	1.54	-49.3	-64.6	3.6	1.51e+00	0	40	104	0	60	61279
2026-01-21 22:48:21.48	118.72	1.79	-48.9	-64.5	3.6	1.51e+00	0	40	104	0	60	60920
2026-01-21 22:48:25.51	118.56	2.03	-48.9	-64.5	3.6	1.51e+00	0	40	104	0	60	60414
2026-01-21 22:48:29.56	118.39	2.28	-48.8	-64.3	3.6	1.51e+00	0	40	104	0	60	59483
2026-01-21 22:48:33.60	118.22	2.53	-48.8	-64.4	3.6	1.51e+00	0	40	104	0	60	60163
2026-01-21 22:48:37.64	118.04	2.79	-48.8	-64.4	3.5	1.51e+00	0	40	104	0	60	60332
2026-01-21 22:48:41.68	117.86	3.04	-48.8	-63.9	3.6	1.51e+00	0	40	104	0	60	56774
2026-01-21 22:48:45.72	117.68	3.30	-48.8	-64.2	3.6	1.51e+00	0	40	104	0	60	58724
2026-01-21 22:48:49.76	117.50	3.56	-48.3	-57.4	6.5	1.17e+00	0	40	104	0	60	26841
2026-01-21 22:48:53.79	117.31	3.82	-48.4	-64.1	3.6	4.04e-01	0	40	104	2097152	60	58227
2026-01-21 22:48:57.83	117.12	4.08	-45.9	-49.3	14.1	0.00e+00	72	40	0	4194304	60	10590
2026-01-21 22:49:01.87	116.92	4.35	-44.4	-47.1	16.5	0.00e+00	0	40	0	11534336	60	8153
2026-01-21 22:49:05.91	116.72	4.61	-44.1	-46.6	16.7	0.00e+00	0	40	0	19922944	60	7767
2026-01-21 22:49:09.95	116.52	4.88	-43.6	-45.6	18.0	0.00e+00	92	40	0	27262976	60	6896
2026-01-21 22:49:13.99	116.31	5.16	-43.6	-45.4	18.2	0.00e+00	91	40	0	34603008	60	6715
2026-01-21 22:49:18.02	116.10	5.43	-43.2	-44.8	18.9	0.00e+00	0	40	0	41943040	60	6313
2026-01-21 22:49:22.07	115.88	5.71	-43.1	-44.7	19.1	0.00e+00	21	40	0	49283072	60	6235
2026-01-21 22:49:26.11	115.66	5.99	-43.7	-45.6	18.2	0.00e+00	70	40	0	57671680	60	6860
2026-01-21 22:49:30.15	115.44	6.27	-42.8	-44.4	19.5	0.00e+00	92	40	0	65011712	60	6000
2026-01-21 22:49:34.19	115.21	6.56	-42.5	-44.0	19.6	0.00e+00	0	40	0	72351744	58	6443
2026-01-21 22:49:38.22	114.98	6.84	-42.7	-44.2	19.6	0.00e+00	92	40	0	79691776	58	6585
2026-01-21 22:49:42.26	114.74	7.14	-42.9	-44.5	19.2	0.00e+00	90	40	0	88080384	58	6776
2026-01-21 22:49:46.30	114.49	7.43	-41.6	-42.8	21.0	0.00e+00	38	40	0	95420416	56	6263
2026-01-21 22:49:50.33	114.24	7.73	-42.2	-43.6	20.1	0.00e+00	0	41	0	102760448	56	6849
2026-01-21 22:49:54.37	113.99	8.03	-41.9	-43.3	20.4	0.00e+00	90	40	0	110100480	58	5950
2026-01-21 22:49:58.41	113.73	8.33	-41.9	-43.2	20.6	0.00e+00	91	40	0	117440512	56	6575
2026-01-21 22:50:02.44	113.46	8.63	-41.8	-43.1	20.6	0.00e+00	0	40	0	125829120	56	6479
2026-01-21 22:50:06.48	113.19	8.94	-42.3	-43.6	20.2	0.00e+00	3	41	0	133169152	56	6916
2026-01-21 22:50:10.52	112.91	9.25	-42.0	-43.4	20.5	0.00e+00	77	40	0	140509184	56	6694
2026-01-21 22:50:14.55	112.63	9.57	-42.3	-43.6	20.3	0.00e+00	90	40	0	147849216	56	6886
2026-01-21 22:50:18.59	112.34	9.89	-42.9	-44.3	19.6	0.00e+00	0	40	0	155189248	58	6673
2026-01-21 22:50:22.63	112.04	10.21	-41.3	-42.7	21.0	0.00e+00	91	41	0	163577856	56	6235
2026-01-21 22:50:26.67	111.73	10.53	-41.6	-43.2	20.6	0.00e+00	90	41	0	170917888	56	6562
2026-01-21 22:50:30.70	111.42	10.86	-42.0	-43.3	20.5	0.00e+00	92	41	0	178257920	56	6636
2026-01-21 22:50:34.74	111.10	11.20	-40.4	-41.5	22.1	0.00e+00	0	41	0	185597952	54	6079
2026-01-21 22:50:38.77	110.78	11.53	-41.0	-42.2	21.6	0.00e+00	92	41	0	193986560	54	6551
2026-01-21 22:50:42.81	110.44	11.87	-40.4	-41.6	22.2	0.00e+00	92	41	0	201326592	54	6105
2026-01-21 22:50:46.85	110.10	12.21	-40.7	-41.8	21.7	0.00e+00	0	41	0	208666624	54	6306
2026-01-21 22:50:50.89	109.75	12.56	-41.1	-42.3	21.4	0.00e+00	0	41	0	216006656	54	6635
2026-01-21 22:50:54.92	109.39	12.91	-41.0	-42.0	21.8	0.00e+00	91	41	0	223346688	54	6462
2026-01-21 22:50:58.96	109.02	13.27	-41.3	-42.5	21.3	0.00e+00	91	41	0	231735296	54	6797
2026-01-21 22:51:03.00	108.64	13.63	-41.2	-42.4	21.4	0.00e+00	0	41	0	239075328	54	6699
2026-01-21 22:51:07.04	108.26	13.99	-41.3	-42.5	21.5	0.00e+00	0	41	0	246415360	54	6784
2026-01-21 22:51:11.08	107.86	14.36	-41.3	-42.5	21.6	0.00e+00	92	41	0	253755392	54	6777
2026-01-21 22:51:15.11	107.45	14.73	-40.8	-42.0	22.0	0.00e+00	89	41	0	262144000	54	6396
2026-01-21 22:51:19.15	107.03	15.10	-40.4	-41.5	22.1	0.00e+00	0	41	0	269484032	54	6101
2026-01-21 22:51:23.19	106.60	15.49	-40.1	-41.2	22.6	0.00e+00	92	41	0	276824064	54	5830
2026-01-21 22:51:27.22	106.17	15.87	-39.9	-40.9	22.8	0.00e+00	92	41	0	284164096	52	6335
2026-01-21 22:51:31.27	105.71	16.26	-40.2	-41.2	22.6	0.00e+00	0	41	0	291504128	52	6613
2026-01-21 22:51:35.31	105.25	16.65	-40.0	-41.0	22.8	0.00e+00	0	41	0	299892736	52	6417
2026-01-21 22:51:39.34	104.77	17.05	-40.7	-41.8	22.1	0.00e+00	92	41	0	307232768	54	6285
2026-01-21 22:51:43.38	104.28	17.45	-40.3	-41.4	22.1	0.00e+00	92	41	0	314572800	54	6002
2026-01-21 22:51:47.42	103.78	17.86	-40.4	-41.4	22.5	0.00e+00	0	41	0	321912832	54	5976
2026-01-21 22:51:51.46	103.26	18.27	-40.4	-41.4	22.5	0.00e+00	0	41	0	330301440	54	5974
2026-01-21 22:51:55.50	102.72	18.68	-40.8	-41.9	22.1	0.00e+00	63	41	0	337641472	54	6328
2026-01-21 22:51:59.54	102.18	19.10	-41.4	-42.5	21.5	0.00e+00	91	41	0	344981504	54	6828
2026-01-21 22:52:03.58	101.61	19.53	-41.2	-42.3	21.8	0.00e+00	0	41	0	352321536	54	6623
2026-01-21 22:52:07.62	101.03	19.95	-41.2	-42.3	21.6	0.00e+00	36	41	0	359661568	54	6674
2026-01-21 22:52:11.65	100.44	20.38	-41.5	-42.7	21.6	0.00e+00	80	41	0	368050176	56	6204
2026-01-21 22:52:15.69	99.82	20.82	-41.4	-42.5	21.6	0.00e+00	92	41	0	375390208	56	6078
2026-01-21 22:52:19.72	99.19	21.26	-41.5	-42.6	21.7	0.00e+00	0	41	0	382730240	56	6116
2026-01-21 22:52:23.76	98.54	21.70	-41.4	-42.5	21.8	0.00e+00	92	41	0	390070272	56	6081
2026-01-21 22:52:27.79	97.87	22.15	-41.2	-42.2	22.0	0.00e+00	92	41	0	397410304	56	5877
2026-01-21 22:52:31.83	97.19	22.60	-40.5	-41.6	22.5	0.00e+00	0	41	0	405798912	54	6108
2026-01-21 22:52:35.86	96.48	23.06	-40.7	-41.8	22.3	0.00e+00	0	41	0	413138944	54	6271
2026-01-21 22:52:39.90	95.75	23.51	-41.3	-42.4	21.8	0.00e+00	90	41	0	420478976	54	6708
2026-01-21 22:52:43.94	94.99	23.98	-41.6	-42.8	21.6	0.00e+00	90	41	0	427819008	56	6257
2026-01-21 22:52:47.98	94.22	24.44	-42.2	-43.5	20.5	0.00e+00	0	41	0	436207616	56	6804
2026-01-21 22:52:52.01	93.42	24.90	-42.1	-43.3	20.9	0.00e+00	70	41	0	443547648	56	6691
2026-01-21 22:52:56.05	92.59	25.37	-41.9	-43.1	21.2	0.00e+00	61	41	0	450887680	56	6496
2026-01-21 22:53:00.08	91.75	25.84	-41.9	-43.1	21.4	0.00e+00	92	41	0	458227712	56	6496
2026-01-21 22:53:04.12	90.87	26.31	-41.6	-42.7	21.7	0.00e+00	20	41	0	465567744	56	6215
2026-01-21 22:53:08.16	89.97	26.78	-41.8	-43.0	21.4	0.00e+00	92	41	0	473956352	56	6430
2026-01-21 22:53:12.20	89.04	27.25	-41.9	-43.1	21.4	0.00e+00	92	41	0	481296384	56	6501
2026-01-21 22:53:16.24	88.09	27.72	-41.3	-42.4	22.0	0.00e+00	0	41	0	488636416	56	5996
2026-01-21 22:53:20.28	87.10	28.19	-42.4	-43.7	20.9	0.00e+00	0	41	0	495976448	56	6957
2026-01-21 22:53:24.32	86.09	28.66	-42.1	-43.3	21.1	0.00e+00	90	41	0	504365056	56	6639
2026-01-21 22:53:28.36	85.04	29.12	-41.0	-42.0	22.1	0.00e+00	92	41	0	511705088	56	5736
2026-01-21 22:53:32.40	83.96	29.58	-41.5	-42.6	21.7	0.00e+00	0	41	0	519045120	56	6164
2026-01-21 22:53:36.43	82.86	30.04	-41.4	-42.5	21.8	0.00e+00	7	41	0	526385152	56	6078
2026-01-21 22:53:40.47	81.72	30.49	-42.9	-44.3	20.2	0.00e+00	92	41	0	533725184	58	6652
2026-01-21 22:53:44.51	80.55	30.94	-43.8	-45.3	19.6	0.00e+00	92	41	0	542113792	60	6681
2026-01-21 22:53:48.55	79.35	31.38	-43.0	-44.4	20.2	0.00e+00	0	41	0	549453824	58	6755
2026-01-21 22:53:52.58	78.11	31.80	-44.3	-46.2	18.8	0.00e+00	92	41	0	556793856	60	7338
2026-01-21 22:53:56.63	76.84	32.23	-43.9	-45.5	19.5	0.00e+00	92	41	0	564133888	60	6783
2026-01-21 22:54:00.67	75.54	32.64	-44.9	-46.9	17.8	0.00e+00	0	41	0	572522496	60	8029
2026-01-21 22:54:04.71	74.20	33.03	-45.8	-48.1	17.1	0.00e+00	0	41	0	579862528	60	9150
2026-01-21 22:54:08.74	72.84	33.42	-45.2	-47.2	17.7	0.00e+00	92	41	0	587202560	60	8276
2026-01-21 22:54:12.78	71.44	33.79	-44.4	-46.1	18.7	0.00e+00	92	41	0	594542592	60	7268
2026-01-21 22:54:16.82	70.01	34.14	-42.7	-44.0	20.5	0.00e+00	0	41	0	601882624	58	6399
2026-01-21 22:54:20.86	68.54	34.48	-43.3	-44.8	20.3	0.00e+00	0	41	0	610271232	60	6254
2026-01-21 22:54:24.89	67.05	34.80	-43.2	-44.7	20.1	0.00e+00	81	41	0	617611264	60	6201
2026-01-21 22:54:28.93	65.53	35.10	-41.7	-42.9	21.5	0.00e+00	90	41	0	624951296	56	6334
2026-01-21 22:54:32.97	63.98	35.38	-39.2	-40.1	23.7	0.00e+00	0	41	0	632291328	52	5771
2026-01-21 22:54:37.01	62.41	35.64	-38.8	-39.6	24.1	0.00e+00	0	41	0	640679936	52	5480
2026-01-21 22:54:41.05	60.81	35.87	-40.0	-40.9	23.1	0.00e+00	71	41	0	648019968	52	6359
2026-01-21 22:54:45.09	59.19	36.08	-39.5	-40.5	23.5	0.00e+00	0	41	0	655360000	52	6054
2026-01-21 22:54:49.12	57.55	36.27	-40.2	-41.2	22.9	0.00e+00	0	41	0	662700032	52	6592
2026-01-21 22:54:53.16	55.90	36.43	-39.6	-40.5	23.5	0.00e+00	91	41	0	670040064	52	6088
2026-01-21 22:54:57.20	54.22	36.56	-38.7	-39.5	24.1	0.00e+00	91	41	0	678428672	50	6052
2026-01-21 22:55:01.24	52.54	36.66	-40.1	-41.1	22.8	0.00e+00	0	41	0	685768704	52	6511
2026-01-21 22:55:05.27	50.85	36.74	-41.0	-42.1	22.4	0.00e+00	0	41	0	693108736	54	6480
2026-01-21 22:55:09.31	49.15	36.79	-41.6	-42.8	21.5	0.00e+00	92	41	0	700448768	54	7047
2026-01-21 22:55:13.35	47.45	36.81	-40.9	-42.0	22.3	0.00e+00	92	41	0	708837376	54	6402
2026-01-21 22:55:17.39	45.74	36.80	-41.2	-42.3	22.2	0.00e+00	0	41	0	716177408	56	5922
2026-01-21 22:55:21.43	44.04	36.76	-42.2	-43.4	21.4	0.00e+00	80	41	0	723517440	58	6031
2026-01-21 22:55:25.47	42.35	36.69	-43.3	-44.8	19.9	0.00e+00	92	41	0	730857472	58	7023
2026-01-21 22:55:29.50	40.67	36.59	-41.7	-42.8	21.6	0.00e+00	16	41	0	738197504	58	5604
2026-01-21 22:55:33.54	38.99	36.47	-41.6	-42.7	21.7	0.00e+00	0	41	0	746586112	56	6234
2026-01-21 22:55:37.57	37.33	36.32	-42.0	-43.1	21.4	0.00e+00	92	41	0	753926144	56	6517
2026-01-21 22:55:41.61	35.69	36.14	-42.4	-43.6	20.8	0.00e+00	92	41	0	761266176	56	6900
2026-01-21 22:55:45.65	34.07	35.94	-43.7	-45.3	19.3	0.00e+00	0	41	0	768606208	58	7443
2026-01-21 22:55:49.69	32.46	35.71	-42.9	-44.3	20.3	0.00e+00	0	41	0	776994816	58	6651
2026-01-21 22:55:53.73	30.88	35.46	-41.9	-43.0	21.4	0.00e+00	68	41	0	784334848	56	6461
2026-01-21 22:55:57.77	29.33	35.19	-41.8	-42.9	21.6	0.00e+00	92	41	0	791674880	56	6370
2026-01-21 22:56:01.81	27.80	34.90	-40.6	-41.6	22.5	0.00e+00	0	41	0	799014912	54	6157
2026-01-21 22:56:05.85	26.30	34.58	-42.8	-44.2	20.4	0.00e+00	0	41	0	806354944	56	7362
2026-01-21 22:56:09.88	24.84	34.25	-41.3	-42.4	22.0	0.00e+00	79	41	0	814743552	56	6002
2026-01-21 22:56:13.92	23.40	33.90	-42.8	-44.2	20.2	0.00e+00	0	41	0	822083584	58	6561
2026-01-21 22:56:17.96	21.99	33.54	-41.9	-43.2	21.3	0.00e+00	0	41	0	829423616	58	5855
2026-01-21 22:56:22.00	20.62	33.16	-41.0	-42.0	22.2	0.00e+00	56	41	0	836763648	56	5745
2026-01-21 22:56:26.04	19.28	32.76	-42.4	-43.7	20.9	0.00e+00	39	41	0	845152256	56	6953
2026-01-21 22:56:30.08	17.97	32.36	-40.7	-41.6	22.6	0.00e+00	0	41	0	852492288	56	5500
2026-01-21 22:56:34.12	16.69	31.94	-41.9	-43.1	21.5	0.00e+00	0	41	0	859832320	56	6496
2026-01-21 22:56:38.15	15.45	31.52	-41.4	-42.4	21.9	0.00e+00	92	41	0	867172352	56	6011
2026-01-21 22:56:42.19	14.24	31.08	-42.5	-43.7	21.0	0.00e+00	92	41	0	874512384	56	6984
2026-01-21 22:56:46.23	13.06	30.64	-44.0	-45.6	19.4	0.00e+00	0	41	0	882900992	60	6876
2026-01-21 22:56:50.27	11.92	30.19	-43.3	-44.8	20.1	0.00e+00	0	41	0	890241024	60	6246
2026-01-21 22:56:54.31	10.81	29.74	-42.0	-43.2	21.3	0.00e+00	13	41	0	897581056	58	5844
2026-01-21 22:56:58.34	9.73	29.28	-40.6	-41.6	22.5	0.00e+00	63	41	0	904921088	54	6168
2026-01-21 22:57:02.38	8.68	28.82	-40.8	-41.8	22.5	0.00e+00	0	41	0	913309696	54	6313
2026-01-21 22:57:06.42	7.66	28.35	-41.9	-43.1	21.1	0.00e+00	92	41	0	920649728	56	6502
2026-01-21 22:57:10.46	6.67	27.89	-41.1	-42.2	22.2	0.00e+00	80	41	0	927989760	56	5834
2026-01-21 22:57:14.50	5.70	27.42	-41.3	-42.4	21.9	0.00e+00	0	41	0	935329792	56	5984
2026-01-21 22:57:18.53	4.77	26.95	-40.1	-41.1	22.9	0.00e+00	0	41	0	942669824	54	5788
2026-01-21 22:57:22.57	3.87	26.48	-40.3	-41.2	23.0	0.00e+00	50	41	0	951058432	54	5892
2026-01-21 22:57:26.61	2.99	26.01	-41.0	-42.1	22.2	0.00e+00	0	41	0	958398464	54	6490
2026-01-21 22:57:30.65	2.13	25.54	-41.2	-42.3	22.1	0.00e+00	5	41	0	965738496	54	6659
2026-01-21 22:57:34.69	1.31	25.08	-40.8	-41.8	22.4	0.00e+00	0	41	0	973078528	54	6314
2026-01-21 22:57:38.73	0.50	24.61	-40.2	-41.2	22.8	0.00e+00	83	41	0	980418560	54	5875
2026-01-21 22:57:42.77	359.72	24.15	-40.4	-41.4	22.7	0.00e+00	0	41	0	988807168	54	5984
2026-01-21 22:57:46.81	358.96	23.69	-39.8	-40.7	23.1	0.00e+00	0	41	0	996147200	54	5528
2026-01-21 22:57:50.85	358.23	23.23	-40.2	-41.2	22.8	0.00e+00	54	41	0	1003487232	54	5841
2026-01-21 22:57:54.88	357.52	22.78	-41.1	-42.2	22.1	0.00e+00	86	41	0	1010827264	54	6584
2026-01-21 22:57:58.92	356.83	22.33	-42.3	-43.5	20.9	0.00e+00	0	41	0	1019215872	56	6839
2026-01-21 22:58:02.95	356.15	21.88	-40.8	-41.9	22.4	0.00e+00	0	41	0	1026555904	56	5645
2026-01-21 22:58:06.99	355.50	21.44	-39.8	-40.8	23.1	0.00e+00	0	41	0	1033895936	52	6254
2026-01-21 22:58:11.03	354.87	21.00	-40.6	-41.6	22.5	0.00e+00	0	41	0	1041235968	52	6927
2026-01-21 22:58:15.07	354.25	20.56	-39.7	-40.6	23.4	0.00e+00	0	41	0	1048576000	52	6164
2026-01-21 22:58:19.11	353.65	20.13	-39.9	-40.8	23.1	0.00e+00	0	41	0	1056964608	52	6310
2026-01-21 22:58:23.15	353.07	19.70	-42.2	-43.4	20.7	0.00e+00	92	41	0	1064304640	56	6751
2026-01-21 22:58:27.18	352.51	19.28	-43.7	-45.2	19.4	0.00e+00	0	41	0	1071644672	60	6614
2026-01-21 22:58:31.22	351.96	18.86	-41.8	-43.0	21.3	0.00e+00	0	41	0	1078984704	58	5721
2026-01-21 22:58:35.26	351.42	18.45	-41.0	-42.0	22.1	0.00e+00	0	41	0	1087373312	56	5748
2026-01-21 22:58:39.30	350.90	18.04	-41.6	-42.7	21.4	0.00e+00	90	41	0	1094713344	54	7002
2026-01-21 22:58:43.33	350.40	17.63	-41.2	-42.3	21.8	0.00e+00	0	41	0	1102053376	56	5938
2026-01-21 22:58:47.37	349.91	17.23	-40.0	-40.9	22.9	0.00e+00	0	41	0	1109393408	54	5669
2026-01-21 22:58:51.41	349.43	16.83	-40.3	-41.3	22.7	0.00e+00	62	41	0	1116733440	52	6646
2026-01-21 22:58:55.45	348.96	16.44	-41.0	-42.1	21.9	0.00e+00	0	41	0	1125122048	54	6484
2026-01-21 22:58:59.49	348.51	16.05	-41.3	-42.3	21.8	0.00e+00	0	41	0	1132462080	54	6675
2026-01-21 22:59:03.52	348.07	15.67	-41.5	-42.6	21.5	0.00e+00	0	41	0	1139802112	54	6870
2026-01-21 22:59:07.56	347.64	15.29	-41.2	-42.3	21.7	0.00e+00	74	41	0	1147142144	54	6648
2026-01-21 22:59:11.60	347.22	14.91	-41.5	-42.6	21.5	0.00e+00	0	41	0	1155530752	54	6925
2026-01-21 22:59:15.63	346.81	14.54	-42.2	-43.4	20.8	0.00e+00	0	41	0	1162870784	56	6742
2026-01-21 22:59:19.67	346.41	14.17	-42.9	-44.4	19.9	0.00e+00	0	41	0	1170210816	58	6701
2026-01-21 22:59:23.71	346.02	13.81	-42.9	-44.3	20.4	0.00e+00	36	41	0	1177550848	58	6620
2026-01-21 22:59:27.75	345.65	13.45	-41.9	-43.0	21.2	0.00e+00	0	41	0	1184890880	58	5745
2026-01-21 22:59:31.79	345.28	13.09	-41.4	-42.5	21.7	0.00e+00	0	41	0	1193279488	56	6075
2026-01-21 22:59:35.83	344.92	12.74	-40.9	-41.9	22.0	0.00e+00	7	41	0	1200619520	56	5668
2026-01-21 22:59:39.86	344.57	12.40	-41.0	-42.0	22.0	0.00e+00	36	41	0	1207959552	56	5740
2026-01-21 22:59:43.90	344.23	12.05	-41.2	-42.2	21.7	0.00e+00	0	41	0	1215299584	56	5872
2026-01-21 22:59:47.94	343.89	11.71	-41.5	-42.6	21.5	0.00e+00	0	41	0	1223688192	56	6144
2026-01-21 22:59:51.98	343.56	11.38	-41.8	-43.0	21.1	0.00e+00	91	41	0	1231028224	56	6413
2026-01-21 22:59:56.02	343.25	11.04	-42.0	-43.3	20.8	0.00e+00	0	41	0	1238368256	56	6635
2026-01-21 23:00:00.05	342.94	10.72	-42.1	-43.4	20.7	0.00e+00	0	41	0	1245708288	56	6724
2026-01-21 23:00:04.09	342.63	10.39	-42.6	-44.0	20.1	0.00e+00	0	41	0	1253048320	56	7174
2026-01-21 23:00:08.13	342.34	10.07	-43.6	-45.2	19.0	0.00e+00	92	41	0	1261436928	58	7405
2026-01-21 23:00:12.17	342.04	9.75	-44.1	-45.9	18.5	0.00e+00	0	41	0	1268776960	60	7130
2026-01-21 23:00:16.21	341.76	9.43	-44.0	-45.8	18.5	0.00e+00	0	41	0	1276116992	60	7030
2026-01-21 23:00:20.24	341.48	9.12	-43.7	-45.5	18.7	0.00e+00	0	41	0	1283457024	60	6786
2026-01-21 23:00:24.29	341.21	8.81	-43.1	-44.7	19.6	0.00e+00	90	41	0	1291845632	60	6179
2026-01-21 23:00:28.32	340.95	8.51	-42.6	-44.0	20.1	0.00e+00	0	41	0	1299185664	58	6441
2026-01-21 23:00:32.36	340.69	8.20	-42.8	-44.2	20.0	0.00e+00	0	41	0	1306525696	58	6591
2026-01-21 23:00:36.40	340.44	7.90	-43.0	-44.5	19.7	0.00e+00	76	41	0	1313865728	58	6806
2026-01-21 23:00:40.44	340.19	7.61	-42.8	-44.2	19.8	0.00e+00	0	42	0	1321205760	58	6588
2026-01-21 23:00:44.48	339.94	7.31	-43.7	-45.3	18.8	0.00e+00	0	41	0	1329594368	58	7503
2026-01-21 23:00:48.52	339.71	7.02	-43.9	-45.7	18.5	0.00e+00	0	41	0	1336934400	60	6975
2026-01-21 23:00:52.55	339.47	6.74	-44.2	-46.1	18.1	0.00e+00	88	41	0	1344274432	60	7255
2026-01-21 23:00:56.59	339.25	6.45	-44.4	-46.5	17.5	0.00e+00	0	41	0	1351614464	60	7629
2026-01-21 23:01:00.63	339.02	6.17	-44.9	-47.1	17.0	0.00e+00	0	42	0	1360003072	60	8224
2026-01-21 23:01:04.67	338.81	5.89	-44.3	-46.3	17.7	0.00e+00	5	42	0	1367343104	60	7488
2026-01-21 23:01:08.70	338.59	5.61	-44.4	-46.6	17.0	0.00e+00	92	42	0	1374683136	60	7764
2026-01-21 23:01:12.74	338.38	5.33	-45.1	-47.8	15.7	0.00e+00	0	42	0	1382023168	60	8897
2026-01-21 23:01:16.78	338.18	5.06	-45.5	-49.0	13.9	5.30e-06	0	42	0	1389363200	60	10235
2026-01-21 23:01:20.82	337.97	4.79	-45.8	-50.5	11.2	1.43e-03	4	42	0	1397751808	60	12167
2026-01-21 23:01:24.86	337.78	4.52	-46.0	-52.7	7.8	7.54e-02	47	42	0	1405091840	60	15613
2026-01-21 23:01:28.90	337.58	4.26	-45.9	-56.0	4.1	9.00e-01	8	42	0	1412431872	60	22820
2026-01-21 23:01:32.94	337.39	3.99	-45.8	-59.4	3.6	1.50e+00	0	42	104	1413480448	60	33720
2026-01-21 23:01:36.97	337.21	3.73	-45.7	-60.7	3.6	1.51e+00	0	42	104	1413480448	60	39066
2026-01-21 23:01:41.01	337.02	3.47	-45.8	-61.1	3.6	1.51e+00	0	42	104	1413480448	60	40964
2026-01-21 23:01:45.05	336.85	3.22	-45.8	-61.1	3.6	1.51e+00	0	42	104	1413480448	60	40876
2026-01-21 23:01:49.09	336.67	2.96	-45.9	-61.1	3.6	1.51e+00	0	41	104	1413480448	60	40857
2026-01-21 23:01:53.13	336.50	2.71	-50.7	-65.9	3.6	1.51e+00	0	42	104	1413480448	60	71215
2026-01-21 23:01:57.17	336.33	2.46	-50.9	-66.1	3.6	1.51e+00	0	42	104	1413480448	60	73362
2026-01-21 23:02:01.21	336.16	2.21	-51.0	-66.3	3.6	1.51e+00	0	42	104	1413480448	60	74250
2026-01-21 23:02:05.25	336.00	1.96	-51.0	-66.2	3.6	1.51e+00	0	42	104	1413480448	60	73878
2026-01-21 23:02:09.29	335.84	1.72	-50.8	-66.2	3.6	1.51e+00	0	42	104	1413480448	60	73534
2026-01-21 23:02:13.33	335.68	1.47	-51.0	-66.3	3.6	1.51e+00	0	42	104	1413480448	60	74496
2026-01-21 23:02:17.37	335.53	1.23	-51.0	-66.3	3.6	1.51e+00	0	41	104	1413480448	60	74280
2026-01-21 23:02:21.41	335.37	0.99	-51.0	-66.2	3.6	1.51e+00	0	41	104	1413480448	60	73816
2026-01-21 23:02:25.45	335.23	0.76	-51.1	-66.4	3.6	1.51e+00	0	41	104	1413480448	60	75376
2026-01-21 23:02:29.50	335.08	0.52	-50.9	-66.2	3.6	1.51e+00	0	42	104	1413480448	60	73693
2026-01-21 23:02:33.54	334.93	0.28	-51.0	-66.3	3.6	1.51e+00	0	41	104	1413480448	60	75014
2026-01-21 23:02:37.58	334.79	0.05	-50.9	-66.2	3.6	1.51e+00	0	41	104	1413480448	60	73499

#Closed at: 2026-01-21 23:02:40
#Recorded file [1413 MB]: D:/lorett/data/35029_260122_104753.dat