passes_logs/2026/01/21/R4.6S_Anadyr/R4.6S_Anadyr__20260121_221833_NOAA_21_JPSS-2_rec.log

#Pass ID: 20260121_221833_NOAA 21 (JPSS-2)
#Satellite: NOAA 21 (JPSS-2)
#Configuration: NOAA-21
#almurnet v.1.7.20251203
#Start time: 2026-01-21 22:18:39

#Version: 2.2.20231116
#Station: R4.6S_Anadyr
#Location: 177.4865 lon 64.73178 lat
#TLE: 1 54234U 22150A   26020.93347024  .00000206  00000+0  11859-3 0  9994
#TLE: 2 54234  98.7506 321.7615 0000627 245.8100 114.3011 14.19536899165654

#Time	Az	El	Level	Level2	SNR	BER	BlckErr	Temp	State	Recorded	gain1	gain2
2026-01-21 22:18:39.17	109.97	0.32	-51.1	-52.7	5.7	0.00e+00	0	38	0	0	60	52747
2026-01-21 22:18:43.07	109.79	0.54	-51.0	-63.9	3.5	1.51e+00	0	40	104	0	60	54770
2026-01-21 22:18:46.98	109.60	0.76	-51.0	-63.8	3.5	1.52e+00	0	40	104	0	60	54169
2026-01-21 22:18:50.88	109.42	0.99	-50.9	-63.7	3.5	1.52e+00	0	40	104	0	60	53944
2026-01-21 22:18:54.79	109.23	1.21	-50.7	-63.5	3.5	1.52e+00	0	40	104	0	60	52570
2026-01-21 22:18:58.71	109.04	1.44	-50.2	-63.2	3.5	1.52e+00	0	40	104	0	60	51003
2026-01-21 22:19:02.61	108.84	1.67	-48.2	-61.8	3.5	1.52e+00	0	40	104	0	60	43243
2026-01-21 22:19:06.52	108.64	1.90	-48.0	-61.7	3.5	1.52e+00	0	40	104	0	60	42515
2026-01-21 22:19:10.42	108.44	2.13	-47.7	-61.8	3.5	1.52e+00	0	40	104	0	60	43037
2026-01-21 22:19:14.33	108.24	2.37	-47.6	-61.8	3.5	1.52e+00	0	40	104	0	60	43076
2026-01-21 22:19:18.25	108.03	2.60	-47.5	-61.7	3.5	1.52e+00	0	40	104	0	60	42477
2026-01-21 22:19:22.15	107.82	2.84	-47.7	-61.4	3.5	1.52e+00	0	40	104	0	60	41237
2026-01-21 22:19:26.06	107.60	3.08	-47.4	-60.7	3.5	1.52e+00	0	41	104	0	60	38093
2026-01-21 22:19:29.99	107.38	3.32	-47.3	-59.6	3.7	1.51e+00	0	41	104	0	60	33552
2026-01-21 22:19:33.89	107.16	3.56	-46.0	-51.9	8.9	3.94e-02	0	41	0	2097152	60	13772
2026-01-21 22:19:37.80	106.93	3.81	-48.6	-61.0	3.5	1.50e+00	0	41	104	3145728	60	39318
2026-01-21 22:19:41.72	106.70	4.05	-43.1	-45.4	16.2	0.00e+00	0	41	0	3145728	58	7312
2026-01-21 22:19:45.62	106.46	4.30	-42.8	-44.8	16.5	0.00e+00	0	41	0	3145728	58	6812
2026-01-21 22:19:49.54	106.22	4.55	-42.0	-43.7	17.8	0.00e+00	0	41	0	3145728	56	6802
2026-01-21 22:19:53.44	105.98	4.80	-41.0	-42.6	18.8	0.00e+00	0	41	101	3145728	56	5934
2026-01-21 22:19:57.36	105.73	5.05	-40.2	-41.7	20.0	0.00e+00	0	41	101	3145728	54	6050
2026-01-21 22:20:01.27	105.48	5.31	-39.3	-40.7	20.7	0.00e+00	0	41	101	3145728	52	6003
2026-01-21 22:20:05.18	105.22	5.57	-39.8	-41.1	20.2	0.00e+00	0	41	101	3145728	52	6281
2026-01-21 22:20:09.09	104.96	5.82	-39.6	-40.8	20.8	0.00e+00	0	41	101	3145728	52	6099
2026-01-21 22:20:13.01	104.69	6.09	-39.5	-40.7	20.9	0.00e+00	0	41	101	3145728	52	6000
2026-01-21 22:20:16.92	104.42	6.35	-39.5	-40.6	21.0	0.00e+00	0	41	101	3145728	52	5948
2026-01-21 22:20:20.83	104.14	6.61	-39.4	-40.5	21.3	0.00e+00	0	41	101	3145728	52	5880
2026-01-21 22:20:24.75	103.85	6.88	-39.3	-40.4	21.3	0.00e+00	0	41	101	3145728	52	5815
2026-01-21 22:20:28.66	103.57	7.15	-39.3	-40.5	21.2	0.00e+00	0	41	101	3145728	52	5861
2026-01-21 22:20:32.56	103.27	7.42	-38.8	-39.8	21.6	0.00e+00	0	41	101	3145728	50	6127
2026-01-21 22:20:36.47	102.97	7.69	-38.7	-39.8	21.5	0.00e+00	0	41	101	3145728	50	6084
2026-01-21 22:20:40.38	102.67	7.97	-38.6	-39.9	21.5	0.00e+00	0	41	101	3145728	50	6169
2026-01-21 22:20:44.30	102.35	8.25	-38.7	-39.9	21.8	0.00e+00	0	41	101	3145728	50	6186
2026-01-21 22:20:48.21	102.04	8.53	-38.9	-40.1	21.6	0.00e+00	0	41	101	3145728	50	6316
2026-01-21 22:20:52.11	101.71	8.81	-38.3	-39.4	22.4	0.00e+00	0	41	101	3145728	50	5808
2026-01-21 22:20:56.02	101.38	9.10	-38.1	-39.1	22.7	0.00e+00	0	41	101	3145728	50	5603
2026-01-21 22:20:59.93	101.04	9.38	-38.2	-39.2	22.5	0.00e+00	0	41	101	3145728	50	5683
2026-01-21 22:21:03.83	100.70	9.67	-38.3	-39.3	22.4	0.00e+00	0	41	101	3145728	50	5735
2026-01-21 22:21:07.75	100.35	9.96	-38.3	-39.3	22.4	0.00e+00	0	41	101	3145728	50	5741
2026-01-21 22:21:11.66	99.99	10.26	-38.1	-39.1	22.5	0.00e+00	0	41	101	3145728	50	5634
2026-01-21 22:21:15.57	99.62	10.55	-37.9	-38.9	22.8	0.00e+00	0	41	101	3145728	50	5477
2026-01-21 22:21:19.47	99.25	10.85	-37.8	-38.8	22.7	0.00e+00	0	41	101	3145728	48	6108
2026-01-21 22:21:23.38	98.87	11.15	-37.8	-38.8	22.9	0.00e+00	0	41	101	3145728	48	6124
2026-01-21 22:21:27.29	98.48	11.46	-37.6	-38.6	23.0	0.00e+00	0	41	101	3145728	48	5948
2026-01-21 22:21:31.20	98.08	11.76	-37.4	-38.4	23.2	0.00e+00	0	41	101	3145728	48	5814
2026-01-21 22:21:35.11	97.67	12.07	-37.4	-38.4	23.2	0.00e+00	0	41	101	3145728	48	5807
2026-01-21 22:21:39.02	97.25	12.38	-37.4	-38.3	23.4	0.00e+00	0	41	101	3145728	48	5763
2026-01-21 22:21:42.92	96.83	12.69	-37.1	-38.1	23.5	0.00e+00	0	41	101	3145728	48	5614
2026-01-21 22:21:46.84	96.39	13.01	-37.1	-38.0	23.6	0.00e+00	0	41	101	3145728	48	5588
2026-01-21 22:21:50.74	95.95	13.33	-37.1	-38.1	23.6	0.00e+00	0	41	101	3145728	48	5611
2026-01-21 22:21:54.64	95.50	13.65	-36.9	-37.9	23.7	0.00e+00	0	41	101	3145728	48	5482
2026-01-21 22:21:58.55	95.03	13.97	-37.0	-37.9	23.9	0.00e+00	0	41	101	3145728	48	5490
2026-01-21 22:22:02.46	94.56	14.30	-36.8	-37.7	23.9	0.00e+00	0	41	101	3145728	46	6013
2026-01-21 22:22:06.36	94.07	14.62	-37.1	-38.1	23.5	0.00e+00	0	41	101	3145728	46	6295
2026-01-21 22:22:10.27	93.57	14.95	-37.3	-38.2	23.5	0.00e+00	0	41	101	3145728	46	6378
2026-01-21 22:22:14.19	93.07	15.29	-37.3	-38.2	23.6	0.00e+00	0	41	101	3145728	46	6372
2026-01-21 22:22:18.10	92.55	15.62	-37.2	-38.2	23.7	0.00e+00	0	41	101	3145728	46	6351
2026-01-21 22:22:22.01	92.01	15.96	-37.0	-37.9	23.7	0.00e+00	0	41	101	3145728	46	6202
2026-01-21 22:22:25.93	91.47	16.30	-37.3	-38.3	23.4	0.00e+00	0	41	101	3145728	46	6450
2026-01-21 22:22:29.86	90.91	16.64	-37.3	-38.2	23.6	0.00e+00	0	41	101	3145728	46	6402
2026-01-21 22:22:33.77	90.34	16.98	-37.1	-38.0	23.8	0.00e+00	0	41	101	3145728	46	6260
2026-01-21 22:22:37.67	89.76	17.32	-37.1	-38.0	23.8	0.00e+00	0	41	101	3145728	46	6257
2026-01-21 22:22:41.58	89.16	17.67	-37.4	-38.4	23.6	0.00e+00	0	41	101	3145728	46	6526
2026-01-21 22:22:45.50	88.55	18.02	-37.1	-38.1	23.9	0.00e+00	0	41	101	3145728	46	6284
2026-01-21 22:22:49.41	87.92	18.37	-37.0	-38.0	23.8	0.00e+00	0	41	101	3145728	46	6212
2026-01-21 22:22:53.32	87.28	18.72	-37.4	-38.4	23.6	0.00e+00	0	41	101	3145728	46	6502
2026-01-21 22:22:57.22	86.63	19.07	-37.0	-37.9	23.9	0.00e+00	0	41	101	3145728	46	6156
2026-01-21 22:23:01.14	85.95	19.42	-37.2	-38.1	23.9	0.00e+00	0	41	101	3145728	46	6296
2026-01-21 22:23:05.05	85.27	19.77	-36.8	-37.8	24.0	0.00e+00	0	41	101	3145728	46	6071
2026-01-21 22:23:08.97	84.56	20.13	-36.9	-37.8	24.0	0.00e+00	0	41	101	3145728	46	6114
2026-01-21 22:23:12.88	83.84	20.48	-36.7	-37.6	23.9	0.00e+00	0	41	101	3145728	46	5987
2026-01-21 22:23:16.80	83.10	20.84	-36.8	-37.7	24.2	0.00e+00	0	41	101	3145728	46	6046
2026-01-21 22:23:20.71	82.35	21.19	-36.5	-37.4	24.3	0.00e+00	0	41	101	3145728	46	5798
2026-01-21 22:23:24.62	81.58	21.55	-36.3	-37.2	24.5	0.00e+00	0	41	101	3145728	46	5692
2026-01-21 22:23:28.53	80.79	21.90	-36.4	-37.3	24.5	0.00e+00	0	41	101	3145728	46	5738
2026-01-21 22:23:32.43	79.98	22.25	-36.4	-37.3	24.3	0.00e+00	0	41	101	3145728	46	5770
2026-01-21 22:23:36.35	79.16	22.60	-36.1	-37.1	24.7	0.00e+00	0	41	101	3145728	46	5596
2026-01-21 22:23:40.25	78.31	22.95	-36.0	-36.9	24.6	0.00e+00	0	42	101	3145728	46	5514
2026-01-21 22:23:44.17	77.45	23.29	-36.0	-36.9	24.7	0.00e+00	0	42	101	3145728	46	5483
2026-01-21 22:23:48.08	76.56	23.64	-35.9	-36.8	24.8	0.00e+00	0	41	101	3145728	46	5432
2026-01-21 22:23:51.99	75.66	23.98	-36.1	-37.0	24.6	0.00e+00	0	41	101	3145728	46	5547
2026-01-21 22:23:55.90	74.74	24.31	-36.4	-37.3	24.3	0.00e+00	0	42	101	3145728	46	5772
2026-01-21 22:23:59.82	73.79	24.65	-37.3	-38.2	24.0	0.00e+00	0	41	101	3145728	46	6394
2026-01-21 22:24:03.73	72.83	24.98	-36.9	-37.8	24.1	0.00e+00	0	41	101	3145728	48	5429
2026-01-21 22:24:07.64	71.84	25.30	-37.0	-37.9	24.2	0.00e+00	0	42	101	3145728	46	6187
2026-01-21 22:24:11.55	70.84	25.62	-36.6	-37.5	24.2	0.00e+00	0	41	101	3145728	46	5912
2026-01-21 22:24:15.47	69.81	25.93	-37.0	-37.9	23.9	0.00e+00	0	42	101	3145728	46	6156
2026-01-21 22:24:19.38	68.77	26.23	-36.4	-37.3	24.3	0.00e+00	0	41	101	3145728	46	5743
2026-01-21 22:24:23.29	67.70	26.53	-36.8	-37.8	24.1	0.00e+00	0	42	101	3145728	46	6083
2026-01-21 22:24:27.22	66.61	26.82	-37.0	-37.9	24.1	0.00e+00	0	42	101	3145728	46	6170
2026-01-21 22:24:31.13	65.51	27.10	-36.9	-37.9	24.0	0.00e+00	0	42	101	3145728	46	6137
2026-01-21 22:24:35.04	64.39	27.37	-36.4	-37.3	24.5	0.00e+00	0	42	101	3145728	46	5762
2026-01-21 22:24:38.94	63.25	27.63	-36.8	-37.7	24.3	0.00e+00	0	42	101	3145728	46	6011
2026-01-21 22:24:42.86	62.08	27.88	-36.3	-37.2	24.6	0.00e+00	0	41	101	3145728	46	5693
2026-01-21 22:24:46.77	60.90	28.12	-36.7	-37.6	24.3	0.00e+00	0	42	101	3145728	46	5983
2026-01-21 22:24:50.68	59.71	28.35	-36.8	-37.7	24.3	0.00e+00	0	41	101	3145728	46	6017
2026-01-21 22:24:54.59	58.49	28.57	-36.6	-37.5	24.5	0.00e+00	0	41	101	3145728	46	5863
2026-01-21 22:24:58.51	57.26	28.77	-36.8	-37.7	24.2	0.00e+00	0	42	101	3145728	46	6045
2026-01-21 22:25:02.42	56.02	28.96	-36.9	-37.8	24.2	0.00e+00	0	41	101	3145728	46	6114
2026-01-21 22:25:06.33	54.76	29.14	-37.0	-37.9	24.2	0.00e+00	0	42	101	3145728	46	6165
2026-01-21 22:25:10.25	53.48	29.30	-37.1	-38.0	24.1	0.00e+00	0	41	101	3145728	46	6229
2026-01-21 22:25:14.16	52.20	29.44	-37.6	-38.5	23.7	0.00e+00	0	42	101	3145728	46	6640
2026-01-21 22:25:18.08	50.90	29.57	-37.2	-38.1	23.9	0.00e+00	0	41	101	3145728	46	6337
2026-01-21 22:25:22.00	49.60	29.69	-37.1	-38.0	24.1	0.00e+00	0	42	101	3145728	46	6227
2026-01-21 22:25:25.91	48.28	29.78	-36.9	-37.8	24.2	0.00e+00	0	42	101	3145728	46	6120
2026-01-21 22:25:29.82	46.96	29.86	-36.7	-37.6	24.2	0.00e+00	0	42	101	3145728	46	5994
2026-01-21 22:25:33.73	45.64	29.93	-36.2	-37.1	24.7	0.00e+00	0	42	101	3145728	46	5641
2026-01-21 22:25:37.64	44.31	29.97	-36.8	-37.7	24.1	0.00e+00	0	42	101	3145728	46	6033
2026-01-21 22:25:41.56	42.97	30.00	-36.5	-37.4	24.2	0.00e+00	0	42	101	3145728	46	5829
2026-01-21 22:25:45.47	41.63	30.01	-36.4	-37.3	24.5	0.00e+00	0	42	101	3145728	46	5730
2026-01-21 22:25:49.38	40.30	30.01	-36.7	-37.6	24.2	0.00e+00	0	42	101	3145728	46	5940
2026-01-21 22:25:53.30	38.96	29.98	-36.9	-37.9	24.0	0.00e+00	0	42	101	3145728	46	6140
2026-01-21 22:25:57.20	37.63	29.94	-37.4	-38.4	23.7	0.00e+00	0	42	101	3145728	46	6523
2026-01-21 22:26:01.11	36.30	29.89	-37.0	-37.9	24.0	0.00e+00	0	42	101	3145728	46	6176
2026-01-21 22:26:05.02	34.98	29.81	-36.8	-37.7	24.2	0.00e+00	0	42	101	3145728	46	6015
2026-01-21 22:26:08.94	33.67	29.72	-37.1	-38.0	24.0	0.00e+00	0	42	101	3145728	46	6259
2026-01-21 22:26:12.84	32.36	29.61	-37.0	-38.0	23.8	0.00e+00	0	42	101	3145728	46	6213
2026-01-21 22:26:16.75	31.07	29.48	-36.9	-37.9	24.0	0.00e+00	0	42	101	3145728	46	6152
2026-01-21 22:26:20.66	29.78	29.34	-37.0	-37.9	24.1	0.00e+00	0	42	101	3145728	46	6205
2026-01-21 22:26:24.57	28.51	29.19	-36.9	-37.9	24.0	0.00e+00	0	42	101	3145728	46	6147
2026-01-21 22:26:28.47	27.25	29.02	-37.5	-38.4	23.7	0.00e+00	0	42	101	3145728	46	6558
2026-01-21 22:26:32.38	26.00	28.83	-37.6	-38.6	23.5	0.00e+00	0	42	101	3145728	46	6683
2026-01-21 22:26:36.30	24.77	28.64	-37.7	-38.6	23.7	0.00e+00	0	42	101	3145728	46	6694
2026-01-21 22:26:40.20	23.55	28.43	-37.2	-38.2	23.9	0.00e+00	0	42	101	3145728	46	6353
2026-01-21 22:26:44.11	22.35	28.20	-37.3	-38.2	23.9	0.00e+00	0	42	101	3145728	46	6418
2026-01-21 22:26:48.02	21.17	27.97	-36.9	-37.8	24.0	0.00e+00	0	42	101	3145728	46	6101
2026-01-21 22:26:51.94	20.00	27.72	-36.2	-37.1	24.7	0.00e+00	0	42	101	3145728	46	5625
2026-01-21 22:26:55.85	18.86	27.46	-37.1	-38.0	24.1	0.00e+00	0	42	101	3145728	46	6268
2026-01-21 22:26:59.75	17.73	27.19	-37.3	-38.3	23.7	0.00e+00	0	42	101	3145728	46	6433
2026-01-21 22:27:03.66	16.62	26.92	-36.8	-37.8	24.2	0.00e+00	0	42	101	3145728	46	6072
2026-01-21 22:27:07.57	15.54	26.63	-36.3	-37.2	24.4	0.00e+00	0	42	101	3145728	46	5699
2026-01-21 22:27:11.48	14.47	26.34	-36.3	-37.2	24.5	0.00e+00	0	42	101	3145728	46	5682
2026-01-21 22:27:15.39	13.42	26.04	-36.7	-37.7	23.9	0.00e+00	0	42	101	3145728	46	6011
2026-01-21 22:27:19.31	12.39	25.73	-36.0	-36.9	24.6	0.00e+00	0	42	101	3145728	46	5483
2026-01-21 22:27:23.22	11.38	25.41	-36.3	-37.2	24.6	0.00e+00	0	42	101	3145728	46	5677
2026-01-21 22:27:27.13	10.39	25.09	-36.6	-37.5	24.4	0.00e+00	0	42	101	3145728	46	5863
2026-01-21 22:27:31.04	9.43	24.77	-36.5	-37.4	24.4	0.00e+00	0	42	101	3145728	46	5851
2026-01-21 22:27:34.96	8.48	24.43	-36.7	-37.6	24.2	0.00e+00	0	42	101	3145728	46	5986
2026-01-21 22:27:38.86	7.55	24.10	-36.1	-37.0	24.8	0.00e+00	0	42	101	3145728	46	5558
2026-01-21 22:27:42.78	6.64	23.76	-36.7	-37.6	24.3	0.00e+00	0	42	101	3145728	46	5940
2026-01-21 22:27:46.69	5.76	23.42	-36.7	-37.6	24.0	0.00e+00	0	42	101	3145728	46	5971
2026-01-21 22:27:50.60	4.89	23.08	-36.5	-37.4	24.3	0.00e+00	0	42	101	3145728	46	5803
2026-01-21 22:27:54.52	4.04	22.73	-36.4	-37.2	24.5	0.00e+00	0	42	101	3145728	46	5718
2026-01-21 22:27:58.42	3.21	22.38	-36.3	-37.2	24.4	0.00e+00	0	42	101	3145728	46	5704
2026-01-21 22:28:02.33	2.40	22.03	-36.3	-37.2	24.5	0.00e+00	0	42	101	3145728	46	5678
2026-01-21 22:28:06.24	1.61	21.68	-36.6	-37.5	24.2	0.00e+00	0	42	101	3145728	46	5869
2026-01-21 22:28:10.16	0.83	21.33	-36.6	-37.5	24.2	0.00e+00	0	42	101	3145728	46	5914
2026-01-21 22:28:14.07	0.07	20.98	-36.6	-37.5	24.1	0.00e+00	0	42	101	3145728	46	5894
2026-01-21 22:28:17.98	359.33	20.62	-36.5	-37.4	24.2	0.00e+00	0	42	101	3145728	46	5848
2026-01-21 22:28:21.89	358.61	20.27	-36.6	-37.5	24.1	0.00e+00	0	42	101	3145728	46	5922
2026-01-21 22:28:25.80	357.90	19.92	-36.2	-37.1	24.3	0.00e+00	0	42	101	3145728	46	5645
2026-01-21 22:28:29.70	357.22	19.57	-36.1	-37.0	24.5	0.00e+00	0	42	101	3145728	46	5537
2026-01-21 22:28:33.61	356.54	19.21	-36.2	-37.1	24.5	0.00e+00	0	42	101	3145728	44	6298
2026-01-21 22:28:37.52	355.89	18.86	-37.0	-37.9	23.9	0.00e+00	0	42	101	3145728	46	6148
2026-01-21 22:28:41.43	355.24	18.51	-36.7	-37.7	23.9	0.00e+00	0	42	101	3145728	46	5998
2026-01-21 22:28:45.35	354.61	18.16	-36.7	-37.7	24.0	0.00e+00	0	42	101	3145728	46	6018
2026-01-21 22:28:49.26	354.00	17.82	-37.1	-38.1	23.7	0.00e+00	0	42	101	3145728	46	6303
2026-01-21 22:28:53.17	353.40	17.47	-37.1	-38.1	23.5	0.00e+00	0	42	101	3145728	46	6311
2026-01-21 22:28:57.08	352.82	17.13	-36.7	-37.6	24.0	0.00e+00	0	42	101	3145728	46	5985
2026-01-21 22:29:01.00	352.24	16.79	-36.7	-37.6	24.1	0.00e+00	0	42	101	3145728	46	5966
2026-01-21 22:29:04.92	351.68	16.44	-37.2	-38.2	23.5	0.00e+00	0	42	101	3145728	46	6387
2026-01-21 22:29:08.83	351.14	16.11	-37.3	-38.2	23.4	0.00e+00	0	42	101	3145728	46	6409
2026-01-21 22:29:12.75	350.60	15.77	-37.3	-38.2	23.6	0.00e+00	0	42	101	3145728	46	6392
2026-01-21 22:29:16.66	350.08	15.44	-37.1	-38.0	23.7	0.00e+00	0	42	101	3145728	46	6247
2026-01-21 22:29:20.57	349.57	15.10	-37.7	-38.6	23.2	0.00e+00	0	42	101	3145728	46	6712
2026-01-21 22:29:24.49	349.07	14.77	-37.4	-38.4	23.3	0.00e+00	0	42	101	3145728	48	5829
2026-01-21 22:29:28.39	348.59	14.45	-37.0	-37.9	23.6	0.00e+00	0	42	101	3145728	48	5529
2026-01-21 22:29:32.30	348.11	14.12	-37.1	-38.1	23.6	0.00e+00	0	42	101	3145728	48	5630
2026-01-21 22:29:36.21	347.65	13.80	-37.0	-38.0	23.6	0.00e+00	0	42	101	3145728	48	5545
2026-01-21 22:29:40.12	347.19	13.48	-37.5	-38.5	23.3	0.00e+00	0	42	101	3145728	48	5867
2026-01-21 22:29:44.04	346.74	13.16	-37.9	-38.9	22.8	0.00e+00	0	42	101	3145728	48	6173
2026-01-21 22:29:47.96	346.31	12.84	-37.7	-38.7	23.0	0.00e+00	0	42	101	3145728	48	6001
2026-01-21 22:29:51.86	345.88	12.53	-37.6	-38.5	23.2	0.00e+00	0	42	101	3145728	48	5918
2026-01-21 22:29:55.77	345.47	12.22	-37.5	-38.5	23.3	0.00e+00	0	42	101	3145728	48	5860
2026-01-21 22:29:59.68	345.06	11.91	-38.1	-39.1	22.8	0.00e+00	0	42	101	3145728	48	6335
2026-01-21 22:30:03.59	344.66	11.60	-38.3	-39.4	22.5	0.00e+00	0	42	101	3145728	48	6499
2026-01-21 22:30:07.50	344.27	11.30	-38.8	-39.9	22.1	0.00e+00	0	42	101	3145728	50	6149
2026-01-21 22:30:11.41	343.89	11.00	-38.6	-39.7	22.2	0.00e+00	0	42	101	3145728	50	6003
2026-01-21 22:30:15.33	343.51	10.70	-38.6	-39.7	22.1	0.00e+00	0	42	101	3145728	50	6020
2026-01-21 22:30:19.24	343.14	10.40	-38.5	-39.6	22.3	0.00e+00	0	42	101	3145728	50	5931
2026-01-21 22:30:23.16	342.78	10.11	-38.5	-39.6	22.3	0.00e+00	0	42	101	3145728	50	5961
2026-01-21 22:30:27.06	342.43	9.82	-38.8	-39.9	22.1	0.00e+00	0	42	101	3145728	50	6174
2026-01-21 22:30:30.97	342.09	9.53	-39.4	-40.5	21.4	0.00e+00	0	42	101	3145728	50	6647
2026-01-21 22:30:34.89	341.75	9.24	-39.3	-40.5	21.5	0.00e+00	0	42	101	3145728	50	6588
2026-01-21 22:30:38.79	341.42	8.96	-39.2	-40.4	21.5	0.00e+00	0	42	101	3145728	50	6521
2026-01-21 22:30:42.70	341.10	8.68	-39.3	-40.5	21.3	0.00e+00	0	42	101	3145728	50	6582
2026-01-21 22:30:46.61	340.78	8.40	-38.8	-39.9	21.9	0.00e+00	0	42	101	3145728	50	6136
2026-01-21 22:30:50.53	340.47	8.12	-39.1	-40.2	21.7	0.00e+00	0	42	101	3145728	50	6357
2026-01-21 22:30:54.44	340.16	7.84	-39.1	-40.2	21.7	0.00e+00	0	42	101	3145728	50	6399
2026-01-21 22:30:58.34	339.86	7.57	-39.4	-40.5	21.5	0.00e+00	0	42	101	3145728	50	6575
2026-01-21 22:31:02.25	339.57	7.30	-39.7	-40.8	21.0	0.00e+00	0	42	101	3145728	50	6875
2026-01-21 22:31:06.16	339.28	7.03	-39.6	-40.7	21.2	0.00e+00	0	42	101	3145728	52	6036
2026-01-21 22:31:10.07	339.00	6.76	-39.7	-40.9	20.9	0.00e+00	0	42	101	3145728	52	6139
2026-01-21 22:31:13.99	338.72	6.50	-39.8	-40.9	20.8	7.00e-07	0	42	101	3145728	52	6197
2026-01-21 22:31:17.90	338.45	6.23	-39.3	-40.4	21.2	0.00e+00	0	42	101	3145728	52	5818
2026-01-21 22:31:21.81	338.19	5.97	-39.2	-40.3	21.1	0.00e+00	0	42	101	3145728	52	5750
2026-01-21 22:31:25.72	337.93	5.71	-39.5	-40.7	20.6	0.00e+00	0	42	101	3145728	52	6052
2026-01-21 22:31:29.64	337.67	5.45	-40.2	-41.5	19.3	0.00e+00	0	42	101	3145728	54	5892
2026-01-21 22:31:33.55	337.42	5.20	-42.2	-44.1	16.2	0.00e+00	0	42	101	3145728	56	7060
2026-01-21 22:31:37.47	337.17	4.95	-43.7	-46.7	12.7	7.55e-05	0	42	101	3145728	58	8480
2026-01-21 22:31:41.38	336.93	4.69	-44.7	-48.9	9.4	1.31e-02	0	42	101	3145728	60	9832
2026-01-21 22:31:45.28	336.69	4.45	-45.7	-53.7	5.4	1.47e+00	0	42	104	3145728	60	16921
2026-01-21 22:31:49.19	336.45	4.20	-45.9	-56.4	3.9	1.48e+00	0	42	104	3145728	60	23092
2026-01-21 22:31:53.12	336.22	3.95	-45.9	-58.6	3.5	1.52e+00	0	42	104	3145728	60	29846
2026-01-21 22:31:57.02	336.00	3.71	-45.9	-58.6	3.5	1.52e+00	0	42	104	3145728	60	30008
2026-01-21 22:32:00.94	335.78	3.46	-45.8	-58.6	3.5	1.51e+00	0	42	104	3145728	60	29956
2026-01-21 22:32:04.85	335.56	3.22	-45.8	-58.6	3.5	1.52e+00	0	42	104	3145728	60	29896
2026-01-21 22:32:08.76	335.34	2.98	-45.8	-58.6	3.5	1.52e+00	0	42	104	3145728	60	29877
2026-01-21 22:32:12.67	335.13	2.75	-50.6	-63.5	3.5	1.52e+00	0	42	104	3145728	60	52502
2026-01-21 22:32:16.57	334.93	2.51	-50.9	-63.8	3.5	1.51e+00	0	42	104	3145728	60	54422
2026-01-21 22:32:20.50	334.72	2.28	-51.0	-63.9	3.5	1.52e+00	0	42	104	3145728	60	55051
2026-01-21 22:32:24.41	334.52	2.04	-50.7	-63.8	3.5	1.52e+00	0	42	104	3145728	60	54124
2026-01-21 22:32:28.33	334.33	1.81	-50.9	-63.7	3.5	1.52e+00	0	42	104	3145728	60	54031
2026-01-21 22:32:32.23	334.13	1.58	-50.9	-63.8	3.5	1.52e+00	0	42	104	3145728	60	54510
2026-01-21 22:32:36.14	333.94	1.35	-51.0	-63.9	3.5	1.52e+00	0	42	104	3145728	60	55155
2026-01-21 22:32:40.05	333.76	1.13	-51.0	-63.9	3.5	1.51e+00	0	42	104	3145728	60	54784
2026-01-21 22:32:43.97	333.57	0.90	-51.0	-63.9	3.5	1.51e+00	0	42	104	3145728	60	54772
2026-01-21 22:32:47.89	333.39	0.68	-51.0	-63.9	3.5	1.52e+00	0	42	104	3145728	60	54690
2026-01-21 22:32:51.79	333.21	0.46	-51.1	-63.9	3.5	1.52e+00	0	42	104	3145728	60	55298
2026-01-21 22:32:55.70	333.04	0.24	-51.0	-63.8	3.5	1.52e+00	0	42	104	3145728	60	54602
2026-01-21 22:32:59.62	332.86	0.02	-51.0	-63.9	3.5	1.52e+00	0	42	104	3145728	60	55164

#Closed at: 2026-01-21 22:33:01
#Recorded file [3 MB]: D:/lorett/data/35029_260122_101839.dat