passes_logs/2026/01/21/R4.6S_Anadyr/R4.6S_Anadyr__20260121_143208_SUOMI_NPP_rec.log

#Pass ID: 20260121_143208_SUOMI NPP
#Satellite: SUOMI NPP
#Configuration: NPP
#almurnet v.1.7.20251203
#Start time: 2026-01-21 14:32:09

#Version: 2.2.20231116
#Station: R4.6S_Anadyr
#Location: 177.4865 lon 64.73178 lat
#TLE: 1 37849U 11061A   26020.95430537  .00000198  00000+0  11470-3 0  9999
#TLE: 2 37849  98.7819 322.9518 0002315  53.3069 306.8320 14.19527555737555

#Time	Az	El	Level	Level2	SNR	BER	BlckErr	Temp	State	Recorded	gain1	gain2
2026-01-21 14:32:09.35	20.06	0.08	-51.4	-63.9	3.4	1.52e+00	0	38	0	0	60	55241
2026-01-21 14:32:13.39	20.11	0.32	-51.5	-66.8	3.6	1.51e+00	0	40	104	0	60	78881
2026-01-21 14:32:17.43	20.16	0.57	-51.5	-66.7	3.6	1.51e+00	0	40	104	0	60	77995
2026-01-21 14:32:21.47	20.21	0.81	-51.3	-66.6	3.6	1.51e+00	0	40	104	0	60	76882
2026-01-21 14:32:25.50	20.26	1.06	-51.0	-66.2	3.6	1.51e+00	0	40	104	0	60	73820
2026-01-21 14:32:29.54	20.31	1.31	-50.5	-65.8	3.6	1.51e+00	0	40	104	0	60	70190
2026-01-21 14:32:33.59	20.37	1.56	-49.7	-64.9	3.6	1.51e+00	0	40	104	0	60	63666
2026-01-21 14:32:37.63	20.42	1.81	-49.7	-64.9	3.6	1.51e+00	0	40	104	0	60	63763
2026-01-21 14:32:41.66	20.47	2.07	-49.7	-64.9	3.6	1.51e+00	0	40	104	0	60	63778
2026-01-21 14:32:45.70	20.53	2.33	-49.7	-64.5	3.6	1.51e+00	0	40	104	0	60	60579
2026-01-21 14:32:49.75	20.58	2.59	-49.6	-63.6	3.6	1.51e+00	0	40	104	0	60	54464
2026-01-21 14:32:53.79	20.64	2.85	-49.5	-61.2	4.1	1.41e+00	0	40	104	0	60	41353
2026-01-21 14:32:57.83	20.69	3.12	-48.5	-54.5	8.7	5.41e-02	0	40	0	7340032	60	19156
2026-01-21 14:33:01.87	20.75	3.38	-48.3	-53.8	9.4	5.72e-03	0	40	0	14680064	60	17803
2026-01-21 14:33:05.91	20.81	3.66	-49.2	-57.6	5.4	1.64e-01	0	40	0	22020096	60	27282
2026-01-21 14:33:09.95	20.87	3.93	-49.7	-63.7	3.6	3.37e-02	0	40	104	29360128	60	55415
2026-01-21 14:33:13.99	20.93	4.21	-45.5	-47.9	16.2	0.00e+00	0	41	0	29360128	60	8926
2026-01-21 14:33:18.02	20.99	4.48	-44.7	-46.8	17.2	0.00e+00	0	40	0	37748736	60	7928
2026-01-21 14:33:22.06	21.05	4.77	-45.0	-47.1	17.0	0.00e+00	0	40	0	45088768	60	8215
2026-01-21 14:33:26.10	21.11	5.05	-45.0	-47.2	16.9	0.00e+00	0	40	0	52428800	60	8259
2026-01-21 14:33:30.13	21.17	5.34	-44.6	-46.6	17.3	0.00e+00	0	40	0	59768832	60	7771
2026-01-21 14:33:34.17	21.24	5.63	-43.9	-45.6	18.7	0.00e+00	0	40	0	67108864	60	6922
2026-01-21 14:33:38.21	21.30	5.92	-43.3	-44.8	19.2	0.00e+00	0	41	0	75497472	60	6297
2026-01-21 14:33:42.25	21.37	6.22	-43.1	-44.6	19.5	0.00e+00	0	41	0	82837504	60	6172
2026-01-21 14:33:46.28	21.43	6.52	-43.0	-44.5	19.7	0.00e+00	0	41	0	90177536	60	6079
2026-01-21 14:33:50.32	21.50	6.83	-43.1	-44.5	19.7	0.00e+00	0	40	0	97517568	60	6082
2026-01-21 14:33:54.36	21.57	7.13	-42.7	-44.1	19.9	0.00e+00	0	41	0	104857600	58	6496
2026-01-21 14:33:58.40	21.64	7.45	-42.7	-44.1	19.9	0.00e+00	0	41	0	113246208	58	6491
2026-01-21 14:34:02.44	21.71	7.76	-42.4	-43.7	20.4	0.00e+00	0	41	0	120586240	58	6187
2026-01-21 14:34:06.48	21.78	8.08	-42.3	-43.6	20.5	0.00e+00	0	41	0	127926272	58	6158
2026-01-21 14:34:10.52	21.85	8.41	-42.1	-43.3	20.8	0.00e+00	0	41	0	135266304	58	5944
2026-01-21 14:34:14.55	21.93	8.73	-42.2	-43.4	20.8	0.00e+00	0	41	0	143654912	58	6029
2026-01-21 14:34:18.59	22.00	9.07	-42.2	-43.4	20.8	0.00e+00	0	41	0	150994944	58	6011
2026-01-21 14:34:22.63	22.08	9.40	-41.9	-43.1	21.1	0.00e+00	0	41	0	158334976	56	6507
2026-01-21 14:34:26.67	22.16	9.75	-41.8	-43.0	21.2	0.00e+00	0	41	0	165675008	56	6426
2026-01-21 14:34:30.70	22.24	10.09	-41.7	-42.9	21.5	0.00e+00	0	41	0	173015040	56	6324
2026-01-21 14:34:34.74	22.32	10.44	-41.4	-42.5	21.7	0.00e+00	0	41	0	181403648	56	6079
2026-01-21 14:34:38.78	22.40	10.80	-41.3	-42.3	21.9	0.00e+00	0	41	0	188743680	56	5956
2026-01-21 14:34:42.81	22.49	11.16	-41.1	-42.1	22.0	0.00e+00	0	41	0	196083712	56	5820
2026-01-21 14:34:46.85	22.57	11.53	-40.9	-41.9	22.2	0.00e+00	0	41	0	203423744	56	5658
2026-01-21 14:34:50.89	22.66	11.90	-40.7	-41.7	22.4	0.00e+00	0	41	0	211812352	54	6201
2026-01-21 14:34:54.93	22.75	12.28	-40.6	-41.6	22.4	0.00e+00	0	41	0	219152384	54	6150
2026-01-21 14:34:58.97	22.84	12.66	-40.6	-41.6	22.4	0.00e+00	0	41	0	226492416	54	6158
2026-01-21 14:35:03.00	22.93	13.05	-40.7	-41.7	22.5	0.00e+00	0	41	0	233832448	54	6211
2026-01-21 14:35:07.05	23.03	13.45	-40.6	-41.6	22.4	0.00e+00	0	41	0	241172480	54	6141
2026-01-21 14:35:11.08	23.13	13.85	-40.7	-41.7	22.0	0.00e+00	0	41	0	249561088	54	6219
2026-01-21 14:35:15.12	23.23	14.26	-40.6	-41.6	22.4	0.00e+00	0	41	0	256901120	54	6132
2026-01-21 14:35:19.16	23.33	14.68	-40.6	-41.6	22.5	0.00e+00	0	41	0	264241152	54	6120
2026-01-21 14:35:23.20	23.43	15.10	-40.6	-41.6	22.4	0.00e+00	0	41	0	271581184	54	6107
2026-01-21 14:35:27.24	23.54	15.53	-40.7	-41.7	22.5	0.00e+00	0	41	0	279969792	54	6199
2026-01-21 14:35:31.28	23.65	15.97	-41.0	-42.0	22.2	0.00e+00	0	41	0	287309824	54	6420
2026-01-21 14:35:35.32	23.76	16.42	-41.3	-42.4	22.0	0.00e+00	0	41	0	294649856	54	6716
2026-01-21 14:35:39.36	23.88	16.87	-41.4	-42.5	21.9	0.00e+00	0	41	0	301989888	54	6773
2026-01-21 14:35:43.40	24.00	17.34	-41.6	-42.7	21.7	0.00e+00	0	41	0	309329920	54	6980
2026-01-21 14:35:47.43	24.12	17.81	-41.8	-42.9	21.7	0.00e+00	0	41	0	317718528	56	6382
2026-01-21 14:35:51.47	24.24	18.29	-42.1	-43.2	21.5	0.00e+00	0	41	0	325058560	56	6598
2026-01-21 14:35:55.51	24.37	18.78	-42.3	-43.5	21.2	0.00e+00	0	41	0	332398592	56	6847
2026-01-21 14:35:59.55	24.50	19.29	-42.4	-43.6	21.1	0.00e+00	0	41	0	339738624	56	6865
2026-01-21 14:36:03.58	24.64	19.80	-42.4	-43.6	21.1	0.00e+00	0	41	0	348127232	58	6144
2026-01-21 14:36:07.62	24.78	20.32	-42.2	-43.5	21.2	0.00e+00	0	41	0	355467264	58	6039
2026-01-21 14:36:11.66	24.92	20.85	-42.2	-43.4	21.2	0.00e+00	0	41	0	362807296	58	6024
2026-01-21 14:36:15.70	25.07	21.40	-42.3	-43.5	21.2	0.00e+00	0	41	0	370147328	58	6051
2026-01-21 14:36:19.74	25.22	21.95	-41.9	-43.0	21.6	0.00e+00	0	41	0	377487360	58	5753
2026-01-21 14:36:23.78	25.38	22.52	-42.0	-43.1	21.6	0.00e+00	0	41	0	385875968	56	6537
2026-01-21 14:36:27.79	25.54	23.10	-42.0	-43.1	21.6	0.00e+00	0	41	0	393216000	56	6519
2026-01-21 14:36:31.82	25.71	23.70	-42.1	-43.3	21.4	0.00e+00	0	41	0	400556032	56	6648
2026-01-21 14:36:35.86	25.89	24.30	-42.4	-43.6	21.3	0.00e+00	0	41	0	407896064	56	6915
2026-01-21 14:36:39.90	26.07	24.93	-41.5	-42.6	21.9	0.00e+00	0	41	0	416284672	56	6155
2026-01-21 14:36:43.94	26.26	25.57	-41.7	-42.8	21.9	0.00e+00	0	41	0	423624704	56	6248
2026-01-21 14:36:47.98	26.45	26.22	-41.9	-43.0	21.8	0.00e+00	0	41	0	430964736	56	6411
2026-01-21 14:36:52.02	26.66	26.89	-41.7	-42.8	21.9	0.00e+00	0	41	0	438304768	56	6256
2026-01-21 14:36:56.05	26.87	27.57	-41.7	-42.8	22.1	0.00e+00	0	41	0	445644800	56	6249
2026-01-21 14:37:00.09	27.09	28.28	-41.5	-42.5	22.1	0.00e+00	0	41	0	454033408	56	6080
2026-01-21 14:37:04.13	27.32	29.00	-41.1	-42.1	22.5	0.00e+00	0	41	0	461373440	56	5813
2026-01-21 14:37:08.16	27.56	29.74	-41.4	-42.5	22.3	0.00e+00	0	41	0	468713472	56	6038
2026-01-21 14:37:12.20	27.80	30.50	-41.7	-42.8	21.8	0.00e+00	0	41	0	476053504	56	6263
2026-01-21 14:37:16.25	28.07	31.28	-42.6	-43.7	21.1	0.00e+00	0	41	0	484442112	56	6998
2026-01-21 14:37:20.29	28.34	32.08	-43.5	-44.9	20.1	0.00e+00	0	41	0	491782144	58	7096
2026-01-21 14:37:24.33	28.62	32.90	-43.7	-45.2	19.9	0.00e+00	0	41	0	499122176	60	6601
2026-01-21 14:37:28.37	28.92	33.74	-44.1	-45.7	19.5	0.00e+00	0	41	0	506462208	60	6997
2026-01-21 14:37:32.40	29.24	34.61	-43.6	-45.0	20.2	0.00e+00	0	41	0	513802240	60	6421
2026-01-21 14:37:36.43	29.57	35.50	-41.9	-43.0	21.8	0.00e+00	0	41	0	522190848	56	6422
2026-01-21 14:37:40.46	29.92	36.41	-41.4	-42.4	22.2	0.00e+00	0	41	0	529530880	56	6004
2026-01-21 14:37:44.50	30.29	37.35	-41.9	-43.0	21.9	0.00e+00	0	41	0	536870912	56	6450
2026-01-21 14:37:48.54	30.68	38.32	-43.2	-44.5	20.5	0.00e+00	0	41	0	544210944	58	6838
2026-01-21 14:37:52.58	31.09	39.31	-44.0	-45.6	19.8	0.00e+00	0	41	0	551550976	60	6861
2026-01-21 14:37:56.61	31.53	40.33	-44.2	-45.8	19.5	0.00e+00	0	41	0	559939584	60	7011
2026-01-21 14:38:00.65	32.00	41.39	-43.7	-45.1	20.2	0.00e+00	0	41	0	567279616	60	6508
2026-01-21 14:38:04.69	32.49	42.46	-42.2	-43.2	21.7	0.00e+00	0	41	0	574619648	56	6611
2026-01-21 14:38:08.73	33.03	43.57	-41.5	-42.5	22.3	0.00e+00	0	41	0	581959680	56	6062
2026-01-21 14:38:12.76	33.59	44.71	-42.6	-43.7	20.9	0.00e+00	0	41	0	590348288	56	6987
2026-01-21 14:38:16.80	34.20	45.88	-43.4	-44.7	20.2	0.00e+00	0	41	0	597688320	58	6958
2026-01-21 14:38:20.83	34.86	47.08	-43.9	-45.4	19.6	0.00e+00	0	41	0	605028352	60	6721
2026-01-21 14:38:24.87	35.57	48.31	-43.9	-45.4	19.7	0.00e+00	0	41	0	612368384	60	6710
2026-01-21 14:38:28.91	36.33	49.58	-41.6	-42.7	22.0	0.00e+00	0	41	0	619708416	56	6222
2026-01-21 14:38:32.95	37.17	50.87	-40.4	-41.4	23.2	0.00e+00	0	41	0	628097024	54	5980
2026-01-21 14:38:36.99	38.07	52.20	-39.6	-40.4	23.9	0.00e+00	0	42	0	635437056	52	6027
2026-01-21 14:38:41.02	39.06	53.55	-39.1	-39.9	24.2	0.00e+00	0	41	0	642777088	50	6375
2026-01-21 14:38:45.06	40.15	54.93	-38.0	-38.8	24.9	0.00e+00	0	41	0	650117120	50	5611
2026-01-21 14:38:49.10	41.34	56.34	-37.9	-38.6	25.1	0.00e+00	0	41	0	658505728	48	6169
2026-01-21 14:38:53.13	42.67	57.77	-37.7	-38.4	25.2	0.00e+00	0	41	0	665845760	48	6014
2026-01-21 14:38:57.18	44.14	59.22	-38.8	-39.6	24.5	0.00e+00	0	41	0	673185792	50	6159
2026-01-21 14:39:01.21	45.78	60.69	-37.8	-38.5	25.1	0.00e+00	0	41	0	680525824	48	6087
2026-01-21 14:39:05.25	47.63	62.17	-38.3	-39.1	24.8	0.00e+00	0	41	0	687865856	48	6486
2026-01-21 14:39:09.29	49.71	63.65	-38.6	-39.4	24.6	0.00e+00	0	41	0	696254464	50	6013
2026-01-21 14:39:13.32	52.07	65.13	-38.3	-39.2	24.8	0.00e+00	0	41	0	703594496	48	6541
2026-01-21 14:39:17.36	54.76	66.59	-39.3	-40.1	24.1	0.00e+00	0	41	0	710934528	50	6510
2026-01-21 14:39:21.40	57.84	68.03	-42.4	-43.6	21.3	0.00e+00	0	41	0	718274560	56	6884
2026-01-21 14:39:25.44	61.39	69.42	-41.9	-43.0	21.9	0.00e+00	0	41	0	726663168	56	6434
2026-01-21 14:39:29.47	65.46	70.75	-43.5	-44.8	20.3	0.00e+00	0	41	0	734003200	58	7085
2026-01-21 14:39:33.51	70.17	71.99	-41.7	-42.8	22.3	0.00e+00	0	41	0	741343232	58	5598
2026-01-21 14:39:37.55	75.57	73.12	-40.5	-41.4	23.2	0.00e+00	0	41	0	748683264	54	6005
2026-01-21 14:39:41.59	81.73	74.09	-40.5	-41.4	23.1	0.00e+00	0	41	0	756023296	54	5983
2026-01-21 14:39:45.63	88.63	74.87	-40.9	-41.8	23.1	0.00e+00	0	41	0	764411904	56	5618
2026-01-21 14:39:49.67	96.19	75.42	-43.3	-44.8	20.3	0.00e+00	0	41	0	771751936	58	7009
2026-01-21 14:39:53.70	104.20	75.71	-42.2	-43.3	21.6	0.00e+00	0	41	0	779091968	58	5961
2026-01-21 14:39:57.75	112.43	75.72	-40.3	-41.2	23.1	0.00e+00	0	42	0	786432000	54	5877
2026-01-21 14:40:01.78	120.47	75.46	-42.1	-43.1	21.3	0.00e+00	0	41	0	793772032	56	6527
2026-01-21 14:40:05.82	128.10	74.93	-42.3	-43.4	21.5	0.00e+00	0	41	0	802160640	58	6015
2026-01-21 14:40:09.86	135.08	74.18	-43.6	-45.0	20.0	0.00e+00	0	41	0	809500672	58	7211
2026-01-21 14:40:13.90	141.31	73.22	-41.7	-42.7	22.2	0.00e+00	0	41	0	816840704	58	5543
2026-01-21 14:40:17.94	146.80	72.11	-40.5	-41.5	23.1	0.00e+00	0	41	0	824180736	56	5383
2026-01-21 14:40:21.98	151.58	70.88	-43.5	-44.8	20.4	0.00e+00	0	41	0	832569344	60	6316
2026-01-21 14:40:26.01	155.71	69.56	-41.5	-42.5	22.4	0.00e+00	0	42	0	839909376	58	5391
2026-01-21 14:40:30.06	159.32	68.16	-41.2	-42.2	22.5	0.00e+00	0	42	0	847249408	56	5851
2026-01-21 14:40:34.10	162.44	66.73	-41.2	-42.2	22.4	0.00e+00	0	42	0	854589440	54	6611
2026-01-21 14:40:38.14	165.17	65.26	-38.4	-39.2	24.7	0.00e+00	0	42	0	862978048	50	5847
2026-01-21 14:40:42.18	167.57	63.78	-37.2	-38.0	25.5	0.00e+00	0	41	0	870318080	46	6398
2026-01-21 14:40:46.22	169.68	62.29	-39.9	-40.9	23.5	0.00e+00	0	42	0	877658112	52	6343
2026-01-21 14:40:50.26	171.54	60.81	-39.3	-40.2	24.0	0.00e+00	0	41	0	884998144	52	5848
2026-01-21 14:40:54.29	173.20	59.34	-40.1	-41.0	23.4	0.00e+00	0	41	0	892338176	52	6447
2026-01-21 14:40:58.33	174.69	57.88	-38.0	-38.8	24.9	0.00e+00	0	42	0	900726784	50	5627
2026-01-21 14:41:02.37	176.03	56.44	-37.5	-38.3	25.2	0.00e+00	0	42	0	908066816	48	5916
2026-01-21 14:41:06.41	177.24	55.03	-38.7	-39.5	24.6	0.00e+00	0	41	0	915406848	48	6819
2026-01-21 14:41:10.46	178.34	53.64	-39.6	-40.5	23.8	0.00e+00	0	42	0	922746880	50	6834
2026-01-21 14:41:14.50	179.34	52.28	-41.4	-42.6	22.0	0.00e+00	0	42	0	931135488	54	6900
2026-01-21 14:41:18.54	180.25	50.94	-40.6	-41.6	22.8	0.00e+00	0	41	0	938475520	54	6144
2026-01-21 14:41:22.58	181.09	49.64	-44.2	-45.9	19.1	0.00e+00	0	41	0	945815552	60	7144
2026-01-21 14:41:26.62	181.86	48.37	-43.2	-44.6	20.4	0.00e+00	0	42	0	953155584	60	6139
2026-01-21 14:41:30.66	182.58	47.13	-41.9	-43.0	21.7	0.00e+00	0	42	0	960495616	56	6457
2026-01-21 14:41:34.70	183.24	45.93	-43.7	-45.1	20.0	0.00e+00	0	41	0	968884224	60	6520
2026-01-21 14:41:38.74	183.85	44.75	-39.9	-40.8	23.4	0.00e+00	0	42	0	976224256	54	5578
2026-01-21 14:41:42.78	184.42	43.60	-41.2	-42.2	22.2	0.00e+00	0	42	0	983564288	54	6587
2026-01-21 14:41:46.82	184.95	42.49	-42.9	-44.2	20.9	0.00e+00	0	42	0	990904320	60	5887
2026-01-21 14:41:50.86	185.45	41.40	-38.4	-39.1	24.7	0.00e+00	0	42	0	999292928	50	5826
2026-01-21 14:41:54.90	185.92	40.35	-39.8	-40.8	23.5	0.00e+00	0	42	0	1006632960	50	7016
2026-01-21 14:41:58.93	186.36	39.32	-42.3	-43.6	21.2	0.00e+00	0	42	0	1013972992	56	6908
2026-01-21 14:42:02.98	186.78	38.32	-40.5	-41.4	22.9	0.00e+00	0	42	0	1021313024	54	6020
2026-01-21 14:42:07.01	187.17	37.35	-40.1	-41.0	23.3	0.00e+00	0	42	0	1028653056	52	6398
2026-01-21 14:42:11.05	187.54	36.40	-45.3	-47.4	17.8	0.00e+00	0	42	0	1037041664	60	8446
2026-01-21 14:42:15.09	187.89	35.48	-42.1	-43.3	21.4	0.00e+00	0	42	0	1044381696	58	5933
2026-01-21 14:42:19.13	188.22	34.59	-40.0	-40.9	23.4	0.00e+00	0	42	0	1051721728	52	6390
2026-01-21 14:42:23.16	188.53	33.72	-43.9	-45.4	19.5	0.00e+00	0	42	0	1059061760	58	7544
2026-01-21 14:42:27.20	188.83	32.87	-45.3	-47.3	17.9	0.00e+00	0	42	0	1067450368	60	8337
2026-01-21 14:42:31.24	189.12	32.04	-42.6	-43.8	21.1	0.00e+00	0	42	0	1074790400	60	5619
2026-01-21 14:42:35.28	189.39	31.24	-41.3	-42.3	22.4	0.00e+00	0	42	0	1082130432	56	5957
2026-01-21 14:42:39.32	189.65	30.45	-41.0	-41.9	22.6	0.00e+00	0	42	0	1089470464	56	5688
2026-01-21 14:42:43.36	189.90	29.69	-39.9	-40.8	23.2	0.00e+00	0	42	0	1096810496	54	5605
2026-01-21 14:42:47.40	190.14	28.95	-41.5	-42.6	22.0	0.00e+00	0	42	0	1105199104	54	6866
2026-01-21 14:42:51.43	190.37	28.22	-42.8	-44.1	20.7	0.00e+00	0	42	0	1112539136	58	6488
2026-01-21 14:42:55.47	190.59	27.52	-42.5	-43.8	20.9	0.00e+00	0	42	0	1119879168	58	6251
2026-01-21 14:42:59.51	190.80	26.83	-41.4	-42.5	22.1	0.00e+00	0	42	0	1127219200	56	6036
2026-01-21 14:43:03.55	191.00	26.16	-40.1	-41.0	23.3	0.00e+00	0	42	0	1135607808	54	5738
2026-01-21 14:43:07.59	191.19	25.50	-39.5	-40.4	23.7	0.00e+00	0	42	0	1142947840	52	6019
2026-01-21 14:43:11.63	191.38	24.86	-39.2	-40.1	23.9	0.00e+00	0	42	0	1150287872	52	5804
2026-01-21 14:43:15.67	191.56	24.23	-38.7	-39.5	24.3	0.00e+00	0	42	0	1157627904	50	6080
2026-01-21 14:43:19.71	191.73	23.62	-38.1	-38.9	24.8	0.00e+00	0	42	0	1164967936	50	5679
2026-01-21 14:43:23.74	191.90	23.02	-38.7	-39.5	24.3	0.00e+00	0	42	0	1173356544	50	6094
2026-01-21 14:43:27.78	192.06	22.44	-39.6	-40.5	23.5	0.00e+00	0	42	0	1180696576	50	6824
2026-01-21 14:43:31.82	192.22	21.87	-39.6	-40.5	23.6	0.00e+00	0	41	0	1188036608	52	6088
2026-01-21 14:43:35.86	192.37	21.31	-39.2	-40.0	24.0	0.00e+00	0	41	0	1195376640	52	5755
2026-01-21 14:43:39.89	192.52	20.76	-39.1	-40.0	24.1	0.00e+00	0	41	0	1203765248	52	5702
2026-01-21 14:43:43.94	192.66	20.23	-39.5	-40.4	23.6	0.00e+00	0	41	0	1211105280	52	6017
2026-01-21 14:43:47.98	192.80	19.70	-39.9	-40.8	23.5	0.00e+00	0	42	0	1218445312	52	6303
2026-01-21 14:43:52.02	192.93	19.19	-40.1	-41.1	23.1	0.00e+00	0	41	0	1225785344	52	6515
2026-01-21 14:43:56.06	193.06	18.68	-40.0	-41.0	23.1	0.00e+00	0	42	0	1233125376	52	6427
2026-01-21 14:44:00.10	193.19	18.19	-40.1	-41.1	23.0	0.00e+00	0	41	0	1241513984	52	6492
2026-01-21 14:44:04.15	193.31	17.70	-40.6	-41.6	22.7	0.00e+00	0	41	0	1248854016	52	6853
2026-01-21 14:44:08.19	193.43	17.23	-40.6	-41.6	22.6	0.00e+00	0	41	0	1256194048	54	6130
2026-01-21 14:44:12.23	193.55	16.76	-41.1	-42.2	22.0	0.00e+00	0	41	0	1263534080	54	6575
2026-01-21 14:44:16.27	193.66	16.31	-41.2	-42.3	22.1	0.00e+00	0	42	0	1271922688	54	6631
2026-01-21 14:44:20.31	193.77	15.86	-41.4	-42.4	22.0	0.00e+00	0	41	0	1279262720	54	6753
2026-01-21 14:44:24.35	193.88	15.42	-41.4	-42.5	22.0	0.00e+00	0	41	0	1286602752	54	6771
2026-01-21 14:44:28.39	193.98	14.98	-41.5	-42.6	21.8	0.00e+00	0	41	0	1293942784	54	6925
2026-01-21 14:44:32.43	194.09	14.56	-41.5	-42.6	21.8	0.00e+00	0	41	0	1301282816	54	6906
2026-01-21 14:44:36.47	194.18	14.14	-41.6	-42.7	21.7	0.00e+00	0	41	0	1309671424	56	6242
2026-01-21 14:44:40.51	194.28	13.73	-41.3	-42.4	22.0	0.00e+00	0	41	0	1317011456	56	6008
2026-01-21 14:44:44.55	194.38	13.32	-41.3	-42.3	22.0	0.00e+00	0	41	0	1324351488	56	5950
2026-01-21 14:44:48.59	194.47	12.93	-41.1	-42.2	22.3	0.00e+00	0	41	0	1331691520	56	5845
2026-01-21 14:44:52.63	194.56	12.54	-41.0	-42.0	22.3	0.00e+00	0	41	0	1340080128	56	5723
2026-01-21 14:44:56.67	194.65	12.15	-41.0	-42.1	22.3	0.00e+00	0	41	0	1347420160	56	5771
2026-01-21 14:45:00.71	194.74	11.77	-40.6	-41.6	22.6	0.00e+00	0	41	0	1354760192	54	6121
2026-01-21 14:45:04.75	194.82	11.40	-41.1	-42.1	22.2	0.00e+00	0	41	0	1362100224	54	6532
2026-01-21 14:45:08.79	194.90	11.03	-41.1	-42.1	22.1	0.00e+00	0	41	0	1369440256	54	6511
2026-01-21 14:45:12.83	194.99	10.67	-41.0	-42.1	22.2	0.00e+00	0	41	0	1377828864	54	6498
2026-01-21 14:45:16.86	195.07	10.31	-41.1	-42.2	21.9	0.00e+00	0	41	0	1385168896	54	6569
2026-01-21 14:45:20.90	195.14	9.96	-41.2	-42.2	22.0	0.00e+00	0	41	0	1392508928	54	6607
2026-01-21 14:45:24.93	195.22	9.61	-41.0	-42.0	21.9	0.00e+00	0	41	0	1399848960	54	6437
2026-01-21 14:45:28.96	195.29	9.27	-41.3	-42.4	21.7	0.00e+00	0	41	0	1408237568	54	6699
2026-01-21 14:45:33.01	195.37	8.93	-41.2	-42.2	21.9	0.00e+00	0	41	0	1415577600	54	6601
2026-01-21 14:45:37.04	195.44	8.60	-41.0	-42.1	22.1	0.00e+00	0	41	0	1422917632	54	6468
2026-01-21 14:45:41.08	195.51	8.27	-41.6	-42.7	21.5	0.00e+00	0	41	0	1430257664	54	6985
2026-01-21 14:45:45.11	195.58	7.94	-41.4	-42.4	21.8	0.00e+00	0	41	0	1437597696	54	6761
2026-01-21 14:45:49.15	195.65	7.62	-41.7	-42.8	21.6	0.00e+00	0	41	0	1445986304	56	6291
2026-01-21 14:45:53.19	195.72	7.31	-41.5	-42.6	21.5	0.00e+00	0	41	0	1453326336	56	6111
2026-01-21 14:45:57.23	195.78	6.99	-41.4	-42.5	21.6	0.00e+00	0	41	0	1460666368	56	6092
2026-01-21 14:46:01.26	195.85	6.69	-41.3	-42.4	21.7	0.00e+00	0	41	0	1468006400	56	6011
2026-01-21 14:46:05.30	195.91	6.38	-42.3	-43.5	20.7	0.00e+00	0	41	0	1476395008	56	6783
2026-01-21 14:46:09.34	195.98	6.08	-41.8	-43.0	21.1	0.00e+00	0	41	0	1483735040	56	6441
2026-01-21 14:46:13.38	196.04	5.78	-42.1	-43.3	20.8	0.00e+00	0	41	0	1491075072	56	6671
2026-01-21 14:46:17.41	196.10	5.48	-42.3	-43.5	20.7	0.00e+00	0	41	0	1498415104	56	6844
2026-01-21 14:46:21.45	196.16	5.19	-42.3	-43.5	20.5	0.00e+00	0	41	0	1505755136	56	6835
2026-01-21 14:46:25.49	196.22	4.90	-42.0	-43.2	20.8	0.00e+00	0	41	0	1514143744	56	6578
2026-01-21 14:46:29.53	196.27	4.62	-42.5	-43.8	20.2	0.00e+00	0	41	0	1521483776	56	7066
2026-01-21 14:46:33.57	196.33	4.34	-42.8	-44.2	19.8	0.00e+00	0	41	0	1528823808	58	6579
2026-01-21 14:46:37.61	196.39	4.06	-42.7	-44.0	19.9	0.00e+00	0	41	0	1536163840	58	6456
2026-01-21 14:46:41.65	196.44	3.78	-42.6	-44.0	19.8	0.00e+00	0	41	0	1544552448	58	6448
2026-01-21 14:46:45.69	196.50	3.50	-42.9	-44.3	19.6	0.00e+00	0	41	0	1551892480	58	6688
2026-01-21 14:46:49.73	196.55	3.23	-43.5	-45.1	18.7	0.00e+00	0	41	0	1559232512	60	6466
2026-01-21 14:46:53.76	196.61	2.97	-50.0	-65.1	3.6	8.82e-02	0	41	104	1566572544	60	64686
2026-01-21 14:46:57.80	196.66	2.70	-50.9	-66.0	3.6	1.51e+00	0	41	104	1566572544	60	72463
2026-01-21 14:47:01.84	196.71	2.44	-51.1	-66.4	3.6	1.51e+00	0	41	104	1566572544	60	75167
2026-01-21 14:47:05.88	196.76	2.17	-51.2	-66.4	3.6	1.51e+00	0	41	104	1566572544	60	75709
2026-01-21 14:47:09.92	196.81	1.91	-51.2	-66.4	3.6	1.51e+00	0	41	104	1566572544	60	75718
2026-01-21 14:47:13.96	196.86	1.66	-51.2	-66.4	3.6	1.51e+00	0	41	104	1566572544	60	75789
2026-01-21 14:47:18.00	196.91	1.40	-51.3	-66.5	3.6	1.51e+00	0	41	104	1566572544	60	76777
2026-01-21 14:47:22.03	196.96	1.15	-51.3	-66.5	3.6	1.51e+00	0	41	104	1566572544	60	76699
2026-01-21 14:47:26.07	197.01	0.90	-51.3	-66.6	3.6	1.51e+00	0	41	104	1566572544	60	76939
2026-01-21 14:47:30.12	197.05	0.65	-51.3	-66.5	3.6	1.51e+00	0	41	104	1566572544	60	76597
2026-01-21 14:47:34.16	197.10	0.41	-51.4	-66.6	3.6	1.51e+00	0	41	104	1566572544	60	77397
2026-01-21 14:47:38.20	197.15	0.16	-51.4	-66.6	3.6	1.51e+00	0	41	104	1566572544	60	77507
2026-01-21 14:47:42.24	197.19	-0.08	-51.4	-66.6	3.6	1.51e+00	0	41	104	1566572544	60	77032

#Closed at: 2026-01-21 14:47:43
#Recorded file [1566 MB]: D:/lorett/data/35029_260122_023209.dat