passes_logs/2026/01/21/R4.6S_Anadyr/R4.6S_Anadyr__20260121_160319_AQUA_rec.log

#Pass ID: 20260121_160319_AQUA
#Satellite: AQUA
#Configuration: AQUA
#almurnet v.1.7.20251203
#Start time: 2026-01-21 16:03:22

#Version: 2.2.20231116
#Station: R4.6S_Anadyr
#Location: 177.4865 lon 64.73178 lat
#TLE: 1 27424U 02022A   26020.90316333  .00002787  00000+0  56766-3 0  9999
#TLE: 2 27424  98.4095 347.4297 0002000  71.6339 309.8236 14.61840001261750

#Time	Az	El	Level	Level2	SNR	BER	BlckErr	Temp	State	Recorded	gain1	gain2
2026-01-21 16:03:22.34	19.64	0.16	-51.4	-64.0	3.5	1.52e+00	0	39	0	0	60	55622
2026-01-21 16:03:26.38	19.71	0.41	-52.3	-70.1	3.5	3.04e+01	0	40	104	0	60	123215
2026-01-21 16:03:30.42	19.77	0.66	-52.1	-70.0	3.5	3.04e+01	0	41	104	0	60	121490
2026-01-21 16:03:34.47	19.84	0.91	-51.8	-69.6	3.5	3.04e+01	0	41	104	0	60	115576
2026-01-21 16:03:38.50	19.91	1.17	-51.6	-69.3	3.5	3.04e+01	0	41	104	0	60	112887
2026-01-21 16:03:42.55	19.99	1.42	-51.0	-68.9	3.5	3.04e+01	0	41	104	0	60	106925
2026-01-21 16:03:46.59	20.06	1.68	-50.4	-67.9	3.5	3.04e+01	0	41	104	0	60	95948
2026-01-21 16:03:50.63	20.13	1.95	-50.4	-67.7	3.5	3.04e+01	0	41	104	0	60	93764
2026-01-21 16:03:54.67	20.21	2.21	-50.5	-67.8	3.5	3.04e+01	0	41	104	0	60	94717
2026-01-21 16:03:58.71	20.28	2.48	-50.4	-67.6	3.5	3.04e+01	0	41	104	0	60	91936
2026-01-21 16:04:02.75	20.36	2.75	-50.2	-63.2	4.9	3.04e+01	0	41	104	0	60	55791
2026-01-21 16:04:06.79	20.44	3.03	-50.0	-60.4	6.9	3.04e+01	92	41	0	0	60	40216
2026-01-21 16:04:10.83	20.52	3.30	-47.7	-51.8	16.1	3.04e+01	61	41	0	7864320	60	15010
2026-01-21 16:04:14.87	20.60	3.59	-46.8	-58.7	3.6	3.04e+01	0	41	104	10485760	60	33084
2026-01-21 16:04:18.91	20.68	3.87	-49.1	-63.3	3.5	3.04e+01	0	41	104	10485760	60	56329
2026-01-21 16:04:22.95	20.76	4.16	-50.3	-67.3	3.5	3.04e+01	0	41	104	10485760	60	89227
2026-01-21 16:04:26.99	20.85	4.45	-44.6	-55.5	3.4	3.04e+01	0	41	104	10485760	60	22893
2026-01-21 16:04:31.03	20.93	4.74	-47.2	-59.2	3.5	3.04e+01	0	41	104	10485760	60	35057
2026-01-21 16:04:35.07	21.02	5.04	-44.7	-55.7	3.5	3.04e+01	0	41	104	10485760	60	23371
2026-01-21 16:04:39.11	21.11	5.34	-50.5	-67.5	3.5	3.04e+01	0	41	104	10485760	60	91504
2026-01-21 16:04:43.15	21.20	5.64	-50.6	-67.9	3.5	3.04e+01	0	41	104	10485760	60	95084
2026-01-21 16:04:47.19	21.29	5.95	-41.6	-52.1	3.6	3.04e+01	0	41	104	10485760	58	17317
2026-01-21 16:04:51.23	21.39	6.27	-40.6	-50.9	3.5	3.04e+01	0	41	104	10485760	56	17077
2026-01-21 16:04:55.27	21.48	6.58	-40.5	-50.9	3.5	3.04e+01	0	41	104	10485760	56	16982
2026-01-21 16:04:59.31	21.58	6.91	-50.9	-68.5	3.5	3.04e+01	0	41	104	10485760	60	102147
2026-01-21 16:05:03.34	21.68	7.23	-43.4	-54.1	3.5	3.04e+01	0	41	104	10485760	60	19563
2026-01-21 16:05:07.38	21.78	7.56	-48.9	-62.1	3.5	3.04e+01	0	41	104	10485760	60	49051
2026-01-21 16:05:11.42	21.89	7.90	-40.0	-50.3	3.6	3.04e+01	0	41	104	10485760	56	15852
2026-01-21 16:05:15.46	21.99	8.24	-50.8	-68.1	3.5	3.04e+01	0	41	104	10485760	60	97503
2026-01-21 16:05:19.49	22.10	8.58	-50.9	-68.2	3.5	3.04e+01	0	41	104	10485760	60	98561
2026-01-21 16:05:23.53	22.21	8.93	-46.1	-57.4	3.5	3.04e+01	0	41	104	10485760	60	28685
2026-01-21 16:05:27.57	22.32	9.29	-49.6	-63.5	3.5	3.04e+01	0	41	104	10485760	60	57475
2026-01-21 16:05:31.61	22.44	9.65	-39.4	-49.7	3.5	3.04e+01	0	41	104	10485760	54	16620
2026-01-21 16:05:35.64	22.56	10.02	-47.6	-59.5	3.5	3.04e+01	0	41	104	10485760	60	36198
2026-01-21 16:05:39.69	22.68	10.40	-42.6	-53.1	3.5	3.04e+01	0	41	104	10485760	60	17402
2026-01-21 16:05:43.72	22.80	10.78	-50.8	-67.1	3.5	3.04e+01	0	41	104	10485760	60	87069
2026-01-21 16:05:47.77	22.93	11.16	-41.0	-51.5	3.5	3.04e+01	0	41	104	10485760	58	16146
2026-01-21 16:05:51.81	23.06	11.56	-42.6	-53.2	3.5	3.04e+01	0	41	104	10485760	56	22111
2026-01-21 16:05:55.84	23.20	11.96	-40.0	-50.3	3.5	3.04e+01	0	42	104	10485760	56	15873
2026-01-21 16:05:59.88	23.33	12.37	-51.0	-67.5	3.5	3.04e+01	0	41	104	10485760	60	91764
2026-01-21 16:06:03.89	23.47	12.78	-51.0	-67.9	3.5	3.04e+01	0	41	104	10485760	60	95782
2026-01-21 16:06:07.93	23.62	13.21	-41.4	-51.8	3.5	3.04e+01	0	41	104	10485760	58	16735
2026-01-21 16:06:11.97	23.77	13.64	-39.0	-49.2	3.5	3.04e+01	0	41	104	10485760	54	15704
2026-01-21 16:06:16.01	23.92	14.08	-39.9	-50.3	3.5	3.04e+01	0	41	104	10485760	54	17748
2026-01-21 16:06:20.04	24.08	14.53	-51.1	-68.1	3.5	3.04e+01	0	41	104	10485760	60	97413
2026-01-21 16:06:24.08	24.24	14.99	-38.9	-49.1	3.5	3.04e+01	0	41	104	10485760	52	17445
2026-01-21 16:06:28.12	24.41	15.46	-46.7	-58.2	3.5	3.04e+01	0	41	104	10485760	60	31265
2026-01-21 16:06:32.16	24.58	15.93	-39.5	-49.8	3.5	3.04e+01	0	41	104	10485760	54	16734
2026-01-21 16:06:36.20	24.75	16.42	-46.2	-57.6	3.5	3.04e+01	0	41	104	10485760	60	29230
2026-01-21 16:06:40.24	24.94	16.92	-51.3	-68.6	3.5	3.04e+01	0	41	104	10485760	60	103640
2026-01-21 16:06:44.29	25.13	17.44	-38.8	-49.0	3.5	3.04e+01	0	41	104	10485760	54	15397
2026-01-21 16:06:48.32	25.32	17.96	-39.6	-49.8	3.5	3.04e+01	0	41	104	10485760	52	18904
2026-01-21 16:06:52.35	25.52	18.49	-38.5	-48.7	3.6	3.04e+01	0	41	104	10485760	52	16517
2026-01-21 16:06:56.39	25.73	19.04	-51.5	-69.2	3.5	3.04e+01	0	41	104	10485760	60	111530
2026-01-21 16:07:00.43	25.95	19.60	-39.4	-49.6	3.5	3.04e+01	0	41	104	10485760	52	18466
2026-01-21 16:07:04.46	26.18	20.18	-46.5	-57.6	3.5	3.04e+01	0	41	104	10485760	60	29341
2026-01-21 16:07:08.50	26.41	20.77	-41.6	-51.9	3.5	3.04e+01	0	41	104	10485760	58	17003
2026-01-21 16:07:12.54	26.65	21.37	-45.0	-56.0	3.6	3.04e+01	0	41	104	10485760	60	24241
2026-01-21 16:07:16.58	26.90	22.00	-50.6	-65.5	3.6	3.04e+01	0	41	104	10485760	60	72580
2026-01-21 16:07:20.61	27.16	22.63	-45.5	-56.5	3.5	3.04e+01	0	41	104	10485760	58	28925
2026-01-21 16:07:24.65	27.44	23.29	-50.0	-63.9	3.5	3.04e+01	0	41	104	10485760	60	60195
2026-01-21 16:07:28.69	27.72	23.96	-39.0	-49.3	3.5	3.04e+01	0	41	104	10485760	54	15830
2026-01-21 16:07:32.73	28.02	24.65	-43.5	-54.1	3.5	3.04e+01	0	41	104	10485760	60	19594
2026-01-21 16:07:36.77	28.33	25.36	-41.1	-51.5	3.5	3.04e+01	0	41	104	10485760	58	16170
2026-01-21 16:07:40.80	28.65	26.09	-51.2	-67.2	3.5	3.04e+01	0	41	104	10485760	60	88644
2026-01-21 16:07:44.83	28.99	26.84	-41.1	-51.5	3.5	3.04e+01	0	41	104	10485760	56	18246
2026-01-21 16:07:48.87	29.35	27.62	-44.6	-55.5	3.5	3.04e+01	0	41	104	10485760	58	25590
2026-01-21 16:07:52.91	29.72	28.42	-38.7	-48.9	3.5	3.04e+01	0	41	104	10485760	54	15192
2026-01-21 16:07:56.95	30.11	29.24	-50.7	-66.1	3.5	3.04e+01	0	41	104	10485760	60	77898
2026-01-21 16:08:00.98	30.53	30.09	-51.5	-68.2	3.5	3.04e+01	0	41	104	10485760	60	99394
2026-01-21 16:08:05.02	30.96	30.96	-42.0	-52.4	3.5	3.04e+01	0	41	104	10485760	58	17917
2026-01-21 16:08:09.06	31.42	31.86	-38.8	-49.0	3.5	3.04e+01	0	41	104	10485760	52	17265
2026-01-21 16:08:13.10	31.91	32.79	-39.0	-49.2	3.5	3.04e+01	0	41	104	10485760	52	17602
2026-01-21 16:08:17.14	32.43	33.75	-51.7	-68.9	3.5	3.04e+01	0	41	104	10485760	60	106628
2026-01-21 16:08:21.18	32.98	34.74	-39.9	-50.2	3.5	3.04e+01	0	41	104	10485760	54	17533
2026-01-21 16:08:25.22	33.56	35.76	-48.3	-60.5	3.5	3.04e+01	0	41	104	10485760	60	40751
2026-01-21 16:08:29.26	34.18	36.82	-41.8	-52.2	3.6	3.04e+01	0	41	104	10485760	60	15649
2026-01-21 16:08:33.30	34.84	37.90	-48.1	-60.2	3.6	3.04e+01	0	41	104	10485760	60	39417
2026-01-21 16:08:37.35	35.55	39.03	-51.5	-68.6	3.5	3.04e+01	0	41	104	10485760	60	103700
2026-01-21 16:08:41.39	36.31	40.19	-43.9	-54.6	3.5	3.04e+01	0	41	104	10485760	56	26124
2026-01-21 16:08:45.42	37.13	41.38	-40.9	-51.2	3.5	3.04e+01	0	41	104	10485760	56	17630
2026-01-21 16:08:49.46	38.01	42.60	-39.6	-49.9	3.5	3.04e+01	0	41	104	10485760	54	16947
2026-01-21 16:08:53.50	38.96	43.87	-50.6	-64.9	3.5	3.04e+01	0	41	104	10485760	60	68028
2026-01-21 16:08:57.54	39.99	45.17	-44.0	-54.6	3.5	3.04e+01	0	41	104	10485760	60	20662
2026-01-21 16:09:01.58	41.11	46.50	-50.2	-63.9	3.5	3.04e+01	0	41	104	10485760	60	60428
2026-01-21 16:09:05.61	42.32	47.87	-41.2	-51.5	3.5	3.04e+01	0	41	104	10485760	56	18291
2026-01-21 16:09:09.65	43.66	49.27	-39.2	-49.4	3.5	3.04e+01	0	41	104	10485760	52	17949
2026-01-21 16:09:13.69	45.12	50.70	-40.5	-50.7	3.5	3.04e+01	0	41	104	10485760	60	13146
2026-01-21 16:09:17.72	46.73	52.15	-51.7	-68.3	3.5	3.04e+01	0	41	104	10485760	60	99728
2026-01-21 16:09:21.76	48.50	53.63	-51.7	-68.3	3.5	3.04e+01	0	41	104	10485760	60	100294
2026-01-21 16:09:25.80	50.47	55.12	-39.4	-49.6	3.5	3.04e+01	0	41	104	10485760	52	18514
2026-01-21 16:09:29.84	52.66	56.62	-40.9	-51.3	3.5	3.04e+01	0	41	104	10485760	56	17890
2026-01-21 16:09:33.88	55.10	58.12	-41.4	-51.7	3.5	3.04e+01	0	41	104	10485760	56	18536
2026-01-21 16:09:37.92	57.83	59.61	-51.7	-68.4	3.5	3.04e+01	0	41	104	10485760	60	100856
2026-01-21 16:09:41.96	60.89	61.07	-42.2	-52.7	3.5	3.04e+01	0	41	104	10485760	58	18665
2026-01-21 16:09:46.00	64.32	62.48	-47.9	-59.8	3.5	3.04e+01	0	41	104	10485760	60	37502
2026-01-21 16:09:50.04	68.16	63.82	-43.6	-54.5	3.5	3.04e+01	0	41	104	10485760	60	20339
2026-01-21 16:09:54.08	72.46	65.07	-49.3	-62.0	3.5	3.04e+01	0	41	104	10485760	60	48352
2026-01-21 16:09:58.12	77.24	66.21	-51.9	-69.3	3.5	3.04e+01	0	41	104	10485760	60	112746
2026-01-21 16:10:02.16	82.51	67.19	-44.8	-55.5	3.5	3.04e+01	0	41	104	10485760	60	22945
2026-01-21 16:10:06.20	88.25	67.99	-47.0	-58.5	3.5	3.04e+01	0	41	104	10485760	60	32490
2026-01-21 16:10:10.23	94.39	68.58	-46.0	-57.2	3.5	3.04e+01	0	41	104	10485760	60	27962
2026-01-21 16:10:14.27	100.84	68.94	-51.6	-68.2	3.5	3.04e+01	0	41	104	10485760	60	99290
2026-01-21 16:10:18.32	107.46	69.04	-45.9	-56.7	3.5	3.04e+01	0	41	104	10485760	60	26361
2026-01-21 16:10:22.36	114.05	68.88	-47.8	-59.7	3.5	3.04e+01	0	41	104	10485760	60	37154
2026-01-21 16:10:26.40	120.45	68.48	-44.2	-54.9	3.5	3.04e+01	0	41	104	10485760	60	21286
2026-01-21 16:10:30.44	126.53	67.84	-51.5	-67.9	3.6	3.04e+01	0	41	104	10485760	60	95424
2026-01-21 16:10:34.48	132.18	67.00	-51.8	-69.4	3.5	3.04e+01	0	41	104	10485760	60	113459
2026-01-21 16:10:38.51	137.35	65.98	-44.3	-55.0	3.6	3.04e+01	0	41	104	10485760	60	21664
2026-01-21 16:10:42.55	142.03	64.82	-43.8	-45.7	19.9	3.04e+01	59	41	0	11534336	56	9311
2026-01-21 16:10:46.59	146.24	63.55	-39.7	-40.9	27.8	3.04e+01	50	41	0	16777216	54	6061
2026-01-21 16:10:50.63	150.00	62.19	-39.4	-40.6	28.1	3.04e+01	61	41	0	24641536	54	5854
2026-01-21 16:10:54.67	153.35	60.76	-38.9	-40.1	28.5	3.04e+01	43	41	0	31981568	52	6196
2026-01-21 16:10:58.71	156.34	59.29	-39.1	-40.4	28.1	3.04e+01	60	41	0	39845888	52	6379
2026-01-21 16:11:02.75	159.01	57.80	-38.7	-40.0	28.5	3.04e+01	52	41	0	47185920	52	6071
2026-01-21 16:11:06.78	161.39	56.30	-37.8	-39.0	29.4	3.04e+01	59	41	0	55050240	50	6090
2026-01-21 16:11:10.82	163.54	54.79	-37.4	-38.6	29.7	3.04e+01	57	41	0	62390272	50	5804
2026-01-21 16:11:14.86	165.47	53.30	-37.5	-38.7	29.5	3.04e+01	58	41	0	70254592	50	5869
2026-01-21 16:11:18.89	167.21	51.82	-37.7	-38.9	29.4	3.04e+01	61	41	0	77594624	50	6051
2026-01-21 16:11:22.93	168.79	50.37	-38.6	-39.9	28.6	3.04e+01	58	41	0	84934656	50	6727
2026-01-21 16:11:26.97	170.22	48.94	-38.5	-39.7	28.8	3.04e+01	62	41	0	92798976	50	6631
2026-01-21 16:11:31.01	171.53	47.54	-38.5	-39.8	28.7	3.04e+01	61	41	0	100139008	52	5943
2026-01-21 16:11:35.05	172.73	46.17	-38.3	-39.5	28.9	3.04e+01	57	41	0	108003328	52	5770
2026-01-21 16:11:39.09	173.83	44.84	-38.3	-39.5	28.9	3.04e+01	59	41	0	115343360	52	5782
2026-01-21 16:11:43.13	174.85	43.54	-38.5	-39.8	28.7	3.04e+01	59	41	0	123207680	52	5928
2026-01-21 16:11:47.16	175.78	42.28	-38.5	-39.7	28.6	3.04e+01	58	41	0	130547712	52	5893
2026-01-21 16:11:51.20	176.65	41.06	-38.8	-40.1	28.5	3.04e+01	58	41	0	137887744	52	6176
2026-01-21 16:11:55.24	177.45	39.87	-39.3	-40.6	27.9	3.04e+01	58	41	0	145752064	52	6538
2026-01-21 16:11:59.27	178.20	38.72	-38.8	-40.1	28.4	3.04e+01	58	41	0	153092096	52	6143
2026-01-21 16:12:03.31	178.90	37.60	-38.8	-40.0	28.5	3.04e+01	61	41	0	160956416	52	6132
2026-01-21 16:12:07.35	179.55	36.52	-38.4	-39.7	28.7	3.04e+01	59	41	0	168296448	52	5860
2026-01-21 16:12:11.38	180.16	35.47	-38.0	-39.2	29.2	3.04e+01	61	41	0	176160768	52	5573
2026-01-21 16:12:15.42	180.73	34.45	-37.7	-38.9	29.4	3.04e+01	61	41	0	183500800	50	6010
2026-01-21 16:12:19.46	181.27	33.46	-37.1	-38.2	29.9	3.04e+01	54	41	0	190840832	50	5576
2026-01-21 16:12:23.49	181.78	32.51	-37.0	-38.2	29.9	3.04e+01	59	41	0	198705152	48	6225
2026-01-21 16:12:27.53	182.26	31.58	-36.7	-37.9	30.1	3.04e+01	50	41	0	206045184	48	6034
2026-01-21 16:12:31.57	182.72	30.68	-36.9	-38.0	30.0	3.04e+01	58	41	0	213909504	48	6130
2026-01-21 16:12:35.61	183.15	29.81	-36.9	-38.1	29.9	3.04e+01	58	41	0	221249536	48	6151
2026-01-21 16:12:39.65	183.56	28.96	-37.0	-38.2	29.8	3.04e+01	60	41	0	229113856	48	6257
2026-01-21 16:12:43.69	183.95	28.14	-37.5	-38.8	29.3	3.04e+01	49	41	0	236453888	48	6655
2026-01-21 16:12:47.72	184.31	27.35	-37.7	-38.9	29.3	3.04e+01	56	41	0	244318208	48	6758
2026-01-21 16:12:51.76	184.67	26.58	-37.8	-39.0	29.2	3.04e+01	56	41	0	251658240	48	6881
2026-01-21 16:12:55.80	185.00	25.83	-38.0	-39.2	29.1	3.04e+01	59	41	0	258998272	50	6241
2026-01-21 16:12:59.83	185.32	25.10	-38.1	-39.4	28.9	3.04e+01	56	41	0	266862592	50	6359
2026-01-21 16:13:03.87	185.63	24.39	-37.9	-39.1	29.0	3.04e+01	61	41	0	274202624	50	6157
2026-01-21 16:13:07.91	185.92	23.70	-38.1	-39.4	28.9	3.04e+01	46	41	0	282066944	50	6368
2026-01-21 16:13:11.95	186.20	23.03	-38.2	-39.5	28.8	3.04e+01	58	41	0	289406976	50	6452
2026-01-21 16:13:15.99	186.47	22.37	-38.0	-39.3	28.9	3.04e+01	49	41	0	297271296	50	6293
2026-01-21 16:13:20.02	186.73	21.74	-38.3	-39.5	28.6	3.04e+01	63	41	0	304611328	50	6471
2026-01-21 16:13:24.06	186.97	21.12	-38.0	-39.3	28.9	3.04e+01	44	41	0	312475648	50	6288
2026-01-21 16:13:28.10	187.21	20.52	-37.8	-39.1	29.0	3.04e+01	60	41	0	319815680	50	6157
2026-01-21 16:13:32.14	187.44	19.93	-37.7	-39.0	29.1	3.04e+01	52	41	0	327155712	50	6074
2026-01-21 16:13:36.18	187.66	19.35	-37.7	-39.0	29.2	3.04e+01	59	41	0	335020032	50	6065
2026-01-21 16:13:40.22	187.88	18.79	-37.7	-38.9	29.2	3.04e+01	58	41	0	342360064	50	6024
2026-01-21 16:13:44.26	188.08	18.24	-37.8	-39.0	29.2	3.04e+01	59	41	0	350224384	50	6108
2026-01-21 16:13:48.29	188.28	17.71	-37.6	-38.8	29.3	3.04e+01	59	41	0	357564416	50	5981
2026-01-21 16:13:52.34	188.47	17.19	-37.6	-38.8	29.2	3.04e+01	62	41	0	365428736	50	5978
2026-01-21 16:13:56.38	188.66	16.68	-37.8	-39.0	29.2	3.04e+01	57	41	0	372768768	50	6122
2026-01-21 16:14:00.42	188.84	16.18	-37.6	-38.9	29.2	3.04e+01	59	41	0	380633088	50	5995
2026-01-21 16:14:04.46	189.01	15.69	-37.6	-38.8	29.2	3.04e+01	60	41	0	387973120	50	5987
2026-01-21 16:14:08.50	189.18	15.21	-37.6	-38.8	29.2	3.04e+01	54	41	0	395313152	50	5969
2026-01-21 16:14:12.53	189.35	14.74	-37.7	-38.9	29.1	3.04e+01	58	41	0	403177472	50	6048
2026-01-21 16:14:16.57	189.51	14.29	-37.7	-38.9	29.2	3.04e+01	59	41	0	410517504	50	6063
2026-01-21 16:14:20.61	189.66	13.84	-37.8	-39.0	29.0	3.04e+01	59	41	0	418381824	50	6108
2026-01-21 16:14:24.65	189.81	13.40	-38.0	-39.2	28.9	3.04e+01	58	41	0	425721856	50	6250
2026-01-21 16:14:28.69	189.96	12.96	-37.9	-39.1	28.9	3.04e+01	60	41	0	433586176	50	6162
2026-01-21 16:14:32.73	190.10	12.54	-37.9	-39.2	28.8	3.04e+01	60	41	0	440926208	50	6219
2026-01-21 16:14:36.77	190.23	12.13	-38.0	-39.2	28.9	3.04e+01	58	41	0	448790528	50	6247
2026-01-21 16:14:40.80	190.37	11.72	-38.3	-39.5	28.6	3.04e+01	59	41	0	456130560	50	6468
2026-01-21 16:14:44.84	190.50	11.32	-38.2	-39.5	28.6	3.04e+01	58	41	0	463470592	50	6427
2026-01-21 16:14:48.88	190.63	10.92	-38.1	-39.3	28.7	3.04e+01	51	41	0	471334912	50	6348
2026-01-21 16:14:52.92	190.75	10.54	-38.2	-39.5	28.6	3.04e+01	56	41	0	478674944	50	6442
2026-01-21 16:14:56.96	190.87	10.16	-38.3	-39.5	28.5	3.04e+01	50	41	0	486539264	50	6477
2026-01-21 16:15:01.00	190.99	9.78	-38.4	-39.7	28.4	3.04e+01	59	41	0	493879296	50	6588
2026-01-21 16:15:05.04	191.10	9.41	-38.5	-39.8	28.2	3.04e+01	47	41	0	501743616	50	6653
2026-01-21 16:15:09.08	191.22	9.05	-38.5	-39.8	28.3	3.04e+01	54	41	0	509083648	50	6679
2026-01-21 16:15:13.12	191.33	8.70	-38.8	-40.1	28.0	3.04e+01	51	41	0	516947968	50	6897
2026-01-21 16:15:17.16	191.43	8.35	-38.9	-40.3	27.8	3.04e+01	63	41	0	524288000	52	6280
2026-01-21 16:15:21.19	191.54	8.00	-38.8	-40.1	28.0	3.04e+01	51	41	0	531628032	52	6141
2026-01-21 16:15:25.23	191.64	7.66	-39.0	-40.3	27.8	3.04e+01	62	41	0	539492352	52	6286
2026-01-21 16:15:29.27	191.74	7.33	-38.8	-40.1	28.0	3.04e+01	45	41	0	546832384	52	6155
2026-01-21 16:15:33.30	191.84	7.00	-39.2	-40.5	27.5	3.04e+01	60	41	0	554696704	52	6492
2026-01-21 16:15:37.34	191.94	6.67	-39.7	-41.1	27.0	3.04e+01	44	41	0	562036736	52	6942
2026-01-21 16:15:41.37	192.03	6.35	-39.6	-41.0	26.9	3.04e+01	60	41	0	569901056	54	6120
2026-01-21 16:15:45.41	192.12	6.03	-39.9	-41.3	26.6	3.04e+01	44	41	0	577241088	54	6296
2026-01-21 16:15:49.45	192.21	5.72	-40.5	-41.9	25.9	3.04e+01	59	41	0	584581120	54	6787
2026-01-21 16:15:53.48	192.30	5.41	-39.9	-41.4	26.5	3.04e+01	56	41	0	592445440	54	6351
2026-01-21 16:15:57.52	192.39	5.11	-40.3	-41.7	26.2	3.04e+01	60	41	0	599785472	54	6630
2026-01-21 16:16:01.55	192.47	4.81	-40.4	-41.9	25.8	3.04e+01	55	42	0	607649792	54	6749
2026-01-21 16:16:05.59	192.56	4.51	-40.3	-41.8	26.0	3.04e+01	59	41	0	614989824	56	5949
2026-01-21 16:16:09.63	192.64	4.21	-40.3	-41.7	25.8	3.04e+01	53	41	0	622854144	54	6637
2026-01-21 16:16:13.67	192.72	3.92	-40.3	-41.7	25.7	3.04e+01	56	41	0	630194176	56	5925
2026-01-21 16:16:17.71	192.80	3.64	-40.6	-42.1	25.6	3.04e+01	58	41	0	638058496	56	6155
2026-01-21 16:16:21.75	192.88	3.35	-40.4	-41.8	24.1	3.04e+01	61	41	0	645398528	58	5342
2026-01-21 16:16:25.79	192.95	3.07	-40.7	-42.3	25.2	3.04e+01	60	41	0	652738560	56	6282
2026-01-21 16:16:29.83	193.03	2.80	-51.2	-69.1	3.5	3.04e+01	0	41	104	654311424	60	109376
2026-01-21 16:16:33.87	193.10	2.52	-51.6	-69.4	3.5	3.04e+01	0	42	104	654311424	60	113969
2026-01-21 16:16:37.91	193.18	2.25	-51.7	-69.7	3.5	3.04e+01	0	42	104	654311424	60	117587
2026-01-21 16:16:41.95	193.25	1.98	-51.8	-69.6	3.5	3.04e+01	0	42	104	654311424	60	116517
2026-01-21 16:16:45.99	193.32	1.72	-51.7	-69.7	3.5	3.04e+01	0	42	104	654311424	60	118130
2026-01-21 16:16:50.03	193.39	1.45	-52.0	-69.8	3.5	3.04e+01	0	42	104	654311424	60	119560
2026-01-21 16:16:54.08	193.46	1.19	-52.0	-69.8	3.5	3.04e+01	0	42	104	654311424	60	119044
2026-01-21 16:16:58.11	193.52	0.93	-52.0	-69.8	3.5	3.04e+01	0	42	104	654311424	60	118929
2026-01-21 16:17:02.15	193.59	0.68	-52.1	-70.0	3.5	3.04e+01	0	42	104	654311424	60	121333
2026-01-21 16:17:06.20	193.65	0.42	-52.2	-70.0	3.5	3.04e+01	0	42	104	654311424	60	122024
2026-01-21 16:17:10.24	193.72	0.17	-52.2	-70.0	3.5	3.04e+01	0	42	104	654311424	60	121842
2026-01-21 16:17:14.28	193.78	-0.08	-52.1	-69.9	3.5	3.04e+01	0	42	104	654311424	60	120806

#Closed at: 2026-01-21 16:17:14
#Recorded file [654 MB]: D:/lorett/data/35029_260122_040322.dat