passes_logs/2026/01/09/R2M6_AANII_01/R2M6_AANII_01__20260109_040809_FENGYUN_3D_rec.log

#Pass ID: 20260109_040809_FENGYUN 3D
#Satellite: FENGYUN 3D
#Configuration: FENGYUN 3D
#almurnet v.1.7.20240730
#Start time: 2026-01-09 04:08:09

#Version: 2.2.20231116
#Station: R2M6_AANII_01
#Location: 30.233357 lon 59.946436 lat
#TLE: 1 43010U 17072A   26008.51967461  .00000013  00000+0  27718-4 0  9992
#TLE: 2 43010  98.9935 340.2353 0002115 119.1573 240.9815 14.19693759422336

#Time	Az	El	Level	Level2	SNR	BER	BlckErr	Temp	State	Recorded	gain1	gain2
2026-01-09 04:08:09.67	11.66	6.98	-30.7	-35.1	5.0	8.02e-01	0	40	0	0	21	5979
2026-01-09 04:08:12.68	11.42	7.18	-30.0	-33.8	9.2	2.24e-02	0	40	0	5242880	19	5564
2026-01-09 04:08:15.69	11.17	7.38	-29.9	-33.5	8.4	2.64e-02	0	41	0	22020096	19	5471
2026-01-09 04:08:18.70	10.91	7.58	-29.4	-32.6	10.1	8.71e-03	0	41	0	38797312	18	5220
2026-01-09 04:08:21.71	10.66	7.79	-28.1	-30.3	12.6	3.48e-04	0	41	0	55574528	16	4628
2026-01-09 04:08:24.74	10.40	7.99	-27.2	-29.3	13.6	1.86e-04	0	41	0	73400320	14	4568
2026-01-09 04:08:27.76	10.13	8.20	-27.1	-29.0	13.8	1.94e-03	0	41	0	90177536	14	4468
2026-01-09 04:08:30.79	9.86	8.41	-26.9	-29.1	14.1	1.43e-03	0	41	0	106954752	13	4622
2026-01-09 04:08:33.81	9.59	8.62	-27.1	-29.0	13.9	1.82e-04	0	41	0	123731968	14	4459
2026-01-09 04:08:36.83	9.31	8.83	-27.0	-28.7	14.0	1.74e-03	0	41	0	141557760	14	4393
2026-01-09 04:08:39.85	9.03	9.04	-26.8	-28.9	14.2	1.77e-03	0	41	0	158334976	13	4543
2026-01-09 04:08:42.87	8.74	9.25	-27.4	-29.6	13.6	1.25e-05	0	41	0	175112192	14	4634
2026-01-09 04:08:45.90	8.45	9.46	-27.0	-29.1	14.2	2.07e-03	0	41	0	191889408	13	4614
2026-01-09 04:08:48.92	8.16	9.68	-27.0	-28.6	14.2	2.03e-03	0	42	0	209715200	14	4357
2026-01-09 04:08:51.94	7.86	9.89	-26.5	-28.0	14.8	0.00e+00	0	42	0	226492416	13	4296
2026-01-09 04:08:54.96	7.55	10.11	-26.4	-28.3	15.0	0.00e+00	0	42	0	243269632	12	4496
2026-01-09 04:08:57.97	7.25	10.32	-26.3	-28.1	15.1	0.00e+00	0	42	0	260046848	12	4420
2026-01-09 04:09:00.98	6.93	10.54	-26.2	-27.9	15.2	0.00e+00	0	42	0	276824064	12	4362
2026-01-09 04:09:04.00	6.62	10.76	-26.1	-27.7	15.4	0.00e+00	0	42	0	293601280	12	4312
2026-01-09 04:09:07.02	6.29	10.98	-26.3	-28.1	15.1	0.00e+00	0	42	0	310378496	12	4420
2026-01-09 04:09:10.03	5.97	11.20	-26.5	-28.5	15.0	0.00e+00	0	42	0	328204288	12	4532
2026-01-09 04:09:13.05	5.63	11.43	-26.6	-28.3	14.7	0.00e+00	0	42	0	344981504	13	4373
2026-01-09 04:09:16.08	5.29	11.65	-26.5	-28.1	14.9	1.10e-06	0	42	0	361758720	13	4313
2026-01-09 04:09:19.10	4.95	11.88	-26.1	-27.7	15.4	0.00e+00	0	42	0	378535936	12	4323
2026-01-09 04:09:22.12	4.60	12.10	-26.1	-27.7	15.4	0.00e+00	0	42	0	395313152	12	4316
2026-01-09 04:09:25.13	4.24	12.33	-26.3	-28.2	15.2	0.00e+00	0	42	0	413138944	12	4454
2026-01-09 04:09:28.15	3.88	12.55	-26.3	-28.0	15.3	0.00e+00	0	42	0	429916160	12	4410
2026-01-09 04:09:31.17	3.52	12.78	-25.9	-27.2	15.7	0.00e+00	0	42	0	446693376	12	4185
2026-01-09 04:09:34.19	3.14	13.01	-25.8	-27.5	15.9	0.00e+00	0	42	0	463470592	11	4361
2026-01-09 04:09:37.21	2.77	13.24	-25.9	-27.7	15.9	0.00e+00	0	42	0	480247808	11	4414
2026-01-09 04:09:40.24	2.38	13.48	-26.0	-27.5	15.6	1.12e-03	0	42	0	498073600	12	4268
2026-01-09 04:09:43.25	1.99	13.71	-25.9	-27.6	15.9	0.00e+00	0	42	0	514850816	11	4394
2026-01-09 04:09:46.27	1.59	13.94	-25.6	-27.1	16.2	0.00e+00	0	42	0	531628032	11	4254
2026-01-09 04:09:49.30	1.19	14.18	-25.5	-26.8	16.4	1.47e-03	0	42	0	548405248	11	4173
2026-01-09 04:09:52.32	0.78	14.41	-25.6	-26.9	16.4	1.62e-03	0	42	0	565182464	11	4205
2026-01-09 04:09:55.34	0.36	14.65	-25.6	-26.9	16.3	0.00e+00	0	42	0	583008256	11	4215
2026-01-09 04:09:58.34	359.94	14.88	-25.5	-26.8	16.4	1.46e-03	0	43	0	599785472	11	4165
2026-01-09 04:10:01.36	359.51	15.12	-25.3	-26.8	16.7	1.60e-03	0	42	0	616562688	10	4287
2026-01-09 04:10:04.37	359.07	15.36	-25.2	-26.7	16.8	1.62e-03	0	42	0	633339904	10	4256
2026-01-09 04:10:07.39	358.63	15.60	-25.4	-26.5	16.6	1.53e-03	0	42	0	650117120	11	4105
2026-01-09 04:10:10.41	358.17	15.83	-25.4	-27.0	16.7	1.47e-03	0	42	0	667942912	10	4331
2026-01-09 04:10:13.42	357.72	16.07	-25.2	-26.6	16.9	0.00e+00	0	42	0	684720128	10	4235
2026-01-09 04:10:16.44	357.25	16.31	-25.3	-26.9	16.7	0.00e+00	0	42	0	701497344	10	4315
2026-01-09 04:10:19.46	356.77	16.55	-25.6	-27.0	16.4	1.33e-03	0	43	0	718274560	11	4238
2026-01-09 04:10:22.48	356.29	16.79	-25.2	-26.5	16.9	0.00e+00	0	42	0	735051776	10	4211
2026-01-09 04:10:25.51	355.80	17.04	-25.2	-26.6	16.9	0.00e+00	0	43	0	752877568	10	4222
2026-01-09 04:10:28.51	355.30	17.28	-24.9	-26.5	17.2	0.00e+00	0	43	0	769654784	9	4313
2026-01-09 04:10:31.54	354.79	17.52	-24.9	-26.1	17.2	0.00e+00	0	43	0	786432000	10	4099
2026-01-09 04:10:34.55	354.28	17.76	-24.9	-26.0	17.2	0.00e+00	0	43	0	803209216	10	4075
2026-01-09 04:10:37.56	353.76	18.00	-24.8	-26.3	17.3	0.00e+00	0	43	0	819986432	9	4262
2026-01-09 04:10:40.58	353.22	18.24	-24.7	-26.0	17.5	0.00e+00	0	43	0	837812224	9	4193
2026-01-09 04:10:43.61	352.68	18.48	-24.7	-26.1	17.0	0.00e+00	0	42	0	854589440	9	4221
2026-01-09 04:10:46.62	352.13	18.72	-24.9	-26.1	17.2	2.63e-04	0	43	0	871366656	10	4092
2026-01-09 04:10:49.64	351.57	18.96	-24.8	-26.2	17.3	0.00e+00	0	43	0	888143872	9	4250
2026-01-09 04:10:52.66	351.00	19.20	-24.7	-26.0	17.5	0.00e+00	0	43	0	904921088	9	4183
2026-01-09 04:10:55.69	350.43	19.44	-24.5	-25.5	17.7	1.57e-04	0	43	0	922746880	9	4066
2026-01-09 04:10:58.70	349.84	19.67	-24.5	-25.6	17.7	1.29e-04	0	43	0	939524096	9	4081
2026-01-09 04:11:01.72	349.25	19.91	-24.3	-25.2	18.0	0.00e+00	0	43	0	956301312	9	3986
2026-01-09 04:11:04.72	348.64	20.15	-24.6	-25.9	17.6	4.11e-05	0	43	0	973078528	9	4163
2026-01-09 04:11:07.74	348.03	20.38	-24.3	-25.8	17.8	0.00e+00	0	43	0	989855744	8	4239
2026-01-09 04:11:10.76	347.41	20.61	-24.3	-25.8	17.9	0.00e+00	0	43	0	1006632960	8	4240
2026-01-09 04:11:13.78	346.77	20.84	-24.1	-25.3	18.1	0.00e+00	0	43	0	1024458752	8	4129
2026-01-09 04:11:16.79	346.13	21.07	-24.0	-25.1	18.2	0.00e+00	0	43	0	1041235968	8	4071
2026-01-09 04:11:19.81	345.48	21.30	-24.0	-25.1	18.3	0.00e+00	0	43	0	1058013184	8	4068
2026-01-09 04:11:22.83	344.81	21.53	-24.0	-25.0	18.3	0.00e+00	0	43	0	1074790400	8	4047
2026-01-09 04:11:25.85	344.14	21.75	-24.1	-25.3	18.2	0.00e+00	0	43	0	1091567616	8	4126
2026-01-09 04:11:28.87	343.46	21.97	-24.1	-25.2	18.2	0.00e+00	0	43	0	1109393408	8	4103
2026-01-09 04:11:31.90	342.76	22.19	-24.1	-25.2	18.2	0.00e+00	0	43	0	1126170624	8	4099
2026-01-09 04:11:34.92	342.06	22.41	-24.1	-25.3	18.2	0.00e+00	0	43	0	1142947840	8	4122
2026-01-09 04:11:37.94	341.35	22.62	-23.9	-24.8	18.4	0.00e+00	0	43	0	1159725056	8	4010
2026-01-09 04:11:40.97	340.62	22.83	-24.1	-25.2	18.3	0.00e+00	0	43	0	1176502272	8	4098
2026-01-09 04:11:43.99	339.89	23.04	-23.8	-24.6	18.6	0.00e+00	0	43	0	1194328064	8	3941
2026-01-09 04:11:47.00	339.15	23.24	-23.7	-24.5	18.6	0.00e+00	0	43	0	1211105280	8	3917
2026-01-09 04:11:50.02	338.40	23.44	-23.6	-24.6	18.8	0.00e+00	0	43	0	1227882496	7	4073
2026-01-09 04:11:53.04	337.64	23.64	-23.4	-24.2	19.0	0.00e+00	0	43	0	1244659712	7	3969
2026-01-09 04:11:56.05	336.87	23.83	-23.7	-24.8	18.7	0.00e+00	0	43	0	1261436928	7	4121
2026-01-09 04:11:59.06	336.09	24.02	-23.6	-24.7	18.8	0.00e+00	0	43	0	1278214144	7	4073
2026-01-09 04:12:02.08	335.30	24.20	-23.6	-24.7	18.8	0.00e+00	0	43	0	1296039936	7	4092
2026-01-09 04:12:05.10	334.50	24.38	-23.5	-24.4	18.9	0.00e+00	0	43	0	1312817152	7	4019
2026-01-09 04:12:08.11	333.69	24.55	-23.3	-24.7	19.1	0.00e+00	0	43	0	1329594368	6	4190
2026-01-09 04:12:11.14	332.87	24.72	-23.3	-24.6	19.1	0.00e+00	0	43	0	1346371584	6	4163
2026-01-09 04:12:14.15	332.05	24.89	-23.3	-24.7	17.7	0.00e+00	0	43	0	1363148800	6	4199
2026-01-09 04:12:17.17	331.21	25.04	-23.2	-24.3	19.2	0.00e+00	0	43	0	1380974592	6	4095
2026-01-09 04:12:20.18	330.37	25.19	-23.1	-24.1	19.3	2.23e-04	0	43	0	1397751808	6	4060
2026-01-09 04:12:23.20	329.52	25.34	-23.0	-24.0	19.4	0.00e+00	0	43	0	1414529024	6	4035
2026-01-09 04:12:26.21	328.66	25.48	-23.1	-24.2	19.3	0.00e+00	0	43	0	1431306240	6	4073
2026-01-09 04:12:29.22	327.80	25.61	-23.6	-24.7	18.8	0.00e+00	0	43	0	1448083456	7	4077
2026-01-09 04:12:32.24	326.93	25.74	-23.5	-24.5	18.9	0.00e+00	0	43	0	1464860672	7	4046
2026-01-09 04:12:35.26	326.05	25.86	-23.5	-25.0	18.9	0.00e+00	0	43	0	1482686464	6	4276
2026-01-09 04:12:38.28	325.16	25.97	-23.7	-24.8	18.7	3.04e-04	0	43	0	1499463680	7	4113
2026-01-09 04:12:41.30	324.26	26.08	-22.7	-23.6	17.6	2.82e-04	0	43	0	1516240896	6	4005
2026-01-09 04:12:44.30	323.37	26.17	-23.1	-24.1	18.0	3.88e-04	0	43	0	1533018112	6	4048
2026-01-09 04:12:47.32	322.47	26.26	-23.0	-24.0	19.5	5.23e-04	0	43	0	1549795328	6	4020
2026-01-09 04:12:50.34	321.56	26.35	-23.2	-24.4	19.3	3.76e-04	0	43	0	1567621120	6	4114
2026-01-09 04:12:53.36	320.64	26.42	-23.1	-24.2	19.3	1.82e-03	0	43	0	1584398336	6	4073
2026-01-09 04:12:56.38	319.72	26.49	-23.0	-24.0	19.4	1.64e-03	0	43	0	1601175552	6	4016
2026-01-09 04:12:59.39	318.80	26.55	-23.1	-24.1	19.4	3.77e-05	0	43	0	1617952768	6	4044
2026-01-09 04:13:02.41	317.88	26.60	-23.2	-24.3	19.2	1.94e-03	0	43	0	1634729984	6	4094
2026-01-09 04:13:05.43	316.95	26.64	-23.2	-24.3	19.2	1.63e-03	0	43	0	1652555776	6	4108
2026-01-09 04:13:08.45	316.02	26.68	-23.1	-24.2	19.3	1.64e-03	0	43	0	1669332992	6	4080
2026-01-09 04:13:11.47	315.08	26.71	-23.1	-24.1	19.4	1.85e-03	0	43	0	1686110208	6	4063
2026-01-09 04:13:14.49	314.15	26.72	-22.7	-23.4	19.7	1.49e-03	0	43	0	1702887424	6	3882
2026-01-09 04:13:17.51	313.21	26.73	-22.7	-23.8	19.7	1.17e-03	0	43	0	1719664640	5	4102
2026-01-09 04:13:20.53	312.28	26.74	-22.8	-24.1	19.6	0.00e+00	0	43	0	1737490432	5	4157
2026-01-09 04:13:23.55	311.34	26.73	-23.3	-24.5	19.2	6.66e-04	0	43	0	1754267648	6	4147
2026-01-09 04:13:26.56	310.41	26.71	-23.3	-24.5	19.2	0.00e+00	0	43	0	1771044864	6	4144
2026-01-09 04:13:29.59	309.47	26.69	-23.1	-24.1	19.4	0.00e+00	0	43	0	1787822080	6	4036
2026-01-09 04:13:32.60	308.54	26.66	-22.7	-23.9	19.7	0.00e+00	0	43	0	1804599296	5	4119
2026-01-09 04:13:35.62	307.61	26.62	-23.1	-24.2	19.3	0.00e+00	0	43	0	1822425088	6	4064
2026-01-09 04:13:38.64	306.69	26.57	-23.1	-24.2	19.3	0.00e+00	0	43	0	1839202304	6	4068
2026-01-09 04:13:41.66	305.76	26.51	-23.3	-24.6	19.1	0.00e+00	0	43	0	1855979520	6	4184
2026-01-09 04:13:44.69	304.84	26.45	-23.0	-23.9	19.5	0.00e+00	0	43	0	1872756736	6	3991
2026-01-09 04:13:47.71	303.92	26.37	-22.9	-24.2	19.6	0.00e+00	0	43	0	1889533952	5	4182
2026-01-09 04:13:50.72	303.01	26.29	-23.3	-24.6	19.1	0.00e+00	0	43	0	1907359744	6	4169
2026-01-09 04:13:53.74	302.10	26.20	-23.3	-24.5	19.1	0.00e+00	0	43	0	1924136960	6	4144
2026-01-09 04:13:56.76	301.20	26.11	-23.1	-24.1	19.3	0.00e+00	0	43	0	1940914176	6	4050
2026-01-09 04:13:59.78	300.30	26.01	-23.1	-24.2	19.3	0.00e+00	0	43	0	1957691392	6	4061
2026-01-09 04:14:02.80	299.41	25.90	-23.0	-23.9	19.4	0.00e+00	0	43	0	1974468608	6	4005
2026-01-09 04:14:05.81	298.53	25.78	-22.8	-23.5	19.6	0.00e+00	0	43	0	1991245824	6	3900
2026-01-09 04:14:08.83	297.65	25.65	-22.9	-23.7	14.3	0.00e+00	0	43	0	2009071616	6	3963
2026-01-09 04:14:11.84	296.78	25.52	-23.1	-24.2	19.1	0.00e+00	0	43	0	2025848832	6	4076
2026-01-09 04:14:14.85	295.92	25.39	-23.4	-24.7	19.0	0.00e+00	0	43	0	2042626048	6	4197
2026-01-09 04:14:17.87	295.07	25.24	-23.9	-25.4	18.4	1.26e-03	0	43	0	2059403264	7	4265
2026-01-09 04:14:20.89	294.22	25.09	-23.8	-25.1	18.6	0.00e+00	0	43	0	2076180480	7	4193
2026-01-09 04:14:23.91	293.38	24.94	-23.4	-24.2	19.0	0.00e+00	0	43	0	2092957696	7	3964
2026-01-09 04:14:26.93	292.55	24.77	-22.8	-23.4	19.6	6.26e-04	0	43	0	2110783488	6	3890
2026-01-09 04:14:29.95	291.72	24.61	-22.9	-23.6	19.5	8.58e-04	0	43	0	2127560704	6	3942
2026-01-09 04:14:32.97	290.91	24.44	-22.8	-23.6	19.5	1.31e-03	0	43	0	2144337920	6	3930
2026-01-09 04:14:35.98	290.11	24.26	-22.8	-24.0	19.5	1.01e-03	0	43	0	2161115136	5	4142
2026-01-09 04:14:39.00	289.31	24.08	-23.0	-24.4	19.3	1.18e-03	0	43	0	2177892352	5	4227
2026-01-09 04:14:42.03	288.52	23.89	-23.1	-24.1	19.3	0.00e+00	0	43	0	2195718144	6	4050
2026-01-09 04:14:45.05	287.75	23.70	-23.2	-24.4	19.1	1.07e-04	0	43	0	2212495360	6	4121
2026-01-09 04:14:48.06	286.98	23.50	-22.9	-23.8	19.4	7.48e-04	0	43	0	2229272576	6	3988
2026-01-09 04:14:51.08	286.22	23.30	-22.9	-23.8	19.4	0.00e+00	0	43	0	2246049792	6	3993
2026-01-09 04:14:54.10	285.47	23.10	-23.1	-24.3	19.2	0.00e+00	0	43	0	2262827008	6	4102
2026-01-09 04:14:57.12	284.74	22.89	-23.1	-24.1	19.2	0.00e+00	0	43	0	2280652800	6	4046
2026-01-09 04:15:00.14	284.01	22.68	-23.6	-24.7	18.7	0.00e+00	0	43	0	2297430016	7	4090
2026-01-09 04:15:03.15	283.29	22.47	-23.4	-24.4	18.9	0.00e+00	0	43	0	2314207232	7	4003
2026-01-09 04:15:06.17	282.58	22.25	-23.1	-23.6	19.2	0.00e+00	0	43	0	2330984448	7	3832
2026-01-09 04:15:09.17	281.89	22.04	-23.3	-24.5	19.0	0.00e+00	0	43	0	2347761664	6	4154
2026-01-09 04:15:12.19	281.20	21.82	-23.4	-24.8	18.9	0.00e+00	0	43	0	2365587456	6	4229
2026-01-09 04:15:15.21	280.52	21.59	-23.7	-25.0	15.5	0.00e+00	0	43	0	2382364672	7	4185
2026-01-09 04:15:18.22	279.85	21.37	-23.9	-24.9	18.3	0.00e+00	0	43	0	2399141888	8	4017
2026-01-09 04:15:21.24	279.19	21.14	-23.4	-24.3	18.9	0.00e+00	0	43	0	2415919104	7	3983
2026-01-09 04:15:24.27	278.54	20.91	-23.9	-25.3	18.3	2.83e-04	0	43	0	2432696320	7	4249
2026-01-09 04:15:27.28	277.91	20.68	-23.8	-25.0	18.4	1.83e-05	0	43	0	2450522112	7	4172
2026-01-09 04:15:30.29	277.28	20.44	-23.8	-25.2	18.3	0.00e+00	0	43	0	2467299328	7	4207
2026-01-09 04:15:33.31	276.66	20.21	-24.1	-25.3	18.1	0.00e+00	0	43	0	2484076544	8	4129
2026-01-09 04:15:36.33	276.05	19.97	-24.1	-25.2	18.1	0.00e+00	0	43	0	2500853760	8	4105
2026-01-09 04:15:39.34	275.45	19.73	-24.2	-25.6	17.9	0.00e+00	0	43	0	2517630976	8	4202
2026-01-09 04:15:42.36	274.85	19.50	-24.1	-25.3	18.0	1.27e-04	0	43	0	2534408192	8	4127
2026-01-09 04:15:45.37	274.27	19.26	-24.4	-25.5	17.7	1.90e-04	0	43	0	2552233984	9	4062
2026-01-09 04:15:48.40	273.70	19.02	-24.2	-25.0	17.9	0.00e+00	0	43	0	2569011200	9	3952
2026-01-09 04:15:51.43	273.13	18.78	-24.3	-25.1	17.8	2.70e-04	0	43	0	2585788416	9	3978
2026-01-09 04:15:54.44	272.58	18.54	-24.0	-25.1	18.1	2.68e-04	0	43	0	2602565632	8	4067
2026-01-09 04:15:57.45	272.03	18.30	-24.2	-25.5	17.9	0.00e+00	0	43	0	2619342848	8	4166
2026-01-09 04:16:00.47	271.49	18.05	-24.3	-25.8	17.7	0.00e+00	0	43	0	2637168640	8	4253
2026-01-09 04:16:03.49	270.96	17.81	-24.6	-25.9	17.4	2.25e-04	0	43	0	2653945856	9	4160
2026-01-09 04:16:06.49	270.44	17.57	-24.5	-25.7	17.5	0.00e+00	0	43	0	2670723072	9	4114
2026-01-09 04:16:09.51	269.93	17.33	-24.4	-25.3	17.7	0.00e+00	0	43	0	2687500288	9	4024
2026-01-09 04:16:12.53	269.43	17.09	-24.3	-25.7	17.7	0.00e+00	0	43	0	2704277504	8	4230
2026-01-09 04:16:15.53	268.93	16.85	-24.6	-25.8	17.4	0.00e+00	0	43	0	2721054720	9	4151
2026-01-09 04:16:18.55	268.45	16.61	-24.7	-26.1	17.3	0.00e+00	0	43	0	2737831936	9	4214
2026-01-09 04:16:21.56	267.97	16.36	-24.7	-26.1	17.2	6.17e-05	0	43	0	2755657728	9	4221
2026-01-09 04:16:24.58	267.49	16.12	-24.8	-26.3	17.1	0.00e+00	0	43	0	2772434944	9	4262
2026-01-09 04:16:27.60	267.03	15.88	-24.8	-26.2	17.1	0.00e+00	0	43	0	2789212160	9	4258
2026-01-09 04:16:30.62	266.57	15.64	-25.3	-26.8	16.5	0.00e+00	0	43	0	2805989376	10	4306
2026-01-09 04:16:33.63	266.12	15.40	-25.9	-27.3	15.6	0.00e+00	0	43	0	2822766592	12	4205
2026-01-09 04:16:36.65	265.68	15.17	-26.5	-28.4	15.0	1.10e-06	0	43	0	2840592384	12	4525
2026-01-09 04:16:39.68	265.24	14.93	-26.5	-28.0	14.9	0.00e+00	0	43	0	2857369600	13	4298
2026-01-09 04:16:42.69	264.81	14.69	-26.2	-27.4	15.3	0.00e+00	0	43	0	2874146816	13	4126
2026-01-09 04:16:45.70	264.39	14.45	-26.3	-28.1	15.2	0.00e+00	0	43	0	2890924032	12	4423
2026-01-09 04:16:48.71	263.98	14.22	-25.8	-26.9	15.8	0.00e+00	0	43	0	2907701248	12	4105
2026-01-09 04:16:51.74	263.57	13.98	-26.6	-28.4	14.7	0.00e+00	0	43	0	2925527040	13	4393
2026-01-09 04:16:54.75	263.17	13.75	-26.9	-29.1	14.3	0.00e+00	0	43	0	2942304256	13	4592
2026-01-09 04:16:57.77	262.77	13.51	-26.0	-27.5	15.4	8.33e-04	0	43	0	2959081472	12	4265
2026-01-09 04:17:00.79	262.38	13.28	-26.3	-28.1	15.1	0.00e+00	0	43	0	2975858688	12	4435
2026-01-09 04:17:03.80	262.00	13.05	-25.6	-27.2	13.5	0.00e+00	0	43	0	2992635904	12	4355
2026-01-09 04:17:06.82	261.62	12.82	-27.1	-28.8	14.1	1.21e-03	0	43	0	3010461696	14	4407
2026-01-09 04:17:09.84	261.25	12.59	-26.5	-28.2	14.7	1.26e-03	0	43	0	3027238912	13	4338
2026-01-09 04:17:12.85	260.89	12.36	-26.5	-28.1	14.7	1.10e-06	0	43	0	3044016128	13	4337
2026-01-09 04:17:15.88	260.52	12.13	-26.5	-28.1	14.8	3.93e-03	0	43	0	3060793344	13	4318
2026-01-09 04:17:18.90	260.17	11.90	-26.5	-28.0	14.8	3.11e-04	0	43	0	3077570560	13	4299
2026-01-09 04:17:21.92	259.82	11.68	-26.8	-28.7	14.3	2.89e-03	0	43	0	3095396352	13	4498
2026-01-09 04:17:24.94	259.48	11.45	-27.0	-29.1	14.2	2.36e-03	0	43	0	3112173568	13	4623
2026-01-09 04:17:27.94	259.14	11.23	-27.2	-29.1	13.8	2.17e-03	0	43	0	3128950784	14	4494
2026-01-09 04:17:30.96	258.81	11.01	-26.7	-28.6	14.4	5.98e-04	0	43	0	3145728000	13	4460
2026-01-09 04:17:33.99	258.48	10.79	-26.6	-28.2	14.6	8.94e-04	0	43	0	3162505216	13	4353
2026-01-09 04:17:37.00	258.16	10.57	-26.9	-29.0	14.1	1.60e-03	0	43	0	3179282432	13	4589
2026-01-09 04:17:40.03	257.84	10.35	-26.9	-28.5	14.1	4.50e-06	0	43	0	3197108224	14	4341
2026-01-09 04:17:43.05	257.53	10.13	-27.0	-28.8	13.9	1.25e-05	0	43	0	3213885440	14	4414
2026-01-09 04:17:46.06	257.22	9.91	-26.5	-28.2	14.5	1.25e-03	0	43	0	3230662656	13	4352
2026-01-09 04:17:49.08	256.92	9.69	-26.3	-28.3	14.7	0.00e+00	0	43	0	3247439872	12	4490
2026-01-09 04:17:52.10	256.62	9.48	-26.4	-28.4	14.6	0.00e+00	0	43	0	3264217088	12	4540
2026-01-09 04:17:55.12	256.32	9.27	-26.5	-28.1	14.5	9.10e-06	0	43	0	3282042880	13	4324
2026-01-09 04:17:58.13	256.04	9.05	-26.8	-28.8	14.1	8.00e-06	0	43	0	3298820096	13	4540
2026-01-09 04:18:01.15	255.75	8.84	-26.4	-28.5	14.5	2.20e-06	0	43	0	3315597312	12	4577
2026-01-09 04:18:04.17	255.47	8.63	-26.6	-28.3	14.3	8.00e-06	0	43	0	3332374528	13	4395
2026-01-09 04:18:07.19	255.19	8.42	-26.8	-28.8	14.1	1.02e-05	0	43	0	3349151744	13	4535
2026-01-09 04:18:10.20	254.92	8.21	-26.8	-28.9	14.0	9.10e-06	0	43	0	3365928960	13	4572
2026-01-09 04:18:13.20	254.65	8.01	-26.8	-28.9	13.9	8.00e-06	0	43	0	3382706176	13	4570
2026-01-09 04:18:16.21	254.39	7.80	-27.4	-29.3	13.1	4.69e-05	0	43	0	3400531968	15	4462
2026-01-09 04:18:19.23	254.12	7.60	-26.7	-28.7	14.0	9.10e-06	0	43	0	3417309184	13	4507
2026-01-09 04:18:22.25	253.87	7.39	-27.0	-28.9	13.6	3.31e-05	0	43	0	3434086400	14	4452
2026-01-09 04:18:25.27	253.61	7.19	-26.1	-27.9	13.0	1.02e-05	0	43	0	3450863616	13	4449
2026-01-09 04:18:28.29	253.36	6.99	-32.9	-44.2	3.8	8.46e-01	0	43	104	3463446528	25	13306

#Closed at: 2026-01-09 04:18:29
#Recorded file [3463 MB]: D:/data/31010_260109_070811.dat