passes_logs/2026/01/09/R2M6_AANII_01/R2M6_AANII_01__20260109_041336_FENGYUN_3E_rec.log

#Pass ID: 20260109_041336_FENGYUN 3E
#Satellite: FENGYUN 3E
#Configuration: FENGYUN 3E
#almurnet v.1.7.20240730
#Start time: 2026-01-09 04:18:35

#Version: 2.2.20231116
#Station: R2M6_AANII_01
#Location: 30.233357 lon 59.946436 lat
#TLE: 1 49008U 21062A   26008.52265380 -.00000112  00000+0 -32190-4 0  9993
#TLE: 2 49008  98.7483  13.7266 0001697 149.3310 210.7966 14.19883994233927

#Time	Az	El	Level	Level2	SNR	BER	BlckErr	Temp	State	Recorded	gain1	gain2
2026-01-09 04:18:35.80	51.79	54.19	-33.1	-44.3	3.8	8.46e-01	0	43	0	0	26	13068
2026-01-09 04:18:37.79	52.70	54.77	-34.0	-43.9	3.8	8.45e-01	0	43	104	0	27	11178
2026-01-09 04:18:39.79	53.66	55.35	-34.1	-44.0	3.8	8.46e-01	0	43	104	0	27	11288
2026-01-09 04:18:41.79	54.66	55.93	-34.1	-44.0	3.8	8.47e-01	0	43	104	0	27	11263
2026-01-09 04:18:43.81	55.71	56.51	-34.1	-43.9	3.8	8.46e-01	0	43	104	0	27	11223
2026-01-09 04:18:45.82	56.80	57.09	-34.0	-43.9	3.8	8.46e-01	0	43	104	0	27	11216
2026-01-09 04:18:47.82	57.93	57.66	-34.0	-43.9	3.8	8.45e-01	0	43	104	0	27	11192
2026-01-09 04:18:49.83	59.12	58.22	-34.0	-43.8	3.8	8.46e-01	0	43	104	0	27	11120
2026-01-09 04:18:51.82	60.34	58.78	-34.0	-43.8	3.8	8.46e-01	0	43	104	0	27	11170
2026-01-09 04:18:53.83	61.63	59.33	-34.0	-43.9	3.8	8.46e-01	0	43	104	0	27	11240
2026-01-09 04:18:55.82	62.96	59.87	-34.0	-43.9	3.8	8.46e-01	0	43	104	0	27	11206
2026-01-09 04:18:57.81	64.35	60.40	-33.9	-43.7	3.8	8.45e-01	0	43	104	0	27	11050
2026-01-09 04:18:59.81	65.80	60.92	-33.9	-43.6	3.8	8.46e-01	0	43	104	0	27	10983
2026-01-09 04:19:01.81	67.31	61.43	-33.9	-43.5	3.8	8.46e-01	0	43	104	0	27	10965
2026-01-09 04:19:03.81	68.88	61.92	-33.9	-43.6	3.8	8.47e-01	0	43	104	0	27	10998
2026-01-09 04:19:05.81	70.52	62.40	-33.8	-43.4	3.8	8.46e-01	0	43	104	0	27	10826
2026-01-09 04:19:07.82	72.23	62.86	-33.8	-43.5	3.8	8.46e-01	0	43	104	0	27	10932
2026-01-09 04:19:09.81	73.98	63.30	-33.8	-43.3	3.8	8.46e-01	0	43	104	0	27	10750
2026-01-09 04:19:11.81	75.82	63.73	-33.8	-43.0	3.8	8.46e-01	0	43	104	0	27	10378
2026-01-09 04:19:13.81	77.71	64.13	-33.8	-43.5	3.8	8.45e-01	0	43	104	0	27	10991
2026-01-09 04:19:15.82	79.68	64.50	-33.8	-43.1	3.8	8.46e-01	0	43	104	0	27	10480
2026-01-09 04:19:17.82	81.71	64.85	-33.8	-43.3	3.8	8.46e-01	0	43	104	0	27	10707
2026-01-09 04:19:19.83	83.81	65.18	-33.8	-42.9	3.8	8.46e-01	0	43	104	0	27	10284
2026-01-09 04:19:21.82	85.94	65.47	-33.8	-43.1	3.8	8.46e-01	0	43	104	0	27	10474
2026-01-09 04:19:23.82	88.14	65.74	-33.7	-42.8	3.8	8.46e-01	0	43	104	0	27	10193
2026-01-09 04:19:25.82	90.39	65.97	-33.7	-42.3	3.8	8.46e-01	0	43	104	0	27	9733
2026-01-09 04:19:27.81	92.67	66.16	-26.9	-27.0	14.2	2.17e-01	0	43	104	0	15	3648
2026-01-09 04:19:29.81	95.01	66.33	-24.3	-24.9	17.2	0.00e+00	0	43	0	8388608	8	3863
2026-01-09 04:19:31.81	97.37	66.46	-24.5	-24.3	17.2	0.00e+00	0	43	0	23068672	10	3519
2026-01-09 04:19:33.81	99.76	66.55	-24.5	-24.9	17.2	0.00e+00	0	43	0	37748736	9	3743
2026-01-09 04:19:35.81	102.17	66.60	-23.6	-23.3	18.3	0.00e+00	0	43	0	52428800	8	3503
2026-01-09 04:19:37.79	104.56	66.62	-23.4	-23.9	18.4	0.00e+00	0	43	0	66060288	6	3849
2026-01-09 04:19:39.78	106.96	66.60	-23.8	-24.3	18.0	0.00e+00	0	43	0	80740352	7	3827
2026-01-09 04:19:41.77	109.35	66.54	-23.7	-23.6	18.1	0.00e+00	0	43	0	95420416	8	3574
2026-01-09 04:19:43.76	111.73	66.45	-23.3	-23.2	18.5	0.00e+00	0	43	0	109051904	7	3589
2026-01-09 04:19:45.77	114.11	66.32	-23.5	-24.2	18.2	0.00e+00	0	43	0	123731968	6	3914
2026-01-09 04:19:47.76	116.43	66.16	-24.1	-24.4	17.7	4.50e-06	0	43	0	138412032	8	3747
2026-01-09 04:19:49.77	118.73	65.95	-23.6	-23.4	18.2	8.23e-05	0	43	0	153092096	8	3536
2026-01-09 04:19:51.78	120.99	65.72	-23.6	-24.0	18.1	0.00e+00	0	43	0	167772160	7	3768
2026-01-09 04:19:53.78	123.19	65.45	-23.8	-24.3	17.9	0.00e+00	0	43	0	181403648	7	3832
2026-01-09 04:19:55.77	125.32	65.16	-23.2	-23.1	18.6	0.00e+00	0	43	0	196083712	7	3566
2026-01-09 04:19:57.77	127.41	64.83	-22.9	-23.4	16.1	0.00e+00	0	43	0	210763776	6	3841
2026-01-09 04:19:59.78	129.44	64.48	-23.9	-24.0	17.7	0.00e+00	0	43	0	225443840	8	3660
2026-01-09 04:20:01.77	131.39	64.10	-23.1	-22.9	18.6	0.00e+00	0	43	0	239075328	7	3521
2026-01-09 04:20:03.77	133.29	63.70	-23.4	-24.0	18.3	0.00e+00	0	43	0	253755392	6	3868
2026-01-09 04:20:05.77	135.12	63.27	-23.8	-24.3	17.9	0.00e+00	0	43	0	268435456	7	3827
2026-01-09 04:20:07.76	136.87	62.83	-23.7	-24.1	18.0	0.00e+00	0	43	0	283115520	7	3785
2026-01-09 04:20:09.74	138.56	62.37	-23.5	-23.8	17.9	0.00e+00	0	43	0	296747008	7	3704
2026-01-09 04:20:11.75	140.20	61.89	-24.2	-24.8	17.5	0.00e+00	0	43	0	311427072	8	3840
2026-01-09 04:20:13.75	141.77	61.39	-24.1	-24.5	17.6	0.00e+00	0	43	0	326107136	8	3759
2026-01-09 04:20:15.75	143.28	60.88	-24.2	-24.6	17.5	0.00e+00	0	43	0	340787200	8	3789
2026-01-09 04:20:17.74	144.73	60.36	-24.8	-25.5	16.8	9.27e-04	0	43	0	354418688	9	3896
2026-01-09 04:20:19.74	146.12	59.83	-24.6	-25.1	17.0	0.00e+00	0	43	0	369098752	9	3798
2026-01-09 04:20:21.74	147.45	59.29	-24.8	-25.4	16.9	0.00e+00	0	43	0	383778816	9	3866
2026-01-09 04:20:23.74	148.74	58.73	-24.9	-25.7	16.6	1.37e-04	0	43	0	398458880	9	3941
2026-01-09 04:20:25.74	149.96	58.18	-24.8	-25.5	16.8	9.38e-05	0	43	0	412090368	9	3885
2026-01-09 04:20:27.74	151.14	57.61	-25.0	-25.5	16.4	3.80e-04	0	43	0	426770432	10	3814
2026-01-09 04:20:29.73	152.27	57.04	-24.3	-24.4	16.9	3.65e-04	0	43	0	441450496	9	3628
2026-01-09 04:20:31.73	153.35	56.47	-24.5	-24.7	17.1	0.00e+00	0	43	0	456130560	9	3710
2026-01-09 04:20:33.74	154.40	55.89	-24.6	-25.0	17.0	6.17e-05	0	43	0	469762048	9	3778
2026-01-09 04:20:35.74	155.40	55.30	-24.6	-25.0	17.1	1.33e-04	0	43	0	484442112	9	3777
2026-01-09 04:20:37.74	156.36	54.72	-24.8	-25.5	16.7	0.00e+00	0	43	0	499122176	9	3901
2026-01-09 04:20:39.75	157.28	54.13	-24.9	-25.2	16.7	2.21e-04	0	43	0	513802240	10	3723
2026-01-09 04:20:41.75	158.17	53.55	-24.6	-24.6	16.9	0.00e+00	0	43	0	528482304	10	3584
2026-01-09 04:20:43.74	159.01	52.97	-24.5	-24.4	16.9	1.10e-06	0	43	0	542113792	10	3548
2026-01-09 04:20:45.74	159.83	52.39	-24.4	-24.7	17.1	6.75e-05	0	43	0	556793856	9	3714
2026-01-09 04:20:47.74	160.61	51.80	-24.5	-24.8	17.1	1.46e-04	0	43	0	571473920	9	3738
2026-01-09 04:20:49.74	161.37	51.22	-24.6	-25.1	16.9	0.00e+00	0	43	0	586153984	9	3802
2026-01-09 04:20:51.74	162.10	50.65	-24.9	-25.8	16.5	2.78e-04	0	43	0	599785472	9	3974
2026-01-09 04:20:53.73	162.80	50.07	-25.3	-26.0	16.2	2.91e-04	0	43	0	614465536	10	3911
2026-01-09 04:20:55.73	163.47	49.50	-24.8	-24.9	16.7	0.00e+00	0	43	0	629145600	10	3669
2026-01-09 04:20:57.74	164.13	48.93	-24.5	-24.9	17.0	3.39e-04	0	43	0	643825664	9	3754
2026-01-09 04:20:59.73	164.75	48.37	-24.7	-25.2	16.7	0.00e+00	0	43	0	657457152	9	3833
2026-01-09 04:21:01.73	165.35	47.80	-24.7	-25.3	16.8	0.00e+00	0	43	0	672137216	9	3848
2026-01-09 04:21:03.74	165.94	47.24	-24.9	-25.6	16.6	2.33e-04	0	43	0	686817280	9	3938
2026-01-09 04:21:05.74	166.51	46.69	-23.9	-23.6	17.6	2.85e-04	0	43	0	701497344	9	3477
2026-01-09 04:21:07.73	167.05	46.14	-23.6	-23.4	17.9	0.00e+00	0	43	0	715128832	8	3541
2026-01-09 04:21:09.72	167.57	45.60	-23.5	-23.7	17.4	0.00e+00	0	44	0	729808896	7	3700
2026-01-09 04:21:11.73	168.08	45.06	-23.2	-23.1	18.3	6.80e-06	0	43	0	744488960	7	3573
2026-01-09 04:21:13.72	168.57	44.53	-23.5	-23.7	18.0	0.00e+00	0	43	0	759169024	7	3687
2026-01-09 04:21:15.72	169.05	44.00	-23.1	-23.0	18.4	0.00e+00	0	43	0	772800512	7	3531
2026-01-09 04:21:17.71	169.51	43.47	-23.2	-23.1	18.3	1.10e-06	0	43	0	787480576	7	3557
2026-01-09 04:21:19.71	169.96	42.96	-22.9	-22.5	18.5	0.00e+00	0	43	0	802160640	7	3427
2026-01-09 04:21:21.71	170.39	42.44	-23.1	-23.0	18.3	0.00e+00	0	43	0	816840704	7	3536
2026-01-09 04:21:23.72	170.81	41.93	-23.1	-22.9	18.4	4.57e-05	0	43	0	831520768	7	3528
2026-01-09 04:21:25.73	171.22	41.42	-23.3	-23.4	17.9	0.00e+00	0	43	0	845152256	7	3634
2026-01-09 04:21:27.72	171.61	40.93	-23.2	-23.1	18.2	0.00e+00	0	43	0	859832320	7	3572
2026-01-09 04:21:29.72	172.00	40.43	-23.2	-23.2	18.2	2.20e-06	0	43	0	874512384	7	3585
2026-01-09 04:21:31.73	172.37	39.94	-23.5	-23.7	17.9	0.00e+00	0	43	0	889192448	7	3697
2026-01-09 04:21:33.73	172.73	39.46	-23.1	-23.0	18.3	0.00e+00	0	43	0	902823936	7	3548
2026-01-09 04:21:35.72	173.08	38.99	-23.2	-23.2	18.3	0.00e+00	0	43	0	917504000	7	3578
2026-01-09 04:21:37.73	173.42	38.51	-23.3	-23.4	18.1	0.00e+00	0	43	0	932184064	7	3618
2026-01-09 04:21:39.73	173.75	38.05	-23.3	-23.4	18.1	0.00e+00	0	43	0	946864128	7	3629
2026-01-09 04:21:41.73	174.08	37.59	-23.2	-23.2	18.2	0.00e+00	0	43	0	960495616	7	3583
2026-01-09 04:21:43.75	174.39	37.13	-23.2	-23.0	18.3	0.00e+00	0	43	0	975175680	7	3552
2026-01-09 04:21:45.76	174.70	36.68	-23.3	-23.3	18.1	0.00e+00	0	43	0	989855744	7	3600
2026-01-09 04:21:47.77	175.00	36.23	-22.9	-23.0	18.5	0.00e+00	0	43	0	1004535808	6	3646
2026-01-09 04:21:49.76	175.29	35.79	-23.1	-23.5	18.2	0.00e+00	0	43	0	1019215872	6	3745
2026-01-09 04:21:51.76	175.57	35.36	-23.1	-23.5	18.3	0.00e+00	0	43	0	1033895936	6	3750
2026-01-09 04:21:53.76	175.85	34.93	-22.9	-23.1	18.4	0.00e+00	0	44	0	1047527424	6	3667
2026-01-09 04:21:55.76	176.11	34.51	-23.0	-23.2	18.4	0.00e+00	0	43	0	1062207488	6	3700
2026-01-09 04:21:57.76	176.38	34.09	-22.9	-23.1	18.5	0.00e+00	0	43	0	1076887552	6	3656
2026-01-09 04:21:59.77	176.63	33.67	-22.9	-22.9	18.5	0.00e+00	0	44	0	1091567616	6	3626
2026-01-09 04:22:01.78	176.88	33.26	-23.0	-23.2	18.4	0.00e+00	0	43	0	1106247680	6	3696
2026-01-09 04:22:03.79	177.13	32.85	-22.7	-22.6	18.7	0.00e+00	0	43	0	1119879168	6	3559
2026-01-09 04:22:05.79	177.36	32.46	-22.6	-22.9	18.8	0.00e+00	0	43	0	1134559232	5	3721
2026-01-09 04:22:07.79	177.60	32.06	-22.5	-22.7	18.8	0.00e+00	0	43	0	1149239296	5	3681
2026-01-09 04:22:09.78	177.82	31.67	-22.5	-22.7	18.9	0.00e+00	0	43	0	1163919360	5	3670
2026-01-09 04:22:11.79	178.04	31.29	-22.5	-22.8	18.7	0.00e+00	0	43	0	1177550848	5	3689
2026-01-09 04:22:13.79	178.26	30.91	-22.5	-22.8	18.8	0.00e+00	0	43	0	1192230912	5	3696
2026-01-09 04:22:15.80	178.47	30.53	-22.8	-23.2	18.5	0.00e+00	0	43	0	1206910976	5	3800
2026-01-09 04:22:17.80	178.68	30.16	-22.7	-23.1	18.6	0.00e+00	0	43	0	1221591040	5	3760
2026-01-09 04:22:19.80	178.88	29.79	-23.1	-23.9	18.2	2.87e-04	0	43	0	1236271104	5	3960
2026-01-09 04:22:21.81	179.08	29.42	-22.9	-23.1	18.4	0.00e+00	0	44	0	1250951168	6	3673
2026-01-09 04:22:23.80	179.27	29.07	-23.1	-23.5	18.1	0.00e+00	0	43	0	1264582656	6	3756
2026-01-09 04:22:25.81	179.46	28.71	-23.4	-24.1	17.8	0.00e+00	0	43	0	1279262720	6	3891
2026-01-09 04:22:27.80	179.65	28.36	-23.3	-23.9	18.0	8.81e-05	0	43	0	1292894208	6	3841
2026-01-09 04:22:29.81	179.83	28.02	-23.3	-23.8	18.0	0.00e+00	0	43	0	1308622848	6	3834
2026-01-09 04:22:31.80	180.01	27.67	-23.4	-24.1	17.8	1.18e-04	0	44	0	1322254336	6	3889
2026-01-09 04:22:33.80	180.18	27.34	-23.4	-24.1	17.8	0.00e+00	0	43	0	1336934400	6	3906
2026-01-09 04:22:35.82	180.35	27.00	-23.5	-24.3	17.7	0.00e+00	0	43	0	1351614464	6	3949
2026-01-09 04:22:37.81	180.52	26.67	-23.5	-24.3	17.7	1.67e-04	0	44	0	1366294528	6	3952
2026-01-09 04:22:39.81	180.69	26.34	-23.5	-23.8	17.7	2.04e-04	0	43	0	1379926016	7	3731
2026-01-09 04:22:41.81	180.85	26.02	-23.5	-24.3	17.7	0.00e+00	0	43	0	1394606080	6	3936
2026-01-09 04:22:43.81	181.00	25.70	-23.4	-24.0	17.8	1.75e-04	0	43	0	1409286144	6	3873
2026-01-09 04:22:45.82	181.16	25.38	-23.5	-24.3	17.7	2.00e-04	0	43	0	1423966208	6	3938
2026-01-09 04:22:47.83	181.31	25.07	-23.3	-23.9	17.9	0.00e+00	0	43	0	1438646272	6	3850
2026-01-09 04:22:49.82	181.46	24.76	-23.3	-23.8	16.3	1.74e-04	0	43	0	1452277760	6	3825
2026-01-09 04:22:51.83	181.61	24.46	-23.1	-23.3	18.2	0.00e+00	0	43	0	1466957824	6	3721
2026-01-09 04:22:53.82	181.75	24.15	-23.1	-23.4	18.1	0.00e+00	0	43	0	1481637888	6	3724
2026-01-09 04:22:55.82	181.89	23.86	-23.0	-23.7	18.1	3.03e-04	0	43	0	1496317952	5	3914
2026-01-09 04:22:57.83	182.03	23.56	-23.1	-23.9	18.1	2.75e-04	0	43	0	1509949440	5	3955
2026-01-09 04:22:59.82	182.17	23.27	-23.2	-23.7	17.9	0.00e+00	0	44	0	1524629504	6	3806
2026-01-09 04:23:01.81	182.30	22.98	-23.6	-24.4	17.6	9.28e-04	0	43	0	1539309568	6	3973
2026-01-09 04:23:03.82	182.43	22.69	-23.6	-24.0	17.6	0.00e+00	0	43	0	1553989632	7	3768
2026-01-09 04:23:05.83	182.56	22.41	-23.7	-24.2	17.4	0.00e+00	0	43	0	1567621120	7	3809
2026-01-09 04:23:07.83	182.69	22.13	-23.7	-24.2	17.4	3.40e-06	0	43	0	1582301184	7	3807
2026-01-09 04:23:09.82	182.82	21.85	-23.6	-24.0	17.5	0.00e+00	0	43	0	1596981248	7	3773
2026-01-09 04:23:11.83	182.94	21.58	-23.6	-23.9	17.5	9.41e-04	0	43	0	1611661312	7	3755
2026-01-09 04:23:13.84	183.06	21.30	-23.6	-24.0	17.5	9.05e-04	0	43	0	1626341376	7	3764
2026-01-09 04:23:15.85	183.18	21.03	-23.6	-24.0	17.4	0.00e+00	0	43	0	1641021440	7	3783
2026-01-09 04:23:17.85	183.30	20.77	-23.7	-24.2	17.4	1.01e-03	0	43	0	1654652928	7	3808
2026-01-09 04:23:19.85	183.41	20.50	-23.7	-24.2	17.4	9.93e-04	0	43	0	1669332992	7	3819
2026-01-09 04:23:21.86	183.53	20.24	-23.8	-24.4	17.2	5.70e-06	0	43	0	1684013056	7	3874
2026-01-09 04:23:23.85	183.64	19.99	-23.7	-24.3	17.3	9.59e-04	0	43	0	1698693120	7	3838
2026-01-09 04:23:25.85	183.75	19.73	-23.8	-24.5	17.2	0.00e+00	0	43	0	1712324608	7	3887
2026-01-09 04:23:27.85	183.86	19.48	-24.0	-24.8	17.0	3.40e-06	0	43	0	1727004672	7	3965
2026-01-09 04:23:29.85	183.96	19.23	-23.7	-24.3	17.3	9.49e-04	0	43	0	1741684736	7	3835
2026-01-09 04:23:31.86	184.07	18.98	-23.8	-24.4	17.2	9.53e-04	0	43	0	1756364800	7	3863
2026-01-09 04:23:33.88	184.17	18.73	-24.0	-24.8	17.0	0.00e+00	0	43	0	1771044864	7	3967
2026-01-09 04:23:35.89	184.28	18.48	-24.1	-25.0	16.9	0.00e+00	0	43	0	1784676352	7	4014
2026-01-09 04:23:37.91	184.38	18.24	-24.1	-24.7	16.8	0.00e+00	0	43	0	1799356416	8	3821
2026-01-09 04:23:39.91	184.48	18.00	-24.2	-24.8	16.7	0.00e+00	0	43	0	1814036480	8	3856
2026-01-09 04:23:41.93	184.57	17.76	-24.3	-25.0	16.6	8.90e-04	0	43	0	1828716544	8	3899
2026-01-09 04:23:43.94	184.67	17.53	-24.4	-25.1	16.6	0.00e+00	0	43	0	1843396608	8	3933
2026-01-09 04:23:45.96	184.77	17.29	-24.6	-25.1	16.3	0.00e+00	0	44	0	1858076672	9	3820
2026-01-09 04:23:47.97	184.86	17.06	-24.8	-25.5	16.1	0.00e+00	0	43	0	1872756736	9	3924
2026-01-09 04:23:49.98	184.95	16.83	-24.8	-25.7	16.0	0.00e+00	0	44	0	1886388224	9	3952
2026-01-09 04:23:51.99	185.04	16.61	-24.5	-25.0	16.4	0.00e+00	0	43	0	1901068288	9	3792
2026-01-09 04:23:53.99	185.13	16.38	-24.6	-25.1	16.3	0.00e+00	0	43	0	1915748352	9	3818
2026-01-09 04:23:56.00	185.22	16.16	-24.6	-25.2	16.3	0.00e+00	0	44	0	1930428416	9	3835
2026-01-09 04:23:58.02	185.31	15.94	-24.7	-25.3	16.2	0.00e+00	0	43	0	1945108480	9	3866
2026-01-09 04:24:00.03	185.40	15.72	-24.7	-25.3	16.2	0.00e+00	0	43	0	1959788544	9	3876
2026-01-09 04:24:02.04	185.48	15.50	-24.8	-25.5	16.1	0.00e+00	0	43	0	1973420032	9	3916
2026-01-09 04:24:04.04	185.56	15.29	-24.7	-25.3	16.1	0.00e+00	0	43	0	1988100096	9	3876
2026-01-09 04:24:06.05	185.65	15.07	-24.9	-25.7	15.9	0.00e+00	0	43	0	2002780160	9	3977
2026-01-09 04:24:08.07	185.73	14.86	-24.9	-25.7	15.9	0.00e+00	0	43	0	2017460224	9	3970
2026-01-09 04:24:10.08	185.81	14.65	-25.3	-26.2	15.4	0.00e+00	0	44	0	2032140288	10	3990
2026-01-09 04:24:12.09	185.89	14.44	-25.3	-26.2	14.6	0.00e+00	0	43	0	2046820352	10	3978
2026-01-09 04:24:14.10	185.97	14.24	-25.5	-26.6	15.1	0.00e+00	0	44	0	2061500416	10	4097
2026-01-09 04:24:16.12	186.05	14.03	-25.7	-26.6	14.9	0.00e+00	0	43	0	2075131904	11	3967
2026-01-09 04:24:18.14	186.12	13.83	-25.8	-26.8	14.7	2.35e-04	0	43	0	2089811968	11	4032
2026-01-09 04:24:20.15	186.20	13.63	-25.2	-25.5	15.5	0.00e+00	0	43	0	2104492032	11	3703
2026-01-09 04:24:22.16	186.27	13.43	-24.9	-25.4	15.8	1.46e-04	0	43	0	2119172096	10	3790
2026-01-09 04:24:24.18	186.35	13.23	-25.0	-25.5	15.7	1.22e-04	0	44	0	2133852160	10	3826
2026-01-09 04:24:26.19	186.42	13.03	-25.2	-26.0	15.4	0.00e+00	0	43	0	2148532224	10	3926
2026-01-09 04:24:28.20	186.49	12.83	-25.5	-26.5	15.1	1.22e-04	0	43	0	2163212288	10	4073
2026-01-09 04:24:30.21	186.56	12.64	-25.5	-26.7	15.0	1.14e-04	0	43	0	2176843776	10	4114
2026-01-09 04:24:32.22	186.63	12.45	-25.4	-26.3	15.2	0.00e+00	0	43	0	2191523840	10	4009
2026-01-09 04:24:34.24	186.70	12.26	-25.7	-26.5	14.8	1.43e-04	0	43	0	2206203904	11	3952
2026-01-09 04:24:36.26	186.77	12.07	-25.4	-26.4	15.1	0.00e+00	0	43	0	2220883968	10	4025
2026-01-09 04:24:38.28	186.84	11.88	-25.6	-26.3	14.8	0.00e+00	0	44	0	2235564032	11	3911
2026-01-09 04:24:40.29	186.91	11.69	-25.5	-26.6	15.0	2.10e-04	0	44	0	2250244096	10	4093
2026-01-09 04:24:42.30	186.98	11.51	-25.8	-26.7	14.7	2.13e-04	0	43	0	2263875584	11	4006
2026-01-09 04:24:44.31	187.04	11.32	-26.0	-27.3	14.4	1.10e-06	0	43	0	2279604224	11	4153
2026-01-09 04:24:46.33	187.11	11.14	-26.3	-27.5	13.9	1.02e-05	0	43	0	2293235712	12	4108
2026-01-09 04:24:48.33	187.17	10.96	-26.0	-27.1	14.5	0.00e+00	0	43	0	2307915776	11	4107
2026-01-09 04:24:50.33	187.23	10.78	-26.1	-27.0	14.1	1.18e-03	0	44	0	2322595840	12	3997
2026-01-09 04:24:52.34	187.30	10.61	-26.2	-27.2	14.0	1.21e-03	0	43	0	2337275904	12	4034
2026-01-09 04:24:54.34	187.36	10.43	-26.3	-27.6	13.8	8.00e-06	0	44	0	2350907392	12	4136
2026-01-09 04:24:56.36	187.42	10.25	-26.8	-28.1	13.2	1.41e-03	0	43	0	2365587456	13	4164
2026-01-09 04:24:58.36	187.48	10.08	-26.9	-28.2	13.1	1.52e-03	0	44	0	2380267520	13	4209
2026-01-09 04:25:00.37	187.54	9.91	-26.4	-27.6	13.7	1.02e-05	0	44	0	2394947584	12	4147
2026-01-09 04:25:02.38	187.60	9.73	-26.0	-27.3	14.3	1.20e-03	0	44	0	2409627648	11	4162
2026-01-09 04:25:04.39	187.66	9.56	-26.0	-27.3	14.3	2.20e-06	0	44	0	2424307712	11	4169
2026-01-09 04:25:06.39	187.72	9.39	-26.0	-27.3	14.2	0.00e+00	0	44	0	2437939200	11	4181
2026-01-09 04:25:08.40	187.78	9.22	-26.1	-27.0	14.0	1.52e-03	0	43	0	2452619264	12	3989
2026-01-09 04:25:10.41	187.83	9.06	-26.6	-27.6	13.4	1.55e-03	0	44	0	2467299328	13	4041
2026-01-09 04:25:12.42	187.89	8.89	-26.7	-27.8	13.3	3.54e-05	0	43	0	2481979392	13	4099
2026-01-09 04:25:14.43	187.95	8.73	-26.6	-28.0	13.4	9.10e-06	0	43	0	2496659456	12	4256
2026-01-09 04:25:16.45	188.00	8.56	-26.7	-27.8	13.2	2.17e-05	0	43	0	2511339520	13	4101
2026-01-09 04:25:18.47	188.06	8.40	-27.0	-28.0	12.9	7.43e-05	0	43	0	2526019584	14	4036
2026-01-09 04:25:20.48	188.11	8.23	-26.4	-27.6	13.6	1.14e-05	0	43	0	2539651072	12	4137
2026-01-09 04:25:22.49	188.16	8.07	-26.4	-27.7	13.6	1.60e-05	0	44	0	2554331136	12	4180
2026-01-09 04:25:24.50	188.22	7.91	-26.3	-27.4	13.7	6.80e-06	0	44	0	2569011200	12	4105
2026-01-09 04:25:26.51	188.27	7.75	-26.4	-27.8	13.5	1.83e-05	0	44	0	2583691264	12	4198
2026-01-09 04:25:28.53	188.32	7.59	-26.6	-27.6	13.2	2.05e-05	0	43	0	2598371328	13	4050
2026-01-09 04:25:30.53	188.37	7.44	-26.5	-28.0	13.3	1.71e-05	0	43	0	2613051392	12	4257
2026-01-09 04:25:32.54	188.43	7.28	-26.4	-27.7	13.4	1.71e-05	0	44	0	2626682880	12	4180
2026-01-09 04:25:34.56	188.48	7.13	-26.7	-27.8	13.1	3.89e-05	0	44	0	2641362944	13	4108
2026-01-09 04:25:36.57	188.53	6.97	-32.9	-42.6	3.8	8.45e-01	0	44	104	2647654400	25	11040

#Closed at: 2026-01-09 04:25:37
#Recorded file [2647 MB]: D:/data/31010_260109_071928.dat