passes_logs/2026/01/09/R2M6_AANII_01/R2M6_AANII_01__20260109_032802_AQUA_rec.log

#Pass ID: 20260109_032802_AQUA
#Satellite: AQUA
#Configuration: AQUA
#almurnet v.1.7.20240730
#Start time: 2026-01-09 03:28:03

#Version: 2.2.20231116
#Station: R2M6_AANII_01
#Location: 30.233357 lon 59.946436 lat
#TLE: 1 27424U 02022A   26004.96787593  .00001598  00000+0  32997-3 0  9996
#TLE: 2 27424  98.4069 331.2279 0002002  90.2377   0.6092 14.61798176259425

#Time	Az	El	Level	Level2	SNR	BER	BlckErr	Temp	State	Recorded	gain1	gain2
2026-01-09 03:28:03.29	7.69	7.07	-32.5	-49.6	3.8	7.45e-01	0	40	0	0	25	25750
2026-01-09 03:28:06.29	7.41	7.29	-32.5	-49.1	3.8	7.46e-01	0	41	104	0	25	24558
2026-01-09 03:28:09.30	7.13	7.50	-32.6	-49.1	3.8	7.46e-01	0	40	104	0	26	24086
2026-01-09 03:28:12.32	6.85	7.72	-30.8	-45.8	3.8	7.46e-01	0	41	104	0	24	20228
2026-01-09 03:28:15.33	6.56	7.94	-31.4	-45.8	3.8	7.45e-01	0	40	104	0	23	18908
2026-01-09 03:28:18.35	6.27	8.16	-31.1	-44.8	3.8	7.46e-01	0	41	104	0	23	17334
2026-01-09 03:28:21.37	5.97	8.38	-31.0	-44.8	3.8	7.48e-01	0	41	104	0	22	17699
2026-01-09 03:28:24.39	5.66	8.61	-31.9	-46.7	3.8	7.42e-01	0	41	104	0	24	19931
2026-01-09 03:28:27.40	5.35	8.83	-32.5	-48.9	3.8	7.42e-01	0	41	104	0	25	23800
2026-01-09 03:28:30.42	5.04	9.06	-32.7	-49.1	3.8	7.43e-01	0	41	104	0	26	23908
2026-01-09 03:28:33.45	4.71	9.28	-32.9	-50.1	3.8	7.44e-01	0	41	104	0	26	26131
2026-01-09 03:28:36.46	4.39	9.51	-33.0	-51.1	3.8	7.46e-01	0	41	104	0	26	28806
2026-01-09 03:28:39.48	4.05	9.74	-33.2	-51.3	3.8	7.47e-01	0	41	104	0	27	29219
2026-01-09 03:28:42.51	3.71	9.98	-33.2	-51.2	3.8	7.46e-01	0	41	104	0	27	28769
2026-01-09 03:28:45.52	3.37	10.21	-33.0	-50.8	3.8	7.46e-01	0	41	104	0	26	27729
2026-01-09 03:28:48.54	3.02	10.45	-32.8	-49.7	3.8	7.46e-01	0	41	104	0	26	24970
2026-01-09 03:28:51.56	2.66	10.68	-32.4	-48.0	3.8	7.46e-01	0	42	104	0	25	21721
2026-01-09 03:28:54.58	2.30	10.92	-31.9	-46.8	3.8	7.46e-01	0	42	104	0	24	20015
2026-01-09 03:28:57.58	1.93	11.16	-32.1	-46.7	3.8	7.44e-01	0	42	104	0	25	19445
2026-01-09 03:29:00.61	1.55	11.40	-31.9	-46.7	3.8	7.46e-01	0	42	104	0	24	19684
2026-01-09 03:29:03.63	1.17	11.65	-31.4	-45.5	3.8	7.44e-01	0	42	104	0	23	18190
2026-01-09 03:29:06.65	0.77	11.89	-31.8	-46.4	3.8	7.41e-01	0	42	104	0	24	19209
2026-01-09 03:29:09.67	0.37	12.14	-31.3	-45.1	3.8	7.45e-01	0	42	104	0	23	17667
2026-01-09 03:29:12.68	359.97	12.38	-31.6	-45.8	3.9	7.43e-01	0	42	104	0	24	18297
2026-01-09 03:29:15.70	359.56	12.63	-32.6	-48.8	3.8	7.47e-01	0	42	104	0	25	23140
2026-01-09 03:29:18.72	359.13	12.88	-32.9	-49.4	3.8	7.46e-01	0	42	104	0	26	24244
2026-01-09 03:29:21.75	358.70	13.14	-33.0	-50.0	3.8	7.48e-01	0	42	104	0	26	25453
2026-01-09 03:29:24.76	358.27	13.39	-33.2	-50.6	3.8	7.45e-01	0	42	104	0	27	26641
2026-01-09 03:29:27.78	357.82	13.64	-33.3	-51.5	3.8	7.44e-01	0	42	104	0	27	29025
2026-01-09 03:29:30.80	357.37	13.90	-31.9	-49.5	3.8	7.44e-01	0	42	104	0	26	27365
2026-01-09 03:29:33.82	356.90	14.15	-33.1	-50.2	3.8	7.45e-01	0	42	104	0	26	25791
2026-01-09 03:29:36.83	356.43	14.41	-32.8	-48.9	3.8	7.45e-01	0	42	104	0	26	23061
2026-01-09 03:29:39.84	355.95	14.67	-32.1	-46.7	3.8	7.47e-01	0	42	104	0	25	19226
2026-01-09 03:29:42.87	355.46	14.93	-31.0	-44.6	3.8	7.41e-01	0	42	104	0	22	17266
2026-01-09 03:29:45.88	354.96	15.19	-31.3	-44.8	3.8	7.42e-01	0	42	104	0	23	17086
2026-01-09 03:29:48.90	354.45	15.45	-31.8	-45.9	3.8	7.45e-01	0	42	104	0	24	18382
2026-01-09 03:29:51.91	353.93	15.71	-31.7	-45.7	3.8	7.47e-01	0	42	104	0	24	17974
2026-01-09 03:29:54.91	353.41	15.98	-32.6	-48.2	3.8	7.43e-01	0	42	104	0	25	21739
2026-01-09 03:29:57.92	352.87	16.24	-32.5	-47.9	3.8	7.48e-01	0	42	104	0	25	21223
2026-01-09 03:30:00.95	352.32	16.51	-32.0	-46.6	3.8	7.43e-01	0	42	104	0	24	19265
2026-01-09 03:30:03.97	351.76	16.77	-32.8	-48.4	3.8	7.42e-01	0	42	104	0	26	21817
2026-01-09 03:30:06.98	351.19	17.04	-33.1	-49.8	3.8	7.48e-01	0	42	104	0	26	24706
2026-01-09 03:30:10.00	350.61	17.30	-33.2	-50.0	3.8	7.46e-01	0	42	104	0	27	24796
2026-01-09 03:30:13.03	350.01	17.57	-33.4	-44.1	7.7	6.53e-01	0	42	104	0	27	12415
2026-01-09 03:30:16.04	349.41	17.84	-33.3	-43.1	8.6	6.34e-01	0	42	0	5242880	27	11146
2026-01-09 03:30:19.06	348.79	18.11	-32.8	-40.4	11.5	6.08e-01	0	42	0	11010048	26	8656
2026-01-09 03:30:22.07	348.16	18.37	-31.9	-36.9	14.8	6.04e-01	0	42	0	16777216	25	6388
2026-01-09 03:30:25.08	347.53	18.64	-30.6	-33.6	17.8	6.03e-01	0	42	0	22544384	23	5105
2026-01-09 03:30:28.11	346.87	18.90	-30.1	-32.7	18.7	6.00e-01	0	42	0	27787264	22	4876
2026-01-09 03:30:31.12	346.21	19.17	-30.3	-33.9	18.2	6.02e-01	0	42	0	33554432	21	5434
2026-01-09 03:30:34.14	345.53	19.43	-29.8	-32.4	19.2	6.03e-01	0	42	0	39321600	21	4874
2026-01-09 03:30:37.16	344.84	19.70	-29.8	-32.9	19.2	6.00e-01	0	42	0	45088768	20	5133
2026-01-09 03:30:40.16	344.14	19.96	-29.7	-32.6	19.4	6.00e-01	0	43	0	50331648	20	5044
2026-01-09 03:30:43.17	343.43	20.22	-29.7	-32.6	19.4	6.00e-01	0	43	0	56098816	20	5036
2026-01-09 03:30:46.19	342.70	20.48	-29.8	-33.0	19.2	6.02e-01	0	42	0	61865984	20	5170
2026-01-09 03:30:49.21	341.96	20.73	-29.9	-33.2	19.1	6.00e-01	0	42	0	67633152	20	5247
2026-01-09 03:30:52.22	341.21	20.99	-29.9	-33.2	19.1	5.99e-01	0	43	0	73400320	20	5238
2026-01-09 03:30:55.24	340.44	21.24	-29.9	-33.0	19.2	6.00e-01	0	43	0	78643200	20	5175
2026-01-09 03:30:58.25	339.66	21.49	-29.7	-32.7	19.4	6.02e-01	0	42	0	84410368	20	5081
2026-01-09 03:31:01.27	338.86	21.74	-28.7	-32.2	18.5	6.03e-01	0	42	0	90177536	19	5355
2026-01-09 03:31:04.29	338.05	21.98	-29.8	-33.0	19.1	6.04e-01	0	42	0	95944704	20	5182
2026-01-09 03:31:07.30	337.24	22.22	-29.8	-32.9	19.3	6.01e-01	0	42	0	101711872	20	5152
2026-01-09 03:31:10.30	336.40	22.46	-29.9	-33.1	19.2	6.02e-01	0	43	0	106954752	20	5195
2026-01-09 03:31:13.31	335.56	22.69	-29.9	-33.1	19.2	6.00e-01	0	42	0	112721920	20	5202
2026-01-09 03:31:16.34	334.69	22.92	-29.8	-32.8	19.4	6.04e-01	0	42	0	118489088	20	5111
2026-01-09 03:31:19.36	333.82	23.14	-29.8	-33.0	19.2	6.00e-01	0	43	0	124256256	20	5168
2026-01-09 03:31:22.38	332.93	23.36	-29.8	-32.9	19.3	6.00e-01	0	43	0	130023424	20	5138
2026-01-09 03:31:25.40	332.02	23.58	-29.8	-32.8	19.3	6.01e-01	0	43	0	135266304	20	5102
2026-01-09 03:31:28.42	331.11	23.79	-29.8	-32.8	19.3	6.02e-01	0	43	0	141033472	20	5114
2026-01-09 03:31:31.44	330.18	23.99	-29.8	-33.0	19.2	6.02e-01	0	42	0	146800640	20	5180
2026-01-09 03:31:34.45	329.24	24.18	-29.9	-33.2	19.1	6.02e-01	0	43	0	152567808	20	5267
2026-01-09 03:31:37.46	328.29	24.37	-29.6	-32.4	19.6	6.00e-01	0	42	0	157810688	20	4955
2026-01-09 03:31:40.47	327.33	24.55	-29.8	-32.8	19.3	6.01e-01	0	43	0	163577856	20	5091
2026-01-09 03:31:43.48	326.36	24.73	-29.7	-32.7	19.4	6.01e-01	0	43	0	169345024	20	5061
2026-01-09 03:31:46.49	325.37	24.90	-30.0	-33.3	19.1	6.04e-01	0	43	0	175112192	20	5277
2026-01-09 03:31:49.51	324.37	25.06	-29.6	-32.3	19.7	6.00e-01	0	42	0	180355072	20	4938
2026-01-09 03:31:52.52	323.37	25.21	-29.7	-32.7	19.4	6.03e-01	0	43	0	186122240	20	5078
2026-01-09 03:31:55.53	322.35	25.35	-29.6	-32.4	19.6	6.00e-01	0	43	0	191889408	20	4968
2026-01-09 03:31:58.55	321.32	25.48	-29.6	-32.4	19.6	6.04e-01	0	43	0	197656576	20	4947
2026-01-09 03:32:01.57	320.28	25.61	-29.6	-32.5	19.6	6.03e-01	0	43	0	203423744	20	4977
2026-01-09 03:32:04.57	319.24	25.72	-29.6	-32.4	19.7	6.02e-01	0	43	0	208666624	20	4938
2026-01-09 03:32:07.59	318.19	25.83	-29.6	-32.3	19.7	6.04e-01	0	43	0	214433792	20	4931
2026-01-09 03:32:10.61	317.13	25.92	-29.7	-32.5	19.6	6.02e-01	0	43	0	220200960	20	4995
2026-01-09 03:32:13.62	316.07	26.01	-30.0	-33.2	19.1	6.01e-01	0	43	0	225968128	20	5261
2026-01-09 03:32:16.64	314.99	26.08	-30.4	-33.9	18.5	6.03e-01	0	43	0	231735296	21	5409
2026-01-09 03:32:19.66	313.92	26.15	-30.4	-33.8	18.5	6.02e-01	0	43	0	236978176	21	5357
2026-01-09 03:32:22.68	312.83	26.20	-30.0	-33.3	19.1	6.02e-01	0	43	0	242745344	20	5286
2026-01-09 03:32:25.69	311.75	26.25	-29.6	-32.4	19.6	6.02e-01	0	43	0	248512512	20	4944
2026-01-09 03:32:28.71	310.66	26.28	-29.9	-32.6	19.2	6.04e-01	0	43	0	254279680	21	4904
2026-01-09 03:32:31.72	309.57	26.30	-29.9	-32.7	19.1	5.99e-01	0	43	0	259522560	21	4937
2026-01-09 03:32:34.73	308.49	26.31	-28.2	-31.4	19.1	6.02e-01	0	43	0	265289728	19	5218
2026-01-09 03:32:37.75	307.39	26.31	-29.9	-33.1	19.1	6.01e-01	0	43	0	271056896	20	5205
2026-01-09 03:32:40.76	306.31	26.30	-30.7	-34.2	17.8	6.02e-01	0	43	0	276824064	22	5400
2026-01-09 03:32:43.78	305.21	26.28	-30.9	-35.0	17.3	6.00e-01	0	43	0	282066944	22	5731
2026-01-09 03:32:46.78	304.13	26.24	-30.8	-34.7	17.7	6.01e-01	0	43	0	287834112	22	5614
2026-01-09 03:32:49.79	303.05	26.20	-30.8	-34.5	17.8	6.03e-01	0	43	0	293601280	22	5533
2026-01-09 03:32:52.81	301.97	26.14	-30.0	-32.9	19.1	6.02e-01	0	42	0	299368448	21	5015
2026-01-09 03:32:55.82	300.89	26.08	-29.7	-32.0	19.3	6.01e-01	0	43	0	305135616	21	4685
2026-01-09 03:32:58.85	299.81	26.00	-30.0	-32.9	19.0	6.01e-01	0	43	0	310378496	21	5030
2026-01-09 03:33:01.87	298.75	25.92	-30.2	-33.3	18.8	6.01e-01	0	43	0	316145664	21	5177
2026-01-09 03:33:04.88	297.69	25.82	-30.1	-33.1	18.9	6.00e-01	0	42	0	321912832	21	5083
2026-01-09 03:33:07.90	296.63	25.71	-30.2	-33.4	18.7	6.03e-01	0	43	0	327680000	21	5217
2026-01-09 03:33:10.91	295.59	25.60	-30.0	-33.4	19.0	6.02e-01	0	43	0	333447168	20	5329
2026-01-09 03:33:13.93	294.55	25.47	-30.1	-33.1	18.8	6.01e-01	0	43	0	338690048	21	5121
2026-01-09 03:33:16.95	293.52	25.33	-29.9	-33.1	19.2	6.01e-01	0	42	0	344457216	20	5217
2026-01-09 03:33:19.97	292.50	25.19	-30.1	-33.2	18.7	6.01e-01	0	43	0	350224384	21	5139
2026-01-09 03:33:22.99	291.49	25.04	-29.8	-32.4	19.3	6.03e-01	0	42	0	355991552	21	4853
2026-01-09 03:33:26.00	290.49	24.88	-30.0	-32.8	18.9	6.03e-01	0	43	0	361758720	21	4992
2026-01-09 03:33:29.02	289.51	24.71	-30.4	-34.2	18.1	6.01e-01	0	43	0	367001600	21	5547
2026-01-09 03:33:32.04	288.53	24.53	-29.7	-32.0	19.4	6.01e-01	0	43	0	372768768	21	4716
2026-01-09 03:33:35.06	287.56	24.35	-30.1	-33.7	18.7	6.03e-01	0	43	0	378535936	20	5455
2026-01-09 03:33:38.08	286.61	24.16	-30.2	-33.4	18.5	6.01e-01	0	43	0	384303104	21	5220
2026-01-09 03:33:41.10	285.66	23.96	-30.0	-33.3	19.0	6.01e-01	0	43	0	390070272	20	5298
2026-01-09 03:33:44.11	284.74	23.76	-30.1	-33.7	18.7	6.02e-01	0	43	0	395313152	20	5476
2026-01-09 03:33:47.13	283.82	23.55	-30.4	-34.0	18.1	6.02e-01	0	43	0	401080320	21	5476
2026-01-09 03:33:50.15	282.92	23.33	-30.2	-33.4	18.5	6.02e-01	0	43	0	406847488	21	5211
2026-01-09 03:33:53.16	282.03	23.11	-29.8	-32.5	19.2	6.01e-01	0	43	0	412614656	21	4907
2026-01-09 03:33:56.17	281.15	22.89	-29.9	-33.3	19.0	6.03e-01	0	43	0	417857536	20	5289
2026-01-09 03:33:59.19	280.29	22.66	-29.7	-32.8	19.2	6.01e-01	0	43	0	423624704	20	5107
2026-01-09 03:34:02.20	279.44	22.43	-29.9	-33.1	19.1	6.02e-01	0	42	0	429391872	20	5227
2026-01-09 03:34:05.21	278.61	22.19	-29.9	-33.2	19.0	6.01e-01	0	43	0	435159040	20	5279
2026-01-09 03:34:08.22	277.78	21.95	-29.8	-32.9	19.1	6.03e-01	0	42	0	440401920	20	5148
2026-01-09 03:34:11.24	276.97	21.70	-30.2	-33.6	18.3	6.01e-01	0	43	0	446169088	21	5330
2026-01-09 03:34:14.24	276.18	21.45	-30.3	-33.8	18.2	5.99e-01	0	42	0	451936256	21	5401
2026-01-09 03:34:17.25	275.40	21.20	-29.9	-33.2	18.9	6.01e-01	0	43	0	457703424	20	5285
2026-01-09 03:34:20.25	274.64	20.95	-30.1	-33.7	18.6	6.02e-01	0	42	0	463470592	20	5476
2026-01-09 03:34:23.27	273.88	20.69	-29.9	-33.4	18.8	6.02e-01	0	42	0	468713472	20	5343
2026-01-09 03:34:26.28	273.14	20.44	-29.6	-32.6	19.2	6.00e-01	0	43	0	474480640	20	5049
2026-01-09 03:34:29.29	272.41	20.18	-29.8	-33.1	18.9	6.01e-01	0	43	0	480247808	20	5228
2026-01-09 03:34:32.31	271.69	19.91	-29.5	-32.3	19.4	6.02e-01	0	43	0	486014976	20	4949
2026-01-09 03:34:35.33	270.99	19.65	-29.5	-32.3	19.4	6.02e-01	0	43	0	491257856	20	4957
2026-01-09 03:34:38.35	270.30	19.39	-29.6	-32.5	19.3	5.99e-01	0	43	0	497025024	20	5027
2026-01-09 03:34:41.36	269.62	19.12	-29.7	-32.7	19.1	6.00e-01	0	43	0	502792192	20	5113
2026-01-09 03:34:44.37	268.95	18.85	-29.5	-32.4	19.3	6.03e-01	0	43	0	508559360	20	4978
2026-01-09 03:34:47.40	268.30	18.59	-29.7	-32.8	19.1	6.02e-01	0	43	0	514326528	20	5131
2026-01-09 03:34:50.42	267.65	18.32	-29.7	-32.9	18.9	6.00e-01	0	43	0	519569408	20	5171
2026-01-09 03:34:53.44	267.02	18.05	-30.1	-33.9	17.7	6.06e-01	0	43	0	525336576	20	5546
2026-01-09 03:34:56.45	266.41	17.78	-30.2	-33.7	17.6	6.04e-01	0	43	0	531103744	21	5372
2026-01-09 03:34:59.46	265.80	17.52	-30.3	-33.8	17.1	6.04e-01	0	43	0	536870912	21	5433
2026-01-09 03:35:02.48	265.21	17.25	-29.9	-33.3	17.5	6.01e-01	0	43	0	542113792	20	5331
2026-01-09 03:35:05.49	264.62	16.98	-29.6	-32.6	19.1	6.02e-01	0	43	0	547880960	20	5072
2026-01-09 03:35:08.50	264.05	16.72	-29.6	-32.6	19.1	6.03e-01	0	43	0	553648128	20	5083
2026-01-09 03:35:11.51	263.49	16.45	-29.8	-33.2	18.6	6.02e-01	0	43	0	559415296	20	5325
2026-01-09 03:35:14.54	262.94	16.18	-29.5	-32.7	19.4	6.00e-01	0	43	0	565182464	19	5217
2026-01-09 03:35:17.56	262.40	15.92	-29.6	-32.5	19.1	6.02e-01	0	43	0	570425344	20	5032
2026-01-09 03:35:20.57	261.87	15.65	-29.8	-33.0	18.7	6.03e-01	0	42	0	576192512	20	5252
2026-01-09 03:35:23.59	261.35	15.39	-29.6	-32.5	19.1	6.01e-01	0	42	0	581959680	20	5052
2026-01-09 03:35:26.60	260.84	15.13	-29.5	-32.9	19.2	5.99e-01	0	43	0	587726848	19	5297
2026-01-09 03:35:29.61	260.34	14.86	-29.7	-32.9	18.8	6.00e-01	0	43	0	593494016	20	5194
2026-01-09 03:35:32.63	259.84	14.60	-29.6	-32.6	17.3	6.12e-01	0	43	0	598736896	20	5101
2026-01-09 03:35:35.65	259.36	14.34	-29.7	-33.0	15.5	6.12e-01	0	43	0	604504064	20	5251
2026-01-09 03:35:38.67	258.89	14.08	-29.7	-32.9	17.8	6.01e-01	0	43	0	610271232	20	5228
2026-01-09 03:35:41.69	258.42	13.83	-29.6	-32.6	18.8	6.01e-01	0	43	0	616038400	20	5111
2026-01-09 03:35:44.70	257.97	13.57	-29.6	-33.1	19.0	6.02e-01	0	43	0	621805568	19	5375
2026-01-09 03:35:47.71	257.52	13.32	-29.6	-32.7	18.8	6.01e-01	0	43	0	627048448	20	5126
2026-01-09 03:35:50.74	257.08	13.06	-29.6	-32.8	18.7	6.01e-01	0	43	0	632815616	20	5175
2026-01-09 03:35:53.76	256.65	12.81	-29.7	-32.9	18.6	6.00e-01	0	43	0	638582784	20	5218
2026-01-09 03:35:56.77	256.22	12.56	-29.7	-33.1	18.5	6.03e-01	0	43	0	644349952	20	5294
2026-01-09 03:35:59.79	255.81	12.31	-29.8	-33.4	18.4	6.01e-01	0	43	0	650117120	20	5398
2026-01-09 03:36:02.81	255.40	12.06	-30.0	-33.7	18.1	6.00e-01	0	43	0	655360000	20	5545
2026-01-09 03:36:05.83	255.00	11.81	-29.8	-33.2	18.4	6.01e-01	0	43	0	661127168	20	5345
2026-01-09 03:36:08.84	254.61	11.57	-29.6	-32.8	18.7	6.00e-01	0	43	0	666894336	20	5186
2026-01-09 03:36:11.86	254.22	11.33	-29.7	-33.0	18.5	6.00e-01	0	43	0	672661504	20	5267
2026-01-09 03:36:14.88	253.84	11.08	-29.7	-33.1	18.4	6.01e-01	0	43	0	677904384	20	5321
2026-01-09 03:36:17.89	253.47	10.84	-29.7	-33.1	18.4	6.00e-01	0	43	0	683671552	20	5307
2026-01-09 03:36:20.90	253.10	10.61	-29.9	-33.6	18.0	6.00e-01	0	43	0	689438720	20	5513
2026-01-09 03:36:23.92	252.74	10.37	-29.9	-33.6	18.1	6.01e-01	0	43	0	695205888	20	5527
2026-01-09 03:36:26.93	252.39	10.13	-29.9	-33.6	17.9	6.00e-01	0	43	0	700448768	20	5548
2026-01-09 03:36:29.94	252.04	9.90	-29.9	-33.6	17.9	6.01e-01	0	43	0	706215936	20	5543
2026-01-09 03:36:32.95	251.70	9.67	-29.9	-33.7	17.9	6.02e-01	0	43	0	711983104	20	5565
2026-01-09 03:36:35.96	251.37	9.43	-29.8	-33.4	18.0	5.99e-01	0	43	0	717750272	20	5452
2026-01-09 03:36:38.98	251.04	9.20	-29.9	-33.6	17.9	6.03e-01	0	43	0	723517440	20	5551
2026-01-09 03:36:42.00	250.72	8.98	-29.9	-33.8	17.8	6.01e-01	0	43	0	728760320	20	5617
2026-01-09 03:36:45.01	250.40	8.75	-30.0	-34.1	17.6	6.00e-01	0	43	0	734527488	20	5739
2026-01-09 03:36:48.03	250.09	8.52	-30.0	-34.1	17.5	6.02e-01	0	43	0	740294656	20	5750
2026-01-09 03:36:51.04	249.78	8.30	-30.1	-34.3	17.4	6.02e-01	0	43	0	746061824	20	5834
2026-01-09 03:36:54.05	249.48	8.08	-30.1	-34.3	17.3	6.01e-01	0	43	0	751828992	20	5860
2026-01-09 03:36:57.07	249.18	7.86	-30.0	-34.2	17.4	6.01e-01	0	42	0	757071872	20	5833
2026-01-09 03:37:00.08	248.89	7.64	-30.1	-34.4	17.2	5.99e-01	0	43	0	762839040	20	5894
2026-01-09 03:37:03.09	248.60	7.42	-30.1	-34.3	17.3	6.02e-01	0	43	0	768606208	20	5863
2026-01-09 03:37:06.11	248.32	7.20	-30.2	-34.4	16.8	6.03e-01	0	43	0	774373376	21	5806
2026-01-09 03:37:09.13	248.04	6.99	-33.4	-52.9	3.8	7.46e-01	0	43	104	776470528	27	34180

#Closed at: 2026-01-09 03:37:10
#Recorded file [776 MB]: D:/data/31010_260109_063012.dat