passes_logs/2026/01/09/R2M6_AANII_01/R2M6_AANII_01__20260109_000754_NOAA_20_JPSS-1_rec.log

#Pass ID: 20260109_000754_NOAA 20 (JPSS-1)
#Satellite: NOAA 20 (JPSS-1)
#Configuration: NOAA 20
#almurnet v.1.7.20240730
#Start time: 2026-01-09 00:07:55

#Version: 2.2.20231116
#Station: R2M6_AANII_01
#Location: 30.233357 lon 59.946436 lat
#TLE: 1 43013U 17073A   26008.42245989  .00000120  00000+0  77990-4 0  9996
#TLE: 2 43013  98.7631 309.4315 0001737  48.7960 311.3365 14.19534455421802

#Time	Az	El	Level	Level2	SNR	BER	BlckErr	Temp	State	Recorded	gain1	gain2
2026-01-09 00:07:55.04	19.27	7.03	-31.8	-40.1	4.5	1.40e+00	0	41	0	0	23	9373
2026-01-09 00:07:58.06	19.31	7.26	-31.8	-40.1	5.7	3.75e-01	0	40	0	1048576	23	9385
2026-01-09 00:08:01.08	19.36	7.50	-31.8	-40.3	5.7	4.02e-01	0	41	0	7340032	23	9505
2026-01-09 00:08:04.09	19.41	7.73	-31.3	-37.5	7.9	1.11e-01	0	41	0	12582912	22	7422
2026-01-09 00:08:07.12	19.46	7.97	-30.7	-35.9	9.6	2.20e-02	0	41	0	18874368	21	6520
2026-01-09 00:08:10.13	19.51	8.21	-30.5	-35.5	10.3	7.76e-03	0	41	0	24117248	20	6406
2026-01-09 00:08:13.15	19.56	8.45	-30.3	-35.0	10.7	5.72e-03	0	41	0	29360128	20	6164
2026-01-09 00:08:16.17	19.61	8.70	-30.1	-34.3	11.3	1.32e-03	0	41	0	35651584	20	5783
2026-01-09 00:08:19.19	19.66	8.95	-30.4	-35.2	10.6	2.67e-03	0	41	0	40894464	20	6243
2026-01-09 00:08:22.21	19.71	9.20	-29.8	-33.3	12.0	4.66e-04	0	41	0	47185920	20	5371
2026-01-09 00:08:25.24	19.76	9.45	-29.8	-33.5	12.4	1.41e-04	0	41	0	52428800	19	5521
2026-01-09 00:08:28.25	19.82	9.71	-29.7	-33.3	12.5	1.29e-04	0	41	0	57671680	19	5439
2026-01-09 00:08:31.27	19.87	9.96	-29.9	-33.8	12.2	2.25e-04	0	42	0	63963136	19	5654
2026-01-09 00:08:34.30	19.92	10.23	-29.8	-33.5	12.3	1.41e-04	0	42	0	69206016	19	5516
2026-01-09 00:08:37.32	19.98	10.49	-29.8	-33.5	12.4	1.58e-04	0	42	0	75497472	19	5540
2026-01-09 00:08:40.33	20.04	10.76	-29.7	-33.1	12.7	7.32e-05	0	42	0	80740352	19	5359
2026-01-09 00:08:43.34	20.09	11.02	-29.7	-33.1	12.8	7.78e-05	0	42	0	85983232	19	5338
2026-01-09 00:08:46.36	20.15	11.30	-29.5	-32.5	13.2	2.67e-05	0	42	0	92274688	19	5130
2026-01-09 00:08:49.37	20.21	11.57	-29.4	-32.3	13.3	2.05e-05	0	42	0	97517568	19	5031
2026-01-09 00:08:52.38	20.27	11.85	-29.4	-32.9	13.3	1.75e-05	0	42	0	102760448	18	5384
2026-01-09 00:08:55.40	20.33	12.13	-29.4	-32.4	13.3	3.28e-05	0	42	0	109051904	19	5084
2026-01-09 00:08:58.41	20.39	12.42	-29.3	-32.6	13.5	1.75e-05	0	42	0	114294784	18	5267
2026-01-09 00:09:01.43	20.45	12.70	-29.3	-32.6	13.5	1.67e-05	0	42	0	120586240	18	5249
2026-01-09 00:09:04.45	20.51	13.00	-29.3	-32.4	13.7	9.10e-06	0	42	0	125829120	18	5180
2026-01-09 00:09:07.46	20.58	13.29	-29.5	-32.9	13.4	1.22e-05	0	42	0	131072000	18	5370
2026-01-09 00:09:10.48	20.64	13.59	-29.6	-32.8	13.1	5.26e-05	0	42	0	137363456	19	5228
2026-01-09 00:09:13.50	20.71	13.89	-29.4	-32.3	13.5	4.95e-05	0	42	0	142606336	19	5018
2026-01-09 00:09:16.51	20.78	14.20	-29.4	-32.7	13.6	9.10e-06	0	42	0	148897792	18	5273
2026-01-09 00:09:19.52	20.84	14.51	-29.3	-32.3	13.8	4.50e-06	0	42	0	154140672	18	5136
2026-01-09 00:09:22.53	20.91	14.82	-29.4	-32.6	13.6	6.80e-06	0	42	0	159383552	18	5251
2026-01-09 00:09:25.55	20.98	15.14	-29.4	-32.8	13.5	1.29e-05	0	42	0	165675008	18	5311
2026-01-09 00:09:28.57	21.06	15.46	-29.5	-32.6	13.4	1.60e-05	0	42	0	170917888	19	5113
2026-01-09 00:09:31.59	21.13	15.79	-29.5	-32.4	13.5	1.44e-05	0	42	0	177209344	19	5036
2026-01-09 00:09:34.60	21.20	16.12	-29.5	-32.4	13.5	1.06e-05	0	42	0	182452224	19	5032
2026-01-09 00:09:37.62	21.28	16.46	-29.6	-32.6	13.4	8.30e-06	0	42	0	187695104	19	5131
2026-01-09 00:09:40.62	21.36	16.79	-29.6	-32.9	13.2	1.67e-05	0	42	0	193986560	19	5224
2026-01-09 00:09:43.64	21.44	17.14	-29.7	-33.1	13.1	3.50e-05	0	43	0	199229440	19	5302
2026-01-09 00:09:46.65	21.52	17.49	-29.8	-33.4	13.0	3.96e-05	0	42	0	205520896	19	5410
2026-01-09 00:09:49.66	21.60	17.84	-29.9	-33.5	12.8	5.41e-05	0	42	0	210763776	19	5478
2026-01-09 00:09:52.67	21.68	18.20	-30.1	-33.8	12.2	2.15e-04	0	42	0	216006656	20	5496
2026-01-09 00:09:55.69	21.77	18.57	-30.3	-34.2	12.0	4.81e-04	0	43	0	222298112	20	5666
2026-01-09 00:09:58.71	21.86	18.94	-30.3	-34.4	11.9	3.66e-04	0	42	0	227540992	20	5730
2026-01-09 00:10:01.73	21.94	19.32	-30.4	-34.1	11.7	5.93e-04	0	42	0	232783872	21	5518
2026-01-09 00:10:04.73	22.03	19.70	-30.7	-35.1	11.0	1.62e-03	0	43	0	239075328	21	5975
2026-01-09 00:10:07.75	22.13	20.09	-30.4	-34.6	11.8	7.63e-04	0	43	0	244318208	20	5816
2026-01-09 00:10:10.77	22.22	20.48	-30.2	-33.9	11.9	2.62e-04	0	43	0	250609664	20	5528
2026-01-09 00:10:13.79	22.32	20.88	-30.1	-33.6	12.5	9.53e-05	0	43	0	255852544	20	5373
2026-01-09 00:10:16.80	22.42	21.29	-30.2	-34.0	12.2	2.23e-04	0	43	0	261095424	20	5571
2026-01-09 00:10:19.81	22.52	21.70	-30.1	-33.6	12.5	1.20e-04	0	43	0	267386880	20	5409
2026-01-09 00:10:22.84	22.63	22.12	-30.2	-33.7	12.5	3.55e-04	0	43	0	272629760	20	5443
2026-01-09 00:10:25.86	22.73	22.55	-30.0	-33.4	12.7	2.32e-03	0	43	0	278921216	20	5299
2026-01-09 00:10:28.88	22.84	22.99	-30.0	-33.6	13.0	2.34e-03	0	43	0	284164096	19	5491
2026-01-09 00:10:31.90	22.95	23.43	-29.8	-33.2	13.2	2.38e-03	0	43	0	289406976	19	5323
2026-01-09 00:10:34.91	23.07	23.88	-30.3	-34.1	12.2	2.69e-03	0	43	0	295698432	20	5596
2026-01-09 00:10:37.93	23.19	24.34	-30.2	-33.9	12.4	1.50e-04	0	42	0	300941312	20	5489
2026-01-09 00:10:40.96	23.31	24.80	-30.4	-34.5	12.0	4.72e-04	0	43	0	307232768	20	5753
2026-01-09 00:10:43.98	23.43	25.28	-29.8	-33.2	13.3	2.55e-03	0	43	0	312475648	19	5326
2026-01-09 00:10:46.99	23.56	25.76	-29.8	-33.3	13.3	2.30e-03	0	43	0	317718528	19	5342
2026-01-09 00:10:50.00	23.69	26.25	-29.8	-33.3	13.2	2.16e-03	0	43	0	324009984	19	5344
2026-01-09 00:10:53.02	23.83	26.75	-30.0	-33.2	12.9	1.88e-03	0	43	0	329252864	20	5200
2026-01-09 00:10:56.04	23.97	27.26	-30.1	-33.7	12.5	1.61e-03	0	43	0	335544320	20	5412
2026-01-09 00:10:59.05	24.11	27.78	-30.4	-34.3	12.2	2.38e-04	0	43	0	340787200	20	5672
2026-01-09 00:11:02.07	24.26	28.31	-30.5	-34.3	11.9	3.65e-04	0	43	0	346030080	21	5558
2026-01-09 00:11:05.09	24.41	28.85	-30.6	-34.5	11.7	6.43e-04	0	43	0	352321536	21	5627
2026-01-09 00:11:08.11	24.57	29.40	-30.5	-34.2	11.9	4.13e-04	0	43	0	357564416	21	5510
2026-01-09 00:11:11.13	24.73	29.96	-30.7	-34.7	11.6	1.91e-03	0	43	0	363855872	21	5699
2026-01-09 00:11:14.14	24.90	30.53	-30.7	-34.7	11.6	1.91e-03	0	43	0	369098752	21	5728
2026-01-09 00:11:17.16	25.07	31.12	-30.7	-34.8	11.6	7.25e-04	0	43	0	374341632	21	5774
2026-01-09 00:11:20.17	25.25	31.71	-30.9	-35.3	11.2	1.41e-03	0	43	0	380633088	21	5999
2026-01-09 00:11:23.19	25.44	32.32	-30.8	-35.1	11.4	1.04e-03	0	43	0	385875968	21	5891
2026-01-09 00:11:26.21	25.63	32.94	-30.7	-34.1	11.8	7.19e-04	0	43	0	392167424	22	5326
2026-01-09 00:11:29.23	25.83	33.57	-30.5	-34.0	12.2	2.43e-04	0	43	0	397410304	21	5415
2026-01-09 00:11:32.25	26.04	34.21	-30.0	-33.1	13.1	4.88e-05	0	43	0	402653184	20	5147
2026-01-09 00:11:35.27	26.25	34.87	-30.2	-33.6	12.8	6.02e-05	0	43	0	408944640	20	5356
2026-01-09 00:11:38.29	26.47	35.54	-29.9	-32.8	13.4	8.30e-06	0	43	0	414187520	20	5036
2026-01-09 00:11:41.31	26.71	36.23	-30.0	-33.3	13.1	1.75e-05	0	43	0	420478976	20	5208
2026-01-09 00:11:44.32	26.95	36.93	-30.0	-33.0	13.3	2.21e-05	0	43	0	425721856	20	5106
2026-01-09 00:11:47.33	27.20	37.64	-30.1	-33.4	13.0	1.06e-05	0	43	0	430964736	20	5257
2026-01-09 00:11:50.35	27.46	38.37	-30.1	-33.5	13.0	2.67e-05	0	43	0	437256192	20	5295
2026-01-09 00:11:53.37	27.74	39.12	-30.3	-34.1	12.6	4.73e-05	0	43	0	442499072	20	5533
2026-01-09 00:11:56.38	28.02	39.88	-30.5	-34.4	12.4	1.69e-04	0	43	0	447741952	20	5674
2026-01-09 00:11:59.41	28.32	40.66	-30.9	-35.2	11.5	5.84e-04	0	43	0	454033408	21	5906
2026-01-09 00:12:02.43	28.64	41.45	-30.8	-34.9	11.7	8.19e-04	0	43	0	459276288	21	5785
2026-01-09 00:12:05.44	28.97	42.26	-30.5	-34.0	12.4	5.20e-04	0	43	0	465567744	21	5368
2026-01-09 00:12:08.45	29.31	43.09	-30.7	-34.5	12.0	6.38e-04	0	43	0	470810624	21	5604
2026-01-09 00:12:11.48	29.68	43.94	-31.0	-34.9	11.5	1.41e-03	0	43	0	477102080	22	5635
2026-01-09 00:12:14.50	30.06	44.80	-30.7	-34.5	12.0	2.88e-04	0	43	0	482344960	21	5597
2026-01-09 00:12:17.51	30.47	45.68	-30.6	-34.4	12.3	7.03e-04	0	43	0	487587840	21	5515
2026-01-09 00:12:20.52	30.89	46.58	-30.5	-33.9	12.5	4.97e-04	0	43	0	493879296	21	5315
2026-01-09 00:12:23.54	31.35	47.50	-30.9	-35.1	11.7	1.70e-03	0	43	0	499122176	21	5866
2026-01-09 00:12:26.56	31.83	48.43	-30.8	-35.0	11.8	1.83e-03	0	43	0	505413632	21	5786
2026-01-09 00:12:29.58	32.34	49.39	-30.3	-33.8	13.0	1.66e-03	0	43	0	510656512	20	5390
2026-01-09 00:12:32.60	32.88	50.36	-29.8	-33.0	13.9	4.50e-06	0	43	0	515899392	19	5186
2026-01-09 00:12:35.61	33.45	51.35	-28.9	-31.2	15.4	0.00e+00	0	43	0	522190848	18	4657
2026-01-09 00:12:38.62	34.07	52.36	-28.6	-30.9	15.8	0.00e+00	0	43	0	527433728	17	4678
2026-01-09 00:12:41.62	34.72	53.38	-28.0	-29.8	16.7	0.00e+00	0	43	0	532676608	16	4455
2026-01-09 00:12:44.63	35.43	54.42	-27.5	-29.3	17.0	5.13e-04	0	43	0	538968064	15	4437
2026-01-09 00:12:47.65	36.18	55.48	-27.4	-29.6	17.3	0.00e+00	0	43	0	544210944	14	4616
2026-01-09 00:12:50.65	37.00	56.55	-28.7	-31.1	15.7	0.00e+00	0	43	0	550502400	17	4746
2026-01-09 00:12:53.65	37.88	57.64	-28.6	-30.3	15.9	0.00e+00	0	43	0	555745280	18	4396
2026-01-09 00:12:56.67	38.83	58.74	-27.9	-29.5	16.9	0.00e+00	0	43	0	560988160	16	4367
2026-01-09 00:12:59.68	39.87	59.86	-27.5	-29.3	17.2	0.00e+00	0	43	0	567279616	15	4429
2026-01-09 00:13:02.69	41.00	60.99	-27.1	-28.8	17.8	0.00e+00	0	43	0	572522496	14	4385
2026-01-09 00:13:05.69	42.23	62.12	-26.7	-28.4	18.3	0.00e+00	0	43	0	578813952	13	4387
2026-01-09 00:13:08.71	43.59	63.27	-26.9	-28.8	18.1	0.00e+00	0	43	0	584056832	13	4513
2026-01-09 00:13:11.73	45.09	64.42	-27.7	-29.8	17.0	0.00e+00	0	43	0	589299712	15	4561
2026-01-09 00:13:14.75	46.75	65.57	-28.8	-31.4	15.7	0.00e+00	0	43	0	595591168	17	4811
2026-01-09 00:13:17.76	48.58	66.72	-29.9	-33.1	14.0	0.00e+00	0	43	0	600834048	19	5195
2026-01-09 00:13:20.77	50.62	67.86	-30.6	-34.2	12.6	7.01e-05	0	43	0	606076928	21	5409
2026-01-09 00:13:23.79	52.90	68.98	-30.5	-34.1	13.0	2.13e-05	0	43	0	612368384	20	5473
2026-01-09 00:13:26.81	55.46	70.09	-30.6	-34.0	12.7	1.11e-04	0	43	0	617611264	21	5340
2026-01-09 00:13:29.83	58.34	71.17	-30.5	-33.8	12.9	1.13e-04	0	43	0	623902720	21	5239
2026-01-09 00:13:32.85	61.58	72.21	-31.2	-35.3	11.7	8.19e-04	0	43	0	629145600	22	5736
2026-01-09 00:13:35.87	65.24	73.20	-30.6	-33.6	12.8	2.29e-04	0	43	0	634388480	22	5032
2026-01-09 00:13:38.88	69.34	74.12	-30.2	-32.8	13.7	1.44e-05	0	43	0	640679936	21	4865
2026-01-09 00:13:41.90	73.97	74.96	-29.6	-31.6	14.8	1.50e-06	0	43	0	645922816	20	4563
2026-01-09 00:13:44.92	79.12	75.70	-30.3	-33.7	13.3	1.60e-05	0	43	0	652214272	20	5321
2026-01-09 00:13:47.95	84.83	76.33	-30.6	-33.8	12.9	5.72e-05	0	43	0	657457152	21	5229
2026-01-09 00:13:50.97	91.02	76.81	-31.4	-35.7	11.3	9.09e-04	0	43	0	662700032	22	5941
2026-01-09 00:13:53.98	97.59	77.13	-31.4	-35.8	11.3	3.91e-04	0	43	0	668991488	22	5989
2026-01-09 00:13:57.00	104.43	77.28	-31.3	-34.9	11.6	1.21e-03	0	43	0	674234368	23	5462
2026-01-09 00:14:00.01	111.32	77.26	-31.6	-35.9	10.8	1.89e-03	0	43	0	680525824	23	5932
2026-01-09 00:14:03.03	118.11	77.06	-31.9	-36.5	10.0	7.61e-03	0	43	0	685768704	24	6128
2026-01-09 00:14:06.04	124.57	76.69	-31.5	-35.1	11.2	1.06e-03	0	43	0	691011584	24	5434
2026-01-09 00:14:09.05	130.61	76.16	-31.5	-35.1	11.2	1.60e-03	0	43	0	697303040	24	5437
2026-01-09 00:14:12.07	136.16	75.51	-32.1	-37.1	9.7	2.06e-02	0	43	0	702545920	24	6442
2026-01-09 00:14:15.10	141.18	74.73	-32.2	-37.4	9.4	1.75e-02	0	43	0	708837376	24	6590
2026-01-09 00:14:18.10	145.63	73.87	-31.3	-34.9	11.6	9.62e-04	0	43	0	714080256	23	5474
2026-01-09 00:14:21.12	149.62	72.92	-30.5	-33.1	13.3	6.48e-05	0	43	0	719323136	22	4847
2026-01-09 00:14:24.13	153.15	71.92	-30.1	-32.9	14.0	9.90e-06	0	43	0	725614592	20	5008
2026-01-09 00:14:27.16	156.30	70.86	-29.6	-32.3	14.7	0.00e+00	0	43	0	730857472	19	4877
2026-01-09 00:14:30.18	159.08	69.77	-29.9	-32.6	14.1	3.80e-06	0	43	0	737148928	20	4882
2026-01-09 00:14:33.21	161.57	68.65	-31.0	-34.7	12.1	5.56e-04	0	43	0	742391808	22	5480
2026-01-09 00:14:36.23	163.79	67.52	-31.7	-36.4	10.4	6.82e-03	0	43	0	747634688	23	6174
2026-01-09 00:14:39.25	165.77	66.37	-30.8	-33.9	12.6	2.07e-04	0	43	0	753926144	22	5176
2026-01-09 00:14:42.26	167.55	65.22	-30.3	-32.6	13.4	2.51e-05	0	43	0	759169024	22	4683
2026-01-09 00:14:45.27	169.15	64.07	-29.3	-31.4	15.2	0.00e+00	0	43	0	765460480	19	4595
2026-01-09 00:14:48.29	170.61	62.92	-28.4	-30.2	16.5	0.00e+00	0	43	0	770703360	17	4436
2026-01-09 00:14:51.30	171.93	61.77	-30.3	-33.7	13.3	6.80e-06	0	43	0	775946240	20	5318
2026-01-09 00:14:54.32	173.14	60.63	-29.5	-32.0	14.8	0.00e+00	0	43	0	782237696	19	4801
2026-01-09 00:14:57.34	174.24	59.50	-31.4	-35.4	11.1	2.44e-03	0	43	0	787480576	23	5702
2026-01-09 00:15:00.37	175.26	58.38	-31.0	-34.6	12.1	1.23e-04	0	43	0	793772032	22	5441
2026-01-09 00:15:03.38	176.20	57.27	-31.1	-34.4	11.8	1.78e-03	0	43	0	799014912	23	5269
2026-01-09 00:15:06.39	177.06	56.18	-28.6	-30.2	16.2	0.00e+00	0	43	0	804257792	18	4319
2026-01-09 00:15:09.41	177.86	55.11	-29.5	-31.9	14.8	5.80e-04	0	43	0	810549248	19	4780
2026-01-09 00:15:12.43	178.60	54.05	-28.8	-31.1	15.8	5.13e-04	0	43	0	815792128	17	4736
2026-01-09 00:15:15.44	179.29	53.01	-29.8	-32.9	14.2	3.68e-04	0	43	0	822083584	19	5124
2026-01-09 00:15:18.47	179.93	51.98	-31.2	-35.2	11.5	4.15e-04	0	43	0	827326464	22	5737
2026-01-09 00:15:21.47	180.53	50.98	-32.2	-38.0	8.6	2.43e-02	0	43	0	832569344	24	7037
2026-01-09 00:15:24.49	181.10	49.99	-32.7	-40.1	6.7	3.12e-01	0	43	0	838860800	25	8372
2026-01-09 00:15:27.50	181.63	49.02	-32.4	-39.0	7.9	6.25e-02	0	43	0	844103680	24	7665
2026-01-09 00:15:30.51	182.13	48.07	-31.6	-36.3	10.3	6.94e-03	0	43	0	849346560	23	6165
2026-01-09 00:15:33.54	182.60	47.14	-31.8	-37.0	9.9	6.49e-03	0	43	0	855638016	23	6531
2026-01-09 00:15:36.55	183.04	46.23	-30.6	-33.7	12.4	4.56e-04	0	43	0	860880896	22	5113
2026-01-09 00:15:39.57	183.46	45.33	-29.2	-31.3	15.1	0.00e+00	0	43	0	867172352	19	4580
2026-01-09 00:15:42.58	183.86	44.45	-29.6	-32.1	14.5	0.00e+00	0	43	0	872415232	19	4854
2026-01-09 00:15:45.58	184.23	43.60	-30.2	-33.5	13.3	9.46e-05	0	43	0	877658112	20	5238
2026-01-09 00:15:48.60	184.59	42.75	-30.0	-32.9	13.7	9.91e-05	0	43	0	883949568	20	5039
2026-01-09 00:15:51.61	184.93	41.93	-29.2	-31.2	15.1	4.73e-05	0	43	0	889192448	19	4539
2026-01-09 00:15:54.62	185.25	41.12	-29.9	-33.1	13.9	2.20e-06	0	43	0	895483904	19	5218
2026-01-09 00:15:57.65	185.56	40.33	-30.9	-35.1	11.8	1.33e-04	0	43	0	900726784	21	5809
2026-01-09 00:16:00.67	185.86	39.55	-30.5	-33.9	12.6	1.39e-04	0	43	0	905969664	21	5294
2026-01-09 00:16:03.69	186.14	38.79	-30.3	-33.8	13.1	3.05e-04	0	43	0	912261120	20	5383
2026-01-09 00:16:06.70	186.41	38.05	-30.9	-35.2	11.8	5.62e-04	0	43	0	917504000	21	5863
2026-01-09 00:16:09.73	186.67	37.32	-31.7	-36.6	9.9	7.41e-03	0	43	0	923795456	23	6352
2026-01-09 00:16:12.74	186.92	36.61	-31.8	-37.1	9.5	1.53e-02	0	43	0	929038336	23	6618
2026-01-09 00:16:15.76	187.15	35.91	-31.9	-37.3	9.3	1.51e-02	0	43	0	934281216	23	6756
2026-01-09 00:16:18.77	187.38	35.23	-31.3	-35.5	10.7	4.71e-03	0	43	0	940572672	23	5785
2026-01-09 00:16:21.79	187.60	34.56	-31.3	-35.8	10.9	2.01e-03	0	43	0	945815552	22	6051
2026-01-09 00:16:24.82	187.81	33.90	-31.9	-37.5	9.1	1.76e-02	0	43	0	952107008	23	6895
2026-01-09 00:16:27.83	188.02	33.26	-32.3	-39.2	7.5	8.25e-02	0	43	0	957349888	24	7921
2026-01-09 00:16:30.85	188.21	32.63	-32.1	-38.2	8.2	6.84e-02	0	43	0	962592768	24	7207
2026-01-09 00:16:33.85	188.40	32.01	-32.1	-37.8	8.4	5.97e-02	0	43	0	968884224	24	6997
2026-01-09 00:16:36.87	188.58	31.41	-32.1	-37.9	8.4	5.88e-02	0	43	0	974127104	24	7004
2026-01-09 00:16:39.89	188.76	30.81	-31.8	-37.2	9.4	1.77e-02	0	43	0	979369984	23	6717
2026-01-09 00:16:42.91	188.93	30.23	-31.6	-36.7	9.7	2.08e-02	0	43	0	985661440	23	6450
2026-01-09 00:16:45.93	189.10	29.66	-31.1	-35.2	11.2	3.39e-03	0	43	0	990904320	22	5794
2026-01-09 00:16:48.95	189.25	29.10	-31.2	-35.7	10.8	5.09e-03	0	43	0	997195776	22	6036
2026-01-09 00:16:51.96	189.41	28.55	-30.8	-35.0	11.7	8.69e-04	0	43	0	1002438656	21	5798
2026-01-09 00:16:54.98	189.56	28.02	-30.3	-33.5	12.6	1.11e-04	0	43	0	1007681536	21	5191
2026-01-09 00:16:58.00	189.70	27.49	-30.4	-34.3	12.5	2.41e-03	0	43	0	1013972992	20	5611
2026-01-09 00:17:01.01	189.84	26.97	-30.8	-34.8	11.7	2.48e-03	0	43	0	1019215872	21	5721
2026-01-09 00:17:04.04	189.98	26.46	-29.9	-32.9	13.3	2.43e-03	0	43	0	1025507328	20	5057
2026-01-09 00:17:07.05	190.11	25.96	-29.8	-32.9	13.8	1.87e-03	0	43	0	1030750208	19	5176
2026-01-09 00:17:10.06	190.24	25.47	-29.8	-33.1	13.5	1.29e-05	0	43	0	1035993088	19	5268
2026-01-09 00:17:13.08	190.37	24.99	-30.0	-33.0	13.2	1.60e-05	0	43	0	1042284544	20	5116
2026-01-09 00:17:16.09	190.49	24.52	-29.4	-32.5	14.3	3.80e-06	0	43	0	1047527424	18	5126
2026-01-09 00:17:19.11	190.61	24.05	-29.2	-32.0	14.6	0.00e+00	0	43	0	1053818880	18	4953
2026-01-09 00:17:22.12	190.72	23.60	-29.5	-32.2	14.1	7.00e-07	0	43	0	1059061760	19	4911
2026-01-09 00:17:25.14	190.84	23.15	-28.8	-31.5	15.1	7.00e-07	0	43	0	1064304640	17	4919
2026-01-09 00:17:28.17	190.95	22.71	-28.9	-31.7	15.0	0.00e+00	0	43	0	1070596096	17	4970
2026-01-09 00:17:31.18	191.05	22.27	-29.3	-32.2	14.4	7.00e-07	0	43	0	1075838976	18	5033
2026-01-09 00:17:34.20	191.16	21.85	-29.5	-32.3	14.0	7.00e-07	0	43	0	1082130432	19	4960
2026-01-09 00:17:37.21	191.26	21.43	-29.6	-32.5	13.9	1.50e-06	0	43	0	1087373312	19	5039
2026-01-09 00:17:40.22	191.36	21.01	-29.8	-33.1	13.4	1.06e-05	0	43	0	1092616192	19	5283
2026-01-09 00:17:43.24	191.45	20.61	-29.4	-32.1	14.1	3.00e-06	0	43	0	1098907648	19	4894
2026-01-09 00:17:46.24	191.55	20.21	-29.3	-32.2	14.3	0.00e+00	0	43	0	1104150528	18	5049
2026-01-09 00:17:49.25	191.64	19.82	-29.4	-32.6	14.1	1.53e-04	0	43	0	1110441984	18	5182
2026-01-09 00:17:52.26	191.73	19.43	-29.3	-32.3	14.3	1.57e-04	0	43	0	1115684864	18	5082
2026-01-09 00:17:55.28	191.82	19.05	-29.4	-32.5	14.1	1.69e-04	0	43	0	1120927744	18	5152
2026-01-09 00:17:58.30	191.91	18.67	-29.8	-33.0	13.4	1.22e-05	0	43	0	1127219200	19	5245
2026-01-09 00:18:01.31	191.99	18.30	-29.7	-32.8	13.6	9.10e-06	0	43	0	1132462080	19	5165
2026-01-09 00:18:04.33	192.07	17.94	-29.9	-33.4	13.2	3.12e-05	0	43	0	1137704960	19	5395
2026-01-09 00:18:07.34	192.15	17.58	-30.2	-33.8	12.5	2.06e-04	0	43	0	1143996416	20	5458
2026-01-09 00:18:10.36	192.23	17.22	-30.4	-34.3	12.1	3.73e-04	0	43	0	1149239296	20	5692
2026-01-09 00:18:13.38	192.31	16.87	-30.4	-34.5	11.9	5.35e-04	0	43	0	1155530752	20	5775
2026-01-09 00:18:16.40	192.39	16.53	-30.2	-33.8	12.4	2.78e-04	0	43	0	1160773632	20	5468
2026-01-09 00:18:19.41	192.46	16.19	-30.2	-33.8	12.4	2.96e-04	0	43	0	1166016512	20	5462
2026-01-09 00:18:22.44	192.54	15.85	-29.9	-33.6	13.0	1.73e-04	0	43	0	1172307968	19	5501
2026-01-09 00:18:25.45	192.61	15.52	-30.1	-33.6	12.3	1.23e-04	0	43	0	1177550848	20	5411
2026-01-09 00:18:28.46	192.68	15.20	-30.0	-33.7	12.7	4.29e-04	0	43	0	1183842304	19	5539
2026-01-09 00:18:31.48	192.75	14.88	-29.7	-32.9	13.3	2.89e-05	0	43	0	1189085184	19	5212
2026-01-09 00:18:34.50	192.82	14.56	-29.8	-33.3	13.1	4.65e-05	0	43	0	1194328064	19	5358
2026-01-09 00:18:37.52	192.88	14.24	-29.9	-33.6	12.9	1.44e-04	0	43	0	1200619520	19	5486
2026-01-09 00:18:40.54	192.95	13.93	-29.8	-32.8	12.9	1.56e-04	0	43	0	1205862400	20	5100
2026-01-09 00:18:43.56	193.01	13.63	-29.9	-33.6	12.8	4.88e-05	0	43	0	1212153856	19	5509
2026-01-09 00:18:46.58	193.08	13.32	-30.0	-33.4	12.5	4.31e-04	0	43	0	1217396736	20	5310
2026-01-09 00:18:49.60	193.14	13.03	-30.0	-33.8	12.7	4.10e-04	0	43	0	1222639616	19	5570
2026-01-09 00:18:52.61	193.20	12.73	-30.0	-33.5	12.5	3.81e-04	0	43	0	1228931072	20	5362
2026-01-09 00:18:55.62	193.26	12.44	-30.0	-33.8	12.7	4.61e-04	0	43	0	1234173952	19	5598
2026-01-09 00:18:58.64	193.32	12.15	-30.0	-33.5	12.4	4.48e-04	0	43	0	1240465408	20	5371
2026-01-09 00:19:01.65	193.38	11.87	-30.1	-33.7	12.2	5.90e-04	0	43	0	1245708288	20	5447
2026-01-09 00:19:04.67	193.44	11.59	-30.2	-34.2	11.9	9.71e-04	0	43	0	1250951168	20	5681
2026-01-09 00:19:07.69	193.49	11.31	-30.1	-33.8	12.1	3.84e-04	0	43	0	1257242624	20	5528
2026-01-09 00:19:10.71	193.55	11.03	-30.2	-34.0	11.9	7.56e-04	0	43	0	1262485504	20	5611
2026-01-09 00:19:13.71	193.60	10.76	-30.1	-33.7	12.1	2.85e-04	0	43	0	1268776960	20	5480
2026-01-09 00:19:16.73	193.66	10.49	-30.1	-33.7	12.1	3.47e-04	0	43	0	1274019840	20	5492
2026-01-09 00:19:19.75	193.71	10.23	-30.3	-34.5	11.5	5.07e-04	0	43	0	1279262720	20	5819
2026-01-09 00:19:22.76	193.76	9.97	-30.2	-34.2	11.8	2.16e-03	0	43	0	1285554176	20	5683
2026-01-09 00:19:25.78	193.81	9.70	-30.2	-34.2	11.6	2.35e-03	0	43	0	1290797056	20	5728
2026-01-09 00:19:28.80	193.86	9.45	-30.3	-34.6	11.4	2.93e-03	0	43	0	1297088512	20	5895
2026-01-09 00:19:31.82	193.91	9.19	-30.4	-34.8	11.2	2.25e-03	0	43	0	1302331392	20	6004
2026-01-09 00:19:34.83	193.96	8.94	-30.1	-34.1	11.7	9.60e-04	0	43	0	1307574272	20	5673
2026-01-09 00:19:37.84	194.01	8.69	-30.2	-34.4	11.4	1.06e-03	0	43	0	1313865728	20	5828
2026-01-09 00:19:40.85	194.06	8.44	-30.7	-35.4	10.4	6.08e-03	0	43	0	1319108608	21	6195
2026-01-09 00:19:43.87	194.11	8.20	-30.5	-35.1	10.9	4.19e-03	0	43	0	1324351488	20	6165
2026-01-09 00:19:46.89	194.15	7.95	-30.7	-35.4	10.3	5.89e-03	0	43	0	1330642944	21	6185
2026-01-09 00:19:49.90	194.20	7.71	-30.3	-34.7	11.1	2.95e-03	0	43	0	1335885824	20	5981
2026-01-09 00:19:52.91	194.25	7.48	-30.3	-34.6	11.1	2.91e-03	0	43	0	1342177280	20	5914
2026-01-09 00:19:55.92	194.29	7.24	-30.2	-34.5	11.2	2.06e-03	0	43	0	1347420160	20	5881
2026-01-09 00:19:58.94	194.33	7.01	-32.7	-47.0	3.8	1.49e+00	0	43	104	1351614464	25	18695

#Closed at: 2026-01-09 00:19:59
#Recorded file [1351 MB]: D:/data/31010_260109_030756.dat