passes_logs/2026/01/09/R2M6_AANII_01/R2M6_AANII_01__20260109_112046_SUOMI_NPP_rec.log

#Pass ID: 20260109_112046_SUOMI NPP
#Satellite: SUOMI NPP
#Configuration: NPP
#almurnet v.1.7.20240730
#Start time: 2026-01-09 11:20:45

#Version: 2.2.20231116
#Station: R2M6_AANII_01
#Location: 30.233357 lon 59.946436 lat
#TLE: 1 37849U 11061A   26008.05542337  .00000108  00000+0  71976-4 0  9997
#TLE: 2 37849  98.7805 310.1641 0002540  75.6410 284.5048 14.19523335735721

#Time	Az	El	Level	Level2	SNR	BER	BlckErr	Temp	State	Recorded	gain1	gain2
2026-01-09 11:20:45.92	190.48	6.98	-30.9	-33.8	5.3	1.23e+00	0	40	0	0	23	5027
2026-01-09 11:20:48.94	190.65	7.20	-31.2	-34.8	8.6	6.15e-02	0	40	0	1048576	23	5450
2026-01-09 11:20:51.96	190.83	7.42	-31.1	-34.2	9.1	3.05e-02	0	40	0	7340032	23	5146
2026-01-09 11:20:54.97	191.01	7.64	-30.6	-33.1	10.4	7.75e-03	0	40	0	12582912	22	4788
2026-01-09 11:20:57.98	191.20	7.86	-30.7	-33.2	10.3	6.83e-03	0	40	0	18874368	22	4819
2026-01-09 11:21:01.00	191.39	8.09	-30.6	-32.9	10.6	3.76e-03	0	41	0	24117248	22	4686
2026-01-09 11:21:04.00	191.58	8.32	-30.6	-32.7	10.8	1.66e-03	0	41	0	29360128	22	4628
2026-01-09 11:21:07.02	191.77	8.55	-30.7	-33.1	10.6	2.46e-03	0	40	0	35651584	22	4766
2026-01-09 11:21:10.04	191.97	8.78	-30.6	-32.7	10.9	2.96e-03	0	41	0	40894464	22	4608
2026-01-09 11:21:13.07	192.17	9.01	-30.5	-32.4	11.2	1.84e-03	0	41	0	46137344	22	4476
2026-01-09 11:21:16.09	192.37	9.25	-30.5	-32.5	11.1	1.30e-03	0	41	0	52428800	22	4504
2026-01-09 11:21:19.10	192.57	9.49	-30.5	-32.3	11.1	1.71e-03	0	41	0	57671680	22	4468
2026-01-09 11:21:22.11	192.78	9.72	-30.6	-32.8	10.7	2.92e-03	0	41	0	63963136	22	4652
2026-01-09 11:21:25.13	192.99	9.97	-30.4	-32.4	11.1	3.00e-03	0	41	0	69206016	22	4501
2026-01-09 11:21:28.14	193.21	10.21	-30.3	-32.1	11.3	1.60e-03	0	41	0	74448896	22	4392
2026-01-09 11:21:31.16	193.43	10.45	-30.2	-32.2	11.4	9.52e-04	0	41	0	80740352	21	4544
2026-01-09 11:21:34.19	193.65	10.70	-29.9	-31.4	12.0	2.94e-04	0	41	0	85983232	21	4249
2026-01-09 11:21:37.19	193.87	10.95	-30.1	-31.7	11.8	5.17e-04	0	41	0	92274688	21	4354
2026-01-09 11:21:40.21	194.10	11.20	-29.9	-31.1	12.4	2.27e-04	0	41	0	97517568	21	4137
2026-01-09 11:21:43.23	194.34	11.46	-29.9	-31.6	12.4	1.59e-04	0	41	0	102760448	20	4386
2026-01-09 11:21:46.25	194.58	11.71	-29.8	-31.4	12.6	1.29e-04	0	41	0	109051904	20	4308
2026-01-09 11:21:49.28	194.82	11.97	-29.6	-30.8	13.0	4.04e-05	0	42	0	114294784	20	4125
2026-01-09 11:21:52.30	195.06	12.23	-29.6	-30.8	13.0	3.43e-05	0	41	0	120586240	20	4142
2026-01-09 11:21:55.32	195.31	12.50	-29.6	-30.6	13.0	4.57e-05	0	42	0	125829120	20	4079
2026-01-09 11:21:58.34	195.57	12.76	-29.4	-30.6	13.5	9.90e-06	0	42	0	131072000	19	4155
2026-01-09 11:22:01.36	195.83	13.03	-29.7	-31.5	13.0	8.30e-06	0	42	0	137363456	19	4428
2026-01-09 11:22:04.37	196.09	13.30	-29.6	-31.0	13.5	7.60e-06	0	42	0	142606336	19	4256
2026-01-09 11:22:07.39	196.36	13.58	-29.6	-31.1	13.4	1.60e-05	0	42	0	148897792	19	4273
2026-01-09 11:22:10.39	196.63	13.85	-29.7	-31.3	13.3	1.67e-05	0	42	0	154140672	19	4352
2026-01-09 11:22:13.40	196.90	14.13	-29.7	-31.3	13.4	1.60e-05	0	42	0	159383552	19	4334
2026-01-09 11:22:16.41	197.18	14.41	-29.5	-30.7	13.7	7.60e-06	0	42	0	165675008	19	4152
2026-01-09 11:22:19.42	197.47	14.69	-29.8	-31.6	13.1	4.11e-05	0	42	0	170917888	19	4428
2026-01-09 11:22:22.44	197.76	14.98	-29.8	-31.5	13.3	1.37e-05	0	42	0	177209344	19	4384
2026-01-09 11:22:25.45	198.06	15.26	-30.0	-31.6	12.7	5.03e-05	0	42	0	182452224	20	4349
2026-01-09 11:22:28.48	198.37	15.56	-29.8	-31.2	13.0	4.42e-05	0	42	0	187695104	20	4205
2026-01-09 11:22:31.49	198.68	15.85	-29.8	-31.1	13.2	2.74e-05	0	42	0	193986560	20	4170
2026-01-09 11:22:34.51	198.99	16.15	-30.0	-31.6	12.8	4.11e-05	0	42	0	199229440	20	4351
2026-01-09 11:22:37.53	199.31	16.45	-30.1	-31.9	12.7	4.19e-05	0	42	0	205520896	20	4441
2026-01-09 11:22:40.55	199.64	16.75	-30.4	-32.7	12.1	9.30e-05	0	42	0	210763776	20	4710
2026-01-09 11:22:43.56	199.98	17.06	-30.2	-31.6	12.6	9.46e-05	0	42	0	216006656	21	4240
2026-01-09 11:22:46.57	200.32	17.36	-30.1	-31.4	12.8	6.17e-05	0	42	0	222298112	21	4166
2026-01-09 11:22:49.58	200.66	17.67	-30.1	-31.3	12.8	4.65e-05	0	42	0	227540992	21	4149
2026-01-09 11:22:52.59	201.02	17.99	-30.3	-32.3	12.4	9.76e-05	0	42	0	232783872	20	4568
2026-01-09 11:22:55.62	201.38	18.31	-30.1	-32.0	12.6	6.33e-05	0	42	0	239075328	20	4458
2026-01-09 11:22:58.63	201.75	18.63	-29.5	-30.3	13.8	6.80e-06	0	42	0	244318208	20	3947
2026-01-09 11:23:01.65	202.13	18.95	-29.9	-31.2	13.2	5.30e-06	0	42	0	250609664	20	4201
2026-01-09 11:23:04.66	202.51	19.28	-29.8	-31.1	13.3	1.75e-05	0	42	0	255852544	20	4156
2026-01-09 11:23:07.68	202.91	19.61	-30.0	-31.5	13.1	3.73e-05	0	42	0	261095424	20	4294
2026-01-09 11:23:10.69	203.31	19.94	-30.3	-32.3	12.6	6.63e-05	0	42	0	267386880	20	4555
2026-01-09 11:23:13.71	203.72	20.28	-30.2	-32.0	12.7	4.34e-05	0	42	0	272629760	20	4455
2026-01-09 11:23:16.72	204.13	20.61	-30.2	-32.3	12.6	1.04e-04	0	42	0	278921216	20	4546
2026-01-09 11:23:19.74	204.56	20.96	-30.3	-31.9	12.5	1.93e-04	0	42	0	284164096	21	4329
2026-01-09 11:23:22.76	205.00	21.30	-30.2	-31.6	12.7	5.87e-05	0	42	0	289406976	21	4240
2026-01-09 11:23:25.77	205.45	21.65	-29.9	-30.7	13.3	2.28e-05	0	42	0	295698432	21	3953
2026-01-09 11:23:28.80	205.90	22.00	-30.1	-31.3	13.0	3.96e-05	0	42	0	300941312	21	4132
2026-01-09 11:23:31.81	206.37	22.36	-30.4	-32.1	12.5	9.00e-05	0	42	0	307232768	21	4382
2026-01-09 11:23:34.83	206.85	22.71	-30.2	-31.5	12.9	3.96e-05	0	42	0	312475648	21	4202
2026-01-09 11:23:37.85	207.34	23.08	-30.2	-31.4	13.0	6.94e-05	0	42	0	317718528	21	4162
2026-01-09 11:23:40.87	207.84	23.44	-30.0	-30.9	13.3	3.35e-05	0	42	0	324009984	21	4016
2026-01-09 11:23:43.88	208.35	23.80	-29.5	-30.2	14.1	6.80e-06	0	42	0	329252864	20	3885
2026-01-09 11:23:46.89	208.87	24.17	-29.3	-30.1	14.6	4.50e-06	0	42	0	335544320	19	3941
2026-01-09 11:23:49.91	209.40	24.55	-29.3	-30.0	14.6	1.50e-06	0	42	0	340787200	19	3902
2026-01-09 11:23:52.93	209.95	24.92	-29.9	-31.7	13.6	1.37e-05	0	42	0	346030080	19	4404
2026-01-09 11:23:55.95	210.51	25.30	-30.0	-31.3	13.4	2.67e-05	0	42	0	352321536	20	4206
2026-01-09 11:23:58.98	211.09	25.68	-29.6	-30.4	14.0	1.50e-06	0	42	0	357564416	20	3925
2026-01-09 11:24:01.99	211.67	26.06	-29.9	-31.2	13.5	4.50e-06	0	42	0	363855872	20	4172
2026-01-09 11:24:05.00	212.27	26.44	-30.2	-31.9	13.1	3.12e-05	0	42	0	369098752	20	4404
2026-01-09 11:24:08.02	212.89	26.83	-30.6	-32.5	12.3	6.17e-05	0	42	0	374341632	21	4488
2026-01-09 11:24:11.03	213.52	27.22	-30.3	-31.7	12.9	1.46e-04	0	43	0	380633088	21	4238
2026-01-09 11:24:14.05	214.17	27.61	-30.4	-32.0	12.8	6.79e-05	0	43	0	385875968	21	4313
2026-01-09 11:24:17.06	214.83	28.00	-30.7	-32.9	12.1	1.67e-04	0	42	0	391118848	21	4645
2026-01-09 11:24:20.08	215.50	28.40	-31.0	-33.4	11.5	8.00e-04	0	42	0	397410304	22	4715
2026-01-09 11:24:23.09	216.20	28.79	-30.5	-31.8	12.6	2.10e-04	0	42	0	402653184	22	4183
2026-01-09 11:24:26.12	216.91	29.19	-30.4	-32.0	12.8	7.24e-05	0	43	0	408944640	21	4317
2026-01-09 11:24:29.14	217.64	29.59	-30.8	-33.3	11.9	3.08e-04	0	42	0	414187520	21	4763
2026-01-09 11:24:32.15	218.38	29.98	-30.4	-31.4	12.8	7.70e-05	0	42	0	419430400	22	4040
2026-01-09 11:24:35.16	219.14	30.38	-30.1	-31.2	13.3	2.67e-05	0	42	0	425721856	21	4083
2026-01-09 11:24:38.18	219.93	30.78	-30.5	-32.4	12.5	1.09e-04	0	42	0	430964736	21	4460
2026-01-09 11:24:41.20	220.73	31.17	-30.8	-33.3	11.9	1.87e-04	0	43	0	437256192	21	4753
2026-01-09 11:24:44.21	221.55	31.57	-30.7	-32.3	12.3	1.70e-04	0	42	0	442499072	22	4320
2026-01-09 11:24:47.23	222.39	31.96	-31.0	-33.1	11.7	3.71e-04	0	42	0	447741952	22	4614
2026-01-09 11:24:50.24	223.25	32.36	-31.7	-35.1	10.0	6.47e-03	0	43	0	454033408	23	5301
2026-01-09 11:24:53.26	224.13	32.75	-32.5	-37.2	7.5	9.36e-02	0	43	0	459276288	25	6201
2026-01-09 11:24:56.28	225.04	33.14	-31.8	-34.4	9.8	1.60e-02	0	43	0	465567744	25	4823
2026-01-09 11:24:59.29	225.96	33.52	-32.0	-35.6	9.3	1.57e-02	0	43	0	470810624	24	5434
2026-01-09 11:25:02.30	226.90	33.90	-32.4	-37.0	8.1	6.04e-02	0	43	0	476053504	24	6135
2026-01-09 11:25:05.30	227.87	34.28	-31.9	-35.3	9.5	3.01e-02	0	43	0	482344960	24	5282
2026-01-09 11:25:08.32	228.86	34.65	-31.8	-34.8	9.9	8.57e-03	0	42	0	487587840	24	5069
2026-01-09 11:25:11.33	229.87	35.02	-32.1	-36.0	9.2	2.03e-02	0	43	0	493879296	24	5629
2026-01-09 11:25:14.36	230.91	35.39	-31.8	-34.9	9.7	1.55e-02	0	42	0	499122176	24	5119
2026-01-09 11:25:17.37	231.96	35.74	-31.8	-34.9	9.8	1.55e-02	0	43	0	504365056	24	5113
2026-01-09 11:25:20.39	233.04	36.09	-32.2	-36.1	8.9	2.04e-02	0	42	0	510656512	24	5679
2026-01-09 11:25:23.41	234.15	36.43	-31.9	-35.1	9.7	1.31e-02	0	43	0	515899392	24	5182
2026-01-09 11:25:26.43	235.27	36.77	-31.7	-34.4	10.2	4.10e-03	0	43	0	522190848	24	4902
2026-01-09 11:25:29.44	236.42	37.09	-31.9	-35.1	9.6	3.00e-02	0	42	0	527433728	24	5203
2026-01-09 11:25:32.46	237.59	37.40	-31.2	-33.1	11.4	1.64e-03	0	43	0	532676608	23	4511
2026-01-09 11:25:35.47	238.78	37.71	-31.3	-33.6	11.1	8.37e-04	0	43	0	538968064	23	4660
2026-01-09 11:25:38.49	240.00	38.00	-31.5	-34.0	10.8	1.92e-03	0	43	0	544210944	23	4827
2026-01-09 11:25:41.51	241.23	38.28	-31.5	-34.0	10.8	1.48e-03	0	43	0	550502400	23	4835
2026-01-09 11:25:44.53	242.49	38.55	-31.9	-35.3	9.9	4.52e-03	0	43	0	555745280	23	5348
2026-01-09 11:25:47.55	243.77	38.80	-31.7	-34.1	10.4	1.05e-02	0	42	0	560988160	24	4800
2026-01-09 11:25:50.57	245.06	39.04	-31.0	-32.5	12.0	4.82e-04	0	42	0	567279616	23	4296
2026-01-09 11:25:53.59	246.38	39.27	-31.8	-35.2	10.0	5.25e-03	0	43	0	572522496	23	5314
2026-01-09 11:25:56.61	247.71	39.48	-31.9	-34.5	9.8	1.97e-02	0	43	0	578813952	25	4855
2026-01-09 11:25:59.62	249.06	39.67	-31.3	-33.6	11.2	8.68e-04	0	43	0	584056832	23	4654
2026-01-09 11:26:02.64	250.42	39.85	-31.2	-33.1	11.5	4.78e-04	0	43	0	589299712	23	4480
2026-01-09 11:26:05.65	251.79	40.01	-31.9	-35.0	9.7	1.52e-02	0	43	0	595591168	24	5151
2026-01-09 11:26:08.66	253.18	40.15	-31.8	-34.8	10.0	6.48e-03	0	43	0	600834048	24	5054
2026-01-09 11:26:11.67	254.58	40.28	-30.6	-31.8	12.8	1.01e-04	0	42	0	607125504	22	4151
2026-01-09 11:26:14.70	255.99	40.38	-32.3	-36.3	8.8	2.60e-02	0	42	0	612368384	24	5750
2026-01-09 11:26:17.71	257.41	40.47	-31.9	-34.9	9.8	8.98e-03	0	43	0	617611264	24	5091
2026-01-09 11:26:20.71	258.83	40.53	-31.8	-34.6	10.0	7.95e-03	0	43	0	623902720	24	4979
2026-01-09 11:26:23.73	260.26	40.58	-32.9	-38.7	6.6	1.05e-01	0	43	0	629145600	25	7007
2026-01-09 11:26:26.75	261.69	40.61	-32.4	-36.0	8.3	8.43e-02	0	43	0	634388480	26	5417
2026-01-09 11:26:29.77	263.13	40.62	-30.9	-32.3	12.1	7.93e-04	0	42	0	640679936	23	4234
2026-01-09 11:26:32.79	264.56	40.61	-32.5	-36.9	7.9	4.67e-02	0	43	0	645922816	25	5949
2026-01-09 11:26:35.81	266.00	40.58	-31.9	-34.4	9.9	8.96e-03	0	42	0	652214272	25	4796
2026-01-09 11:26:38.82	267.42	40.53	-31.2	-33.3	11.5	2.00e-03	0	43	0	657457152	23	4539
2026-01-09 11:26:41.85	268.85	40.46	-31.2	-33.0	11.5	6.40e-04	0	43	0	662700032	23	4470
2026-01-09 11:26:44.86	270.26	40.37	-30.7	-32.0	12.6	2.59e-05	0	43	0	668991488	22	4220
2026-01-09 11:26:47.87	271.67	40.26	-31.7	-34.7	10.5	6.75e-03	0	42	0	674234368	23	5101
2026-01-09 11:26:50.89	273.07	40.13	-31.8	-35.1	10.1	7.47e-03	0	43	0	680525824	23	5266
2026-01-09 11:26:53.91	274.45	39.99	-31.4	-33.3	11.1	1.95e-03	0	42	0	685768704	24	4491
2026-01-09 11:26:56.91	275.82	39.83	-31.8	-35.0	10.2	4.49e-03	0	43	0	691011584	23	5213
2026-01-09 11:26:59.93	277.18	39.65	-30.5	-31.7	12.9	1.16e-04	0	43	0	697303040	22	4102
2026-01-09 11:27:02.94	278.52	39.45	-31.0	-32.5	12.0	9.21e-04	0	42	0	702545920	23	4277
2026-01-09 11:27:05.94	279.84	39.24	-30.1	-30.9	13.7	4.50e-06	0	43	0	708837376	21	3973
2026-01-09 11:27:08.96	281.15	39.02	-29.8	-30.7	14.1	4.50e-06	0	43	0	714080256	20	3989
2026-01-09 11:27:11.98	282.44	38.77	-29.6	-30.3	14.3	1.50e-06	0	43	0	719323136	20	3885
2026-01-09 11:27:14.99	283.71	38.52	-29.4	-30.2	14.8	0.00e+00	0	43	0	725614592	19	3953
2026-01-09 11:27:18.02	284.96	38.25	-30.2	-31.9	13.4	8.30e-06	0	43	0	730857472	20	4349
2026-01-09 11:27:21.03	286.19	37.97	-29.7	-30.4	14.3	1.50e-06	0	43	0	737148928	20	3921
2026-01-09 11:27:24.05	287.40	37.68	-29.8	-30.7	14.1	6.10e-06	0	43	0	742391808	20	3997
2026-01-09 11:27:27.07	288.59	37.37	-30.3	-32.1	13.3	1.14e-05	0	43	0	747634688	20	4420
2026-01-09 11:27:30.09	289.75	37.06	-29.6	-30.3	14.4	7.00e-07	0	43	0	753926144	20	3894
2026-01-09 11:27:33.11	290.90	36.73	-28.2	-28.2	16.6	0.00e+00	0	43	0	759169024	17	3605
2026-01-09 11:27:36.13	292.02	36.40	-26.9	-26.7	18.0	0.00e+00	0	43	0	765460480	14	3545
2026-01-09 11:27:39.14	293.11	36.06	-28.9	-29.9	15.6	0.00e+00	0	43	0	770703360	17	4048
2026-01-09 11:27:42.17	294.19	35.71	-29.3	-30.5	14.9	0.00e+00	0	42	0	775946240	18	4126
2026-01-09 11:27:45.18	295.24	35.36	-30.4	-31.9	13.0	6.17e-05	0	43	0	782237696	21	4271
2026-01-09 11:27:48.20	296.27	35.00	-29.8	-30.7	14.1	7.00e-07	0	43	0	787480576	20	3999
2026-01-09 11:27:51.22	297.28	34.63	-31.3	-34.0	11.3	6.64e-04	0	43	0	792723456	22	4907
2026-01-09 11:27:54.24	298.26	34.25	-31.1	-33.3	11.7	4.84e-04	0	42	0	799014912	22	4655
2026-01-09 11:27:57.25	299.22	33.88	-32.4	-37.0	8.3	2.73e-02	0	43	0	804257792	24	6082
2026-01-09 11:28:00.27	300.16	33.50	-31.8	-34.6	10.1	6.86e-03	0	43	0	810549248	24	4955
2026-01-09 11:28:03.29	301.08	33.11	-32.3	-36.3	8.7	1.86e-02	0	43	0	815792128	24	5737
2026-01-09 11:28:06.30	301.98	32.73	-32.5	-36.9	8.0	8.43e-02	0	43	0	821035008	25	5948
2026-01-09 11:28:09.31	302.85	32.34	-33.1	-39.4	5.8	3.44e-01	0	43	0	827326464	26	7452
2026-01-09 11:28:12.33	303.71	31.95	-32.6	-36.7	7.6	1.46e-01	0	43	0	832569344	26	5784
2026-01-09 11:28:15.34	304.55	31.56	-30.8	-32.4	12.4	1.50e-04	0	43	0	838860800	22	4327
2026-01-09 11:28:18.36	305.36	31.16	-31.7	-34.9	10.2	2.64e-03	0	43	0	844103680	23	5202
2026-01-09 11:28:21.37	306.16	30.77	-31.4	-33.9	10.9	2.32e-03	0	43	0	849346560	23	4790
2026-01-09 11:28:24.37	306.93	30.38	-31.4	-33.7	11.0	9.42e-04	0	43	0	855638016	23	4725
2026-01-09 11:28:27.38	307.69	29.98	-30.9	-32.3	12.0	1.18e-03	0	43	0	860880896	23	4222
2026-01-09 11:28:30.39	308.43	29.59	-30.0	-30.8	13.6	4.50e-06	0	43	0	867172352	21	3954
2026-01-09 11:28:33.40	309.15	29.19	-31.1	-33.3	11.7	4.74e-04	0	43	0	872415232	22	4652
2026-01-09 11:28:36.41	309.86	28.80	-30.3	-31.1	13.2	5.41e-05	0	43	0	877658112	22	3934
2026-01-09 11:28:39.43	310.55	28.41	-30.0	-31.2	13.7	6.10e-06	0	43	0	883949568	20	4150
2026-01-09 11:28:42.44	311.22	28.02	-30.7	-32.1	12.4	4.31e-04	0	43	0	889192448	22	4255
2026-01-09 11:28:45.46	311.88	27.63	-29.1	-29.4	15.2	0.00e+00	0	43	0	894435328	19	3725
2026-01-09 11:28:48.48	312.52	27.24	-28.5	-28.4	16.0	0.00e+00	0	43	0	900726784	18	3584
2026-01-09 11:28:51.50	313.15	26.85	-28.9	-29.5	15.4	0.00e+00	0	43	0	905969664	18	3853
2026-01-09 11:28:54.51	313.76	26.47	-28.3	-28.1	16.2	0.00e+00	0	43	0	912261120	18	3516
2026-01-09 11:28:57.53	314.36	26.09	-28.2	-28.3	16.3	0.00e+00	0	43	0	917504000	17	3643
2026-01-09 11:29:00.54	314.94	25.71	-29.3	-30.6	14.7	0.00e+00	0	43	0	922746880	18	4148
2026-01-09 11:29:03.56	315.51	25.33	-29.1	-29.4	15.1	0.00e+00	0	43	0	929038336	19	3756
2026-01-09 11:29:06.58	316.07	24.96	-29.2	-29.7	15.0	7.00e-07	0	43	0	934281216	19	3812
2026-01-09 11:29:09.60	316.62	24.59	-29.1	-29.6	15.0	7.00e-07	0	43	0	940572672	19	3792
2026-01-09 11:29:12.61	317.15	24.22	-29.3	-30.0	14.8	7.00e-07	0	43	0	945815552	19	3903
2026-01-09 11:29:15.63	317.67	23.85	-28.8	-28.9	15.4	0.00e+00	0	43	0	951058432	19	3607
2026-01-09 11:29:18.64	318.18	23.49	-28.1	-28.1	16.4	0.00e+00	0	43	0	957349888	17	3597
2026-01-09 11:29:21.65	318.68	23.13	-28.6	-29.3	15.7	0.00e+00	0	42	0	962592768	17	3916
2026-01-09 11:29:24.67	319.16	22.77	-29.1	-29.9	15.1	0.00e+00	0	43	0	968884224	18	3971
2026-01-09 11:29:27.67	319.64	22.42	-29.1	-30.0	15.0	0.00e+00	0	43	0	974127104	18	3996
2026-01-09 11:29:30.69	320.10	22.06	-29.0	-29.8	15.1	7.00e-07	0	43	0	979369984	18	3942
2026-01-09 11:29:33.71	320.56	21.72	-29.0	-29.8	15.1	0.00e+00	0	43	0	985661440	18	3944
2026-01-09 11:29:36.73	321.01	21.37	-29.1	-30.0	15.0	0.00e+00	0	43	0	990904320	18	3994
2026-01-09 11:29:39.75	321.44	21.03	-29.2	-30.4	14.8	2.20e-06	0	43	0	997195776	18	4095
2026-01-09 11:29:42.76	321.87	20.69	-29.4	-30.2	14.5	1.50e-06	0	43	0	1002438656	19	3968
2026-01-09 11:29:45.78	322.29	20.35	-29.3	-30.1	14.6	0.00e+00	0	43	0	1007681536	19	3948
2026-01-09 11:29:48.79	322.70	20.02	-29.3	-30.1	14.6	0.00e+00	0	43	0	1013972992	19	3934
2026-01-09 11:29:51.80	323.10	19.69	-29.8	-31.3	13.9	1.50e-06	0	43	0	1019215872	19	4295
2026-01-09 11:29:54.81	323.49	19.36	-30.9	-33.4	11.7	2.11e-04	0	43	0	1024458752	21	4813
2026-01-09 11:29:57.82	323.87	19.04	-31.3	-34.4	10.6	3.46e-03	0	43	0	1030750208	22	5115
2026-01-09 11:30:00.84	324.25	18.72	-30.9	-32.9	11.6	9.63e-04	0	43	0	1035993088	22	4561
2026-01-09 11:30:03.85	324.62	18.40	-30.2	-31.5	12.9	5.03e-05	0	43	0	1042284544	21	4195
2026-01-09 11:30:06.87	324.98	18.08	-29.6	-30.5	13.9	2.20e-06	0	43	0	1047527424	20	3971
2026-01-09 11:30:09.89	325.33	17.77	-30.0	-31.3	13.4	1.06e-05	0	43	0	1052770304	20	4215
2026-01-09 11:30:12.91	325.68	17.46	-30.1	-31.8	13.0	2.51e-05	0	43	0	1059061760	20	4368
2026-01-09 11:30:15.93	326.02	17.15	-30.2	-32.0	12.9	8.54e-05	0	43	0	1064304640	20	4425
2026-01-09 11:30:18.95	326.36	16.85	-29.9	-31.3	13.4	2.67e-05	0	43	0	1070596096	20	4211
2026-01-09 11:30:21.96	326.69	16.55	-30.0	-31.4	13.2	2.05e-05	0	43	0	1075838976	20	4250
2026-01-09 11:30:24.99	327.01	16.25	-30.0	-31.4	13.2	3.20e-05	0	43	0	1081081856	20	4247
2026-01-09 11:30:28.01	327.33	15.96	-30.0	-31.6	13.1	3.81e-05	0	43	0	1087373312	20	4310
2026-01-09 11:30:31.03	327.64	15.66	-29.9	-31.3	13.1	3.05e-05	0	43	0	1092616192	20	4212
2026-01-09 11:30:34.04	327.94	15.37	-30.0	-31.5	13.1	4.65e-05	0	43	0	1098907648	20	4285
2026-01-09 11:30:37.07	328.24	15.09	-30.0	-31.6	13.0	4.95e-05	0	43	0	1104150528	20	4316
2026-01-09 11:30:40.08	328.53	14.80	-30.1	-31.9	12.8	5.49e-05	0	42	0	1109393408	20	4418
2026-01-09 11:30:43.11	328.82	14.52	-30.0	-31.6	13.0	3.28e-05	0	43	0	1115684864	20	4310
2026-01-09 11:30:46.14	329.11	14.24	-30.3	-32.5	12.4	1.16e-04	0	43	0	1120927744	20	4611
2026-01-09 11:30:49.16	329.39	13.96	-30.8	-33.3	11.5	4.53e-04	0	43	0	1127219200	21	4823
2026-01-09 11:30:52.16	329.66	13.69	-31.0	-33.4	11.1	1.64e-03	0	43	0	1132462080	22	4774
2026-01-09 11:30:55.18	329.93	13.42	-31.2	-34.2	10.5	2.86e-03	0	43	0	1137704960	22	5080
2026-01-09 11:30:58.20	330.19	13.15	-31.0	-33.7	10.9	2.43e-03	0	43	0	1143996416	22	4884
2026-01-09 11:31:01.22	330.45	12.89	-30.7	-32.8	11.5	1.30e-03	0	43	0	1149239296	22	4540
2026-01-09 11:31:04.24	330.71	12.62	-30.7	-32.8	11.4	6.46e-04	0	43	0	1155530752	22	4558
2026-01-09 11:31:07.25	330.96	12.36	-30.3	-31.3	12.5	1.65e-04	0	43	0	1160773632	22	4072
2026-01-09 11:31:10.27	331.20	12.10	-30.2	-31.6	12.5	1.29e-04	0	43	0	1166016512	21	4241
2026-01-09 11:31:13.28	331.44	11.85	-30.1	-31.4	12.7	1.22e-04	0	43	0	1172307968	21	4176
2026-01-09 11:31:16.29	331.68	11.59	-30.0	-31.2	12.7	7.47e-05	0	43	0	1177550848	21	4132
2026-01-09 11:31:19.31	331.92	11.34	-30.1	-31.4	12.6	5.72e-05	0	43	0	1183842304	21	4167
2026-01-09 11:31:22.33	332.15	11.09	-30.0	-31.3	12.7	9.91e-05	0	43	0	1189085184	21	4139
2026-01-09 11:31:25.34	332.38	10.84	-30.1	-31.3	12.7	8.69e-05	0	43	0	1194328064	21	4150
2026-01-09 11:31:28.36	332.60	10.60	-30.2	-31.7	12.4	1.05e-04	0	43	0	1200619520	21	4275
2026-01-09 11:31:31.37	332.82	10.35	-30.3	-32.0	12.2	2.95e-04	0	43	0	1205862400	21	4369
2026-01-09 11:31:34.39	333.04	10.11	-30.4	-32.4	11.8	3.32e-04	0	43	0	1212153856	21	4536
2026-01-09 11:31:37.41	333.25	9.87	-30.6	-32.8	11.6	8.06e-04	0	43	0	1217396736	21	4673
2026-01-09 11:31:40.43	333.46	9.63	-30.7	-33.3	11.1	1.37e-03	0	43	0	1222639616	21	4860
2026-01-09 11:31:43.45	333.67	9.40	-30.8	-33.6	10.9	2.05e-03	0	42	0	1228931072	21	4994
2026-01-09 11:31:46.45	333.87	9.16	-30.8	-33.8	10.8	2.95e-03	0	43	0	1234173952	21	5039
2026-01-09 11:31:49.47	334.07	8.93	-30.9	-33.8	10.7	3.35e-03	0	43	0	1239416832	21	5078
2026-01-09 11:31:52.48	334.27	8.70	-30.8	-33.8	10.7	2.93e-03	0	43	0	1245708288	21	5077
2026-01-09 11:31:55.50	334.47	8.47	-30.9	-34.2	10.4	3.64e-03	0	43	0	1250951168	21	5262
2026-01-09 11:31:58.52	334.66	8.25	-31.1	-34.2	10.0	6.92e-03	0	43	0	1257242624	22	5137
2026-01-09 11:32:01.53	334.85	8.02	-30.9	-33.7	10.4	3.89e-03	0	43	0	1262485504	22	4955
2026-01-09 11:32:04.53	335.03	7.80	-30.8	-33.3	10.7	4.00e-03	0	43	0	1267728384	22	4798
2026-01-09 11:32:07.55	335.22	7.58	-30.8	-33.2	10.7	2.91e-03	0	43	0	1274019840	22	4746
2026-01-09 11:32:10.57	335.40	7.36	-30.7	-32.9	10.8	3.18e-03	0	43	0	1279262720	22	4671
2026-01-09 11:32:13.58	335.58	7.14	-30.9	-33.7	10.2	5.29e-03	0	43	0	1285554176	22	4987
2026-01-09 11:32:16.60	335.76	6.93	-33.5	-46.2	3.8	1.49e+00	0	43	104	1286602752	26	15520

#Closed at: 2026-01-09 11:32:17
#Recorded file [1286 MB]: D:/data/31010_260109_142047.dat