passes_logs/2026/01/09/R2M6_AANII_01/R2M6_AANII_01__20260109_105048_NOAA_21_JPSS-2_rec.log

#Pass ID: 20260109_105048_NOAA 21 (JPSS-2)
#Satellite: NOAA 21 (JPSS-2)
#Configuration: NOAA 21
#almurnet v.1.7.20240730
#Start time: 2026-01-09 10:51:58

#Version: 2.2.20231116
#Station: R2M6_AANII_01
#Location: 30.233357 lon 59.946436 lat
#TLE: 1 54234U 22150A   26008.45757862  .00000119  00000+0  77172-4 0  9996
#TLE: 2 54234  98.7494 309.4367 0000894 328.2777  31.8345 14.19533328163889

#Time	Az	El	Level	Level2	SNR	BER	BlckErr	Temp	State	Recorded	gain1	gain2
2026-01-09 10:51:58.18	179.60	12.92	-33.5	-45.0	3.8	8.46e-01	0	42	0	0	26	13559
2026-01-09 10:52:01.17	179.75	13.21	-34.0	-45.9	3.8	1.49e+00	0	43	104	0	28	14151
2026-01-09 10:52:04.16	179.90	13.50	-34.1	-46.1	3.8	1.49e+00	0	42	104	0	28	14253
2026-01-09 10:52:07.17	180.06	13.80	-34.1	-46.0	3.8	1.49e+00	0	43	104	0	28	14239
2026-01-09 10:52:10.16	180.22	14.09	-34.1	-46.0	3.8	1.49e+00	0	43	104	0	28	14215
2026-01-09 10:52:13.17	180.38	14.40	-34.1	-46.0	3.8	1.49e+00	0	43	104	0	28	14182
2026-01-09 10:52:16.18	180.55	14.70	-34.1	-46.0	3.8	1.49e+00	0	43	104	0	28	14218
2026-01-09 10:52:19.18	180.72	15.01	-34.1	-46.0	3.8	1.49e+00	0	43	104	0	28	14179
2026-01-09 10:52:22.18	180.89	15.32	-34.1	-46.1	3.8	1.49e+00	0	43	104	0	28	14280
2026-01-09 10:52:25.19	181.06	15.64	-34.0	-45.8	3.8	1.49e+00	0	43	104	0	28	14110
2026-01-09 10:52:28.20	181.24	15.96	-33.9	-45.6	3.8	1.49e+00	0	43	104	0	28	13887
2026-01-09 10:52:31.19	181.42	16.28	-33.7	-45.2	3.8	1.49e+00	0	43	104	0	28	13570
2026-01-09 10:52:34.19	181.61	16.61	-33.6	-45.1	3.8	1.49e+00	0	42	104	0	28	13510
2026-01-09 10:52:37.18	181.80	16.94	-33.3	-44.9	3.8	1.49e+00	0	43	104	0	27	13645
2026-01-09 10:52:40.18	181.99	17.28	-31.8	-36.2	7.0	1.80e-01	0	43	104	0	25	5957
2026-01-09 10:52:43.19	182.19	17.62	-30.1	-32.8	10.8	4.50e-03	0	43	0	8388608	21	4911
2026-01-09 10:52:46.18	182.39	17.97	-28.2	-29.9	13.9	1.29e-05	0	43	0	17825792	17	4361
2026-01-09 10:52:49.19	182.60	18.32	-27.7	-29.1	14.7	9.90e-06	0	43	0	27262976	16	4256
2026-01-09 10:52:52.19	182.81	18.67	-28.7	-31.0	13.3	1.60e-05	0	43	0	36700160	17	4705
2026-01-09 10:52:55.17	183.03	19.03	-28.6	-30.8	13.4	1.22e-05	0	43	0	45088768	17	4651
2026-01-09 10:52:58.17	183.25	19.39	-27.7	-29.1	14.8	3.80e-06	0	43	0	54525952	16	4254
2026-01-09 10:53:01.18	183.48	19.76	-27.5	-28.7	15.0	0.00e+00	0	43	0	63963136	16	4131
2026-01-09 10:53:04.17	183.71	20.14	-27.3	-28.2	15.2	3.80e-06	0	43	0	73400320	16	4009
2026-01-09 10:53:07.17	183.94	20.52	-27.1	-28.3	15.3	0.00e+00	0	43	0	82837504	15	4126
2026-01-09 10:53:10.16	184.19	20.90	-26.8	-27.7	15.7	0.00e+00	0	43	0	92274688	15	3987
2026-01-09 10:53:13.15	184.43	21.29	-26.9	-28.3	15.6	5.30e-06	0	43	0	101711872	14	4252
2026-01-09 10:53:16.16	184.69	21.69	-26.3	-27.1	16.3	0.00e+00	0	43	0	111149056	14	3921
2026-01-09 10:53:19.15	184.95	22.09	-26.6	-27.6	16.1	0.00e+00	0	43	0	120586240	14	4048
2026-01-09 10:53:22.15	185.22	22.50	-26.1	-27.0	16.7	0.00e+00	0	43	0	130023424	13	3995
2026-01-09 10:53:25.14	185.49	22.91	-26.1	-27.0	16.7	0.00e+00	0	43	0	139460608	13	4005
2026-01-09 10:53:28.15	185.77	23.33	-26.0	-26.9	16.7	0.00e+00	0	43	0	148897792	13	3993
2026-01-09 10:53:31.16	186.06	23.76	-26.0	-26.8	16.8	0.00e+00	0	43	0	158334976	13	3943
2026-01-09 10:53:34.14	186.36	24.19	-26.1	-27.0	16.7	0.00e+00	0	43	0	167772160	13	3997
2026-01-09 10:53:37.15	186.66	24.63	-26.2	-27.3	16.6	0.00e+00	0	43	0	177209344	13	4062
2026-01-09 10:53:40.15	186.98	25.07	-26.3	-27.5	16.4	0.00e+00	0	43	0	186646528	13	4138
2026-01-09 10:53:43.16	187.30	25.53	-26.4	-27.6	16.4	0.00e+00	0	43	0	196083712	13	4148
2026-01-09 10:53:46.17	187.63	25.99	-26.5	-28.0	16.2	0.00e+00	0	43	0	204472320	13	4247
2026-01-09 10:53:49.18	187.97	26.45	-26.9	-28.7	15.8	0.00e+00	0	43	0	214958080	13	4460
2026-01-09 10:53:52.19	188.32	26.93	-27.1	-28.8	15.5	0.00e+00	0	43	0	223346688	14	4354
2026-01-09 10:53:55.19	188.68	27.41	-27.2	-28.9	15.5	0.00e+00	0	43	0	232783872	14	4385
2026-01-09 10:53:58.20	189.06	27.90	-27.3	-29.1	15.4	0.00e+00	0	43	0	242221056	14	4460
2026-01-09 10:54:01.20	189.44	28.40	-27.2	-28.9	15.4	0.00e+00	0	43	0	251658240	14	4409
2026-01-09 10:54:04.20	189.83	28.90	-27.2	-28.9	15.5	0.00e+00	0	43	0	261095424	14	4389
2026-01-09 10:54:07.19	190.24	29.41	-27.1	-28.7	15.6	0.00e+00	0	43	0	270532608	14	4348
2026-01-09 10:54:10.19	190.66	29.93	-27.1	-28.7	15.6	0.00e+00	0	43	0	279969792	14	4329
2026-01-09 10:54:13.21	191.09	30.46	-27.0	-28.5	15.7	0.00e+00	0	43	0	289406976	14	4284
2026-01-09 10:54:16.20	191.54	30.99	-26.9	-28.4	15.8	0.00e+00	0	43	0	298844160	14	4241
2026-01-09 10:54:19.19	192.00	31.53	-26.9	-28.4	15.8	7.00e-07	0	43	0	308281344	14	4248
2026-01-09 10:54:22.20	192.48	32.08	-27.0	-28.4	15.8	0.00e+00	0	43	0	317718528	14	4257
2026-01-09 10:54:25.19	192.97	32.64	-27.0	-28.5	15.8	0.00e+00	0	43	0	327155712	14	4279
2026-01-09 10:54:28.19	193.48	33.21	-27.1	-28.6	15.8	0.00e+00	0	43	0	336592896	14	4307
2026-01-09 10:54:31.18	194.00	33.78	-27.3	-29.2	15.4	0.00e+00	0	43	0	346030080	14	4482
2026-01-09 10:54:34.18	194.55	34.36	-27.7	-29.6	14.9	0.00e+00	0	43	0	355467264	15	4495
2026-01-09 10:54:37.18	195.11	34.95	-27.9	-30.1	14.7	0.00e+00	0	43	0	364904448	15	4617
2026-01-09 10:54:40.18	195.70	35.55	-27.9	-30.1	14.6	0.00e+00	0	43	0	374341632	15	4628
2026-01-09 10:54:43.18	196.31	36.16	-28.2	-30.3	14.4	7.00e-07	0	43	0	382730240	16	4564
2026-01-09 10:54:46.17	196.93	36.77	-28.3	-30.4	14.4	7.00e-07	0	43	0	392167424	16	4580
2026-01-09 10:54:49.17	197.59	37.40	-28.5	-30.3	14.2	7.00e-07	0	43	0	401604608	17	4456
2026-01-09 10:54:52.17	198.27	38.03	-28.7	-30.8	13.9	7.60e-06	0	43	0	411041792	17	4605
2026-01-09 10:54:55.16	198.97	38.66	-28.8	-31.1	13.7	6.80e-06	0	43	0	420478976	17	4690
2026-01-09 10:54:58.15	199.70	39.31	-29.1	-31.2	13.4	1.67e-05	0	43	0	429916160	18	4619
2026-01-09 10:55:01.15	200.46	39.96	-29.5	-31.8	12.7	8.54e-05	0	43	0	439353344	19	4707
2026-01-09 10:55:04.15	201.26	40.62	-29.2	-31.2	13.1	2.89e-05	0	43	0	448790528	19	4489
2026-01-09 10:55:07.16	202.08	41.29	-28.9	-30.3	13.7	2.05e-05	0	43	0	458227712	19	4241
2026-01-09 10:55:10.17	202.95	41.96	-29.2	-31.1	13.1	2.13e-05	0	43	0	467664896	19	4472
2026-01-09 10:55:13.17	203.84	42.63	-29.9	-32.9	12.0	2.37e-04	0	43	0	477102080	19	5066
2026-01-09 10:55:16.15	204.77	43.31	-29.2	-31.1	13.2	2.67e-05	0	43	0	486539264	19	4473
2026-01-09 10:55:19.14	205.74	43.99	-29.4	-31.6	12.9	4.04e-05	0	43	0	495976448	19	4626
2026-01-09 10:55:22.14	206.76	44.67	-29.3	-31.3	13.1	4.73e-05	0	43	0	505413632	19	4534
2026-01-09 10:55:25.15	207.82	45.36	-29.4	-31.5	13.0	4.34e-05	0	43	0	514850816	19	4592
2026-01-09 10:55:28.15	208.93	46.05	-29.1	-30.8	13.4	2.13e-05	0	43	0	523239424	19	4376
2026-01-09 10:55:31.14	210.08	46.74	-28.8	-30.5	13.9	5.30e-06	0	43	0	532676608	18	4392
2026-01-09 10:55:34.13	211.28	47.42	-29.2	-31.4	13.3	1.37e-05	0	43	0	542113792	18	4673
2026-01-09 10:55:37.15	212.55	48.11	-29.3	-31.8	13.1	2.13e-05	0	43	0	551550976	18	4813
2026-01-09 10:55:40.17	213.87	48.79	-29.1	-31.3	13.4	1.37e-05	0	43	0	560988160	18	4619
2026-01-09 10:55:43.18	215.25	49.47	-28.9	-30.8	13.7	1.14e-05	0	43	0	570425344	18	4482
2026-01-09 10:55:46.18	216.69	50.13	-28.9	-30.7	13.8	4.50e-06	0	43	0	579862528	18	4452
2026-01-09 10:55:49.17	218.18	50.78	-28.5	-29.8	14.4	2.20e-06	0	43	0	589299712	18	4176
2026-01-09 10:55:52.17	219.74	51.43	-28.7	-30.3	14.0	5.30e-06	0	43	0	598736896	18	4333
2026-01-09 10:55:55.16	221.37	52.05	-28.7	-30.3	14.0	1.50e-06	0	43	0	608174080	18	4351
2026-01-09 10:55:58.16	223.07	52.66	-28.5	-29.9	14.3	1.50e-06	0	43	0	617611264	18	4218
2026-01-09 10:56:01.15	224.83	53.25	-28.6	-30.1	14.1	3.00e-06	0	43	0	627048448	18	4285
2026-01-09 10:56:04.15	226.67	53.82	-28.5	-29.8	14.4	1.50e-06	0	43	0	636485632	18	4200
2026-01-09 10:56:07.14	228.58	54.37	-29.2	-31.6	13.2	1.22e-05	0	43	0	645922816	18	4747
2026-01-09 10:56:10.14	230.56	54.89	-28.8	-30.5	14.0	1.50e-06	0	43	0	655360000	18	4393
2026-01-09 10:56:13.14	232.61	55.38	-29.0	-31.0	13.7	7.60e-06	0	43	0	664797184	18	4552
2026-01-09 10:56:16.14	234.74	55.83	-28.1	-29.5	14.8	0.00e+00	0	42	0	673185792	17	4213
2026-01-09 10:56:19.13	236.92	56.25	-27.7	-29.0	15.4	0.00e+00	0	43	0	682622976	16	4170
2026-01-09 10:56:22.14	239.18	56.63	-27.0	-27.8	16.1	0.00e+00	0	43	0	692060160	15	3984
2026-01-09 10:56:25.13	241.49	56.97	-27.1	-28.1	15.9	0.00e+00	0	43	0	701497344	15	4057
2026-01-09 10:56:28.13	243.86	57.27	-26.3	-27.4	16.8	0.00e+00	0	43	0	710934528	13	4084
2026-01-09 10:56:31.12	246.27	57.52	-26.6	-27.9	16.6	0.00e+00	0	43	0	720371712	13	4228
2026-01-09 10:56:34.13	248.73	57.73	-27.4	-29.3	15.6	0.00e+00	0	43	0	729808896	14	4506
2026-01-09 10:56:37.13	251.22	57.88	-26.5	-27.4	16.6	0.00e+00	0	43	0	739246080	14	3992
2026-01-09 10:56:40.12	253.72	57.99	-26.7	-27.8	16.5	0.00e+00	0	43	0	748683264	14	4072
2026-01-09 10:56:43.12	256.25	58.04	-26.7	-27.7	16.5	0.00e+00	0	43	0	758120448	14	4056
2026-01-09 10:56:46.12	258.78	58.05	-26.8	-27.9	16.3	0.00e+00	0	43	0	767557632	14	4100
2026-01-09 10:56:49.14	261.33	58.00	-27.0	-28.4	16.1	0.00e+00	0	43	0	776994816	14	4257
2026-01-09 10:56:52.16	263.86	57.89	-27.1	-28.8	15.9	0.00e+00	0	43	0	786432000	14	4340
2026-01-09 10:56:55.17	266.35	57.74	-27.1	-28.7	15.9	0.00e+00	0	43	0	795869184	14	4319
2026-01-09 10:56:58.19	268.83	57.54	-27.0	-28.5	16.1	0.00e+00	0	43	0	805306368	14	4257
2026-01-09 10:57:01.20	271.25	57.29	-27.1	-28.6	16.0	0.00e+00	0	43	0	814743552	14	4310
2026-01-09 10:57:04.23	273.64	56.99	-27.5	-29.5	15.5	0.00e+00	0	43	0	824180736	14	4550
2026-01-09 10:57:07.23	275.96	56.65	-27.2	-28.5	15.7	0.00e+00	0	43	0	833617920	15	4166
2026-01-09 10:57:10.26	278.24	56.27	-27.4	-28.9	15.6	0.00e+00	0	43	0	843055104	15	4266
2026-01-09 10:57:13.28	280.44	55.85	-27.7	-29.5	15.3	0.00e+00	0	43	0	852492288	15	4421
2026-01-09 10:57:16.30	282.58	55.39	-28.8	-31.1	13.8	7.60e-06	0	43	0	861929472	17	4672
2026-01-09 10:57:19.31	284.64	54.90	-28.1	-29.5	14.9	0.00e+00	0	43	0	871366656	17	4208
2026-01-09 10:57:22.33	286.63	54.38	-27.8	-29.1	15.4	0.00e+00	0	43	0	880803840	16	4195
2026-01-09 10:57:25.34	288.55	53.84	-28.1	-29.9	15.0	0.00e+00	0	43	0	890241024	16	4418
2026-01-09 10:57:28.36	290.40	53.27	-28.3	-30.4	14.7	0.00e+00	0	43	0	899678208	16	4564
2026-01-09 10:57:31.39	292.18	52.67	-28.5	-30.7	14.4	0.00e+00	0	43	0	909115392	16	4683
2026-01-09 10:57:34.42	293.89	52.06	-28.4	-30.2	14.5	7.00e-07	0	43	0	918552576	17	4400
2026-01-09 10:57:37.42	295.52	51.43	-28.4	-30.0	14.6	0.00e+00	0	43	0	927989760	17	4339
2026-01-09 10:57:40.44	297.09	50.79	-29.1	-31.4	13.5	1.14e-05	0	43	0	937426944	18	4647
2026-01-09 10:57:43.46	298.59	50.13	-29.4	-32.1	13.0	3.43e-05	0	43	0	946864128	18	4900
2026-01-09 10:57:46.48	300.03	49.46	-29.7	-32.3	12.6	9.68e-05	0	43	0	956301312	19	4836
2026-01-09 10:57:49.50	301.41	48.79	-29.6	-31.4	12.8	8.01e-05	0	43	0	965738496	20	4466
2026-01-09 10:57:52.51	302.72	48.11	-29.3	-31.3	13.2	2.67e-05	0	43	0	975175680	19	4518
2026-01-09 10:57:55.52	303.98	47.43	-28.9	-30.3	13.8	4.50e-06	0	43	0	984612864	19	4217
2026-01-09 10:57:58.54	305.19	46.74	-28.5	-29.7	14.5	5.30e-06	0	43	0	994050048	18	4149
2026-01-09 10:58:01.54	306.34	46.06	-29.5	-31.8	12.9	3.66e-05	0	43	0	1003487232	19	4680
2026-01-09 10:58:04.56	307.45	45.37	-29.4	-31.5	13.0	3.89e-05	0	43	0	1012924416	19	4581
2026-01-09 10:58:07.58	308.51	44.68	-29.3	-31.2	13.2	3.50e-05	0	43	0	1021313024	19	4480
2026-01-09 10:58:10.58	309.53	44.00	-29.6	-32.1	12.8	7.70e-05	0	43	0	1031798784	19	4767
2026-01-09 10:58:13.60	310.50	43.31	-29.7	-31.8	12.5	1.22e-04	0	43	0	1041235968	20	4581
2026-01-09 10:58:16.62	311.44	42.63	-29.1	-30.8	13.4	9.10e-06	0	43	0	1049624576	19	4373
2026-01-09 10:58:19.63	312.33	41.96	-29.6	-32.0	12.7	5.03e-05	0	43	0	1060110336	19	4754
2026-01-09 10:58:22.65	313.19	41.29	-29.5	-31.7	12.9	4.73e-05	0	43	0	1068498944	19	4661
2026-01-09 10:58:25.66	314.02	40.63	-29.6	-31.9	12.8	7.32e-05	0	42	0	1077936128	19	4715
2026-01-09 10:58:28.68	314.81	39.97	-29.3	-31.2	13.2	2.74e-05	0	43	0	1088421888	19	4487
2026-01-09 10:58:31.70	315.58	39.31	-29.0	-30.6	13.6	6.80e-06	0	43	0	1096810496	19	4304
2026-01-09 10:58:34.72	316.31	38.67	-29.1	-30.7	13.5	7.60e-06	0	43	0	1107296256	19	4342
2026-01-09 10:58:37.74	317.02	38.03	-28.7	-30.4	14.0	2.20e-06	0	43	0	1115684864	18	4346
2026-01-09 10:58:40.76	317.70	37.40	-28.7	-30.2	14.1	1.50e-06	0	43	0	1125122048	18	4303
2026-01-09 10:58:43.78	318.35	36.78	-28.4	-29.7	14.4	0.00e+00	0	43	0	1135607808	18	4152
2026-01-09 10:58:46.80	318.98	36.16	-28.4	-29.7	14.4	7.00e-07	0	43	0	1143996416	18	4157
2026-01-09 10:58:49.83	319.59	35.55	-28.4	-30.1	14.4	0.00e+00	0	43	0	1154482176	17	4386
2026-01-09 10:58:52.84	320.18	34.95	-28.0	-29.2	15.0	7.00e-07	0	43	0	1162870784	17	4121
2026-01-09 10:58:55.86	320.74	34.36	-27.9	-29.0	15.0	0.00e+00	0	43	0	1172307968	17	4066
2026-01-09 10:58:58.89	321.29	33.78	-28.2	-29.6	14.7	0.00e+00	0	43	0	1182793728	17	4243
2026-01-09 10:59:01.91	321.82	33.20	-29.1	-31.3	13.4	1.44e-05	0	43	0	1191182336	18	4635
2026-01-09 10:59:04.93	322.33	32.64	-28.6	-30.0	14.2	3.80e-06	0	43	0	1201668096	18	4252
2026-01-09 10:59:07.95	322.82	32.08	-28.4	-30.0	14.4	7.00e-07	0	43	0	1210056704	17	4361
2026-01-09 10:59:10.96	323.30	31.53	-27.6	-28.8	15.4	0.00e+00	0	43	0	1219493888	16	4128
2026-01-09 10:59:13.99	323.76	30.99	-27.1	-28.2	15.8	0.00e+00	0	43	0	1229979648	15	4079
2026-01-09 10:59:17.01	324.21	30.46	-27.4	-28.8	15.5	0.00e+00	0	43	0	1238368256	15	4253
2026-01-09 10:59:20.03	324.64	29.93	-27.4	-28.9	15.5	0.00e+00	0	43	0	1248854016	15	4259
2026-01-09 10:59:23.04	325.06	29.41	-27.5	-29.0	15.4	0.00e+00	0	43	0	1257242624	15	4303
2026-01-09 10:59:26.05	325.46	28.91	-27.3	-28.7	15.5	0.00e+00	0	43	0	1266679808	15	4228
2026-01-09 10:59:29.07	325.86	28.40	-27.2	-28.3	15.7	0.00e+00	0	43	0	1277165568	15	4112
2026-01-09 10:59:32.10	326.24	27.91	-27.1	-28.1	15.8	0.00e+00	0	43	0	1285554176	15	4061
2026-01-09 10:59:35.12	326.61	27.42	-27.0	-27.9	15.9	0.00e+00	0	43	0	1296039936	15	4015
2026-01-09 10:59:38.14	326.97	26.94	-27.0	-27.9	15.9	0.00e+00	0	43	0	1304428544	15	4003
2026-01-09 10:59:41.16	327.32	26.47	-27.0	-27.9	15.9	0.00e+00	0	43	0	1313865728	15	4013
2026-01-09 10:59:44.18	327.66	26.00	-26.9	-27.8	15.9	0.00e+00	0	43	0	1324351488	15	3998
2026-01-09 10:59:47.20	328.00	25.55	-26.8	-28.0	16.1	0.00e+00	0	43	0	1332740096	14	4131
2026-01-09 10:59:50.22	328.32	25.09	-26.6	-27.7	16.3	0.00e+00	0	43	0	1343225856	14	4056
2026-01-09 10:59:53.24	328.63	24.65	-26.8	-27.9	16.2	0.00e+00	0	43	0	1351614464	14	4127
2026-01-09 10:59:56.26	328.94	24.21	-26.9	-28.4	15.9	0.00e+00	0	43	0	1361051648	14	4247
2026-01-09 10:59:59.29	329.24	23.78	-26.9	-28.3	15.9	0.00e+00	0	43	0	1371537408	14	4216
2026-01-09 11:00:02.30	329.53	23.36	-27.1	-28.7	15.7	0.00e+00	0	43	0	1379926016	14	4316
2026-01-09 11:00:05.32	329.81	22.94	-26.9	-28.2	16.0	0.00e+00	0	43	0	1390411776	14	4205
2026-01-09 11:00:08.35	330.08	22.52	-26.9	-28.3	15.9	0.00e+00	0	43	0	1398800384	14	4214
2026-01-09 11:00:11.37	330.35	22.12	-26.9	-28.2	16.0	0.00e+00	0	43	0	1409286144	14	4192
2026-01-09 11:00:14.39	330.61	21.72	-26.8	-28.0	16.1	0.00e+00	0	43	0	1418723328	14	4138
2026-01-09 11:00:17.41	330.87	21.32	-26.7	-27.7	16.2	0.00e+00	0	43	0	1427111936	14	4075
2026-01-09 11:00:20.44	331.12	20.93	-26.8	-28.0	16.0	0.00e+00	0	43	0	1437597696	14	4149
2026-01-09 11:00:23.46	331.36	20.55	-26.9	-28.2	15.9	0.00e+00	0	43	0	1445986304	14	4200
2026-01-09 11:00:26.48	331.60	20.17	-26.8	-28.1	15.9	0.00e+00	0	43	0	1456472064	14	4181
2026-01-09 11:00:29.51	331.84	19.79	-26.8	-28.1	15.9	0.00e+00	0	43	0	1465909248	14	4183
2026-01-09 11:00:32.52	332.06	19.42	-26.9	-28.4	15.8	0.00e+00	0	43	0	1475346432	14	4238
2026-01-09 11:00:35.55	332.29	19.06	-27.0	-28.6	15.6	0.00e+00	0	43	0	1484783616	14	4302
2026-01-09 11:00:38.57	332.50	18.70	-27.2	-29.0	15.4	0.00e+00	0	42	0	1494220800	14	4412
2026-01-09 11:00:41.59	332.72	18.35	-27.3	-29.1	15.3	0.00e+00	0	43	0	1503657984	14	4454
2026-01-09 11:00:44.61	332.92	18.00	-27.5	-29.6	15.0	0.00e+00	0	43	0	1513095168	14	4593
2026-01-09 11:00:47.63	333.13	17.65	-27.8	-30.0	14.5	0.00e+00	0	43	0	1522532352	15	4594
2026-01-09 11:00:50.65	333.33	17.31	-28.0	-29.7	14.5	7.00e-07	0	43	0	1531969536	16	4394
2026-01-09 11:00:53.67	333.52	16.98	-28.1	-30.1	14.3	7.00e-07	0	43	0	1541406720	16	4504
2026-01-09 11:00:56.69	333.72	16.65	-28.0	-29.9	14.4	3.00e-06	0	43	0	1550843904	16	4452
2026-01-09 11:00:59.71	333.90	16.32	-27.9	-29.5	14.6	0.00e+00	0	43	0	1560281088	16	4333
2026-01-09 11:01:02.72	334.09	16.00	-28.1	-29.9	14.4	1.50e-06	0	43	0	1569718272	16	4473
2026-01-09 11:01:05.76	334.27	15.68	-27.9	-29.6	14.6	0.00e+00	0	43	0	1579155456	16	4377
2026-01-09 11:01:08.78	334.44	15.36	-27.9	-29.5	14.6	7.00e-07	0	43	0	1588592640	16	4351
2026-01-09 11:01:11.80	334.62	15.05	-28.0	-29.7	14.4	0.00e+00	0	43	0	1598029824	16	4398
2026-01-09 11:01:14.82	334.79	14.74	-28.0	-29.9	14.3	1.50e-06	0	43	0	1607467008	16	4472
2026-01-09 11:01:17.83	334.95	14.44	-28.1	-30.1	14.2	7.00e-07	0	43	0	1616904192	16	4533
2026-01-09 11:01:20.83	335.12	14.14	-28.3	-30.5	13.9	2.20e-06	0	43	0	1626341376	16	4647
2026-01-09 11:01:23.85	335.28	13.85	-28.1	-30.2	14.1	3.00e-06	0	43	0	1635778560	16	4547
2026-01-09 11:01:26.87	335.44	13.55	-28.1	-30.2	14.1	3.80e-06	0	43	0	1645215744	16	4552
2026-01-09 11:01:29.90	335.59	13.26	-28.1	-30.1	14.1	1.50e-06	0	43	0	1654652928	16	4530
2026-01-09 11:01:32.92	335.74	12.98	-28.1	-30.0	14.1	7.00e-07	0	43	0	1664090112	16	4516
2026-01-09 11:01:35.95	335.89	12.69	-27.9	-29.7	14.3	1.50e-06	0	43	0	1673527296	16	4412
2026-01-09 11:01:38.97	336.04	12.41	-27.9	-29.7	14.3	3.00e-06	0	43	0	1682964480	16	4419
2026-01-09 11:01:41.99	336.19	12.13	-27.9	-29.7	14.3	1.50e-06	0	43	0	1692401664	16	4418
2026-01-09 11:01:45.01	336.33	11.86	-28.1	-30.0	14.1	7.00e-07	0	43	0	1701838848	16	4508
2026-01-09 11:01:48.03	336.47	11.59	-28.0	-29.9	14.1	1.50e-06	0	43	0	1711276032	16	4481
2026-01-09 11:01:51.05	336.60	11.32	-28.1	-30.1	14.0	4.50e-06	0	43	0	1720713216	16	4535
2026-01-09 11:01:54.08	336.74	11.05	-28.2	-30.4	13.8	3.80e-06	0	43	0	1730150400	16	4612
2026-01-09 11:01:57.10	336.87	10.79	-28.3	-30.5	13.7	7.00e-07	0	43	0	1739587584	16	4658
2026-01-09 11:02:00.12	337.00	10.53	-28.6	-30.7	13.3	9.10e-06	0	43	0	1749024768	17	4623
2026-01-09 11:02:03.13	337.13	10.27	-28.5	-30.5	13.4	1.14e-05	0	43	0	1758461952	17	4550
2026-01-09 11:02:06.16	337.26	10.01	-28.8	-31.2	12.9	3.05e-05	0	43	0	1767899136	17	4792
2026-01-09 11:02:09.17	337.38	9.76	-28.6	-30.8	13.2	4.27e-05	0	43	0	1777336320	17	4651
2026-01-09 11:02:12.19	337.51	9.51	-28.7	-31.1	13.0	3.81e-05	0	43	0	1786773504	17	4745
2026-01-09 11:02:15.21	337.63	9.26	-28.7	-31.3	12.9	4.27e-05	0	43	0	1796210688	17	4805
2026-01-09 11:02:18.24	337.75	9.02	-28.9	-31.2	12.6	1.12e-04	0	43	0	1805647872	18	4674
2026-01-09 11:02:21.25	337.87	8.78	-28.6	-30.4	13.0	4.50e-05	0	43	0	1815085056	18	4437
2026-01-09 11:02:24.28	337.98	8.53	-28.8	-30.9	12.7	6.63e-05	0	43	0	1824522240	18	4585
2026-01-09 11:02:27.30	338.10	8.30	-28.8	-30.8	12.7	7.93e-05	0	43	0	1833959424	18	4562
2026-01-09 11:02:30.31	338.21	8.06	-29.0	-31.3	12.4	2.14e-04	0	43	0	1843396608	18	4724
2026-01-09 11:02:33.33	338.32	7.83	-29.0	-31.5	12.2	2.53e-04	0	43	0	1852833792	18	4798
2026-01-09 11:02:36.34	338.43	7.59	-29.0	-31.6	12.2	2.43e-04	0	43	0	1862270976	18	4810
2026-01-09 11:02:39.36	338.54	7.36	-29.4	-32.4	11.6	6.58e-04	0	43	0	1871708160	18	5121
2026-01-09 11:02:42.38	338.64	7.13	-29.3	-32.3	11.6	5.90e-04	0	43	0	1881145344	18	5077

#Closed at: 2026-01-09 11:02:45
#Recorded file [1884 MB]: D:/data/31010_260109_135240.dat