passes_logs/2026/01/09/R2M6_AANII_01/R2M6_AANII_01__20260109_104124_FENGYUN_3D_rec.log

#Pass ID: 20260109_104124_FENGYUN 3D
#Satellite: FENGYUN 3D
#Configuration: FENGYUN 3D
#almurnet v.1.7.20240730
#Start time: 2026-01-09 10:41:26

#Version: 2.2.20231116
#Station: R2M6_AANII_01
#Location: 30.233357 lon 59.946436 lat
#TLE: 1 43010U 17072A   26008.51967461  .00000013  00000+0  27718-4 0  9992
#TLE: 2 43010  98.9935 340.2353 0002115 119.1573 240.9815 14.19693759422336

#Time	Az	El	Level	Level2	SNR	BER	BlckErr	Temp	State	Recorded	gain1	gain2
2026-01-09 10:41:26.07	108.71	7.12	-29.6	-32.4	5.3	7.84e-01	0	40	0	0	20	4968
2026-01-09 10:41:29.09	108.46	7.32	-29.9	-33.2	9.2	1.89e-02	0	40	0	5242880	20	5261
2026-01-09 10:41:32.11	108.22	7.53	-29.3	-31.5	10.4	4.16e-03	0	40	0	22020096	20	4629
2026-01-09 10:41:35.12	107.97	7.74	-29.8	-33.3	9.6	9.83e-03	0	41	0	38797312	19	5405
2026-01-09 10:41:38.14	107.71	7.95	-28.4	-30.1	12.1	2.80e-04	0	41	0	56623104	18	4361
2026-01-09 10:41:41.15	107.46	8.15	-27.3	-28.6	13.7	1.10e-06	0	41	0	73400320	16	4143
2026-01-09 10:41:44.17	107.20	8.37	-26.8	-28.2	14.3	0.00e+00	0	41	0	90177536	14	4268
2026-01-09 10:41:47.19	106.93	8.58	-26.8	-28.3	14.3	0.00e+00	0	41	0	106954752	14	4282
2026-01-09 10:41:50.21	106.66	8.79	-26.9	-28.4	14.2	0.00e+00	0	41	0	123731968	14	4326
2026-01-09 10:41:53.21	106.39	9.01	-27.2	-29.3	13.8	1.10e-06	0	41	0	140509184	14	4561
2026-01-09 10:41:56.23	106.11	9.22	-26.9	-28.6	14.2	0.00e+00	0	41	0	158334976	14	4359
2026-01-09 10:41:59.24	105.83	9.44	-26.7	-28.1	14.5	1.10e-06	0	41	0	175112192	14	4237
2026-01-09 10:42:02.27	105.54	9.66	-26.6	-27.8	14.7	0.00e+00	0	41	0	191889408	14	4145
2026-01-09 10:42:05.29	105.25	9.88	-26.6	-27.7	14.7	0.00e+00	0	41	0	208666624	14	4122
2026-01-09 10:42:08.31	104.96	10.10	-26.6	-27.8	14.7	0.00e+00	0	41	0	225443840	14	4132
2026-01-09 10:42:11.32	104.66	10.32	-26.6	-27.9	14.7	0.00e+00	0	41	0	243269632	14	4176
2026-01-09 10:42:14.34	104.35	10.54	-26.4	-27.5	14.9	0.00e+00	0	42	0	260046848	14	4060
2026-01-09 10:42:17.36	104.04	10.77	-26.4	-27.3	15.0	0.00e+00	0	42	0	276824064	14	4019
2026-01-09 10:42:20.38	103.73	10.99	-26.4	-27.3	15.0	0.00e+00	0	42	0	293601280	14	4023
2026-01-09 10:42:23.40	103.41	11.22	-26.6	-27.8	14.8	0.00e+00	0	42	0	310378496	14	4139
2026-01-09 10:42:26.41	103.09	11.45	-26.6	-28.0	14.7	0.00e+00	0	42	0	328204288	14	4190
2026-01-09 10:42:29.42	102.76	11.68	-26.4	-27.3	15.0	0.00e+00	0	42	0	344981504	14	4022
2026-01-09 10:42:32.45	102.42	11.91	-26.5	-27.5	15.0	0.00e+00	0	42	0	361758720	14	4069
2026-01-09 10:42:35.46	102.08	12.14	-26.1	-27.2	15.4	0.00e+00	0	42	0	378535936	13	4095
2026-01-09 10:42:38.46	101.74	12.37	-26.4	-27.9	15.0	0.00e+00	0	42	0	395313152	13	4270
2026-01-09 10:42:41.48	101.39	12.60	-26.5	-28.1	14.9	0.00e+00	0	42	0	413138944	13	4325
2026-01-09 10:42:44.50	101.03	12.84	-26.3	-27.6	15.2	0.00e+00	0	42	0	429916160	13	4192
2026-01-09 10:42:47.52	100.67	13.08	-26.2	-27.4	15.3	0.00e+00	0	42	0	446693376	13	4146
2026-01-09 10:42:50.53	100.30	13.31	-25.8	-27.0	15.8	0.00e+00	0	42	0	463470592	12	4132
2026-01-09 10:42:53.55	99.93	13.55	-25.6	-26.5	16.1	0.00e+00	0	42	0	480247808	12	4022
2026-01-09 10:42:56.56	99.54	13.79	-25.5	-26.4	16.2	0.00e+00	0	42	0	497025024	12	3995
2026-01-09 10:42:59.58	99.16	14.03	-25.6	-26.7	16.1	0.00e+00	0	42	0	514850816	12	4049
2026-01-09 10:43:02.61	98.76	14.27	-25.6	-26.6	16.1	0.00e+00	0	42	0	531628032	12	4040
2026-01-09 10:43:05.62	98.36	14.52	-25.5	-26.4	16.2	0.00e+00	0	42	0	548405248	12	3998
2026-01-09 10:43:08.64	97.95	14.76	-25.4	-26.2	16.4	0.00e+00	0	42	0	565182464	12	3937
2026-01-09 10:43:11.66	97.54	15.01	-25.3	-26.0	16.5	0.00e+00	0	42	0	581959680	12	3893
2026-01-09 10:43:14.68	97.12	15.25	-25.3	-26.4	16.7	0.00e+00	0	42	0	599785472	11	4096
2026-01-09 10:43:17.70	96.69	15.50	-25.4	-26.7	16.5	0.00e+00	0	42	0	616562688	11	4161
2026-01-09 10:43:20.73	96.25	15.75	-25.4	-26.7	16.5	0.00e+00	0	42	0	633339904	11	4167
2026-01-09 10:43:23.74	95.81	16.00	-25.5	-26.8	16.5	0.00e+00	0	42	0	650117120	11	4187
2026-01-09 10:43:26.77	95.36	16.25	-25.4	-26.5	16.6	0.00e+00	0	42	0	666894336	11	4124
2026-01-09 10:43:29.80	94.90	16.50	-25.2	-26.1	16.9	0.00e+00	0	42	0	684720128	11	4007
2026-01-09 10:43:32.82	94.43	16.75	-25.0	-25.7	17.1	0.00e+00	0	42	0	701497344	11	3898
2026-01-09 10:43:35.84	93.96	17.00	-25.0	-25.7	17.1	0.00e+00	0	42	0	718274560	11	3910
2026-01-09 10:43:38.85	93.48	17.25	-25.1	-25.9	17.0	0.00e+00	0	42	0	735051776	11	3973
2026-01-09 10:43:41.87	92.99	17.50	-24.9	-25.6	17.2	0.00e+00	0	42	0	751828992	11	3886
2026-01-09 10:43:44.90	92.49	17.76	-24.7	-25.5	17.5	0.00e+00	0	42	0	769654784	10	3981
2026-01-09 10:43:47.92	91.98	18.01	-24.7	-25.6	17.5	0.00e+00	0	42	0	786432000	10	3988
2026-01-09 10:43:50.93	91.46	18.26	-25.0	-26.2	17.2	0.00e+00	0	42	0	803209216	10	4157
2026-01-09 10:43:53.95	90.94	18.51	-25.0	-26.3	17.2	0.00e+00	0	42	0	819986432	10	4157
2026-01-09 10:43:56.98	90.40	18.77	-25.2	-26.6	17.0	0.00e+00	0	42	0	837812224	10	4249
2026-01-09 10:43:59.99	89.86	19.02	-24.7	-25.5	17.6	0.00e+00	0	42	0	854589440	10	3970
2026-01-09 10:44:03.01	89.31	19.27	-24.6	-25.4	17.6	0.00e+00	0	42	0	871366656	10	3955
2026-01-09 10:44:06.02	88.75	19.53	-24.4	-25.1	17.8	0.00e+00	0	42	0	888143872	10	3862
2026-01-09 10:44:09.04	88.18	19.78	-24.5	-25.1	17.8	0.00e+00	0	42	0	904921088	10	3878
2026-01-09 10:44:12.06	87.60	20.03	-24.7	-25.5	17.6	0.00e+00	0	42	0	921698304	10	3969
2026-01-09 10:44:15.08	87.01	20.28	-24.5	-25.1	17.9	0.00e+00	0	42	0	939524096	10	3868
2026-01-09 10:44:18.10	86.41	20.53	-24.2	-24.9	18.2	0.00e+00	0	42	0	956301312	9	3934
2026-01-09 10:44:21.12	85.80	20.78	-24.2	-25.0	18.1	0.00e+00	0	42	0	973078528	9	3957
2026-01-09 10:44:24.14	85.18	21.03	-24.2	-24.9	18.2	0.00e+00	0	43	0	989855744	9	3936
2026-01-09 10:44:27.16	84.55	21.28	-24.1	-24.8	18.3	0.00e+00	0	42	0	1006632960	9	3895
2026-01-09 10:44:30.18	83.91	21.53	-24.2	-25.1	18.1	0.00e+00	0	42	0	1024458752	9	3982
2026-01-09 10:44:33.21	83.26	21.77	-24.3	-25.2	18.0	0.00e+00	0	42	0	1041235968	9	4014
2026-01-09 10:44:36.22	82.60	22.01	-24.0	-24.6	18.4	0.00e+00	0	42	0	1058013184	9	3846
2026-01-09 10:44:39.24	81.93	22.26	-23.9	-24.3	18.5	0.00e+00	0	42	0	1074790400	9	3795
2026-01-09 10:44:42.26	81.25	22.49	-23.9	-24.4	18.5	0.00e+00	0	42	0	1091567616	9	3812
2026-01-09 10:44:45.28	80.55	22.73	-23.8	-24.3	18.5	0.00e+00	0	42	0	1109393408	9	3783
2026-01-09 10:44:48.30	79.85	22.97	-23.9	-24.9	18.5	0.00e+00	0	42	0	1126170624	8	4034
2026-01-09 10:44:51.32	79.14	23.20	-23.9	-24.8	18.5	0.00e+00	0	42	0	1142947840	8	4019
2026-01-09 10:44:54.34	78.41	23.43	-24.0	-25.0	18.4	0.00e+00	0	42	0	1159725056	8	4074
2026-01-09 10:44:57.35	77.68	23.65	-23.8	-24.8	18.5	0.00e+00	0	43	0	1176502272	8	4006
2026-01-09 10:45:00.37	76.93	23.88	-23.7	-24.5	18.7	0.00e+00	0	42	0	1193279488	8	3928
2026-01-09 10:45:03.39	76.18	24.10	-23.9	-24.9	18.5	0.00e+00	0	42	0	1211105280	8	4038
2026-01-09 10:45:06.40	75.41	24.31	-23.8	-24.6	18.7	0.00e+00	0	42	0	1227882496	8	3953
2026-01-09 10:45:09.42	74.63	24.52	-23.5	-24.1	18.9	0.00e+00	0	42	0	1244659712	8	3836
2026-01-09 10:45:12.44	73.85	24.73	-23.4	-23.8	19.1	0.00e+00	0	42	0	1261436928	8	3764
2026-01-09 10:45:15.45	73.05	24.93	-23.3	-24.2	19.1	0.00e+00	0	43	0	1278214144	7	3979
2026-01-09 10:45:18.46	72.24	25.13	-23.5	-24.5	19.0	0.00e+00	0	43	0	1294991360	7	4041
2026-01-09 10:45:21.47	71.43	25.33	-23.6	-24.8	18.8	0.00e+00	0	42	0	1312817152	7	4114
2026-01-09 10:45:24.49	70.60	25.52	-23.4	-24.4	19.0	0.00e+00	0	43	0	1329594368	7	4018
2026-01-09 10:45:27.50	69.76	25.70	-23.5	-24.5	19.0	0.00e+00	0	42	0	1346371584	7	4043
2026-01-09 10:45:30.52	68.92	25.88	-23.2	-23.8	19.5	0.00e+00	0	42	0	1363148800	7	3865
2026-01-09 10:45:33.54	68.06	26.05	-23.6	-24.7	19.1	0.00e+00	0	42	0	1379926016	7	4074
2026-01-09 10:45:36.55	67.19	26.21	-23.5	-24.5	19.2	0.00e+00	0	43	0	1397751808	7	4035
2026-01-09 10:45:39.57	66.32	26.37	-23.4	-24.3	19.3	0.00e+00	0	43	0	1414529024	7	3972
2026-01-09 10:45:42.60	65.43	26.53	-23.3	-24.0	19.4	0.00e+00	0	43	0	1431306240	7	3909
2026-01-09 10:45:45.62	64.54	26.67	-23.2	-23.9	19.4	0.00e+00	0	42	0	1448083456	7	3896
2026-01-09 10:45:48.64	63.64	26.81	-23.2	-23.8	19.6	0.00e+00	0	43	0	1464860672	7	3853
2026-01-09 10:45:51.66	62.73	26.95	-23.1	-23.6	19.6	0.00e+00	0	42	0	1482686464	7	3813
2026-01-09 10:45:54.67	61.81	27.07	-23.4	-24.3	19.3	0.00e+00	0	43	0	1499463680	7	3988
2026-01-09 10:45:57.69	60.89	27.19	-23.2	-23.9	19.5	0.00e+00	0	43	0	1516240896	7	3888
2026-01-09 10:46:00.70	59.96	27.30	-23.5	-24.4	19.2	0.00e+00	0	43	0	1533018112	7	3997
2026-01-09 10:46:03.72	59.03	27.40	-23.1	-23.7	19.6	0.00e+00	0	43	0	1549795328	7	3832
2026-01-09 10:46:06.74	58.09	27.49	-23.1	-23.6	19.6	0.00e+00	0	42	0	1567621120	7	3831
2026-01-09 10:46:09.76	57.14	27.58	-22.8	-23.1	19.9	0.00e+00	0	42	0	1584398336	7	3702
2026-01-09 10:46:12.78	56.19	27.65	-23.0	-23.4	19.7	0.00e+00	0	43	0	1601175552	7	3771
2026-01-09 10:46:15.79	55.23	27.72	-22.9	-23.1	19.9	0.00e+00	0	43	0	1617952768	7	3709
2026-01-09 10:46:18.81	54.27	27.78	-22.8	-23.5	19.9	0.00e+00	0	43	0	1634729984	6	3894
2026-01-09 10:46:21.83	53.31	27.83	-22.9	-23.8	19.8	0.00e+00	0	43	0	1652555776	6	3960
2026-01-09 10:46:24.84	52.35	27.87	-22.8	-23.5	19.9	0.00e+00	0	43	0	1669332992	6	3910
2026-01-09 10:46:27.86	51.38	27.90	-22.9	-23.8	19.8	0.00e+00	0	43	0	1686110208	6	3968
2026-01-09 10:46:30.88	50.41	27.93	-23.0	-24.0	19.7	0.00e+00	0	43	0	1702887424	6	4018
2026-01-09 10:46:33.89	49.44	27.94	-22.9	-23.8	19.8	0.00e+00	0	43	0	1719664640	6	3960
2026-01-09 10:46:36.92	48.47	27.95	-22.9	-23.7	19.8	0.00e+00	0	43	0	1736441856	6	3952
2026-01-09 10:46:39.94	47.50	27.94	-22.9	-23.8	19.8	0.00e+00	0	43	0	1754267648	6	3974
2026-01-09 10:46:42.95	46.53	27.93	-23.0	-23.9	19.7	0.00e+00	0	43	0	1771044864	6	4002
2026-01-09 10:46:45.97	45.56	27.91	-23.0	-24.0	19.7	0.00e+00	0	43	0	1787822080	6	4021
2026-01-09 10:46:48.98	44.60	27.88	-23.0	-23.9	19.7	0.00e+00	0	43	0	1804599296	6	3998
2026-01-09 10:46:52.01	43.63	27.84	-23.2	-24.3	19.5	0.00e+00	0	43	0	1821376512	6	4096
2026-01-09 10:46:55.03	42.67	27.79	-23.0	-24.0	19.7	0.00e+00	0	43	0	1839202304	6	4011
2026-01-09 10:46:58.05	41.71	27.73	-22.8	-23.4	19.9	0.00e+00	0	43	0	1855979520	6	3881
2026-01-09 10:47:01.07	40.75	27.66	-22.8	-23.5	19.9	0.00e+00	0	43	0	1872756736	6	3894
2026-01-09 10:47:04.09	39.80	27.59	-22.7	-23.4	20.0	0.00e+00	0	43	0	1889533952	6	3874
2026-01-09 10:47:07.12	38.85	27.50	-22.7	-23.2	20.0	0.00e+00	0	43	0	1906311168	6	3835
2026-01-09 10:47:10.13	37.91	27.41	-22.8	-23.5	19.9	0.00e+00	0	43	0	1924136960	6	3912
2026-01-09 10:47:13.14	36.98	27.31	-22.8	-23.6	19.8	0.00e+00	0	43	0	1940914176	6	3927
2026-01-09 10:47:16.15	36.05	27.20	-22.8	-23.6	19.9	0.00e+00	0	43	0	1957691392	6	3927
2026-01-09 10:47:19.17	35.13	27.09	-22.9	-23.7	19.7	0.00e+00	0	43	0	1974468608	6	3961
2026-01-09 10:47:22.20	34.21	26.96	-22.8	-23.5	19.8	0.00e+00	0	43	0	1991245824	6	3904
2026-01-09 10:47:25.22	33.30	26.83	-22.9	-23.8	19.7	0.00e+00	0	43	0	2008023040	6	3974
2026-01-09 10:47:28.24	32.40	26.69	-23.0	-23.8	19.7	0.00e+00	0	43	0	2025848832	6	3982
2026-01-09 10:47:31.27	31.51	26.55	-23.2	-24.3	19.5	0.00e+00	0	43	0	2042626048	6	4103
2026-01-09 10:47:34.29	30.62	26.39	-22.9	-23.3	19.7	0.00e+00	0	43	0	2059403264	7	3746
2026-01-09 10:47:37.31	29.75	26.24	-23.1	-23.5	19.6	0.00e+00	0	43	0	2076180480	7	3804
2026-01-09 10:47:40.33	28.88	26.07	-23.9	-25.2	18.7	0.00e+00	0	43	0	2094006272	7	4216
2026-01-09 10:47:43.34	28.03	25.90	-22.9	-23.2	19.7	0.00e+00	0	43	0	2110783488	7	3739
2026-01-09 10:47:46.37	27.18	25.72	-22.9	-23.7	19.7	0.00e+00	0	43	0	2127560704	6	3951
2026-01-09 10:47:49.39	26.34	25.54	-22.9	-23.7	19.7	0.00e+00	0	43	0	2144337920	6	3956
2026-01-09 10:47:52.39	25.52	25.35	-23.0	-23.9	19.6	0.00e+00	0	43	0	2161115136	6	4001
2026-01-09 10:47:55.41	24.70	25.16	-23.1	-24.2	19.5	0.00e+00	0	43	0	2177892352	6	4060
2026-01-09 10:47:58.42	23.89	24.96	-22.9	-23.7	19.6	0.00e+00	0	43	0	2195718144	6	3959
2026-01-09 10:48:01.44	23.10	24.76	-23.0	-24.0	19.5	0.00e+00	0	43	0	2212495360	6	4012
2026-01-09 10:48:04.46	22.31	24.55	-22.9	-23.7	19.6	0.00e+00	0	43	0	2229272576	6	3960
2026-01-09 10:48:07.48	21.53	24.34	-23.1	-23.7	19.4	0.00e+00	0	43	0	2246049792	7	3837
2026-01-09 10:48:10.49	20.77	24.13	-22.9	-23.3	19.7	0.00e+00	0	43	0	2262827008	7	3742
2026-01-09 10:48:13.50	20.02	23.91	-22.9	-23.7	19.7	0.00e+00	0	43	0	2280652800	6	3941
2026-01-09 10:48:16.51	19.27	23.69	-23.2	-24.4	19.3	0.00e+00	0	43	0	2297430016	6	4122
2026-01-09 10:48:19.54	18.54	23.46	-23.0	-23.9	19.5	0.00e+00	0	43	0	2314207232	6	4006
2026-01-09 10:48:22.55	17.82	23.24	-23.3	-24.5	19.2	0.00e+00	0	43	0	2330984448	6	4145
2026-01-09 10:48:25.57	17.10	23.00	-23.4	-24.2	19.1	0.00e+00	0	43	0	2347761664	7	3969
2026-01-09 10:48:28.60	16.40	22.77	-23.4	-24.2	19.1	0.00e+00	0	43	0	2365587456	7	3963
2026-01-09 10:48:31.62	15.71	22.53	-23.2	-23.8	19.3	0.00e+00	0	43	0	2382364672	7	3871
2026-01-09 10:48:34.64	15.03	22.30	-23.5	-24.4	19.0	0.00e+00	0	43	0	2399141888	7	4012
2026-01-09 10:48:37.66	14.36	22.06	-23.7	-24.8	18.8	0.00e+00	0	43	0	2415919104	7	4114
2026-01-09 10:48:40.68	13.70	21.81	-23.7	-24.9	18.7	0.00e+00	0	43	0	2432696320	7	4130
2026-01-09 10:48:43.70	13.05	21.57	-23.7	-24.9	18.7	0.00e+00	0	43	0	2450522112	7	4120
2026-01-09 10:48:46.71	12.41	21.32	-23.7	-24.9	18.7	0.00e+00	0	43	0	2467299328	7	4121
2026-01-09 10:48:49.74	11.78	21.08	-23.8	-25.1	18.6	0.00e+00	0	43	0	2484076544	7	4176
2026-01-09 10:48:52.76	11.16	20.83	-23.8	-25.1	18.6	0.00e+00	0	43	0	2500853760	7	4178
2026-01-09 10:48:55.78	10.55	20.58	-24.0	-25.4	18.4	0.00e+00	0	43	0	2517630976	7	4269
2026-01-09 10:48:58.80	9.96	20.33	-24.0	-25.1	18.3	0.00e+00	0	43	0	2535456768	8	4071
2026-01-09 10:49:01.83	9.37	20.08	-24.1	-25.2	18.3	0.00e+00	0	43	0	2552233984	8	4103
2026-01-09 10:49:04.85	8.79	19.83	-23.8	-24.5	18.6	0.00e+00	0	42	0	2569011200	8	3927
2026-01-09 10:49:07.87	8.22	19.58	-23.8	-24.6	18.6	0.00e+00	0	43	0	2585788416	8	3955
2026-01-09 10:49:10.88	7.66	19.32	-24.0	-25.0	18.3	0.00e+00	0	43	0	2602565632	8	4058
2026-01-09 10:49:13.89	7.11	19.07	-24.2	-25.5	18.1	0.00e+00	0	43	0	2620391424	8	4164
2026-01-09 10:49:16.90	6.57	18.82	-24.2	-25.5	18.1	0.00e+00	0	43	0	2637168640	8	4166
2026-01-09 10:49:19.91	6.04	18.57	-24.4	-25.9	17.9	0.00e+00	0	43	0	2653945856	8	4277
2026-01-09 10:49:22.92	5.52	18.32	-24.9	-26.4	17.3	0.00e+00	0	43	0	2670723072	9	4308
2026-01-09 10:49:25.94	5.00	18.07	-24.5	-25.6	17.7	0.00e+00	0	43	0	2687500288	9	4081
2026-01-09 10:49:28.96	4.50	17.81	-24.6	-25.9	17.6	0.00e+00	0	43	0	2704277504	9	4159
2026-01-09 10:49:31.98	4.00	17.56	-24.9	-26.4	17.3	0.00e+00	0	43	0	2722103296	9	4307
2026-01-09 10:49:35.01	3.51	17.31	-24.6	-25.9	17.5	0.00e+00	0	43	0	2738880512	9	4174
2026-01-09 10:49:38.02	3.03	17.06	-24.8	-26.3	17.4	0.00e+00	0	43	0	2755657728	9	4273
2026-01-09 10:49:41.05	2.56	16.81	-24.8	-26.2	17.3	0.00e+00	0	43	0	2772434944	9	4253
2026-01-09 10:49:44.07	2.09	16.56	-25.0	-26.6	17.1	0.00e+00	0	43	0	2789212160	9	4360
2026-01-09 10:49:47.09	1.63	16.31	-25.3	-26.9	16.8	0.00e+00	0	43	0	2807037952	10	4312
2026-01-09 10:49:50.11	1.18	16.06	-25.0	-25.7	17.2	0.00e+00	0	43	0	2823815168	11	3887
2026-01-09 10:49:53.13	0.74	15.81	-25.1	-25.9	17.0	0.00e+00	0	43	0	2840592384	11	3941
2026-01-09 10:49:56.15	0.31	15.56	-25.4	-26.5	16.7	0.00e+00	0	43	0	2857369600	11	4094
2026-01-09 10:49:59.17	359.88	15.32	-25.2	-26.0	16.9	0.00e+00	0	43	0	2874146816	11	3977
2026-01-09 10:50:02.19	359.46	15.07	-25.1	-25.9	17.0	0.00e+00	0	43	0	2891972608	11	3950
2026-01-09 10:50:05.20	359.05	14.83	-25.5	-26.7	16.6	0.00e+00	0	43	0	2908749824	11	4157
2026-01-09 10:50:08.22	358.64	14.59	-25.4	-26.5	16.7	0.00e+00	0	43	0	2925527040	11	4110
2026-01-09 10:50:11.24	358.25	14.34	-25.5	-26.7	16.6	0.00e+00	0	43	0	2942304256	11	4147
2026-01-09 10:50:14.26	357.85	14.10	-25.4	-26.5	16.7	0.00e+00	0	43	0	2959081472	11	4086
2026-01-09 10:50:17.29	357.46	13.86	-25.6	-27.1	16.4	0.00e+00	0	43	0	2976907264	11	4243
2026-01-09 10:50:20.30	357.09	13.62	-25.9	-27.6	16.0	0.00e+00	0	43	0	2993684480	11	4394
2026-01-09 10:50:23.32	356.71	13.38	-26.1	-27.6	15.7	0.00e+00	0	43	0	3010461696	12	4280
2026-01-09 10:50:26.34	356.35	13.15	-26.2	-27.9	15.4	0.00e+00	0	43	0	3027238912	12	4372
2026-01-09 10:50:29.35	355.99	12.91	-26.1	-27.5	15.6	0.00e+00	0	43	0	3044016128	12	4266
2026-01-09 10:50:32.38	355.63	12.68	-26.2	-27.9	15.4	0.00e+00	0	43	0	3061841920	12	4366
2026-01-09 10:50:35.40	355.28	12.44	-25.8	-26.9	16.0	0.00e+00	0	43	0	3078619136	12	4100
2026-01-09 10:50:38.42	354.93	12.21	-25.9	-27.1	15.9	0.00e+00	0	43	0	3095396352	12	4139
2026-01-09 10:50:41.44	354.60	11.98	-25.8	-27.0	15.9	0.00e+00	0	43	0	3112173568	12	4135
2026-01-09 10:50:44.46	354.26	11.75	-26.1	-27.5	15.6	0.00e+00	0	43	0	3128950784	12	4275
2026-01-09 10:50:47.48	353.94	11.52	-26.2	-27.9	15.4	0.00e+00	0	43	0	3146776576	12	4358
2026-01-09 10:50:50.50	353.61	11.29	-26.6	-28.2	14.9	0.00e+00	0	43	0	3163553792	13	4333
2026-01-09 10:50:53.52	353.30	11.07	-26.2	-27.3	15.4	0.00e+00	0	43	0	3180331008	13	4090
2026-01-09 10:50:56.53	352.98	10.84	-26.4	-27.7	15.1	0.00e+00	0	43	0	3197108224	13	4208
2026-01-09 10:50:59.56	352.68	10.62	-26.4	-27.8	15.1	0.00e+00	0	43	0	3213885440	13	4222
2026-01-09 10:51:02.58	352.37	10.39	-26.4	-27.8	15.1	0.00e+00	0	43	0	3231711232	13	4224
2026-01-09 10:51:05.60	352.08	10.17	-26.2	-27.5	15.2	0.00e+00	0	43	0	3248488448	13	4158
2026-01-09 10:51:08.62	351.78	9.95	-26.2	-27.4	15.3	0.00e+00	0	43	0	3265265664	13	4126
2026-01-09 10:51:11.64	351.49	9.73	-26.4	-27.9	15.0	0.00e+00	0	43	0	3282042880	13	4252
2026-01-09 10:51:14.66	351.21	9.51	-26.2	-27.4	15.2	0.00e+00	0	43	0	3298820096	13	4125
2026-01-09 10:51:17.67	350.93	9.30	-26.7	-28.5	14.6	0.00e+00	0	43	0	3316645888	13	4422
2026-01-09 10:51:20.71	350.65	9.08	-26.9	-28.9	14.3	2.20e-06	0	43	0	3333423104	13	4550
2026-01-09 10:51:23.73	350.38	8.87	-26.8	-28.8	14.4	2.20e-06	0	43	0	3350200320	13	4524
2026-01-09 10:51:26.74	350.11	8.65	-26.5	-28.0	14.8	0.00e+00	0	43	0	3366977536	13	4306
2026-01-09 10:51:29.77	349.85	8.44	-26.6	-28.4	14.6	0.00e+00	0	43	0	3383754752	13	4400
2026-01-09 10:51:32.78	349.59	8.23	-26.7	-28.5	14.5	0.00e+00	0	43	0	3401580544	13	4427
2026-01-09 10:51:35.80	349.34	8.02	-26.7	-28.5	14.4	1.10e-06	0	43	0	3418357760	13	4445
2026-01-09 10:51:38.81	349.09	7.81	-26.9	-28.9	14.2	0.00e+00	0	43	0	3435134976	13	4551
2026-01-09 10:51:41.84	348.84	7.61	-26.8	-28.8	14.2	0.00e+00	0	43	0	3451912192	13	4532
2026-01-09 10:51:44.85	348.59	7.40	-27.0	-28.8	14.0	2.20e-06	0	43	0	3468689408	14	4426
2026-01-09 10:51:47.88	348.35	7.20	-27.3	-29.4	13.6	2.20e-06	0	43	0	3486515200	14	4587
2026-01-09 10:51:50.90	348.11	6.99	-33.2	-44.0	3.8	8.46e-01	0	43	104	3494903808	26	12522

#Closed at: 2026-01-09 10:51:51
#Recorded file [3494 MB]: D:/data/31010_260109_134127.dat