passes_logs/2026/01/09/R2M6_AANII_01/R2M6_AANII_01__20260109_225858_NOAA_21_JPSS-2_rec.log

#Pass ID: 20260109_225858_NOAA 21 (JPSS-2)
#Satellite: NOAA 21 (JPSS-2)
#Configuration: NOAA 21
#almurnet v.1.7.20240730
#Start time: 2026-01-09 22:58:59

#Version: 2.2.20231116
#Station: R2M6_AANII_01
#Location: 30.233357 lon 59.946436 lat
#TLE: 1 54234U 22150A   26009.23291724  .00000115  00000+0  75298-4 0  9996
#TLE: 2 54234  98.7494 310.2026 0000856 324.9272  35.1848 14.19533567163994

#Time	Az	El	Level	Level2	SNR	BER	BlckErr	Temp	State	Recorded	gain1	gain2
2026-01-09 22:58:59.44	27.41	7.03	-30.0	-34.1	4.8	1.35e+00	0	40	0	0	20	5780
2026-01-09 22:59:02.42	27.64	7.23	-31.0	-35.4	7.9	8.50e-02	0	40	0	2097152	22	6013
2026-01-09 22:59:05.43	27.89	7.44	-30.4	-33.9	9.4	2.02e-02	0	40	0	11534336	21	5400
2026-01-09 22:59:08.42	28.14	7.64	-29.6	-32.3	10.9	2.06e-03	0	40	0	20971520	20	4864
2026-01-09 22:59:11.42	28.39	7.84	-29.9	-33.0	10.5	5.46e-03	0	40	0	30408704	20	5124
2026-01-09 22:59:14.44	28.64	8.05	-29.1	-31.2	12.1	6.92e-04	0	40	0	39845888	19	4610
2026-01-09 22:59:17.45	28.90	8.26	-29.3	-32.2	11.8	8.27e-04	0	40	0	49283072	18	5026
2026-01-09 22:59:20.45	29.16	8.47	-29.2	-32.1	11.9	8.29e-04	0	40	0	58720256	18	4999
2026-01-09 22:59:23.46	29.42	8.68	-29.2	-31.9	12.0	5.32e-04	0	40	0	68157440	18	4939
2026-01-09 22:59:26.47	29.69	8.89	-28.7	-30.8	12.8	7.70e-05	0	41	0	77594624	18	4556
2026-01-09 22:59:29.47	29.96	9.10	-28.6	-30.5	12.9	9.76e-05	0	41	0	87031808	18	4473
2026-01-09 22:59:32.47	30.24	9.31	-28.3	-30.2	13.5	2.26e-04	0	41	0	96468992	17	4470
2026-01-09 22:59:35.47	30.52	9.53	-28.1	-30.3	13.7	2.93e-04	0	41	0	105906176	16	4606
2026-01-09 22:59:38.48	30.80	9.74	-28.3	-30.7	13.5	5.03e-04	0	41	0	115343360	16	4725
2026-01-09 22:59:41.49	31.09	9.96	-28.1	-30.2	13.8	6.38e-04	0	41	0	124780544	16	4573
2026-01-09 22:59:44.50	31.38	10.18	-28.2	-30.6	13.6	3.41e-04	0	41	0	134217728	16	4701
2026-01-09 22:59:47.50	31.68	10.40	-28.0	-30.1	13.9	5.32e-04	0	41	0	143654912	16	4535
2026-01-09 22:59:50.50	31.98	10.62	-27.8	-29.9	14.3	4.41e-04	0	41	0	153092096	15	4605
2026-01-09 22:59:53.50	32.28	10.84	-27.8	-30.1	14.0	5.81e-04	0	41	0	162529280	15	4667
2026-01-09 22:59:56.51	32.59	11.07	-28.2	-30.3	13.8	3.39e-04	0	41	0	171966464	16	4605
2026-01-09 22:59:59.51	32.90	11.29	-27.7	-29.1	14.6	2.88e-04	0	41	0	181403648	16	4250
2026-01-09 23:00:02.51	33.22	11.52	-27.6	-29.5	14.5	1.50e-06	0	41	0	190840832	15	4472
2026-01-09 23:00:05.51	33.54	11.75	-27.8	-30.0	14.2	3.00e-06	0	41	0	200278016	15	4625
2026-01-09 23:00:08.51	33.87	11.98	-27.8	-29.5	14.3	4.17e-04	0	41	0	208666624	16	4368
2026-01-09 23:00:11.51	34.20	12.21	-28.4	-30.4	13.6	2.05e-05	0	41	0	218103808	17	4527
2026-01-09 23:00:14.52	34.54	12.44	-28.3	-30.6	13.8	2.84e-04	0	41	0	227540992	16	4695
2026-01-09 23:00:17.53	34.88	12.68	-28.2	-29.8	14.0	3.28e-05	0	41	0	236978176	17	4347
2026-01-09 23:00:20.55	35.23	12.91	-27.4	-28.5	15.0	1.19e-04	0	41	0	246415360	16	4081
2026-01-09 23:00:23.54	35.58	13.15	-28.0	-29.3	14.1	1.57e-04	0	41	0	255852544	17	4204
2026-01-09 23:00:26.54	35.94	13.38	-28.2	-29.9	13.9	1.65e-04	0	41	0	265289728	17	4385
2026-01-09 23:00:29.54	36.31	13.62	-28.0	-29.9	14.2	1.49e-04	0	41	0	274726912	16	4481
2026-01-09 23:00:32.55	36.68	13.86	-28.0	-29.4	14.2	1.21e-04	0	41	0	284164096	17	4223
2026-01-09 23:00:35.56	37.05	14.11	-28.0	-30.0	14.2	7.00e-07	0	41	0	293601280	16	4500
2026-01-09 23:00:38.57	37.44	14.35	-27.7	-29.1	14.7	2.13e-05	0	41	0	303038464	16	4255
2026-01-09 23:00:41.57	37.82	14.59	-27.7	-29.1	14.7	0.00e+00	0	41	0	312475648	16	4254
2026-01-09 23:00:44.57	38.22	14.84	-27.8	-29.5	14.5	3.80e-06	0	41	0	321912832	16	4352
2026-01-09 23:00:47.58	38.62	15.08	-27.9	-29.6	14.4	0.00e+00	0	42	0	331350016	16	4388
2026-01-09 23:00:50.58	39.02	15.33	-28.2	-30.2	14.1	7.01e-05	0	41	0	340787200	16	4575
2026-01-09 23:00:53.59	39.44	15.58	-28.4	-30.7	13.8	7.00e-07	0	41	0	350224384	16	4710
2026-01-09 23:00:56.59	39.86	15.83	-28.0	-29.8	14.3	2.62e-04	0	41	0	359661568	16	4446
2026-01-09 23:00:59.59	40.28	16.08	-28.2	-30.2	14.1	1.50e-06	0	42	0	369098752	16	4559
2026-01-09 23:01:02.58	40.72	16.33	-28.5	-30.5	13.6	2.20e-06	0	42	0	378535936	17	4557
2026-01-09 23:01:05.58	41.16	16.59	-28.1	-29.5	14.2	2.20e-06	0	42	0	387973120	17	4234
2026-01-09 23:01:08.59	41.61	16.84	-28.1	-29.5	14.2	1.50e-06	0	42	0	397410304	17	4257
2026-01-09 23:01:11.59	42.06	17.10	-28.1	-29.6	14.2	1.50e-06	0	42	0	406847488	17	4277
2026-01-09 23:01:14.60	42.53	17.36	-28.0	-29.2	14.4	0.00e+00	0	42	0	415236096	17	4173
2026-01-09 23:01:17.60	43.00	17.61	-28.1	-29.5	14.2	7.00e-07	0	42	0	424673280	17	4256
2026-01-09 23:01:20.62	43.48	17.87	-28.2	-29.8	14.0	2.20e-06	0	42	0	434110464	17	4347
2026-01-09 23:01:23.62	43.96	18.13	-28.5	-30.5	13.7	4.50e-06	0	42	0	443547648	17	4539
2026-01-09 23:01:26.63	44.46	18.39	-28.0	-29.4	14.4	1.50e-06	0	42	0	452984832	17	4225
2026-01-09 23:01:29.65	44.97	18.65	-28.0	-29.5	14.3	7.00e-07	0	42	0	462422016	17	4232
2026-01-09 23:01:32.65	45.48	18.92	-28.1	-29.5	14.3	7.00e-07	0	42	0	471859200	17	4229
2026-01-09 23:01:35.67	46.00	19.18	-27.7	-29.1	14.8	0.00e+00	0	42	0	481296384	16	4233
2026-01-09 23:01:38.67	46.53	19.44	-27.5	-28.7	15.2	0.00e+00	0	42	0	490733568	16	4109
2026-01-09 23:01:41.66	47.07	19.70	-27.7	-29.2	14.8	0.00e+00	0	42	0	500170752	16	4252
2026-01-09 23:01:44.66	47.61	19.97	-27.1	-28.7	15.5	0.00e+00	0	42	0	509607936	14	4340
2026-01-09 23:01:47.66	48.17	20.23	-27.1	-28.9	15.4	0.00e+00	0	42	0	519045120	14	4388
2026-01-09 23:01:50.68	48.74	20.49	-27.0	-28.5	15.7	0.00e+00	0	42	0	528482304	14	4278
2026-01-09 23:01:53.69	49.32	20.76	-27.2	-29.0	15.4	0.00e+00	0	42	0	537919488	14	4427
2026-01-09 23:01:56.70	49.90	21.02	-27.1	-28.7	15.5	0.00e+00	0	42	0	547356672	14	4335
2026-01-09 23:01:59.71	50.50	21.28	-27.2	-28.9	15.4	0.00e+00	0	42	0	556793856	14	4409
2026-01-09 23:02:02.72	51.11	21.55	-26.5	-27.3	16.3	0.00e+00	0	42	0	566231040	14	3978
2026-01-09 23:02:05.72	51.72	21.81	-26.5	-27.4	16.3	0.00e+00	0	42	0	575668224	14	3982
2026-01-09 23:02:08.72	52.35	22.07	-26.4	-27.2	16.4	0.00e+00	0	42	0	585105408	14	3949
2026-01-09 23:02:11.74	52.99	22.33	-26.4	-27.6	16.4	0.00e+00	0	42	0	594542592	13	4160
2026-01-09 23:02:14.74	53.63	22.59	-26.3	-27.9	16.6	0.00e+00	0	42	0	603979776	12	4324
2026-01-09 23:02:17.75	54.29	22.85	-26.3	-27.9	16.6	0.00e+00	0	42	0	613416960	12	4329
2026-01-09 23:02:20.76	54.96	23.11	-26.2	-27.8	16.6	0.00e+00	0	42	0	622854144	12	4297
2026-01-09 23:02:23.77	55.64	23.37	-26.3	-27.9	16.6	0.00e+00	0	42	0	632291328	12	4344
2026-01-09 23:02:26.76	56.33	23.62	-26.8	-28.5	16.0	0.00e+00	0	42	0	641728512	13	4396
2026-01-09 23:02:29.77	57.03	23.87	-26.7	-28.3	16.1	0.00e+00	0	42	0	650117120	13	4341
2026-01-09 23:02:32.80	57.75	24.13	-26.9	-28.3	15.8	0.00e+00	0	42	0	660602880	14	4230
2026-01-09 23:02:35.81	58.47	24.37	-27.1	-28.7	15.7	0.00e+00	0	42	0	668991488	14	4336
2026-01-09 23:02:38.81	59.21	24.62	-27.0	-28.6	15.7	0.00e+00	0	42	0	678428672	14	4319
2026-01-09 23:02:41.81	59.95	24.86	-27.0	-28.6	15.7	0.00e+00	0	42	0	687865856	14	4305
2026-01-09 23:02:44.82	60.71	25.10	-27.1	-28.8	15.6	0.00e+00	0	42	0	697303040	14	4350
2026-01-09 23:02:47.83	61.48	25.34	-27.2	-28.9	15.5	1.50e-06	0	42	0	706740224	14	4401
2026-01-09 23:02:50.84	62.26	25.58	-27.5	-29.2	15.1	7.00e-07	0	42	0	716177408	15	4378
2026-01-09 23:02:53.84	63.05	25.81	-27.0	-28.0	15.8	0.00e+00	0	42	0	725614592	15	4033
2026-01-09 23:02:56.85	63.86	26.03	-26.7	-27.8	16.1	7.00e-07	0	42	0	735051776	14	4100
2026-01-09 23:02:59.87	64.67	26.26	-27.0	-28.4	15.8	0.00e+00	0	42	0	744488960	14	4260
2026-01-09 23:03:02.88	65.50	26.48	-27.0	-28.6	15.7	7.00e-07	0	42	0	753926144	14	4306
2026-01-09 23:03:05.88	66.34	26.69	-26.6	-27.7	16.2	0.00e+00	0	42	0	763363328	14	4063
2026-01-09 23:03:08.89	67.19	26.90	-27.0	-28.5	15.8	0.00e+00	0	42	0	772800512	14	4275
2026-01-09 23:03:11.89	68.04	27.10	-26.9	-28.3	15.9	0.00e+00	0	42	0	782237696	14	4220
2026-01-09 23:03:14.89	68.91	27.30	-26.9	-28.3	15.9	0.00e+00	0	42	0	791674880	14	4211
2026-01-09 23:03:17.90	69.79	27.50	-26.8	-28.1	16.0	0.00e+00	0	42	0	801112064	14	4172
2026-01-09 23:03:20.90	70.68	27.68	-26.6	-27.5	16.4	0.00e+00	0	42	0	810549248	14	4016
2026-01-09 23:03:23.92	71.59	27.87	-26.7	-27.8	16.2	0.00e+00	0	42	0	819986432	14	4098
2026-01-09 23:03:26.93	72.50	28.04	-26.9	-28.3	15.9	0.00e+00	0	42	0	829423616	14	4218
2026-01-09 23:03:29.94	73.42	28.21	-27.2	-28.8	15.6	0.00e+00	0	42	0	838860800	14	4370
2026-01-09 23:03:32.94	74.35	28.37	-27.1	-28.8	15.7	0.00e+00	0	42	0	848297984	14	4353
2026-01-09 23:03:35.93	75.29	28.52	-27.1	-28.7	15.7	0.00e+00	0	42	0	857735168	14	4325
2026-01-09 23:03:38.93	76.23	28.67	-27.3	-28.7	15.4	0.00e+00	0	42	0	867172352	15	4236
2026-01-09 23:03:41.93	77.19	28.81	-27.2	-28.4	15.6	0.00e+00	0	42	0	875560960	15	4132
2026-01-09 23:03:44.93	78.15	28.94	-27.1	-28.2	15.8	0.00e+00	0	42	0	884998144	15	4085
2026-01-09 23:03:47.93	79.12	29.06	-27.1	-28.3	15.7	0.00e+00	0	42	0	894435328	15	4102
2026-01-09 23:03:50.92	80.09	29.18	-27.6	-29.3	15.2	0.00e+00	0	42	0	903872512	15	4389
2026-01-09 23:03:53.93	81.08	29.28	-27.2	-28.5	15.5	0.00e+00	0	42	0	913309696	15	4178
2026-01-09 23:03:56.94	82.07	29.38	-27.4	-28.9	15.3	0.00e+00	0	42	0	922746880	15	4290
2026-01-09 23:03:59.95	83.07	29.47	-27.4	-28.8	15.4	0.00e+00	0	42	0	932184064	15	4253
2026-01-09 23:04:02.94	84.07	29.55	-27.0	-28.0	15.8	0.00e+00	0	42	0	941621248	15	4040
2026-01-09 23:04:05.94	85.08	29.62	-27.3	-28.6	15.5	0.00e+00	0	42	0	951058432	15	4190
2026-01-09 23:04:08.95	86.09	29.68	-27.0	-28.1	15.8	0.00e+00	0	42	0	960495616	15	4059
2026-01-09 23:04:11.96	87.11	29.73	-27.3	-28.7	15.5	0.00e+00	0	42	0	969932800	15	4214
2026-01-09 23:04:14.97	88.13	29.77	-27.1	-28.2	15.8	0.00e+00	0	42	0	979369984	15	4077
2026-01-09 23:04:17.98	89.15	29.80	-27.3	-28.7	15.4	0.00e+00	0	42	0	988807168	15	4228
2026-01-09 23:04:20.98	90.17	29.82	-27.3	-28.7	15.5	0.00e+00	0	42	0	998244352	15	4221
2026-01-09 23:04:23.98	91.19	29.84	-27.4	-28.8	15.4	0.00e+00	0	42	0	1007681536	15	4243
2026-01-09 23:04:27.00	92.22	29.84	-27.3	-28.7	15.5	0.00e+00	0	42	0	1017118720	15	4216
2026-01-09 23:04:30.01	93.24	29.83	-27.2	-28.5	15.6	0.00e+00	0	42	0	1026555904	15	4169
2026-01-09 23:04:33.01	94.27	29.82	-27.4	-28.9	15.4	0.00e+00	0	42	0	1035993088	15	4275
2026-01-09 23:04:36.02	95.29	29.79	-27.4	-28.9	15.4	0.00e+00	0	42	0	1045430272	15	4277
2026-01-09 23:04:39.03	96.31	29.75	-27.6	-29.4	15.0	0.00e+00	0	42	0	1054867456	15	4436
2026-01-09 23:04:42.04	97.33	29.70	-27.3	-28.7	15.5	0.00e+00	0	42	0	1064304640	15	4213
2026-01-09 23:04:45.05	98.35	29.65	-27.4	-28.8	15.4	0.00e+00	0	42	0	1073741824	15	4269
2026-01-09 23:04:48.06	99.36	29.58	-27.0	-28.0	15.9	0.00e+00	0	42	0	1083179008	15	4031
2026-01-09 23:04:51.07	100.37	29.51	-27.0	-28.1	15.8	0.00e+00	0	42	0	1092616192	15	4063
2026-01-09 23:04:54.08	101.37	29.42	-27.1	-28.3	15.7	0.00e+00	0	42	0	1101004800	15	4109
2026-01-09 23:04:57.08	102.36	29.33	-27.2	-28.5	15.6	0.00e+00	0	42	0	1110441984	15	4173
2026-01-09 23:05:00.07	103.35	29.23	-27.0	-27.9	15.9	0.00e+00	0	42	0	1119879168	15	4008
2026-01-09 23:05:03.09	104.34	29.12	-27.2	-28.4	15.7	0.00e+00	0	42	0	1129316352	15	4150
2026-01-09 23:05:06.07	105.31	29.00	-27.3	-28.7	15.5	0.00e+00	0	42	0	1138753536	15	4232
2026-01-09 23:05:09.09	106.28	28.87	-27.1	-28.2	15.7	0.00e+00	0	42	0	1148190720	15	4098
2026-01-09 23:05:12.10	107.25	28.74	-27.1	-28.1	15.8	0.00e+00	0	42	0	1157627904	15	4067
2026-01-09 23:05:15.11	108.20	28.59	-27.0	-28.0	15.8	0.00e+00	0	42	0	1167065088	15	4025
2026-01-09 23:05:18.12	109.15	28.44	-27.0	-28.5	15.7	0.00e+00	0	42	0	1176502272	14	4289
2026-01-09 23:05:21.12	110.09	28.28	-27.0	-28.4	15.9	0.00e+00	0	42	0	1185939456	14	4252
2026-01-09 23:05:24.13	111.01	28.12	-27.4	-29.4	15.2	0.00e+00	0	42	0	1195376640	14	4529
2026-01-09 23:05:27.12	111.93	27.95	-27.0	-28.4	15.8	0.00e+00	0	42	0	1204813824	14	4253
2026-01-09 23:05:30.12	112.83	27.77	-27.2	-28.9	15.5	0.00e+00	0	42	0	1214251008	14	4388
2026-01-09 23:05:33.11	113.73	27.58	-28.1	-30.0	14.4	0.00e+00	0	42	0	1223688192	16	4476
2026-01-09 23:05:36.11	114.62	27.39	-27.3	-28.2	15.5	0.00e+00	0	42	0	1233125376	16	3975
2026-01-09 23:05:39.12	115.49	27.19	-26.7	-28.0	16.0	0.00e+00	0	42	0	1242562560	14	4142
2026-01-09 23:05:42.13	116.36	26.99	-27.0	-28.4	15.7	0.00e+00	0	42	0	1251999744	14	4271
2026-01-09 23:05:45.14	117.22	26.78	-26.9	-28.4	15.7	0.00e+00	0	42	0	1261436928	14	4259
2026-01-09 23:05:48.14	118.06	26.57	-27.2	-28.9	15.4	0.00e+00	0	42	0	1270874112	14	4416
2026-01-09 23:05:51.14	118.90	26.35	-26.9	-28.3	15.8	0.00e+00	0	42	0	1280311296	14	4220
2026-01-09 23:05:54.16	119.72	26.13	-26.9	-28.4	15.7	0.00e+00	0	42	0	1289748480	14	4247
2026-01-09 23:05:57.17	120.54	25.90	-26.6	-27.6	16.1	0.00e+00	0	42	0	1299185664	14	4045
2026-01-09 23:06:00.18	121.34	25.67	-26.7	-28.4	15.9	0.00e+00	0	42	0	1307574272	13	4364
2026-01-09 23:06:03.18	122.13	25.44	-26.3	-27.5	16.4	0.00e+00	0	42	0	1317011456	13	4132
2026-01-09 23:06:06.19	122.90	25.20	-26.5	-27.9	16.2	0.00e+00	0	42	0	1327497216	13	4233
2026-01-09 23:06:09.19	123.67	24.96	-26.5	-28.0	16.3	0.00e+00	0	42	0	1335885824	13	4251
2026-01-09 23:06:12.20	124.42	24.72	-27.0	-28.6	15.6	0.00e+00	0	42	0	1345323008	14	4326
2026-01-09 23:06:15.21	125.17	24.47	-27.3	-29.2	15.3	7.00e-07	0	42	0	1354760192	14	4483
2026-01-09 23:06:18.21	125.90	24.22	-27.6	-28.9	14.9	0.00e+00	0	42	0	1364197376	16	4169
2026-01-09 23:06:21.21	126.62	23.97	-28.0	-29.8	14.5	7.00e-07	0	42	0	1373634560	16	4432
2026-01-09 23:06:24.20	127.32	23.72	-26.9	-27.7	15.8	0.00e+00	0	42	0	1383071744	15	3977
2026-01-09 23:06:27.20	128.02	23.46	-27.1	-28.8	15.4	0.00e+00	0	42	0	1392508928	14	4363
2026-01-09 23:06:30.20	128.71	23.20	-26.8	-28.1	15.8	0.00e+00	0	42	0	1401946112	14	4190
2026-01-09 23:06:33.20	129.38	22.95	-26.8	-28.0	15.8	0.00e+00	0	42	0	1411383296	14	4150
2026-01-09 23:06:36.21	130.05	22.69	-26.6	-27.7	16.0	0.00e+00	0	42	0	1420820480	14	4080
2026-01-09 23:06:39.22	130.71	22.42	-26.8	-28.2	15.7	0.00e+00	0	42	0	1430257664	14	4210
2026-01-09 23:06:42.22	131.35	22.16	-27.4	-29.4	15.0	0.00e+00	0	42	0	1439694848	14	4555
2026-01-09 23:06:45.23	131.98	21.90	-26.8	-28.2	15.7	0.00e+00	0	42	0	1449132032	14	4214
2026-01-09 23:06:48.25	132.61	21.63	-26.8	-28.1	15.4	0.00e+00	0	42	0	1458569216	14	4179
2026-01-09 23:06:51.25	133.22	21.37	-26.9	-28.4	15.2	0.00e+00	0	42	0	1468006400	14	4261
2026-01-09 23:06:54.26	133.82	21.10	-27.0	-28.5	15.5	0.00e+00	0	42	0	1477443584	14	4299
2026-01-09 23:06:57.26	134.42	20.84	-26.8	-28.2	15.6	0.00e+00	0	42	0	1486880768	14	4200
2026-01-09 23:07:00.25	135.00	20.57	-26.7	-27.9	15.8	4.57e-05	0	42	0	1496317952	14	4130
2026-01-09 23:07:03.25	135.57	20.31	-26.7	-27.9	15.8	0.00e+00	0	42	0	1505755136	14	4147
2026-01-09 23:07:06.24	136.13	20.04	-26.8	-28.1	15.7	5.03e-05	0	42	0	1514143744	14	4182
2026-01-09 23:07:09.25	136.68	19.78	-27.2	-29.0	15.1	0.00e+00	0	42	0	1523580928	14	4449
2026-01-09 23:07:12.26	137.23	19.51	-27.3	-29.2	15.0	0.00e+00	0	42	0	1533018112	14	4506
2026-01-09 23:07:15.26	137.76	19.25	-27.1	-28.9	15.1	0.00e+00	0	42	0	1542455296	14	4415
2026-01-09 23:07:18.27	138.29	18.98	-27.1	-28.8	15.1	0.00e+00	0	42	0	1551892480	14	4400
2026-01-09 23:07:21.28	138.81	18.72	-27.1	-28.8	15.1	1.61e-04	0	42	0	1561329664	14	4404
2026-01-09 23:07:24.28	139.32	18.46	-26.9	-28.4	15.3	0.00e+00	0	42	0	1570766848	14	4291
2026-01-09 23:07:27.28	139.82	18.19	-27.0	-28.7	15.2	1.40e-03	0	42	0	1580204032	14	4364
2026-01-09 23:07:30.29	140.31	17.93	-26.9	-29.0	15.2	0.00e+00	0	42	0	1589641216	13	4578
2026-01-09 23:07:33.30	140.80	17.67	-27.1	-28.8	15.0	7.77e-04	0	42	0	1599078400	14	4403
2026-01-09 23:07:36.32	141.28	17.41	-27.3	-29.4	14.6	1.65e-03	0	42	0	1608515584	14	4585
2026-01-09 23:07:39.34	141.75	17.15	-27.3	-29.3	14.7	2.31e-03	0	42	0	1617952768	14	4556
2026-01-09 23:07:42.33	142.21	16.89	-27.2	-29.1	14.7	2.02e-03	0	42	0	1627389952	14	4498
2026-01-09 23:07:45.33	142.66	16.63	-27.1	-28.8	14.9	0.00e+00	0	42	0	1636827136	14	4413
2026-01-09 23:07:48.33	143.10	16.38	-27.2	-29.2	14.6	1.87e-03	0	42	0	1646264320	14	4519
2026-01-09 23:07:51.33	143.54	16.12	-27.3	-29.0	14.4	7.00e-07	0	42	0	1655701504	15	4351
2026-01-09 23:07:54.33	143.97	15.87	-27.7	-29.8	13.9	3.29e-03	0	42	0	1665138688	15	4589
2026-01-09 23:07:57.34	144.40	15.62	-28.1	-30.3	13.5	3.05e-03	0	42	0	1674575872	16	4621
2026-01-09 23:08:00.33	144.81	15.37	-27.8	-30.2	13.7	3.49e-03	0	42	0	1684013056	15	4710
2026-01-09 23:08:03.33	145.22	15.11	-27.6	-29.6	14.0	3.97e-03	0	42	0	1692401664	15	4544
2026-01-09 23:08:06.34	145.63	14.86	-27.7	-30.0	13.8	3.68e-03	0	42	0	1702887424	15	4655
2026-01-09 23:08:09.35	146.03	14.62	-27.7	-29.9	13.9	4.22e-03	0	42	0	1712324608	15	4649
2026-01-09 23:08:12.35	146.42	14.37	-27.9	-30.3	13.7	6.10e-06	0	42	0	1720713216	15	4756
2026-01-09 23:08:15.36	146.80	14.12	-28.3	-30.7	13.3	3.50e-03	0	42	0	1730150400	16	4766
2026-01-09 23:08:18.36	147.18	13.88	-28.1	-30.4	13.5	1.44e-05	0	42	0	1739587584	16	4656
2026-01-09 23:08:21.37	147.55	13.64	-27.8	-30.1	13.7	4.10e-03	0	42	0	1749024768	15	4707
2026-01-09 23:08:24.37	147.92	13.40	-27.7	-29.9	13.9	3.94e-03	0	42	0	1758461952	15	4629
2026-01-09 23:08:27.37	148.28	13.16	-27.8	-30.2	13.7	1.14e-05	0	42	0	1767899136	15	4712
2026-01-09 23:08:30.38	148.64	12.92	-27.9	-30.5	13.5	4.29e-03	0	42	0	1777336320	15	4811
2026-01-09 23:08:33.39	148.99	12.68	-28.1	-30.4	13.4	2.51e-05	0	42	0	1786773504	16	4659
2026-01-09 23:08:36.40	149.33	12.44	-28.2	-30.6	13.2	4.21e-03	0	42	0	1796210688	16	4735
2026-01-09 23:08:39.41	149.67	12.21	-27.9	-30.5	13.4	1.44e-05	0	42	0	1805647872	15	4818
2026-01-09 23:08:42.42	150.01	11.97	-28.0	-30.2	13.5	1.22e-05	0	42	0	1815085056	16	4604
2026-01-09 23:08:45.42	150.34	11.74	-27.8	-30.3	13.4	1.83e-05	0	42	0	1824522240	15	4794
2026-01-09 23:08:48.43	150.66	11.51	-28.0	-30.6	13.2	2.44e-05	0	42	0	1833959424	15	4904
2026-01-09 23:08:51.44	150.98	11.28	-28.0	-30.7	13.1	2.67e-05	0	42	0	1843396608	15	4949
2026-01-09 23:08:54.45	151.30	11.05	-28.2	-30.6	13.1	4.88e-05	0	42	0	1852833792	16	4767
2026-01-09 23:08:57.46	151.61	10.82	-28.3	-30.8	12.9	5.79e-05	0	42	0	1862270976	16	4835
2026-01-09 23:09:00.46	151.91	10.60	-28.4	-31.3	12.6	1.11e-04	0	42	0	1871708160	16	4995
2026-01-09 23:09:03.45	152.21	10.38	-28.7	-31.5	12.1	2.43e-04	0	42	0	1881145344	17	4979
2026-01-09 23:09:06.46	152.51	10.15	-28.4	-30.7	12.6	1.59e-04	0	42	0	1890582528	17	4710
2026-01-09 23:09:09.47	152.80	9.93	-28.5	-31.4	12.5	9.23e-05	0	42	0	1900019712	16	5061
2026-01-09 23:09:12.47	153.09	9.71	-28.5	-30.8	12.5	1.49e-04	0	42	0	1909456896	17	4743
2026-01-09 23:09:15.47	153.38	9.49	-28.0	-30.4	13.1	6.02e-05	0	42	0	1918894080	16	4737
2026-01-09 23:09:18.46	153.66	9.28	-28.2	-30.8	12.7	8.69e-05	0	42	0	1927282688	16	4884
2026-01-09 23:09:21.47	153.93	9.06	-28.1	-30.5	13.0	5.95e-05	0	42	0	1936719872	16	4769
2026-01-09 23:09:24.47	154.20	8.85	-28.3	-30.9	12.8	6.17e-05	0	42	0	1946157056	16	4885
2026-01-09 23:09:27.47	154.47	8.63	-28.5	-30.9	12.5	1.02e-04	0	42	0	1955594240	17	4760
2026-01-09 23:09:30.48	154.74	8.42	-28.8	-31.8	12.0	2.84e-04	0	42	0	1965031424	17	5059
2026-01-09 23:09:33.49	155.00	8.21	-28.8	-31.8	11.9	3.28e-04	0	42	0	1974468608	17	5082
2026-01-09 23:09:36.50	155.26	8.00	-28.6	-31.4	12.2	2.72e-04	0	42	0	1983905792	17	4947
2026-01-09 23:09:39.50	155.51	7.79	-28.8	-31.7	12.0	3.94e-04	0	42	0	1993342976	17	5019
2026-01-09 23:09:42.50	155.76	7.59	-29.7	-33.2	10.2	7.32e-03	0	42	0	2002780160	19	5349
2026-01-09 23:09:45.49	156.01	7.38	-29.2	-32.3	11.3	8.77e-04	0	42	0	2012217344	18	5140
2026-01-09 23:09:48.51	156.25	7.18	-28.6	-31.2	12.2	3.85e-04	0	42	0	2021654528	17	4881
2026-01-09 23:09:51.52	156.49	6.97	-32.7	-44.7	3.8	1.49e+00	0	42	104	2026897408	25	14442

#Closed at: 2026-01-09 23:09:52
#Recorded file [2026 MB]: D:/data/31010_260110_015901.dat