passes_logs/2026/01/09/R2M6_AANII_01/R2M6_AANII_01__20260109_080222_SUOMI_NPP_rec.log

#Pass ID: 20260109_080222_SUOMI NPP
#Satellite: SUOMI NPP
#Configuration: NPP
#almurnet v.1.7.20240730
#Start time: 2026-01-09 08:02:22

#Version: 2.2.20231116
#Station: R2M6_AANII_01
#Location: 30.233357 lon 59.946436 lat
#TLE: 1 37849U 11061A   26008.05542337  .00000108  00000+0  71976-4 0  9997
#TLE: 2 37849  98.7805 310.1641 0002540  75.6410 284.5048 14.19523335735721

#Time	Az	El	Level	Level2	SNR	BER	BlckErr	Temp	State	Recorded	gain1	gain2
2026-01-09 08:02:22.87	87.00	7.03	-32.3	-39.3	4.1	1.44e+00	0	40	0	0	26	8092
2026-01-09 08:02:25.89	86.67	7.20	-32.1	-38.0	5.7	4.13e-01	0	40	0	1048576	25	7127
2026-01-09 08:02:28.91	86.33	7.38	-32.3	-38.8	5.3	4.41e-01	0	41	0	7340032	25	7674
2026-01-09 08:02:31.92	85.99	7.55	-32.2	-38.1	5.7	5.12e-01	0	41	0	12582912	25	7163
2026-01-09 08:02:34.94	85.65	7.73	-31.5	-35.1	8.3	7.90e-02	0	41	0	18874368	24	5442
2026-01-09 08:02:37.95	85.30	7.90	-31.4	-35.0	8.9	2.26e-02	0	41	0	24117248	23	5474
2026-01-09 08:02:40.96	84.95	8.07	-31.5	-35.3	8.6	3.27e-02	0	41	0	29360128	23	5625
2026-01-09 08:02:43.97	84.60	8.25	-31.5	-35.4	8.6	4.00e-02	0	41	0	35651584	23	5641
2026-01-09 08:02:46.99	84.24	8.42	-31.3	-34.7	9.2	2.31e-02	0	41	0	40894464	23	5294
2026-01-09 08:02:50.01	83.87	8.60	-31.1	-33.7	10.0	8.19e-03	0	41	0	46137344	23	4874
2026-01-09 08:02:53.02	83.51	8.77	-31.0	-33.5	10.2	5.81e-03	0	41	0	52428800	23	4783
2026-01-09 08:02:56.04	83.13	8.95	-30.8	-33.1	10.8	2.84e-03	0	41	0	57671680	22	4728
2026-01-09 08:02:59.05	82.75	9.12	-30.8	-33.3	10.7	3.35e-03	0	41	0	63963136	22	4806
2026-01-09 08:03:02.07	82.37	9.30	-30.8	-33.3	10.7	3.49e-03	0	41	0	69206016	22	4779
2026-01-09 08:03:05.09	81.98	9.48	-30.8	-33.3	10.7	3.33e-03	0	41	0	74448896	22	4801
2026-01-09 08:03:08.10	81.59	9.65	-30.7	-33.0	10.9	2.19e-03	0	41	0	80740352	22	4697
2026-01-09 08:03:11.12	81.20	9.83	-30.9	-33.8	10.4	4.50e-03	0	41	0	85983232	22	5006
2026-01-09 08:03:14.14	80.79	10.00	-30.7	-33.1	10.8	2.32e-03	0	42	0	92274688	22	4751
2026-01-09 08:03:17.15	80.39	10.18	-30.9	-33.7	10.4	5.86e-03	0	41	0	97517568	22	4973
2026-01-09 08:03:20.16	79.98	10.35	-30.7	-32.9	11.0	2.11e-03	0	42	0	102760448	22	4687
2026-01-09 08:03:23.17	79.56	10.52	-30.6	-32.8	11.1	1.36e-03	0	42	0	109051904	22	4638
2026-01-09 08:03:26.19	79.14	10.70	-30.9	-33.6	10.6	3.62e-03	0	42	0	114294784	22	4918
2026-01-09 08:03:29.22	78.71	10.87	-30.7	-33.1	11.0	2.28e-03	0	42	0	120586240	22	4729
2026-01-09 08:03:32.24	78.28	11.05	-30.9	-33.6	10.6	3.23e-03	0	42	0	125829120	22	4919
2026-01-09 08:03:35.26	77.84	11.22	-30.9	-33.7	10.6	4.34e-03	0	42	0	131072000	22	4963
2026-01-09 08:03:38.27	77.40	11.39	-31.2	-34.8	9.7	7.28e-03	0	42	0	137363456	22	5437
2026-01-09 08:03:41.29	76.95	11.57	-31.2	-34.7	9.8	1.14e-02	0	42	0	142606336	22	5377
2026-01-09 08:03:44.31	76.50	11.74	-31.2	-34.6	9.9	1.17e-02	0	42	0	148897792	22	5340
2026-01-09 08:03:47.33	76.04	11.91	-30.9	-33.6	10.7	3.00e-03	0	42	0	154140672	22	4911
2026-01-09 08:03:50.35	75.57	12.08	-30.9	-33.5	10.8	2.33e-03	0	42	0	159383552	22	4871
2026-01-09 08:03:53.36	75.10	12.25	-30.9	-33.7	10.6	3.58e-03	0	42	0	165675008	22	4953
2026-01-09 08:03:56.37	74.63	12.42	-30.9	-33.5	10.8	3.40e-03	0	42	0	170917888	22	4881
2026-01-09 08:03:59.40	74.15	12.59	-30.8	-33.2	11.0	1.52e-03	0	42	0	177209344	22	4764
2026-01-09 08:04:02.41	73.66	12.76	-30.5	-32.2	11.7	5.31e-04	0	42	0	182452224	22	4407
2026-01-09 08:04:05.43	73.17	12.92	-30.1	-31.8	12.3	1.94e-04	0	42	0	187695104	21	4375
2026-01-09 08:04:08.45	72.67	13.09	-29.9	-31.2	12.8	1.35e-04	0	42	0	193986560	21	4154
2026-01-09 08:04:11.47	72.17	13.25	-29.9	-31.1	12.8	4.04e-05	0	42	0	199229440	21	4147
2026-01-09 08:04:14.48	71.66	13.42	-29.9	-31.2	12.8	6.17e-05	0	42	0	205520896	21	4149
2026-01-09 08:04:17.50	71.15	13.58	-30.0	-31.3	12.7	1.20e-04	0	42	0	210763776	21	4194
2026-01-09 08:04:20.52	70.63	13.74	-30.0	-31.3	12.7	7.55e-05	0	42	0	216006656	21	4198
2026-01-09 08:04:23.54	70.10	13.90	-29.8	-30.7	13.1	6.25e-05	0	42	0	222298112	21	4010
2026-01-09 08:04:26.56	69.57	14.06	-30.1	-31.7	12.4	1.20e-04	0	42	0	227540992	21	4337
2026-01-09 08:04:29.58	69.03	14.22	-30.1	-31.7	12.4	1.25e-04	0	42	0	233832448	21	4339
2026-01-09 08:04:32.59	68.49	14.37	-30.3	-32.2	12.1	2.37e-04	0	42	0	239075328	21	4496
2026-01-09 08:04:35.60	67.94	14.53	-30.1	-31.7	12.5	1.83e-04	0	42	0	244318208	21	4300
2026-01-09 08:04:38.62	67.38	14.68	-29.9	-31.0	13.1	6.79e-05	0	43	0	250609664	21	4071
2026-01-09 08:04:41.63	66.83	14.83	-29.8	-31.1	13.3	1.29e-05	0	42	0	255852544	20	4191
2026-01-09 08:04:44.65	66.26	14.98	-29.8	-31.1	13.3	1.14e-05	0	42	0	261095424	20	4193
2026-01-09 08:04:47.67	65.69	15.12	-29.8	-31.1	13.3	2.13e-05	0	42	0	267386880	20	4195
2026-01-09 08:04:50.69	65.11	15.27	-30.2	-32.2	12.6	1.01e-04	0	42	0	272629760	20	4566
2026-01-09 08:04:53.70	64.53	15.41	-29.8	-31.2	13.3	2.36e-05	0	42	0	278921216	20	4220
2026-01-09 08:04:56.72	63.94	15.55	-29.6	-30.6	13.7	7.60e-06	0	42	0	284164096	20	4052
2026-01-09 08:04:59.74	63.34	15.69	-29.7	-31.0	13.5	1.06e-05	0	43	0	289406976	20	4152
2026-01-09 08:05:02.76	62.74	15.82	-29.8	-31.0	13.4	1.14e-05	0	43	0	295698432	20	4167
2026-01-09 08:05:05.78	62.14	15.96	-29.7	-30.8	13.6	1.37e-05	0	42	0	300941312	20	4102
2026-01-09 08:05:08.80	61.53	16.09	-29.5	-30.3	13.9	3.00e-06	0	42	0	307232768	20	3940
2026-01-09 08:05:11.81	60.91	16.22	-29.6	-31.0	13.8	7.00e-07	0	43	0	312475648	19	4237
2026-01-09 08:05:14.83	60.29	16.34	-30.0	-32.0	13.2	1.22e-05	0	42	0	317718528	19	4555
2026-01-09 08:05:17.84	59.66	16.46	-29.9	-31.9	13.3	1.06e-05	0	42	0	324009984	19	4533
2026-01-09 08:05:20.85	59.04	16.58	-29.6	-30.6	13.8	4.50e-06	0	43	0	329252864	20	4035
2026-01-09 08:05:23.87	58.40	16.70	-29.2	-30.0	14.5	2.20e-06	0	43	0	335544320	19	3947
2026-01-09 08:05:26.88	57.76	16.81	-28.9	-29.2	15.0	0.00e+00	0	42	0	340787200	19	3719
2026-01-09 08:05:29.90	57.11	16.92	-28.8	-29.4	15.3	0.00e+00	0	43	0	346030080	18	3870
2026-01-09 08:05:32.92	56.46	17.03	-28.8	-29.3	15.2	0.00e+00	0	43	0	352321536	18	3836
2026-01-09 08:05:35.93	55.81	17.13	-29.3	-30.7	14.5	0.00e+00	0	43	0	357564416	18	4217
2026-01-09 08:05:38.95	55.15	17.23	-29.6	-30.9	14.0	7.00e-07	0	42	0	363855872	19	4174
2026-01-09 08:05:41.96	54.48	17.33	-30.0	-31.9	13.4	5.30e-06	0	43	0	369098752	19	4502
2026-01-09 08:05:44.98	53.81	17.42	-29.7	-31.3	13.7	3.00e-06	0	42	0	374341632	19	4307
2026-01-09 08:05:48.00	53.14	17.51	-30.0	-31.4	13.3	1.83e-05	0	43	0	380633088	20	4273
2026-01-09 08:05:51.01	52.47	17.60	-29.9	-31.3	13.3	1.52e-05	0	43	0	385875968	20	4249
2026-01-09 08:05:54.03	51.79	17.68	-30.1	-31.8	13.0	2.13e-05	0	42	0	392167424	20	4402
2026-01-09 08:05:57.05	51.10	17.76	-29.8	-31.0	13.6	6.10e-06	0	43	0	397410304	20	4147
2026-01-09 08:06:00.07	50.41	17.83	-29.6	-30.4	14.0	7.00e-07	0	43	0	402653184	20	3958
2026-01-09 08:06:03.09	49.72	17.90	-29.6	-30.5	13.9	3.00e-06	0	43	0	408944640	20	3998
2026-01-09 08:06:06.11	49.03	17.97	-29.5	-30.8	14.0	1.50e-06	0	43	0	414187520	19	4164
2026-01-09 08:06:09.12	48.33	18.03	-29.6	-31.0	13.9	1.50e-06	0	43	0	420478976	19	4242
2026-01-09 08:06:12.15	47.63	18.09	-30.1	-32.0	12.8	2.97e-05	0	43	0	425721856	20	4480
2026-01-09 08:06:15.16	46.93	18.14	-30.6	-33.0	11.8	3.47e-04	0	43	0	430964736	21	4739
2026-01-09 08:06:18.18	46.23	18.19	-30.4	-32.4	12.1	2.97e-04	0	43	0	437256192	21	4523
2026-01-09 08:06:21.20	45.52	18.23	-30.6	-32.9	11.9	4.36e-04	0	43	0	442499072	21	4715
2026-01-09 08:06:24.21	44.81	18.27	-30.3	-32.0	12.4	2.27e-04	0	43	0	447741952	21	4407
2026-01-09 08:06:27.23	44.10	18.31	-30.1	-31.5	12.8	7.47e-05	0	42	0	454033408	21	4235
2026-01-09 08:06:30.25	43.39	18.34	-30.0	-31.3	12.9	5.18e-05	0	42	0	459276288	21	4179
2026-01-09 08:06:33.27	42.68	18.36	-29.6	-30.5	13.9	5.30e-06	0	43	0	465567744	20	4005
2026-01-09 08:06:36.29	41.96	18.39	-29.8	-31.1	13.5	9.90e-06	0	42	0	470810624	20	4176
2026-01-09 08:06:39.30	41.25	18.40	-30.0	-31.8	13.0	2.13e-05	0	42	0	476053504	20	4406
2026-01-09 08:06:42.32	40.53	18.42	-30.1	-31.9	12.8	4.65e-05	0	42	0	482344960	20	4432
2026-01-09 08:06:45.34	39.82	18.42	-29.9	-31.5	13.1	4.88e-05	0	43	0	487587840	20	4306
2026-01-09 08:06:48.36	39.10	18.43	-29.8	-31.2	13.3	2.05e-05	0	43	0	493879296	20	4207
2026-01-09 08:06:51.38	38.38	18.43	-29.9	-31.5	13.1	1.90e-05	0	43	0	499122176	20	4315
2026-01-09 08:06:54.39	37.67	18.42	-30.6	-32.9	11.8	3.10e-04	0	43	0	504365056	21	4688
2026-01-09 08:06:57.41	36.95	18.41	-30.5	-32.6	12.0	3.80e-04	0	43	0	510656512	21	4594
2026-01-09 08:07:00.42	36.24	18.39	-30.0	-31.3	12.9	5.18e-05	0	43	0	515899392	21	4154
2026-01-09 08:07:03.45	35.52	18.37	-30.1	-31.5	12.8	6.17e-05	0	43	0	522190848	21	4200
2026-01-09 08:07:06.47	34.81	18.35	-30.1	-32.0	12.7	6.33e-05	0	43	0	527433728	20	4456
2026-01-09 08:07:09.49	34.10	18.32	-30.0	-31.6	13.1	1.98e-05	0	43	0	532676608	20	4312
2026-01-09 08:07:12.50	33.39	18.29	-30.1	-32.0	12.9	6.25e-05	0	43	0	538968064	20	4443
2026-01-09 08:07:15.52	32.68	18.25	-29.4	-30.0	14.1	1.50e-06	0	43	0	544210944	20	3855
2026-01-09 08:07:18.54	31.97	18.21	-29.1	-29.7	14.6	0.00e+00	0	43	0	550502400	19	3864
2026-01-09 08:07:21.56	31.27	18.16	-28.7	-29.3	15.2	0.00e+00	0	43	0	555745280	18	3832
2026-01-09 08:07:24.57	30.57	18.11	-28.8	-29.5	15.1	0.00e+00	0	43	0	560988160	18	3894
2026-01-09 08:07:27.59	29.87	18.05	-29.1	-30.2	14.7	0.00e+00	0	43	0	567279616	18	4075
2026-01-09 08:07:30.60	29.17	17.99	-29.3	-30.8	14.3	7.00e-07	0	43	0	572522496	18	4245
2026-01-09 08:07:33.62	28.48	17.93	-29.5	-30.6	14.1	3.80e-06	0	43	0	578813952	19	4108
2026-01-09 08:07:36.64	27.79	17.86	-29.2	-30.1	14.5	0.00e+00	0	43	0	584056832	19	3952
2026-01-09 08:07:39.66	27.10	17.79	-29.7	-31.3	13.6	3.80e-06	0	43	0	589299712	19	4320
2026-01-09 08:07:42.68	26.42	17.71	-30.2	-32.2	12.6	7.40e-05	0	43	0	595591168	20	4530
2026-01-09 08:07:45.70	25.73	17.63	-30.4	-32.1	12.4	1.36e-04	0	43	0	600834048	21	4410
2026-01-09 08:07:48.72	25.06	17.55	-30.4	-32.1	12.3	3.05e-04	0	43	0	607125504	21	4417
2026-01-09 08:07:51.74	24.38	17.46	-30.2	-31.8	12.5	5.41e-05	0	43	0	612368384	21	4295
2026-01-09 08:07:54.76	23.71	17.37	-30.3	-32.1	12.3	1.63e-04	0	43	0	617611264	21	4420
2026-01-09 08:07:57.78	23.05	17.28	-30.6	-33.0	11.7	3.15e-04	0	43	0	623902720	21	4740
2026-01-09 08:08:00.80	22.39	17.18	-30.6	-33.0	11.7	3.82e-04	0	43	0	629145600	21	4712
2026-01-09 08:08:03.82	21.73	17.07	-30.1	-31.3	12.9	5.95e-05	0	43	0	635437056	21	4147
2026-01-09 08:08:06.82	21.08	16.97	-30.3	-31.8	12.5	6.79e-05	0	43	0	640679936	21	4325
2026-01-09 08:08:09.85	20.44	16.86	-30.1	-31.5	12.7	1.11e-04	0	43	0	645922816	21	4203
2026-01-09 08:08:12.86	19.80	16.75	-29.8	-30.7	13.3	2.97e-05	0	43	0	652214272	21	3977
2026-01-09 08:08:15.88	19.16	16.63	-29.4	-30.4	14.1	7.00e-07	0	43	0	657457152	19	4058
2026-01-09 08:08:18.89	18.53	16.52	-29.3	-30.2	14.3	1.50e-06	0	43	0	663748608	19	3979
2026-01-09 08:08:21.91	17.90	16.40	-29.3	-30.2	14.2	0.00e+00	0	43	0	668991488	19	4007
2026-01-09 08:08:24.93	17.28	16.27	-30.0	-31.6	13.0	9.90e-06	0	43	0	674234368	20	4319
2026-01-09 08:08:27.95	16.66	16.14	-30.6	-32.9	11.8	5.88e-04	0	43	0	680525824	21	4681
2026-01-09 08:08:30.97	16.05	16.02	-30.4	-32.2	12.1	3.49e-04	0	43	0	685768704	21	4476
2026-01-09 08:08:33.99	15.44	15.88	-30.1	-31.5	12.6	7.93e-05	0	43	0	692060160	21	4221
2026-01-09 08:08:37.01	14.84	15.75	-30.4	-32.4	12.0	1.62e-04	0	43	0	697303040	21	4520
2026-01-09 08:08:40.03	14.25	15.61	-30.3	-32.2	12.2	2.40e-04	0	43	0	702545920	21	4470
2026-01-09 08:08:43.05	13.66	15.47	-30.1	-31.5	12.6	1.14e-04	0	43	0	708837376	21	4236
2026-01-09 08:08:46.08	13.07	15.33	-29.9	-31.0	12.9	5.03e-05	0	43	0	714080256	21	4091
2026-01-09 08:08:49.09	12.50	15.19	-29.9	-30.9	13.0	4.42e-05	0	43	0	720371712	21	4055
2026-01-09 08:08:52.11	11.92	15.04	-29.6	-30.7	13.4	1.29e-05	0	43	0	725614592	20	4089
2026-01-09 08:08:55.14	11.36	14.89	-30.0	-31.7	12.7	7.09e-05	0	43	0	730857472	20	4408
2026-01-09 08:08:58.16	10.79	14.74	-29.9	-31.5	12.9	6.48e-05	0	43	0	737148928	20	4323
2026-01-09 08:09:01.18	10.24	14.59	-29.7	-30.9	13.3	2.13e-05	0	43	0	742391808	20	4128
2026-01-09 08:09:04.20	9.69	14.44	-30.1	-32.1	12.5	8.39e-05	0	43	0	748683264	20	4512
2026-01-09 08:09:07.21	9.15	14.29	-30.7	-33.4	11.3	7.75e-04	0	43	0	753926144	21	4891
2026-01-09 08:09:10.22	8.61	14.13	-31.3	-35.0	9.7	1.03e-02	0	43	0	759169024	22	5501
2026-01-09 08:09:13.24	8.08	13.97	-31.2	-34.1	10.0	1.03e-02	0	43	0	765460480	23	5010
2026-01-09 08:09:16.24	7.56	13.81	-30.8	-32.9	10.9	3.34e-03	0	43	0	770703360	23	4542
2026-01-09 08:09:19.26	7.03	13.65	-31.0	-33.4	10.5	3.95e-03	0	43	0	776994816	23	4748
2026-01-09 08:09:22.29	6.52	13.49	-30.6	-32.5	11.5	1.21e-03	0	43	0	782237696	22	4492
2026-01-09 08:09:25.31	6.01	13.33	-30.6	-32.4	11.5	6.81e-04	0	43	0	787480576	22	4468
2026-01-09 08:09:28.32	5.51	13.17	-30.8	-33.2	11.0	1.98e-03	0	43	0	793772032	22	4726
2026-01-09 08:09:31.34	5.01	13.00	-30.7	-32.9	11.2	1.91e-03	0	43	0	799014912	22	4628
2026-01-09 08:09:34.36	4.52	12.83	-30.3	-31.8	12.0	7.51e-04	0	43	0	805306368	22	4242
2026-01-09 08:09:37.38	4.03	12.67	-30.0	-31.3	12.7	7.01e-05	0	43	0	810549248	21	4169
2026-01-09 08:09:40.40	3.55	12.50	-30.1	-31.6	12.5	1.17e-04	0	43	0	815792128	21	4261
2026-01-09 08:09:43.41	3.07	12.33	-30.2	-31.9	12.2	2.50e-04	0	43	0	822083584	21	4375
2026-01-09 08:09:46.42	2.61	12.16	-30.5	-32.7	11.6	5.04e-04	0	43	0	827326464	21	4653
2026-01-09 08:09:49.45	2.14	11.99	-30.6	-33.2	11.2	1.30e-03	0	43	0	833617920	21	4828
2026-01-09 08:09:52.46	1.68	11.82	-30.7	-33.3	11.2	1.08e-03	0	43	0	838860800	21	4851
2026-01-09 08:09:55.48	1.23	11.65	-30.1	-31.6	12.3	1.96e-04	0	43	0	844103680	21	4287
2026-01-09 08:09:58.49	0.78	11.48	-29.9	-31.1	12.7	6.86e-05	0	43	0	850395136	21	4105
2026-01-09 08:10:01.52	0.34	11.31	-29.7	-31.0	13.1	3.28e-05	0	43	0	855638016	20	4157
2026-01-09 08:10:04.54	359.90	11.13	-29.3	-30.4	13.9	1.50e-06	0	43	0	861929472	19	4069
2026-01-09 08:10:07.55	359.47	10.96	-29.7	-31.3	13.2	1.14e-05	0	43	0	867172352	19	4364
2026-01-09 08:10:10.56	359.04	10.79	-29.9	-31.9	12.9	6.48e-05	0	43	0	872415232	19	4532
2026-01-09 08:10:13.57	358.62	10.61	-29.7	-31.4	13.3	2.82e-05	0	43	0	878706688	19	4367
2026-01-09 08:10:16.59	358.21	10.44	-29.7	-30.9	13.0	3.50e-05	0	43	0	883949568	20	4149
2026-01-09 08:10:19.61	357.79	10.27	-29.6	-30.6	13.3	1.75e-05	0	43	0	889192448	20	4059
2026-01-09 08:10:22.63	357.39	10.09	-29.5	-30.5	13.4	2.13e-05	0	43	0	895483904	20	4031
2026-01-09 08:10:25.65	356.99	9.92	-29.8	-31.3	12.8	6.25e-05	0	43	0	900726784	20	4291
2026-01-09 08:10:28.66	356.59	9.74	-30.2	-32.4	12.1	2.69e-04	0	43	0	907018240	20	4644
2026-01-09 08:10:31.69	356.20	9.57	-30.2	-32.5	11.9	4.86e-04	0	43	0	912261120	20	4676
2026-01-09 08:10:34.71	355.81	9.39	-30.3	-32.9	11.6	7.03e-04	0	43	0	917504000	20	4833
2026-01-09 08:10:37.72	355.43	9.22	-30.0	-31.9	12.3	2.22e-04	0	43	0	923795456	20	4488
2026-01-09 08:10:40.74	355.05	9.04	-30.0	-32.0	12.3	1.55e-04	0	43	0	929038336	20	4501
2026-01-09 08:10:43.75	354.68	8.87	-30.1	-32.1	12.2	2.40e-04	0	43	0	935329792	20	4553
2026-01-09 08:10:46.76	354.31	8.69	-30.3	-32.9	11.6	5.87e-04	0	43	0	940572672	20	4823
2026-01-09 08:10:49.78	353.95	8.52	-30.7	-33.5	10.8	2.89e-03	0	43	0	945815552	21	4981
2026-01-09 08:10:52.80	353.59	8.34	-30.3	-32.2	11.5	1.08e-03	0	43	0	952107008	21	4504
2026-01-09 08:10:55.82	353.23	8.17	-30.2	-32.1	11.7	3.86e-04	0	43	0	957349888	21	4480
2026-01-09 08:10:58.84	352.88	8.00	-30.0	-31.4	12.1	3.71e-04	0	43	0	963641344	21	4253
2026-01-09 08:11:01.86	352.54	7.82	-29.8	-31.3	12.6	9.68e-05	0	43	0	968884224	20	4300
2026-01-09 08:11:04.89	352.19	7.65	-30.0	-31.8	12.2	1.94e-04	0	43	0	974127104	20	4476
2026-01-09 08:11:07.90	351.86	7.47	-30.2	-32.5	11.7	3.68e-04	0	43	0	980418560	20	4689
2026-01-09 08:11:10.92	351.52	7.30	-30.3	-32.9	11.4	7.01e-04	0	43	0	985661440	20	4857
2026-01-09 08:11:13.95	351.19	7.13	-30.6	-33.4	10.7	1.76e-03	0	43	0	991952896	21	4966
2026-01-09 08:11:16.96	350.87	6.95	-33.3	-45.6	3.8	1.49e+00	0	43	104	994050048	26	14960

#Closed at: 2026-01-09 08:11:18
#Recorded file [994 MB]: D:/data/31010_260109_110224.dat