passes_logs/2026/01/09/R2M6_AANII_01/R2M6_AANII_01__20260109_091100_NOAA_21_JPSS-2_rec.log

#Pass ID: 20260109_091100_NOAA 21 (JPSS-2)
#Satellite: NOAA 21 (JPSS-2)
#Configuration: NOAA 21
#almurnet v.1.7.20240730
#Start time: 2026-01-09 09:11:02

#Version: 2.2.20231116
#Station: R2M6_AANII_01
#Location: 30.233357 lon 59.946436 lat
#TLE: 1 54234U 22150A   26008.45757862  .00000119  00000+0  77172-4 0  9996
#TLE: 2 54234  98.7494 309.4367 0000894 328.2777  31.8345 14.19533328163889

#Time	Az	El	Level	Level2	SNR	BER	BlckErr	Temp	State	Recorded	gain1	gain2
2026-01-09 09:11:02.48	125.07	7.13	-30.6	-35.1	4.6	1.40e+00	0	40	0	0	22	6014
2026-01-09 09:11:05.50	124.90	7.35	-30.5	-33.9	9.0	2.44e-02	0	40	0	3145728	22	5337
2026-01-09 09:11:08.51	124.73	7.58	-30.2	-33.3	9.8	1.41e-02	0	41	0	12582912	21	5178
2026-01-09 09:11:11.51	124.55	7.80	-29.3	-31.8	11.6	8.54e-04	0	41	0	22020096	19	4804
2026-01-09 09:11:14.52	124.38	8.03	-28.9	-30.7	12.3	1.77e-04	0	41	0	30408704	19	4443
2026-01-09 09:11:17.54	124.20	8.26	-28.6	-30.5	12.9	5.03e-05	0	41	0	40894464	18	4463
2026-01-09 09:11:20.55	124.01	8.49	-28.5	-30.2	13.1	3.35e-05	0	41	0	49283072	18	4383
2026-01-09 09:11:23.57	123.83	8.72	-28.5	-30.2	13.1	3.35e-05	0	41	0	58720256	18	4376
2026-01-09 09:11:26.59	123.64	8.95	-28.6	-30.4	13.0	2.67e-05	0	41	0	69206016	18	4443
2026-01-09 09:11:29.61	123.44	9.19	-28.5	-30.0	13.3	1.29e-05	0	41	0	77594624	18	4319
2026-01-09 09:11:32.62	123.25	9.42	-28.4	-29.9	13.4	1.98e-05	0	41	0	87031808	18	4277
2026-01-09 09:11:35.64	123.05	9.66	-28.4	-29.8	13.4	1.29e-05	0	41	0	96468992	18	4259
2026-01-09 09:11:38.66	122.84	9.91	-28.3	-29.7	13.6	6.10e-06	0	41	0	105906176	18	4205
2026-01-09 09:11:41.68	122.64	10.15	-28.2	-29.9	13.7	1.37e-05	0	41	0	116391936	17	4383
2026-01-09 09:11:44.69	122.43	10.40	-28.3	-30.1	13.7	1.06e-05	0	41	0	124780544	17	4424
2026-01-09 09:11:47.70	122.21	10.64	-28.2	-29.9	13.8	1.37e-05	0	42	0	134217728	17	4363
2026-01-09 09:11:50.72	122.00	10.89	-28.3	-30.1	13.7	1.29e-05	0	41	0	143654912	17	4428
2026-01-09 09:11:53.73	121.77	11.14	-27.9	-29.2	14.2	1.14e-05	0	42	0	153092096	17	4168
2026-01-09 09:11:56.75	121.55	11.40	-27.9	-29.2	14.3	2.36e-05	0	42	0	162529280	17	4158
2026-01-09 09:11:59.77	121.32	11.66	-28.0	-29.4	14.1	0.00e+00	0	42	0	171966464	17	4225
2026-01-09 09:12:02.79	121.08	11.92	-27.9	-29.2	14.3	1.50e-06	0	42	0	181403648	17	4160
2026-01-09 09:12:05.81	120.85	12.18	-28.0	-29.3	14.2	0.00e+00	0	42	0	190840832	17	4188
2026-01-09 09:12:08.84	120.60	12.44	-27.8	-29.3	14.5	7.00e-07	0	42	0	200278016	16	4306
2026-01-09 09:12:11.85	120.36	12.71	-27.7	-29.2	14.6	0.00e+00	0	42	0	209715200	16	4271
2026-01-09 09:12:14.87	120.10	12.97	-27.7	-29.1	14.7	0.00e+00	0	42	0	219152384	16	4236
2026-01-09 09:12:17.89	119.85	13.24	-27.7	-29.3	14.6	0.00e+00	0	42	0	228589568	16	4300
2026-01-09 09:12:20.91	119.59	13.52	-27.7	-29.2	14.6	0.00e+00	0	42	0	238026752	16	4273
2026-01-09 09:12:23.93	119.32	13.79	-27.7	-29.2	14.7	0.00e+00	0	42	0	247463936	16	4266
2026-01-09 09:12:26.94	119.05	14.07	-27.7	-29.1	14.7	7.00e-07	0	42	0	256901120	16	4235
2026-01-09 09:12:29.96	118.77	14.35	-27.6	-28.9	14.9	0.00e+00	0	42	0	266338304	16	4181
2026-01-09 09:12:32.97	118.49	14.63	-27.6	-28.9	14.9	0.00e+00	0	42	0	275775488	16	4178
2026-01-09 09:12:35.98	118.20	14.92	-27.5	-28.8	15.0	0.00e+00	0	42	0	285212672	16	4145
2026-01-09 09:12:38.99	117.91	15.21	-27.6	-28.8	14.9	0.00e+00	0	42	0	294649856	16	4159
2026-01-09 09:12:42.00	117.61	15.50	-27.6	-29.0	14.8	0.00e+00	0	42	0	304087040	16	4206
2026-01-09 09:12:45.02	117.30	15.79	-27.7	-29.2	14.7	0.00e+00	0	42	0	313524224	16	4267
2026-01-09 09:12:48.04	116.99	16.09	-28.0	-29.9	14.3	1.50e-06	0	42	0	322961408	16	4463
2026-01-09 09:12:51.06	116.67	16.39	-27.7	-29.2	14.8	0.00e+00	0	42	0	332398592	16	4261
2026-01-09 09:12:54.08	116.35	16.69	-27.8	-29.4	14.7	7.00e-07	0	42	0	341835776	16	4315
2026-01-09 09:12:57.09	116.02	16.99	-27.7	-29.2	14.8	0.00e+00	0	42	0	351272960	16	4257
2026-01-09 09:13:00.12	115.68	17.30	-27.9	-29.5	14.7	0.00e+00	0	42	0	360710144	16	4340
2026-01-09 09:13:03.13	115.33	17.61	-27.8	-29.4	14.8	7.00e-07	0	42	0	370147328	16	4305
2026-01-09 09:13:06.16	114.98	17.92	-27.8	-29.4	14.7	7.00e-07	0	42	0	379584512	16	4315
2026-01-09 09:13:09.18	114.62	18.24	-28.0	-29.7	14.6	0.00e+00	0	42	0	389021696	16	4394
2026-01-09 09:13:12.19	114.25	18.56	-27.9	-29.5	14.7	0.00e+00	0	42	0	398458880	16	4347
2026-01-09 09:13:15.21	113.87	18.88	-27.7	-29.2	14.9	0.00e+00	0	42	0	407896064	16	4257
2026-01-09 09:13:18.23	113.49	19.20	-27.5	-28.6	15.3	0.00e+00	0	42	0	417333248	16	4087
2026-01-09 09:13:21.24	113.10	19.53	-27.5	-28.7	15.2	0.00e+00	0	42	0	426770432	16	4126
2026-01-09 09:13:24.26	112.69	19.86	-27.6	-28.8	15.2	0.00e+00	0	42	0	436207616	16	4138
2026-01-09 09:13:27.28	112.28	20.19	-27.4	-28.5	15.4	0.00e+00	0	42	0	445644800	16	4053
2026-01-09 09:13:30.29	111.86	20.53	-27.4	-28.4	15.5	0.00e+00	0	42	0	455081984	16	4029
2026-01-09 09:13:33.31	111.43	20.87	-27.0	-28.1	15.7	0.00e+00	0	42	0	464519168	15	4066
2026-01-09 09:13:36.32	111.00	21.21	-26.9	-27.8	15.9	0.00e+00	0	42	0	473956352	15	3979
2026-01-09 09:13:39.34	110.55	21.55	-26.8	-27.7	16.0	0.00e+00	0	42	0	483393536	15	3956
2026-01-09 09:13:42.35	110.09	21.90	-26.9	-27.8	15.9	0.00e+00	0	42	0	492830720	15	3982
2026-01-09 09:13:45.38	109.62	22.25	-26.6	-27.7	16.3	0.00e+00	0	42	0	502267904	14	4058
2026-01-09 09:13:48.39	109.14	22.60	-26.8	-28.0	16.1	0.00e+00	0	43	0	511705088	14	4151
2026-01-09 09:13:51.41	108.65	22.96	-26.7	-27.9	16.2	0.00e+00	0	43	0	521142272	14	4123
2026-01-09 09:13:54.44	108.14	23.32	-26.8	-28.0	16.1	0.00e+00	0	42	0	530579456	14	4136
2026-01-09 09:13:57.45	107.63	23.68	-26.6	-27.5	16.4	0.00e+00	0	42	0	540016640	14	4018
2026-01-09 09:14:00.48	107.10	24.04	-26.6	-27.6	16.4	0.00e+00	0	42	0	549453824	14	4033
2026-01-09 09:14:03.49	106.56	24.40	-26.5	-27.4	16.5	0.00e+00	0	42	0	558891008	14	3990
2026-01-09 09:14:06.51	106.01	24.77	-26.5	-27.4	16.5	0.00e+00	0	43	0	568328192	14	3996
2026-01-09 09:14:09.53	105.44	25.14	-26.8	-28.0	16.2	0.00e+00	0	43	0	577765376	14	4145
2026-01-09 09:14:12.53	104.86	25.51	-26.8	-27.9	16.2	0.00e+00	0	43	0	587202560	14	4126
2026-01-09 09:14:15.54	104.27	25.88	-26.7	-27.8	16.3	0.00e+00	0	42	0	596639744	14	4090
2026-01-09 09:14:18.57	103.66	26.26	-26.8	-28.0	16.2	0.00e+00	0	42	0	606076928	14	4134
2026-01-09 09:14:21.58	103.04	26.64	-27.0	-28.6	15.9	0.00e+00	0	42	0	615514112	14	4307
2026-01-09 09:14:24.61	102.40	27.02	-27.1	-28.7	15.8	0.00e+00	0	43	0	624951296	14	4329
2026-01-09 09:14:27.61	101.75	27.39	-27.0	-28.5	16.0	0.00e+00	0	43	0	634388480	14	4283
2026-01-09 09:14:30.64	101.08	27.77	-27.2	-29.0	15.7	0.00e+00	0	43	0	643825664	14	4413
2026-01-09 09:14:33.67	100.39	28.16	-27.7	-29.6	15.1	7.00e-07	0	43	0	653262848	15	4483
2026-01-09 09:14:36.69	99.69	28.54	-27.3	-28.6	15.7	0.00e+00	0	42	0	662700032	15	4184
2026-01-09 09:14:39.71	98.97	28.92	-27.3	-28.6	15.7	0.00e+00	0	42	0	672137216	15	4195
2026-01-09 09:14:42.72	98.24	29.30	-27.3	-28.7	15.6	0.00e+00	0	42	0	681574400	15	4218
2026-01-09 09:14:45.73	97.49	29.68	-27.6	-29.4	15.3	0.00e+00	0	42	0	691011584	15	4404
2026-01-09 09:14:48.75	96.71	30.06	-27.6	-29.4	15.2	0.00e+00	0	43	0	700448768	15	4416
2026-01-09 09:14:51.76	95.92	30.44	-27.8	-29.9	15.0	0.00e+00	0	42	0	709885952	15	4555
2026-01-09 09:14:54.79	95.11	30.82	-27.7	-29.4	15.3	0.00e+00	0	43	0	719323136	15	4418
2026-01-09 09:14:57.81	94.28	31.20	-27.8	-29.7	15.1	0.00e+00	0	43	0	728760320	15	4506
2026-01-09 09:15:00.81	93.44	31.57	-27.8	-29.7	15.1	0.00e+00	0	43	0	738197504	15	4499
2026-01-09 09:15:03.83	92.57	31.95	-27.5	-29.1	15.5	0.00e+00	0	43	0	747634688	15	4326
2026-01-09 09:15:06.84	91.69	32.31	-27.5	-29.0	15.6	0.00e+00	0	43	0	757071872	15	4280
2026-01-09 09:15:09.85	90.78	32.68	-27.4	-28.9	15.6	0.00e+00	0	42	0	766509056	15	4271
2026-01-09 09:15:12.85	89.86	33.04	-27.7	-29.4	15.3	1.50e-06	0	43	0	775946240	15	4415
2026-01-09 09:15:15.87	88.91	33.40	-27.7	-29.5	15.2	0.00e+00	0	43	0	785383424	15	4423
2026-01-09 09:15:18.88	87.94	33.75	-27.8	-29.7	15.2	0.00e+00	0	43	0	794820608	15	4498
2026-01-09 09:15:21.90	86.94	34.10	-27.7	-29.6	15.2	0.00e+00	0	43	0	804257792	15	4445
2026-01-09 09:15:24.91	85.93	34.44	-27.7	-29.6	15.2	1.50e-06	0	43	0	813694976	15	4460
2026-01-09 09:15:27.93	84.90	34.77	-28.1	-30.0	14.9	7.00e-07	0	43	0	823132160	16	4452
2026-01-09 09:15:30.95	83.84	35.10	-28.4	-30.5	14.6	7.00e-07	0	43	0	832569344	16	4613
2026-01-09 09:15:33.97	82.77	35.42	-28.3	-29.8	14.8	5.30e-06	0	43	0	842006528	17	4276
2026-01-09 09:15:37.00	81.66	35.73	-28.0	-29.2	15.1	0.00e+00	0	43	0	851443712	17	4114
2026-01-09 09:15:40.02	80.54	36.03	-28.4	-30.2	14.5	7.00e-07	0	43	0	860880896	17	4399
2026-01-09 09:15:43.05	79.40	36.32	-28.6	-30.6	14.3	0.00e+00	0	43	0	870318080	17	4528
2026-01-09 09:15:46.07	78.24	36.60	-28.8	-31.1	14.0	3.00e-06	0	43	0	879755264	17	4668
2026-01-09 09:15:49.08	77.06	36.87	-29.0	-30.9	13.8	6.10e-06	0	43	0	889192448	18	4506
2026-01-09 09:15:52.10	75.87	37.12	-29.3	-31.7	13.4	9.10e-06	0	43	0	898629632	18	4746
2026-01-09 09:15:55.12	74.65	37.37	-29.1	-31.3	13.6	1.06e-05	0	42	0	908066816	18	4632
2026-01-09 09:15:58.14	73.41	37.60	-28.7	-30.3	14.3	7.00e-07	0	43	0	917504000	18	4311
2026-01-09 09:16:01.16	72.16	37.81	-29.0	-31.0	13.8	5.30e-06	0	43	0	926941184	18	4535
2026-01-09 09:16:04.17	70.90	38.01	-29.2	-31.5	13.6	8.30e-06	0	43	0	936378368	18	4670
2026-01-09 09:16:07.18	69.62	38.20	-28.9	-30.7	14.0	2.20e-06	0	43	0	945815552	18	4430
2026-01-09 09:16:10.19	68.32	38.37	-28.8	-30.5	14.1	2.20e-06	0	43	0	955252736	18	4371
2026-01-09 09:16:13.21	67.01	38.53	-28.9	-30.7	14.0	2.20e-06	0	43	0	964689920	18	4433
2026-01-09 09:16:16.22	65.69	38.67	-28.5	-29.7	14.6	0.00e+00	0	43	0	974127104	18	4146
2026-01-09 09:16:19.24	64.36	38.79	-28.8	-30.6	14.0	3.00e-06	0	43	0	983564288	18	4394
2026-01-09 09:16:22.25	63.02	38.89	-29.3	-31.8	13.3	2.13e-05	0	43	0	993001472	18	4782
2026-01-09 09:16:25.26	61.68	38.98	-28.9	-30.7	14.0	2.20e-06	0	43	0	1002438656	18	4443
2026-01-09 09:16:28.28	60.32	39.05	-29.2	-31.5	13.5	1.37e-05	0	43	0	1011875840	18	4701
2026-01-09 09:16:31.30	58.96	39.10	-29.5	-31.7	13.1	2.21e-05	0	43	0	1021313024	19	4624
2026-01-09 09:16:34.33	57.59	39.13	-29.9	-32.7	12.4	9.99e-05	0	43	0	1030750208	19	4967
2026-01-09 09:16:37.34	56.23	39.14	-29.8	-31.9	12.6	1.21e-04	0	43	0	1040187392	20	4603
2026-01-09 09:16:40.36	54.86	39.14	-29.0	-30.5	13.8	9.10e-06	0	43	0	1049624576	19	4272
2026-01-09 09:16:43.38	53.49	39.12	-29.0	-30.9	13.9	3.80e-06	0	43	0	1059061760	18	4479
2026-01-09 09:16:46.40	52.13	39.07	-29.3	-31.8	13.3	1.22e-05	0	43	0	1068498944	18	4776
2026-01-09 09:16:49.42	50.77	39.01	-29.1	-30.8	13.6	7.60e-06	0	43	0	1077936128	19	4366
2026-01-09 09:16:52.43	49.42	38.94	-29.0	-30.4	13.8	9.10e-06	0	43	0	1087373312	19	4258
2026-01-09 09:16:55.45	48.08	38.84	-29.0	-30.4	13.9	4.50e-06	0	43	0	1096810496	19	4238
2026-01-09 09:16:58.47	46.74	38.73	-29.0	-30.6	13.7	3.80e-06	0	43	0	1106247680	19	4294
2026-01-09 09:17:01.48	45.42	38.59	-29.3	-31.2	13.3	1.22e-05	0	43	0	1115684864	19	4490
2026-01-09 09:17:04.49	44.11	38.45	-28.9	-30.2	13.9	1.50e-06	0	43	0	1125122048	19	4187
2026-01-09 09:17:07.51	42.81	38.28	-28.6	-30.1	14.3	7.00e-07	0	43	0	1133510656	18	4253
2026-01-09 09:17:10.53	41.52	38.10	-29.3	-31.7	13.2	1.52e-05	0	43	0	1142947840	18	4758
2026-01-09 09:17:13.54	40.25	37.91	-29.2	-31.4	13.4	1.52e-05	0	43	0	1153433600	18	4668
2026-01-09 09:17:16.57	38.99	37.70	-28.9	-30.8	13.8	7.00e-07	0	43	0	1161822208	18	4474
2026-01-09 09:17:19.58	37.75	37.48	-29.9	-32.2	12.2	2.20e-04	0	43	0	1172307968	20	4714
2026-01-09 09:17:22.59	36.53	37.24	-29.1	-30.7	13.6	9.90e-06	0	43	0	1180696576	19	4335
2026-01-09 09:17:25.61	35.33	36.99	-29.0	-30.4	13.7	3.80e-06	0	43	0	1190133760	19	4247
2026-01-09 09:17:28.63	34.14	36.73	-29.0	-30.6	13.6	7.60e-06	0	43	0	1200619520	19	4307
2026-01-09 09:17:31.65	32.97	36.45	-29.0	-30.6	13.6	8.30e-06	0	43	0	1209008128	19	4305
2026-01-09 09:17:34.67	31.83	36.17	-29.2	-31.6	13.3	1.14e-05	0	43	0	1218445312	18	4730
2026-01-09 09:17:37.68	30.71	35.87	-28.4	-29.6	14.5	0.00e+00	0	43	0	1227882496	18	4135
2026-01-09 09:17:40.71	29.60	35.57	-29.0	-31.1	13.6	6.80e-06	0	43	0	1237319680	18	4556
2026-01-09 09:17:43.72	28.52	35.26	-29.0	-30.4	13.7	1.29e-05	0	43	0	1246756864	19	4247
2026-01-09 09:17:46.74	27.45	34.93	-27.8	-29.2	15.2	7.00e-07	0	43	0	1256194048	16	4238
2026-01-09 09:17:49.77	26.41	34.60	-28.7	-30.7	14.1	7.00e-07	0	43	0	1265631232	17	4566
2026-01-09 09:17:52.78	25.39	34.27	-28.0	-29.2	14.9	7.00e-07	0	43	0	1275068416	17	4140
2026-01-09 09:17:55.80	24.39	33.93	-27.8	-29.2	15.3	0.00e+00	0	43	0	1284505600	16	4227
2026-01-09 09:17:58.81	23.42	33.58	-28.7	-30.8	14.0	2.20e-06	0	43	0	1293942784	17	4591
2026-01-09 09:18:01.83	22.46	33.22	-28.1	-29.4	14.8	0.00e+00	0	43	0	1303379968	17	4174
2026-01-09 09:18:04.84	21.53	32.87	-28.7	-30.9	13.9	3.00e-06	0	43	0	1312817152	17	4625
2026-01-09 09:18:07.86	20.61	32.50	-28.9	-30.8	13.7	6.80e-06	0	43	0	1322254336	18	4486
2026-01-09 09:18:10.88	19.72	32.14	-28.1	-29.4	14.7	0.00e+00	0	43	0	1331691520	17	4194
2026-01-09 09:18:13.90	18.84	31.77	-27.0	-27.9	15.9	0.00e+00	0	43	0	1341128704	15	4009
2026-01-09 09:18:16.92	17.99	31.40	-27.7	-29.6	15.0	0.00e+00	0	43	0	1350565888	15	4464
2026-01-09 09:18:19.93	17.15	31.02	-27.9	-29.5	14.9	0.00e+00	0	43	0	1360003072	16	4334
2026-01-09 09:18:22.96	16.34	30.64	-27.6	-28.7	15.4	0.00e+00	0	43	0	1369440256	16	4102
2026-01-09 09:18:25.98	15.54	30.27	-27.4	-28.2	15.6	0.00e+00	0	43	0	1378877440	16	3980
2026-01-09 09:18:29.00	14.76	29.89	-27.0	-27.9	15.9	0.00e+00	0	43	0	1388314624	15	4013
2026-01-09 09:18:32.02	14.00	29.51	-27.2	-28.4	15.7	0.00e+00	0	43	0	1397751808	15	4129
2026-01-09 09:18:35.04	13.26	29.13	-27.5	-29.1	15.2	0.00e+00	0	43	0	1407188992	15	4331
2026-01-09 09:18:38.06	12.54	28.75	-27.6	-29.2	15.2	0.00e+00	0	43	0	1416626176	15	4371
2026-01-09 09:18:41.08	11.83	28.36	-27.0	-28.4	15.9	0.00e+00	0	43	0	1426063360	14	4237
2026-01-09 09:18:44.10	11.14	27.98	-27.1	-28.7	15.8	0.00e+00	0	43	0	1435500544	14	4324
2026-01-09 09:18:47.12	10.47	27.61	-27.2	-28.9	15.6	0.00e+00	0	43	0	1444937728	14	4397
2026-01-09 09:18:50.15	9.81	27.23	-26.7	-27.7	16.3	0.00e+00	0	43	0	1454374912	14	4055
2026-01-09 09:18:53.17	9.17	26.85	-26.7	-27.8	16.3	0.00e+00	0	43	0	1463812096	14	4077
2026-01-09 09:18:56.18	8.54	26.47	-27.3	-29.1	15.5	3.00e-06	0	43	0	1473249280	14	4451
2026-01-09 09:18:59.20	7.93	26.10	-27.2	-28.9	15.6	0.00e+00	0	43	0	1482686464	14	4386
2026-01-09 09:19:02.22	7.33	25.73	-27.0	-28.5	15.8	0.00e+00	0	43	0	1492123648	14	4291
2026-01-09 09:19:05.23	6.75	25.36	-26.7	-27.9	16.1	0.00e+00	0	43	0	1501560832	14	4107
2026-01-09 09:19:08.25	6.18	24.99	-27.3	-29.2	15.4	0.00e+00	0	43	0	1510998016	14	4479
2026-01-09 09:19:11.27	5.63	24.62	-27.1	-28.7	15.7	0.00e+00	0	43	0	1520435200	14	4327
2026-01-09 09:19:14.29	5.08	24.26	-27.0	-28.4	15.8	0.00e+00	0	43	0	1529872384	14	4260
2026-01-09 09:19:17.31	4.55	23.89	-26.8	-28.1	16.0	0.00e+00	0	43	0	1539309568	14	4164
2026-01-09 09:19:20.32	4.03	23.54	-26.5	-27.4	16.4	0.00e+00	0	43	0	1548746752	14	3981
2026-01-09 09:19:23.34	3.53	23.18	-27.0	-28.4	15.8	0.00e+00	0	43	0	1558183936	14	4266
2026-01-09 09:19:26.36	3.03	22.82	-27.0	-28.6	15.7	0.00e+00	0	43	0	1567621120	14	4321
2026-01-09 09:19:29.37	2.55	22.47	-26.8	-28.1	15.9	0.00e+00	0	43	0	1577058304	14	4184
2026-01-09 09:19:32.40	2.08	22.12	-26.8	-28.1	15.9	0.00e+00	0	43	0	1586495488	14	4174
2026-01-09 09:19:35.42	1.62	21.77	-27.3	-29.1	15.4	0.00e+00	0	43	0	1595932672	14	4448
2026-01-09 09:19:38.44	1.17	21.43	-27.2	-29.0	15.4	0.00e+00	0	43	0	1605369856	14	4417
2026-01-09 09:19:41.46	0.72	21.09	-26.9	-28.3	15.8	0.00e+00	0	43	0	1614807040	14	4220
2026-01-09 09:19:44.47	0.29	20.75	-26.7	-27.9	16.0	0.00e+00	0	43	0	1624244224	14	4119
2026-01-09 09:19:47.49	359.87	20.41	-26.7	-27.9	16.0	0.00e+00	0	43	0	1633681408	14	4121
2026-01-09 09:19:50.50	359.46	20.08	-26.7	-27.9	16.0	0.00e+00	0	43	0	1643118592	14	4127
2026-01-09 09:19:53.51	359.06	19.75	-26.7	-27.7	16.0	0.00e+00	0	43	0	1652555776	14	4080
2026-01-09 09:19:56.53	358.67	19.43	-26.7	-27.9	16.0	0.00e+00	0	43	0	1661992960	14	4119
2026-01-09 09:19:59.54	358.28	19.10	-26.7	-27.9	15.9	0.00e+00	0	43	0	1671430144	14	4129
2026-01-09 09:20:02.56	357.90	18.78	-26.9	-28.2	15.7	7.00e-07	0	43	0	1680867328	14	4216
2026-01-09 09:20:05.56	357.54	18.46	-27.0	-28.5	15.6	0.00e+00	0	43	0	1690304512	14	4300
2026-01-09 09:20:08.58	357.17	18.15	-27.1	-28.8	15.4	0.00e+00	0	43	0	1699741696	14	4383
2026-01-09 09:20:11.57	356.82	17.84	-27.2	-29.1	15.2	0.00e+00	0	43	0	1709178880	14	4465
2026-01-09 09:20:14.59	356.48	17.53	-27.4	-29.4	15.0	0.00e+00	0	43	0	1718616064	14	4547
2026-01-09 09:20:17.59	356.14	17.22	-27.2	-29.1	15.2	0.00e+00	0	43	0	1728053248	14	4460
2026-01-09 09:20:20.61	355.81	16.92	-27.0	-28.5	15.5	0.00e+00	0	43	0	1737490432	14	4294
2026-01-09 09:20:23.63	355.48	16.62	-26.7	-27.9	15.8	0.00e+00	0	43	0	1746927616	14	4138
2026-01-09 09:20:26.65	355.16	16.32	-26.8	-28.0	15.8	0.00e+00	0	43	0	1756364800	14	4155
2026-01-09 09:20:29.67	354.85	16.02	-26.9	-28.4	15.5	0.00e+00	0	43	0	1765801984	14	4265
2026-01-09 09:20:32.69	354.54	15.73	-27.1	-28.9	15.2	0.00e+00	0	43	0	1775239168	14	4408
2026-01-09 09:20:35.71	354.24	15.43	-27.3	-29.3	15.0	0.00e+00	0	43	0	1784676352	14	4529
2026-01-09 09:20:38.74	353.95	15.15	-27.3	-29.4	14.9	0.00e+00	0	43	0	1794113536	14	4544
2026-01-09 09:20:41.76	353.66	14.86	-27.2	-29.1	15.1	0.00e+00	0	43	0	1803550720	14	4466
2026-01-09 09:20:44.78	353.38	14.58	-27.1	-28.9	15.2	7.00e-07	0	43	0	1812987904	14	4421
2026-01-09 09:20:47.78	353.10	14.30	-27.1	-28.9	15.2	0.00e+00	0	43	0	1822425088	14	4409
2026-01-09 09:20:50.80	352.83	14.02	-27.2	-29.1	15.1	0.00e+00	0	43	0	1831862272	14	4469
2026-01-09 09:20:53.82	352.56	13.74	-27.3	-29.4	14.9	0.00e+00	0	43	0	1841299456	14	4556
2026-01-09 09:20:56.84	352.30	13.47	-27.4	-29.4	14.9	0.00e+00	0	43	0	1850736640	14	4560
2026-01-09 09:20:59.86	352.04	13.20	-27.5	-29.7	14.7	0.00e+00	0	43	0	1860173824	14	4651
2026-01-09 09:21:02.87	351.79	12.93	-27.4	-28.9	14.8	0.00e+00	0	43	0	1869611008	15	4310
2026-01-09 09:21:05.90	351.54	12.66	-27.5	-29.3	14.6	0.00e+00	0	43	0	1879048192	15	4415
2026-01-09 09:21:08.91	351.30	12.40	-27.6	-29.4	14.5	7.00e-07	0	43	0	1888485376	15	4453
2026-01-09 09:21:11.91	351.07	12.14	-27.8	-30.0	14.2	2.20e-06	0	43	0	1897922560	15	4625
2026-01-09 09:21:14.93	350.83	11.88	-27.7	-29.8	14.2	1.50e-06	0	43	0	1907359744	15	4581
2026-01-09 09:21:17.95	350.60	11.63	-28.0	-30.4	13.9	2.20e-06	0	43	0	1916796928	15	4760
2026-01-09 09:21:20.96	350.38	11.37	-28.3	-30.8	13.5	1.29e-05	0	43	0	1926234112	16	4749
2026-01-09 09:21:23.98	350.16	11.12	-28.4	-30.8	13.5	4.50e-06	0	43	0	1935671296	16	4778
2026-01-09 09:21:27.01	349.94	10.87	-28.3	-30.1	13.6	8.30e-06	0	43	0	1945108480	17	4430
2026-01-09 09:21:30.02	349.73	10.62	-28.2	-29.9	13.7	5.30e-06	0	43	0	1954545664	17	4388
2026-01-09 09:21:33.04	349.52	10.37	-28.4	-30.4	13.4	1.83e-05	0	43	0	1963982848	17	4518
2026-01-09 09:21:36.06	349.31	10.13	-28.4	-30.4	13.3	9.10e-06	0	43	0	1973420032	17	4529
2026-01-09 09:21:39.08	349.11	9.89	-28.6	-30.8	13.1	2.89e-05	0	43	0	1982857216	17	4667
2026-01-09 09:21:42.10	348.91	9.65	-28.5	-30.7	13.1	3.12e-05	0	43	0	1992294400	17	4629
2026-01-09 09:21:45.12	348.72	9.41	-28.7	-31.1	12.8	6.10e-05	0	43	0	2001731584	17	4774
2026-01-09 09:21:48.14	348.52	9.17	-28.8	-31.4	12.6	8.08e-05	0	43	0	2011168768	17	4869
2026-01-09 09:21:51.17	348.33	8.94	-28.6	-31.0	12.9	3.73e-05	0	43	0	2020605952	17	4722
2026-01-09 09:21:54.19	348.15	8.71	-28.8	-31.4	12.6	8.69e-05	0	43	0	2030043136	17	4856
2026-01-09 09:21:57.21	347.97	8.48	-28.9	-31.8	12.4	1.19e-04	0	43	0	2039480320	17	4993
2026-01-09 09:22:00.23	347.79	8.25	-29.0	-31.4	12.3	2.07e-04	0	43	0	2048917504	18	4763
2026-01-09 09:22:03.25	347.61	8.02	-29.0	-31.6	12.2	2.42e-04	0	43	0	2058354688	18	4813
2026-01-09 09:22:06.27	347.44	7.79	-29.0	-31.5	12.1	2.46e-04	0	43	0	2067791872	18	4802
2026-01-09 09:22:09.29	347.27	7.57	-29.1	-31.8	11.9	2.49e-04	0	43	0	2077229056	18	4909
2026-01-09 09:22:12.31	347.10	7.35	-29.4	-32.4	11.6	5.94e-04	0	43	0	2086666240	18	5119
2026-01-09 09:22:15.34	346.93	7.13	-29.5	-32.2	11.3	1.14e-03	0	43	0	2096103424	19	4939
2026-01-09 09:22:18.36	346.77	6.91	-33.4	-45.6	3.8	1.49e+00	0	43	104	2099249152	26	14739

#Closed at: 2026-01-09 09:22:19
#Recorded file [2099 MB]: D:/data/31010_260109_121104.dat