passes_logs/2026/01/09/R2M6_AANII_01/R2M6_AANII_01__20260109_023400_FENGYUN_3E_rec.log

#Pass ID: 20260109_023400_FENGYUN 3E
#Satellite: FENGYUN 3E
#Configuration: FENGYUN 3E
#almurnet v.1.7.20240730
#Start time: 2026-01-09 02:39:48

#Version: 2.2.20231116
#Station: R2M6_AANII_01
#Location: 30.233357 lon 59.946436 lat
#TLE: 1 49008U 21062A   26008.52265380 -.00000112  00000+0 -32190-4 0  9993
#TLE: 2 49008  98.7483  13.7266 0001697 149.3310 210.7966 14.19883994233927

#Time	Az	El	Level	Level2	SNR	BER	BlckErr	Temp	State	Recorded	gain1	gain2
2026-01-09 02:39:48.45	101.25	15.15	-33.3	-44.7	3.8	8.45e-01	0	43	0	0	26	13281
2026-01-09 02:39:49.44	101.45	15.12	-34.0	-43.8	3.8	8.46e-01	0	43	104	0	27	11121
2026-01-09 02:39:50.44	101.66	15.08	-34.0	-43.9	3.8	8.46e-01	0	43	104	0	27	11194
2026-01-09 02:39:51.43	101.86	15.05	-34.0	-43.9	3.8	8.46e-01	0	43	104	0	27	11211
2026-01-09 02:39:52.44	102.06	15.02	-34.1	-44.0	3.8	8.45e-01	0	43	104	0	27	11291
2026-01-09 02:39:53.43	102.26	14.98	-34.1	-43.9	3.8	8.46e-01	0	43	104	0	27	11208
2026-01-09 02:39:54.44	102.47	14.95	-34.1	-44.0	3.8	8.45e-01	0	43	104	0	27	11257
2026-01-09 02:39:55.45	102.67	14.91	-34.0	-43.9	3.8	8.47e-01	0	43	104	0	27	11229
2026-01-09 02:39:56.45	102.87	14.88	-34.0	-43.9	3.8	8.47e-01	0	43	104	0	27	11226
2026-01-09 02:39:57.45	103.07	14.85	-34.0	-43.9	3.8	8.45e-01	0	43	104	0	27	11234
2026-01-09 02:39:58.45	103.27	14.81	-34.0	-43.9	3.8	8.45e-01	0	43	104	0	27	11243
2026-01-09 02:39:59.45	103.47	14.78	-34.0	-43.9	3.8	8.46e-01	0	43	104	0	27	11236
2026-01-09 02:40:00.45	103.67	14.74	-34.0	-43.9	3.8	8.45e-01	0	43	104	0	27	11198
2026-01-09 02:40:01.45	103.87	14.70	-34.0	-43.9	3.8	8.45e-01	0	43	104	0	27	11217
2026-01-09 02:40:02.44	104.07	14.67	-34.0	-43.9	3.8	8.47e-01	0	43	104	0	27	11245
2026-01-09 02:40:03.45	104.27	14.63	-34.1	-44.0	3.8	8.47e-01	0	43	104	0	27	11278
2026-01-09 02:40:04.44	104.46	14.60	-34.1	-44.0	3.8	8.46e-01	0	43	104	0	27	11286
2026-01-09 02:40:05.44	104.66	14.56	-34.0	-43.9	3.8	8.46e-01	0	43	104	0	27	11239
2026-01-09 02:40:06.45	104.86	14.52	-34.0	-43.9	3.8	8.47e-01	0	43	104	0	27	11209
2026-01-09 02:40:07.45	105.05	14.48	-34.0	-43.8	3.8	8.45e-01	0	43	104	0	27	11170
2026-01-09 02:40:08.45	105.25	14.45	-34.0	-43.3	3.8	8.47e-01	0	43	104	0	28	10563
2026-01-09 02:40:09.44	105.44	14.41	-34.0	-43.4	3.8	8.46e-01	0	43	104	0	28	10620
2026-01-09 02:40:10.45	105.64	14.37	-33.9	-43.3	3.8	8.46e-01	0	43	104	0	28	10574
2026-01-09 02:40:11.45	105.83	14.33	-33.9	-43.3	3.8	8.45e-01	0	43	104	0	28	10543
2026-01-09 02:40:12.44	106.02	14.29	-33.9	-43.2	3.8	8.45e-01	0	43	104	0	28	10485
2026-01-09 02:40:13.44	106.21	14.26	-33.9	-43.1	3.8	8.46e-01	0	43	104	0	28	10444
2026-01-09 02:40:14.45	106.41	14.22	-33.8	-43.0	3.8	8.45e-01	0	43	104	0	28	10353
2026-01-09 02:40:15.46	106.60	14.18	-33.8	-42.9	3.8	8.46e-01	0	43	104	0	28	10281
2026-01-09 02:40:16.46	106.79	14.14	-33.7	-42.6	3.8	8.45e-01	0	43	104	0	28	10121
2026-01-09 02:40:17.45	106.98	14.10	-33.5	-42.2	3.8	8.47e-01	0	43	104	0	28	9763
2026-01-09 02:40:18.46	107.18	14.06	-33.4	-42.1	3.8	8.46e-01	0	43	104	0	27	9875
2026-01-09 02:40:19.46	107.37	14.02	-33.1	-41.5	3.8	8.46e-01	0	43	104	0	26	9457
2026-01-09 02:40:20.46	107.56	13.98	-33.2	-42.5	3.8	8.46e-01	0	43	104	0	26	10600
2026-01-09 02:40:21.47	107.75	13.94	-33.2	-42.7	3.8	8.47e-01	0	43	104	0	26	10738
2026-01-09 02:40:22.47	107.93	13.89	-33.2	-42.6	3.8	8.47e-01	0	43	104	0	26	10703
2026-01-09 02:40:23.47	108.12	13.85	-33.2	-42.5	3.8	8.46e-01	0	43	104	0	26	10594
2026-01-09 02:40:24.48	108.31	13.81	-33.1	-42.3	3.8	8.45e-01	0	43	104	0	26	10383
2026-01-09 02:40:25.48	108.50	13.77	-33.1	-41.9	3.8	8.45e-01	0	43	104	0	26	9962
2026-01-09 02:40:26.49	108.69	13.73	-33.0	-41.6	3.8	8.46e-01	0	43	104	0	26	9611
2026-01-09 02:40:27.48	108.87	13.69	-32.9	-40.9	3.8	8.46e-01	0	43	104	0	26	9025
2026-01-09 02:40:28.48	109.06	13.64	-32.8	-40.2	3.8	8.46e-01	0	43	104	0	26	8424
2026-01-09 02:40:29.48	109.24	13.60	-32.7	-39.5	3.9	8.44e-01	0	43	104	0	26	7938
2026-01-09 02:40:30.48	109.43	13.56	-32.6	-38.9	4.1	8.40e-01	0	43	104	0	26	7469
2026-01-09 02:40:31.49	109.61	13.52	-32.5	-38.5	3.9	8.43e-01	0	43	104	0	26	7217
2026-01-09 02:40:32.49	109.80	13.47	-32.4	-38.6	4.3	8.35e-01	0	43	104	0	25	7355
2026-01-09 02:40:33.50	109.98	13.43	-32.4	-38.7	4.2	8.35e-01	0	43	0	0	25	7446
2026-01-09 02:40:34.50	110.16	13.39	-32.4	-38.7	4.2	8.36e-01	0	43	0	0	25	7475
2026-01-09 02:40:35.51	110.35	13.34	-32.3	-38.3	4.3	8.33e-01	0	43	0	0	25	7182
2026-01-09 02:40:36.52	110.53	13.30	-32.0	-36.8	4.8	8.13e-01	0	43	0	0	25	6293
2026-01-09 02:40:37.51	110.71	13.26	-31.3	-35.3	6.0	5.64e-01	0	43	0	1048576	23	5703
2026-01-09 02:40:38.52	110.89	13.21	-30.4	-33.1	7.6	1.51e-01	0	44	0	7340032	22	4867
2026-01-09 02:40:39.51	111.07	13.17	-29.5	-31.4	9.2	2.58e-02	0	43	0	14680064	20	4522
2026-01-09 02:40:40.52	111.25	13.12	-28.9	-30.5	10.2	8.39e-03	0	43	0	22020096	19	4337
2026-01-09 02:40:41.52	111.43	13.08	-28.5	-30.1	10.8	3.47e-03	0	43	0	29360128	18	4322
2026-01-09 02:40:42.52	111.61	13.03	-28.5	-29.9	10.8	2.61e-03	0	43	0	36700160	18	4271
2026-01-09 02:40:43.52	111.78	12.99	-28.8	-30.7	10.4	3.71e-03	0	43	0	44040192	18	4498
2026-01-09 02:40:44.53	111.96	12.94	-28.8	-30.7	10.3	5.43e-03	0	44	0	51380224	18	4508
2026-01-09 02:40:45.53	112.14	12.90	-28.6	-30.1	10.7	3.39e-03	0	43	0	58720256	18	4322
2026-01-09 02:40:46.53	112.32	12.85	-28.6	-30.2	10.7	3.34e-03	0	43	0	66060288	18	4342
2026-01-09 02:40:47.53	112.49	12.81	-28.6	-30.4	10.6	3.76e-03	0	43	0	72351744	18	4389
2026-01-09 02:40:48.53	112.67	12.76	-28.6	-30.3	10.6	4.61e-03	0	43	0	79691776	18	4385
2026-01-09 02:40:49.54	112.84	12.72	-28.9	-31.0	10.2	5.84e-03	0	43	0	87031808	18	4588
2026-01-09 02:40:50.54	113.02	12.67	-28.9	-31.1	10.1	9.65e-03	0	43	0	94371840	18	4617
2026-01-09 02:40:51.55	113.19	12.62	-28.1	-29.6	11.2	1.98e-03	0	43	0	101711872	17	4291
2026-01-09 02:40:52.55	113.36	12.58	-27.5	-28.7	12.1	3.41e-04	0	43	0	109051904	16	4138
2026-01-09 02:40:53.56	113.54	12.53	-26.7	-27.8	13.0	5.83e-05	0	43	0	116391936	14	4124
2026-01-09 02:40:54.55	113.71	12.48	-26.9	-28.4	12.7	4.80e-05	0	43	0	123731968	14	4276
2026-01-09 02:40:55.55	113.88	12.44	-26.1	-27.1	13.6	8.00e-06	0	43	0	130023424	13	4037
2026-01-09 02:40:56.55	114.05	12.39	-26.5	-28.0	13.2	2.86e-05	0	43	0	137363456	13	4265
2026-01-09 02:40:57.55	114.22	12.34	-26.4	-27.7	13.3	2.51e-05	0	43	0	144703488	13	4181
2026-01-09 02:40:58.54	114.39	12.30	-26.3	-27.5	13.4	2.63e-05	0	43	0	152043520	13	4149
2026-01-09 02:40:59.54	114.56	12.25	-26.7	-28.5	12.9	2.86e-05	0	43	0	159383552	13	4409
2026-01-09 02:41:00.55	114.73	12.20	-26.6	-28.1	13.1	3.31e-05	0	43	0	166723584	13	4298
2026-01-09 02:41:01.56	114.90	12.15	-26.5	-27.8	13.2	2.97e-05	0	43	0	174063616	13	4228
2026-01-09 02:41:02.56	115.07	12.11	-26.3	-27.6	13.3	1.25e-05	0	44	0	181403648	13	4155
2026-01-09 02:41:03.57	115.23	12.06	-26.2	-27.3	13.5	1.48e-05	0	44	0	188743680	13	4071
2026-01-09 02:41:04.57	115.40	12.01	-26.2	-27.3	13.5	1.02e-05	0	43	0	196083712	13	4068
2026-01-09 02:41:05.57	115.57	11.96	-26.4	-27.8	13.2	1.37e-05	0	43	0	203423744	13	4209
2026-01-09 02:41:06.57	115.73	11.91	-26.0	-26.9	13.7	5.70e-06	0	43	0	210763776	13	3974
2026-01-09 02:41:07.56	115.90	11.87	-25.7	-26.6	14.1	1.10e-06	0	43	0	217055232	12	4009
2026-01-09 02:41:08.56	116.06	11.82	-25.5	-26.2	14.3	2.20e-06	0	43	0	224395264	12	3918
2026-01-09 02:41:09.56	116.22	11.77	-25.4	-26.6	14.4	0.00e+00	0	44	0	231735296	11	4119
2026-01-09 02:41:10.56	116.39	11.72	-25.5	-26.8	14.2	0.00e+00	0	43	0	239075328	11	4180
2026-01-09 02:41:11.56	116.55	11.67	-25.6	-26.9	14.3	0.00e+00	0	43	0	246415360	11	4204
2026-01-09 02:41:12.57	116.72	11.62	-25.7	-27.2	14.1	1.10e-06	0	43	0	253755392	11	4273
2026-01-09 02:41:13.56	116.88	11.57	-25.7	-27.2	14.1	1.10e-06	0	44	0	261095424	11	4260
2026-01-09 02:41:14.57	117.04	11.52	-25.8	-27.4	14.0	3.40e-06	0	43	0	268435456	11	4313
2026-01-09 02:41:15.57	117.20	11.47	-25.8	-27.4	14.0	9.10e-06	0	43	0	274726912	11	4313
2026-01-09 02:41:16.57	117.36	11.42	-25.8	-27.4	14.0	4.50e-06	0	43	0	282066944	11	4323
2026-01-09 02:41:17.57	117.52	11.38	-25.7	-27.2	14.1	2.20e-06	0	43	0	289406976	11	4261
2026-01-09 02:41:18.57	117.68	11.33	-25.6	-26.9	14.3	3.31e-05	0	43	0	296747008	11	4192
2026-01-09 02:41:19.56	117.84	11.28	-25.7	-27.2	14.1	1.10e-06	0	43	0	304087040	11	4262
2026-01-09 02:41:20.57	118.00	11.23	-25.6	-27.0	14.2	4.50e-06	0	43	0	311427072	11	4201
2026-01-09 02:41:21.57	118.15	11.18	-25.5	-26.7	14.4	1.10e-06	0	44	0	318767104	11	4114
2026-01-09 02:41:22.57	118.31	11.13	-25.4	-26.5	14.5	1.10e-06	0	43	0	326107136	11	4088
2026-01-09 02:41:23.58	118.47	11.08	-25.4	-26.5	14.5	0.00e+00	0	43	0	333447168	11	4072
2026-01-09 02:41:24.58	118.63	11.03	-25.3	-26.3	14.6	0.00e+00	0	43	0	339738624	11	4013
2026-01-09 02:41:25.57	118.78	10.98	-25.3	-26.3	14.6	0.00e+00	0	43	0	347078656	11	4018
2026-01-09 02:41:26.58	118.94	10.93	-25.4	-26.4	14.6	0.00e+00	0	43	0	354418688	11	4049
2026-01-09 02:41:27.58	119.09	10.88	-25.3	-26.3	14.6	0.00e+00	0	43	0	361758720	11	4028
2026-01-09 02:41:28.57	119.24	10.83	-25.4	-26.4	14.6	0.00e+00	0	44	0	369098752	11	4046
2026-01-09 02:41:29.57	119.40	10.78	-25.4	-26.5	14.5	0.00e+00	0	43	0	376438784	11	4082
2026-01-09 02:41:30.57	119.55	10.73	-25.6	-26.9	14.3	1.10e-06	0	43	0	383778816	11	4180
2026-01-09 02:41:31.58	119.70	10.67	-25.7	-27.1	14.2	1.10e-06	0	43	0	391118848	11	4228
2026-01-09 02:41:32.59	119.86	10.62	-25.7	-27.1	14.2	0.00e+00	0	43	0	398458880	11	4230
2026-01-09 02:41:33.58	120.01	10.57	-25.8	-27.4	14.0	1.71e-05	0	43	0	404750336	11	4324
2026-01-09 02:41:34.59	120.16	10.52	-26.0	-27.8	13.8	3.40e-06	0	43	0	412090368	11	4420
2026-01-09 02:41:35.59	120.31	10.47	-26.0	-27.9	13.7	5.70e-06	0	43	0	419430400	11	4473
2026-01-09 02:41:36.60	120.46	10.42	-26.1	-28.0	13.6	2.51e-05	0	44	0	426770432	11	4497
2026-01-09 02:41:37.61	120.61	10.37	-26.1	-27.6	13.5	1.60e-05	0	44	0	434110464	12	4275
2026-01-09 02:41:38.61	120.76	10.32	-26.3	-27.9	13.3	2.17e-05	0	44	0	441450496	12	4362
2026-01-09 02:41:39.61	120.91	10.27	-26.2	-27.9	13.3	1.14e-05	0	44	0	448790528	12	4346
2026-01-09 02:41:40.60	121.06	10.22	-26.2	-27.8	13.3	2.63e-05	0	43	0	456130560	12	4335
2026-01-09 02:41:41.60	121.21	10.16	-26.2	-27.8	13.4	1.25e-05	0	44	0	463470592	12	4344
2026-01-09 02:41:42.61	121.35	10.11	-26.0	-27.4	13.6	1.71e-05	0	43	0	470810624	12	4214
2026-01-09 02:41:43.62	121.50	10.06	-25.8	-27.0	13.9	4.50e-06	0	44	0	478150656	12	4097
2026-01-09 02:41:44.62	121.65	10.01	-25.7	-26.7	14.0	3.40e-06	0	44	0	484442112	12	4018
2026-01-09 02:41:45.63	121.79	9.96	-25.9	-27.0	13.9	3.40e-06	0	43	0	491782144	12	4103
2026-01-09 02:41:46.63	121.94	9.91	-25.9	-27.0	13.8	2.20e-06	0	44	0	499122176	12	4101
2026-01-09 02:41:47.62	122.08	9.85	-25.6	-26.4	14.2	5.70e-06	0	43	0	506462208	12	3947
2026-01-09 02:41:48.62	122.23	9.80	-25.7	-26.6	14.1	1.10e-06	0	43	0	513802240	12	3992
2026-01-09 02:41:49.62	122.37	9.75	-25.6	-26.4	14.2	2.20e-06	0	44	0	521142272	12	3941
2026-01-09 02:41:50.61	122.51	9.70	-25.7	-26.5	14.1	1.10e-06	0	44	0	528482304	12	3968
2026-01-09 02:41:51.61	122.65	9.65	-25.7	-26.5	14.1	1.10e-06	0	44	0	535822336	12	3968
2026-01-09 02:41:52.62	122.80	9.60	-25.6	-26.5	14.1	3.40e-06	0	44	0	543162368	12	3966
2026-01-09 02:41:53.61	122.94	9.54	-25.6	-26.5	14.1	2.20e-06	0	43	0	549453824	12	3965
2026-01-09 02:41:54.61	123.08	9.49	-25.6	-26.4	14.1	2.20e-06	0	43	0	556793856	12	3939
2026-01-09 02:41:55.61	123.22	9.44	-25.6	-26.5	14.1	1.10e-06	0	44	0	564133888	12	3971
2026-01-09 02:41:56.62	123.36	9.39	-25.7	-26.7	14.0	4.50e-06	0	43	0	571473920	12	4014
2026-01-09 02:41:57.62	123.50	9.34	-25.7	-26.7	14.0	5.70e-06	0	44	0	578813952	12	4021
2026-01-09 02:41:58.62	123.64	9.28	-25.8	-26.9	13.8	2.20e-06	0	44	0	586153984	12	4076
2026-01-09 02:41:59.61	123.78	9.23	-25.8	-27.0	13.8	1.14e-05	0	44	0	593494016	12	4096
2026-01-09 02:42:00.62	123.92	9.18	-25.9	-27.2	13.7	5.70e-06	0	43	0	600834048	12	4152
2026-01-09 02:42:01.63	124.06	9.13	-26.0	-27.4	13.5	9.10e-06	0	43	0	608174080	12	4225
2026-01-09 02:42:02.63	124.19	9.07	-26.1	-27.5	13.4	1.71e-05	0	44	0	614465536	12	4259
2026-01-09 02:42:03.64	124.33	9.02	-26.2	-27.9	13.2	2.74e-05	0	43	0	621805568	12	4364
2026-01-09 02:42:04.63	124.47	8.97	-26.3	-28.0	13.0	3.31e-05	0	43	0	629145600	12	4400
2026-01-09 02:42:05.62	124.60	8.92	-26.4	-28.2	13.0	4.69e-05	0	43	0	636485632	12	4443
2026-01-09 02:42:06.63	124.74	8.87	-26.3	-28.1	13.1	3.89e-05	0	44	0	643825664	12	4419
2026-01-09 02:42:07.63	124.87	8.81	-26.4	-28.3	13.0	4.23e-05	0	43	0	651165696	12	4465
2026-01-09 02:42:08.62	125.01	8.76	-26.4	-28.2	13.1	4.23e-05	0	43	0	658505728	12	4436
2026-01-09 02:42:09.63	125.14	8.71	-26.3	-27.9	13.2	1.05e-04	0	43	0	665845760	12	4366
2026-01-09 02:42:10.63	125.28	8.66	-26.1	-27.6	13.4	2.51e-05	0	44	0	672137216	12	4264
2026-01-09 02:42:11.64	125.41	8.60	-26.2	-27.7	13.3	9.10e-06	0	44	0	679477248	12	4299
2026-01-09 02:42:12.63	125.54	8.55	-26.2	-27.7	13.4	1.37e-05	0	43	0	686817280	12	4288
2026-01-09 02:42:13.63	125.67	8.50	-26.1	-27.6	13.4	1.83e-05	0	44	0	694157312	12	4262
2026-01-09 02:42:14.63	125.80	8.45	-26.2	-27.7	13.3	1.94e-05	0	44	0	701497344	12	4301
2026-01-09 02:42:15.63	125.94	8.39	-26.2	-27.7	13.3	2.40e-05	0	44	0	708837376	12	4298
2026-01-09 02:42:16.64	126.07	8.34	-26.1	-27.5	13.4	1.02e-05	0	44	0	716177408	12	4234
2026-01-09 02:42:17.64	126.20	8.29	-26.1	-27.6	13.4	1.71e-05	0	43	0	723517440	12	4267
2026-01-09 02:42:18.64	126.33	8.23	-26.2	-27.8	13.2	3.08e-05	0	44	0	730857472	12	4326
2026-01-09 02:42:19.64	126.46	8.18	-26.2	-27.7	13.3	4.11e-05	0	44	0	737148928	12	4293
2026-01-09 02:42:20.64	126.59	8.13	-26.2	-27.8	13.2	2.17e-05	0	44	0	744488960	12	4334
2026-01-09 02:42:21.65	126.72	8.08	-26.3	-28.0	13.1	1.33e-04	0	43	0	751828992	12	4382
2026-01-09 02:42:22.65	126.84	8.02	-26.2	-27.9	13.2	1.01e-04	0	44	0	759169024	12	4358
2026-01-09 02:42:23.65	126.97	7.97	-26.4	-28.3	12.9	3.31e-05	0	44	0	766509056	12	4478
2026-01-09 02:42:24.66	127.10	7.92	-26.4	-28.3	12.9	1.13e-04	0	44	0	773849088	12	4464
2026-01-09 02:42:25.66	127.23	7.87	-26.3	-28.0	13.1	5.26e-05	0	44	0	781189120	12	4402
2026-01-09 02:42:26.66	127.35	7.81	-26.2	-27.9	13.1	4.00e-05	0	44	0	788529152	12	4355
2026-01-09 02:42:27.66	127.48	7.76	-26.3	-28.1	13.0	3.54e-05	0	44	0	795869184	12	4414
2026-01-09 02:42:28.66	127.60	7.71	-26.3	-28.0	13.0	4.11e-05	0	44	0	803209216	12	4395
2026-01-09 02:42:29.66	127.73	7.65	-26.3	-28.1	13.0	3.66e-05	0	44	0	810549248	12	4409
2026-01-09 02:42:30.67	127.86	7.60	-26.6	-28.7	12.6	8.46e-05	0	44	0	816840704	12	4600
2026-01-09 02:42:31.67	127.98	7.55	-26.5	-28.1	12.7	9.61e-05	0	44	0	824180736	13	4307
2026-01-09 02:42:32.67	128.10	7.50	-26.4	-27.7	12.9	5.14e-05	0	43	0	831520768	13	4187
2026-01-09 02:42:33.68	128.23	7.44	-26.3	-27.6	13.0	9.72e-05	0	44	0	838860800	13	4169
2026-01-09 02:42:34.69	128.35	7.39	-26.4	-27.7	13.0	3.00e-04	0	44	0	846200832	13	4186
2026-01-09 02:42:35.69	128.47	7.34	-26.3	-27.6	13.0	6.98e-05	0	44	0	853540864	13	4162
2026-01-09 02:42:36.69	128.60	7.28	-26.4	-27.7	12.9	2.18e-04	0	43	0	860880896	13	4191
2026-01-09 02:42:37.68	128.72	7.23	-26.4	-27.7	12.9	1.36e-04	0	44	0	868220928	13	4191
2026-01-09 02:42:38.68	128.84	7.18	-26.4	-27.8	12.8	5.83e-05	0	43	0	875560960	13	4220
2026-01-09 02:42:39.68	128.96	7.13	-26.4	-27.9	12.8	1.27e-04	0	43	0	881852416	13	4246
2026-01-09 02:42:40.69	129.08	7.07	-26.5	-28.1	12.6	1.26e-04	0	44	0	889192448	13	4317
2026-01-09 02:42:41.69	129.20	7.02	-32.7	-42.3	3.8	8.45e-01	0	44	104	894435328	25	10796
2026-01-09 02:42:42.69	129.32	6.97	-33.1	-43.1	3.8	8.46e-01	0	43	104	894435328	25	11375

#Closed at: 2026-01-09 02:42:43
#Recorded file [894 MB]: D:/data/31010_260109_054032.dat