passes_logs/2026/01/09/R2M6_AANII_01/R2M6_AANII_01__20260109_082216_NOAA_20_JPSS-1_rec.log

#Pass ID: 20260109_082216_NOAA 20 (JPSS-1)
#Satellite: NOAA 20 (JPSS-1)
#Configuration: NOAA 20
#almurnet v.1.7.20240730
#Start time: 2026-01-09 08:22:17

#Version: 2.2.20231116
#Station: R2M6_AANII_01
#Location: 30.233357 lon 59.946436 lat
#TLE: 1 43013U 17073A   26008.42245989  .00000120  00000+0  77990-4 0  9996
#TLE: 2 43013  98.7631 309.4315 0001737  48.7960 311.3365 14.19534455421802

#Time	Az	El	Level	Level2	SNR	BER	BlckErr	Temp	State	Recorded	gain1	gain2
2026-01-09 08:22:17.85	99.68	7.10	-31.4	-45.2	3.8	1.49e+00	0	40	0	0	23	17675
2026-01-09 08:22:20.86	99.40	7.29	-31.3	-45.0	3.8	1.49e+00	0	40	104	0	23	17451
2026-01-09 08:22:23.89	99.11	7.49	-31.0	-44.3	3.8	1.49e+00	0	41	104	0	23	16614
2026-01-09 08:22:26.91	98.82	7.68	-30.8	-41.5	3.9	1.49e+00	0	41	104	0	23	12285
2026-01-09 08:22:29.92	98.52	7.87	-31.0	-40.4	4.5	1.46e+00	0	41	104	0	23	10712
2026-01-09 08:22:32.94	98.22	8.07	-31.0	-42.5	3.8	1.48e+00	0	41	104	0	23	13481
2026-01-09 08:22:35.96	97.92	8.27	-31.1	-43.5	3.8	1.49e+00	0	41	104	0	23	15111
2026-01-09 08:22:38.98	97.61	8.46	-31.1	-44.5	3.8	1.49e+00	0	41	104	0	23	16899
2026-01-09 08:22:42.00	97.30	8.66	-31.0	-44.4	3.8	1.49e+00	0	41	104	0	23	16870
2026-01-09 08:22:45.02	96.98	8.86	-30.9	-44.3	3.8	1.49e+00	0	41	104	0	23	16834
2026-01-09 08:22:48.04	96.66	9.06	-30.9	-44.4	3.8	1.49e+00	0	41	104	0	23	16970
2026-01-09 08:22:51.06	96.34	9.26	-30.9	-44.2	3.8	1.49e+00	0	41	104	0	23	16669
2026-01-09 08:22:54.07	96.01	9.46	-30.7	-44.4	3.8	1.49e+00	0	41	104	0	22	17419
2026-01-09 08:22:57.09	95.68	9.66	-30.7	-44.2	3.8	1.49e+00	0	41	104	0	22	16979
2026-01-09 08:23:00.11	95.34	9.87	-30.9	-43.7	3.8	1.49e+00	0	41	104	0	22	15798
2026-01-09 08:23:03.13	94.99	10.07	-31.2	-42.1	4.2	1.48e+00	0	41	104	0	22	12593
2026-01-09 08:23:06.15	94.64	10.27	-31.4	-39.4	6.1	3.58e-01	0	41	0	0	22	9060
2026-01-09 08:23:09.18	94.29	10.48	-32.0	-41.3	4.9	5.99e-01	0	42	0	6291456	24	10452
2026-01-09 08:23:12.19	93.93	10.68	-31.8	-38.8	6.7	2.41e-01	0	41	0	11534336	24	8057
2026-01-09 08:23:15.22	93.56	10.89	-32.1	-39.9	6.1	3.92e-01	0	42	0	16777216	24	8839
2026-01-09 08:23:18.24	93.19	11.10	-31.5	-36.6	8.7	4.73e-02	0	42	0	23068672	24	6448
2026-01-09 08:23:21.26	92.82	11.30	-30.9	-34.5	10.8	3.55e-03	0	42	0	28311552	23	5471
2026-01-09 08:23:24.26	92.44	11.51	-30.7	-34.4	11.2	1.48e-03	0	42	0	34603008	22	5550
2026-01-09 08:23:27.28	92.05	11.72	-30.8	-34.6	11.1	1.81e-03	0	42	0	39845888	22	5632
2026-01-09 08:23:30.30	91.66	11.92	-30.6	-33.9	11.7	6.93e-04	0	42	0	45088768	22	5304
2026-01-09 08:23:33.31	91.27	12.13	-30.4	-33.5	12.0	4.78e-04	0	42	0	51380224	22	5120
2026-01-09 08:23:36.31	90.87	12.34	-30.5	-33.7	11.9	4.04e-04	0	42	0	56623104	22	5219
2026-01-09 08:23:39.33	90.46	12.55	-30.9	-35.0	11.0	2.15e-03	0	42	0	61865984	22	5765
2026-01-09 08:23:42.35	90.04	12.76	-30.7	-34.4	11.5	8.73e-04	0	42	0	68157440	22	5469
2026-01-09 08:23:45.36	89.62	12.97	-30.7	-34.4	11.5	5.29e-04	0	42	0	73400320	22	5461
2026-01-09 08:23:48.37	89.20	13.18	-30.5	-33.7	12.0	3.39e-04	0	42	0	79691776	22	5201
2026-01-09 08:23:51.39	88.76	13.39	-30.5	-33.6	12.2	2.32e-04	0	42	0	84934656	22	5126
2026-01-09 08:23:54.41	88.33	13.60	-30.6	-33.7	12.1	2.62e-04	0	42	0	90177536	22	5179
2026-01-09 08:23:57.42	87.88	13.81	-30.6	-33.7	12.2	2.21e-04	0	42	0	96468992	22	5161
2026-01-09 08:24:00.43	87.43	14.02	-30.8	-34.3	11.7	4.75e-04	0	42	0	101711872	22	5418
2026-01-09 08:24:03.44	86.97	14.23	-30.8	-34.3	11.8	5.01e-04	0	42	0	108003328	22	5398
2026-01-09 08:24:06.46	86.51	14.44	-30.8	-34.5	11.7	6.95e-04	0	42	0	113246208	22	5500
2026-01-09 08:24:09.47	86.04	14.65	-30.9	-34.6	11.6	7.75e-04	0	42	0	118489088	22	5539
2026-01-09 08:24:12.49	85.56	14.86	-31.0	-35.1	11.2	9.96e-04	0	42	0	124780544	22	5745
2026-01-09 08:24:15.52	85.07	15.07	-30.9	-34.6	11.6	7.99e-04	0	42	0	130023424	22	5528
2026-01-09 08:24:18.52	84.58	15.28	-31.1	-35.2	11.2	9.86e-04	0	42	0	136314880	22	5788
2026-01-09 08:24:21.53	84.08	15.49	-31.0	-35.1	11.3	1.16e-03	0	42	0	141557760	22	5755
2026-01-09 08:24:24.54	83.58	15.70	-31.1	-35.1	11.3	1.04e-03	0	42	0	146800640	22	5750
2026-01-09 08:24:27.56	83.06	15.91	-31.1	-35.3	11.2	1.19e-03	0	42	0	153092096	22	5817
2026-01-09 08:24:30.58	82.54	16.12	-31.0	-34.9	11.5	7.53e-04	0	42	0	158334976	22	5663
2026-01-09 08:24:33.59	82.01	16.32	-30.9	-34.7	11.6	7.91e-04	0	42	0	164626432	22	5577
2026-01-09 08:24:36.61	81.48	16.53	-30.9	-34.6	11.7	6.08e-04	0	42	0	169869312	22	5517
2026-01-09 08:24:39.62	80.94	16.74	-30.9	-34.7	11.7	5.86e-04	0	42	0	175112192	22	5562
2026-01-09 08:24:42.63	80.39	16.94	-30.7	-33.9	12.3	2.72e-04	0	42	0	181403648	22	5202
2026-01-09 08:24:45.64	79.83	17.14	-30.7	-34.0	12.3	2.27e-04	0	42	0	186646528	22	5227
2026-01-09 08:24:48.66	79.26	17.35	-30.4	-33.2	12.8	8.69e-05	0	42	0	192937984	22	4920
2026-01-09 08:24:51.67	78.69	17.55	-30.2	-32.9	13.3	1.98e-05	0	42	0	198180864	21	4932
2026-01-09 08:24:54.69	78.11	17.75	-30.0	-32.5	13.5	6.10e-06	0	42	0	203423744	21	4804
2026-01-09 08:24:57.71	77.52	17.95	-29.8	-32.0	13.9	6.80e-06	0	42	0	209715200	21	4619
2026-01-09 08:25:00.73	76.92	18.14	-29.8	-32.0	14.0	2.20e-06	0	42	0	214958080	21	4607
2026-01-09 08:25:03.74	76.32	18.34	-29.7	-32.1	14.2	5.30e-06	0	42	0	220200960	20	4752
2026-01-09 08:25:06.75	75.71	18.53	-29.6	-31.9	14.3	0.00e+00	0	42	0	226492416	20	4683
2026-01-09 08:25:09.76	75.09	18.72	-29.6	-31.8	14.4	7.00e-07	0	42	0	231735296	20	4637
2026-01-09 08:25:12.78	74.46	18.91	-29.4	-31.4	14.7	7.00e-07	0	42	0	238026752	20	4517
2026-01-09 08:25:15.80	73.82	19.10	-29.4	-31.3	14.7	0.00e+00	0	42	0	243269632	20	4479
2026-01-09 08:25:18.81	73.18	19.28	-29.4	-31.3	14.8	0.00e+00	0	42	0	248512512	20	4483
2026-01-09 08:25:21.83	72.53	19.46	-29.4	-31.3	14.7	0.00e+00	0	42	0	254803968	20	4488
2026-01-09 08:25:24.85	71.87	19.64	-29.5	-31.5	14.6	0.00e+00	0	42	0	260046848	20	4559
2026-01-09 08:25:27.86	71.20	19.82	-29.5	-31.6	14.6	0.00e+00	0	42	0	266338304	20	4577
2026-01-09 08:25:30.87	70.53	20.00	-29.6	-31.9	14.3	0.00e+00	0	43	0	271581184	20	4687
2026-01-09 08:25:33.88	69.85	20.17	-29.6	-31.8	14.5	1.50e-06	0	42	0	276824064	20	4651
2026-01-09 08:25:36.91	69.16	20.33	-29.4	-31.4	14.7	7.00e-07	0	42	0	283115520	20	4513
2026-01-09 08:25:39.93	68.46	20.50	-29.3	-31.1	14.9	2.20e-06	0	42	0	288358400	20	4429
2026-01-09 08:25:42.95	67.75	20.66	-29.0	-30.9	15.4	0.00e+00	0	42	0	294649856	19	4446
2026-01-09 08:25:45.97	67.04	20.82	-28.9	-30.6	15.6	0.00e+00	0	42	0	299892736	19	4363
2026-01-09 08:25:48.99	66.32	20.97	-29.0	-30.7	15.6	0.00e+00	0	42	0	305135616	19	4381
2026-01-09 08:25:52.01	65.59	21.12	-29.0	-30.8	15.5	0.00e+00	0	42	0	311427072	19	4415
2026-01-09 08:25:55.02	64.86	21.27	-29.0	-30.7	15.5	0.00e+00	0	43	0	316669952	19	4400
2026-01-09 08:25:58.04	64.11	21.41	-29.0	-30.8	15.5	0.00e+00	0	42	0	322961408	19	4416
2026-01-09 08:26:01.06	63.37	21.55	-28.9	-30.5	15.7	0.00e+00	0	43	0	328204288	19	4316
2026-01-09 08:26:04.08	62.61	21.68	-28.9	-31.0	15.7	0.00e+00	0	42	0	333447168	18	4576
2026-01-09 08:26:07.09	61.85	21.81	-28.9	-31.0	15.6	0.00e+00	0	43	0	339738624	18	4595
2026-01-09 08:26:10.11	61.08	21.93	-29.0	-31.2	15.6	0.00e+00	0	43	0	344981504	18	4644
2026-01-09 08:26:13.13	60.31	22.05	-29.1	-31.4	15.4	0.00e+00	0	42	0	351272960	18	4703
2026-01-09 08:26:16.14	59.53	22.16	-29.3	-32.1	15.0	0.00e+00	0	43	0	356515840	18	4934
2026-01-09 08:26:19.17	58.75	22.27	-29.8	-32.8	14.3	7.00e-07	0	43	0	361758720	19	5071
2026-01-09 08:26:22.19	57.96	22.37	-29.9	-33.1	14.0	2.20e-06	0	42	0	368050176	19	5188
2026-01-09 08:26:25.20	57.16	22.47	-30.0	-33.3	13.9	3.00e-06	0	43	0	373293056	19	5267
2026-01-09 08:26:28.22	56.36	22.56	-29.9	-32.7	13.9	3.80e-06	0	43	0	379584512	20	4940
2026-01-09 08:26:31.24	55.56	22.65	-30.0	-32.9	13.8	5.30e-06	0	42	0	384827392	20	5012
2026-01-09 08:26:34.27	54.75	22.73	-30.1	-33.1	13.6	4.50e-06	0	43	0	390070272	20	5094
2026-01-09 08:26:37.28	53.94	22.80	-30.4	-33.8	13.2	2.59e-05	0	42	0	396361728	20	5378
2026-01-09 08:26:40.30	53.12	22.87	-30.6	-34.0	12.7	3.81e-05	0	43	0	401604608	21	5322
2026-01-09 08:26:43.32	52.30	22.93	-30.5	-33.6	13.0	4.57e-05	0	43	0	407896064	21	5175
2026-01-09 08:26:46.33	51.48	22.99	-30.3	-33.0	13.4	1.67e-05	0	43	0	413138944	21	4956
2026-01-09 08:26:49.34	50.65	23.04	-30.3	-33.2	13.3	3.05e-05	0	43	0	418381824	21	5029
2026-01-09 08:26:52.36	49.83	23.08	-30.6	-33.9	12.9	8.46e-05	0	43	0	424673280	21	5278
2026-01-09 08:26:55.37	49.00	23.11	-30.4	-33.4	13.1	2.28e-05	0	43	0	429916160	21	5096
2026-01-09 08:26:58.38	48.17	23.15	-30.3	-33.1	13.4	1.52e-05	0	43	0	435159040	21	4981
2026-01-09 08:27:01.41	47.33	23.17	-30.2	-32.8	13.5	8.30e-06	0	43	0	441450496	21	4857
2026-01-09 08:27:04.43	46.50	23.19	-30.4	-33.5	13.1	3.73e-05	0	43	0	446693376	21	5124
2026-01-09 08:27:07.45	45.66	23.20	-30.3	-33.0	13.4	4.27e-05	0	43	0	452984832	21	4942
2026-01-09 08:27:10.46	44.83	23.20	-29.9	-32.1	13.9	7.00e-07	0	43	0	458227712	21	4617
2026-01-09 08:27:13.47	44.00	23.20	-29.5	-31.6	14.6	7.00e-07	0	43	0	463470592	20	4586
2026-01-09 08:27:16.48	43.16	23.19	-29.5	-31.4	14.7	0.00e+00	0	43	0	469762048	20	4510
2026-01-09 08:27:19.49	42.33	23.18	-29.4	-31.2	14.8	0.00e+00	0	43	0	475004928	20	4443
2026-01-09 08:27:22.50	41.50	23.15	-29.4	-31.2	14.8	0.00e+00	0	43	0	481296384	20	4461
2026-01-09 08:27:25.51	40.67	23.13	-29.1	-31.0	15.3	0.00e+00	0	43	0	486539264	19	4476
2026-01-09 08:27:28.53	39.84	23.09	-29.1	-31.0	15.3	0.00e+00	0	43	0	491782144	19	4468
2026-01-09 08:27:31.55	39.01	23.05	-28.8	-30.6	15.8	0.00e+00	0	43	0	498073600	18	4474
2026-01-09 08:27:34.57	38.19	23.00	-28.7	-30.6	15.8	0.00e+00	0	43	0	503316480	18	4469
2026-01-09 08:27:37.58	37.37	22.95	-28.7	-30.4	15.9	0.00e+00	0	43	0	509607936	18	4418
2026-01-09 08:27:40.60	36.55	22.89	-28.7	-30.6	15.8	0.00e+00	0	43	0	514850816	18	4468
2026-01-09 08:27:43.61	35.73	22.82	-28.6	-30.2	16.0	0.00e+00	0	43	0	520093696	18	4360
2026-01-09 08:27:46.63	34.92	22.75	-29.1	-31.5	15.3	0.00e+00	0	43	0	526385152	18	4764
2026-01-09 08:27:49.64	34.11	22.67	-28.8	-30.8	15.7	0.00e+00	0	42	0	531628032	18	4531
2026-01-09 08:27:52.65	33.31	22.59	-28.9	-31.0	15.6	0.00e+00	0	43	0	537919488	18	4597
2026-01-09 08:27:55.67	32.51	22.50	-29.1	-31.6	15.2	0.00e+00	0	43	0	543162368	18	4796
2026-01-09 08:27:58.69	31.71	22.40	-29.5	-31.9	14.8	0.00e+00	0	43	0	548405248	19	4774
2026-01-09 08:28:01.71	30.92	22.30	-29.6	-32.2	14.6	2.20e-06	0	43	0	554696704	19	4863
2026-01-09 08:28:04.73	30.14	22.20	-29.8	-32.8	14.2	0.00e+00	0	43	0	559939584	19	5075
2026-01-09 08:28:07.74	29.36	22.09	-30.1	-32.7	13.5	9.38e-05	0	43	0	565182464	21	4861
2026-01-09 08:28:10.75	28.59	21.97	-30.3	-33.1	13.3	7.00e-07	0	43	0	571473920	21	5001
2026-01-09 08:28:13.78	27.82	21.85	-30.1	-32.6	13.6	1.29e-05	0	43	0	576716800	21	4824
2026-01-09 08:28:16.78	27.06	21.72	-30.1	-32.7	13.5	1.37e-05	0	43	0	583008256	21	4848
2026-01-09 08:28:19.79	26.31	21.59	-30.1	-32.8	13.4	1.75e-05	0	43	0	588251136	21	4895
2026-01-09 08:28:22.81	25.56	21.46	-30.1	-32.7	13.5	1.37e-05	0	43	0	593494016	21	4841
2026-01-09 08:28:25.83	24.82	21.32	-30.2	-33.1	13.2	2.97e-05	0	43	0	599785472	21	4988
2026-01-09 08:28:28.85	24.08	21.17	-29.9	-32.3	13.8	5.30e-06	0	43	0	605028352	21	4698
2026-01-09 08:28:31.87	23.36	21.02	-30.3	-33.2	13.1	1.29e-05	0	43	0	611319808	21	5046
2026-01-09 08:28:34.87	22.64	20.87	-30.4	-33.5	12.9	3.50e-05	0	43	0	616562688	21	5149
2026-01-09 08:28:37.89	21.93	20.72	-30.0	-32.4	13.7	3.80e-06	0	43	0	621805568	21	4734
2026-01-09 08:28:40.92	21.22	20.56	-30.0	-32.4	13.7	6.80e-06	0	43	0	628097024	21	4732
2026-01-09 08:28:43.94	20.52	20.39	-30.0	-32.3	13.7	1.14e-05	0	43	0	633339904	21	4719
2026-01-09 08:28:46.96	19.83	20.23	-30.0	-32.3	13.7	4.50e-06	0	43	0	639631360	21	4728
2026-01-09 08:28:49.97	19.15	20.06	-29.8	-31.9	14.0	2.20e-06	0	43	0	644874240	21	4568
2026-01-09 08:28:52.99	18.47	19.89	-29.9	-32.6	13.8	9.10e-06	0	43	0	650117120	20	4933
2026-01-09 08:28:55.99	17.81	19.71	-29.8	-32.4	13.9	4.50e-06	0	42	0	656408576	20	4869
2026-01-09 08:28:59.01	17.15	19.53	-29.9	-32.6	13.8	5.30e-06	0	43	0	661651456	20	4929
2026-01-09 08:29:02.02	16.50	19.35	-29.9	-32.6	13.8	7.00e-07	0	43	0	667942912	20	4915
2026-01-09 08:29:05.04	15.85	19.17	-29.8	-32.4	13.9	3.80e-06	0	43	0	673185792	20	4868
2026-01-09 08:29:08.04	15.22	18.98	-29.9	-32.6	13.8	5.30e-06	0	43	0	678428672	20	4912
2026-01-09 08:29:11.05	14.59	18.80	-29.9	-32.7	13.7	5.30e-06	0	43	0	684720128	20	4976
2026-01-09 08:29:14.06	13.97	18.61	-29.9	-32.7	13.8	9.90e-06	0	43	0	689963008	20	4964
2026-01-09 08:29:17.06	13.36	18.42	-29.8	-32.5	13.8	4.50e-06	0	43	0	695205888	20	4902
2026-01-09 08:29:20.08	12.76	18.22	-29.9	-32.8	13.6	8.30e-06	0	43	0	701497344	20	5014
2026-01-09 08:29:23.10	12.16	18.03	-29.9	-32.6	13.7	4.50e-06	0	43	0	706740224	20	4941
2026-01-09 08:29:26.11	11.57	17.83	-29.7	-32.2	14.0	4.50e-06	0	43	0	713031680	20	4808
2026-01-09 08:29:29.14	10.99	17.63	-29.8	-32.3	13.9	2.20e-06	0	43	0	718274560	20	4836
2026-01-09 08:29:32.16	10.42	17.43	-29.7	-32.1	14.0	4.50e-06	0	43	0	723517440	20	4774
2026-01-09 08:29:35.17	9.85	17.23	-29.8	-32.4	13.9	3.00e-06	0	43	0	729808896	20	4855
2026-01-09 08:29:38.19	9.29	17.02	-29.7	-32.1	14.0	3.80e-06	0	43	0	735051776	20	4763
2026-01-09 08:29:41.20	8.74	16.82	-29.9	-32.7	13.6	3.80e-06	0	43	0	741343232	20	4989
2026-01-09 08:29:44.21	8.20	16.62	-29.4	-31.5	14.4	0.00e+00	0	43	0	746586112	20	4583
2026-01-09 08:29:47.23	7.67	16.41	-29.6	-31.8	14.2	1.50e-06	0	43	0	751828992	20	4679
2026-01-09 08:29:50.25	7.14	16.20	-29.5	-31.6	14.3	3.00e-06	0	43	0	758120448	20	4584
2026-01-09 08:29:53.26	6.62	16.00	-29.7	-32.1	14.0	7.00e-07	0	43	0	763363328	20	4759
2026-01-09 08:29:56.28	6.10	15.79	-29.2	-31.4	14.8	1.50e-06	0	43	0	769654784	19	4628
2026-01-09 08:29:59.30	5.60	15.58	-29.3	-31.7	14.6	0.00e+00	0	42	0	774897664	19	4740
2026-01-09 08:30:02.31	5.10	15.37	-29.6	-32.4	14.1	1.50e-06	0	43	0	780140544	19	4983
2026-01-09 08:30:05.33	4.61	15.16	-29.8	-32.9	13.8	5.30e-06	0	43	0	786432000	19	5170
2026-01-09 08:30:08.35	4.12	14.96	-29.4	-32.0	14.4	0.00e+00	0	43	0	791674880	19	4840
2026-01-09 08:30:11.36	3.65	14.75	-29.5	-32.2	14.3	1.50e-06	0	43	0	797966336	19	4908
2026-01-09 08:30:14.37	3.18	14.54	-29.4	-31.8	14.5	0.00e+00	0	43	0	803209216	19	4762
2026-01-09 08:30:17.38	2.71	14.33	-29.5	-32.1	14.3	0.00e+00	0	43	0	808452096	19	4884
2026-01-09 08:30:20.39	2.26	14.12	-29.8	-32.9	13.8	6.10e-06	0	43	0	814743552	19	5158
2026-01-09 08:30:23.40	1.80	13.91	-29.8	-33.1	13.5	6.10e-06	0	43	0	819986432	19	5238
2026-01-09 08:30:26.42	1.36	13.70	-29.8	-32.7	13.4	1.29e-05	0	43	0	825229312	20	4991
2026-01-09 08:30:29.44	0.92	13.49	-29.8	-32.5	13.5	6.80e-06	0	43	0	831520768	20	4934
2026-01-09 08:30:32.45	0.49	13.28	-29.8	-32.6	13.4	6.80e-06	0	43	0	836763648	20	4983
2026-01-09 08:30:35.47	0.06	13.07	-29.8	-32.7	13.4	9.90e-06	0	43	0	843055104	20	5009
2026-01-09 08:30:38.48	359.64	12.86	-30.0	-33.1	13.0	3.81e-05	0	43	0	848297984	20	5179
2026-01-09 08:30:41.50	359.23	12.65	-29.8	-32.7	13.3	1.22e-05	0	43	0	853540864	20	5024
2026-01-09 08:30:44.52	358.82	12.44	-30.1	-33.5	12.8	5.26e-05	0	43	0	859832320	20	5299
2026-01-09 08:30:47.52	358.42	12.24	-30.0	-33.3	12.9	5.72e-05	0	43	0	865075200	20	5231
2026-01-09 08:30:50.54	358.03	12.03	-30.0	-33.1	13.0	6.71e-05	0	43	0	871366656	20	5171
2026-01-09 08:30:53.56	357.64	11.82	-30.0	-33.1	13.0	2.97e-05	0	43	0	876609536	20	5169
2026-01-09 08:30:56.57	357.25	11.61	-30.1	-33.4	12.8	6.56e-05	0	43	0	881852416	20	5275
2026-01-09 08:30:59.59	356.87	11.41	-30.1	-33.6	12.7	9.53e-05	0	43	0	888143872	20	5367
2026-01-09 08:31:02.60	356.50	11.20	-30.3	-34.0	12.4	1.28e-04	0	43	0	893386752	20	5517
2026-01-09 08:31:05.62	356.13	11.00	-30.3	-34.3	12.2	1.88e-04	0	43	0	899678208	20	5643
2026-01-09 08:31:08.62	355.77	10.79	-30.3	-34.1	12.3	1.68e-04	0	43	0	904921088	20	5590
2026-01-09 08:31:11.64	355.41	10.59	-30.3	-34.0	12.3	1.68e-04	0	43	0	910163968	20	5540
2026-01-09 08:31:14.66	355.06	10.38	-30.4	-34.4	12.0	2.37e-04	0	43	0	916455424	20	5717
2026-01-09 08:31:17.68	354.71	10.18	-30.2	-34.0	12.3	1.64e-04	0	43	0	921698304	20	5540
2026-01-09 08:31:20.70	354.37	9.98	-30.5	-34.2	11.8	6.21e-04	0	43	0	927989760	21	5510
2026-01-09 08:31:23.72	354.03	9.78	-30.6	-34.7	11.3	6.31e-04	0	43	0	933232640	21	5774
2026-01-09 08:31:26.73	353.70	9.58	-30.5	-34.4	11.6	8.79e-04	0	43	0	938475520	21	5626
2026-01-09 08:31:29.75	353.37	9.38	-30.5	-34.3	11.6	6.59e-04	0	43	0	944766976	21	5597
2026-01-09 08:31:32.76	353.04	9.18	-30.5	-34.4	11.5	7.17e-04	0	43	0	950009856	21	5625
2026-01-09 08:31:35.77	352.73	8.98	-30.7	-35.0	11.1	1.67e-03	0	43	0	955252736	21	5911
2026-01-09 08:31:38.79	352.41	8.78	-30.8	-35.3	10.9	2.29e-03	0	43	0	961544192	21	6055
2026-01-09 08:31:41.81	352.10	8.58	-30.9	-35.6	10.5	3.64e-03	0	43	0	966787072	21	6233
2026-01-09 08:31:44.83	351.79	8.38	-30.8	-35.3	10.8	2.50e-03	0	43	0	973078528	21	6061
2026-01-09 08:31:47.84	351.49	8.19	-30.7	-35.1	10.9	2.14e-03	0	43	0	978321408	21	5958
2026-01-09 08:31:50.85	351.19	7.99	-30.7	-35.2	10.8	3.33e-03	0	43	0	983564288	21	6042
2026-01-09 08:31:53.87	350.90	7.80	-30.7	-35.2	10.8	2.89e-03	0	43	0	989855744	21	6017
2026-01-09 08:31:56.90	350.61	7.60	-30.9	-35.8	10.4	3.14e-03	0	43	0	995098624	21	6315
2026-01-09 08:31:59.92	350.32	7.41	-30.8	-35.4	10.6	3.71e-03	0	43	0	1001390080	21	6134
2026-01-09 08:32:02.92	350.04	7.22	-30.8	-35.7	10.4	5.38e-03	0	43	0	1006632960	21	6271
2026-01-09 08:32:05.94	349.77	7.03	-32.9	-45.3	3.8	1.27e+00	0	43	104	1011875840	25	15128

#Closed at: 2026-01-09 08:32:07
#Recorded file [1011 MB]: D:/data/31010_260109_112305.dat