passes_logs/2026/01/09/R2M6_AANII_01/R2M6_AANII_01__20260109_004740_FENGYUN_3D_rec.log

#Pass ID: 20260109_004740_FENGYUN 3D
#Satellite: FENGYUN 3D
#Configuration: FENGYUN 3D
#almurnet v.1.7.20240730
#Start time: 2026-01-09 00:47:40

#Version: 2.2.20231116
#Station: R2M6_AANII_01
#Location: 30.233357 lon 59.946436 lat
#TLE: 1 43010U 17072A   26008.51967461  .00000013  00000+0  27718-4 0  9992
#TLE: 2 43010  98.9935 340.2353 0002115 119.1573 240.9815 14.19693759422336

#Time	Az	El	Level	Level2	SNR	BER	BlckErr	Temp	State	Recorded	gain1	gain2
2026-01-09 00:47:40.47	30.60	6.99	-29.2	-32.3	5.5	7.71e-01	0	41	0	0	18	5140
2026-01-09 00:47:43.49	30.88	7.18	-30.8	-35.6	7.2	1.05e-01	0	40	0	5242880	21	6255
2026-01-09 00:47:46.51	31.18	7.36	-30.2	-34.0	8.6	3.65e-02	0	41	0	22020096	20	5564
2026-01-09 00:47:49.52	31.47	7.55	-29.2	-32.1	10.8	3.07e-03	0	41	0	39845888	18	5013
2026-01-09 00:47:52.55	31.77	7.74	-28.8	-31.5	11.5	1.25e-03	0	41	0	56623104	17	4926
2026-01-09 00:47:55.57	32.07	7.94	-28.0	-30.2	12.7	4.31e-04	0	41	0	73400320	16	4609
2026-01-09 00:47:58.59	32.38	8.13	-27.4	-29.2	13.4	1.25e-05	0	41	0	90177536	15	4436
2026-01-09 00:48:01.62	32.69	8.32	-26.9	-29.0	14.2	3.47e-04	0	41	0	106954752	13	4584
2026-01-09 00:48:04.64	33.00	8.52	-26.7	-28.6	14.4	1.10e-06	0	41	0	124780544	13	4460
2026-01-09 00:48:07.65	33.32	8.71	-26.7	-28.5	14.5	0.00e+00	0	41	0	141557760	13	4438
2026-01-09 00:48:10.66	33.64	8.90	-26.5	-28.1	14.7	1.10e-06	0	41	0	158334976	13	4322
2026-01-09 00:48:13.69	33.97	9.10	-26.4	-27.9	14.8	0.00e+00	0	41	0	175112192	13	4264
2026-01-09 00:48:16.71	34.30	9.30	-26.4	-28.3	14.9	0.00e+00	0	42	0	191889408	12	4484
2026-01-09 00:48:19.71	34.63	9.49	-26.4	-27.8	14.9	0.00e+00	0	41	0	208666624	13	4247
2026-01-09 00:48:22.72	34.97	9.69	-26.3	-27.6	15.1	0.00e+00	0	42	0	226492416	13	4171
2026-01-09 00:48:25.73	35.31	9.89	-26.1	-27.1	15.4	0.00e+00	0	42	0	243269632	13	4032
2026-01-09 00:48:28.74	35.66	10.09	-26.1	-27.7	15.3	0.00e+00	0	41	0	260046848	12	4313
2026-01-09 00:48:31.74	36.01	10.29	-26.0	-27.5	15.4	0.00e+00	0	42	0	276824064	12	4272
2026-01-09 00:48:34.77	36.37	10.49	-26.1	-27.6	15.4	0.00e+00	0	42	0	293601280	12	4286
2026-01-09 00:48:37.79	36.73	10.69	-26.1	-27.6	15.4	0.00e+00	0	42	0	310378496	12	4302
2026-01-09 00:48:40.81	37.10	10.90	-26.2	-28.0	15.2	2.02e-04	0	42	0	328204288	12	4395
2026-01-09 00:48:43.83	37.47	11.10	-26.3	-28.0	15.2	0.00e+00	0	42	0	344981504	12	4419
2026-01-09 00:48:46.84	37.84	11.30	-26.0	-27.5	15.5	1.14e-05	0	42	0	361758720	12	4257
2026-01-09 00:48:49.86	38.23	11.51	-25.9	-27.2	15.7	8.00e-06	0	42	0	378535936	12	4192
2026-01-09 00:48:52.88	38.61	11.71	-25.7	-26.8	15.9	1.09e-04	0	42	0	395313152	12	4073
2026-01-09 00:48:55.90	39.00	11.92	-26.0	-27.4	15.6	1.14e-04	0	42	0	412090368	12	4246
2026-01-09 00:48:58.92	39.40	12.12	-25.9	-27.3	15.7	9.04e-05	0	42	0	429916160	12	4198
2026-01-09 00:49:01.94	39.81	12.33	-25.8	-27.0	15.8	4.50e-06	0	42	0	446693376	12	4136
2026-01-09 00:49:04.95	40.21	12.54	-25.6	-26.6	16.1	0.00e+00	0	42	0	463470592	12	4010
2026-01-09 00:49:07.97	40.63	12.74	-25.5	-26.2	16.3	1.51e-04	0	42	0	480247808	12	3933
2026-01-09 00:49:10.99	41.05	12.95	-25.6	-26.5	16.2	7.78e-05	0	42	0	498073600	12	4005
2026-01-09 00:49:14.01	41.47	13.16	-25.6	-26.5	16.2	0.00e+00	0	42	0	514850816	12	3987
2026-01-09 00:49:17.03	41.90	13.37	-26.0	-27.4	15.7	0.00e+00	0	42	0	531628032	12	4235
2026-01-09 00:49:20.05	42.34	13.58	-25.4	-26.1	16.5	0.00e+00	0	42	0	548405248	12	3894
2026-01-09 00:49:23.07	42.79	13.79	-25.4	-26.1	16.5	0.00e+00	0	42	0	565182464	12	3906
2026-01-09 00:49:26.08	43.23	14.00	-25.3	-25.9	16.6	0.00e+00	0	42	0	583008256	12	3840
2026-01-09 00:49:29.09	43.69	14.21	-25.4	-26.5	16.6	0.00e+00	0	42	0	599785472	11	4109
2026-01-09 00:49:32.11	44.15	14.42	-25.5	-26.7	16.5	0.00e+00	0	43	0	616562688	11	4148
2026-01-09 00:49:35.12	44.62	14.63	-25.5	-26.7	16.5	0.00e+00	0	43	0	633339904	11	4165
2026-01-09 00:49:38.14	45.09	14.84	-25.4	-26.5	16.6	0.00e+00	0	42	0	650117120	11	4105
2026-01-09 00:49:41.16	45.57	15.05	-25.4	-26.5	16.6	0.00e+00	0	42	0	666894336	11	4094
2026-01-09 00:49:44.18	46.06	15.26	-25.2	-26.0	16.9	0.00e+00	0	42	0	684720128	11	3976
2026-01-09 00:49:47.20	46.56	15.47	-25.2	-26.0	16.9	0.00e+00	0	42	0	701497344	11	3975
2026-01-09 00:49:50.22	47.06	15.68	-25.0	-26.2	17.1	0.00e+00	0	43	0	718274560	10	4126
2026-01-09 00:49:53.22	47.56	15.89	-24.9	-26.1	17.2	0.00e+00	0	43	0	735051776	10	4096
2026-01-09 00:49:56.24	48.08	16.10	-24.8	-25.6	17.4	0.00e+00	0	43	0	751828992	10	3992
2026-01-09 00:49:59.27	48.60	16.31	-25.0	-26.2	17.1	0.00e+00	0	42	0	768606208	10	4117
2026-01-09 00:50:02.30	49.14	16.52	-25.2	-26.6	16.9	0.00e+00	0	42	0	786432000	10	4236
2026-01-09 00:50:05.31	49.67	16.72	-24.9	-26.0	17.2	0.00e+00	0	42	0	803209216	10	4074
2026-01-09 00:50:08.33	50.22	16.93	-24.6	-25.4	17.6	0.00e+00	0	43	0	819986432	10	3920
2026-01-09 00:50:11.34	50.77	17.14	-24.5	-25.2	17.7	0.00e+00	0	43	0	836763648	10	3877
2026-01-09 00:50:14.36	51.32	17.34	-24.6	-25.3	17.6	0.00e+00	0	43	0	853540864	10	3899
2026-01-09 00:50:17.37	51.89	17.55	-24.7	-26.0	17.5	0.00e+00	0	43	0	871366656	9	4192
2026-01-09 00:50:20.40	52.47	17.75	-24.7	-26.0	17.5	0.00e+00	0	43	0	888143872	9	4193
2026-01-09 00:50:23.41	53.05	17.96	-24.7	-25.9	17.6	0.00e+00	0	43	0	904921088	9	4166
2026-01-09 00:50:26.43	53.64	18.16	-24.6	-25.7	17.6	0.00e+00	0	43	0	921698304	9	4123
2026-01-09 00:50:29.45	54.23	18.36	-24.5	-25.7	17.7	0.00e+00	0	43	0	938475520	9	4114
2026-01-09 00:50:32.47	54.84	18.56	-24.4	-25.3	17.9	0.00e+00	0	43	0	955252736	9	4012
2026-01-09 00:50:35.48	55.45	18.76	-24.6	-25.8	17.7	0.00e+00	0	43	0	973078528	9	4132
2026-01-09 00:50:38.51	56.07	18.95	-24.5	-25.5	17.8	0.00e+00	0	43	0	989855744	9	4059
2026-01-09 00:50:41.52	56.70	19.15	-24.2	-25.0	18.1	0.00e+00	0	43	0	1006632960	9	3934
2026-01-09 00:50:44.54	57.33	19.34	-24.5	-25.6	17.8	0.00e+00	0	43	0	1023410176	9	4077
2026-01-09 00:50:47.56	57.98	19.53	-24.5	-25.6	17.8	0.00e+00	0	43	0	1040187392	9	4075
2026-01-09 00:50:50.58	58.63	19.72	-24.3	-25.1	18.1	0.00e+00	0	43	0	1058013184	9	3955
2026-01-09 00:50:53.60	59.29	19.90	-24.3	-25.2	18.0	0.00e+00	0	43	0	1074790400	9	3977
2026-01-09 00:50:56.62	59.96	20.09	-24.9	-26.4	17.4	0.00e+00	0	43	0	1091567616	9	4285
2026-01-09 00:50:59.65	60.63	20.27	-24.5	-25.5	17.9	0.00e+00	0	43	0	1108344832	9	4059
2026-01-09 00:51:02.67	61.32	20.45	-24.3	-25.2	18.0	0.00e+00	0	43	0	1125122048	9	3998
2026-01-09 00:51:05.69	62.01	20.62	-23.7	-24.4	18.7	0.00e+00	0	43	0	1142947840	8	3905
2026-01-09 00:51:08.71	62.71	20.80	-23.6	-24.3	18.8	0.00e+00	0	43	0	1159725056	8	3868
2026-01-09 00:51:11.73	63.42	20.97	-23.8	-24.7	18.6	0.00e+00	0	43	0	1176502272	8	3982
2026-01-09 00:51:14.74	64.13	21.13	-23.9	-24.9	18.5	0.00e+00	0	43	0	1193279488	8	4009
2026-01-09 00:51:17.76	64.85	21.30	-23.6	-24.1	18.9	0.00e+00	0	43	0	1210056704	8	3838
2026-01-09 00:51:20.78	65.58	21.46	-23.6	-24.7	18.8	0.00e+00	0	43	0	1227882496	7	4086
2026-01-09 00:51:23.81	66.32	21.61	-23.9	-24.8	18.5	0.00e+00	0	43	0	1244659712	8	4004
2026-01-09 00:51:26.83	67.06	21.77	-23.8	-24.7	18.6	3.81e-04	0	43	0	1261436928	8	3958
2026-01-09 00:51:29.84	67.81	21.91	-23.7	-24.4	18.7	0.00e+00	0	43	0	1278214144	8	3898
2026-01-09 00:51:32.86	68.57	22.06	-23.9	-24.8	18.5	0.00e+00	0	43	0	1294991360	8	4005
2026-01-09 00:51:35.86	69.33	22.20	-24.0	-25.1	18.4	1.77e-04	0	43	0	1312817152	8	4075
2026-01-09 00:51:38.89	70.10	22.33	-23.4	-23.8	19.1	2.18e-04	0	43	0	1329594368	8	3753
2026-01-09 00:51:41.90	70.88	22.46	-23.4	-23.8	19.0	2.31e-04	0	43	0	1346371584	8	3762
2026-01-09 00:51:44.92	71.66	22.59	-23.5	-24.7	18.6	3.66e-04	0	43	0	1363148800	7	4092
2026-01-09 00:51:47.94	72.45	22.71	-23.6	-24.9	18.6	2.08e-04	0	43	0	1379926016	7	4140
2026-01-09 00:51:50.96	73.25	22.83	-23.6	-24.8	18.6	0.00e+00	0	43	0	1397751808	7	4133
2026-01-09 00:51:53.99	74.06	22.94	-23.8	-25.3	18.4	1.22e-04	0	43	0	1414529024	7	4254
2026-01-09 00:51:57.00	74.86	23.04	-23.4	-24.3	18.9	2.36e-04	0	43	0	1431306240	7	4000
2026-01-09 00:52:00.02	75.67	23.14	-23.1	-23.8	19.1	0.00e+00	0	43	0	1448083456	7	3875
2026-01-09 00:52:03.04	76.49	23.24	-23.2	-24.0	19.0	0.00e+00	0	43	0	1464860672	7	3922
2026-01-09 00:52:06.06	77.32	23.33	-23.1	-23.8	19.1	0.00e+00	0	43	0	1482686464	7	3874
2026-01-09 00:52:09.07	78.14	23.41	-23.3	-24.1	19.0	0.00e+00	0	43	0	1499463680	7	3951
2026-01-09 00:52:12.10	78.98	23.49	-23.2	-23.8	19.1	0.00e+00	0	43	0	1516240896	7	3889
2026-01-09 00:52:15.11	79.81	23.56	-23.1	-23.6	19.2	0.00e+00	0	43	0	1533018112	7	3842
2026-01-09 00:52:18.13	80.65	23.62	-23.3	-24.0	19.0	0.00e+00	0	43	0	1549795328	7	3946
2026-01-09 00:52:21.14	81.49	23.68	-23.4	-24.4	18.8	0.00e+00	0	43	0	1567621120	7	4032
2026-01-09 00:52:24.16	82.34	23.74	-23.5	-24.6	18.7	0.00e+00	0	43	0	1584398336	7	4065
2026-01-09 00:52:27.17	83.18	23.78	-23.4	-24.4	18.8	0.00e+00	0	43	0	1601175552	7	4027
2026-01-09 00:52:30.20	84.04	23.82	-23.6	-24.7	18.7	0.00e+00	0	43	0	1617952768	7	4099
2026-01-09 00:52:33.22	84.89	23.86	-23.1	-23.7	19.1	0.00e+00	0	43	0	1634729984	7	3868
2026-01-09 00:52:36.23	85.74	23.89	-23.1	-23.7	19.1	0.00e+00	0	43	0	1652555776	7	3868
2026-01-09 00:52:39.25	86.60	23.91	-23.2	-24.0	18.9	0.00e+00	0	43	0	1669332992	7	3917
2026-01-09 00:52:42.26	87.45	23.92	-23.2	-23.9	19.0	0.00e+00	0	43	0	1686110208	7	3900
2026-01-09 00:52:45.28	88.31	23.93	-23.4	-24.4	18.8	0.00e+00	0	43	0	1702887424	7	4032
2026-01-09 00:52:48.29	89.17	23.93	-22.9	-23.8	19.3	0.00e+00	0	43	0	1719664640	6	3985
2026-01-09 00:52:51.32	90.03	23.92	-22.8	-23.6	19.4	2.40e-04	0	43	0	1736441856	6	3944
2026-01-09 00:52:54.34	90.89	23.91	-23.1	-24.2	19.1	0.00e+00	0	43	0	1754267648	6	4098
2026-01-09 00:52:57.36	91.74	23.89	-22.9	-23.8	19.3	1.85e-04	0	43	0	1771044864	6	3995
2026-01-09 00:53:00.38	92.60	23.87	-23.2	-24.4	19.0	7.43e-05	0	43	0	1787822080	6	4142
2026-01-09 00:53:03.39	93.45	23.84	-22.9	-23.8	19.3	8.58e-05	0	43	0	1804599296	6	3999
2026-01-09 00:53:06.41	94.30	23.80	-22.9	-23.8	19.3	0.00e+00	0	43	0	1821376512	6	3999
2026-01-09 00:53:09.43	95.15	23.76	-22.9	-23.9	19.3	0.00e+00	0	43	0	1839202304	6	4006
2026-01-09 00:53:12.45	96.00	23.70	-23.0	-24.1	19.1	0.00e+00	0	43	0	1855979520	6	4076
2026-01-09 00:53:15.47	96.85	23.65	-23.1	-24.3	19.0	0.00e+00	0	43	0	1872756736	6	4126
2026-01-09 00:53:18.49	97.69	23.58	-23.0	-24.0	19.2	0.00e+00	0	43	0	1889533952	6	4042
2026-01-09 00:53:21.51	98.53	23.51	-23.2	-24.5	18.9	4.50e-06	0	43	0	1906311168	6	4169
2026-01-09 00:53:24.53	99.36	23.44	-23.3	-24.7	18.8	0.00e+00	0	43	0	1924136960	6	4219
2026-01-09 00:53:27.56	100.20	23.36	-23.4	-24.4	18.8	0.00e+00	0	43	0	1940914176	7	4020
2026-01-09 00:53:30.58	101.02	23.27	-23.4	-24.3	18.8	0.00e+00	0	43	0	1957691392	7	4011
2026-01-09 00:53:33.59	101.84	23.18	-23.3	-24.1	18.9	0.00e+00	0	43	0	1974468608	7	3960
2026-01-09 00:53:36.61	102.66	23.08	-23.2	-23.9	19.0	0.00e+00	0	43	0	1991245824	7	3909
2026-01-09 00:53:39.63	103.47	22.97	-23.4	-24.3	18.8	0.00e+00	0	43	0	2009071616	7	4002
2026-01-09 00:53:42.64	104.28	22.87	-23.4	-24.4	18.7	0.00e+00	0	43	0	2025848832	7	4025
2026-01-09 00:53:45.66	105.08	22.75	-23.5	-24.7	18.6	0.00e+00	0	43	0	2042626048	7	4099
2026-01-09 00:53:48.68	105.87	22.63	-23.6	-24.8	18.5	0.00e+00	0	43	0	2059403264	7	4121
2026-01-09 00:53:51.71	106.67	22.51	-23.4	-24.4	18.7	0.00e+00	0	43	0	2076180480	7	4019
2026-01-09 00:53:54.73	107.45	22.38	-23.7	-24.9	18.4	0.00e+00	0	43	0	2094006272	7	4167
2026-01-09 00:53:57.75	108.23	22.24	-23.5	-24.5	18.6	0.00e+00	0	43	0	2110783488	7	4061
2026-01-09 00:54:00.77	109.00	22.10	-23.7	-25.1	18.3	0.00e+00	0	43	0	2127560704	7	4205
2026-01-09 00:54:03.79	109.76	21.96	-23.9	-25.3	18.2	0.00e+00	0	43	0	2144337920	7	4274
2026-01-09 00:54:06.81	110.51	21.81	-24.4	-25.9	17.7	0.00e+00	0	43	0	2161115136	8	4299
2026-01-09 00:54:09.83	111.26	21.66	-24.3	-25.3	17.7	0.00e+00	0	43	0	2178940928	9	4037
2026-01-09 00:54:12.85	112.01	21.50	-24.1	-24.9	17.9	0.00e+00	0	43	0	2195718144	9	3929
2026-01-09 00:54:15.88	112.74	21.34	-24.5	-25.8	17.5	0.00e+00	0	43	0	2212495360	9	4153
2026-01-09 00:54:18.90	113.47	21.18	-24.3	-24.9	17.7	0.00e+00	0	43	0	2229272576	10	3834
2026-01-09 00:54:21.92	114.19	21.01	-24.3	-25.4	17.7	0.00e+00	0	43	0	2246049792	9	4053
2026-01-09 00:54:24.94	114.90	20.84	-24.6	-25.8	17.4	0.00e+00	0	43	0	2263875584	9	4162
2026-01-09 00:54:27.95	115.60	20.67	-25.2	-26.7	16.7	0.00e+00	0	43	0	2280652800	10	4297
2026-01-09 00:54:30.98	116.30	20.50	-24.5	-25.2	17.5	0.00e+00	0	43	0	2297430016	10	3907
2026-01-09 00:54:34.00	116.99	20.32	-24.2	-25.1	17.8	0.00e+00	0	43	0	2314207232	9	3984
2026-01-09 00:54:37.02	117.67	20.14	-24.2	-25.2	17.7	0.00e+00	0	43	0	2330984448	9	4020
2026-01-09 00:54:40.04	118.35	19.95	-24.1	-25.0	17.8	0.00e+00	0	43	0	2348810240	9	3956
2026-01-09 00:54:43.05	119.01	19.76	-24.1	-24.9	17.8	0.00e+00	0	43	0	2365587456	9	3949
2026-01-09 00:54:46.05	119.66	19.58	-24.3	-25.2	17.7	0.00e+00	0	43	0	2382364672	9	4020
2026-01-09 00:54:49.07	120.31	19.39	-24.3	-25.3	17.6	0.00e+00	0	43	0	2399141888	9	4031
2026-01-09 00:54:52.09	120.95	19.19	-24.5	-25.7	17.4	0.00e+00	0	43	0	2415919104	9	4151
2026-01-09 00:54:55.11	121.59	19.00	-24.5	-25.7	17.4	0.00e+00	0	43	0	2432696320	9	4129
2026-01-09 00:54:58.13	122.21	18.80	-24.5	-25.8	17.3	0.00e+00	0	43	0	2450522112	9	4155
2026-01-09 00:55:01.15	122.83	18.60	-24.9	-26.7	16.9	0.00e+00	0	43	0	2467299328	9	4404
2026-01-09 00:55:04.17	123.44	18.40	-24.8	-26.4	17.0	0.00e+00	0	43	0	2484076544	9	4338
2026-01-09 00:55:07.19	124.05	18.20	-24.8	-26.4	17.0	0.00e+00	0	43	0	2500853760	9	4324
2026-01-09 00:55:10.21	124.64	18.00	-24.7	-25.6	17.1	0.00e+00	0	43	0	2517630976	10	4016
2026-01-09 00:55:13.21	125.22	17.79	-24.5	-25.3	17.3	0.00e+00	0	43	0	2535456768	10	3928
2026-01-09 00:55:16.24	125.80	17.59	-24.6	-25.5	17.2	1.10e-06	0	43	0	2552233984	10	3976
2026-01-09 00:55:19.25	126.37	17.38	-24.7	-25.7	17.1	0.00e+00	0	43	0	2569011200	10	4027
2026-01-09 00:55:22.28	126.94	17.17	-25.2	-26.7	16.6	0.00e+00	0	43	0	2585788416	10	4282
2026-01-09 00:55:25.29	127.50	16.96	-25.2	-26.7	16.5	0.00e+00	0	43	0	2602565632	10	4284
2026-01-09 00:55:28.32	128.05	16.75	-25.1	-26.5	16.6	0.00e+00	0	43	0	2620391424	10	4250
2026-01-09 00:55:31.34	128.59	16.54	-25.3	-27.0	16.3	0.00e+00	0	43	0	2637168640	10	4380
2026-01-09 00:55:34.36	129.12	16.33	-25.6	-27.1	16.0	1.32e-04	0	43	0	2653945856	11	4286
2026-01-09 00:55:37.38	129.65	16.12	-25.3	-26.5	16.3	0.00e+00	0	43	0	2670723072	11	4129
2026-01-09 00:55:40.41	130.17	15.91	-25.3	-26.6	16.3	0.00e+00	0	43	0	2687500288	11	4145
2026-01-09 00:55:43.44	130.69	15.70	-25.2	-26.2	16.4	1.99e-04	0	43	0	2705326080	11	4054
2026-01-09 00:55:46.46	131.19	15.49	-25.2	-26.4	16.3	7.43e-05	0	43	0	2722103296	11	4100
2026-01-09 00:55:49.48	131.69	15.27	-25.3	-26.5	16.2	1.03e-04	0	43	0	2738880512	11	4130
2026-01-09 00:55:52.50	132.18	15.06	-25.3	-26.5	16.2	1.64e-04	0	43	0	2755657728	11	4120
2026-01-09 00:55:55.52	132.67	14.85	-25.4	-26.7	16.1	2.14e-04	0	43	0	2772434944	11	4188
2026-01-09 00:55:58.54	133.15	14.64	-26.0	-27.6	15.2	0.00e+00	0	43	0	2790260736	12	4312
2026-01-09 00:56:01.55	133.62	14.43	-26.1	-27.3	15.1	4.07e-04	0	43	0	2807037952	13	4124
2026-01-09 00:56:04.56	134.08	14.21	-26.0	-27.5	15.2	3.35e-04	0	43	0	2823815168	12	4296
2026-01-09 00:56:07.58	134.54	14.00	-26.2	-28.0	15.0	0.00e+00	0	43	0	2840592384	12	4425
2026-01-09 00:56:10.60	134.99	13.79	-26.5	-28.7	14.5	0.00e+00	0	43	0	2857369600	12	4636
2026-01-09 00:56:13.62	135.44	13.58	-26.5	-28.3	14.5	2.52e-04	0	43	0	2875195392	13	4416
2026-01-09 00:56:16.63	135.88	13.37	-26.1	-27.3	15.1	1.10e-06	0	43	0	2891972608	13	4132
2026-01-09 00:56:19.65	136.31	13.16	-26.3	-27.8	14.7	0.00e+00	0	43	0	2908749824	13	4269
2026-01-09 00:56:22.67	136.74	12.95	-25.8	-27.0	15.4	0.00e+00	0	43	0	2925527040	12	4176
2026-01-09 00:56:25.70	137.17	12.73	-26.0	-27.5	15.1	0.00e+00	0	43	0	2942304256	12	4319
2026-01-09 00:56:28.72	137.58	12.52	-26.1	-27.8	14.9	0.00e+00	0	43	0	2960130048	12	4384
2026-01-09 00:56:31.73	137.99	12.32	-26.1	-27.8	14.9	0.00e+00	0	43	0	2976907264	12	4378
2026-01-09 00:56:34.74	138.40	12.11	-26.2	-28.1	14.8	0.00e+00	0	43	0	2993684480	12	4464
2026-01-09 00:56:37.76	138.80	11.90	-26.3	-28.2	14.7	0.00e+00	0	43	0	3010461696	12	4503
2026-01-09 00:56:40.77	139.19	11.69	-26.4	-27.9	14.5	0.00e+00	0	43	0	3027238912	13	4310
2026-01-09 00:56:43.78	139.58	11.49	-26.0	-27.1	15.0	0.00e+00	0	43	0	3045064704	13	4079
2026-01-09 00:56:46.79	139.96	11.28	-26.0	-27.6	15.0	0.00e+00	0	43	0	3061841920	12	4334
2026-01-09 00:56:49.81	140.34	11.07	-25.9	-27.5	15.0	0.00e+00	0	43	0	3078619136	12	4293
2026-01-09 00:56:52.82	140.71	10.87	-26.1	-27.9	14.7	1.10e-06	0	43	0	3095396352	12	4419
2026-01-09 00:56:55.84	141.08	10.66	-26.1	-27.9	14.7	0.00e+00	0	43	0	3112173568	12	4425
2026-01-09 00:56:58.86	141.45	10.46	-26.2	-28.2	13.1	0.00e+00	0	43	0	3128950784	12	4516
2026-01-09 00:57:01.87	141.81	10.26	-26.4	-28.6	14.1	1.10e-06	0	43	0	3146776576	12	4644
2026-01-09 00:57:04.90	142.16	10.05	-26.5	-28.3	14.0	2.20e-06	0	43	0	3163553792	13	4440
2026-01-09 00:57:07.92	142.51	9.85	-26.6	-28.5	13.9	3.71e-04	0	43	0	3180331008	13	4504
2026-01-09 00:57:10.94	142.86	9.65	-26.5	-28.3	13.9	1.10e-06	0	43	0	3197108224	13	4453
2026-01-09 00:57:13.95	143.19	9.45	-26.5	-28.5	13.8	8.27e-04	0	43	0	3213885440	13	4505
2026-01-09 00:57:16.96	143.53	9.25	-26.7	-28.8	13.6	9.21e-04	0	43	0	3230662656	13	4612
2026-01-09 00:57:19.97	143.86	9.05	-26.9	-29.5	13.2	1.13e-03	0	43	0	3248488448	13	4824
2026-01-09 00:57:23.00	144.19	8.85	-26.8	-29.3	13.2	1.02e-03	0	43	0	3265265664	13	4766
2026-01-09 00:57:26.01	144.51	8.66	-26.9	-28.8	13.2	1.04e-03	0	43	0	3282042880	14	4513
2026-01-09 00:57:29.02	144.83	8.46	-26.8	-29.1	13.4	9.65e-04	0	43	0	3298820096	13	4701
2026-01-09 00:57:32.02	145.14	8.27	-26.9	-29.3	13.2	1.05e-03	0	43	0	3315597312	13	4786
2026-01-09 00:57:35.03	145.45	8.07	-27.0	-29.2	13.0	6.86e-05	0	43	0	3332374528	14	4617
2026-01-09 00:57:38.05	145.76	7.88	-27.0	-29.2	13.0	1.11e-03	0	43	0	3350200320	14	4624
2026-01-09 00:57:41.06	146.06	7.69	-27.1	-29.4	12.9	3.43e-05	0	43	0	3366977536	14	4680
2026-01-09 00:57:44.08	146.36	7.49	-27.0	-29.3	12.9	4.00e-05	0	43	0	3383754752	14	4669
2026-01-09 00:57:47.10	146.65	7.30	-27.3	-30.1	12.3	1.14e-04	0	43	0	3400531968	14	4970
2026-01-09 00:57:50.11	146.94	7.11	-27.5	-30.7	12.0	1.26e-04	0	43	0	3417309184	14	5180
2026-01-09 00:57:53.14	147.23	6.92	-33.5	-45.0	3.8	8.47e-01	0	43	104	3418357760	26	13530

#Closed at: 2026-01-09 00:57:53
#Recorded file [3418 MB]: D:/data/31010_260109_034742.dat