passes_logs/2026/01/09/R2M6_AANII_01/R2M6_AANII_01__20260109_094013_SUOMI_NPP_rec.log

#Pass ID: 20260109_094013_SUOMI NPP
#Satellite: SUOMI NPP
#Configuration: NPP
#almurnet v.1.7.20240730
#Start time: 2026-01-09 09:40:14

#Version: 2.2.20231116
#Station: R2M6_AANII_01
#Location: 30.233357 lon 59.946436 lat
#TLE: 1 37849U 11061A   26008.05542337  .00000108  00000+0  71976-4 0  9997
#TLE: 2 37849  98.7805 310.1641 0002540  75.6410 284.5048 14.19523335735721

#Time	Az	El	Level	Level2	SNR	BER	BlckErr	Temp	State	Recorded	gain1	gain2
2026-01-09 09:40:14.17	137.87	7.04	-30.2	-32.3	5.5	1.19e+00	0	40	0	0	21	4614
2026-01-09 09:40:17.18	137.77	7.27	-30.6	-33.8	10.0	6.66e-03	0	40	0	1048576	21	5213
2026-01-09 09:40:20.20	137.66	7.50	-30.8	-34.6	9.4	1.46e-02	0	41	0	7340032	21	5564
2026-01-09 09:40:23.23	137.56	7.74	-30.9	-34.4	9.3	2.08e-02	0	41	0	12582912	22	5395
2026-01-09 09:40:26.24	137.45	7.97	-30.3	-32.3	10.8	4.52e-03	0	41	0	18874368	22	4525
2026-01-09 09:40:29.26	137.33	8.21	-29.8	-31.1	12.2	4.65e-04	0	41	0	24117248	21	4178
2026-01-09 09:40:32.27	137.22	8.45	-29.7	-31.2	12.6	7.55e-05	0	41	0	29360128	20	4268
2026-01-09 09:40:35.28	137.10	8.69	-29.9	-31.9	12.1	2.43e-04	0	41	0	35651584	20	4519
2026-01-09 09:40:38.30	136.99	8.94	-30.4	-33.4	11.0	1.61e-03	0	41	0	40894464	20	5091
2026-01-09 09:40:41.30	136.87	9.18	-30.3	-32.9	11.4	9.51e-04	0	41	0	46137344	20	4888
2026-01-09 09:40:44.32	136.75	9.43	-30.1	-32.4	11.9	3.13e-04	0	41	0	52428800	20	4660
2026-01-09 09:40:47.34	136.62	9.68	-29.7	-31.2	12.7	6.86e-05	0	41	0	57671680	20	4268
2026-01-09 09:40:50.35	136.49	9.94	-29.8	-31.3	12.6	7.93e-05	0	41	0	63963136	20	4307
2026-01-09 09:40:53.38	136.36	10.20	-30.1	-32.3	12.0	2.35e-04	0	41	0	69206016	20	4631
2026-01-09 09:40:56.39	136.23	10.45	-29.8	-31.4	12.7	1.62e-04	0	41	0	74448896	20	4318
2026-01-09 09:40:59.41	136.10	10.72	-29.7	-31.0	13.0	6.25e-05	0	41	0	80740352	20	4183
2026-01-09 09:41:02.43	135.96	10.98	-29.3	-30.4	13.8	8.30e-06	0	41	0	85983232	19	4072
2026-01-09 09:41:05.44	135.82	11.25	-29.7	-31.4	13.1	2.51e-05	0	42	0	92274688	19	4410
2026-01-09 09:41:08.45	135.68	11.52	-30.1	-32.3	12.1	2.20e-04	0	42	0	97517568	20	4612
2026-01-09 09:41:11.46	135.54	11.79	-30.3	-32.8	11.8	4.52e-04	0	42	0	102760448	20	4814
2026-01-09 09:41:14.47	135.39	12.06	-30.4	-33.0	11.6	4.13e-04	0	42	0	109051904	20	4878
2026-01-09 09:41:17.48	135.24	12.34	-30.2	-32.3	12.2	3.08e-04	0	42	0	114294784	20	4607
2026-01-09 09:41:20.50	135.09	12.62	-30.3	-32.7	11.9	3.14e-04	0	42	0	120586240	20	4751
2026-01-09 09:41:23.52	134.93	12.91	-30.7	-33.5	11.0	1.26e-03	0	42	0	125829120	21	4974
2026-01-09 09:41:26.54	134.77	13.20	-30.1	-31.5	12.4	3.62e-04	0	42	0	131072000	21	4252
2026-01-09 09:41:29.56	134.61	13.49	-29.6	-30.7	13.3	2.97e-05	0	42	0	137363456	20	4088
2026-01-09 09:41:32.58	134.44	13.78	-29.6	-30.6	13.4	1.29e-05	0	42	0	142606336	20	4047
2026-01-09 09:41:35.60	134.27	14.08	-29.7	-31.1	13.2	2.28e-05	0	42	0	148897792	20	4206
2026-01-09 09:41:38.61	134.09	14.38	-29.8	-31.3	13.0	2.44e-05	0	42	0	154140672	20	4268
2026-01-09 09:41:41.63	133.92	14.69	-29.4	-30.0	13.8	3.00e-06	0	42	0	159383552	20	3887
2026-01-09 09:41:44.65	133.74	14.99	-29.3	-30.4	14.0	4.50e-06	0	42	0	165675008	19	4068
2026-01-09 09:41:47.67	133.55	15.31	-29.7	-31.3	13.5	6.10e-06	0	42	0	170917888	19	4335
2026-01-09 09:41:50.69	133.36	15.62	-29.8	-31.4	13.5	1.29e-05	0	42	0	177209344	19	4339
2026-01-09 09:41:53.71	133.17	15.94	-29.7	-31.1	13.7	6.10e-06	0	42	0	182452224	19	4259
2026-01-09 09:41:56.72	132.97	16.26	-29.9	-31.2	13.2	3.50e-05	0	42	0	187695104	20	4205
2026-01-09 09:41:59.73	132.77	16.59	-30.0	-31.6	13.0	2.05e-05	0	42	0	193986560	20	4343
2026-01-09 09:42:02.75	132.56	16.92	-29.9	-31.3	13.3	3.35e-05	0	42	0	199229440	20	4221
2026-01-09 09:42:05.76	132.35	17.26	-29.9	-31.3	13.3	1.22e-05	0	42	0	204472320	20	4207
2026-01-09 09:42:08.78	132.13	17.60	-29.9	-31.1	13.4	1.83e-05	0	42	0	210763776	20	4169
2026-01-09 09:42:11.81	131.91	17.94	-29.8	-31.0	13.5	9.10e-06	0	42	0	216006656	20	4134
2026-01-09 09:42:14.83	131.68	18.29	-29.6	-30.5	13.9	9.90e-06	0	42	0	222298112	20	3968
2026-01-09 09:42:17.84	131.44	18.64	-29.6	-30.5	13.9	3.00e-06	0	42	0	227540992	20	3987
2026-01-09 09:42:20.86	131.21	19.00	-29.7	-30.6	13.8	6.80e-06	0	42	0	232783872	20	4008
2026-01-09 09:42:23.88	130.96	19.36	-30.0	-31.4	13.4	1.44e-05	0	42	0	239075328	20	4235
2026-01-09 09:42:26.89	130.71	19.73	-30.1	-31.6	13.3	1.06e-05	0	42	0	244318208	20	4312
2026-01-09 09:42:29.90	130.45	20.10	-30.2	-32.1	13.0	1.60e-05	0	42	0	250609664	20	4451
2026-01-09 09:42:32.92	130.19	20.48	-30.2	-32.0	13.1	2.44e-05	0	42	0	255852544	20	4416
2026-01-09 09:42:35.94	129.92	20.86	-30.0	-31.5	13.4	1.06e-05	0	42	0	261095424	20	4262
2026-01-09 09:42:38.96	129.64	21.25	-30.1	-31.5	13.5	2.05e-05	0	42	0	267386880	20	4263
2026-01-09 09:42:41.98	129.36	21.64	-30.3	-32.2	13.0	3.58e-05	0	42	0	272629760	20	4464
2026-01-09 09:42:45.00	129.06	22.04	-30.1	-31.5	13.5	1.90e-05	0	42	0	278921216	20	4256
2026-01-09 09:42:48.01	128.76	22.44	-30.2	-32.0	13.2	1.67e-05	0	42	0	284164096	20	4404
2026-01-09 09:42:51.02	128.46	22.85	-30.3	-32.3	13.0	3.96e-05	0	42	0	289406976	20	4510
2026-01-09 09:42:54.04	128.14	23.26	-30.4	-32.4	12.9	3.89e-05	0	43	0	295698432	20	4526
2026-01-09 09:42:57.05	127.81	23.68	-30.5	-32.2	12.7	8.31e-05	0	42	0	300941312	21	4379
2026-01-09 09:43:00.08	127.48	24.11	-30.8	-32.9	12.3	1.94e-04	0	42	0	307232768	21	4615
2026-01-09 09:43:03.09	127.13	24.54	-30.4	-31.8	13.0	1.05e-04	0	42	0	312475648	21	4253
2026-01-09 09:43:06.10	126.78	24.98	-30.3	-31.5	13.2	2.59e-05	0	43	0	317718528	21	4161
2026-01-09 09:43:09.12	126.42	25.42	-30.6	-32.4	12.8	8.85e-05	0	43	0	324009984	21	4430
2026-01-09 09:43:12.12	126.04	25.87	-30.8	-33.1	12.3	1.27e-04	0	43	0	329252864	21	4689
2026-01-09 09:43:15.13	125.66	26.32	-30.8	-32.9	12.4	1.47e-04	0	42	0	335544320	21	4579
2026-01-09 09:43:18.16	125.26	26.79	-30.7	-32.1	12.7	1.23e-04	0	43	0	340787200	22	4237
2026-01-09 09:43:21.17	124.85	27.25	-30.2	-31.3	13.5	1.14e-05	0	43	0	346030080	21	4066
2026-01-09 09:43:24.19	124.43	27.73	-30.0	-30.7	13.9	4.50e-06	0	42	0	352321536	21	3911
2026-01-09 09:43:27.20	124.00	28.21	-30.4	-31.9	13.2	1.83e-05	0	42	0	357564416	21	4243
2026-01-09 09:43:30.22	123.55	28.70	-30.3	-31.4	13.4	1.67e-05	0	43	0	363855872	21	4100
2026-01-09 09:43:33.25	123.08	29.20	-30.3	-31.3	13.6	2.59e-05	0	42	0	369098752	21	4083
2026-01-09 09:43:36.27	122.60	29.70	-30.5	-32.0	13.1	1.67e-05	0	43	0	374341632	21	4283
2026-01-09 09:43:39.29	122.11	30.21	-31.1	-33.1	12.1	1.46e-04	0	43	0	380633088	22	4564
2026-01-09 09:43:42.31	121.60	30.72	-31.0	-33.0	12.2	3.36e-04	0	43	0	385875968	22	4526
2026-01-09 09:43:45.32	121.08	31.24	-31.1	-33.5	11.7	5.00e-04	0	43	0	391118848	22	4710
2026-01-09 09:43:48.34	120.53	31.77	-31.7	-34.8	10.6	2.19e-03	0	43	0	397410304	23	5123
2026-01-09 09:43:51.36	119.97	32.31	-31.6	-34.5	10.7	4.86e-03	0	43	0	402653184	23	5013
2026-01-09 09:43:54.36	119.39	32.85	-31.5	-34.2	11.0	2.46e-03	0	43	0	408944640	23	4889
2026-01-09 09:43:57.38	118.79	33.39	-31.7	-34.7	10.6	4.43e-03	0	43	0	414187520	23	5088
2026-01-09 09:44:00.41	118.17	33.95	-31.7	-34.7	10.5	2.30e-03	0	43	0	419430400	23	5101
2026-01-09 09:44:03.42	117.52	34.51	-31.2	-33.2	11.6	1.38e-03	0	43	0	425721856	23	4562
2026-01-09 09:44:06.44	116.86	35.07	-30.9	-32.8	12.2	1.89e-04	0	43	0	430964736	22	4512
2026-01-09 09:44:09.45	116.17	35.64	-31.0	-33.4	11.7	4.48e-04	0	43	0	437256192	22	4729
2026-01-09 09:44:12.46	115.45	36.22	-31.2	-33.2	11.6	7.18e-04	0	43	0	442499072	23	4554
2026-01-09 09:44:15.48	114.71	36.80	-31.2	-33.3	11.5	8.36e-04	0	43	0	447741952	23	4560
2026-01-09 09:44:18.50	113.94	37.39	-31.6	-34.5	10.6	3.35e-03	0	43	0	454033408	23	5032
2026-01-09 09:44:21.52	113.15	37.98	-31.4	-33.8	11.1	2.23e-03	0	42	0	459276288	23	4778
2026-01-09 09:44:24.54	112.32	38.57	-31.8	-35.3	10.2	5.06e-03	0	43	0	465567744	23	5369
2026-01-09 09:44:27.55	111.46	39.17	-31.5	-34.0	10.6	7.41e-03	0	43	0	470810624	24	4773
2026-01-09 09:44:30.57	110.57	39.77	-30.8	-32.3	12.3	3.06e-04	0	43	0	476053504	23	4257
2026-01-09 09:44:33.59	109.65	40.37	-30.6	-32.1	12.8	8.85e-05	0	43	0	482344960	22	4263
2026-01-09 09:44:36.61	108.69	40.97	-30.8	-32.7	12.3	9.15e-05	0	43	0	487587840	22	4488
2026-01-09 09:44:39.62	107.69	41.58	-31.5	-34.4	10.8	1.56e-03	0	43	0	493879296	23	5029
2026-01-09 09:44:42.64	106.66	42.18	-31.2	-33.3	11.5	9.09e-04	0	43	0	499122176	23	4604
2026-01-09 09:44:45.65	105.59	42.78	-31.3	-33.8	11.2	9.44e-04	0	43	0	504365056	23	4793
2026-01-09 09:44:48.67	104.47	43.38	-31.9	-35.9	9.6	8.72e-03	0	43	0	510656512	23	5715
2026-01-09 09:44:51.69	103.31	43.98	-32.1	-35.9	9.3	2.15e-02	0	43	0	515899392	24	5576
2026-01-09 09:44:54.70	102.11	44.57	-32.1	-36.0	9.2	1.68e-02	0	43	0	522190848	24	5609
2026-01-09 09:44:57.71	100.87	45.16	-31.9	-35.3	9.8	8.88e-03	0	43	0	527433728	24	5323
2026-01-09 09:45:00.73	99.57	45.74	-31.7	-34.6	10.2	1.14e-02	0	43	0	532676608	24	4990
2026-01-09 09:45:03.75	98.23	46.31	-30.3	-31.5	13.4	1.14e-05	0	43	0	538968064	21	4172
2026-01-09 09:45:06.77	96.84	46.87	-30.2	-31.2	13.7	3.80e-06	0	43	0	544210944	21	4083
2026-01-09 09:45:09.79	95.39	47.42	-31.2	-33.8	11.6	9.86e-04	0	43	0	550502400	22	4833
2026-01-09 09:45:12.80	93.90	47.95	-30.9	-32.8	12.4	2.25e-04	0	43	0	555745280	22	4475
2026-01-09 09:45:15.82	92.36	48.47	-31.3	-33.9	11.6	5.87e-04	0	43	0	560988160	22	4891
2026-01-09 09:45:18.84	90.76	48.97	-30.7	-32.1	12.9	3.43e-05	0	43	0	567279616	22	4246
2026-01-09 09:45:21.87	89.10	49.46	-31.3	-34.2	11.4	6.10e-04	0	43	0	572522496	22	5004
2026-01-09 09:45:24.89	87.40	49.92	-30.1	-31.3	13.7	6.10e-06	0	43	0	578813952	21	4103
2026-01-09 09:45:27.90	85.65	50.36	-30.6	-32.8	12.6	7.55e-05	0	43	0	584056832	21	4620
2026-01-09 09:45:30.92	83.85	50.77	-32.2	-37.0	8.4	1.99e-02	0	43	0	589299712	24	6296
2026-01-09 09:45:33.92	82.01	51.15	-31.0	-32.9	11.8	1.79e-03	0	43	0	595591168	23	4485
2026-01-09 09:45:36.94	80.11	51.51	-30.9	-32.9	12.2	2.22e-04	0	43	0	600834048	22	4563
2026-01-09 09:45:39.96	78.16	51.83	-30.6	-32.5	12.4	1.09e-04	0	43	0	607125504	22	4455
2026-01-09 09:45:42.97	76.19	52.13	-30.1	-31.2	13.6	6.94e-05	0	43	0	612368384	21	4119
2026-01-09 09:45:45.97	74.18	52.38	-28.8	-29.5	15.7	0.00e+00	0	43	0	617611264	18	3887
2026-01-09 09:45:48.99	72.13	52.60	-28.4	-29.1	16.2	0.00e+00	0	43	0	623902720	17	3868
2026-01-09 09:45:52.01	70.05	52.78	-28.8	-29.8	15.9	0.00e+00	0	43	0	629145600	17	4081
2026-01-09 09:45:55.03	67.94	52.93	-28.5	-29.2	16.1	0.00e+00	0	43	0	635437056	17	3922
2026-01-09 09:45:58.05	65.82	53.03	-27.8	-28.0	17.0	0.00e+00	0	43	0	640679936	16	3696
2026-01-09 09:46:01.07	63.68	53.10	-29.6	-31.0	14.5	0.00e+00	0	43	0	645922816	19	4249
2026-01-09 09:46:04.09	61.54	53.12	-29.2	-29.9	15.1	0.00e+00	0	43	0	652214272	19	3893
2026-01-09 09:46:07.11	59.40	53.10	-29.3	-30.2	15.0	0.00e+00	0	43	0	657457152	19	3971
2026-01-09 09:46:10.11	57.28	53.05	-30.2	-32.2	13.3	2.82e-05	0	42	0	662700032	20	4509
2026-01-09 09:46:13.12	55.16	52.95	-29.6	-31.1	14.3	0.00e+00	0	43	0	668991488	19	4275
2026-01-09 09:46:16.14	53.05	52.81	-28.8	-29.4	15.7	0.00e+00	0	43	0	674234368	18	3878
2026-01-09 09:46:19.16	50.97	52.63	-27.8	-28.0	17.1	0.00e+00	0	43	0	680525824	16	3685
2026-01-09 09:46:22.17	48.92	52.42	-28.0	-28.5	16.8	0.00e+00	0	43	0	685768704	16	3792
2026-01-09 09:46:25.19	46.90	52.17	-28.5	-29.1	16.2	0.00e+00	0	43	0	691011584	17	3854
2026-01-09 09:46:28.20	44.92	51.88	-29.5	-30.5	14.8	7.00e-07	0	43	0	697303040	19	4040
2026-01-09 09:46:31.22	42.97	51.56	-29.0	-29.7	15.6	0.00e+00	0	43	0	702545920	18	3917
2026-01-09 09:46:34.24	41.07	51.21	-30.5	-32.2	13.0	3.28e-05	0	43	0	708837376	21	4382
2026-01-09 09:46:37.26	39.21	50.83	-30.1	-31.2	13.7	2.13e-05	0	43	0	714080256	21	4055
2026-01-09 09:46:40.28	37.40	50.42	-30.4	-32.4	13.2	1.06e-05	0	43	0	719323136	20	4552
2026-01-09 09:46:43.29	35.65	49.99	-30.5	-32.5	12.7	5.41e-05	0	43	0	725614592	21	4488
2026-01-09 09:46:46.31	33.94	49.53	-30.2	-31.5	13.5	1.29e-05	0	43	0	730857472	21	4174
2026-01-09 09:46:49.32	32.29	49.05	-30.8	-33.1	12.4	8.62e-05	0	43	0	737148928	21	4680
2026-01-09 09:46:52.35	30.68	48.55	-30.2	-31.5	13.5	5.30e-06	0	43	0	742391808	21	4169
2026-01-09 09:46:55.36	29.14	48.04	-30.0	-30.8	13.9	9.10e-06	0	43	0	747634688	21	3959
2026-01-09 09:46:58.38	27.64	47.51	-31.2	-33.6	11.7	9.71e-04	0	42	0	753926144	22	4767
2026-01-09 09:47:01.39	26.19	46.96	-30.5	-31.6	13.0	4.65e-05	0	43	0	759169024	22	4095
2026-01-09 09:47:04.40	24.80	46.41	-30.7	-32.7	12.7	1.98e-05	0	43	0	765460480	21	4531
2026-01-09 09:47:07.42	23.45	45.84	-31.9	-34.7	9.8	3.88e-02	0	43	0	770703360	25	4927
2026-01-09 09:47:10.43	22.16	45.27	-32.5	-36.9	8.0	3.56e-02	0	43	0	775946240	25	5963
2026-01-09 09:47:13.45	20.91	44.68	-31.6	-33.8	10.9	2.68e-03	0	43	0	782237696	24	4648
2026-01-09 09:47:16.47	19.70	44.09	-31.5	-33.7	10.8	1.52e-03	0	43	0	787480576	24	4639
2026-01-09 09:47:19.49	18.54	43.50	-29.7	-30.6	14.2	4.50e-06	0	43	0	793772032	20	3966
2026-01-09 09:47:22.52	17.41	42.90	-31.4	-34.2	11.2	5.96e-04	0	43	0	799014912	22	5012
2026-01-09 09:47:25.51	16.35	42.30	-31.4	-34.0	11.1	3.14e-03	0	43	0	804257792	23	4841
2026-01-09 09:47:28.54	15.30	41.70	-31.8	-35.4	9.8	1.15e-02	0	43	0	810549248	23	5449
2026-01-09 09:47:31.56	14.31	41.10	-31.7	-34.7	9.9	1.98e-02	0	43	0	815792128	24	5051
2026-01-09 09:47:34.58	13.34	40.49	-31.6	-34.8	10.3	4.14e-03	0	43	0	822083584	23	5169
2026-01-09 09:47:37.59	12.42	39.89	-31.6	-34.3	10.2	1.17e-02	0	43	0	827326464	24	4887
2026-01-09 09:47:40.61	11.52	39.30	-31.3	-33.9	10.9	2.24e-03	0	43	0	832569344	23	4815
2026-01-09 09:47:43.63	10.66	38.70	-31.1	-33.1	11.5	7.12e-04	0	43	0	838860800	23	4512
2026-01-09 09:47:46.64	9.84	38.11	-30.5	-31.9	12.7	1.79e-04	0	43	0	844103680	22	4203
2026-01-09 09:47:49.65	9.04	37.52	-31.1	-33.6	11.5	5.80e-04	0	43	0	849346560	22	4781
2026-01-09 09:47:52.67	8.27	36.94	-31.5	-34.4	10.6	2.44e-03	0	43	0	855638016	23	5006
2026-01-09 09:47:55.68	7.53	36.36	-31.4	-34.1	10.8	2.19e-03	0	43	0	860880896	23	4894
2026-01-09 09:47:58.70	6.81	35.78	-30.8	-32.7	12.1	2.00e-04	0	43	0	867172352	22	4471
2026-01-09 09:48:01.72	6.12	35.21	-31.0	-33.2	11.8	2.78e-04	0	43	0	872415232	22	4652
2026-01-09 09:48:04.74	5.45	34.65	-31.4	-34.5	10.8	1.76e-03	0	43	0	877658112	22	5128
2026-01-09 09:48:07.76	4.80	34.09	-30.3	-31.1	13.3	3.50e-05	0	43	0	883949568	22	3933
2026-01-09 09:48:10.77	4.18	33.54	-30.2	-31.4	13.4	2.05e-05	0	43	0	889192448	21	4115
2026-01-09 09:48:13.79	3.58	32.99	-30.5	-32.2	12.8	5.26e-05	0	43	0	895483904	21	4389
2026-01-09 09:48:16.80	3.00	32.46	-31.1	-33.4	11.7	4.45e-04	0	43	0	900726784	22	4683
2026-01-09 09:48:19.82	2.44	31.92	-31.0	-32.6	11.8	6.21e-04	0	43	0	905969664	23	4328
2026-01-09 09:48:22.83	1.89	31.40	-31.3	-34.0	11.2	1.54e-03	0	43	0	912261120	22	4962
2026-01-09 09:48:25.84	1.37	30.88	-31.3	-34.2	11.0	1.55e-03	0	43	0	917504000	22	5000
2026-01-09 09:48:28.87	0.86	30.36	-30.6	-31.9	12.6	7.17e-05	0	43	0	923795456	22	4190
2026-01-09 09:48:31.88	0.36	29.85	-30.4	-31.5	12.9	6.48e-05	0	43	0	929038336	22	4068
2026-01-09 09:48:34.89	359.89	29.35	-30.4	-31.4	13.0	5.03e-05	0	43	0	934281216	22	4043
2026-01-09 09:48:37.91	359.42	28.86	-31.1	-33.6	11.5	7.22e-04	0	43	0	940572672	22	4774
2026-01-09 09:48:40.92	358.98	28.37	-30.5	-31.6	12.8	6.56e-05	0	43	0	945815552	22	4114
2026-01-09 09:48:43.94	358.54	27.89	-29.9	-30.6	13.8	2.59e-05	0	43	0	952107008	21	3889
2026-01-09 09:48:46.97	358.12	27.42	-30.3	-31.8	13.0	2.13e-05	0	43	0	957349888	21	4253
2026-01-09 09:48:49.98	357.71	26.95	-30.7	-32.7	12.4	8.62e-05	0	43	0	962592768	21	4567
2026-01-09 09:48:53.00	357.31	26.49	-31.2	-33.8	11.2	1.04e-03	0	43	0	968884224	22	4882
2026-01-09 09:48:56.02	356.92	26.03	-31.2	-33.2	11.3	1.56e-03	0	43	0	974127104	23	4571
2026-01-09 09:48:59.02	356.55	25.58	-29.8	-30.4	13.9	6.10e-06	0	43	0	980418560	21	3845
2026-01-09 09:49:02.04	356.19	25.14	-29.7	-30.5	14.2	2.20e-06	0	43	0	985661440	20	3950
2026-01-09 09:49:05.06	355.83	24.70	-30.3	-32.3	13.0	4.11e-05	0	43	0	990904320	20	4515
2026-01-09 09:49:08.07	355.49	24.27	-30.7	-32.9	12.2	1.85e-04	0	43	0	997195776	21	4628
2026-01-09 09:49:11.09	355.16	23.85	-30.4	-32.2	12.6	1.04e-04	0	43	0	1002438656	21	4390
2026-01-09 09:49:14.11	354.83	23.43	-30.9	-33.5	11.7	3.55e-04	0	43	0	1007681536	21	4852
2026-01-09 09:49:17.13	354.51	23.01	-31.1	-33.5	11.4	9.28e-04	0	43	0	1013972992	22	4747
2026-01-09 09:49:20.15	354.21	22.60	-30.5	-31.9	12.5	1.59e-04	0	43	0	1019215872	22	4217
2026-01-09 09:49:23.16	353.91	22.20	-30.3	-31.6	13.0	5.56e-05	0	43	0	1025507328	21	4203
2026-01-09 09:49:26.17	353.62	21.81	-30.7	-33.0	12.1	1.69e-04	0	43	0	1030750208	21	4683
2026-01-09 09:49:29.18	353.33	21.42	-30.8	-33.2	12.0	5.19e-04	0	43	0	1035993088	21	4719
2026-01-09 09:49:32.20	353.06	21.03	-30.1	-31.1	13.3	1.67e-05	0	43	0	1042284544	21	4046
2026-01-09 09:49:35.22	352.79	20.65	-29.5	-30.2	14.2	1.50e-06	0	43	0	1047527424	20	3872
2026-01-09 09:49:38.24	352.52	20.27	-30.0	-31.4	13.4	7.60e-06	0	43	0	1053818880	20	4240
2026-01-09 09:49:41.26	352.27	19.90	-30.4	-32.6	12.6	5.34e-05	0	43	0	1059061760	20	4626
2026-01-09 09:49:44.28	352.02	19.53	-31.1	-33.7	11.2	1.04e-03	0	43	0	1064304640	22	4838
2026-01-09 09:49:47.29	351.77	19.17	-31.2	-34.1	10.9	1.49e-03	0	43	0	1070596096	22	5011
2026-01-09 09:49:50.31	351.54	18.81	-31.0	-33.3	11.4	1.12e-03	0	43	0	1075838976	22	4721
2026-01-09 09:49:53.33	351.30	18.46	-30.9	-33.1	11.6	9.90e-04	0	43	0	1082130432	22	4635
2026-01-09 09:49:56.34	351.08	18.11	-30.4	-31.6	12.6	2.04e-04	0	43	0	1087373312	22	4117
2026-01-09 09:49:59.35	350.86	17.77	-30.3	-31.7	12.8	6.56e-05	0	43	0	1092616192	21	4250
2026-01-09 09:50:02.37	350.64	17.43	-30.7	-33.0	12.0	5.00e-04	0	43	0	1098907648	21	4681
2026-01-09 09:50:05.38	350.43	17.10	-30.3	-31.9	12.6	7.24e-05	0	43	0	1104150528	21	4314
2026-01-09 09:50:08.39	350.22	16.77	-30.3	-32.0	12.5	1.15e-04	0	43	0	1110441984	21	4376
2026-01-09 09:50:11.39	350.02	16.44	-30.6	-32.8	11.9	3.53e-04	0	43	0	1115684864	21	4657
2026-01-09 09:50:14.40	349.83	16.12	-30.8	-33.3	11.6	6.03e-04	0	43	0	1120927744	21	4815
2026-01-09 09:50:17.42	349.63	15.80	-30.4	-32.3	12.2	2.15e-04	0	42	0	1127219200	21	4466
2026-01-09 09:50:20.42	349.45	15.49	-30.3	-32.0	12.4	2.01e-04	0	43	0	1132462080	21	4382
2026-01-09 09:50:23.44	349.26	15.18	-30.4	-32.2	12.2	3.66e-04	0	43	0	1137704960	21	4444
2026-01-09 09:50:26.46	349.08	14.87	-30.3	-31.9	12.3	1.26e-04	0	43	0	1143996416	21	4363
2026-01-09 09:50:29.47	348.91	14.56	-30.5	-32.6	11.8	2.59e-04	0	43	0	1149239296	21	4590
2026-01-09 09:50:32.49	348.74	14.26	-30.6	-33.0	11.6	7.76e-04	0	43	0	1155530752	21	4736
2026-01-09 09:50:35.51	348.57	13.96	-30.9	-33.8	11.0	2.09e-03	0	43	0	1160773632	21	5059
2026-01-09 09:50:38.52	348.40	13.67	-31.0	-33.6	10.7	2.74e-03	0	43	0	1166016512	22	4887
2026-01-09 09:50:41.53	348.24	13.38	-30.9	-33.3	11.0	2.64e-03	0	43	0	1172307968	22	4758
2026-01-09 09:50:44.54	348.08	13.09	-30.8	-33.2	11.0	2.42e-03	0	43	0	1177550848	22	4717
2026-01-09 09:50:47.55	347.93	12.81	-30.5	-32.1	11.7	4.30e-04	0	43	0	1183842304	22	4355
2026-01-09 09:50:50.57	347.78	12.53	-30.3	-32.2	12.1	3.91e-04	0	43	0	1189085184	21	4456
2026-01-09 09:50:53.59	347.63	12.25	-30.2	-31.9	12.2	1.66e-04	0	43	0	1194328064	21	4370
2026-01-09 09:50:56.60	347.48	11.97	-30.2	-31.8	12.2	1.62e-04	0	43	0	1200619520	21	4341
2026-01-09 09:50:59.61	347.34	11.70	-30.3	-32.1	12.0	1.95e-04	0	43	0	1205862400	21	4426
2026-01-09 09:51:02.63	347.20	11.43	-30.3	-32.3	12.0	2.97e-04	0	43	0	1212153856	21	4500
2026-01-09 09:51:05.65	347.06	11.17	-30.5	-32.8	11.6	6.80e-04	0	43	0	1217396736	21	4681
2026-01-09 09:51:08.66	346.93	10.90	-30.8	-33.6	11.0	1.83e-03	0	43	0	1222639616	21	4983
2026-01-09 09:51:11.68	346.80	10.64	-30.6	-33.1	11.3	1.26e-03	0	43	0	1228931072	21	4791
2026-01-09 09:51:14.71	346.67	10.38	-30.5	-32.9	11.4	9.96e-04	0	43	0	1234173952	21	4730
2026-01-09 09:51:17.72	346.54	10.12	-30.5	-32.9	11.4	1.12e-03	0	43	0	1239416832	21	4746
2026-01-09 09:51:20.73	346.41	9.87	-30.5	-33.0	11.3	7.97e-04	0	43	0	1245708288	21	4770
2026-01-09 09:51:23.75	346.29	9.62	-30.7	-33.6	10.9	2.02e-03	0	43	0	1250951168	21	5006
2026-01-09 09:51:26.76	346.17	9.37	-30.7	-33.5	10.9	3.06e-03	0	43	0	1257242624	21	4961
2026-01-09 09:51:29.78	346.05	9.12	-30.7	-33.5	10.8	2.72e-03	0	43	0	1262485504	21	4971
2026-01-09 09:51:32.80	345.94	8.88	-30.7	-33.7	10.7	2.36e-03	0	43	0	1267728384	21	5048
2026-01-09 09:51:35.82	345.83	8.63	-30.8	-34.1	10.3	4.81e-03	0	43	0	1274019840	21	5246
2026-01-09 09:51:38.84	345.71	8.39	-31.1	-34.4	9.7	9.74e-03	0	43	0	1279262720	22	5262
2026-01-09 09:51:41.86	345.60	8.16	-31.1	-34.4	9.6	1.51e-02	0	43	0	1285554176	22	5296
2026-01-09 09:51:44.88	345.50	7.92	-31.2	-35.0	9.2	2.34e-02	0	43	0	1290797056	22	5591
2026-01-09 09:51:47.90	345.39	7.69	-31.3	-35.4	8.8	3.76e-02	0	43	0	1296039936	22	5752
2026-01-09 09:51:50.92	345.29	7.45	-31.4	-35.8	8.6	3.20e-02	0	43	0	1302331392	22	5961
2026-01-09 09:51:53.93	345.19	7.23	-31.3	-35.5	8.8	3.01e-02	0	43	0	1307574272	22	5800
2026-01-09 09:51:56.95	345.09	7.00	-33.3	-45.8	3.8	1.49e+00	0	43	104	1310720000	26	15231

#Closed at: 2026-01-09 09:51:57
#Recorded file [1310 MB]: D:/data/31010_260109_124016.dat