passes_logs/2026/01/09/R2M6_AANII_01/R2M6_AANII_01__20260109_030820_SUOMI_NPP_rec.log

#Pass ID: 20260109_030820_SUOMI NPP
#Satellite: SUOMI NPP
#Configuration: NPP
#almurnet v.1.7.20240730
#Start time: 2026-01-09 03:08:20

#Version: 2.2.20231116
#Station: R2M6_AANII_01
#Location: 30.233357 lon 59.946436 lat
#TLE: 1 37849U 11061A   26008.05542337  .00000108  00000+0  71976-4 0  9997
#TLE: 2 37849  98.7805 310.1641 0002540  75.6410 284.5048 14.19523335735721

#Time	Az	El	Level	Level2	SNR	BER	BlckErr	Temp	State	Recorded	gain1	gain2
2026-01-09 03:08:20.63	8.07	7.01	-32.4	-41.4	3.9	1.47e+00	0	40	0	0	24	10142
2026-01-09 03:08:22.64	7.83	7.11	-32.1	-38.9	5.4	5.81e-01	0	40	0	0	24	7889
2026-01-09 03:08:24.65	7.59	7.22	-32.1	-39.0	5.4	5.18e-01	0	40	0	3145728	24	7939
2026-01-09 03:08:26.65	7.34	7.32	-32.1	-39.1	5.3	5.09e-01	0	40	0	7340032	24	8059
2026-01-09 03:08:28.66	7.10	7.42	-32.2	-39.4	5.1	7.17e-01	0	40	0	10485760	24	8276
2026-01-09 03:08:30.68	6.85	7.53	-31.9	-37.4	6.4	3.04e-01	0	41	0	14680064	24	6763
2026-01-09 03:08:32.69	6.60	7.63	-31.5	-35.9	7.9	1.01e-01	0	41	0	18874368	23	5968
2026-01-09 03:08:34.70	6.34	7.73	-31.1	-34.6	9.3	2.29e-02	0	41	0	22020096	22	5425
2026-01-09 03:08:36.71	6.09	7.83	-30.9	-34.4	9.8	1.40e-02	0	41	0	26214400	21	5394
2026-01-09 03:08:38.72	5.83	7.94	-31.0	-34.3	9.6	1.38e-02	0	41	0	29360128	22	5277
2026-01-09 03:08:40.73	5.58	8.04	-30.9	-34.5	9.8	1.04e-02	0	41	0	33554432	21	5448
2026-01-09 03:08:42.74	5.32	8.14	-31.0	-34.1	9.8	1.41e-02	0	41	0	37748736	22	5185
2026-01-09 03:08:44.74	5.06	8.24	-31.0	-34.3	9.7	1.00e-02	0	41	0	40894464	22	5261
2026-01-09 03:08:46.76	4.79	8.35	-31.2	-34.9	9.2	2.38e-02	0	41	0	45088768	22	5502
2026-01-09 03:08:48.77	4.53	8.45	-31.2	-35.0	9.1	2.87e-02	0	41	0	48234496	22	5568
2026-01-09 03:08:50.79	4.26	8.55	-30.9	-34.0	9.9	9.71e-03	0	41	0	52428800	22	5105
2026-01-09 03:08:52.79	3.99	8.65	-30.9	-34.4	10.1	1.08e-02	0	41	0	56623104	21	5382
2026-01-09 03:08:54.80	3.72	8.76	-30.9	-34.4	10.0	7.64e-03	0	41	0	59768832	21	5364
2026-01-09 03:08:56.82	3.44	8.86	-30.9	-34.5	10.0	6.07e-03	0	41	0	63963136	21	5419
2026-01-09 03:08:58.83	3.17	8.96	-30.9	-33.9	10.1	8.98e-03	0	41	0	67108864	22	5073
2026-01-09 03:09:00.85	2.89	9.06	-30.9	-34.3	10.1	6.21e-03	0	42	0	71303168	21	5319
2026-01-09 03:09:02.86	2.61	9.16	-30.7	-33.8	10.5	4.51e-03	0	41	0	74448896	21	5099
2026-01-09 03:09:04.88	2.33	9.26	-30.8	-33.9	10.4	4.76e-03	0	41	0	78643200	21	5159
2026-01-09 03:09:06.88	2.05	9.36	-30.9	-33.8	10.2	6.82e-03	0	42	0	82837504	22	5008
2026-01-09 03:09:08.89	1.76	9.46	-31.2	-34.9	9.4	9.20e-03	0	42	0	85983232	22	5498
2026-01-09 03:09:10.91	1.47	9.56	-31.1	-34.6	9.5	1.53e-02	0	42	0	90177536	22	5379
2026-01-09 03:09:12.92	1.18	9.66	-31.1	-34.5	9.7	1.20e-02	0	42	0	93323264	22	5316
2026-01-09 03:09:14.93	0.89	9.76	-31.2	-34.9	9.4	1.53e-02	0	42	0	97517568	22	5502
2026-01-09 03:09:16.94	0.60	9.86	-31.2	-35.0	9.3	1.49e-02	0	42	0	101711872	22	5571
2026-01-09 03:09:18.95	0.31	9.96	-31.2	-34.9	9.4	1.73e-02	0	42	0	104857600	22	5498
2026-01-09 03:09:20.96	0.01	10.05	-30.2	-34.1	9.3	1.28e-02	0	42	0	109051904	21	5681
2026-01-09 03:09:22.97	359.71	10.15	-31.0	-34.0	10.0	7.41e-03	0	42	0	112197632	22	5117
2026-01-09 03:09:24.98	359.41	10.25	-30.8	-33.8	10.5	6.59e-03	0	42	0	116391936	21	5122
2026-01-09 03:09:26.99	359.10	10.35	-30.6	-33.4	10.9	4.41e-03	0	42	0	120586240	21	4942
2026-01-09 03:09:29.00	358.80	10.44	-30.6	-33.3	11.0	1.77e-03	0	42	0	123731968	21	4895
2026-01-09 03:09:31.02	358.49	10.54	-30.4	-33.3	11.3	4.00e-03	0	42	0	127926272	20	5002
2026-01-09 03:09:33.03	358.18	10.63	-30.3	-32.9	11.6	1.19e-03	0	42	0	131072000	20	4856
2026-01-09 03:09:35.04	357.87	10.73	-30.2	-32.5	11.8	4.72e-04	0	42	0	135266304	20	4719
2026-01-09 03:09:37.06	357.55	10.82	-30.3	-32.8	11.7	3.24e-03	0	42	0	139460608	20	4789
2026-01-09 03:09:39.07	357.24	10.92	-30.2	-32.6	11.8	6.36e-04	0	42	0	142606336	20	4721
2026-01-09 03:09:41.08	356.92	11.01	-30.1	-32.3	12.1	5.77e-04	0	42	0	146800640	20	4611
2026-01-09 03:09:43.08	356.60	11.10	-30.3	-32.7	11.7	3.07e-04	0	42	0	149946368	20	4765
2026-01-09 03:09:45.10	356.28	11.20	-30.1	-32.4	12.0	2.43e-03	0	42	0	154140672	20	4656
2026-01-09 03:09:47.12	355.95	11.29	-30.3	-32.9	11.7	9.92e-04	0	42	0	158334976	20	4851
2026-01-09 03:09:49.13	355.63	11.38	-30.5	-33.0	11.2	3.33e-03	0	42	0	161480704	21	4792
2026-01-09 03:09:51.13	355.30	11.47	-30.4	-33.3	11.4	3.14e-03	0	42	0	165675008	20	4981
2026-01-09 03:09:53.15	354.97	11.56	-30.3	-32.3	11.8	8.57e-04	0	42	0	168820736	21	4517
2026-01-09 03:09:55.16	354.64	11.65	-30.2	-32.4	12.0	2.17e-03	0	42	0	173015040	20	4649
2026-01-09 03:09:57.16	354.30	11.74	-30.2	-32.5	11.9	2.11e-03	0	42	0	177209344	20	4696
2026-01-09 03:09:59.17	353.97	11.83	-30.1	-32.1	12.2	6.42e-04	0	42	0	180355072	20	4550
2026-01-09 03:10:01.18	353.63	11.92	-29.8	-31.9	12.7	1.71e-03	0	42	0	184549376	19	4570
2026-01-09 03:10:03.19	353.29	12.01	-29.9	-32.0	12.7	1.38e-03	0	42	0	187695104	19	4609
2026-01-09 03:10:05.20	352.95	12.09	-30.0	-32.3	12.5	4.71e-04	0	42	0	191889408	19	4717
2026-01-09 03:10:07.21	352.60	12.18	-30.2	-32.4	12.0	5.23e-04	0	42	0	196083712	20	4671
2026-01-09 03:10:09.22	352.25	12.26	-29.9	-31.7	12.4	1.69e-03	0	42	0	199229440	20	4418
2026-01-09 03:10:11.23	351.91	12.35	-29.9	-31.9	12.8	2.97e-04	0	42	0	203423744	19	4565
2026-01-09 03:10:13.24	351.55	12.43	-29.4	-30.8	13.6	1.13e-03	0	42	0	206569472	19	4194
2026-01-09 03:10:15.26	351.20	12.51	-29.7	-31.4	13.3	6.20e-04	0	42	0	210763776	19	4379
2026-01-09 03:10:17.27	350.85	12.60	-29.7	-31.6	13.1	2.01e-04	0	42	0	214958080	19	4438
2026-01-09 03:10:19.28	350.49	12.68	-29.9	-32.1	12.7	1.58e-03	0	42	0	218103808	19	4614
2026-01-09 03:10:21.29	350.13	12.76	-29.7	-31.5	13.1	3.12e-05	0	42	0	222298112	19	4408
2026-01-09 03:10:23.30	349.77	12.84	-30.0	-32.2	12.7	2.68e-04	0	42	0	225443840	19	4643
2026-01-09 03:10:25.31	349.41	12.91	-30.1	-32.0	12.3	2.62e-04	0	43	0	229638144	20	4523
2026-01-09 03:10:27.32	349.04	12.99	-30.2	-32.3	12.2	2.19e-04	0	43	0	232783872	20	4615
2026-01-09 03:10:29.34	348.67	13.07	-30.1	-32.2	12.2	3.81e-04	0	43	0	236978176	20	4582
2026-01-09 03:10:31.35	348.30	13.15	-29.9	-32.1	12.8	6.25e-05	0	43	0	241172480	19	4607
2026-01-09 03:10:33.36	347.93	13.22	-30.0	-31.8	12.5	1.69e-03	0	43	0	244318208	20	4428
2026-01-09 03:10:35.37	347.56	13.29	-30.3	-32.8	11.9	5.24e-04	0	43	0	248512512	20	4784
2026-01-09 03:10:37.39	347.18	13.37	-30.2	-32.5	12.1	2.73e-04	0	43	0	252706816	20	4673
2026-01-09 03:10:39.40	346.81	13.44	-30.1	-32.0	12.5	1.52e-04	0	42	0	255852544	20	4504
2026-01-09 03:10:41.40	346.43	13.51	-30.2	-32.5	12.1	4.02e-04	0	42	0	260046848	20	4659
2026-01-09 03:10:43.41	346.05	13.58	-30.0	-31.8	12.6	2.94e-04	0	43	0	263192576	20	4418
2026-01-09 03:10:45.42	345.67	13.65	-29.9	-31.6	12.7	9.07e-05	0	43	0	267386880	20	4369
2026-01-09 03:10:47.42	345.29	13.72	-29.9	-31.6	12.7	1.01e-04	0	43	0	270532608	20	4370
2026-01-09 03:10:49.44	344.90	13.78	-29.7	-31.5	13.2	2.05e-05	0	43	0	274726912	19	4414
2026-01-09 03:10:51.45	344.51	13.85	-29.7	-31.5	13.0	1.83e-05	0	43	0	278921216	19	4419
2026-01-09 03:10:53.47	344.12	13.91	-29.9	-31.9	12.8	9.91e-05	0	43	0	282066944	19	4552
2026-01-09 03:10:55.48	343.73	13.98	-29.8	-31.3	12.9	7.17e-05	0	43	0	286261248	20	4268
2026-01-09 03:10:57.50	343.34	14.04	-29.9	-32.1	12.8	2.50e-03	0	43	0	289406976	19	4618
2026-01-09 03:10:59.50	342.95	14.10	-29.9	-31.9	12.9	4.80e-05	0	43	0	293601280	19	4566
2026-01-09 03:11:01.51	342.55	14.16	-30.0	-31.8	12.5	9.68e-05	0	43	0	297795584	20	4449
2026-01-09 03:11:03.52	342.15	14.22	-29.8	-31.7	13.0	5.79e-05	0	42	0	300941312	19	4500
2026-01-09 03:11:05.53	341.76	14.28	-29.3	-30.9	13.9	5.30e-06	0	43	0	305135616	18	4319
2026-01-09 03:11:07.55	341.35	14.33	-29.0	-30.0	14.5	3.58e-05	0	43	0	308281344	18	4057
2026-01-09 03:11:09.56	340.95	14.39	-29.4	-31.0	13.8	4.50e-06	0	43	0	312475648	18	4352
2026-01-09 03:11:11.57	340.55	14.44	-29.5	-30.8	13.7	2.44e-03	0	43	0	316669952	19	4194
2026-01-09 03:11:13.58	340.14	14.49	-29.5	-31.0	13.6	1.41e-04	0	43	0	319815680	19	4239
2026-01-09 03:11:15.59	339.74	14.54	-29.5	-30.8	13.6	2.52e-03	0	43	0	324009984	19	4203
2026-01-09 03:11:17.61	339.33	14.59	-29.3	-30.7	14.0	2.51e-03	0	43	0	327155712	18	4253
2026-01-09 03:11:19.62	338.92	14.64	-29.2	-30.7	14.1	1.83e-04	0	43	0	331350016	18	4238
2026-01-09 03:11:21.64	338.51	14.69	-29.8	-31.6	13.2	2.38e-03	0	43	0	335544320	19	4434
2026-01-09 03:11:23.65	338.09	14.73	-30.1	-32.1	12.4	2.61e-03	0	43	0	338690048	20	4516
2026-01-09 03:11:25.66	337.68	14.78	-30.0	-31.8	12.6	2.46e-04	0	43	0	342884352	20	4420
2026-01-09 03:11:27.68	337.27	14.82	-29.9	-32.0	12.9	2.54e-03	0	43	0	346030080	19	4572
2026-01-09 03:11:29.69	336.85	14.86	-29.9	-31.5	12.8	2.49e-03	0	43	0	350224384	20	4320
2026-01-09 03:11:31.70	336.43	14.90	-30.0	-31.8	12.5	5.40e-04	0	43	0	354418688	20	4438
2026-01-09 03:11:33.71	336.02	14.94	-29.9	-31.4	12.8	4.48e-04	0	43	0	357564416	20	4310
2026-01-09 03:11:35.72	335.60	14.97	-29.8	-31.7	13.1	2.65e-03	0	43	0	361758720	19	4461
2026-01-09 03:11:37.72	335.18	15.01	-29.6	-31.1	13.4	9.38e-05	0	43	0	364904448	19	4277
2026-01-09 03:11:39.73	334.76	15.04	-29.6	-31.2	13.4	2.37e-03	0	43	0	369098752	19	4298
2026-01-09 03:11:41.74	334.34	15.08	-29.6	-31.2	13.4	2.30e-03	0	43	0	373293056	19	4308
2026-01-09 03:11:43.75	333.92	15.11	-29.3	-30.4	13.9	3.00e-06	0	43	0	376438784	19	4071
2026-01-09 03:11:45.76	333.49	15.14	-29.3	-30.9	13.9	2.56e-03	0	43	0	380633088	18	4316
2026-01-09 03:11:47.76	333.07	15.16	-29.4	-31.1	13.8	7.60e-06	0	43	0	383778816	18	4382
2026-01-09 03:11:49.77	332.65	15.19	-29.6	-31.2	13.4	1.02e-04	0	43	0	387973120	19	4311
2026-01-09 03:11:51.78	332.22	15.21	-29.9	-32.0	12.8	1.92e-04	0	43	0	392167424	19	4574
2026-01-09 03:11:53.79	331.79	15.24	-30.2	-32.4	12.1	1.95e-04	0	43	0	395313152	20	4653
2026-01-09 03:11:55.79	331.37	15.26	-30.1	-32.1	12.3	4.57e-04	0	43	0	399507456	20	4536
2026-01-09 03:11:57.81	330.94	15.28	-30.1	-32.1	12.3	2.08e-04	0	43	0	402653184	20	4532
2026-01-09 03:11:59.82	330.51	15.30	-30.1	-32.1	12.4	2.60e-03	0	43	0	406847488	20	4545
2026-01-09 03:12:01.82	330.08	15.31	-30.3	-32.8	11.9	2.60e-04	0	43	0	409993216	20	4793
2026-01-09 03:12:03.83	329.65	15.33	-30.1	-32.2	12.3	1.91e-04	0	43	0	414187520	20	4584
2026-01-09 03:12:05.83	329.23	15.34	-30.0	-31.9	12.4	1.43e-04	0	43	0	418381824	20	4465
2026-01-09 03:12:07.85	328.80	15.35	-30.0	-31.8	12.6	9.23e-05	0	43	0	421527552	20	4439
2026-01-09 03:12:09.85	328.37	15.36	-30.1	-32.2	12.3	5.20e-04	0	43	0	425721856	20	4574
2026-01-09 03:12:11.86	327.94	15.37	-29.8	-31.7	13.0	4.80e-05	0	43	0	428867584	19	4493
2026-01-09 03:12:13.86	327.51	15.38	-29.7	-31.4	13.2	3.89e-05	0	43	0	433061888	19	4370
2026-01-09 03:12:15.88	327.07	15.38	-29.6	-31.2	13.4	1.37e-05	0	43	0	437256192	19	4312
2026-01-09 03:12:17.89	326.64	15.39	-29.7	-31.4	13.2	1.14e-05	0	43	0	440401920	19	4386
2026-01-09 03:12:19.89	326.21	15.39	-29.9	-31.9	12.9	2.51e-05	0	43	0	444596224	19	4547
2026-01-09 03:12:21.91	325.78	15.39	-29.3	-31.2	12.5	1.68e-04	0	43	0	447741952	20	4494
2026-01-09 03:12:23.92	325.35	15.39	-30.0	-32.2	12.0	8.31e-05	0	43	0	451936256	19	4649
2026-01-09 03:12:25.92	324.92	15.38	-29.9	-31.9	12.2	5.34e-05	0	43	0	456130560	19	4557
2026-01-09 03:12:27.92	324.49	15.38	-29.6	-31.3	13.2	3.28e-05	0	43	0	459276288	19	4351
2026-01-09 03:12:29.94	324.06	15.37	-29.4	-31.2	13.6	3.80e-06	0	43	0	463470592	18	4408
2026-01-09 03:12:31.95	323.63	15.37	-29.4	-31.2	13.6	3.80e-06	0	43	0	466616320	18	4422
2026-01-09 03:12:33.96	323.20	15.36	-29.6	-31.2	13.4	1.52e-05	0	43	0	470810624	19	4322
2026-01-09 03:12:35.97	322.77	15.35	-29.9	-32.1	12.6	3.73e-05	0	43	0	475004928	19	4624
2026-01-09 03:12:37.98	322.34	15.33	-29.8	-31.9	12.8	2.51e-03	0	43	0	478150656	19	4567
2026-01-09 03:12:39.99	321.91	15.32	-29.9	-31.9	12.8	6.33e-05	0	43	0	482344960	19	4564
2026-01-09 03:12:42.00	321.48	15.30	-29.9	-32.1	12.8	2.63e-03	0	43	0	485490688	19	4631
2026-01-09 03:12:44.01	321.05	15.28	-30.3	-32.8	11.9	3.03e-03	0	43	0	489684992	20	4783
2026-01-09 03:12:46.02	320.62	15.27	-30.2	-32.4	12.0	3.46e-04	0	43	0	492830720	20	4658
2026-01-09 03:12:48.03	320.19	15.25	-30.3	-32.7	11.9	3.28e-03	0	43	0	497025024	20	4776
2026-01-09 03:12:50.05	319.77	15.22	-29.9	-32.2	12.6	8.39e-05	0	43	0	501219328	19	4659
2026-01-09 03:12:52.07	319.34	15.20	-29.9	-31.7	12.5	4.71e-04	0	43	0	504365056	20	4415
2026-01-09 03:12:54.07	318.91	15.17	-29.8	-31.9	12.9	2.66e-03	0	43	0	508559360	19	4544
2026-01-09 03:12:56.08	318.49	15.15	-29.7	-31.6	13.0	2.40e-03	0	43	0	512753664	19	4459
2026-01-09 03:12:58.09	318.07	15.12	-29.9	-32.0	12.8	1.83e-04	0	43	0	515899392	19	4574
2026-01-09 03:13:00.10	317.64	15.09	-30.0	-32.0	12.4	2.21e-03	0	43	0	520093696	20	4502
2026-01-09 03:13:02.11	317.22	15.06	-29.7	-31.5	13.1	2.13e-03	0	43	0	523239424	19	4425
2026-01-09 03:13:04.11	316.80	15.02	-29.9	-31.6	12.7	3.97e-04	0	43	0	527433728	20	4346
2026-01-09 03:13:06.13	316.38	14.99	-29.6	-31.2	13.4	2.49e-03	0	43	0	530579456	19	4315
2026-01-09 03:13:08.13	315.96	14.95	-29.7	-31.4	13.2	2.35e-03	0	43	0	534773760	19	4396
2026-01-09 03:13:10.13	315.54	14.92	-29.8	-31.8	13.0	3.03e-04	0	43	0	538968064	19	4508
2026-01-09 03:13:12.15	315.12	14.88	-30.0	-31.8	12.6	1.23e-03	0	43	0	542113792	20	4416
2026-01-09 03:13:14.16	314.71	14.84	-30.1	-32.1	12.4	1.81e-04	0	43	0	546308096	20	4536
2026-01-09 03:13:16.18	314.29	14.79	-29.8	-31.4	12.9	1.90e-04	0	43	0	549453824	20	4289
2026-01-09 03:13:18.18	313.88	14.75	-29.9	-31.8	12.9	1.84e-04	0	43	0	553648128	19	4526
2026-01-09 03:13:20.20	313.47	14.71	-29.8	-31.4	12.8	2.65e-03	0	43	0	557842432	20	4289
2026-01-09 03:13:22.21	313.05	14.66	-29.9	-32.1	12.8	5.95e-05	0	43	0	560988160	19	4613
2026-01-09 03:13:24.22	312.64	14.61	-29.8	-31.8	12.9	5.34e-05	0	43	0	565182464	19	4523
2026-01-09 03:13:26.23	312.23	14.56	-29.8	-31.6	13.1	5.54e-04	0	43	0	568328192	19	4450
2026-01-09 03:13:28.24	311.83	14.51	-29.3	-30.4	13.8	4.50e-06	0	43	0	572522496	19	4066
2026-01-09 03:13:30.25	311.42	14.46	-29.3	-30.9	13.8	2.24e-03	0	43	0	576716800	18	4327
2026-01-09 03:13:32.26	311.02	14.41	-29.6	-31.2	13.4	1.90e-05	0	43	0	579862528	19	4301
2026-01-09 03:13:34.28	310.61	14.35	-29.5	-30.9	13.6	4.50e-06	0	43	0	584056832	19	4233
2026-01-09 03:13:36.28	310.21	14.30	-29.8	-31.6	13.1	9.10e-04	0	43	0	587202560	19	4448
2026-01-09 03:13:38.29	309.81	14.24	-29.6	-31.0	13.4	1.83e-05	0	43	0	591396864	19	4252
2026-01-09 03:13:40.30	309.41	14.18	-29.9	-31.7	12.6	6.30e-04	0	43	0	595591168	20	4387
2026-01-09 03:13:42.31	309.02	14.12	-30.6	-33.0	11.3	7.04e-04	0	43	0	598736896	21	4758
2026-01-09 03:13:44.32	308.62	14.06	-30.3	-32.3	11.8	5.46e-04	0	43	0	602931200	21	4514
2026-01-09 03:13:46.33	308.23	14.00	-30.1	-32.2	12.2	1.67e-04	0	43	0	606076928	20	4584
2026-01-09 03:13:48.35	307.83	13.94	-30.1	-32.1	12.3	1.76e-04	0	43	0	610271232	20	4539
2026-01-09 03:13:50.35	307.45	13.87	-30.3	-32.8	11.8	2.91e-04	0	43	0	614465536	20	4782
2026-01-09 03:13:52.36	307.06	13.81	-30.2	-32.6	11.9	3.87e-04	0	43	0	617611264	20	4714
2026-01-09 03:13:54.37	306.67	13.74	-29.9	-31.6	12.6	1.04e-04	0	43	0	621805568	20	4364
2026-01-09 03:13:56.39	306.28	13.68	-29.8	-31.7	12.9	6.86e-05	0	43	0	624951296	19	4482
2026-01-09 03:13:58.40	305.90	13.61	-29.7	-31.6	12.9	3.58e-05	0	43	0	629145600	19	4470
2026-01-09 03:14:00.42	305.52	13.54	-29.7	-31.5	13.0	3.66e-05	0	43	0	633339904	19	4430
2026-01-09 03:14:02.43	305.14	13.47	-29.9	-32.0	12.6	5.34e-05	0	43	0	636485632	19	4589
2026-01-09 03:14:04.44	304.76	13.39	-29.9	-32.1	12.6	2.16e-03	0	43	0	640679936	19	4624
2026-01-09 03:14:06.45	304.38	13.32	-30.0	-32.4	12.5	8.46e-05	0	43	0	643825664	19	4718
2026-01-09 03:14:08.46	304.01	13.25	-30.1	-32.1	12.2	2.18e-03	0	43	0	648019968	20	4548
2026-01-09 03:14:10.46	303.64	13.17	-30.2	-32.4	12.0	3.63e-04	0	43	0	652214272	20	4637
2026-01-09 03:14:12.47	303.27	13.10	-29.9	-32.1	12.6	7.24e-05	0	43	0	655360000	19	4618
2026-01-09 03:14:14.48	302.90	13.02	-30.2	-32.5	11.9	3.02e-03	0	43	0	659554304	20	4696
2026-01-09 03:14:16.50	302.53	12.94	-30.3	-32.8	11.7	7.68e-04	0	43	0	662700032	20	4788
2026-01-09 03:14:18.51	302.17	12.87	-30.2	-32.6	11.8	7.29e-04	0	43	0	666894336	20	4741
2026-01-09 03:14:20.53	301.80	12.79	-30.3	-33.0	11.5	7.00e-04	0	43	0	671088640	20	4884
2026-01-09 03:14:22.54	301.44	12.71	-30.4	-33.3	11.3	3.52e-03	0	43	0	674234368	20	4996
2026-01-09 03:14:24.56	301.08	12.62	-30.5	-33.2	11.0	3.23e-03	0	43	0	678428672	21	4870
2026-01-09 03:14:26.57	300.72	12.54	-30.5	-33.0	11.1	3.08e-03	0	43	0	681574400	21	4813
2026-01-09 03:14:28.58	300.37	12.46	-30.4	-32.6	11.4	2.71e-03	0	43	0	685768704	21	4653
2026-01-09 03:14:30.59	300.02	12.38	-30.2	-32.7	11.7	5.31e-04	0	43	0	689963008	20	4776
2026-01-09 03:14:32.60	299.67	12.29	-30.3	-33.0	11.6	2.95e-03	0	43	0	693108736	20	4873
2026-01-09 03:14:34.60	299.32	12.21	-30.7	-33.6	10.7	2.69e-03	0	43	0	697303040	21	5030
2026-01-09 03:14:36.61	298.97	12.12	-30.6	-33.2	11.0	4.21e-03	0	43	0	700448768	21	4857
2026-01-09 03:14:38.61	298.63	12.04	-30.3	-32.8	11.6	3.24e-03	0	43	0	704643072	20	4819
2026-01-09 03:14:40.62	298.29	11.95	-29.9	-32.3	12.3	1.62e-03	0	43	0	707788800	19	4726
2026-01-09 03:14:42.64	297.95	11.86	-30.1	-32.2	11.9	1.47e-03	0	43	0	711983104	20	4620
2026-01-09 03:14:44.65	297.61	11.77	-30.3	-32.9	11.5	7.97e-04	0	43	0	716177408	20	4856
2026-01-09 03:14:46.66	297.27	11.68	-30.3	-32.8	11.7	2.64e-03	0	43	0	719323136	20	4810
2026-01-09 03:14:48.67	296.94	11.59	-29.8	-31.8	12.6	1.30e-03	0	43	0	723517440	19	4564
2026-01-09 03:14:50.69	296.60	11.50	-29.8	-31.8	12.6	1.68e-03	0	43	0	726663168	19	4564
2026-01-09 03:14:52.70	296.27	11.41	-29.7	-31.6	12.7	7.24e-05	0	43	0	730857472	19	4502
2026-01-09 03:14:54.71	295.95	11.32	-30.0	-32.1	11.9	3.49e-04	0	43	0	735051776	20	4600
2026-01-09 03:14:56.72	295.62	11.23	-30.4	-33.3	11.1	2.86e-03	0	43	0	738197504	20	5040
2026-01-09 03:14:58.73	295.30	11.14	-30.6	-33.5	10.6	2.53e-03	0	43	0	742391808	21	5034
2026-01-09 03:15:00.74	294.97	11.04	-30.5	-33.2	10.7	4.72e-03	0	43	0	745537536	21	4908
2026-01-09 03:15:02.76	294.65	10.95	-30.4	-33.3	11.0	1.97e-03	0	43	0	749731840	20	5055
2026-01-09 03:15:04.77	294.33	10.86	-30.3	-33.1	11.2	1.46e-03	0	43	0	753926144	20	4948
2026-01-09 03:15:06.78	294.02	10.76	-30.4	-32.8	11.1	3.43e-03	0	43	0	757071872	21	4767
2026-01-09 03:15:08.79	293.71	10.67	-30.8	-34.0	10.3	4.06e-03	0	43	0	761266176	21	5252
2026-01-09 03:15:10.80	293.39	10.57	-31.2	-35.3	8.8	1.37e-02	0	43	0	764411904	22	5766
2026-01-09 03:15:12.81	293.08	10.47	-31.5	-36.1	7.7	6.15e-02	0	43	0	768606208	23	6124
2026-01-09 03:15:14.81	292.78	10.38	-31.5	-36.3	7.5	8.81e-02	0	43	0	772800512	23	6239
2026-01-09 03:15:16.82	292.47	10.28	-31.5	-35.8	8.0	9.04e-02	0	43	0	775946240	23	5935
2026-01-09 03:15:18.82	292.17	10.18	-31.4	-35.4	8.4	5.19e-02	0	43	0	780140544	23	5719
2026-01-09 03:15:20.84	291.87	10.09	-31.3	-35.8	8.4	4.19e-02	0	43	0	783286272	22	6004
2026-01-09 03:15:22.85	291.57	9.99	-31.4	-36.3	8.0	6.04e-02	0	43	0	787480576	22	6277
2026-01-09 03:15:24.86	291.27	9.89	-31.2	-35.2	8.8	3.34e-02	0	43	0	791674880	22	5736
2026-01-09 03:15:26.87	290.98	9.79	-31.0	-34.3	9.5	1.57e-02	0	43	0	794820608	22	5298
2026-01-09 03:15:28.88	290.68	9.69	-30.9	-34.4	9.8	1.13e-02	0	43	0	799014912	21	5443
2026-01-09 03:15:30.90	290.39	9.59	-30.9	-34.6	9.6	1.30e-02	0	43	0	802160640	21	5536
2026-01-09 03:15:32.91	290.10	9.49	-30.7	-33.9	10.2	8.05e-03	0	43	0	806354944	21	5223
2026-01-09 03:15:34.92	289.82	9.39	-30.5	-33.3	10.5	9.42e-03	0	43	0	810549248	21	4990
2026-01-09 03:15:36.92	289.53	9.29	-30.4	-33.5	10.8	3.33e-03	0	43	0	813694976	20	5144
2026-01-09 03:15:38.93	289.25	9.19	-30.4	-33.4	10.8	2.76e-03	0	43	0	817889280	20	5117
2026-01-09 03:15:40.94	288.97	9.09	-30.2	-33.0	11.1	3.49e-03	0	43	0	821035008	20	4948
2026-01-09 03:15:42.95	288.69	8.99	-30.2	-33.1	11.0	1.52e-03	0	43	0	825229312	20	4991
2026-01-09 03:15:44.96	288.41	8.89	-30.3	-33.2	10.9	3.67e-03	0	43	0	828375040	20	5026
2026-01-09 03:15:46.98	288.14	8.79	-30.3	-33.2	10.9	1.70e-03	0	43	0	832569344	20	5028
2026-01-09 03:15:48.99	287.86	8.69	-30.3	-33.2	10.8	4.20e-03	0	43	0	836763648	20	5029
2026-01-09 03:15:50.98	287.59	8.59	-30.3	-33.5	10.7	5.50e-03	0	43	0	839909376	20	5162
2026-01-09 03:15:52.99	287.32	8.48	-30.4	-33.6	10.5	7.11e-03	0	43	0	844103680	20	5227
2026-01-09 03:15:55.01	287.06	8.38	-30.4	-33.3	10.3	7.39e-03	0	43	0	847249408	21	5027
2026-01-09 03:15:57.02	286.79	8.28	-30.5	-33.6	10.1	5.03e-03	0	43	0	851443712	21	5136
2026-01-09 03:15:59.03	286.53	8.18	-30.5	-33.6	10.1	1.05e-02	0	43	0	855638016	21	5138
2026-01-09 03:16:01.03	286.27	8.07	-30.4	-33.3	10.3	8.26e-03	0	43	0	858783744	21	5007
2026-01-09 03:16:03.05	286.00	7.97	-30.4	-33.7	10.3	6.34e-03	0	43	0	862978048	20	5284
2026-01-09 03:16:05.06	285.75	7.87	-30.4	-33.6	10.4	8.89e-03	0	43	0	866123776	20	5247
2026-01-09 03:16:07.07	285.49	7.76	-30.3	-33.3	10.6	7.06e-03	0	43	0	870318080	20	5094
2026-01-09 03:16:09.08	285.24	7.66	-29.9	-32.2	11.4	2.89e-03	0	43	0	874512384	20	4689
2026-01-09 03:16:11.09	284.98	7.56	-29.7	-31.9	12.0	3.27e-04	0	43	0	877658112	19	4661
2026-01-09 03:16:13.11	284.73	7.45	-29.9	-32.5	11.6	3.81e-03	0	43	0	881852416	19	4885
2026-01-09 03:16:15.12	284.48	7.35	-29.9	-32.5	11.6	1.01e-03	0	43	0	884998144	19	4860
2026-01-09 03:16:17.13	284.23	7.25	-30.0	-32.5	11.1	6.94e-03	0	43	0	889192448	20	4810
2026-01-09 03:16:19.15	283.99	7.14	-30.2	-33.1	10.7	2.47e-03	0	43	0	893386752	20	5020
2026-01-09 03:16:21.16	283.74	7.04	-32.8	-45.4	3.8	1.49e+00	0	43	104	895483904	25	15269
2026-01-09 03:16:23.16	283.50	6.94	-33.5	-46.2	3.8	1.49e+00	0	43	104	895483904	26	15588

#Closed at: 2026-01-09 03:16:24
#Recorded file [895 MB]: D:/data/31010_260109_060822.dat