passes_logs/2026/01/09/R2M6_AANII_01/R2M6_AANII_01__20260109_005757_NOAA_21_JPSS-2_rec.log

#Pass ID: 20260109_005757_NOAA 21 (JPSS-2)
#Satellite: NOAA 21 (JPSS-2)
#Configuration: NOAA 21
#almurnet v.1.7.20240730
#Start time: 2026-01-09 00:58:00

#Version: 2.2.20231116
#Station: R2M6_AANII_01
#Location: 30.233357 lon 59.946436 lat
#TLE: 1 54234U 22150A   26008.45757862  .00000119  00000+0  77172-4 0  9996
#TLE: 2 54234  98.7494 309.4367 0000894 328.2777  31.8345 14.19533328163889

#Time	Az	El	Level	Level2	SNR	BER	BlckErr	Temp	State	Recorded	gain1	gain2
2026-01-09 00:58:00.73	15.05	7.23	-33.7	-44.9	3.8	8.46e-01	0	43	0	0	27	13094
2026-01-09 00:58:03.72	14.96	7.46	-34.0	-45.8	3.8	1.49e+00	0	43	104	0	28	14066
2026-01-09 00:58:07.01	14.86	7.72	-34.0	-45.9	3.8	1.49e+00	0	43	104	0	28	14107
2026-01-09 00:58:09.74	14.77	7.93	-34.0	-45.8	3.8	1.49e+00	0	43	104	0	28	14075
2026-01-09 00:58:13.05	14.67	8.19	-34.0	-45.8	3.8	1.49e+00	0	43	104	0	28	14015
2026-01-09 00:58:15.78	14.58	8.40	-34.0	-45.8	3.8	1.49e+00	0	43	104	0	28	14007
2026-01-09 00:58:19.08	14.47	8.67	-34.1	-46.0	3.8	1.49e+00	0	43	104	0	28	14188
2026-01-09 00:58:21.79	14.38	8.89	-34.0	-45.9	3.8	1.49e+00	0	43	104	0	28	14125
2026-01-09 00:58:25.08	14.26	9.15	-34.0	-45.9	3.8	1.49e+00	0	43	104	0	28	14110
2026-01-09 00:58:27.80	14.17	9.38	-34.0	-45.7	3.8	1.49e+00	0	43	104	0	28	13952
2026-01-09 00:58:31.14	14.05	9.66	-33.9	-46.1	3.8	1.49e+00	0	43	104	0	27	14681
2026-01-09 00:58:33.86	13.95	9.88	-33.5	-45.4	3.8	1.49e+00	0	43	104	0	27	14067
2026-01-09 00:58:37.16	13.83	10.16	-33.1	-43.6	3.8	1.49e+00	0	43	104	0	26	12048
2026-01-09 00:58:39.89	13.72	10.40	-32.8	-42.5	3.9	1.49e+00	0	43	104	0	25	10994
2026-01-09 00:58:43.18	13.60	10.68	-32.0	-37.9	6.1	4.47e-01	0	43	104	0	24	7044
2026-01-09 00:58:45.90	13.49	10.92	-30.9	-34.7	8.9	3.55e-02	0	43	0	7340032	22	5552
2026-01-09 00:58:49.20	13.36	11.21	-30.5	-33.9	9.8	1.41e-02	0	43	0	17825792	21	5330
2026-01-09 00:58:51.91	13.25	11.45	-30.6	-34.2	9.6	1.28e-02	0	43	0	26214400	21	5451
2026-01-09 00:58:55.21	13.11	11.75	-30.8	-34.9	9.1	2.18e-02	0	43	0	36700160	21	5766
2026-01-09 00:58:57.97	12.99	12.00	-30.7	-34.6	9.3	1.59e-02	0	43	0	45088768	21	5643
2026-01-09 00:59:01.26	12.85	12.30	-30.8	-34.7	9.2	1.55e-02	0	43	0	55574528	21	5688
2026-01-09 00:59:03.98	12.73	12.55	-29.3	-31.6	12.1	4.08e-04	0	43	0	63963136	19	4687
2026-01-09 00:59:07.29	12.58	12.86	-28.2	-30.2	13.9	7.60e-06	0	43	0	74448896	16	4578
2026-01-09 00:59:10.01	12.45	13.12	-27.6	-29.5	14.5	2.20e-06	0	43	0	82837504	15	4471
2026-01-09 00:59:13.31	12.30	13.44	-27.6	-29.4	14.4	7.00e-07	0	43	0	93323264	15	4431
2026-01-09 00:59:16.03	12.16	13.70	-27.2	-29.0	15.1	0.00e+00	0	43	0	101711872	14	4428
2026-01-09 00:59:19.32	12.00	14.03	-27.4	-29.4	14.9	0.00e+00	0	43	0	112197632	14	4542
2026-01-09 00:59:22.07	11.86	14.30	-27.5	-29.2	14.7	7.00e-07	0	43	0	120586240	15	4380
2026-01-09 00:59:25.40	11.69	14.64	-27.2	-29.1	15.1	0.00e+00	0	43	0	131072000	14	4475
2026-01-09 00:59:28.14	11.55	14.91	-27.2	-28.9	15.2	0.00e+00	0	43	0	139460608	14	4411
2026-01-09 00:59:31.43	11.37	15.25	-27.4	-29.4	14.9	1.55e-03	0	43	0	149946368	14	4559
2026-01-09 00:59:34.15	11.22	15.54	-27.3	-29.3	15.0	0.00e+00	0	43	0	158334976	14	4520
2026-01-09 00:59:37.45	11.03	15.88	-27.6	-29.5	14.6	3.76e-03	0	43	0	168820736	15	4471
2026-01-09 00:59:40.17	10.88	16.18	-27.8	-29.9	14.4	7.00e-07	0	43	0	177209344	15	4574
2026-01-09 00:59:43.47	10.68	16.53	-27.8	-29.9	14.3	4.22e-03	0	43	0	187695104	15	4601
2026-01-09 00:59:46.20	10.52	16.83	-27.8	-29.9	14.5	3.98e-03	0	43	0	196083712	15	4590
2026-01-09 00:59:49.50	10.31	17.20	-28.5	-30.9	13.8	3.66e-03	0	43	0	206569472	16	4760
2026-01-09 00:59:52.22	10.14	17.50	-28.5	-30.6	13.6	3.98e-03	0	43	0	214958080	17	4563
2026-01-09 00:59:55.50	9.93	17.88	-28.6	-30.7	13.7	3.86e-03	0	43	0	225443840	17	4584
2026-01-09 00:59:58.25	9.74	18.19	-28.6	-30.6	13.7	3.53e-03	0	43	0	233832448	17	4568
2026-01-09 01:00:01.58	9.52	18.58	-28.4	-30.8	14.0	1.50e-06	0	43	0	244318208	16	4717
2026-01-09 01:00:04.30	9.33	18.90	-27.6	-29.4	14.9	3.68e-03	0	43	0	252706816	15	4427
2026-01-09 01:00:07.58	9.09	19.30	-27.3	-29.2	15.3	0.00e+00	0	43	0	263192576	14	4478
2026-01-09 01:00:10.30	8.89	19.63	-27.6	-29.4	14.9	0.00e+00	0	43	0	271581184	15	4433
2026-01-09 01:00:13.59	8.65	20.03	-27.4	-29.4	15.1	0.00e+00	0	43	0	282066944	14	4549
2026-01-09 01:00:16.31	8.44	20.37	-27.6	-29.3	14.9	0.00e+00	0	43	0	290455552	15	4414
2026-01-09 01:00:19.60	8.18	20.79	-27.2	-29.0	15.4	0.00e+00	0	43	0	300941312	14	4421
2026-01-09 01:00:22.34	7.95	21.14	-27.2	-29.0	15.5	7.00e-07	0	43	0	309329920	14	4411
2026-01-09 01:00:25.63	7.68	21.57	-26.9	-28.9	15.7	0.00e+00	0	43	0	319815680	13	4509
2026-01-09 01:00:28.34	7.45	21.93	-26.8	-28.6	15.9	3.82e-03	0	43	0	328204288	13	4412
2026-01-09 01:00:31.62	7.16	22.36	-26.3	-28.0	16.5	0.00e+00	0	43	0	338690048	12	4377
2026-01-09 01:00:34.35	6.91	22.73	-26.3	-27.9	16.6	0.00e+00	0	43	0	347078656	12	4329
2026-01-09 01:00:37.65	6.61	23.19	-26.3	-28.0	16.6	0.00e+00	0	43	0	356515840	12	4349
2026-01-09 01:00:40.39	6.34	23.57	-26.2	-27.8	16.7	0.00e+00	0	43	0	365953024	12	4305
2026-01-09 01:00:43.68	6.02	24.04	-26.5	-28.0	16.3	0.00e+00	0	43	0	375390208	13	4249
2026-01-09 01:00:46.40	5.75	24.43	-26.7	-28.2	16.1	0.00e+00	0	43	0	384827392	13	4321
2026-01-09 01:00:49.71	5.40	24.91	-26.5	-28.0	16.1	0.00e+00	0	43	0	395313152	13	4286
2026-01-09 01:00:52.44	5.11	25.32	-26.9	-28.7	15.9	0.00e+00	0	43	0	403701760	13	4464
2026-01-09 01:00:55.73	4.75	25.81	-27.1	-28.7	15.6	0.00e+00	0	43	0	413138944	14	4343
2026-01-09 01:00:58.45	4.44	26.22	-27.2	-28.5	15.5	0.00e+00	0	43	0	421527552	15	4177
2026-01-09 01:01:01.74	4.05	26.73	-27.1	-28.8	15.6	0.00e+00	0	43	0	432013312	14	4364
2026-01-09 01:01:04.47	3.72	27.16	-27.3	-29.3	15.4	0.00e+00	0	43	0	440401920	14	4489
2026-01-09 01:01:07.77	3.31	27.69	-27.4	-29.3	15.3	9.99e-05	0	43	0	450887680	14	4509
2026-01-09 01:01:10.50	2.96	28.13	-27.4	-29.4	15.3	0.00e+00	0	43	0	459276288	14	4527
2026-01-09 01:01:13.79	2.53	28.67	-27.3	-28.7	15.4	0.00e+00	0	43	0	469762048	15	4208
2026-01-09 01:01:16.52	2.15	29.12	-27.3	-29.1	15.4	0.00e+00	0	43	0	478150656	14	4447
2026-01-09 01:01:19.80	1.69	29.67	-27.2	-28.9	15.6	0.00e+00	0	43	0	488636416	14	4398
2026-01-09 01:01:22.56	1.29	30.15	-27.2	-29.0	15.6	0.00e+00	0	43	0	497025024	14	4397
2026-01-09 01:01:25.85	0.79	30.72	-26.9	-28.9	15.9	0.00e+00	0	43	0	507510784	13	4484
2026-01-09 01:01:28.58	0.37	31.20	-27.3	-29.1	15.5	0.00e+00	0	43	0	515899392	14	4444
2026-01-09 01:01:31.85	359.84	31.78	-27.9	-30.1	14.7	7.00e-07	0	43	0	526385152	15	4612
2026-01-09 01:01:34.58	359.38	32.28	-27.3	-28.7	15.4	7.00e-07	0	43	0	534773760	15	4220
2026-01-09 01:01:37.88	358.81	32.88	-27.1	-28.6	15.8	0.00e+00	0	43	0	545259520	14	4310
2026-01-09 01:01:40.59	358.33	33.39	-27.2	-29.0	15.6	1.22e-05	0	43	0	553648128	14	4409
2026-01-09 01:01:43.89	357.72	34.01	-27.7	-29.6	14.9	0.00e+00	0	43	0	564133888	15	4486
2026-01-09 01:01:46.62	357.20	34.53	-28.0	-30.2	14.6	8.69e-05	0	43	0	572522496	15	4660
2026-01-09 01:01:49.92	356.54	35.17	-28.0	-29.6	14.9	0.00e+00	0	43	0	583008256	16	4353
2026-01-09 01:01:52.65	355.98	35.70	-27.7	-29.6	15.0	7.62e-05	0	43	0	591396864	15	4478
2026-01-09 01:01:55.94	355.27	36.36	-28.2	-30.1	14.6	0.00e+00	0	43	0	601882624	16	4486
2026-01-09 01:01:58.66	354.67	36.90	-28.3	-30.3	14.5	7.00e-07	0	43	0	610271232	16	4545
2026-01-09 01:02:01.97	353.90	37.57	-28.1	-29.9	14.7	0.00e+00	0	43	0	620756992	16	4432
2026-01-09 01:02:04.70	353.25	38.13	-28.4	-30.5	14.3	1.50e-06	0	43	0	629145600	16	4626
2026-01-09 01:02:08.01	352.42	38.81	-28.6	-30.6	14.0	3.00e-06	0	43	0	639631360	17	4535
2026-01-09 01:02:10.74	351.72	39.38	-28.6	-30.7	13.9	3.80e-06	0	43	0	648019968	17	4552
2026-01-09 01:02:14.04	350.83	40.08	-28.7	-30.8	13.9	2.20e-06	0	43	0	658505728	17	4589
2026-01-09 01:02:16.78	350.06	40.66	-28.7	-30.7	13.9	3.00e-06	0	43	0	666894336	17	4581
2026-01-09 01:02:20.13	349.08	41.37	-29.1	-31.3	13.2	1.14e-05	0	43	0	677380096	18	4639
2026-01-09 01:02:22.86	348.25	41.95	-29.2	-31.5	13.2	2.05e-05	0	43	0	685768704	18	4706
2026-01-09 01:02:26.15	347.21	42.66	-29.3	-31.9	12.8	4.04e-05	0	43	0	696254464	18	4823
2026-01-09 01:02:28.88	346.31	43.25	-29.8	-32.6	12.2	1.61e-04	0	43	0	704643072	19	4950
2026-01-09 01:02:32.16	345.18	43.96	-29.9	-32.8	12.1	2.37e-04	0	43	0	715128832	19	5014
2026-01-09 01:02:34.90	344.20	44.55	-29.4	-31.4	12.9	4.88e-05	0	43	0	723517440	19	4577
2026-01-09 01:02:38.22	342.96	45.27	-30.0	-32.7	11.7	4.48e-03	0	43	0	734003200	20	4887
2026-01-09 01:02:40.93	341.90	45.85	-29.3	-31.3	13.0	4.88e-05	0	43	0	742391808	19	4518
2026-01-09 01:02:44.25	340.56	46.56	-29.6	-32.1	12.5	2.70e-03	0	43	0	752877568	19	4797
2026-01-09 01:02:46.98	339.40	47.14	-29.4	-31.6	12.9	6.86e-05	0	43	0	761266176	19	4635
2026-01-09 01:02:50.26	337.96	47.83	-29.2	-31.6	13.2	1.45e-03	0	43	0	771751936	18	4738
2026-01-09 01:02:52.99	336.71	48.39	-28.9	-31.2	13.7	8.30e-06	0	43	0	780140544	17	4723
2026-01-09 01:02:56.29	335.13	49.06	-29.0	-31.1	13.6	1.70e-03	0	43	0	790626304	18	4559
2026-01-09 01:02:59.02	333.77	49.61	-28.7	-30.8	13.9	4.50e-06	0	43	0	799014912	17	4595
2026-01-09 01:03:02.33	332.06	50.26	-28.9	-31.3	13.7	6.80e-06	0	43	0	809500672	17	4746
2026-01-09 01:03:05.06	330.60	50.77	-28.8	-31.0	13.8	1.29e-05	0	43	0	817889280	17	4661
2026-01-09 01:03:08.37	328.75	51.38	-28.6	-30.5	14.2	3.00e-06	0	43	0	828375040	17	4493
2026-01-09 01:03:11.11	327.16	51.87	-28.7	-30.8	13.9	2.13e-03	0	43	0	836763648	17	4606
2026-01-09 01:03:14.41	325.19	52.42	-27.9	-29.5	15.0	0.00e+00	0	43	0	847249408	16	4314
2026-01-09 01:03:17.14	323.49	52.86	-27.6	-29.4	15.2	1.63e-03	0	43	0	855638016	15	4423
2026-01-09 01:03:20.45	321.37	53.36	-28.3	-30.5	14.4	0.00e+00	0	43	0	866123776	16	4612
2026-01-09 01:03:23.18	319.57	53.75	-27.8	-29.1	15.2	2.82e-04	0	43	0	874512384	16	4216
2026-01-09 01:03:26.49	317.32	54.18	-27.9	-29.3	15.1	0.00e+00	0	43	0	884998144	16	4275
2026-01-09 01:03:29.22	315.41	54.51	-27.5	-29.2	15.3	0.00e+00	0	43	0	893386752	15	4340
2026-01-09 01:03:32.53	313.05	54.86	-28.5	-30.4	14.2	7.00e-07	0	43	0	903872512	17	4477
2026-01-09 01:03:35.26	311.05	55.11	-28.4	-30.0	14.4	7.00e-07	0	43	0	912261120	17	4360
2026-01-09 01:03:38.58	308.58	55.37	-27.8	-29.2	15.2	0.00e+00	0	43	0	922746880	16	4245
2026-01-09 01:03:41.31	306.52	55.55	-27.1	-28.2	15.9	0.00e+00	0	43	0	931135488	15	4066
2026-01-09 01:03:44.61	303.99	55.72	-27.4	-29.3	14.1	0.00e+00	0	43	0	941621248	14	4478
2026-01-09 01:03:47.33	301.89	55.81	-27.2	-28.9	15.7	0.00e+00	0	43	0	950009856	14	4397
2026-01-09 01:03:50.63	299.33	55.88	-27.8	-29.7	15.0	0.00e+00	0	43	0	960495616	15	4510
2026-01-09 01:03:53.37	297.20	55.89	-27.4	-28.9	15.5	0.00e+00	0	43	0	968884224	15	4265
2026-01-09 01:03:56.68	294.62	55.85	-27.8	-29.8	14.9	0.00e+00	0	43	0	979369984	15	4546
2026-01-09 01:03:59.42	292.50	55.77	-27.8	-29.9	14.8	0.00e+00	0	43	0	987758592	15	4547
2026-01-09 01:04:02.73	289.95	55.63	-27.5	-29.1	15.2	2.59e-03	0	43	0	998244352	15	4336
2026-01-09 01:04:05.47	287.87	55.47	-28.1	-29.5	14.6	0.00e+00	0	43	0	1006632960	17	4217
2026-01-09 01:04:08.78	285.38	55.23	-28.4	-30.6	14.3	1.96e-03	0	43	0	1017118720	16	4664
2026-01-09 01:04:11.50	283.38	54.99	-28.0	-30.2	14.6	0.00e+00	0	43	0	1025507328	15	4650
2026-01-09 01:04:14.82	280.98	54.66	-28.1	-29.9	14.7	7.00e-07	0	43	0	1035993088	16	4431
2026-01-09 01:04:17.54	279.05	54.35	-28.0	-29.7	14.8	3.35e-03	0	43	0	1044381696	16	4389
2026-01-09 01:04:20.86	276.77	53.94	-28.2	-29.7	14.5	4.09e-04	0	43	0	1054867456	17	4272
2026-01-09 01:04:23.59	274.93	53.56	-29.2	-31.7	13.1	3.59e-03	0	43	0	1063256064	18	4772
2026-01-09 01:04:26.91	272.77	53.08	-28.0	-29.6	14.8	2.30e-03	0	43	0	1073741824	16	4350
2026-01-09 01:04:29.63	271.06	52.65	-28.7	-30.8	13.9	2.91e-03	0	43	0	1082130432	17	4614
2026-01-09 01:04:32.93	269.04	52.10	-27.1	-28.2	15.8	0.00e+00	0	43	0	1092616192	15	4087
2026-01-09 01:04:35.65	267.44	51.63	-28.6	-30.5	14.1	2.41e-03	0	43	0	1101004800	17	4503
2026-01-09 01:04:38.95	265.56	51.03	-27.9	-29.5	14.6	0.00e+00	0	43	0	1111490560	16	4323
2026-01-09 01:04:41.70	264.05	50.52	-28.2	-30.1	14.6	0.00e+00	0	43	0	1119879168	16	4510
2026-01-09 01:04:44.99	262.32	49.88	-29.0	-31.0	13.5	2.55e-03	0	43	0	1130364928	18	4538
2026-01-09 01:04:47.73	260.93	49.34	-29.0	-31.5	13.4	1.52e-05	0	43	0	1138753536	17	4808
2026-01-09 01:04:51.03	259.32	48.67	-30.2	-33.2	11.4	1.06e-03	0	43	0	1149239296	20	5079
2026-01-09 01:04:53.76	258.04	48.11	-29.6	-31.7	12.3	5.42e-04	0	43	0	1157627904	20	4548
2026-01-09 01:04:57.07	256.55	47.41	-28.3	-30.5	14.2	1.90e-04	0	43	0	1168113664	16	4603
2026-01-09 01:04:59.81	255.37	46.83	-30.1	-32.9	11.4	4.93e-04	0	43	0	1176502272	20	4973
2026-01-09 01:05:03.11	254.00	46.13	-29.5	-31.9	12.4	1.84e-04	0	43	0	1186988032	19	4720
2026-01-09 01:05:05.85	252.91	45.54	-30.6	-33.8	10.6	2.59e-03	0	43	0	1195376640	21	5205
2026-01-09 01:05:09.16	251.65	44.82	-31.8	-36.5	8.0	6.91e-02	0	43	0	1205862400	23	6191
2026-01-09 01:05:11.88	250.66	44.23	-30.6	-33.7	10.6	4.12e-03	0	43	0	1214251008	21	5165
2026-01-09 01:05:15.19	249.49	43.52	-29.2	-31.1	13.0	3.42e-04	0	43	0	1224736768	19	4459
2026-01-09 01:05:17.92	248.57	42.92	-30.2	-33.2	11.3	8.21e-04	0	43	0	1233125376	20	5075
2026-01-09 01:05:21.23	247.50	42.21	-29.5	-31.3	12.4	3.85e-04	0	43	0	1243611136	20	4442
2026-01-09 01:05:23.96	246.65	41.62	-29.8	-32.7	12.0	3.42e-04	0	43	0	1251999744	19	5001
2026-01-09 01:05:27.27	245.67	40.91	-29.8	-32.1	12.0	3.93e-04	0	43	0	1262485504	20	4709
2026-01-09 01:05:30.00	244.88	40.33	-30.3	-33.6	11.0	2.28e-03	0	43	0	1270874112	20	5232
2026-01-09 01:05:33.30	243.98	39.63	-27.8	-29.3	14.8	5.42e-04	0	43	0	1281359872	16	4272
2026-01-09 01:05:36.03	243.25	39.06	-27.0	-28.4	15.7	0.00e+00	0	43	0	1289748480	14	4248
2026-01-09 01:05:39.32	242.42	38.37	-29.2	-31.8	12.8	5.03e-05	0	43	0	1300234240	18	4815
2026-01-09 01:05:42.06	241.74	37.81	-28.7	-31.0	13.6	1.22e-05	0	43	0	1308622848	17	4664
2026-01-09 01:05:45.37	240.96	37.13	-29.0	-31.1	13.3	4.19e-05	0	43	0	1319108608	18	4584
2026-01-09 01:05:48.10	240.35	36.58	-28.6	-30.3	13.7	8.30e-06	0	43	0	1327497216	18	4347
2026-01-09 01:05:51.41	239.62	35.92	-28.5	-30.5	13.9	2.20e-06	0	43	0	1336934400	17	4520
2026-01-09 01:05:54.15	239.05	35.37	-28.9	-31.4	13.3	1.44e-05	0	43	0	1346371584	17	4808
2026-01-09 01:05:57.44	238.38	34.73	-28.1	-29.5	14.4	0.00e+00	0	43	0	1356857344	17	4238
2026-01-09 01:06:00.18	237.84	34.20	-28.0	-29.7	14.6	7.00e-07	0	43	0	1365245952	16	4394
2026-01-09 01:06:03.49	237.22	33.57	-28.2	-30.2	14.4	7.00e-07	0	43	0	1375731712	16	4536
2026-01-09 01:06:06.21	236.72	33.06	-28.2	-30.1	14.4	1.50e-06	0	43	0	1384120320	16	4518
2026-01-09 01:06:09.52	236.14	32.45	-27.5	-28.7	15.3	0.00e+00	0	43	0	1394606080	16	4104
2026-01-09 01:06:12.25	235.67	31.95	-27.4	-28.9	15.2	0.00e+00	0	43	0	1402994688	15	4274
2026-01-09 01:06:15.57	235.13	31.35	-27.6	-29.4	14.9	6.80e-06	0	43	0	1413480448	15	4411
2026-01-09 01:06:18.29	234.70	30.87	-27.9	-30.0	14.5	7.00e-07	0	43	0	1421869056	15	4609
2026-01-09 01:06:21.59	234.19	30.29	-28.2	-30.4	14.2	7.60e-06	0	43	0	1431306240	16	4595
2026-01-09 01:06:24.33	233.78	29.81	-27.5	-29.2	15.0	6.80e-06	0	43	0	1440743424	15	4369
2026-01-09 01:06:27.64	233.31	29.25	-27.0	-28.1	15.6	5.30e-06	0	43	0	1451229184	15	4065
2026-01-09 01:06:30.37	232.93	28.79	-27.0	-28.1	15.5	1.21e-04	0	43	0	1459617792	15	4083
2026-01-09 01:06:33.68	232.48	28.24	-26.9	-28.9	15.6	2.20e-06	0	43	0	1470103552	13	4504
2026-01-09 01:06:36.42	232.12	27.80	-27.0	-28.5	15.6	6.80e-06	0	43	0	1478492160	14	4299
2026-01-09 01:06:39.73	231.71	27.26	-26.9	-28.9	15.6	0.00e+00	0	43	0	1488977920	13	4527
2026-01-09 01:06:42.46	231.37	26.83	-26.8	-28.7	15.6	6.10e-06	0	43	0	1497366528	13	4479
2026-01-09 01:06:45.77	230.98	26.31	-27.0	-28.7	15.4	0.00e+00	0	43	0	1507852288	14	4345
2026-01-09 01:06:48.49	230.66	25.90	-27.1	-28.7	15.4	0.00e+00	0	43	0	1516240896	14	4363
2026-01-09 01:06:51.80	230.29	25.39	-27.5	-29.2	14.9	3.26e-03	0	43	0	1525678080	15	4372
2026-01-09 01:06:54.53	229.99	24.99	-26.7	-28.4	15.8	0.00e+00	0	43	0	1535115264	13	4391
2026-01-09 01:06:57.85	229.64	24.50	-26.7	-28.4	15.8	3.01e-03	0	43	0	1545601024	13	4363
2026-01-09 01:07:00.58	229.36	24.10	-26.6	-28.2	15.9	0.00e+00	0	43	0	1553989632	13	4328
2026-01-09 01:07:03.90	229.03	23.63	-26.9	-28.9	15.4	2.35e-03	0	43	0	1564475392	13	4528
2026-01-09 01:07:06.63	228.76	23.24	-26.7	-28.5	15.7	1.02e-04	0	43	0	1572864000	13	4399
2026-01-09 01:07:09.94	228.45	22.78	-27.2	-29.1	15.1	1.72e-03	0	43	0	1583349760	14	4489
2026-01-09 01:07:12.68	228.20	22.41	-27.2	-29.0	15.1	3.91e-03	0	43	0	1591738368	14	4450
2026-01-09 01:07:15.99	227.90	21.96	-27.3	-29.4	14.9	0.00e+00	0	43	0	1602224128	14	4559
2026-01-09 01:07:18.72	227.66	21.60	-27.2	-29.1	15.0	3.98e-03	0	43	0	1610612736	14	4465
2026-01-09 01:07:22.02	227.38	21.16	-26.8	-28.7	15.4	0.00e+00	0	43	0	1621098496	13	4474
2026-01-09 01:07:24.76	227.16	20.81	-26.7	-28.5	15.6	4.29e-03	0	43	0	1629487104	13	4411
2026-01-09 01:07:28.07	226.89	20.39	-26.6	-28.3	15.7	0.00e+00	0	43	0	1639972864	13	4346
2026-01-09 01:07:30.80	226.68	20.04	-26.6	-28.2	15.7	0.00e+00	0	43	0	1648361472	13	4314
2026-01-09 01:07:34.10	226.42	19.63	-26.3	-28.0	16.1	0.00e+00	0	43	0	1658847232	12	4391
2026-01-09 01:07:36.84	226.22	19.30	-26.3	-28.1	16.0	0.00e+00	0	43	0	1667235840	12	4409
2026-01-09 01:07:40.15	225.98	18.90	-26.7	-28.5	15.5	0.00e+00	0	43	0	1677721600	13	4426
2026-01-09 01:07:42.89	225.78	18.57	-26.8	-28.6	15.5	0.00e+00	0	43	0	1686110208	13	4430
2026-01-09 01:07:46.18	225.56	18.19	-26.8	-28.7	15.4	0.00e+00	0	43	0	1696595968	13	4480
2026-01-09 01:07:48.92	225.37	17.87	-27.0	-28.7	15.1	0.00e+00	0	43	0	1704984576	14	4363
2026-01-09 01:07:52.22	225.15	17.49	-27.4	-29.5	14.7	0.00e+00	0	43	0	1715470336	14	4587
2026-01-09 01:07:54.96	224.98	17.18	-27.5	-29.7	14.5	0.00e+00	0	43	0	1723858944	14	4675
2026-01-09 01:07:58.27	224.77	16.81	-27.6	-29.5	14.4	1.22e-03	0	43	0	1734344704	15	4479
2026-01-09 01:08:01.00	224.60	16.51	-28.0	-29.9	14.0	4.50e-06	0	43	0	1742733312	16	4500
2026-01-09 01:08:04.31	224.40	16.15	-27.5	-29.4	14.4	6.55e-04	0	43	0	1753219072	15	4472
2026-01-09 01:08:07.04	224.24	15.86	-28.1	-30.2	13.8	9.90e-06	0	43	0	1761607680	16	4576
2026-01-09 01:08:10.34	224.05	15.51	-28.0	-30.4	13.7	8.90e-04	0	43	0	1772093440	15	4773
2026-01-09 01:08:13.08	223.90	15.22	-27.1	-29.5	13.8	4.50e-06	0	43	0	1780482048	15	4711
2026-01-09 01:08:16.39	223.71	14.87	-27.3	-29.4	14.6	2.11e-03	0	43	0	1790967808	14	4581
2026-01-09 01:08:19.11	223.57	14.60	-27.1	-29.0	14.8	0.00e+00	0	43	0	1799356416	14	4444
2026-01-09 01:08:22.43	223.39	14.26	-27.2	-29.1	14.7	4.03e-04	0	43	0	1809842176	14	4485
2026-01-09 01:08:25.16	223.25	13.99	-27.2	-29.2	14.6	7.00e-07	0	43	0	1818230784	14	4520
2026-01-09 01:08:28.47	223.09	13.66	-27.7	-29.8	14.0	5.83e-04	0	43	0	1828716544	15	4602
2026-01-09 01:08:31.20	222.95	13.39	-27.7	-29.3	14.1	6.80e-06	0	43	0	1837105152	16	4331
2026-01-09 01:08:34.49	222.79	13.07	-27.3	-28.8	14.5	2.51e-04	0	43	0	1847590912	15	4300
2026-01-09 01:08:37.22	222.66	12.81	-27.3	-29.4	14.5	9.72e-04	0	43	0	1855979520	14	4572
2026-01-09 01:08:40.52	222.51	12.50	-27.5	-29.5	14.1	2.19e-04	0	43	0	1866465280	15	4500
2026-01-09 01:08:43.26	222.38	12.25	-27.8	-30.0	13.8	1.87e-03	0	43	0	1874853888	15	4661
2026-01-09 01:08:46.56	222.24	11.94	-27.6	-29.7	14.0	3.00e-06	0	43	0	1885339648	15	4557
2026-01-09 01:08:49.31	222.12	11.69	-27.7	-30.0	13.8	1.30e-03	0	43	0	1893728256	15	4647
2026-01-09 01:08:52.61	221.97	11.39	-28.2	-30.5	13.3	7.60e-06	0	43	0	1904214016	16	4688
2026-01-09 01:08:55.34	221.86	11.15	-27.8	-30.1	13.7	3.80e-06	0	43	0	1912602624	15	4683
2026-01-09 01:08:58.65	221.72	10.85	-27.8	-30.1	13.6	6.10e-06	0	43	0	1923088384	15	4697
2026-01-09 01:09:01.38	221.61	10.61	-27.7	-29.9	13.7	1.06e-05	0	43	0	1931476992	15	4647
2026-01-09 01:09:04.70	221.48	10.33	-27.9	-30.3	13.5	1.14e-05	0	43	0	1941962752	15	4759
2026-01-09 01:09:07.44	221.38	10.09	-27.8	-30.1	13.6	9.10e-06	0	43	0	1950351360	15	4697
2026-01-09 01:09:10.75	221.25	9.81	-27.8	-30.2	13.5	8.30e-06	0	43	0	1960837120	15	4734
2026-01-09 01:09:13.48	221.15	9.58	-27.9	-30.5	13.3	1.52e-05	0	43	0	1969225728	15	4822
2026-01-09 01:09:16.78	221.03	9.30	-28.2	-30.5	13.1	2.05e-05	0	43	0	1979711488	16	4719
2026-01-09 01:09:19.50	220.93	9.08	-28.2	-30.6	13.0	3.12e-05	0	43	0	1988100096	16	4754
2026-01-09 01:09:22.81	220.81	8.81	-28.2	-30.6	13.0	3.12e-05	0	43	0	1998585856	16	4760
2026-01-09 01:09:25.54	220.71	8.59	-28.4	-31.0	12.7	6.79e-05	0	43	0	2006974464	16	4895
2026-01-09 01:09:28.85	220.60	8.32	-28.3	-31.0	12.7	6.79e-05	0	43	0	2017460224	16	4869
2026-01-09 01:09:31.59	220.51	8.10	-28.4	-31.1	12.6	9.00e-05	0	43	0	2025848832	16	4920
2026-01-09 01:09:34.90	220.40	7.84	-28.8	-31.7	11.9	3.11e-04	0	43	0	2036334592	17	5024
2026-01-09 01:09:37.63	220.31	7.63	-28.9	-31.9	11.8	5.37e-04	0	43	0	2044723200	17	5106
2026-01-09 01:09:40.94	220.21	7.37	-28.9	-31.5	11.6	9.81e-04	0	43	0	2055208960	18	4855
2026-01-09 01:09:43.68	220.12	7.16	-28.9	-31.9	11.6	7.47e-04	0	43	0	2063597568	17	5112
2026-01-09 01:09:46.97	220.02	6.91	-33.3	-45.5	3.8	1.49e+00	0	43	104	2065694720	26	14585

#Closed at: 2026-01-09 01:09:47
#Recorded file [2065 MB]: D:/data/31010_260109_035843.dat