passes_logs/2026/01/09/R2M6_AANII_01/R2M6_AANII_01__20260109_154718_FENGYUN_3E_rec.log

#Pass ID: 20260109_154718_FENGYUN 3E
#Satellite: FENGYUN 3E
#Configuration: FENGYUN 3E
#almurnet v.1.7.20240730
#Start time: 2026-01-09 15:47:19

#Version: 2.2.20231116
#Station: R2M6_AANII_01
#Location: 30.233357 lon 59.946436 lat
#TLE: 1 49008U 21062A   26008.59312205 -.00000223  00000+0 -84486-4 0  9997
#TLE: 2 49008  98.7483  13.7961 0001692 149.3118 210.8157 14.19883502233939

#Time	Az	El	Level	Level2	SNR	BER	BlckErr	Temp	State	Recorded	gain1	gain2
2026-01-09 15:47:19.12	198.34	7.06	-29.2	-31.3	5.4	7.72e-01	0	40	0	0	18	4622
2026-01-09 15:47:22.12	198.56	7.27	-29.7	-32.2	8.9	3.20e-02	0	40	0	7340032	19	4805
2026-01-09 15:47:25.13	198.78	7.48	-28.8	-30.3	10.6	4.35e-03	0	41	0	28311552	18	4282
2026-01-09 15:47:28.14	199.00	7.70	-28.2	-29.4	11.5	1.07e-03	0	41	0	50331648	17	4101
2026-01-09 15:47:31.12	199.22	7.91	-28.6	-30.2	11.0	2.63e-03	0	41	0	72351744	17	4328
2026-01-09 15:47:34.14	199.45	8.13	-27.2	-27.9	12.8	6.29e-05	0	41	0	93323264	15	3900
2026-01-09 15:47:37.15	199.69	8.35	-26.3	-26.8	14.1	2.20e-06	0	41	0	115343360	13	3823
2026-01-09 15:47:40.16	199.92	8.57	-26.5	-27.3	13.8	5.70e-06	0	41	0	137363456	13	3947
2026-01-09 15:47:43.16	200.16	8.79	-26.3	-26.8	14.1	2.20e-06	0	41	0	158334976	13	3836
2026-01-09 15:47:46.17	200.40	9.01	-26.5	-27.3	13.8	3.40e-06	0	41	0	180355072	13	3954
2026-01-09 15:47:49.17	200.65	9.23	-26.2	-26.7	14.2	3.40e-06	0	41	0	202375168	13	3809
2026-01-09 15:47:52.18	200.90	9.46	-26.2	-26.7	14.2	2.20e-06	0	41	0	224395264	13	3812
2026-01-09 15:47:55.19	201.15	9.69	-26.3	-27.0	14.0	3.40e-06	0	42	0	245366784	13	3871
2026-01-09 15:47:58.20	201.41	9.92	-26.4	-27.1	14.0	4.50e-06	0	42	0	267386880	13	3904
2026-01-09 15:48:01.20	201.67	10.15	-26.7	-27.7	13.6	5.70e-06	0	42	0	289406976	13	4066
2026-01-09 15:48:04.21	201.94	10.38	-26.1	-26.4	14.4	0.00e+00	0	42	0	310378496	13	3729
2026-01-09 15:48:07.22	202.21	10.61	-25.9	-26.6	14.6	0.00e+00	0	42	0	332398592	12	3870
2026-01-09 15:48:10.23	202.48	10.85	-25.9	-26.5	14.6	0.00e+00	0	42	0	354418688	12	3853
2026-01-09 15:48:13.24	202.76	11.08	-25.9	-26.5	14.7	0.00e+00	0	42	0	376438784	12	3851
2026-01-09 15:48:16.23	203.04	11.32	-25.8	-26.4	14.7	0.00e+00	0	42	0	397410304	12	3825
2026-01-09 15:48:19.23	203.33	11.56	-25.8	-26.1	14.9	0.00e+00	0	42	0	419430400	12	3765
2026-01-09 15:48:22.24	203.62	11.81	-26.0	-26.6	14.6	0.00e+00	0	42	0	440401920	12	3882
2026-01-09 15:48:25.24	203.91	12.05	-26.0	-26.8	14.6	0.00e+00	0	42	0	462422016	12	3913
2026-01-09 15:48:28.24	204.21	12.29	-26.2	-27.2	14.4	1.10e-06	0	42	0	484442112	12	4017
2026-01-09 15:48:31.25	204.52	12.54	-26.0	-26.7	14.6	0.00e+00	0	42	0	505413632	12	3902
2026-01-09 15:48:34.25	204.83	12.79	-25.6	-25.8	15.2	0.00e+00	0	42	0	527433728	12	3692
2026-01-09 15:48:37.24	205.14	13.04	-25.7	-25.9	15.1	0.00e+00	0	42	0	549453824	12	3717
2026-01-09 15:48:40.26	205.46	13.30	-25.6	-25.8	15.1	0.00e+00	0	42	0	570425344	12	3688
2026-01-09 15:48:43.26	205.79	13.55	-25.4	-25.5	15.4	0.00e+00	0	42	0	592445440	12	3613
2026-01-09 15:48:46.26	206.12	13.81	-25.5	-25.6	15.4	0.00e+00	0	42	0	614465536	12	3623
2026-01-09 15:48:49.26	206.46	14.06	-25.7	-26.0	15.1	0.00e+00	0	42	0	635437056	12	3729
2026-01-09 15:48:52.25	206.80	14.32	-25.7	-26.0	15.2	0.00e+00	0	42	0	657457152	12	3723
2026-01-09 15:48:55.25	207.15	14.59	-26.0	-26.6	14.8	0.00e+00	0	42	0	679477248	12	3866
2026-01-09 15:48:58.26	207.50	14.85	-25.1	-25.3	15.9	0.00e+00	0	42	0	700448768	11	3658
2026-01-09 15:49:01.27	207.86	15.12	-25.3	-25.6	15.7	0.00e+00	0	42	0	722468864	11	3736
2026-01-09 15:49:04.27	208.23	15.38	-25.2	-25.4	15.8	0.00e+00	0	43	0	744488960	11	3693
2026-01-09 15:49:07.27	208.60	15.65	-25.2	-25.5	15.8	0.00e+00	0	43	0	766509056	11	3702
2026-01-09 15:49:10.28	208.98	15.93	-25.0	-25.0	16.1	0.00e+00	0	43	0	787480576	11	3587
2026-01-09 15:49:13.31	209.37	16.20	-24.6	-24.7	16.5	0.00e+00	0	43	0	809500672	10	3613
2026-01-09 15:49:16.31	209.77	16.48	-25.0	-25.4	16.1	0.00e+00	0	43	0	831520768	10	3788
2026-01-09 15:49:19.31	210.17	16.75	-24.9	-25.2	16.3	0.00e+00	0	42	0	852492288	10	3724
2026-01-09 15:49:22.31	210.57	17.03	-24.7	-24.7	16.5	0.00e+00	0	43	0	874512384	10	3632
2026-01-09 15:49:25.33	210.99	17.31	-25.1	-25.8	16.0	0.00e+00	0	42	0	896532480	10	3874
2026-01-09 15:49:28.32	211.41	17.60	-25.0	-25.4	16.2	0.00e+00	0	43	0	918552576	10	3776
2026-01-09 15:49:31.33	211.84	17.88	-24.6	-24.6	16.7	0.00e+00	0	43	0	939524096	10	3608
2026-01-09 15:49:34.35	212.29	18.17	-24.5	-24.4	16.8	0.00e+00	0	43	0	961544192	10	3547
2026-01-09 15:49:37.36	212.73	18.46	-24.1	-24.1	17.2	0.00e+00	0	43	0	983564288	9	3578
2026-01-09 15:49:40.36	213.19	18.75	-24.2	-24.3	17.1	0.00e+00	0	43	0	1004535808	9	3632
2026-01-09 15:49:43.36	213.65	19.04	-24.2	-24.1	17.2	0.00e+00	0	43	0	1026555904	9	3592
2026-01-09 15:49:46.36	214.12	19.33	-24.3	-24.4	17.1	0.00e+00	0	43	0	1047527424	9	3643
2026-01-09 15:49:49.38	214.61	19.63	-24.2	-24.2	17.2	0.00e+00	0	43	0	1069547520	9	3610
2026-01-09 15:49:52.38	215.10	19.92	-24.2	-24.3	17.1	0.00e+00	0	43	0	1091567616	9	3638
2026-01-09 15:49:55.39	215.60	20.22	-24.3	-24.5	17.1	0.00e+00	0	43	0	1113587712	9	3670
2026-01-09 15:49:58.40	216.11	20.52	-24.0	-23.8	17.4	0.00e+00	0	43	0	1134559232	9	3528
2026-01-09 15:50:01.40	216.63	20.82	-24.0	-23.9	17.4	0.00e+00	0	43	0	1156579328	9	3529
2026-01-09 15:50:04.42	217.16	21.12	-24.0	-24.3	17.4	0.00e+00	0	43	0	1178599424	8	3729
2026-01-09 15:50:07.43	217.70	21.42	-24.1	-24.5	17.3	0.00e+00	0	43	0	1200619520	8	3768
2026-01-09 15:50:10.43	218.25	21.73	-24.1	-24.6	17.3	0.00e+00	0	43	0	1221591040	8	3798
2026-01-09 15:50:13.44	218.81	22.03	-23.8	-24.0	17.6	0.00e+00	0	43	0	1243611136	8	3660
2026-01-09 15:50:16.43	219.38	22.33	-23.7	-23.7	17.8	0.00e+00	0	43	0	1265631232	8	3602
2026-01-09 15:50:19.45	219.96	22.64	-23.7	-23.6	17.8	0.00e+00	0	43	0	1286602752	8	3581
2026-01-09 15:50:22.45	220.55	22.95	-23.8	-23.8	17.8	0.00e+00	0	43	0	1308622848	8	3618
2026-01-09 15:50:25.46	221.16	23.26	-23.8	-23.8	17.8	0.00e+00	0	43	0	1330642944	8	3605
2026-01-09 15:50:28.47	221.78	23.56	-23.8	-23.9	17.7	0.00e+00	0	43	0	1352663040	8	3639
2026-01-09 15:50:31.49	222.41	23.87	-23.8	-23.8	17.8	0.00e+00	0	43	0	1373634560	8	3622
2026-01-09 15:50:34.50	223.05	24.18	-24.0	-24.3	17.6	0.00e+00	0	43	0	1395654656	8	3720
2026-01-09 15:50:37.50	223.70	24.49	-23.8	-24.0	17.7	0.00e+00	0	43	0	1417674752	8	3657
2026-01-09 15:50:40.50	224.37	24.80	-23.8	-23.9	17.8	0.00e+00	0	43	0	1438646272	8	3632
2026-01-09 15:50:43.51	225.05	25.10	-23.5	-23.8	18.0	0.00e+00	0	43	0	1460666368	7	3712
2026-01-09 15:50:46.52	225.74	25.41	-23.3	-23.4	18.3	0.00e+00	0	43	0	1482686464	7	3629
2026-01-09 15:50:49.52	226.44	25.72	-23.3	-23.3	18.3	0.00e+00	0	43	0	1504706560	7	3615
2026-01-09 15:50:52.54	227.17	26.02	-23.3	-23.3	18.3	0.00e+00	0	43	0	1525678080	7	3618
2026-01-09 15:50:55.54	227.90	26.32	-23.5	-23.8	18.1	0.00e+00	0	43	0	1547698176	7	3711
2026-01-09 15:50:58.54	228.64	26.62	-23.4	-23.6	18.2	0.00e+00	0	43	0	1569718272	7	3667
2026-01-09 15:51:01.54	229.40	26.92	-23.5	-23.7	18.1	0.00e+00	0	43	0	1590689792	7	3698
2026-01-09 15:51:04.54	230.17	27.22	-23.4	-23.6	18.2	0.00e+00	0	43	0	1612709888	7	3664
2026-01-09 15:51:07.54	230.96	27.51	-23.1	-22.9	18.5	0.00e+00	0	43	0	1633681408	7	3522
2026-01-09 15:51:10.56	231.76	27.81	-23.0	-22.8	18.6	0.00e+00	0	43	0	1655701504	7	3494
2026-01-09 15:51:13.56	232.58	28.10	-23.4	-23.6	18.2	0.00e+00	0	43	0	1677721600	7	3674
2026-01-09 15:51:16.57	233.41	28.38	-23.3	-23.4	18.3	0.00e+00	0	43	0	1699741696	7	3629
2026-01-09 15:51:19.57	234.25	28.67	-23.5	-23.8	18.1	0.00e+00	0	43	0	1720713216	7	3707
2026-01-09 15:51:22.58	235.11	28.95	-23.4	-23.5	18.3	0.00e+00	0	43	0	1742733312	7	3642
2026-01-09 15:51:25.59	235.99	29.22	-23.3	-23.2	18.4	0.00e+00	0	43	0	1764753408	7	3585
2026-01-09 15:51:28.59	236.88	29.49	-23.5	-23.7	18.2	0.00e+00	0	43	0	1785724928	7	3693
2026-01-09 15:51:31.60	237.78	29.75	-23.0	-22.7	18.7	0.00e+00	0	43	0	1807745024	7	3479
2026-01-09 15:51:34.61	238.70	30.01	-23.0	-23.2	18.7	0.00e+00	0	43	0	1829765120	6	3683
2026-01-09 15:51:37.61	239.63	30.27	-23.1	-23.5	18.5	0.00e+00	0	43	0	1850736640	6	3749
2026-01-09 15:51:40.62	240.58	30.52	-23.6	-23.9	18.1	0.00e+00	0	43	0	1872756736	7	3729
2026-01-09 15:51:43.63	241.54	30.76	-23.4	-23.5	18.3	0.00e+00	0	43	0	1894776832	7	3648
2026-01-09 15:51:46.63	242.52	30.99	-23.3	-23.2	18.4	0.00e+00	0	43	0	1916796928	7	3596
2026-01-09 15:51:49.64	243.51	31.22	-23.2	-23.1	18.5	0.00e+00	0	43	0	1937768448	7	3564
2026-01-09 15:51:52.65	244.51	31.44	-23.0	-22.8	18.7	0.00e+00	0	43	0	1959788544	7	3497
2026-01-09 15:51:55.66	245.53	31.65	-23.0	-22.8	18.7	0.00e+00	0	43	0	1981808640	7	3490
2026-01-09 15:51:58.67	246.56	31.85	-23.1	-22.9	18.7	0.00e+00	0	43	0	2003828736	7	3518
2026-01-09 15:52:01.68	247.60	32.05	-23.3	-23.3	18.5	0.00e+00	0	43	0	2024800256	7	3598
2026-01-09 15:52:04.68	248.65	32.23	-22.9	-22.9	18.9	0.00e+00	0	43	0	2046820352	6	3623
2026-01-09 15:52:07.70	249.72	32.41	-22.8	-22.8	18.9	0.00e+00	0	43	0	2068840448	6	3591
2026-01-09 15:52:10.71	250.80	32.57	-22.9	-22.9	18.9	0.00e+00	0	43	0	2089811968	6	3614
2026-01-09 15:52:13.71	251.88	32.73	-23.1	-23.4	18.6	0.00e+00	0	43	0	2111832064	6	3730
2026-01-09 15:52:16.72	252.98	32.87	-23.1	-23.4	18.7	0.00e+00	0	43	0	2133852160	6	3721
2026-01-09 15:52:19.73	254.09	33.00	-23.4	-24.1	18.3	0.00e+00	0	43	0	2155872256	6	3891
2026-01-09 15:52:22.73	255.20	33.13	-23.3	-23.8	18.5	0.00e+00	0	43	0	2176843776	6	3816
2026-01-09 15:52:25.73	256.32	33.24	-23.0	-23.1	18.8	0.00e+00	0	43	0	2198863872	6	3668
2026-01-09 15:52:28.73	257.44	33.34	-23.0	-23.2	18.7	0.00e+00	0	43	0	2219835392	6	3694
2026-01-09 15:52:31.73	258.57	33.42	-23.2	-23.7	18.5	0.00e+00	0	43	0	2241855488	6	3797
2026-01-09 15:52:34.74	259.71	33.50	-23.1	-23.4	18.7	0.00e+00	0	43	0	2263875584	6	3730
2026-01-09 15:52:37.74	260.86	33.56	-23.3	-23.8	18.5	0.00e+00	0	43	0	2284847104	6	3809
2026-01-09 15:52:40.74	262.00	33.61	-23.3	-23.8	18.5	0.00e+00	0	43	0	2306867200	6	3816
2026-01-09 15:52:43.74	263.15	33.65	-23.1	-23.4	18.7	0.00e+00	0	43	0	2328887296	6	3736
2026-01-09 15:52:46.72	264.30	33.68	-23.1	-23.4	18.7	0.00e+00	0	43	0	2349858816	6	3716
2026-01-09 15:52:49.73	265.45	33.69	-23.1	-23.4	18.7	0.00e+00	0	43	0	2371878912	6	3716
2026-01-09 15:52:52.74	266.61	33.69	-22.9	-23.1	18.8	0.00e+00	0	43	0	2393899008	6	3657
2026-01-09 15:52:55.75	267.77	33.68	-23.0	-23.2	18.8	0.00e+00	0	43	0	2414870528	6	3671
2026-01-09 15:52:58.75	268.92	33.65	-23.1	-23.4	18.7	0.00e+00	0	43	0	2436890624	6	3722
2026-01-09 15:53:01.75	270.07	33.61	-23.3	-23.7	18.5	0.00e+00	0	43	0	2458910720	6	3798
2026-01-09 15:53:04.77	271.22	33.56	-23.8	-24.3	18.0	0.00e+00	0	43	0	2479882240	7	3820
2026-01-09 15:53:07.77	272.36	33.50	-23.4	-23.5	18.4	0.00e+00	0	43	0	2501902336	7	3640
2026-01-09 15:53:10.78	273.50	33.43	-23.4	-23.6	18.3	0.00e+00	0	43	0	2523922432	7	3661
2026-01-09 15:53:13.78	274.63	33.34	-23.3	-23.3	18.5	0.00e+00	0	43	0	2545942528	7	3603
2026-01-09 15:53:16.78	275.76	33.24	-22.7	-22.5	19.1	0.00e+00	0	43	0	2566914048	6	3542
2026-01-09 15:53:19.79	276.88	33.13	-23.1	-23.3	18.7	0.00e+00	0	43	0	2588934144	6	3703
2026-01-09 15:53:22.80	277.99	33.01	-23.3	-23.7	18.5	0.00e+00	0	43	0	2610954240	6	3805
2026-01-09 15:53:25.81	279.10	32.87	-23.3	-23.9	18.4	0.00e+00	0	43	0	2631925760	6	3842
2026-01-09 15:53:28.82	280.19	32.73	-23.4	-24.0	18.3	0.00e+00	0	43	0	2653945856	6	3857
2026-01-09 15:53:31.82	281.27	32.57	-23.2	-23.7	18.5	0.00e+00	0	43	0	2675965952	6	3799
2026-01-09 15:53:34.83	282.35	32.41	-23.2	-23.6	18.5	0.00e+00	0	43	0	2697986048	6	3778
2026-01-09 15:53:37.83	283.41	32.24	-22.9	-23.0	18.8	0.00e+00	0	43	0	2718957568	6	3645
2026-01-09 15:53:40.82	284.45	32.05	-23.1	-23.4	18.7	0.00e+00	0	43	0	2740977664	6	3720
2026-01-09 15:53:43.83	285.49	31.86	-23.1	-23.4	18.7	0.00e+00	0	43	0	2761949184	6	3713
2026-01-09 15:53:46.82	286.51	31.66	-23.0	-23.2	18.8	0.00e+00	0	43	0	2783969280	6	3685
2026-01-09 15:53:49.82	287.53	31.45	-23.0	-23.1	18.8	0.00e+00	0	43	0	2805989376	6	3664
2026-01-09 15:53:52.82	288.52	31.23	-22.9	-22.9	18.9	0.00e+00	0	43	0	2826960896	6	3620
2026-01-09 15:53:55.82	289.51	31.01	-22.9	-22.9	18.9	0.00e+00	0	43	0	2848980992	6	3610
2026-01-09 15:53:58.83	290.48	30.77	-23.2	-23.6	18.5	0.00e+00	0	43	0	2871001088	6	3770
2026-01-09 15:54:01.83	291.44	30.53	-23.6	-24.0	18.1	0.00e+00	0	43	0	2891972608	7	3768
2026-01-09 15:54:04.83	292.38	30.29	-23.4	-23.5	18.3	0.00e+00	0	43	0	2913992704	7	3638
2026-01-09 15:54:07.84	293.32	30.04	-23.3	-23.3	18.4	0.00e+00	0	43	0	2936012800	7	3598
2026-01-09 15:54:10.83	294.23	29.78	-23.3	-23.3	18.4	0.00e+00	0	43	0	2956984320	7	3594
2026-01-09 15:54:13.84	295.13	29.52	-23.2	-23.0	18.6	0.00e+00	0	43	0	2979004416	7	3540
2026-01-09 15:54:16.85	296.02	29.25	-23.0	-22.7	18.7	0.00e+00	0	43	0	3001024512	7	3473
2026-01-09 15:54:19.86	296.89	28.97	-23.3	-23.2	18.5	0.00e+00	0	43	0	3021996032	7	3585
2026-01-09 15:54:22.87	297.75	28.70	-23.3	-23.3	18.4	0.00e+00	0	43	0	3044016128	7	3587
2026-01-09 15:54:25.87	298.59	28.42	-23.4	-23.5	18.3	0.00e+00	0	43	0	3066036224	7	3655
2026-01-09 15:54:28.87	299.42	28.13	-23.5	-23.8	18.1	0.00e+00	0	43	0	3088056320	7	3719
2026-01-09 15:54:31.89	300.24	27.84	-23.5	-23.8	18.1	0.00e+00	0	43	0	3109027840	7	3719
2026-01-09 15:54:34.90	301.04	27.55	-23.3	-23.4	18.4	0.00e+00	0	43	0	3131047936	7	3617
2026-01-09 15:54:37.91	301.83	27.26	-23.2	-23.2	18.5	0.00e+00	0	43	0	3153068032	7	3574
2026-01-09 15:54:40.92	302.60	26.96	-23.6	-24.0	18.1	0.00e+00	0	43	0	3174039552	7	3756
2026-01-09 15:54:43.92	303.36	26.67	-23.7	-24.1	18.0	0.00e+00	0	43	0	3196059648	7	3772
2026-01-09 15:54:46.94	304.10	26.37	-23.5	-23.8	18.1	0.00e+00	0	43	0	3218079744	7	3704
2026-01-09 15:54:49.95	304.84	26.06	-23.2	-23.2	18.5	0.00e+00	0	43	0	3240099840	7	3574
2026-01-09 15:54:52.96	305.55	25.76	-23.3	-23.3	18.3	0.00e+00	0	43	0	3261071360	7	3601
2026-01-09 15:54:55.96	306.25	25.46	-23.7	-24.1	17.9	0.00e+00	0	43	0	3283091456	7	3792
2026-01-09 15:54:58.97	306.95	25.15	-23.8	-24.3	17.9	0.00e+00	0	43	0	3304062976	7	3821
2026-01-09 15:55:01.98	307.62	24.85	-23.6	-23.9	18.1	0.00e+00	0	43	0	3326083072	7	3728
2026-01-09 15:55:04.98	308.29	24.54	-23.5	-23.7	18.2	0.00e+00	0	43	0	3348103168	7	3695
2026-01-09 15:55:07.99	308.94	24.24	-23.6	-24.0	18.0	0.00e+00	0	43	0	3370123264	7	3753
2026-01-09 15:55:11.00	309.58	23.93	-23.8	-24.3	17.8	0.00e+00	0	43	0	3391094784	7	3820
2026-01-09 15:55:14.00	310.21	23.63	-24.1	-24.6	17.4	0.00e+00	0	43	0	3413114880	8	3789
2026-01-09 15:55:17.01	310.82	23.32	-24.3	-24.8	17.3	0.00e+00	0	43	0	3435134976	8	3842
2026-01-09 15:55:20.01	311.43	23.02	-24.1	-24.6	17.5	0.00e+00	0	43	0	3456106496	8	3791
2026-01-09 15:55:23.02	312.02	22.71	-23.8	-24.0	17.7	0.00e+00	0	43	0	3478126592	8	3650
2026-01-09 15:55:26.03	312.60	22.41	-24.0	-24.3	17.5	0.00e+00	0	43	0	3500146688	8	3736
2026-01-09 15:55:29.03	313.17	22.10	-24.2	-24.7	17.3	0.00e+00	0	43	0	3522166784	8	3827
2026-01-09 15:55:32.02	313.73	21.80	-24.5	-25.3	17.0	0.00e+00	0	43	0	3543138304	8	3953
2026-01-09 15:55:35.02	314.28	21.50	-24.2	-24.7	17.3	0.00e+00	0	43	0	3565158400	8	3819
2026-01-09 15:55:38.04	314.82	21.20	-24.0	-24.3	17.5	0.00e+00	0	43	0	3587178496	8	3727
2026-01-09 15:55:41.05	315.35	20.90	-23.8	-23.9	17.7	0.00e+00	0	43	0	3608150016	8	3643
2026-01-09 15:55:44.06	315.87	20.60	-24.0	-24.4	17.5	0.00e+00	0	43	0	3630170112	8	3739
2026-01-09 15:55:47.07	316.38	20.30	-24.3	-24.9	17.2	0.00e+00	0	43	0	3652190208	8	3871
2026-01-09 15:55:50.07	316.88	20.01	-24.6	-25.5	16.8	0.00e+00	0	43	0	3674210304	8	4003
2026-01-09 15:55:53.08	317.37	19.72	-24.7	-25.2	16.8	0.00e+00	0	43	0	3695181824	9	3826
2026-01-09 15:55:56.09	317.85	19.42	-24.5	-24.9	16.9	0.00e+00	0	43	0	3717201920	9	3769
2026-01-09 15:55:59.10	318.32	19.13	-24.4	-24.7	17.1	0.00e+00	0	43	0	3739222016	9	3706
2026-01-09 15:56:02.11	318.79	18.84	-24.5	-24.7	17.1	0.00e+00	0	43	0	3760193536	9	3724
2026-01-09 15:56:05.11	319.24	18.55	-24.8	-25.5	16.7	0.00e+00	0	43	0	3782213632	9	3898
2026-01-09 15:56:08.14	319.69	18.27	-25.1	-25.6	16.4	0.00e+00	0	43	0	3804233728	10	3822
2026-01-09 15:56:11.14	320.13	17.98	-25.4	-26.3	16.0	0.00e+00	0	43	0	3826253824	10	3997
2026-01-09 15:56:14.15	320.56	17.70	-25.4	-26.2	16.1	0.00e+00	0	43	0	3847225344	10	3949
2026-01-09 15:56:17.15	320.98	17.42	-25.8	-26.7	15.6	0.00e+00	0	43	0	3869245440	11	3967
2026-01-09 15:56:20.15	321.40	17.14	-25.6	-26.1	15.8	0.00e+00	0	43	0	3890216960	11	3839
2026-01-09 15:56:23.15	321.81	16.86	-25.3	-25.5	16.2	0.00e+00	0	43	0	3912237056	11	3696
2026-01-09 15:56:26.17	322.21	16.59	-25.1	-25.2	16.3	0.00e+00	0	43	0	3934257152	11	3629
2026-01-09 15:56:29.18	322.61	16.31	-25.2	-25.3	16.2	0.00e+00	0	43	0	3956277248	11	3656
2026-01-09 15:56:32.19	322.99	16.04	-25.1	-25.1	16.3	0.00e+00	0	43	0	3977248768	11	3610
2026-01-09 15:56:35.20	323.37	15.77	-25.3	-25.6	16.0	0.00e+00	0	43	0	3999268864	11	3714
2026-01-09 15:56:38.20	323.75	15.50	-25.5	-26.0	15.8	0.00e+00	0	43	0	4021288960	11	3823
2026-01-09 15:56:41.20	324.12	15.24	-25.5	-26.1	15.7	0.00e+00	0	43	0	4042260480	11	3844
2026-01-09 15:56:44.21	324.48	14.97	-25.6	-26.3	15.6	0.00e+00	0	43	0	4064280576	11	3898
2026-01-09 15:56:47.21	324.83	14.71	-25.4	-25.8	15.8	0.00e+00	0	43	0	4086300672	11	3771
2026-01-09 15:56:50.22	325.18	14.45	-25.5	-26.1	15.7	0.00e+00	0	43	0	4108320768	11	3840
2026-01-09 15:56:53.22	325.53	14.19	-25.9	-26.8	15.3	0.00e+00	0	43	0	4129292288	11	4002
2026-01-09 15:56:56.21	325.86	13.94	-25.9	-26.8	15.2	0.00e+00	0	43	0	4151312384	11	4012
2026-01-09 15:56:59.23	326.20	13.68	-26.0	-27.1	15.1	0.00e+00	0	43	0	4173332480	11	4078
2026-01-09 15:57:02.25	326.53	13.42	-26.0	-27.2	15.0	0.00e+00	0	43	0	4194304000	11	4117
2026-01-09 15:57:05.25	326.85	13.17	-26.2	-27.0	14.8	0.00e+00	0	43	0	4216324096	12	3952
2026-01-09 15:57:08.25	327.16	12.92	-25.9	-26.4	15.1	0.00e+00	0	43	0	4238344192	12	3823
2026-01-09 15:57:11.24	327.47	12.68	-25.9	-26.4	15.1	0.00e+00	0	43	0	4259315712	12	3809
2026-01-09 15:57:14.24	327.78	12.43	-25.9	-26.4	15.1	1.10e-06	0	43	0	4281335808	12	3806
2026-01-09 15:57:17.25	328.08	12.19	-25.9	-26.5	15.0	0.00e+00	0	43	0	4303355904	12	3827
2026-01-09 15:57:20.26	328.38	11.94	-26.1	-26.8	14.8	0.00e+00	0	43	0	4324327424	12	3917
2026-01-09 15:57:23.27	328.67	11.70	-26.1	-26.9	14.7	0.00e+00	0	43	0	4346347520	12	3949
2026-01-09 15:57:26.28	328.96	11.46	-26.2	-27.1	14.6	0.00e+00	0	43	0	4368367616	12	3994
2026-01-09 15:57:29.29	329.24	11.23	-26.3	-27.3	14.4	1.10e-06	0	43	0	4390387712	12	4049
2026-01-09 15:57:32.29	329.52	10.99	-26.3	-27.2	14.5	0.00e+00	0	43	0	4411359232	12	4028
2026-01-09 15:57:35.30	329.80	10.76	-26.4	-27.6	14.2	1.10e-06	0	43	0	4433379328	12	4122
2026-01-09 15:57:38.31	330.07	10.52	-26.5	-27.3	14.1	0.00e+00	0	43	0	4454350848	13	3940
2026-01-09 15:57:41.31	330.34	10.29	-26.4	-27.2	14.1	2.20e-06	0	43	0	4476370944	13	3912
2026-01-09 15:57:44.31	330.60	10.07	-26.4	-27.0	14.3	1.10e-06	0	43	0	4498391040	13	3858
2026-01-09 15:57:47.32	330.86	9.84	-26.4	-27.0	14.2	0.00e+00	0	43	0	4520411136	13	3878
2026-01-09 15:57:50.32	331.11	9.61	-26.4	-27.2	14.1	3.40e-06	0	43	0	4541382656	13	3913
2026-01-09 15:57:53.32	331.36	9.39	-26.6	-27.4	14.0	2.20e-06	0	43	0	4563402752	13	3982
2026-01-09 15:57:56.32	331.61	9.17	-26.6	-27.5	13.9	3.40e-06	0	43	0	4585422848	13	4008
2026-01-09 15:57:59.32	331.86	8.95	-26.6	-27.6	13.8	6.80e-06	0	43	0	4606394368	13	4023
2026-01-09 15:58:02.32	332.10	8.73	-26.9	-28.3	13.4	8.00e-06	0	43	0	4628414464	13	4211
2026-01-09 15:58:05.32	332.33	8.51	-27.0	-28.4	13.3	2.17e-05	0	43	0	4650434560	13	4251
2026-01-09 15:58:08.34	332.57	8.29	-27.2	-28.5	13.0	4.92e-05	0	43	0	4671406080	14	4147
2026-01-09 15:58:11.36	332.80	8.08	-27.0	-27.9	13.3	2.40e-05	0	43	0	4693426176	14	4012
2026-01-09 15:58:14.34	333.03	7.86	-27.0	-28.0	13.2	2.74e-05	0	43	0	4715446272	14	4016
2026-01-09 15:58:17.35	333.25	7.65	-27.0	-27.9	13.3	2.51e-05	0	43	0	4736417792	14	4001
2026-01-09 15:58:20.36	333.47	7.44	-26.9	-27.8	13.3	6.80e-06	0	43	0	4758437888	14	3966
2026-01-09 15:58:23.36	333.69	7.23	-26.9	-27.8	13.3	1.83e-05	0	43	0	4780457984	14	3985
2026-01-09 15:58:26.38	333.91	7.02	-33.2	-42.8	3.8	8.47e-01	0	43	104	4795138048	26	10892
2026-01-09 15:58:29.38	334.12	6.82	-33.8	-43.4	3.8	8.47e-01	0	43	104	4795138048	27	10887

#Closed at: 2026-01-09 15:58:29
#Recorded file [4795 MB]: D:/data/31010_260109_184721.dat