passes_logs/2026/01/09/R2M6_AANII_01/R2M6_AANII_01__20260109_140217_FENGYUN_3D_rec.log

#Pass ID: 20260109_140217_FENGYUN 3D
#Satellite: FENGYUN 3D
#Configuration: FENGYUN 3D
#almurnet v.1.7.20240730
#Start time: 2026-01-09 14:02:18

#Version: 2.2.20231116
#Station: R2M6_AANII_01
#Location: 30.233357 lon 59.946436 lat
#TLE: 1 43010U 17072A   26008.59015185 -.00000067  00000+0 -98204-5 0  9997
#TLE: 2 43010  98.9935 340.3069 0002117 119.1923 240.9464 14.19693468422340

#Time	Az	El	Level	Level2	SNR	BER	BlckErr	Temp	State	Recorded	gain1	gain2
2026-01-09 14:02:18.64	215.76	7.09	-27.7	-29.5	5.7	7.56e-01	0	40	0	0	16	4408
2026-01-09 14:02:21.66	216.06	7.28	-28.4	-30.7	11.9	7.44e-04	0	40	0	5242880	17	4666
2026-01-09 14:02:24.67	216.37	7.47	-27.7	-29.4	13.0	6.29e-05	0	40	0	22020096	16	4368
2026-01-09 14:02:27.70	216.68	7.65	-26.9	-28.2	13.9	8.00e-06	0	40	0	39845888	15	4140
2026-01-09 14:02:30.72	216.99	7.84	-26.8	-28.3	14.1	3.40e-06	0	40	0	56623104	14	4284
2026-01-09 14:02:33.74	217.31	8.03	-26.9	-28.5	14.0	1.10e-06	0	41	0	73400320	14	4336
2026-01-09 14:02:36.76	217.63	8.22	-26.8	-28.4	14.1	8.00e-06	0	41	0	90177536	14	4299
2026-01-09 14:02:39.78	217.96	8.41	-26.9	-28.6	14.0	4.50e-06	0	41	0	106954752	14	4351
2026-01-09 14:02:42.78	218.29	8.60	-26.7	-28.0	14.4	1.10e-06	0	41	0	123731968	14	4186
2026-01-09 14:02:45.81	218.62	8.79	-26.6	-27.9	14.5	2.20e-06	0	41	0	141557760	14	4168
2026-01-09 14:02:48.83	218.96	8.99	-26.5	-27.7	14.6	1.10e-06	0	41	0	158334976	14	4110
2026-01-09 14:02:51.85	219.31	9.18	-26.5	-27.7	14.6	0.00e+00	0	41	0	175112192	14	4119
2026-01-09 14:02:54.87	219.66	9.37	-26.7	-28.0	14.4	1.10e-06	0	41	0	191889408	14	4201
2026-01-09 14:02:57.89	220.01	9.57	-26.3	-27.6	15.0	0.00e+00	0	41	0	208666624	13	4181
2026-01-09 14:03:00.91	220.37	9.76	-26.3	-27.7	14.9	0.00e+00	0	41	0	226492416	13	4219
2026-01-09 14:03:03.93	220.73	9.96	-26.4	-27.8	14.9	1.10e-06	0	41	0	243269632	13	4255
2026-01-09 14:03:06.95	221.09	10.15	-26.3	-27.6	15.0	8.00e-06	0	41	0	260046848	13	4194
2026-01-09 14:03:09.96	221.46	10.35	-26.0	-26.9	15.4	2.20e-06	0	41	0	276824064	13	4008
2026-01-09 14:03:12.97	221.84	10.55	-25.8	-26.5	15.6	2.20e-06	0	42	0	293601280	13	3907
2026-01-09 14:03:15.99	222.22	10.74	-25.8	-27.1	15.6	1.10e-06	0	42	0	310378496	12	4146
2026-01-09 14:03:19.01	222.61	10.94	-25.8	-26.9	15.7	3.40e-06	0	41	0	328204288	12	4122
2026-01-09 14:03:22.03	223.00	11.14	-26.0	-27.4	15.5	0.00e+00	0	42	0	344981504	12	4235
2026-01-09 14:03:25.06	223.39	11.34	-25.8	-27.0	15.7	0.00e+00	0	42	0	361758720	12	4137
2026-01-09 14:03:28.07	223.80	11.54	-25.9	-27.2	15.6	0.00e+00	0	42	0	378535936	12	4183
2026-01-09 14:03:31.09	224.20	11.74	-26.1	-27.8	15.3	2.20e-06	0	42	0	395313152	12	4351
2026-01-09 14:03:34.11	224.61	11.94	-26.0	-27.5	15.4	0.00e+00	0	42	0	413138944	12	4284
2026-01-09 14:03:37.13	225.03	12.14	-26.1	-27.7	15.4	0.00e+00	0	42	0	429916160	12	4325
2026-01-09 14:03:40.15	225.45	12.34	-25.9	-27.1	15.7	0.00e+00	0	42	0	446693376	12	4165
2026-01-09 14:03:43.17	225.88	12.54	-25.9	-27.2	15.7	0.00e+00	0	42	0	463470592	12	4189
2026-01-09 14:03:46.19	226.32	12.74	-25.7	-26.7	16.0	0.00e+00	0	42	0	480247808	12	4052
2026-01-09 14:03:49.21	226.76	12.94	-25.7	-26.7	16.0	0.00e+00	0	42	0	498073600	12	4053
2026-01-09 14:03:52.23	227.20	13.14	-25.4	-26.2	16.3	0.00e+00	0	42	0	514850816	12	3923
2026-01-09 14:03:55.25	227.66	13.34	-25.3	-26.3	16.5	0.00e+00	0	42	0	531628032	11	4062
2026-01-09 14:03:58.26	228.11	13.54	-25.6	-26.9	16.2	0.00e+00	0	42	0	548405248	11	4212
2026-01-09 14:04:01.29	228.58	13.74	-25.3	-26.3	16.5	0.00e+00	0	42	0	565182464	11	4058
2026-01-09 14:04:04.31	229.05	13.94	-25.4	-26.6	16.4	0.00e+00	0	42	0	583008256	11	4116
2026-01-09 14:04:07.32	229.52	14.14	-25.3	-26.4	16.5	0.00e+00	0	42	0	599785472	11	4081
2026-01-09 14:04:10.34	230.01	14.34	-25.3	-26.4	16.5	0.00e+00	0	42	0	616562688	11	4077
2026-01-09 14:04:13.36	230.49	14.54	-25.3	-26.3	16.6	0.00e+00	0	42	0	633339904	11	4045
2026-01-09 14:04:16.39	230.99	14.75	-25.3	-26.3	16.6	0.00e+00	0	42	0	650117120	11	4050
2026-01-09 14:04:19.42	231.50	14.95	-25.0	-25.8	16.9	0.00e+00	0	42	0	667942912	11	3930
2026-01-09 14:04:22.44	232.00	15.15	-25.1	-25.9	16.9	0.00e+00	0	42	0	684720128	11	3944
2026-01-09 14:04:25.45	232.52	15.34	-25.0	-25.7	17.0	0.00e+00	0	42	0	701497344	11	3912
2026-01-09 14:04:28.47	233.04	15.54	-25.4	-26.5	16.5	0.00e+00	0	42	0	718274560	11	4110
2026-01-09 14:04:31.49	233.57	15.74	-25.0	-25.7	17.0	0.00e+00	0	42	0	735051776	11	3897
2026-01-09 14:04:34.51	234.10	15.94	-24.8	-25.3	17.2	0.00e+00	0	42	0	752877568	11	3815
2026-01-09 14:04:37.52	234.64	16.13	-24.9	-25.4	17.2	0.00e+00	0	42	0	769654784	11	3830
2026-01-09 14:04:40.54	235.19	16.33	-24.8	-25.8	17.3	0.00e+00	0	42	0	786432000	10	4018
2026-01-09 14:04:43.57	235.75	16.52	-24.8	-25.7	17.3	0.00e+00	0	42	0	803209216	10	4007
2026-01-09 14:04:46.58	236.31	16.71	-25.0	-26.2	17.0	0.00e+00	0	42	0	819986432	10	4141
2026-01-09 14:04:49.59	236.88	16.91	-24.7	-25.5	17.4	0.00e+00	0	42	0	837812224	10	3971
2026-01-09 14:04:52.61	237.46	17.10	-24.5	-25.0	17.7	0.00e+00	0	42	0	854589440	10	3846
2026-01-09 14:04:55.63	238.04	17.29	-24.4	-24.9	17.8	0.00e+00	0	42	0	871366656	10	3808
2026-01-09 14:04:58.64	238.63	17.47	-24.6	-25.4	17.5	0.00e+00	0	42	0	888143872	10	3929
2026-01-09 14:05:01.66	239.23	17.66	-24.6	-25.4	17.5	0.00e+00	0	42	0	904921088	10	3940
2026-01-09 14:05:04.67	239.83	17.84	-24.6	-25.4	17.5	0.00e+00	0	42	0	922746880	10	3942
2026-01-09 14:05:07.70	240.45	18.03	-24.6	-25.4	17.5	0.00e+00	0	42	0	939524096	10	3926
2026-01-09 14:05:10.71	241.07	18.21	-24.5	-25.0	17.7	0.00e+00	0	42	0	956301312	10	3844
2026-01-09 14:05:13.72	241.69	18.39	-24.3	-25.1	17.9	0.00e+00	0	42	0	973078528	9	3967
2026-01-09 14:05:16.74	242.33	18.57	-24.3	-25.2	17.9	0.00e+00	0	42	0	989855744	9	3988
2026-01-09 14:05:19.76	242.97	18.74	-24.3	-25.1	17.9	0.00e+00	0	42	0	1007681536	9	3972
2026-01-09 14:05:22.78	243.62	18.91	-24.1	-24.8	18.1	0.00e+00	0	42	0	1024458752	9	3897
2026-01-09 14:05:25.79	244.27	19.08	-24.2	-25.0	18.0	0.00e+00	0	42	0	1041235968	9	3928
2026-01-09 14:05:28.81	244.94	19.25	-24.4	-25.4	17.8	0.00e+00	0	42	0	1058013184	9	4040
2026-01-09 14:05:31.84	245.61	19.42	-24.1	-24.8	18.1	0.00e+00	0	42	0	1074790400	9	3900
2026-01-09 14:05:34.86	246.29	19.58	-24.0	-24.6	18.2	0.00e+00	0	42	0	1092616192	9	3851
2026-01-09 14:05:37.88	246.97	19.74	-24.1	-24.8	18.1	0.00e+00	0	42	0	1109393408	9	3902
2026-01-09 14:05:40.89	247.66	19.90	-24.1	-24.7	18.2	0.00e+00	0	43	0	1126170624	9	3864
2026-01-09 14:05:43.90	248.35	20.05	-24.0	-24.6	18.3	1.10e-06	0	42	0	1142947840	9	3840
2026-01-09 14:05:46.93	249.06	20.20	-23.8	-24.5	18.6	0.00e+00	0	42	0	1159725056	8	3924
2026-01-09 14:05:49.96	249.78	20.35	-23.7	-24.3	18.7	0.00e+00	0	43	0	1177550848	8	3886
2026-01-09 14:05:52.98	250.49	20.49	-23.9	-24.8	18.4	0.00e+00	0	43	0	1194328064	8	3991
2026-01-09 14:05:56.00	251.22	20.63	-23.9	-24.9	18.4	0.00e+00	0	42	0	1211105280	8	4026
2026-01-09 14:05:59.02	251.95	20.76	-23.6	-24.2	18.8	0.00e+00	0	43	0	1227882496	8	3843
2026-01-09 14:06:02.03	252.68	20.89	-23.8	-24.6	18.5	0.00e+00	0	42	0	1244659712	8	3963
2026-01-09 14:06:05.04	253.42	21.02	-23.8	-24.6	18.5	0.00e+00	0	43	0	1262485504	8	3965
2026-01-09 14:06:08.07	254.18	21.14	-23.6	-24.1	18.8	0.00e+00	0	43	0	1279262720	8	3841
2026-01-09 14:06:11.07	254.92	21.26	-23.9	-24.8	18.5	0.00e+00	0	43	0	1296039936	8	3992
2026-01-09 14:06:14.09	255.69	21.38	-23.8	-24.6	18.6	0.00e+00	0	42	0	1312817152	8	3945
2026-01-09 14:06:17.10	256.45	21.49	-23.5	-24.1	18.8	0.00e+00	0	43	0	1329594368	8	3827
2026-01-09 14:06:20.13	257.22	21.59	-23.4	-23.8	19.0	0.00e+00	0	43	0	1346371584	8	3764
2026-01-09 14:06:23.13	257.99	21.69	-23.5	-24.1	18.9	0.00e+00	0	43	0	1363148800	8	3826
2026-01-09 14:06:26.15	258.77	21.79	-23.6	-24.1	18.8	0.00e+00	0	43	0	1380974592	8	3840
2026-01-09 14:06:29.16	259.55	21.88	-23.5	-23.9	18.9	2.20e-06	0	42	0	1397751808	8	3791
2026-01-09 14:06:32.19	260.35	21.96	-23.6	-24.3	18.7	0.00e+00	0	42	0	1414529024	8	3876
2026-01-09 14:06:35.21	261.14	22.04	-23.7	-24.3	18.7	0.00e+00	0	43	0	1431306240	8	3891
2026-01-09 14:06:38.22	261.93	22.11	-23.7	-24.3	18.7	8.00e-06	0	42	0	1448083456	8	3886
2026-01-09 14:06:41.24	262.73	22.18	-23.6	-24.1	18.8	2.20e-06	0	43	0	1464860672	8	3841
2026-01-09 14:06:44.26	263.54	22.25	-23.6	-24.2	18.8	0.00e+00	0	43	0	1482686464	8	3848
2026-01-09 14:06:47.29	264.35	22.31	-23.5	-23.9	18.9	3.40e-06	0	43	0	1499463680	8	3781
2026-01-09 14:06:50.30	265.15	22.36	-23.9	-24.9	18.4	2.20e-06	0	43	0	1516240896	8	4019
2026-01-09 14:06:53.30	265.96	22.40	-23.7	-24.4	18.7	0.00e+00	0	43	0	1533018112	8	3892
2026-01-09 14:06:56.32	266.78	22.45	-23.3	-24.2	19.0	0.00e+00	0	43	0	1549795328	7	3953
2026-01-09 14:06:59.34	267.59	22.48	-23.6	-24.7	18.8	5.70e-06	0	43	0	1567621120	7	4080
2026-01-09 14:07:02.36	268.41	22.51	-23.3	-24.0	19.1	0.00e+00	0	42	0	1584398336	7	3922
2026-01-09 14:07:05.38	269.23	22.53	-23.4	-24.2	19.0	0.00e+00	0	42	0	1601175552	7	3968
2026-01-09 14:07:08.40	270.05	22.55	-23.4	-24.3	19.0	0.00e+00	0	43	0	1617952768	7	3986
2026-01-09 14:07:11.42	270.87	22.56	-23.4	-24.2	19.0	0.00e+00	0	43	0	1634729984	7	3964
2026-01-09 14:07:14.43	271.69	22.57	-23.4	-24.2	19.0	0.00e+00	0	43	0	1652555776	7	3953
2026-01-09 14:07:17.46	272.51	22.57	-23.4	-24.2	19.0	0.00e+00	0	43	0	1669332992	7	3968
2026-01-09 14:07:20.47	273.33	22.56	-23.3	-24.1	19.1	0.00e+00	0	43	0	1686110208	7	3933
2026-01-09 14:07:23.49	274.15	22.55	-23.3	-24.1	19.1	0.00e+00	0	42	0	1702887424	7	3939
2026-01-09 14:07:26.52	274.97	22.53	-23.4	-24.3	19.0	0.00e+00	0	43	0	1719664640	7	3996
2026-01-09 14:07:29.55	275.79	22.51	-23.5	-24.4	18.9	0.00e+00	0	42	0	1737490432	7	4024
2026-01-09 14:07:32.57	276.61	22.48	-23.4	-24.3	19.0	0.00e+00	0	43	0	1754267648	7	3990
2026-01-09 14:07:35.59	277.43	22.44	-23.7	-24.9	18.7	0.00e+00	0	43	0	1771044864	7	4132
2026-01-09 14:07:38.60	278.24	22.40	-23.6	-24.8	18.7	0.00e+00	0	43	0	1787822080	7	4111
2026-01-09 14:07:41.62	279.05	22.35	-23.8	-25.1	18.5	0.00e+00	0	43	0	1805647872	7	4193
2026-01-09 14:07:44.64	279.86	22.30	-23.7	-24.3	18.7	0.00e+00	0	42	0	1822425088	8	3885
2026-01-09 14:07:47.66	280.66	22.24	-23.6	-24.2	18.8	0.00e+00	0	43	0	1839202304	8	3853
2026-01-09 14:07:50.67	281.46	22.18	-23.5	-23.9	18.9	0.00e+00	0	43	0	1855979520	8	3795
2026-01-09 14:07:53.69	282.26	22.11	-23.5	-24.0	18.9	0.00e+00	0	43	0	1872756736	8	3816
2026-01-09 14:07:56.70	283.05	22.03	-23.7	-24.4	18.7	0.00e+00	0	43	0	1890582528	8	3914
2026-01-09 14:07:59.71	283.84	21.95	-23.8	-24.6	18.6	0.00e+00	0	43	0	1907359744	8	3959
2026-01-09 14:08:02.74	284.63	21.87	-23.9	-24.9	18.4	0.00e+00	0	43	0	1924136960	8	4023
2026-01-09 14:08:05.76	285.41	21.77	-24.0	-25.1	18.3	0.00e+00	0	43	0	1940914176	8	4086
2026-01-09 14:08:08.77	286.19	21.68	-23.9	-24.7	18.5	0.00e+00	0	42	0	1957691392	8	3985
2026-01-09 14:08:11.78	286.96	21.58	-23.6	-24.1	18.8	0.00e+00	0	42	0	1974468608	8	3841
2026-01-09 14:08:14.81	287.73	21.47	-23.6	-24.3	18.8	0.00e+00	0	42	0	1992294400	8	3874
2026-01-09 14:08:17.83	288.49	21.36	-23.7	-24.3	18.7	0.00e+00	0	43	0	2009071616	8	3896
2026-01-09 14:08:20.84	289.25	21.25	-23.7	-24.4	18.7	0.00e+00	0	43	0	2025848832	8	3899
2026-01-09 14:08:23.85	290.00	21.13	-23.8	-24.6	18.6	0.00e+00	0	43	0	2042626048	8	3943
2026-01-09 14:08:26.87	290.74	21.01	-23.8	-24.6	18.6	0.00e+00	0	43	0	2059403264	8	3948
2026-01-09 14:08:29.89	291.48	20.88	-24.0	-25.1	18.3	0.00e+00	0	43	0	2077229056	8	4073
2026-01-09 14:08:32.92	292.22	20.75	-24.2	-25.5	18.1	0.00e+00	0	42	0	2094006272	8	4171
2026-01-09 14:08:35.93	292.94	20.62	-24.1	-25.3	18.2	0.00e+00	0	43	0	2110783488	8	4135
2026-01-09 14:08:38.94	293.66	20.48	-24.0	-25.1	18.3	0.00e+00	0	42	0	2127560704	8	4071
2026-01-09 14:08:41.95	294.38	20.33	-24.4	-25.9	17.9	0.00e+00	0	43	0	2144337920	8	4271
2026-01-09 14:08:44.96	295.08	20.19	-24.6	-25.9	17.6	0.00e+00	0	42	0	2161115136	9	4160
2026-01-09 14:08:47.97	295.78	20.04	-24.7	-26.1	17.5	0.00e+00	0	43	0	2177892352	9	4206
2026-01-09 14:08:50.99	296.48	19.89	-24.7	-25.5	17.5	0.00e+00	0	43	0	2195718144	10	3964
2026-01-09 14:08:54.02	297.17	19.73	-24.3	-25.2	18.0	0.00e+00	0	43	0	2212495360	9	4000
2026-01-09 14:08:57.02	297.84	19.57	-24.5	-25.7	17.7	0.00e+00	0	42	0	2229272576	9	4105
2026-01-09 14:09:00.04	298.52	19.41	-24.6	-25.9	17.6	0.00e+00	0	43	0	2246049792	9	4161
2026-01-09 14:09:03.07	299.19	19.25	-24.7	-26.1	17.5	0.00e+00	0	43	0	2262827008	9	4223
2026-01-09 14:09:06.09	299.85	19.08	-24.7	-25.9	17.6	0.00e+00	0	43	0	2280652800	9	4175
2026-01-09 14:09:09.11	300.50	18.91	-24.4	-25.4	17.8	0.00e+00	0	42	0	2297430016	9	4051
2026-01-09 14:09:12.12	301.14	18.74	-24.3	-25.2	17.9	0.00e+00	0	42	0	2314207232	9	4003
2026-01-09 14:09:15.13	301.78	18.57	-24.8	-26.2	17.4	0.00e+00	0	43	0	2330984448	9	4243
2026-01-09 14:09:18.16	302.41	18.39	-24.9	-26.5	17.3	0.00e+00	0	43	0	2347761664	9	4313
2026-01-09 14:09:21.17	303.03	18.21	-25.0	-26.1	17.2	0.00e+00	0	43	0	2365587456	10	4111
2026-01-09 14:09:24.20	303.65	18.03	-24.8	-25.8	17.4	0.00e+00	0	43	0	2382364672	10	4023
2026-01-09 14:09:27.21	304.26	17.85	-24.7	-25.4	17.6	0.00e+00	0	42	0	2399141888	10	3933
2026-01-09 14:09:30.23	304.86	17.66	-24.6	-25.4	17.6	0.00e+00	0	43	0	2415919104	10	3921
2026-01-09 14:09:33.24	305.46	17.48	-24.7	-25.5	17.5	0.00e+00	0	43	0	2432696320	10	3965
2026-01-09 14:09:36.25	306.04	17.29	-24.8	-25.8	17.4	0.00e+00	0	43	0	2450522112	10	4032
2026-01-09 14:09:39.27	306.63	17.11	-25.1	-26.5	17.0	0.00e+00	0	43	0	2467299328	10	4213
2026-01-09 14:09:42.28	307.20	16.92	-25.4	-27.0	16.7	0.00e+00	0	43	0	2484076544	10	4339
2026-01-09 14:09:45.30	307.77	16.73	-25.4	-26.6	16.6	0.00e+00	0	43	0	2500853760	11	4121
2026-01-09 14:09:48.31	308.32	16.53	-25.4	-26.5	16.7	0.00e+00	0	43	0	2517630976	11	4101
2026-01-09 14:09:51.32	308.88	16.34	-25.2	-26.2	16.9	0.00e+00	0	43	0	2534408192	11	4022
2026-01-09 14:09:54.34	309.42	16.15	-25.2	-26.2	16.8	0.00e+00	0	43	0	2551185408	11	4033
2026-01-09 14:09:57.36	309.96	15.95	-25.3	-26.4	16.8	0.00e+00	0	43	0	2569011200	11	4063
2026-01-09 14:10:00.38	310.50	15.76	-25.1	-25.9	17.0	0.00e+00	0	42	0	2585788416	11	3957
2026-01-09 14:10:03.40	311.02	15.56	-25.2	-26.0	16.9	0.00e+00	0	43	0	2602565632	11	3983
2026-01-09 14:10:06.42	311.54	15.37	-25.5	-26.8	16.5	0.00e+00	0	42	0	2619342848	11	4163
2026-01-09 14:10:09.43	312.05	15.17	-25.4	-26.6	16.6	0.00e+00	0	43	0	2636120064	11	4129
2026-01-09 14:10:12.44	312.56	14.97	-25.4	-26.6	16.6	0.00e+00	0	42	0	2652897280	11	4138
2026-01-09 14:10:15.46	313.06	14.77	-25.7	-27.3	16.3	0.00e+00	0	42	0	2670723072	11	4306
2026-01-09 14:10:18.46	313.55	14.58	-25.8	-27.5	16.1	0.00e+00	0	42	0	2687500288	11	4358
2026-01-09 14:10:21.48	314.03	14.38	-26.0	-27.4	15.8	0.00e+00	0	43	0	2704277504	12	4229
2026-01-09 14:10:24.50	314.51	14.18	-25.8	-27.0	16.0	0.00e+00	0	42	0	2721054720	12	4117
2026-01-09 14:10:27.52	314.99	13.98	-25.8	-27.0	16.0	0.00e+00	0	43	0	2737831936	12	4133
2026-01-09 14:10:30.54	315.46	13.78	-25.8	-26.9	16.0	0.00e+00	0	43	0	2755657728	12	4094
2026-01-09 14:10:33.56	315.92	13.58	-25.6	-26.6	16.2	0.00e+00	0	43	0	2772434944	12	4017
2026-01-09 14:10:36.57	316.37	13.38	-25.7	-26.7	16.1	0.00e+00	0	42	0	2789212160	12	4053
2026-01-09 14:10:39.60	316.83	13.18	-25.7	-26.6	16.1	0.00e+00	0	43	0	2805989376	12	4036
2026-01-09 14:10:42.63	317.27	12.98	-25.6	-26.6	16.1	0.00e+00	0	42	0	2822766592	12	4027
2026-01-09 14:10:45.64	317.71	12.78	-25.6	-26.6	16.1	0.00e+00	0	43	0	2840592384	12	4015
2026-01-09 14:10:48.65	318.14	12.59	-25.7	-26.8	16.0	0.00e+00	0	43	0	2857369600	12	4084
2026-01-09 14:10:51.67	318.57	12.39	-25.9	-27.2	15.7	0.00e+00	0	43	0	2874146816	12	4221
2026-01-09 14:10:54.69	318.99	12.19	-26.2	-28.0	15.4	1.10e-06	0	43	0	2890924032	12	4387
2026-01-09 14:10:57.71	319.41	11.99	-26.0	-27.4	15.7	1.10e-06	0	43	0	2907701248	12	4241
2026-01-09 14:11:00.73	319.82	11.79	-26.2	-27.8	15.6	0.00e+00	0	42	0	2925527040	12	4327
2026-01-09 14:11:03.75	320.22	11.60	-26.3	-28.0	15.5	0.00e+00	0	43	0	2942304256	12	4390
2026-01-09 14:11:06.77	320.62	11.40	-26.4	-28.2	15.3	0.00e+00	0	43	0	2959081472	12	4451
2026-01-09 14:11:09.78	321.02	11.20	-26.4	-28.2	15.3	0.00e+00	0	43	0	2975858688	12	4449
2026-01-09 14:11:12.81	321.41	11.01	-26.6	-28.3	15.0	0.00e+00	0	43	0	2992635904	13	4367
2026-01-09 14:11:15.82	321.79	10.81	-27.0	-28.5	14.5	0.00e+00	0	43	0	3010461696	14	4326
2026-01-09 14:11:18.84	322.17	10.61	-26.8	-28.2	14.7	0.00e+00	0	43	0	3027238912	14	4253
2026-01-09 14:11:21.86	322.55	10.42	-27.0	-28.6	14.4	1.10e-06	0	43	0	3044016128	14	4341
2026-01-09 14:11:24.87	322.92	10.23	-27.1	-28.9	14.3	3.40e-06	0	43	0	3060793344	14	4410
2026-01-09 14:11:27.89	323.29	10.03	-27.1	-28.8	14.3	0.00e+00	0	43	0	3077570560	14	4398
2026-01-09 14:11:30.91	323.65	9.84	-27.6	-29.7	13.5	1.02e-05	0	43	0	3095396352	15	4558
2026-01-09 14:11:33.93	324.00	9.64	-26.8	-28.1	14.7	1.10e-06	0	42	0	3112173568	14	4209
2026-01-09 14:11:36.95	324.36	9.45	-26.8	-28.3	14.5	0.00e+00	0	43	0	3128950784	14	4264
2026-01-09 14:11:39.97	324.70	9.26	-26.8	-28.2	14.5	1.10e-06	0	43	0	3145728000	14	4239
2026-01-09 14:11:42.99	325.05	9.07	-27.1	-29.0	14.1	2.20e-06	0	43	0	3162505216	14	4448
2026-01-09 14:11:46.01	325.39	8.88	-27.1	-28.8	14.1	2.20e-06	0	42	0	3180331008	14	4412
2026-01-09 14:11:49.03	325.72	8.69	-27.0	-28.8	14.1	1.10e-06	0	43	0	3197108224	14	4414
2026-01-09 14:11:52.05	326.05	8.50	-27.2	-29.2	13.9	5.70e-06	0	43	0	3213885440	14	4520
2026-01-09 14:11:55.08	326.38	8.31	-27.1	-29.0	14.0	1.10e-06	0	43	0	3230662656	14	4474
2026-01-09 14:11:58.10	326.70	8.12	-27.2	-29.1	13.9	3.40e-06	0	43	0	3247439872	14	4497
2026-01-09 14:12:01.13	327.02	7.93	-26.8	-28.3	14.3	1.10e-06	0	43	0	3265265664	14	4280
2026-01-09 14:12:04.15	327.34	7.75	-26.9	-28.5	14.3	3.40e-06	0	42	0	3282042880	14	4313
2026-01-09 14:12:07.18	327.65	7.56	-26.9	-28.5	14.3	2.20e-06	0	43	0	3298820096	14	4324
2026-01-09 14:12:10.19	327.96	7.38	-27.1	-29.1	13.9	5.70e-06	0	43	0	3315597312	14	4491
2026-01-09 14:12:13.22	328.26	7.19	-27.3	-29.3	13.7	1.83e-05	0	43	0	3332374528	14	4565
2026-01-09 14:12:16.24	328.56	7.01	-33.2	-44.4	3.8	8.46e-01	0	43	104	3344957440	26	13073

#Closed at: 2026-01-09 14:12:17
#Recorded file [3344 MB]: D:/data/31010_260109_170220.dat