passes_logs/2026/01/09/R2M6_AANII_01/R2M6_AANII_01__20260109_232827_SUOMI_NPP_rec.log

#Pass ID: 20260109_232827_SUOMI NPP
#Satellite: SUOMI NPP
#Configuration: NPP
#almurnet v.1.7.20240730
#Start time: 2026-01-09 23:28:29

#Version: 2.2.20231116
#Station: R2M6_AANII_01
#Location: 30.233357 lon 59.946436 lat
#TLE: 1 37849U 11061A   26008.83076692  .00000095  00000+0  66074-4 0  9997
#TLE: 2 37849  98.7806 310.9327 0002533  74.3004 285.8451 14.19523607735834

#Time	Az	El	Level	Level2	SNR	BER	BlckErr	Temp	State	Recorded	gain1	gain2
2026-01-09 23:28:29.17	24.10	7.09	-31.5	-36.7	4.8	1.30e+00	0	39	0	0	23	6552
2026-01-09 23:28:32.16	24.27	7.30	-31.7	-37.2	6.8	2.22e-01	0	40	0	1048576	23	6797
2026-01-09 23:28:35.15	24.45	7.52	-31.6	-37.0	6.5	3.12e-01	0	40	0	7340032	23	6685
2026-01-09 23:28:38.16	24.62	7.74	-32.1	-39.4	4.9	5.18e-01	0	40	0	12582912	24	8341
2026-01-09 23:28:41.16	24.80	7.97	-31.8	-37.7	6.4	2.75e-01	0	40	0	17825792	23	7097
2026-01-09 23:28:44.15	24.98	8.19	-31.3	-35.6	7.9	1.06e-01	0	40	0	24117248	23	5852
2026-01-09 23:28:47.16	25.17	8.42	-31.6	-36.6	7.3	9.06e-02	0	40	0	29360128	23	6455
2026-01-09 23:28:50.15	25.35	8.64	-30.6	-33.3	9.9	1.15e-02	0	40	0	34603008	22	4909
2026-01-09 23:28:53.15	25.54	8.87	-30.6	-33.7	10.2	4.64e-03	0	40	0	40894464	21	5154
2026-01-09 23:28:56.14	25.73	9.10	-30.6	-33.8	10.0	7.27e-03	0	40	0	46137344	21	5183
2026-01-09 23:28:59.15	25.93	9.34	-30.3	-33.1	11.0	1.37e-03	0	41	0	52428800	20	4978
2026-01-09 23:29:02.16	26.13	9.57	-30.3	-33.2	11.0	1.43e-03	0	41	0	57671680	20	5003
2026-01-09 23:29:05.16	26.33	9.81	-29.9	-31.8	11.9	4.16e-04	0	41	0	62914560	20	4507
2026-01-09 23:29:08.17	26.53	10.05	-29.5	-30.8	12.6	1.35e-04	0	41	0	69206016	20	4152
2026-01-09 23:29:11.18	26.74	10.29	-29.6	-30.9	12.6	7.09e-05	0	41	0	74448896	20	4188
2026-01-09 23:29:14.19	26.95	10.54	-29.5	-30.6	12.8	6.79e-05	0	41	0	79691776	20	4099
2026-01-09 23:29:17.20	27.17	10.79	-29.5	-30.8	12.7	6.40e-05	0	41	0	85983232	20	4170
2026-01-09 23:29:20.20	27.39	11.03	-29.5	-30.7	12.7	8.62e-05	0	41	0	91226112	20	4133
2026-01-09 23:29:23.21	27.61	11.28	-29.6	-31.0	12.6	1.05e-04	0	41	0	97517568	20	4233
2026-01-09 23:29:26.21	27.83	11.54	-29.6	-31.1	12.5	5.41e-05	0	41	0	102760448	20	4246
2026-01-09 23:29:29.22	28.06	11.79	-29.7	-31.3	12.5	8.46e-05	0	41	0	108003328	20	4302
2026-01-09 23:29:32.23	28.29	12.05	-29.8	-31.4	12.4	1.13e-04	0	41	0	114294784	20	4353
2026-01-09 23:29:35.23	28.53	12.31	-29.8	-31.4	12.4	9.99e-05	0	41	0	119537664	20	4334
2026-01-09 23:29:38.24	28.77	12.57	-29.8	-31.6	12.2	2.63e-04	0	41	0	124780544	20	4394
2026-01-09 23:29:41.24	29.01	12.83	-29.7	-31.6	12.6	6.79e-05	0	41	0	131072000	19	4495
2026-01-09 23:29:44.24	29.26	13.10	-29.8	-32.0	12.5	6.86e-05	0	41	0	136314880	19	4614
2026-01-09 23:29:47.25	29.51	13.37	-29.6	-31.3	12.9	6.17e-05	0	41	0	142606336	19	4397
2026-01-09 23:29:50.26	29.77	13.64	-29.8	-31.4	12.4	1.84e-04	0	41	0	147849216	20	4322
2026-01-09 23:29:53.26	30.03	13.92	-29.6	-31.4	12.9	9.76e-05	0	41	0	153092096	19	4417
2026-01-09 23:29:56.26	30.30	14.19	-29.6	-30.9	12.8	1.02e-03	0	41	0	159383552	20	4179
2026-01-09 23:29:59.25	30.57	14.47	-30.2	-32.1	11.9	6.68e-04	0	41	0	164626432	21	4477
2026-01-09 23:30:02.26	30.85	14.75	-31.0	-34.4	10.3	7.88e-03	0	41	0	169869312	22	5277
2026-01-09 23:30:05.26	31.13	15.04	-29.6	-30.8	12.8	1.27e-04	0	41	0	176160768	20	4142
2026-01-09 23:30:08.27	31.41	15.33	-29.4	-30.3	13.3	4.11e-05	0	41	0	181403648	20	3977
2026-01-09 23:30:11.27	31.70	15.62	-29.4	-30.8	13.4	1.75e-05	0	42	0	187695104	19	4219
2026-01-09 23:30:14.27	32.00	15.91	-29.3	-30.3	13.7	7.60e-06	0	42	0	192937984	19	4071
2026-01-09 23:30:17.27	32.30	16.21	-29.3	-30.4	13.7	1.67e-05	0	42	0	198180864	19	4101
2026-01-09 23:30:20.28	32.61	16.51	-29.8	-31.8	12.9	4.04e-05	0	41	0	204472320	19	4530
2026-01-09 23:30:23.28	32.92	16.81	-29.8	-31.7	12.8	4.19e-05	0	42	0	209715200	19	4503
2026-01-09 23:30:26.29	33.25	17.11	-29.6	-30.9	13.0	5.64e-05	0	42	0	214958080	20	4159
2026-01-09 23:30:29.30	33.57	17.42	-29.7	-31.1	12.7	7.78e-05	0	42	0	221249536	20	4224
2026-01-09 23:30:32.31	33.91	17.73	-29.7	-31.6	12.8	5.41e-05	0	42	0	226492416	19	4455
2026-01-09 23:30:35.32	34.25	18.05	-29.9	-32.0	12.6	6.86e-05	0	42	0	232783872	19	4585
2026-01-09 23:30:38.32	34.59	18.37	-29.9	-32.0	12.5	6.25e-05	0	42	0	238026752	19	4609
2026-01-09 23:30:41.34	34.95	18.69	-29.8	-31.3	12.7	5.41e-05	0	42	0	243269632	20	4282
2026-01-09 23:30:44.35	35.31	19.01	-29.6	-31.1	13.3	6.33e-05	0	42	0	249561088	19	4294
2026-01-09 23:30:47.36	35.68	19.34	-29.8	-31.2	12.8	9.46e-05	0	42	0	254803968	20	4250
2026-01-09 23:30:50.35	36.05	19.67	-29.7	-31.0	12.9	6.63e-05	0	42	0	260046848	20	4182
2026-01-09 23:30:53.34	36.44	20.00	-29.7	-31.0	12.9	5.26e-05	0	42	0	266338304	20	4184
2026-01-09 23:30:56.35	36.83	20.34	-29.7	-31.6	13.0	4.57e-05	0	42	0	271581184	19	4442
2026-01-09 23:30:59.36	37.23	20.68	-29.8	-31.3	12.7	7.78e-05	0	42	0	277872640	20	4292
2026-01-09 23:31:02.36	37.64	21.02	-30.0	-31.9	12.3	2.52e-04	0	42	0	283115520	20	4478
2026-01-09 23:31:05.36	38.06	21.37	-29.8	-31.3	12.7	1.20e-04	0	42	0	288358400	20	4294
2026-01-09 23:31:08.36	38.49	21.72	-29.6	-30.8	13.1	2.74e-05	0	42	0	294649856	20	4134
2026-01-09 23:31:11.38	38.93	22.07	-29.5	-30.4	13.3	2.28e-05	0	42	0	299892736	20	4011
2026-01-09 23:31:14.39	39.37	22.43	-29.3	-30.3	13.9	7.60e-06	0	42	0	305135616	19	4037
2026-01-09 23:31:17.38	39.83	22.79	-29.1	-29.9	14.2	6.10e-06	0	42	0	311427072	19	3916
2026-01-09 23:31:20.38	40.30	23.15	-29.5	-31.0	13.5	1.14e-05	0	42	0	316669952	19	4260
2026-01-09 23:31:23.38	40.77	23.52	-29.8	-31.6	13.2	3.50e-05	0	42	0	322961408	19	4448
2026-01-09 23:31:26.39	41.26	23.89	-29.6	-30.5	13.4	2.67e-05	0	42	0	328204288	20	4024
2026-01-09 23:31:29.40	41.76	24.26	-29.2	-29.9	14.2	3.80e-06	0	42	0	333447168	19	3912
2026-01-09 23:31:32.40	42.28	24.64	-29.1	-29.9	14.2	2.20e-06	0	42	0	339738624	19	3907
2026-01-09 23:31:35.41	42.80	25.01	-29.4	-30.6	13.8	7.60e-06	0	42	0	344981504	19	4126
2026-01-09 23:31:38.42	43.34	25.40	-29.8	-31.5	13.3	9.10e-06	0	42	0	350224384	19	4392
2026-01-09 23:31:41.43	43.89	25.78	-29.6	-31.1	13.6	1.22e-05	0	42	0	356515840	19	4265
2026-01-09 23:31:44.44	44.46	26.17	-29.1	-29.7	14.5	7.00e-07	0	42	0	361758720	19	3861
2026-01-09 23:31:47.45	45.03	26.56	-29.8	-31.5	13.3	1.29e-05	0	42	0	368050176	19	4377
2026-01-09 23:31:50.46	45.63	26.96	-30.2	-32.2	12.4	1.69e-04	0	42	0	373293056	20	4546
2026-01-09 23:31:53.46	46.23	27.35	-30.4	-33.0	11.9	2.35e-04	0	42	0	378535936	20	4816
2026-01-09 23:31:56.47	46.85	27.75	-29.7	-30.7	13.4	9.23e-05	0	42	0	384827392	20	4058
2026-01-09 23:31:59.47	47.49	28.15	-29.8	-31.1	13.1	1.37e-05	0	42	0	390070272	20	4179
2026-01-09 23:32:02.48	48.14	28.55	-30.2	-32.1	12.5	6.63e-05	0	42	0	395313152	20	4489
2026-01-09 23:32:05.48	48.81	28.96	-30.2	-31.8	12.6	6.86e-05	0	42	0	401604608	21	4287
2026-01-09 23:32:08.49	49.49	29.36	-30.2	-32.2	12.6	3.96e-05	0	42	0	406847488	20	4509
2026-01-09 23:32:11.51	50.20	29.77	-30.5	-32.0	12.0	8.03e-04	0	42	0	413138944	22	4264
2026-01-09 23:32:14.51	50.92	30.18	-30.5	-32.1	12.1	3.20e-04	0	42	0	418381824	22	4299
2026-01-09 23:32:17.52	51.66	30.59	-30.3	-32.0	12.3	4.10e-04	0	42	0	423624704	21	4369
2026-01-09 23:32:20.52	52.41	31.00	-30.2	-31.6	12.7	5.41e-05	0	42	0	429916160	21	4240
2026-01-09 23:32:23.52	53.18	31.41	-30.5	-32.6	11.9	4.90e-04	0	42	0	435159040	21	4580
2026-01-09 23:32:26.52	53.98	31.82	-31.5	-34.9	9.6	8.02e-03	0	42	0	440401920	23	5313
2026-01-09 23:32:29.52	54.79	32.23	-32.1	-36.8	7.7	6.71e-02	0	42	0	446693376	24	6162
2026-01-09 23:32:32.52	55.63	32.64	-31.2	-33.6	10.8	1.07e-02	0	42	0	451936256	23	4739
2026-01-09 23:32:35.51	56.48	33.05	-32.1	-36.5	8.2	2.86e-02	0	42	0	458227712	24	5975
2026-01-09 23:32:38.52	57.36	33.45	-32.0	-35.9	8.5	9.04e-02	0	42	0	463470592	24	5686
2026-01-09 23:32:41.51	58.25	33.86	-32.0	-36.2	8.3	4.86e-02	0	42	0	468713472	24	5810
2026-01-09 23:32:44.50	59.17	34.26	-31.7	-34.7	9.3	1.46e-02	0	42	0	475004928	24	5112
2026-01-09 23:32:47.50	60.11	34.66	-32.1	-36.3	8.3	3.66e-02	0	42	0	480247808	24	5877
2026-01-09 23:32:50.51	61.08	35.05	-32.0	-35.6	8.5	4.38e-02	0	42	0	485490688	25	5417
2026-01-09 23:32:53.51	62.07	35.44	-31.6	-34.6	9.6	1.04e-02	0	42	0	491782144	24	5042
2026-01-09 23:32:56.51	63.08	35.83	-31.8	-35.1	9.1	1.17e-02	0	42	0	497025024	24	5262
2026-01-09 23:32:59.51	64.12	36.21	-31.7	-34.9	9.5	2.42e-02	0	42	0	502267904	24	5184
2026-01-09 23:33:02.51	65.18	36.58	-31.2	-33.7	10.8	4.38e-03	0	42	0	508559360	23	4765
2026-01-09 23:33:05.51	66.26	36.95	-31.6	-34.7	10.0	3.66e-03	0	42	0	513802240	23	5175
2026-01-09 23:33:08.51	67.37	37.31	-31.4	-34.2	10.2	9.27e-03	0	42	0	520093696	23	4979
2026-01-09 23:33:11.52	68.51	37.66	-30.8	-32.6	11.8	3.89e-04	0	42	0	525336576	22	4463
2026-01-09 23:33:14.54	69.68	38.01	-31.1	-33.6	11.1	1.37e-03	0	42	0	530579456	22	4813
2026-01-09 23:33:17.54	70.86	38.34	-31.1	-33.7	11.1	1.30e-03	0	42	0	536870912	22	4864
2026-01-09 23:33:20.53	72.06	38.67	-30.5	-31.8	12.5	2.26e-04	0	42	0	542113792	22	4169
2026-01-09 23:33:23.53	73.29	38.98	-31.0	-33.5	11.2	1.35e-03	0	42	0	547356672	22	4773
2026-01-09 23:33:26.55	74.55	39.28	-30.6	-32.1	12.2	5.30e-04	0	42	0	553648128	22	4290
2026-01-09 23:33:29.55	75.82	39.57	-30.4	-31.7	12.6	1.56e-04	0	42	0	558891008	22	4145
2026-01-09 23:33:32.56	77.12	39.84	-31.2	-34.0	11.0	5.48e-04	0	42	0	565182464	22	4961
2026-01-09 23:33:35.56	78.44	40.10	-31.2	-33.4	10.9	4.73e-03	0	42	0	570425344	23	4664
2026-01-09 23:33:38.57	79.78	40.34	-31.3	-33.8	10.6	3.72e-03	0	42	0	575668224	23	4790
2026-01-09 23:33:41.58	81.15	40.57	-31.3	-33.9	10.7	2.49e-03	0	42	0	581959680	23	4828
2026-01-09 23:33:44.58	82.52	40.78	-32.5	-37.9	6.9	1.83e-01	0	42	0	587202560	25	6693
2026-01-09 23:33:47.57	83.91	40.98	-32.4	-37.0	7.4	1.24e-01	0	42	0	592445440	25	6147
2026-01-09 23:33:50.57	85.32	41.15	-31.4	-33.7	10.4	7.81e-03	0	42	0	598736896	24	4666
2026-01-09 23:33:53.58	86.75	41.31	-32.4	-37.0	7.6	7.77e-02	0	42	0	603979776	25	6118
2026-01-09 23:33:56.59	88.19	41.45	-32.0	-35.2	8.8	4.00e-02	0	42	0	609222656	25	5207
2026-01-09 23:33:59.59	89.64	41.57	-32.1	-35.7	8.4	6.31e-02	0	42	0	615514112	25	5455
2026-01-09 23:34:02.60	91.11	41.67	-32.5	-37.7	7.0	1.49e-01	0	42	0	620756992	25	6559
2026-01-09 23:34:05.60	92.57	41.75	-32.2	-36.2	8.0	1.13e-01	0	42	0	627048448	25	5735
2026-01-09 23:34:08.61	94.05	41.81	-31.7	-34.5	9.9	6.98e-03	0	42	0	632291328	24	4986
2026-01-09 23:34:11.60	95.52	41.84	-32.0	-35.7	8.9	3.49e-02	0	42	0	637534208	24	5541
2026-01-09 23:34:14.59	97.00	41.86	-32.2	-36.7	8.2	1.83e-02	0	42	0	643825664	24	6013
2026-01-09 23:34:17.60	98.49	41.86	-32.3	-36.8	7.6	1.78e-01	0	42	0	649068544	25	6038
2026-01-09 23:34:20.61	99.97	41.83	-32.1	-35.7	8.5	3.74e-02	0	42	0	654311424	25	5437
2026-01-09 23:34:23.60	101.44	41.79	-30.7	-32.3	12.2	4.23e-04	0	42	0	660602880	22	4322
2026-01-09 23:34:26.60	102.91	41.72	-32.3	-36.9	8.0	4.74e-02	0	42	0	665845760	24	6122
2026-01-09 23:34:29.61	104.38	41.63	-31.2	-33.3	11.1	2.00e-03	0	42	0	672137216	23	4593
2026-01-09 23:34:32.61	105.84	41.52	-31.3	-33.9	10.6	3.99e-03	0	42	0	677380096	23	4823
2026-01-09 23:34:35.61	107.29	41.40	-31.6	-34.9	9.9	3.30e-03	0	42	0	682622976	23	5242
2026-01-09 23:34:38.63	108.73	41.25	-31.3	-33.9	10.7	6.04e-03	0	42	0	688914432	23	4824
2026-01-09 23:34:41.62	110.14	41.08	-32.2	-36.5	8.3	3.97e-02	0	42	0	694157312	24	5937
2026-01-09 23:34:44.61	111.55	40.90	-31.7	-34.8	9.5	1.34e-02	0	42	0	699400192	24	5116
2026-01-09 23:34:47.62	112.94	40.70	-30.8	-32.2	11.9	3.28e-03	0	42	0	705691648	23	4222
2026-01-09 23:34:50.62	114.31	40.48	-30.4	-32.0	12.7	9.84e-05	0	42	0	710934528	21	4329
2026-01-09 23:34:53.63	115.67	40.24	-30.8	-33.4	11.7	4.08e-04	0	42	0	716177408	21	4823
2026-01-09 23:34:56.64	117.00	39.99	-29.8	-30.9	13.7	1.29e-05	0	42	0	722468864	20	4073
2026-01-09 23:34:59.64	118.32	39.72	-29.9	-31.2	13.5	5.30e-06	0	42	0	727711744	20	4171
2026-01-09 23:35:02.65	119.61	39.44	-27.8	-27.5	16.7	0.00e+00	0	42	0	734003200	17	3458
2026-01-09 23:35:05.65	120.88	39.15	-28.6	-29.3	15.6	0.00e+00	0	42	0	739246080	17	3908
2026-01-09 23:35:08.65	122.12	38.84	-28.9	-29.5	15.2	0.00e+00	0	42	0	744488960	18	3879
2026-01-09 23:35:11.65	123.35	38.53	-28.9	-28.9	15.2	7.00e-07	0	42	0	750780416	19	3639
2026-01-09 23:35:14.64	124.54	38.20	-28.4	-28.9	15.8	0.00e+00	0	42	0	756023296	17	3804
2026-01-09 23:35:17.63	125.71	37.86	-28.4	-28.8	15.9	0.00e+00	0	42	0	761266176	17	3786
2026-01-09 23:35:20.64	126.86	37.51	-28.6	-29.4	15.6	0.00e+00	0	42	0	767557632	17	3941
2026-01-09 23:35:23.64	127.99	37.16	-28.2	-28.4	16.2	0.00e+00	0	42	0	772800512	17	3679
2026-01-09 23:35:26.65	129.10	36.79	-27.7	-28.3	16.6	0.00e+00	0	42	0	778043392	15	3840
2026-01-09 23:35:29.65	130.17	36.42	-28.0	-28.5	16.4	0.00e+00	0	42	0	784334848	16	3789
2026-01-09 23:35:32.65	131.23	36.04	-28.9	-30.2	15.1	0.00e+00	0	42	0	789577728	17	4169
2026-01-09 23:35:35.65	132.26	35.65	-28.8	-29.5	15.2	0.00e+00	0	42	0	795869184	18	3866
2026-01-09 23:35:38.66	133.27	35.26	-29.6	-30.8	14.1	6.10e-06	0	42	0	801112064	19	4145
2026-01-09 23:35:41.68	134.25	34.86	-29.0	-29.2	15.0	7.00e-07	0	42	0	806354944	19	3709
2026-01-09 23:35:44.68	135.21	34.47	-30.6	-32.8	12.0	2.39e-04	0	42	0	812646400	21	4602
2026-01-09 23:35:47.68	136.15	34.06	-30.1	-31.2	13.0	2.26e-04	0	42	0	817889280	21	4107
2026-01-09 23:35:50.67	137.06	33.66	-31.1	-33.6	11.2	3.52e-04	0	42	0	823132160	22	4829
2026-01-09 23:35:53.68	137.95	33.25	-31.2	-33.6	10.8	5.37e-03	0	42	0	829423616	23	4753
2026-01-09 23:35:56.68	138.82	32.84	-30.3	-31.9	12.6	1.43e-04	0	42	0	834666496	21	4311
2026-01-09 23:35:59.68	139.67	32.43	-31.8	-35.7	9.2	2.86e-02	0	42	0	840957952	23	5624
2026-01-09 23:36:02.69	140.50	32.02	-29.0	-29.2	15.0	7.70e-05	0	42	0	846200832	19	3705
2026-01-09 23:36:05.68	141.31	31.61	-30.8	-33.2	11.8	7.99e-04	0	42	0	851443712	21	4783
2026-01-09 23:36:08.69	142.10	31.19	-30.6	-32.9	11.9	2.93e-03	0	42	0	857735168	21	4649
2026-01-09 23:36:11.69	142.86	30.78	-29.7	-31.2	13.8	2.28e-05	0	42	0	862978048	19	4251
2026-01-09 23:36:14.70	143.61	30.37	-31.2	-34.0	10.8	2.30e-03	0	42	0	868220928	22	4999
2026-01-09 23:36:17.71	144.35	29.96	-30.4	-32.1	12.4	1.35e-03	0	42	0	874512384	21	4386
2026-01-09 23:36:20.71	145.06	29.55	-29.5	-30.5	14.2	1.80e-03	0	42	0	879755264	19	4062
2026-01-09 23:36:23.71	145.75	29.14	-31.3	-34.6	10.3	5.22e-03	0	42	0	886046720	22	5219
2026-01-09 23:36:26.71	146.43	28.73	-29.2	-29.9	14.5	2.55e-03	0	42	0	891289600	19	3886
2026-01-09 23:36:29.72	147.10	28.32	-29.5	-31.1	14.2	1.88e-03	0	42	0	896532480	18	4341
2026-01-09 23:36:32.73	147.74	27.92	-30.8	-33.6	11.3	2.91e-03	0	42	0	902823936	21	4922
2026-01-09 23:36:35.74	148.37	27.52	-30.6	-32.8	12.0	2.98e-03	0	42	0	908066816	21	4645
2026-01-09 23:36:38.73	148.99	27.12	-29.8	-31.4	13.5	2.41e-03	0	42	0	913309696	19	4350
2026-01-09 23:36:41.74	149.59	26.72	-30.3	-32.5	12.5	2.36e-03	0	42	0	919601152	20	4634
2026-01-09 23:36:44.75	150.17	26.33	-30.3	-32.5	12.4	2.73e-03	0	42	0	924844032	20	4632
2026-01-09 23:36:47.75	150.75	25.94	-30.1	-31.9	12.7	2.49e-03	0	42	0	930086912	20	4438
2026-01-09 23:36:50.76	151.31	25.55	-29.3	-30.7	14.3	2.27e-03	0	42	0	936378368	18	4212
2026-01-09 23:36:53.76	151.85	25.16	-29.4	-30.9	14.1	2.24e-03	0	42	0	941621248	18	4307
2026-01-09 23:36:56.76	152.38	24.78	-29.4	-30.9	14.2	2.63e-04	0	42	0	947912704	18	4281
2026-01-09 23:36:59.77	152.90	24.40	-29.5	-30.6	13.9	2.15e-03	0	42	0	953155584	19	4126
2026-01-09 23:37:02.77	153.41	24.02	-29.4	-30.4	14.0	2.37e-03	0	42	0	958398464	19	4072
2026-01-09 23:37:05.77	153.90	23.65	-29.5	-30.7	13.8	1.98e-03	0	42	0	964689920	19	4134
2026-01-09 23:37:08.77	154.39	23.28	-30.3	-32.5	12.3	1.79e-03	0	42	0	969932800	20	4658
2026-01-09 23:37:11.76	154.86	22.91	-31.0	-33.7	10.7	3.69e-03	0	42	0	975175680	22	4913
2026-01-09 23:37:14.76	155.32	22.55	-30.5	-32.7	11.8	2.65e-03	0	42	0	981467136	21	4626
2026-01-09 23:37:17.77	155.78	22.19	-30.3	-32.5	12.2	2.40e-03	0	42	0	986710016	20	4657
2026-01-09 23:37:20.79	156.22	21.83	-30.3	-32.1	12.2	4.10e-03	0	42	0	993001472	21	4418
2026-01-09 23:37:23.79	156.65	21.47	-30.6	-33.0	11.6	3.45e-03	0	42	0	998244352	21	4730
2026-01-09 23:37:26.79	157.08	21.12	-30.2	-32.4	12.3	2.28e-03	0	42	0	1003487232	20	4624
2026-01-09 23:37:29.79	157.49	20.78	-29.4	-30.6	13.9	2.25e-03	0	42	0	1009778688	19	4113
2026-01-09 23:37:32.79	157.90	20.43	-29.0	-30.0	14.5	2.17e-03	0	42	0	1015021568	18	4035
2026-01-09 23:37:35.81	158.30	20.09	-29.4	-31.1	13.9	2.12e-03	0	42	0	1020264448	18	4362
2026-01-09 23:37:38.82	158.69	19.75	-29.9	-31.9	13.0	2.48e-03	0	42	0	1026555904	19	4519
2026-01-09 23:37:41.83	159.07	19.42	-29.9	-31.9	13.0	3.89e-05	0	42	0	1031798784	19	4541
2026-01-09 23:37:44.83	159.44	19.09	-29.9	-31.9	13.0	3.12e-05	0	42	0	1038090240	19	4534
2026-01-09 23:37:47.83	159.80	18.76	-29.8	-31.6	13.2	2.48e-03	0	42	0	1043333120	19	4428
2026-01-09 23:37:50.83	160.16	18.44	-29.4	-30.6	13.8	2.40e-03	0	42	0	1048576000	19	4116
2026-01-09 23:37:53.83	160.51	18.12	-29.7	-31.3	13.3	2.20e-03	0	42	0	1054867456	19	4338
2026-01-09 23:37:56.84	160.85	17.80	-29.8	-31.6	13.1	2.66e-03	0	42	0	1060110336	19	4454
2026-01-09 23:37:59.85	161.19	17.48	-29.9	-31.5	12.7	2.55e-03	0	42	0	1065353216	20	4337
2026-01-09 23:38:02.86	161.52	17.17	-30.0	-31.6	12.7	1.14e-04	0	42	0	1071644672	20	4374
2026-01-09 23:38:05.86	161.84	16.86	-30.3	-32.8	11.9	3.38e-04	0	42	0	1076887552	20	4767
2026-01-09 23:38:08.88	162.16	16.56	-30.9	-34.3	10.4	2.10e-03	0	42	0	1083179008	21	5290
2026-01-09 23:38:11.87	162.47	16.25	-31.1	-34.6	9.7	1.08e-02	0	42	0	1088421888	22	5391
2026-01-09 23:38:14.87	162.77	15.96	-31.2	-35.0	9.4	1.62e-02	0	42	0	1093664768	22	5552
2026-01-09 23:38:17.87	163.07	15.66	-31.1	-34.5	9.8	1.34e-02	0	42	0	1099956224	22	5328
2026-01-09 23:38:20.87	163.37	15.37	-31.0	-34.1	10.1	7.82e-03	0	42	0	1105199104	22	5157
2026-01-09 23:38:23.86	163.65	15.08	-31.0	-34.0	10.1	7.22e-03	0	42	0	1110441984	22	5100
2026-01-09 23:38:26.87	163.93	14.79	-30.9	-33.8	10.3	5.64e-03	0	42	0	1116733440	22	5007
2026-01-09 23:38:29.88	164.21	14.50	-31.1	-34.5	9.9	6.67e-03	0	42	0	1121976320	22	5277
2026-01-09 23:38:32.89	164.49	14.22	-30.3	-32.3	11.7	8.12e-04	0	42	0	1128267776	21	4521
2026-01-09 23:38:35.89	164.75	13.94	-30.1	-32.3	12.0	2.68e-03	0	42	0	1133510656	20	4620
2026-01-09 23:38:38.90	165.02	13.66	-29.7	-31.5	13.0	2.46e-03	0	42	0	1138753536	19	4423
2026-01-09 23:38:41.90	165.27	13.39	-29.9	-31.8	12.4	1.35e-04	0	42	0	1145044992	20	4445
2026-01-09 23:38:44.91	165.53	13.11	-30.2	-32.4	11.9	3.75e-04	0	42	0	1150287872	20	4678
2026-01-09 23:38:47.91	165.78	12.84	-30.2	-32.5	11.8	3.01e-04	0	42	0	1155530752	20	4715
2026-01-09 23:38:50.91	166.02	12.58	-30.4	-32.7	11.3	1.48e-03	0	42	0	1161822208	21	4690
2026-01-09 23:38:53.91	166.26	12.31	-30.5	-33.5	11.1	1.21e-03	0	42	0	1167065088	20	5096
2026-01-09 23:38:56.92	166.50	12.05	-30.2	-32.6	11.8	4.21e-04	0	42	0	1173356544	20	4726
2026-01-09 23:38:59.92	166.73	11.79	-30.1	-32.4	11.9	2.76e-03	0	42	0	1178599424	20	4651
2026-01-09 23:39:02.93	166.96	11.53	-30.3	-32.8	11.6	6.51e-04	0	42	0	1183842304	20	4802
2026-01-09 23:39:05.93	167.18	11.28	-30.5	-33.5	11.1	1.18e-03	0	42	0	1190133760	20	5072
2026-01-09 23:39:08.93	167.40	11.03	-30.5	-33.1	10.9	2.44e-03	0	42	0	1195376640	21	4858
2026-01-09 23:39:11.94	167.62	10.77	-30.5	-33.2	10.9	2.53e-03	0	42	0	1200619520	21	4880
2026-01-09 23:39:14.95	167.84	10.53	-30.7	-33.6	10.6	3.05e-03	0	42	0	1206910976	21	5055
2026-01-09 23:39:17.95	168.05	10.28	-30.8	-34.2	10.1	4.41e-03	0	42	0	1212153856	21	5304
2026-01-09 23:39:20.96	168.26	10.03	-31.0	-34.4	9.5	1.50e-02	0	42	0	1218445312	22	5337
2026-01-09 23:39:23.96	168.46	9.79	-30.7	-33.7	10.4	4.16e-03	0	42	0	1223688192	21	5097
2026-01-09 23:39:26.96	168.66	9.55	-30.6	-33.5	10.5	3.33e-03	0	42	0	1228931072	21	5025
2026-01-09 23:39:29.97	168.86	9.31	-30.3	-33.2	11.1	1.77e-03	0	42	0	1235222528	20	5013
2026-01-09 23:39:32.98	169.05	9.08	-30.5	-33.4	10.5	2.79e-03	0	42	0	1240465408	21	5022
2026-01-09 23:39:35.98	169.25	8.84	-30.2	-32.8	11.4	1.23e-03	0	42	0	1245708288	20	4867
2026-01-09 23:39:38.98	169.43	8.61	-30.2	-32.8	11.3	1.37e-03	0	42	0	1251999744	20	4878
2026-01-09 23:39:41.98	169.62	8.38	-30.2	-32.7	11.4	1.01e-03	0	42	0	1257242624	20	4825
2026-01-09 23:39:44.99	169.80	8.15	-30.3	-33.1	11.1	1.84e-03	0	42	0	1262485504	20	4984
2026-01-09 23:39:48.00	169.99	7.93	-30.2	-32.7	11.3	9.41e-04	0	42	0	1268776960	20	4830
2026-01-09 23:39:51.01	170.16	7.70	-30.3	-33.0	11.0	1.21e-03	0	42	0	1274019840	20	4941
2026-01-09 23:39:54.01	170.34	7.48	-30.5	-33.9	10.2	4.98e-03	0	42	0	1280311296	20	5300
2026-01-09 23:39:57.01	170.51	7.26	-30.6	-33.7	9.8	4.61e-03	0	42	0	1285554176	21	5131
2026-01-09 23:40:00.01	170.68	7.04	-32.6	-44.1	3.8	1.43e+00	0	42	104	1289748480	25	13554

#Closed at: 2026-01-09 23:40:00
#Recorded file [1289 MB]: D:/data/31010_260110_022831.dat