passes_logs/2026/01/09/R2M6_AANII_01/R2M6_AANII_01__20260109_234907_NOAA_20_JPSS-1_rec.log

#Pass ID: 20260109_234907_NOAA 20 (JPSS-1)
#Satellite: NOAA 20 (JPSS-1)
#Configuration: NOAA 20
#almurnet v.1.7.20240730
#Start time: 2026-01-09 23:49:09

#Version: 2.2.20231116
#Station: R2M6_AANII_01
#Location: 30.233357 lon 59.946436 lat
#TLE: 1 43013U 17073A   26009.26828276  .00000112  00000+0  74203-4 0  9990
#TLE: 2 43013  98.7631 310.2683 0001700  47.4387 312.6933 14.19534764421920

#Time	Az	El	Level	Level2	SNR	BER	BlckErr	Temp	State	Recorded	gain1	gain2
2026-01-09 23:49:09.45	21.17	7.14	-31.5	-38.3	4.8	1.28e+00	0	40	0	0	23	7868
2026-01-09 23:49:12.46	21.27	7.37	-32.0	-40.3	5.4	8.18e-01	0	39	0	1048576	24	9372
2026-01-09 23:49:15.46	21.38	7.60	-31.9	-40.1	5.6	3.34e-01	0	40	0	7340032	24	9225
2026-01-09 23:49:18.46	21.48	7.83	-31.8	-39.6	6.1	3.04e-01	0	40	0	12582912	23	8856
2026-01-09 23:49:21.46	21.58	8.07	-30.9	-36.0	9.2	5.54e-02	0	40	0	17825792	22	6487
2026-01-09 23:49:24.47	21.69	8.30	-30.4	-34.1	10.7	5.89e-03	0	40	0	24117248	22	5534
2026-01-09 23:49:27.47	21.80	8.54	-30.6	-34.8	10.2	4.11e-03	0	40	0	29360128	22	5830
2026-01-09 23:49:30.47	21.91	8.78	-30.6	-35.3	10.4	6.45e-03	0	40	0	35651584	21	6183
2026-01-09 23:49:33.47	22.02	9.02	-30.5	-35.1	10.4	4.52e-03	0	40	0	40894464	21	6058
2026-01-09 23:49:36.46	22.13	9.27	-30.4	-34.7	10.9	1.28e-03	0	40	0	46137344	21	5856
2026-01-09 23:49:39.47	22.24	9.52	-30.3	-34.1	11.1	1.12e-03	0	40	0	52428800	21	5576
2026-01-09 23:49:42.47	22.36	9.77	-30.7	-35.1	10.5	5.68e-03	0	40	0	57671680	22	5969
2026-01-09 23:49:45.48	22.47	10.02	-30.4	-34.3	11.3	8.51e-04	0	40	0	62914560	21	5690
2026-01-09 23:49:48.48	22.59	10.27	-30.2	-33.8	11.5	1.95e-03	0	41	0	69206016	21	5447
2026-01-09 23:49:51.47	22.71	10.53	-29.8	-32.6	12.2	2.05e-04	0	41	0	74448896	21	4966
2026-01-09 23:49:54.47	22.84	10.79	-29.8	-33.2	12.4	1.69e-04	0	41	0	79691776	20	5275
2026-01-09 23:49:57.48	22.96	11.05	-29.8	-33.6	12.1	2.19e-04	0	41	0	85983232	19	5558
2026-01-09 23:50:00.48	23.09	11.32	-30.0	-33.8	11.5	5.48e-04	0	41	0	91226112	20	5520
2026-01-09 23:50:03.49	23.22	11.59	-30.4	-34.4	10.9	2.68e-03	0	41	0	97517568	21	5715
2026-01-09 23:50:06.49	23.35	11.86	-30.6	-35.1	10.9	2.84e-03	0	41	0	102760448	21	6016
2026-01-09 23:50:09.50	23.48	12.13	-29.9	-33.6	12.7	2.97e-04	0	41	0	108003328	19	5554
2026-01-09 23:50:12.51	23.62	12.41	-29.7	-33.0	13.0	2.74e-05	0	41	0	114294784	19	5309
2026-01-09 23:50:15.51	23.76	12.69	-29.7	-33.1	13.0	4.50e-05	0	41	0	119537664	19	5351
2026-01-09 23:50:18.52	23.90	12.97	-29.6	-32.7	13.2	9.70e-04	0	41	0	124780544	19	5190
2026-01-09 23:50:21.51	24.04	13.26	-29.6	-32.9	13.2	1.15e-03	0	41	0	131072000	19	5252
2026-01-09 23:50:24.53	24.19	13.55	-29.5	-32.5	13.3	1.10e-03	0	41	0	136314880	19	5103
2026-01-09 23:50:27.53	24.33	13.84	-29.6	-32.9	13.2	2.05e-05	0	41	0	142606336	19	5244
2026-01-09 23:50:30.54	24.49	14.14	-29.6	-32.9	13.1	1.37e-05	0	41	0	147849216	19	5254
2026-01-09 23:50:33.55	24.64	14.44	-29.4	-32.7	13.7	1.22e-05	0	41	0	153092096	18	5267
2026-01-09 23:50:36.56	24.80	14.75	-29.5	-32.6	13.3	2.05e-05	0	41	0	159383552	19	5112
2026-01-09 23:50:39.56	24.96	15.05	-29.5	-32.5	13.4	3.96e-04	0	41	0	164626432	19	5108
2026-01-09 23:50:42.56	25.12	15.36	-29.4	-32.2	13.5	2.27e-04	0	41	0	169869312	19	4968
2026-01-09 23:50:45.56	25.28	15.68	-29.8	-33.2	13.0	3.35e-05	0	41	0	176160768	19	5365
2026-01-09 23:50:48.56	25.45	16.00	-29.3	-31.8	14.2	3.50e-05	0	41	0	181403648	19	4816
2026-01-09 23:50:51.56	25.62	16.32	-29.2	-31.7	14.1	5.30e-06	0	41	0	187695104	19	4801
2026-01-09 23:50:54.57	25.80	16.65	-29.2	-31.7	14.0	1.06e-05	0	41	0	192937984	19	4779
2026-01-09 23:50:57.58	25.98	16.98	-29.3	-31.8	14.0	4.55e-04	0	42	0	198180864	19	4820
2026-01-09 23:51:00.58	26.16	17.32	-29.2	-32.1	14.2	8.80e-04	0	41	0	204472320	18	5042
2026-01-09 23:51:03.58	26.35	17.66	-29.5	-32.5	13.6	1.50e-03	0	42	0	209715200	19	5074
2026-01-09 23:51:06.59	26.54	18.00	-29.3	-32.5	13.9	1.31e-03	0	42	0	214958080	18	5191
2026-01-09 23:51:09.59	26.74	18.35	-29.1	-31.8	14.3	1.22e-03	0	41	0	221249536	18	4940
2026-01-09 23:51:12.60	26.94	18.70	-29.1	-31.9	14.4	9.01e-04	0	42	0	226492416	18	4960
2026-01-09 23:51:15.61	27.14	19.06	-29.3	-31.9	14.0	9.10e-06	0	41	0	232783872	19	4847
2026-01-09 23:51:18.61	27.35	19.43	-29.0	-31.5	14.6	3.29e-04	0	42	0	238026752	18	4816
2026-01-09 23:51:21.63	27.56	19.80	-29.0	-31.5	14.7	8.54e-05	0	42	0	243269632	18	4804
2026-01-09 23:51:24.65	27.78	20.18	-29.8	-33.1	13.2	1.45e-04	0	42	0	249561088	19	5291
2026-01-09 23:51:27.66	28.01	20.56	-29.4	-32.1	13.9	3.80e-06	0	42	0	254803968	19	4931
2026-01-09 23:51:30.67	28.23	20.94	-29.3	-32.3	14.2	0.00e+00	0	42	0	260046848	18	5082
2026-01-09 23:51:33.68	28.47	21.33	-29.6	-32.7	13.6	7.60e-06	0	42	0	266338304	19	5113
2026-01-09 23:51:36.69	28.71	21.73	-29.3	-31.3	14.1	3.80e-06	0	42	0	271581184	20	4548
2026-01-09 23:51:39.70	28.95	22.13	-28.5	-30.2	15.5	0.00e+00	0	42	0	277872640	18	4386
2026-01-09 23:51:42.70	29.21	22.54	-28.4	-30.5	15.6	0.00e+00	0	41	0	283115520	17	4583
2026-01-09 23:51:45.71	29.46	22.96	-28.4	-30.6	15.6	5.08e-04	0	42	0	288358400	17	4608
2026-01-09 23:51:48.70	29.73	23.37	-28.1	-30.3	16.1	2.25e-04	0	42	0	294649856	16	4633
2026-01-09 23:51:51.71	30.00	23.80	-28.0	-30.0	16.3	2.08e-04	0	42	0	299892736	16	4532
2026-01-09 23:51:54.72	30.28	24.24	-28.0	-30.1	16.2	0.00e+00	0	42	0	305135616	16	4571
2026-01-09 23:51:57.71	30.56	24.67	-28.0	-30.1	16.2	0.00e+00	0	42	0	311427072	16	4579
2026-01-09 23:52:00.72	30.86	25.12	-28.2	-30.5	16.0	0.00e+00	0	42	0	316669952	16	4681
2026-01-09 23:52:03.71	31.16	25.57	-28.4	-30.5	15.7	0.00e+00	0	42	0	322961408	17	4579
2026-01-09 23:52:06.72	31.47	26.03	-28.4	-30.6	15.7	3.58e-05	0	42	0	328204288	17	4595
2026-01-09 23:52:09.72	31.79	26.50	-29.0	-31.6	14.8	0.00e+00	0	42	0	333447168	18	4807
2026-01-09 23:52:12.72	32.12	26.98	-28.9	-31.1	15.1	0.00e+00	0	42	0	339738624	18	4660
2026-01-09 23:52:15.71	32.46	27.46	-29.1	-31.6	14.8	0.00e+00	0	42	0	344981504	18	4809
2026-01-09 23:52:18.72	32.80	27.95	-29.3	-32.1	14.5	1.50e-06	0	42	0	350224384	18	4993
2026-01-09 23:52:21.73	33.16	28.45	-29.6	-32.6	13.9	2.20e-06	0	42	0	356515840	19	5057
2026-01-09 23:52:24.74	33.54	28.95	-30.0	-33.0	13.3	1.44e-05	0	42	0	361758720	20	5122
2026-01-09 23:52:27.75	33.92	29.47	-30.4	-34.1	12.6	7.17e-05	0	42	0	368050176	20	5542
2026-01-09 23:52:30.75	34.31	29.99	-30.3	-33.5	12.6	1.11e-04	0	42	0	373293056	21	5197
2026-01-09 23:52:33.76	34.72	30.52	-30.6	-34.4	12.0	2.34e-04	0	42	0	378535936	21	5549
2026-01-09 23:52:36.77	35.14	31.06	-30.9	-35.1	11.5	6.95e-04	0	42	0	384827392	21	5875
2026-01-09 23:52:39.77	35.57	31.61	-31.1	-35.2	11.2	1.30e-03	0	42	0	390070272	22	5803
2026-01-09 23:52:42.78	36.02	32.17	-31.0	-35.1	11.2	2.19e-03	0	42	0	395313152	22	5739
2026-01-09 23:52:45.78	36.48	32.73	-30.7	-34.0	12.0	3.74e-04	0	42	0	401604608	22	5252
2026-01-09 23:52:48.78	36.96	33.31	-30.6	-33.6	12.3	2.45e-04	0	42	0	406847488	22	5121
2026-01-09 23:52:51.79	37.46	33.89	-30.4	-33.8	12.5	1.16e-04	0	42	0	413138944	21	5286
2026-01-09 23:52:54.80	37.97	34.48	-30.7	-34.5	12.0	4.50e-04	0	42	0	418381824	21	5600
2026-01-09 23:52:57.81	38.51	35.08	-30.4	-33.6	12.7	8.77e-05	0	42	0	423624704	21	5233
2026-01-09 23:53:00.81	39.06	35.69	-30.1	-32.9	13.1	4.27e-05	0	42	0	429916160	21	4945
2026-01-09 23:53:03.82	39.63	36.31	-29.7	-32.2	13.9	4.50e-06	0	42	0	435159040	20	4792
2026-01-09 23:53:06.82	40.23	36.94	-29.9	-32.7	13.7	3.00e-06	0	42	0	440401920	20	4981
2026-01-09 23:53:09.82	40.84	37.57	-29.8	-32.5	13.8	5.30e-06	0	42	0	446693376	20	4877
2026-01-09 23:53:12.82	41.48	38.22	-30.1	-33.2	13.3	1.06e-05	0	42	0	451936256	20	5164
2026-01-09 23:53:15.82	42.15	38.87	-30.1	-33.3	13.3	2.13e-05	0	42	0	458227712	20	5179
2026-01-09 23:53:18.82	42.84	39.53	-29.6	-31.8	14.3	7.00e-07	0	42	0	463470592	20	4643
2026-01-09 23:53:21.82	43.57	40.20	-29.4	-31.8	14.7	0.00e+00	0	42	0	468713472	19	4744
2026-01-09 23:53:24.81	44.31	40.87	-29.9	-33.0	14.0	0.00e+00	0	42	0	475004928	19	5174
2026-01-09 23:53:27.81	45.10	41.55	-29.9	-33.1	13.9	3.00e-06	0	42	0	480247808	19	5221
2026-01-09 23:53:30.81	45.91	42.24	-30.6	-34.0	12.6	1.52e-04	0	42	0	485490688	21	5351
2026-01-09 23:53:33.80	46.76	42.94	-30.1	-32.7	13.4	1.52e-05	0	42	0	491782144	21	4875
2026-01-09 23:53:36.80	47.65	43.64	-30.1	-32.6	13.5	1.06e-05	0	42	0	497025024	21	4805
2026-01-09 23:53:39.81	48.59	44.35	-30.2	-32.9	13.4	1.14e-05	0	42	0	502267904	21	4907
2026-01-09 23:53:42.81	49.56	45.06	-30.4	-33.5	13.0	4.42e-05	0	42	0	508559360	21	5137
2026-01-09 23:53:45.82	50.58	45.78	-30.7	-34.5	12.3	2.01e-04	0	42	0	513802240	21	5554
2026-01-09 23:53:48.81	51.63	46.49	-31.4	-36.0	10.9	9.57e-04	0	42	0	520093696	22	6103
2026-01-09 23:53:51.82	52.75	47.22	-32.0	-37.2	9.3	1.40e-02	0	42	0	525336576	24	6511
2026-01-09 23:53:54.82	53.91	47.94	-32.3	-38.4	8.4	4.63e-02	0	42	0	530579456	24	7291
2026-01-09 23:53:57.82	55.13	48.66	-32.3	-38.2	8.5	3.60e-02	0	42	0	536870912	24	7172
2026-01-09 23:54:00.83	56.41	49.38	-32.3	-38.6	8.2	5.79e-02	0	42	0	542113792	24	7381
2026-01-09 23:54:03.83	57.75	50.09	-32.2	-38.0	8.7	2.15e-02	0	42	0	547356672	24	6999
2026-01-09 23:54:06.82	59.14	50.79	-31.4	-35.2	11.0	7.62e-03	0	42	0	553648128	24	5584
2026-01-09 23:54:09.82	60.61	51.49	-30.3	-32.6	13.4	4.42e-05	0	42	0	558891008	22	4701
2026-01-09 23:54:12.83	62.15	52.19	-30.1	-32.6	13.7	3.80e-06	0	42	0	564133888	21	4808
2026-01-09 23:54:15.84	63.76	52.86	-29.9	-32.6	14.0	3.00e-06	0	42	0	570425344	20	4894
2026-01-09 23:54:18.83	65.44	53.53	-29.5	-31.4	14.7	0.00e+00	0	42	0	575668224	20	4517
2026-01-09 23:54:21.84	67.20	54.17	-29.9	-32.7	13.9	2.20e-06	0	42	0	581959680	20	4931
2026-01-09 23:54:24.83	69.03	54.80	-29.7	-32.1	14.0	1.50e-06	0	42	0	587202560	20	4733
2026-01-09 23:54:27.83	70.95	55.40	-30.0	-33.2	14.1	7.00e-07	0	42	0	592445440	19	5218
2026-01-09 23:54:30.84	72.96	55.98	-29.7	-32.2	14.3	6.10e-06	0	42	0	598736896	20	4749
2026-01-09 23:54:33.85	75.05	56.53	-30.2	-33.3	13.7	1.50e-06	0	42	0	603979776	20	5150
2026-01-09 23:54:36.85	77.21	57.04	-29.9	-32.0	14.1	4.50e-06	0	42	0	609222656	21	4597
2026-01-09 23:54:39.85	79.46	57.52	-30.5	-33.8	12.9	2.89e-05	0	42	0	615514112	21	5229
2026-01-09 23:54:42.85	81.78	57.97	-30.8	-34.6	12.4	9.76e-05	0	42	0	620756992	21	5565
2026-01-09 23:54:45.86	84.18	58.37	-30.1	-32.6	13.8	4.50e-06	0	42	0	627048448	21	4792
2026-01-09 23:54:48.87	86.66	58.72	-30.1	-33.1	13.8	1.37e-04	0	42	0	632291328	20	5094
2026-01-09 23:54:51.87	89.18	59.03	-30.6	-34.0	12.9	5.18e-05	0	42	0	637534208	21	5295
2026-01-09 23:54:54.87	91.76	59.28	-32.1	-37.3	9.4	5.07e-03	0	42	0	643825664	24	6566
2026-01-09 23:54:57.87	94.39	59.49	-31.8	-36.4	10.1	6.12e-03	0	42	0	649068544	24	6075
2026-01-09 23:55:00.88	97.06	59.64	-31.7	-36.3	10.5	9.89e-03	0	42	0	654311424	23	6134
2026-01-09 23:55:03.88	99.75	59.73	-29.6	-32.3	14.0	2.20e-06	0	42	0	660602880	20	4932
2026-01-09 23:55:06.88	102.45	59.77	-30.2	-33.4	13.4	4.21e-04	0	42	0	665845760	20	5235
2026-01-09 23:55:09.88	105.15	59.75	-30.3	-33.8	13.3	4.29e-04	0	42	0	671088640	20	5366
2026-01-09 23:55:12.89	107.85	59.67	-31.0	-34.5	12.2	3.67e-04	0	42	0	677380096	22	5403
2026-01-09 23:55:15.89	110.53	59.54	-31.7	-36.9	9.9	5.13e-03	0	42	0	682622976	23	6553
2026-01-09 23:55:18.91	113.18	59.35	-32.3	-38.9	7.9	9.41e-02	0	42	0	688914432	24	7716
2026-01-09 23:55:21.92	115.79	59.10	-32.8	-39.7	7.3	7.68e-02	0	42	0	694157312	25	8002
2026-01-09 23:55:24.92	118.33	58.81	-33.1	-41.3	5.6	6.24e-01	0	42	0	699400192	26	9263
2026-01-09 23:55:27.93	120.83	58.47	-32.5	-37.8	8.3	5.81e-02	0	42	0	705691648	26	6640
2026-01-09 23:55:30.93	123.24	58.08	-31.9	-36.7	9.9	5.42e-03	0	42	0	710934528	24	6230
2026-01-09 23:55:33.93	125.59	57.65	-31.4	-35.0	11.2	1.87e-03	0	42	0	716177408	24	5398
2026-01-09 23:55:36.93	127.86	57.18	-31.3	-34.9	11.6	1.51e-03	0	42	0	722468864	23	5455
2026-01-09 23:55:39.93	130.05	56.67	-31.3	-35.5	11.5	6.30e-04	0	42	0	727711744	22	5863
2026-01-09 23:55:42.93	132.16	56.13	-31.2	-35.1	11.7	1.34e-03	0	42	0	734003200	22	5676
2026-01-09 23:55:45.94	134.19	55.56	-30.5	-33.7	13.1	9.41e-04	0	42	0	739246080	21	5204
2026-01-09 23:55:48.94	136.14	54.96	-29.5	-32.0	14.8	1.12e-03	0	42	0	744488960	19	4786
2026-01-09 23:55:51.94	138.00	54.34	-30.4	-33.4	13.1	4.88e-04	0	42	0	750780416	21	5107
2026-01-09 23:55:54.95	139.79	53.70	-28.5	-30.4	16.4	8.72e-04	0	42	0	756023296	17	4506
2026-01-09 23:55:57.95	141.50	53.04	-27.9	-29.7	17.0	1.42e-03	0	42	0	761266176	16	4407
2026-01-09 23:56:00.96	143.14	52.36	-27.8	-30.0	17.0	1.37e-03	0	42	0	767557632	15	4625
2026-01-09 23:56:03.95	144.69	51.67	-29.0	-31.3	15.5	5.71e-04	0	42	0	772800512	18	4687
2026-01-09 23:56:06.96	146.18	50.97	-29.3	-31.9	15.2	2.77e-04	0	42	0	779091968	18	4869
2026-01-09 23:56:09.97	147.61	50.26	-30.2	-33.3	13.6	1.75e-05	0	42	0	784334848	20	5151
2026-01-09 23:56:12.97	148.96	49.55	-31.4	-36.0	11.1	7.16e-04	0	42	0	789577728	22	6111
2026-01-09 23:56:15.98	150.26	48.83	-31.5	-35.7	10.9	1.40e-03	0	42	0	795869184	23	5849
2026-01-09 23:56:18.99	151.50	48.10	-32.4	-38.5	8.3	3.98e-02	0	42	0	801112064	24	7311
2026-01-09 23:56:21.99	152.68	47.38	-32.2	-37.6	8.6	6.23e-02	0	42	0	806354944	25	6662
2026-01-09 23:56:25.00	153.81	46.65	-32.2	-38.0	8.7	2.23e-02	0	42	0	812646400	24	7008
2026-01-09 23:56:28.01	154.89	45.93	-31.6	-35.7	10.4	8.71e-03	0	42	0	817889280	24	5743
2026-01-09 23:56:31.02	155.92	45.21	-31.8	-36.9	9.9	3.15e-03	0	42	0	824180736	23	6472
2026-01-09 23:56:34.03	156.91	44.49	-31.2	-34.9	11.4	1.33e-03	0	42	0	829423616	23	5514
2026-01-09 23:56:37.04	157.85	43.77	-30.8	-34.1	12.3	5.53e-04	0	42	0	834666496	22	5257
2026-01-09 23:56:40.05	158.76	43.07	-30.4	-33.6	12.9	4.57e-05	0	42	0	840957952	21	5178
2026-01-09 23:56:43.05	159.62	42.36	-29.7	-32.5	14.4	7.00e-07	0	42	0	846200832	19	4987
2026-01-09 23:56:46.06	160.45	41.67	-30.4	-33.6	12.9	8.08e-05	0	42	0	851443712	21	5185
2026-01-09 23:56:49.07	161.24	40.98	-28.9	-30.9	15.6	0.00e+00	0	42	0	857735168	18	4572
2026-01-09 23:56:52.07	162.00	40.30	-30.6	-34.2	12.6	4.50e-05	0	42	0	862978048	21	5439
2026-01-09 23:56:55.08	162.73	39.62	-29.5	-31.5	14.8	5.34e-04	0	42	0	869269504	20	4534
2026-01-09 23:56:58.09	163.44	38.95	-30.5	-33.7	13.0	2.24e-04	0	42	0	874512384	21	5193
2026-01-09 23:57:01.09	164.11	38.30	-31.2	-35.5	11.4	7.39e-04	0	42	0	879755264	22	5872
2026-01-09 23:57:04.10	164.76	37.65	-29.8	-31.9	14.2	1.44e-05	0	42	0	886046720	21	4555
2026-01-09 23:57:07.10	165.38	37.01	-29.3	-31.9	15.1	0.00e+00	0	42	0	891289600	18	4853
2026-01-09 23:57:10.11	165.98	36.37	-30.3	-33.5	13.4	9.90e-06	0	42	0	896532480	20	5255
2026-01-09 23:57:13.12	166.56	35.75	-30.3	-33.1	13.3	4.50e-05	0	42	0	902823936	21	5009
2026-01-09 23:57:16.14	167.12	35.13	-29.7	-32.2	14.3	3.80e-06	0	42	0	908066816	20	4768
2026-01-09 23:57:19.14	167.66	34.53	-30.0	-33.0	13.7	4.50e-06	0	42	0	914358272	20	5047
2026-01-09 23:57:22.14	168.17	33.93	-31.4	-35.9	11.0	4.58e-04	0	42	0	919601152	22	6071
2026-01-09 23:57:25.12	168.67	33.35	-31.2	-35.3	11.5	2.34e-03	0	42	0	924844032	22	5788
2026-01-09 23:57:28.11	169.15	32.78	-30.7	-34.2	12.7	1.15e-04	0	42	0	931135488	21	5410
2026-01-09 23:57:31.11	169.62	32.21	-30.7	-34.4	12.3	1.20e-04	0	42	0	936378368	21	5502
2026-01-09 23:57:34.12	170.07	31.64	-30.8	-34.7	12.2	1.83e-04	0	42	0	941621248	21	5607
2026-01-09 23:57:37.12	170.50	31.09	-31.0	-34.7	11.9	4.80e-04	0	42	0	947912704	22	5533
2026-01-09 23:57:40.12	170.93	30.55	-31.3	-35.5	11.3	1.69e-03	0	42	0	953155584	22	5895
2026-01-09 23:57:43.11	171.33	30.02	-31.1	-34.9	11.7	9.45e-04	0	42	0	958398464	22	5626
2026-01-09 23:57:46.11	171.73	29.49	-31.0	-34.7	11.7	5.00e-04	0	42	0	964689920	22	5553
2026-01-09 23:57:49.12	172.11	28.97	-30.7	-34.5	12.1	2.39e-04	0	42	0	969932800	21	5563
2026-01-09 23:57:52.13	172.49	28.46	-30.7	-34.4	12.3	1.90e-04	0	42	0	976224256	21	5515
2026-01-09 23:57:55.14	172.85	27.96	-30.4	-33.6	12.8	8.16e-05	0	42	0	981467136	21	5220
2026-01-09 23:57:58.13	173.20	27.47	-30.6	-34.2	12.5	7.62e-05	0	42	0	986710016	21	5427
2026-01-09 23:58:01.14	173.54	26.98	-30.7	-34.5	12.2	1.85e-04	0	42	0	993001472	21	5574
2026-01-09 23:58:04.15	173.87	26.50	-30.5	-33.9	12.7	3.89e-05	0	42	0	998244352	21	5322
2026-01-09 23:58:07.15	174.19	26.03	-30.1	-32.7	13.4	6.80e-06	0	42	0	1003487232	21	4869
2026-01-09 23:58:10.15	174.50	25.56	-29.4	-31.4	14.5	7.00e-07	0	42	0	1009778688	20	4530
2026-01-09 23:58:13.15	174.80	25.11	-29.5	-32.1	14.5	1.50e-06	0	42	0	1015021568	19	4856
2026-01-09 23:58:16.15	175.10	24.66	-30.0	-33.0	13.4	6.80e-06	0	42	0	1020264448	20	5109
2026-01-09 23:58:19.15	175.38	24.21	-29.9	-32.8	13.6	7.60e-06	0	42	0	1026555904	20	5013
2026-01-09 23:58:22.16	175.66	23.78	-29.5	-31.7	14.3	4.50e-06	0	42	0	1031798784	20	4648
2026-01-09 23:58:25.16	175.93	23.35	-29.3	-31.2	14.5	6.10e-06	0	42	0	1038090240	20	4460
2026-01-09 23:58:28.16	176.20	22.92	-28.7	-30.6	15.6	7.00e-07	0	42	0	1043333120	18	4493
2026-01-09 23:58:31.16	176.46	22.51	-28.5	-30.2	15.8	0.00e+00	0	42	0	1048576000	18	4378
2026-01-09 23:58:34.17	176.71	22.09	-28.6	-30.4	15.7	0.00e+00	0	42	0	1054867456	18	4438
2026-01-09 23:58:37.17	176.95	21.69	-29.0	-31.5	15.1	0.00e+00	0	42	0	1060110336	18	4771
2026-01-09 23:58:40.17	177.19	21.29	-29.2	-31.8	14.9	0.00e+00	0	42	0	1066401792	18	4860
2026-01-09 23:58:43.18	177.43	20.90	-29.4	-31.8	14.5	6.80e-06	0	42	0	1071644672	19	4782
2026-01-09 23:58:46.18	177.66	20.51	-29.6	-32.5	14.1	7.60e-06	0	42	0	1076887552	19	5019
2026-01-09 23:58:49.17	177.88	20.13	-29.2	-31.5	14.7	3.80e-06	0	42	0	1083179008	19	4660
2026-01-09 23:58:52.16	178.09	19.75	-28.9	-30.6	15.2	7.00e-07	0	42	0	1088421888	19	4396
2026-01-09 23:58:55.17	178.31	19.38	-29.0	-31.5	14.9	0.00e+00	0	42	0	1093664768	18	4800
2026-01-09 23:58:58.16	178.51	19.02	-29.4	-32.0	14.3	7.00e-07	0	42	0	1099956224	19	4839
2026-01-09 23:59:01.14	178.72	18.66	-29.4	-32.5	14.3	7.60e-06	0	42	0	1105199104	18	5151
2026-01-09 23:59:04.13	178.91	18.30	-29.4	-32.0	14.3	3.80e-06	0	42	0	1110441984	19	4868
2026-01-09 23:59:07.12	179.11	17.95	-29.4	-31.9	14.3	5.30e-06	0	42	0	1116733440	19	4807
2026-01-09 23:59:10.11	179.30	17.61	-29.8	-33.1	13.6	1.44e-05	0	42	0	1121976320	19	5243
2026-01-09 23:59:13.12	179.48	17.26	-30.4	-34.3	12.3	2.31e-04	0	42	0	1127219200	20	5658
2026-01-09 23:59:16.11	179.66	16.93	-30.3	-34.0	12.4	5.87e-05	0	42	0	1133510656	20	5506
2026-01-09 23:59:19.12	179.84	16.59	-29.9	-32.9	13.2	2.05e-05	0	42	0	1138753536	20	5101
2026-01-09 23:59:22.12	180.02	16.26	-30.2	-33.7	12.7	3.58e-05	0	42	0	1145044992	20	5393
2026-01-09 23:59:25.12	180.19	15.94	-30.5	-34.2	12.0	3.39e-04	0	42	0	1150287872	21	5489
2026-01-09 23:59:28.13	180.36	15.61	-30.4	-33.9	12.2	3.62e-04	0	42	0	1155530752	21	5361
2026-01-09 23:59:31.14	180.52	15.30	-30.7	-34.7	11.7	5.40e-04	0	42	0	1161822208	21	5727
2026-01-09 23:59:34.15	180.68	14.98	-30.6	-34.5	11.7	5.47e-04	0	42	0	1167065088	21	5646
2026-01-09 23:59:37.15	180.84	14.67	-30.5	-34.3	11.8	1.76e-03	0	42	0	1172307968	21	5573
2026-01-09 23:59:40.17	181.00	14.37	-30.1	-33.1	12.6	1.03e-04	0	42	0	1178599424	21	5084
2026-01-09 23:59:43.18	181.15	14.06	-30.5	-34.1	11.9	3.23e-04	0	42	0	1183842304	21	5495
2026-01-09 23:59:46.19	181.30	13.76	-30.7	-34.8	11.4	6.67e-04	0	42	0	1190133760	21	5788
2026-01-09 23:59:49.20	181.45	13.47	-30.2	-33.3	12.4	2.02e-04	0	42	0	1195376640	21	5162
2026-01-09 23:59:52.20	181.59	13.18	-30.2	-34.0	12.3	1.27e-04	0	42	0	1200619520	20	5540
2026-01-09 23:59:55.21	181.73	12.89	-30.3	-34.2	12.1	2.78e-04	0	42	0	1206910976	20	5656
2026-01-09 23:59:58.21	181.87	12.60	-30.2	-33.9	12.4	1.34e-04	0	42	0	1212153856	20	5505
2026-01-10 00:00:01.21	182.01	12.32	-30.4	-34.4	12.0	3.27e-04	0	42	0	1217396736	20	5751
2026-01-10 00:00:04.23	182.14	12.04	-30.4	-34.1	11.8	4.52e-04	0	42	0	1223688192	21	5507
2026-01-10 00:00:07.23	182.27	11.76	-30.1	-33.2	12.4	2.24e-04	0	42	0	1228931072	21	5113
2026-01-10 00:00:10.24	182.40	11.49	-30.5	-34.5	11.5	9.95e-04	0	42	0	1235222528	21	5654
2026-01-10 00:00:13.25	182.53	11.22	-30.1	-33.8	12.3	1.16e-04	0	42	0	1240465408	20	5472
2026-01-10 00:00:16.26	182.66	10.95	-30.3	-34.4	11.9	2.88e-04	0	42	0	1245708288	20	5723
2026-01-10 00:00:19.27	182.78	10.69	-29.9	-32.5	12.8	9.30e-05	0	42	0	1251999744	21	4867
2026-01-10 00:00:22.27	182.90	10.42	-29.8	-32.8	12.9	4.57e-05	0	42	0	1257242624	20	5103
2026-01-10 00:00:25.27	183.02	10.17	-29.7	-32.5	13.2	5.34e-05	0	42	0	1262485504	20	4958
2026-01-10 00:00:28.27	183.14	9.91	-30.3	-34.2	11.9	2.71e-04	0	42	0	1268776960	20	5640
2026-01-10 00:00:31.28	183.25	9.66	-30.0	-33.6	12.4	3.85e-04	0	42	0	1274019840	20	5389
2026-01-10 00:00:34.28	183.37	9.40	-30.1	-33.7	12.3	3.83e-04	0	42	0	1280311296	20	5451
2026-01-10 00:00:37.29	183.48	9.15	-29.9	-33.1	12.7	9.23e-05	0	42	0	1285554176	20	5205
2026-01-10 00:00:40.30	183.59	8.91	-29.8	-32.8	12.8	9.15e-05	0	42	0	1290797056	20	5089
2026-01-10 00:00:43.31	183.70	8.66	-29.9	-33.2	12.5	1.45e-04	0	42	0	1297088512	20	5259
2026-01-10 00:00:46.31	183.80	8.42	-29.9	-33.1	12.5	1.89e-04	0	42	0	1302331392	20	5232
2026-01-10 00:00:49.31	183.91	8.18	-29.9	-33.8	12.5	8.69e-05	0	42	0	1307574272	19	5594
2026-01-10 00:00:52.31	184.01	7.94	-30.3	-34.6	11.4	7.49e-04	0	42	0	1313865728	20	5889
2026-01-10 00:00:55.32	184.11	7.71	-30.5	-34.5	11.1	1.35e-03	0	42	0	1319108608	21	5744
2026-01-10 00:00:58.33	184.21	7.47	-30.2	-33.8	11.6	1.15e-03	0	42	0	1325400064	21	5442
2026-01-10 00:01:01.34	184.31	7.24	-30.6	-35.2	10.5	4.96e-03	0	42	0	1330642944	21	6107
2026-01-10 00:01:04.34	184.41	7.01	-32.9	-47.5	3.8	1.49e+00	0	42	104	1333788672	25	19165

#Closed at: 2026-01-10 00:01:05
#Recorded file [1333 MB]: D:/data/31010_260110_024911.dat