passes_logs/2026/01/09/R2M6_AANII_01/R2M6_AANII_01__20260109_095111_AQUA_rec.log

#Pass ID: 20260109_095111_AQUA
#Satellite: AQUA
#Configuration: AQUA
#almurnet v.1.7.20240730
#Start time: 2026-01-09 09:52:04

#Version: 2.2.20231116
#Station: R2M6_AANII_01
#Location: 30.233357 lon 59.946436 lat
#TLE: 1 27424U 02022A   26004.96787593  .00001598  00000+0  32997-3 0  9996
#TLE: 2 27424  98.4069 331.2279 0002002  90.2377   0.6092 14.61798176259425

#Time	Az	El	Level	Level2	SNR	BER	BlckErr	Temp	State	Recorded	gain1	gain2
2026-01-09 09:52:04.46	78.43	9.99	-33.5	-45.8	3.8	1.49e+00	0	42	0	0	27	14732
2026-01-09 09:52:06.46	78.10	10.11	-34.4	-53.3	3.8	7.46e-01	0	43	104	0	30	31739
2026-01-09 09:52:08.47	77.76	10.22	-34.4	-53.4	3.8	7.45e-01	0	42	104	0	30	32075
2026-01-09 09:52:10.46	77.43	10.33	-34.5	-53.5	3.8	7.45e-01	0	43	104	0	30	32118
2026-01-09 09:52:12.46	77.09	10.44	-34.5	-53.5	3.8	7.44e-01	0	42	104	0	30	32078
2026-01-09 09:52:14.46	76.75	10.55	-34.4	-53.5	3.8	7.45e-01	0	42	104	0	30	32113
2026-01-09 09:52:16.47	76.40	10.66	-34.4	-53.5	3.8	7.47e-01	0	42	104	0	30	32135
2026-01-09 09:52:18.48	76.05	10.77	-34.4	-53.4	3.8	7.42e-01	0	42	104	0	30	32001
2026-01-09 09:52:20.48	75.70	10.88	-34.5	-53.5	3.8	7.43e-01	0	43	104	0	30	32153
2026-01-09 09:52:22.49	75.34	10.99	-34.5	-53.6	3.8	7.46e-01	0	43	104	0	30	32302
2026-01-09 09:52:24.50	74.98	11.09	-34.5	-53.5	3.8	7.46e-01	0	43	104	0	30	32017
2026-01-09 09:52:26.51	74.62	11.20	-34.5	-53.6	3.8	7.45e-01	0	43	104	0	30	32174
2026-01-09 09:52:28.52	74.26	11.31	-34.5	-53.6	3.8	7.48e-01	0	42	104	0	30	32397
2026-01-09 09:52:30.53	73.89	11.42	-34.4	-53.3	3.8	7.45e-01	0	42	104	0	30	31705
2026-01-09 09:52:32.54	73.52	11.52	-34.4	-53.4	3.8	7.46e-01	0	43	104	0	30	31916
2026-01-09 09:52:34.54	73.15	11.63	-34.3	-53.1	3.8	7.49e-01	0	42	104	0	30	31313
2026-01-09 09:52:36.54	72.77	11.73	-34.0	-52.4	3.8	7.42e-01	0	42	104	0	30	29956
2026-01-09 09:52:38.53	72.40	11.83	-33.6	-49.6	3.9	7.44e-01	0	43	104	0	29	22893
2026-01-09 09:52:40.55	72.02	11.94	-33.6	-50.3	3.8	7.44e-01	0	43	104	0	29	24594
2026-01-09 09:52:42.57	71.63	12.04	-33.6	-51.1	3.8	7.44e-01	0	43	104	0	29	26985
2026-01-09 09:52:44.57	71.24	12.14	-33.6	-52.1	3.8	7.41e-01	0	43	104	0	29	30291
2026-01-09 09:52:46.57	70.85	12.25	-33.6	-52.3	3.8	7.45e-01	0	43	104	0	29	30845
2026-01-09 09:52:48.57	70.46	12.35	-33.6	-52.2	3.8	7.43e-01	0	43	104	0	29	30404
2026-01-09 09:52:50.58	70.07	12.45	-33.6	-50.5	3.8	7.45e-01	0	43	104	0	29	25323
2026-01-09 09:52:52.59	69.67	12.55	-33.6	-50.2	3.8	7.45e-01	0	43	104	0	29	24472
2026-01-09 09:52:54.58	69.27	12.64	-33.6	-50.7	3.8	7.44e-01	0	43	104	0	29	25948
2026-01-09 09:52:56.59	68.86	12.74	-32.9	-40.9	10.2	6.23e-01	0	43	104	0	27	9030
2026-01-09 09:52:58.58	68.46	12.84	-31.9	-36.5	14.6	6.07e-01	0	43	0	2621440	26	6105
2026-01-09 09:53:00.59	68.05	12.93	-31.7	-36.2	15.2	6.09e-01	0	42	0	6291456	25	6052
2026-01-09 09:53:02.60	67.63	13.03	-31.6	-35.8	15.5	6.07e-01	0	42	0	9961472	25	5867
2026-01-09 09:53:04.60	67.22	13.12	-31.6	-36.0	15.5	6.07e-01	0	43	0	13631488	25	5940
2026-01-09 09:53:06.59	66.80	13.21	-31.1	-34.6	16.8	6.06e-01	0	43	0	17301504	24	5416
2026-01-09 09:53:08.61	66.38	13.30	-30.4	-33.2	18.0	6.08e-01	0	42	0	20971520	23	4947
2026-01-09 09:53:10.60	65.96	13.39	-30.1	-32.9	18.5	6.05e-01	0	42	0	24641536	22	4930
2026-01-09 09:53:12.61	65.53	13.48	-30.3	-33.3	18.3	6.05e-01	0	43	0	28835840	22	5104
2026-01-09 09:53:14.61	65.10	13.57	-30.2	-33.0	18.5	6.07e-01	0	43	0	32505856	22	4981
2026-01-09 09:53:16.62	64.67	13.66	-30.1	-32.7	18.7	6.07e-01	0	42	0	36175872	22	4879
2026-01-09 09:53:18.62	64.24	13.74	-30.3	-33.3	18.3	6.07e-01	0	43	0	39845888	22	5103
2026-01-09 09:53:20.63	63.80	13.83	-30.2	-32.9	18.6	6.08e-01	0	42	0	43515904	22	4940
2026-01-09 09:53:22.63	63.36	13.91	-30.1	-32.9	18.6	6.06e-01	0	43	0	47710208	22	4928
2026-01-09 09:53:24.62	62.92	13.99	-30.3	-33.2	18.4	6.06e-01	0	42	0	51380224	22	5043
2026-01-09 09:53:26.63	62.47	14.07	-30.2	-33.0	18.5	6.05e-01	0	42	0	55050240	22	4978
2026-01-09 09:53:28.63	62.02	14.15	-30.4	-33.4	18.3	6.08e-01	0	43	0	58720256	22	5134
2026-01-09 09:53:30.64	61.57	14.23	-30.2	-33.0	18.6	6.06e-01	0	42	0	62390272	22	4958
2026-01-09 09:53:32.64	61.12	14.30	-30.4	-42.8	3.8	7.43e-01	0	43	104	65536000	22	14997
2026-01-09 09:53:34.63	60.67	14.38	-30.4	-42.7	3.8	7.43e-01	0	43	104	65536000	22	14826
2026-01-09 09:53:36.63	60.21	14.45	-30.6	-43.2	3.8	7.44e-01	0	42	104	65536000	22	15449
2026-01-09 09:53:38.63	59.75	14.52	-31.2	-44.4	3.8	7.47e-01	0	43	104	65536000	23	16568
2026-01-09 09:53:40.62	59.29	14.59	-31.7	-45.5	3.8	7.45e-01	0	43	104	65536000	24	17625
2026-01-09 09:53:42.62	58.83	14.66	-31.9	-45.9	4.0	7.32e-01	0	43	104	65536000	24	18209
2026-01-09 09:53:44.61	58.36	14.73	-31.8	-45.6	4.1	7.35e-01	0	43	104	65536000	24	17702
2026-01-09 09:53:46.61	57.90	14.79	-31.9	-46.1	3.8	7.50e-01	0	43	104	65536000	24	18524
2026-01-09 09:53:48.61	57.42	14.86	-32.5	-47.8	3.8	7.46e-01	0	43	104	65536000	25	20911
2026-01-09 09:53:50.61	56.95	14.92	-33.0	-49.2	3.8	7.46e-01	0	43	104	65536000	26	23288
2026-01-09 09:53:52.61	56.48	14.98	-33.3	-50.1	3.8	7.45e-01	0	43	104	65536000	27	25116
2026-01-09 09:53:54.61	56.00	15.04	-33.3	-50.5	3.8	7.47e-01	0	43	104	65536000	27	26071
2026-01-09 09:53:56.63	55.52	15.10	-33.3	-50.3	3.8	7.48e-01	0	43	104	65536000	27	25443
2026-01-09 09:53:58.65	55.03	15.15	-33.1	-49.5	3.8	7.44e-01	0	43	104	65536000	27	23713
2026-01-09 09:54:00.66	54.54	15.21	-32.8	-48.1	3.8	7.44e-01	0	43	104	65536000	27	20804
2026-01-09 09:54:02.67	54.06	15.26	-32.3	-46.3	3.8	7.43e-01	0	43	104	65536000	26	18081
2026-01-09 09:54:04.69	53.57	15.31	-31.6	-44.6	3.8	7.44e-01	0	43	104	65536000	25	16061
2026-01-09 09:54:06.70	53.08	15.36	-31.4	-44.1	3.8	7.47e-01	0	43	104	65536000	25	15528
2026-01-09 09:54:08.72	52.58	15.40	-31.6	-44.6	3.8	7.44e-01	0	43	104	65536000	25	16079
2026-01-09 09:54:10.73	52.09	15.45	-31.9	-45.8	3.8	7.44e-01	0	43	104	65536000	25	17749
2026-01-09 09:54:12.74	51.59	15.49	-31.6	-44.5	3.8	7.45e-01	0	43	104	65536000	25	16039
2026-01-09 09:54:14.75	51.10	15.53	-31.2	-43.9	3.8	7.43e-01	0	43	104	65536000	24	15571
2026-01-09 09:54:16.76	50.60	15.57	-31.2	-43.9	3.8	7.45e-01	0	43	104	65536000	24	15484
2026-01-09 09:54:18.78	50.09	15.61	-31.7	-45.5	3.8	7.45e-01	0	43	104	65536000	24	17473
2026-01-09 09:54:20.79	49.59	15.64	-32.5	-47.5	3.8	7.46e-01	0	43	104	65536000	25	20188
2026-01-09 09:54:22.81	49.09	15.67	-31.8	-45.3	3.8	7.43e-01	0	43	104	65536000	25	16980
2026-01-09 09:54:24.82	48.59	15.70	-32.0	-46.0	3.8	7.43e-01	0	43	104	65536000	25	17884
2026-01-09 09:54:26.82	48.08	15.73	-32.4	-47.3	3.8	7.46e-01	0	43	104	65536000	25	20004
2026-01-09 09:54:28.83	47.58	15.76	-32.8	-48.3	3.8	7.45e-01	0	43	104	65536000	26	21435
2026-01-09 09:54:30.85	47.07	15.78	-32.9	-48.8	3.8	7.46e-01	0	43	104	65536000	26	22448
2026-01-09 09:54:32.87	46.56	15.80	-32.7	-47.8	3.8	7.43e-01	0	43	104	65536000	26	20621
2026-01-09 09:54:34.89	46.05	15.82	-32.5	-47.1	3.8	7.43e-01	0	43	104	65536000	26	19392
2026-01-09 09:54:36.90	45.54	15.84	-32.7	-47.8	3.8	7.41e-01	0	43	104	65536000	26	20676
2026-01-09 09:54:38.91	45.04	15.86	-33.1	-49.6	3.8	7.44e-01	0	43	104	65536000	26	24060
2026-01-09 09:54:40.93	44.52	15.87	-33.1	-49.3	3.8	7.46e-01	0	43	104	65536000	27	23148
2026-01-09 09:54:42.94	44.01	15.88	-32.9	-48.3	3.8	7.44e-01	0	43	104	65536000	27	21249
2026-01-09 09:54:44.94	43.51	15.89	-33.0	-48.8	3.8	7.41e-01	0	42	104	65536000	27	22251
2026-01-09 09:54:46.94	43.00	15.89	-33.0	-48.6	3.8	7.44e-01	0	43	104	65536000	27	21741
2026-01-09 09:54:48.95	42.49	15.90	-32.7	-47.5	3.8	7.45e-01	0	43	104	65536000	27	19867
2026-01-09 09:54:50.97	41.97	15.90	-32.1	-45.9	3.8	7.47e-01	0	43	104	65536000	26	17551
2026-01-09 09:54:52.98	41.46	15.90	-31.3	-44.3	3.8	7.44e-01	0	43	104	65536000	24	16023
2026-01-09 09:54:55.00	40.95	15.90	-30.7	-43.0	3.8	7.45e-01	0	43	104	65536000	23	14840
2026-01-09 09:54:57.01	40.44	15.90	-30.8	-43.3	3.8	7.43e-01	0	43	104	65536000	23	15200
2026-01-09 09:54:59.02	39.93	15.89	-31.1	-44.0	3.8	7.44e-01	0	43	104	65536000	23	16035
2026-01-09 09:55:01.04	39.42	15.88	-31.7	-45.4	3.8	7.44e-01	0	43	104	65536000	24	17523
2026-01-09 09:55:03.05	38.91	15.87	-31.4	-44.6	3.8	7.44e-01	0	43	104	65536000	24	16413
2026-01-09 09:55:05.07	38.40	15.86	-31.2	-44.0	3.8	7.41e-01	0	43	104	65536000	24	15677
2026-01-09 09:55:07.08	37.89	15.84	-31.5	-44.9	3.8	7.44e-01	0	42	104	65536000	24	16853
2026-01-09 09:55:09.09	37.38	15.82	-32.1	-46.7	3.8	7.45e-01	0	43	104	65536000	24	19342
2026-01-09 09:55:11.11	36.87	15.80	-32.7	-48.1	3.8	7.45e-01	0	43	104	65536000	26	21052
2026-01-09 09:55:13.12	36.36	15.78	-32.0	-45.5	3.8	7.47e-01	0	43	104	65536000	26	16901
2026-01-09 09:55:15.13	35.86	15.76	-32.5	-47.4	3.8	7.48e-01	0	43	104	65536000	26	19965
2026-01-09 09:55:17.15	35.35	15.73	-32.9	-48.7	3.8	7.49e-01	0	43	104	65536000	26	22242
2026-01-09 09:55:19.16	34.85	15.71	-33.2	-49.7	3.8	7.40e-01	0	43	104	65536000	27	24090
2026-01-09 09:55:21.17	34.35	15.68	-33.0	-48.9	3.8	7.46e-01	0	42	104	65536000	27	22481
2026-01-09 09:55:23.18	33.84	15.64	-32.9	-48.4	3.8	7.43e-01	0	43	104	65536000	27	21468
2026-01-09 09:55:25.20	33.34	15.61	-32.8	-48.1	3.8	7.43e-01	0	43	104	65536000	27	20962
2026-01-09 09:55:27.21	32.84	15.57	-33.0	-48.9	3.8	7.46e-01	0	43	104	65536000	27	22555
2026-01-09 09:55:29.22	32.34	15.53	-33.0	-48.7	3.8	7.47e-01	0	43	104	65536000	27	22121
2026-01-09 09:55:31.24	31.85	15.49	-32.5	-46.7	3.8	7.48e-01	0	42	104	65536000	27	18524
2026-01-09 09:55:33.25	31.35	15.45	-32.2	-46.2	3.8	7.45e-01	0	43	104	65536000	26	18075
2026-01-09 09:55:35.26	30.86	15.41	-32.1	-46.0	3.8	7.41e-01	0	43	104	65536000	26	17760
2026-01-09 09:55:37.27	30.37	15.36	-32.2	-46.2	3.8	7.44e-01	0	43	104	65536000	26	18005
2026-01-09 09:55:39.29	29.87	15.31	-31.8	-45.2	3.8	7.46e-01	0	43	104	65536000	25	17001
2026-01-09 09:55:41.31	29.38	15.26	-31.1	-43.6	3.8	7.44e-01	0	43	104	65536000	24	15179
2026-01-09 09:55:43.31	28.90	15.21	-30.5	-42.4	3.8	7.43e-01	0	43	104	65536000	23	14191
2026-01-09 09:55:45.31	28.42	15.16	-30.2	-42.2	3.8	7.43e-01	0	43	104	65536000	22	14393
2026-01-09 09:55:47.33	27.93	15.10	-30.5	-42.9	3.8	7.46e-01	0	43	104	65536000	22	15131
2026-01-09 09:55:49.34	27.45	15.05	-30.8	-43.8	3.8	7.44e-01	0	43	104	65536000	22	16045
2026-01-09 09:55:51.36	26.97	14.99	-31.2	-44.5	3.8	7.46e-01	0	43	104	65536000	23	16748
2026-01-09 09:55:53.37	26.50	14.93	-31.2	-44.5	3.8	7.47e-01	0	43	104	65536000	23	16652
2026-01-09 09:55:55.37	26.02	14.86	-31.6	-45.6	3.8	7.43e-01	0	43	104	65536000	23	18078
2026-01-09 09:55:57.39	25.55	14.80	-32.0	-46.5	3.8	7.44e-01	0	43	104	65536000	24	19202
2026-01-09 09:55:59.41	25.08	14.73	-32.6	-48.0	3.8	7.44e-01	0	43	104	65536000	26	21179
2026-01-09 09:56:01.42	24.61	14.67	-32.9	-48.9	3.8	7.43e-01	0	43	104	65536000	26	22653
2026-01-09 09:56:03.43	24.14	14.60	-32.5	-47.5	3.8	7.46e-01	0	43	104	65536000	26	20173
2026-01-09 09:56:05.44	23.68	14.53	-32.9	-48.9	3.8	7.44e-01	0	43	104	65536000	26	22779
2026-01-09 09:56:07.46	23.22	14.46	-33.0	-49.8	3.8	7.46e-01	0	42	104	65536000	26	24798
2026-01-09 09:56:09.47	22.76	14.38	-33.1	-49.8	3.8	7.45e-01	0	43	104	65536000	27	24588
2026-01-09 09:56:11.48	22.30	14.31	-33.2	-49.8	3.8	7.45e-01	0	43	104	65536000	27	24542
2026-01-09 09:56:13.49	21.85	14.23	-33.2	-49.8	3.8	7.46e-01	0	43	104	65536000	27	24369
2026-01-09 09:56:15.50	21.40	14.15	-33.1	-49.8	3.8	7.44e-01	0	43	104	65536000	27	24506
2026-01-09 09:56:17.52	20.95	14.07	-32.9	-48.6	3.8	7.45e-01	0	43	104	65536000	27	22038
2026-01-09 09:56:19.53	20.51	13.99	-32.4	-46.5	3.8	7.41e-01	0	42	104	65536000	27	18309
2026-01-09 09:56:21.55	20.06	13.91	-31.7	-45.0	3.8	7.45e-01	0	43	104	65536000	25	16707
2026-01-09 09:56:23.56	19.62	13.83	-31.5	-44.7	3.8	7.43e-01	0	43	104	65536000	25	16298
2026-01-09 09:56:25.58	19.18	13.74	-31.3	-44.5	3.8	7.45e-01	0	43	104	65536000	24	16411
2026-01-09 09:56:27.59	18.75	13.66	-31.4	-44.6	3.8	7.46e-01	0	43	104	65536000	24	16503
2026-01-09 09:56:29.60	18.31	13.57	-31.0	-43.4	3.8	7.47e-01	0	43	104	65536000	24	15099
2026-01-09 09:56:31.62	17.88	13.48	-30.4	-42.2	3.8	7.42e-01	0	43	104	65536000	23	14080
2026-01-09 09:56:33.62	17.46	13.39	-30.3	-42.5	3.8	7.43e-01	0	43	104	65536000	22	14754
2026-01-09 09:56:35.63	17.04	13.30	-30.3	-42.6	3.8	7.42e-01	0	43	104	65536000	22	14896
2026-01-09 09:56:37.65	16.61	13.21	-30.5	-43.0	3.8	7.46e-01	0	43	104	65536000	22	15172
2026-01-09 09:56:39.66	16.20	13.12	-31.0	-44.5	3.8	7.42e-01	0	43	104	65536000	22	16936
2026-01-09 09:56:41.67	15.78	13.03	-31.7	-45.6	3.8	7.44e-01	0	42	104	65536000	24	17906
2026-01-09 09:56:43.69	15.37	12.93	-31.8	-46.0	3.8	7.46e-01	0	42	104	65536000	24	18522
2026-01-09 09:56:45.70	14.96	12.84	-32.2	-47.0	3.8	7.46e-01	0	43	104	65536000	25	19691
2026-01-09 09:56:47.71	14.55	12.74	-32.5	-48.2	3.8	7.45e-01	0	43	104	65536000	25	21737
2026-01-09 09:56:49.72	14.15	12.64	-32.9	-49.3	3.8	7.47e-01	0	43	104	65536000	26	23706
2026-01-09 09:56:51.74	13.75	12.54	-33.0	-49.7	3.8	7.41e-01	0	43	104	65536000	26	24517
2026-01-09 09:56:53.75	13.35	12.44	-32.8	-49.0	3.8	7.45e-01	0	43	104	65536000	26	23224
2026-01-09 09:56:55.77	12.95	12.34	-33.0	-49.8	3.8	7.45e-01	0	43	104	65536000	26	24983
2026-01-09 09:56:57.78	12.56	12.24	-33.1	-50.0	3.8	7.41e-01	0	43	104	65536000	27	24974
2026-01-09 09:56:59.80	12.17	12.14	-33.0	-49.5	3.8	7.43e-01	0	43	104	65536000	27	24010
2026-01-09 09:57:01.81	11.78	12.04	-32.9	-49.1	3.8	7.45e-01	0	43	104	65536000	27	23152
2026-01-09 09:57:03.82	11.40	11.94	-32.9	-48.6	3.8	7.46e-01	0	43	104	65536000	27	22160
2026-01-09 09:57:05.83	11.02	11.83	-32.7	-48.2	3.8	7.43e-01	0	42	104	65536000	27	21287
2026-01-09 09:57:07.85	10.64	11.73	-32.3	-47.0	3.8	7.43e-01	0	43	104	65536000	26	19433
2026-01-09 09:57:09.86	10.27	11.62	-31.8	-45.4	3.8	7.45e-01	0	43	104	65536000	25	17419
2026-01-09 09:57:11.88	9.90	11.52	-31.2	-44.3	3.8	7.44e-01	0	42	104	65536000	24	16234
2026-01-09 09:57:13.88	9.53	11.41	-30.9	-43.3	3.8	7.45e-01	0	43	104	65536000	24	14984
2026-01-09 09:57:15.89	9.16	11.31	-30.7	-43.2	3.8	7.44e-01	0	43	104	65536000	23	15098
2026-01-09 09:57:17.90	8.80	11.20	-30.8	-43.4	3.8	7.43e-01	0	43	104	65536000	23	15436
2026-01-09 09:57:19.91	8.44	11.09	-30.5	-42.7	3.8	7.44e-01	0	43	104	65536000	23	14747
2026-01-09 09:57:21.92	8.09	10.98	-30.3	-42.7	3.8	7.44e-01	0	43	104	65536000	22	15007
2026-01-09 09:57:23.93	7.73	10.87	-30.5	-43.1	3.8	7.47e-01	0	43	104	65536000	22	15354
2026-01-09 09:57:25.95	7.38	10.77	-30.7	-43.8	3.8	7.47e-01	0	43	104	65536000	22	16171
2026-01-09 09:57:27.95	7.03	10.66	-31.1	-44.7	3.8	7.44e-01	0	43	104	65536000	23	17130
2026-01-09 09:57:29.96	6.69	10.55	-31.5	-45.9	3.8	7.42e-01	0	43	104	65536000	23	18783
2026-01-09 09:57:31.97	6.35	10.44	-32.0	-47.0	3.8	7.44e-01	0	43	104	65536000	24	20198
2026-01-09 09:57:33.98	6.01	10.33	-32.3	-47.7	3.8	7.46e-01	0	43	104	65536000	25	21036
2026-01-09 09:57:35.99	5.67	10.21	-32.7	-48.7	3.8	7.46e-01	0	43	104	65536000	26	22775
2026-01-09 09:57:38.01	5.34	10.10	-32.9	-49.5	3.8	7.47e-01	0	43	104	65536000	26	24475
2026-01-09 09:57:40.02	5.00	9.99	-33.0	-50.0	3.8	7.44e-01	0	43	104	65536000	26	25446
2026-01-09 09:57:42.03	4.68	9.88	-33.0	-50.0	3.8	7.43e-01	0	43	104	65536000	26	25705
2026-01-09 09:57:44.04	4.35	9.77	-33.0	-50.3	3.8	7.49e-01	0	42	104	65536000	26	26469
2026-01-09 09:57:46.06	4.03	9.65	-33.1	-50.8	3.8	7.45e-01	0	43	104	65536000	26	27738
2026-01-09 09:57:48.07	3.71	9.54	-33.0	-50.2	3.8	7.47e-01	0	43	104	65536000	26	26088
2026-01-09 09:57:50.08	3.39	9.43	-32.8	-49.6	3.8	7.42e-01	0	43	104	65536000	26	24643
2026-01-09 09:57:52.10	3.07	9.31	-32.7	-48.9	3.8	7.43e-01	0	42	104	65536000	26	23304
2026-01-09 09:57:54.11	2.76	9.20	-32.5	-47.9	3.8	7.44e-01	0	43	104	65536000	26	21248
2026-01-09 09:57:56.12	2.45	9.09	-32.3	-47.2	3.8	7.44e-01	0	43	104	65536000	26	19964
2026-01-09 09:57:58.13	2.15	8.97	-31.9	-45.6	3.8	7.46e-01	0	43	104	65536000	26	17410
2026-01-09 09:58:00.14	1.84	8.86	-31.2	-44.4	3.8	7.45e-01	0	43	104	65536000	24	16367
2026-01-09 09:58:02.14	1.54	8.75	-31.0	-43.7	3.8	7.45e-01	0	43	104	65536000	24	15515
2026-01-09 09:58:04.15	1.25	8.63	-30.7	-43.5	3.8	7.45e-01	0	43	104	65536000	23	15649
2026-01-09 09:58:06.16	0.95	8.52	-30.6	-43.2	3.8	7.46e-01	0	43	104	65536000	23	15302
2026-01-09 09:58:08.16	0.66	8.40	-30.7	-43.4	3.8	7.46e-01	0	43	104	65536000	23	15607
2026-01-09 09:58:10.17	0.37	8.29	-30.6	-43.4	3.8	7.43e-01	0	43	104	65536000	23	15785
2026-01-09 09:58:12.18	0.08	8.17	-30.8	-43.9	3.8	7.44e-01	0	43	104	65536000	23	16301
2026-01-09 09:58:14.18	359.79	8.06	-31.3	-45.1	3.8	7.43e-01	0	43	104	65536000	23	17670
2026-01-09 09:58:16.19	359.51	7.95	-31.5	-45.6	3.8	7.45e-01	0	43	104	65536000	23	18243
2026-01-09 09:58:18.19	359.23	7.83	-31.8	-46.4	3.8	7.45e-01	0	43	104	65536000	24	19222
2026-01-09 09:58:20.20	358.95	7.72	-32.1	-47.6	3.8	7.47e-01	0	43	104	65536000	24	21374
2026-01-09 09:58:22.21	358.68	7.60	-32.5	-48.8	3.8	7.45e-01	0	43	104	65536000	25	23501
2026-01-09 09:58:24.22	358.40	7.49	-32.7	-49.5	3.8	7.45e-01	0	43	104	65536000	26	24911
2026-01-09 09:58:26.24	358.13	7.37	-32.8	-50.3	3.8	7.44e-01	0	43	104	65536000	26	26845
2026-01-09 09:58:28.25	357.86	7.26	-32.9	-50.6	3.8	7.48e-01	0	43	104	65536000	26	27599
2026-01-09 09:58:30.27	357.59	7.14	-32.9	-50.4	3.8	7.46e-01	0	43	104	65536000	26	27070
2026-01-09 09:58:32.27	357.33	7.03	-33.5	-53.1	3.8	7.43e-01	0	43	104	65536000	27	34218

#Closed at: 2026-01-09 09:58:33
#Recorded file [65 MB]: D:/data/31010_260109_125257.dat