passes_logs/2026/01/09/R2M6_AANII_01/R2M6_AANII_01__20260109_114205_NOAA_20_JPSS-1_rec.log

#Pass ID: 20260109_114205_NOAA 20 (JPSS-1)
#Satellite: NOAA 20 (JPSS-1)
#Configuration: NOAA 20
#almurnet v.1.7.20240730
#Start time: 2026-01-09 11:42:07

#Version: 2.2.20231116
#Station: R2M6_AANII_01
#Location: 30.233357 lon 59.946436 lat
#TLE: 1 43013U 17073A   26008.42245989  .00000120  00000+0  77990-4 0  9996
#TLE: 2 43013  98.7631 309.4315 0001737  48.7960 311.3365 14.19534455421802

#Time	Az	El	Level	Level2	SNR	BER	BlckErr	Temp	State	Recorded	gain1	gain2
2026-01-09 11:42:07.29	205.07	7.13	-31.3	-37.6	4.9	1.25e+00	0	40	0	0	23	7438
2026-01-09 11:42:10.30	205.32	7.33	-31.6	-38.3	6.8	1.82e-01	0	40	0	1048576	24	7775
2026-01-09 11:42:13.32	205.57	7.54	-31.6	-38.1	7.0	1.87e-01	0	41	0	7340032	24	7583
2026-01-09 11:42:16.34	205.83	7.75	-31.5	-38.0	6.8	2.38e-01	0	41	0	12582912	24	7618
2026-01-09 11:42:19.35	206.09	7.95	-30.8	-35.7	9.2	3.78e-02	0	41	0	18874368	22	6378
2026-01-09 11:42:22.37	206.36	8.16	-30.8	-36.1	8.8	5.15e-02	0	41	0	24117248	22	6603
2026-01-09 11:42:25.38	206.63	8.37	-30.5	-34.7	9.9	1.49e-02	0	41	0	29360128	22	5830
2026-01-09 11:42:28.39	206.90	8.58	-31.0	-36.8	8.2	4.33e-02	0	41	0	35651584	22	6986
2026-01-09 11:42:31.41	207.18	8.79	-31.3	-37.5	7.9	5.84e-02	0	41	0	40894464	22	7362
2026-01-09 11:42:34.43	207.46	9.00	-30.3	-33.8	11.7	5.92e-04	0	41	0	46137344	21	5406
2026-01-09 11:42:37.43	207.74	9.22	-30.6	-34.8	11.1	1.83e-03	0	41	0	52428800	21	5828
2026-01-09 11:42:40.44	208.03	9.43	-30.0	-33.0	12.3	1.83e-04	0	41	0	57671680	21	5087
2026-01-09 11:42:43.47	208.32	9.65	-30.1	-33.1	12.2	2.25e-04	0	41	0	63963136	21	5131
2026-01-09 11:42:46.49	208.62	9.87	-30.0	-33.1	12.3	2.88e-04	0	42	0	69206016	21	5109
2026-01-09 11:42:49.51	208.92	10.09	-30.2	-33.6	12.0	5.03e-04	0	42	0	74448896	21	5302
2026-01-09 11:42:52.53	209.23	10.31	-29.9	-32.6	12.7	2.18e-04	0	42	0	80740352	21	4906
2026-01-09 11:42:55.54	209.54	10.53	-29.8	-32.4	12.9	5.03e-05	0	42	0	85983232	21	4831
2026-01-09 11:42:58.56	209.85	10.75	-29.8	-32.9	12.9	4.57e-05	0	42	0	92274688	20	5130
2026-01-09 11:43:01.58	210.17	10.98	-29.9	-33.1	12.7	8.69e-05	0	42	0	97517568	20	5213
2026-01-09 11:43:04.60	210.50	11.20	-29.7	-32.7	13.0	7.01e-05	0	42	0	102760448	20	5047
2026-01-09 11:43:07.61	210.82	11.43	-29.9	-33.0	12.8	7.09e-05	0	42	0	109051904	20	5160
2026-01-09 11:43:10.62	211.16	11.66	-29.9	-33.1	12.7	8.01e-05	0	42	0	114294784	20	5191
2026-01-09 11:43:13.63	211.50	11.89	-29.7	-32.5	13.2	3.58e-05	0	42	0	120586240	20	4981
2026-01-09 11:43:16.65	211.84	12.12	-29.7	-32.4	13.3	1.60e-05	0	42	0	125829120	20	4937
2026-01-09 11:43:19.67	212.19	12.35	-29.7	-32.5	13.2	1.52e-05	0	42	0	131072000	20	4985
2026-01-09 11:43:22.68	212.54	12.58	-29.8	-32.7	13.1	2.05e-05	0	42	0	137363456	20	5047
2026-01-09 11:43:25.70	212.90	12.82	-30.0	-33.2	12.8	4.65e-05	0	42	0	142606336	20	5221
2026-01-09 11:43:28.71	213.27	13.05	-30.0	-33.2	12.7	9.30e-05	0	42	0	148897792	20	5235
2026-01-09 11:43:31.73	213.64	13.29	-30.0	-33.4	12.7	1.01e-04	0	42	0	154140672	20	5300
2026-01-09 11:43:34.75	214.02	13.53	-29.8	-32.8	13.1	5.87e-05	0	42	0	159383552	20	5050
2026-01-09 11:43:37.77	214.40	13.77	-29.7	-32.5	13.3	1.83e-05	0	42	0	165675008	20	4963
2026-01-09 11:43:40.79	214.79	14.01	-29.9	-32.8	13.1	3.20e-05	0	42	0	170917888	20	5082
2026-01-09 11:43:43.80	215.19	14.25	-29.9	-32.9	13.1	3.05e-05	0	42	0	177209344	20	5081
2026-01-09 11:43:46.81	215.59	14.49	-29.8	-32.7	13.2	2.13e-05	0	42	0	182452224	20	5044
2026-01-09 11:43:49.83	216.00	14.74	-29.8	-32.6	13.3	2.21e-05	0	42	0	187695104	20	4993
2026-01-09 11:43:52.85	216.41	14.98	-29.8	-32.7	13.3	2.05e-05	0	42	0	193986560	20	5021
2026-01-09 11:43:55.87	216.83	15.23	-29.8	-32.8	13.2	1.52e-05	0	42	0	199229440	20	5051
2026-01-09 11:43:58.89	217.26	15.48	-30.0	-33.2	13.0	2.13e-05	0	42	0	204472320	20	5208
2026-01-09 11:44:01.90	217.70	15.73	-29.9	-32.9	13.2	3.43e-05	0	42	0	210763776	20	5095
2026-01-09 11:44:04.93	218.14	15.98	-29.8	-32.6	13.3	2.05e-05	0	42	0	216006656	20	4983
2026-01-09 11:44:07.96	218.59	16.23	-29.8	-32.7	13.4	1.14e-05	0	42	0	222298112	20	4994
2026-01-09 11:44:10.97	219.05	16.48	-29.8	-32.7	13.4	1.22e-05	0	42	0	227540992	20	5027
2026-01-09 11:44:13.97	219.51	16.73	-29.8	-32.6	13.4	1.14e-05	0	42	0	232783872	20	4973
2026-01-09 11:44:16.99	219.98	16.98	-29.9	-33.0	13.2	1.06e-05	0	42	0	239075328	20	5114
2026-01-09 11:44:20.01	220.46	17.24	-29.9	-32.7	13.4	1.67e-05	0	42	0	244318208	20	5016
2026-01-09 11:44:23.02	220.95	17.49	-30.0	-33.3	13.1	3.28e-05	0	42	0	250609664	20	5214
2026-01-09 11:44:26.04	221.44	17.75	-29.7	-32.3	13.7	1.52e-05	0	42	0	255852544	20	4876
2026-01-09 11:44:29.06	221.95	18.00	-29.4	-31.4	14.3	2.20e-06	0	42	0	261095424	20	4541
2026-01-09 11:44:32.08	222.46	18.26	-29.2	-31.3	14.8	0.00e+00	0	42	0	267386880	19	4616
2026-01-09 11:44:35.10	222.98	18.52	-29.3	-31.6	14.6	1.50e-06	0	42	0	272629760	19	4711
2026-01-09 11:44:38.12	223.51	18.77	-29.1	-31.2	14.9	0.00e+00	0	43	0	278921216	19	4569
2026-01-09 11:44:41.12	224.05	19.03	-29.0	-31.0	15.0	0.00e+00	0	43	0	284164096	19	4503
2026-01-09 11:44:44.14	224.59	19.29	-29.1	-31.2	14.9	0.00e+00	0	43	0	289406976	19	4572
2026-01-09 11:44:47.15	225.15	19.54	-29.1	-31.1	15.0	0.00e+00	0	42	0	295698432	19	4552
2026-01-09 11:44:50.16	225.71	19.80	-29.2	-31.4	14.8	7.00e-07	0	42	0	300941312	19	4632
2026-01-09 11:44:53.18	226.29	20.06	-29.0	-30.9	15.2	0.00e+00	0	43	0	307232768	19	4464
2026-01-09 11:44:56.20	226.87	20.31	-28.9	-30.6	15.3	0.00e+00	0	42	0	312475648	19	4396
2026-01-09 11:44:59.22	227.46	20.57	-28.8	-30.8	15.5	0.00e+00	0	43	0	317718528	18	4549
2026-01-09 11:45:02.23	228.07	20.83	-28.8	-30.9	15.5	0.00e+00	0	43	0	324009984	18	4574
2026-01-09 11:45:05.24	228.68	21.08	-28.5	-30.0	16.0	0.00e+00	0	42	0	329252864	18	4318
2026-01-09 11:45:08.26	229.30	21.34	-28.6	-30.3	15.9	0.00e+00	0	43	0	335544320	18	4385
2026-01-09 11:45:11.28	229.93	21.59	-28.3	-29.7	16.2	0.00e+00	0	43	0	340787200	18	4208
2026-01-09 11:45:14.30	230.58	21.85	-28.4	-30.4	16.1	0.00e+00	0	43	0	346030080	17	4511
2026-01-09 11:45:17.31	231.23	22.10	-28.6	-30.9	15.8	0.00e+00	0	43	0	352321536	17	4684
2026-01-09 11:45:20.32	231.89	22.35	-28.8	-31.4	15.5	0.00e+00	0	43	0	357564416	17	4855
2026-01-09 11:45:23.34	232.57	22.60	-29.4	-32.3	14.6	0.00e+00	0	42	0	363855872	18	5051
2026-01-09 11:45:26.36	233.25	22.84	-29.2	-31.9	14.9	0.00e+00	0	43	0	369098752	18	4893
2026-01-09 11:45:29.37	233.95	23.09	-29.6	-32.2	14.4	1.50e-06	0	43	0	374341632	19	4904
2026-01-09 11:45:32.39	234.65	23.33	-29.1	-31.1	15.1	7.00e-07	0	43	0	380633088	19	4523
2026-01-09 11:45:35.41	235.37	23.57	-29.4	-31.9	14.6	1.50e-06	0	43	0	385875968	19	4783
2026-01-09 11:45:38.44	236.10	23.81	-29.4	-31.7	14.8	7.00e-07	0	43	0	391118848	19	4717
2026-01-09 11:45:41.45	236.84	24.05	-29.4	-31.9	14.7	0.00e+00	0	42	0	397410304	19	4771
2026-01-09 11:45:44.48	237.59	24.28	-29.6	-32.3	14.4	1.50e-06	0	43	0	402653184	19	4911
2026-01-09 11:45:47.50	238.35	24.51	-29.6	-32.3	14.4	2.20e-06	0	43	0	408944640	19	4918
2026-01-09 11:45:50.52	239.12	24.74	-29.6	-32.4	14.4	7.00e-07	0	42	0	414187520	19	4946
2026-01-09 11:45:53.54	239.91	24.97	-29.7	-32.6	14.3	0.00e+00	0	43	0	420478976	19	5026
2026-01-09 11:45:56.56	240.70	25.19	-29.9	-32.7	13.8	7.00e-07	0	43	0	425721856	20	4960
2026-01-09 11:45:59.57	241.50	25.40	-30.1	-33.1	13.6	1.06e-05	0	43	0	430964736	20	5091
2026-01-09 11:46:02.58	242.31	25.61	-30.3	-33.8	13.1	2.44e-05	0	43	0	437256192	20	5362
2026-01-09 11:46:05.60	243.14	25.82	-30.6	-33.9	12.7	4.27e-05	0	42	0	442499072	21	5309
2026-01-09 11:46:08.62	243.98	26.02	-30.8	-34.7	12.2	1.44e-04	0	43	0	448790528	21	5607
2026-01-09 11:46:11.62	244.82	26.22	-30.7	-34.3	12.4	1.15e-04	0	43	0	454033408	21	5472
2026-01-09 11:46:14.64	245.67	26.41	-30.8	-34.6	12.3	1.88e-04	0	43	0	459276288	21	5598
2026-01-09 11:46:17.66	246.54	26.60	-31.0	-34.7	11.9	4.25e-04	0	43	0	465567744	22	5530
2026-01-09 11:46:20.68	247.42	26.78	-31.1	-35.0	11.7	5.66e-04	0	43	0	470810624	22	5625
2026-01-09 11:46:23.70	248.30	26.96	-30.9	-34.5	12.0	3.22e-04	0	43	0	477102080	22	5444
2026-01-09 11:46:26.71	249.19	27.12	-30.9	-34.4	12.1	2.89e-04	0	43	0	482344960	22	5403
2026-01-09 11:46:29.73	250.10	27.29	-30.8	-33.9	12.4	1.74e-04	0	43	0	487587840	22	5195
2026-01-09 11:46:32.75	251.01	27.44	-30.8	-34.1	12.3	1.16e-04	0	43	0	493879296	22	5245
2026-01-09 11:46:35.77	251.93	27.59	-30.8	-34.0	12.4	1.43e-04	0	43	0	499122176	22	5217
2026-01-09 11:46:38.79	252.86	27.73	-30.7	-33.7	12.6	1.53e-04	0	43	0	504365056	22	5095
2026-01-09 11:46:41.81	253.80	27.87	-31.1	-35.0	11.7	2.70e-04	0	43	0	510656512	22	5635
2026-01-09 11:46:44.83	254.75	28.00	-31.5	-35.8	10.8	2.46e-03	0	43	0	515899392	23	5896
2026-01-09 11:46:47.84	255.70	28.12	-31.7	-36.3	10.4	3.80e-03	0	43	0	522190848	23	6131
2026-01-09 11:46:50.85	256.65	28.23	-31.2	-34.9	11.4	1.06e-03	0	43	0	527433728	23	5503
2026-01-09 11:46:53.87	257.62	28.33	-31.0	-34.1	12.0	3.46e-04	0	43	0	532676608	23	5156
2026-01-09 11:46:56.89	258.59	28.42	-30.9	-34.0	12.1	3.34e-04	0	43	0	538968064	23	5108
2026-01-09 11:46:59.90	259.57	28.51	-31.0	-34.3	11.9	2.37e-04	0	43	0	544210944	23	5217
2026-01-09 11:47:02.92	260.55	28.59	-31.2	-34.9	11.5	8.89e-04	0	43	0	550502400	23	5474
2026-01-09 11:47:05.93	261.53	28.66	-31.5	-35.6	11.0	1.59e-03	0	43	0	555745280	23	5798
2026-01-09 11:47:08.95	262.52	28.72	-31.4	-35.4	11.1	1.59e-03	0	43	0	560988160	23	5701
2026-01-09 11:47:11.96	263.51	28.77	-31.1	-34.5	11.8	5.47e-04	0	43	0	567279616	23	5294
2026-01-09 11:47:14.98	264.51	28.81	-31.1	-34.6	11.7	5.12e-04	0	43	0	572522496	23	5343
2026-01-09 11:47:18.00	265.50	28.84	-31.2	-34.6	11.6	5.29e-04	0	42	0	578813952	23	5380
2026-01-09 11:47:21.02	266.50	28.86	-31.1	-34.4	11.8	7.49e-04	0	43	0	584056832	23	5283
2026-01-09 11:47:24.03	267.50	28.88	-30.3	-32.7	13.3	3.43e-05	0	43	0	589299712	22	4735
2026-01-09 11:47:27.05	268.50	28.88	-30.6	-33.5	12.7	6.33e-05	0	43	0	595591168	22	5040
2026-01-09 11:47:30.07	269.50	28.88	-31.1	-34.9	11.7	3.58e-04	0	43	0	600834048	22	5597
2026-01-09 11:47:33.09	270.50	28.87	-30.8	-34.1	12.3	2.41e-04	0	43	0	607125504	22	5261
2026-01-09 11:47:36.10	271.50	28.84	-30.6	-33.5	12.7	4.19e-05	0	43	0	612368384	22	5042
2026-01-09 11:47:39.10	272.49	28.81	-30.5	-33.3	12.9	3.35e-05	0	43	0	617611264	22	4964
2026-01-09 11:47:42.12	273.48	28.77	-30.9	-34.5	12.1	1.88e-04	0	43	0	623902720	22	5402
2026-01-09 11:47:45.12	274.47	28.72	-30.9	-34.4	12.0	2.50e-04	0	43	0	629145600	22	5399
2026-01-09 11:47:48.14	275.46	28.66	-30.9	-34.4	12.1	2.47e-04	0	43	0	634388480	22	5386
2026-01-09 11:47:51.16	276.44	28.59	-31.5	-36.1	11.0	1.72e-03	0	43	0	640679936	22	6158
2026-01-09 11:47:54.18	277.42	28.51	-31.3	-35.0	11.4	1.50e-03	0	43	0	645922816	23	5512
2026-01-09 11:47:57.20	278.40	28.43	-30.4	-33.1	13.1	3.89e-05	0	43	0	652214272	22	4857
2026-01-09 11:48:00.22	279.37	28.33	-31.2	-35.3	11.5	3.70e-04	0	43	0	657457152	22	5747
2026-01-09 11:48:03.24	280.33	28.23	-31.7	-36.4	10.3	6.74e-03	0	43	0	662700032	23	6201
2026-01-09 11:48:06.25	281.29	28.12	-31.2	-34.6	11.6	9.99e-04	0	43	0	668991488	23	5376
2026-01-09 11:48:09.27	282.24	28.00	-31.2	-34.7	11.6	5.49e-04	0	43	0	674234368	23	5422
2026-01-09 11:48:12.29	283.18	27.87	-30.8	-33.6	12.3	1.78e-04	0	43	0	680525824	23	4972
2026-01-09 11:48:15.31	284.12	27.74	-30.8	-33.9	12.5	1.08e-04	0	43	0	685768704	22	5184
2026-01-09 11:48:18.32	285.04	27.60	-30.8	-34.0	12.4	1.17e-04	0	43	0	691011584	22	5227
2026-01-09 11:48:21.33	285.96	27.45	-30.5	-33.2	13.0	6.33e-05	0	43	0	697303040	22	4922
2026-01-09 11:48:24.35	286.87	27.30	-30.1	-32.5	13.8	5.30e-06	0	43	0	702545920	21	4761
2026-01-09 11:48:27.36	287.77	27.14	-29.9	-32.0	14.0	1.50e-06	0	43	0	708837376	21	4599
2026-01-09 11:48:30.38	288.66	26.97	-29.7	-32.1	14.3	1.50e-06	0	43	0	714080256	20	4743
2026-01-09 11:48:33.40	289.55	26.79	-30.0	-32.7	13.9	3.00e-06	0	43	0	719323136	20	4959
2026-01-09 11:48:36.42	290.42	26.61	-29.7	-32.0	14.3	1.50e-06	0	43	0	725614592	20	4712
2026-01-09 11:48:39.44	291.29	26.43	-30.0	-32.7	13.9	3.00e-06	0	43	0	730857472	20	4950
2026-01-09 11:48:42.46	292.14	26.24	-29.8	-32.3	14.1	7.00e-07	0	43	0	737148928	20	4816
2026-01-09 11:48:45.48	292.98	26.04	-29.9	-32.5	14.0	2.20e-06	0	43	0	742391808	20	4865
2026-01-09 11:48:48.50	293.82	25.84	-29.7	-32.0	14.3	1.50e-06	0	43	0	747634688	20	4704
2026-01-09 11:48:51.50	294.64	25.63	-29.8	-32.3	14.1	2.20e-06	0	43	0	753926144	20	4814
2026-01-09 11:48:54.52	295.45	25.42	-30.1	-33.2	13.6	1.22e-05	0	43	0	759169024	20	5116
2026-01-09 11:48:57.54	296.25	25.21	-30.1	-33.1	13.7	6.80e-06	0	43	0	765460480	20	5084
2026-01-09 11:49:00.55	297.04	24.99	-30.1	-33.0	13.7	6.80e-06	0	43	0	770703360	20	5073
2026-01-09 11:49:03.57	297.82	24.77	-30.2	-33.3	13.5	1.14e-05	0	43	0	775946240	20	5169
2026-01-09 11:49:06.59	298.59	24.54	-30.3	-33.8	13.2	9.90e-06	0	43	0	782237696	20	5353
2026-01-09 11:49:09.61	299.35	24.31	-30.4	-34.1	12.9	5.64e-05	0	43	0	787480576	20	5481
2026-01-09 11:49:12.63	300.09	24.08	-30.1	-33.1	13.7	1.37e-05	0	43	0	793772032	20	5079
2026-01-09 11:49:15.65	300.83	23.85	-29.9	-32.6	14.0	1.50e-06	0	43	0	799014912	20	4902
2026-01-09 11:49:18.68	301.56	23.61	-30.1	-33.2	13.5	7.60e-06	0	43	0	804257792	20	5148
2026-01-09 11:49:21.69	302.27	23.37	-29.9	-32.7	13.9	1.50e-06	0	43	0	810549248	20	4946
2026-01-09 11:49:24.70	302.97	23.13	-30.0	-32.9	13.7	9.90e-06	0	43	0	815792128	20	5031
2026-01-09 11:49:27.71	303.66	22.89	-29.7	-32.2	14.2	0.00e+00	0	43	0	822083584	20	4770
2026-01-09 11:49:30.73	304.35	22.64	-30.0	-32.8	13.8	6.10e-06	0	43	0	827326464	20	4993
2026-01-09 11:49:33.74	305.02	22.39	-30.0	-33.0	13.6	7.60e-06	0	43	0	832569344	20	5045
2026-01-09 11:49:36.76	305.68	22.14	-30.0	-33.0	13.6	1.50e-06	0	43	0	838860800	20	5059
2026-01-09 11:49:39.78	306.33	21.89	-30.7	-34.3	12.4	1.59e-04	0	43	0	844103680	21	5466
2026-01-09 11:49:42.79	306.97	21.64	-30.6	-33.7	12.5	2.73e-04	0	43	0	850395136	22	5114
2026-01-09 11:49:45.80	307.60	21.39	-30.1	-32.7	13.5	1.37e-05	0	43	0	855638016	21	4852
2026-01-09 11:49:48.82	308.22	21.14	-30.6	-34.2	12.5	1.11e-04	0	43	0	860880896	21	5443
2026-01-09 11:49:51.84	308.83	20.89	-30.4	-33.4	13.0	5.72e-05	0	43	0	867172352	21	5120
2026-01-09 11:49:54.86	309.44	20.63	-30.3	-33.2	13.1	2.21e-05	0	43	0	872415232	21	5043
2026-01-09 11:49:57.88	310.03	20.38	-30.7	-34.4	12.3	2.17e-04	0	43	0	877658112	21	5518
2026-01-09 11:50:00.89	310.61	20.12	-30.4	-33.6	12.7	1.46e-04	0	43	0	883949568	21	5209
2026-01-09 11:50:03.91	311.18	19.87	-30.2	-32.9	13.3	3.20e-05	0	43	0	889192448	21	4918
2026-01-09 11:50:06.92	311.74	19.61	-31.2	-35.3	11.3	3.10e-04	0	43	0	895483904	22	5824
2026-01-09 11:50:09.95	312.30	19.36	-31.2	-35.5	11.1	1.49e-03	0	43	0	900726784	22	5929
2026-01-09 11:50:12.96	312.85	19.10	-30.8	-34.3	11.9	5.10e-04	0	43	0	905969664	22	5404
2026-01-09 11:50:15.97	313.38	18.85	-31.0	-35.0	11.4	6.16e-04	0	43	0	912261120	22	5710
2026-01-09 11:50:18.99	313.91	18.59	-31.4	-36.4	10.4	2.99e-03	0	43	0	917504000	22	6379
2026-01-09 11:50:22.00	314.43	18.34	-30.2	-33.1	13.1	7.62e-05	0	43	0	923795456	21	5024
2026-01-09 11:50:25.02	314.94	18.08	-29.9	-32.3	13.6	3.80e-06	0	43	0	929038336	21	4724
2026-01-09 11:50:28.05	315.44	17.83	-30.1	-32.8	13.3	1.75e-05	0	43	0	934281216	21	4904
2026-01-09 11:50:31.06	315.94	17.58	-30.0	-32.6	13.4	2.28e-05	0	43	0	940572672	21	4832
2026-01-09 11:50:34.08	316.42	17.32	-30.1	-32.7	13.3	1.60e-05	0	43	0	945815552	21	4861
2026-01-09 11:50:37.10	316.90	17.07	-30.2	-33.1	13.1	2.59e-05	0	43	0	952107008	21	5018
2026-01-09 11:50:40.12	317.38	16.82	-30.4	-33.5	12.8	9.76e-05	0	43	0	957349888	21	5176
2026-01-09 11:50:43.14	317.84	16.57	-30.0	-32.6	13.3	1.83e-05	0	43	0	962592768	21	4846
2026-01-09 11:50:46.15	318.29	16.32	-29.9	-32.3	13.5	4.50e-06	0	43	0	968884224	21	4752
2026-01-09 11:50:49.16	318.74	16.08	-30.3	-33.3	12.8	4.73e-05	0	43	0	974127104	21	5115
2026-01-09 11:50:52.18	319.18	15.83	-29.9	-32.4	13.5	1.37e-05	0	43	0	980418560	21	4750
2026-01-09 11:50:55.20	319.62	15.58	-29.8	-31.9	13.7	6.80e-06	0	43	0	985661440	21	4611
2026-01-09 11:50:58.22	320.05	15.34	-29.7	-32.3	13.8	3.80e-06	0	43	0	990904320	20	4857
2026-01-09 11:51:01.24	320.47	15.09	-29.7	-32.3	13.8	6.10e-06	0	43	0	997195776	20	4839
2026-01-09 11:51:04.26	320.88	14.85	-29.8	-32.5	13.7	5.30e-06	0	43	0	1002438656	20	4895
2026-01-09 11:51:07.28	321.29	14.61	-30.0	-33.1	13.3	1.98e-05	0	43	0	1008730112	20	5136
2026-01-09 11:51:10.29	321.69	14.37	-30.2	-33.7	12.9	4.04e-05	0	43	0	1013972992	20	5351
2026-01-09 11:51:13.31	322.09	14.12	-30.3	-33.8	12.8	4.88e-05	0	43	0	1019215872	20	5402
2026-01-09 11:51:16.33	322.48	13.89	-30.2	-33.6	12.9	3.89e-05	0	43	0	1025507328	20	5331
2026-01-09 11:51:19.34	322.86	13.65	-30.2	-33.5	13.0	3.58e-05	0	43	0	1030750208	20	5287
2026-01-09 11:51:22.36	323.24	13.41	-30.3	-33.9	12.7	8.69e-05	0	43	0	1037041664	20	5451
2026-01-09 11:51:25.37	323.61	13.18	-30.2	-33.6	12.9	6.48e-05	0	43	0	1042284544	20	5331
2026-01-09 11:51:28.40	323.98	12.94	-30.4	-34.2	12.5	1.51e-04	0	43	0	1047527424	20	5564
2026-01-09 11:51:31.42	324.34	12.71	-30.7	-34.7	11.7	3.19e-04	0	43	0	1053818880	21	5709
2026-01-09 11:51:34.43	324.69	12.48	-31.0	-35.1	11.1	1.54e-03	0	43	0	1059061760	22	5755
2026-01-09 11:51:37.46	325.05	12.25	-31.0	-35.1	11.1	1.54e-03	0	43	0	1065353216	22	5751
2026-01-09 11:51:40.48	325.39	12.02	-31.3	-36.0	10.5	3.34e-03	0	43	0	1070596096	22	6187
2026-01-09 11:51:43.50	325.73	11.79	-31.1	-35.5	10.8	2.45e-03	0	43	0	1075838976	22	5947
2026-01-09 11:51:46.52	326.06	11.56	-31.0	-35.1	11.1	1.49e-03	0	43	0	1082130432	22	5798
2026-01-09 11:51:49.54	326.40	11.34	-30.9	-34.9	11.2	1.71e-03	0	43	0	1087373312	22	5708
2026-01-09 11:51:52.56	326.72	11.11	-31.0	-35.2	11.0	2.14e-03	0	43	0	1093664768	22	5800
2026-01-09 11:51:55.59	327.04	10.89	-30.9	-34.8	11.4	1.24e-03	0	43	0	1098907648	22	5612
2026-01-09 11:51:58.60	327.36	10.67	-30.9	-34.9	11.1	1.00e-03	0	43	0	1104150528	22	5697
2026-01-09 11:52:01.61	327.67	10.45	-30.9	-34.7	11.3	9.62e-04	0	43	0	1110441984	22	5597
2026-01-09 11:52:04.63	327.97	10.23	-30.8	-34.4	11.5	6.23e-04	0	43	0	1115684864	22	5466
2026-01-09 11:52:07.65	328.28	10.01	-30.7	-34.4	11.5	7.19e-04	0	43	0	1121976320	22	5458
2026-01-09 11:52:10.67	328.57	9.80	-31.0	-35.2	10.9	2.04e-03	0	43	0	1127219200	22	5830
2026-01-09 11:52:13.68	328.87	9.58	-31.0	-35.1	10.9	2.26e-03	0	43	0	1132462080	22	5797
2026-01-09 11:52:16.70	329.16	9.37	-30.9	-34.9	11.1	2.00e-03	0	43	0	1138753536	22	5706
2026-01-09 11:52:19.71	329.44	9.16	-30.8	-34.5	11.4	1.24e-03	0	43	0	1143996416	22	5515
2026-01-09 11:52:22.73	329.73	8.95	-30.5	-33.8	11.8	6.53e-04	0	43	0	1149239296	22	5223
2026-01-09 11:52:25.74	330.00	8.74	-30.4	-33.3	12.1	2.66e-04	0	43	0	1155530752	22	5043
2026-01-09 11:52:28.76	330.28	8.53	-30.3	-33.6	12.2	2.84e-04	0	43	0	1160773632	21	5260
2026-01-09 11:52:31.78	330.55	8.32	-30.5	-34.2	11.7	4.23e-04	0	43	0	1167065088	21	5540
2026-01-09 11:52:34.79	330.81	8.11	-30.6	-34.5	11.5	8.44e-04	0	43	0	1172307968	21	5660
2026-01-09 11:52:37.81	331.08	7.91	-30.8	-35.1	11.0	1.38e-03	0	43	0	1177550848	21	5945
2026-01-09 11:52:40.83	331.34	7.70	-30.8	-35.2	11.0	2.04e-03	0	43	0	1183842304	21	5986
2026-01-09 11:52:43.85	331.60	7.50	-30.8	-35.4	10.8	1.94e-03	0	43	0	1189085184	21	6115
2026-01-09 11:52:46.87	331.85	7.30	-30.9	-35.6	10.6	3.13e-03	0	43	0	1195376640	21	6217
2026-01-09 11:52:49.89	332.10	7.10	-30.6	-34.7	11.3	1.35e-03	0	43	0	1200619520	21	5758
2026-01-09 11:52:52.90	332.35	6.90	-33.6	-47.7	3.8	1.49e+00	0	43	104	1201668096	27	18352

#Closed at: 2026-01-09 11:52:53
#Recorded file [1201 MB]: D:/data/31010_260109_144209.dat