passes_logs/2026/01/09/R2M6_AANII_01/R2M6_AANII_01__20260109_014826_NOAA_20_JPSS-1_rec.log

#Pass ID: 20260109_014826_NOAA 20 (JPSS-1)
#Satellite: NOAA 20 (JPSS-1)
#Configuration: NOAA 20
#almurnet v.1.7.20240730
#Start time: 2026-01-09 01:48:28

#Version: 2.2.20231116
#Station: R2M6_AANII_01
#Location: 30.233357 lon 59.946436 lat
#TLE: 1 43013U 17073A   26008.42245989  .00000120  00000+0  77990-4 0  9996
#TLE: 2 43013  98.7631 309.4315 0001737  48.7960 311.3365 14.19534455421802

#Time	Az	El	Level	Level2	SNR	BER	BlckErr	Temp	State	Recorded	gain1	gain2
2026-01-09 01:48:28.79	11.76	7.14	-32.2	-41.1	4.3	1.40e+00	0	40	0	0	24	10053
2026-01-09 01:48:31.80	11.55	7.35	-32.2	-40.7	5.4	5.44e-01	0	41	0	1048576	24	9586
2026-01-09 01:48:34.81	11.33	7.56	-32.2	-40.9	5.4	4.88e-01	0	41	0	7340032	24	9762
2026-01-09 01:48:37.83	11.11	7.77	-32.1	-40.1	5.9	4.65e-01	0	41	0	12582912	24	9001
2026-01-09 01:48:40.84	10.88	7.98	-31.6	-37.7	8.1	9.20e-02	0	41	0	18874368	23	7222
2026-01-09 01:48:43.86	10.65	8.20	-31.0	-35.5	10.1	9.19e-03	0	41	0	24117248	22	6080
2026-01-09 01:48:46.87	10.42	8.42	-31.0	-36.1	10.1	6.07e-03	0	41	0	29360128	21	6487
2026-01-09 01:48:49.89	10.18	8.63	-31.0	-35.7	10.1	7.52e-03	0	41	0	35651584	22	6166
2026-01-09 01:48:52.91	9.94	8.85	-31.1	-36.1	9.8	1.01e-02	0	41	0	40894464	22	6344
2026-01-09 01:48:55.93	9.70	9.08	-30.9	-35.6	10.5	5.08e-03	0	41	0	46137344	21	6227
2026-01-09 01:48:58.95	9.45	9.30	-30.7	-35.2	10.9	4.43e-03	0	41	0	52428800	21	5999
2026-01-09 01:49:01.96	9.20	9.52	-30.7	-34.9	11.1	4.26e-03	0	41	0	57671680	21	5839
2026-01-09 01:49:04.97	8.94	9.75	-30.6	-34.6	11.4	8.86e-04	0	42	0	63963136	21	5705
2026-01-09 01:49:07.98	8.68	9.97	-30.6	-34.8	11.2	1.35e-03	0	42	0	69206016	21	5821
2026-01-09 01:49:11.00	8.42	10.20	-30.5	-34.5	11.5	8.97e-04	0	41	0	74448896	21	5663
2026-01-09 01:49:14.01	8.15	10.43	-30.6	-34.7	11.3	6.90e-04	0	42	0	80740352	21	5775
2026-01-09 01:49:17.02	7.88	10.66	-30.3	-34.2	12.1	2.99e-03	0	42	0	85983232	20	5626
2026-01-09 01:49:20.03	7.60	10.90	-30.2	-33.9	12.3	2.47e-03	0	42	0	92274688	20	5507
2026-01-09 01:49:23.05	7.32	11.13	-30.2	-33.9	12.3	2.70e-03	0	42	0	97517568	20	5509
2026-01-09 01:49:26.07	7.03	11.37	-30.1	-33.7	12.5	2.57e-03	0	42	0	102760448	20	5436
2026-01-09 01:49:29.09	6.74	11.60	-30.2	-33.8	12.4	2.41e-03	0	42	0	109051904	20	5471
2026-01-09 01:49:32.10	6.44	11.84	-30.2	-33.9	12.4	2.54e-03	0	42	0	114294784	20	5483
2026-01-09 01:49:35.11	6.14	12.08	-30.2	-34.0	12.3	1.50e-04	0	42	0	120586240	20	5529
2026-01-09 01:49:38.13	5.83	12.33	-30.2	-33.9	12.3	2.83e-03	0	42	0	125829120	20	5519
2026-01-09 01:49:41.15	5.52	12.57	-30.5	-34.6	11.9	3.21e-03	0	42	0	131072000	20	5816
2026-01-09 01:49:44.17	5.20	12.82	-30.6	-34.4	11.8	3.55e-03	0	42	0	137363456	21	5577
2026-01-09 01:49:47.19	4.88	13.06	-30.7	-34.6	11.7	3.08e-03	0	42	0	142606336	21	5673
2026-01-09 01:49:50.21	4.55	13.31	-30.3	-34.1	12.4	1.95e-04	0	42	0	148897792	20	5553
2026-01-09 01:49:53.22	4.21	13.56	-30.2	-33.8	12.6	9.30e-05	0	42	0	154140672	20	5425
2026-01-09 01:49:56.24	3.87	13.81	-30.1	-33.4	12.9	6.02e-05	0	42	0	159383552	20	5290
2026-01-09 01:49:59.26	3.52	14.07	-30.1	-33.6	12.8	5.79e-05	0	42	0	165675008	20	5336
2026-01-09 01:50:02.29	3.17	14.32	-30.3	-33.9	12.6	7.85e-05	0	42	0	170917888	20	5446
2026-01-09 01:50:05.31	2.81	14.58	-30.3	-33.9	12.6	9.61e-05	0	42	0	177209344	20	5480
2026-01-09 01:50:08.33	2.44	14.84	-30.4	-34.1	12.5	1.16e-04	0	43	0	182452224	20	5543
2026-01-09 01:50:11.34	2.07	15.10	-30.4	-34.2	12.4	1.14e-04	0	42	0	187695104	20	5580
2026-01-09 01:50:14.37	1.69	15.36	-30.3	-34.0	12.6	7.70e-05	0	43	0	193986560	20	5486
2026-01-09 01:50:17.39	1.30	15.62	-30.2	-33.8	12.7	1.08e-04	0	42	0	199229440	20	5429
2026-01-09 01:50:20.40	0.91	15.89	-30.2	-33.7	12.8	7.78e-05	0	42	0	205520896	20	5357
2026-01-09 01:50:23.42	0.51	16.15	-30.4	-34.0	12.7	1.03e-04	0	43	0	210763776	20	5482
2026-01-09 01:50:26.44	0.10	16.42	-30.4	-34.1	12.6	9.07e-05	0	43	0	216006656	20	5536
2026-01-09 01:50:29.45	359.69	16.69	-30.5	-34.0	12.4	3.54e-04	0	43	0	222298112	21	5378
2026-01-09 01:50:32.47	359.26	16.96	-30.5	-34.0	12.4	6.24e-04	0	42	0	227540992	21	5368
2026-01-09 01:50:35.49	358.83	17.23	-30.5	-34.2	12.6	6.28e-04	0	43	0	233832448	20	5569
2026-01-09 01:50:38.51	358.39	17.50	-30.4	-34.1	12.6	6.38e-04	0	43	0	239075328	20	5526
2026-01-09 01:50:41.54	357.94	17.78	-30.3	-33.9	12.8	6.80e-04	0	42	0	244318208	20	5424
2026-01-09 01:50:44.56	357.49	18.05	-30.2	-33.5	13.0	4.95e-04	0	43	0	250609664	20	5277
2026-01-09 01:50:47.58	357.02	18.33	-30.1	-33.4	13.1	5.11e-04	0	43	0	255852544	20	5233
2026-01-09 01:50:50.60	356.55	18.61	-30.1	-33.3	13.2	7.37e-04	0	43	0	262144000	20	5205
2026-01-09 01:50:53.62	356.07	18.88	-30.1	-33.2	13.3	8.55e-04	0	43	0	267386880	20	5155
2026-01-09 01:50:56.64	355.57	19.16	-30.1	-33.4	13.2	7.12e-04	0	43	0	272629760	20	5236
2026-01-09 01:50:59.64	355.08	19.44	-30.0	-33.4	13.6	8.30e-04	0	43	0	278921216	19	5339
2026-01-09 01:51:02.66	354.57	19.72	-29.9	-33.1	13.7	2.71e-04	0	43	0	284164096	19	5219
2026-01-09 01:51:05.68	354.05	20.01	-30.0	-33.3	13.6	6.80e-06	0	43	0	289406976	19	5308
2026-01-09 01:51:08.70	353.52	20.29	-29.9	-32.8	13.5	1.14e-05	0	43	0	295698432	20	5019
2026-01-09 01:51:11.72	352.98	20.57	-30.2	-33.6	13.0	3.20e-05	0	43	0	300941312	20	5301
2026-01-09 01:51:14.74	352.43	20.86	-30.4	-34.0	12.9	5.29e-04	0	43	0	307232768	20	5458
2026-01-09 01:51:17.75	351.87	21.14	-30.5	-33.9	12.5	2.02e-04	0	43	0	312475648	21	5336
2026-01-09 01:51:20.76	351.30	21.42	-30.7	-34.6	12.1	5.07e-04	0	43	0	317718528	21	5611
2026-01-09 01:51:23.77	350.72	21.70	-30.5	-33.8	12.6	1.22e-04	0	43	0	324009984	21	5278
2026-01-09 01:51:26.79	350.13	21.99	-30.5	-34.0	12.5	1.51e-04	0	43	0	329252864	21	5345
2026-01-09 01:51:29.80	349.53	22.27	-30.3	-33.9	13.0	3.58e-05	0	43	0	335544320	20	5406
2026-01-09 01:51:32.81	348.92	22.55	-30.3	-33.8	13.0	2.44e-05	0	43	0	340787200	20	5369
2026-01-09 01:51:35.83	348.29	22.84	-30.4	-34.0	12.8	3.96e-05	0	43	0	346030080	20	5479
2026-01-09 01:51:38.85	347.65	23.12	-30.0	-32.9	13.6	9.10e-06	0	43	0	352321536	20	5014
2026-01-09 01:51:41.86	347.00	23.40	-29.8	-32.4	13.9	1.50e-06	0	43	0	357564416	20	4846
2026-01-09 01:51:44.87	346.34	23.68	-29.9	-32.6	13.8	6.10e-06	0	43	0	363855872	20	4914
2026-01-09 01:51:47.89	345.67	23.96	-29.8	-32.9	14.0	1.50e-06	0	43	0	369098752	19	5147
2026-01-09 01:51:50.90	344.99	24.24	-29.8	-32.9	14.0	7.00e-07	0	43	0	374341632	19	5116
2026-01-09 01:51:53.92	344.29	24.51	-29.8	-32.8	14.1	1.50e-06	0	43	0	380633088	19	5087
2026-01-09 01:51:56.94	343.58	24.79	-29.9	-33.0	14.0	1.50e-06	0	43	0	385875968	19	5163
2026-01-09 01:51:59.95	342.86	25.06	-29.6	-32.5	14.3	7.00e-07	0	43	0	392167424	19	4975
2026-01-09 01:52:02.97	342.12	25.33	-29.5	-32.2	14.5	2.06e-03	0	43	0	397410304	19	4863
2026-01-09 01:52:05.99	341.37	25.60	-29.7	-32.5	14.3	2.36e-03	0	43	0	402653184	19	4965
2026-01-09 01:52:09.00	340.61	25.86	-29.9	-33.0	14.0	2.24e-03	0	43	0	408944640	19	5166
2026-01-09 01:52:12.01	339.84	26.12	-30.0	-33.2	13.9	2.13e-03	0	43	0	414187520	19	5239
2026-01-09 01:52:15.03	339.05	26.38	-30.5	-33.7	12.8	9.91e-05	0	43	0	420478976	21	5234
2026-01-09 01:52:18.05	338.25	26.64	-30.5	-33.9	12.8	6.40e-05	0	43	0	425721856	21	5273
2026-01-09 01:52:21.05	337.44	26.89	-31.1	-34.9	11.8	2.37e-03	0	43	0	430964736	22	5585
2026-01-09 01:52:24.07	336.62	27.13	-30.5	-33.7	13.0	2.20e-03	0	43	0	437256192	21	5198
2026-01-09 01:52:27.09	335.78	27.38	-30.8	-34.5	12.5	1.55e-03	0	43	0	442499072	21	5526
2026-01-09 01:52:30.11	334.93	27.61	-30.7	-34.1	12.7	1.55e-03	0	43	0	448790528	21	5366
2026-01-09 01:52:33.12	334.06	27.85	-30.8	-34.2	12.3	9.34e-04	0	43	0	454033408	22	5274
2026-01-09 01:52:36.14	333.19	28.07	-30.5	-33.8	12.9	2.02e-04	0	43	0	459276288	21	5233
2026-01-09 01:52:39.16	332.30	28.29	-30.8	-34.7	12.4	1.72e-04	0	43	0	465567744	21	5591
2026-01-09 01:52:42.17	331.40	28.51	-30.8	-34.4	12.4	1.53e-04	0	43	0	470810624	21	5500
2026-01-09 01:52:45.20	330.48	28.72	-30.8	-34.7	12.2	2.12e-04	0	43	0	477102080	21	5605
2026-01-09 01:52:48.22	329.55	28.92	-30.6	-33.9	12.8	2.15e-03	0	43	0	482344960	21	5286
2026-01-09 01:52:51.23	328.62	29.11	-30.6	-34.1	12.4	1.55e-03	0	43	0	487587840	21	5381
2026-01-09 01:52:54.24	327.67	29.30	-30.7	-34.4	12.4	2.45e-03	0	43	0	493879296	21	5485
2026-01-09 01:52:57.25	326.71	29.48	-30.9	-35.0	12.0	2.76e-04	0	43	0	499122176	21	5758
2026-01-09 01:53:00.27	325.74	29.65	-30.9	-34.9	12.1	2.06e-04	0	43	0	504365056	21	5693
2026-01-09 01:53:03.29	324.76	29.81	-31.0	-34.8	11.8	5.21e-04	0	43	0	510656512	22	5555
2026-01-09 01:53:06.31	323.77	29.97	-31.2	-35.2	11.6	9.15e-04	0	43	0	515899392	22	5716
2026-01-09 01:53:09.34	322.77	30.12	-31.3	-35.7	11.2	1.65e-03	0	43	0	522190848	22	5945
2026-01-09 01:53:12.35	321.76	30.25	-31.5	-35.6	11.4	6.10e-04	0	43	0	527433728	22	5739
2026-01-09 01:53:15.36	320.75	30.38	-31.0	-35.2	11.7	6.50e-04	0	43	0	532676608	21	5818
2026-01-09 01:53:18.38	319.72	30.50	-31.2	-35.4	11.4	6.43e-04	0	43	0	538968064	22	5798
2026-01-09 01:53:21.40	318.69	30.60	-31.1	-34.8	11.8	6.82e-04	0	43	0	544210944	22	5573
2026-01-09 01:53:24.41	317.65	30.70	-30.9	-34.9	12.1	4.33e-04	0	43	0	550502400	21	5693
2026-01-09 01:53:27.43	316.61	30.79	-30.8	-34.6	12.3	2.96e-04	0	43	0	555745280	21	5562
2026-01-09 01:53:30.45	315.55	30.86	-30.7	-34.2	12.5	2.51e-04	0	43	0	560988160	21	5422
2026-01-09 01:53:33.46	314.50	30.93	-30.8	-34.7	12.3	1.01e-03	0	43	0	567279616	21	5619
2026-01-09 01:53:36.48	313.44	30.98	-30.9	-34.9	12.1	3.00e-03	0	43	0	572522496	21	5689
2026-01-09 01:53:39.51	312.38	31.03	-30.9	-34.8	12.2	2.44e-03	0	43	0	578813952	21	5640
2026-01-09 01:53:42.53	311.31	31.06	-31.6	-35.9	10.8	5.98e-03	0	43	0	584056832	23	5967
2026-01-09 01:53:45.55	310.24	31.08	-31.6	-36.0	10.6	6.51e-03	0	43	0	589299712	23	6006
2026-01-09 01:53:48.57	309.17	31.09	-31.3	-35.6	11.2	3.16e-03	0	43	0	595591168	22	5924
2026-01-09 01:53:51.58	308.11	31.09	-31.2	-35.2	11.5	3.44e-03	0	43	0	600834048	22	5734
2026-01-09 01:53:54.60	307.04	31.08	-31.2	-35.2	11.6	3.38e-03	0	43	0	607125504	22	5715
2026-01-09 01:53:57.62	305.97	31.06	-31.2	-35.3	11.5	2.82e-03	0	43	0	612368384	22	5751
2026-01-09 01:54:00.64	304.91	31.02	-29.9	-33.7	12.2	2.55e-03	0	43	0	617611264	21	5563
2026-01-09 01:54:03.65	303.85	30.98	-30.7	-34.4	12.1	2.60e-03	0	43	0	623902720	21	5490
2026-01-09 01:54:06.67	302.79	30.92	-30.9	-34.8	12.1	2.43e-03	0	43	0	629145600	21	5660
2026-01-09 01:54:09.68	301.73	30.85	-30.6	-34.0	12.6	1.60e-04	0	43	0	635437056	21	5350
2026-01-09 01:54:12.69	300.69	30.77	-30.8	-34.6	12.3	1.44e-04	0	43	0	640679936	21	5577
2026-01-09 01:54:15.69	299.65	30.69	-31.1	-35.0	11.6	6.93e-04	0	43	0	645922816	22	5663
2026-01-09 01:54:18.70	298.61	30.59	-30.9	-34.4	12.1	5.07e-04	0	43	0	652214272	22	5385
2026-01-09 01:54:21.71	297.58	30.48	-30.6	-34.0	12.6	2.11e-03	0	43	0	657457152	21	5351
2026-01-09 01:54:24.73	296.56	30.36	-30.7	-34.4	12.4	2.30e-03	0	43	0	662700032	21	5482
2026-01-09 01:54:27.76	295.53	30.23	-31.5	-35.8	10.7	1.72e-03	0	43	0	668991488	23	5897
2026-01-09 01:54:30.78	294.53	30.09	-31.3	-35.6	11.2	2.50e-03	0	43	0	674234368	22	5913
2026-01-09 01:54:33.78	293.53	29.95	-31.1	-34.9	11.7	8.55e-04	0	43	0	680525824	22	5601
2026-01-09 01:54:36.79	292.54	29.79	-31.3	-35.8	11.1	9.33e-04	0	43	0	685768704	22	6006
2026-01-09 01:54:39.80	291.56	29.63	-31.0	-34.6	11.8	5.21e-04	0	43	0	691011584	22	5493
2026-01-09 01:54:42.83	290.59	29.45	-31.1	-34.9	11.6	5.49e-04	0	43	0	697303040	22	5615
2026-01-09 01:54:45.85	289.63	29.27	-31.1	-35.1	11.5	1.02e-03	0	43	0	702545920	22	5702
2026-01-09 01:54:48.87	288.68	29.08	-31.0	-35.2	11.8	3.78e-04	0	43	0	708837376	21	5863
2026-01-09 01:54:51.89	287.74	28.88	-31.2	-35.3	11.4	1.36e-03	0	43	0	714080256	22	5773
2026-01-09 01:54:54.90	286.82	28.68	-31.2	-35.4	11.2	1.34e-03	0	43	0	719323136	22	5865
2026-01-09 01:54:57.91	285.90	28.47	-31.2	-35.4	11.2	2.28e-03	0	43	0	725614592	22	5860
2026-01-09 01:55:00.92	285.01	28.26	-31.1	-35.2	11.4	1.30e-03	0	43	0	730857472	22	5730
2026-01-09 01:55:03.92	284.12	28.04	-31.3	-35.8	10.9	1.63e-03	0	43	0	737148928	22	6057
2026-01-09 01:55:06.94	283.24	27.81	-31.0	-34.8	11.6	7.60e-04	0	43	0	742391808	22	5598
2026-01-09 01:55:09.96	282.38	27.57	-30.7	-34.4	12.3	3.09e-04	0	43	0	747634688	21	5499
2026-01-09 01:55:12.97	281.53	27.34	-30.7	-34.3	12.3	1.56e-04	0	43	0	753926144	21	5465
2026-01-09 01:55:15.99	280.69	27.09	-30.7	-34.3	12.3	1.73e-04	0	43	0	759169024	21	5457
2026-01-09 01:55:19.00	279.86	26.84	-30.5	-33.9	12.6	1.89e-04	0	43	0	765460480	21	5316
2026-01-09 01:55:22.02	279.05	26.59	-30.5	-34.0	12.6	1.07e-04	0	43	0	770703360	21	5334
2026-01-09 01:55:25.04	278.25	26.34	-30.4	-34.0	12.8	4.93e-04	0	43	0	775946240	20	5452
2026-01-09 01:55:28.07	277.46	26.08	-30.3	-33.3	12.9	3.23e-04	0	43	0	782237696	21	5094
2026-01-09 01:55:31.08	276.68	25.81	-30.1	-33.3	13.3	1.69e-04	0	43	0	787480576	20	5179
2026-01-09 01:55:34.09	275.92	25.55	-30.0	-32.9	13.5	8.30e-06	0	43	0	793772032	20	5044
2026-01-09 01:55:37.10	275.18	25.28	-29.9	-32.7	13.7	9.90e-06	0	43	0	799014912	20	4974
2026-01-09 01:55:40.13	274.44	25.01	-29.8	-32.8	14.0	5.30e-06	0	43	0	804257792	19	5099
2026-01-09 01:55:43.15	273.71	24.73	-29.6	-32.5	14.2	3.80e-06	0	43	0	810549248	19	4979
2026-01-09 01:55:46.16	273.00	24.46	-29.7	-32.6	14.0	3.80e-06	0	43	0	815792128	19	5050
2026-01-09 01:55:49.19	272.30	24.18	-29.0	-31.4	15.1	2.20e-06	0	43	0	821035008	18	4744
2026-01-09 01:55:52.20	271.62	23.90	-29.0	-31.3	15.2	2.20e-06	0	43	0	827326464	18	4690
2026-01-09 01:55:55.23	270.94	23.62	-29.0	-31.5	15.0	7.00e-07	0	43	0	832569344	18	4773
2026-01-09 01:55:58.25	270.28	23.34	-29.3	-32.0	14.7	0.00e+00	0	43	0	838860800	18	4948
2026-01-09 01:56:01.27	269.63	23.05	-28.5	-30.7	15.8	0.00e+00	0	43	0	844103680	17	4633
2026-01-09 01:56:04.28	268.99	22.77	-28.4	-30.8	16.0	0.00e+00	0	43	0	849346560	16	4779
2026-01-09 01:56:07.30	268.37	22.49	-28.7	-31.0	13.8	1.50e-06	0	43	0	855638016	17	4725
2026-01-09 01:56:10.32	267.75	22.20	-28.4	-31.0	15.7	3.00e-06	0	43	0	860880896	16	4827
2026-01-09 01:56:13.33	267.15	21.92	-28.4	-30.9	15.9	0.00e+00	0	43	0	867172352	16	4788
2026-01-09 01:56:16.35	266.55	21.63	-28.3	-30.6	16.1	0.00e+00	0	43	0	872415232	16	4710
2026-01-09 01:56:19.36	265.97	21.35	-28.2	-30.5	16.1	2.55e-03	0	43	0	877658112	16	4671
2026-01-09 01:56:22.38	265.40	21.06	-28.2	-30.5	16.1	2.55e-03	0	43	0	883949568	16	4691
2026-01-09 01:56:25.39	264.84	20.78	-28.5	-30.7	15.7	2.90e-03	0	43	0	889192448	17	4638
2026-01-09 01:56:28.41	264.29	20.50	-28.5	-30.7	15.6	0.00e+00	0	43	0	895483904	17	4645
2026-01-09 01:56:31.43	263.75	20.21	-28.5	-30.7	15.6	0.00e+00	0	43	0	900726784	17	4648
2026-01-09 01:56:34.45	263.22	19.93	-28.6	-31.0	15.5	0.00e+00	0	43	0	905969664	17	4723
2026-01-09 01:56:37.47	262.70	19.65	-28.7	-31.2	15.3	1.75e-03	0	43	0	912261120	17	4810
2026-01-09 01:56:40.50	262.19	19.36	-29.1	-31.6	14.5	1.02e-03	0	43	0	917504000	18	4837
2026-01-09 01:56:43.52	261.69	19.08	-29.3	-32.1	14.5	2.07e-04	0	43	0	923795456	18	5003
2026-01-09 01:56:46.53	261.20	18.80	-29.7	-32.7	13.8	2.33e-04	0	43	0	929038336	19	5079
2026-01-09 01:56:49.54	260.71	18.52	-29.5	-32.2	14.1	1.64e-03	0	43	0	934281216	19	4911
2026-01-09 01:56:52.57	260.24	18.24	-29.4	-32.6	14.1	2.34e-03	0	43	0	940572672	18	5164
2026-01-09 01:56:55.59	259.77	17.97	-29.5	-32.4	13.9	1.50e-06	0	43	0	945815552	19	4984
2026-01-09 01:56:58.60	259.32	17.69	-29.4	-32.6	14.1	7.00e-07	0	43	0	952107008	18	5167
2026-01-09 01:57:01.62	258.87	17.42	-29.5	-32.4	14.0	2.21e-03	0	43	0	957349888	19	4986
2026-01-09 01:57:04.63	258.43	17.14	-29.5	-32.4	13.9	2.36e-03	0	43	0	962592768	19	4994
2026-01-09 01:57:07.64	258.00	16.87	-29.6	-32.5	13.7	2.13e-03	0	43	0	968884224	19	5053
2026-01-09 01:57:10.66	257.57	16.60	-29.6	-32.7	13.7	1.32e-03	0	43	0	974127104	19	5095
2026-01-09 01:57:13.68	257.16	16.33	-29.9	-33.3	13.3	1.08e-03	0	43	0	980418560	19	5344
2026-01-09 01:57:16.69	256.75	16.07	-29.9	-33.3	13.3	2.02e-03	0	43	0	985661440	19	5341
2026-01-09 01:57:19.71	256.35	15.80	-29.9	-32.9	13.1	2.24e-03	0	43	0	990904320	20	5107
2026-01-09 01:57:22.73	255.95	15.53	-29.9	-32.9	13.0	2.34e-03	0	43	0	997195776	20	5104
2026-01-09 01:57:25.74	255.56	15.27	-30.0	-33.7	13.0	2.51e-05	0	43	0	1002438656	19	5499
2026-01-09 01:57:28.75	255.18	15.01	-30.1	-33.6	12.6	8.77e-05	0	43	0	1008730112	20	5369
2026-01-09 01:57:31.76	254.81	14.75	-30.3	-34.2	12.1	1.46e-04	0	43	0	1013972992	20	5638
2026-01-09 01:57:34.77	254.44	14.49	-30.2	-34.0	12.2	2.97e-04	0	43	0	1019215872	20	5539
2026-01-09 01:57:37.79	254.08	14.24	-30.2	-33.8	12.4	4.34e-04	0	43	0	1025507328	20	5464
2026-01-09 01:57:40.81	253.73	13.98	-30.4	-34.5	11.8	8.27e-04	0	43	0	1030750208	20	5765
2026-01-09 01:57:43.82	253.38	13.73	-30.6	-34.6	11.3	8.85e-04	0	43	0	1035993088	21	5737
2026-01-09 01:57:46.83	253.04	13.47	-30.6	-34.8	11.2	1.01e-03	0	43	0	1042284544	21	5821
2026-01-09 01:57:49.85	252.70	13.22	-30.5	-34.8	11.5	2.78e-03	0	43	0	1047527424	20	5904
2026-01-09 01:57:52.87	252.37	12.97	-30.6	-34.8	11.2	5.24e-03	0	43	0	1053818880	21	5821
2026-01-09 01:57:55.89	252.04	12.73	-30.2	-33.9	12.1	3.12e-03	0	43	0	1059061760	20	5531
2026-01-09 01:57:58.90	251.72	12.48	-30.2	-34.1	12.0	2.93e-03	0	43	0	1064304640	20	5601
2026-01-09 01:58:01.90	251.41	12.24	-30.3	-34.2	11.9	3.78e-04	0	43	0	1070596096	20	5671
2026-01-09 01:58:04.90	251.10	12.00	-30.2	-34.1	11.9	3.97e-04	0	43	0	1075838976	20	5621
2026-01-09 01:58:07.92	250.80	11.75	-30.3	-34.2	11.5	3.33e-03	0	43	0	1082130432	20	5668
2026-01-09 01:58:10.94	250.50	11.51	-30.3	-34.2	11.9	3.72e-03	0	43	0	1087373312	20	5670
2026-01-09 01:58:13.96	250.21	11.28	-30.3	-34.3	11.8	3.82e-03	0	43	0	1092616192	20	5725
2026-01-09 01:58:16.98	249.92	11.04	-30.4	-34.5	11.6	3.77e-03	0	43	0	1098907648	20	5825
2026-01-09 01:58:19.99	249.63	10.80	-30.4	-34.8	11.3	5.03e-03	0	43	0	1104150528	20	5970
2026-01-09 01:58:22.99	249.35	10.57	-30.7	-35.1	10.7	5.59e-03	0	43	0	1110441984	21	6008
2026-01-09 01:58:26.01	249.08	10.34	-30.8	-35.5	10.4	4.72e-03	0	43	0	1115684864	21	6221
2026-01-09 01:58:29.04	248.81	10.11	-30.7	-35.3	10.5	4.44e-03	0	43	0	1120927744	21	6100
2026-01-09 01:58:32.05	248.54	9.88	-30.7	-35.2	10.6	7.28e-03	0	43	0	1127219200	21	6038
2026-01-09 01:58:35.06	248.28	9.65	-30.7	-35.2	10.6	8.13e-03	0	43	0	1132462080	21	6049
2026-01-09 01:58:38.08	248.02	9.43	-30.5	-34.6	11.0	5.65e-03	0	43	0	1137704960	21	5774
2026-01-09 01:58:41.09	247.77	9.20	-30.4	-34.9	11.1	1.84e-03	0	43	0	1143996416	20	6047
2026-01-09 01:58:44.10	247.52	8.98	-30.4	-34.8	11.2	1.66e-03	0	43	0	1149239296	20	6008
2026-01-09 01:58:47.12	247.27	8.76	-30.4	-34.9	11.0	2.05e-03	0	43	0	1155530752	20	6064
2026-01-09 01:58:50.13	247.03	8.54	-30.6	-35.0	10.6	3.47e-03	0	43	0	1160773632	21	5976
2026-01-09 01:58:53.16	246.79	8.32	-30.7	-35.4	10.2	5.03e-03	0	43	0	1166016512	21	6200
2026-01-09 01:58:56.18	246.55	8.10	-30.8	-36.0	9.8	9.08e-03	0	43	0	1172307968	21	6509
2026-01-09 01:58:59.20	246.32	7.89	-30.8	-35.8	9.8	1.04e-02	0	43	0	1177550848	21	6439
2026-01-09 01:59:02.22	246.09	7.67	-30.2	-35.2	9.8	1.04e-02	0	43	0	1183842304	21	6460
2026-01-09 01:59:05.23	245.87	7.46	-30.8	-35.8	9.9	1.02e-02	0	43	0	1189085184	21	6412
2026-01-09 01:59:08.25	245.65	7.25	-30.8	-36.0	9.6	1.39e-02	0	43	0	1194328064	21	6538
2026-01-09 01:59:11.26	245.43	7.04	-32.9	-47.3	3.8	1.49e+00	0	43	104	1198522368	25	18937

#Closed at: 2026-01-09 01:59:12
#Recorded file [1198 MB]: D:/data/31010_260109_044830.dat