passes_logs/2026/01/09/R2M6_AANII_01/R2M6_AANII_01__20260109_012737_SUOMI_NPP_rec.log

#Pass ID: 20260109_012737_SUOMI NPP
#Satellite: SUOMI NPP
#Configuration: NPP
#almurnet v.1.7.20240730
#Start time: 2026-01-09 01:27:39

#Version: 2.2.20231116
#Station: R2M6_AANII_01
#Location: 30.233357 lon 59.946436 lat
#TLE: 1 37849U 11061A   26008.05542337  .00000108  00000+0  71976-4 0  9997
#TLE: 2 37849  98.7805 310.1641 0002540  75.6410 284.5048 14.19523335735721

#Time	Az	El	Level	Level2	SNR	BER	BlckErr	Temp	State	Recorded	gain1	gain2
2026-01-09 01:27:39.70	13.39	7.14	-31.8	-38.1	4.6	1.38e+00	0	41	0	0	23	7419
2026-01-09 01:27:42.71	13.24	7.36	-31.8	-37.6	6.5	2.25e-01	0	41	0	1048576	23	7023
2026-01-09 01:27:45.72	13.08	7.59	-31.6	-36.6	7.3	1.29e-01	0	41	0	7340032	23	6364
2026-01-09 01:27:48.74	12.92	7.81	-31.9	-37.6	6.6	1.52e-01	0	41	0	12582912	23	6995
2026-01-09 01:27:51.76	12.76	8.04	-31.3	-35.6	8.5	6.14e-02	0	41	0	18874368	22	5887
2026-01-09 01:27:54.78	12.59	8.27	-30.6	-33.6	10.5	8.81e-03	0	41	0	24117248	21	5044
2026-01-09 01:27:57.81	12.42	8.50	-30.4	-33.2	11.1	4.45e-03	0	41	0	29360128	20	4980
2026-01-09 01:28:00.82	12.25	8.74	-30.7	-33.6	10.6	5.21e-03	0	41	0	35651584	21	5042
2026-01-09 01:28:03.82	12.08	8.97	-30.3	-33.1	11.3	1.42e-03	0	41	0	40894464	20	4924
2026-01-09 01:28:06.56	11.92	9.18	-30.3	-32.8	11.5	1.14e-03	0	41	0	47185920	20	4812
2026-01-09 01:28:09.86	11.72	9.45	-30.3	-33.0	11.4	7.61e-04	0	41	0	52428800	20	4900
2026-01-09 01:28:12.59	11.56	9.66	-30.2	-32.6	11.7	6.27e-04	0	41	0	57671680	20	4763
2026-01-09 01:28:15.89	11.35	9.93	-30.1	-32.2	12.0	4.20e-04	0	41	0	63963136	20	4589
2026-01-09 01:28:18.62	11.18	10.15	-30.1	-32.4	11.9	5.03e-04	0	41	0	69206016	20	4652
2026-01-09 01:28:21.93	10.97	10.42	-30.3	-32.8	11.6	5.97e-04	0	41	0	75497472	20	4793
2026-01-09 01:28:24.67	10.79	10.65	-30.0	-31.8	12.3	1.09e-04	0	42	0	80740352	20	4454
2026-01-09 01:28:27.97	10.57	10.92	-30.2	-32.4	12.0	7.16e-04	0	42	0	87031808	20	4661
2026-01-09 01:28:30.70	10.38	11.15	-29.9	-32.1	12.5	9.61e-05	0	42	0	92274688	19	4618
2026-01-09 01:28:34.01	10.16	11.43	-29.8	-31.4	12.6	3.28e-04	0	42	0	98566144	20	4334
2026-01-09 01:28:36.74	9.96	11.67	-29.9	-31.5	12.5	1.07e-04	0	42	0	102760448	20	4359
2026-01-09 01:28:40.04	9.73	11.95	-30.0	-31.8	12.4	2.97e-04	0	42	0	109051904	20	4442
2026-01-09 01:28:42.77	9.53	12.19	-30.0	-32.0	12.2	3.81e-04	0	42	0	114294784	20	4512
2026-01-09 01:28:46.08	9.28	12.48	-30.1	-32.1	12.3	6.26e-04	0	42	0	120586240	20	4543
2026-01-09 01:28:48.81	9.08	12.72	-30.4	-32.6	11.7	8.14e-04	0	42	0	125829120	21	4610
2026-01-09 01:28:52.12	8.82	13.02	-30.6	-32.9	11.5	1.20e-03	0	42	0	132120576	21	4722
2026-01-09 01:28:54.85	8.61	13.27	-30.3	-32.5	12.1	4.11e-04	0	42	0	137363456	20	4677
2026-01-09 01:28:58.17	8.34	13.57	-29.9	-31.4	12.9	1.08e-04	0	42	0	143654912	20	4303
2026-01-09 01:29:00.90	8.12	13.82	-29.9	-31.5	12.8	1.94e-04	0	42	0	148897792	20	4311
2026-01-09 01:29:04.21	7.84	14.13	-29.8	-31.2	13.0	6.25e-05	0	42	0	155189248	20	4238
2026-01-09 01:29:06.92	7.61	14.38	-30.1	-32.0	12.6	3.42e-04	0	42	0	159383552	20	4477
2026-01-09 01:29:10.23	7.32	14.70	-30.0	-31.8	12.6	7.40e-05	0	42	0	165675008	20	4426
2026-01-09 01:29:12.97	7.08	14.96	-30.0	-31.7	12.8	1.88e-04	0	42	0	170917888	20	4364
2026-01-09 01:29:16.27	6.78	15.28	-30.0	-31.8	12.7	7.32e-05	0	42	0	177209344	20	4402
2026-01-09 01:29:18.99	6.53	15.54	-29.9	-31.5	12.9	3.66e-05	0	42	0	182452224	20	4309
2026-01-09 01:29:22.31	6.22	15.87	-30.2	-32.2	12.4	7.62e-05	0	42	0	188743680	20	4565
2026-01-09 01:29:25.04	5.96	16.14	-30.2	-32.4	12.3	9.30e-05	0	42	0	193986560	20	4612
2026-01-09 01:29:28.34	5.63	16.47	-30.0	-31.9	11.8	2.75e-04	0	42	0	200278016	20	4438
2026-01-09 01:29:31.07	5.36	16.75	-30.1	-32.0	12.6	3.97e-04	0	42	0	205520896	20	4464
2026-01-09 01:29:34.37	5.02	17.09	-30.1	-32.1	12.5	2.72e-04	0	43	0	211812352	20	4496
2026-01-09 01:29:37.10	4.73	17.37	-30.1	-32.0	12.7	6.40e-05	0	42	0	216006656	20	4465
2026-01-09 01:29:40.42	4.38	17.72	-30.0	-31.6	12.9	2.50e-03	0	42	0	222298112	20	4332
2026-01-09 01:29:43.15	4.08	18.01	-29.9	-31.5	13.1	3.28e-05	0	43	0	227540992	20	4293
2026-01-09 01:29:46.45	3.71	18.36	-30.3	-32.5	12.3	1.04e-04	0	42	0	233832448	20	4638
2026-01-09 01:29:49.18	3.40	18.65	-30.0	-31.7	12.9	4.73e-05	0	43	0	239075328	20	4357
2026-01-09 01:29:52.49	3.01	19.01	-30.0	-31.7	13.0	7.78e-05	0	43	0	245366784	20	4371
2026-01-09 01:29:55.23	2.69	19.31	-30.0	-31.6	13.1	2.65e-03	0	42	0	250609664	20	4318
2026-01-09 01:29:58.52	2.29	19.68	-30.0	-32.0	13.2	2.35e-03	0	43	0	256901120	19	4521
2026-01-09 01:30:01.26	1.94	19.98	-29.8	-31.6	13.5	4.50e-06	0	43	0	262144000	19	4389
2026-01-09 01:30:04.57	1.52	20.36	-30.0	-31.4	13.3	2.63e-03	0	43	0	268435456	20	4259
2026-01-09 01:30:07.31	1.16	20.67	-29.9	-31.8	13.3	1.29e-05	0	43	0	272629760	19	4469
2026-01-09 01:30:10.62	0.72	21.05	-29.8	-31.1	13.4	2.65e-03	0	43	0	278921216	20	4157
2026-01-09 01:30:13.35	0.35	21.37	-30.0	-31.6	13.1	2.68e-03	0	43	0	284164096	20	4334
2026-01-09 01:30:16.66	359.88	21.76	-30.0	-31.6	13.1	5.26e-05	0	43	0	290455552	20	4329
2026-01-09 01:30:19.39	359.49	22.08	-30.1	-31.8	13.0	2.61e-03	0	43	0	295698432	20	4383
2026-01-09 01:30:22.69	359.01	22.48	-30.5	-32.5	12.2	2.72e-03	0	43	0	301989888	21	4514
2026-01-09 01:30:25.42	358.60	22.81	-30.2	-32.2	12.7	2.43e-03	0	43	0	307232768	20	4527
2026-01-09 01:30:28.74	358.09	23.21	-30.6	-32.7	12.0	2.92e-03	0	43	0	313524224	21	4597
2026-01-09 01:30:31.47	357.65	23.54	-30.4	-32.3	12.3	1.91e-04	0	43	0	318767104	21	4466
2026-01-09 01:30:34.78	357.12	23.95	-30.3	-32.5	12.6	7.78e-05	0	43	0	325058560	20	4621
2026-01-09 01:30:37.51	356.67	24.29	-30.3	-32.3	12.7	2.41e-03	0	43	0	329252864	20	4541
2026-01-09 01:30:40.82	356.10	24.71	-30.1	-31.8	13.1	3.66e-05	0	43	0	335544320	20	4372
2026-01-09 01:30:43.55	355.63	25.06	-30.2	-32.1	13.0	2.09e-03	0	43	0	340787200	20	4456
2026-01-09 01:30:46.85	355.04	25.48	-30.2	-32.0	13.0	3.81e-05	0	43	0	347078656	20	4423
2026-01-09 01:30:49.59	354.54	25.83	-30.3	-32.4	12.8	9.99e-05	0	43	0	352321536	20	4550
2026-01-09 01:30:52.89	353.92	26.26	-30.5	-32.3	12.4	1.65e-03	0	43	0	358612992	21	4458
2026-01-09 01:30:55.61	353.40	26.61	-30.2	-32.0	12.9	5.56e-05	0	43	0	363855872	20	4442
2026-01-09 01:30:58.92	352.74	27.05	-30.7	-32.9	12.1	2.26e-04	0	43	0	370147328	21	4648
2026-01-09 01:31:01.64	352.19	27.40	-30.9	-33.5	11.7	5.35e-04	0	43	0	375390208	21	4853
2026-01-09 01:31:04.94	351.51	27.84	-30.7	-33.1	12.0	2.03e-04	0	43	0	380633088	21	4708
2026-01-09 01:31:07.66	350.93	28.20	-31.2	-33.9	11.1	8.03e-04	0	43	0	385875968	22	4940
2026-01-09 01:31:10.97	350.21	28.65	-31.2	-34.0	11.1	4.75e-03	0	43	0	392167424	22	4968
2026-01-09 01:31:13.71	349.59	29.01	-31.7	-35.1	9.6	3.73e-03	0	43	0	397410304	23	5316
2026-01-09 01:31:17.01	348.84	29.46	-31.8	-35.6	9.5	1.58e-02	0	43	0	403701760	23	5559
2026-01-09 01:31:19.75	348.19	29.83	-32.0	-36.0	8.7	2.24e-02	0	43	0	408944640	24	5691
2026-01-09 01:31:23.04	347.39	30.27	-31.8	-35.7	9.3	1.92e-02	0	43	0	415236096	23	5656
2026-01-09 01:31:25.78	346.71	30.64	-31.8	-35.2	9.2	2.81e-02	0	43	0	420478976	24	5338
2026-01-09 01:31:29.09	345.87	31.09	-31.6	-34.9	9.9	1.03e-02	0	43	0	426770432	23	5229
2026-01-09 01:31:31.82	345.16	31.46	-31.6	-34.7	10.2	8.55e-03	0	43	0	432013312	23	5147
2026-01-09 01:31:35.14	344.27	31.91	-32.0	-35.7	9.0	2.18e-02	0	43	0	437256192	24	5517
2026-01-09 01:31:37.88	343.52	32.28	-31.7	-35.0	9.9	1.37e-02	0	43	0	442499072	23	5289
2026-01-09 01:31:41.17	342.59	32.72	-31.0	-33.4	11.4	2.26e-03	0	43	0	448790528	22	4730
2026-01-09 01:31:43.90	341.80	33.08	-31.5	-34.3	10.3	4.73e-03	0	43	0	454033408	23	5018
2026-01-09 01:31:47.20	340.82	33.52	-31.4	-34.1	10.6	5.39e-03	0	43	0	460324864	23	4911
2026-01-09 01:31:49.94	339.99	33.88	-30.7	-32.9	12.0	2.52e-03	0	43	0	465567744	21	4653
2026-01-09 01:31:53.24	338.96	34.32	-30.5	-32.4	12.4	1.30e-04	0	43	0	471859200	21	4484
2026-01-09 01:31:55.97	338.09	34.67	-30.7	-32.9	12.2	2.42e-03	0	43	0	477102080	21	4634
2026-01-09 01:31:59.28	337.01	35.09	-30.9	-33.5	11.6	5.56e-04	0	43	0	483393536	21	4879
2026-01-09 01:32:02.01	336.10	35.44	-31.2	-34.2	10.8	3.16e-03	0	43	0	488636416	22	5079
2026-01-09 01:32:05.31	334.96	35.85	-32.0	-36.2	8.4	2.27e-02	0	43	0	493879296	24	5869
2026-01-09 01:32:08.04	334.01	36.18	-31.7	-35.5	9.4	2.92e-02	0	43	0	499122176	23	5586
2026-01-09 01:32:11.35	332.82	36.57	-31.7	-35.4	9.5	9.82e-03	0	43	0	505413632	23	5512
2026-01-09 01:32:14.09	331.82	36.89	-31.7	-35.3	9.7	1.47e-02	0	43	0	510656512	23	5446
2026-01-09 01:32:17.39	330.58	37.27	-31.5	-34.5	10.3	6.80e-03	0	43	0	516947968	23	5090
2026-01-09 01:32:20.13	329.53	37.57	-31.0	-33.3	11.5	7.39e-04	0	43	0	522190848	22	4709
2026-01-09 01:32:23.43	328.24	37.93	-30.9	-33.6	11.6	3.04e-04	0	43	0	528482304	21	4924
2026-01-09 01:32:26.17	327.15	38.21	-30.9	-33.3	11.3	2.44e-03	0	43	0	533725184	22	4713
2026-01-09 01:32:29.48	325.81	38.54	-30.5	-32.6	12.2	2.66e-04	0	43	0	540016640	21	4580
2026-01-09 01:32:32.21	324.68	38.80	-30.5	-32.5	12.3	4.58e-04	0	43	0	545259520	21	4532
2026-01-09 01:32:35.52	323.29	39.10	-30.0	-31.6	13.3	2.36e-05	0	43	0	550502400	20	4326
2026-01-09 01:32:38.24	322.12	39.34	-29.9	-31.1	13.6	1.52e-05	0	43	0	555745280	20	4175
2026-01-09 01:32:41.55	320.69	39.61	-30.6	-32.8	12.2	3.78e-04	0	43	0	562036736	21	4625
2026-01-09 01:32:44.29	319.48	39.82	-29.6	-30.5	14.0	3.43e-05	0	43	0	567279616	20	3977
2026-01-09 01:32:47.59	318.00	40.05	-30.1	-31.8	13.2	2.59e-05	0	43	0	573571072	20	4391
2026-01-09 01:32:50.33	316.76	40.23	-29.8	-31.4	13.8	1.06e-05	0	43	0	578813952	19	4327
2026-01-09 01:32:53.64	315.25	40.43	-30.4	-32.6	12.6	1.17e-04	0	43	0	585105408	20	4660
2026-01-09 01:32:56.37	313.98	40.57	-29.6	-30.8	14.3	0.00e+00	0	43	0	590348288	19	4154
2026-01-09 01:32:59.68	312.43	40.73	-30.3	-32.3	12.9	2.97e-04	0	43	0	596639744	20	4537
2026-01-09 01:33:02.41	311.15	40.84	-29.4	-30.4	14.5	1.62e-04	0	43	0	601882624	19	4023
2026-01-09 01:33:05.72	309.58	40.95	-29.7	-31.2	14.0	3.16e-04	0	43	0	607125504	19	4280
2026-01-09 01:33:08.45	308.27	41.02	-29.7	-30.6	14.0	3.16e-04	0	43	0	612368384	20	3989
2026-01-09 01:33:11.76	306.69	41.09	-28.9	-29.5	15.3	1.28e-04	0	43	0	618659840	18	3887
2026-01-09 01:33:14.49	305.37	41.13	-29.8	-31.4	14.1	8.31e-05	0	43	0	623902720	19	4320
2026-01-09 01:33:17.81	303.77	41.15	-29.6	-30.4	14.1	6.10e-06	0	43	0	630194176	20	3938
2026-01-09 01:33:20.53	302.46	41.15	-30.2	-32.1	12.9	6.63e-05	0	43	0	635437056	20	4474
2026-01-09 01:33:23.84	300.86	41.12	-30.2	-32.1	13.0	1.22e-05	0	43	0	641728512	20	4476
2026-01-09 01:33:26.58	299.55	41.09	-30.6	-32.1	12.3	4.29e-04	0	43	0	646971392	22	4293
2026-01-09 01:33:29.90	297.95	41.02	-31.3	-34.4	10.9	1.92e-03	0	43	0	653262848	22	5118
2026-01-09 01:33:32.63	296.65	40.94	-32.3	-36.9	8.0	3.98e-02	0	43	0	658505728	24	6156
2026-01-09 01:33:35.92	295.09	40.83	-32.2	-36.3	8.3	3.54e-02	0	43	0	663748608	24	5801
2026-01-09 01:33:38.65	293.80	40.71	-32.0	-35.9	9.0	5.51e-02	0	43	0	668991488	24	5604
2026-01-09 01:33:41.96	292.25	40.56	-32.0	-35.9	8.9	2.39e-02	0	43	0	675282944	24	5626
2026-01-09 01:33:44.70	290.98	40.41	-32.9	-39.5	6.0	2.89e-01	0	43	0	680525824	25	7685
2026-01-09 01:33:48.00	289.47	40.21	-32.1	-36.5	8.3	8.10e-02	0	43	0	686817280	24	5936
2026-01-09 01:33:50.74	288.23	40.03	-31.9	-35.4	9.2	1.75e-02	0	43	0	692060160	24	5417
2026-01-09 01:33:54.04	286.76	39.80	-32.5	-38.2	6.6	1.34e-01	0	43	0	698351616	25	6882
2026-01-09 01:33:56.76	285.56	39.59	-31.6	-34.8	9.5	3.60e-02	0	43	0	703594496	24	5157
2026-01-09 01:34:00.06	284.12	39.32	-31.4	-34.3	10.4	6.76e-03	0	43	0	709885952	23	5014
2026-01-09 01:34:02.78	282.96	39.08	-32.1	-36.2	8.6	1.48e-02	0	43	0	715128832	24	5770
2026-01-09 01:34:06.09	281.56	38.78	-31.4	-34.1	10.7	5.64e-03	0	43	0	720371712	23	4885
2026-01-09 01:34:08.81	280.44	38.52	-31.4	-34.4	10.9	1.28e-03	0	43	0	725614592	22	5079
2026-01-09 01:34:12.12	279.10	38.18	-31.1	-33.5	11.6	1.17e-03	0	43	0	731906048	22	4750
2026-01-09 01:34:14.84	278.01	37.90	-30.3	-32.3	12.8	1.17e-04	0	43	0	737148928	20	4523
2026-01-09 01:34:18.13	276.73	37.55	-28.7	-29.6	15.5	1.62e-03	0	43	0	743440384	17	4011
2026-01-09 01:34:20.85	275.68	37.24	-30.0	-31.6	13.1	1.85e-03	0	43	0	748683264	20	4336
2026-01-09 01:34:24.13	274.45	36.87	-30.2	-32.2	12.8	2.46e-03	0	43	0	754974720	20	4527
2026-01-09 01:34:26.88	273.44	36.54	-29.8	-31.5	13.7	1.37e-05	0	43	0	760217600	19	4366
2026-01-09 01:34:30.18	272.26	36.15	-30.2	-31.6	12.9	4.98e-04	0	43	0	765460480	21	4240
2026-01-09 01:34:32.91	271.30	35.81	-29.8	-31.6	13.6	1.48e-03	0	43	0	770703360	19	4394
2026-01-09 01:34:36.20	270.17	35.40	-29.5	-31.0	14.4	2.36e-04	0	43	0	776994816	18	4290
2026-01-09 01:34:38.92	269.26	35.06	-31.3	-34.4	10.6	3.96e-03	0	43	0	782237696	22	5116
2026-01-09 01:34:42.21	268.18	34.64	-30.3	-32.2	12.6	3.31e-04	0	43	0	788529152	20	4508
2026-01-09 01:34:44.95	267.31	34.28	-30.5	-32.3	12.3	2.33e-03	0	43	0	793772032	21	4463
2026-01-09 01:34:48.25	266.28	33.85	-30.5	-32.6	12.3	3.67e-03	0	43	0	800063488	21	4548
2026-01-09 01:34:50.98	265.45	33.49	-30.9	-33.5	11.6	2.28e-03	0	43	0	805306368	21	4888
2026-01-09 01:34:54.27	264.47	33.05	-31.2	-34.3	10.7	3.77e-03	0	43	0	811597824	22	5108
2026-01-09 01:34:57.01	263.68	32.68	-31.0	-33.6	11.2	3.57e-03	0	43	0	816840704	22	4810
2026-01-09 01:35:00.32	262.74	32.24	-31.0	-33.5	11.2	3.52e-03	0	43	0	822083584	22	4792
2026-01-09 01:35:03.04	261.99	31.87	-30.9	-33.1	11.6	5.12e-03	0	43	0	827326464	22	4648
2026-01-09 01:35:06.35	261.10	31.42	-30.7	-32.8	12.1	2.21e-04	0	43	0	833617920	21	4621
2026-01-09 01:35:09.07	260.39	31.05	-30.4	-32.6	12.5	1.49e-03	0	43	0	838860800	20	4652
2026-01-09 01:35:12.38	259.55	30.60	-31.6	-34.9	9.9	6.62e-03	0	43	0	845152256	23	5265
2026-01-09 01:35:15.09	258.87	30.23	-32.3	-37.3	7.6	5.96e-02	0	43	0	850395136	24	6397
2026-01-09 01:35:18.39	258.07	29.79	-31.4	-34.9	10.1	8.52e-03	0	43	0	856686592	22	5377
2026-01-09 01:35:21.12	257.43	29.42	-31.2	-34.2	10.6	2.67e-03	0	43	0	861929472	22	5077
2026-01-09 01:35:24.43	256.66	28.97	-30.5	-32.9	12.2	2.45e-04	0	43	0	867172352	20	4769
2026-01-09 01:35:27.16	256.05	28.60	-30.6	-32.9	11.9	5.01e-04	0	43	0	872415232	21	4666
2026-01-09 01:35:30.47	255.32	28.16	-30.2	-32.2	12.7	4.73e-05	0	43	0	878706688	20	4512
2026-01-09 01:35:33.20	254.74	27.79	-30.3	-32.5	12.5	6.02e-05	0	43	0	883949568	20	4614
2026-01-09 01:35:36.51	254.05	27.35	-31.0	-33.5	11.1	1.13e-03	0	43	0	890241024	22	4813
2026-01-09 01:35:39.24	253.50	26.99	-30.6	-32.2	12.0	2.94e-04	0	43	0	895483904	22	4340
2026-01-09 01:35:42.55	252.84	26.55	-30.0	-31.7	13.0	2.30e-03	0	43	0	901775360	20	4353
2026-01-09 01:35:45.29	252.32	26.20	-29.9	-31.4	13.1	2.05e-05	0	43	0	907018240	20	4264
2026-01-09 01:35:48.60	251.69	25.77	-30.1	-31.8	12.9	1.67e-05	0	43	0	913309696	20	4406
2026-01-09 01:35:51.32	251.19	25.42	-30.0	-31.7	13.0	1.68e-03	0	43	0	918552576	20	4376
2026-01-09 01:35:54.62	250.60	24.99	-30.6	-32.9	11.7	2.15e-04	0	43	0	923795456	21	4709
2026-01-09 01:35:57.35	250.13	24.65	-30.7	-33.2	11.5	5.31e-04	0	43	0	929038336	21	4810
2026-01-09 01:36:00.65	249.56	24.23	-30.9	-33.8	11.1	4.16e-03	0	43	0	935329792	21	5038
2026-01-09 01:36:03.40	249.11	23.89	-30.9	-33.9	10.9	1.15e-03	0	43	0	940572672	21	5087
2026-01-09 01:36:06.70	248.57	23.48	-30.5	-32.6	11.9	2.16e-03	0	43	0	946864128	21	4574
2026-01-09 01:36:09.43	248.14	23.14	-30.0	-31.7	12.9	3.16e-03	0	43	0	952107008	20	4376
2026-01-09 01:36:12.73	247.63	22.74	-30.6	-33.0	11.7	6.70e-04	0	43	0	958398464	21	4708
2026-01-09 01:36:15.46	247.21	22.41	-30.4	-32.7	12.2	2.67e-03	0	43	0	963641344	20	4691
2026-01-09 01:36:18.76	246.73	22.01	-29.9	-32.0	13.0	2.23e-03	0	43	0	969932800	19	4558
2026-01-09 01:36:21.48	246.34	21.69	-29.7	-31.4	13.4	1.25e-03	0	43	0	975175680	19	4347
2026-01-09 01:36:24.78	245.87	21.30	-30.2	-32.2	12.5	9.76e-05	0	43	0	980418560	20	4542
2026-01-09 01:36:27.51	245.50	20.98	-31.2	-34.3	10.2	5.58e-03	0	43	0	985661440	22	5140
2026-01-09 01:36:30.82	245.05	20.60	-31.4	-34.2	10.0	7.41e-03	0	43	0	991952896	23	5018
2026-01-09 01:36:33.56	244.69	20.28	-31.1	-33.8	10.7	4.00e-03	0	43	0	997195776	22	4931
2026-01-09 01:36:36.86	244.27	19.91	-30.6	-32.8	11.9	4.75e-04	0	43	0	1003487232	21	4653
2026-01-09 01:36:39.59	243.92	19.60	-30.4	-32.8	12.1	2.37e-03	0	43	0	1008730112	20	4727
2026-01-09 01:36:42.92	243.52	19.23	-30.4	-32.8	11.9	3.30e-04	0	43	0	1015021568	20	4732
2026-01-09 01:36:45.65	243.19	18.93	-30.5	-32.5	11.8	4.99e-04	0	43	0	1020264448	21	4559
2026-01-09 01:36:48.95	242.80	18.57	-30.0	-31.7	12.7	1.19e-04	0	43	0	1026555904	20	4369
2026-01-09 01:36:51.69	242.49	18.28	-29.7	-31.1	13.5	6.80e-06	0	43	0	1031798784	19	4278
2026-01-09 01:36:55.00	242.11	17.92	-29.6	-31.1	13.4	3.80e-06	0	43	0	1037041664	19	4274
2026-01-09 01:36:57.72	241.82	17.64	-30.0	-31.7	12.7	8.01e-05	0	43	0	1042284544	20	4368
2026-01-09 01:37:01.03	241.46	17.29	-30.4	-32.4	11.9	5.18e-04	0	43	0	1048576000	21	4516
2026-01-09 01:37:03.76	241.17	17.00	-30.0	-31.9	12.4	1.98e-04	0	43	0	1053818880	20	4475
2026-01-09 01:37:07.07	240.83	16.66	-30.2	-32.2	12.3	1.60e-03	0	43	0	1060110336	20	4560
2026-01-09 01:37:09.80	240.55	16.39	-30.2	-32.4	12.0	1.47e-04	0	43	0	1065353216	20	4609
2026-01-09 01:37:13.10	240.23	16.05	-30.3	-32.6	12.0	2.33e-03	0	43	0	1071644672	20	4690
2026-01-09 01:37:15.84	239.96	15.78	-30.1	-32.0	12.3	1.30e-04	0	43	0	1076887552	20	4500
2026-01-09 01:37:19.13	239.65	15.46	-30.3	-32.7	11.9	1.41e-03	0	43	0	1083179008	20	4749
2026-01-09 01:37:21.86	239.40	15.19	-31.1	-34.2	10.0	7.31e-03	0	43	0	1088421888	22	5154
2026-01-09 01:37:25.14	239.10	14.87	-31.1	-34.1	10.1	7.24e-03	0	43	0	1093664768	22	5109
2026-01-09 01:37:27.87	238.85	14.61	-30.8	-33.6	10.8	2.28e-03	0	43	0	1098907648	21	4977
2026-01-09 01:37:31.18	238.56	14.29	-31.1	-34.3	9.9	1.28e-02	0	43	0	1105199104	22	5189
2026-01-09 01:37:33.90	238.33	14.04	-30.9	-34.0	10.6	4.36e-03	0	43	0	1110441984	21	5147
2026-01-09 01:37:37.21	238.05	13.73	-30.8	-33.2	10.6	1.12e-02	0	43	0	1116733440	22	4733
2026-01-09 01:37:39.94	237.83	13.48	-30.4	-32.5	11.5	2.43e-03	0	43	0	1121976320	21	4599
2026-01-09 01:37:43.25	237.56	13.17	-30.4	-32.7	11.5	5.90e-04	0	43	0	1128267776	21	4657
2026-01-09 01:37:45.97	237.34	12.93	-30.5	-33.1	11.1	2.17e-03	0	43	0	1133510656	21	4827
2026-01-09 01:37:49.27	237.09	12.63	-30.0	-32.0	12.2	2.42e-04	0	43	0	1139802112	20	4505
2026-01-09 01:37:52.00	236.88	12.39	-30.5	-33.4	11.4	5.13e-04	0	43	0	1143996416	20	5013
2026-01-09 01:37:55.30	236.63	12.10	-30.7	-33.7	10.5	2.10e-03	0	43	0	1150287872	21	5063
2026-01-09 01:37:58.03	236.43	11.86	-30.7	-33.6	10.6	6.00e-03	0	43	0	1155530752	21	5009
2026-01-09 01:38:01.35	236.19	11.57	-30.6	-33.3	10.8	3.15e-03	0	43	0	1161822208	21	4922
2026-01-09 01:38:04.07	235.99	11.34	-30.5	-33.0	11.0	3.17e-03	0	43	0	1167065088	21	4797
2026-01-09 01:38:07.38	235.76	11.06	-30.9	-34.2	10.1	4.42e-03	0	43	0	1173356544	21	5291
2026-01-09 01:38:10.10	235.58	10.83	-30.5	-33.0	11.0	3.81e-03	0	43	0	1178599424	21	4817
2026-01-09 01:38:13.40	235.36	10.55	-31.0	-34.6	9.7	1.24e-02	0	43	0	1184890880	21	5478
2026-01-09 01:38:16.13	235.17	10.33	-31.0	-34.4	9.5	1.11e-02	0	43	0	1190133760	22	5324
2026-01-09 01:38:19.45	234.96	10.05	-31.3	-35.3	8.8	2.29e-02	0	43	0	1195376640	22	5731
2026-01-09 01:38:22.18	234.79	9.83	-31.3	-35.5	8.6	2.91e-02	0	43	0	1200619520	22	5843
2026-01-09 01:38:25.48	234.58	9.56	-31.6	-36.2	7.6	7.38e-02	0	43	0	1206910976	23	6137
2026-01-09 01:38:28.21	234.41	9.35	-31.1	-34.9	9.0	2.86e-02	0	43	0	1212153856	22	5561
2026-01-09 01:38:31.52	234.21	9.08	-30.8	-34.4	9.9	8.80e-03	0	43	0	1218445312	21	5388
2026-01-09 01:38:34.25	234.05	8.87	-30.6	-33.5	10.4	4.29e-03	0	43	0	1223688192	21	5030
2026-01-09 01:38:37.55	233.85	8.61	-30.5	-33.3	10.3	8.86e-03	0	43	0	1229979648	21	4975
2026-01-09 01:38:40.28	233.70	8.40	-30.5	-33.6	10.2	2.46e-03	0	43	0	1235222528	20	5188
2026-01-09 01:38:43.59	233.51	8.15	-30.3	-33.1	10.9	5.54e-03	0	43	0	1241513984	20	4986
2026-01-09 01:38:46.32	233.36	7.94	-30.7	-34.0	10.0	5.14e-03	0	43	0	1246756864	21	5247
2026-01-09 01:38:49.64	233.18	7.69	-30.5	-33.4	10.3	6.75e-03	0	43	0	1251999744	21	5031
2026-01-09 01:38:52.36	233.03	7.48	-30.6	-33.8	10.0	8.56e-03	0	43	0	1257242624	21	5194
2026-01-09 01:38:55.65	232.85	7.24	-30.7	-34.0	9.7	1.46e-02	0	43	0	1263534080	21	5270
2026-01-09 01:38:58.38	232.71	7.04	-33.0	-45.6	3.8	1.49e+00	0	43	104	1266679808	25	15430

#Closed at: 2026-01-09 01:38:59
#Recorded file [1266 MB]: D:/data/31010_260109_042741.dat