passes_logs/2026/01/09/R2M6_AANII_01/R2M6_AANII_01__20260109_022737_FENGYUN_3D_rec.log

#Pass ID: 20260109_022737_FENGYUN 3D
#Satellite: FENGYUN 3D
#Configuration: FENGYUN 3D
#almurnet v.1.7.20240730
#Start time: 2026-01-09 02:27:36

#Version: 2.2.20231116
#Station: R2M6_AANII_01
#Location: 30.233357 lon 59.946436 lat
#TLE: 1 43010U 17072A   26008.51967461  .00000013  00000+0  27718-4 0  9992
#TLE: 2 43010  98.9935 340.2353 0002115 119.1573 240.9815 14.19693759422336

#Time	Az	El	Level	Level2	SNR	BER	BlckErr	Temp	State	Recorded	gain1	gain2
2026-01-09 02:27:36.93	18.39	6.96	-28.2	-31.3	5.5	7.81e-01	0	40	0	0	17	5142
2026-01-09 02:27:39.95	18.39	7.19	-30.0	-33.5	8.9	4.30e-02	0	40	0	5242880	20	5388
2026-01-09 02:27:42.97	18.40	7.43	-29.5	-32.5	10.0	1.46e-02	0	40	0	22020096	19	5082
2026-01-09 02:27:45.99	18.40	7.66	-28.0	-30.2	12.6	3.20e-04	0	41	0	39845888	16	4600
2026-01-09 02:27:49.02	18.40	7.90	-27.0	-28.7	13.9	1.22e-04	0	41	0	56623104	14	4389
2026-01-09 02:27:52.04	18.41	8.15	-26.9	-29.0	14.1	1.40e-04	0	41	0	73400320	13	4593
2026-01-09 02:27:55.06	18.41	8.39	-26.7	-28.6	14.3	1.29e-04	0	41	0	90177536	13	4482
2026-01-09 02:27:58.08	18.42	8.64	-26.6	-28.4	13.3	9.72e-05	0	41	0	106954752	13	4411
2026-01-09 02:28:01.10	18.42	8.89	-26.5	-28.2	14.6	5.89e-04	0	41	0	124780544	13	4348
2026-01-09 02:28:04.13	18.42	9.14	-26.5	-28.5	14.7	9.95e-05	0	41	0	141557760	12	4549
2026-01-09 02:28:07.13	18.43	9.39	-26.4	-28.3	14.8	9.38e-05	0	41	0	158334976	12	4495
2026-01-09 02:28:10.15	18.43	9.65	-26.4	-28.3	14.9	5.22e-04	0	41	0	175112192	12	4497
2026-01-09 02:28:13.18	18.44	9.91	-26.2	-27.9	15.1	4.63e-04	0	41	0	192937984	12	4377
2026-01-09 02:28:16.20	18.44	10.17	-26.3	-28.2	15.0	2.17e-05	0	41	0	209715200	12	4449
2026-01-09 02:28:19.21	18.44	10.43	-26.5	-28.5	14.8	4.39e-04	0	41	0	226492416	12	4556
2026-01-09 02:28:22.24	18.44	10.70	-26.7	-28.1	14.5	4.00e-04	0	42	0	243269632	14	4213
2026-01-09 02:28:25.26	18.45	10.97	-26.6	-28.3	14.7	2.20e-06	0	41	0	260046848	13	4387
2026-01-09 02:28:28.29	18.45	11.24	-26.9	-28.8	14.4	2.20e-06	0	41	0	277872640	13	4526
2026-01-09 02:28:31.31	18.45	11.52	-26.4	-27.8	15.0	4.53e-04	0	42	0	294649856	13	4239
2026-01-09 02:28:34.32	18.45	11.80	-26.5	-28.1	14.9	1.10e-06	0	42	0	311427072	13	4313
2026-01-09 02:28:37.34	18.45	12.08	-26.2	-27.9	15.2	1.10e-06	0	42	0	328204288	12	4367
2026-01-09 02:28:40.36	18.46	12.37	-25.9	-27.7	15.7	0.00e+00	0	42	0	344981504	11	4428
2026-01-09 02:28:43.37	18.46	12.66	-26.1	-27.6	15.5	0.00e+00	0	42	0	361758720	12	4288
2026-01-09 02:28:46.38	18.46	12.95	-25.8	-27.5	15.8	0.00e+00	0	42	0	379584512	11	4364
2026-01-09 02:28:49.41	18.46	13.25	-25.8	-27.5	15.9	0.00e+00	0	42	0	396361728	11	4363
2026-01-09 02:28:52.43	18.46	13.55	-25.6	-27.0	16.1	0.00e+00	0	42	0	413138944	11	4247
2026-01-09 02:28:55.45	18.46	13.85	-25.5	-26.8	16.2	0.00e+00	0	42	0	429916160	11	4183
2026-01-09 02:28:58.47	18.46	14.16	-25.4	-27.0	16.4	1.33e-03	0	42	0	446693376	10	4360
2026-01-09 02:29:01.49	18.46	14.47	-25.5	-26.8	16.2	0.00e+00	0	42	0	464519168	11	4195
2026-01-09 02:29:04.51	18.46	14.79	-25.6	-27.0	16.2	0.00e+00	0	42	0	481296384	11	4233
2026-01-09 02:29:07.53	18.46	15.11	-25.4	-26.7	16.4	1.26e-03	0	42	0	498073600	11	4144
2026-01-09 02:29:10.56	18.46	15.44	-25.2	-26.7	16.6	1.14e-03	0	42	0	514850816	10	4257
2026-01-09 02:29:13.58	18.46	15.77	-25.1	-26.4	16.8	1.32e-03	0	42	0	532676608	10	4183
2026-01-09 02:29:16.59	18.45	16.10	-24.9	-26.6	17.0	1.26e-03	0	42	0	549453824	9	4345
2026-01-09 02:29:19.60	18.45	16.44	-24.9	-26.4	17.1	1.16e-03	0	42	0	566231040	9	4301
2026-01-09 02:29:22.61	18.45	16.78	-24.8	-25.8	17.2	1.30e-03	0	42	0	583008256	10	4036
2026-01-09 02:29:25.63	18.45	17.12	-24.9	-26.4	17.1	0.00e+00	0	42	0	599785472	9	4309
2026-01-09 02:29:28.64	18.44	17.48	-24.7	-26.1	17.3	1.11e-03	0	42	0	616562688	9	4218
2026-01-09 02:29:31.67	18.44	17.84	-24.7	-26.0	17.4	0.00e+00	0	42	0	633339904	9	4197
2026-01-09 02:29:34.67	18.44	18.20	-24.7	-26.1	17.3	0.00e+00	0	42	0	650117120	9	4209
2026-01-09 02:29:37.69	18.43	18.57	-24.6	-25.8	17.4	0.00e+00	0	42	0	667942912	9	4154
2026-01-09 02:29:40.70	18.43	18.94	-24.5	-25.7	17.6	0.00e+00	0	42	0	684720128	9	4109
2026-01-09 02:29:43.71	18.42	19.32	-24.6	-25.8	17.5	0.00e+00	0	43	0	701497344	9	4140
2026-01-09 02:29:46.73	18.42	19.70	-24.6	-25.9	17.5	0.00e+00	0	43	0	718274560	9	4163
2026-01-09 02:29:49.74	18.41	20.10	-24.4	-25.3	17.8	0.00e+00	0	42	0	735051776	9	4022
2026-01-09 02:29:52.75	18.40	20.49	-24.2	-25.5	18.0	0.00e+00	0	42	0	752877568	8	4184
2026-01-09 02:29:55.76	18.40	20.90	-24.1	-25.3	18.1	0.00e+00	0	43	0	769654784	8	4122
2026-01-09 02:29:58.79	18.39	21.31	-24.3	-25.7	17.9	0.00e+00	0	43	0	786432000	8	4230
2026-01-09 02:30:01.81	18.38	21.73	-24.2	-25.5	18.0	0.00e+00	0	42	0	803209216	8	4193
2026-01-09 02:30:04.83	18.37	22.15	-24.1	-25.2	18.2	0.00e+00	0	42	0	819986432	8	4100
2026-01-09 02:30:07.84	18.36	22.59	-23.9	-24.9	18.3	0.00e+00	0	42	0	837812224	8	4026
2026-01-09 02:30:10.86	18.36	23.03	-23.7	-24.3	18.6	0.00e+00	0	42	0	854589440	8	3892
2026-01-09 02:30:13.88	18.34	23.47	-23.5	-24.5	13.6	0.00e+00	0	42	0	871366656	7	4047
2026-01-09 02:30:16.90	18.33	23.93	-23.6	-24.7	18.7	0.00e+00	0	42	0	888143872	7	4088
2026-01-09 02:30:19.92	18.32	24.39	-23.8	-25.1	18.6	0.00e+00	0	43	0	904921088	7	4180
2026-01-09 02:30:22.93	18.31	24.86	-23.6	-24.8	18.7	1.16e-03	0	43	0	922746880	7	4105
2026-01-09 02:30:25.94	18.30	25.34	-23.8	-24.6	18.6	1.14e-03	0	43	0	939524096	8	3962
2026-01-09 02:30:28.96	18.28	25.83	-23.7	-24.9	18.7	0.00e+00	0	43	0	956301312	7	4139
2026-01-09 02:30:31.98	18.27	26.33	-23.3	-24.0	19.1	1.06e-03	0	42	0	973078528	7	3926
2026-01-09 02:30:35.00	18.25	26.84	-23.3	-24.5	19.2	1.04e-03	0	42	0	989855744	6	4135
2026-01-09 02:30:38.02	18.24	27.36	-23.2	-24.4	19.2	9.66e-04	0	43	0	1006632960	6	4119
2026-01-09 02:30:41.05	18.22	27.89	-23.3	-24.6	19.1	1.08e-03	0	43	0	1024458752	6	4175
2026-01-09 02:30:44.07	18.20	28.43	-23.2	-24.3	19.3	1.02e-03	0	42	0	1041235968	6	4101
2026-01-09 02:30:47.09	18.18	28.98	-23.2	-24.4	19.2	1.28e-04	0	43	0	1058013184	6	4119
2026-01-09 02:30:50.10	18.16	29.54	-23.2	-24.3	19.3	1.10e-04	0	43	0	1074790400	6	4100
2026-01-09 02:30:53.11	18.14	30.11	-23.1	-24.3	19.3	8.38e-04	0	43	0	1091567616	6	4089
2026-01-09 02:30:56.13	18.12	30.69	-23.3	-24.5	19.2	0.00e+00	0	43	0	1109393408	6	4157
2026-01-09 02:30:59.15	18.09	31.29	-23.3	-24.6	19.2	9.38e-05	0	43	0	1126170624	6	4160
2026-01-09 02:31:02.18	18.07	31.90	-23.2	-23.9	19.3	8.23e-05	0	43	0	1142947840	7	3885
2026-01-09 02:31:05.19	18.04	32.52	-23.1	-24.2	19.4	0.00e+00	0	43	0	1159725056	6	4072
2026-01-09 02:31:08.21	18.01	33.15	-23.3	-24.5	19.3	0.00e+00	0	43	0	1176502272	6	4142
2026-01-09 02:31:11.23	17.98	33.80	-23.1	-24.1	19.4	2.74e-05	0	43	0	1194328064	6	4060
2026-01-09 02:31:14.25	17.95	34.46	-23.2	-24.3	19.3	0.00e+00	0	43	0	1211105280	6	4102
2026-01-09 02:31:17.27	17.91	35.14	-23.2	-24.3	19.4	0.00e+00	0	43	0	1227882496	6	4086
2026-01-09 02:31:20.30	17.88	35.83	-23.1	-24.2	19.4	0.00e+00	0	43	0	1244659712	6	4065
2026-01-09 02:31:23.30	17.84	36.53	-23.0	-24.0	19.5	0.00e+00	0	43	0	1261436928	6	4023
2026-01-09 02:31:26.30	17.80	37.25	-23.1	-24.2	19.4	0.00e+00	0	43	0	1278214144	6	4072
2026-01-09 02:31:29.32	17.76	37.99	-22.9	-23.6	19.7	0.00e+00	0	43	0	1294991360	6	3933
2026-01-09 02:31:32.34	17.71	38.74	-23.2	-24.3	19.4	0.00e+00	0	43	0	1312817152	6	4086
2026-01-09 02:31:35.36	17.67	39.51	-22.5	-23.0	20.1	0.00e+00	0	43	0	1329594368	6	3783
2026-01-09 02:31:38.39	17.62	40.30	-22.7	-23.8	19.9	0.00e+00	0	43	0	1346371584	5	4084
2026-01-09 02:31:41.40	17.56	41.11	-23.0	-24.4	19.6	0.00e+00	0	43	0	1363148800	5	4228
2026-01-09 02:31:44.42	17.50	41.93	-23.3	-24.5	19.3	0.00e+00	0	43	0	1379926016	6	4146
2026-01-09 02:31:47.43	17.44	42.78	-23.1	-24.2	19.5	0.00e+00	0	43	0	1397751808	6	4078
2026-01-09 02:31:50.45	17.38	43.64	-23.1	-24.2	19.5	0.00e+00	0	43	0	1414529024	6	4076
2026-01-09 02:31:53.46	17.31	44.52	-23.2	-24.2	19.5	0.00e+00	0	43	0	1431306240	6	4082
2026-01-09 02:31:56.48	17.24	45.42	-23.5	-24.4	19.2	6.17e-05	0	43	0	1448083456	7	4003
2026-01-09 02:31:59.50	17.16	46.35	-23.4	-24.3	19.2	0.00e+00	0	43	0	1464860672	7	3991
2026-01-09 02:32:02.51	17.08	47.29	-23.4	-24.2	19.3	0.00e+00	0	43	0	1482686464	7	3961
2026-01-09 02:32:05.53	16.99	48.26	-23.0	-24.0	19.6	0.00e+00	0	43	0	1499463680	6	4017
2026-01-09 02:32:08.55	16.89	49.25	-23.3	-24.5	19.3	0.00e+00	0	43	0	1516240896	6	4148
2026-01-09 02:32:11.56	16.79	50.26	-23.4	-24.7	19.3	0.00e+00	0	43	0	1533018112	6	4195
2026-01-09 02:32:14.58	16.67	51.29	-23.3	-24.5	19.3	0.00e+00	0	43	0	1549795328	6	4146
2026-01-09 02:32:17.59	16.55	52.35	-24.3	-25.6	18.3	0.00e+00	0	43	0	1567621120	8	4193
2026-01-09 02:32:20.62	16.42	53.43	-24.5	-25.6	18.1	0.00e+00	0	43	0	1584398336	9	4078
2026-01-09 02:32:23.64	16.28	54.54	-24.4	-25.3	18.3	0.00e+00	0	43	0	1601175552	9	3995
2026-01-09 02:32:26.66	16.12	55.67	-24.8	-26.3	17.7	5.70e-06	0	43	0	1617952768	9	4262
2026-01-09 02:32:29.68	15.96	56.82	-24.0	-24.4	18.7	0.00e+00	0	43	0	1635778560	9	3805
2026-01-09 02:32:32.70	15.77	58.00	-23.5	-23.9	19.3	0.00e+00	0	43	0	1652555776	8	3774
2026-01-09 02:32:35.71	15.57	59.19	-23.6	-24.1	19.2	0.00e+00	0	43	0	1669332992	8	3826
2026-01-09 02:32:38.73	15.35	60.42	-23.1	-23.7	19.5	0.00e+00	0	43	0	1686110208	7	3841
2026-01-09 02:32:41.76	15.10	61.67	-22.8	-22.9	19.9	0.00e+00	0	43	0	1702887424	7	3672
2026-01-09 02:32:44.78	14.82	62.94	-22.6	-23.1	20.1	0.00e+00	0	43	0	1720713216	6	3821
2026-01-09 02:32:47.81	14.51	64.24	-22.4	-22.6	20.4	0.00e+00	0	43	0	1737490432	6	3697
2026-01-09 02:32:50.82	14.17	65.55	-22.9	-23.8	19.8	0.00e+00	0	43	0	1754267648	6	3972
2026-01-09 02:32:53.84	13.78	66.89	-22.9	-23.7	19.8	0.00e+00	0	43	0	1771044864	6	3937
2026-01-09 02:32:56.87	13.33	68.26	-22.0	-22.3	20.7	0.00e+00	0	43	0	1787822080	5	3728
2026-01-09 02:32:59.88	12.82	69.63	-21.9	-22.1	20.8	0.00e+00	0	43	0	1805647872	5	3698
2026-01-09 02:33:02.89	12.22	71.03	-21.7	-22.2	21.1	0.00e+00	0	43	0	1822425088	4	3820
2026-01-09 02:33:05.90	11.52	72.44	-21.9	-22.7	20.8	0.00e+00	0	43	0	1839202304	4	3940
2026-01-09 02:33:08.91	10.69	73.86	-21.8	-22.5	20.9	0.00e+00	0	43	0	1855979520	4	3882
2026-01-09 02:33:11.93	9.69	75.30	-21.7	-22.2	21.1	2.37e-04	0	43	0	1872756736	4	3824
2026-01-09 02:33:14.96	8.45	76.76	-21.4	-21.6	21.3	0.00e+00	0	43	0	1889533952	4	3695
2026-01-09 02:33:17.97	6.89	78.22	-20.9	-21.5	21.9	0.00e+00	0	43	0	1906311168	2	3877
2026-01-09 02:33:20.99	4.88	79.68	-20.6	-21.0	22.1	5.17e-04	0	43	0	1924136960	2	3752
2026-01-09 02:33:24.01	2.18	81.14	-21.0	-21.9	21.7	2.29e-04	0	43	0	1940914176	2	3961
2026-01-09 02:33:27.04	358.40	82.58	-20.6	-21.4	22.2	0.00e+00	0	43	0	1957691392	1	3966
2026-01-09 02:33:30.06	352.82	83.98	-22.0	-23.3	20.9	4.06e-04	0	43	0	1974468608	3	4189
2026-01-09 02:33:33.08	343.95	85.30	-24.3	-25.7	18.4	2.72e-04	0	43	0	1992294400	8	4220
2026-01-09 02:33:36.09	328.96	86.42	-24.5	-25.5	18.3	0.00e+00	0	43	0	2009071616	9	4055
2026-01-09 02:33:39.11	303.91	87.11	-24.7	-26.0	18.1	0.00e+00	0	43	0	2025848832	9	4187
2026-01-09 02:33:42.13	272.94	87.05	-24.3	-25.2	18.5	0.00e+00	0	43	0	2042626048	9	3967
2026-01-09 02:33:45.15	249.47	86.27	-23.9	-24.4	18.9	0.00e+00	0	43	0	2059403264	9	3789
2026-01-09 02:33:48.18	235.58	85.10	-23.4	-23.7	19.4	0.00e+00	0	43	0	2077229056	8	3729
2026-01-09 02:33:51.21	227.35	83.77	-23.4	-24.2	19.3	0.00e+00	0	43	0	2094006272	7	3970
2026-01-09 02:33:54.22	222.13	82.36	-22.7	-23.3	20.0	0.00e+00	0	43	0	2110783488	6	3858
2026-01-09 02:33:57.24	218.56	80.92	-21.7	-22.3	21.0	0.00e+00	0	43	0	2127560704	4	3842
2026-01-09 02:34:00.26	215.99	79.46	-21.5	-21.9	21.2	0.00e+00	0	43	0	2144337920	4	3752
2026-01-09 02:34:03.29	214.05	77.99	-21.1	-21.5	21.7	0.00e+00	0	43	0	2162163712	3	3761
2026-01-09 02:34:06.32	212.54	76.52	-20.9	-21.1	21.8	0.00e+00	0	43	0	2178940928	3	3694
2026-01-09 02:34:09.33	211.35	75.07	-21.1	-21.5	21.6	0.00e+00	0	43	0	2195718144	3	3767
2026-01-09 02:34:12.35	210.38	73.63	-21.4	-22.0	21.3	0.00e+00	0	43	0	2212495360	3	3894
2026-01-09 02:34:15.37	209.57	72.19	-21.3	-21.9	21.4	0.00e+00	0	43	0	2229272576	3	3864
2026-01-09 02:34:18.38	208.89	70.78	-21.7	-22.8	19.1	0.00e+00	0	43	0	2247098368	3	4064
2026-01-09 02:34:21.40	208.30	69.39	-22.5	-23.9	20.1	0.00e+00	0	43	0	2263875584	4	4231
2026-01-09 02:34:24.42	207.80	68.01	-22.0	-22.3	20.6	1.61e-04	0	43	0	2280652800	5	3743
2026-01-09 02:34:27.44	207.36	66.65	-22.3	-23.0	20.3	3.40e-06	0	43	0	2297430016	5	3885
2026-01-09 02:34:30.46	206.98	65.31	-22.7	-23.7	20.0	4.50e-06	0	43	0	2314207232	5	4077
2026-01-09 02:34:33.48	206.64	63.99	-22.7	-23.8	19.9	1.61e-04	0	43	0	2332033024	5	4078
2026-01-09 02:34:36.49	206.34	62.70	-22.1	-22.6	20.5	2.83e-04	0	43	0	2348810240	5	3809
2026-01-09 02:34:39.50	206.07	61.44	-22.7	-23.9	19.9	0.00e+00	0	43	0	2365587456	5	4100
2026-01-09 02:34:42.51	205.82	60.19	-22.6	-23.6	20.0	3.51e-04	0	43	0	2382364672	5	4043
2026-01-09 02:34:45.52	205.60	58.97	-23.1	-24.1	19.5	3.81e-04	0	43	0	2399141888	6	4057
2026-01-09 02:34:48.54	205.40	57.77	-23.1	-24.1	19.6	0.00e+00	0	43	0	2415919104	6	4040
2026-01-09 02:34:51.56	205.22	56.59	-24.2	-25.4	18.4	4.03e-04	0	43	0	2432696320	8	4143
2026-01-09 02:34:54.58	205.05	55.44	-24.3	-25.6	18.3	4.34e-04	0	43	0	2450522112	8	4194
2026-01-09 02:34:57.60	204.90	54.31	-24.4	-25.4	18.1	0.00e+00	0	43	0	2467299328	9	4040
2026-01-09 02:35:00.63	204.76	53.20	-24.0	-25.0	18.6	0.00e+00	0	43	0	2484076544	8	4046
2026-01-09 02:35:03.64	204.63	52.13	-23.3	-24.0	19.3	7.75e-04	0	43	0	2500853760	7	3929
2026-01-09 02:35:06.66	204.51	51.07	-22.8	-23.4	19.8	0.00e+00	0	43	0	2517630976	6	3879
2026-01-09 02:35:09.67	204.40	50.04	-22.7	-23.8	19.9	0.00e+00	0	43	0	2535456768	5	4100
2026-01-09 02:35:12.70	204.29	49.02	-22.8	-24.1	19.8	0.00e+00	0	43	0	2552233984	5	4152
2026-01-09 02:35:15.73	204.20	48.03	-23.0	-23.8	19.6	0.00e+00	0	43	0	2569011200	6	3981
2026-01-09 02:35:18.74	204.11	47.06	-23.2	-24.4	19.3	0.00e+00	0	43	0	2585788416	6	4138
2026-01-09 02:35:21.76	204.02	46.12	-22.8	-23.6	19.8	0.00e+00	0	43	0	2602565632	6	3926
2026-01-09 02:35:24.78	203.95	45.19	-22.9	-23.7	19.7	0.00e+00	0	43	0	2620391424	6	3951
2026-01-09 02:35:27.81	203.87	44.28	-22.6	-23.2	20.0	0.00e+00	0	43	0	2637168640	6	3825
2026-01-09 02:35:30.83	203.80	43.40	-22.6	-23.7	19.9	0.00e+00	0	43	0	2653945856	5	4049
2026-01-09 02:35:33.85	203.74	42.54	-23.2	-24.3	19.4	0.00e+00	0	43	0	2670723072	6	4108
2026-01-09 02:35:36.86	203.68	41.70	-22.9	-23.8	19.6	0.00e+00	0	43	0	2687500288	6	3979
2026-01-09 02:35:39.87	203.62	40.87	-23.1	-24.1	19.4	0.00e+00	0	43	0	2705326080	6	4055
2026-01-09 02:35:42.89	203.57	40.07	-22.5	-23.4	20.0	0.00e+00	0	43	0	2722103296	5	3992
2026-01-09 02:35:45.91	203.51	39.28	-22.8	-24.1	19.7	0.00e+00	0	43	0	2738880512	5	4154
2026-01-09 02:35:48.93	203.47	38.51	-22.6	-23.6	19.9	1.34e-04	0	43	0	2755657728	5	4045
2026-01-09 02:35:51.95	203.42	37.75	-22.7	-23.8	19.8	0.00e+00	0	43	0	2772434944	5	4087
2026-01-09 02:35:54.96	203.38	37.02	-22.6	-23.5	19.9	0.00e+00	0	43	0	2790260736	5	4021
2026-01-09 02:35:57.96	203.34	36.30	-22.7	-23.8	19.8	1.83e-05	0	43	0	2807037952	5	4088
2026-01-09 02:36:00.97	203.30	35.60	-23.1	-24.1	19.4	6.80e-06	0	43	0	2823815168	6	4046
2026-01-09 02:36:03.98	203.26	34.91	-22.3	-23.0	20.1	0.00e+00	0	43	0	2840592384	5	3909
2026-01-09 02:36:06.99	203.23	34.23	-22.2	-22.8	20.3	0.00e+00	0	43	0	2857369600	5	3840
2026-01-09 02:36:10.01	203.19	33.57	-22.3	-23.0	20.2	0.00e+00	0	43	0	2874146816	5	3887
2026-01-09 02:36:13.03	203.16	32.93	-22.8	-24.0	19.6	0.00e+00	0	43	0	2891972608	5	4147
2026-01-09 02:36:16.05	203.13	32.29	-23.1	-24.1	19.4	1.10e-06	0	43	0	2908749824	6	4061
2026-01-09 02:36:19.06	203.11	31.67	-23.1	-24.1	19.4	1.82e-04	0	43	0	2925527040	6	4049
2026-01-09 02:36:22.08	203.08	31.06	-23.3	-24.5	19.1	0.00e+00	0	43	0	2942304256	6	4156
2026-01-09 02:36:25.09	203.05	30.47	-23.1	-24.1	19.4	0.00e+00	0	43	0	2959081472	6	4040
2026-01-09 02:36:28.10	203.03	29.89	-23.3	-24.6	19.1	0.00e+00	0	43	0	2975858688	6	4176
2026-01-09 02:36:31.12	203.01	29.32	-23.4	-24.7	19.0	0.00e+00	0	43	0	2992635904	6	4214
2026-01-09 02:36:34.14	202.98	28.76	-23.3	-24.6	19.0	0.00e+00	0	43	0	3010461696	6	4183
2026-01-09 02:36:37.15	202.96	28.21	-23.0	-24.0	19.4	0.00e+00	0	43	0	3027238912	6	4042
2026-01-09 02:36:40.17	202.94	27.67	-23.1	-24.2	19.2	0.00e+00	0	43	0	3044016128	6	4086
2026-01-09 02:36:43.19	202.93	27.14	-23.1	-24.1	19.3	0.00e+00	0	43	0	3060793344	6	4047
2026-01-09 02:36:46.21	202.91	26.62	-23.3	-24.6	19.0	0.00e+00	0	43	0	3077570560	6	4174
2026-01-09 02:36:49.21	202.89	26.12	-23.2	-24.3	19.2	0.00e+00	0	43	0	3095396352	6	4108
2026-01-09 02:36:52.23	202.87	25.62	-23.5	-24.5	18.8	0.00e+00	0	43	0	3112173568	7	4059
2026-01-09 02:36:55.24	202.86	25.13	-23.5	-24.4	18.8	0.00e+00	0	43	0	3128950784	7	4030
2026-01-09 02:36:58.26	202.84	24.65	-23.3	-24.7	18.9	0.00e+00	0	43	0	3145728000	6	4212
2026-01-09 02:37:01.28	202.83	24.17	-23.3	-24.6	18.9	0.00e+00	0	43	0	3162505216	6	4177
2026-01-09 02:37:04.30	202.82	23.71	-23.3	-24.6	18.9	0.00e+00	0	43	0	3180331008	6	4174
2026-01-09 02:37:07.31	202.81	23.26	-23.8	-25.2	18.3	0.00e+00	0	43	0	3197108224	7	4225
2026-01-09 02:37:10.32	202.79	22.81	-23.5	-24.4	18.7	0.00e+00	0	43	0	3213885440	7	4026
2026-01-09 02:37:13.35	202.78	22.37	-23.5	-24.5	18.7	0.00e+00	0	43	0	3230662656	7	4032
2026-01-09 02:37:16.37	202.77	21.93	-23.5	-24.5	18.7	0.00e+00	0	43	0	3247439872	7	4038
2026-01-09 02:37:19.39	202.76	21.51	-23.7	-24.8	18.5	0.00e+00	0	43	0	3265265664	7	4119
2026-01-09 02:37:22.39	202.75	21.09	-23.9	-25.3	18.2	7.78e-04	0	43	0	3282042880	7	4243
2026-01-09 02:37:25.41	202.74	20.68	-23.9	-25.3	18.2	0.00e+00	0	43	0	3298820096	7	4252
2026-01-09 02:37:28.43	202.73	20.27	-24.0	-25.5	18.1	0.00e+00	0	43	0	3315597312	7	4297
2026-01-09 02:37:31.45	202.72	19.88	-24.1	-25.4	17.9	7.77e-04	0	43	0	3332374528	8	4152
2026-01-09 02:37:34.47	202.72	19.48	-24.3	-25.7	17.7	8.51e-04	0	43	0	3349151744	8	4240
2026-01-09 02:37:37.49	202.71	19.10	-24.6	-26.0	17.3	7.95e-04	0	43	0	3366977536	9	4189
2026-01-09 02:37:40.50	202.70	18.72	-24.4	-25.5	17.6	7.93e-04	0	43	0	3383754752	9	4066
2026-01-09 02:37:43.52	202.70	18.34	-24.5	-25.6	17.5	8.03e-04	0	43	0	3400531968	9	4109
2026-01-09 02:37:46.54	202.69	17.97	-24.5	-25.7	17.4	0.00e+00	0	43	0	3417309184	9	4136
2026-01-09 02:37:49.56	202.68	17.61	-24.5	-25.7	17.4	8.37e-04	0	43	0	3434086400	9	4117
2026-01-09 02:37:52.58	202.68	17.25	-24.7	-26.0	17.3	9.21e-04	0	43	0	3451912192	9	4188
2026-01-09 02:37:55.58	202.67	16.90	-24.7	-26.1	17.1	0.00e+00	0	43	0	3468689408	9	4221
2026-01-09 02:37:58.59	202.67	16.55	-24.8	-26.2	17.1	0.00e+00	0	43	0	3485466624	9	4260
2026-01-09 02:38:01.62	202.66	16.21	-24.9	-26.5	16.9	8.51e-04	0	43	0	3502243840	9	4324
2026-01-09 02:38:04.64	202.66	15.87	-24.9	-26.6	16.9	1.71e-05	0	43	0	3519021056	9	4351
2026-01-09 02:38:07.66	202.66	15.54	-25.3	-26.8	16.5	0.00e+00	0	43	0	3535798272	10	4301
2026-01-09 02:38:10.68	202.65	15.21	-25.2	-26.7	16.6	2.20e-06	0	43	0	3553624064	10	4264
2026-01-09 02:38:13.71	202.65	14.88	-25.4	-27.1	16.3	8.00e-06	0	43	0	3570401280	10	4367
2026-01-09 02:38:16.73	202.65	14.56	-25.2	-26.7	16.5	1.02e-05	0	43	0	3587178496	10	4278
2026-01-09 02:38:19.74	202.64	14.25	-25.3	-26.9	16.4	0.00e+00	0	43	0	3603955712	10	4324
2026-01-09 02:38:22.76	202.64	13.93	-25.3	-27.0	16.3	8.00e-06	0	43	0	3620732928	10	4348
2026-01-09 02:38:25.77	202.64	13.63	-25.4	-27.1	16.2	1.14e-05	0	43	0	3637510144	10	4375
2026-01-09 02:38:28.80	202.64	13.32	-25.5	-27.3	16.1	0.00e+00	0	43	0	3655335936	10	4424
2026-01-09 02:38:31.83	202.64	13.02	-25.6	-27.0	16.0	0.00e+00	0	43	0	3672113152	11	4243
2026-01-09 02:38:34.85	202.63	12.72	-25.8	-27.4	15.8	0.00e+00	0	43	0	3688890368	11	4357
2026-01-09 02:38:37.87	202.63	12.43	-25.7	-27.2	15.8	3.20e-05	0	43	0	3705667584	11	4303
2026-01-09 02:38:40.89	202.63	12.14	-25.7	-27.3	15.8	2.86e-05	0	43	0	3723493376	11	4325
2026-01-09 02:38:43.91	202.63	11.85	-25.8	-27.5	15.6	1.11e-03	0	43	0	3740270592	11	4369
2026-01-09 02:38:46.94	202.63	11.57	-25.7	-27.4	15.6	1.25e-03	0	43	0	3757047808	11	4352
2026-01-09 02:38:49.95	202.63	11.29	-25.9	-27.7	15.5	0.00e+00	0	43	0	3773825024	11	4429
2026-01-09 02:38:52.96	202.63	11.01	-25.9	-27.8	15.4	1.13e-03	0	43	0	3790602240	11	4470
2026-01-09 02:38:55.99	202.63	10.74	-26.0	-27.6	15.1	1.26e-03	0	43	0	3808428032	12	4294
2026-01-09 02:38:59.01	202.63	10.47	-26.0	-27.5	15.2	1.09e-03	0	43	0	3825205248	12	4277
2026-01-09 02:39:02.02	202.63	10.20	-26.0	-27.6	15.1	1.00e-03	0	43	0	3841982464	12	4299
2026-01-09 02:39:05.03	202.63	9.94	-26.1	-27.7	15.1	1.10e-03	0	43	0	3858759680	12	4344
2026-01-09 02:39:08.04	202.63	9.68	-26.1	-27.8	15.0	1.10e-03	0	43	0	3875536896	12	4363
2026-01-09 02:39:11.05	202.63	9.42	-26.2	-27.9	14.9	0.00e+00	0	43	0	3892314112	12	4397
2026-01-09 02:39:14.07	202.63	9.16	-26.4	-28.3	14.6	1.18e-03	0	43	0	3910139904	12	4517
2026-01-09 02:39:17.09	202.63	8.91	-26.3	-28.2	14.7	1.19e-03	0	43	0	3926917120	12	4490
2026-01-09 02:39:20.10	202.63	8.66	-26.4	-28.4	14.6	2.20e-06	0	43	0	3943694336	12	4529
2026-01-09 02:39:23.12	202.63	8.41	-26.7	-28.5	14.2	3.40e-06	0	43	0	3960471552	13	4468
2026-01-09 02:39:26.14	202.63	8.16	-26.6	-28.4	14.2	3.40e-06	0	43	0	3977248768	13	4427
2026-01-09 02:39:29.16	202.63	7.92	-26.7	-28.6	14.1	5.70e-06	0	43	0	3995074560	13	4491
2026-01-09 02:39:32.17	202.64	7.68	-26.8	-28.9	13.9	4.50e-06	0	43	0	4011851776	13	4571
2026-01-09 02:39:35.19	202.64	7.44	-26.7	-28.8	13.9	3.40e-06	0	43	0	4028628992	13	4548
2026-01-09 02:39:38.21	202.64	7.20	-26.9	-29.2	13.6	1.02e-05	0	43	0	4045406208	13	4663
2026-01-09 02:39:41.23	202.64	6.97	-33.1	-44.3	3.8	8.46e-01	0	43	104	4052746240	26	13075

#Closed at: 2026-01-09 02:39:41
#Recorded file [4052 MB]: D:/data/31010_260109_052738.dat