passes_logs/2026/01/09/R2M6_AANII_01/R2M6_AANII_01__20260109_100043_NOAA_20_JPSS-1_rec.log

#Pass ID: 20260109_100043_NOAA 20 (JPSS-1)
#Satellite: NOAA 20 (JPSS-1)
#Configuration: NOAA 20
#almurnet v.1.7.20240730
#Start time: 2026-01-09 10:00:43

#Version: 2.2.20231116
#Station: R2M6_AANII_01
#Location: 30.233357 lon 59.946436 lat
#TLE: 1 43013U 17073A   26008.42245989  .00000120  00000+0  77990-4 0  9996
#TLE: 2 43013  98.7631 309.4315 0001737  48.7960 311.3365 14.19534455421802

#Time	Az	El	Level	Level2	SNR	BER	BlckErr	Temp	State	Recorded	gain1	gain2
2026-01-09 10:00:43.46	150.64	6.97	-30.7	-36.9	5.1	1.27e+00	0	41	0	0	22	7314
2026-01-09 10:00:46.47	150.60	7.21	-31.3	-38.1	7.1	1.37e-01	0	41	0	1048576	23	7874
2026-01-09 10:00:49.49	150.57	7.44	-31.2	-36.5	8.6	5.53e-02	0	42	0	7340032	23	6648
2026-01-09 10:00:52.50	150.53	7.68	-30.7	-35.4	9.9	1.17e-02	0	41	0	12582912	22	6118
2026-01-09 10:00:55.52	150.49	7.92	-30.4	-34.4	10.6	5.06e-03	0	42	0	18874368	22	5674
2026-01-09 10:00:58.54	150.45	8.17	-30.2	-34.4	10.9	2.15e-03	0	42	0	24117248	21	5845
2026-01-09 10:01:01.55	150.41	8.41	-30.0	-33.9	11.1	1.55e-03	0	42	0	29360128	21	5669
2026-01-09 10:01:04.57	150.37	8.66	-30.1	-34.1	11.1	2.18e-03	0	42	0	35651584	21	5718
2026-01-09 10:01:07.58	150.32	8.91	-30.3	-34.4	10.9	1.32e-03	0	42	0	40894464	21	5824
2026-01-09 10:01:10.60	150.28	9.16	-30.3	-34.2	11.3	1.08e-03	0	42	0	46137344	21	5636
2026-01-09 10:01:13.62	150.24	9.42	-30.3	-34.0	11.4	1.02e-03	0	42	0	52428800	21	5552
2026-01-09 10:01:16.63	150.19	9.67	-30.1	-33.6	11.8	6.05e-04	0	42	0	57671680	21	5358
2026-01-09 10:01:19.64	150.14	9.93	-30.1	-33.5	11.8	5.10e-04	0	42	0	63963136	21	5372
2026-01-09 10:01:22.65	150.10	10.20	-29.9	-33.2	12.0	3.81e-04	0	42	0	69206016	21	5230
2026-01-09 10:01:25.68	150.05	10.46	-29.8	-32.8	12.3	1.85e-04	0	42	0	74448896	21	5097
2026-01-09 10:01:28.69	150.00	10.73	-29.9	-33.4	12.3	2.23e-04	0	42	0	80740352	20	5391
2026-01-09 10:01:31.72	149.95	11.01	-29.9	-33.4	12.3	1.85e-04	0	42	0	85983232	20	5419
2026-01-09 10:01:34.73	149.90	11.28	-29.9	-33.4	12.4	1.50e-04	0	42	0	92274688	20	5369
2026-01-09 10:01:37.75	149.85	11.56	-29.9	-33.1	12.7	8.69e-05	0	42	0	97517568	20	5225
2026-01-09 10:01:40.78	149.79	11.84	-29.8	-32.9	12.9	5.26e-05	0	42	0	102760448	20	5127
2026-01-09 10:01:43.79	149.74	12.13	-29.7	-32.4	13.2	2.59e-05	0	42	0	109051904	20	4958
2026-01-09 10:01:46.80	149.68	12.41	-29.7	-32.4	13.2	2.05e-05	0	42	0	114294784	20	4954
2026-01-09 10:01:49.83	149.62	12.71	-29.8	-32.8	13.0	4.19e-05	0	42	0	120586240	20	5103
2026-01-09 10:01:52.84	149.56	13.00	-29.8	-32.9	12.9	4.73e-05	0	42	0	125829120	20	5124
2026-01-09 10:01:55.86	149.50	13.30	-30.0	-33.4	12.6	1.17e-04	0	42	0	131072000	20	5309
2026-01-09 10:01:58.88	149.44	13.60	-30.0	-33.3	12.7	1.03e-04	0	43	0	137363456	20	5305
2026-01-09 10:02:01.89	149.38	13.91	-29.8	-32.9	13.0	2.51e-05	0	42	0	142606336	20	5124
2026-01-09 10:02:04.90	149.31	14.21	-29.5	-32.1	13.6	1.22e-05	0	42	0	148897792	20	4819
2026-01-09 10:02:07.92	149.25	14.53	-29.6	-32.1	13.7	1.52e-05	0	42	0	154140672	20	4796
2026-01-09 10:02:10.94	149.18	14.85	-29.6	-32.1	13.6	6.10e-06	0	42	0	159383552	20	4800
2026-01-09 10:02:13.96	149.11	15.17	-29.6	-32.2	13.6	1.60e-05	0	43	0	165675008	20	4824
2026-01-09 10:02:16.98	149.04	15.49	-29.4	-31.6	14.0	6.10e-06	0	43	0	170917888	20	4645
2026-01-09 10:02:19.99	148.97	15.82	-29.3	-31.4	14.1	7.60e-06	0	43	0	177209344	20	4586
2026-01-09 10:02:23.01	148.89	16.16	-29.5	-31.9	13.9	8.30e-06	0	42	0	182452224	20	4730
2026-01-09 10:02:26.03	148.82	16.50	-29.6	-32.0	13.8	9.90e-06	0	43	0	187695104	20	4763
2026-01-09 10:02:29.05	148.74	16.84	-29.5	-31.7	14.0	1.14e-05	0	43	0	193986560	20	4665
2026-01-09 10:02:32.06	148.66	17.19	-29.4	-31.4	14.3	2.20e-06	0	43	0	199229440	20	4544
2026-01-09 10:02:35.09	148.57	17.55	-29.2	-31.5	14.6	3.00e-06	0	43	0	205520896	19	4686
2026-01-09 10:02:38.10	148.49	17.91	-29.4	-32.0	14.4	1.50e-06	0	43	0	210763776	19	4838
2026-01-09 10:02:41.12	148.40	18.27	-29.3	-31.7	14.5	7.00e-07	0	43	0	216006656	19	4755
2026-01-09 10:02:44.14	148.31	18.64	-29.1	-31.2	14.9	0.00e+00	0	43	0	222298112	19	4580
2026-01-09 10:02:47.16	148.22	19.02	-28.9	-30.6	15.2	0.00e+00	0	43	0	227540992	19	4386
2026-01-09 10:02:50.17	148.13	19.40	-29.0	-31.0	15.0	0.00e+00	0	43	0	233832448	19	4495
2026-01-09 10:02:53.19	148.03	19.79	-28.9	-30.6	15.3	0.00e+00	0	43	0	239075328	19	4375
2026-01-09 10:02:56.21	147.93	20.18	-28.8	-30.9	15.4	0.00e+00	0	43	0	244318208	18	4589
2026-01-09 10:02:59.23	147.83	20.58	-28.8	-30.8	15.5	0.00e+00	0	43	0	250609664	18	4542
2026-01-09 10:03:02.25	147.72	20.98	-28.8	-30.8	15.6	0.00e+00	0	43	0	255852544	18	4528
2026-01-09 10:03:05.27	147.61	21.40	-28.8	-30.7	15.6	0.00e+00	0	43	0	262144000	18	4521
2026-01-09 10:03:08.30	147.50	21.82	-28.6	-30.4	15.8	0.00e+00	0	43	0	267386880	18	4424
2026-01-09 10:03:11.31	147.38	22.24	-28.6	-30.4	15.8	0.00e+00	0	43	0	272629760	18	4428
2026-01-09 10:03:14.33	147.27	22.68	-28.6	-30.4	15.9	0.00e+00	0	43	0	278921216	18	4408
2026-01-09 10:03:17.35	147.14	23.12	-28.7	-30.6	15.8	0.00e+00	0	43	0	284164096	18	4474
2026-01-09 10:03:20.36	147.02	23.56	-28.7	-30.5	15.8	0.00e+00	0	43	0	289406976	18	4453
2026-01-09 10:03:23.38	146.89	24.02	-28.8	-30.8	15.7	0.00e+00	0	43	0	295698432	18	4539
2026-01-09 10:03:26.40	146.75	24.48	-29.1	-31.5	15.3	0.00e+00	0	43	0	300941312	18	4754
2026-01-09 10:03:29.41	146.62	24.95	-29.3	-31.9	15.0	0.00e+00	0	43	0	307232768	18	4902
2026-01-09 10:03:32.43	146.47	25.43	-29.5	-32.4	14.8	0.00e+00	0	43	0	312475648	18	5069
2026-01-09 10:03:35.44	146.33	25.92	-29.8	-32.8	14.2	0.00e+00	0	43	0	317718528	19	5088
2026-01-09 10:03:38.45	146.17	26.42	-30.0	-32.9	13.9	3.80e-06	0	43	0	324009984	20	5001
2026-01-09 10:03:41.47	146.02	26.92	-30.3	-33.6	13.4	1.44e-05	0	43	0	329252864	20	5260
2026-01-09 10:03:44.48	145.85	27.44	-30.4	-34.0	13.1	3.81e-05	0	43	0	335544320	20	5422
2026-01-09 10:03:47.50	145.68	27.96	-30.8	-34.4	12.6	1.14e-04	0	43	0	340787200	21	5491
2026-01-09 10:03:50.52	145.51	28.50	-31.0	-35.0	12.2	1.73e-04	0	43	0	346030080	21	5733
2026-01-09 10:03:53.54	145.33	29.04	-31.2	-35.3	11.6	6.76e-04	0	43	0	352321536	22	5735
2026-01-09 10:03:56.56	145.14	29.60	-31.3	-35.5	11.5	8.14e-04	0	43	0	357564416	22	5855
2026-01-09 10:03:59.57	144.94	30.17	-31.4	-35.8	11.4	1.13e-03	0	43	0	363855872	22	5965
2026-01-09 10:04:02.59	144.74	30.74	-31.7	-36.4	10.5	2.89e-03	0	43	0	369098752	23	6183
2026-01-09 10:04:05.61	144.53	31.33	-31.7	-36.2	10.7	2.50e-03	0	43	0	374341632	23	6073
2026-01-09 10:04:08.62	144.32	31.93	-31.8	-36.7	10.4	4.97e-03	0	43	0	380633088	23	6283
2026-01-09 10:04:11.63	144.09	32.54	-31.9	-37.0	10.2	5.09e-03	0	43	0	385875968	23	6445
2026-01-09 10:04:14.65	143.85	33.17	-32.1	-37.0	9.8	7.54e-03	0	43	0	392167424	24	6315
2026-01-09 10:04:17.67	143.61	33.80	-32.0	-36.7	10.1	6.98e-03	0	43	0	397410304	24	6163
2026-01-09 10:04:20.68	143.35	34.45	-32.0	-36.6	10.1	7.76e-03	0	43	0	402653184	24	6130
2026-01-09 10:04:23.70	143.09	35.11	-31.8	-36.0	10.6	4.25e-03	0	43	0	408944640	24	5813
2026-01-09 10:04:26.72	142.81	35.79	-31.7	-35.6	10.9	2.06e-03	0	43	0	414187520	24	5640
2026-01-09 10:04:29.74	142.52	36.48	-31.5	-34.8	11.4	8.11e-04	0	43	0	420478976	24	5319
2026-01-09 10:04:32.75	142.22	37.18	-31.6	-35.2	11.2	2.05e-03	0	43	0	425721856	24	5457
2026-01-09 10:04:35.77	141.90	37.90	-31.5	-34.9	11.5	1.35e-03	0	43	0	430964736	24	5311
2026-01-09 10:04:38.79	141.57	38.63	-31.6	-35.1	11.3	1.19e-03	0	43	0	437256192	24	5428
2026-01-09 10:04:41.81	141.22	39.38	-31.9	-36.3	10.4	6.17e-03	0	43	0	442499072	24	5979
2026-01-09 10:04:44.83	140.85	40.15	-31.7	-35.5	11.0	1.76e-03	0	43	0	448790528	24	5589
2026-01-09 10:04:47.84	140.47	40.92	-31.5	-34.8	11.5	1.07e-03	0	43	0	454033408	24	5291
2026-01-09 10:04:50.86	140.07	41.72	-31.4	-34.6	11.7	5.03e-04	0	43	0	459276288	24	5224
2026-01-09 10:04:53.88	139.65	42.53	-31.5	-34.9	11.5	8.27e-04	0	43	0	465567744	24	5330
2026-01-09 10:04:56.91	139.20	43.35	-31.5	-34.9	11.5	6.72e-04	0	43	0	470810624	24	5340
2026-01-09 10:04:59.93	138.73	44.20	-31.3	-34.7	12.1	4.38e-04	0	43	0	477102080	23	5321
2026-01-09 10:05:02.94	138.23	45.05	-30.9	-33.6	12.7	5.26e-05	0	43	0	482344960	23	4926
2026-01-09 10:05:05.95	137.71	45.92	-30.7	-33.4	13.3	4.04e-05	0	43	0	487587840	22	4933
2026-01-09 10:05:08.97	137.15	46.81	-30.7	-33.6	13.2	1.52e-05	0	43	0	493879296	22	4991
2026-01-09 10:05:11.99	136.57	47.72	-30.5	-32.9	13.6	1.06e-05	0	43	0	499122176	22	4759
2026-01-09 10:05:15.01	135.94	48.64	-30.6	-33.3	13.3	1.22e-05	0	43	0	505413632	22	4892
2026-01-09 10:05:18.02	135.28	49.58	-30.6	-33.1	13.5	2.36e-05	0	43	0	510656512	22	4821
2026-01-09 10:05:21.04	134.57	50.53	-30.1	-32.5	14.2	3.80e-06	0	43	0	515899392	21	4736
2026-01-09 10:05:24.06	133.82	51.50	-30.4	-33.4	13.6	6.10e-06	0	43	0	522190848	21	5040
2026-01-09 10:05:27.08	133.01	52.48	-29.9	-32.5	14.5	0.00e+00	0	43	0	527433728	20	4826
2026-01-09 10:05:30.10	132.15	53.48	-30.2	-33.2	14.1	7.00e-07	0	43	0	533725184	20	5090
2026-01-09 10:05:33.13	131.22	54.49	-30.4	-33.6	13.8	2.20e-06	0	43	0	538968064	20	5230
2026-01-09 10:05:36.14	130.23	55.50	-30.2	-32.7	14.1	4.50e-06	0	43	0	544210944	21	4801
2026-01-09 10:05:39.16	129.16	56.53	-30.9	-34.5	13.0	8.30e-06	0	43	0	550502400	21	5438
2026-01-09 10:05:42.19	128.01	57.58	-31.8	-36.3	11.0	1.20e-03	0	43	0	555745280	23	6053
2026-01-09 10:05:45.20	126.77	58.62	-32.1	-36.7	10.4	2.97e-03	0	43	0	562036736	24	6116
2026-01-09 10:05:48.22	125.42	59.67	-31.2	-34.2	12.6	2.67e-04	0	43	0	567279616	23	5125
2026-01-09 10:05:51.24	123.96	60.72	-30.8	-33.2	13.2	2.67e-05	0	43	0	572522496	23	4740
2026-01-09 10:05:54.26	122.37	61.77	-31.2	-34.8	12.5	4.80e-05	0	43	0	578813952	22	5440
2026-01-09 10:05:57.28	120.63	62.82	-31.3	-35.1	12.3	2.20e-04	0	43	0	584056832	22	5565
2026-01-09 10:06:00.29	118.75	63.86	-30.5	-33.4	13.8	1.50e-06	0	43	0	590348288	21	5013
2026-01-09 10:06:03.30	116.69	64.88	-31.6	-35.6	11.6	4.17e-04	0	43	0	595591168	23	5706
2026-01-09 10:06:06.32	114.43	65.88	-31.9	-36.0	11.0	1.97e-03	0	43	0	600834048	24	5748
2026-01-09 10:06:09.34	111.95	66.86	-32.0	-36.2	10.8	3.46e-03	0	43	0	607125504	24	5871
2026-01-09 10:06:12.35	109.25	67.81	-31.8	-35.5	11.4	9.90e-04	0	43	0	612368384	24	5531
2026-01-09 10:06:15.37	106.27	68.72	-31.1	-34.0	12.7	5.26e-05	0	43	0	618659840	23	5028
2026-01-09 10:06:18.38	103.03	69.57	-31.3	-34.7	12.3	1.81e-04	0	43	0	623902720	23	5306
2026-01-09 10:06:21.40	99.48	70.37	-30.6	-33.0	13.8	8.30e-06	0	43	0	629145600	22	4745
2026-01-09 10:06:24.40	95.65	71.09	-30.2	-32.6	14.3	2.20e-06	0	43	0	635437056	21	4747
2026-01-09 10:06:27.42	91.49	71.74	-30.0	-32.0	14.7	1.50e-06	0	43	0	640679936	21	4524
2026-01-09 10:06:30.43	87.04	72.28	-30.1	-32.2	14.6	1.50e-06	0	43	0	645922816	21	4596
2026-01-09 10:06:33.45	82.31	72.73	-31.2	-34.9	12.5	1.02e-04	0	43	0	652214272	22	5482
2026-01-09 10:06:36.47	77.35	73.05	-31.4	-34.7	12.4	1.01e-04	0	43	0	657457152	23	5303
2026-01-09 10:06:39.49	72.23	73.25	-31.8	-35.6	11.3	1.26e-03	0	43	0	663748608	24	5562
2026-01-09 10:06:42.51	67.02	73.33	-31.6	-34.9	11.8	9.36e-04	0	43	0	668991488	24	5254
2026-01-09 10:06:45.53	61.81	73.26	-31.8	-35.4	11.5	5.37e-04	0	43	0	674234368	24	5507
2026-01-09 10:06:48.55	56.68	73.07	-30.8	-33.2	13.3	1.03e-04	0	43	0	680525824	23	4737
2026-01-09 10:06:51.56	51.72	72.76	-30.3	-32.9	14.1	3.00e-06	0	43	0	685768704	21	4842
2026-01-09 10:06:54.58	46.98	72.32	-30.3	-32.9	14.0	1.50e-06	0	43	0	692060160	21	4863
2026-01-09 10:06:57.60	42.50	71.78	-30.8	-34.3	13.2	9.10e-06	0	43	0	697303040	21	5358
2026-01-09 10:07:00.62	38.32	71.14	-31.5	-35.1	11.8	4.43e-04	0	43	0	702545920	23	5476
2026-01-09 10:07:03.64	34.45	70.42	-31.1	-33.9	12.7	9.07e-05	0	43	0	708837376	23	5003
2026-01-09 10:07:06.64	30.90	69.63	-31.0	-34.1	12.9	4.27e-05	0	43	0	714080256	22	5185
2026-01-09 10:07:09.66	27.64	68.78	-31.7	-35.9	11.4	1.55e-03	0	43	0	720371712	23	5829
2026-01-09 10:07:12.67	24.66	67.88	-31.8	-36.3	11.1	1.33e-03	0	43	0	725614592	23	6035
2026-01-09 10:07:15.69	21.93	66.94	-31.2	-34.3	12.5	2.89e-04	0	43	0	730857472	23	5165
2026-01-09 10:07:18.70	19.45	65.96	-30.2	-32.7	14.1	3.00e-06	0	43	0	737148928	21	4778
2026-01-09 10:07:21.72	17.17	64.96	-29.2	-31.0	15.8	0.00e+00	0	43	0	742391808	19	4421
2026-01-09 10:07:24.75	15.09	63.94	-28.6	-30.0	16.7	0.00e+00	0	43	0	748683264	18	4264
2026-01-09 10:07:27.77	13.19	62.90	-28.5	-30.3	16.8	0.00e+00	0	43	0	753926144	17	4449
2026-01-09 10:07:30.79	11.45	61.86	-28.9	-31.3	16.2	0.00e+00	0	43	0	759169024	17	4751
2026-01-09 10:07:33.80	9.86	60.81	-30.3	-33.3	14.0	0.00e+00	0	43	0	765460480	20	5098
2026-01-09 10:07:36.82	8.39	59.76	-31.4	-35.5	11.9	4.86e-04	0	43	0	770703360	22	5760
2026-01-09 10:07:39.84	7.04	58.72	-31.9	-36.5	10.7	2.74e-03	0	43	0	776994816	23	6157
2026-01-09 10:07:42.87	5.78	57.67	-32.1	-36.5	9.9	1.04e-02	0	43	0	782237696	25	5967
2026-01-09 10:07:45.88	4.63	56.64	-31.6	-35.1	11.5	1.30e-03	0	43	0	787480576	24	5391
2026-01-09 10:07:48.90	3.56	55.61	-31.2	-34.3	12.3	6.06e-04	0	43	0	793772032	23	5161
2026-01-09 10:07:51.92	2.56	54.59	-30.4	-32.6	13.7	3.00e-06	0	43	0	799014912	22	4666
2026-01-09 10:07:54.94	1.64	53.59	-31.2	-34.8	12.3	3.35e-04	0	43	0	805306368	22	5492
2026-01-09 10:07:57.96	0.77	52.59	-30.8	-33.9	12.9	8.23e-05	0	43	0	810549248	22	5103
2026-01-09 10:08:00.98	359.96	51.61	-30.3	-32.9	13.9	4.50e-06	0	43	0	815792128	21	4868
2026-01-09 10:08:04.00	359.21	50.65	-31.2	-35.1	12.2	1.17e-04	0	43	0	822083584	22	5591
2026-01-09 10:08:07.02	358.50	49.70	-31.2	-35.0	12.2	2.47e-04	0	43	0	827326464	22	5577
2026-01-09 10:08:10.03	357.84	48.76	-31.9	-36.6	10.6	2.52e-03	0	43	0	833617920	23	6191
2026-01-09 10:08:13.04	357.21	47.85	-31.2	-34.4	12.1	2.49e-04	0	43	0	838860800	23	5233
2026-01-09 10:08:16.06	356.62	46.94	-31.0	-33.9	12.5	1.15e-04	0	43	0	844103680	23	5006
2026-01-09 10:08:19.08	356.07	46.05	-30.9	-34.0	12.8	7.85e-05	0	43	0	850395136	22	5159
2026-01-09 10:08:22.09	355.54	45.19	-31.3	-35.2	12.0	1.87e-04	0	43	0	855638016	22	5681
2026-01-09 10:08:25.10	355.05	44.33	-31.3	-35.4	11.8	4.04e-04	0	43	0	860880896	22	5744
2026-01-09 10:08:28.13	354.57	43.49	-31.7	-36.1	10.9	1.54e-03	0	43	0	867172352	23	5989
2026-01-09 10:08:31.14	354.13	42.67	-31.8	-36.3	10.8	3.74e-03	0	43	0	872415232	23	6062
2026-01-09 10:08:34.16	353.70	41.86	-31.8	-36.3	10.8	3.45e-03	0	43	0	878706688	23	6074
2026-01-09 10:08:37.18	353.30	41.07	-31.8	-36.5	10.7	3.34e-03	0	43	0	883949568	23	6175
2026-01-09 10:08:40.20	352.92	40.29	-31.9	-36.7	10.4	4.23e-03	0	43	0	889192448	23	6297
2026-01-09 10:08:43.23	352.55	39.53	-32.1	-37.2	9.7	1.08e-02	0	43	0	895483904	24	6439
2026-01-09 10:08:46.24	352.21	38.78	-31.7	-35.6	11.0	1.77e-03	0	43	0	900726784	24	5621
2026-01-09 10:08:49.26	351.87	38.05	-31.8	-36.0	10.6	3.10e-03	0	43	0	907018240	24	5839
2026-01-09 10:08:52.26	351.56	37.34	-31.0	-34.0	12.3	1.94e-04	0	43	0	912261120	23	5078
2026-01-09 10:08:55.28	351.26	36.64	-31.0	-33.9	12.4	1.33e-04	0	43	0	917504000	23	5032
2026-01-09 10:08:58.30	350.97	35.95	-30.9	-33.8	12.5	8.23e-05	0	43	0	923795456	23	4991
2026-01-09 10:09:01.32	350.69	35.27	-30.9	-33.7	12.5	1.02e-04	0	43	0	929038336	23	4975
2026-01-09 10:09:04.33	350.42	34.61	-31.0	-34.1	12.3	2.25e-04	0	43	0	935329792	23	5111
2026-01-09 10:09:07.35	350.17	33.97	-30.9	-33.6	12.6	9.38e-05	0	43	0	940572672	23	4934
2026-01-09 10:09:10.37	349.92	33.33	-31.0	-34.1	12.2	2.50e-04	0	43	0	945815552	23	5120
2026-01-09 10:09:13.39	349.69	32.71	-31.3	-34.8	11.7	5.49e-04	0	43	0	952107008	23	5403
2026-01-09 10:09:16.41	349.46	32.09	-31.6	-35.8	11.0	1.90e-03	0	43	0	957349888	23	5857
2026-01-09 10:09:19.42	349.25	31.50	-31.7	-36.2	10.7	3.28e-03	0	43	0	963641344	23	6071
2026-01-09 10:09:22.44	349.04	30.91	-31.8	-36.6	10.4	4.75e-03	0	43	0	968884224	23	6266
2026-01-09 10:09:25.45	348.84	30.33	-31.6	-35.8	11.0	2.85e-03	0	43	0	974127104	23	5864
2026-01-09 10:09:28.47	348.64	29.77	-31.5	-35.6	11.1	1.36e-03	0	43	0	980418560	23	5771
2026-01-09 10:09:31.49	348.45	29.21	-31.7	-36.3	10.7	2.44e-03	0	43	0	985661440	23	6096
2026-01-09 10:09:34.51	348.27	28.67	-31.6	-35.9	10.9	2.53e-03	0	43	0	991952896	23	5891
2026-01-09 10:09:37.53	348.10	28.13	-31.3	-34.8	11.6	5.39e-04	0	43	0	997195776	23	5428
2026-01-09 10:09:40.55	347.93	27.61	-31.0	-33.9	12.3	2.03e-04	0	43	0	1002438656	23	5057
2026-01-09 10:09:43.56	347.77	27.10	-30.9	-33.9	12.3	1.59e-04	0	43	0	1008730112	23	5059
2026-01-09 10:09:46.57	347.61	26.59	-31.0	-34.1	12.1	2.35e-04	0	43	0	1013972992	23	5143
2026-01-09 10:09:49.58	347.46	26.10	-31.1	-34.4	11.9	3.93e-04	0	43	0	1020264448	23	5265
2026-01-09 10:09:52.60	347.32	25.61	-31.1	-34.3	11.9	3.91e-04	0	43	0	1025507328	23	5243
2026-01-09 10:09:55.62	347.18	25.13	-30.9	-33.9	12.2	2.20e-04	0	43	0	1030750208	23	5060
2026-01-09 10:09:58.63	347.04	24.66	-30.8	-33.9	12.5	9.00e-05	0	43	0	1037041664	22	5175
2026-01-09 10:10:01.65	346.91	24.20	-30.4	-32.8	13.3	2.13e-05	0	43	0	1042284544	22	4756
2026-01-09 10:10:04.67	346.78	23.74	-30.5	-33.1	13.2	2.13e-05	0	43	0	1048576000	22	4859
2026-01-09 10:10:07.68	346.65	23.30	-30.3	-33.1	13.4	9.90e-06	0	43	0	1053818880	21	4970
2026-01-09 10:10:10.69	346.53	22.86	-30.5	-33.6	13.1	5.18e-05	0	43	0	1059061760	21	5156
2026-01-09 10:10:13.71	346.41	22.43	-30.6	-33.9	12.8	6.02e-05	0	43	0	1065353216	21	5294
2026-01-09 10:10:16.72	346.30	22.00	-30.5	-33.7	13.0	2.82e-05	0	43	0	1070596096	21	5193
2026-01-09 10:10:19.74	346.19	21.58	-30.5	-33.8	12.8	4.04e-05	0	43	0	1075838976	21	5238
2026-01-09 10:10:22.76	346.08	21.17	-30.6	-34.0	12.7	7.01e-05	0	43	0	1082130432	21	5320
2026-01-09 10:10:25.77	345.98	20.77	-30.7	-34.4	12.4	1.84e-04	0	43	0	1087373312	21	5522
2026-01-09 10:10:28.80	345.88	20.37	-31.0	-35.2	11.8	2.49e-04	0	43	0	1093664768	21	5865
2026-01-09 10:10:31.81	345.78	19.98	-30.9	-34.5	12.0	3.26e-04	0	43	0	1098907648	22	5453
2026-01-09 10:10:34.83	345.69	19.59	-31.0	-34.6	11.8	3.97e-04	0	43	0	1104150528	22	5501
2026-01-09 10:10:37.85	345.59	19.21	-31.0	-34.7	11.8	5.13e-04	0	43	0	1110441984	22	5515
2026-01-09 10:10:40.86	345.50	18.83	-31.0	-34.8	11.8	5.32e-04	0	43	0	1115684864	22	5551
2026-01-09 10:10:43.88	345.41	18.46	-30.9	-34.4	12.0	4.16e-04	0	43	0	1121976320	22	5403
2026-01-09 10:10:46.90	345.33	18.10	-30.9	-34.5	12.0	3.42e-04	0	43	0	1127219200	22	5431
2026-01-09 10:10:49.91	345.25	17.74	-31.2	-35.5	11.1	1.36e-03	0	43	0	1132462080	22	5915
2026-01-09 10:10:52.93	345.17	17.39	-31.1	-35.1	11.4	8.52e-04	0	43	0	1138753536	22	5737
2026-01-09 10:10:55.95	345.09	17.04	-31.2	-35.4	11.2	1.28e-03	0	43	0	1143996416	22	5870
2026-01-09 10:10:58.97	345.01	16.69	-31.1	-35.3	11.3	1.31e-03	0	43	0	1150287872	22	5801
2026-01-09 10:11:02.00	344.94	16.35	-31.3	-35.7	11.0	1.52e-03	0	43	0	1155530752	22	5997
2026-01-09 10:11:05.02	344.86	16.02	-31.1	-35.4	11.1	1.80e-03	0	43	0	1160773632	22	5874
2026-01-09 10:11:08.04	344.79	15.69	-31.2	-35.5	11.0	2.19e-03	0	43	0	1167065088	22	5925
2026-01-09 10:11:11.05	344.72	15.36	-31.2	-35.5	11.0	2.21e-03	0	43	0	1172307968	22	5922
2026-01-09 10:11:14.08	344.66	15.04	-31.2	-35.7	10.9	2.12e-03	0	43	0	1178599424	22	6000
2026-01-09 10:11:17.10	344.59	14.72	-31.2	-35.7	10.8	2.55e-03	0	43	0	1183842304	22	6041
2026-01-09 10:11:20.11	344.53	14.41	-31.2	-35.7	10.8	3.04e-03	0	43	0	1189085184	22	6024
2026-01-09 10:11:23.13	344.46	14.10	-31.4	-36.4	10.2	4.77e-03	0	43	0	1195376640	22	6390
2026-01-09 10:11:26.14	344.40	13.80	-31.2	-35.5	10.9	2.74e-03	0	43	0	1200619520	22	5946
2026-01-09 10:11:29.15	344.34	13.50	-31.0	-35.2	11.1	1.54e-03	0	43	0	1206910976	22	5801
2026-01-09 10:11:32.16	344.29	13.20	-31.0	-35.1	11.1	1.73e-03	0	43	0	1212153856	22	5774
2026-01-09 10:11:35.18	344.23	12.90	-30.9	-34.6	11.5	1.69e-03	0	43	0	1217396736	22	5553
2026-01-09 10:11:38.18	344.17	12.61	-31.3	-35.9	10.5	2.70e-03	0	43	0	1223688192	22	6168
2026-01-09 10:11:41.19	344.12	12.33	-31.2	-35.7	10.6	3.17e-03	0	43	0	1228931072	22	6059
2026-01-09 10:11:44.21	344.07	12.04	-31.2	-35.7	10.5	3.59e-03	0	43	0	1234173952	22	6078
2026-01-09 10:11:47.23	344.02	11.76	-31.1	-35.6	10.7	3.54e-03	0	43	0	1240465408	22	6020
2026-01-09 10:11:50.25	343.97	11.48	-31.0	-35.2	10.9	2.59e-03	0	43	0	1245708288	22	5858
2026-01-09 10:11:53.27	343.92	11.21	-31.1	-35.5	10.7	2.92e-03	0	43	0	1251999744	22	5989
2026-01-09 10:11:56.29	343.87	10.94	-31.3	-36.1	10.2	5.93e-03	0	43	0	1257242624	22	6290
2026-01-09 10:11:59.30	343.82	10.67	-31.3	-36.2	10.1	6.81e-03	0	43	0	1262485504	22	6337
2026-01-09 10:12:02.33	343.78	10.40	-31.3	-36.3	10.0	6.70e-03	0	43	0	1268776960	22	6394
2026-01-09 10:12:05.35	343.73	10.14	-31.3	-36.2	10.0	6.89e-03	0	43	0	1274019840	22	6361
2026-01-09 10:12:08.36	343.69	9.88	-31.3	-36.4	9.9	9.30e-03	0	43	0	1280311296	22	6482
2026-01-09 10:12:11.37	343.65	9.62	-31.3	-36.5	9.8	9.52e-03	0	43	0	1285554176	22	6513
2026-01-09 10:12:14.38	343.60	9.37	-31.4	-36.6	9.6	1.44e-02	0	43	0	1290797056	22	6606
2026-01-09 10:12:17.39	343.56	9.12	-31.3	-36.5	9.7	1.09e-02	0	43	0	1297088512	22	6523
2026-01-09 10:12:20.41	343.52	8.87	-31.3	-36.7	9.6	1.41e-02	0	43	0	1302331392	22	6635
2026-01-09 10:12:23.42	343.48	8.62	-31.5	-36.6	9.2	2.51e-02	0	43	0	1308622848	23	6520
2026-01-09 10:12:26.43	343.45	8.37	-31.5	-36.6	9.1	3.28e-02	0	43	0	1313865728	23	6535
2026-01-09 10:12:29.44	343.41	8.13	-31.3	-36.1	9.5	1.31e-02	0	43	0	1319108608	23	6265
2026-01-09 10:12:32.45	343.37	7.89	-31.5	-36.8	9.0	2.95e-02	0	43	0	1325400064	23	6633
2026-01-09 10:12:35.46	343.34	7.66	-31.3	-36.1	9.4	1.54e-02	0	43	0	1330642944	23	6281
2026-01-09 10:12:38.48	343.30	7.42	-31.3	-36.0	9.5	1.94e-02	0	43	0	1336934400	23	6233
2026-01-09 10:12:41.50	343.27	7.19	-31.3	-36.3	9.2	2.72e-02	0	43	0	1342177280	23	6409
2026-01-09 10:12:44.51	343.24	6.95	-33.5	-48.0	3.8	1.49e+00	0	43	104	1344274432	26	19204

#Closed at: 2026-01-09 10:12:44
#Recorded file [1344 MB]: D:/data/31010_260109_130045.dat