passes_logs/2026/01/09/R2M6_AANII_01/R2M6_AANII_01__20260109_055404_FENGYUN_3E_rec.log

#Pass ID: 20260109_055404_FENGYUN 3E
#Satellite: FENGYUN 3E
#Configuration: FENGYUN 3E
#almurnet v.1.7.20240730
#Start time: 2026-01-09 05:54:04

#Version: 2.2.20231116
#Station: R2M6_AANII_01
#Location: 30.233357 lon 59.946436 lat
#TLE: 1 49008U 21062A   26008.52265380 -.00000112  00000+0 -32190-4 0  9993
#TLE: 2 49008  98.7483  13.7266 0001697 149.3310 210.7966 14.19883994233927

#Time	Az	El	Level	Level2	SNR	BER	BlckErr	Temp	State	Recorded	gain1	gain2
2026-01-09 05:54:04.75	12.50	7.01	-30.8	-34.5	4.7	8.08e-01	0	41	0	0	21	5560
2026-01-09 05:54:07.76	12.31	7.22	-30.7	-34.1	6.9	1.65e-01	0	40	0	7340032	21	5358
2026-01-09 05:54:10.78	12.12	7.44	-30.8	-34.5	6.7	1.87e-01	0	41	0	28311552	21	5516
2026-01-09 05:54:13.80	11.93	7.66	-30.4	-33.3	7.5	1.07e-01	0	41	0	50331648	21	5010
2026-01-09 05:54:16.82	11.73	7.88	-29.0	-30.3	10.2	5.67e-03	0	41	0	72351744	19	4178
2026-01-09 05:54:19.83	11.53	8.10	-27.7	-28.6	12.3	2.85e-04	0	41	0	94371840	16	3984
2026-01-09 05:54:22.85	11.33	8.32	-27.1	-27.7	13.0	2.74e-05	0	41	0	116391936	15	3868
2026-01-09 05:54:25.87	11.12	8.55	-26.7	-27.3	13.5	1.48e-05	0	41	0	137363456	14	3860
2026-01-09 05:54:28.89	10.91	8.77	-26.8	-28.1	13.4	1.83e-05	0	41	0	159383552	13	4167
2026-01-09 05:54:31.91	10.69	9.00	-27.0	-28.5	13.1	2.40e-05	0	41	0	181403648	13	4287
2026-01-09 05:54:34.93	10.48	9.23	-26.7	-27.7	13.7	1.02e-05	0	41	0	203423744	13	4059
2026-01-09 05:54:37.94	10.25	9.46	-26.6	-27.6	13.7	5.70e-06	0	41	0	224395264	13	4023
2026-01-09 05:54:40.95	10.03	9.69	-26.7	-27.7	13.7	5.70e-06	0	41	0	246415360	13	4043
2026-01-09 05:54:43.97	9.80	9.93	-26.3	-27.4	14.2	2.20e-06	0	42	0	268435456	12	4070
2026-01-09 05:54:46.99	9.57	10.16	-26.7	-27.7	13.7	5.70e-06	0	42	0	290455552	13	4045
2026-01-09 05:54:50.01	9.33	10.40	-26.2	-27.2	14.3	0.00e+00	0	42	0	312475648	12	4031
2026-01-09 05:54:53.03	9.09	10.64	-26.3	-27.3	14.2	0.00e+00	0	42	0	333447168	12	4044
2026-01-09 05:54:56.04	8.85	10.88	-26.2	-27.1	14.3	0.00e+00	0	42	0	355467264	12	4004
2026-01-09 05:54:59.05	8.60	11.12	-26.3	-26.8	14.3	0.00e+00	0	42	0	377487360	13	3829
2026-01-09 05:55:02.07	8.34	11.37	-26.3	-27.3	14.3	1.10e-06	0	42	0	399507456	12	4067
2026-01-09 05:55:05.09	8.09	11.62	-26.2	-27.1	14.4	1.10e-06	0	42	0	420478976	12	4015
2026-01-09 05:55:08.10	7.82	11.86	-26.1	-26.9	14.6	0.00e+00	0	42	0	442499072	12	3941
2026-01-09 05:55:11.12	7.56	12.12	-26.2	-27.1	14.4	0.00e+00	0	42	0	464519168	12	4006
2026-01-09 05:55:14.14	7.28	12.37	-25.9	-26.4	14.8	0.00e+00	0	42	0	486539264	12	3835
2026-01-09 05:55:17.16	7.01	12.62	-26.2	-27.1	14.5	1.10e-06	0	42	0	508559360	12	4007
2026-01-09 05:55:20.17	6.73	12.88	-25.8	-26.3	14.9	0.00e+00	0	42	0	529530880	12	3796
2026-01-09 05:55:23.17	6.44	13.14	-25.7	-26.1	15.1	0.00e+00	0	42	0	551550976	12	3750
2026-01-09 05:55:26.20	6.15	13.40	-25.8	-26.3	15.0	0.00e+00	0	42	0	573571072	12	3795
2026-01-09 05:55:29.23	5.85	13.66	-25.7	-26.4	15.2	0.00e+00	0	42	0	594542592	11	3922
2026-01-09 05:55:32.24	5.54	13.93	-25.6	-26.3	15.3	0.00e+00	0	42	0	616562688	11	3896
2026-01-09 05:55:35.26	5.23	14.20	-25.6	-26.3	15.2	0.00e+00	0	42	0	638582784	11	3885
2026-01-09 05:55:38.29	4.92	14.47	-25.5	-26.1	15.5	0.00e+00	0	42	0	660602880	11	3836
2026-01-09 05:55:41.29	4.60	14.74	-25.5	-26.1	15.4	0.00e+00	0	42	0	681574400	11	3854
2026-01-09 05:55:44.31	4.27	15.01	-25.2	-25.5	15.8	0.00e+00	0	43	0	703594496	11	3697
2026-01-09 05:55:47.32	3.94	15.29	-25.1	-25.3	15.9	0.00e+00	0	42	0	725614592	11	3655
2026-01-09 05:55:50.34	3.60	15.56	-25.1	-25.1	16.0	0.00e+00	0	43	0	747634688	11	3608
2026-01-09 05:55:53.35	3.25	15.84	-25.3	-25.6	15.8	0.00e+00	0	43	0	769654784	11	3733
2026-01-09 05:55:56.38	2.90	16.13	-25.3	-25.7	15.7	0.00e+00	0	43	0	790626304	11	3744
2026-01-09 05:55:59.38	2.54	16.41	-25.0	-25.0	16.1	0.00e+00	0	43	0	812646400	11	3590
2026-01-09 05:56:02.40	2.17	16.69	-24.9	-24.8	16.3	0.00e+00	0	43	0	834666496	11	3551
2026-01-09 05:56:05.43	1.79	16.98	-24.8	-25.0	16.4	0.00e+00	0	42	0	856686592	10	3681
2026-01-09 05:56:08.43	1.41	17.27	-24.9	-25.1	16.4	0.00e+00	0	43	0	877658112	10	3722
2026-01-09 05:56:11.45	1.02	17.57	-24.8	-25.0	16.5	0.00e+00	0	42	0	899678208	10	3682
2026-01-09 05:56:14.47	0.63	17.86	-24.4	-24.7	16.8	0.00e+00	0	42	0	921698304	9	3713
2026-01-09 05:56:17.48	0.22	18.16	-24.6	-25.0	16.7	0.00e+00	0	43	0	943718400	9	3787
2026-01-09 05:56:20.49	359.81	18.46	-24.6	-25.1	16.7	0.00e+00	0	43	0	964689920	9	3803
2026-01-09 05:56:23.52	359.38	18.76	-24.5	-25.5	16.7	0.00e+00	0	43	0	986710016	8	4009
2026-01-09 05:56:26.55	358.95	19.06	-24.7	-25.3	16.6	0.00e+00	0	43	0	1008730112	9	3848
2026-01-09 05:56:29.57	358.51	19.37	-24.6	-25.1	16.7	0.00e+00	0	43	0	1030750208	9	3807
2026-01-09 05:56:32.58	358.06	19.67	-24.5	-24.9	16.8	0.00e+00	0	43	0	1052770304	9	3770
2026-01-09 05:56:35.61	357.60	19.98	-24.2	-24.7	17.2	0.00e+00	0	43	0	1074790400	8	3821
2026-01-09 05:56:38.63	357.13	20.29	-24.0	-24.3	17.4	0.00e+00	0	43	0	1095761920	8	3735
2026-01-09 05:56:41.65	356.65	20.61	-23.8	-24.0	17.6	0.00e+00	0	43	0	1117782016	8	3659
2026-01-09 05:56:44.67	356.17	20.92	-24.0	-24.8	17.4	0.00e+00	0	43	0	1139802112	7	3938
2026-01-09 05:56:47.69	355.67	21.24	-24.3	-24.9	17.1	0.00e+00	0	43	0	1161822208	8	3867
2026-01-09 05:56:50.71	355.16	21.56	-24.1	-24.6	17.3	0.00e+00	0	43	0	1183842304	8	3800
2026-01-09 05:56:53.72	354.64	21.87	-24.2	-24.8	17.2	0.00e+00	0	43	0	1204813824	8	3851
2026-01-09 05:56:56.74	354.11	22.19	-24.0	-24.4	17.4	0.00e+00	0	43	0	1226833920	8	3744
2026-01-09 05:56:59.76	353.56	22.52	-24.0	-24.8	17.5	0.00e+00	0	43	0	1248854016	7	3937
2026-01-09 05:57:02.78	353.01	22.84	-24.0	-24.2	17.5	0.00e+00	0	43	0	1269825536	8	3708
2026-01-09 05:57:05.80	352.44	23.16	-24.0	-24.2	17.6	1.02e-04	0	43	0	1291845632	8	3707
2026-01-09 05:57:08.83	351.86	23.49	-23.8	-23.8	17.8	0.00e+00	0	43	0	1313865728	8	3624
2026-01-09 05:57:11.85	351.27	23.82	-24.0	-24.4	17.5	0.00e+00	0	43	0	1335885824	8	3744
2026-01-09 05:57:14.87	350.67	24.14	-23.9	-24.1	17.6	0.00e+00	0	43	0	1357905920	8	3677
2026-01-09 05:57:17.87	350.06	24.47	-23.8	-24.0	17.7	0.00e+00	0	43	0	1378877440	8	3657
2026-01-09 05:57:20.88	349.43	24.80	-23.3	-23.3	18.3	0.00e+00	0	43	0	1400897536	7	3599
2026-01-09 05:57:23.90	348.79	25.12	-23.4	-23.6	18.2	0.00e+00	0	43	0	1422917632	7	3665
2026-01-09 05:57:26.92	348.13	25.45	-23.1	-22.9	18.5	9.61e-05	0	43	0	1444937728	7	3524
2026-01-09 05:57:29.94	347.46	25.78	-23.2	-23.5	18.4	0.00e+00	0	43	0	1465909248	6	3762
2026-01-09 05:57:32.95	346.78	26.11	-23.2	-23.7	18.3	0.00e+00	0	43	0	1487929344	6	3800
2026-01-09 05:57:35.97	346.08	26.43	-23.3	-23.7	18.3	0.00e+00	0	43	0	1509949440	6	3798
2026-01-09 05:57:38.99	345.37	26.76	-23.3	-23.8	18.3	0.00e+00	0	43	0	1531969536	6	3816
2026-01-09 05:57:42.01	344.64	27.09	-23.6	-23.9	18.0	0.00e+00	0	43	0	1553989632	7	3729
2026-01-09 05:57:45.03	343.89	27.41	-23.7	-24.2	17.9	0.00e+00	0	43	0	1574961152	7	3807
2026-01-09 05:57:48.06	343.13	27.73	-23.7	-24.2	17.8	0.00e+00	0	43	0	1596981248	7	3811
2026-01-09 05:57:51.08	342.36	28.05	-23.7	-24.1	17.9	0.00e+00	0	43	0	1619001344	7	3772
2026-01-09 05:57:54.09	341.57	28.37	-23.6	-23.9	18.0	0.00e+00	0	43	0	1641021440	7	3735
2026-01-09 05:57:57.11	340.76	28.69	-23.7	-24.2	17.9	0.00e+00	0	43	0	1663041536	7	3797
2026-01-09 05:58:00.11	339.94	29.00	-23.5	-23.7	18.1	0.00e+00	0	43	0	1684013056	7	3697
2026-01-09 05:58:03.12	339.11	29.30	-23.1	-23.4	18.5	0.00e+00	0	43	0	1706033152	6	3726
2026-01-09 05:58:06.14	338.25	29.61	-23.0	-23.7	18.6	0.00e+00	0	43	0	1728053248	5	3909
2026-01-09 05:58:09.15	337.38	29.91	-22.8	-22.9	18.8	0.00e+00	0	43	0	1750073344	6	3609
2026-01-09 05:58:12.17	336.50	30.21	-22.8	-23.3	18.8	0.00e+00	0	43	0	1771044864	5	3800
2026-01-09 05:58:15.19	335.59	30.50	-23.0	-23.6	18.6	0.00e+00	0	43	0	1793064960	5	3885
2026-01-09 05:58:18.22	334.67	30.79	-23.5	-24.2	18.1	0.00e+00	0	43	0	1815085056	6	3907
2026-01-09 05:58:21.24	333.73	31.07	-23.4	-23.5	18.2	0.00e+00	0	43	0	1837105152	7	3652
2026-01-09 05:58:24.24	332.78	31.34	-23.3	-23.4	18.3	0.00e+00	0	43	0	1858076672	7	3621
2026-01-09 05:58:27.25	331.81	31.61	-23.1	-22.9	18.5	0.00e+00	0	43	0	1880096768	7	3515
2026-01-09 05:58:30.28	330.82	31.87	-22.9	-23.0	18.7	0.00e+00	0	43	0	1902116864	6	3650
2026-01-09 05:58:33.29	329.82	32.12	-23.0	-23.3	18.6	0.00e+00	0	43	0	1924136960	6	3706
2026-01-09 05:58:36.30	328.81	32.37	-23.0	-23.2	18.7	0.00e+00	0	43	0	1946157056	6	3675
2026-01-09 05:58:39.32	327.77	32.60	-22.9	-22.9	18.8	0.00e+00	0	43	0	1967128576	6	3623
2026-01-09 05:58:42.34	326.73	32.83	-22.8	-22.8	18.8	0.00e+00	0	43	0	1989148672	6	3596
2026-01-09 05:58:45.36	325.66	33.05	-23.0	-23.7	18.6	0.00e+00	0	43	0	2011168768	5	3893
2026-01-09 05:58:48.38	324.58	33.26	-22.8	-22.8	18.8	0.00e+00	0	43	0	2032140288	6	3595
2026-01-09 05:58:51.40	323.49	33.46	-22.5	-22.7	19.1	0.00e+00	0	43	0	2054160384	5	3664
2026-01-09 05:58:54.42	322.39	33.65	-22.9	-23.6	18.7	0.00e+00	0	43	0	2076180480	5	3871
2026-01-09 05:58:57.44	321.27	33.82	-23.3	-23.8	18.3	0.00e+00	0	43	0	2098200576	6	3818
2026-01-09 05:59:00.47	320.14	33.99	-23.0	-23.3	18.6	0.00e+00	0	43	0	2120220672	6	3693
2026-01-09 05:59:03.48	319.00	34.14	-23.1	-23.3	18.6	0.00e+00	0	43	0	2141192192	6	3716
2026-01-09 05:59:06.49	317.85	34.28	-22.7	-22.6	19.0	0.00e+00	0	43	0	2163212288	6	3543
2026-01-09 05:59:09.50	316.69	34.41	-22.7	-22.6	18.9	0.00e+00	0	43	0	2185232384	6	3560
2026-01-09 05:59:12.53	315.52	34.53	-22.7	-22.5	18.9	0.00e+00	0	43	0	2207252480	6	3530
2026-01-09 05:59:15.55	314.34	34.63	-22.5	-22.2	19.1	0.00e+00	0	43	0	2229272576	6	3475
2026-01-09 05:59:18.56	313.16	34.72	-22.5	-22.6	19.1	0.00e+00	0	43	0	2250244096	5	3660
2026-01-09 05:59:21.58	311.97	34.79	-22.8	-23.2	18.9	0.00e+00	0	43	0	2272264192	5	3779
2026-01-09 05:59:24.59	310.78	34.85	-23.0	-23.6	18.7	0.00e+00	0	43	0	2294284288	5	3882
2026-01-09 05:59:27.61	309.58	34.90	-22.7	-23.1	18.9	0.00e+00	0	43	0	2316304384	5	3750
2026-01-09 05:59:30.63	308.38	34.93	-22.7	-23.1	18.9	0.00e+00	0	43	0	2337275904	5	3774
2026-01-09 05:59:33.64	307.18	34.95	-22.8	-23.2	18.9	0.00e+00	0	43	0	2359296000	5	3795
2026-01-09 05:59:36.66	305.97	34.95	-22.8	-23.2	18.9	0.00e+00	0	43	0	2381316096	5	3795
2026-01-09 05:59:39.68	304.76	34.94	-22.7	-22.5	19.0	0.00e+00	0	43	0	2403336192	6	3542
2026-01-09 05:59:42.71	303.56	34.92	-22.7	-23.1	18.9	0.00e+00	0	43	0	2425356288	5	3767
2026-01-09 05:59:45.73	302.35	34.88	-22.9	-23.4	18.8	0.00e+00	0	43	0	2446327808	5	3837
2026-01-09 05:59:48.75	301.15	34.82	-22.9	-23.4	18.8	0.00e+00	0	43	0	2468347904	5	3829
2026-01-09 05:59:51.77	299.96	34.76	-22.6	-22.9	19.0	8.92e-05	0	43	0	2490368000	5	3710
2026-01-09 05:59:54.79	298.77	34.67	-22.9	-23.5	18.7	0.00e+00	0	43	0	2512388096	5	3857
2026-01-09 05:59:57.81	297.59	34.58	-22.7	-23.1	19.0	0.00e+00	0	43	0	2534408192	5	3758
2026-01-09 06:00:00.83	296.41	34.47	-22.5	-22.7	19.1	0.00e+00	0	43	0	2555379712	5	3677
2026-01-09 06:00:03.85	295.25	34.35	-22.6	-22.8	19.1	0.00e+00	0	43	0	2577399808	5	3698
2026-01-09 06:00:06.87	294.09	34.21	-22.5	-22.6	19.1	0.00e+00	0	43	0	2599419904	5	3654
2026-01-09 06:00:09.90	292.94	34.06	-22.5	-22.6	19.1	0.00e+00	0	43	0	2621440000	5	3663
2026-01-09 06:00:12.92	291.80	33.90	-22.8	-23.3	18.8	0.00e+00	0	43	0	2643460096	5	3816
2026-01-09 06:00:15.95	290.67	33.73	-22.9	-23.4	18.8	0.00e+00	0	43	0	2665480192	5	3834
2026-01-09 06:00:18.97	289.56	33.55	-22.8	-23.2	18.9	0.00e+00	0	43	0	2686451712	5	3788
2026-01-09 06:00:21.99	288.46	33.35	-22.9	-23.5	18.7	0.00e+00	0	43	0	2708471808	5	3854
2026-01-09 06:00:25.01	287.37	33.15	-22.8	-23.2	18.8	0.00e+00	0	43	0	2730491904	5	3791
2026-01-09 06:00:28.02	286.30	32.93	-22.7	-23.1	18.9	0.00e+00	0	43	0	2751463424	5	3765
2026-01-09 06:00:31.02	285.25	32.71	-22.8	-23.2	18.8	0.00e+00	0	43	0	2773483520	5	3776
2026-01-09 06:00:34.04	284.21	32.48	-23.0	-23.6	18.6	0.00e+00	0	43	0	2795503616	5	3887
2026-01-09 06:00:37.04	283.18	32.24	-23.6	-23.9	18.0	0.00e+00	0	43	0	2817523712	7	3749
2026-01-09 06:00:40.06	282.17	31.99	-23.3	-23.4	18.2	0.00e+00	0	43	0	2838495232	7	3621
2026-01-09 06:00:43.07	281.18	31.73	-23.0	-23.1	18.6	0.00e+00	0	43	0	2860515328	6	3664
2026-01-09 06:00:46.09	280.19	31.46	-22.6	-22.3	19.0	0.00e+00	0	43	0	2882535424	6	3495
2026-01-09 06:00:49.10	279.23	31.19	-22.6	-22.8	19.0	0.00e+00	0	43	0	2904555520	5	3704
2026-01-09 06:00:52.11	278.29	30.91	-22.8	-23.2	18.8	0.00e+00	0	43	0	2925527040	5	3794
2026-01-09 06:00:55.13	277.35	30.63	-22.9	-23.4	18.7	0.00e+00	0	43	0	2947547136	5	3833
2026-01-09 06:00:58.15	276.44	30.34	-22.9	-23.6	18.6	0.00e+00	0	43	0	2969567232	5	3870
2026-01-09 06:01:01.18	275.54	30.04	-22.9	-23.4	18.6	0.00e+00	0	43	0	2991587328	5	3833
2026-01-09 06:01:04.19	274.66	29.74	-23.1	-23.9	18.4	3.40e-06	0	43	0	3012558848	5	3945
2026-01-09 06:01:07.20	273.79	29.44	-23.0	-23.2	18.5	0.00e+00	0	43	0	3034578944	6	3682
2026-01-09 06:01:10.22	272.94	29.13	-23.0	-23.3	18.5	0.00e+00	0	43	0	3056599040	6	3700
2026-01-09 06:01:13.23	272.11	28.82	-23.2	-23.7	18.2	0.00e+00	0	43	0	3078619136	6	3799
2026-01-09 06:01:16.25	271.29	28.50	-23.3	-23.9	18.1	0.00e+00	0	43	0	3100639232	6	3838
2026-01-09 06:01:19.28	270.49	28.19	-23.2	-23.6	18.3	0.00e+00	0	43	0	3121610752	6	3768
2026-01-09 06:01:22.30	269.70	27.86	-23.3	-23.8	18.1	0.00e+00	0	43	0	3143630848	6	3822
2026-01-09 06:01:25.32	268.93	27.54	-23.5	-23.7	18.0	0.00e+00	0	43	0	3165650944	7	3704
2026-01-09 06:01:28.33	268.18	27.22	-23.0	-22.7	18.5	0.00e+00	0	43	0	3187671040	7	3476
2026-01-09 06:01:31.35	267.44	26.89	-23.3	-23.3	18.1	0.00e+00	0	43	0	3209691136	7	3613
2026-01-09 06:01:34.37	266.72	26.57	-23.2	-23.1	18.3	0.00e+00	0	43	0	3230662656	7	3554
2026-01-09 06:01:37.39	266.01	26.24	-23.2	-23.6	18.3	0.00e+00	0	43	0	3252682752	6	3769
2026-01-09 06:01:40.42	265.31	25.91	-23.3	-23.8	18.1	0.00e+00	0	43	0	3274702848	6	3828
2026-01-09 06:01:43.44	264.63	25.58	-23.6	-24.5	17.8	0.00e+00	0	43	0	3296722944	6	3980
2026-01-09 06:01:46.46	263.96	25.25	-23.3	-23.8	18.1	0.00e+00	0	43	0	3318743040	6	3832
2026-01-09 06:01:49.48	263.31	24.92	-23.2	-23.6	18.2	0.00e+00	0	43	0	3339714560	6	3779
2026-01-09 06:01:52.50	262.67	24.59	-23.0	-23.8	18.3	0.00e+00	0	43	0	3361734656	5	3930
2026-01-09 06:01:55.51	262.05	24.26	-23.0	-23.7	18.4	0.00e+00	0	43	0	3383754752	5	3915
2026-01-09 06:01:58.52	261.44	23.93	-23.5	-23.8	17.8	0.00e+00	0	43	0	3405774848	7	3726
2026-01-09 06:02:01.54	260.84	23.60	-23.3	-23.3	18.1	0.00e+00	0	43	0	3426746368	7	3609
2026-01-09 06:02:04.54	260.26	23.28	-23.1	-23.4	18.3	0.00e+00	0	43	0	3448766464	6	3736
2026-01-09 06:02:07.55	259.68	22.95	-23.1	-23.4	18.2	0.00e+00	0	43	0	3470786560	6	3739
2026-01-09 06:02:10.56	259.12	22.63	-23.3	-23.8	18.1	0.00e+00	0	43	0	3491758080	6	3820
2026-01-09 06:02:13.58	258.57	22.31	-23.4	-24.0	18.0	0.00e+00	0	43	0	3513778176	6	3862
2026-01-09 06:02:16.59	258.03	21.98	-23.5	-24.4	17.7	0.00e+00	0	43	0	3535798272	6	3957
2026-01-09 06:02:19.60	257.51	21.66	-23.8	-24.5	17.4	0.00e+00	0	43	0	3557818368	7	3881
2026-01-09 06:02:22.61	256.99	21.34	-23.9	-24.6	17.4	0.00e+00	0	43	0	3578789888	7	3897
2026-01-09 06:02:25.63	256.49	21.03	-23.6	-24.0	17.6	0.00e+00	0	43	0	3600809984	7	3776
2026-01-09 06:02:28.65	255.99	20.71	-23.6	-24.1	17.6	0.00e+00	0	43	0	3622830080	7	3778
2026-01-09 06:02:31.66	255.50	20.39	-23.8	-24.5	17.4	0.00e+00	0	43	0	3644850176	7	3874
2026-01-09 06:02:34.68	255.03	20.08	-23.9	-24.5	17.3	0.00e+00	0	43	0	3665821696	7	3888
2026-01-09 06:02:37.70	254.56	19.77	-23.7	-24.2	17.5	0.00e+00	0	43	0	3687841792	7	3822
2026-01-09 06:02:40.72	254.10	19.46	-23.7	-24.3	17.4	0.00e+00	0	43	0	3709861888	7	3838
2026-01-09 06:02:43.74	253.66	19.15	-24.2	-24.8	16.9	0.00e+00	0	43	0	3731881984	8	3849
2026-01-09 06:02:46.75	253.22	18.85	-24.4	-24.8	16.7	0.00e+00	0	43	0	3753902080	9	3737
2026-01-09 06:02:49.77	252.79	18.54	-24.7	-25.2	16.4	0.00e+00	0	43	0	3774873600	9	3848
2026-01-09 06:02:52.79	252.37	18.24	-24.3	-25.1	16.8	0.00e+00	0	43	0	3796893696	8	3914
2026-01-09 06:02:55.81	251.95	17.94	-24.3	-25.1	16.7	0.00e+00	0	43	0	3818913792	8	3914
2026-01-09 06:02:58.82	251.55	17.65	-24.4	-25.2	16.7	0.00e+00	0	43	0	3840933888	8	3947
2026-01-09 06:03:01.82	251.16	17.35	-24.7	-25.4	16.3	0.00e+00	0	43	0	3861905408	9	3894
2026-01-09 06:03:04.85	250.77	17.06	-25.2	-26.0	15.7	0.00e+00	0	43	0	3883925504	10	3918
2026-01-09 06:03:07.86	250.39	16.77	-25.4	-26.3	15.5	0.00e+00	0	43	0	3905945600	10	3995
2026-01-09 06:03:10.86	250.01	16.48	-25.2	-25.9	15.7	0.00e+00	0	43	0	3927965696	10	3901
2026-01-09 06:03:13.86	249.65	16.20	-24.8	-25.0	16.2	0.00e+00	0	43	0	3948937216	10	3698
2026-01-09 06:03:16.89	249.29	15.91	-24.9	-25.2	16.1	0.00e+00	0	43	0	3970957312	10	3725
2026-01-09 06:03:19.90	248.94	15.63	-24.8	-25.0	16.2	0.00e+00	0	43	0	3992977408	10	3692
2026-01-09 06:03:22.92	248.59	15.35	-24.9	-25.8	16.0	0.00e+00	0	43	0	4014997504	9	3972
2026-01-09 06:03:25.94	248.25	15.07	-25.6	-26.8	15.2	0.00e+00	0	43	0	4035969024	10	4131
2026-01-09 06:03:28.95	247.92	14.80	-25.2	-26.0	15.6	0.00e+00	0	43	0	4057989120	10	3917
2026-01-09 06:03:31.97	247.59	14.52	-25.3	-26.2	15.5	0.00e+00	0	43	0	4080009216	10	3981
2026-01-09 06:03:34.98	247.27	14.25	-25.4	-26.5	15.3	0.00e+00	0	43	0	4100980736	10	4046
2026-01-09 06:03:37.98	246.96	13.99	-25.6	-26.3	15.2	0.00e+00	0	43	0	4123000832	11	3902
2026-01-09 06:03:41.01	246.65	13.72	-25.8	-26.7	14.9	2.20e-06	0	43	0	4145020928	11	3996
2026-01-09 06:03:44.03	246.34	13.45	-25.5	-26.1	15.2	2.20e-06	0	43	0	4167041024	11	3858
2026-01-09 06:03:47.04	246.05	13.19	-25.4	-26.4	13.6	0.00e+00	0	43	0	4189061120	10	4021
2026-01-09 06:03:50.07	245.75	12.93	-25.4	-26.3	15.4	6.49e-04	0	43	0	4210032640	10	4001
2026-01-09 06:03:53.09	245.46	12.67	-25.5	-26.7	15.1	1.10e-06	0	43	0	4232052736	10	4104
2026-01-09 06:03:56.11	245.18	12.41	-26.1	-27.3	14.5	1.10e-06	0	43	0	4254072832	11	4164
2026-01-09 06:03:59.12	244.91	12.16	-25.7	-26.5	14.9	0.00e+00	0	43	0	4276092928	11	3962
2026-01-09 06:04:02.12	244.63	11.91	-25.8	-26.7	14.8	3.72e-04	0	43	0	4297064448	11	3999
2026-01-09 06:04:05.15	244.37	11.65	-26.0	-26.7	14.5	4.39e-04	0	43	0	4319084544	12	3896
2026-01-09 06:04:08.16	244.10	11.40	-26.0	-27.2	14.5	4.71e-04	0	43	0	4341104640	11	4139
2026-01-09 06:04:11.17	243.85	11.16	-26.0	-27.2	14.5	1.10e-06	0	43	0	4363124736	11	4144
2026-01-09 06:04:14.18	243.59	10.91	-26.1	-27.4	14.4	3.03e-04	0	43	0	4384096256	11	4177
2026-01-09 06:04:17.21	243.34	10.67	-26.2	-27.2	14.1	1.75e-04	0	43	0	4406116352	12	4045
2026-01-09 06:04:20.22	243.10	10.43	-25.9	-26.5	14.5	1.44e-04	0	43	0	4428136448	12	3866
2026-01-09 06:04:23.24	242.85	10.19	-25.9	-27.1	14.5	0.00e+00	0	43	0	4450156544	11	4104
2026-01-09 06:04:26.26	242.62	9.95	-25.8	-26.7	14.7	0.00e+00	0	43	0	4472176640	11	4011
2026-01-09 06:04:29.28	242.38	9.71	-26.0	-27.2	14.4	0.00e+00	0	43	0	4493148160	11	4145
2026-01-09 06:04:32.29	242.15	9.48	-26.3	-27.4	13.9	2.20e-06	0	43	0	4515168256	12	4098
2026-01-09 06:04:35.32	241.93	9.25	-26.0	-26.7	14.3	1.10e-06	0	43	0	4537188352	12	3915
2026-01-09 06:04:38.35	241.70	9.02	-26.6	-28.1	13.5	6.80e-06	0	43	0	4559208448	12	4270
2026-01-09 06:04:41.36	241.49	8.79	-26.8	-28.0	13.2	3.31e-05	0	43	0	4581228544	13	4153
2026-01-09 06:04:44.37	241.27	8.56	-27.0	-28.6	12.8	4.69e-05	0	43	0	4602200064	13	4331
2026-01-09 06:04:47.39	241.06	8.33	-27.1	-28.3	12.7	5.49e-05	0	43	0	4624220160	14	4141
2026-01-09 06:04:50.42	240.85	8.11	-27.2	-28.5	12.6	1.03e-04	0	43	0	4646240256	14	4186
2026-01-09 06:04:53.44	240.65	7.89	-27.1	-28.7	12.7	3.63e-03	0	43	0	4668260352	13	4355
2026-01-09 06:04:56.44	240.44	7.67	-27.3	-28.7	12.4	1.11e-04	0	43	0	4690280448	14	4243
2026-01-09 06:04:59.45	240.25	7.45	-27.2	-28.6	12.4	1.42e-04	0	43	0	4711251968	14	4221
2026-01-09 06:05:02.48	240.05	7.23	-27.3	-28.7	12.3	3.21e-03	0	43	0	4733272064	14	4243
2026-01-09 06:05:05.50	239.86	7.01	-33.0	-42.8	3.8	8.46e-01	0	43	104	4746903552	25	11200

#Closed at: 2026-01-09 06:05:06
#Recorded file [4746 MB]: D:/data/31010_260109_085406.dat