passes_logs/2025/01/21/planumMaritime01/planumMaritime01__20250121_192340_NOAA_19_rec.log

#Pass ID: 20250121_192340_NOAA 19
#Satellite: NOAA 19
#Configuration: NOAA 19
#Start time: 2025-01-21 19:23:45.667665

#LorettStation: 1.0.0 05.05.2024
#Station: planumMaritime01
#Location: 37.49445 lon 55.92918 lat
#TLE: 1 33591U 09005A   25021.16349212  .00000417  00000+0  24660-3 0  9995
#TLE: 2 33591  99.0186  84.9732 0014271  40.9333 319.2908 14.13264918822414

#Time	Az	El	Level	SNR
2025-01-21 19:23:47.912757	207.7	10.2	-77.1	0.0
2025-01-21 19:23:50.158261	207.9	10.3	-77.8	0.0
2025-01-21 19:23:52.406650	208.2	10.5	-77.9	0.0
2025-01-21 19:23:54.654117	208.4	10.7	-77.9	0.0
2025-01-21 19:23:56.901624	208.6	10.8	-78.1	0.0
2025-01-21 19:23:59.148554	208.9	11.0	-77.7	0.0
2025-01-21 19:24:01.394023	209.1	11.2	-77.8	0.0
2025-01-21 19:24:03.641488	209.3	11.3	-76.9	0.0
2025-01-21 19:24:05.889838	209.6	11.5	-77.7	0.0
2025-01-21 19:24:08.135130	209.8	11.7	-78.0	0.0
2025-01-21 19:24:10.382167	210.1	11.8	-77.7	0.0
2025-01-21 19:24:12.632005	210.3	12.0	-77.5	0.0
2025-01-21 19:24:14.876973	210.6	12.2	-77.2	0.0
2025-01-21 19:24:17.124710	210.9	12.3	-76.9	0.0
2025-01-21 19:24:19.369701	211.1	12.5	-78.0	0.0
2025-01-21 19:24:21.618238	211.4	12.7	-78.2	0.0
2025-01-21 19:24:23.864681	211.6	12.9	-77.9	0.0
2025-01-21 19:24:26.111277	211.9	13.0	-78.4	0.0
2025-01-21 19:24:28.358147	212.2	13.2	-78.2	0.0
2025-01-21 19:24:30.606396	212.5	13.4	-77.9	0.0
2025-01-21 19:24:32.853712	212.7	13.6	-78.2	0.0
2025-01-21 19:24:35.099686	213.0	13.8	-77.8	0.0
2025-01-21 19:24:37.344913	213.3	13.9	-78.4	0.0
2025-01-21 19:24:39.594030	213.6	14.1	-78.1	0.0
2025-01-21 19:24:41.836482	213.9	14.3	-78.4	0.0
2025-01-21 19:24:44.084510	214.2	14.5	-78.5	0.0
2025-01-21 19:24:46.331671	214.5	14.7	-78.7	0.0
2025-01-21 19:24:48.580916	214.8	14.8	-78.0	0.0
2025-01-21 19:24:50.827006	215.1	15.0	-78.6	0.0
2025-01-21 19:24:53.073874	215.4	15.2	-78.7	0.0
2025-01-21 19:24:55.319621	215.7	15.4	-79.0	0.0
2025-01-21 19:24:57.566012	216.0	15.6	-77.9	0.0
2025-01-21 19:24:59.808542	216.4	15.7	-77.9	0.0
2025-01-21 19:25:02.052652	216.7	15.9	-78.8	0.0
2025-01-21 19:25:04.297158	217.0	16.1	-78.5	0.0
2025-01-21 19:25:06.543643	217.3	16.3	-78.8	0.0
2025-01-21 19:25:08.790803	217.7	16.5	-78.7	0.0
2025-01-21 19:25:11.035282	218.0	16.7	-77.9	0.0
2025-01-21 19:25:13.280686	218.4	16.9	-77.0	0.0
2025-01-21 19:25:15.527803	218.7	17.1	-78.2	0.0
2025-01-21 19:25:17.774610	219.1	17.2	-78.0	0.0
2025-01-21 19:25:20.020392	219.4	17.4	-77.6	0.0
2025-01-21 19:25:22.268509	219.8	17.6	-78.3	0.0
2025-01-21 19:25:24.512444	220.2	17.8	-77.4	0.0
2025-01-21 19:25:26.760570	220.5	18.0	-78.0	0.0
2025-01-21 19:25:29.004352	220.9	18.2	-78.3	0.0
2025-01-21 19:25:31.250440	221.3	18.4	-77.0	0.0
2025-01-21 19:25:33.500449	221.7	18.6	-78.5	0.0
2025-01-21 19:25:35.745846	222.1	18.8	-77.8	0.0
2025-01-21 19:25:37.993472	222.5	18.9	-77.5	0.0
2025-01-21 19:25:40.238175	222.9	19.1	-77.8	0.0
2025-01-21 19:25:42.485639	223.3	19.3	-75.8	0.0
2025-01-21 19:25:44.730409	223.7	19.5	-77.9	0.0
2025-01-21 19:25:46.976621	224.1	19.7	-77.9	0.0
2025-01-21 19:25:49.222142	224.5	19.9	-75.9	0.0
2025-01-21 19:25:51.468104	224.9	20.1	-76.8	0.0
2025-01-21 19:25:53.715909	225.4	20.3	-75.9	0.0
2025-01-21 19:25:55.960299	225.8	20.5	-77.1	0.0
2025-01-21 19:25:58.205469	226.2	20.7	-78.1	0.0
2025-01-21 19:26:00.452415	226.7	20.9	-78.6	0.0
2025-01-21 19:26:02.699554	227.1	21.0	-77.6	0.0
2025-01-21 19:26:04.946277	227.6	21.2	-78.5	0.0
2025-01-21 19:26:07.195735	228.0	21.4	-78.6	0.0
2025-01-21 19:26:09.443431	228.5	21.6	-77.6	0.0
2025-01-21 19:26:11.690939	229.0	21.8	-78.4	0.0
2025-01-21 19:26:13.934785	229.5	22.0	-78.8	0.0
2025-01-21 19:26:16.183697	229.9	22.2	-78.7	0.0
2025-01-21 19:26:18.431209	230.4	22.4	-78.8	0.0
2025-01-21 19:26:20.676579	230.9	22.5	-79.2	0.0
2025-01-21 19:26:22.927018	231.4	22.7	-79.1	0.0
2025-01-21 19:26:25.170279	231.9	22.9	-79.2	0.0
2025-01-21 19:26:27.416301	232.4	23.1	-79.2	0.0
2025-01-21 19:26:29.664627	233.0	23.3	-79.2	0.0
2025-01-21 19:26:31.911299	233.5	23.5	-79.0	0.0
2025-01-21 19:26:34.153680	234.0	23.6	-79.0	0.0
2025-01-21 19:26:36.401535	234.6	23.8	-79.1	0.0
2025-01-21 19:26:38.650866	235.1	24.0	-79.1	0.0
2025-01-21 19:26:40.900042	235.6	24.2	-79.3	0.0
2025-01-21 19:26:43.148641	236.2	24.3	-79.5	0.0
2025-01-21 19:26:45.395786	236.8	24.5	-78.8	0.0
2025-01-21 19:26:47.640381	237.3	24.7	-79.7	0.0
2025-01-21 19:26:49.887002	237.9	24.8	-79.7	0.0
2025-01-21 19:26:52.132184	238.5	25.0	-79.9	0.0
2025-01-21 19:26:54.378560	239.1	25.2	-79.6	0.0
2025-01-21 19:26:56.625081	239.6	25.3	-79.4	0.0
2025-01-21 19:26:58.873617	240.2	25.5	-79.0	0.0
2025-01-21 19:27:01.121858	240.8	25.7	-78.8	0.0
2025-01-21 19:27:03.369344	241.4	25.8	-79.6	0.0
2025-01-21 19:27:05.612269	242.1	26.0	-79.9	0.0
2025-01-21 19:27:07.859441	242.7	26.1	-79.9	0.0
2025-01-21 19:27:10.107506	243.3	26.3	-79.9	0.0
2025-01-21 19:27:12.352870	243.9	26.4	-80.1	0.0
2025-01-21 19:27:14.597363	244.6	26.5	-79.6	0.0
2025-01-21 19:27:16.843410	245.2	26.7	-80.1	0.0
2025-01-21 19:27:19.088567	245.8	26.8	-79.9	0.0
2025-01-21 19:27:21.335124	246.5	26.9	-79.9	0.0
2025-01-21 19:27:23.580868	247.1	27.1	-80.0	0.0
2025-01-21 19:27:25.826725	247.8	27.2	-80.2	0.0
2025-01-21 19:27:28.072558	248.5	27.3	-80.1	0.0
2025-01-21 19:27:30.321556	249.1	27.4	-79.8	0.0
2025-01-21 19:27:32.568696	249.8	27.6	-79.7	0.0
2025-01-21 19:27:34.812141	250.5	27.7	-80.1	0.0
2025-01-21 19:27:37.059928	251.2	27.8	-80.2	0.0
2025-01-21 19:27:39.307499	251.9	27.9	-79.9	0.0
2025-01-21 19:27:41.554312	252.6	28.0	-80.1	0.0
2025-01-21 19:27:43.799102	253.3	28.1	-79.6	0.0
2025-01-21 19:27:46.043205	254.0	28.2	-79.3	0.0
2025-01-21 19:27:48.288480	254.7	28.2	-80.0	0.0
2025-01-21 19:27:50.534326	255.4	28.3	-80.0	0.0
2025-01-21 19:27:52.778105	256.1	28.4	-79.7	0.0
2025-01-21 19:27:55.021557	256.8	28.5	-80.2	0.0
2025-01-21 19:27:57.265380	257.5	28.5	-80.1	0.0
2025-01-21 19:27:59.509681	258.2	28.6	-79.8	0.0
2025-01-21 19:28:01.756439	259.0	28.7	-80.1	0.0
2025-01-21 19:28:04.003386	259.7	28.7	-79.9	0.0
2025-01-21 19:28:06.250884	260.4	28.8	-80.0	0.0
2025-01-21 19:28:08.497331	261.1	28.8	-79.6	0.0
2025-01-21 19:28:10.742920	261.9	28.8	-79.5	0.0
2025-01-21 19:28:12.990361	262.6	28.9	-80.2	0.0
2025-01-21 19:28:15.239163	263.3	28.9	-80.1	0.0
2025-01-21 19:28:17.486226	264.1	28.9	-80.3	0.0
2025-01-21 19:28:19.732597	264.8	29.0	-80.2	0.0
2025-01-21 19:28:21.977794	265.6	29.0	-80.1	0.0
2025-01-21 19:28:24.224614	266.3	29.0	-79.9	0.0
2025-01-21 19:28:26.471194	267.0	29.0	-79.3	0.0
2025-01-21 19:28:28.719030	267.8	29.0	-79.7	0.0
2025-01-21 19:28:30.964933	268.5	29.0	-79.3	0.0
2025-01-21 19:28:33.210929	269.2	29.0	-78.5	0.0
2025-01-21 19:28:35.459284	270.0	28.9	-78.9	0.0
2025-01-21 19:28:37.705963	270.7	28.9	-78.7	0.0
2025-01-21 19:28:39.950526	271.5	28.9	-79.0	0.0
2025-01-21 19:28:42.199308	272.2	28.9	-78.8	0.0
2025-01-21 19:28:44.445683	272.9	28.8	-78.8	0.0
2025-01-21 19:28:46.692551	273.6	28.8	-78.2	0.0
2025-01-21 19:28:48.939453	274.4	28.7	-78.4	0.0
2025-01-21 19:28:51.187684	275.1	28.7	-79.0	0.0
2025-01-21 19:28:53.432565	275.8	28.6	-78.6	0.0
2025-01-21 19:28:55.677495	276.5	28.6	-77.9	0.0
2025-01-21 19:28:57.924931	277.3	28.5	-78.5	0.0
2025-01-21 19:29:00.167098	278.0	28.4	-78.7	0.0
2025-01-21 19:29:02.412863	278.7	28.4	-78.0	0.0
2025-01-21 19:29:04.660488	279.4	28.3	-78.4	0.0
2025-01-21 19:29:06.908601	280.1	28.2	-78.8	0.0
2025-01-21 19:29:09.156338	280.8	28.1	-78.7	0.0
2025-01-21 19:29:11.404574	281.5	28.0	-79.0	0.0
2025-01-21 19:29:13.650677	282.2	27.9	-79.3	0.0
2025-01-21 19:29:15.897987	282.9	27.8	-79.5	0.0
2025-01-21 19:29:18.147300	283.6	27.7	-78.3	0.0
2025-01-21 19:29:20.395564	284.2	27.6	-79.3	0.0
2025-01-21 19:29:22.642362	284.9	27.5	-77.9	0.0
2025-01-21 19:29:24.885523	285.6	27.4	-79.1	0.0
2025-01-21 19:29:27.132172	286.3	27.3	-79.0	0.0
2025-01-21 19:29:29.379058	286.9	27.1	-78.4	0.0
2025-01-21 19:29:31.624424	287.6	27.0	-78.5	0.0
2025-01-21 19:29:33.872478	288.2	26.9	-78.4	0.0
2025-01-21 19:29:36.121761	288.9	26.8	-78.6	0.0
2025-01-21 19:29:38.369702	289.5	26.6	-78.3	0.0
2025-01-21 19:29:40.615896	290.1	26.5	-77.9	0.0
2025-01-21 19:29:42.861232	290.8	26.3	-78.1	0.0
2025-01-21 19:29:45.110139	291.4	26.2	-76.7	0.0
2025-01-21 19:29:47.354237	292.0	26.0	-77.7	0.0
2025-01-21 19:29:49.601582	292.6	25.9	-77.8	0.0
2025-01-21 19:29:51.849154	293.2	25.7	-78.8	0.0
2025-01-21 19:29:54.094559	293.8	25.6	-78.9	0.0
2025-01-21 19:29:56.342512	294.4	25.4	-78.2	0.0
2025-01-21 19:29:58.589192	295.0	25.3	-78.0	0.0
2025-01-21 19:30:00.836317	295.6	25.1	-77.2	0.0
2025-01-21 19:30:03.081817	296.2	24.9	-77.9	0.0
2025-01-21 19:30:05.327216	296.7	24.8	-78.4	0.0
2025-01-21 19:30:07.570949	297.3	24.6	-78.6	0.0
2025-01-21 19:30:09.815981	297.9	24.4	-77.8	0.0
2025-01-21 19:30:12.060979	298.4	24.3	-78.1	0.0
2025-01-21 19:30:14.307095	299.0	24.1	-77.4	0.0
2025-01-21 19:30:16.552961	299.5	23.9	-78.0	0.0
2025-01-21 19:30:18.798525	300.1	23.8	-77.7	0.0
2025-01-21 19:30:21.041620	300.6	23.6	-78.3	0.0
2025-01-21 19:30:23.285020	301.1	23.4	-78.1	0.0
2025-01-21 19:30:25.532282	301.6	23.2	-77.2	0.0
2025-01-21 19:30:27.779261	302.1	23.0	-77.4	0.0
2025-01-21 19:30:30.028663	302.6	22.9	-73.6	0.0
2025-01-21 19:30:32.272855	303.1	22.7	-77.1	0.0
2025-01-21 19:30:34.520149	303.6	22.5	-76.2	0.0
2025-01-21 19:30:36.767204	304.1	22.3	-77.3	0.0
2025-01-21 19:30:39.013237	304.6	22.1	-76.8	0.0
2025-01-21 19:30:41.257564	305.1	21.9	-77.5	0.0
2025-01-21 19:30:43.504179	305.6	21.8	-78.9	0.0
2025-01-21 19:30:45.749969	306.0	21.6	-78.5	0.0
2025-01-21 19:30:47.997617	306.5	21.4	-73.4	0.0
2025-01-21 19:30:50.243190	306.9	21.2	-78.1	0.0
2025-01-21 19:30:52.488699	307.4	21.0	-78.0	0.0
2025-01-21 19:30:54.731172	307.8	20.8	-77.7	0.0
2025-01-21 19:30:56.978619	308.3	20.6	-73.3	0.0
2025-01-21 19:30:59.224865	308.7	20.4	-76.8	0.0
2025-01-21 19:31:01.470096	309.1	20.3	-77.2	0.0
2025-01-21 19:31:03.714896	309.6	20.1	-76.9	0.0
2025-01-21 19:31:05.963991	310.0	19.9	-75.4	0.0
2025-01-21 19:31:08.208334	310.4	19.7	-75.3	0.0
2025-01-21 19:31:10.455689	310.8	19.5	-74.2	0.0
2025-01-21 19:31:12.701860	311.2	19.3	-76.3	0.0
2025-01-21 19:31:14.943508	311.6	19.1	-76.5	0.0
2025-01-21 19:31:17.189932	312.0	18.9	-73.6	0.0
2025-01-21 19:31:19.436068	312.4	18.7	-76.3	0.0
2025-01-21 19:31:21.679142	312.8	18.6	-74.7	0.0
2025-01-21 19:31:23.927088	313.2	18.4	-75.4	0.0
2025-01-21 19:31:26.172645	313.6	18.2	-74.3	0.0
2025-01-21 19:31:28.417071	313.9	18.0	-74.0	0.0
2025-01-21 19:31:30.664539	314.3	17.8	-71.2	0.0
2025-01-21 19:31:32.911568	314.7	17.6	-74.0	0.0
2025-01-21 19:31:35.156930	315.0	17.4	-73.2	0.0
2025-01-21 19:31:37.403251	315.4	17.2	-72.1	0.0
2025-01-21 19:31:39.648381	315.7	17.1	-71.6	0.0
2025-01-21 19:31:41.894906	316.1	16.9	-74.1	0.0
2025-01-21 19:31:44.142542	316.4	16.7	-73.7	0.0
2025-01-21 19:31:46.389922	316.7	16.5	-73.7	0.0
2025-01-21 19:31:48.634299	317.1	16.3	-71.0	0.0
2025-01-21 19:31:50.883584	317.4	16.1	-71.5	0.0
2025-01-21 19:31:53.130341	317.7	16.0	-74.6	0.0
2025-01-21 19:31:55.376552	318.1	15.8	-69.9	0.0
2025-01-21 19:31:57.621962	318.4	15.6	-72.8	0.0
2025-01-21 19:31:59.866575	318.7	15.4	-70.9	0.0
2025-01-21 19:32:02.114138	319.0	15.2	-74.1	0.0
2025-01-21 19:32:04.359640	319.3	15.0	-74.0	0.0
2025-01-21 19:32:06.605387	319.6	14.9	-70.5	0.0
2025-01-21 19:32:08.851663	319.9	14.7	-70.7	0.0
2025-01-21 19:32:11.095672	320.2	14.5	-73.7	0.0
2025-01-21 19:32:13.341991	320.5	14.3	-76.2	0.0
2025-01-21 19:32:15.587709	320.8	14.2	-67.0	0.0
2025-01-21 19:32:17.835312	321.1	14.0	-76.3	0.0
2025-01-21 19:32:20.081039	321.4	13.8	-75.1	0.0
2025-01-21 19:32:22.330080	321.6	13.6	-75.5	0.0
2025-01-21 19:32:24.577744	321.9	13.4	-70.3	0.0
2025-01-21 19:32:26.826255	322.2	13.3	-70.2	0.0
2025-01-21 19:32:29.074217	322.5	13.1	-67.7	0.0
2025-01-21 19:32:31.319166	322.7	12.9	-73.3	0.0
2025-01-21 19:32:33.562602	323.0	12.8	-71.9	0.0
2025-01-21 19:32:35.806648	323.3	12.6	-70.9	0.0
2025-01-21 19:32:38.051496	323.5	12.4	-71.1	0.0
2025-01-21 19:32:40.297923	323.8	12.2	-66.9	0.0
2025-01-21 19:32:42.544245	324.0	12.1	-70.9	0.0
2025-01-21 19:32:44.790319	324.3	11.9	-67.3	0.0
2025-01-21 19:32:47.035021	324.5	11.7	-71.7	0.0
2025-01-21 19:32:49.280071	324.8	11.6	-68.5	0.0
2025-01-21 19:32:51.527226	325.0	11.4	-72.2	0.0
2025-01-21 19:32:53.773930	325.3	11.2	-70.3	0.0
2025-01-21 19:32:56.022735	325.5	11.1	-71.7	0.0
2025-01-21 19:32:58.270411	325.7	10.9	-73.1	0.0
2025-01-21 19:33:00.516672	326.0	10.7	-77.8	0.0
2025-01-21 19:33:02.763442	326.2	10.6	-79.6	0.0
2025-01-21 19:33:05.012473	326.4	10.4	-81.1	0.0
2025-01-21 19:33:07.258387	326.7	10.3	-80.9	0.0
2025-01-21 19:33:09.502712	326.9	10.1	-80.8	0.0
#Closed at: 2025-01-21 19:23:40.671509