passes_logs/2025/01/21/planumMaritime01/planumMaritime01__20250121_092946_NOAA_19_rec.log

#Pass ID: 20250121_092946_NOAA 19
#Satellite: NOAA 19
#Configuration: NOAA 19
#Start time: 2025-01-21 09:29:51.673515

#LorettStation: 1.0.0 05.05.2024
#Station: planumMaritime01
#Location: 37.49445 lon 55.92918 lat
#TLE: 1 33591U 09005A   25020.17232911  .00000399  00000+0  23710-3 0  9996
#TLE: 2 33591  99.0187  83.9745 0014303  43.5990 316.6309 14.13263973822272

#Time	Az	El	Level	SNR
2025-01-21 09:29:53.828509	1.5	10.2	-69.7	0.0
2025-01-21 09:29:56.075501	1.2	10.3	-69.1	0.0
2025-01-21 09:29:58.319618	1.0	10.5	-71.0	0.0
2025-01-21 09:30:00.566308	0.7	10.6	-69.3	0.0
2025-01-21 09:30:02.814020	0.5	10.8	-70.6	0.0
2025-01-21 09:30:05.062320	0.3	10.9	-70.6	0.0
2025-01-21 09:30:07.310009	0.0	11.1	-71.9	0.0
2025-01-21 09:30:09.560517	359.7	11.3	-72.2	0.0
2025-01-21 09:30:11.806143	359.5	11.4	-71.2	0.0
2025-01-21 09:30:14.051220	359.2	11.6	-69.4	0.0
2025-01-21 09:30:16.298779	359.0	11.7	-71.1	0.0
2025-01-21 09:30:18.547061	358.7	11.9	-70.4	0.0
2025-01-21 09:30:20.795559	358.4	12.1	-70.7	0.0
2025-01-21 09:30:23.041732	358.2	12.2	-71.1	0.0
2025-01-21 09:30:25.289477	357.9	12.4	-73.0	0.0
2025-01-21 09:30:27.534502	357.6	12.6	-73.0	0.0
2025-01-21 09:30:29.786523	357.3	12.7	-72.8	0.0
2025-01-21 09:30:32.034360	357.1	12.9	-65.0	0.0
2025-01-21 09:30:34.281787	356.8	13.1	-71.9	0.0
2025-01-21 09:30:36.527299	356.5	13.2	-62.5	0.0
2025-01-21 09:30:38.776101	356.2	13.4	-64.2	0.0
2025-01-21 09:30:41.025631	355.9	13.6	-72.6	0.0
2025-01-21 09:30:43.275786	355.6	13.7	-70.5	0.0
2025-01-21 09:30:45.523674	355.3	13.9	-68.7	0.0
2025-01-21 09:30:47.770380	355.0	14.1	-65.9	0.0
2025-01-21 09:30:50.017194	354.7	14.2	-68.6	0.0
2025-01-21 09:30:52.264303	354.4	14.4	-70.0	0.0
2025-01-21 09:30:54.511432	354.1	14.6	-67.8	0.0
2025-01-21 09:30:56.756678	353.7	14.7	-71.2	0.0
2025-01-21 09:30:59.003421	353.4	14.9	-68.8	0.0
2025-01-21 09:31:01.249898	353.1	15.1	-71.3	0.0
2025-01-21 09:31:03.496392	352.8	15.2	-69.0	0.0
2025-01-21 09:31:05.746196	352.4	15.4	-64.8	0.0
2025-01-21 09:31:07.989349	352.1	15.6	-68.8	0.0
2025-01-21 09:31:10.236148	351.7	15.7	-68.4	0.0
2025-01-21 09:31:12.482756	351.4	15.9	-66.3	0.0
2025-01-21 09:31:14.732287	351.0	16.1	-70.3	0.0
2025-01-21 09:31:16.979692	350.7	16.3	-66.5	0.0
2025-01-21 09:31:19.225428	350.3	16.4	-69.1	0.0
2025-01-21 09:31:21.474712	350.0	16.6	-71.0	0.0
2025-01-21 09:31:23.721152	349.6	16.8	-72.3	0.0
2025-01-21 09:31:25.965224	349.2	16.9	-73.2	0.0
2025-01-21 09:31:28.211619	348.8	17.1	-72.0	0.0
2025-01-21 09:31:30.461766	348.5	17.3	-70.3	0.0
2025-01-21 09:31:32.708750	348.1	17.4	-72.1	0.0
2025-01-21 09:31:34.955670	347.7	17.6	-74.1	0.0
2025-01-21 09:31:37.202360	347.3	17.8	-74.4	0.0
2025-01-21 09:31:39.447453	346.9	17.9	-75.5	0.0
2025-01-21 09:31:41.692587	346.5	18.1	-72.8	0.0
2025-01-21 09:31:43.940184	346.1	18.3	-75.2	0.0
2025-01-21 09:31:46.183940	345.7	18.5	-75.8	0.0
2025-01-21 09:31:48.430270	345.3	18.6	-73.2	0.0
2025-01-21 09:31:50.676544	344.8	18.8	-77.1	0.0
2025-01-21 09:31:52.922592	344.4	18.9	-77.3	0.0
2025-01-21 09:31:55.170351	344.0	19.1	-77.3	0.0
2025-01-21 09:31:57.416353	343.6	19.3	-75.7	0.0
2025-01-21 09:31:59.660788	343.1	19.4	-76.2	0.0
2025-01-21 09:32:01.908121	342.7	19.6	-75.6	0.0
2025-01-21 09:32:04.154856	342.2	19.8	-72.1	0.0
2025-01-21 09:32:06.403291	341.8	19.9	-69.4	0.0
2025-01-21 09:32:08.652373	341.3	20.1	-76.4	0.0
2025-01-21 09:32:10.897432	340.8	20.3	-76.3	0.0
2025-01-21 09:32:13.145636	340.4	20.4	-77.1	0.0
2025-01-21 09:32:15.392638	339.9	20.6	-75.5	0.0
2025-01-21 09:32:17.643253	339.4	20.7	-75.9	0.0
2025-01-21 09:32:19.890062	338.9	20.9	-74.1	0.0
2025-01-21 09:32:22.140474	338.5	21.0	-75.5	0.0
2025-01-21 09:32:24.391589	338.0	21.2	-75.0	0.0
2025-01-21 09:32:26.637295	337.5	21.3	-76.6	0.0
2025-01-21 09:32:28.885968	337.0	21.5	-74.8	0.0
2025-01-21 09:32:31.131046	336.5	21.6	-76.2	0.0
2025-01-21 09:32:33.377505	335.9	21.8	-75.6	0.0
2025-01-21 09:32:35.624926	335.4	21.9	-75.2	0.0
2025-01-21 09:32:37.872837	334.9	22.1	-76.0	0.0
2025-01-21 09:32:40.117693	334.4	22.2	-75.8	0.0
2025-01-21 09:32:42.365612	333.8	22.4	-73.9	0.0
2025-01-21 09:32:44.613126	333.3	22.5	-76.0	0.0
2025-01-21 09:32:46.856602	332.8	22.6	-72.2	0.0
2025-01-21 09:32:49.104552	332.2	22.8	-76.6	0.0
2025-01-21 09:32:51.348123	331.7	22.9	-77.3	0.0
2025-01-21 09:32:53.591158	331.1	23.0	-77.3	0.0
2025-01-21 09:32:55.839346	330.6	23.2	-75.5	0.0
2025-01-21 09:32:58.089264	330.0	23.3	-77.1	0.0
2025-01-21 09:33:00.336543	329.4	23.4	-77.7	0.0
2025-01-21 09:33:02.581749	328.9	23.5	-77.0	0.0
2025-01-21 09:33:04.830383	328.3	23.6	-76.9	0.0
2025-01-21 09:33:07.075854	327.7	23.8	-77.3	0.0
2025-01-21 09:33:09.323475	327.1	23.9	-77.9	0.0
2025-01-21 09:33:11.565961	326.5	24.0	-77.8	0.0
2025-01-21 09:33:13.815332	325.9	24.1	-78.2	0.0
2025-01-21 09:33:16.061556	325.3	24.2	-76.5	0.0
2025-01-21 09:33:18.307636	324.7	24.3	-78.7	0.0
2025-01-21 09:33:20.553569	324.1	24.4	-78.8	0.0
2025-01-21 09:33:22.798202	323.5	24.5	-78.9	0.0
2025-01-21 09:33:25.046585	322.9	24.6	-78.3	0.0
2025-01-21 09:33:27.292327	322.3	24.7	-80.3	0.0
2025-01-21 09:33:29.537659	321.7	24.7	-79.1	0.0
2025-01-21 09:33:31.786818	321.0	24.8	-78.8	0.0
2025-01-21 09:33:34.033643	320.4	24.9	-80.0	0.0
2025-01-21 09:33:36.284922	319.8	25.0	-78.9	0.0
2025-01-21 09:33:38.530517	319.1	25.0	-71.7	0.0
2025-01-21 09:33:40.778184	318.5	25.1	-74.1	0.0
2025-01-21 09:33:43.024020	317.9	25.2	-75.3	0.0
2025-01-21 09:33:45.272707	317.2	25.2	-77.3	0.0
2025-01-21 09:33:47.518182	316.6	25.3	-78.4	0.0
2025-01-21 09:33:49.764701	315.9	25.3	-78.3	0.0
2025-01-21 09:33:52.011877	315.3	25.4	-79.3	0.0
2025-01-21 09:33:54.259995	314.6	25.4	-74.6	0.0
2025-01-21 09:33:56.506145	314.0	25.5	-76.3	0.0
2025-01-21 09:33:58.754689	313.3	25.5	-74.9	0.0
2025-01-21 09:34:01.001617	312.7	25.5	-78.3	0.0
2025-01-21 09:34:03.247345	312.0	25.6	-78.0	0.0
2025-01-21 09:34:05.492877	311.4	25.6	-78.2	0.0
2025-01-21 09:34:07.738169	310.7	25.6	-75.6	0.0
2025-01-21 09:34:09.986803	310.1	25.6	-77.5	0.0
2025-01-21 09:34:12.230749	309.4	25.6	-77.8	0.0
2025-01-21 09:34:14.480142	308.8	25.6	-77.0	0.0
2025-01-21 09:34:16.728243	308.1	25.6	-76.1	0.0
2025-01-21 09:34:18.975683	307.4	25.6	-78.0	0.0
2025-01-21 09:34:21.226701	306.8	25.6	-76.4	0.0
2025-01-21 09:34:23.475915	306.1	25.6	-78.7	0.0
2025-01-21 09:34:25.721463	305.5	25.6	-78.6	0.0
2025-01-21 09:34:27.968739	304.8	25.6	-79.0	0.0
2025-01-21 09:34:30.217681	304.1	25.6	-77.8	0.0
2025-01-21 09:34:32.466678	303.5	25.5	-78.5	0.0
2025-01-21 09:34:34.711322	302.8	25.5	-77.9	0.0
2025-01-21 09:34:36.960292	302.2	25.5	-78.9	0.0
2025-01-21 09:34:39.206903	301.5	25.4	-79.5	0.0
2025-01-21 09:34:41.452884	300.9	25.4	-79.6	0.0
2025-01-21 09:34:43.702381	300.2	25.3	-79.7	0.0
2025-01-21 09:34:45.949828	299.6	25.3	-79.5	0.0
2025-01-21 09:34:48.195514	299.0	25.2	-78.9	0.0
2025-01-21 09:34:50.442561	298.3	25.2	-80.8	0.0
2025-01-21 09:34:52.689928	297.7	25.1	-79.8	0.0
2025-01-21 09:34:54.936413	297.0	25.0	-80.8	0.0
2025-01-21 09:34:57.183163	296.4	25.0	-80.9	0.0
2025-01-21 09:34:59.430428	295.8	24.9	-80.4	0.0
2025-01-21 09:35:01.675630	295.1	24.8	-80.5	0.0
2025-01-21 09:35:03.921808	294.5	24.8	-79.9	0.0
2025-01-21 09:35:06.167876	293.9	24.7	-80.2	0.0
2025-01-21 09:35:08.412256	293.3	24.6	-80.2	0.0
2025-01-21 09:35:10.658077	292.7	24.5	-80.1	0.0
2025-01-21 09:35:12.902583	292.1	24.4	-80.0	0.0
2025-01-21 09:35:15.149333	291.5	24.3	-80.5	0.0
2025-01-21 09:35:17.395987	290.9	24.2	-80.3	0.0
2025-01-21 09:35:19.639784	290.3	24.1	-80.4	0.0
2025-01-21 09:35:21.887259	289.7	24.0	-80.6	0.0
2025-01-21 09:35:24.133147	289.1	23.9	-80.7	0.0
2025-01-21 09:35:26.379661	288.5	23.8	-80.6	0.0
2025-01-21 09:35:28.625624	287.9	23.7	-79.8	0.0
2025-01-21 09:35:30.871762	287.3	23.5	-80.0	0.0
2025-01-21 09:35:33.117031	286.7	23.4	-80.2	0.0
2025-01-21 09:35:35.364796	286.2	23.3	-80.2	0.0
2025-01-21 09:35:37.614468	285.6	23.2	-79.5	0.0
2025-01-21 09:35:39.861725	285.1	23.0	-79.9	0.0
2025-01-21 09:35:42.109214	284.5	22.9	-80.1	0.0
2025-01-21 09:35:44.356623	283.9	22.8	-80.0	0.0
2025-01-21 09:35:46.602581	283.4	22.7	-79.9	0.0
2025-01-21 09:35:48.846723	282.9	22.5	-79.9	0.0
2025-01-21 09:35:51.093544	282.3	22.4	-80.0	0.0
2025-01-21 09:35:53.342265	281.8	22.2	-80.2	0.0
2025-01-21 09:35:55.588470	281.3	22.1	-79.3	0.0
2025-01-21 09:35:57.831743	280.7	22.0	-80.1	0.0
2025-01-21 09:36:00.082680	280.2	21.8	-79.4	0.0
2025-01-21 09:36:02.330682	279.7	21.7	-79.5	0.0
2025-01-21 09:36:04.577929	279.2	21.5	-78.8	0.0
2025-01-21 09:36:06.824468	278.7	21.4	-78.8	0.0
2025-01-21 09:36:09.067835	278.2	21.2	-78.9	0.0
2025-01-21 09:36:11.316324	277.7	21.1	-80.2	0.0
2025-01-21 09:36:13.564738	277.2	20.9	-80.6	0.0
2025-01-21 09:36:15.813211	276.7	20.8	-80.6	0.0
2025-01-21 09:36:18.058829	276.2	20.6	-80.3	0.0
2025-01-21 09:36:20.305765	275.8	20.4	-79.9	0.0
2025-01-21 09:36:22.550630	275.3	20.3	-80.5	0.0
2025-01-21 09:36:24.801049	274.8	20.1	-80.5	0.0
2025-01-21 09:36:27.048598	274.4	20.0	-80.5	0.0
2025-01-21 09:36:29.295160	273.9	19.8	-79.8	0.0
2025-01-21 09:36:31.542752	273.5	19.6	-80.7	0.0
2025-01-21 09:36:33.790480	273.0	19.5	-80.4	0.0
2025-01-21 09:36:36.037894	272.6	19.3	-80.5	0.0
2025-01-21 09:36:38.283080	272.2	19.1	-80.1	0.0
2025-01-21 09:36:40.528056	271.7	19.0	-80.7	0.0
2025-01-21 09:36:42.772365	271.3	18.8	-80.9	0.0
2025-01-21 09:36:45.020527	270.9	18.6	-80.4	0.0
2025-01-21 09:36:47.265984	270.5	18.5	-80.7	0.0
2025-01-21 09:36:49.513993	270.0	18.3	-80.0	0.0
2025-01-21 09:36:51.761994	269.6	18.1	-80.0	0.0
2025-01-21 09:36:54.005505	269.2	18.0	-80.5	0.0
2025-01-21 09:36:56.255685	268.8	17.8	-79.6	0.0
2025-01-21 09:36:58.501406	268.4	17.6	-79.9	0.0
2025-01-21 09:37:00.748149	268.1	17.5	-80.0	0.0
2025-01-21 09:37:02.993856	267.7	17.3	-80.0	0.0
2025-01-21 09:37:05.242948	267.3	17.1	-79.7	0.0
2025-01-21 09:37:07.490775	266.9	17.0	-79.5	0.0
2025-01-21 09:37:09.737552	266.5	16.8	-79.7	0.0
2025-01-21 09:37:11.985579	266.2	16.6	-79.7	0.0
2025-01-21 09:37:14.230237	265.8	16.5	-79.7	0.0
2025-01-21 09:37:16.475928	265.4	16.3	-80.1	0.0
2025-01-21 09:37:18.720706	265.1	16.1	-80.0	0.0
2025-01-21 09:37:20.970094	264.7	15.9	-79.9	0.0
2025-01-21 09:37:23.219788	264.4	15.8	-80.1	0.0
2025-01-21 09:37:25.467724	264.0	15.6	-80.2	0.0
2025-01-21 09:37:27.715404	263.7	15.4	-80.2	0.0
2025-01-21 09:37:29.963790	263.4	15.3	-80.1	0.0
2025-01-21 09:37:32.213666	263.0	15.1	-80.3	0.0
2025-01-21 09:37:34.458672	262.7	14.9	-80.1	0.0
2025-01-21 09:37:36.704602	262.4	14.8	-80.1	0.0
2025-01-21 09:37:38.952683	262.1	14.6	-80.3	0.0
2025-01-21 09:37:41.200259	261.7	14.4	-80.1	0.0
2025-01-21 09:37:43.446668	261.4	14.3	-80.2	0.0
2025-01-21 09:37:45.691543	261.1	14.1	-80.2	0.0
2025-01-21 09:37:47.938339	260.8	13.9	-80.3	0.0
2025-01-21 09:37:50.185674	260.5	13.8	-80.7	0.0
2025-01-21 09:37:52.430787	260.2	13.6	-80.8	0.0
2025-01-21 09:37:54.680504	259.9	13.4	-79.9	0.0
2025-01-21 09:37:56.927801	259.6	13.3	-79.9	0.0
2025-01-21 09:37:59.174261	259.3	13.1	-80.5	0.0
2025-01-21 09:38:01.418768	259.0	12.9	-80.5	0.0
2025-01-21 09:38:03.666728	258.7	12.8	-80.7	0.0
2025-01-21 09:38:05.912513	258.5	12.6	-80.4	0.0
2025-01-21 09:38:08.157030	258.2	12.4	-80.4	0.0
2025-01-21 09:38:10.401036	257.9	12.3	-80.6	0.0
2025-01-21 09:38:12.647663	257.6	12.1	-80.6	0.0
2025-01-21 09:38:14.891540	257.4	11.9	-80.5	0.0
2025-01-21 09:38:17.139671	257.1	11.8	-80.6	0.0
2025-01-21 09:38:19.388475	256.8	11.6	-80.5	0.0
2025-01-21 09:38:21.633572	256.6	11.5	-80.4	0.0
2025-01-21 09:38:23.881197	256.3	11.3	-80.4	0.0
2025-01-21 09:38:26.128531	256.1	11.1	-80.2	0.0
2025-01-21 09:38:28.375677	255.8	11.0	-80.2	0.0
2025-01-21 09:38:30.624128	255.6	10.8	-79.9	0.0
2025-01-21 09:38:32.869233	255.3	10.7	-80.2	0.0
2025-01-21 09:38:35.115840	255.1	10.5	-81.3	0.0
2025-01-21 09:38:37.364096	254.8	10.3	-81.5	0.0
2025-01-21 09:38:39.610751	254.6	10.2	-82.4	0.0
2025-01-21 09:38:41.858411	254.4	10.0	-82.3	0.0
#Closed at: 2025-01-21 09:29:46.678128