passes_logs/2025/01/21/planumMaritime01/planumMaritime01__20250121_172520_METEOR-M2_3_rec.log

#Pass ID: 20250121_172520_METEOR-M2 3
#Satellite: METEOR-M2 3
#Configuration: METEOR-M2 3
#Start time: 2025-01-21 17:25:25.556424

#LorettStation: 1.0.0 05.05.2024
#Station: planumMaritime01
#Location: 37.49445 lon 55.92918 lat
#TLE: 1 57166U 23091A   25021.15623468  .00000084  00000+0  55759-4 0  9991
#TLE: 2 57166  98.6840  79.5439 0003509 203.5188 156.5830 14.23970854 81643

#Time	Az	El	Level	SNR
2025-01-21 17:25:27.713346	147.9	10.2	-76.6	0.0
2025-01-21 17:25:29.960900	147.8	10.4	-75.3	0.0
2025-01-21 17:25:32.206683	147.8	10.6	-76.5	0.0
2025-01-21 17:25:34.451643	147.7	10.8	-74.3	0.0
2025-01-21 17:25:36.699980	147.6	11.0	-75.9	0.0
2025-01-21 17:25:38.947124	147.6	11.2	-76.4	0.0
2025-01-21 17:25:41.198546	147.5	11.4	-75.7	0.0
2025-01-21 17:25:43.443770	147.4	11.6	-75.3	0.0
2025-01-21 17:25:45.690145	147.4	11.8	-75.7	0.0
2025-01-21 17:25:47.934308	147.3	12.0	-75.8	0.0
2025-01-21 17:25:50.183363	147.2	12.2	-75.8	0.0
2025-01-21 17:25:52.425962	147.2	12.5	-76.2	0.0
2025-01-21 17:25:54.669693	147.1	12.7	-76.1	0.0
2025-01-21 17:25:56.913940	147.0	12.9	-75.8	0.0
2025-01-21 17:25:59.162756	147.0	13.1	-74.3	0.0
2025-01-21 17:26:01.411383	146.9	13.3	-74.9	0.0
2025-01-21 17:26:03.658418	146.8	13.6	-75.1	0.0
2025-01-21 17:26:05.905767	146.7	13.8	-75.3	0.0
2025-01-21 17:26:08.150648	146.7	14.0	-75.2	0.0
2025-01-21 17:26:10.398513	146.6	14.2	-75.4	0.0
2025-01-21 17:26:12.645310	146.5	14.5	-75.3	0.0
2025-01-21 17:26:14.893364	146.4	14.7	-75.5	0.0
2025-01-21 17:26:17.138054	146.3	14.9	-75.8	0.0
2025-01-21 17:26:19.384178	146.2	15.2	-76.7	0.0
2025-01-21 17:26:21.631666	146.2	15.4	-76.2	0.0
2025-01-21 17:26:23.879516	146.1	15.7	-76.6	0.0
2025-01-21 17:26:26.126672	146.0	15.9	-75.6	0.0
2025-01-21 17:26:28.374639	145.9	16.2	-76.0	0.0
2025-01-21 17:26:30.619585	145.8	16.4	-76.0	0.0
2025-01-21 17:26:32.865927	145.7	16.7	-76.1	0.0
2025-01-21 17:26:35.114609	145.6	16.9	-76.4	0.0
2025-01-21 17:26:37.361514	145.5	17.2	-76.4	0.0
2025-01-21 17:26:39.606917	145.4	17.5	-76.0	0.0
2025-01-21 17:26:41.857254	145.3	17.7	-75.8	0.0
2025-01-21 17:26:44.106765	145.2	18.0	-76.0	0.0
2025-01-21 17:26:46.356287	145.1	18.3	-75.5	0.0
2025-01-21 17:26:48.605366	145.0	18.5	-75.8	0.0
2025-01-21 17:26:50.852026	144.9	18.8	-76.0	0.0
2025-01-21 17:26:53.105466	144.8	19.1	-75.2	0.0
2025-01-21 17:26:55.353712	144.6	19.4	-76.5	0.0
2025-01-21 17:26:57.602185	144.5	19.7	-75.5	0.0
2025-01-21 17:26:59.849538	144.4	20.0	-75.5	0.0
2025-01-21 17:27:02.096780	144.3	20.2	-74.8	0.0
2025-01-21 17:27:04.345365	144.2	20.5	-76.5	0.0
2025-01-21 17:27:06.592533	144.0	20.8	-75.7	0.0
2025-01-21 17:27:08.836459	143.9	21.1	-75.6	0.0
2025-01-21 17:27:11.084748	143.8	21.4	-76.6	0.0
2025-01-21 17:27:13.329677	143.6	21.8	-75.9	0.0
2025-01-21 17:27:15.576593	143.5	22.1	-76.6	0.0
2025-01-21 17:27:17.820325	143.4	22.4	-75.7	0.0
2025-01-21 17:27:20.064167	143.2	22.7	-76.1	0.0
2025-01-21 17:27:22.310285	143.1	23.0	-76.9	0.0
2025-01-21 17:27:24.556408	142.9	23.4	-76.7	0.0
2025-01-21 17:27:26.802562	142.8	23.7	-77.0	0.0
2025-01-21 17:27:29.051886	142.6	24.0	-76.0	0.0
2025-01-21 17:27:31.301391	142.5	24.4	-76.3	0.0
2025-01-21 17:27:33.545571	142.3	24.7	-76.8	0.0
2025-01-21 17:27:35.793066	142.1	25.1	-75.9	0.0
2025-01-21 17:27:38.039618	142.0	25.4	-76.7	0.0
2025-01-21 17:27:40.289469	141.8	25.8	-76.0	0.0
2025-01-21 17:27:42.535860	141.6	26.1	-76.6	0.0
2025-01-21 17:27:44.781018	141.4	26.5	-76.0	0.0
2025-01-21 17:27:47.029484	141.2	26.9	-75.5	0.0
2025-01-21 17:27:49.273940	141.0	27.3	-74.7	0.0
2025-01-21 17:27:51.520711	140.8	27.7	-74.8	0.0
2025-01-21 17:27:53.768946	140.6	28.0	-75.1	0.0
2025-01-21 17:27:56.015623	140.4	28.4	-75.1	0.0
2025-01-21 17:27:58.261241	140.2	28.8	-74.9	0.0
2025-01-21 17:28:00.507509	140.0	29.2	-74.7	0.0
2025-01-21 17:28:02.752482	139.8	29.6	-74.9	0.0
2025-01-21 17:28:04.998116	139.5	30.1	-73.4	0.0
2025-01-21 17:28:07.242554	139.3	30.5	-73.5	0.0
2025-01-21 17:28:09.489798	139.1	30.9	-73.3	0.0
2025-01-21 17:28:11.736591	138.8	31.3	-72.1	0.0
2025-01-21 17:28:13.983022	138.6	31.8	-71.1	0.0
2025-01-21 17:28:16.229582	138.3	32.2	-71.4	0.0
2025-01-21 17:28:18.478122	138.0	32.7	-70.5	0.0
2025-01-21 17:28:20.724991	137.7	33.1	-71.2	0.0
2025-01-21 17:28:22.971906	137.5	33.6	-69.7	0.0
2025-01-21 17:28:25.218801	137.2	34.0	-69.1	0.0
2025-01-21 17:28:27.468329	136.9	34.5	-69.0	0.0
2025-01-21 17:28:29.717988	136.5	35.0	-68.0	0.0
2025-01-21 17:28:31.965084	136.2	35.5	-69.1	0.0
2025-01-21 17:28:34.210630	135.9	36.0	-70.9	0.0
2025-01-21 17:28:36.457794	135.5	36.5	-69.5	0.0
2025-01-21 17:28:38.704207	135.2	37.0	-67.8	0.0
2025-01-21 17:28:40.951626	134.8	37.5	-68.2	0.0
2025-01-21 17:28:43.195588	134.4	38.0	-70.1	0.0
2025-01-21 17:28:45.441917	134.1	38.5	-70.6	0.0
2025-01-21 17:28:47.690696	133.6	39.1	-71.3	0.0
2025-01-21 17:28:49.939709	133.2	39.6	-68.6	0.0
2025-01-21 17:28:52.186627	132.8	40.2	-71.8	0.0
2025-01-21 17:28:54.432020	132.3	40.7	-69.0	0.0
2025-01-21 17:28:56.679096	131.9	41.3	-67.6	0.0
2025-01-21 17:28:58.928199	131.4	41.8	-71.5	0.0
2025-01-21 17:29:01.175426	130.9	42.4	-70.9	0.0
2025-01-21 17:29:03.422776	130.4	43.0	-68.3	0.0
2025-01-21 17:29:05.667933	129.9	43.6	-70.0	0.0
2025-01-21 17:29:07.917814	129.3	44.2	-69.0	0.0
2025-01-21 17:29:10.163676	128.7	44.8	-69.1	0.0
2025-01-21 17:29:12.412163	128.1	45.4	-70.0	0.0
2025-01-21 17:29:14.658031	127.5	46.0	-70.4	0.0
2025-01-21 17:29:16.904430	126.9	46.6	-72.6	0.0
2025-01-21 17:29:19.151951	126.2	47.2	-71.3	0.0
2025-01-21 17:29:21.396603	125.5	47.8	-72.1	0.0
2025-01-21 17:29:23.643613	124.7	48.5	-70.5	0.0
2025-01-21 17:29:25.886627	124.0	49.1	-72.5	0.0
2025-01-21 17:29:28.133341	123.2	49.7	-76.2	0.0
2025-01-21 17:29:30.380745	122.4	50.4	-74.1	0.0
2025-01-21 17:29:32.626485	121.5	51.0	-73.4	0.0
2025-01-21 17:29:34.869962	120.6	51.6	-75.7	0.0
2025-01-21 17:29:37.116872	119.7	52.3	-73.4	0.0
2025-01-21 17:29:39.359169	118.7	52.9	-75.2	0.0
2025-01-21 17:29:41.606166	117.7	53.6	-74.6	0.0
2025-01-21 17:29:43.849804	116.6	54.2	-75.2	0.0
2025-01-21 17:29:46.096346	115.5	54.8	-76.1	0.0
2025-01-21 17:29:48.343752	114.3	55.5	-76.0	0.0
2025-01-21 17:29:50.594304	113.1	56.1	-76.1	0.0
2025-01-21 17:29:52.842620	111.8	56.7	-75.9	0.0
2025-01-21 17:29:55.086537	110.4	57.3	-76.2	0.0
2025-01-21 17:29:57.331132	109.0	57.9	-76.1	0.0
2025-01-21 17:29:59.577615	107.6	58.5	-76.6	0.0
2025-01-21 17:30:01.822752	106.0	59.1	-76.9	0.0
2025-01-21 17:30:04.069623	104.4	59.7	-78.4	0.0
2025-01-21 17:30:06.316500	102.7	60.2	-77.6	0.0
2025-01-21 17:30:08.561028	101.0	60.8	-77.3	0.0
2025-01-21 17:30:10.810240	99.2	61.3	-78.2	0.0
2025-01-21 17:30:13.056674	97.3	61.8	-76.6	0.0
2025-01-21 17:30:15.304448	95.3	62.2	-78.2	0.0
2025-01-21 17:30:17.552078	93.3	62.7	-77.1	0.0
2025-01-21 17:30:19.799210	91.1	63.1	-77.3	0.0
2025-01-21 17:30:22.047219	89.0	63.4	-78.4	0.0
2025-01-21 17:30:24.292170	86.7	63.8	-77.4	0.0
2025-01-21 17:30:26.540623	84.4	64.1	-78.3	0.0
2025-01-21 17:30:28.784271	82.0	64.4	-78.1	0.0
2025-01-21 17:30:31.027886	79.6	64.6	-78.2	0.0
2025-01-21 17:30:33.269105	77.1	64.8	-77.9	0.0
2025-01-21 17:30:35.515700	74.6	64.9	-78.4	0.0
2025-01-21 17:30:37.763145	72.0	65.0	-77.5	0.0
2025-01-21 17:30:40.011085	69.5	65.1	-77.0	0.0
2025-01-21 17:30:42.259132	66.9	65.1	-77.1	0.0
2025-01-21 17:30:44.507643	64.4	65.0	-77.9	0.0
2025-01-21 17:30:46.752852	61.8	65.0	-77.8	0.0
2025-01-21 17:30:48.999826	59.3	64.8	-78.0	0.0
2025-01-21 17:30:51.244566	56.8	64.7	-78.5	0.0
2025-01-21 17:30:53.492228	54.3	64.5	-77.8	0.0
2025-01-21 17:30:55.736556	51.9	64.2	-78.2	0.0
2025-01-21 17:30:57.984573	49.6	63.9	-78.1	0.0
2025-01-21 17:31:00.229097	47.3	63.6	-78.6	0.0
2025-01-21 17:31:02.476586	45.1	63.2	-78.6	0.0
2025-01-21 17:31:04.722302	42.9	62.9	-78.9	0.0
2025-01-21 17:31:06.966930	40.9	62.4	-78.5	0.0
2025-01-21 17:31:09.214016	38.9	62.0	-77.6	0.0
2025-01-21 17:31:11.456930	36.9	61.5	-77.8	0.0
2025-01-21 17:31:13.702829	35.1	61.0	-78.5	0.0
2025-01-21 17:31:15.946693	33.3	60.5	-78.4	0.0
2025-01-21 17:31:18.191755	31.6	59.9	-78.3	0.0
2025-01-21 17:31:20.438565	30.0	59.4	-78.0	0.0
2025-01-21 17:31:22.684652	28.4	58.8	-78.0	0.0
2025-01-21 17:31:24.931011	26.9	58.2	-78.5	0.0
2025-01-21 17:31:27.179124	25.5	57.6	-76.5	0.0
2025-01-21 17:31:29.422052	24.1	57.0	-78.2	0.0
2025-01-21 17:31:31.666901	22.8	56.4	-78.0	0.0
2025-01-21 17:31:33.915591	21.5	55.8	-76.5	0.0
2025-01-21 17:31:36.160385	20.3	55.2	-77.1	0.0
2025-01-21 17:31:38.404544	19.2	54.5	-76.2	0.0
2025-01-21 17:31:40.652277	18.1	53.9	-76.5	0.0
2025-01-21 17:31:42.901296	17.1	53.3	-72.7	0.0
2025-01-21 17:31:45.144797	16.1	52.6	-73.8	0.0
2025-01-21 17:31:47.389390	15.1	52.0	-72.8	0.0
2025-01-21 17:31:49.634418	14.2	51.3	-72.2	0.0
2025-01-21 17:31:51.878491	13.3	50.7	-73.4	0.0
2025-01-21 17:31:54.126088	12.5	50.1	-72.3	0.0
2025-01-21 17:31:56.372800	11.6	49.4	-72.3	0.0
2025-01-21 17:31:58.617925	10.9	48.8	-72.4	0.0
2025-01-21 17:32:00.862537	10.1	48.2	-70.1	0.0
2025-01-21 17:32:03.110124	9.4	47.6	-69.2	0.0
2025-01-21 17:32:05.355301	8.7	46.9	-69.5	0.0
2025-01-21 17:32:07.600919	8.1	46.3	-71.6	0.0
2025-01-21 17:32:09.847863	7.4	45.7	-72.2	0.0
2025-01-21 17:32:12.094348	6.8	45.1	-70.0	0.0
2025-01-21 17:32:14.340154	6.2	44.5	-70.7	0.0
2025-01-21 17:32:16.587621	5.7	43.9	-73.7	0.0
2025-01-21 17:32:18.832570	5.1	43.3	-71.5	0.0
2025-01-21 17:32:21.079550	4.6	42.8	-73.9	0.0
2025-01-21 17:32:23.328834	4.1	42.2	-71.3	0.0
2025-01-21 17:32:25.575608	3.6	41.6	-68.7	0.0
2025-01-21 17:32:27.820217	3.2	41.1	-67.8	0.0
2025-01-21 17:32:30.066638	2.7	40.5	-71.2	0.0
2025-01-21 17:32:32.314049	2.3	40.0	-72.6	0.0
2025-01-21 17:32:34.558022	1.8	39.4	-71.5	0.0
2025-01-21 17:32:36.807590	1.4	38.9	-70.2	0.0
2025-01-21 17:32:39.054773	1.0	38.3	-70.5	0.0
2025-01-21 17:32:41.299844	0.6	37.8	-70.0	0.0
2025-01-21 17:32:43.543911	0.3	37.3	-67.8	0.0
2025-01-21 17:32:45.786590	359.9	36.8	-68.0	0.0
2025-01-21 17:32:48.031118	359.6	36.3	-66.5	0.0
2025-01-21 17:32:50.275071	359.2	35.8	-68.0	0.0
2025-01-21 17:32:52.521357	358.9	35.3	-66.3	0.0
2025-01-21 17:32:54.766257	358.6	34.8	-69.2	0.0
2025-01-21 17:32:57.012664	358.3	34.4	-69.3	0.0
2025-01-21 17:32:59.259514	358.0	33.9	-66.0	0.0
2025-01-21 17:33:01.504475	357.7	33.4	-65.8	0.0
2025-01-21 17:33:03.748067	357.4	33.0	-65.5	0.0
2025-01-21 17:33:05.992516	357.1	32.5	-68.7	0.0
2025-01-21 17:33:08.240905	356.9	32.1	-67.6	0.0
2025-01-21 17:33:10.485797	356.6	31.6	-68.6	0.0
2025-01-21 17:33:12.731029	356.4	31.2	-64.7	0.0
2025-01-21 17:33:14.977343	356.1	30.8	-65.5	0.0
2025-01-21 17:33:17.225233	355.9	30.4	-64.0	0.0
2025-01-21 17:33:19.470953	355.6	30.0	-65.0	0.0
2025-01-21 17:33:21.718120	355.4	29.5	-69.9	0.0
2025-01-21 17:33:23.960186	355.2	29.1	-63.7	0.0
2025-01-21 17:33:26.201469	355.0	28.7	-66.1	0.0
2025-01-21 17:33:28.449238	354.8	28.3	-70.4	0.0
2025-01-21 17:33:30.694864	354.6	28.0	-71.7	0.0
2025-01-21 17:33:32.939597	354.4	27.6	-69.8	0.0
2025-01-21 17:33:35.189038	354.2	27.2	-64.6	0.0
2025-01-21 17:33:37.434235	354.0	26.8	-69.0	0.0
2025-01-21 17:33:39.677698	353.8	26.4	-62.8	0.0
2025-01-21 17:33:41.922731	353.6	26.1	-62.3	0.0
2025-01-21 17:33:44.169662	353.5	25.7	-62.5	0.0
2025-01-21 17:33:46.413080	353.3	25.4	-64.2	0.0
2025-01-21 17:33:48.657765	353.1	25.0	-64.0	0.0
2025-01-21 17:33:50.904398	352.9	24.7	-63.6	0.0
2025-01-21 17:33:53.149854	352.8	24.3	-72.1	0.0
2025-01-21 17:33:55.397694	352.6	24.0	-72.9	0.0
2025-01-21 17:33:57.645741	352.5	23.7	-73.3	0.0
2025-01-21 17:33:59.891535	352.3	23.3	-73.0	0.0
2025-01-21 17:34:02.136516	352.2	23.0	-65.3	0.0
2025-01-21 17:34:04.380041	352.0	22.7	-62.9	0.0
2025-01-21 17:34:06.622776	351.9	22.4	-71.2	0.0
2025-01-21 17:34:08.870418	351.8	22.0	-71.7	0.0
2025-01-21 17:34:11.114849	351.6	21.7	-70.0	0.0
2025-01-21 17:34:13.363726	351.5	21.4	-61.2	0.0
2025-01-21 17:34:15.610820	351.4	21.1	-65.1	0.0
2025-01-21 17:34:17.852781	351.2	20.8	-69.3	0.0
2025-01-21 17:34:20.097800	351.1	20.5	-63.9	0.0
2025-01-21 17:34:22.342780	351.0	20.2	-63.8	0.0
2025-01-21 17:34:24.588660	350.9	19.9	-68.8	0.0
2025-01-21 17:34:26.836293	350.8	19.7	-68.2	0.0
2025-01-21 17:34:29.080693	350.6	19.4	-63.4	0.0
2025-01-21 17:34:31.326197	350.5	19.1	-66.7	0.0
2025-01-21 17:34:33.573324	350.4	18.8	-62.6	0.0
2025-01-21 17:34:35.819385	350.3	18.5	-64.1	0.0
2025-01-21 17:34:38.065530	350.2	18.3	-61.5	0.0
2025-01-21 17:34:40.313081	350.1	18.0	-67.9	0.0
2025-01-21 17:34:42.557983	350.0	17.7	-62.9	0.0
2025-01-21 17:34:44.802044	349.9	17.5	-61.5	0.0
2025-01-21 17:34:47.049012	349.8	17.2	-64.8	0.0
2025-01-21 17:34:49.294385	349.7	17.0	-60.3	0.0
2025-01-21 17:34:51.542548	349.6	16.7	-63.0	0.0
2025-01-21 17:34:53.789826	349.5	16.4	-61.0	0.0
2025-01-21 17:34:56.035608	349.4	16.2	-68.8	0.0
2025-01-21 17:34:58.282648	349.4	15.9	-61.6	0.0
2025-01-21 17:35:00.529814	349.3	15.7	-62.3	0.0
2025-01-21 17:35:02.778334	349.2	15.5	-61.5	0.0
2025-01-21 17:35:05.025267	349.1	15.2	-64.5	0.0
2025-01-21 17:35:07.272076	349.0	15.0	-65.6	0.0
2025-01-21 17:35:09.518108	348.9	14.7	-63.6	0.0
2025-01-21 17:35:11.764382	348.9	14.5	-69.5	0.0
2025-01-21 17:35:14.011401	348.8	14.3	-63.2	0.0
2025-01-21 17:35:16.254821	348.7	14.0	-64.1	0.0
2025-01-21 17:35:18.501363	348.6	13.8	-62.5	0.0
2025-01-21 17:35:20.751076	348.5	13.6	-63.6	0.0
2025-01-21 17:35:22.997934	348.5	13.4	-65.9	0.0
2025-01-21 17:35:25.245708	348.4	13.2	-66.1	0.0
2025-01-21 17:35:27.492527	348.3	12.9	-62.5	0.0
2025-01-21 17:35:29.740881	348.3	12.7	-64.7	0.0
2025-01-21 17:35:31.989643	348.2	12.5	-71.9	0.0
2025-01-21 17:35:34.235606	348.1	12.3	-66.1	0.0
2025-01-21 17:35:36.480790	348.1	12.1	-70.5	0.0
2025-01-21 17:35:38.725605	348.0	11.9	-66.6	0.0
2025-01-21 17:35:40.974546	347.9	11.7	-67.9	0.0
2025-01-21 17:35:43.221143	347.9	11.5	-66.3	0.0
2025-01-21 17:35:45.469551	347.8	11.2	-62.8	0.0
2025-01-21 17:35:47.713860	347.7	11.0	-64.1	0.0
2025-01-21 17:35:49.957811	347.7	10.8	-70.1	0.0
2025-01-21 17:35:52.201839	347.6	10.6	-75.3	0.0
2025-01-21 17:35:54.447977	347.6	10.4	-79.0	0.0
2025-01-21 17:35:56.692059	347.5	10.3	-79.4	0.0
2025-01-21 17:35:58.939309	347.5	10.1	-79.7	0.0
#Closed at: 2025-01-21 17:25:20.559059