passes_logs/2025/01/21/planumMaritime01/planumMaritime01__20250121_081232_NOAA_18_rec.log

#Pass ID: 20250121_081232_NOAA 18
#Satellite: NOAA 18
#Configuration: NOAA 18
#Start time: 2025-01-21 08:12:37.927687

#LorettStation: 1.0.0 05.05.2024
#Station: planumMaritime01
#Location: 37.49445 lon 55.92918 lat
#TLE: 1 28654U 05018A   25020.18862715  .00000449  00000+0  26167-3 0  9997
#TLE: 2 28654  98.8558 101.1913 0014575 164.8261 195.3351 14.13491567 13918

#Time	Az	El	Level	SNR
2025-01-21 08:12:40.081594	26.7	10.2	-61.7	0.0
2025-01-21 08:12:42.328846	26.9	10.4	-60.9	0.0
2025-01-21 08:12:44.574676	27.0	10.5	-63.3	0.0
2025-01-21 08:12:46.830987	27.2	10.7	-60.1	0.0
2025-01-21 08:12:49.076825	27.4	10.9	-63.9	0.0
2025-01-21 08:12:51.325463	27.5	11.1	-60.6	0.0
2025-01-21 08:12:53.572901	27.7	11.3	-60.9	0.0
2025-01-21 08:12:55.822083	27.8	11.5	-60.6	0.0
2025-01-21 08:12:58.068996	28.0	11.6	-62.0	0.0
2025-01-21 08:13:00.312940	28.2	11.8	-61.3	0.0
2025-01-21 08:13:02.559006	28.4	12.0	-63.1	0.0
2025-01-21 08:13:04.806574	28.5	12.2	-61.0	0.0
2025-01-21 08:13:07.054006	28.7	12.4	-63.4	0.0
2025-01-21 08:13:09.300086	28.9	12.6	-65.7	0.0
2025-01-21 08:13:11.545270	29.1	12.8	-61.9	0.0
2025-01-21 08:13:13.795621	29.2	13.0	-62.3	0.0
2025-01-21 08:13:16.041560	29.4	13.2	-61.1	0.0
2025-01-21 08:13:18.289070	29.6	13.4	-61.1	0.0
2025-01-21 08:13:20.538194	29.8	13.6	-61.7	0.0
2025-01-21 08:13:22.787754	30.0	13.8	-62.1	0.0
2025-01-21 08:13:25.035552	30.2	14.0	-61.5	0.0
2025-01-21 08:13:27.282530	30.4	14.2	-60.8	0.0
2025-01-21 08:13:29.529741	30.6	14.4	-62.8	0.0
2025-01-21 08:13:31.773663	30.8	14.6	-63.5	0.0
2025-01-21 08:13:34.022366	31.0	14.8	-59.8	0.0
2025-01-21 08:13:36.272939	31.2	15.0	-59.6	0.0
2025-01-21 08:13:38.517393	31.4	15.3	-61.0	0.0
2025-01-21 08:13:40.763770	31.6	15.5	-60.4	0.0
2025-01-21 08:13:43.012830	31.8	15.7	-64.8	0.0
2025-01-21 08:13:45.258504	32.0	15.9	-62.3	0.0
2025-01-21 08:13:47.505750	32.3	16.1	-64.8	0.0
2025-01-21 08:13:49.752205	32.5	16.3	-60.8	0.0
2025-01-21 08:13:51.999888	32.7	16.6	-63.2	0.0
2025-01-21 08:13:54.248161	32.9	16.8	-63.3	0.0
2025-01-21 08:13:56.495019	33.2	17.0	-63.0	0.0
2025-01-21 08:13:58.742060	33.4	17.2	-61.5	0.0
2025-01-21 08:14:00.987786	33.7	17.5	-61.3	0.0
2025-01-21 08:14:03.237346	33.9	17.7	-60.9	0.0
2025-01-21 08:14:05.482784	34.1	17.9	-58.0	0.0
2025-01-21 08:14:07.730756	34.4	18.2	-59.1	0.0
2025-01-21 08:14:09.978909	34.7	18.4	-58.0	0.0
2025-01-21 08:14:12.222372	34.9	18.6	-62.6	0.0
2025-01-21 08:14:14.470114	35.2	18.9	-60.8	0.0
2025-01-21 08:14:16.720671	35.4	19.1	-59.9	0.0
2025-01-21 08:14:18.970399	35.7	19.4	-60.7	0.0
2025-01-21 08:14:21.216890	36.0	19.6	-58.9	0.0
2025-01-21 08:14:23.464737	36.3	19.9	-59.4	0.0
2025-01-21 08:14:25.712405	36.6	20.1	-60.8	0.0
2025-01-21 08:14:27.960778	36.8	20.4	-61.0	0.0
2025-01-21 08:14:30.207807	37.1	20.6	-58.8	0.0
2025-01-21 08:14:32.454785	37.4	20.9	-61.2	0.0
2025-01-21 08:14:34.704473	37.7	21.1	-60.6	0.0
2025-01-21 08:14:36.950006	38.0	21.4	-59.9	0.0
2025-01-21 08:14:39.197924	38.4	21.6	-59.9	0.0
2025-01-21 08:14:41.441624	38.7	21.9	-66.2	0.0
2025-01-21 08:14:43.690799	39.0	22.2	-64.8	0.0
2025-01-21 08:14:45.936514	39.3	22.4	-66.5	0.0
2025-01-21 08:14:48.182723	39.7	22.7	-66.1	0.0
2025-01-21 08:14:50.429573	40.0	23.0	-68.3	0.0
2025-01-21 08:14:52.676854	40.3	23.2	-68.1	0.0
2025-01-21 08:14:54.924583	40.7	23.5	-69.1	0.0
2025-01-21 08:14:57.171950	41.1	23.8	-66.9	0.0
2025-01-21 08:14:59.418105	41.4	24.1	-65.6	0.0
2025-01-21 08:15:01.664221	41.8	24.3	-63.0	0.0
2025-01-21 08:15:03.911753	42.2	24.6	-65.4	0.0
2025-01-21 08:15:06.158531	42.5	24.9	-63.6	0.0
2025-01-21 08:15:08.411058	42.9	25.2	-69.0	0.0
2025-01-21 08:15:10.660030	43.3	25.5	-69.6	0.0
2025-01-21 08:15:12.902789	43.7	25.7	-67.6	0.0
2025-01-21 08:15:15.148833	44.1	26.0	-69.3	0.0
2025-01-21 08:15:17.396453	44.6	26.3	-68.3	0.0
2025-01-21 08:15:19.645477	45.0	26.6	-67.5	0.0
2025-01-21 08:15:21.891770	45.4	26.9	-69.6	0.0
2025-01-21 08:15:24.141668	45.9	27.2	-68.2	0.0
2025-01-21 08:15:26.386166	46.3	27.5	-71.1	0.0
2025-01-21 08:15:28.631904	46.8	27.8	-68.4	0.0
2025-01-21 08:15:30.876385	47.2	28.1	-70.8	0.0
2025-01-21 08:15:33.121891	47.7	28.4	-68.0	0.0
2025-01-21 08:15:35.370372	48.2	28.7	-68.9	0.0
2025-01-21 08:15:37.615430	48.7	29.0	-68.1	0.0
2025-01-21 08:15:39.863134	49.2	29.3	-67.7	0.0
2025-01-21 08:15:42.111787	49.7	29.6	-68.9	0.0
2025-01-21 08:15:44.357235	50.2	29.9	-66.7	0.0
2025-01-21 08:15:46.601035	50.7	30.2	-69.0	0.0
2025-01-21 08:15:48.846823	51.3	30.5	-69.0	0.0
2025-01-21 08:15:51.091783	51.8	30.8	-69.0	0.0
2025-01-21 08:15:53.339081	52.4	31.1	-64.0	0.0
2025-01-21 08:15:55.586679	52.9	31.4	-69.6	0.0
2025-01-21 08:15:57.832754	53.5	31.7	-69.7	0.0
2025-01-21 08:16:00.080794	54.1	32.0	-70.0	0.0
2025-01-21 08:16:02.327504	54.7	32.3	-70.0	0.0
2025-01-21 08:16:04.575292	55.3	32.6	-69.9	0.0
2025-01-21 08:16:06.818583	55.9	32.9	-69.4	0.0
2025-01-21 08:16:09.066011	56.6	33.2	-71.2	0.0
2025-01-21 08:16:11.313863	57.2	33.5	-71.6	0.0
2025-01-21 08:16:13.559104	57.9	33.8	-72.4	0.0
2025-01-21 08:16:15.806641	58.6	34.1	-72.9	0.0
2025-01-21 08:16:18.053850	59.2	34.4	-73.6	0.0
2025-01-21 08:16:20.301635	59.9	34.7	-72.4	0.0
2025-01-21 08:16:22.551199	60.6	35.0	-74.0	0.0
2025-01-21 08:16:24.795481	61.4	35.3	-74.6	0.0
2025-01-21 08:16:27.039328	62.1	35.6	-74.5	0.0
2025-01-21 08:16:29.288865	62.8	35.9	-74.2	0.0
2025-01-21 08:16:31.536461	63.6	36.2	-75.0	0.0
2025-01-21 08:16:33.781191	64.4	36.5	-74.0	0.0
2025-01-21 08:16:36.032086	65.2	36.7	-75.6	0.0
2025-01-21 08:16:38.280545	66.0	37.0	-75.6	0.0
2025-01-21 08:16:40.526382	66.8	37.3	-75.2	0.0
2025-01-21 08:16:42.774327	67.6	37.6	-74.4	0.0
2025-01-21 08:16:45.022117	68.5	37.8	-75.9	0.0
2025-01-21 08:16:47.269729	69.3	38.1	-74.0	0.0
2025-01-21 08:16:49.513705	70.2	38.3	-75.1	0.0
2025-01-21 08:16:51.760155	71.1	38.6	-75.8	0.0
2025-01-21 08:16:54.009046	71.9	38.8	-74.4	0.0
2025-01-21 08:16:56.256606	72.9	39.1	-75.6	0.0
2025-01-21 08:16:58.504020	73.8	39.3	-75.8	0.0
2025-01-21 08:17:00.753619	74.7	39.5	-75.4	0.0
2025-01-21 08:17:02.998986	75.7	39.7	-74.9	0.0
2025-01-21 08:17:05.245471	76.6	39.9	-75.5	0.0
2025-01-21 08:17:07.493124	77.6	40.1	-75.3	0.0
2025-01-21 08:17:09.737278	78.6	40.3	-74.4	0.0
2025-01-21 08:17:11.982854	79.6	40.5	-75.5	0.0
2025-01-21 08:17:14.230796	80.6	40.7	-76.0	0.0
2025-01-21 08:17:16.477126	81.6	40.8	-75.1	0.0
2025-01-21 08:17:18.722917	82.6	41.0	-75.1	0.0
2025-01-21 08:17:20.970220	83.6	41.1	-75.3	0.0
2025-01-21 08:17:23.217397	84.7	41.3	-75.3	0.0
2025-01-21 08:17:25.462681	85.7	41.4	-73.8	0.0
2025-01-21 08:17:27.710827	86.8	41.5	-73.8	0.0
2025-01-21 08:17:29.957250	87.8	41.6	-74.4	0.0
2025-01-21 08:17:32.204805	88.9	41.7	-73.8	0.0
2025-01-21 08:17:34.450404	90.0	41.8	-73.1	0.0
2025-01-21 08:17:36.696281	91.1	41.9	-73.7	0.0
2025-01-21 08:17:38.942565	92.2	41.9	-74.2	0.0
2025-01-21 08:17:41.186704	93.3	42.0	-75.5	0.0
2025-01-21 08:17:43.432957	94.4	42.0	-74.8	0.0
2025-01-21 08:17:45.678646	95.5	42.1	-75.0	0.0
2025-01-21 08:17:47.923276	96.6	42.1	-74.3	0.0
2025-01-21 08:17:50.170024	97.7	42.1	-75.3	0.0
2025-01-21 08:17:52.418836	98.8	42.1	-70.9	0.0
2025-01-21 08:17:54.666639	99.9	42.1	-72.6	0.0
2025-01-21 08:17:56.915231	101.0	42.0	-72.5	0.0
2025-01-21 08:17:59.163990	102.1	42.0	-72.7	0.0
2025-01-21 08:18:01.412277	103.2	41.9	-75.0	0.0
2025-01-21 08:18:03.658805	104.3	41.9	-70.4	0.0
2025-01-21 08:18:05.906423	105.3	41.8	-70.4	0.0
2025-01-21 08:18:08.150963	106.4	41.7	-72.8	0.0
2025-01-21 08:18:10.396109	107.5	41.6	-74.3	0.0
2025-01-21 08:18:12.645556	108.6	41.5	-71.1	0.0
2025-01-21 08:18:14.889172	109.6	41.4	-69.8	0.0
2025-01-21 08:18:17.136893	110.7	41.3	-68.9	0.0
2025-01-21 08:18:19.380644	111.7	41.1	-69.8	0.0
2025-01-21 08:18:21.627085	112.7	41.0	-71.2	0.0
2025-01-21 08:18:23.874865	113.8	40.8	-70.5	0.0
2025-01-21 08:18:26.121298	114.8	40.6	-70.5	0.0
2025-01-21 08:18:28.367966	115.8	40.5	-70.1	0.0
2025-01-21 08:18:30.612746	116.8	40.3	-69.2	0.0
2025-01-21 08:18:32.861665	117.8	40.1	-70.4	0.0
2025-01-21 08:18:35.107831	118.7	39.9	-71.3	0.0
2025-01-21 08:18:37.354757	119.7	39.7	-72.1	0.0
2025-01-21 08:18:39.600204	120.7	39.5	-73.9	0.0
2025-01-21 08:18:41.846902	121.6	39.2	-70.9	0.0
2025-01-21 08:18:44.091594	122.5	39.0	-69.6	0.0
2025-01-21 08:18:46.338916	123.4	38.8	-71.1	0.0
2025-01-21 08:18:48.584977	124.3	38.5	-71.0	0.0
2025-01-21 08:18:50.832795	125.2	38.3	-70.3	0.0
2025-01-21 08:18:53.080372	126.1	38.0	-70.8	0.0
2025-01-21 08:18:55.325356	126.9	37.8	-72.5	0.0
2025-01-21 08:18:57.572498	127.8	37.5	-72.5	0.0
2025-01-21 08:18:59.821249	128.6	37.2	-73.2	0.0
2025-01-21 08:19:02.067078	129.4	37.0	-73.5	0.0
2025-01-21 08:19:04.313788	130.2	36.7	-74.7	0.0
2025-01-21 08:19:06.561970	131.0	36.4	-74.2	0.0
2025-01-21 08:19:08.804683	131.8	36.1	-74.2	0.0
2025-01-21 08:19:11.052788	132.5	35.8	-74.3	0.0
2025-01-21 08:19:13.299266	133.3	35.5	-75.1	0.0
2025-01-21 08:19:15.543305	134.0	35.2	-76.5	0.0
2025-01-21 08:19:17.791429	134.7	34.9	-76.4	0.0
2025-01-21 08:19:20.038136	135.5	34.6	-75.8	0.0
2025-01-21 08:19:22.283343	136.1	34.3	-76.5	0.0
2025-01-21 08:19:24.524942	136.8	34.0	-76.9	0.0
2025-01-21 08:19:26.771862	137.5	33.7	-77.1	0.0
2025-01-21 08:19:29.018663	138.2	33.4	-76.8	0.0
2025-01-21 08:19:31.264415	138.8	33.1	-77.6	0.0
2025-01-21 08:19:33.511314	139.5	32.8	-78.2	0.0
2025-01-21 08:19:35.757995	140.1	32.5	-77.1	0.0
2025-01-21 08:19:38.003651	140.7	32.2	-78.2	0.0
2025-01-21 08:19:40.248768	141.3	31.9	-77.6	0.0
2025-01-21 08:19:42.497257	141.9	31.6	-77.7	0.0
2025-01-21 08:19:44.742673	142.5	31.3	-78.1	0.0
2025-01-21 08:19:46.987235	143.0	31.0	-78.3	0.0
2025-01-21 08:19:49.230023	143.6	30.7	-78.0	0.0
2025-01-21 08:19:51.474569	144.1	30.4	-78.6	0.0
2025-01-21 08:19:53.717809	144.7	30.1	-77.9	0.0
2025-01-21 08:19:55.962005	145.2	29.7	-78.4	0.0
2025-01-21 08:19:58.212926	145.7	29.4	-78.8	0.0
2025-01-21 08:20:00.458549	146.2	29.1	-78.0	0.0
2025-01-21 08:20:02.706657	146.7	28.8	-78.3	0.0
2025-01-21 08:20:04.956582	147.2	28.5	-78.6	0.0
2025-01-21 08:20:07.204691	147.7	28.2	-78.7	0.0
2025-01-21 08:20:09.448986	148.2	27.9	-78.8	0.0
2025-01-21 08:20:11.694833	148.6	27.6	-78.4	0.0
2025-01-21 08:20:13.940179	149.1	27.3	-78.5	0.0
2025-01-21 08:20:16.185683	149.6	27.0	-78.4	0.0
2025-01-21 08:20:18.428399	150.0	26.7	-78.5	0.0
2025-01-21 08:20:20.673199	150.4	26.4	-78.2	0.0
2025-01-21 08:20:22.916310	150.9	26.2	-78.8	0.1
2025-01-21 08:20:25.160695	151.3	25.9	-78.4	0.2
2025-01-21 08:20:27.406646	151.7	25.6	-78.5	1.5
2025-01-21 08:20:29.654279	152.1	25.3	-78.7	1.4
2025-01-21 08:20:31.899551	152.5	25.0	-78.3	0.0
2025-01-21 08:20:34.148594	152.9	24.7	-78.1	1.3
2025-01-21 08:20:36.395494	153.2	24.4	-78.4	0.0
2025-01-21 08:20:38.638678	153.6	24.1	-78.3	0.0
2025-01-21 08:20:40.883612	154.0	23.9	-78.2	0.0
2025-01-21 08:20:43.129618	154.4	23.6	-78.0	0.0
2025-01-21 08:20:45.377040	154.7	23.3	-78.3	0.0
2025-01-21 08:20:47.623455	155.1	23.0	-78.6	0.0
2025-01-21 08:20:49.870361	155.4	22.8	-78.4	0.5
2025-01-21 08:20:52.119689	155.7	22.5	-78.2	0.0
2025-01-21 08:20:54.364865	156.1	22.2	-78.3	0.0
2025-01-21 08:20:56.615598	156.4	22.0	-78.4	0.0
2025-01-21 08:20:58.861582	156.7	21.7	-78.5	0.0
2025-01-21 08:21:01.105746	157.0	21.4	-78.2	0.0
2025-01-21 08:21:03.350828	157.4	21.2	-77.9	0.0
2025-01-21 08:21:05.597083	157.7	20.9	-77.8	0.0
2025-01-21 08:21:07.843565	158.0	20.7	-77.7	0.0
2025-01-21 08:21:10.089039	158.3	20.4	-77.8	0.0
2025-01-21 08:21:12.334717	158.6	20.1	-77.7	0.0
2025-01-21 08:21:14.581732	158.8	19.9	-77.6	0.0
2025-01-21 08:21:16.828937	159.1	19.6	-77.9	0.0
2025-01-21 08:21:19.074656	159.4	19.4	-77.8	0.0
2025-01-21 08:21:21.321344	159.7	19.2	-77.2	0.0
2025-01-21 08:21:23.566032	160.0	18.9	-77.6	0.0
2025-01-21 08:21:25.816569	160.2	18.7	-77.3	0.0
2025-01-21 08:21:28.065980	160.5	18.4	-77.3	0.0
2025-01-21 08:21:30.311841	160.7	18.2	-77.2	0.0
2025-01-21 08:21:32.557428	161.0	17.9	-77.1	0.0
2025-01-21 08:21:34.806817	161.2	17.7	-76.9	0.0
2025-01-21 08:21:37.051300	161.5	17.5	-76.9	0.0
2025-01-21 08:21:39.297856	161.7	17.2	-77.0	0.0
2025-01-21 08:21:41.544144	162.0	17.0	-76.4	0.0
2025-01-21 08:21:43.788969	162.2	16.8	-76.3	0.0
2025-01-21 08:21:46.035496	162.4	16.6	-76.5	0.0
2025-01-21 08:21:48.281524	162.7	16.3	-76.4	0.0
2025-01-21 08:21:50.526028	162.9	16.1	-76.4	0.0
2025-01-21 08:21:52.769918	163.1	15.9	-76.2	0.0
2025-01-21 08:21:55.018291	163.3	15.7	-75.9	0.0
2025-01-21 08:21:57.264123	163.6	15.4	-75.7	0.0
2025-01-21 08:21:59.515274	163.8	15.2	-76.0	0.0
2025-01-21 08:22:01.760279	164.0	15.0	-75.7	0.0
2025-01-21 08:22:04.007364	164.2	14.8	-75.6	0.0
2025-01-21 08:22:06.253388	164.4	14.6	-75.4	0.0
2025-01-21 08:22:08.498462	164.6	14.4	-76.0	0.0
2025-01-21 08:22:10.747800	164.8	14.2	-76.1	0.0
2025-01-21 08:22:12.992614	165.0	13.9	-75.5	0.0
2025-01-21 08:22:15.239862	165.2	13.7	-75.8	0.0
2025-01-21 08:22:17.485686	165.4	13.5	-75.1	0.0
2025-01-21 08:22:19.731011	165.6	13.3	-74.8	0.0
2025-01-21 08:22:21.980873	165.8	13.1	-74.7	0.0
2025-01-21 08:22:24.227270	165.9	12.9	-75.2	0.0
2025-01-21 08:22:26.473852	166.1	12.7	-74.7	0.0
2025-01-21 08:22:28.720812	166.3	12.5	-74.8	0.0
2025-01-21 08:22:30.966644	166.5	12.3	-75.7	0.0
2025-01-21 08:22:33.213605	166.7	12.1	-74.8	0.0
2025-01-21 08:22:35.461766	166.8	11.9	-74.7	0.0
2025-01-21 08:22:37.710754	167.0	11.7	-74.8	0.0
2025-01-21 08:22:39.957341	167.2	11.6	-75.0	0.0
2025-01-21 08:22:42.204978	167.3	11.4	-74.6	0.0
2025-01-21 08:22:44.451775	167.5	11.2	-75.2	0.0
2025-01-21 08:22:46.698027	167.7	11.0	-76.7	0.0
2025-01-21 08:22:48.942859	167.8	10.8	-77.4	0.0
2025-01-21 08:22:51.189726	168.0	10.6	-77.9	0.0
2025-01-21 08:22:53.435765	168.1	10.4	-80.8	0.0
2025-01-21 08:22:55.683928	168.3	10.2	-81.1	0.0
2025-01-21 08:22:57.926946	168.5	10.1	-81.2	0.0
#Closed at: 2025-01-21 08:12:32.931195