passes_logs/2025/01/21/planumMaritime01/planumMaritime01__20250121_073626_METEOR-M2_3_rec.log

#Pass ID: 20250121_073626_METEOR-M2 3
#Satellite: METEOR-M2 3
#Configuration: METEOR-M2 3
#Start time: 2025-01-21 07:36:31.314158

#LorettStation: 1.0.0 05.05.2024
#Station: planumMaritime01
#Location: 37.49445 lon 55.92918 lat
#TLE: 1 57166U 23091A   25020.10224522  .00000094  00000+0  60245-4 0  9990
#TLE: 2 57166  98.6841  78.5029 0003456 207.0821 153.0178 14.23970607 81498

#Time	Az	El	Level	SNR
2025-01-21 07:36:33.482044	15.7	10.2	-70.6	0.0
2025-01-21 07:36:35.731136	15.7	10.4	-70.7	0.0
2025-01-21 07:36:37.975511	15.7	10.6	-71.4	0.0
2025-01-21 07:36:40.220194	15.6	10.8	-71.3	0.0
2025-01-21 07:36:42.469009	15.6	11.0	-73.1	0.0
2025-01-21 07:36:44.713438	15.6	11.2	-71.0	0.0
2025-01-21 07:36:46.964394	15.6	11.4	-72.1	0.0
2025-01-21 07:36:49.210849	15.6	11.6	-72.6	0.0
2025-01-21 07:36:51.459044	15.6	11.8	-71.5	0.0
2025-01-21 07:36:53.706397	15.6	12.0	-70.9	0.0
2025-01-21 07:36:55.954285	15.6	12.2	-71.4	0.0
2025-01-21 07:36:58.197545	15.6	12.5	-72.1	0.0
2025-01-21 07:37:00.444554	15.6	12.7	-71.5	0.0
2025-01-21 07:37:02.690811	15.6	12.9	-70.9	0.0
2025-01-21 07:37:04.940153	15.6	13.1	-70.7	0.0
2025-01-21 07:37:07.189795	15.6	13.3	-70.5	0.0
2025-01-21 07:37:09.436735	15.6	13.6	-72.4	0.0
2025-01-21 07:37:11.682383	15.5	13.8	-71.6	0.0
2025-01-21 07:37:13.926729	15.5	14.0	-71.1	0.0
2025-01-21 07:37:16.174702	15.5	14.3	-70.7	0.0
2025-01-21 07:37:18.421077	15.5	14.5	-69.9	0.0
2025-01-21 07:37:20.668947	15.5	14.7	-69.8	0.0
2025-01-21 07:37:22.919988	15.5	15.0	-70.6	0.0
2025-01-21 07:37:25.165752	15.5	15.2	-68.1	0.0
2025-01-21 07:37:27.415277	15.5	15.5	-70.4	0.0
2025-01-21 07:37:29.659733	15.5	15.7	-69.5	0.0
2025-01-21 07:37:31.908924	15.4	15.9	-68.5	0.0
2025-01-21 07:37:34.153860	15.4	16.2	-68.1	0.0
2025-01-21 07:37:36.402914	15.4	16.5	-68.6	0.0
2025-01-21 07:37:38.649977	15.4	16.7	-65.3	0.0
2025-01-21 07:37:40.898487	15.4	17.0	-67.4	0.0
2025-01-21 07:37:43.144472	15.4	17.2	-65.7	0.0
2025-01-21 07:37:45.390445	15.4	17.5	-65.3	0.0
2025-01-21 07:37:47.634426	15.3	17.8	-67.4	0.0
2025-01-21 07:37:49.880733	15.3	18.0	-66.3	0.0
2025-01-21 07:37:52.125553	15.3	18.3	-67.6	0.0
2025-01-21 07:37:54.370574	15.3	18.6	-66.1	0.0
2025-01-21 07:37:56.617038	15.3	18.9	-68.7	0.0
2025-01-21 07:37:58.863204	15.3	19.2	-67.9	0.0
2025-01-21 07:38:01.108861	15.3	19.4	-70.5	0.0
2025-01-21 07:38:03.355250	15.2	19.7	-69.0	0.0
2025-01-21 07:38:05.603568	15.2	20.0	-70.1	0.0
2025-01-21 07:38:07.851019	15.2	20.3	-69.2	0.0
2025-01-21 07:38:10.095717	15.2	20.6	-67.5	0.0
2025-01-21 07:38:12.342008	15.2	20.9	-69.6	0.0
2025-01-21 07:38:14.589782	15.1	21.2	-68.5	0.0
2025-01-21 07:38:16.837833	15.1	21.5	-67.4	0.0
2025-01-21 07:38:19.082796	15.1	21.9	-68.4	0.0
2025-01-21 07:38:21.329277	15.1	22.2	-69.8	0.0
2025-01-21 07:38:23.577531	15.0	22.5	-68.2	0.0
2025-01-21 07:38:25.823255	15.0	22.8	-71.9	0.0
2025-01-21 07:38:28.071208	15.0	23.2	-67.8	0.0
2025-01-21 07:38:30.318692	15.0	23.5	-64.3	0.0
2025-01-21 07:38:32.563152	14.9	23.9	-71.3	0.0
2025-01-21 07:38:34.809341	14.9	24.2	-69.7	0.0
2025-01-21 07:38:37.058921	14.9	24.6	-70.8	0.0
2025-01-21 07:38:39.307556	14.9	24.9	-70.6	0.0
2025-01-21 07:38:41.551975	14.8	25.3	-71.9	0.0
2025-01-21 07:38:43.796881	14.8	25.6	-70.9	0.0
2025-01-21 07:38:46.042928	14.8	26.0	-68.5	0.0
2025-01-21 07:38:48.288989	14.7	26.4	-71.2	0.0
2025-01-21 07:38:50.536097	14.7	26.8	-69.4	0.0
2025-01-21 07:38:52.786714	14.7	27.2	-69.6	0.0
2025-01-21 07:38:55.034748	14.6	27.5	-69.5	0.0
2025-01-21 07:38:57.282319	14.6	27.9	-67.8	0.0
2025-01-21 07:38:59.531222	14.6	28.4	-65.0	0.0
2025-01-21 07:39:01.778554	14.5	28.8	-69.2	0.0
2025-01-21 07:39:04.027170	14.5	29.2	-71.0	0.0
2025-01-21 07:39:06.276412	14.4	29.6	-71.6	0.0
2025-01-21 07:39:08.524665	14.4	30.0	-69.7	0.0
2025-01-21 07:39:10.771862	14.4	30.5	-70.3	0.0
2025-01-21 07:39:13.022025	14.3	30.9	-70.8	0.0
2025-01-21 07:39:15.267838	14.3	31.4	-67.0	0.0
2025-01-21 07:39:17.511333	14.2	31.8	-69.4	0.0
2025-01-21 07:39:19.757306	14.2	32.3	-69.1	0.0
2025-01-21 07:39:22.006064	14.1	32.8	-69.2	0.0
2025-01-21 07:39:24.252391	14.1	33.2	-69.8	0.0
2025-01-21 07:39:26.497824	14.0	33.7	-69.7	0.0
2025-01-21 07:39:28.743183	13.9	34.2	-70.6	0.0
2025-01-21 07:39:30.987836	13.9	34.7	-72.0	0.0
2025-01-21 07:39:33.234777	13.8	35.2	-70.3	0.0
2025-01-21 07:39:35.483296	13.8	35.8	-72.2	0.0
2025-01-21 07:39:37.729229	13.7	36.3	-71.4	0.0
2025-01-21 07:39:39.973105	13.6	36.8	-72.4	0.0
2025-01-21 07:39:42.219181	13.5	37.4	-71.7	0.0
2025-01-21 07:39:44.464829	13.5	37.9	-73.4	0.0
2025-01-21 07:39:46.710564	13.4	38.5	-69.3	0.0
2025-01-21 07:39:48.960182	13.3	39.1	-71.4	0.0
2025-01-21 07:39:51.206729	13.2	39.7	-73.9	0.0
2025-01-21 07:39:53.451439	13.1	40.2	-77.3	0.0
2025-01-21 07:39:55.695916	13.1	40.8	-77.5	0.0
2025-01-21 07:39:57.941407	13.0	41.5	-74.3	0.0
2025-01-21 07:40:00.188177	12.9	42.1	-72.7	0.0
2025-01-21 07:40:02.433263	12.8	42.7	-75.3	0.0
2025-01-21 07:40:04.678087	12.7	43.4	-78.1	0.0
2025-01-21 07:40:06.924407	12.5	44.0	-78.3	0.0
2025-01-21 07:40:09.170409	12.4	44.7	-78.1	0.0
2025-01-21 07:40:11.414522	12.3	45.4	-79.4	0.0
2025-01-21 07:40:13.661890	12.2	46.1	-79.1	0.0
2025-01-21 07:40:15.909203	12.0	46.8	-78.2	0.0
2025-01-21 07:40:18.154915	11.9	47.5	-79.3	0.0
2025-01-21 07:40:20.400661	11.7	48.2	-79.5	0.0
2025-01-21 07:40:22.647030	11.6	49.0	-79.3	0.0
2025-01-21 07:40:24.893716	11.4	49.7	-79.8	0.0
2025-01-21 07:40:27.139125	11.3	50.5	-80.2	0.0
2025-01-21 07:40:29.383917	11.1	51.3	-79.9	0.0
2025-01-21 07:40:31.630039	10.9	52.1	-79.9	0.0
2025-01-21 07:40:33.876169	10.7	52.9	-79.2	0.0
2025-01-21 07:40:36.122475	10.5	53.7	-79.8	0.0
2025-01-21 07:40:38.369692	10.2	54.5	-79.4	0.0
2025-01-21 07:40:40.614675	10.0	55.4	-80.1	0.0
2025-01-21 07:40:42.858857	9.7	56.2	-79.9	0.0
2025-01-21 07:40:45.103871	9.4	57.1	-79.4	0.0
2025-01-21 07:40:47.353999	9.1	58.0	-79.7	0.0
2025-01-21 07:40:49.599523	8.8	58.9	-78.3	0.0
2025-01-21 07:40:51.845165	8.5	59.8	-79.2	0.0
2025-01-21 07:40:54.092642	8.1	60.7	-79.3	1.7
2025-01-21 07:40:56.338109	7.7	61.6	-79.4	2.7
2025-01-21 07:40:58.587029	7.3	62.6	-79.0	1.7
2025-01-21 07:41:00.831398	6.8	63.5	-78.7	1.3
2025-01-21 07:41:03.078128	6.3	64.5	-79.3	2.6
2025-01-21 07:41:05.326145	5.8	65.5	-79.2	3.6
2025-01-21 07:41:07.574114	5.2	66.5	-79.2	5.0
2025-01-21 07:41:09.822220	4.5	67.5	-77.6	2.8
2025-01-21 07:41:12.070537	3.8	68.5	-78.9	6.6
2025-01-21 07:41:14.316333	3.0	69.5	-78.8	6.1
2025-01-21 07:41:16.562987	2.1	70.5	-78.7	7.6
2025-01-21 07:41:18.806949	1.1	71.6	-78.5	8.6
2025-01-21 07:41:21.053031	360.0	72.6	-78.0	8.8
2025-01-21 07:41:23.296534	358.7	73.6	-77.7	8.3
2025-01-21 07:41:25.541795	357.2	74.7	-78.2	10.9
2025-01-21 07:41:27.789506	355.5	75.7	-78.0	11.4
2025-01-21 07:41:30.036437	353.6	76.7	-77.6	10.2
2025-01-21 07:41:32.284942	351.3	77.7	-77.9	11.7
2025-01-21 07:41:34.533412	348.6	78.7	-77.9	12.7
2025-01-21 07:41:36.779419	345.3	79.7	-77.6	12.7
2025-01-21 07:41:39.025268	341.3	80.7	-77.7	13.4
2025-01-21 07:41:41.271843	336.5	81.5	-77.3	13.8
2025-01-21 07:41:43.520105	330.6	82.4	-77.7	12.3
2025-01-21 07:41:45.765190	323.3	83.1	-77.8	12.6
2025-01-21 07:41:48.011385	314.5	83.7	-77.9	13.5
2025-01-21 07:41:50.256710	304.2	84.1	-77.7	13.6
2025-01-21 07:41:52.501781	292.7	84.3	-77.0	14.2
2025-01-21 07:41:54.747939	280.9	84.2	-76.7	15.2
2025-01-21 07:41:56.993815	269.8	84.0	-76.8	15.9
2025-01-21 07:41:59.240122	259.9	83.5	-77.2	15.1
2025-01-21 07:42:01.486648	251.6	82.9	-77.1	14.6
2025-01-21 07:42:03.730686	244.8	82.1	-77.6	14.2
2025-01-21 07:42:05.978378	239.3	81.3	-77.8	13.9
2025-01-21 07:42:08.224855	234.7	80.3	-77.5	13.5
2025-01-21 07:42:10.471519	231.0	79.4	-77.9	14.0
2025-01-21 07:42:12.717665	228.0	78.4	-77.3	14.1
2025-01-21 07:42:14.965390	225.4	77.4	-77.4	14.4
2025-01-21 07:42:17.210696	223.2	76.4	-77.3	14.7
2025-01-21 07:42:19.459300	221.3	75.3	-77.7	14.1
2025-01-21 07:42:21.707159	219.7	74.3	-77.7	13.2
2025-01-21 07:42:23.956647	218.3	73.3	-78.1	12.9
2025-01-21 07:42:26.202092	217.1	72.2	-78.0	12.1
2025-01-21 07:42:28.447377	216.0	71.2	-78.0	11.7
2025-01-21 07:42:30.695298	215.0	70.2	-77.9	11.9
2025-01-21 07:42:32.944197	214.2	69.1	-78.0	11.4
2025-01-21 07:42:35.191373	213.4	68.1	-78.3	10.8
2025-01-21 07:42:37.438971	212.7	67.1	-78.8	10.7
2025-01-21 07:42:39.686267	212.0	66.1	-78.8	9.5
2025-01-21 07:42:41.932780	211.5	65.1	-79.1	9.3
2025-01-21 07:42:44.177826	210.9	64.1	-79.1	9.4
2025-01-21 07:42:46.423984	210.4	63.2	-79.2	9.0
2025-01-21 07:42:48.677458	210.0	62.2	-79.3	9.0
2025-01-21 07:42:50.926196	209.6	61.3	-79.4	7.4
2025-01-21 07:42:53.173794	209.2	60.3	-79.6	7.7
2025-01-21 07:42:55.418467	208.8	59.4	-79.6	7.3
2025-01-21 07:42:57.666638	208.5	58.5	-79.8	6.3
2025-01-21 07:42:59.913553	208.2	57.6	-79.7	6.3
2025-01-21 07:43:02.160274	207.9	56.7	-79.6	5.8
2025-01-21 07:43:04.403873	207.6	55.9	-80.0	5.8
2025-01-21 07:43:06.652003	207.4	55.0	-79.9	5.0
2025-01-21 07:43:08.900098	207.1	54.2	-79.7	3.5
2025-01-21 07:43:11.146632	206.9	53.3	-79.7	4.5
2025-01-21 07:43:13.394770	206.7	52.5	-79.7	4.4
2025-01-21 07:43:15.639120	206.5	51.7	-79.9	3.8
2025-01-21 07:43:17.886938	206.3	50.9	-80.0	1.8
2025-01-21 07:43:20.135873	206.1	50.1	-79.8	2.2
2025-01-21 07:43:22.381956	205.9	49.4	-79.5	3.0
2025-01-21 07:43:24.627117	205.8	48.6	-79.8	3.7
2025-01-21 07:43:26.869897	205.6	47.9	-79.3	3.6
2025-01-21 07:43:29.115758	205.5	47.1	-79.5	1.3
2025-01-21 07:43:31.362087	205.3	46.4	-79.8	0.5
2025-01-21 07:43:33.606976	205.2	45.7	-79.8	1.7
2025-01-21 07:43:35.853944	205.1	45.0	-79.4	2.3
2025-01-21 07:43:38.098411	205.0	44.4	-79.6	1.1
2025-01-21 07:43:40.343453	204.8	43.7	-79.8	0.0
2025-01-21 07:43:42.590923	204.7	43.0	-80.2	0.0
2025-01-21 07:43:44.838934	204.6	42.4	-79.9	0.0
2025-01-21 07:43:47.084258	204.5	41.7	-79.8	0.0
2025-01-21 07:43:49.330745	204.4	41.1	-80.2	0.0
2025-01-21 07:43:51.577705	204.3	40.5	-79.6	0.0
2025-01-21 07:43:53.827126	204.2	39.9	-79.7	0.0
2025-01-21 07:43:56.071605	204.2	39.3	-79.8	0.0
2025-01-21 07:43:58.317867	204.1	38.7	-79.7	0.0
2025-01-21 07:44:00.563584	204.0	38.2	-80.1	0.0
2025-01-21 07:44:02.808961	203.9	37.6	-79.7	0.0
2025-01-21 07:44:05.054078	203.8	37.0	-79.8	0.0
2025-01-21 07:44:07.300460	203.8	36.5	-79.7	0.0
2025-01-21 07:44:09.543333	203.7	36.0	-79.6	0.0
2025-01-21 07:44:11.793861	203.6	35.4	-79.6	0.0
2025-01-21 07:44:14.040394	203.6	34.9	-79.5	0.0
2025-01-21 07:44:16.290413	203.5	34.4	-79.4	0.0
2025-01-21 07:44:18.535770	203.4	33.9	-79.1	0.0
2025-01-21 07:44:20.780745	203.4	33.4	-79.8	0.0
2025-01-21 07:44:23.022016	203.3	32.9	-79.8	0.0
2025-01-21 07:44:25.271026	203.3	32.4	-79.7	0.0
2025-01-21 07:44:27.515915	203.2	32.0	-79.5	0.0
2025-01-21 07:44:29.761097	203.2	31.5	-79.5	0.0
2025-01-21 07:44:32.006023	203.1	31.0	-79.2	0.0
2025-01-21 07:44:34.251241	203.1	30.6	-79.6	0.0
2025-01-21 07:44:36.494680	203.0	30.2	-79.5	0.0
2025-01-21 07:44:38.739600	203.0	29.7	-79.5	0.0
2025-01-21 07:44:40.988538	202.9	29.3	-78.8	0.0
2025-01-21 07:44:43.237191	202.9	28.9	-79.0	0.0
2025-01-21 07:44:45.482160	202.9	28.4	-79.2	0.0
2025-01-21 07:44:47.729737	202.8	28.0	-79.3	0.0
2025-01-21 07:44:49.975236	202.8	27.6	-79.3	0.0
2025-01-21 07:44:52.223709	202.7	27.2	-78.9	0.0
2025-01-21 07:44:54.470933	202.7	26.8	-79.2	0.0
2025-01-21 07:44:56.716039	202.7	26.5	-79.3	0.0
2025-01-21 07:44:58.963430	202.6	26.1	-79.4	0.0
2025-01-21 07:45:01.209848	202.6	25.7	-79.6	0.0
2025-01-21 07:45:03.457290	202.6	25.3	-79.5	0.0
2025-01-21 07:45:05.703150	202.5	25.0	-79.4	0.0
2025-01-21 07:45:07.949455	202.5	24.6	-79.5	0.0
2025-01-21 07:45:10.197865	202.5	24.2	-79.1	0.0
2025-01-21 07:45:12.447880	202.5	23.9	-79.2	0.0
2025-01-21 07:45:14.694874	202.4	23.5	-78.9	0.0
2025-01-21 07:45:16.940690	202.4	23.2	-78.6	0.0
2025-01-21 07:45:19.185965	202.4	22.9	-78.7	0.0
2025-01-21 07:45:21.434981	202.3	22.5	-78.8	0.0
2025-01-21 07:45:23.680607	202.3	22.2	-77.8	0.0
2025-01-21 07:45:25.925001	202.3	21.9	-79.0	0.0
2025-01-21 07:45:28.169109	202.3	21.6	-78.5	0.0
2025-01-21 07:45:30.416053	202.2	21.2	-78.7	0.0
2025-01-21 07:45:32.666790	202.2	20.9	-78.1	0.0
2025-01-21 07:45:34.912005	202.2	20.6	-77.7	0.0
2025-01-21 07:45:37.158524	202.2	20.3	-77.6	0.0
2025-01-21 07:45:39.404999	202.2	20.0	-77.9	0.0
2025-01-21 07:45:41.650238	202.1	19.7	-77.2	0.0
2025-01-21 07:45:43.897436	202.1	19.4	-77.2	0.0
2025-01-21 07:45:46.146150	202.1	19.1	-77.7	0.0
2025-01-21 07:45:48.394838	202.1	18.8	-77.3	0.0
2025-01-21 07:45:50.642932	202.1	18.6	-78.1	0.0
2025-01-21 07:45:52.891542	202.0	18.3	-78.0	0.0
2025-01-21 07:45:55.134712	202.0	18.0	-77.4	0.0
2025-01-21 07:45:57.381103	202.0	17.7	-78.2	0.0
2025-01-21 07:45:59.625902	202.0	17.5	-77.5	0.0
2025-01-21 07:46:01.871362	202.0	17.2	-78.2	0.0
2025-01-21 07:46:04.116100	202.0	16.9	-77.9	0.0
2025-01-21 07:46:06.362092	201.9	16.7	-78.1	0.0
2025-01-21 07:46:08.609876	201.9	16.4	-77.7	0.0
2025-01-21 07:46:10.857307	201.9	16.1	-78.0	0.0
2025-01-21 07:46:13.104086	201.9	15.9	-77.6	0.0
2025-01-21 07:46:15.349685	201.9	15.6	-77.4	0.0
2025-01-21 07:46:17.594355	201.9	15.4	-77.2	0.0
2025-01-21 07:46:19.841160	201.9	15.1	-77.1	0.0
2025-01-21 07:46:22.086717	201.8	14.9	-77.4	0.0
2025-01-21 07:46:24.332168	201.8	14.7	-77.2	0.0
2025-01-21 07:46:26.576881	201.8	14.4	-77.0	0.0
2025-01-21 07:46:28.825821	201.8	14.2	-76.4	0.0
2025-01-21 07:46:31.071244	201.8	14.0	-77.2	0.0
2025-01-21 07:46:33.318991	201.8	13.7	-77.1	0.0
2025-01-21 07:46:35.565288	201.8	13.5	-77.2	0.0
2025-01-21 07:46:37.811297	201.8	13.3	-77.4	0.0
2025-01-21 07:46:40.054439	201.8	13.0	-77.6	0.0
2025-01-21 07:46:42.301355	201.7	12.8	-77.4	0.0
2025-01-21 07:46:44.549048	201.7	12.6	-77.1	0.0
2025-01-21 07:46:46.792823	201.7	12.4	-77.0	0.0
2025-01-21 07:46:49.037017	201.7	12.2	-77.3	0.0
2025-01-21 07:46:51.282066	201.7	11.9	-77.4	0.0
2025-01-21 07:46:53.526874	201.7	11.7	-77.5	0.0
2025-01-21 07:46:55.770946	201.7	11.5	-77.4	0.0
2025-01-21 07:46:58.017175	201.7	11.3	-77.1	0.0
2025-01-21 07:47:00.264036	201.7	11.1	-77.5	0.0
2025-01-21 07:47:02.512600	201.7	10.9	-78.0	0.0
2025-01-21 07:47:04.759358	201.6	10.7	-79.6	0.0
2025-01-21 07:47:07.003357	201.6	10.5	-80.4	0.2
2025-01-21 07:47:09.251109	201.6	10.3	-81.6	0.0
2025-01-21 07:47:11.495998	201.6	10.1	-81.7	0.0
#Closed at: 2025-01-21 07:36:26.319926