passes_logs/2025/01/21/planumMaritime01/planumMaritime01__20250121_190628_METEOR-M2_3_rec.log

#Pass ID: 20250121_190628_METEOR-M2 3
#Satellite: METEOR-M2 3
#Configuration: METEOR-M2 3
#Start time: 2025-01-21 19:06:33.149969

#LorettStation: 1.0.0 05.05.2024
#Station: planumMaritime01
#Location: 37.49445 lon 55.92918 lat
#TLE: 1 57166U 23091A   25021.15623468  .00000084  00000+0  55759-4 0  9991
#TLE: 2 57166  98.6840  79.5439 0003509 203.5188 156.5830 14.23970854 81643

#Time	Az	El	Level	SNR
2025-01-21 19:06:35.317986	210.7	10.2	-77.5	0.0
2025-01-21 19:06:37.563440	210.9	10.3	-77.6	0.0
2025-01-21 19:06:39.809050	211.2	10.5	-76.7	0.0
2025-01-21 19:06:42.056674	211.4	10.6	-77.1	0.0
2025-01-21 19:06:44.302449	211.7	10.8	-77.8	0.0
2025-01-21 19:06:46.550696	211.9	11.0	-77.8	0.0
2025-01-21 19:06:48.794114	212.2	11.1	-77.7	0.0
2025-01-21 19:06:51.038155	212.4	11.3	-77.5	0.0
2025-01-21 19:06:53.284284	212.7	11.5	-78.0	0.0
2025-01-21 19:06:55.530385	212.9	11.6	-78.5	0.0
2025-01-21 19:06:57.773720	213.2	11.8	-78.5	0.0
2025-01-21 19:07:00.018203	213.5	12.0	-78.2	0.0
2025-01-21 19:07:02.266259	213.7	12.1	-78.6	0.0
2025-01-21 19:07:04.512751	214.0	12.3	-78.4	0.0
2025-01-21 19:07:06.759405	214.3	12.5	-78.7	0.0
2025-01-21 19:07:09.003538	214.6	12.6	-78.7	0.0
2025-01-21 19:07:11.249125	214.9	12.8	-78.8	0.0
2025-01-21 19:07:13.492718	215.2	13.0	-78.9	0.0
2025-01-21 19:07:15.738221	215.4	13.2	-78.1	0.0
2025-01-21 19:07:17.983358	215.7	13.3	-79.1	0.0
2025-01-21 19:07:20.228428	216.0	13.5	-78.8	0.0
2025-01-21 19:07:22.476502	216.3	13.7	-79.2	0.0
2025-01-21 19:07:24.721708	216.6	13.9	-78.2	0.0
2025-01-21 19:07:26.968324	217.0	14.0	-78.6	0.0
2025-01-21 19:07:29.212054	217.3	14.2	-78.5	0.0
2025-01-21 19:07:31.454802	217.6	14.4	-78.8	0.0
2025-01-21 19:07:33.698814	217.9	14.6	-77.8	0.0
2025-01-21 19:07:35.940929	218.2	14.7	-78.2	0.0
2025-01-21 19:07:38.188152	218.5	14.9	-78.7	0.0
2025-01-21 19:07:40.435322	218.9	15.1	-78.5	0.0
2025-01-21 19:07:42.683078	219.2	15.3	-78.6	0.0
2025-01-21 19:07:44.926757	219.5	15.4	-78.7	0.0
2025-01-21 19:07:47.171278	219.9	15.6	-78.1	0.0
2025-01-21 19:07:49.417830	220.2	15.8	-79.1	0.0
2025-01-21 19:07:51.663817	220.6	16.0	-78.9	0.0
2025-01-21 19:07:53.911609	220.9	16.2	-77.9	0.0
2025-01-21 19:07:56.160087	221.3	16.3	-78.3	0.0
2025-01-21 19:07:58.404614	221.7	16.5	-78.2	0.0
2025-01-21 19:08:00.651810	222.0	16.7	-78.2	0.0
2025-01-21 19:08:02.899286	222.4	16.9	-78.1	0.0
2025-01-21 19:08:05.148832	222.8	17.1	-76.7	0.0
2025-01-21 19:08:07.392511	223.2	17.3	-78.4	0.0
2025-01-21 19:08:09.639741	223.5	17.4	-78.1	0.0
2025-01-21 19:08:11.885540	223.9	17.6	-78.3	0.0
2025-01-21 19:08:14.130769	224.3	17.8	-78.9	0.0
2025-01-21 19:08:16.376262	224.7	18.0	-79.1	0.0
2025-01-21 19:08:18.621111	225.1	18.2	-77.6	0.0
2025-01-21 19:08:20.864116	225.5	18.3	-78.7	0.0
2025-01-21 19:08:23.110603	225.9	18.5	-79.0	0.0
2025-01-21 19:08:25.357607	226.4	18.7	-79.0	0.0
2025-01-21 19:08:27.607030	226.8	18.9	-78.8	0.0
2025-01-21 19:08:29.852390	227.2	19.1	-78.4	0.0
2025-01-21 19:08:32.097304	227.6	19.3	-78.5	0.0
2025-01-21 19:08:34.340756	228.1	19.4	-78.6	0.0
2025-01-21 19:08:36.588150	228.5	19.6	-79.0	0.0
2025-01-21 19:08:38.831230	229.0	19.8	-79.5	0.0
2025-01-21 19:08:41.078315	229.4	20.0	-79.4	0.0
2025-01-21 19:08:43.325412	229.9	20.2	-79.1	0.0
2025-01-21 19:08:45.571195	230.3	20.3	-79.4	0.0
2025-01-21 19:08:47.816221	230.8	20.5	-79.4	0.0
2025-01-21 19:08:50.061338	231.3	20.7	-78.3	0.0
2025-01-21 19:08:52.307985	231.8	20.9	-79.7	0.0
2025-01-21 19:08:54.554676	232.3	21.0	-79.2	0.0
2025-01-21 19:08:56.801955	232.7	21.2	-79.8	0.0
2025-01-21 19:08:59.048067	233.2	21.4	-79.5	0.0
2025-01-21 19:09:01.293196	233.7	21.6	-79.6	0.0
2025-01-21 19:09:03.539993	234.2	21.7	-79.8	0.0
2025-01-21 19:09:05.787237	234.8	21.9	-78.9	0.0
2025-01-21 19:09:08.037224	235.3	22.1	-79.4	0.0
2025-01-21 19:09:10.284945	235.8	22.2	-79.7	0.0
2025-01-21 19:09:12.529808	236.3	22.4	-79.7	0.0
2025-01-21 19:09:14.775499	236.9	22.6	-79.3	0.0
2025-01-21 19:09:17.019812	237.4	22.7	-79.7	0.0
2025-01-21 19:09:19.266369	237.9	22.9	-79.2	0.0
2025-01-21 19:09:21.511837	238.5	23.1	-79.3	0.0
2025-01-21 19:09:23.759009	239.1	23.2	-79.8	0.0
2025-01-21 19:09:26.004656	239.6	23.4	-79.5	0.0
2025-01-21 19:09:28.248794	240.2	23.5	-79.6	0.0
2025-01-21 19:09:30.493199	240.8	23.7	-79.7	0.0
2025-01-21 19:09:32.737429	241.3	23.8	-79.8	0.0
2025-01-21 19:09:34.985553	241.9	24.0	-79.8	0.0
2025-01-21 19:09:37.229702	242.5	24.1	-80.0	0.0
2025-01-21 19:09:39.475746	243.1	24.3	-79.5	0.0
2025-01-21 19:09:41.722728	243.7	24.4	-79.9	0.0
2025-01-21 19:09:43.967056	244.3	24.6	-80.2	0.0
2025-01-21 19:09:46.212226	244.9	24.7	-80.2	0.0
2025-01-21 19:09:48.460367	245.5	24.8	-79.9	0.0
2025-01-21 19:09:50.704524	246.2	25.0	-80.1	0.0
2025-01-21 19:09:52.946531	246.8	25.1	-80.0	0.0
2025-01-21 19:09:55.189197	247.4	25.2	-79.9	0.0
2025-01-21 19:09:57.436008	248.1	25.4	-79.7	0.0
2025-01-21 19:09:59.679450	248.7	25.5	-79.1	0.0
2025-01-21 19:10:01.925415	249.3	25.6	-79.7	0.0
2025-01-21 19:10:04.170745	250.0	25.7	-80.2	0.0
2025-01-21 19:10:06.416818	250.6	25.8	-80.3	0.0
2025-01-21 19:10:08.662946	251.3	25.9	-80.2	0.0
2025-01-21 19:10:10.907789	252.0	26.0	-80.4	0.0
2025-01-21 19:10:13.154676	252.6	26.1	-80.2	0.0
2025-01-21 19:10:15.398228	253.3	26.2	-80.4	0.0
2025-01-21 19:10:17.646101	254.0	26.3	-80.0	0.0
2025-01-21 19:10:19.891894	254.7	26.4	-80.3	0.0
2025-01-21 19:10:22.137371	255.4	26.5	-80.4	0.0
2025-01-21 19:10:24.382298	256.0	26.6	-80.4	0.0
2025-01-21 19:10:26.629140	256.7	26.6	-80.4	0.0
2025-01-21 19:10:28.875679	257.4	26.7	-80.2	0.0
2025-01-21 19:10:31.122087	258.1	26.8	-79.4	0.0
2025-01-21 19:10:33.367398	258.8	26.8	-78.8	0.0
2025-01-21 19:10:35.615702	259.5	26.9	-80.0	0.0
2025-01-21 19:10:37.861329	260.2	27.0	-80.1	0.0
2025-01-21 19:10:40.105106	260.9	27.0	-80.0	0.0
2025-01-21 19:10:42.348779	261.6	27.1	-80.1	0.0
2025-01-21 19:10:44.593906	262.3	27.1	-79.9	0.0
2025-01-21 19:10:46.837914	263.1	27.1	-79.9	0.0
2025-01-21 19:10:49.082088	263.8	27.2	-79.8	0.0
2025-01-21 19:10:51.330580	264.5	27.2	-79.4	0.0
2025-01-21 19:10:53.579487	265.2	27.2	-79.4	0.0
2025-01-21 19:10:55.824319	265.9	27.2	-79.6	0.0
2025-01-21 19:10:58.072983	266.6	27.2	-79.7	0.0
2025-01-21 19:11:00.321630	267.4	27.3	-79.5	0.0
2025-01-21 19:11:02.569004	268.1	27.3	-79.5	0.0
2025-01-21 19:11:04.814223	268.8	27.3	-79.3	0.0
2025-01-21 19:11:07.058709	269.5	27.3	-79.3	0.0
2025-01-21 19:11:09.302965	270.2	27.2	-79.5	0.0
2025-01-21 19:11:11.549574	270.9	27.2	-79.6	0.0
2025-01-21 19:11:13.790729	271.7	27.2	-79.5	0.0
2025-01-21 19:11:16.035116	272.4	27.2	-79.2	0.0
2025-01-21 19:11:18.281100	273.1	27.2	-78.9	0.0
2025-01-21 19:11:20.525723	273.8	27.1	-79.2	0.0
2025-01-21 19:11:22.771215	274.5	27.1	-78.9	0.0
2025-01-21 19:11:25.019453	275.2	27.0	-78.9	0.0
2025-01-21 19:11:27.266681	275.9	27.0	-79.0	0.0
2025-01-21 19:11:29.513070	276.6	26.9	-78.7	0.0
2025-01-21 19:11:31.758275	277.3	26.9	-79.4	0.0
2025-01-21 19:11:34.004327	278.0	26.8	-79.6	0.0
2025-01-21 19:11:36.251724	278.7	26.8	-78.9	0.0
2025-01-21 19:11:38.497833	279.4	26.7	-78.9	0.0
2025-01-21 19:11:40.741553	280.1	26.6	-79.0	0.0
2025-01-21 19:11:42.987993	280.8	26.5	-79.1	0.0
2025-01-21 19:11:45.232616	281.5	26.5	-79.4	0.0
2025-01-21 19:11:47.479113	282.2	26.4	-79.2	0.0
2025-01-21 19:11:49.724246	282.8	26.3	-79.2	0.0
2025-01-21 19:11:51.974919	283.5	26.2	-79.0	0.0
2025-01-21 19:11:54.222791	284.2	26.1	-78.7	0.0
2025-01-21 19:11:56.468758	284.9	26.0	-79.0	0.0
2025-01-21 19:11:58.713817	285.5	25.9	-78.0	0.0
2025-01-21 19:12:00.959272	286.2	25.8	-78.7	0.0
2025-01-21 19:12:03.205193	286.8	25.7	-77.7	0.0
2025-01-21 19:12:05.449780	287.5	25.5	-78.9	0.0
2025-01-21 19:12:07.696852	288.1	25.4	-78.5	0.0
2025-01-21 19:12:09.945273	288.7	25.3	-78.7	0.0
2025-01-21 19:12:12.192166	289.4	25.2	-78.0	0.0
2025-01-21 19:12:14.437152	290.0	25.1	-77.5	0.0
2025-01-21 19:12:16.685103	290.6	24.9	-79.1	0.0
2025-01-21 19:12:18.928688	291.2	24.8	-78.2	0.0
2025-01-21 19:12:21.173426	291.9	24.7	-75.7	0.0
2025-01-21 19:12:23.419063	292.5	24.5	-78.6	0.0
2025-01-21 19:12:25.667854	293.1	24.4	-78.7	0.0
2025-01-21 19:12:27.914643	293.7	24.2	-77.2	0.0
2025-01-21 19:12:30.160224	294.3	24.1	-77.6	0.0
2025-01-21 19:12:32.406677	294.8	23.9	-75.8	0.0
2025-01-21 19:12:34.651536	295.4	23.8	-75.5	0.0
2025-01-21 19:12:36.898583	296.0	23.6	-75.8	0.0
2025-01-21 19:12:39.145159	296.6	23.5	-75.6	0.0
2025-01-21 19:12:41.393201	297.1	23.3	-76.2	0.0
2025-01-21 19:12:43.638218	297.7	23.2	-76.2	0.0
2025-01-21 19:12:45.884071	298.2	23.0	-76.9	0.0
2025-01-21 19:12:48.132150	298.8	22.9	-76.1	0.0
2025-01-21 19:12:50.380106	299.3	22.7	-77.3	0.0
2025-01-21 19:12:52.626327	299.9	22.5	-75.9	0.0
2025-01-21 19:12:54.873244	300.4	22.4	-76.1	0.0
2025-01-21 19:12:57.118393	300.9	22.2	-76.5	0.0
2025-01-21 19:12:59.364689	301.4	22.0	-77.2	0.0
2025-01-21 19:13:01.609564	301.9	21.9	-76.6	0.0
2025-01-21 19:13:03.855444	302.5	21.7	-76.6	0.0
2025-01-21 19:13:06.100149	303.0	21.5	-77.5	0.0
2025-01-21 19:13:08.346833	303.5	21.3	-75.5	0.0
2025-01-21 19:13:10.594016	303.9	21.2	-79.1	0.0
2025-01-21 19:13:12.836851	304.4	21.0	-78.5	0.0
2025-01-21 19:13:15.082830	304.9	20.8	-73.4	0.0
2025-01-21 19:13:17.327692	305.4	20.6	-76.7	0.0
2025-01-21 19:13:19.581034	305.9	20.5	-78.0	0.0
2025-01-21 19:13:21.826514	306.3	20.3	-77.7	0.0
2025-01-21 19:13:24.070640	306.8	20.1	-72.8	0.0
2025-01-21 19:13:26.318226	307.2	19.9	-77.7	0.0
2025-01-21 19:13:28.563145	307.7	19.8	-75.1	0.0
2025-01-21 19:13:30.808578	308.1	19.6	-75.9	0.0
2025-01-21 19:13:33.054677	308.6	19.4	-75.3	0.0
2025-01-21 19:13:35.298384	309.0	19.2	-76.9	0.0
2025-01-21 19:13:37.540409	309.4	19.0	-76.5	0.0
2025-01-21 19:13:39.785184	309.9	18.9	-75.8	0.0
2025-01-21 19:13:42.031042	310.3	18.7	-76.1	0.0
2025-01-21 19:13:44.275397	310.7	18.5	-77.2	0.0
2025-01-21 19:13:46.523269	311.1	18.3	-77.2	0.0
2025-01-21 19:13:48.767633	311.5	18.1	-74.4	0.0
2025-01-21 19:13:51.013723	311.9	18.0	-74.0	0.0
2025-01-21 19:13:53.261740	312.3	17.8	-74.3	0.0
2025-01-21 19:13:55.511069	312.7	17.6	-73.4	0.0
2025-01-21 19:13:57.762232	313.1	17.4	-74.9	0.0
2025-01-21 19:14:00.009087	313.5	17.2	-74.2	0.0
2025-01-21 19:14:02.254883	313.8	17.1	-74.1	0.0
2025-01-21 19:14:04.503974	314.2	16.9	-74.4	0.0
2025-01-21 19:14:06.748630	314.6	16.7	-74.0	0.0
2025-01-21 19:14:08.994933	314.9	16.5	-72.2	0.0
2025-01-21 19:14:11.239593	315.3	16.3	-71.9	0.0
2025-01-21 19:14:13.486341	315.7	16.2	-71.8	0.0
2025-01-21 19:14:15.729121	316.0	16.0	-73.2	0.0
2025-01-21 19:14:17.973834	316.4	15.8	-71.9	0.0
2025-01-21 19:14:20.216859	316.7	15.6	-73.8	0.0
2025-01-21 19:14:22.460608	317.0	15.4	-72.2	0.0
2025-01-21 19:14:24.708882	317.4	15.3	-71.9	0.0
2025-01-21 19:14:26.957294	317.7	15.1	-71.6	0.0
2025-01-21 19:14:29.199805	318.0	14.9	-73.8	0.0
2025-01-21 19:14:31.445836	318.4	14.7	-75.5	0.0
2025-01-21 19:14:33.692047	318.7	14.6	-72.8	0.0
2025-01-21 19:14:35.936334	319.0	14.4	-74.9	0.0
2025-01-21 19:14:38.180568	319.3	14.2	-74.1	0.0
2025-01-21 19:14:40.429959	319.6	14.0	-71.7	0.0
2025-01-21 19:14:42.676983	319.9	13.9	-73.3	0.0
2025-01-21 19:14:44.921974	320.2	13.7	-73.7	0.0
2025-01-21 19:14:47.170420	320.5	13.5	-71.4	0.0
2025-01-21 19:14:49.417072	320.8	13.4	-71.5	0.0
2025-01-21 19:14:51.665222	321.1	13.2	-73.2	0.0
2025-01-21 19:14:53.913406	321.4	13.0	-69.3	0.0
2025-01-21 19:14:56.157854	321.7	12.8	-69.3	0.0
2025-01-21 19:14:58.404658	322.0	12.7	-70.2	0.0
2025-01-21 19:15:00.649131	322.3	12.5	-70.6	0.0
2025-01-21 19:15:02.892987	322.5	12.3	-69.0	0.0
2025-01-21 19:15:05.139260	322.8	12.2	-68.5	0.0
2025-01-21 19:15:07.386505	323.1	12.0	-68.6	0.0
2025-01-21 19:15:09.635163	323.3	11.8	-69.7	0.0
2025-01-21 19:15:11.886798	323.6	11.7	-68.9	0.0
2025-01-21 19:15:14.133181	323.9	11.5	-71.9	0.0
2025-01-21 19:15:16.376800	324.1	11.3	-69.5	0.0
2025-01-21 19:15:18.623848	324.4	11.2	-68.1	0.0
2025-01-21 19:15:20.868829	324.6	11.0	-68.3	0.0
2025-01-21 19:15:23.118051	324.9	10.9	-74.2	0.0
2025-01-21 19:15:25.364198	325.1	10.7	-78.8	0.0
2025-01-21 19:15:27.610098	325.4	10.5	-80.5	0.0
2025-01-21 19:15:29.857458	325.6	10.4	-81.1	0.0
2025-01-21 19:15:32.103533	325.9	10.2	-80.2	0.0
#Closed at: 2025-01-21 19:06:28.154850