passes_logs/2025/01/21/planumMaritime01/planumMaritime01__20250121_103020_METEOR-M2_4_rec.log

#Pass ID: 20250121_103020_METEOR-M2 4
#Satellite: METEOR-M2 4
#Configuration: METEOR-M2 4
#Start time: 2025-01-21 10:30:25.451071

#LorettStation: 1.0.0 05.05.2024
#Station: planumMaritime01
#Location: 37.49445 lon 55.92918 lat
#TLE: 1 59051U 24039A   25020.16329171  .00000140  00000+0  82464-4 0  9999
#TLE: 2 59051  98.6302 343.0648 0006415 208.0987 151.9846 14.22326811 46338

#Time	Az	El	Level	SNR
2025-01-21 10:30:27.610846	128.1	10.2	-71.6	0.0
2025-01-21 10:30:29.856924	127.9	10.4	-70.9	0.0
2025-01-21 10:30:32.102364	127.8	10.5	-71.3	0.0
2025-01-21 10:30:34.350417	127.6	10.7	-71.6	0.0
2025-01-21 10:30:36.598734	127.5	10.9	-71.6	0.0
2025-01-21 10:30:38.844065	127.3	11.1	-72.1	0.0
2025-01-21 10:30:41.092423	127.1	11.3	-71.7	0.0
2025-01-21 10:30:43.337941	127.0	11.5	-72.0	0.0
2025-01-21 10:30:45.585594	126.8	11.7	-72.0	0.0
2025-01-21 10:30:47.830459	126.6	11.9	-72.8	0.0
2025-01-21 10:30:50.075653	126.5	12.1	-73.0	0.0
2025-01-21 10:30:52.323082	126.3	12.3	-72.6	0.0
2025-01-21 10:30:54.568685	126.1	12.5	-72.9	0.0
2025-01-21 10:30:56.813158	125.9	12.7	-72.7	0.0
2025-01-21 10:30:59.060555	125.7	12.9	-73.3	0.0
2025-01-21 10:31:01.307778	125.6	13.1	-73.7	0.0
2025-01-21 10:31:03.554238	125.4	13.3	-73.5	0.0
2025-01-21 10:31:05.801946	125.2	13.5	-73.9	0.0
2025-01-21 10:31:08.049074	125.0	13.7	-76.3	0.0
2025-01-21 10:31:10.294356	124.8	13.9	-76.2	0.0
2025-01-21 10:31:12.538912	124.6	14.1	-76.8	0.0
2025-01-21 10:31:14.786818	124.4	14.3	-76.1	0.0
2025-01-21 10:31:17.032919	124.2	14.5	-75.1	0.0
2025-01-21 10:31:19.277573	124.0	14.7	-76.5	0.0
2025-01-21 10:31:21.522708	123.8	15.0	-76.9	0.0
2025-01-21 10:31:23.767952	123.6	15.2	-76.4	0.0
2025-01-21 10:31:26.012914	123.3	15.4	-77.2	0.0
2025-01-21 10:31:28.258015	123.1	15.6	-74.9	0.0
2025-01-21 10:31:30.505113	122.9	15.8	-75.2	0.0
2025-01-21 10:31:32.751621	122.7	16.1	-75.7	0.0
2025-01-21 10:31:34.998301	122.4	16.3	-75.1	0.0
2025-01-21 10:31:37.243078	122.2	16.5	-75.3	0.0
2025-01-21 10:31:39.489867	122.0	16.7	-74.9	0.0
2025-01-21 10:31:41.734420	121.7	17.0	-75.2	0.0
2025-01-21 10:31:43.979263	121.5	17.2	-75.1	0.0
2025-01-21 10:31:46.227936	121.2	17.4	-75.0	0.0
2025-01-21 10:31:48.472907	121.0	17.7	-76.1	0.0
2025-01-21 10:31:50.716517	120.7	17.9	-75.7	0.0
2025-01-21 10:31:52.963001	120.5	18.1	-74.5	0.0
2025-01-21 10:31:55.207771	120.2	18.4	-75.2	0.0
2025-01-21 10:31:57.455554	119.9	18.6	-75.6	0.0
2025-01-21 10:31:59.699999	119.6	18.9	-75.6	0.0
2025-01-21 10:32:01.947035	119.4	19.1	-74.7	0.0
2025-01-21 10:32:04.194170	119.1	19.3	-74.9	0.0
2025-01-21 10:32:06.439501	118.8	19.6	-75.3	0.0
2025-01-21 10:32:08.689947	118.5	19.8	-75.1	0.0
2025-01-21 10:32:10.938143	118.2	20.1	-74.6	0.0
2025-01-21 10:32:13.187762	117.9	20.4	-74.5	0.0
2025-01-21 10:32:15.435716	117.6	20.6	-74.9	0.0
2025-01-21 10:32:17.681698	117.3	20.9	-74.2	0.0
2025-01-21 10:32:19.927388	117.0	21.1	-75.3	0.0
2025-01-21 10:32:22.174622	116.6	21.4	-74.3	0.0
2025-01-21 10:32:24.418524	116.3	21.6	-75.2	0.0
2025-01-21 10:32:26.662500	116.0	21.9	-75.4	0.0
2025-01-21 10:32:28.908905	115.6	22.2	-76.6	0.0
2025-01-21 10:32:31.153974	115.3	22.4	-76.9	0.0
2025-01-21 10:32:33.400659	114.9	22.7	-76.3	0.0
2025-01-21 10:32:35.648761	114.6	23.0	-76.2	0.0
2025-01-21 10:32:37.895906	114.2	23.2	-77.1	0.0
2025-01-21 10:32:40.140700	113.8	23.5	-76.2	0.0
2025-01-21 10:32:42.389219	113.4	23.8	-76.0	0.0
2025-01-21 10:32:44.636368	113.1	24.1	-75.8	0.0
2025-01-21 10:32:46.883723	112.7	24.4	-76.5	0.0
2025-01-21 10:32:49.130085	112.3	24.6	-75.2	0.0
2025-01-21 10:32:51.377328	111.9	24.9	-74.1	0.0
2025-01-21 10:32:53.623130	111.4	25.2	-74.9	0.0
2025-01-21 10:32:55.868300	111.0	25.5	-74.7	0.0
2025-01-21 10:32:58.117619	110.6	25.8	-73.1	0.0
2025-01-21 10:33:00.363580	110.2	26.0	-75.3	0.0
2025-01-21 10:33:02.611049	109.7	26.3	-74.8	0.0
2025-01-21 10:33:04.857858	109.3	26.6	-75.7	0.0
2025-01-21 10:33:07.105532	108.8	26.9	-75.2	0.0
2025-01-21 10:33:09.353395	108.3	27.2	-74.0	0.0
2025-01-21 10:33:11.597844	107.8	27.5	-75.5	0.0
2025-01-21 10:33:13.845755	107.3	27.8	-75.3	0.0
2025-01-21 10:33:16.091413	106.8	28.1	-74.5	0.0
2025-01-21 10:33:18.336763	106.3	28.4	-75.4	0.0
2025-01-21 10:33:20.586877	105.8	28.7	-74.8	0.0
2025-01-21 10:33:22.832078	105.3	29.0	-74.9	0.0
2025-01-21 10:33:25.076076	104.8	29.3	-75.1	0.0
2025-01-21 10:33:27.323233	104.2	29.5	-75.7	0.0
2025-01-21 10:33:29.568869	103.7	29.8	-75.8	0.0
2025-01-21 10:33:31.812439	103.1	30.1	-74.3	0.0
2025-01-21 10:33:34.060922	102.5	30.4	-75.5	0.0
2025-01-21 10:33:36.308964	101.9	30.7	-75.8	0.0
2025-01-21 10:33:38.556946	101.3	31.0	-76.2	0.0
2025-01-21 10:33:40.799842	100.7	31.3	-73.8	0.0
2025-01-21 10:33:43.049548	100.1	31.6	-75.4	0.0
2025-01-21 10:33:45.299348	99.5	31.9	-74.8	0.0
2025-01-21 10:33:47.544914	98.8	32.2	-71.1	0.0
2025-01-21 10:33:49.788285	98.2	32.5	-72.6	0.0
2025-01-21 10:33:52.032818	97.5	32.8	-73.8	0.0
2025-01-21 10:33:54.278408	96.8	33.1	-73.5	0.0
2025-01-21 10:33:56.525968	96.1	33.3	-75.0	0.0
2025-01-21 10:33:58.772457	95.4	33.6	-71.9	0.0
2025-01-21 10:34:01.017733	94.7	33.9	-73.2	0.0
2025-01-21 10:34:03.263543	94.0	34.2	-75.2	0.0
2025-01-21 10:34:05.508612	93.2	34.4	-73.2	0.0
2025-01-21 10:34:07.755073	92.5	34.7	-74.4	0.0
2025-01-21 10:34:10.001230	91.7	35.0	-69.1	0.0
2025-01-21 10:34:12.245069	90.9	35.2	-73.6	0.0
2025-01-21 10:34:14.491849	90.1	35.5	-75.4	0.0
2025-01-21 10:34:16.735647	89.3	35.8	-75.5	0.0
2025-01-21 10:34:18.979056	88.5	36.0	-74.1	0.0
2025-01-21 10:34:21.224210	87.7	36.3	-72.9	0.0
2025-01-21 10:34:23.472832	86.9	36.5	-72.5	0.0
2025-01-21 10:34:25.717025	86.0	36.7	-74.7	0.0
2025-01-21 10:34:27.966206	85.1	37.0	-75.1	0.0
2025-01-21 10:34:30.209750	84.3	37.2	-74.6	0.0
2025-01-21 10:34:32.456664	83.4	37.4	-74.2	0.0
2025-01-21 10:34:34.700858	82.5	37.6	-76.1	0.0
2025-01-21 10:34:36.946194	81.6	37.8	-77.0	0.0
2025-01-21 10:34:39.193598	80.6	38.0	-75.4	0.0
2025-01-21 10:34:41.440937	79.7	38.2	-75.1	0.0
2025-01-21 10:34:43.685679	78.7	38.4	-74.5	0.0
2025-01-21 10:34:45.934582	77.8	38.6	-76.2	0.0
2025-01-21 10:34:48.182138	76.8	38.7	-76.6	0.0
2025-01-21 10:34:50.429107	75.8	38.9	-76.6	0.0
2025-01-21 10:34:52.677707	74.9	39.0	-76.9	0.0
2025-01-21 10:34:54.923907	73.9	39.2	-76.0	0.0
2025-01-21 10:34:57.170297	72.9	39.3	-76.3	0.0
2025-01-21 10:34:59.416018	71.8	39.4	-76.0	0.0
2025-01-21 10:35:01.663171	70.8	39.5	-77.0	0.0
2025-01-21 10:35:03.908409	69.8	39.6	-76.5	0.0
2025-01-21 10:35:06.158511	68.8	39.7	-75.8	0.0
2025-01-21 10:35:08.405642	67.7	39.8	-76.7	0.0
2025-01-21 10:35:10.652556	66.7	39.9	-75.7	0.0
2025-01-21 10:35:12.896644	65.7	39.9	-77.6	0.0
2025-01-21 10:35:15.144469	64.6	40.0	-76.5	0.0
2025-01-21 10:35:17.392132	63.6	40.0	-74.5	0.0
2025-01-21 10:35:19.636967	62.5	40.0	-74.7	0.0
2025-01-21 10:35:21.881483	61.5	40.0	-75.5	0.0
2025-01-21 10:35:24.127602	60.4	40.0	-74.8	0.0
2025-01-21 10:35:26.373316	59.3	40.0	-75.4	0.0
2025-01-21 10:35:28.619311	58.3	40.0	-75.7	0.0
2025-01-21 10:35:30.865487	57.2	40.0	-75.6	0.0
2025-01-21 10:35:33.111513	56.2	39.9	-76.5	0.0
2025-01-21 10:35:35.356571	55.2	39.9	-74.5	0.0
2025-01-21 10:35:37.601525	54.1	39.8	-73.9	0.0
2025-01-21 10:35:39.845896	53.1	39.8	-74.1	0.0
2025-01-21 10:35:42.092206	52.0	39.7	-74.3	0.0
2025-01-21 10:35:44.335251	51.0	39.6	-74.4	0.0
2025-01-21 10:35:46.583088	50.0	39.5	-73.4	0.0
2025-01-21 10:35:48.830105	49.0	39.4	-72.8	0.0
2025-01-21 10:35:51.076258	48.0	39.2	-71.9	0.0
2025-01-21 10:35:53.321915	47.0	39.1	-73.9	0.0
2025-01-21 10:35:55.569408	46.0	39.0	-73.1	0.0
2025-01-21 10:35:57.816038	45.0	38.8	-72.8	0.0
2025-01-21 10:36:00.064063	44.0	38.6	-72.9	0.0
2025-01-21 10:36:02.310363	43.1	38.5	-74.0	0.0
2025-01-21 10:36:04.557674	42.1	38.3	-74.5	0.0
2025-01-21 10:36:06.802220	41.2	38.1	-72.8	0.0
2025-01-21 10:36:09.048025	40.3	37.9	-71.3	0.0
2025-01-21 10:36:11.295076	39.3	37.7	-70.9	0.0
2025-01-21 10:36:13.539171	38.4	37.5	-72.7	0.0
2025-01-21 10:36:15.786241	37.5	37.3	-73.9	0.0
2025-01-21 10:36:18.033078	36.7	37.1	-73.4	0.0
2025-01-21 10:36:20.276960	35.8	36.9	-70.7	0.0
2025-01-21 10:36:22.523744	34.9	36.6	-70.6	0.0
2025-01-21 10:36:24.768001	34.1	36.4	-70.0	0.0
2025-01-21 10:36:27.015852	33.2	36.2	-72.3	0.0
2025-01-21 10:36:29.264006	32.4	35.9	-72.4	0.0
2025-01-21 10:36:31.511504	31.6	35.7	-67.9	0.0
2025-01-21 10:36:33.755401	30.8	35.4	-69.6	0.0
2025-01-21 10:36:36.002963	30.0	35.1	-71.7	0.0
2025-01-21 10:36:38.250736	29.3	34.9	-71.2	0.0
2025-01-21 10:36:40.495781	28.5	34.6	-70.8	0.0
2025-01-21 10:36:42.740609	27.8	34.3	-72.5	0.0
2025-01-21 10:36:44.989179	27.0	34.1	-73.0	0.0
2025-01-21 10:36:47.236842	26.3	33.8	-71.4	0.0
2025-01-21 10:36:49.486317	25.6	33.5	-70.8	0.0
2025-01-21 10:36:51.735027	24.9	33.2	-67.3	0.0
2025-01-21 10:36:53.982151	24.2	32.9	-72.8	0.0
2025-01-21 10:36:56.228248	23.5	32.7	-69.2	0.0
2025-01-21 10:36:58.473063	22.9	32.4	-69.0	0.0
2025-01-21 10:37:00.721416	22.2	32.1	-69.0	0.0
2025-01-21 10:37:02.966892	21.6	31.8	-65.7	0.0
2025-01-21 10:37:05.211742	21.0	31.5	-68.3	0.0
2025-01-21 10:37:07.456064	20.4	31.2	-68.4	0.0
2025-01-21 10:37:09.700969	19.8	30.9	-68.0	0.0
2025-01-21 10:37:11.945852	19.2	30.6	-65.1	0.0
2025-01-21 10:37:14.191246	18.6	30.3	-68.1	0.0
2025-01-21 10:37:16.433986	18.0	30.0	-68.4	0.0
2025-01-21 10:37:18.680536	17.5	29.7	-68.5	0.0
2025-01-21 10:37:20.926738	16.9	29.4	-69.3	0.0
2025-01-21 10:37:23.171150	16.4	29.1	-68.7	0.0
2025-01-21 10:37:25.416586	15.8	28.9	-69.0	0.0
2025-01-21 10:37:27.660270	15.3	28.6	-67.7	0.0
2025-01-21 10:37:29.907094	14.8	28.3	-67.6	0.0
2025-01-21 10:37:32.154258	14.3	28.0	-69.2	0.0
2025-01-21 10:37:34.399987	13.8	27.7	-69.2	0.0
2025-01-21 10:37:36.649116	13.3	27.4	-68.2	0.0
2025-01-21 10:37:38.896001	12.9	27.1	-68.8	0.0
2025-01-21 10:37:41.140395	12.4	26.8	-69.5	0.0
2025-01-21 10:37:43.388450	11.9	26.5	-69.1	0.0
2025-01-21 10:37:45.634518	11.5	26.2	-70.0	0.0
2025-01-21 10:37:47.882035	11.0	26.0	-71.0	0.0
2025-01-21 10:37:50.129667	10.6	25.7	-69.4	0.0
2025-01-21 10:37:52.371453	10.2	25.4	-69.0	0.0
2025-01-21 10:37:54.621203	9.8	25.1	-67.5	0.0
2025-01-21 10:37:56.869224	9.4	24.8	-68.1	0.0
2025-01-21 10:37:59.115637	9.0	24.5	-66.7	0.0
2025-01-21 10:38:01.360920	8.6	24.3	-69.0	0.0
2025-01-21 10:38:03.607947	8.2	24.0	-68.9	0.0
2025-01-21 10:38:05.853984	7.8	23.7	-69.6	0.0
2025-01-21 10:38:08.099926	7.4	23.4	-69.1	0.0
2025-01-21 10:38:10.345030	7.0	23.2	-68.7	0.0
2025-01-21 10:38:12.590436	6.7	22.9	-66.8	0.0
2025-01-21 10:38:14.836539	6.3	22.6	-68.3	0.0
2025-01-21 10:38:17.080691	6.0	22.4	-69.1	0.0
2025-01-21 10:38:19.328809	5.6	22.1	-69.1	0.0
2025-01-21 10:38:21.572907	5.3	21.8	-67.2	0.0
2025-01-21 10:38:23.820514	5.0	21.6	-69.9	0.0
2025-01-21 10:38:26.069119	4.6	21.3	-69.8	0.0
2025-01-21 10:38:28.318567	4.3	21.1	-67.8	0.0
2025-01-21 10:38:30.563125	4.0	20.8	-70.2	0.0
2025-01-21 10:38:32.811516	3.7	20.5	-70.3	0.0
2025-01-21 10:38:35.056088	3.4	20.3	-69.5	0.0
2025-01-21 10:38:37.301293	3.1	20.0	-70.4	0.0
2025-01-21 10:38:39.548033	2.8	19.8	-71.4	0.0
2025-01-21 10:38:41.793706	2.5	19.5	-69.6	0.0
2025-01-21 10:38:44.038553	2.2	19.3	-71.1	0.0
2025-01-21 10:38:46.284243	2.0	19.1	-69.4	0.0
2025-01-21 10:38:48.530100	1.7	18.8	-68.1	0.0
2025-01-21 10:38:50.776591	1.4	18.6	-69.0	0.0
2025-01-21 10:38:53.023064	1.1	18.3	-68.6	0.0
2025-01-21 10:38:55.269595	0.9	18.1	-69.1	0.0
2025-01-21 10:38:57.518599	0.6	17.9	-69.7	0.0
2025-01-21 10:38:59.766757	0.4	17.6	-68.6	0.0
2025-01-21 10:39:02.011928	0.1	17.4	-70.4	0.0
2025-01-21 10:39:04.257098	359.9	17.2	-70.0	0.0
2025-01-21 10:39:06.506025	359.6	16.9	-70.5	0.0
2025-01-21 10:39:08.752447	359.4	16.7	-70.8	0.0
2025-01-21 10:39:10.999236	359.2	16.5	-70.5	0.0
2025-01-21 10:39:13.246527	358.9	16.2	-70.9	0.0
2025-01-21 10:39:15.493063	358.7	16.0	-68.7	0.0
2025-01-21 10:39:17.739391	358.5	15.8	-73.3	0.0
2025-01-21 10:39:19.988183	358.3	15.6	-73.0	0.0
2025-01-21 10:39:22.233954	358.0	15.4	-69.1	0.0
2025-01-21 10:39:24.476328	357.8	15.1	-69.6	0.0
2025-01-21 10:39:26.721479	357.6	14.9	-69.3	0.0
2025-01-21 10:39:28.971093	357.4	14.7	-68.2	0.0
2025-01-21 10:39:31.219407	357.2	14.5	-68.5	0.0
2025-01-21 10:39:33.465535	357.0	14.3	-67.4	0.0
2025-01-21 10:39:35.714610	356.8	14.1	-68.9	0.0
2025-01-21 10:39:37.961999	356.6	13.9	-67.2	0.0
2025-01-21 10:39:40.208321	356.4	13.7	-73.1	0.0
2025-01-21 10:39:42.454061	356.2	13.5	-71.8	0.0
2025-01-21 10:39:44.700194	356.0	13.3	-73.0	0.0
2025-01-21 10:39:46.943144	355.9	13.1	-73.1	0.0
2025-01-21 10:39:49.186465	355.7	12.9	-71.3	0.0
2025-01-21 10:39:51.433083	355.5	12.7	-71.0	0.0
2025-01-21 10:39:53.682447	355.3	12.5	-68.2	0.0
2025-01-21 10:39:55.927338	355.1	12.3	-70.6	0.0
2025-01-21 10:39:58.176211	355.0	12.1	-62.2	0.0
2025-01-21 10:40:00.421673	354.8	11.9	-68.9	0.0
2025-01-21 10:40:02.667988	354.6	11.7	-66.6	0.0
2025-01-21 10:40:04.913314	354.5	11.5	-68.0	0.0
2025-01-21 10:40:07.158593	354.3	11.3	-67.7	0.0
2025-01-21 10:40:09.407791	354.1	11.1	-64.1	0.0
2025-01-21 10:40:11.654311	354.0	10.9	-68.7	0.0
2025-01-21 10:40:13.898088	353.8	10.7	-72.5	0.0
2025-01-21 10:40:16.145932	353.7	10.5	-79.5	0.0
2025-01-21 10:40:18.391691	353.5	10.4	-80.3	0.0
2025-01-21 10:40:20.636081	353.4	10.2	-82.3	0.0
2025-01-21 10:40:22.878874	353.2	10.0	-81.8	0.0
#Closed at: 2025-01-21 10:30:20.455929