passes_logs/2025/01/21/planumMaritime01/planumMaritime01__20250121_113522_NOAA_18_rec.log

#Pass ID: 20250121_113522_NOAA 18
#Satellite: NOAA 18
#Configuration: NOAA 18
#Start time: 2025-01-21 11:35:27.104502

#LorettStation: 1.0.0 05.05.2024
#Station: planumMaritime01
#Location: 37.49445 lon 55.92918 lat
#TLE: 1 28654U 05018A   25020.18862715  .00000449  00000+0  26167-3 0  9997
#TLE: 2 28654  98.8558 101.1913 0014575 164.8261 195.3351 14.13491567 13918

#Time	Az	El	Level	SNR
2025-01-21 11:35:29.265288	347.6	10.1	-69.2	0.0
2025-01-21 11:35:30.387699	347.4	10.1	-66.8	0.0
2025-01-21 11:35:31.510081	347.2	10.2	-68.7	0.0
2025-01-21 11:35:32.634522	347.0	10.2	-66.5	0.0
2025-01-21 11:35:33.759122	346.9	10.3	-68.8	0.0
2025-01-21 11:35:34.883531	346.7	10.3	-70.4	0.0
2025-01-21 11:35:36.005031	346.5	10.3	-68.0	0.0
2025-01-21 11:35:37.131469	346.3	10.4	-67.6	0.0
2025-01-21 11:35:38.255238	346.1	10.4	-68.8	0.0
2025-01-21 11:35:39.380204	346.0	10.5	-67.3	0.0
2025-01-21 11:35:40.502542	345.8	10.5	-69.3	0.0
2025-01-21 11:35:41.626411	345.6	10.6	-68.7	0.0
2025-01-21 11:35:42.751119	345.4	10.6	-66.7	0.0
2025-01-21 11:35:43.875533	345.2	10.6	-65.6	0.0
2025-01-21 11:35:44.997126	345.0	10.7	-68.7	0.0
2025-01-21 11:35:46.121672	344.9	10.7	-67.6	0.0
2025-01-21 11:35:47.246540	344.7	10.8	-69.0	0.0
2025-01-21 11:35:48.368912	344.5	10.8	-67.3	0.0
2025-01-21 11:35:49.491676	344.3	10.8	-69.2	0.0
2025-01-21 11:35:50.614357	344.1	10.9	-68.7	0.0
2025-01-21 11:35:51.737326	343.9	10.9	-69.7	0.0
2025-01-21 11:35:52.862688	343.7	11.0	-67.6	0.0
2025-01-21 11:35:53.985897	343.5	11.0	-69.1	0.0
2025-01-21 11:35:55.109174	343.4	11.0	-68.7	0.0
2025-01-21 11:35:56.232065	343.2	11.1	-67.5	0.0
2025-01-21 11:35:57.355522	343.0	11.1	-66.6	0.0
2025-01-21 11:35:58.480051	342.8	11.1	-65.2	0.0
2025-01-21 11:35:59.603136	342.6	11.2	-67.8	0.0
2025-01-21 11:36:00.724775	342.4	11.2	-67.4	0.0
2025-01-21 11:36:01.847946	342.2	11.3	-69.4	0.0
2025-01-21 11:36:02.970423	342.0	11.3	-69.1	0.0
2025-01-21 11:36:04.093800	341.8	11.3	-69.0	0.0
2025-01-21 11:36:05.217957	341.6	11.4	-68.7	0.0
2025-01-21 11:36:06.340403	341.4	11.4	-68.0	0.0
2025-01-21 11:36:07.464163	341.2	11.4	-70.0	0.0
2025-01-21 11:36:08.587999	341.1	11.5	-71.0	0.0
2025-01-21 11:36:09.711111	340.9	11.5	-72.5	0.0
2025-01-21 11:36:10.833878	340.7	11.6	-73.2	0.0
2025-01-21 11:36:11.956078	340.5	11.6	-71.1	0.0
2025-01-21 11:36:13.078170	340.3	11.6	-67.1	0.0
2025-01-21 11:36:14.202595	340.1	11.7	-71.6	0.0
2025-01-21 11:36:15.325486	339.9	11.7	-72.3	0.0
2025-01-21 11:36:16.448607	339.7	11.7	-72.1	0.0
2025-01-21 11:36:17.570659	339.5	11.8	-70.1	0.0
2025-01-21 11:36:18.697895	339.3	11.8	-69.1	0.0
2025-01-21 11:36:19.821017	339.1	11.8	-69.6	0.0
2025-01-21 11:36:20.943504	338.9	11.9	-71.3	0.0
2025-01-21 11:36:22.067471	338.7	11.9	-70.1	0.0
2025-01-21 11:36:23.191274	338.5	11.9	-70.4	0.0
2025-01-21 11:36:24.314429	338.3	12.0	-72.3	0.0
2025-01-21 11:36:25.437361	338.1	12.0	-73.3	0.0
2025-01-21 11:36:26.561440	337.9	12.0	-73.3	0.0
2025-01-21 11:36:27.684521	337.7	12.0	-65.8	0.0
2025-01-21 11:36:28.807845	337.5	12.1	-67.5	0.0
2025-01-21 11:36:29.931037	337.3	12.1	-71.4	0.0
2025-01-21 11:36:31.054138	337.1	12.1	-75.1	0.0
2025-01-21 11:36:32.175870	336.9	12.2	-68.2	0.0
2025-01-21 11:36:33.299278	336.6	12.2	-68.5	0.0
2025-01-21 11:36:34.421826	336.4	12.2	-69.3	0.0
2025-01-21 11:36:35.544581	336.2	12.2	-66.5	0.0
2025-01-21 11:36:36.667972	336.0	12.3	-70.2	0.0
2025-01-21 11:36:37.792834	335.8	12.3	-70.1	0.0
2025-01-21 11:36:38.917452	335.6	12.3	-71.8	0.0
2025-01-21 11:36:40.038507	335.4	12.4	-71.9	0.0
2025-01-21 11:36:41.161924	335.2	12.4	-72.3	0.0
2025-01-21 11:36:42.285216	335.0	12.4	-72.1	0.0
2025-01-21 11:36:43.408266	334.8	12.4	-71.6	0.0
2025-01-21 11:36:44.532295	334.6	12.5	-71.6	0.0
2025-01-21 11:36:45.654224	334.4	12.5	-70.1	0.0
2025-01-21 11:36:46.777432	334.2	12.5	-68.9	0.0
2025-01-21 11:36:47.901336	333.9	12.5	-70.6	0.0
2025-01-21 11:36:49.024594	333.7	12.6	-70.1	0.0
2025-01-21 11:36:50.151422	333.5	12.6	-71.9	0.0
2025-01-21 11:36:51.274293	333.3	12.6	-72.0	0.0
2025-01-21 11:36:52.394839	333.1	12.6	-72.8	0.0
2025-01-21 11:36:53.518889	332.9	12.7	-73.2	0.0
2025-01-21 11:36:54.642010	332.7	12.7	-73.7	0.0
2025-01-21 11:36:55.764606	332.5	12.7	-71.5	0.0
2025-01-21 11:36:56.888152	332.3	12.7	-67.1	0.0
2025-01-21 11:36:58.010558	332.0	12.7	-72.4	0.0
2025-01-21 11:36:59.134846	331.8	12.8	-70.5	0.0
2025-01-21 11:37:00.257052	331.6	12.8	-67.9	0.0
2025-01-21 11:37:01.380554	331.4	12.8	-70.4	0.0
2025-01-21 11:37:02.503903	331.2	12.8	-72.6	0.0
2025-01-21 11:37:03.628195	331.0	12.8	-73.1	0.0
2025-01-21 11:37:04.751202	330.8	12.9	-73.9	0.0
2025-01-21 11:37:05.875598	330.5	12.9	-71.9	0.0
2025-01-21 11:37:06.999176	330.3	12.9	-70.9	0.0
2025-01-21 11:37:08.120942	330.1	12.9	-68.8	0.0
2025-01-21 11:37:09.242411	329.9	12.9	-70.9	0.0
2025-01-21 11:37:10.365084	329.7	13.0	-72.2	0.0
2025-01-21 11:37:11.489527	329.5	13.0	-72.4	0.0
2025-01-21 11:37:12.613250	329.2	13.0	-71.3	0.0
2025-01-21 11:37:13.735784	329.0	13.0	-72.6	0.0
2025-01-21 11:37:14.858728	328.8	13.0	-71.6	0.0
2025-01-21 11:37:15.981391	328.6	13.0	-71.5	0.0
2025-01-21 11:37:17.106822	328.4	13.1	-73.2	0.0
2025-01-21 11:37:18.229226	328.2	13.1	-74.2	0.0
2025-01-21 11:37:19.355103	327.9	13.1	-65.2	0.0
2025-01-21 11:37:20.477861	327.7	13.1	-73.8	0.0
2025-01-21 11:37:21.603222	327.5	13.1	-74.6	0.0
2025-01-21 11:37:22.726402	327.3	13.1	-74.7	0.0
2025-01-21 11:37:23.851390	327.1	13.1	-76.0	0.0
2025-01-21 11:37:24.974303	326.8	13.1	-69.1	0.0
2025-01-21 11:37:26.096861	326.6	13.2	-75.4	0.0
2025-01-21 11:37:27.222654	326.4	13.2	-74.9	0.0
2025-01-21 11:37:28.345344	326.2	13.2	-71.4	0.0
2025-01-21 11:37:29.467319	326.0	13.2	-76.0	0.0
2025-01-21 11:37:30.590226	325.7	13.2	-74.9	0.0
2025-01-21 11:37:31.712226	325.5	13.2	-74.9	0.0
2025-01-21 11:37:32.835214	325.3	13.2	-75.1	0.0
2025-01-21 11:37:33.961196	325.1	13.2	-70.2	0.0
2025-01-21 11:37:35.083339	324.9	13.2	-74.1	0.0
2025-01-21 11:37:36.205225	324.6	13.2	-73.4	0.0
2025-01-21 11:37:37.327245	324.4	13.3	-73.3	0.0
2025-01-21 11:37:38.451534	324.2	13.3	-72.7	0.0
2025-01-21 11:37:39.574075	324.0	13.3	-73.3	0.0
2025-01-21 11:37:40.698266	323.8	13.3	-68.3	0.0
2025-01-21 11:37:41.823098	323.5	13.3	-70.8	0.0
2025-01-21 11:37:42.946765	323.3	13.3	-75.5	0.0
2025-01-21 11:37:44.071312	323.1	13.3	-76.0	0.0
2025-01-21 11:37:45.194268	322.9	13.3	-75.3	0.0
2025-01-21 11:37:46.319620	322.7	13.3	-74.1	0.0
2025-01-21 11:37:47.442040	322.4	13.3	-74.5	0.0
2025-01-21 11:37:48.563854	322.2	13.3	-72.4	0.0
2025-01-21 11:37:49.687539	322.0	13.3	-74.3	0.0
2025-01-21 11:37:50.811076	321.8	13.3	-72.8	0.0
2025-01-21 11:37:51.934907	321.5	13.3	-74.6	0.0
2025-01-21 11:37:53.057205	321.3	13.3	-67.6	0.0
2025-01-21 11:37:54.178904	321.1	13.3	-73.1	0.0
2025-01-21 11:37:55.301649	320.9	13.3	-70.5	0.0
2025-01-21 11:37:56.425275	320.7	13.3	-71.7	0.0
2025-01-21 11:37:57.548103	320.4	13.3	-69.6	0.0
2025-01-21 11:37:58.670798	320.2	13.3	-76.8	0.0
2025-01-21 11:37:59.794571	320.0	13.3	-74.6	0.0
2025-01-21 11:38:00.918504	319.8	13.3	-70.4	0.0
2025-01-21 11:38:02.041144	319.5	13.3	-74.1	0.0
2025-01-21 11:38:03.163677	319.3	13.3	-75.6	0.0
2025-01-21 11:38:04.288630	319.1	13.3	-75.6	0.0
2025-01-21 11:38:05.412349	318.9	13.3	-73.1	0.0
2025-01-21 11:38:06.536378	318.7	13.3	-72.1	0.0
2025-01-21 11:38:07.661129	318.4	13.3	-68.5	0.0
2025-01-21 11:38:08.785979	318.2	13.3	-68.5	0.0
2025-01-21 11:38:09.909411	318.0	13.3	-74.4	0.0
2025-01-21 11:38:11.030282	317.8	13.3	-75.3	0.0
2025-01-21 11:38:12.153056	317.6	13.3	-69.3	0.0
2025-01-21 11:38:13.275244	317.3	13.3	-74.2	0.0
2025-01-21 11:38:14.400498	317.1	13.3	-70.5	0.0
2025-01-21 11:38:15.525079	316.9	13.3	-74.5	0.0
2025-01-21 11:38:16.647433	316.7	13.2	-73.8	0.0
2025-01-21 11:38:17.773017	316.4	13.2	-70.4	0.0
2025-01-21 11:38:18.896126	316.2	13.2	-72.8	0.0
2025-01-21 11:38:20.019104	316.0	13.2	-70.7	0.0
2025-01-21 11:38:21.140417	315.8	13.2	-72.7	0.0
2025-01-21 11:38:22.262229	315.6	13.2	-74.2	0.0
2025-01-21 11:38:23.383166	315.3	13.2	-71.7	0.0
2025-01-21 11:38:24.506902	315.1	13.2	-74.7	0.0
2025-01-21 11:38:25.629999	314.9	13.2	-72.5	0.0
2025-01-21 11:38:26.753523	314.7	13.2	-74.1	0.0
2025-01-21 11:38:27.875202	314.5	13.1	-71.8	0.0
2025-01-21 11:38:28.998285	314.2	13.1	-74.4	0.0
2025-01-21 11:38:30.122372	314.0	13.1	-74.4	0.0
2025-01-21 11:38:31.248113	313.8	13.1	-73.9	0.0
2025-01-21 11:38:32.371746	313.6	13.1	-73.2	0.0
2025-01-21 11:38:33.496855	313.4	13.1	-75.2	0.0
2025-01-21 11:38:34.620605	313.1	13.1	-73.3	0.0
2025-01-21 11:38:35.742328	312.9	13.1	-74.9	0.0
2025-01-21 11:38:36.864041	312.7	13.0	-76.1	0.0
2025-01-21 11:38:37.988376	312.5	13.0	-73.0	0.0
2025-01-21 11:38:39.111966	312.3	13.0	-73.4	0.0
2025-01-21 11:38:40.235116	312.1	13.0	-73.7	0.0
2025-01-21 11:38:41.359222	311.8	13.0	-73.1	0.0
2025-01-21 11:38:42.482982	311.6	13.0	-73.9	0.0
2025-01-21 11:38:43.604949	311.4	12.9	-75.3	0.0
2025-01-21 11:38:44.728237	311.2	12.9	-73.9	0.0
2025-01-21 11:38:45.850542	311.0	12.9	-74.3	0.0
2025-01-21 11:38:46.975183	310.8	12.9	-72.9	0.0
2025-01-21 11:38:48.097914	310.5	12.9	-72.8	0.0
2025-01-21 11:38:49.222813	310.3	12.9	-73.5	0.0
2025-01-21 11:38:50.344123	310.1	12.8	-74.5	0.0
2025-01-21 11:38:51.470022	309.9	12.8	-73.7	0.0
2025-01-21 11:38:52.593304	309.7	12.8	-73.9	0.0
2025-01-21 11:38:53.715168	309.5	12.8	-73.6	0.0
2025-01-21 11:38:54.836510	309.3	12.8	-75.5	0.0
2025-01-21 11:38:55.958919	309.0	12.7	-74.9	0.0
2025-01-21 11:38:57.081769	308.8	12.7	-75.2	0.0
2025-01-21 11:38:58.206232	308.6	12.7	-75.8	0.0
2025-01-21 11:38:59.329764	308.4	12.7	-73.7	0.0
2025-01-21 11:39:00.456173	308.2	12.6	-74.4	0.0
2025-01-21 11:39:01.579235	308.0	12.6	-74.0	0.0
2025-01-21 11:39:02.704038	307.8	12.6	-73.8	0.0
2025-01-21 11:39:03.826819	307.5	12.6	-74.2	0.0
2025-01-21 11:39:04.950708	307.3	12.5	-76.2	0.0
2025-01-21 11:39:06.073481	307.1	12.5	-75.7	0.0
2025-01-21 11:39:07.196491	306.9	12.5	-76.0	0.0
2025-01-21 11:39:08.319390	306.7	12.5	-75.9	0.0
2025-01-21 11:39:09.444067	306.5	12.4	-76.4	0.0
2025-01-21 11:39:10.566165	306.3	12.4	-76.8	0.0
2025-01-21 11:39:11.688059	306.1	12.4	-77.4	0.0
2025-01-21 11:39:12.810385	305.9	12.4	-75.0	0.0
2025-01-21 11:39:13.935114	305.7	12.3	-74.3	0.0
2025-01-21 11:39:15.057037	305.5	12.3	-76.7	0.0
2025-01-21 11:39:16.180346	305.2	12.3	-75.1	0.0
2025-01-21 11:39:17.303461	305.0	12.3	-75.7	0.0
2025-01-21 11:39:18.429189	304.8	12.2	-77.1	0.0
2025-01-21 11:39:19.552397	304.6	12.2	-74.2	0.0
2025-01-21 11:39:20.674260	304.4	12.2	-74.0	0.0
2025-01-21 11:39:21.797391	304.2	12.1	-74.2	0.0
2025-01-21 11:39:22.920333	304.0	12.1	-75.2	0.0
2025-01-21 11:39:24.042744	303.8	12.1	-75.1	0.0
2025-01-21 11:39:25.166945	303.6	12.0	-77.1	0.0
2025-01-21 11:39:26.289645	303.4	12.0	-76.3	0.0
2025-01-21 11:39:27.413175	303.2	12.0	-76.3	0.0
2025-01-21 11:39:28.534489	303.0	12.0	-75.6	0.0
2025-01-21 11:39:29.658456	302.8	11.9	-75.3	0.0
2025-01-21 11:39:30.780632	302.6	11.9	-75.8	0.0
2025-01-21 11:39:31.902725	302.4	11.9	-76.8	0.0
2025-01-21 11:39:33.023475	302.2	11.8	-76.4	0.0
2025-01-21 11:39:34.146677	302.0	11.8	-77.0	0.0
2025-01-21 11:39:35.269031	301.8	11.8	-76.8	0.0
2025-01-21 11:39:36.393165	301.6	11.7	-77.2	0.0
2025-01-21 11:39:37.515404	301.4	11.7	-77.3	0.0
2025-01-21 11:39:38.638731	301.2	11.7	-76.8	0.0
2025-01-21 11:39:39.762666	301.0	11.6	-77.6	0.0
2025-01-21 11:39:40.886763	300.8	11.6	-77.4	0.0
2025-01-21 11:39:42.010161	300.6	11.6	-77.9	0.0
2025-01-21 11:39:43.134269	300.4	11.5	-77.4	0.0
2025-01-21 11:39:44.256272	300.2	11.5	-77.5	0.0
2025-01-21 11:39:45.377856	300.0	11.4	-75.8	0.0
2025-01-21 11:39:46.500401	299.8	11.4	-77.0	0.0
2025-01-21 11:39:47.624843	299.6	11.4	-76.8	0.0
2025-01-21 11:39:48.745712	299.4	11.3	-76.4	0.0
2025-01-21 11:39:49.868632	299.2	11.3	-76.0	0.0
2025-01-21 11:39:50.991637	299.0	11.3	-76.7	0.0
2025-01-21 11:39:52.113730	298.8	11.2	-76.4	0.0
2025-01-21 11:39:53.236978	298.6	11.2	-75.9	0.0
2025-01-21 11:39:54.363201	298.4	11.2	-76.7	0.0
2025-01-21 11:39:55.487027	298.3	11.1	-74.6	0.0
2025-01-21 11:39:56.608888	298.1	11.1	-75.9	0.0
2025-01-21 11:39:57.731701	297.9	11.0	-76.3	0.0
2025-01-21 11:39:58.854341	297.7	11.0	-76.8	0.0
2025-01-21 11:39:59.979060	297.5	11.0	-77.6	0.0
2025-01-21 11:40:01.101370	297.3	10.9	-78.5	0.0
2025-01-21 11:40:02.224239	297.1	10.9	-78.9	0.0
2025-01-21 11:40:03.351168	296.9	10.8	-79.7	0.0
2025-01-21 11:40:04.476470	296.7	10.8	-80.5	0.0
2025-01-21 11:40:05.601051	296.5	10.8	-80.9	0.0
2025-01-21 11:40:06.724515	296.4	10.7	-80.8	0.0
2025-01-21 11:40:07.848574	296.2	10.7	-80.9	0.0
2025-01-21 11:40:08.971743	296.0	10.6	-81.2	0.0
2025-01-21 11:40:10.094814	295.8	10.6	-81.2	0.0
2025-01-21 11:40:11.218571	295.6	10.6	-80.8	0.0
2025-01-21 11:40:12.341608	295.4	10.5	-81.1	0.0
2025-01-21 11:40:13.466363	295.3	10.5	-80.8	0.0
2025-01-21 11:40:14.589769	295.1	10.4	-80.9	0.0
2025-01-21 11:40:15.711453	294.9	10.4	-81.0	0.0
2025-01-21 11:40:16.836505	294.7	10.3	-81.0	0.0
2025-01-21 11:40:17.959633	294.5	10.3	-81.0	0.0
2025-01-21 11:40:19.082930	294.3	10.3	-80.9	0.0
2025-01-21 11:40:20.206438	294.2	10.2	-81.1	0.0
2025-01-21 11:40:21.330213	294.0	10.2	-80.8	0.0
2025-01-21 11:40:22.451494	293.8	10.1	-80.9	0.0
2025-01-21 11:40:23.575706	293.6	10.1	-80.8	0.0
2025-01-21 11:40:24.699028	293.4	10.0	-80.0	0.0
#Closed at: 2025-01-21 11:35:22.106548