passes_logs/2025/01/21/planumMaritime01/planumMaritime01__20250121_213121_NOAA_18_rec.log

#Pass ID: 20250121_213121_NOAA 18
#Satellite: NOAA 18
#Configuration: NOAA 18
#Start time: 2025-01-21 21:31:26.685719

#LorettStation: 1.0.0 05.05.2024
#Station: planumMaritime01
#Location: 37.49445 lon 55.92918 lat
#TLE: 1 28654U 05018A   25021.17963601  .00000484  00000+0  28040-3 0  9994
#TLE: 2 28654  98.8557 102.1724 0014626 162.0619 198.1073 14.13492794 14053

#Time	Az	El	Level	SNR
2025-01-21 21:31:28.844696	255.2	10.1	-76.8	0.0
2025-01-21 21:31:29.969242	255.3	10.1	-76.8	0.0
2025-01-21 21:31:31.093590	255.5	10.1	-77.1	0.0
2025-01-21 21:31:32.216467	255.7	10.2	-77.0	0.0
2025-01-21 21:31:33.339488	255.9	10.2	-77.2	0.0
2025-01-21 21:31:34.460670	256.1	10.2	-77.1	0.0
2025-01-21 21:31:35.584166	256.3	10.3	-77.2	0.0
2025-01-21 21:31:36.708059	256.4	10.3	-77.2	0.0
2025-01-21 21:31:37.833140	256.6	10.4	-76.8	0.0
2025-01-21 21:31:38.955971	256.8	10.4	-77.4	0.0
2025-01-21 21:31:40.078664	257.0	10.4	-77.2	0.0
2025-01-21 21:31:41.202813	257.2	10.5	-77.5	0.0
2025-01-21 21:31:42.325523	257.4	10.5	-77.5	0.0
2025-01-21 21:31:43.447671	257.6	10.5	-77.4	0.0
2025-01-21 21:31:44.569998	257.8	10.6	-77.4	0.0
2025-01-21 21:31:45.693570	258.0	10.6	-77.5	0.0
2025-01-21 21:31:46.819067	258.1	10.6	-77.5	0.0
2025-01-21 21:31:47.943485	258.3	10.6	-77.6	0.0
2025-01-21 21:31:49.066150	258.5	10.7	-77.5	0.0
2025-01-21 21:31:50.189682	258.7	10.7	-77.3	0.0
2025-01-21 21:31:51.313488	258.9	10.7	-77.5	0.0
2025-01-21 21:31:52.437148	259.1	10.8	-77.6	0.0
2025-01-21 21:31:53.560421	259.3	10.8	-77.2	0.0
2025-01-21 21:31:54.683102	259.5	10.8	-77.0	0.0
2025-01-21 21:31:55.806458	259.7	10.9	-77.4	0.0
2025-01-21 21:31:56.928191	259.9	10.9	-77.5	0.0
2025-01-21 21:31:58.051898	260.1	10.9	-77.0	0.0
2025-01-21 21:31:59.175105	260.3	11.0	-77.3	0.0
2025-01-21 21:32:00.299646	260.5	11.0	-77.1	0.0
2025-01-21 21:32:01.423515	260.7	11.0	-77.7	0.0
2025-01-21 21:32:02.547913	260.9	11.0	-77.2	0.0
2025-01-21 21:32:03.670154	261.0	11.1	-77.4	0.0
2025-01-21 21:32:04.795293	261.2	11.1	-77.3	0.0
2025-01-21 21:32:05.919528	261.4	11.1	-77.0	0.0
2025-01-21 21:32:07.043233	261.6	11.2	-77.8	0.0
2025-01-21 21:32:08.166438	261.8	11.2	-77.4	0.0
2025-01-21 21:32:09.289078	262.0	11.2	-77.6	0.0
2025-01-21 21:32:10.413823	262.2	11.2	-77.4	0.0
2025-01-21 21:32:11.539778	262.4	11.3	-77.6	0.0
2025-01-21 21:32:12.661895	262.6	11.3	-77.8	0.0
2025-01-21 21:32:13.784550	262.8	11.3	-77.7	0.0
2025-01-21 21:32:14.907834	263.0	11.3	-77.4	0.0
2025-01-21 21:32:16.030428	263.2	11.4	-77.4	0.0
2025-01-21 21:32:17.153289	263.4	11.4	-77.8	0.0
2025-01-21 21:32:18.275479	263.6	11.4	-77.6	0.0
2025-01-21 21:32:19.397451	263.8	11.4	-77.6	0.0
2025-01-21 21:32:20.521040	264.0	11.5	-77.5	0.0
2025-01-21 21:32:21.644329	264.2	11.5	-78.0	0.0
2025-01-21 21:32:22.765091	264.4	11.5	-77.9	0.0
2025-01-21 21:32:23.888376	264.6	11.5	-77.9	0.0
2025-01-21 21:32:25.011702	264.8	11.6	-78.1	0.0
2025-01-21 21:32:26.135275	265.0	11.6	-77.8	0.0
2025-01-21 21:32:27.259294	265.2	11.6	-77.9	0.0
2025-01-21 21:32:28.381740	265.5	11.6	-77.8	0.0
2025-01-21 21:32:29.508431	265.7	11.7	-78.0	0.0
2025-01-21 21:32:30.631204	265.9	11.7	-77.9	0.0
2025-01-21 21:32:31.754037	266.1	11.7	-77.9	0.0
2025-01-21 21:32:32.877724	266.3	11.7	-77.3	0.0
2025-01-21 21:32:33.999557	266.5	11.7	-77.4	0.0
2025-01-21 21:32:35.123468	266.7	11.8	-77.4	0.0
2025-01-21 21:32:36.246563	266.9	11.8	-77.8	0.0
2025-01-21 21:32:37.368385	267.1	11.8	-77.7	0.0
2025-01-21 21:32:38.493714	267.3	11.8	-77.7	0.0
2025-01-21 21:32:39.618242	267.5	11.8	-77.7	0.0
2025-01-21 21:32:40.741691	267.7	11.9	-77.7	0.0
2025-01-21 21:32:41.867198	267.9	11.9	-77.3	0.0
2025-01-21 21:32:42.990312	268.1	11.9	-77.4	0.0
2025-01-21 21:32:44.114212	268.3	11.9	-77.8	0.0
2025-01-21 21:32:45.239330	268.5	11.9	-77.4	0.0
2025-01-21 21:32:46.363032	268.7	11.9	-77.7	0.0
2025-01-21 21:32:47.486533	269.0	12.0	-77.9	0.0
2025-01-21 21:32:48.610450	269.2	12.0	-77.7	0.0
2025-01-21 21:32:49.730222	269.4	12.0	-78.0	0.0
2025-01-21 21:32:50.852377	269.6	12.0	-77.9	0.0
2025-01-21 21:32:51.975842	269.8	12.0	-78.0	0.0
2025-01-21 21:32:53.097880	270.0	12.0	-78.2	0.0
2025-01-21 21:32:54.222580	270.2	12.1	-77.9	0.0
2025-01-21 21:32:55.343931	270.4	12.1	-77.9	0.0
2025-01-21 21:32:56.466733	270.6	12.1	-78.0	0.0
2025-01-21 21:32:57.589567	270.8	12.1	-78.1	0.0
2025-01-21 21:32:58.714245	271.0	12.1	-78.2	0.0
2025-01-21 21:32:59.834653	271.3	12.1	-78.1	0.0
2025-01-21 21:33:00.956686	271.5	12.1	-78.0	0.0
2025-01-21 21:33:02.079928	271.7	12.2	-78.4	0.0
2025-01-21 21:33:03.203905	271.9	12.2	-77.9	0.0
2025-01-21 21:33:04.326089	272.1	12.2	-78.1	0.0
2025-01-21 21:33:05.451522	272.3	12.2	-77.8	0.0
2025-01-21 21:33:06.575305	272.5	12.2	-77.7	0.0
2025-01-21 21:33:07.697315	272.7	12.2	-77.7	0.0
2025-01-21 21:33:08.821302	272.9	12.2	-77.6	0.0
2025-01-21 21:33:09.944028	273.2	12.2	-77.5	0.0
2025-01-21 21:33:11.066315	273.4	12.2	-77.9	0.0
2025-01-21 21:33:12.191613	273.6	12.3	-77.7	0.0
2025-01-21 21:33:13.315793	273.8	12.3	-77.6	0.0
2025-01-21 21:33:14.437228	274.0	12.3	-77.5	0.0
2025-01-21 21:33:15.559437	274.2	12.3	-77.7	0.0
2025-01-21 21:33:16.682191	274.4	12.3	-77.7	0.0
2025-01-21 21:33:17.806015	274.6	12.3	-77.6	0.0
2025-01-21 21:33:18.929754	274.9	12.3	-77.6	0.0
2025-01-21 21:33:20.052433	275.1	12.3	-77.7	0.0
2025-01-21 21:33:21.174159	275.3	12.3	-77.9	0.0
2025-01-21 21:33:22.297825	275.5	12.3	-77.3	0.0
2025-01-21 21:33:23.422835	275.7	12.3	-77.6	0.0
2025-01-21 21:33:24.547589	275.9	12.3	-77.7	0.0
2025-01-21 21:33:25.671327	276.1	12.3	-77.4	0.0
2025-01-21 21:33:26.794675	276.3	12.3	-77.5	0.0
2025-01-21 21:33:27.919266	276.6	12.3	-77.8	0.0
2025-01-21 21:33:29.042820	276.8	12.3	-77.7	0.0
2025-01-21 21:33:30.165150	277.0	12.4	-77.7	0.0
2025-01-21 21:33:31.288505	277.2	12.4	-77.6	0.0
2025-01-21 21:33:32.410275	277.4	12.4	-77.9	0.0
2025-01-21 21:33:33.532585	277.6	12.4	-77.7	0.0
2025-01-21 21:33:34.658651	277.8	12.4	-77.6	0.0
2025-01-21 21:33:35.781961	278.1	12.4	-77.7	0.0
2025-01-21 21:33:36.905261	278.3	12.4	-77.4	0.0
2025-01-21 21:33:38.027339	278.5	12.4	-77.6	0.0
2025-01-21 21:33:39.150721	278.7	12.4	-77.4	0.0
2025-01-21 21:33:40.275960	278.9	12.4	-77.9	0.0
2025-01-21 21:33:41.398306	279.1	12.4	-77.3	0.0
2025-01-21 21:33:42.520314	279.3	12.4	-77.9	0.0
2025-01-21 21:33:43.644201	279.5	12.4	-77.8	0.0
2025-01-21 21:33:44.767507	279.8	12.4	-77.6	0.0
2025-01-21 21:33:45.891464	280.0	12.4	-77.2	0.0
2025-01-21 21:33:47.015106	280.2	12.4	-77.7	0.0
2025-01-21 21:33:48.137821	280.4	12.4	-77.2	0.0
2025-01-21 21:33:49.260747	280.6	12.4	-77.5	0.0
2025-01-21 21:33:50.383549	280.8	12.4	-76.5	0.0
2025-01-21 21:33:51.504426	281.0	12.4	-77.4	0.0
2025-01-21 21:33:52.627422	281.3	12.4	-77.5	0.0
2025-01-21 21:33:53.751374	281.5	12.3	-77.3	0.0
2025-01-21 21:33:54.874503	281.7	12.3	-77.1	0.0
2025-01-21 21:33:55.997610	281.9	12.3	-76.8	0.0
2025-01-21 21:33:57.120189	282.1	12.3	-77.3	0.0
2025-01-21 21:33:58.243734	282.3	12.3	-77.3	0.0
2025-01-21 21:33:59.368706	282.5	12.3	-77.2	0.0
2025-01-21 21:34:00.492583	282.7	12.3	-76.6	0.0
2025-01-21 21:34:01.615946	283.0	12.3	-77.0	0.0
2025-01-21 21:34:02.739323	283.2	12.3	-77.4	0.0
2025-01-21 21:34:03.862224	283.4	12.3	-76.6	0.0
2025-01-21 21:34:04.987978	283.6	12.3	-77.5	0.0
2025-01-21 21:34:06.111345	283.8	12.3	-77.4	0.0
2025-01-21 21:34:07.232689	284.0	12.3	-76.6	0.0
2025-01-21 21:34:08.355592	284.2	12.3	-77.5	0.0
2025-01-21 21:34:09.478647	284.4	12.3	-78.0	0.0
2025-01-21 21:34:10.602500	284.7	12.2	-77.4	0.0
2025-01-21 21:34:11.726112	284.9	12.2	-77.6	0.0
2025-01-21 21:34:12.849190	285.1	12.2	-77.2	0.0
2025-01-21 21:34:13.975896	285.3	12.2	-77.5	0.0
2025-01-21 21:34:15.098719	285.5	12.2	-77.2	0.0
2025-01-21 21:34:16.220186	285.7	12.2	-77.4	0.0
2025-01-21 21:34:17.344659	285.9	12.2	-77.6	0.0
2025-01-21 21:34:18.467810	286.1	12.2	-77.5	0.0
2025-01-21 21:34:19.591570	286.3	12.2	-77.0	0.0
2025-01-21 21:34:20.713506	286.6	12.1	-77.1	0.0
2025-01-21 21:34:21.837024	286.8	12.1	-77.2	0.0
2025-01-21 21:34:22.962653	287.0	12.1	-77.2	0.0
2025-01-21 21:34:24.085190	287.2	12.1	-76.9	0.0
2025-01-21 21:34:25.208939	287.4	12.1	-76.5	0.0
2025-01-21 21:34:26.333057	287.6	12.1	-76.9	0.0
2025-01-21 21:34:27.457223	287.8	12.1	-76.8	0.0
2025-01-21 21:34:28.578867	288.0	12.0	-77.0	0.0
2025-01-21 21:34:29.704248	288.2	12.0	-76.8	0.0
2025-01-21 21:34:30.828712	288.4	12.0	-76.3	0.0
2025-01-21 21:34:31.952401	288.7	12.0	-76.3	0.0
2025-01-21 21:34:33.076105	288.9	12.0	-76.9	0.0
2025-01-21 21:34:34.198598	289.1	12.0	-75.5	0.0
2025-01-21 21:34:35.321487	289.3	12.0	-76.7	0.0
2025-01-21 21:34:36.446051	289.5	11.9	-76.7	0.0
2025-01-21 21:34:37.570199	289.7	11.9	-77.0	0.0
2025-01-21 21:34:38.695463	289.9	11.9	-76.8	0.0
2025-01-21 21:34:39.818718	290.1	11.9	-77.3	0.0
2025-01-21 21:34:40.942063	290.3	11.9	-77.6	0.0
2025-01-21 21:34:42.065057	290.5	11.8	-76.4	0.0
2025-01-21 21:34:43.188153	290.7	11.8	-77.5	0.0
2025-01-21 21:34:44.310604	290.9	11.8	-77.3	0.0
2025-01-21 21:34:45.432922	291.1	11.8	-77.3	0.0
2025-01-21 21:34:46.556330	291.3	11.8	-77.4	0.0
2025-01-21 21:34:47.679598	291.6	11.7	-76.0	0.0
2025-01-21 21:34:48.802774	291.8	11.7	-77.2	0.0
2025-01-21 21:34:49.926761	292.0	11.7	-77.1	0.0
2025-01-21 21:34:51.049415	292.2	11.7	-77.2	0.0
2025-01-21 21:34:52.172066	292.4	11.7	-77.7	0.0
2025-01-21 21:34:53.293992	292.6	11.6	-77.8	0.0
2025-01-21 21:34:54.419386	292.8	11.6	-77.5	0.0
2025-01-21 21:34:55.543586	293.0	11.6	-77.4	0.0
2025-01-21 21:34:56.668181	293.2	11.6	-76.9	0.0
2025-01-21 21:34:57.791577	293.4	11.5	-77.2	0.0
2025-01-21 21:34:58.915545	293.6	11.5	-77.5	0.0
2025-01-21 21:35:00.039070	293.8	11.5	-76.6	0.0
2025-01-21 21:35:01.161601	294.0	11.5	-77.3	0.0
2025-01-21 21:35:02.284042	294.2	11.5	-77.4	0.0
2025-01-21 21:35:03.408682	294.4	11.4	-76.9	0.0
2025-01-21 21:35:04.531605	294.6	11.4	-76.5	0.0
2025-01-21 21:35:05.653331	294.8	11.4	-76.4	0.0
2025-01-21 21:35:06.776753	295.0	11.4	-77.2	0.0
2025-01-21 21:35:07.897652	295.2	11.3	-76.6	0.0
2025-01-21 21:35:09.021462	295.4	11.3	-76.7	0.0
2025-01-21 21:35:10.145672	295.6	11.3	-76.3	0.0
2025-01-21 21:35:11.266896	295.8	11.2	-76.8	0.0
2025-01-21 21:35:12.392136	296.0	11.2	-76.2	0.0
2025-01-21 21:35:13.515414	296.2	11.2	-76.9	0.0
2025-01-21 21:35:14.639277	296.4	11.2	-76.7	0.0
2025-01-21 21:35:15.763160	296.6	11.1	-77.5	0.0
2025-01-21 21:35:16.885596	296.8	11.1	-77.1	0.0
2025-01-21 21:35:18.007400	297.0	11.1	-76.9	0.0
2025-01-21 21:35:19.133521	297.2	11.1	-77.0	0.0
2025-01-21 21:35:20.257128	297.4	11.0	-77.3	0.0
2025-01-21 21:35:21.379319	297.6	11.0	-77.6	0.0
2025-01-21 21:35:22.501728	297.8	11.0	-78.5	0.0
2025-01-21 21:35:23.624551	298.0	10.9	-79.2	0.0
2025-01-21 21:35:24.747935	298.1	10.9	-79.7	0.0
2025-01-21 21:35:25.870752	298.3	10.9	-79.6	0.0
2025-01-21 21:35:26.993683	298.5	10.8	-79.7	0.0
2025-01-21 21:35:28.118055	298.7	10.8	-80.5	0.0
2025-01-21 21:35:29.241016	298.9	10.8	-80.9	0.0
2025-01-21 21:35:30.364699	299.1	10.8	-81.0	0.0
2025-01-21 21:35:31.486566	299.3	10.7	-81.3	0.0
2025-01-21 21:35:32.609162	299.5	10.7	-81.1	0.0
2025-01-21 21:35:33.729598	299.7	10.7	-80.9	0.0
2025-01-21 21:35:34.853388	299.9	10.6	-80.8	0.0
2025-01-21 21:35:35.978028	300.1	10.6	-80.6	0.0
2025-01-21 21:35:37.102607	300.3	10.6	-80.7	0.0
2025-01-21 21:35:38.225254	300.4	10.5	-80.6	0.0
2025-01-21 21:35:39.348945	300.6	10.5	-80.8	0.0
2025-01-21 21:35:40.472688	300.8	10.5	-80.7	0.0
2025-01-21 21:35:41.595641	301.0	10.4	-80.0	0.0
2025-01-21 21:35:42.717019	301.2	10.4	-80.1	0.0
2025-01-21 21:35:43.842586	301.4	10.4	-80.1	0.0
2025-01-21 21:35:44.963916	301.6	10.3	-80.2	0.0
2025-01-21 21:35:46.087414	301.8	10.3	-80.2	0.0
2025-01-21 21:35:47.211495	301.9	10.3	-79.7	0.0
2025-01-21 21:35:48.333523	302.1	10.2	-80.1	0.0
2025-01-21 21:35:49.455696	302.3	10.2	-80.1	0.0
2025-01-21 21:35:50.579230	302.5	10.2	-80.1	0.0
2025-01-21 21:35:51.701089	302.7	10.1	-80.2	0.0
2025-01-21 21:35:52.825372	302.9	10.1	-80.8	0.0
2025-01-21 21:35:53.948658	303.1	10.1	-80.5	0.0
2025-01-21 21:35:55.070573	303.2	10.0	-80.2	0.0
#Closed at: 2025-01-21 21:31:21.687457