passes_logs/2025/01/21/planumMaritime01/planumMaritime01__20250121_174036_METOP-B_rec.log

#Pass ID: 20250121_174036_METOP-B
#Satellite: METOP-B
#Configuration: METOP-B
#Start time: 2025-01-21 17:40:41.655985

#LorettStation: 1.0.0 05.05.2024
#Station: planumMaritime01
#Location: 37.49445 lon 55.92918 lat
#TLE: 1 38771U 12049A   25021.16604513  .00000353  00000+0  18102-3 0  9993
#TLE: 2 38771  98.6002  79.1650 0001655  74.6422 285.4938 14.21414824640519

#Time	Az	El	Level	SNR
2025-01-21 17:40:43.810548	157.8	10.2	-77.4	0.0
2025-01-21 17:40:46.057697	157.8	10.4	-77.2	0.0
2025-01-21 17:40:48.305964	157.8	10.6	-76.6	0.0
2025-01-21 17:40:50.551619	157.7	10.8	-76.8	0.0
2025-01-21 17:40:52.797786	157.7	11.0	-76.9	0.0
2025-01-21 17:40:55.045444	157.7	11.2	-76.9	0.0
2025-01-21 17:40:57.290625	157.7	11.4	-77.1	0.0
2025-01-21 17:40:59.538738	157.7	11.6	-77.9	0.0
2025-01-21 17:41:01.784350	157.7	11.8	-76.6	0.0
2025-01-21 17:41:04.029826	157.7	12.0	-76.9	0.0
2025-01-21 17:41:06.276507	157.7	12.3	-77.3	0.0
2025-01-21 17:41:08.524843	157.6	12.5	-76.8	0.0
2025-01-21 17:41:10.771634	157.6	12.7	-77.7	0.0
2025-01-21 17:41:13.019739	157.6	12.9	-76.9	0.0
2025-01-21 17:41:15.266644	157.6	13.1	-78.0	0.0
2025-01-21 17:41:17.514222	157.6	13.4	-77.4	0.0
2025-01-21 17:41:19.757682	157.6	13.6	-77.4	0.0
2025-01-21 17:41:22.006315	157.5	13.8	-78.0	0.0
2025-01-21 17:41:24.250518	157.5	14.1	-77.7	0.0
2025-01-21 17:41:26.496677	157.5	14.3	-77.5	0.0
2025-01-21 17:41:28.744870	157.5	14.5	-78.0	0.0
2025-01-21 17:41:30.989025	157.5	14.8	-77.4	0.0
2025-01-21 17:41:33.236140	157.5	15.0	-76.9	0.0
2025-01-21 17:41:35.482609	157.4	15.2	-77.2	0.0
2025-01-21 17:41:37.731097	157.4	15.5	-78.0	0.0
2025-01-21 17:41:39.977060	157.4	15.7	-77.5	0.0
2025-01-21 17:41:42.224220	157.4	16.0	-77.3	0.0
2025-01-21 17:41:44.471936	157.4	16.2	-78.4	0.0
2025-01-21 17:41:46.718659	157.3	16.5	-77.8	0.0
2025-01-21 17:41:48.963989	157.3	16.8	-77.5	0.0
2025-01-21 17:41:51.210772	157.3	17.0	-77.6	0.0
2025-01-21 17:41:53.456251	157.3	17.3	-78.1	0.0
2025-01-21 17:41:55.704351	157.3	17.5	-78.5	0.0
2025-01-21 17:41:57.950623	157.2	17.8	-78.3	0.0
2025-01-21 17:42:00.201479	157.2	18.1	-78.2	0.0
2025-01-21 17:42:02.449855	157.2	18.4	-78.3	0.0
2025-01-21 17:42:04.695461	157.2	18.6	-78.4	0.0
2025-01-21 17:42:06.939250	157.1	18.9	-78.2	0.0
2025-01-21 17:42:09.185953	157.1	19.2	-78.6	0.0
2025-01-21 17:42:11.430074	157.1	19.5	-78.1	0.0
2025-01-21 17:42:13.678695	157.1	19.8	-78.5	0.0
2025-01-21 17:42:15.922453	157.0	20.1	-78.1	0.0
2025-01-21 17:42:18.171516	157.0	20.4	-78.2	0.0
2025-01-21 17:42:20.418697	157.0	20.7	-77.6	0.0
2025-01-21 17:42:22.665342	157.0	21.0	-77.6	0.0
2025-01-21 17:42:24.914660	156.9	21.3	-77.6	0.0
2025-01-21 17:42:27.159823	156.9	21.6	-78.2	0.0
2025-01-21 17:42:29.406370	156.9	22.0	-77.5	0.0
2025-01-21 17:42:31.651544	156.8	22.3	-77.8	0.0
2025-01-21 17:42:33.901216	156.8	22.6	-77.6	0.0
2025-01-21 17:42:36.147642	156.8	22.9	-77.9	0.0
2025-01-21 17:42:38.396568	156.7	23.3	-77.8	0.0
2025-01-21 17:42:40.643101	156.7	23.6	-77.6	0.0
2025-01-21 17:42:42.888965	156.7	24.0	-77.7	0.0
2025-01-21 17:42:45.135388	156.6	24.3	-77.4	0.0
2025-01-21 17:42:47.383252	156.6	24.7	-77.9	0.8
2025-01-21 17:42:49.626864	156.5	25.0	-77.7	0.0
2025-01-21 17:42:51.873454	156.5	25.4	-77.8	0.0
2025-01-21 17:42:54.121750	156.5	25.7	-77.5	0.8
2025-01-21 17:42:56.369877	156.4	26.1	-76.8	0.0
2025-01-21 17:42:58.614642	156.4	26.5	-77.7	0.5
2025-01-21 17:43:00.861635	156.3	26.9	-77.1	0.0
2025-01-21 17:43:03.107422	156.3	27.3	-77.7	1.6
2025-01-21 17:43:05.358629	156.2	27.7	-77.3	0.0
2025-01-21 17:43:07.609407	156.2	28.1	-76.9	0.0
2025-01-21 17:43:09.850937	156.1	28.5	-77.1	0.0
2025-01-21 17:43:12.096735	156.1	28.9	-77.5	0.0
2025-01-21 17:43:14.342979	156.0	29.3	-76.4	0.0
2025-01-21 17:43:16.592529	156.0	29.7	-75.7	0.0
2025-01-21 17:43:18.839465	155.9	30.2	-75.4	0.0
2025-01-21 17:43:21.085648	155.8	30.6	-76.4	0.0
2025-01-21 17:43:23.333547	155.8	31.1	-75.3	0.0
2025-01-21 17:43:25.580581	155.7	31.5	-75.0	0.0
2025-01-21 17:43:27.829644	155.7	32.0	-74.1	0.0
2025-01-21 17:43:30.074566	155.6	32.4	-74.0	0.0
2025-01-21 17:43:32.322553	155.5	32.9	-73.2	0.0
2025-01-21 17:43:34.566923	155.4	33.4	-76.0	0.0
2025-01-21 17:43:36.813324	155.4	33.9	-73.7	0.0
2025-01-21 17:43:39.061698	155.3	34.4	-74.3	0.0
2025-01-21 17:43:41.309435	155.2	34.9	-73.1	0.0
2025-01-21 17:43:43.554245	155.1	35.4	-74.1	0.0
2025-01-21 17:43:45.803019	155.1	35.9	-74.7	0.0
2025-01-21 17:43:48.052776	155.0	36.4	-74.9	0.0
2025-01-21 17:43:50.295514	154.9	37.0	-75.2	0.0
2025-01-21 17:43:52.541533	154.8	37.5	-75.0	0.0
2025-01-21 17:43:54.789864	154.7	38.1	-74.6	0.0
2025-01-21 17:43:57.034952	154.6	38.7	-75.1	0.0
2025-01-21 17:43:59.282164	154.5	39.2	-76.0	0.0
2025-01-21 17:44:01.527554	154.4	39.8	-73.1	0.0
2025-01-21 17:44:03.772540	154.3	40.4	-72.2	0.0
2025-01-21 17:44:06.021156	154.1	41.0	-72.8	0.0
2025-01-21 17:44:08.267940	154.0	41.6	-73.0	0.0
2025-01-21 17:44:10.510619	153.9	42.3	-73.5	0.0
2025-01-21 17:44:12.758958	153.8	42.9	-74.1	0.0
2025-01-21 17:44:15.005799	153.6	43.5	-74.8	0.0
2025-01-21 17:44:17.251536	153.5	44.2	-75.7	0.0
2025-01-21 17:44:19.497200	153.3	44.9	-74.3	0.0
2025-01-21 17:44:21.745859	153.2	45.6	-74.1	0.0
2025-01-21 17:44:23.993510	153.0	46.2	-73.3	0.0
2025-01-21 17:44:26.245317	152.8	46.9	-74.4	0.0
2025-01-21 17:44:28.488936	152.7	47.7	-73.2	0.0
2025-01-21 17:44:30.734944	152.5	48.4	-74.8	0.0
2025-01-21 17:44:32.984207	152.3	49.1	-73.8	0.0
2025-01-21 17:44:35.233623	152.1	49.9	-75.2	0.0
2025-01-21 17:44:37.483575	151.8	50.6	-76.5	0.0
2025-01-21 17:44:39.729464	151.6	51.4	-74.9	0.0
2025-01-21 17:44:41.977581	151.4	52.2	-73.9	0.0
2025-01-21 17:44:44.226039	151.1	53.0	-74.1	0.0
2025-01-21 17:44:46.475666	150.8	53.8	-74.1	0.0
2025-01-21 17:44:48.723672	150.5	54.6	-73.6	0.0
2025-01-21 17:44:50.969097	150.2	55.5	-74.2	0.0
2025-01-21 17:44:53.213502	149.9	56.3	-74.9	0.0
2025-01-21 17:44:55.461745	149.5	57.2	-74.5	0.0
2025-01-21 17:44:57.707506	149.2	58.1	-74.9	1.0
2025-01-21 17:44:59.951694	148.8	59.0	-75.9	4.5
2025-01-21 17:45:02.198280	148.3	59.9	-75.6	3.8
2025-01-21 17:45:04.448952	147.9	60.8	-76.0	5.5
2025-01-21 17:45:06.697032	147.4	61.7	-74.6	2.5
2025-01-21 17:45:08.943595	146.9	62.6	-75.0	5.2
2025-01-21 17:45:11.192812	146.3	63.6	-74.5	6.0
2025-01-21 17:45:13.435317	145.7	64.5	-74.8	8.3
2025-01-21 17:45:15.681687	145.0	65.5	-74.4	7.5
2025-01-21 17:45:17.930695	144.2	66.4	-74.1	5.4
2025-01-21 17:45:20.178431	143.4	67.4	-75.1	6.9
2025-01-21 17:45:22.422471	142.5	68.4	-74.9	6.5
2025-01-21 17:45:24.671261	141.5	69.4	-74.8	5.9
2025-01-21 17:45:26.920096	140.4	70.4	-74.9	9.3
2025-01-21 17:45:29.163523	139.2	71.4	-74.9	9.9
2025-01-21 17:45:31.412595	137.8	72.4	-74.2	9.0
2025-01-21 17:45:33.657476	136.3	73.4	-73.9	10.1
2025-01-21 17:45:35.905240	134.5	74.3	-74.7	11.5
2025-01-21 17:45:38.149785	132.5	75.3	-74.3	11.5
2025-01-21 17:45:40.394924	130.2	76.3	-74.7	11.8
2025-01-21 17:45:42.640753	127.6	77.2	-74.5	9.6
2025-01-21 17:45:44.886004	124.5	78.2	-74.2	10.5
2025-01-21 17:45:47.131673	120.9	79.0	-74.2	12.2
2025-01-21 17:45:49.381502	116.6	79.9	-74.3	12.5
2025-01-21 17:45:51.628770	111.6	80.7	-73.6	13.1
2025-01-21 17:45:53.874704	105.8	81.4	-73.4	11.5
2025-01-21 17:45:56.122311	98.9	82.0	-74.0	11.4
2025-01-21 17:45:58.369997	91.1	82.4	-74.3	12.5
2025-01-21 17:46:00.617706	82.4	82.7	-74.6	12.3
2025-01-21 17:46:02.861710	73.2	82.9	-74.2	11.8
2025-01-21 17:46:05.108596	63.8	82.8	-74.1	12.2
2025-01-21 17:46:07.356299	54.9	82.6	-74.6	12.7
2025-01-21 17:46:09.603184	46.7	82.2	-74.6	12.5
2025-01-21 17:46:11.847998	39.4	81.6	-74.4	12.0
2025-01-21 17:46:14.095113	33.1	81.0	-73.7	9.9
2025-01-21 17:46:16.342262	27.7	80.2	-74.0	10.5
2025-01-21 17:46:18.589655	23.2	79.4	-74.3	10.3
2025-01-21 17:46:20.835343	19.3	78.6	-74.1	9.0
2025-01-21 17:46:23.080931	16.0	77.6	-74.1	10.1
2025-01-21 17:46:25.328022	13.2	76.7	-74.7	11.1
2025-01-21 17:46:27.577853	10.7	75.7	-74.6	7.9
2025-01-21 17:46:29.827439	8.6	74.8	-74.9	7.6
2025-01-21 17:46:32.071784	6.8	73.8	-74.7	7.5
2025-01-21 17:46:34.317481	5.1	72.8	-75.3	7.8
2025-01-21 17:46:36.564173	3.7	71.8	-75.4	6.9
2025-01-21 17:46:38.809968	2.4	70.8	-76.6	6.6
2025-01-21 17:46:41.057485	1.3	69.8	-76.2	3.8
2025-01-21 17:46:43.305324	0.2	68.8	-76.2	0.7
2025-01-21 17:46:45.551831	359.3	67.9	-75.5	2.7
2025-01-21 17:46:47.799507	358.5	66.9	-76.6	2.8
2025-01-21 17:46:50.046359	357.7	65.9	-76.6	0.0
2025-01-21 17:46:52.292497	357.0	64.9	-76.3	0.6
2025-01-21 17:46:54.536160	356.3	64.0	-76.4	1.1
2025-01-21 17:46:56.782829	355.7	63.1	-76.7	1.5
2025-01-21 17:46:59.027812	355.2	62.1	-76.4	0.0
2025-01-21 17:47:01.273189	354.7	61.2	-75.7	0.0
2025-01-21 17:47:03.518707	354.2	60.3	-77.9	0.0
2025-01-21 17:47:05.761284	353.8	59.4	-76.9	0.0
2025-01-21 17:47:08.009225	353.3	58.5	-77.5	0.0
2025-01-21 17:47:10.257559	353.0	57.6	-77.8	0.0
2025-01-21 17:47:12.502177	352.6	56.8	-76.8	0.0
2025-01-21 17:47:14.751951	352.3	55.9	-76.0	0.0
2025-01-21 17:47:17.000500	352.0	55.1	-76.7	0.0
2025-01-21 17:47:19.248182	351.7	54.2	-76.5	0.0
2025-01-21 17:47:21.495234	351.4	53.4	-76.2	0.0
2025-01-21 17:47:23.741361	351.1	52.6	-75.5	0.0
2025-01-21 17:47:25.988939	350.9	51.8	-77.7	0.0
2025-01-21 17:47:28.238689	350.6	51.1	-78.2	0.0
2025-01-21 17:47:30.482524	350.4	50.3	-77.4	0.0
2025-01-21 17:47:32.732493	350.2	49.5	-75.1	0.0
2025-01-21 17:47:34.980041	350.0	48.8	-75.5	0.0
2025-01-21 17:47:37.228726	349.8	48.1	-76.6	0.0
2025-01-21 17:47:39.478079	349.6	47.3	-76.8	0.0
2025-01-21 17:47:41.726620	349.4	46.6	-77.1	0.0
2025-01-21 17:47:43.972463	349.3	45.9	-77.1	0.0
2025-01-21 17:47:46.219404	349.1	45.3	-75.3	0.0
2025-01-21 17:47:48.466692	348.9	44.6	-75.7	0.0
2025-01-21 17:47:50.713722	348.8	43.9	-75.7	0.0
2025-01-21 17:47:52.958408	348.7	43.3	-75.1	0.0
2025-01-21 17:47:55.207175	348.5	42.6	-74.4	0.0
2025-01-21 17:47:57.453452	348.4	42.0	-73.4	0.0
2025-01-21 17:47:59.700877	348.3	41.4	-73.2	0.0
2025-01-21 17:48:01.948156	348.2	40.8	-74.2	0.0
2025-01-21 17:48:04.195268	348.0	40.2	-73.4	0.0
2025-01-21 17:48:06.442546	347.9	39.6	-73.1	0.0
2025-01-21 17:48:08.688485	347.8	39.0	-72.6	0.0
2025-01-21 17:48:10.933551	347.7	38.5	-73.0	0.0
2025-01-21 17:48:13.180696	347.6	37.9	-72.3	0.0
2025-01-21 17:48:15.427449	347.5	37.3	-72.1	0.0
2025-01-21 17:48:17.676405	347.4	36.8	-73.3	0.0
2025-01-21 17:48:19.922518	347.3	36.3	-70.2	0.0
2025-01-21 17:48:22.165995	347.3	35.7	-70.5	0.0
2025-01-21 17:48:24.412868	347.2	35.2	-70.5	0.0
2025-01-21 17:48:26.661118	347.1	34.7	-71.2	0.0
2025-01-21 17:48:28.903643	347.0	34.2	-71.7	0.0
2025-01-21 17:48:31.151548	347.0	33.7	-71.5	0.0
2025-01-21 17:48:33.398357	346.9	33.2	-71.6	0.0
2025-01-21 17:48:35.643091	346.8	32.8	-72.2	0.0
2025-01-21 17:48:37.890202	346.7	32.3	-70.1	0.0
2025-01-21 17:48:40.136728	346.7	31.8	-70.5	0.0
2025-01-21 17:48:42.384925	346.6	31.4	-68.8	0.0
2025-01-21 17:48:44.630481	346.6	30.9	-71.6	0.0
2025-01-21 17:48:46.878701	346.5	30.5	-69.1	0.0
2025-01-21 17:48:49.127134	346.4	30.1	-69.7	0.0
2025-01-21 17:48:51.372575	346.4	29.6	-70.5	0.0
2025-01-21 17:48:53.618151	346.3	29.2	-69.4	0.0
2025-01-21 17:48:55.863956	346.3	28.8	-70.1	0.0
2025-01-21 17:48:58.111539	346.2	28.4	-70.7	0.0
2025-01-21 17:49:00.360132	346.2	28.0	-70.7	0.0
2025-01-21 17:49:02.606217	346.1	27.6	-69.4	0.0
2025-01-21 17:49:04.854779	346.1	27.2	-70.1	0.0
2025-01-21 17:49:07.100464	346.0	26.8	-70.1	0.0
2025-01-21 17:49:09.352462	346.0	26.4	-69.8	0.0
2025-01-21 17:49:11.598578	346.0	26.1	-68.6	0.0
2025-01-21 17:49:13.845471	345.9	25.7	-70.0	0.0
2025-01-21 17:49:16.089133	345.9	25.3	-69.0	0.0
2025-01-21 17:49:18.334591	345.8	25.0	-68.7	0.0
2025-01-21 17:49:20.582295	345.8	24.6	-68.5	0.0
2025-01-21 17:49:22.828334	345.8	24.3	-68.7	0.0
2025-01-21 17:49:25.074346	345.7	23.9	-69.6	0.0
2025-01-21 17:49:27.319533	345.7	23.6	-67.3	0.0
2025-01-21 17:49:29.568400	345.7	23.2	-67.6	0.0
2025-01-21 17:49:31.818609	345.6	22.9	-68.6	0.0
2025-01-21 17:49:34.068443	345.6	22.6	-68.1	0.0
2025-01-21 17:49:36.315464	345.6	22.3	-66.8	0.0
2025-01-21 17:49:38.562641	345.5	21.9	-68.4	0.0
2025-01-21 17:49:40.808266	345.5	21.6	-70.8	0.0
2025-01-21 17:49:43.055338	345.5	21.3	-69.7	0.0
2025-01-21 17:49:45.301150	345.4	21.0	-69.0	0.0
2025-01-21 17:49:47.546771	345.4	20.7	-68.8	0.0
2025-01-21 17:49:49.794466	345.4	20.4	-71.2	0.0
2025-01-21 17:49:52.037933	345.4	20.1	-69.0	0.0
2025-01-21 17:49:54.281467	345.3	19.8	-68.8	0.0
2025-01-21 17:49:56.528621	345.3	19.5	-68.8	0.0
2025-01-21 17:49:58.774799	345.3	19.2	-69.6	0.0
2025-01-21 17:50:01.022593	345.3	18.9	-69.8	0.0
2025-01-21 17:50:03.267704	345.2	18.7	-69.4	0.0
2025-01-21 17:50:05.514385	345.2	18.4	-69.0	0.0
2025-01-21 17:50:07.760574	345.2	18.1	-70.6	0.0
2025-01-21 17:50:10.004324	345.2	17.8	-69.9	0.0
2025-01-21 17:50:12.245860	345.2	17.6	-69.4	0.0
2025-01-21 17:50:14.494975	345.1	17.3	-68.7	0.0
2025-01-21 17:50:16.739104	345.1	17.1	-70.7	0.0
2025-01-21 17:50:18.984771	345.1	16.8	-67.4	0.0
2025-01-21 17:50:21.229380	345.1	16.5	-65.9	0.0
2025-01-21 17:50:23.476049	345.1	16.3	-68.8	0.0
2025-01-21 17:50:25.722415	345.0	16.0	-71.1	0.0
2025-01-21 17:50:27.968572	345.0	15.8	-69.5	0.0
2025-01-21 17:50:30.214599	345.0	15.5	-70.5	0.0
2025-01-21 17:50:32.461023	345.0	15.3	-70.0	0.0
2025-01-21 17:50:34.706212	345.0	15.1	-68.1	0.0
2025-01-21 17:50:36.950145	345.0	14.8	-69.9	0.0
2025-01-21 17:50:39.194853	344.9	14.6	-70.5	0.0
2025-01-21 17:50:41.441114	344.9	14.3	-68.8	0.0
2025-01-21 17:50:43.687650	344.9	14.1	-69.4	0.0
2025-01-21 17:50:45.936151	344.9	13.9	-65.6	0.0
2025-01-21 17:50:48.182832	344.9	13.7	-64.3	0.0
2025-01-21 17:50:50.431582	344.9	13.4	-64.8	0.0
2025-01-21 17:50:52.679608	344.9	13.2	-63.7	0.0
2025-01-21 17:50:54.926260	344.9	13.0	-65.3	0.0
2025-01-21 17:50:57.176102	344.8	12.8	-63.7	0.0
2025-01-21 17:50:59.425999	344.8	12.5	-65.7	0.0
2025-01-21 17:51:01.674354	344.8	12.3	-65.2	0.0
2025-01-21 17:51:03.921755	344.8	12.1	-64.8	0.0
2025-01-21 17:51:06.166939	344.8	11.9	-65.8	0.0
2025-01-21 17:51:08.415434	344.8	11.7	-62.4	0.0
2025-01-21 17:51:10.663092	344.8	11.5	-64.4	0.0
2025-01-21 17:51:12.913741	344.8	11.3	-62.3	0.0
2025-01-21 17:51:15.159087	344.8	11.1	-60.4	0.0
2025-01-21 17:51:17.404893	344.7	10.9	-70.8	0.0
2025-01-21 17:51:19.653643	344.7	10.7	-73.9	0.0
2025-01-21 17:51:21.902508	344.7	10.5	-77.8	0.0
2025-01-21 17:51:24.149528	344.7	10.3	-79.3	0.0
2025-01-21 17:51:26.396238	344.7	10.1	-80.6	0.0
#Closed at: 2025-01-21 17:40:36.657829