passes_logs/2025/01/21/planumMaritime01/planumMaritime01__20250121_183642_METOP-C_rec.log

#Pass ID: 20250121_183642_METOP-C
#Satellite: METOP-C
#Configuration: METOP-C
#Start time: 2025-01-21 18:36:47.910024

#LorettStation: 1.0.0 05.05.2024
#Station: planumMaritime01
#Location: 37.49445 lon 55.92918 lat
#TLE: 1 43689U 18087A   25021.13484048  .00000355  00000+0  18225-3 0  9999
#TLE: 2 43689  98.6955  83.5353 0001694 153.0622 207.0643 14.21485654322087

#Time	Az	El	Level	SNR
2025-01-21 18:36:50.083553	181.1	10.2	-76.0	0.0
2025-01-21 18:36:52.329308	181.2	10.4	-76.0	0.0
2025-01-21 18:36:54.578430	181.3	10.6	-76.3	0.0
2025-01-21 18:36:56.824895	181.4	10.8	-76.3	0.0
2025-01-21 18:36:59.073562	181.5	11.0	-76.3	0.0
2025-01-21 18:37:01.323638	181.6	11.2	-76.5	0.0
2025-01-21 18:37:03.571918	181.7	11.4	-76.3	0.0
2025-01-21 18:37:05.817293	181.8	11.6	-76.8	0.0
2025-01-21 18:37:08.063821	181.9	11.8	-76.4	0.0
2025-01-21 18:37:10.307915	182.0	12.0	-76.6	0.0
2025-01-21 18:37:12.556629	182.2	12.2	-76.4	0.0
2025-01-21 18:37:14.800376	182.3	12.4	-76.1	0.0
2025-01-21 18:37:17.046792	182.4	12.6	-75.9	0.0
2025-01-21 18:37:19.294947	182.5	12.8	-76.0	0.0
2025-01-21 18:37:21.543650	182.6	13.0	-76.2	0.0
2025-01-21 18:37:23.789548	182.8	13.2	-77.1	0.0
2025-01-21 18:37:26.034988	182.9	13.5	-76.9	0.0
2025-01-21 18:37:28.279349	183.0	13.7	-76.7	0.0
2025-01-21 18:37:30.527650	183.2	13.9	-77.1	0.0
2025-01-21 18:37:32.774623	183.3	14.1	-76.2	0.0
2025-01-21 18:37:35.023036	183.4	14.3	-76.5	0.0
2025-01-21 18:37:37.268056	183.6	14.6	-76.6	0.0
2025-01-21 18:37:39.515447	183.7	14.8	-76.7	0.0
2025-01-21 18:37:41.762459	183.8	15.0	-76.7	0.0
2025-01-21 18:37:44.011443	184.0	15.3	-76.8	0.0
2025-01-21 18:37:46.257505	184.1	15.5	-77.4	0.0
2025-01-21 18:37:48.504757	184.3	15.7	-76.9	0.0
2025-01-21 18:37:50.751165	184.4	16.0	-76.5	0.0
2025-01-21 18:37:52.995270	184.6	16.2	-76.5	0.0
2025-01-21 18:37:55.238495	184.7	16.5	-76.7	0.0
2025-01-21 18:37:57.485019	184.9	16.7	-76.9	0.0
2025-01-21 18:37:59.731702	185.1	16.9	-77.0	0.0
2025-01-21 18:38:01.976915	185.2	17.2	-77.2	0.0
2025-01-21 18:38:04.224619	185.4	17.5	-77.0	0.0
2025-01-21 18:38:06.472109	185.5	17.7	-76.9	0.0
2025-01-21 18:38:08.715333	185.7	18.0	-76.8	0.0
2025-01-21 18:38:10.960144	185.9	18.2	-77.2	0.0
2025-01-21 18:38:13.207036	186.1	18.5	-77.4	0.0
2025-01-21 18:38:15.453223	186.2	18.8	-77.1	0.0
2025-01-21 18:38:17.698754	186.4	19.0	-77.2	0.0
2025-01-21 18:38:19.945843	186.6	19.3	-77.3	0.0
2025-01-21 18:38:22.192260	186.8	19.6	-77.5	0.0
2025-01-21 18:38:24.440091	187.0	19.8	-77.3	0.0
2025-01-21 18:38:26.686656	187.2	20.1	-77.6	0.0
2025-01-21 18:38:28.932219	187.4	20.4	-77.3	0.0
2025-01-21 18:38:31.179857	187.6	20.7	-77.2	0.0
2025-01-21 18:38:33.425501	187.8	21.0	-77.7	0.0
2025-01-21 18:38:35.670614	188.0	21.3	-77.2	0.0
2025-01-21 18:38:37.916442	188.2	21.6	-78.0	0.0
2025-01-21 18:38:40.162445	188.4	21.9	-77.4	0.0
2025-01-21 18:38:42.408680	188.6	22.1	-77.6	0.0
2025-01-21 18:38:44.659033	188.9	22.5	-77.5	0.0
2025-01-21 18:38:46.908874	189.1	22.8	-77.3	0.0
2025-01-21 18:38:49.155299	189.3	23.1	-77.7	0.0
2025-01-21 18:38:51.402137	189.6	23.4	-77.8	0.0
2025-01-21 18:38:53.651343	189.8	23.7	-77.4	0.0
2025-01-21 18:38:55.898513	190.1	24.0	-77.8	0.0
2025-01-21 18:38:58.144950	190.3	24.3	-78.0	0.0
2025-01-21 18:39:00.391368	190.6	24.7	-77.2	0.0
2025-01-21 18:39:02.638368	190.8	25.0	-78.1	0.0
2025-01-21 18:39:04.886587	191.1	25.3	-78.5	0.0
2025-01-21 18:39:07.134426	191.4	25.7	-78.0	0.0
2025-01-21 18:39:09.381248	191.7	26.0	-77.9	0.0
2025-01-21 18:39:11.626410	191.9	26.3	-77.9	0.0
2025-01-21 18:39:13.872647	192.2	26.7	-78.1	0.0
2025-01-21 18:39:16.120287	192.5	27.0	-78.2	0.0
2025-01-21 18:39:18.366478	192.8	27.4	-78.1	0.0
2025-01-21 18:39:20.614031	193.1	27.8	-78.2	0.0
2025-01-21 18:39:22.861306	193.5	28.1	-77.8	0.0
2025-01-21 18:39:25.106027	193.8	28.5	-78.1	0.0
2025-01-21 18:39:27.351201	194.1	28.9	-78.0	0.0
2025-01-21 18:39:29.600428	194.5	29.2	-78.6	0.0
2025-01-21 18:39:31.849277	194.8	29.6	-78.6	0.0
2025-01-21 18:39:34.094195	195.2	30.0	-78.8	0.0
2025-01-21 18:39:36.340304	195.5	30.4	-78.7	0.0
2025-01-21 18:39:38.587952	195.9	30.8	-78.7	0.0
2025-01-21 18:39:40.834776	196.3	31.2	-78.3	0.0
2025-01-21 18:39:43.085335	196.7	31.6	-78.5	0.0
2025-01-21 18:39:45.331492	197.1	32.0	-78.6	0.0
2025-01-21 18:39:47.579491	197.5	32.4	-78.4	0.0
2025-01-21 18:39:49.824523	197.9	32.8	-78.3	0.3
2025-01-21 18:39:52.072017	198.3	33.2	-78.4	0.0
2025-01-21 18:39:54.319491	198.8	33.6	-78.3	0.0
2025-01-21 18:39:56.566027	199.2	34.1	-78.4	0.0
2025-01-21 18:39:58.813125	199.7	34.5	-78.1	1.5
2025-01-21 18:40:01.059594	200.2	34.9	-77.8	1.4
2025-01-21 18:40:03.307716	200.7	35.3	-77.4	3.3
2025-01-21 18:40:05.554527	201.2	35.8	-77.3	4.6
2025-01-21 18:40:07.800769	201.7	36.2	-77.3	4.8
2025-01-21 18:40:10.050298	202.2	36.7	-77.4	5.2
2025-01-21 18:40:12.296862	202.8	37.1	-77.4	4.3
2025-01-21 18:40:14.543421	203.3	37.6	-77.5	5.5
2025-01-21 18:40:16.792553	203.9	38.0	-77.1	6.0
2025-01-21 18:40:19.040084	204.5	38.5	-77.0	4.9
2025-01-21 18:40:21.289579	205.1	38.9	-76.9	6.9
2025-01-21 18:40:23.537346	205.7	39.4	-77.0	7.3
2025-01-21 18:40:25.782477	206.4	39.9	-76.6	6.5
2025-01-21 18:40:28.030544	207.0	40.3	-76.5	6.3
2025-01-21 18:40:30.274655	207.7	40.8	-76.8	6.7
2025-01-21 18:40:32.520225	208.4	41.3	-76.5	7.5
2025-01-21 18:40:34.763334	209.1	41.7	-76.3	7.9
2025-01-21 18:40:37.010100	209.9	42.2	-76.0	8.0
2025-01-21 18:40:39.257371	210.6	42.7	-76.3	7.6
2025-01-21 18:40:41.503307	211.4	43.2	-75.8	7.1
2025-01-21 18:40:43.751473	212.2	43.6	-75.9	7.9
2025-01-21 18:40:46.000087	213.1	44.1	-76.0	8.9
2025-01-21 18:40:48.245186	213.9	44.6	-75.6	9.9
2025-01-21 18:40:50.492848	214.8	45.1	-75.6	10.6
2025-01-21 18:40:52.739495	215.7	45.5	-75.9	9.3
2025-01-21 18:40:54.988524	216.6	46.0	-75.9	10.2
2025-01-21 18:40:57.234480	217.6	46.5	-75.5	9.9
2025-01-21 18:40:59.483166	218.6	46.9	-75.4	10.2
2025-01-21 18:41:01.731344	219.6	47.4	-75.0	11.5
2025-01-21 18:41:03.978379	220.7	47.8	-75.2	11.5
2025-01-21 18:41:06.223671	221.8	48.3	-74.9	11.3
2025-01-21 18:41:08.470674	222.9	48.7	-75.1	12.4
2025-01-21 18:41:10.720068	224.0	49.1	-74.9	12.3
2025-01-21 18:41:12.965996	225.2	49.6	-74.8	11.8
2025-01-21 18:41:15.210286	226.4	50.0	-75.1	12.3
2025-01-21 18:41:17.456271	227.6	50.4	-74.9	12.1
2025-01-21 18:41:19.702482	228.9	50.8	-74.9	12.2
2025-01-21 18:41:21.947240	230.2	51.1	-75.0	12.3
2025-01-21 18:41:24.195538	231.6	51.5	-75.1	12.1
2025-01-21 18:41:26.448370	232.9	51.9	-75.1	11.7
2025-01-21 18:41:28.695869	234.3	52.2	-75.2	12.2
2025-01-21 18:41:30.939640	235.8	52.5	-74.9	11.2
2025-01-21 18:41:33.185197	237.2	52.8	-74.4	11.9
2025-01-21 18:41:35.434315	238.7	53.1	-74.7	11.9
2025-01-21 18:41:37.680516	240.3	53.4	-74.8	12.6
2025-01-21 18:41:39.927354	241.8	53.6	-74.7	12.4
2025-01-21 18:41:42.172209	243.4	53.9	-74.1	12.7
2025-01-21 18:41:44.417897	245.0	54.1	-74.3	12.9
2025-01-21 18:41:46.664943	246.6	54.3	-74.6	12.4
2025-01-21 18:41:48.912286	248.3	54.4	-74.8	12.6
2025-01-21 18:41:51.158788	249.9	54.6	-74.6	12.4
2025-01-21 18:41:53.405418	251.6	54.7	-74.8	12.3
2025-01-21 18:41:55.649922	253.3	54.8	-74.8	11.7
2025-01-21 18:41:57.897129	255.0	54.9	-74.7	12.1
2025-01-21 18:42:00.142699	256.7	54.9	-74.8	12.4
2025-01-21 18:42:02.392297	258.4	54.9	-74.8	12.3
2025-01-21 18:42:04.637792	260.1	54.9	-74.8	12.1
2025-01-21 18:42:06.884420	261.8	54.9	-74.7	11.4
2025-01-21 18:42:09.134912	263.5	54.8	-74.8	12.0
2025-01-21 18:42:11.382451	265.2	54.8	-74.9	11.5
2025-01-21 18:42:13.628599	266.9	54.7	-75.0	10.3
2025-01-21 18:42:15.871863	268.6	54.5	-75.4	11.3
2025-01-21 18:42:18.117509	270.2	54.4	-75.0	10.5
2025-01-21 18:42:20.363884	271.9	54.2	-75.1	10.3
2025-01-21 18:42:22.612906	273.5	54.0	-74.6	8.7
2025-01-21 18:42:24.858953	275.1	53.8	-75.2	9.6
2025-01-21 18:42:27.104180	276.6	53.6	-75.0	9.6
2025-01-21 18:42:29.350184	278.2	53.3	-75.4	9.5
2025-01-21 18:42:31.596319	279.7	53.0	-75.2	8.8
2025-01-21 18:42:33.842820	281.2	52.7	-75.8	9.2
2025-01-21 18:42:36.088916	282.6	52.4	-75.2	8.9
2025-01-21 18:42:38.333072	284.1	52.1	-75.0	7.8
2025-01-21 18:42:40.578128	285.4	51.8	-74.9	6.0
2025-01-21 18:42:42.824092	286.8	51.4	-75.4	6.7
2025-01-21 18:42:45.071626	288.1	51.0	-75.4	7.0
2025-01-21 18:42:47.319047	289.4	50.6	-75.5	5.6
2025-01-21 18:42:49.565485	290.7	50.3	-75.2	3.4
2025-01-21 18:42:51.812905	291.9	49.9	-75.6	4.4
2025-01-21 18:42:54.057098	293.1	49.4	-75.8	3.4
2025-01-21 18:42:56.304367	294.3	49.0	-76.4	4.3
2025-01-21 18:42:58.552396	295.4	48.6	-76.4	3.9
2025-01-21 18:43:00.800778	296.5	48.1	-76.5	2.5
2025-01-21 18:43:03.045905	297.6	47.7	-76.6	1.2
2025-01-21 18:43:05.291846	298.6	47.3	-76.6	0.0
2025-01-21 18:43:07.537785	299.6	46.8	-76.4	0.0
2025-01-21 18:43:09.781727	300.6	46.3	-76.4	0.0
2025-01-21 18:43:12.025531	301.6	45.9	-76.4	0.0
2025-01-21 18:43:14.268896	302.5	45.4	-75.9	0.0
2025-01-21 18:43:16.514638	303.4	45.0	-75.9	0.0
2025-01-21 18:43:18.759940	304.3	44.5	-75.2	0.0
2025-01-21 18:43:21.004969	305.1	44.0	-76.1	0.0
2025-01-21 18:43:23.253172	305.9	43.5	-75.5	0.0
2025-01-21 18:43:25.499207	306.7	43.1	-75.7	0.0
2025-01-21 18:43:27.748173	307.5	42.6	-76.2	0.0
2025-01-21 18:43:29.994315	308.3	42.1	-77.0	0.0
2025-01-21 18:43:32.243505	309.0	41.7	-75.4	0.0
2025-01-21 18:43:34.492656	309.7	41.2	-74.6	0.0
2025-01-21 18:43:36.739189	310.4	40.7	-76.7	0.0
2025-01-21 18:43:38.984982	311.1	40.2	-75.5	0.0
2025-01-21 18:43:41.229588	311.8	39.8	-74.0	0.0
2025-01-21 18:43:43.477454	312.4	39.3	-75.9	0.0
2025-01-21 18:43:45.723658	313.0	38.9	-75.4	0.0
2025-01-21 18:43:47.968119	313.6	38.4	-76.1	0.0
2025-01-21 18:43:50.211897	314.2	38.0	-77.0	0.0
2025-01-21 18:43:52.458186	314.8	37.5	-76.3	0.0
2025-01-21 18:43:54.704671	315.3	37.1	-76.4	0.0
2025-01-21 18:43:56.947514	315.9	36.6	-76.1	0.0
2025-01-21 18:43:59.194188	316.4	36.2	-77.1	0.0
2025-01-21 18:44:01.442861	316.9	35.7	-76.6	0.0
2025-01-21 18:44:03.693429	317.4	35.3	-76.9	0.0
2025-01-21 18:44:05.940200	317.9	34.9	-75.6	0.0
2025-01-21 18:44:08.187590	318.4	34.4	-76.9	0.0
2025-01-21 18:44:10.434116	318.8	34.0	-76.7	0.0
2025-01-21 18:44:12.682283	319.3	33.6	-73.5	0.0
2025-01-21 18:44:14.929936	319.7	33.2	-73.5	0.0
2025-01-21 18:44:17.175085	320.1	32.8	-70.9	0.0
2025-01-21 18:44:19.419965	320.6	32.4	-71.6	0.0
2025-01-21 18:44:21.666100	321.0	32.0	-75.0	0.0
2025-01-21 18:44:23.916937	321.4	31.6	-74.1	0.0
2025-01-21 18:44:26.164255	321.8	31.2	-72.6	0.0
2025-01-21 18:44:28.409748	322.1	30.8	-74.3	0.0
2025-01-21 18:44:30.658177	322.5	30.4	-71.4	0.0
2025-01-21 18:44:32.901182	322.9	30.0	-74.8	0.0
2025-01-21 18:44:35.143436	323.2	29.6	-75.6	0.0
2025-01-21 18:44:37.394762	323.6	29.2	-74.6	0.0
2025-01-21 18:44:39.643309	323.9	28.9	-72.1	0.0
2025-01-21 18:44:41.891346	324.2	28.5	-73.1	0.0
2025-01-21 18:44:44.139761	324.6	28.1	-74.7	0.0
2025-01-21 18:44:46.387412	324.9	27.8	-74.6	0.0
2025-01-21 18:44:48.635186	325.2	27.4	-74.7	0.0
2025-01-21 18:44:50.881503	325.5	27.1	-73.7	0.0
2025-01-21 18:44:53.133309	325.8	26.7	-73.0	0.0
2025-01-21 18:44:55.384381	326.1	26.4	-74.3	0.0
2025-01-21 18:44:57.628783	326.4	26.0	-74.9	0.0
2025-01-21 18:44:59.872509	326.6	25.7	-75.8	0.0
2025-01-21 18:45:02.121957	326.9	25.4	-75.4	0.0
2025-01-21 18:45:04.366840	327.2	25.0	-75.8	0.0
2025-01-21 18:45:06.613800	327.4	24.7	-74.9	0.0
2025-01-21 18:45:08.858577	327.7	24.4	-74.9	0.0
2025-01-21 18:45:11.106818	327.9	24.1	-76.1	0.0
2025-01-21 18:45:13.351718	328.2	23.7	-75.5	0.0
2025-01-21 18:45:15.598322	328.4	23.4	-75.4	0.0
2025-01-21 18:45:17.845277	328.7	23.1	-74.4	0.0
2025-01-21 18:45:20.094799	328.9	22.8	-75.5	0.0
2025-01-21 18:45:22.338062	329.1	22.5	-74.7	0.0
2025-01-21 18:45:24.583389	329.4	22.2	-76.2	0.0
2025-01-21 18:45:26.831100	329.6	21.9	-68.6	0.0
2025-01-21 18:45:29.080138	329.8	21.6	-70.7	0.0
2025-01-21 18:45:31.328015	330.0	21.3	-69.9	0.0
2025-01-21 18:45:33.575767	330.2	21.0	-74.3	0.0
2025-01-21 18:45:35.822215	330.4	20.8	-71.6	0.0
2025-01-21 18:45:38.067826	330.6	20.5	-71.1	0.0
2025-01-21 18:45:40.314894	330.8	20.2	-71.3	0.0
2025-01-21 18:45:42.561405	331.0	19.9	-71.3	0.0
2025-01-21 18:45:44.808482	331.2	19.6	-74.1	0.0
2025-01-21 18:45:47.057800	331.4	19.4	-72.0	0.0
2025-01-21 18:45:49.305821	331.6	19.1	-69.9	0.0
2025-01-21 18:45:51.548512	331.8	18.8	-70.4	0.0
2025-01-21 18:45:53.795348	331.9	18.6	-70.0	0.0
2025-01-21 18:45:56.041774	332.1	18.3	-71.7	0.0
2025-01-21 18:45:58.289999	332.3	18.0	-72.0	0.0
2025-01-21 18:46:00.531306	332.5	17.8	-70.0	0.0
2025-01-21 18:46:02.778982	332.6	17.5	-74.1	0.0
2025-01-21 18:46:05.024003	332.8	17.3	-73.0	0.0
2025-01-21 18:46:07.271994	333.0	17.0	-71.9	0.0
2025-01-21 18:46:09.517443	333.1	16.8	-72.6	0.0
2025-01-21 18:46:11.760731	333.3	16.6	-72.1	0.0
2025-01-21 18:46:14.006621	333.4	16.3	-71.3	0.0
2025-01-21 18:46:16.255914	333.6	16.1	-71.4	0.0
2025-01-21 18:46:18.503768	333.7	15.8	-70.7	0.0
2025-01-21 18:46:20.748156	333.9	15.6	-71.0	0.0
2025-01-21 18:46:22.994780	334.0	15.4	-71.6	0.0
2025-01-21 18:46:25.238078	334.2	15.1	-68.5	0.0
2025-01-21 18:46:27.482958	334.3	14.9	-71.1	0.0
2025-01-21 18:46:29.730951	334.5	14.7	-70.0	0.0
2025-01-21 18:46:31.975651	334.6	14.5	-70.1	0.0
2025-01-21 18:46:34.224817	334.7	14.2	-68.2	0.0
2025-01-21 18:46:36.469251	334.9	14.0	-71.1	0.0
2025-01-21 18:46:38.718215	335.0	13.8	-66.1	0.0
2025-01-21 18:46:40.963339	335.1	13.6	-71.5	0.0
2025-01-21 18:46:43.205886	335.3	13.4	-72.0	0.0
2025-01-21 18:46:45.454292	335.4	13.1	-70.5	0.0
2025-01-21 18:46:47.700793	335.5	12.9	-69.4	0.0
2025-01-21 18:46:49.948202	335.6	12.7	-67.5	0.0
2025-01-21 18:46:52.196300	335.8	12.5	-69.2	0.0
2025-01-21 18:46:54.445522	335.9	12.3	-72.2	0.0
2025-01-21 18:46:56.694901	336.0	12.1	-70.7	0.0
2025-01-21 18:46:58.941865	336.1	11.9	-69.6	0.0
2025-01-21 18:47:01.189994	336.2	11.7	-70.2	0.0
2025-01-21 18:47:03.434145	336.3	11.5	-66.9	0.0
2025-01-21 18:47:05.678101	336.5	11.3	-69.6	0.0
2025-01-21 18:47:07.923806	336.6	11.1	-69.5	0.0
2025-01-21 18:47:10.172757	336.7	10.9	-73.9	0.0
2025-01-21 18:47:12.418742	336.8	10.7	-75.1	0.0
2025-01-21 18:47:14.663519	336.9	10.5	-77.0	0.0
2025-01-21 18:47:16.909990	337.0	10.3	-79.8	0.0
2025-01-21 18:47:19.158368	337.1	10.1	-81.1	0.0
#Closed at: 2025-01-21 18:36:42.916171