passes_logs/2025/01/21/planumMaritime01/planumMaritime01__20250121_111642_METEOR-M2_2_rec.log

#Pass ID: 20250121_111642_METEOR-M2 2
#Satellite: METEOR-M2 2
#Configuration: METEOR-M2 2
#Start time: 2025-01-21 11:16:47.281673

#LorettStation: 1.0.0 05.05.2024
#Station: planumMaritime01
#Location: 37.49445 lon 55.92918 lat
#TLE: 1 44387U 19038A   25020.12663716  .00000357  00000+0  17475-3 0  9999
#TLE: 2 44387  98.8574 356.5631 0002240  71.1584 288.9837 14.24120765288265

#Time	Az	El	Level	SNR
2025-01-21 11:16:51.979174	123.3	10.4	-72.7	0.0
2025-01-21 11:16:54.226047	123.1	10.6	-75.4	0.0
2025-01-21 11:16:56.469156	122.9	10.7	-75.7	0.0
2025-01-21 11:16:58.714791	122.8	10.9	-75.7	0.0
2025-01-21 11:17:00.963989	122.6	11.1	-76.0	0.0
2025-01-21 11:17:03.210645	122.4	11.3	-75.5	0.0
2025-01-21 11:17:05.459191	122.2	11.5	-75.2	0.0
2025-01-21 11:17:07.707236	122.0	11.7	-75.0	0.0
2025-01-21 11:17:09.950733	121.8	11.9	-75.6	0.0
2025-01-21 11:17:12.197459	121.6	12.1	-71.9	0.0
2025-01-21 11:17:14.444086	121.4	12.3	-75.3	0.0
2025-01-21 11:17:16.691833	121.2	12.5	-72.5	0.0
2025-01-21 11:17:18.939405	121.0	12.6	-74.8	0.0
2025-01-21 11:17:21.187732	120.8	12.8	-74.6	0.0
2025-01-21 11:17:23.436012	120.6	13.0	-74.1	0.0
2025-01-21 11:17:25.685528	120.4	13.2	-73.9	0.0
2025-01-21 11:17:27.931038	120.2	13.4	-74.3	0.0
2025-01-21 11:17:30.177390	120.0	13.6	-72.5	0.0
2025-01-21 11:17:32.424946	119.7	13.8	-71.9	0.0
2025-01-21 11:17:34.674104	119.5	14.1	-75.5	0.0
2025-01-21 11:17:36.917271	119.3	14.3	-75.7	0.0
2025-01-21 11:17:39.164875	119.0	14.5	-74.2	0.0
2025-01-21 11:17:41.413963	118.8	14.7	-75.2	0.0
2025-01-21 11:17:43.659514	118.6	14.9	-72.4	0.0
2025-01-21 11:17:45.906910	118.3	15.1	-73.5	0.0
2025-01-21 11:17:48.150978	118.1	15.3	-72.3	0.0
2025-01-21 11:17:50.397613	117.8	15.5	-75.4	0.0
2025-01-21 11:17:52.641654	117.6	15.7	-73.1	0.0
2025-01-21 11:17:54.889974	117.3	15.9	-72.2	0.0
2025-01-21 11:17:57.133605	117.1	16.2	-73.1	0.0
2025-01-21 11:17:59.378006	116.8	16.4	-75.3	0.0
2025-01-21 11:18:01.625260	116.5	16.6	-74.1	0.0
2025-01-21 11:18:03.874082	116.3	16.8	-74.2	0.0
2025-01-21 11:18:06.119525	116.0	17.0	-73.1	0.0
2025-01-21 11:18:08.366566	115.7	17.3	-72.7	0.0
2025-01-21 11:18:10.612421	115.4	17.5	-73.0	0.0
2025-01-21 11:18:12.856712	115.1	17.7	-72.4	0.0
2025-01-21 11:18:15.102738	114.8	18.0	-70.4	0.0
2025-01-21 11:18:17.347550	114.5	18.2	-71.7	0.0
2025-01-21 11:18:19.592282	114.2	18.4	-69.6	0.0
2025-01-21 11:18:21.837448	113.9	18.6	-72.6	0.0
2025-01-21 11:18:24.081801	113.6	18.9	-73.1	0.0
2025-01-21 11:18:26.327372	113.3	19.1	-73.7	0.0
2025-01-21 11:18:28.572915	113.0	19.4	-74.1	0.0
2025-01-21 11:18:30.818839	112.6	19.6	-75.0	0.0
2025-01-21 11:18:33.064384	112.3	19.8	-73.0	0.0
2025-01-21 11:18:35.309141	112.0	20.1	-72.7	0.0
2025-01-21 11:18:37.558192	111.6	20.3	-72.9	0.0
2025-01-21 11:18:39.802297	111.3	20.6	-72.6	0.0
2025-01-21 11:18:42.051060	110.9	20.8	-72.6	0.0
2025-01-21 11:18:44.298862	110.6	21.0	-73.3	0.0
2025-01-21 11:18:46.544554	110.2	21.3	-70.1	0.0
2025-01-21 11:18:48.789165	109.8	21.5	-73.1	0.0
2025-01-21 11:18:51.036978	109.4	21.8	-72.1	0.0
2025-01-21 11:18:53.283312	109.0	22.0	-74.5	0.0
2025-01-21 11:18:55.533329	108.7	22.3	-75.0	0.0
2025-01-21 11:18:57.776976	108.3	22.5	-73.8	0.0
2025-01-21 11:19:00.024214	107.9	22.8	-74.9	0.0
2025-01-21 11:19:02.270074	107.4	23.1	-73.3	0.0
2025-01-21 11:19:04.514060	107.0	23.3	-73.0	0.0
2025-01-21 11:19:06.763086	106.6	23.6	-75.1	0.0
2025-01-21 11:19:09.012002	106.2	23.8	-74.3	0.0
2025-01-21 11:19:11.257058	105.7	24.1	-75.3	0.0
2025-01-21 11:19:13.503782	105.3	24.3	-74.8	0.0
2025-01-21 11:19:15.753218	104.8	24.6	-74.8	0.0
2025-01-21 11:19:18.000202	104.4	24.9	-74.1	0.0
2025-01-21 11:19:20.249092	103.9	25.1	-71.3	0.0
2025-01-21 11:19:22.491790	103.4	25.4	-72.8	0.0
2025-01-21 11:19:24.735922	102.9	25.6	-70.1	0.0
2025-01-21 11:19:26.985443	102.4	25.9	-71.3	0.0
2025-01-21 11:19:29.230494	101.9	26.2	-70.8	0.0
2025-01-21 11:19:31.480565	101.4	26.4	-74.6	0.0
2025-01-21 11:19:33.725914	100.9	26.7	-74.2	0.0
2025-01-21 11:19:35.970797	100.4	26.9	-73.0	0.0
2025-01-21 11:19:38.218366	99.8	27.2	-76.0	0.0
2025-01-21 11:19:40.462664	99.3	27.5	-75.4	0.0
2025-01-21 11:19:42.709585	98.7	27.7	-75.1	0.0
2025-01-21 11:19:44.956213	98.2	28.0	-74.5	0.0
2025-01-21 11:19:47.203468	97.6	28.2	-75.7	0.0
2025-01-21 11:19:49.449758	97.0	28.5	-77.2	0.0
2025-01-21 11:19:51.697611	96.4	28.8	-73.1	0.0
2025-01-21 11:19:53.944237	95.8	29.0	-73.3	0.0
2025-01-21 11:19:56.192999	95.2	29.3	-75.1	0.0
2025-01-21 11:19:58.437955	94.6	29.5	-71.5	0.0
2025-01-21 11:20:00.686954	93.9	29.8	-74.0	0.0
2025-01-21 11:20:02.936802	93.3	30.0	-75.1	0.0
2025-01-21 11:20:05.184516	92.6	30.3	-75.5	0.0
2025-01-21 11:20:07.431841	92.0	30.5	-72.9	0.0
2025-01-21 11:20:09.680133	91.3	30.8	-74.5	0.0
2025-01-21 11:20:11.924121	90.6	31.0	-72.5	0.0
2025-01-21 11:20:14.171139	89.9	31.2	-75.3	0.0
2025-01-21 11:20:16.421370	89.2	31.5	-75.6	0.0
2025-01-21 11:20:18.668370	88.5	31.7	-74.4	0.0
2025-01-21 11:20:20.912089	87.8	31.9	-76.0	0.0
2025-01-21 11:20:23.155222	87.1	32.2	-75.2	0.0
2025-01-21 11:20:25.405311	86.3	32.4	-76.7	0.0
2025-01-21 11:20:27.650278	85.6	32.6	-75.8	0.0
2025-01-21 11:20:29.897091	84.8	32.8	-73.5	0.0
2025-01-21 11:20:32.143703	84.0	33.0	-76.7	0.0
2025-01-21 11:20:34.390690	83.2	33.2	-75.6	0.0
2025-01-21 11:20:36.636744	82.4	33.4	-75.4	0.0
2025-01-21 11:20:38.886373	81.6	33.6	-74.7	0.0
2025-01-21 11:20:41.132284	80.8	33.8	-74.1	0.0
2025-01-21 11:20:43.379382	80.0	34.0	-76.9	0.0
2025-01-21 11:20:45.625002	79.2	34.2	-76.4	0.0
2025-01-21 11:20:47.868887	78.3	34.4	-75.0	0.0
2025-01-21 11:20:50.116258	77.5	34.5	-74.3	0.0
2025-01-21 11:20:52.362470	76.6	34.7	-72.8	0.0
2025-01-21 11:20:54.606556	75.7	34.9	-73.1	0.0
2025-01-21 11:20:56.854150	74.9	35.0	-78.2	0.0
2025-01-21 11:20:59.100966	74.0	35.1	-72.7	0.0
2025-01-21 11:21:01.347308	73.1	35.3	-77.0	0.0
2025-01-21 11:21:03.594386	72.2	35.4	-76.5	0.0
2025-01-21 11:21:05.840921	71.3	35.5	-77.8	0.0
2025-01-21 11:21:08.087657	70.4	35.6	-77.0	0.0
2025-01-21 11:21:10.335985	69.4	35.7	-76.4	0.0
2025-01-21 11:21:12.582675	68.5	35.8	-75.2	0.0
2025-01-21 11:21:14.829188	67.6	35.9	-74.0	0.0
2025-01-21 11:21:17.077127	66.7	36.0	-73.4	0.0
2025-01-21 11:21:19.324183	65.7	36.1	-76.3	0.0
2025-01-21 11:21:21.571677	64.8	36.1	-76.5	0.0
2025-01-21 11:21:23.815373	63.8	36.2	-73.6	0.0
2025-01-21 11:21:26.063607	62.9	36.2	-75.1	0.0
2025-01-21 11:21:28.311151	61.9	36.2	-74.2	0.0
2025-01-21 11:21:30.556771	61.0	36.3	-75.1	0.0
2025-01-21 11:21:32.803133	60.0	36.3	-73.2	0.0
2025-01-21 11:21:35.054736	59.1	36.3	-72.7	0.0
2025-01-21 11:21:37.301258	58.1	36.3	-73.2	0.0
2025-01-21 11:21:39.547031	57.2	36.3	-73.0	0.0
2025-01-21 11:21:41.792041	56.2	36.3	-73.5	0.0
2025-01-21 11:21:44.037665	55.3	36.2	-69.3	0.0
2025-01-21 11:21:46.282868	54.3	36.2	-71.8	0.0
2025-01-21 11:21:48.530027	53.4	36.1	-72.5	0.0
2025-01-21 11:21:50.773781	52.4	36.1	-71.9	0.0
2025-01-21 11:21:53.020222	51.5	36.0	-70.5	0.0
2025-01-21 11:21:55.265573	50.6	36.0	-72.0	0.0
2025-01-21 11:21:57.512202	49.6	35.9	-70.9	0.0
2025-01-21 11:21:59.758648	48.7	35.8	-71.3	0.0
2025-01-21 11:22:02.005614	47.8	35.7	-71.8	0.0
2025-01-21 11:22:04.250068	46.9	35.6	-72.3	0.0
2025-01-21 11:22:06.498224	46.0	35.5	-72.1	0.0
2025-01-21 11:22:08.743494	45.1	35.3	-71.6	0.0
2025-01-21 11:22:10.989618	44.2	35.2	-70.5	0.0
2025-01-21 11:22:13.235525	43.3	35.1	-72.6	0.0
2025-01-21 11:22:15.482382	42.4	34.9	-73.0	0.0
2025-01-21 11:22:17.731193	41.5	34.8	-70.4	0.0
2025-01-21 11:22:19.979118	40.7	34.6	-69.6	0.0
2025-01-21 11:22:22.227179	39.8	34.5	-69.7	0.0
2025-01-21 11:22:24.473748	39.0	34.3	-73.4	0.0
2025-01-21 11:22:26.717262	38.1	34.1	-65.7	0.0
2025-01-21 11:22:28.961744	37.3	33.9	-68.2	0.0
2025-01-21 11:22:31.207260	36.5	33.8	-69.0	0.0
2025-01-21 11:22:33.453171	35.7	33.6	-66.7	0.0
2025-01-21 11:22:35.700458	34.9	33.4	-69.1	0.0
2025-01-21 11:22:37.946661	34.1	33.2	-69.5	0.0
2025-01-21 11:22:40.193996	33.3	33.0	-69.1	0.0
2025-01-21 11:22:42.442614	32.5	32.8	-70.6	0.0
2025-01-21 11:22:44.693661	31.8	32.5	-70.2	0.0
2025-01-21 11:22:46.940406	31.0	32.3	-68.9	0.0
2025-01-21 11:22:49.186503	30.3	32.1	-70.1	0.0
2025-01-21 11:22:51.436712	29.6	31.9	-72.6	0.0
2025-01-21 11:22:53.685109	28.9	31.6	-70.6	0.0
2025-01-21 11:22:55.929445	28.1	31.4	-72.6	0.0
2025-01-21 11:22:58.175816	27.4	31.2	-68.2	0.0
2025-01-21 11:23:00.422585	26.8	30.9	-71.0	0.0
2025-01-21 11:23:02.665035	26.1	30.7	-68.4	0.0
2025-01-21 11:23:04.910176	25.4	30.4	-69.2	0.0
2025-01-21 11:23:07.157733	24.8	30.2	-68.9	0.0
2025-01-21 11:23:09.406266	24.1	29.9	-66.2	0.0
2025-01-21 11:23:11.653785	23.5	29.7	-67.8	0.0
2025-01-21 11:23:13.902101	22.9	29.4	-68.2	0.0
2025-01-21 11:23:16.149691	22.2	29.2	-69.3	0.0
2025-01-21 11:23:18.397432	21.6	28.9	-69.0	0.0
2025-01-21 11:23:20.642171	21.0	28.7	-66.1	0.0
2025-01-21 11:23:22.888421	20.4	28.4	-70.1	0.0
2025-01-21 11:23:25.135979	19.9	28.2	-69.0	0.0
2025-01-21 11:23:27.382594	19.3	27.9	-68.8	0.0
2025-01-21 11:23:29.631336	18.7	27.7	-68.9	0.0
2025-01-21 11:23:31.879236	18.2	27.4	-70.6	0.0
2025-01-21 11:23:34.125959	17.7	27.1	-68.3	0.0
2025-01-21 11:23:36.376723	17.1	26.9	-68.3	0.0
2025-01-21 11:23:38.624637	16.6	26.6	-66.5	0.0
2025-01-21 11:23:40.871082	16.1	26.4	-66.8	0.0
2025-01-21 11:23:43.115961	15.6	26.1	-65.9	0.0
2025-01-21 11:23:45.363647	15.1	25.8	-66.7	0.0
2025-01-21 11:23:47.608640	14.6	25.6	-69.0	0.0
2025-01-21 11:23:49.855353	14.1	25.3	-70.1	0.0
2025-01-21 11:23:52.102594	13.6	25.1	-69.7	0.0
2025-01-21 11:23:54.346218	13.2	24.8	-70.4	0.0
2025-01-21 11:23:56.595070	12.7	24.5	-69.2	0.0
2025-01-21 11:23:58.841022	12.3	24.3	-68.9	0.0
2025-01-21 11:24:01.088916	11.8	24.0	-70.0	0.0
2025-01-21 11:24:03.334174	11.4	23.8	-69.0	0.0
2025-01-21 11:24:05.581409	11.0	23.5	-69.4	0.0
2025-01-21 11:24:07.824862	10.5	23.3	-66.0	0.0
2025-01-21 11:24:10.072093	10.1	23.0	-68.2	0.0
2025-01-21 11:24:12.315103	9.7	22.8	-67.5	0.0
2025-01-21 11:24:14.560023	9.3	22.5	-69.3	0.0
2025-01-21 11:24:16.812646	8.9	22.2	-66.0	0.0
2025-01-21 11:24:19.060548	8.5	22.0	-67.4	0.0
2025-01-21 11:24:21.308105	8.2	21.7	-68.2	0.0
2025-01-21 11:24:23.551690	7.8	21.5	-69.1	0.0
2025-01-21 11:24:25.796147	7.4	21.3	-69.1	0.0
2025-01-21 11:24:28.042643	7.0	21.0	-68.5	0.0
2025-01-21 11:24:30.287602	6.7	20.8	-67.9	0.0
2025-01-21 11:24:32.532849	6.3	20.5	-66.6	0.0
2025-01-21 11:24:34.778480	6.0	20.3	-67.7	0.0
2025-01-21 11:24:37.027921	5.7	20.0	-68.1	0.0
2025-01-21 11:24:39.271538	5.3	19.8	-70.4	0.0
2025-01-21 11:24:41.517987	5.0	19.6	-67.4	0.0
2025-01-21 11:24:43.761577	4.7	19.3	-69.4	0.0
2025-01-21 11:24:46.009596	4.3	19.1	-67.0	0.0
2025-01-21 11:24:48.256193	4.0	18.9	-70.3	0.0
2025-01-21 11:24:50.500683	3.7	18.6	-68.5	0.0
2025-01-21 11:24:52.746789	3.4	18.4	-72.1	0.0
2025-01-21 11:24:54.992763	3.1	18.2	-70.6	0.0
2025-01-21 11:24:57.240085	2.8	17.9	-69.1	0.0
2025-01-21 11:24:59.484221	2.5	17.7	-68.4	0.0
2025-01-21 11:25:01.728949	2.3	17.5	-69.1	0.0
2025-01-21 11:25:03.974102	2.0	17.3	-67.6	0.0
2025-01-21 11:25:06.219318	1.7	17.0	-67.5	0.0
2025-01-21 11:25:08.468385	1.4	16.8	-68.0	0.0
2025-01-21 11:25:10.715393	1.2	16.6	-70.2	0.0
2025-01-21 11:25:12.963380	0.9	16.4	-72.2	0.0
2025-01-21 11:25:15.210093	0.6	16.2	-67.8	0.0
2025-01-21 11:25:17.456997	0.4	15.9	-70.7	0.0
2025-01-21 11:25:19.704657	0.1	15.7	-71.3	0.0
2025-01-21 11:25:21.951065	359.9	15.5	-71.7	0.0
2025-01-21 11:25:24.196288	359.6	15.3	-73.6	0.0
2025-01-21 11:25:26.441659	359.4	15.1	-70.6	0.0
2025-01-21 11:25:28.686757	359.1	14.9	-71.2	0.0
2025-01-21 11:25:30.932673	358.9	14.7	-71.7	0.0
2025-01-21 11:25:33.177204	358.7	14.5	-71.0	0.0
2025-01-21 11:25:35.427017	358.4	14.3	-74.5	0.0
2025-01-21 11:25:37.673445	358.2	14.1	-70.5	0.0
2025-01-21 11:25:39.923322	358.0	13.9	-67.9	0.0
2025-01-21 11:25:42.168349	357.8	13.7	-69.6	0.0
2025-01-21 11:25:44.417193	357.6	13.5	-71.5	0.0
2025-01-21 11:25:46.663232	357.3	13.3	-69.5	0.0
2025-01-21 11:25:48.909442	357.1	13.1	-71.1	0.0
2025-01-21 11:25:51.157955	356.9	12.9	-69.8	0.0
2025-01-21 11:25:53.404908	356.7	12.7	-69.0	0.0
2025-01-21 11:25:55.648530	356.5	12.5	-70.1	0.0
2025-01-21 11:25:57.896506	356.3	12.3	-67.9	0.0
2025-01-21 11:26:00.142596	356.1	12.1	-70.8	0.0
2025-01-21 11:26:02.387017	355.9	11.9	-66.6	0.0
2025-01-21 11:26:04.629563	355.8	11.7	-67.2	0.0
2025-01-21 11:26:06.878462	355.6	11.5	-63.8	0.0
2025-01-21 11:26:09.126643	355.4	11.3	-64.7	0.0
2025-01-21 11:26:11.370797	355.2	11.1	-66.2	0.0
2025-01-21 11:26:13.617803	355.0	11.0	-65.1	0.0
2025-01-21 11:26:15.862562	354.8	10.8	-66.9	0.0
2025-01-21 11:26:18.107360	354.7	10.6	-77.7	0.0
2025-01-21 11:26:20.358826	354.5	10.4	-80.4	0.0
2025-01-21 11:26:22.604208	354.3	10.2	-81.8	0.0
2025-01-21 11:26:24.850413	354.1	10.1	-82.2	0.0
#Closed at: 2025-01-21 11:16:42.283661