passes_logs/2025/01/21/planumMaritime01/planumMaritime01__20250121_004017_METEOR-M2_4_rec.log

#Pass ID: 20250121_004017_METEOR-M2 4
#Satellite: METEOR-M2 4
#Configuration: METEOR-M2 4
#Start time: 2025-01-21 00:40:22.679039

#LorettStation: 1.0.0 05.05.2024
#Station: planumMaritime01
#Location: 37.49445 lon 55.92918 lat
#TLE: 1 59051U 24039A   25020.16329171  .00000140  00000+0  82464-4 0  9999
#TLE: 2 59051  98.6302 343.0648 0006415 208.0987 151.9846 14.22326811 46338

#Time	Az	El	Level	SNR
2025-01-21 00:40:24.838460	22.0	10.2	-72.5	0.0
2025-01-21 00:40:27.083530	22.1	10.4	-73.9	0.0
2025-01-21 00:40:29.329607	22.2	10.6	-73.2	0.0
2025-01-21 00:40:31.577986	22.3	10.8	-73.0	0.0
2025-01-21 00:40:33.822670	22.4	11.0	-73.2	0.0
2025-01-21 00:40:36.069553	22.5	11.2	-74.0	0.0
2025-01-21 00:40:38.316555	22.6	11.4	-72.9	0.0
2025-01-21 00:40:40.563657	22.7	11.6	-73.3	0.0
2025-01-21 00:40:42.809144	22.8	11.8	-74.1	0.0
2025-01-21 00:40:45.055649	22.9	12.0	-73.9	0.0
2025-01-21 00:40:47.304179	23.0	12.2	-75.2	0.0
2025-01-21 00:40:49.550830	23.1	12.4	-75.1	0.0
2025-01-21 00:40:51.796881	23.2	12.6	-75.6	0.0
2025-01-21 00:40:54.043322	23.4	12.8	-75.6	0.0
2025-01-21 00:40:56.290785	23.5	13.0	-76.2	0.0
2025-01-21 00:40:58.542799	23.6	13.2	-75.4	0.0
2025-01-21 00:41:00.791063	23.7	13.4	-76.2	0.0
2025-01-21 00:41:03.036411	23.8	13.7	-75.6	0.0
2025-01-21 00:41:05.285336	23.9	13.9	-75.6	0.0
2025-01-21 00:41:07.529317	24.0	14.1	-76.4	0.0
2025-01-21 00:41:09.775394	24.2	14.3	-75.7	0.0
2025-01-21 00:41:12.021084	24.3	14.5	-76.3	0.0
2025-01-21 00:41:14.267514	24.4	14.8	-76.1	0.0
2025-01-21 00:41:16.511995	24.5	15.0	-75.7	0.0
2025-01-21 00:41:18.760960	24.7	15.2	-75.0	0.0
2025-01-21 00:41:21.007847	24.8	15.5	-75.2	0.0
2025-01-21 00:41:23.252624	24.9	15.7	-75.3	0.0
2025-01-21 00:41:25.501401	25.1	15.9	-74.7	0.0
2025-01-21 00:41:27.744311	25.2	16.2	-75.0	0.0
2025-01-21 00:41:29.989669	25.3	16.4	-74.9	0.0
2025-01-21 00:41:32.235625	25.5	16.7	-74.8	0.0
2025-01-21 00:41:34.482932	25.6	16.9	-75.4	0.0
2025-01-21 00:41:36.727946	25.8	17.2	-72.5	0.0
2025-01-21 00:41:38.971601	25.9	17.4	-73.8	0.0
2025-01-21 00:41:41.218985	26.1	17.7	-72.4	0.0
2025-01-21 00:41:43.467887	26.2	17.9	-72.0	0.0
2025-01-21 00:41:45.714563	26.4	18.2	-71.9	0.0
2025-01-21 00:41:47.964759	26.5	18.5	-70.2	0.0
2025-01-21 00:41:50.213538	26.7	18.7	-72.8	0.0
2025-01-21 00:41:52.464188	26.8	19.0	-72.6	0.0
2025-01-21 00:41:54.707265	27.0	19.3	-72.6	0.0
2025-01-21 00:41:56.956129	27.2	19.5	-72.6	0.0
2025-01-21 00:41:59.203436	27.3	19.8	-73.5	0.0
2025-01-21 00:42:01.449316	27.5	20.1	-73.5	0.0
2025-01-21 00:42:03.693695	27.7	20.4	-73.7	0.0
2025-01-21 00:42:05.938620	27.9	20.7	-75.0	0.0
2025-01-21 00:42:08.183962	28.0	21.0	-72.9	0.0
2025-01-21 00:42:10.430108	28.2	21.3	-73.9	0.0
2025-01-21 00:42:12.675614	28.4	21.5	-74.0	0.0
2025-01-21 00:42:14.923903	28.6	21.8	-74.2	0.0
2025-01-21 00:42:17.169757	28.8	22.1	-74.7	0.0
2025-01-21 00:42:19.415396	29.0	22.5	-74.4	0.0
2025-01-21 00:42:21.661688	29.2	22.8	-71.5	0.0
2025-01-21 00:42:23.910769	29.4	23.1	-74.5	0.0
2025-01-21 00:42:26.160958	29.6	23.4	-75.3	0.0
2025-01-21 00:42:28.406574	29.8	23.7	-76.1	0.0
2025-01-21 00:42:30.651419	30.1	24.0	-74.5	0.0
2025-01-21 00:42:32.897506	30.3	24.4	-76.5	0.0
2025-01-21 00:42:35.144671	30.5	24.7	-74.9	0.0
2025-01-21 00:42:37.390398	30.7	25.0	-75.9	0.0
2025-01-21 00:42:39.635783	31.0	25.4	-76.9	0.0
2025-01-21 00:42:41.884708	31.2	25.7	-77.5	0.0
2025-01-21 00:42:44.127556	31.5	26.0	-75.9	0.0
2025-01-21 00:42:46.373512	31.7	26.4	-76.8	0.0
2025-01-21 00:42:48.620032	32.0	26.7	-75.0	0.0
2025-01-21 00:42:50.863315	32.2	27.1	-76.2	0.0
2025-01-21 00:42:53.109092	32.5	27.5	-75.5	0.0
2025-01-21 00:42:55.353538	32.8	27.8	-74.1	0.0
2025-01-21 00:42:57.603262	33.1	28.2	-74.5	0.0
2025-01-21 00:42:59.848462	33.4	28.6	-74.2	0.0
2025-01-21 00:43:02.096527	33.7	29.0	-74.1	0.0
2025-01-21 00:43:04.341431	34.0	29.3	-73.9	0.0
2025-01-21 00:43:06.588108	34.3	29.7	-74.9	0.0
2025-01-21 00:43:08.834230	34.6	30.1	-75.2	0.0
2025-01-21 00:43:11.080728	34.9	30.5	-75.0	0.0
2025-01-21 00:43:13.329234	35.2	30.9	-75.5	0.0
2025-01-21 00:43:15.574715	35.6	31.3	-75.2	0.0
2025-01-21 00:43:17.821034	35.9	31.7	-75.0	0.0
2025-01-21 00:43:20.067706	36.3	32.1	-72.7	0.0
2025-01-21 00:43:22.313885	36.7	32.6	-74.6	0.0
2025-01-21 00:43:24.559893	37.0	33.0	-73.9	0.0
2025-01-21 00:43:26.807072	37.4	33.4	-75.2	0.0
2025-01-21 00:43:29.054911	37.8	33.9	-74.8	0.0
2025-01-21 00:43:31.299702	38.2	34.3	-74.5	0.0
2025-01-21 00:43:33.544290	38.6	34.7	-74.9	0.0
2025-01-21 00:43:35.790931	39.1	35.2	-74.9	0.0
2025-01-21 00:43:38.035333	39.5	35.6	-73.3	0.0
2025-01-21 00:43:40.283176	40.0	36.1	-75.9	0.0
2025-01-21 00:43:42.531152	40.4	36.6	-76.5	0.0
2025-01-21 00:43:44.777085	40.9	37.0	-76.2	0.0
2025-01-21 00:43:47.023349	41.4	37.5	-77.0	0.0
2025-01-21 00:43:49.267089	41.9	38.0	-77.9	0.0
2025-01-21 00:43:51.516752	42.4	38.5	-78.6	0.0
2025-01-21 00:43:53.763507	43.0	38.9	-78.8	0.0
2025-01-21 00:43:56.009924	43.5	39.4	-78.9	0.0
2025-01-21 00:43:58.255348	44.1	39.9	-78.5	0.0
2025-01-21 00:44:00.503366	44.7	40.4	-78.9	0.0
2025-01-21 00:44:02.747960	45.3	40.9	-78.8	0.0
2025-01-21 00:44:04.996344	45.9	41.4	-79.8	0.0
2025-01-21 00:44:07.241181	46.6	41.9	-79.6	0.0
2025-01-21 00:44:09.486715	47.2	42.4	-79.4	0.0
2025-01-21 00:44:11.733325	47.9	43.0	-79.3	0.0
2025-01-21 00:44:13.979576	48.6	43.5	-80.0	0.0
2025-01-21 00:44:16.225089	49.4	44.0	-79.7	0.0
2025-01-21 00:44:18.475305	50.1	44.5	-79.7	0.0
2025-01-21 00:44:20.718205	50.9	45.0	-79.8	0.0
2025-01-21 00:44:22.962618	51.7	45.6	-79.8	0.0
2025-01-21 00:44:25.209744	52.5	46.1	-80.1	0.0
2025-01-21 00:44:27.455842	53.4	46.6	-79.8	0.0
2025-01-21 00:44:29.702783	54.3	47.1	-80.2	0.0
2025-01-21 00:44:31.946671	55.2	47.6	-80.1	0.0
2025-01-21 00:44:34.189583	56.1	48.2	-80.2	0.0
2025-01-21 00:44:36.437495	57.1	48.7	-80.4	0.0
2025-01-21 00:44:38.682503	58.1	49.2	-80.3	0.0
2025-01-21 00:44:40.928191	59.2	49.7	-80.2	0.0
2025-01-21 00:44:43.175788	60.3	50.2	-77.0	0.0
2025-01-21 00:44:45.420019	61.4	50.7	-80.2	0.0
2025-01-21 00:44:47.667793	62.6	51.2	-80.3	0.0
2025-01-21 00:44:49.914763	63.8	51.7	-80.0	0.0
2025-01-21 00:44:52.160449	65.0	52.2	-79.4	0.0
2025-01-21 00:44:54.406930	66.3	52.6	-79.5	0.0
2025-01-21 00:44:56.656425	67.6	53.1	-80.1	0.0
2025-01-21 00:44:58.904296	69.0	53.5	-77.2	0.0
2025-01-21 00:45:01.151551	70.4	54.0	-77.4	0.0
2025-01-21 00:45:03.398204	71.8	54.4	-79.8	0.0
2025-01-21 00:45:05.645658	73.3	54.8	-79.9	0.0
2025-01-21 00:45:07.891053	74.8	55.2	-79.7	0.0
2025-01-21 00:45:10.135021	76.4	55.6	-79.1	0.0
2025-01-21 00:45:12.383422	78.0	55.9	-80.0	0.0
2025-01-21 00:45:14.629698	79.7	56.3	-78.2	0.0
2025-01-21 00:45:16.874739	81.3	56.6	-79.3	0.8
2025-01-21 00:45:19.121236	83.1	56.9	-79.3	1.6
2025-01-21 00:45:21.366958	84.8	57.1	-79.3	2.0
2025-01-21 00:45:23.614062	86.6	57.4	-79.5	1.2
2025-01-21 00:45:25.860176	88.5	57.6	-79.5	2.7
2025-01-21 00:45:28.108215	90.3	57.8	-79.1	1.8
2025-01-21 00:45:30.354344	92.2	57.9	-78.6	3.2
2025-01-21 00:45:32.598629	94.1	58.1	-77.6	0.0
2025-01-21 00:45:34.844523	96.0	58.2	-77.3	0.0
2025-01-21 00:45:37.089098	97.9	58.2	-77.4	0.8
2025-01-21 00:45:39.332586	99.9	58.3	-77.6	0.0
2025-01-21 00:45:41.576686	101.8	58.3	-77.3	0.0
2025-01-21 00:45:43.821255	103.7	58.3	-76.4	0.0
2025-01-21 00:45:46.068750	105.7	58.2	-78.5	1.0
2025-01-21 00:45:48.315037	107.6	58.1	-78.0	2.3
2025-01-21 00:45:50.558597	109.5	58.0	-76.9	1.6
2025-01-21 00:45:52.804739	111.4	57.9	-77.0	0.9
2025-01-21 00:45:55.048924	113.3	57.7	-76.1	0.0
2025-01-21 00:45:57.294373	115.1	57.5	-77.0	0.0
2025-01-21 00:45:59.540929	116.9	57.3	-77.5	0.0
2025-01-21 00:46:01.789595	118.7	57.1	-77.4	0.0
2025-01-21 00:46:04.036769	120.5	56.8	-77.1	0.0
2025-01-21 00:46:06.282916	122.2	56.5	-74.9	0.0
2025-01-21 00:46:08.529986	123.9	56.2	-75.8	0.0
2025-01-21 00:46:10.777503	125.6	55.9	-75.7	0.0
2025-01-21 00:46:13.025323	127.2	55.5	-76.8	0.0
2025-01-21 00:46:15.271611	128.7	55.1	-77.6	0.0
2025-01-21 00:46:17.517494	130.3	54.7	-77.5	0.0
2025-01-21 00:46:19.765604	131.7	54.3	-73.6	0.0
2025-01-21 00:46:22.011849	133.2	53.9	-73.5	0.0
2025-01-21 00:46:24.259235	134.6	53.5	-78.3	0.0
2025-01-21 00:46:26.505162	135.9	53.0	-77.8	0.0
2025-01-21 00:46:28.751058	137.3	52.5	-77.6	0.0
2025-01-21 00:46:30.995759	138.5	52.1	-77.3	0.0
2025-01-21 00:46:33.244725	139.8	51.6	-73.3	0.0
2025-01-21 00:46:35.494168	141.0	51.1	-75.8	0.0
2025-01-21 00:46:37.738280	142.1	50.6	-77.4	0.0
2025-01-21 00:46:39.982999	143.2	50.1	-76.0	0.0
2025-01-21 00:46:42.225832	144.3	49.6	-78.0	0.0
2025-01-21 00:46:44.471028	145.4	49.1	-77.9	0.0
2025-01-21 00:46:46.716980	146.4	48.6	-78.5	0.0
2025-01-21 00:46:48.964711	147.4	48.0	-78.2	0.0
2025-01-21 00:46:51.209599	148.3	47.5	-75.5	0.0
2025-01-21 00:46:53.456043	149.2	47.0	-79.1	0.0
2025-01-21 00:46:55.701573	150.1	46.5	-77.0	0.0
2025-01-21 00:46:57.948421	151.0	45.9	-79.0	0.0
2025-01-21 00:47:00.195478	151.8	45.4	-79.6	0.0
2025-01-21 00:47:02.440091	152.6	44.9	-79.1	0.0
2025-01-21 00:47:04.684708	153.4	44.4	-78.3	0.0
2025-01-21 00:47:06.930183	154.2	43.8	-77.6	0.0
2025-01-21 00:47:09.177665	154.9	43.3	-79.6	0.0
2025-01-21 00:47:11.424776	155.6	42.8	-80.1	0.0
2025-01-21 00:47:13.670264	156.3	42.3	-78.9	0.0
2025-01-21 00:47:15.914841	156.9	41.8	-80.3	0.0
2025-01-21 00:47:18.160537	157.6	41.3	-78.1	0.0
2025-01-21 00:47:20.404296	158.2	40.8	-80.0	0.0
2025-01-21 00:47:22.650506	158.8	40.3	-80.3	0.0
2025-01-21 00:47:24.893364	159.4	39.8	-76.9	0.0
2025-01-21 00:47:27.142024	160.0	39.3	-80.3	0.0
2025-01-21 00:47:29.387885	160.5	38.8	-80.1	0.0
2025-01-21 00:47:31.635165	161.1	38.3	-80.1	0.0
2025-01-21 00:47:33.880573	161.6	37.8	-79.2	0.0
2025-01-21 00:47:36.124258	162.1	37.3	-79.2	0.0
2025-01-21 00:47:38.369578	162.6	36.8	-79.6	0.0
2025-01-21 00:47:40.614660	163.0	36.4	-79.8	0.0
2025-01-21 00:47:42.860629	163.5	35.9	-79.8	0.0
2025-01-21 00:47:45.104992	164.0	35.4	-79.8	0.0
2025-01-21 00:47:47.347397	164.4	35.0	-80.1	0.0
2025-01-21 00:47:49.590629	164.8	34.5	-79.8	0.0
2025-01-21 00:47:51.836072	165.2	34.1	-78.9	0.0
2025-01-21 00:47:54.083743	165.6	33.7	-78.7	0.0
2025-01-21 00:47:56.330965	166.0	33.2	-80.0	0.0
2025-01-21 00:47:58.576442	166.4	32.8	-79.5	0.0
2025-01-21 00:48:00.824356	166.8	32.4	-80.0	0.0
2025-01-21 00:48:03.068457	167.2	31.9	-80.0	0.0
2025-01-21 00:48:05.314972	167.5	31.5	-79.8	0.0
2025-01-21 00:48:07.560136	167.9	31.1	-79.6	0.0
2025-01-21 00:48:09.805769	168.2	30.7	-78.6	0.0
2025-01-21 00:48:12.053282	168.5	30.3	-79.5	0.0
2025-01-21 00:48:14.300028	168.9	29.9	-79.9	0.0
2025-01-21 00:48:16.544262	169.2	29.5	-79.6	0.0
2025-01-21 00:48:18.790715	169.5	29.1	-78.0	0.0
2025-01-21 00:48:21.039314	169.8	28.7	-79.1	1.3
2025-01-21 00:48:23.283732	170.1	28.3	-78.6	1.2
2025-01-21 00:48:25.530459	170.4	28.0	-77.7	0.0
2025-01-21 00:48:27.775004	170.7	27.6	-79.2	0.0
2025-01-21 00:48:30.020424	170.9	27.2	-79.2	1.8
2025-01-21 00:48:32.268812	171.2	26.9	-79.0	0.6
2025-01-21 00:48:34.513905	171.5	26.5	-79.2	0.0
2025-01-21 00:48:36.762416	171.7	26.2	-79.0	0.6
2025-01-21 00:48:39.008148	172.0	25.8	-79.2	0.3
2025-01-21 00:48:41.254359	172.2	25.5	-79.3	1.3
2025-01-21 00:48:43.500205	172.5	25.1	-79.1	0.8
2025-01-21 00:48:45.746345	172.7	24.8	-79.2	2.2
2025-01-21 00:48:47.994401	172.9	24.4	-78.3	0.0
2025-01-21 00:48:50.240038	173.1	24.1	-78.1	0.0
2025-01-21 00:48:52.486284	173.4	23.8	-78.3	0.0
2025-01-21 00:48:54.732392	173.6	23.5	-77.5	0.0
2025-01-21 00:48:56.981579	173.8	23.1	-79.1	0.0
2025-01-21 00:48:59.229407	174.0	22.8	-79.0	0.3
2025-01-21 00:49:01.474325	174.2	22.5	-79.0	1.5
2025-01-21 00:49:03.721481	174.4	22.2	-78.8	1.0
2025-01-21 00:49:05.966954	174.6	21.9	-78.7	0.5
2025-01-21 00:49:08.211944	174.8	21.6	-78.9	0.0
2025-01-21 00:49:10.459883	175.0	21.3	-77.0	0.0
2025-01-21 00:49:12.706665	175.2	21.0	-78.5	0.0
2025-01-21 00:49:14.954272	175.4	20.7	-77.5	0.0
2025-01-21 00:49:17.198333	175.6	20.4	-78.6	0.0
2025-01-21 00:49:19.443972	175.7	20.1	-78.6	0.0
2025-01-21 00:49:21.691932	175.9	19.8	-78.6	0.0
2025-01-21 00:49:23.939169	176.1	19.6	-78.5	0.0
2025-01-21 00:49:26.185381	176.2	19.3	-78.4	0.0
2025-01-21 00:49:28.430342	176.4	19.0	-78.8	0.0
2025-01-21 00:49:30.679759	176.6	18.7	-78.9	0.0
2025-01-21 00:49:32.925802	176.7	18.5	-78.6	0.0
2025-01-21 00:49:35.168483	176.9	18.2	-77.3	0.0
2025-01-21 00:49:37.415084	177.0	17.9	-78.5	0.0
2025-01-21 00:49:39.659879	177.2	17.7	-77.7	0.0
2025-01-21 00:49:41.905462	177.3	17.4	-78.3	0.0
2025-01-21 00:49:44.150045	177.5	17.2	-78.4	0.0
2025-01-21 00:49:46.395361	177.6	16.9	-78.5	0.0
2025-01-21 00:49:48.641339	177.8	16.6	-78.1	0.0
2025-01-21 00:49:50.887901	177.9	16.4	-78.6	0.0
2025-01-21 00:49:53.136404	178.0	16.2	-78.5	0.0
2025-01-21 00:49:55.382686	178.2	15.9	-77.1	0.0
2025-01-21 00:49:57.626448	178.3	15.7	-78.4	0.0
2025-01-21 00:49:59.870506	178.4	15.4	-78.6	0.0
2025-01-21 00:50:02.118050	178.6	15.2	-78.2	0.0
2025-01-21 00:50:04.364021	178.7	15.0	-77.7	0.0
2025-01-21 00:50:06.609229	178.8	14.7	-77.6	0.0
2025-01-21 00:50:08.854236	179.0	14.5	-78.2	0.0
2025-01-21 00:50:11.097281	179.1	14.3	-78.4	0.0
2025-01-21 00:50:13.342042	179.2	14.0	-78.5	0.0
2025-01-21 00:50:15.590854	179.3	13.8	-79.0	0.0
2025-01-21 00:50:17.838831	179.4	13.6	-78.9	0.0
2025-01-21 00:50:20.086834	179.5	13.4	-79.1	0.0
2025-01-21 00:50:22.334456	179.7	13.1	-79.0	0.0
2025-01-21 00:50:24.580798	179.8	12.9	-78.9	0.0
2025-01-21 00:50:26.829733	179.9	12.7	-78.7	0.0
2025-01-21 00:50:29.074873	180.0	12.5	-78.9	0.0
2025-01-21 00:50:31.318896	180.1	12.3	-79.0	0.0
2025-01-21 00:50:33.564644	180.2	12.1	-79.1	0.0
2025-01-21 00:50:35.813405	180.3	11.9	-79.3	0.0
2025-01-21 00:50:38.060504	180.4	11.7	-79.1	0.0
2025-01-21 00:50:40.309324	180.5	11.5	-79.0	0.0
2025-01-21 00:50:42.555736	180.6	11.3	-78.8	0.0
2025-01-21 00:50:44.803215	180.7	11.1	-79.0	0.0
2025-01-21 00:50:47.051484	180.8	10.9	-79.8	0.0
2025-01-21 00:50:49.298922	180.9	10.7	-80.9	0.4
2025-01-21 00:50:51.543456	181.0	10.5	-81.7	0.0
2025-01-21 00:50:53.789902	181.1	10.3	-82.1	0.0
2025-01-21 00:50:56.035777	181.2	10.1	-81.6	0.0
#Closed at: 2025-01-21 00:40:17.682171