passes_logs/2025/01/21/planumMaritime01/planumMaritime01__20250121_074832_NOAA_19_rec.log

#Pass ID: 20250121_074832_NOAA 19
#Satellite: NOAA 19
#Configuration: NOAA 19
#Start time: 2025-01-21 07:48:37.709946

#LorettStation: 1.0.0 05.05.2024
#Station: planumMaritime01
#Location: 37.49445 lon 55.92918 lat
#TLE: 1 33591U 09005A   25020.17232911  .00000399  00000+0  23710-3 0  9996
#TLE: 2 33591  99.0187  83.9745 0014303  43.5990 316.6309 14.13263973822272

#Time	Az	El	Level	SNR
2025-01-21 07:48:39.870179	18.3	10.2	-66.4	0.0
2025-01-21 07:48:42.118159	18.3	10.4	-67.9	0.0
2025-01-21 07:48:44.368679	18.4	10.6	-62.8	0.0
2025-01-21 07:48:46.615470	18.4	10.8	-67.0	0.0
2025-01-21 07:48:48.862323	18.4	11.0	-67.1	0.0
2025-01-21 07:48:51.105025	18.4	11.2	-67.5	0.0
2025-01-21 07:48:53.353364	18.5	11.4	-67.6	0.0
2025-01-21 07:48:55.601465	18.5	11.6	-67.0	0.0
2025-01-21 07:48:57.850382	18.5	11.8	-69.3	0.0
2025-01-21 07:49:00.101720	18.6	12.0	-68.9	0.0
2025-01-21 07:49:02.347779	18.6	12.2	-68.7	0.0
2025-01-21 07:49:04.592875	18.6	12.4	-70.3	0.0
2025-01-21 07:49:06.840997	18.7	12.6	-68.1	0.0
2025-01-21 07:49:09.087716	18.7	12.9	-71.2	0.0
2025-01-21 07:49:11.338689	18.7	13.1	-68.7	0.0
2025-01-21 07:49:13.583364	18.8	13.3	-69.5	0.0
2025-01-21 07:49:15.830619	18.8	13.5	-69.1	0.0
2025-01-21 07:49:18.077138	18.8	13.7	-68.6	0.0
2025-01-21 07:49:20.323819	18.8	14.0	-69.4	0.0
2025-01-21 07:49:22.569848	18.9	14.2	-72.2	0.0
2025-01-21 07:49:24.815984	18.9	14.4	-72.3	0.0
2025-01-21 07:49:27.063539	18.9	14.6	-73.4	0.0
2025-01-21 07:49:29.309277	19.0	14.9	-71.6	0.0
2025-01-21 07:49:31.557109	19.0	15.1	-72.1	0.0
2025-01-21 07:49:33.805865	19.1	15.4	-71.1	0.0
2025-01-21 07:49:36.055611	19.1	15.6	-70.7	0.0
2025-01-21 07:49:38.301450	19.1	15.8	-72.2	0.0
2025-01-21 07:49:40.548346	19.2	16.1	-71.1	0.0
2025-01-21 07:49:42.795395	19.2	16.3	-72.2	0.0
2025-01-21 07:49:45.044628	19.2	16.6	-71.3	0.0
2025-01-21 07:49:47.293033	19.3	16.8	-70.8	0.0
2025-01-21 07:49:49.539659	19.3	17.1	-70.4	0.0
2025-01-21 07:49:51.786981	19.3	17.4	-68.8	0.0
2025-01-21 07:49:54.035558	19.4	17.6	-70.7	0.0
2025-01-21 07:49:56.282720	19.4	17.9	-68.9	0.0
2025-01-21 07:49:58.529011	19.5	18.1	-69.4	0.0
2025-01-21 07:50:00.776455	19.5	18.4	-68.4	0.0
2025-01-21 07:50:03.024849	19.5	18.7	-67.0	0.0
2025-01-21 07:50:05.271455	19.6	19.0	-65.7	0.0
2025-01-21 07:50:07.517993	19.6	19.2	-64.4	0.0
2025-01-21 07:50:09.765177	19.7	19.5	-66.1	0.0
2025-01-21 07:50:12.012399	19.7	19.8	-65.4	0.0
2025-01-21 07:50:14.258167	19.8	20.1	-67.2	0.0
2025-01-21 07:50:16.503798	19.8	20.4	-66.2	0.0
2025-01-21 07:50:18.749108	19.9	20.7	-67.5	0.0
2025-01-21 07:50:20.993780	19.9	21.0	-66.1	0.0
2025-01-21 07:50:23.240495	19.9	21.3	-68.0	0.0
2025-01-21 07:50:25.487915	20.0	21.6	-69.6	0.0
2025-01-21 07:50:27.737549	20.0	21.9	-69.4	0.0
2025-01-21 07:50:29.980898	20.1	22.2	-69.7	0.0
2025-01-21 07:50:32.227964	20.1	22.5	-69.2	0.0
2025-01-21 07:50:34.473092	20.2	22.8	-66.4	0.0
2025-01-21 07:50:36.717694	20.2	23.2	-68.8	0.0
2025-01-21 07:50:38.964097	20.3	23.5	-67.3	0.0
2025-01-21 07:50:41.211718	20.3	23.8	-67.6	0.0
2025-01-21 07:50:43.455331	20.4	24.2	-66.4	0.0
2025-01-21 07:50:45.703821	20.5	24.5	-68.1	0.0
2025-01-21 07:50:47.948005	20.5	24.9	-68.4	0.0
2025-01-21 07:50:50.194063	20.6	25.2	-69.0	0.0
2025-01-21 07:50:52.443747	20.6	25.6	-70.7	0.0
2025-01-21 07:50:54.686174	20.7	25.9	-70.7	0.0
2025-01-21 07:50:56.934680	20.8	26.3	-66.8	0.0
2025-01-21 07:50:59.181627	20.8	26.7	-67.5	0.0
2025-01-21 07:51:01.430765	20.9	27.0	-63.9	0.0
2025-01-21 07:51:03.679836	20.9	27.4	-62.1	0.0
2025-01-21 07:51:05.926187	21.0	27.8	-73.1	0.0
2025-01-21 07:51:08.174861	21.1	28.2	-63.3	0.0
2025-01-21 07:51:10.424798	21.1	28.6	-65.5	0.0
2025-01-21 07:51:12.671977	21.2	29.0	-63.1	0.0
2025-01-21 07:51:14.921318	21.3	29.4	-63.5	0.0
2025-01-21 07:51:17.167184	21.4	29.8	-68.9	0.0
2025-01-21 07:51:19.409613	21.4	30.2	-66.5	0.0
2025-01-21 07:51:21.653770	21.5	30.7	-67.8	0.0
2025-01-21 07:51:23.901041	21.6	31.1	-66.6	0.0
2025-01-21 07:51:26.144961	21.7	31.5	-66.8	0.0
2025-01-21 07:51:28.391750	21.8	32.0	-69.1	0.0
2025-01-21 07:51:30.640333	21.8	32.4	-70.4	0.0
2025-01-21 07:51:32.888392	21.9	32.9	-69.6	0.0
2025-01-21 07:51:35.134922	22.0	33.3	-68.9	0.0
2025-01-21 07:51:37.379107	22.1	33.8	-69.2	0.0
2025-01-21 07:51:39.624668	22.2	34.3	-69.3	0.0
2025-01-21 07:51:41.873117	22.3	34.8	-65.4	0.0
2025-01-21 07:51:44.118791	22.4	35.3	-69.0	0.0
2025-01-21 07:51:46.364968	22.5	35.8	-69.3	0.0
2025-01-21 07:51:48.611160	22.6	36.3	-69.7	0.0
2025-01-21 07:51:50.856139	22.7	36.8	-68.0	0.0
2025-01-21 07:51:53.102264	22.8	37.3	-69.2	0.0
2025-01-21 07:51:55.347805	22.9	37.9	-68.6	0.0
2025-01-21 07:51:57.598344	23.1	38.4	-70.4	0.0
2025-01-21 07:51:59.843168	23.2	39.0	-71.0	0.0
2025-01-21 07:52:02.087650	23.3	39.5	-71.8	0.0
2025-01-21 07:52:04.332156	23.4	40.1	-71.3	0.0
2025-01-21 07:52:06.578177	23.6	40.7	-71.9	0.0
2025-01-21 07:52:08.825528	23.7	41.3	-71.0	0.0
2025-01-21 07:52:11.072831	23.8	41.9	-73.5	0.0
2025-01-21 07:52:13.318839	24.0	42.5	-74.4	0.0
2025-01-21 07:52:15.564514	24.2	43.1	-70.5	0.0
2025-01-21 07:52:17.808500	24.3	43.7	-76.6	0.0
2025-01-21 07:52:20.054876	24.5	44.3	-72.4	0.0
2025-01-21 07:52:22.299007	24.7	45.0	-75.8	0.0
2025-01-21 07:52:24.543090	24.8	45.6	-75.9	0.0
2025-01-21 07:52:26.792453	25.0	46.3	-77.2	0.0
2025-01-21 07:52:29.037618	25.2	47.0	-76.2	0.0
2025-01-21 07:52:31.283072	25.4	47.7	-75.1	0.0
2025-01-21 07:52:33.530692	25.6	48.4	-77.0	0.0
2025-01-21 07:52:35.776857	25.8	49.1	-77.5	0.0
2025-01-21 07:52:38.022174	26.1	49.8	-78.2	0.0
2025-01-21 07:52:40.267541	26.3	50.6	-77.9	0.9
2025-01-21 07:52:42.515453	26.6	51.3	-78.1	1.6
2025-01-21 07:52:44.763168	26.8	52.1	-77.6	0.0
2025-01-21 07:52:47.012808	27.1	52.8	-76.4	0.0
2025-01-21 07:52:49.257585	27.4	53.6	-77.3	1.4
2025-01-21 07:52:51.504951	27.7	54.4	-77.0	2.1
2025-01-21 07:52:53.751444	28.1	55.2	-77.0	3.7
2025-01-21 07:52:55.998138	28.4	56.0	-77.8	3.7
2025-01-21 07:52:58.244700	28.8	56.8	-76.3	3.2
2025-01-21 07:53:00.488953	29.2	57.7	-76.6	4.0
2025-01-21 07:53:02.735480	29.6	58.5	-77.0	5.0
2025-01-21 07:53:04.982502	30.0	59.4	-77.0	5.6
2025-01-21 07:53:07.228448	30.5	60.2	-77.0	6.9
2025-01-21 07:53:09.473736	31.0	61.1	-77.5	7.8
2025-01-21 07:53:11.719701	31.5	62.0	-77.4	9.3
2025-01-21 07:53:13.965668	32.1	62.9	-77.5	9.2
2025-01-21 07:53:16.209129	32.7	63.8	-76.5	9.2
2025-01-21 07:53:18.453563	33.4	64.7	-76.8	10.5
2025-01-21 07:53:20.699956	34.1	65.6	-76.1	10.0
2025-01-21 07:53:22.946826	34.9	66.6	-76.7	11.7
2025-01-21 07:53:25.190465	35.8	67.5	-76.2	9.6
2025-01-21 07:53:27.437087	36.7	68.4	-76.6	9.7
2025-01-21 07:53:29.681009	37.8	69.4	-76.1	10.9
2025-01-21 07:53:31.927251	38.9	70.3	-76.0	12.0
2025-01-21 07:53:34.175256	40.2	71.3	-76.0	14.1
2025-01-21 07:53:36.424533	41.6	72.2	-75.7	13.5
2025-01-21 07:53:38.671285	43.2	73.2	-76.0	13.5
2025-01-21 07:53:40.916151	44.9	74.1	-75.7	11.9
2025-01-21 07:53:43.162495	46.9	75.0	-76.2	12.8
2025-01-21 07:53:45.409001	49.2	76.0	-75.8	12.9
2025-01-21 07:53:47.653199	51.8	76.9	-75.7	13.3
2025-01-21 07:53:49.900597	54.8	77.7	-76.7	12.5
2025-01-21 07:53:52.150375	58.3	78.6	-75.8	12.5
2025-01-21 07:53:54.401240	62.3	79.4	-75.7	14.1
2025-01-21 07:53:56.644823	66.9	80.1	-75.8	13.7
2025-01-21 07:53:58.890393	72.2	80.8	-75.1	13.9
2025-01-21 07:54:01.137176	78.4	81.4	-75.1	15.4
2025-01-21 07:54:03.385893	85.3	81.8	-75.0	16.5
2025-01-21 07:54:05.632654	93.0	82.2	-75.0	15.8
2025-01-21 07:54:07.875834	101.2	82.4	-75.6	15.0
2025-01-21 07:54:10.123966	109.7	82.4	-75.6	14.2
2025-01-21 07:54:12.371222	118.0	82.3	-76.1	14.9
2025-01-21 07:54:14.615910	125.9	82.0	-75.7	14.5
2025-01-21 07:54:16.863196	133.1	81.5	-76.2	14.6
2025-01-21 07:54:19.109096	139.6	81.0	-76.0	14.4
2025-01-21 07:54:21.356413	145.2	80.4	-75.5	13.9
2025-01-21 07:54:23.601947	150.1	79.6	-75.8	14.6
2025-01-21 07:54:25.846799	154.3	78.9	-76.0	14.5
2025-01-21 07:54:28.091024	157.9	78.0	-76.5	14.7
2025-01-21 07:54:30.335993	161.1	77.2	-76.1	14.6
2025-01-21 07:54:32.581891	163.8	76.3	-76.3	15.1
2025-01-21 07:54:34.829113	166.2	75.4	-76.5	14.4
2025-01-21 07:54:37.076977	168.3	74.5	-76.7	14.3
2025-01-21 07:54:39.322992	170.2	73.5	-76.9	13.1
2025-01-21 07:54:41.570589	171.8	72.6	-76.9	12.9
2025-01-21 07:54:43.815892	173.3	71.6	-77.0	12.0
2025-01-21 07:54:46.061265	174.6	70.7	-76.9	13.8
2025-01-21 07:54:48.307977	175.8	69.7	-76.8	13.4
2025-01-21 07:54:50.555016	176.9	68.8	-77.2	12.4
2025-01-21 07:54:52.798565	177.9	67.8	-77.6	11.6
2025-01-21 07:54:55.043395	178.7	66.9	-77.8	12.1
2025-01-21 07:54:57.291663	179.6	66.0	-77.8	12.2
2025-01-21 07:54:59.537733	180.3	65.0	-77.8	11.6
2025-01-21 07:55:01.779147	181.0	64.1	-77.9	12.1
2025-01-21 07:55:04.025248	181.6	63.2	-77.6	12.4
2025-01-21 07:55:06.268824	182.2	62.3	-77.6	11.9
2025-01-21 07:55:08.517545	182.8	61.4	-77.8	11.9
2025-01-21 07:55:10.762883	183.3	60.6	-77.8	11.2
2025-01-21 07:55:13.008251	183.8	59.7	-77.9	11.4
2025-01-21 07:55:15.255082	184.2	58.8	-78.1	11.4
2025-01-21 07:55:17.504525	184.7	58.0	-78.4	10.8
2025-01-21 07:55:19.749408	185.1	57.1	-78.3	11.4
2025-01-21 07:55:21.999594	185.4	56.3	-78.4	10.9
2025-01-21 07:55:24.245909	185.8	55.5	-78.2	10.1
2025-01-21 07:55:26.491022	186.1	54.7	-78.5	10.1
2025-01-21 07:55:28.736775	186.4	53.9	-78.6	10.8
2025-01-21 07:55:30.979561	186.7	53.1	-78.5	10.0
2025-01-21 07:55:33.226050	187.0	52.3	-78.6	10.3
2025-01-21 07:55:35.473517	187.3	51.6	-78.8	10.1
2025-01-21 07:55:37.721252	187.6	50.8	-78.6	9.6
2025-01-21 07:55:39.970556	187.8	50.1	-78.7	9.0
2025-01-21 07:55:42.214687	188.0	49.3	-78.8	8.3
2025-01-21 07:55:44.460457	188.3	48.6	-78.9	8.4
2025-01-21 07:55:46.708758	188.5	47.9	-79.1	6.9
2025-01-21 07:55:48.953533	188.7	47.2	-79.0	6.7
2025-01-21 07:55:51.197437	188.9	46.5	-79.3	5.9
2025-01-21 07:55:53.443830	189.1	45.9	-79.5	5.2
2025-01-21 07:55:55.693528	189.2	45.2	-79.5	3.9
2025-01-21 07:55:57.939457	189.4	44.6	-79.8	4.6
2025-01-21 07:56:00.188213	189.6	43.9	-79.8	2.5
2025-01-21 07:56:02.433927	189.8	43.3	-80.0	2.2
2025-01-21 07:56:04.679210	189.9	42.7	-79.8	1.6
2025-01-21 07:56:06.924340	190.1	42.1	-79.6	0.0
2025-01-21 07:56:09.171492	190.2	41.5	-79.5	0.0
2025-01-21 07:56:11.417953	190.3	40.9	-79.2	0.0
2025-01-21 07:56:13.664940	190.5	40.3	-78.8	0.0
2025-01-21 07:56:15.911382	190.6	39.7	-79.7	0.0
2025-01-21 07:56:18.154010	190.7	39.1	-79.3	0.0
2025-01-21 07:56:20.399987	190.9	38.6	-79.5	0.0
2025-01-21 07:56:22.643951	191.0	38.0	-79.2	0.0
2025-01-21 07:56:24.891177	191.1	37.5	-78.8	0.0
2025-01-21 07:56:27.135608	191.2	37.0	-79.3	0.0
2025-01-21 07:56:29.384878	191.3	36.5	-79.1	0.0
2025-01-21 07:56:31.634167	191.4	35.9	-79.1	0.0
2025-01-21 07:56:33.880524	191.5	35.4	-79.3	0.0
2025-01-21 07:56:36.127536	191.6	34.9	-79.5	0.0
2025-01-21 07:56:38.371859	191.7	34.4	-79.0	0.0
2025-01-21 07:56:40.620217	191.8	34.0	-78.9	0.0
2025-01-21 07:56:42.868382	191.9	33.5	-78.9	0.0
2025-01-21 07:56:45.116099	192.0	33.0	-78.6	0.0
2025-01-21 07:56:47.365342	192.1	32.6	-79.1	0.0
2025-01-21 07:56:49.611975	192.2	32.1	-79.1	0.0
2025-01-21 07:56:51.862703	192.2	31.7	-79.2	0.0
2025-01-21 07:56:54.108680	192.3	31.2	-78.8	0.0
2025-01-21 07:56:56.353835	192.4	30.8	-78.6	0.0
2025-01-21 07:56:58.601768	192.5	30.3	-78.6	0.0
2025-01-21 07:57:00.849296	192.5	29.9	-78.7	0.0
2025-01-21 07:57:03.095128	192.6	29.5	-78.9	0.0
2025-01-21 07:57:05.341182	192.7	29.1	-77.9	0.0
2025-01-21 07:57:07.587685	192.8	28.7	-78.5	0.0
2025-01-21 07:57:09.832979	192.8	28.3	-79.0	0.0
2025-01-21 07:57:12.080101	192.9	27.9	-78.6	0.0
2025-01-21 07:57:14.326359	193.0	27.5	-78.7	0.0
2025-01-21 07:57:16.574596	193.0	27.1	-78.6	0.0
2025-01-21 07:57:18.821216	193.1	26.8	-78.5	0.0
2025-01-21 07:57:21.068311	193.2	26.4	-78.7	0.0
2025-01-21 07:57:23.313767	193.2	26.0	-79.1	0.0
2025-01-21 07:57:25.556263	193.3	25.7	-78.5	0.0
2025-01-21 07:57:27.802989	193.3	25.3	-78.4	0.0
2025-01-21 07:57:30.048655	193.4	24.9	-78.5	0.0
2025-01-21 07:57:32.296258	193.4	24.6	-78.8	0.0
2025-01-21 07:57:34.543192	193.5	24.3	-78.7	0.0
2025-01-21 07:57:36.790590	193.5	23.9	-78.6	0.0
2025-01-21 07:57:39.036963	193.6	23.6	-78.0	0.0
2025-01-21 07:57:41.281845	193.7	23.3	-78.2	0.0
2025-01-21 07:57:43.529635	193.7	22.9	-78.0	0.0
2025-01-21 07:57:45.775533	193.8	22.6	-78.2	0.0
2025-01-21 07:57:48.021910	193.8	22.3	-78.2	0.0
2025-01-21 07:57:50.270163	193.8	22.0	-78.3	0.0
2025-01-21 07:57:52.516961	193.9	21.7	-77.9	0.0
2025-01-21 07:57:54.763306	193.9	21.4	-77.7	0.0
2025-01-21 07:57:57.010242	194.0	21.1	-78.2	0.0
2025-01-21 07:57:59.255758	194.0	20.8	-78.2	0.0
2025-01-21 07:58:01.503924	194.1	20.5	-78.0	0.0
2025-01-21 07:58:03.749585	194.1	20.2	-78.3	0.0
2025-01-21 07:58:05.996597	194.2	19.9	-78.3	0.0
2025-01-21 07:58:08.243651	194.2	19.6	-78.5	0.0
2025-01-21 07:58:10.489361	194.2	19.3	-78.1	0.0
2025-01-21 07:58:12.737902	194.3	19.0	-77.7	0.0
2025-01-21 07:58:14.985924	194.3	18.7	-78.1	0.0
2025-01-21 07:58:17.232964	194.4	18.5	-78.1	0.0
2025-01-21 07:58:19.479727	194.4	18.2	-78.6	0.0
2025-01-21 07:58:21.730426	194.4	17.9	-78.4	0.0
2025-01-21 07:58:23.977811	194.5	17.7	-78.3	0.0
2025-01-21 07:58:26.223957	194.5	17.4	-78.5	0.0
2025-01-21 07:58:28.471009	194.6	17.1	-77.9	0.0
2025-01-21 07:58:30.716823	194.6	16.9	-78.0	0.0
2025-01-21 07:58:32.964696	194.6	16.6	-77.7	0.0
2025-01-21 07:58:35.212915	194.7	16.4	-78.1	0.0
2025-01-21 07:58:37.457936	194.7	16.1	-78.1	0.0
2025-01-21 07:58:39.704594	194.7	15.9	-78.0	0.0
2025-01-21 07:58:41.952139	194.8	15.6	-77.6	0.0
2025-01-21 07:58:44.197746	194.8	15.4	-77.9	0.0
2025-01-21 07:58:46.446105	194.8	15.2	-78.1	0.0
2025-01-21 07:58:48.692803	194.9	14.9	-77.9	0.0
2025-01-21 07:58:50.943329	194.9	14.7	-77.9	0.0
2025-01-21 07:58:53.191843	194.9	14.5	-77.7	0.0
2025-01-21 07:58:55.438924	195.0	14.2	-77.7	0.0
2025-01-21 07:58:57.685438	195.0	14.0	-77.9	0.0
2025-01-21 07:58:59.929846	195.0	13.8	-78.2	0.0
2025-01-21 07:59:02.174952	195.1	13.5	-77.7	0.0
2025-01-21 07:59:04.423396	195.1	13.3	-77.5	0.0
2025-01-21 07:59:06.669867	195.1	13.1	-77.7	0.0
2025-01-21 07:59:08.915575	195.1	12.9	-77.5	0.0
2025-01-21 07:59:11.161844	195.2	12.7	-76.8	0.0
2025-01-21 07:59:13.411165	195.2	12.5	-76.9	0.0
2025-01-21 07:59:15.655602	195.2	12.2	-77.5	0.0
2025-01-21 07:59:17.903499	195.3	12.0	-77.6	0.0
2025-01-21 07:59:20.150113	195.3	11.8	-76.8	0.0
2025-01-21 07:59:22.396770	195.3	11.6	-76.8	0.0
2025-01-21 07:59:24.643912	195.3	11.4	-77.3	0.0
2025-01-21 07:59:26.892740	195.4	11.2	-77.1	0.0
2025-01-21 07:59:29.136305	195.4	11.0	-77.7	0.0
2025-01-21 07:59:31.382683	195.4	10.8	-80.1	0.0
2025-01-21 07:59:33.628732	195.4	10.6	-80.8	0.0
2025-01-21 07:59:35.873154	195.5	10.4	-81.4	0.0
2025-01-21 07:59:38.118225	195.5	10.2	-81.2	0.0
2025-01-21 07:59:40.368263	195.5	10.0	-81.4	0.0
#Closed at: 2025-01-21 07:48:32.715306