passes_logs/2025/01/21/planumMaritime01/planumMaritime01__20250121_180628_NOAA_18_rec.log

#Pass ID: 20250121_180628_NOAA 18
#Satellite: NOAA 18
#Configuration: NOAA 18
#Start time: 2025-01-21 18:06:33.135428

#LorettStation: 1.0.0 05.05.2024
#Station: planumMaritime01
#Location: 37.49445 lon 55.92918 lat
#TLE: 1 28654U 05018A   25021.17963601  .00000484  00000+0  28040-3 0  9994
#TLE: 2 28654  98.8557 102.1724 0014626 162.0619 198.1073 14.13492794 14053

#Time	Az	El	Level	SNR
2025-01-21 18:06:35.303875	119.3	10.2	-67.5	0.0
2025-01-21 18:06:37.551564	119.1	10.3	-68.4	0.0
2025-01-21 18:06:39.796344	118.9	10.5	-67.6	0.0
2025-01-21 18:06:42.044482	118.8	10.7	-69.4	0.0
2025-01-21 18:06:44.288768	118.6	10.9	-69.1	0.0
2025-01-21 18:06:46.537732	118.4	11.0	-68.6	0.0
2025-01-21 18:06:48.782195	118.2	11.2	-69.3	0.0
2025-01-21 18:06:51.029345	118.0	11.4	-70.0	0.0
2025-01-21 18:06:53.273902	117.8	11.6	-68.4	0.0
2025-01-21 18:06:55.519967	117.6	11.8	-70.2	0.0
2025-01-21 18:06:57.765860	117.4	11.9	-70.5	0.0
2025-01-21 18:07:00.015378	117.2	12.1	-73.0	0.0
2025-01-21 18:07:02.260293	117.0	12.3	-69.4	0.0
2025-01-21 18:07:04.506348	116.8	12.5	-69.5	0.0
2025-01-21 18:07:06.752774	116.5	12.7	-72.2	0.0
2025-01-21 18:07:09.000731	116.3	12.9	-70.3	0.0
2025-01-21 18:07:11.244588	116.1	13.1	-71.5	0.0
2025-01-21 18:07:13.493467	115.9	13.2	-69.7	0.0
2025-01-21 18:07:15.739520	115.7	13.4	-69.6	0.0
2025-01-21 18:07:17.988324	115.4	13.6	-72.2	0.0
2025-01-21 18:07:20.239308	115.2	13.8	-69.4	0.0
2025-01-21 18:07:22.486014	115.0	14.0	-70.7	0.0
2025-01-21 18:07:24.730157	114.7	14.2	-69.8	0.0
2025-01-21 18:07:26.976612	114.5	14.4	-69.0	0.0
2025-01-21 18:07:29.223472	114.2	14.6	-67.8	0.0
2025-01-21 18:07:31.471642	114.0	14.8	-68.1	0.0
2025-01-21 18:07:33.717259	113.7	15.0	-71.0	0.0
2025-01-21 18:07:35.961308	113.5	15.2	-69.7	0.0
2025-01-21 18:07:38.206542	113.2	15.4	-66.9	0.0
2025-01-21 18:07:40.450360	113.0	15.6	-69.9	0.0
2025-01-21 18:07:42.695414	112.7	15.8	-71.2	0.0
2025-01-21 18:07:44.942642	112.4	16.0	-70.2	0.0
2025-01-21 18:07:47.188600	112.1	16.2	-67.1	0.0
2025-01-21 18:07:49.433219	111.9	16.4	-71.4	0.0
2025-01-21 18:07:51.679681	111.6	16.6	-70.2	0.0
2025-01-21 18:07:53.926488	111.3	16.8	-70.4	0.0
2025-01-21 18:07:56.171623	111.0	17.0	-71.0	0.0
2025-01-21 18:07:58.419487	110.7	17.2	-70.2	0.0
2025-01-21 18:08:00.665182	110.4	17.4	-69.4	0.0
2025-01-21 18:08:02.912949	110.1	17.7	-72.2	0.0
2025-01-21 18:08:05.158808	109.8	17.9	-71.4	0.0
2025-01-21 18:08:07.403332	109.5	18.1	-71.6	0.0
2025-01-21 18:08:09.649027	109.2	18.3	-70.9	0.0
2025-01-21 18:08:11.896677	108.9	18.5	-69.6	0.0
2025-01-21 18:08:14.142668	108.6	18.7	-70.1	0.0
2025-01-21 18:08:16.389198	108.2	18.9	-68.5	0.0
2025-01-21 18:08:18.635717	107.9	19.2	-70.7	0.0
2025-01-21 18:08:20.881914	107.6	19.4	-70.0	0.0
2025-01-21 18:08:23.127376	107.2	19.6	-68.4	0.0
2025-01-21 18:08:25.373541	106.9	19.8	-70.9	0.0
2025-01-21 18:08:27.622295	106.5	20.0	-70.9	0.0
2025-01-21 18:08:29.871480	106.2	20.3	-69.0	0.0
2025-01-21 18:08:32.120544	105.8	20.5	-71.7	0.0
2025-01-21 18:08:34.368184	105.4	20.7	-69.7	0.0
2025-01-21 18:08:36.613413	105.1	20.9	-70.3	0.0
2025-01-21 18:08:38.858917	104.7	21.2	-69.6	0.0
2025-01-21 18:08:41.104372	104.3	21.4	-68.2	0.0
2025-01-21 18:08:43.348811	103.9	21.6	-71.6	0.0
2025-01-21 18:08:45.593831	103.5	21.8	-73.3	0.0
2025-01-21 18:08:47.840760	103.1	22.1	-70.9	0.0
2025-01-21 18:08:50.085445	102.7	22.3	-69.5	0.0
2025-01-21 18:08:52.330227	102.3	22.5	-69.8	0.0
2025-01-21 18:08:54.577482	101.9	22.7	-68.6	0.0
2025-01-21 18:08:56.826681	101.4	23.0	-68.4	0.0
2025-01-21 18:08:59.073357	101.0	23.2	-69.2	0.0
2025-01-21 18:09:01.319860	100.6	23.4	-71.5	0.0
2025-01-21 18:09:03.566756	100.1	23.7	-71.4	0.0
2025-01-21 18:09:05.814609	99.7	23.9	-71.4	0.0
2025-01-21 18:09:08.062545	99.2	24.1	-71.1	0.0
2025-01-21 18:09:10.309629	98.7	24.3	-71.0	0.0
2025-01-21 18:09:12.559253	98.3	24.6	-71.1	0.0
2025-01-21 18:09:14.807360	97.8	24.8	-71.5	0.0
2025-01-21 18:09:17.052488	97.3	25.0	-70.4	0.0
2025-01-21 18:09:19.301890	96.8	25.3	-70.5	0.0
2025-01-21 18:09:21.547784	96.3	25.5	-69.7	0.0
2025-01-21 18:09:23.791865	95.8	25.7	-69.5	0.0
2025-01-21 18:09:26.037421	95.3	25.9	-65.7	0.0
2025-01-21 18:09:28.282523	94.8	26.2	-68.8	0.0
2025-01-21 18:09:30.528369	94.2	26.4	-69.5	0.0
2025-01-21 18:09:32.772695	93.7	26.6	-67.2	0.0
2025-01-21 18:09:35.019252	93.2	26.8	-67.4	0.0
2025-01-21 18:09:37.264630	92.6	27.1	-66.9	0.0
2025-01-21 18:09:39.510851	92.0	27.3	-72.1	0.0
2025-01-21 18:09:41.756107	91.5	27.5	-71.8	0.0
2025-01-21 18:09:44.002690	90.9	27.7	-72.0	0.0
2025-01-21 18:09:46.248126	90.3	27.9	-71.6	0.0
2025-01-21 18:09:48.493603	89.7	28.1	-71.0	0.0
2025-01-21 18:09:50.738372	89.1	28.4	-68.8	0.0
2025-01-21 18:09:52.982771	88.5	28.6	-71.0	0.0
2025-01-21 18:09:55.229476	87.9	28.8	-73.2	0.0
2025-01-21 18:09:57.475898	87.3	29.0	-72.3	0.0
2025-01-21 18:09:59.722457	86.6	29.2	-72.3	0.0
2025-01-21 18:10:01.967787	86.0	29.4	-73.0	0.0
2025-01-21 18:10:04.212427	85.4	29.6	-73.0	0.0
2025-01-21 18:10:06.457595	84.7	29.8	-73.3	0.0
2025-01-21 18:10:08.706707	84.0	30.0	-72.8	0.0
2025-01-21 18:10:10.951949	83.4	30.2	-73.0	0.0
2025-01-21 18:10:13.197782	82.7	30.4	-73.0	0.0
2025-01-21 18:10:15.442651	82.0	30.5	-73.6	0.0
2025-01-21 18:10:17.691544	81.3	30.7	-73.7	0.0
2025-01-21 18:10:19.939745	80.6	30.9	-73.0	0.0
2025-01-21 18:10:22.187302	79.9	31.1	-73.7	0.0
2025-01-21 18:10:24.432686	79.2	31.2	-73.1	0.0
2025-01-21 18:10:26.678601	78.5	31.4	-72.0	0.0
2025-01-21 18:10:28.927417	77.7	31.6	-72.1	0.0
2025-01-21 18:10:31.173669	77.0	31.7	-73.0	0.0
2025-01-21 18:10:33.418530	76.2	31.9	-71.5	0.0
2025-01-21 18:10:35.667211	75.5	32.0	-72.5	0.0
2025-01-21 18:10:37.912391	74.7	32.1	-73.0	0.0
2025-01-21 18:10:40.161085	74.0	32.3	-72.2	0.0
2025-01-21 18:10:42.409103	73.2	32.4	-72.3	0.0
2025-01-21 18:10:44.654898	72.4	32.5	-68.9	0.0
2025-01-21 18:10:46.903643	71.6	32.7	-71.9	0.0
2025-01-21 18:10:49.148898	70.8	32.8	-71.3	0.0
2025-01-21 18:10:51.395736	70.0	32.9	-71.6	0.0
2025-01-21 18:10:53.644788	69.2	33.0	-70.2	0.0
2025-01-21 18:10:55.894971	68.4	33.1	-71.0	0.0
2025-01-21 18:10:58.138685	67.6	33.2	-71.8	0.0
2025-01-21 18:11:00.382406	66.8	33.2	-71.4	0.0
2025-01-21 18:11:02.630808	66.0	33.3	-71.1	0.0
2025-01-21 18:11:04.877941	65.2	33.4	-70.5	0.0
2025-01-21 18:11:07.125455	64.3	33.5	-70.5	0.0
2025-01-21 18:11:09.371496	63.5	33.5	-69.9	0.0
2025-01-21 18:11:11.617127	62.7	33.6	-69.6	0.0
2025-01-21 18:11:13.862521	61.8	33.6	-70.0	0.0
2025-01-21 18:11:16.107223	61.0	33.6	-70.1	0.0
2025-01-21 18:11:18.354308	60.2	33.7	-66.1	0.0
2025-01-21 18:11:20.597051	59.3	33.7	-67.2	0.0
2025-01-21 18:11:22.844610	58.5	33.7	-66.2	0.0
2025-01-21 18:11:25.092377	57.6	33.7	-70.3	0.0
2025-01-21 18:11:27.338396	56.8	33.7	-70.2	0.0
2025-01-21 18:11:29.586624	56.0	33.7	-68.2	0.0
2025-01-21 18:11:31.833754	55.1	33.7	-69.8	0.0
2025-01-21 18:11:34.078956	54.3	33.7	-69.2	0.0
2025-01-21 18:11:36.326541	53.4	33.6	-69.5	0.0
2025-01-21 18:11:38.574423	52.6	33.6	-70.2	0.0
2025-01-21 18:11:40.821415	51.8	33.6	-69.6	0.0
2025-01-21 18:11:43.066894	50.9	33.5	-69.5	0.0
2025-01-21 18:11:45.313605	50.1	33.5	-69.5	0.0
2025-01-21 18:11:47.560886	49.3	33.4	-69.0	0.0
2025-01-21 18:11:49.807898	48.5	33.3	-69.0	0.0
2025-01-21 18:11:52.056032	47.6	33.3	-69.2	0.0
2025-01-21 18:11:54.301218	46.8	33.2	-68.0	0.0
2025-01-21 18:11:56.547543	46.0	33.1	-69.3	0.0
2025-01-21 18:11:58.795618	45.2	33.0	-69.2	0.0
2025-01-21 18:12:01.040765	44.4	32.9	-69.8	0.0
2025-01-21 18:12:03.288804	43.6	32.8	-68.9	0.0
2025-01-21 18:12:05.534148	42.8	32.7	-68.5	0.0
2025-01-21 18:12:07.779792	42.0	32.6	-69.2	0.0
2025-01-21 18:12:10.027276	41.2	32.4	-68.7	0.0
2025-01-21 18:12:12.276489	40.5	32.3	-67.8	0.0
2025-01-21 18:12:14.523786	39.7	32.2	-68.9	0.0
2025-01-21 18:12:16.771527	38.9	32.0	-66.3	0.0
2025-01-21 18:12:19.017833	38.2	31.9	-67.9	0.0
2025-01-21 18:12:21.263173	37.4	31.8	-66.9	0.0
2025-01-21 18:12:23.511363	36.7	31.6	-66.9	0.0
2025-01-21 18:12:25.756868	35.9	31.4	-67.6	0.0
2025-01-21 18:12:28.004476	35.2	31.3	-67.2	0.0
2025-01-21 18:12:30.249819	34.5	31.1	-68.7	0.0
2025-01-21 18:12:32.493576	33.8	30.9	-67.8	0.0
2025-01-21 18:12:34.743290	33.1	30.8	-65.2	0.0
2025-01-21 18:12:36.991304	32.4	30.6	-67.0	0.0
2025-01-21 18:12:39.235372	31.7	30.4	-66.1	0.0
2025-01-21 18:12:41.485363	31.0	30.2	-68.7	0.0
2025-01-21 18:12:43.731247	30.3	30.0	-64.8	0.0
2025-01-21 18:12:45.977670	29.7	29.8	-64.5	0.0
2025-01-21 18:12:48.225957	29.0	29.6	-69.1	0.0
2025-01-21 18:12:50.470667	28.4	29.4	-62.1	0.0
2025-01-21 18:12:52.715000	27.7	29.2	-67.2	0.0
2025-01-21 18:12:54.960827	27.1	29.0	-64.5	0.0
2025-01-21 18:12:57.205993	26.5	28.8	-69.2	0.0
2025-01-21 18:12:59.452447	25.8	28.6	-64.4	0.0
2025-01-21 18:13:01.699677	25.2	28.4	-68.8	0.0
2025-01-21 18:13:03.946354	24.6	28.2	-69.2	0.0
2025-01-21 18:13:06.191601	24.0	28.0	-69.0	0.0
2025-01-21 18:13:08.443350	23.5	27.8	-66.0	0.0
2025-01-21 18:13:10.692081	22.9	27.6	-63.3	0.0
2025-01-21 18:13:12.938264	22.3	27.3	-66.1	0.0
2025-01-21 18:13:15.181998	21.7	27.1	-62.9	0.0
2025-01-21 18:13:17.428987	21.2	26.9	-67.0	0.0
2025-01-21 18:13:19.677200	20.6	26.7	-62.7	0.0
2025-01-21 18:13:21.923906	20.1	26.5	-65.6	0.0
2025-01-21 18:13:24.173416	19.6	26.2	-65.5	0.0
2025-01-21 18:13:26.421355	19.0	26.0	-66.5	0.0
2025-01-21 18:13:28.668493	18.5	25.8	-66.4	0.0
2025-01-21 18:13:30.915271	18.0	25.5	-64.6	0.0
2025-01-21 18:13:33.160311	17.5	25.3	-65.9	0.0
2025-01-21 18:13:35.406269	17.0	25.1	-66.7	0.0
2025-01-21 18:13:37.653574	16.5	24.9	-65.7	0.0
2025-01-21 18:13:39.900092	16.1	24.6	-65.0	0.0
2025-01-21 18:13:42.145090	15.6	24.4	-65.5	0.0
2025-01-21 18:13:44.391945	15.1	24.2	-64.3	0.0
2025-01-21 18:13:46.638409	14.7	24.0	-65.3	0.0
2025-01-21 18:13:48.886047	14.2	23.7	-64.8	0.0
2025-01-21 18:13:51.134219	13.8	23.5	-64.1	0.0
2025-01-21 18:13:53.381440	13.3	23.3	-64.2	0.0
2025-01-21 18:13:55.626607	12.9	23.0	-63.8	0.0
2025-01-21 18:13:57.872705	12.5	22.8	-65.4	0.0
2025-01-21 18:14:00.117962	12.0	22.6	-63.6	0.0
2025-01-21 18:14:02.364148	11.6	22.4	-64.7	0.0
2025-01-21 18:14:04.611120	11.2	22.1	-64.4	0.0
2025-01-21 18:14:06.856027	10.8	21.9	-63.5	0.0
2025-01-21 18:14:09.103626	10.4	21.7	-65.5	0.0
2025-01-21 18:14:11.350218	10.0	21.4	-63.9	0.0
2025-01-21 18:14:13.597354	9.6	21.2	-65.7	0.0
2025-01-21 18:14:15.839376	9.3	21.0	-64.6	0.0
2025-01-21 18:14:18.083502	8.9	20.8	-65.9	0.0
2025-01-21 18:14:20.329613	8.5	20.5	-64.5	0.0
2025-01-21 18:14:22.577287	8.2	20.3	-64.0	0.0
2025-01-21 18:14:24.824078	7.8	20.1	-65.1	0.0
2025-01-21 18:14:27.070409	7.4	19.9	-64.0	0.0
2025-01-21 18:14:29.319454	7.1	19.7	-64.9	0.0
2025-01-21 18:14:31.567491	6.8	19.4	-65.2	0.0
2025-01-21 18:14:33.815085	6.4	19.2	-67.2	0.0
2025-01-21 18:14:36.060681	6.1	19.0	-65.3	0.0
2025-01-21 18:14:38.305693	5.8	18.8	-64.9	0.0
2025-01-21 18:14:40.552899	5.4	18.6	-66.8	0.0
2025-01-21 18:14:42.798598	5.1	18.4	-67.1	0.0
2025-01-21 18:14:45.044238	4.8	18.1	-64.9	0.0
2025-01-21 18:14:47.291206	4.5	17.9	-65.2	0.0
2025-01-21 18:14:49.535696	4.2	17.7	-64.9	0.0
2025-01-21 18:14:51.779955	3.9	17.5	-64.4	0.0
2025-01-21 18:14:54.024886	3.6	17.3	-65.9	0.0
2025-01-21 18:14:56.271019	3.3	17.1	-65.5	0.0
2025-01-21 18:14:58.519973	3.0	16.9	-67.6	0.0
2025-01-21 18:15:00.763679	2.7	16.7	-67.2	0.0
2025-01-21 18:15:03.011497	2.4	16.5	-66.2	0.0
2025-01-21 18:15:05.256688	2.2	16.3	-68.3	0.0
2025-01-21 18:15:07.501950	1.9	16.0	-66.2	0.0
2025-01-21 18:15:09.746581	1.6	15.8	-68.1	0.0
2025-01-21 18:15:11.993475	1.4	15.6	-67.2	0.0
2025-01-21 18:15:14.241065	1.1	15.4	-69.1	0.0
2025-01-21 18:15:16.490332	0.8	15.2	-66.6	0.0
2025-01-21 18:15:18.736584	0.6	15.0	-67.6	0.0
2025-01-21 18:15:20.984288	0.3	14.8	-68.1	0.0
2025-01-21 18:15:23.230190	0.1	14.6	-68.4	0.0
2025-01-21 18:15:25.476593	359.8	14.4	-67.4	0.0
2025-01-21 18:15:27.725643	359.6	14.3	-69.0	0.0
2025-01-21 18:15:29.971117	359.4	14.1	-66.2	0.0
2025-01-21 18:15:32.218579	359.1	13.9	-68.6	0.0
2025-01-21 18:15:34.464490	358.9	13.7	-69.8	0.0
2025-01-21 18:15:36.711907	358.7	13.5	-70.2	0.0
2025-01-21 18:15:38.960500	358.4	13.3	-69.8	0.0
2025-01-21 18:15:41.208955	358.2	13.1	-69.6	0.0
2025-01-21 18:15:43.454707	358.0	12.9	-69.0	0.0
2025-01-21 18:15:45.701560	357.8	12.7	-68.3	0.0
2025-01-21 18:15:47.947887	357.6	12.5	-66.3	0.0
2025-01-21 18:15:50.192821	357.3	12.4	-65.5	0.0
2025-01-21 18:15:52.438295	357.1	12.2	-67.6	0.0
2025-01-21 18:15:54.682149	356.9	12.0	-68.2	0.0
2025-01-21 18:15:56.928387	356.7	11.8	-66.9	0.0
2025-01-21 18:15:59.175067	356.5	11.6	-68.1	0.0
2025-01-21 18:16:01.423304	356.3	11.4	-66.2	0.0
2025-01-21 18:16:03.666590	356.1	11.3	-65.5	0.0
2025-01-21 18:16:05.915274	355.9	11.1	-66.9	0.0
2025-01-21 18:16:08.162197	355.8	10.9	-70.0	0.0
2025-01-21 18:16:10.411459	355.6	10.7	-73.4	0.0
2025-01-21 18:16:12.656215	355.4	10.6	-77.9	0.0
2025-01-21 18:16:14.902010	355.2	10.4	-79.3	0.0
2025-01-21 18:16:17.144930	355.0	10.2	-79.6	0.0
#Closed at: 2025-01-21 18:06:28.137991