passes_logs/2025/01/21/planumMaritime01/planumMaritime01__20250121_022041_METEOR-M2_4_rec.log

#Pass ID: 20250121_022041_METEOR-M2 4
#Satellite: METEOR-M2 4
#Configuration: METEOR-M2 4
#Start time: 2025-01-21 02:20:46.870729

#LorettStation: 1.0.0 05.05.2024
#Station: planumMaritime01
#Location: 37.49445 lon 55.92918 lat
#TLE: 1 59051U 24039A   25020.16329171  .00000140  00000+0  82464-4 0  9999
#TLE: 2 59051  98.6302 343.0648 0006415 208.0987 151.9846 14.22326811 46338

#Time	Az	El	Level	SNR
2025-01-21 02:20:49.034557	4.0	10.2	-76.1	0.0
2025-01-21 02:20:51.283665	3.8	10.3	-76.5	0.0
2025-01-21 02:20:53.531928	3.6	10.5	-73.4	0.0
2025-01-21 02:20:55.778399	3.4	10.7	-76.6	0.0
2025-01-21 02:20:58.027031	3.2	10.9	-73.1	0.0
2025-01-21 02:21:00.275423	3.0	11.0	-75.7	0.0
2025-01-21 02:21:02.522946	2.8	11.2	-75.9	0.0
2025-01-21 02:21:04.768969	2.6	11.4	-76.0	0.0
2025-01-21 02:21:07.014215	2.4	11.6	-73.2	0.0
2025-01-21 02:21:09.261191	2.2	11.8	-73.6	0.0
2025-01-21 02:21:11.508809	2.0	12.0	-75.0	0.0
2025-01-21 02:21:13.756095	1.8	12.1	-74.8	0.0
2025-01-21 02:21:16.002588	1.5	12.3	-75.7	0.0
2025-01-21 02:21:18.249141	1.3	12.5	-74.8	0.0
2025-01-21 02:21:20.492374	1.1	12.7	-75.1	0.0
2025-01-21 02:21:22.738597	0.9	12.9	-74.1	0.0
2025-01-21 02:21:24.985150	0.6	13.1	-74.0	0.0
2025-01-21 02:21:27.233510	0.4	13.3	-74.3	0.0
2025-01-21 02:21:29.479002	0.2	13.5	-74.3	0.0
2025-01-21 02:21:31.723920	359.9	13.6	-73.9	0.0
2025-01-21 02:21:33.972409	359.7	13.8	-72.8	0.0
2025-01-21 02:21:36.216962	359.4	14.0	-72.3	0.0
2025-01-21 02:21:38.463929	359.2	14.2	-72.0	0.0
2025-01-21 02:21:40.711309	358.9	14.4	-72.7	0.0
2025-01-21 02:21:42.959537	358.7	14.6	-72.3	0.0
2025-01-21 02:21:45.207987	358.4	14.8	-73.1	0.0
2025-01-21 02:21:47.453698	358.2	15.0	-72.5	0.0
2025-01-21 02:21:49.698694	357.9	15.2	-72.9	0.0
2025-01-21 02:21:51.945894	357.6	15.4	-73.4	0.0
2025-01-21 02:21:54.189572	357.3	15.6	-73.2	0.0
2025-01-21 02:21:56.436566	357.1	15.8	-73.6	0.0
2025-01-21 02:21:58.685326	356.8	16.0	-73.8	0.0
2025-01-21 02:22:00.933909	356.5	16.2	-74.9	0.0
2025-01-21 02:22:03.179850	356.2	16.4	-74.5	0.0
2025-01-21 02:22:05.424929	355.9	16.6	-74.7	0.0
2025-01-21 02:22:07.669830	355.6	16.8	-74.5	0.0
2025-01-21 02:22:09.915655	355.3	17.1	-75.2	0.0
2025-01-21 02:22:12.161303	355.0	17.3	-75.2	0.0
2025-01-21 02:22:14.405501	354.7	17.5	-74.4	0.0
2025-01-21 02:22:16.650711	354.4	17.7	-75.7	0.0
2025-01-21 02:22:18.895011	354.1	17.9	-75.8	0.0
2025-01-21 02:22:21.141245	353.7	18.1	-76.2	0.0
2025-01-21 02:22:23.387062	353.4	18.3	-75.6	0.0
2025-01-21 02:22:25.633600	353.1	18.5	-76.6	0.0
2025-01-21 02:22:27.880157	352.7	18.8	-77.5	0.0
2025-01-21 02:22:30.125792	352.4	19.0	-77.5	0.0
2025-01-21 02:22:32.373783	352.0	19.2	-77.7	0.0
2025-01-21 02:22:34.620121	351.7	19.4	-77.9	0.0
2025-01-21 02:22:36.868918	351.3	19.6	-77.8	0.0
2025-01-21 02:22:39.114000	350.9	19.9	-77.8	0.0
2025-01-21 02:22:41.358533	350.6	20.1	-77.1	0.0
2025-01-21 02:22:43.604874	350.2	20.3	-75.8	0.0
2025-01-21 02:22:45.852833	349.8	20.5	-76.5	0.0
2025-01-21 02:22:48.097503	349.4	20.7	-76.3	0.0
2025-01-21 02:22:50.341353	349.0	21.0	-77.0	0.0
2025-01-21 02:22:52.586947	348.6	21.2	-77.0	0.0
2025-01-21 02:22:54.835427	348.2	21.4	-77.6	0.0
2025-01-21 02:22:57.082033	347.8	21.6	-77.5	0.0
2025-01-21 02:22:59.325667	347.4	21.9	-77.4	0.0
2025-01-21 02:23:01.573989	347.0	22.1	-77.7	0.0
2025-01-21 02:23:03.817191	346.5	22.3	-77.7	0.0
2025-01-21 02:23:06.062424	346.1	22.5	-78.0	0.0
2025-01-21 02:23:08.308172	345.6	22.8	-77.8	0.0
2025-01-21 02:23:10.553268	345.2	23.0	-77.9	0.0
2025-01-21 02:23:12.800299	344.7	23.2	-77.4	0.0
2025-01-21 02:23:15.045451	344.3	23.4	-77.8	0.0
2025-01-21 02:23:17.289322	343.8	23.7	-77.4	0.0
2025-01-21 02:23:19.532995	343.3	23.9	-77.4	0.0
2025-01-21 02:23:21.780979	342.8	24.1	-75.9	0.0
2025-01-21 02:23:24.028566	342.3	24.4	-77.1	0.0
2025-01-21 02:23:26.274808	341.8	24.6	-77.3	0.0
2025-01-21 02:23:28.522387	341.3	24.8	-77.6	0.0
2025-01-21 02:23:30.767638	340.8	25.0	-78.1	0.0
2025-01-21 02:23:33.013655	340.3	25.3	-78.0	0.0
2025-01-21 02:23:35.257353	339.8	25.5	-78.0	0.0
2025-01-21 02:23:37.503644	339.2	25.7	-77.7	0.0
2025-01-21 02:23:39.748931	338.7	25.9	-78.6	0.0
2025-01-21 02:23:41.995236	338.1	26.1	-78.7	0.0
2025-01-21 02:23:44.242186	337.6	26.4	-78.5	0.0
2025-01-21 02:23:46.490912	337.0	26.6	-79.0	0.0
2025-01-21 02:23:48.738243	336.4	26.8	-79.3	0.0
2025-01-21 02:23:50.985129	335.8	27.0	-79.6	0.0
2025-01-21 02:23:53.231682	335.3	27.2	-79.8	0.0
2025-01-21 02:23:55.476382	334.7	27.4	-79.9	0.0
2025-01-21 02:23:57.722268	334.0	27.6	-79.6	0.0
2025-01-21 02:23:59.969855	333.4	27.8	-79.4	0.0
2025-01-21 02:24:02.213437	332.8	28.1	-80.2	0.0
2025-01-21 02:24:04.459767	332.2	28.3	-80.4	0.0
2025-01-21 02:24:06.705864	331.5	28.5	-80.3	0.0
2025-01-21 02:24:08.952228	330.9	28.7	-78.8	0.0
2025-01-21 02:24:11.198323	330.2	28.9	-78.6	0.0
2025-01-21 02:24:13.447267	329.6	29.0	-79.0	0.0
2025-01-21 02:24:15.694412	328.9	29.2	-79.1	0.0
2025-01-21 02:24:17.941184	328.2	29.4	-79.6	0.0
2025-01-21 02:24:20.186324	327.5	29.6	-79.4	0.0
2025-01-21 02:24:22.431904	326.8	29.8	-79.3	0.0
2025-01-21 02:24:24.677146	326.1	30.0	-79.4	0.0
2025-01-21 02:24:26.923217	325.4	30.1	-79.3	0.0
2025-01-21 02:24:29.172483	324.7	30.3	-79.4	0.0
2025-01-21 02:24:31.413615	323.9	30.5	-79.2	0.0
2025-01-21 02:24:33.658563	323.2	30.6	-79.3	0.0
2025-01-21 02:24:35.905076	322.5	30.8	-79.2	0.1
2025-01-21 02:24:38.149042	321.7	30.9	-79.1	0.6
2025-01-21 02:24:40.393922	321.0	31.1	-78.0	0.0
2025-01-21 02:24:42.640799	320.2	31.2	-79.0	0.0
2025-01-21 02:24:44.883549	319.4	31.3	-79.0	0.0
2025-01-21 02:24:47.128375	318.6	31.5	-79.1	0.0
2025-01-21 02:24:49.372656	317.9	31.6	-78.6	0.0
2025-01-21 02:24:51.620128	317.1	31.7	-79.5	0.0
2025-01-21 02:24:53.868927	316.3	31.8	-79.1	0.0
2025-01-21 02:24:56.116108	315.5	31.9	-79.6	0.0
2025-01-21 02:24:58.362124	314.7	32.0	-79.8	0.0
2025-01-21 02:25:00.608319	313.9	32.1	-79.5	0.0
2025-01-21 02:25:02.853008	313.0	32.2	-79.7	0.0
2025-01-21 02:25:05.099642	312.2	32.3	-79.9	0.0
2025-01-21 02:25:07.346039	311.4	32.4	-80.0	0.0
2025-01-21 02:25:09.591977	310.6	32.4	-79.8	0.0
2025-01-21 02:25:11.834708	309.7	32.5	-80.0	0.0
2025-01-21 02:25:14.083075	308.9	32.6	-79.7	0.0
2025-01-21 02:25:16.327470	308.1	32.6	-79.8	0.0
2025-01-21 02:25:18.575124	307.2	32.7	-80.0	0.0
2025-01-21 02:25:20.819857	306.4	32.7	-80.0	0.0
2025-01-21 02:25:23.066440	305.5	32.7	-80.2	0.0
2025-01-21 02:25:25.313318	304.7	32.7	-80.4	0.0
2025-01-21 02:25:27.558788	303.8	32.8	-80.2	0.0
2025-01-21 02:25:29.803153	303.0	32.8	-80.2	0.3
2025-01-21 02:25:32.048947	302.2	32.8	-80.2	0.0
2025-01-21 02:25:34.291361	301.3	32.8	-80.3	0.0
2025-01-21 02:25:36.536248	300.5	32.7	-80.2	0.0
2025-01-21 02:25:38.778970	299.6	32.7	-80.0	0.0
2025-01-21 02:25:41.024592	298.8	32.7	-80.2	0.0
2025-01-21 02:25:43.271882	297.9	32.7	-80.0	0.0
2025-01-21 02:25:45.516675	297.1	32.6	-80.3	0.0
2025-01-21 02:25:47.758460	296.3	32.6	-80.2	0.0
2025-01-21 02:25:50.006913	295.4	32.5	-80.2	0.0
2025-01-21 02:25:52.253423	294.6	32.4	-80.2	0.0
2025-01-21 02:25:54.502432	293.8	32.4	-80.1	0.0
2025-01-21 02:25:56.747394	292.9	32.3	-80.3	0.0
2025-01-21 02:25:58.995203	292.1	32.2	-80.1	0.0
2025-01-21 02:26:01.243826	291.3	32.1	-78.6	0.0
2025-01-21 02:26:03.490297	290.5	32.0	-80.0	0.0
2025-01-21 02:26:05.738258	289.7	31.9	-79.9	0.0
2025-01-21 02:26:07.984952	288.9	31.8	-79.4	0.0
2025-01-21 02:26:10.230646	288.1	31.7	-79.5	0.0
2025-01-21 02:26:12.478012	287.3	31.6	-79.7	0.0
2025-01-21 02:26:14.723999	286.5	31.5	-79.4	0.0
2025-01-21 02:26:16.968847	285.7	31.3	-79.6	0.0
2025-01-21 02:26:19.216578	284.9	31.2	-80.0	0.0
2025-01-21 02:26:21.464501	284.2	31.1	-79.5	0.0
2025-01-21 02:26:23.712029	283.4	30.9	-79.8	0.0
2025-01-21 02:26:25.957234	282.6	30.8	-79.9	0.0
2025-01-21 02:26:28.200718	281.9	30.6	-79.8	0.0
2025-01-21 02:26:30.444751	281.2	30.5	-79.8	0.0
2025-01-21 02:26:32.691178	280.4	30.3	-79.7	0.0
2025-01-21 02:26:34.938763	279.7	30.1	-79.7	0.0
2025-01-21 02:26:37.185358	279.0	30.0	-79.6	0.0
2025-01-21 02:26:39.429912	278.3	29.8	-79.9	0.0
2025-01-21 02:26:41.677668	277.6	29.6	-79.8	0.0
2025-01-21 02:26:43.921957	276.9	29.4	-80.0	0.0
2025-01-21 02:26:46.171512	276.2	29.2	-80.4	0.0
2025-01-21 02:26:48.414724	275.5	29.0	-80.4	0.0
2025-01-21 02:26:50.659491	274.9	28.8	-80.8	0.0
2025-01-21 02:26:52.903928	274.2	28.6	-80.8	0.0
2025-01-21 02:26:55.148273	273.5	28.4	-80.7	0.0
2025-01-21 02:26:57.395054	272.9	28.2	-80.6	0.0
2025-01-21 02:26:59.642045	272.3	28.0	-80.5	0.0
2025-01-21 02:27:01.888183	271.6	27.8	-80.6	0.0
2025-01-21 02:27:04.132502	271.0	27.6	-80.4	0.0
2025-01-21 02:27:06.376817	270.4	27.4	-80.6	0.0
2025-01-21 02:27:08.625765	269.8	27.2	-80.3	0.0
2025-01-21 02:27:10.872948	269.2	27.0	-80.4	0.0
2025-01-21 02:27:13.120445	268.6	26.8	-80.1	0.0
2025-01-21 02:27:15.365976	268.0	26.6	-80.2	0.0
2025-01-21 02:27:17.612026	267.5	26.3	-80.3	0.0
2025-01-21 02:27:19.855378	266.9	26.1	-80.4	0.0
2025-01-21 02:27:22.103668	266.3	25.9	-80.5	0.0
2025-01-21 02:27:24.351890	265.8	25.7	-80.1	0.0
2025-01-21 02:27:26.596952	265.2	25.4	-80.2	0.0
2025-01-21 02:27:28.843952	264.7	25.2	-80.1	0.0
2025-01-21 02:27:31.088092	264.2	25.0	-80.5	0.0
2025-01-21 02:27:33.332006	263.7	24.8	-80.0	1.2
2025-01-21 02:27:35.577548	263.2	24.5	-80.1	0.0
2025-01-21 02:27:37.822876	262.7	24.3	-80.1	0.0
2025-01-21 02:27:40.069531	262.2	24.1	-80.2	0.0
2025-01-21 02:27:42.314445	261.7	23.9	-80.3	0.0
2025-01-21 02:27:44.561659	261.2	23.6	-80.3	0.0
2025-01-21 02:27:46.805927	260.7	23.4	-80.5	0.0
2025-01-21 02:27:49.051157	260.2	23.2	-80.5	0.0
2025-01-21 02:27:51.297928	259.8	23.0	-80.6	0.0
2025-01-21 02:27:53.541802	259.3	22.7	-80.6	0.0
2025-01-21 02:27:55.791876	258.9	22.5	-80.6	0.0
2025-01-21 02:27:58.034997	258.4	22.3	-80.3	0.0
2025-01-21 02:28:00.279959	258.0	22.0	-80.4	0.9
2025-01-21 02:28:02.527900	257.6	21.8	-80.2	0.0
2025-01-21 02:28:04.774088	257.2	21.6	-80.5	0.0
2025-01-21 02:28:07.017989	256.7	21.4	-80.2	0.0
2025-01-21 02:28:09.264245	256.3	21.1	-80.3	0.0
2025-01-21 02:28:11.509952	255.9	20.9	-80.1	0.0
2025-01-21 02:28:13.753882	255.5	20.7	-80.3	0.0
2025-01-21 02:28:16.001920	255.1	20.5	-80.3	0.0
2025-01-21 02:28:18.248670	254.8	20.2	-80.1	0.0
2025-01-21 02:28:20.496089	254.4	20.0	-80.6	0.0
2025-01-21 02:28:22.743181	254.0	19.8	-80.2	0.0
2025-01-21 02:28:24.988082	253.6	19.6	-80.2	0.0
2025-01-21 02:28:27.234611	253.3	19.3	-80.2	0.0
2025-01-21 02:28:29.480773	252.9	19.1	-80.3	0.0
2025-01-21 02:28:31.729478	252.5	18.9	-80.5	0.0
2025-01-21 02:28:33.976638	252.2	18.7	-79.9	0.0
2025-01-21 02:28:36.221484	251.9	18.5	-79.9	0.0
2025-01-21 02:28:38.467710	251.5	18.3	-79.7	0.0
2025-01-21 02:28:40.713162	251.2	18.0	-79.6	0.0
2025-01-21 02:28:42.958065	250.9	17.8	-79.7	0.0
2025-01-21 02:28:45.204285	250.5	17.6	-79.8	0.0
2025-01-21 02:28:47.449141	250.2	17.4	-79.8	0.0
2025-01-21 02:28:49.694944	249.9	17.2	-79.7	0.0
2025-01-21 02:28:51.942116	249.6	17.0	-79.8	0.0
2025-01-21 02:28:54.192020	249.3	16.8	-80.0	0.0
2025-01-21 02:28:56.439244	249.0	16.5	-80.2	0.0
2025-01-21 02:28:58.684141	248.7	16.3	-80.2	0.0
2025-01-21 02:29:00.930516	248.4	16.1	-80.0	0.0
2025-01-21 02:29:03.176895	248.1	15.9	-80.1	0.0
2025-01-21 02:29:05.421471	247.8	15.7	-79.8	0.0
2025-01-21 02:29:07.666141	247.5	15.5	-79.8	0.0
2025-01-21 02:29:09.909369	247.3	15.3	-79.8	0.0
2025-01-21 02:29:12.153960	247.0	15.1	-79.9	0.0
2025-01-21 02:29:14.401693	246.7	14.9	-79.6	0.0
2025-01-21 02:29:16.643116	246.4	14.7	-79.7	0.0
2025-01-21 02:29:18.889389	246.2	14.5	-79.9	0.0
2025-01-21 02:29:21.133389	245.9	14.3	-79.8	0.0
2025-01-21 02:29:23.377117	245.7	14.1	-79.9	0.0
2025-01-21 02:29:25.623776	245.4	13.9	-79.9	0.0
2025-01-21 02:29:27.869486	245.2	13.7	-79.8	0.0
2025-01-21 02:29:30.115229	244.9	13.5	-79.8	0.0
2025-01-21 02:29:32.361013	244.7	13.3	-80.1	0.0
2025-01-21 02:29:34.610971	244.4	13.1	-79.8	0.0
2025-01-21 02:29:36.856103	244.2	13.0	-79.8	0.0
2025-01-21 02:29:39.100033	244.0	12.8	-80.0	0.0
2025-01-21 02:29:41.345013	243.7	12.6	-79.9	0.0
2025-01-21 02:29:43.590003	243.5	12.4	-79.8	0.0
2025-01-21 02:29:45.836801	243.3	12.2	-79.5	0.0
2025-01-21 02:29:48.082588	243.1	12.0	-79.7	0.0
2025-01-21 02:29:50.327544	242.8	11.8	-79.6	0.0
2025-01-21 02:29:52.573025	242.6	11.6	-79.7	0.0
2025-01-21 02:29:54.818580	242.4	11.5	-79.7	0.0
2025-01-21 02:29:57.063247	242.2	11.3	-79.6	0.0
2025-01-21 02:29:59.308524	242.0	11.1	-79.7	0.0
2025-01-21 02:30:01.552901	241.8	10.9	-80.0	0.0
2025-01-21 02:30:03.797416	241.6	10.7	-81.4	0.0
2025-01-21 02:30:06.041866	241.4	10.6	-81.3	0.0
2025-01-21 02:30:08.286396	241.2	10.4	-82.0	0.0
2025-01-21 02:30:10.530856	241.0	10.2	-82.0	0.0
2025-01-21 02:30:12.773861	240.8	10.0	-82.2	0.0
#Closed at: 2025-01-21 02:20:41.874551