passes_logs/2025/01/21/planumMaritime01/planumMaritime01__20250121_012714_METEOR-M2_2_rec.log

#Pass ID: 20250121_012714_METEOR-M2 2
#Satellite: METEOR-M2 2
#Configuration: METEOR-M2 2
#Start time: 2025-01-21 01:27:19.414721

#LorettStation: 1.0.0 05.05.2024
#Station: planumMaritime01
#Location: 37.49445 lon 55.92918 lat
#TLE: 1 44387U 19038A   25020.12663716  .00000357  00000+0  17475-3 0  9999
#TLE: 2 44387  98.8574 356.5631 0002240  71.1584 288.9837 14.24120765288265

#Time	Az	El	Level	SNR
2025-01-21 01:27:21.571058	24.4	10.2	-72.0	0.0
2025-01-21 01:27:23.815748	24.5	10.4	-71.6	0.0
2025-01-21 01:27:26.061577	24.6	10.6	-71.9	0.0
2025-01-21 01:27:28.307979	24.7	10.8	-72.1	0.0
2025-01-21 01:27:30.552371	24.9	10.9	-72.4	0.0
2025-01-21 01:27:32.798705	25.0	11.1	-73.2	0.0
2025-01-21 01:27:35.042680	25.1	11.3	-74.3	0.0
2025-01-21 01:27:37.291463	25.3	11.5	-74.6	0.0
2025-01-21 01:27:39.537884	25.4	11.7	-74.4	0.0
2025-01-21 01:27:41.783295	25.5	11.9	-75.5	0.0
2025-01-21 01:27:44.031762	25.7	12.1	-75.5	0.0
2025-01-21 01:27:46.276809	25.8	12.3	-76.0	0.0
2025-01-21 01:27:48.520636	25.9	12.5	-75.4	0.0
2025-01-21 01:27:50.767858	26.1	12.8	-74.3	0.0
2025-01-21 01:27:53.016131	26.2	13.0	-74.4	0.0
2025-01-21 01:27:55.261969	26.4	13.2	-74.8	0.0
2025-01-21 01:27:57.510235	26.5	13.4	-75.8	0.0
2025-01-21 01:27:59.753445	26.7	13.6	-75.2	0.0
2025-01-21 01:28:01.997565	26.8	13.8	-74.8	0.0
2025-01-21 01:28:04.243057	27.0	14.0	-74.2	0.0
2025-01-21 01:28:06.489222	27.1	14.3	-75.0	0.0
2025-01-21 01:28:08.734981	27.3	14.5	-75.0	0.0
2025-01-21 01:28:10.978875	27.5	14.7	-75.1	0.0
2025-01-21 01:28:13.227267	27.6	14.9	-75.0	0.0
2025-01-21 01:28:15.473056	27.8	15.1	-74.3	0.0
2025-01-21 01:28:17.718792	27.9	15.4	-75.6	0.0
2025-01-21 01:28:19.962610	28.1	15.6	-74.9	0.0
2025-01-21 01:28:22.209326	28.3	15.8	-75.1	0.0
2025-01-21 01:28:24.457293	28.5	16.1	-74.2	0.0
2025-01-21 01:28:26.703543	28.6	16.3	-73.7	0.0
2025-01-21 01:28:28.948047	28.8	16.6	-74.0	0.0
2025-01-21 01:28:31.197596	29.0	16.8	-73.2	0.0
2025-01-21 01:28:33.443601	29.2	17.0	-73.5	0.0
2025-01-21 01:28:35.691037	29.4	17.3	-72.7	0.0
2025-01-21 01:28:37.936554	29.6	17.5	-73.4	0.0
2025-01-21 01:28:40.182832	29.8	17.8	-73.2	0.0
2025-01-21 01:28:42.426726	30.0	18.0	-73.8	0.0
2025-01-21 01:28:44.672046	30.2	18.3	-71.6	0.0
2025-01-21 01:28:46.917329	30.4	18.5	-74.3	0.0
2025-01-21 01:28:49.162796	30.6	18.8	-71.6	0.0
2025-01-21 01:28:51.410935	30.8	19.1	-74.2	0.0
2025-01-21 01:28:53.656255	31.0	19.3	-73.7	0.0
2025-01-21 01:28:55.900877	31.2	19.6	-73.7	0.0
2025-01-21 01:28:58.148324	31.4	19.9	-74.9	0.0
2025-01-21 01:29:00.395719	31.7	20.1	-73.8	0.0
2025-01-21 01:29:02.641403	31.9	20.4	-73.7	0.0
2025-01-21 01:29:04.889678	32.1	20.7	-74.1	0.0
2025-01-21 01:29:07.133818	32.4	21.0	-74.4	0.0
2025-01-21 01:29:09.377764	32.6	21.3	-73.4	0.0
2025-01-21 01:29:11.627250	32.9	21.5	-73.2	0.0
2025-01-21 01:29:13.874997	33.1	21.8	-75.8	0.0
2025-01-21 01:29:16.119956	33.4	22.1	-75.8	0.0
2025-01-21 01:29:18.365492	33.6	22.4	-76.5	0.0
2025-01-21 01:29:20.613768	33.9	22.7	-77.1	0.0
2025-01-21 01:29:22.858458	34.2	23.0	-75.7	0.0
2025-01-21 01:29:25.106217	34.4	23.3	-74.5	0.0
2025-01-21 01:29:27.353695	34.7	23.6	-75.0	0.0
2025-01-21 01:29:29.599907	35.0	23.9	-75.0	0.0
2025-01-21 01:29:31.845272	35.3	24.2	-75.4	0.0
2025-01-21 01:29:34.090224	35.6	24.6	-75.4	0.0
2025-01-21 01:29:36.335547	35.9	24.9	-74.9	0.0
2025-01-21 01:29:38.579650	36.2	25.2	-74.8	0.0
2025-01-21 01:29:40.825862	36.5	25.5	-74.1	0.0
2025-01-21 01:29:43.074326	36.8	25.8	-75.2	0.0
2025-01-21 01:29:45.320032	37.2	26.2	-75.0	0.0
2025-01-21 01:29:47.565894	37.5	26.5	-74.6	0.0
2025-01-21 01:29:49.811953	37.9	26.8	-75.1	0.0
2025-01-21 01:29:52.058753	38.2	27.2	-75.6	0.0
2025-01-21 01:29:54.308344	38.6	27.5	-74.7	0.0
2025-01-21 01:29:56.555569	38.9	27.9	-74.9	0.0
2025-01-21 01:29:58.802737	39.3	28.2	-75.0	0.0
2025-01-21 01:30:01.046271	39.7	28.6	-75.0	0.0
2025-01-21 01:30:03.293760	40.1	28.9	-74.5	0.0
2025-01-21 01:30:05.540412	40.5	29.3	-74.1	0.0
2025-01-21 01:30:07.785850	40.9	29.7	-74.0	0.0
2025-01-21 01:30:10.036719	41.3	30.0	-72.9	0.0
2025-01-21 01:30:12.282447	41.7	30.4	-73.4	0.0
2025-01-21 01:30:14.533174	42.1	30.8	-73.7	0.0
2025-01-21 01:30:16.777154	42.6	31.1	-73.6	0.0
2025-01-21 01:30:19.023237	43.0	31.5	-74.1	0.0
2025-01-21 01:30:21.271206	43.5	31.9	-74.3	0.0
2025-01-21 01:30:23.515919	44.0	32.3	-74.3	0.0
2025-01-21 01:30:25.766016	44.5	32.7	-74.8	0.0
2025-01-21 01:30:28.009626	45.0	33.1	-74.9	0.0
2025-01-21 01:30:30.255730	45.5	33.5	-75.8	0.0
2025-01-21 01:30:32.499935	46.0	33.8	-74.9	0.0
2025-01-21 01:30:34.744281	46.5	34.2	-75.1	0.0
2025-01-21 01:30:36.990907	47.1	34.6	-75.1	0.0
2025-01-21 01:30:39.239307	47.6	35.1	-76.0	0.0
2025-01-21 01:30:41.488445	48.2	35.5	-75.9	0.0
2025-01-21 01:30:43.734905	48.8	35.9	-77.0	0.0
2025-01-21 01:30:45.981303	49.4	36.3	-75.7	0.0
2025-01-21 01:30:48.230575	50.0	36.7	-75.6	0.0
2025-01-21 01:30:50.475263	50.7	37.1	-76.6	0.0
2025-01-21 01:30:52.723254	51.3	37.5	-77.4	0.0
2025-01-21 01:30:54.967874	52.0	37.9	-76.0	0.0
2025-01-21 01:30:57.216391	52.7	38.3	-77.1	0.0
2025-01-21 01:30:59.464918	53.4	38.8	-77.4	0.0
2025-01-21 01:31:01.711988	54.1	39.2	-76.2	0.0
2025-01-21 01:31:03.957739	54.8	39.6	-76.7	0.0
2025-01-21 01:31:06.203914	55.6	40.0	-76.7	0.0
2025-01-21 01:31:08.448915	56.4	40.4	-77.1	0.0
2025-01-21 01:31:10.697079	57.2	40.8	-77.0	0.0
2025-01-21 01:31:12.946427	58.0	41.2	-77.7	0.0
2025-01-21 01:31:15.193153	58.8	41.7	-78.2	0.0
2025-01-21 01:31:17.439512	59.7	42.1	-78.2	0.0
2025-01-21 01:31:19.684512	60.6	42.5	-78.1	0.0
2025-01-21 01:31:21.931707	61.5	42.9	-78.5	0.0
2025-01-21 01:31:24.178296	62.4	43.3	-76.5	0.0
2025-01-21 01:31:26.427412	63.4	43.7	-78.6	0.0
2025-01-21 01:31:28.674308	64.3	44.1	-78.5	0.0
2025-01-21 01:31:30.918925	65.3	44.4	-77.2	0.0
2025-01-21 01:31:33.165304	66.4	44.8	-77.9	0.0
2025-01-21 01:31:35.410719	67.4	45.2	-77.9	0.0
2025-01-21 01:31:37.657650	68.5	45.6	-77.8	0.0
2025-01-21 01:31:39.903855	69.6	45.9	-76.5	0.0
2025-01-21 01:31:42.147340	70.7	46.3	-77.8	0.0
2025-01-21 01:31:44.391287	71.8	46.6	-76.4	0.0
2025-01-21 01:31:46.639459	73.0	46.9	-77.1	0.0
2025-01-21 01:31:48.884106	74.2	47.3	-76.4	0.0
2025-01-21 01:31:51.129650	75.4	47.6	-77.3	0.0
2025-01-21 01:31:53.374243	76.7	47.9	-74.7	0.0
2025-01-21 01:31:55.621728	77.9	48.1	-75.5	0.0
2025-01-21 01:31:57.865657	79.2	48.4	-77.0	0.0
2025-01-21 01:32:00.111487	80.5	48.7	-76.4	0.0
2025-01-21 01:32:02.360585	81.9	48.9	-76.3	0.0
2025-01-21 01:32:04.608794	83.2	49.1	-76.2	0.0
2025-01-21 01:32:06.853660	84.6	49.4	-76.4	0.0
2025-01-21 01:32:09.099016	86.0	49.5	-76.1	0.0
2025-01-21 01:32:11.346941	87.4	49.7	-76.4	0.0
2025-01-21 01:32:13.596726	88.8	49.9	-75.4	0.0
2025-01-21 01:32:15.843702	90.2	50.0	-75.0	0.0
2025-01-21 01:32:18.090026	91.7	50.2	-75.8	0.0
2025-01-21 01:32:20.332865	93.2	50.3	-76.5	0.0
2025-01-21 01:32:22.581333	94.6	50.3	-75.8	0.0
2025-01-21 01:32:24.828686	96.1	50.4	-74.5	0.0
2025-01-21 01:32:27.071903	97.6	50.5	-74.8	0.0
2025-01-21 01:32:29.319562	99.1	50.5	-75.2	0.0
2025-01-21 01:32:31.567710	100.6	50.5	-75.2	0.0
2025-01-21 01:32:33.814168	102.1	50.5	-74.6	0.0
2025-01-21 01:32:36.060195	103.5	50.4	-75.1	0.0
2025-01-21 01:32:38.302366	105.0	50.4	-74.9	0.0
2025-01-21 01:32:40.554230	106.5	50.3	-73.1	0.0
2025-01-21 01:32:42.800857	108.0	50.2	-74.7	0.0
2025-01-21 01:32:45.048841	109.4	50.1	-74.4	0.0
2025-01-21 01:32:47.293947	110.9	50.0	-73.5	0.0
2025-01-21 01:32:49.540919	112.3	49.8	-73.2	0.0
2025-01-21 01:32:51.788295	113.7	49.7	-72.9	0.0
2025-01-21 01:32:54.034101	115.1	49.5	-70.8	0.0
2025-01-21 01:32:56.283851	116.5	49.3	-71.3	0.0
2025-01-21 01:32:58.527294	117.9	49.1	-73.1	0.0
2025-01-21 01:33:00.772670	119.2	48.8	-72.4	0.0
2025-01-21 01:33:03.019739	120.6	48.6	-71.6	0.0
2025-01-21 01:33:05.266741	121.9	48.3	-71.9	0.0
2025-01-21 01:33:07.512524	123.1	48.0	-71.7	0.0
2025-01-21 01:33:09.759716	124.4	47.7	-71.9	0.0
2025-01-21 01:33:12.008542	125.6	47.4	-71.5	0.0
2025-01-21 01:33:14.255058	126.8	47.1	-70.2	0.0
2025-01-21 01:33:16.502065	128.0	46.8	-70.5	0.0
2025-01-21 01:33:18.747297	129.2	46.5	-71.8	0.0
2025-01-21 01:33:20.989277	130.3	46.1	-70.7	0.0
2025-01-21 01:33:23.235160	131.4	45.8	-70.2	0.0
2025-01-21 01:33:25.480863	132.5	45.4	-68.8	0.0
2025-01-21 01:33:27.729828	133.6	45.0	-70.1	0.0
2025-01-21 01:33:29.977046	134.6	44.7	-69.5	0.0
2025-01-21 01:33:32.224562	135.7	44.3	-69.1	0.0
2025-01-21 01:33:34.469954	136.6	43.9	-68.4	0.0
2025-01-21 01:33:36.715868	137.6	43.5	-67.6	0.0
2025-01-21 01:33:38.961054	138.6	43.1	-69.2	0.0
2025-01-21 01:33:41.207792	139.5	42.7	-68.4	0.0
2025-01-21 01:33:43.455585	140.4	42.3	-69.0	0.0
2025-01-21 01:33:45.701337	141.3	41.9	-67.2	0.0
2025-01-21 01:33:47.949278	142.1	41.5	-68.3	0.0
2025-01-21 01:33:50.199345	142.9	41.0	-67.5	0.0
2025-01-21 01:33:52.443839	143.8	40.6	-67.8	0.0
2025-01-21 01:33:54.691014	144.5	40.2	-67.2	0.0
2025-01-21 01:33:56.935841	145.3	39.8	-67.5	0.0
2025-01-21 01:33:59.182416	146.1	39.4	-66.7	0.0
2025-01-21 01:34:01.428337	146.8	39.0	-66.2	0.0
2025-01-21 01:34:03.675716	147.5	38.5	-77.3	0.0
2025-01-21 01:34:05.921464	148.2	38.1	-77.4	0.0
2025-01-21 01:34:08.168978	148.9	37.7	-77.8	0.0
2025-01-21 01:34:10.413296	149.6	37.3	-76.6	0.0
2025-01-21 01:34:12.656850	150.2	36.9	-78.5	0.0
2025-01-21 01:34:14.902701	150.8	36.5	-79.0	0.0
2025-01-21 01:34:17.146879	151.5	36.1	-79.1	0.0
2025-01-21 01:34:19.394230	152.1	35.6	-79.6	0.0
2025-01-21 01:34:21.641728	152.6	35.2	-79.6	0.0
2025-01-21 01:34:23.886104	153.2	34.8	-79.5	0.0
2025-01-21 01:34:26.133319	153.8	34.4	-77.7	0.0
2025-01-21 01:34:28.378549	154.3	34.0	-79.8	0.0
2025-01-21 01:34:30.624882	154.8	33.6	-80.2	0.0
2025-01-21 01:34:32.871443	155.4	33.2	-79.8	0.0
2025-01-21 01:34:35.116445	155.9	32.8	-80.0	0.0
2025-01-21 01:34:37.361912	156.4	32.4	-79.6	0.0
2025-01-21 01:34:39.606640	156.8	32.1	-79.0	0.0
2025-01-21 01:34:41.851577	157.3	31.7	-79.3	0.0
2025-01-21 01:34:44.098664	157.8	31.3	-78.9	0.0
2025-01-21 01:34:46.345958	158.2	30.9	-78.8	0.0
2025-01-21 01:34:48.591345	158.7	30.5	-79.9	0.0
2025-01-21 01:34:50.835841	159.1	30.2	-80.3	0.0
2025-01-21 01:34:53.080811	159.5	29.8	-79.9	0.0
2025-01-21 01:34:55.329063	159.9	29.4	-79.8	0.0
2025-01-21 01:34:57.578033	160.3	29.1	-80.2	0.0
2025-01-21 01:34:59.826702	160.7	28.7	-80.3	0.0
2025-01-21 01:35:02.072856	161.1	28.3	-80.2	0.0
2025-01-21 01:35:04.318467	161.5	28.0	-80.2	0.0
2025-01-21 01:35:06.563964	161.9	27.6	-80.0	0.0
2025-01-21 01:35:08.806732	162.2	27.3	-80.2	0.0
2025-01-21 01:35:11.052478	162.6	26.9	-80.5	0.0
2025-01-21 01:35:13.302500	162.9	26.6	-80.5	0.0
2025-01-21 01:35:15.551113	163.3	26.3	-79.8	0.0
2025-01-21 01:35:17.796854	163.6	25.9	-80.4	0.0
2025-01-21 01:35:20.042277	163.9	25.6	-80.5	0.0
2025-01-21 01:35:22.290226	164.2	25.3	-80.5	0.0
2025-01-21 01:35:24.536929	164.5	25.0	-80.6	0.0
2025-01-21 01:35:26.781052	164.8	24.6	-80.1	0.0
2025-01-21 01:35:29.030267	165.1	24.3	-80.1	0.0
2025-01-21 01:35:31.276900	165.4	24.0	-80.4	0.0
2025-01-21 01:35:33.524552	165.7	23.7	-80.0	0.0
2025-01-21 01:35:35.773098	166.0	23.4	-80.2	0.0
2025-01-21 01:35:38.016321	166.3	23.1	-80.1	0.0
2025-01-21 01:35:40.260224	166.6	22.8	-79.8	0.0
2025-01-21 01:35:42.506729	166.8	22.5	-80.3	0.0
2025-01-21 01:35:44.753444	167.1	22.2	-79.6	0.0
2025-01-21 01:35:46.999526	167.4	21.9	-80.1	0.0
2025-01-21 01:35:49.247411	167.6	21.6	-80.3	0.0
2025-01-21 01:35:51.494663	167.9	21.3	-80.2	0.0
2025-01-21 01:35:53.737658	168.1	21.0	-80.0	0.0
2025-01-21 01:35:55.986923	168.3	20.7	-78.8	0.0
2025-01-21 01:35:58.231544	168.6	20.4	-80.0	0.0
2025-01-21 01:36:00.479887	168.8	20.2	-80.0	0.0
2025-01-21 01:36:02.726557	169.0	19.9	-79.8	0.0
2025-01-21 01:36:04.973327	169.3	19.6	-79.3	0.0
2025-01-21 01:36:07.218531	169.5	19.3	-79.7	0.0
2025-01-21 01:36:09.465777	169.7	19.1	-79.7	0.0
2025-01-21 01:36:11.712987	169.9	18.8	-79.3	0.0
2025-01-21 01:36:13.957087	170.1	18.6	-79.5	0.0
2025-01-21 01:36:16.200001	170.3	18.3	-79.4	0.0
2025-01-21 01:36:18.446387	170.5	18.0	-79.3	0.0
2025-01-21 01:36:20.693136	170.7	17.8	-79.4	0.0
2025-01-21 01:36:22.939908	170.9	17.5	-79.2	0.0
2025-01-21 01:36:25.184431	171.1	17.3	-79.1	0.0
2025-01-21 01:36:27.433280	171.3	17.0	-79.2	0.0
2025-01-21 01:36:29.676671	171.5	16.8	-78.3	0.0
2025-01-21 01:36:31.921911	171.7	16.5	-79.1	0.0
2025-01-21 01:36:34.170380	171.8	16.3	-78.9	0.0
2025-01-21 01:36:36.415095	172.0	16.1	-79.2	0.0
2025-01-21 01:36:38.667021	172.2	15.8	-79.1	0.0
2025-01-21 01:36:40.912444	172.4	15.6	-78.5	0.0
2025-01-21 01:36:43.158486	172.5	15.4	-78.8	0.0
2025-01-21 01:36:45.405603	172.7	15.1	-78.2	0.0
2025-01-21 01:36:47.651275	172.9	14.9	-78.7	0.0
2025-01-21 01:36:49.897859	173.0	14.7	-78.0	0.0
2025-01-21 01:36:52.142913	173.2	14.4	-79.1	0.0
2025-01-21 01:36:54.391667	173.4	14.2	-78.7	0.0
2025-01-21 01:36:56.636149	173.5	14.0	-79.0	0.0
2025-01-21 01:36:58.880777	173.7	13.8	-78.2	0.0
2025-01-21 01:37:01.127225	173.8	13.6	-78.7	0.0
2025-01-21 01:37:03.373746	174.0	13.3	-78.4	0.0
2025-01-21 01:37:05.620467	174.1	13.1	-78.4	0.0
2025-01-21 01:37:07.866537	174.3	12.9	-78.4	0.0
2025-01-21 01:37:10.110989	174.4	12.7	-78.1	0.0
2025-01-21 01:37:12.357301	174.5	12.5	-78.0	0.0
2025-01-21 01:37:14.603498	174.7	12.3	-77.8	0.0
2025-01-21 01:37:16.850898	174.8	12.1	-78.7	0.0
2025-01-21 01:37:19.100489	175.0	11.9	-78.8	0.0
2025-01-21 01:37:21.343748	175.1	11.7	-78.6	0.0
2025-01-21 01:37:23.590020	175.2	11.5	-78.7	0.0
2025-01-21 01:37:25.836092	175.4	11.3	-78.3	0.0
2025-01-21 01:37:28.081951	175.5	11.1	-78.7	0.0
2025-01-21 01:37:30.328597	175.6	10.9	-79.1	0.0
2025-01-21 01:37:32.573876	175.7	10.7	-80.7	0.0
2025-01-21 01:37:34.823157	175.9	10.5	-81.1	0.0
2025-01-21 01:37:37.068124	176.0	10.3	-81.9	0.0
2025-01-21 01:37:39.314720	176.1	10.1	-82.0	0.0
#Closed at: 2025-01-21 01:27:14.418023