passes_logs/2025/01/21/planumMaritime01/planumMaritime01__20250121_030723_METEOR-M2_2_rec.log

#Pass ID: 20250121_030723_METEOR-M2 2
#Satellite: METEOR-M2 2
#Configuration: METEOR-M2 2
#Start time: 2025-01-21 03:07:28.107241

#LorettStation: 1.0.0 05.05.2024
#Station: planumMaritime01
#Location: 37.49445 lon 55.92918 lat
#TLE: 1 44387U 19038A   25020.12663716  .00000357  00000+0  17475-3 0  9999
#TLE: 2 44387  98.8574 356.5631 0002240  71.1584 288.9837 14.24120765288265

#Time	Az	El	Level	SNR
2025-01-21 03:07:30.270639	5.9	10.2	-74.0	0.0
2025-01-21 03:07:32.516989	5.7	10.4	-72.6	0.0
2025-01-21 03:07:34.763632	5.6	10.5	-74.4	0.0
2025-01-21 03:07:37.008598	5.4	10.7	-74.7	0.0
2025-01-21 03:07:39.253415	5.2	10.9	-74.0	0.0
2025-01-21 03:07:41.499694	5.0	11.1	-73.2	0.0
2025-01-21 03:07:43.746845	4.8	11.3	-73.6	0.0
2025-01-21 03:07:45.992958	4.7	11.5	-70.4	0.0
2025-01-21 03:07:48.240004	4.5	11.7	-69.1	0.0
2025-01-21 03:07:50.483614	4.3	11.8	-72.2	0.0
2025-01-21 03:07:52.730438	4.1	12.0	-73.0	0.0
2025-01-21 03:07:54.976508	3.9	12.2	-73.7	0.0
2025-01-21 03:07:57.225167	3.7	12.4	-73.5	0.0
2025-01-21 03:07:59.471448	3.5	12.6	-73.4	0.0
2025-01-21 03:08:01.720238	3.3	12.8	-72.9	0.0
2025-01-21 03:08:03.967809	3.1	13.0	-72.1	0.0
2025-01-21 03:08:06.213586	2.9	13.2	-74.1	0.0
2025-01-21 03:08:08.458941	2.7	13.4	-71.1	0.0
2025-01-21 03:08:10.706208	2.5	13.6	-72.9	0.0
2025-01-21 03:08:12.954132	2.3	13.8	-72.6	0.0
2025-01-21 03:08:15.203342	2.1	14.0	-72.3	0.0
2025-01-21 03:08:17.451200	1.8	14.2	-72.1	0.0
2025-01-21 03:08:19.697660	1.6	14.4	-71.4	0.0
2025-01-21 03:08:21.945046	1.4	14.6	-70.7	0.0
2025-01-21 03:08:24.190049	1.2	14.8	-70.2	0.0
2025-01-21 03:08:26.437093	0.9	15.0	-71.2	0.0
2025-01-21 03:08:28.682771	0.7	15.3	-70.5	0.0
2025-01-21 03:08:30.927724	0.4	15.5	-70.3	0.0
2025-01-21 03:08:33.173335	0.2	15.7	-70.2	0.0
2025-01-21 03:08:35.420684	359.9	15.9	-71.4	0.0
2025-01-21 03:08:37.665911	359.7	16.1	-72.1	0.0
2025-01-21 03:08:39.916105	359.4	16.3	-72.1	0.0
2025-01-21 03:08:42.161795	359.2	16.6	-73.2	0.0
2025-01-21 03:08:44.407497	358.9	16.8	-72.5	0.0
2025-01-21 03:08:46.656086	358.6	17.0	-73.1	0.0
2025-01-21 03:08:48.903307	358.4	17.2	-73.5	0.0
2025-01-21 03:08:51.149300	358.1	17.4	-73.8	0.0
2025-01-21 03:08:53.393753	357.8	17.7	-72.9	0.0
2025-01-21 03:08:55.639713	357.5	17.9	-72.9	0.0
2025-01-21 03:08:57.884045	357.2	18.1	-74.5	0.0
2025-01-21 03:09:00.130896	356.9	18.4	-74.9	0.0
2025-01-21 03:09:02.378416	356.6	18.6	-75.7	0.0
2025-01-21 03:09:04.625482	356.3	18.8	-75.7	0.0
2025-01-21 03:09:06.869329	356.0	19.1	-76.8	0.0
2025-01-21 03:09:09.119297	355.7	19.3	-76.8	0.0
2025-01-21 03:09:11.367742	355.4	19.5	-77.1	0.0
2025-01-21 03:09:13.613521	355.1	19.8	-76.1	0.0
2025-01-21 03:09:15.862814	354.7	20.0	-76.4	0.0
2025-01-21 03:09:18.109652	354.4	20.3	-76.5	0.0
2025-01-21 03:09:20.358512	354.1	20.5	-76.0	0.0
2025-01-21 03:09:22.605006	353.7	20.7	-75.5	0.0
2025-01-21 03:09:24.850801	353.4	21.0	-74.9	0.0
2025-01-21 03:09:27.096820	353.0	21.2	-75.1	0.0
2025-01-21 03:09:29.341948	352.6	21.5	-75.2	0.0
2025-01-21 03:09:31.588109	352.3	21.7	-73.3	0.0
2025-01-21 03:09:33.832393	351.9	22.0	-75.8	0.0
2025-01-21 03:09:36.078332	351.5	22.2	-75.5	0.0
2025-01-21 03:09:38.323425	351.1	22.5	-76.5	0.0
2025-01-21 03:09:40.574073	350.7	22.7	-75.8	0.0
2025-01-21 03:09:42.822509	350.3	23.0	-75.7	0.0
2025-01-21 03:09:45.071045	349.9	23.3	-75.5	0.0
2025-01-21 03:09:47.316784	349.5	23.5	-75.3	0.0
2025-01-21 03:09:49.563366	349.1	23.8	-75.3	0.0
2025-01-21 03:09:51.812727	348.7	24.0	-76.0	0.0
2025-01-21 03:09:54.056450	348.2	24.3	-75.6	0.0
2025-01-21 03:09:56.300161	347.8	24.6	-75.7	0.0
2025-01-21 03:09:58.544785	347.3	24.8	-74.8	0.0
2025-01-21 03:10:00.790521	346.9	25.1	-75.0	0.0
2025-01-21 03:10:03.038374	346.4	25.3	-74.9	0.0
2025-01-21 03:10:05.284896	345.9	25.6	-76.1	0.0
2025-01-21 03:10:07.531852	345.4	25.9	-75.6	0.0
2025-01-21 03:10:09.780830	345.0	26.1	-76.2	0.0
2025-01-21 03:10:12.027446	344.5	26.4	-76.7	0.0
2025-01-21 03:10:14.272731	343.9	26.7	-76.9	0.0
2025-01-21 03:10:16.519951	343.4	26.9	-76.5	0.0
2025-01-21 03:10:18.764687	342.9	27.2	-76.5	0.0
2025-01-21 03:10:21.011048	342.4	27.5	-77.5	0.0
2025-01-21 03:10:23.257262	341.8	27.7	-76.7	0.0
2025-01-21 03:10:25.506099	341.3	28.0	-77.0	0.0
2025-01-21 03:10:27.754458	340.7	28.2	-77.2	0.0
2025-01-21 03:10:29.999971	340.1	28.5	-77.6	0.0
2025-01-21 03:10:32.244275	339.6	28.8	-76.7	0.0
2025-01-21 03:10:34.492137	339.0	29.0	-78.2	0.0
2025-01-21 03:10:36.736651	338.4	29.3	-78.3	0.0
2025-01-21 03:10:38.985532	337.7	29.5	-78.1	0.0
2025-01-21 03:10:41.233388	337.1	29.8	-78.6	0.0
2025-01-21 03:10:43.478504	336.5	30.1	-79.0	0.0
2025-01-21 03:10:45.724032	335.9	30.3	-78.8	0.0
2025-01-21 03:10:47.969644	335.2	30.6	-78.7	0.0
2025-01-21 03:10:50.213724	334.5	30.8	-78.8	0.0
2025-01-21 03:10:52.461363	333.9	31.1	-77.9	0.0
2025-01-21 03:10:54.711818	333.2	31.3	-78.2	0.0
2025-01-21 03:10:56.960934	332.5	31.5	-77.9	0.0
2025-01-21 03:10:59.206096	331.8	31.8	-77.7	0.0
2025-01-21 03:11:01.450941	331.1	32.0	-78.3	0.0
2025-01-21 03:11:03.699157	330.3	32.3	-75.6	0.0
2025-01-21 03:11:05.944486	329.6	32.5	-76.7	0.0
2025-01-21 03:11:08.190503	328.9	32.7	-76.4	0.0
2025-01-21 03:11:10.437343	328.1	32.9	-76.0	0.0
2025-01-21 03:11:12.685966	327.3	33.2	-76.8	0.0
2025-01-21 03:11:14.931545	326.6	33.4	-76.3	0.0
2025-01-21 03:11:17.175588	325.8	33.6	-76.9	0.0
2025-01-21 03:11:19.425772	325.0	33.8	-76.4	0.0
2025-01-21 03:11:21.672960	324.2	34.0	-76.1	0.0
2025-01-21 03:11:23.920049	323.3	34.2	-75.9	0.0
2025-01-21 03:11:26.167582	322.5	34.4	-76.7	0.0
2025-01-21 03:11:28.417826	321.7	34.6	-76.7	0.0
2025-01-21 03:11:30.666741	320.8	34.7	-76.8	0.0
2025-01-21 03:11:32.913453	320.0	34.9	-76.6	0.0
2025-01-21 03:11:35.157063	319.1	35.1	-77.1	0.0
2025-01-21 03:11:37.399771	318.2	35.2	-76.8	0.0
2025-01-21 03:11:39.647627	317.4	35.4	-77.1	0.0
2025-01-21 03:11:41.894130	316.5	35.5	-76.9	0.0
2025-01-21 03:11:44.139559	315.6	35.7	-77.6	0.0
2025-01-21 03:11:46.385121	314.7	35.8	-77.4	0.0
2025-01-21 03:11:48.632621	313.7	35.9	-77.8	0.0
2025-01-21 03:11:50.883575	312.8	36.0	-77.0	0.0
2025-01-21 03:11:53.129819	311.9	36.1	-76.8	0.0
2025-01-21 03:11:55.375656	311.0	36.2	-77.6	0.0
2025-01-21 03:11:57.622156	310.0	36.3	-77.8	0.0
2025-01-21 03:11:59.869215	309.1	36.4	-78.0	0.0
2025-01-21 03:12:02.114484	308.1	36.5	-77.9	0.0
2025-01-21 03:12:04.362109	307.2	36.5	-78.4	0.0
2025-01-21 03:12:06.610677	306.2	36.6	-78.0	0.0
2025-01-21 03:12:08.855615	305.3	36.6	-78.2	0.0
2025-01-21 03:12:11.102651	304.3	36.7	-78.4	0.0
2025-01-21 03:12:13.350446	303.3	36.7	-78.1	0.0
2025-01-21 03:12:15.597791	302.4	36.7	-78.6	0.0
2025-01-21 03:12:17.844545	301.4	36.7	-78.3	0.0
2025-01-21 03:12:20.089938	300.5	36.7	-78.6	0.0
2025-01-21 03:12:22.337545	299.5	36.7	-77.8	0.0
2025-01-21 03:12:24.587505	298.5	36.7	-78.5	0.0
2025-01-21 03:12:26.835050	297.6	36.7	-78.7	0.0
2025-01-21 03:12:29.079121	296.6	36.6	-78.7	0.0
2025-01-21 03:12:31.327816	295.6	36.6	-78.1	0.0
2025-01-21 03:12:33.573210	294.7	36.5	-78.5	0.0
2025-01-21 03:12:35.822354	293.7	36.5	-79.1	0.0
2025-01-21 03:12:38.067693	292.8	36.4	-78.8	0.0
2025-01-21 03:12:40.313836	291.8	36.3	-78.5	0.0
2025-01-21 03:12:42.558028	290.9	36.2	-78.8	0.0
2025-01-21 03:12:44.804560	290.0	36.1	-78.6	0.0
2025-01-21 03:12:47.051090	289.1	36.0	-78.7	0.0
2025-01-21 03:12:49.295543	288.1	35.9	-78.0	0.0
2025-01-21 03:12:51.540175	287.2	35.8	-77.9	0.0
2025-01-21 03:12:53.784936	286.3	35.6	-77.8	0.0
2025-01-21 03:12:56.029766	285.4	35.5	-78.4	0.0
2025-01-21 03:12:58.275479	284.5	35.4	-78.4	0.0
2025-01-21 03:13:00.524008	283.6	35.2	-78.6	0.0
2025-01-21 03:13:02.770875	282.8	35.0	-77.9	0.0
2025-01-21 03:13:05.015318	281.9	34.9	-78.0	0.0
2025-01-21 03:13:07.262116	281.0	34.7	-77.7	0.0
2025-01-21 03:13:09.509583	280.2	34.5	-77.3	0.0
2025-01-21 03:13:11.754988	279.4	34.3	-78.2	0.0
2025-01-21 03:13:14.005278	278.5	34.1	-77.5	0.0
2025-01-21 03:13:16.252551	277.7	34.0	-77.7	0.0
2025-01-21 03:13:18.500870	276.9	33.7	-79.2	0.0
2025-01-21 03:13:20.744084	276.1	33.5	-77.8	0.0
2025-01-21 03:13:22.993612	275.3	33.3	-77.7	0.0
2025-01-21 03:13:25.241888	274.5	33.1	-76.3	0.0
2025-01-21 03:13:27.488290	273.8	32.9	-78.1	0.0
2025-01-21 03:13:29.739004	273.0	32.7	-77.1	0.0
2025-01-21 03:13:31.987256	272.3	32.4	-76.7	0.0
2025-01-21 03:13:34.232059	271.5	32.2	-77.3	0.0
2025-01-21 03:13:36.475932	270.8	32.0	-78.1	0.0
2025-01-21 03:13:38.723654	270.1	31.7	-77.5	0.0
2025-01-21 03:13:40.973476	269.4	31.5	-76.2	0.0
2025-01-21 03:13:43.220158	268.7	31.3	-76.3	0.0
2025-01-21 03:13:45.463097	268.0	31.0	-76.5	0.0
2025-01-21 03:13:47.709010	267.3	30.8	-77.4	0.0
2025-01-21 03:13:49.953054	266.7	30.5	-77.0	0.0
2025-01-21 03:13:52.201125	266.0	30.3	-75.9	0.0
2025-01-21 03:13:54.445000	265.4	30.0	-76.6	0.0
2025-01-21 03:13:56.692331	264.7	29.7	-77.1	0.0
2025-01-21 03:13:58.940090	264.1	29.5	-76.4	0.0
2025-01-21 03:14:01.183880	263.5	29.2	-76.6	0.0
2025-01-21 03:14:03.428920	262.9	29.0	-77.1	0.0
2025-01-21 03:14:05.672690	262.3	28.7	-76.8	0.0
2025-01-21 03:14:07.918198	261.7	28.4	-77.0	0.0
2025-01-21 03:14:10.164402	261.2	28.2	-77.4	0.0
2025-01-21 03:14:12.414763	260.6	27.9	-76.2	0.0
2025-01-21 03:14:14.661746	260.0	27.6	-76.4	0.0
2025-01-21 03:14:16.909087	259.5	27.4	-76.2	0.0
2025-01-21 03:14:19.156116	259.0	27.1	-76.4	0.0
2025-01-21 03:14:21.402286	258.4	26.8	-76.1	0.0
2025-01-21 03:14:23.649937	257.9	26.6	-76.9	0.0
2025-01-21 03:14:25.893043	257.4	26.3	-75.9	0.0
2025-01-21 03:14:28.139763	256.9	26.1	-76.5	0.0
2025-01-21 03:14:30.387705	256.4	25.8	-76.6	0.0
2025-01-21 03:14:32.634966	255.9	25.5	-75.9	0.0
2025-01-21 03:14:34.882650	255.4	25.3	-76.2	0.0
2025-01-21 03:14:37.126824	255.0	25.0	-75.2	0.0
2025-01-21 03:14:39.371354	254.5	24.7	-75.1	0.0
2025-01-21 03:14:41.618409	254.1	24.5	-75.9	0.0
2025-01-21 03:14:43.864131	253.6	24.2	-75.3	0.0
2025-01-21 03:14:46.110679	253.2	23.9	-75.0	0.0
2025-01-21 03:14:48.357119	252.8	23.7	-75.3	0.0
2025-01-21 03:14:50.604505	252.3	23.4	-72.2	0.0
2025-01-21 03:14:52.852455	251.9	23.2	-75.1	0.0
2025-01-21 03:14:55.101253	251.5	22.9	-75.1	0.0
2025-01-21 03:14:57.346479	251.1	22.7	-72.6	0.0
2025-01-21 03:14:59.590362	250.7	22.4	-74.4	0.0
2025-01-21 03:15:01.836596	250.3	22.2	-74.3	0.0
2025-01-21 03:15:04.082638	249.9	21.9	-74.8	0.0
2025-01-21 03:15:06.329107	249.6	21.6	-74.4	0.0
2025-01-21 03:15:08.575350	249.2	21.4	-75.2	0.0
2025-01-21 03:15:10.819629	248.8	21.1	-74.9	0.0
2025-01-21 03:15:13.066269	248.5	20.9	-75.5	0.0
2025-01-21 03:15:15.318338	248.1	20.7	-73.8	0.0
2025-01-21 03:15:17.562857	247.8	20.4	-74.9	0.0
2025-01-21 03:15:19.810350	247.4	20.2	-74.3	0.0
2025-01-21 03:15:22.058157	247.1	19.9	-75.1	0.0
2025-01-21 03:15:24.307104	246.8	19.7	-73.0	0.0
2025-01-21 03:15:26.555847	246.4	19.4	-74.2	0.0
2025-01-21 03:15:28.803258	246.1	19.2	-75.1	0.0
2025-01-21 03:15:31.052555	245.8	19.0	-73.6	0.0
2025-01-21 03:15:33.297474	245.5	18.7	-74.1	0.0
2025-01-21 03:15:35.542061	245.2	18.5	-73.8	0.0
2025-01-21 03:15:37.789650	244.9	18.3	-74.0	0.0
2025-01-21 03:15:40.038024	244.6	18.0	-74.8	0.0
2025-01-21 03:15:42.285691	244.3	17.8	-74.2	0.0
2025-01-21 03:15:44.533662	244.0	17.6	-74.3	0.0
2025-01-21 03:15:46.780827	243.7	17.3	-74.0	0.0
2025-01-21 03:15:49.026401	243.4	17.1	-74.0	0.0
2025-01-21 03:15:51.271764	243.2	16.9	-72.0	0.0
2025-01-21 03:15:53.515086	242.9	16.7	-73.9	0.0
2025-01-21 03:15:55.762899	242.6	16.4	-73.6	0.0
2025-01-21 03:15:58.009260	242.4	16.2	-74.0	0.0
2025-01-21 03:16:00.254402	242.1	16.0	-73.5	0.0
2025-01-21 03:16:02.502550	241.9	15.8	-73.6	0.0
2025-01-21 03:16:04.748391	241.6	15.6	-74.2	0.0
2025-01-21 03:16:06.993696	241.4	15.4	-73.7	0.0
2025-01-21 03:16:09.239209	241.1	15.1	-72.3	0.0
2025-01-21 03:16:11.483455	240.9	14.9	-72.9	0.0
2025-01-21 03:16:13.727295	240.6	14.7	-73.3	0.0
2025-01-21 03:16:15.973751	240.4	14.5	-73.7	0.0
2025-01-21 03:16:18.219603	240.2	14.3	-74.0	0.0
2025-01-21 03:16:20.466188	240.0	14.1	-71.7	0.0
2025-01-21 03:16:22.714236	239.7	13.9	-72.6	0.0
2025-01-21 03:16:24.960176	239.5	13.7	-74.0	0.0
2025-01-21 03:16:27.205463	239.3	13.5	-72.9	0.0
2025-01-21 03:16:29.452305	239.1	13.3	-72.1	0.0
2025-01-21 03:16:31.702398	238.9	13.1	-73.5	0.0
2025-01-21 03:16:33.947067	238.7	12.9	-73.0	0.0
2025-01-21 03:16:36.196839	238.5	12.7	-73.7	0.0
2025-01-21 03:16:38.443575	238.3	12.5	-73.3	0.0
2025-01-21 03:16:40.691110	238.1	12.3	-72.1	0.0
2025-01-21 03:16:42.937494	237.9	12.1	-72.9	0.0
2025-01-21 03:16:45.181194	237.7	11.9	-73.3	0.0
2025-01-21 03:16:47.426314	237.5	11.7	-71.9	0.0
2025-01-21 03:16:49.673797	237.3	11.5	-73.8	0.0
2025-01-21 03:16:51.918180	237.1	11.3	-73.3	0.0
2025-01-21 03:16:54.165786	236.9	11.2	-72.8	0.0
2025-01-21 03:16:56.411973	236.7	11.0	-73.2	0.0
2025-01-21 03:16:58.657358	236.6	10.8	-75.9	0.0
2025-01-21 03:17:00.901292	236.4	10.6	-77.3	0.0
2025-01-21 03:17:03.150101	236.2	10.4	-80.6	0.0
2025-01-21 03:17:05.397992	236.0	10.2	-81.4	0.0
2025-01-21 03:17:07.644474	235.9	10.1	-81.3	0.0
#Closed at: 2025-01-21 03:07:23.112127