passes_logs/2025/01/01/LEX_Murmansk/LEX_Murmansk__20250101_172417_NOAA_18_rec.log

#Pass ID: 20250101_172417_NOAA 18
#Satellite: NOAA 18
#Configuration: NOAA 18
#Start time: 2025-01-01 17:24:12.050006

#LorettStation: 1.0.0 05.05.2024
#Station: LEX_Murmansk
#Location: 33.156738 lon 68.926811 lat
#TLE: 1 28654U 05018A   24366.86382707  .00000695  00000+0  39254-3 0  9996
#TLE: 2 28654  98.8588  82.0571 0013692 219.5840 140.4334 14.13471437 11103

#Time	Az	El	Level	SNR
2025-01-01 17:24:24.208587	108.5	16.2	-89.4	9.1
2025-01-01 17:24:25.352972	108.4	16.3	-89.8	10.3
2025-01-01 17:24:26.503683	108.3	16.4	-89.5	12.1
2025-01-01 17:24:27.654723	108.2	16.6	-89.7	7.5
2025-01-01 17:24:28.808006	108.1	16.7	-89.7	10.3
2025-01-01 17:24:29.952607	108.0	16.8	-89.6	12.1
2025-01-01 17:24:31.101173	107.9	16.9	-89.8	10.0
2025-01-01 17:24:32.249543	107.8	17.0	-89.6	14.1
2025-01-01 17:24:33.397586	107.7	17.1	-89.7	13.9
2025-01-01 17:24:34.565198	107.6	17.3	-89.7	10.6
2025-01-01 17:24:35.708529	107.5	17.4	-90.1	9.1
2025-01-01 17:24:36.856881	107.4	17.5	-89.7	14.3
2025-01-01 17:24:38.005674	107.3	17.6	-89.7	5.1
2025-01-01 17:24:39.155390	107.2	17.8	-89.6	5.6
2025-01-01 17:24:40.302754	107.1	17.9	-89.6	10.2
2025-01-01 17:24:41.452435	106.9	18.0	-89.7	9.6
2025-01-01 17:24:42.600778	106.8	18.1	-90.9	12.6
2025-01-01 17:24:43.744392	106.7	18.2	-90.6	12.5
2025-01-01 17:24:44.898782	106.6	18.4	-90.8	11.3
2025-01-01 17:24:46.048049	106.5	18.5	-90.4	9.7
2025-01-01 17:24:47.193952	106.4	18.6	-90.5	10.3
2025-01-01 17:24:48.341482	106.3	18.8	-90.7	12.9
2025-01-01 17:24:49.490184	106.2	18.9	-90.9	15.0
2025-01-01 17:24:50.647005	106.0	19.0	-90.5	12.9
2025-01-01 17:24:51.792906	105.9	19.1	-90.8	9.8
2025-01-01 17:24:52.940169	105.8	19.3	-89.9	7.7
2025-01-01 17:24:54.083118	105.7	19.4	-90.5	5.4
2025-01-01 17:24:55.230410	105.6	19.5	-90.4	8.3
2025-01-01 17:24:56.358417	105.5	19.6	-90.7	9.2
2025-01-01 17:24:57.478453	105.3	19.8	-90.7	7.3
2025-01-01 17:24:58.599372	105.2	19.9	-90.6	8.7
2025-01-01 17:24:59.720194	105.1	20.0	-91.0	18.1
2025-01-01 17:25:00.841267	105.0	20.2	-90.7	17.1
2025-01-01 17:25:01.961824	104.8	20.3	-90.6	12.5
2025-01-01 17:25:03.084409	104.7	20.4	-90.1	10.1
2025-01-01 17:25:04.209215	104.6	20.5	-90.4	14.8
2025-01-01 17:25:05.351291	104.5	20.7	-90.3	16.9
2025-01-01 17:25:06.496706	104.3	20.8	-90.2	14.5
2025-01-01 17:25:07.649039	104.2	20.9	-90.5	8.8
2025-01-01 17:25:08.790193	104.1	21.1	-90.1	16.5
2025-01-01 17:25:09.943536	103.9	21.2	-89.9	12.6
2025-01-01 17:25:11.089613	103.8	21.4	-90.1	7.3
2025-01-01 17:25:12.241158	103.7	21.5	-90.0	12.2
2025-01-01 17:25:13.394169	103.5	21.6	-90.3	8.5
2025-01-01 17:25:14.548756	103.4	21.8	-90.8	7.9
2025-01-01 17:25:15.697601	103.2	21.9	-91.0	12.4
2025-01-01 17:25:16.843467	103.1	22.0	-90.7	14.2
2025-01-01 17:25:17.993300	103.0	22.2	-90.8	12.7
2025-01-01 17:25:19.143032	102.8	22.3	-91.0	11.2
2025-01-01 17:25:20.299228	102.7	22.5	-90.1	10.8
2025-01-01 17:25:21.440264	102.5	22.6	-90.4	11.2
2025-01-01 17:25:22.583402	102.4	22.8	-90.6	8.3
2025-01-01 17:25:23.739247	102.2	22.9	-90.4	9.1
2025-01-01 17:25:24.887977	102.1	23.0	-91.0	7.2
2025-01-01 17:25:26.039430	101.9	23.2	-91.2	9.8
2025-01-01 17:25:27.183114	101.8	23.3	-90.5	7.0
2025-01-01 17:25:28.336123	101.6	23.5	-90.9	5.5
2025-01-01 17:25:29.490490	101.4	23.6	-90.9	4.3
2025-01-01 17:25:30.640848	101.3	23.8	-90.9	2.4
2025-01-01 17:25:31.793966	101.1	23.9	-91.0	5.4
2025-01-01 17:25:32.939836	101.0	24.1	-91.1	4.3
2025-01-01 17:25:34.085462	100.8	24.2	-90.6	5.1
2025-01-01 17:25:35.237718	100.6	24.4	-90.9	6.9
2025-01-01 17:25:36.383090	100.5	24.5	-90.6	6.1
2025-01-01 17:25:37.533873	100.3	24.7	-90.5	7.6
2025-01-01 17:25:38.679969	100.1	24.8	-91.0	8.2
2025-01-01 17:25:39.831189	100.0	25.0	-90.6	3.8
2025-01-01 17:25:40.975583	99.8	25.1	-90.8	8.2
2025-01-01 17:25:42.130160	99.6	25.3	-91.0	9.9
2025-01-01 17:25:43.279699	99.4	25.4	-90.5	5.1
2025-01-01 17:25:44.426993	99.3	25.6	-90.4	9.1
2025-01-01 17:25:45.569268	99.1	25.7	-91.1	6.6
2025-01-01 17:25:46.718005	98.9	25.9	-91.1	8.4
2025-01-01 17:25:47.871840	98.7	26.0	-91.3	15.9
2025-01-01 17:25:49.025443	98.5	26.2	-90.8	8.3
2025-01-01 17:25:50.175996	98.3	26.3	-90.6	7.8
2025-01-01 17:25:51.330120	98.2	26.5	-90.4	12.7
2025-01-01 17:25:52.480524	98.0	26.6	-91.0	6.8
2025-01-01 17:25:53.631931	97.8	26.8	-90.8	13.3
2025-01-01 17:25:54.787593	97.6	27.0	-91.1	7.9
2025-01-01 17:25:55.935446	97.4	27.1	-90.8	19.4
2025-01-01 17:25:57.085517	97.2	27.3	-90.7	14.8
2025-01-01 17:25:58.237691	97.0	27.4	-89.3	9.3
2025-01-01 17:25:59.385081	96.8	27.6	-89.8	15.7
2025-01-01 17:26:00.527005	96.6	27.8	-90.1	10.5
2025-01-01 17:26:01.678973	96.4	27.9	-89.4	15.7
2025-01-01 17:26:02.830475	96.2	28.1	-90.8	10.4
2025-01-01 17:26:03.984808	95.9	28.2	-90.6	7.3
2025-01-01 17:26:05.136812	95.7	28.4	-90.5	6.0
2025-01-01 17:26:06.290419	95.5	28.6	-90.8	6.3
2025-01-01 17:26:07.438187	95.3	28.7	-90.6	6.3
2025-01-01 17:26:08.587998	95.1	28.9	-90.6	5.2
2025-01-01 17:26:09.747204	94.8	29.1	-90.5	11.6
2025-01-01 17:26:10.896459	94.6	29.2	-90.6	12.2
2025-01-01 17:26:12.042749	94.4	29.4	-90.7	13.7
2025-01-01 17:26:13.187528	94.2	29.6	-90.5	9.2
2025-01-01 17:26:14.315119	93.9	29.7	-90.7	14.6
2025-01-01 17:26:15.435341	93.7	29.9	-91.0	16.0
2025-01-01 17:26:16.555497	93.5	30.0	-90.7	11.4
2025-01-01 17:26:17.675424	93.3	30.2	-90.9	11.1
2025-01-01 17:26:18.796889	93.0	30.4	-90.3	16.3
2025-01-01 17:26:19.917440	92.8	30.5	-90.7	16.1
2025-01-01 17:26:21.042210	92.5	30.7	-90.8	14.9
2025-01-01 17:26:22.175699	92.3	30.9	-90.5	15.1
2025-01-01 17:26:23.323989	92.0	31.0	-90.3	12.1
2025-01-01 17:26:24.473561	91.8	31.2	-90.9	13.0
2025-01-01 17:26:25.620825	91.5	31.4	-90.8	8.5
2025-01-01 17:26:26.759407	91.3	31.5	-91.1	15.3
2025-01-01 17:26:27.906382	91.0	31.7	-90.7	16.8
2025-01-01 17:26:29.050195	90.7	31.9	-91.0	7.2
2025-01-01 17:26:30.195239	90.5	32.1	-90.7	9.9
2025-01-01 17:26:31.325267	90.2	32.2	-90.4	11.1
2025-01-01 17:26:32.456205	89.9	32.4	-91.0	11.2
2025-01-01 17:26:33.603264	89.7	32.6	-90.8	9.7
2025-01-01 17:26:34.748466	89.4	32.7	-91.2	10.6
2025-01-01 17:26:35.895631	89.1	32.9	-91.2	14.8
2025-01-01 17:26:37.031203	88.8	33.1	-90.8	11.9
2025-01-01 17:26:38.179291	88.5	33.2	-90.6	12.2
2025-01-01 17:26:39.331441	88.3	33.4	-90.9	15.3
2025-01-01 17:26:40.485067	88.0	33.6	-90.7	12.6
2025-01-01 17:26:41.634452	87.7	33.8	-91.2	12.5
2025-01-01 17:26:42.781327	87.4	33.9	-90.9	16.9
2025-01-01 17:26:43.929414	87.1	34.1	-91.2	15.5
2025-01-01 17:26:45.084487	86.7	34.3	-90.9	17.5
2025-01-01 17:26:46.226820	86.4	34.5	-90.9	17.6
2025-01-01 17:26:47.372682	86.1	34.6	-91.1	14.8
2025-01-01 17:26:48.527446	85.8	34.8	-91.0	6.9
2025-01-01 17:26:49.672729	85.5	35.0	-89.8	5.5
2025-01-01 17:26:50.821531	85.2	35.1	-90.2	14.3
2025-01-01 17:26:51.968489	84.8	35.3	-89.8	6.8
2025-01-01 17:26:53.116237	84.5	35.5	-89.5	7.5
2025-01-01 17:26:54.269848	84.2	35.7	-89.4	14.9
2025-01-01 17:26:55.411412	83.8	35.8	-90.1	13.0
2025-01-01 17:26:56.561411	83.5	36.0	-90.2	13.0
2025-01-01 17:26:57.709318	83.1	36.2	-90.0	16.4
2025-01-01 17:26:58.859579	82.8	36.3	-89.8	16.6
2025-01-01 17:27:00.014305	82.4	36.5	-89.9	11.3
2025-01-01 17:27:01.153299	82.1	36.7	-89.8	8.1
2025-01-01 17:27:02.303489	81.7	36.8	-89.5	11.8
2025-01-01 17:27:03.448793	81.4	37.0	-89.9	9.3
2025-01-01 17:27:04.603603	81.0	37.2	-89.8	11.5
2025-01-01 17:27:05.753728	80.6	37.4	-90.3	14.8
2025-01-01 17:27:06.901883	80.3	37.5	-89.6	13.6
2025-01-01 17:27:08.060071	79.9	37.7	-89.5	16.8
2025-01-01 17:27:09.205522	79.5	37.9	-89.5	16.2
2025-01-01 17:27:10.354791	79.1	38.0	-89.6	16.4
2025-01-01 17:27:11.499467	78.7	38.2	-89.9	9.0
2025-01-01 17:27:12.649464	78.3	38.3	-89.7	8.2
2025-01-01 17:27:13.797777	77.9	38.5	-89.9	11.8
2025-01-01 17:27:14.943322	77.5	38.7	-89.3	9.7
2025-01-01 17:27:16.093599	77.1	38.8	-88.9	6.7
2025-01-01 17:27:17.234432	76.7	39.0	-89.1	13.0
2025-01-01 17:27:18.387139	76.3	39.2	-89.4	16.3
2025-01-01 17:27:19.535455	75.9	39.3	-90.2	14.1
2025-01-01 17:27:20.686878	75.4	39.5	-90.8	13.8
2025-01-01 17:27:21.831954	75.0	39.6	-90.6	15.7
2025-01-01 17:27:22.979982	74.6	39.8	-90.6	15.8
2025-01-01 17:27:24.125405	74.2	39.9	-90.5	14.2
2025-01-01 17:27:25.266569	73.7	40.1	-90.5	16.0
2025-01-01 17:27:26.428124	73.3	40.2	-90.7	14.3
2025-01-01 17:27:27.569091	72.8	40.4	-90.5	13.7
2025-01-01 17:27:28.718515	72.4	40.5	-91.0	16.7
2025-01-01 17:27:29.876531	71.9	40.7	-91.1	17.3
2025-01-01 17:27:31.028396	71.5	40.8	-90.5	11.8
2025-01-01 17:27:32.186785	71.0	41.0	-91.0	13.7
2025-01-01 17:27:33.334846	70.5	41.1	-90.6	16.0
2025-01-01 17:27:34.488952	70.0	41.3	-91.0	18.6
2025-01-01 17:27:35.637709	69.6	41.4	-90.8	19.4
2025-01-01 17:27:36.783181	69.1	41.5	-90.6	15.7
2025-01-01 17:27:37.927696	68.6	41.7	-90.3	17.8
2025-01-01 17:27:39.077904	68.1	41.8	-90.3	14.7
2025-01-01 17:27:40.229201	67.6	41.9	-90.6	10.0
2025-01-01 17:27:41.378532	67.1	42.1	-90.8	14.3
2025-01-01 17:27:42.524100	66.6	42.2	-90.7	8.1
2025-01-01 17:27:43.669081	66.1	42.3	-90.9	8.7
2025-01-01 17:27:44.823558	65.6	42.4	-90.6	9.3
2025-01-01 17:27:45.970318	65.1	42.6	-90.5	9.8
2025-01-01 17:27:47.115481	64.6	42.7	-90.6	8.1
2025-01-01 17:27:48.271263	64.1	42.8	-90.7	11.3
2025-01-01 17:27:49.425134	63.5	42.9	-91.3	10.1
2025-01-01 17:27:50.581855	63.0	43.0	-91.2	14.8
2025-01-01 17:27:51.727875	62.5	43.1	-90.3	12.0
2025-01-01 17:27:52.872493	61.9	43.2	-90.4	12.7
2025-01-01 17:27:54.021869	61.4	43.4	-90.3	14.1
2025-01-01 17:27:55.170076	60.9	43.5	-89.8	10.9
2025-01-01 17:27:56.320573	60.3	43.6	-90.4	15.0
2025-01-01 17:27:57.463316	59.8	43.7	-90.7	14.3
2025-01-01 17:27:58.622869	59.2	43.7	-89.7	9.0
2025-01-01 17:27:59.768331	58.6	43.8	-89.5	10.7
2025-01-01 17:28:00.918123	58.1	43.9	-89.4	9.6
2025-01-01 17:28:02.068465	57.5	44.0	-89.4	8.4
2025-01-01 17:28:03.219406	57.0	44.1	-89.7	7.2
2025-01-01 17:28:04.371529	56.4	44.2	-89.5	13.0
2025-01-01 17:28:05.516892	55.8	44.2	-89.8	8.4
2025-01-01 17:28:06.666743	55.2	44.3	-89.8	6.4
2025-01-01 17:28:07.794547	54.7	44.4	-89.4	13.3
2025-01-01 17:28:08.915336	54.1	44.5	-89.4	5.8
2025-01-01 17:28:10.036514	53.6	44.5	-90.0	11.5
2025-01-01 17:28:11.157695	53.0	44.6	-89.7	13.6
2025-01-01 17:28:12.278843	52.4	44.6	-89.2	9.5
2025-01-01 17:28:13.400216	51.8	44.7	-89.2	13.5
2025-01-01 17:28:14.527361	51.3	44.7	-89.3	9.8
2025-01-01 17:28:15.648134	50.7	44.8	-89.1	12.5
2025-01-01 17:28:16.780472	50.1	44.8	-89.7	10.9
2025-01-01 17:28:17.917500	49.5	44.9	-90.0	19.3
2025-01-01 17:28:19.059319	48.9	44.9	-90.2	16.4
2025-01-01 17:28:20.211990	48.3	44.9	-89.4	15.7
2025-01-01 17:28:21.359596	47.7	45.0	-90.4	8.8
2025-01-01 17:28:22.506558	47.1	45.0	-90.9	8.0
2025-01-01 17:28:23.658868	46.5	45.0	-90.9	11.8
2025-01-01 17:28:24.810724	45.9	45.1	-90.3	10.8
2025-01-01 17:28:25.960301	45.3	45.1	-90.3	10.3
2025-01-01 17:28:27.100403	44.7	45.1	-90.1	12.5
2025-01-01 17:28:28.249337	44.1	45.1	-89.0	10.9
2025-01-01 17:28:29.398413	43.5	45.1	-89.4	13.5
2025-01-01 17:28:30.543583	42.9	45.1	-90.0	3.5
2025-01-01 17:28:31.690493	42.3	45.1	-89.6	10.8
2025-01-01 17:28:32.838176	41.7	45.1	-89.4	11.1
2025-01-01 17:28:33.990266	41.1	45.1	-90.6	9.1
2025-01-01 17:28:35.149877	40.5	45.1	-90.5	6.4
2025-01-01 17:28:36.297085	39.9	45.1	-90.5	7.2
2025-01-01 17:28:37.440502	39.3	45.0	-90.4	7.3
2025-01-01 17:28:38.588228	38.7	45.0	-90.9	9.4
2025-01-01 17:28:39.738598	38.1	45.0	-90.7	15.1
2025-01-01 17:28:40.886447	37.5	45.0	-90.5	13.4
2025-01-01 17:28:42.033633	36.9	44.9	-90.6	9.5
2025-01-01 17:28:43.182405	36.3	44.9	-90.6	9.8
2025-01-01 17:28:44.327698	35.7	44.9	-90.5	13.1
2025-01-01 17:28:45.480283	35.1	44.8	-90.5	10.6
2025-01-01 17:28:46.633046	34.5	44.8	-90.4	14.4
2025-01-01 17:28:47.775595	33.9	44.7	-90.4	17.8
2025-01-01 17:28:48.924426	33.3	44.7	-90.8	14.5
2025-01-01 17:28:50.074365	32.8	44.6	-90.5	15.6
2025-01-01 17:28:51.221384	32.2	44.6	-90.2	16.5
2025-01-01 17:28:52.365992	31.6	44.5	-90.4	16.5
2025-01-01 17:28:53.511431	31.0	44.4	-90.6	10.9
2025-01-01 17:28:54.664207	30.4	44.4	-90.6	10.0
2025-01-01 17:28:55.809538	29.9	44.3	-90.4	18.8
2025-01-01 17:28:56.965637	29.3	44.2	-89.8	19.6
2025-01-01 17:28:58.117398	28.7	44.1	-89.9	19.2
2025-01-01 17:28:59.266209	28.2	44.1	-90.0	19.8
2025-01-01 17:29:00.410966	27.6	44.0	-90.4	11.4
2025-01-01 17:29:01.559455	27.0	43.9	-89.9	14.5
2025-01-01 17:29:02.707129	26.5	43.8	-90.2	13.9
2025-01-01 17:29:03.860487	25.9	43.7	-90.0	13.8
2025-01-01 17:29:05.012071	25.4	43.6	-89.8	15.7
2025-01-01 17:29:06.162590	24.8	43.5	-89.5	15.7
2025-01-01 17:29:07.308887	24.3	43.4	-89.6	15.9
2025-01-01 17:29:08.460015	23.7	43.3	-90.7	9.8
2025-01-01 17:29:09.608870	23.2	43.2	-90.9	15.5
2025-01-01 17:29:10.761781	22.7	43.1	-90.6	17.1
2025-01-01 17:29:11.903480	22.1	43.0	-91.0	15.0
2025-01-01 17:29:13.053820	21.6	42.9	-90.9	14.7
2025-01-01 17:29:14.200522	21.1	42.8	-90.0	25.1
2025-01-01 17:29:15.350562	20.6	42.6	-90.5	21.8
2025-01-01 17:29:16.501837	20.0	42.5	-90.0	16.9
2025-01-01 17:29:17.648061	19.5	42.4	-91.3	16.5
2025-01-01 17:29:18.799445	19.0	42.3	-90.9	20.7
2025-01-01 17:29:19.947912	18.5	42.1	-91.1	10.8
2025-01-01 17:29:21.097364	18.0	42.0	-90.9	20.0
2025-01-01 17:29:22.248314	17.5	41.9	-90.8	18.7
2025-01-01 17:29:23.405157	17.0	41.8	-91.1	21.0
2025-01-01 17:29:24.557562	16.5	41.6	-90.7	18.1
2025-01-01 17:29:25.709538	16.1	41.5	-91.1	20.6
2025-01-01 17:29:26.857148	15.6	41.3	-91.2	21.7
2025-01-01 17:29:28.001647	15.1	41.2	-91.0	8.7
2025-01-01 17:29:29.159086	14.6	41.1	-90.6	18.1
2025-01-01 17:29:30.305397	14.2	40.9	-90.7	8.3
2025-01-01 17:29:31.460279	13.7	40.8	-90.4	18.0
2025-01-01 17:29:32.610985	13.2	40.6	-90.7	18.5
2025-01-01 17:29:33.761211	12.8	40.5	-90.0	17.9
2025-01-01 17:29:34.909173	12.3	40.3	-89.7	14.4
2025-01-01 17:29:36.060615	11.9	40.2	-89.3	6.0
2025-01-01 17:29:37.209717	11.5	40.0	-89.5	19.7
2025-01-01 17:29:38.355644	11.0	39.9	-90.7	10.8
2025-01-01 17:29:39.506207	10.6	39.7	-90.9	8.9
2025-01-01 17:29:40.655431	10.2	39.6	-90.9	15.1
2025-01-01 17:29:41.802666	9.7	39.4	-91.3	13.2
2025-01-01 17:29:42.960222	9.3	39.2	-91.0	11.1
2025-01-01 17:29:44.107238	8.9	39.1	-91.0	11.4
2025-01-01 17:29:45.263183	8.5	38.9	-90.2	17.8
2025-01-01 17:29:46.415396	8.1	38.8	-90.4	15.2
2025-01-01 17:29:47.571304	7.7	38.6	-90.6	10.1
2025-01-01 17:29:48.718588	7.3	38.4	-90.4	10.5
2025-01-01 17:29:49.872942	6.9	38.3	-90.8	12.6
2025-01-01 17:29:51.029181	6.5	38.1	-90.9	10.3
2025-01-01 17:29:52.173297	6.1	37.9	-90.3	8.1
2025-01-01 17:29:53.329282	5.7	37.8	-90.3	16.9
2025-01-01 17:29:54.481160	5.3	37.6	-90.9	11.9
2025-01-01 17:29:55.630530	4.9	37.4	-91.2	9.6
2025-01-01 17:29:56.781356	4.6	37.3	-90.9	10.7
2025-01-01 17:29:57.926625	4.2	37.1	-90.9	14.1
2025-01-01 17:29:59.073418	3.8	36.9	-90.6	11.9
2025-01-01 17:30:00.213866	3.5	36.8	-90.4	11.9
2025-01-01 17:30:01.360938	3.1	36.6	-90.6	10.7
2025-01-01 17:30:02.512467	2.7	36.4	-91.0	11.6
2025-01-01 17:30:03.659791	2.4	36.3	-90.8	8.3
2025-01-01 17:30:04.806372	2.1	36.1	-90.7	15.8
2025-01-01 17:30:05.952452	1.7	35.9	-90.9	19.9
2025-01-01 17:30:07.098734	1.4	35.8	-90.7	8.3
2025-01-01 17:30:08.237838	1.0	35.6	-90.2	10.4
2025-01-01 17:30:09.392541	0.7	35.4	-90.6	13.2
2025-01-01 17:30:10.545610	0.4	35.2	-90.5	13.7
2025-01-01 17:30:11.703719	0.0	35.1	-90.4	14.8
2025-01-01 17:30:12.851420	359.7	34.9	-89.3	15.9
2025-01-01 17:30:14.004799	359.4	34.7	-89.0	8.5
2025-01-01 17:30:15.159438	359.1	34.5	-89.3	7.0
2025-01-01 17:30:16.312779	358.8	34.4	-89.3	12.1
2025-01-01 17:30:17.468741	358.5	34.2	-89.8	6.4
2025-01-01 17:30:18.613120	358.2	34.0	-89.6	9.0
2025-01-01 17:30:19.764576	357.9	33.9	-89.6	13.5
2025-01-01 17:30:20.913471	357.6	33.7	-89.8	15.7
2025-01-01 17:30:22.067834	357.3	33.5	-90.4	6.2
2025-01-01 17:30:23.223720	357.0	33.3	-90.7	13.4
2025-01-01 17:30:24.367788	356.7	33.2	-90.6	10.0
2025-01-01 17:30:25.517645	356.4	33.0	-90.5	4.7
2025-01-01 17:30:26.665454	356.1	32.8	-91.0	6.1
2025-01-01 17:30:27.814865	355.8	32.7	-90.5	6.8
2025-01-01 17:30:28.965405	355.5	32.5	-90.4	6.2
2025-01-01 17:30:30.112291	355.3	32.3	-90.3	8.2
2025-01-01 17:30:31.268230	355.0	32.1	-90.7	6.5
2025-01-01 17:30:32.412641	354.7	32.0	-90.8	9.2
2025-01-01 17:30:33.566182	354.5	31.8	-90.5	8.1
2025-01-01 17:30:34.715527	354.2	31.6	-90.4	9.7
2025-01-01 17:30:35.861329	353.9	31.5	-91.0	10.4
2025-01-01 17:30:37.005816	353.7	31.3	-90.8	8.5
2025-01-01 17:30:38.140423	353.4	31.1	-90.5	10.4
2025-01-01 17:30:39.261449	353.2	31.0	-90.6	11.7
2025-01-01 17:30:40.382493	352.9	30.8	-90.8	14.0
2025-01-01 17:30:41.502663	352.7	30.6	-91.2	8.7
2025-01-01 17:30:42.623199	352.5	30.5	-91.3	11.8
2025-01-01 17:30:43.744231	352.2	30.3	-91.1	15.5
2025-01-01 17:30:44.865004	352.0	30.1	-91.0	16.8
2025-01-01 17:30:45.985353	351.8	30.0	-91.5	8.0
2025-01-01 17:30:47.128202	351.5	29.8	-90.9	5.7
2025-01-01 17:30:48.272218	351.3	29.6	-91.0	12.4
2025-01-01 17:30:49.419188	351.1	29.5	-91.2	11.2
2025-01-01 17:30:50.570656	350.8	29.3	-90.7	6.9
2025-01-01 17:30:51.711309	350.6	29.1	-91.0	12.7
2025-01-01 17:30:52.861948	350.4	29.0	-91.2	17.2
2025-01-01 17:30:54.014568	350.2	28.8	-90.6	8.3
2025-01-01 17:30:55.162679	350.0	28.7	-90.2	9.9
2025-01-01 17:30:56.314146	349.7	28.5	-90.5	7.0
2025-01-01 17:30:57.462000	349.5	28.3	-91.1	6.8
2025-01-01 17:30:58.611556	349.3	28.2	-90.8	10.8
2025-01-01 17:30:59.763685	349.1	28.0	-90.3	8.8
2025-01-01 17:31:00.910294	348.9	27.8	-90.7	13.7
2025-01-01 17:31:02.055013	348.7	27.7	-90.8	7.8
2025-01-01 17:31:03.205121	348.5	27.5	-90.3	9.9
2025-01-01 17:31:04.355029	348.3	27.4	-90.5	7.3
2025-01-01 17:31:05.506342	348.1	27.2	-91.0	6.8
2025-01-01 17:31:06.663185	347.9	27.0	-91.4	6.2
2025-01-01 17:31:07.812144	347.7	26.9	-91.0	12.5
2025-01-01 17:31:08.968039	347.5	26.7	-90.6	7.1
2025-01-01 17:31:10.116880	347.3	26.6	-90.3	5.1
2025-01-01 17:31:11.267823	347.1	26.4	-91.0	8.1
2025-01-01 17:31:12.414971	346.9	26.3	-91.3	7.1
2025-01-01 17:31:13.563002	346.7	26.1	-91.4	7.7
2025-01-01 17:31:14.711791	346.6	25.9	-91.1	13.2
2025-01-01 17:31:15.857389	346.4	25.8	-91.5	8.3
2025-01-01 17:31:17.015221	346.2	25.6	-91.4	9.0
2025-01-01 17:31:18.161988	346.0	25.5	-90.5	8.8
2025-01-01 17:31:19.314175	345.8	25.3	-90.8	5.7
2025-01-01 17:31:20.458592	345.7	25.2	-91.6	7.7
2025-01-01 17:31:21.606454	345.5	25.0	-91.4	6.3
2025-01-01 17:31:22.757337	345.3	24.9	-90.2	12.4
2025-01-01 17:31:23.909074	345.1	24.7	-89.6	6.5
2025-01-01 17:31:25.057506	345.0	24.6	-90.0	7.2
2025-01-01 17:31:26.204926	344.8	24.4	-90.4	5.5
2025-01-01 17:31:27.353501	344.6	24.3	-90.9	8.0
2025-01-01 17:31:28.504637	344.5	24.1	-91.2	6.5
2025-01-01 17:31:29.652674	344.3	24.0	-91.9	9.7
2025-01-01 17:31:30.799263	344.2	23.8	-91.8	9.1
2025-01-01 17:31:31.948344	344.0	23.7	-91.1	9.2
2025-01-01 17:31:33.098931	343.8	23.5	-91.3	10.6
2025-01-01 17:31:34.241434	343.7	23.4	-91.4	9.6
2025-01-01 17:31:35.392573	343.5	23.3	-90.9	14.3
2025-01-01 17:31:36.539236	343.4	23.1	-91.2	13.3
2025-01-01 17:31:37.685347	343.2	23.0	-91.5	6.1
2025-01-01 17:31:38.831079	343.1	22.8	-91.2	7.5
2025-01-01 17:31:39.982458	342.9	22.7	-91.3	3.4
2025-01-01 17:31:41.136649	342.8	22.5	-90.9	6.7
2025-01-01 17:31:42.286731	342.6	22.4	-90.4	13.5
2025-01-01 17:31:43.436028	342.5	22.3	-90.1	9.5
2025-01-01 17:31:44.584505	342.3	22.1	-89.8	5.0
2025-01-01 17:31:45.734348	342.2	22.0	-90.0	9.2
2025-01-01 17:31:46.881072	342.1	21.8	-90.2	15.4
2025-01-01 17:31:48.035423	341.9	21.7	-90.3	6.8
2025-01-01 17:31:49.187558	341.8	21.6	-89.7	7.9
2025-01-01 17:31:50.341699	341.6	21.4	-90.9	8.4
2025-01-01 17:31:51.497329	341.5	21.3	-91.0	10.2
2025-01-01 17:31:52.647749	341.4	21.2	-91.3	6.1
2025-01-01 17:31:53.796999	341.2	21.0	-91.1	7.4
2025-01-01 17:31:54.942230	341.1	20.9	-90.8	12.4
2025-01-01 17:31:56.100069	341.0	20.7	-90.9	11.0
2025-01-01 17:31:57.254295	340.8	20.6	-91.3	6.9
2025-01-01 17:31:58.406105	340.7	20.5	-91.0	9.1
2025-01-01 17:31:59.561379	340.6	20.3	-91.6	6.5
2025-01-01 17:32:00.702978	340.5	20.2	-91.0	5.7
2025-01-01 17:32:01.853763	340.3	20.1	-91.1	4.9
2025-01-01 17:32:03.006681	340.2	19.9	-91.3	3.8
2025-01-01 17:32:04.155479	340.1	19.8	-90.8	4.8
2025-01-01 17:32:05.316761	340.0	19.7	-90.9	4.6
2025-01-01 17:32:06.473005	339.8	19.6	-91.0	4.2
2025-01-01 17:32:07.632134	339.7	19.4	-90.6	8.2
2025-01-01 17:32:08.777508	339.6	19.3	-90.8	3.2
2025-01-01 17:32:09.923376	339.5	19.2	-90.4	8.9
2025-01-01 17:32:11.080565	339.4	19.0	-90.4	3.6
2025-01-01 17:32:12.236467	339.2	18.9	-90.2	5.0
2025-01-01 17:32:13.379912	339.1	18.8	-90.6	4.5
2025-01-01 17:32:14.522937	339.0	18.7	-90.3	3.7
2025-01-01 17:32:15.648594	338.9	18.5	-90.2	3.6
2025-01-01 17:32:16.769787	338.8	18.4	-89.7	3.7
2025-01-01 17:32:17.890815	338.7	18.3	-89.3	6.0
2025-01-01 17:32:19.011984	338.6	18.2	-89.8	5.8
2025-01-01 17:32:20.132936	338.5	18.0	-89.4	5.7
2025-01-01 17:32:21.254343	338.4	17.9	-89.3	6.5
2025-01-01 17:32:22.378744	338.3	17.8	-89.5	5.6
2025-01-01 17:32:23.517602	338.2	17.7	-89.7	6.0
2025-01-01 17:32:24.664118	338.1	17.6	-89.7	5.7
2025-01-01 17:32:25.813846	337.9	17.4	-89.3	4.3
2025-01-01 17:32:26.960393	337.8	17.3	-89.6	5.4
2025-01-01 17:32:28.102931	337.7	17.2	-89.0	4.9
2025-01-01 17:32:29.248853	337.6	17.1	-89.5	4.5
2025-01-01 17:32:30.399019	337.5	17.0	-89.9	2.4
2025-01-01 17:32:31.547580	337.4	16.8	-90.1	3.4
2025-01-01 17:32:32.697230	337.3	16.7	-90.2	4.3
2025-01-01 17:32:33.846446	337.2	16.6	-90.2	5.8
2025-01-01 17:32:34.996787	337.1	16.5	-90.3	7.2
2025-01-01 17:32:36.142432	337.0	16.4	-91.4	8.2
2025-01-01 17:32:37.294850	336.9	16.3	-90.7	7.9
2025-01-01 17:32:38.460422	336.8	16.1	-91.0	5.7
2025-01-01 17:32:39.613329	336.7	16.0	-91.4	7.0
2025-01-01 17:32:40.771205	336.7	15.9	-91.2	8.2
2025-01-01 17:32:41.920712	336.6	15.8	-91.5	6.7
2025-01-01 17:32:43.068776	336.5	15.7	-90.8	4.4
2025-01-01 17:32:44.211622	336.4	15.6	-87.9	5.2
2025-01-01 17:32:45.358937	336.3	15.5	-91.2	7.2
2025-01-01 17:32:46.487343	336.2	15.3	-91.1	4.4
2025-01-01 17:32:47.625293	336.1	15.2	-90.9	7.2
2025-01-01 17:32:48.773455	336.0	15.1	-91.3	6.0
2025-01-01 17:32:49.918546	335.9	15.0	-91.5	10.7
2025-01-01 17:32:51.071116	335.8	14.9	-91.1	5.6
2025-01-01 17:32:52.217568	335.7	14.8	-91.3	4.5
2025-01-01 17:32:53.363906	335.7	14.7	-90.8	7.3
2025-01-01 17:32:54.504598	335.6	14.6	-90.8	5.7
#Closed at: 2025-01-01 17:24:17.032867