passes_logs/2025/01/01/LEX_Murmansk/LEX_Murmansk__20250101_204634_NOAA_18_rec.log

#Pass ID: 20250101_204634_NOAA 18
#Satellite: NOAA 18
#Configuration: NOAA 18
#Start time: 2025-01-01 20:46:29.157739

#LorettStation: 1.0.0 05.05.2024
#Station: LEX_Murmansk
#Location: 33.156738 lon 68.926811 lat
#TLE: 1 28654U 05018A   24366.86382707  .00000695  00000+0  39254-3 0  9996
#TLE: 2 28654  98.8588  82.0571 0013692 219.5840 140.4334 14.13471437 11103

#Time	Az	El	Level	SNR
2025-01-01 20:46:41.441262	215.4	16.0	-90.8	6.2
2025-01-01 20:46:42.606100	215.6	16.1	-90.5	4.7
2025-01-01 20:46:43.771136	215.7	16.2	-89.6	6.4
2025-01-01 20:46:44.933525	215.9	16.3	-90.1	6.4
2025-01-01 20:46:46.088856	216.0	16.4	-89.6	6.1
2025-01-01 20:46:47.267880	216.2	16.5	-88.4	6.7
2025-01-01 20:46:48.430915	216.3	16.6	-88.7	4.6
2025-01-01 20:46:49.589499	216.5	16.7	-89.3	4.8
2025-01-01 20:46:50.755923	216.7	16.8	-89.1	7.6
2025-01-01 20:46:51.919752	216.8	16.9	-90.1	6.6
2025-01-01 20:46:53.076276	217.0	17.0	-90.4	4.8
2025-01-01 20:46:54.239460	217.2	17.1	-89.8	4.9
2025-01-01 20:46:55.404140	217.3	17.2	-90.5	7.0
2025-01-01 20:46:56.566782	217.5	17.3	-90.1	5.1
2025-01-01 20:46:57.733095	217.7	17.5	-90.0	6.0
2025-01-01 20:46:58.896028	217.8	17.6	-90.6	11.8
2025-01-01 20:47:00.058673	218.0	17.7	-90.0	5.9
2025-01-01 20:47:01.209273	218.2	17.8	-90.2	6.7
2025-01-01 20:47:02.372919	218.4	17.9	-90.6	11.6
2025-01-01 20:47:03.539596	218.5	18.0	-91.1	9.3
2025-01-01 20:47:04.698940	218.7	18.1	-90.4	10.1
2025-01-01 20:47:05.858114	218.9	18.2	-90.7	9.9
2025-01-01 20:47:07.021285	219.1	18.3	-90.5	4.0
2025-01-01 20:47:08.183037	219.2	18.4	-90.3	4.1
2025-01-01 20:47:09.349226	219.4	18.5	-89.8	8.4
2025-01-01 20:47:10.518343	219.6	18.6	-90.5	7.1
2025-01-01 20:47:11.691857	219.8	18.7	-90.7	5.9
2025-01-01 20:47:12.853027	220.0	18.8	-90.5	5.4
2025-01-01 20:47:14.016739	220.2	18.9	-90.6	11.7
2025-01-01 20:47:15.180292	220.3	19.0	-90.4	11.5
2025-01-01 20:47:16.351887	220.5	19.1	-89.9	12.5
2025-01-01 20:47:17.517220	220.7	19.2	-89.4	5.0
2025-01-01 20:47:18.682701	220.9	19.3	-89.7	6.1
2025-01-01 20:47:19.847940	221.1	19.4	-90.5	11.2
2025-01-01 20:47:21.015016	221.3	19.5	-90.7	6.3
2025-01-01 20:47:22.182329	221.5	19.6	-90.1	7.2
2025-01-01 20:47:23.342344	221.7	19.7	-90.2	9.1
2025-01-01 20:47:24.504824	221.9	19.8	-90.7	12.9
2025-01-01 20:47:25.657866	222.1	19.9	-90.5	7.6
2025-01-01 20:47:26.821689	222.3	20.1	-90.7	6.4
2025-01-01 20:47:27.986275	222.5	20.2	-90.5	6.2
2025-01-01 20:47:29.151435	222.7	20.3	-90.4	10.1
2025-01-01 20:47:30.305806	222.9	20.4	-90.4	3.7
2025-01-01 20:47:31.470849	223.1	20.5	-90.4	9.9
2025-01-01 20:47:32.639673	223.3	20.6	-90.6	7.3
2025-01-01 20:47:33.803706	223.5	20.7	-90.7	17.3
2025-01-01 20:47:34.971766	223.7	20.8	-90.5	6.4
2025-01-01 20:47:36.131733	223.9	20.9	-90.3	15.6
2025-01-01 20:47:37.286701	224.1	21.0	-90.1	11.5
2025-01-01 20:47:38.434219	224.3	21.1	-90.3	5.6
2025-01-01 20:47:39.558198	224.5	21.2	-90.4	12.1
2025-01-01 20:47:40.678042	224.7	21.3	-90.3	4.3
2025-01-01 20:47:41.799921	225.0	21.4	-90.1	8.3
2025-01-01 20:47:42.920038	225.2	21.5	-90.3	15.7
2025-01-01 20:47:44.039985	225.4	21.6	-90.5	7.3
2025-01-01 20:47:45.160412	225.6	21.7	-90.4	6.9
2025-01-01 20:47:46.283395	225.8	21.8	-90.0	8.2
2025-01-01 20:47:47.418846	226.0	21.9	-90.0	7.7
2025-01-01 20:47:48.573437	226.2	22.0	-90.0	4.8
2025-01-01 20:47:49.737827	226.5	22.1	-90.1	5.5
2025-01-01 20:47:50.894818	226.7	22.3	-90.2	13.4
2025-01-01 20:47:52.049411	226.9	22.4	-89.7	4.5
2025-01-01 20:47:53.213837	227.2	22.5	-89.8	7.5
2025-01-01 20:47:54.377009	227.4	22.6	-90.1	12.7
2025-01-01 20:47:55.539830	227.6	22.7	-90.5	9.8
2025-01-01 20:47:56.699116	227.9	22.8	-90.5	7.5
2025-01-01 20:47:57.862162	228.1	22.9	-90.4	9.7
2025-01-01 20:47:59.026664	228.3	23.0	-90.2	7.9
2025-01-01 20:48:00.188071	228.6	23.1	-89.7	10.6
2025-01-01 20:48:01.345852	228.8	23.2	-89.8	11.0
2025-01-01 20:48:02.502401	229.1	23.3	-89.1	4.5
2025-01-01 20:48:03.664733	229.3	23.4	-89.0	5.7
2025-01-01 20:48:04.828490	229.6	23.5	-88.7	5.7
2025-01-01 20:48:05.987004	229.8	23.6	-89.3	5.9
2025-01-01 20:48:07.159397	230.1	23.7	-89.5	9.8
2025-01-01 20:48:08.321819	230.3	23.8	-89.8	5.3
2025-01-01 20:48:09.484949	230.6	23.9	-89.9	6.7
2025-01-01 20:48:10.646582	230.8	24.1	-90.3	5.6
2025-01-01 20:48:11.805626	231.1	24.2	-90.6	9.4
2025-01-01 20:48:12.974329	231.3	24.3	-90.2	3.7
2025-01-01 20:48:14.138157	231.6	24.4	-89.6	5.3
2025-01-01 20:48:15.300065	231.9	24.5	-89.7	5.3
2025-01-01 20:48:16.453417	232.1	24.6	-89.8	5.7
2025-01-01 20:48:17.614414	232.4	24.7	-89.4	4.9
2025-01-01 20:48:18.776278	232.6	24.8	-89.6	6.3
2025-01-01 20:48:19.935168	232.9	24.9	-90.4	5.8
2025-01-01 20:48:21.095494	233.2	25.0	-89.7	7.9
2025-01-01 20:48:22.257682	233.5	25.1	-89.4	8.1
2025-01-01 20:48:23.420256	233.7	25.2	-90.2	8.8
2025-01-01 20:48:24.585287	234.0	25.3	-90.1	7.9
2025-01-01 20:48:25.744137	234.3	25.4	-89.6	3.8
2025-01-01 20:48:26.905469	234.6	25.5	-89.7	5.2
2025-01-01 20:48:28.072797	234.8	25.6	-89.8	3.5
2025-01-01 20:48:29.232164	235.1	25.7	-89.4	2.3
2025-01-01 20:48:30.399807	235.4	25.8	-89.7	4.0
2025-01-01 20:48:31.570563	235.7	25.9	-89.8	3.6
2025-01-01 20:48:32.730236	236.0	26.0	-89.9	6.8
2025-01-01 20:48:33.893308	236.3	26.1	-90.1	7.8
2025-01-01 20:48:35.048318	236.6	26.2	-89.9	3.8
2025-01-01 20:48:36.211982	236.9	26.3	-89.7	3.6
2025-01-01 20:48:37.376652	237.1	26.4	-89.3	6.7
2025-01-01 20:48:38.539798	237.4	26.5	-89.5	4.8
2025-01-01 20:48:39.701734	237.7	26.6	-89.6	6.1
2025-01-01 20:48:40.861492	238.0	26.7	-89.4	6.2
2025-01-01 20:48:42.026839	238.3	26.8	-89.9	7.1
2025-01-01 20:48:43.190953	238.6	26.9	-89.7	7.8
2025-01-01 20:48:44.352171	239.0	27.0	-89.6	10.5
2025-01-01 20:48:45.505930	239.3	27.1	-90.5	11.1
2025-01-01 20:48:46.671333	239.6	27.2	-89.9	16.2
2025-01-01 20:48:47.823151	239.9	27.3	-89.7	13.4
2025-01-01 20:48:48.990061	240.2	27.3	-89.8	15.3
2025-01-01 20:48:50.155443	240.5	27.4	-89.4	12.1
2025-01-01 20:48:51.320282	240.8	27.5	-89.3	14.7
2025-01-01 20:48:52.481833	241.1	27.6	-89.5	11.2
2025-01-01 20:48:53.648848	241.5	27.7	-89.8	10.1
2025-01-01 20:48:54.812080	241.8	27.8	-89.9	16.6
2025-01-01 20:48:55.971263	242.1	27.9	-89.9	13.6
2025-01-01 20:48:57.125986	242.4	28.0	-89.2	20.4
2025-01-01 20:48:58.275559	242.7	28.1	-89.3	17.2
2025-01-01 20:48:59.409796	243.1	28.2	-89.8	7.6
2025-01-01 20:49:00.531665	243.4	28.2	-90.5	15.2
2025-01-01 20:49:01.652347	243.7	28.3	-89.8	8.9
2025-01-01 20:49:02.773978	244.0	28.4	-90.0	17.7
2025-01-01 20:49:03.897521	244.3	28.5	-89.9	17.9
2025-01-01 20:49:05.016915	244.7	28.6	-89.6	6.3
2025-01-01 20:49:06.148901	245.0	28.6	-89.5	9.8
2025-01-01 20:49:07.283698	245.3	28.7	-89.4	13.7
2025-01-01 20:49:08.410985	245.7	28.8	-89.3	15.9
2025-01-01 20:49:09.549973	246.0	28.9	-89.7	10.7
2025-01-01 20:49:10.701142	246.3	29.0	-89.5	7.6
2025-01-01 20:49:11.845562	246.7	29.0	-89.7	13.6
2025-01-01 20:49:13.000700	247.0	29.1	-89.6	17.4
2025-01-01 20:49:14.133413	247.4	29.2	-89.6	12.8
2025-01-01 20:49:15.254527	247.7	29.3	-89.6	17.0
2025-01-01 20:49:16.405063	248.0	29.3	-90.6	21.2
2025-01-01 20:49:17.556139	248.4	29.4	-89.7	14.9
2025-01-01 20:49:18.718454	248.8	29.5	-89.5	19.0
2025-01-01 20:49:19.873553	249.1	29.6	-89.4	19.8
2025-01-01 20:49:21.023752	249.5	29.6	-89.8	14.6
2025-01-01 20:49:22.189655	249.8	29.7	-89.5	12.1
2025-01-01 20:49:23.353846	250.2	29.8	-88.9	17.8
2025-01-01 20:49:24.521584	250.6	29.8	-89.5	14.4
2025-01-01 20:49:25.683431	250.9	29.9	-89.4	21.5
2025-01-01 20:49:26.847192	251.3	30.0	-90.2	16.9
2025-01-01 20:49:28.009380	251.6	30.0	-90.5	17.3
2025-01-01 20:49:29.167051	252.0	30.1	-89.5	15.2
2025-01-01 20:49:30.331630	252.4	30.2	-89.6	18.4
2025-01-01 20:49:31.490143	252.8	30.2	-89.9	14.9
2025-01-01 20:49:32.656868	253.1	30.3	-89.8	17.7
2025-01-01 20:49:33.816856	253.5	30.3	-90.3	11.0
2025-01-01 20:49:34.969454	253.9	30.4	-90.1	10.5
2025-01-01 20:49:36.131909	254.3	30.4	-89.8	17.0
2025-01-01 20:49:37.301544	254.6	30.5	-89.4	10.9
2025-01-01 20:49:38.463641	255.0	30.6	-89.5	10.4
2025-01-01 20:49:39.616420	255.4	30.6	-90.2	9.9
2025-01-01 20:49:40.774751	255.8	30.7	-89.9	20.3
2025-01-01 20:49:41.906516	256.1	30.7	-90.0	18.0
2025-01-01 20:49:43.057278	256.5	30.8	-89.8	8.6
2025-01-01 20:49:44.210434	256.9	30.8	-89.6	18.6
2025-01-01 20:49:45.361532	257.3	30.8	-89.8	15.7
2025-01-01 20:49:46.507462	257.7	30.9	-89.4	12.5
2025-01-01 20:49:47.665211	258.1	30.9	-90.4	13.7
2025-01-01 20:49:48.821529	258.4	31.0	-89.8	16.0
2025-01-01 20:49:49.973423	258.8	31.0	-89.6	12.8
2025-01-01 20:49:51.112387	259.2	31.1	-89.9	15.0
2025-01-01 20:49:52.241782	259.6	31.1	-89.8	17.6
2025-01-01 20:49:53.401738	260.0	31.1	-90.0	8.8
2025-01-01 20:49:54.541028	260.4	31.2	-89.6	11.5
2025-01-01 20:49:55.694688	260.8	31.2	-89.9	17.3
2025-01-01 20:49:56.848039	261.2	31.2	-89.5	12.2
2025-01-01 20:49:58.003092	261.5	31.3	-89.6	10.3
2025-01-01 20:49:59.162699	261.9	31.3	-89.5	11.3
2025-01-01 20:50:00.310464	262.3	31.3	-88.9	22.8
2025-01-01 20:50:01.468268	262.7	31.3	-89.4	12.5
2025-01-01 20:50:02.632469	263.1	31.4	-90.1	6.2
2025-01-01 20:50:03.795361	263.5	31.4	-90.1	16.2
2025-01-01 20:50:04.951004	263.9	31.4	-89.8	5.8
2025-01-01 20:50:06.110843	264.3	31.4	-89.7	11.8
2025-01-01 20:50:07.277478	264.7	31.4	-90.2	14.3
2025-01-01 20:50:08.440242	265.1	31.5	-90.4	12.2
2025-01-01 20:50:09.607395	265.5	31.5	-89.9	9.0
2025-01-01 20:50:10.769417	265.9	31.5	-89.6	15.5
2025-01-01 20:50:11.934588	266.3	31.5	-89.9	5.7
2025-01-01 20:50:13.095619	266.7	31.5	-89.7	11.5
2025-01-01 20:50:14.271934	267.1	31.5	-89.8	10.8
2025-01-01 20:50:15.437091	267.6	31.5	-89.2	6.0
2025-01-01 20:50:16.590629	268.0	31.5	-89.2	9.2
2025-01-01 20:50:17.764387	268.4	31.5	-88.8	12.9
2025-01-01 20:50:18.930883	268.8	31.6	-88.8	13.8
2025-01-01 20:50:20.094846	269.2	31.6	-90.3	7.6
2025-01-01 20:50:21.260525	269.6	31.6	-89.9	11.6
2025-01-01 20:50:22.425232	270.0	31.6	-90.0	16.7
2025-01-01 20:50:23.591493	270.4	31.6	-90.6	9.3
2025-01-01 20:50:24.750208	270.8	31.5	-91.2	10.5
2025-01-01 20:50:25.913702	271.2	31.5	-90.9	7.3
2025-01-01 20:50:27.066692	271.6	31.5	-90.5	14.6
2025-01-01 20:50:28.223361	272.0	31.5	-90.5	7.3
2025-01-01 20:50:29.386546	272.4	31.5	-89.8	11.6
2025-01-01 20:50:30.546992	272.8	31.5	-90.4	5.6
2025-01-01 20:50:31.716928	273.2	31.5	-90.6	7.0
2025-01-01 20:50:32.876190	273.6	31.5	-90.9	4.9
2025-01-01 20:50:34.038742	274.0	31.5	-89.3	4.7
2025-01-01 20:50:35.202072	274.4	31.4	-90.5	5.5
2025-01-01 20:50:36.359684	274.8	31.4	-89.9	12.4
2025-01-01 20:50:37.522600	275.2	31.4	-89.8	6.4
2025-01-01 20:50:38.685002	275.6	31.4	-90.2	7.0
2025-01-01 20:50:39.849595	276.0	31.4	-90.8	8.1
2025-01-01 20:50:41.015581	276.4	31.3	-91.1	5.8
2025-01-01 20:50:42.174849	276.8	31.3	-90.5	4.1
2025-01-01 20:50:43.347853	277.2	31.3	-90.3	10.1
2025-01-01 20:50:44.507208	277.6	31.2	-90.3	6.2
2025-01-01 20:50:45.665868	278.0	31.2	-90.5	5.4
2025-01-01 20:50:46.824454	278.4	31.2	-90.2	4.8
2025-01-01 20:50:47.977688	278.8	31.1	-90.5	4.1
2025-01-01 20:50:49.136298	279.2	31.1	-90.1	4.5
2025-01-01 20:50:50.292004	279.5	31.1	-90.8	8.2
2025-01-01 20:50:51.446076	279.9	31.0	-90.9	5.7
2025-01-01 20:50:52.575922	280.3	31.0	-90.6	4.5
2025-01-01 20:50:53.697423	280.7	31.0	-90.7	7.5
2025-01-01 20:50:54.817868	281.1	30.9	-91.1	6.7
2025-01-01 20:50:55.938433	281.4	30.9	-90.4	9.5
2025-01-01 20:50:57.057795	281.8	30.8	-90.4	7.6
2025-01-01 20:50:58.187842	282.2	30.8	-90.4	9.3
2025-01-01 20:50:59.313602	282.6	30.7	-90.8	8.6
2025-01-01 20:51:00.440434	282.9	30.7	-91.1	9.8
2025-01-01 20:51:01.593567	283.3	30.6	-90.8	4.8
2025-01-01 20:51:02.753624	283.7	30.6	-90.2	5.1
2025-01-01 20:51:03.919469	284.1	30.5	-90.6	16.1
2025-01-01 20:51:05.070929	284.4	30.5	-90.3	6.3
2025-01-01 20:51:06.229637	284.8	30.4	-90.1	10.7
2025-01-01 20:51:07.384436	285.2	30.4	-90.1	4.8
2025-01-01 20:51:08.545237	285.6	30.3	-90.1	9.4
2025-01-01 20:51:09.703566	285.9	30.3	-90.2	14.5
2025-01-01 20:51:10.869465	286.3	30.2	-90.5	14.6
2025-01-01 20:51:12.030859	286.7	30.1	-90.8	6.2
2025-01-01 20:51:13.186779	287.1	30.1	-90.2	4.5
2025-01-01 20:51:14.345029	287.4	30.0	-90.5	6.4
2025-01-01 20:51:15.507287	287.8	29.9	-90.6	9.9
2025-01-01 20:51:16.664989	288.1	29.9	-90.4	7.1
2025-01-01 20:51:17.828717	288.5	29.8	-91.0	15.4
2025-01-01 20:51:18.984569	288.9	29.7	-90.4	11.0
2025-01-01 20:51:20.145283	289.2	29.7	-90.5	10.0
2025-01-01 20:51:21.293046	289.6	29.6	-90.1	9.3
2025-01-01 20:51:22.461437	289.9	29.5	-90.5	7.1
2025-01-01 20:51:23.627562	290.3	29.5	-90.3	9.6
2025-01-01 20:51:24.781054	290.7	29.4	-90.4	16.4
2025-01-01 20:51:25.947409	291.0	29.3	-90.6	8.4
2025-01-01 20:51:27.102627	291.4	29.2	-90.5	7.4
2025-01-01 20:51:28.269678	291.7	29.2	-90.5	18.5
2025-01-01 20:51:29.434745	292.1	29.1	-90.5	9.8
2025-01-01 20:51:30.597851	292.4	29.0	-90.3	9.9
2025-01-01 20:51:31.763175	292.8	28.9	-90.6	13.4
2025-01-01 20:51:32.926007	293.1	28.9	-90.6	15.1
2025-01-01 20:51:34.091472	293.4	28.8	-90.4	5.4
2025-01-01 20:51:35.251775	293.8	28.7	-90.2	14.7
2025-01-01 20:51:36.418240	294.1	28.6	-90.4	14.2
2025-01-01 20:51:37.573181	294.5	28.5	-90.7	8.6
2025-01-01 20:51:38.735980	294.8	28.4	-90.8	7.9
2025-01-01 20:51:39.897887	295.1	28.4	-90.5	18.3
2025-01-01 20:51:41.061449	295.5	28.3	-90.6	7.5
2025-01-01 20:51:42.216028	295.8	28.2	-89.9	8.0
2025-01-01 20:51:43.383955	296.1	28.1	-89.8	7.0
2025-01-01 20:51:44.539263	296.4	28.0	-90.9	5.9
2025-01-01 20:51:45.705253	296.8	27.9	-91.0	9.9
2025-01-01 20:51:46.852568	297.1	27.8	-91.3	14.2
2025-01-01 20:51:48.016872	297.4	27.8	-91.2	5.4
2025-01-01 20:51:49.181509	297.7	27.7	-90.5	10.6
2025-01-01 20:51:50.347828	298.0	27.6	-90.2	12.9
2025-01-01 20:51:51.508298	298.4	27.5	-90.6	7.2
2025-01-01 20:51:52.670551	298.7	27.4	-90.4	8.0
2025-01-01 20:51:53.836367	299.0	27.3	-90.6	8.4
2025-01-01 20:51:54.995369	299.3	27.2	-90.2	7.9
2025-01-01 20:51:56.163133	299.6	27.1	-90.1	13.8
2025-01-01 20:51:57.316190	299.9	27.0	-90.2	7.0
2025-01-01 20:51:58.483214	300.2	26.9	-90.2	5.3
2025-01-01 20:51:59.650327	300.5	26.8	-90.8	8.2
2025-01-01 20:52:00.805979	300.8	26.7	-90.7	7.7
2025-01-01 20:52:01.964897	301.1	26.6	-90.7	7.2
2025-01-01 20:52:03.127355	301.4	26.5	-90.3	7.9
2025-01-01 20:52:04.294284	301.7	26.4	-90.1	9.1
2025-01-01 20:52:05.458807	302.0	26.3	-90.1	6.3
2025-01-01 20:52:06.625431	302.3	26.2	-90.6	15.0
2025-01-01 20:52:07.781366	302.6	26.1	-90.3	9.1
2025-01-01 20:52:08.933996	302.9	26.0	-90.3	9.4
2025-01-01 20:52:10.095935	303.2	25.9	-90.6	10.2
2025-01-01 20:52:11.260534	303.5	25.8	-90.3	9.9
2025-01-01 20:52:12.425827	303.7	25.7	-90.8	6.2
2025-01-01 20:52:13.590367	304.0	25.6	-90.8	7.1
2025-01-01 20:52:14.744733	304.3	25.5	-90.2	15.2
2025-01-01 20:52:15.899919	304.6	25.4	-90.3	7.1
2025-01-01 20:52:17.026485	304.8	25.3	-90.4	12.4
2025-01-01 20:52:18.147706	305.1	25.2	-90.6	8.7
2025-01-01 20:52:19.272045	305.4	25.1	-90.8	6.3
2025-01-01 20:52:20.392905	305.6	25.1	-90.7	12.3
2025-01-01 20:52:21.513805	305.9	25.0	-90.5	6.4
2025-01-01 20:52:22.635391	306.2	24.9	-90.6	8.3
2025-01-01 20:52:23.757279	306.4	24.8	-90.6	9.0
2025-01-01 20:52:24.898380	306.7	24.7	-90.3	4.2
2025-01-01 20:52:26.055009	306.9	24.5	-90.2	7.0
2025-01-01 20:52:27.203376	307.2	24.4	-90.1	15.2
2025-01-01 20:52:28.366748	307.5	24.3	-89.7	8.2
2025-01-01 20:52:29.516608	307.7	24.2	-90.5	11.4
2025-01-01 20:52:30.683469	308.0	24.1	-90.4	9.8
2025-01-01 20:52:31.848438	308.2	24.0	-90.8	10.9
2025-01-01 20:52:33.012552	308.5	23.9	-90.4	3.5
2025-01-01 20:52:34.173111	308.7	23.8	-90.0	4.1
2025-01-01 20:52:35.333239	309.0	23.7	-90.4	9.5
2025-01-01 20:52:36.497709	309.2	23.6	-90.4	3.7
2025-01-01 20:52:37.655898	309.5	23.5	-90.4	6.4
2025-01-01 20:52:38.820295	309.7	23.4	-90.8	8.6
2025-01-01 20:52:39.979393	310.0	23.3	-91.2	5.6
2025-01-01 20:52:41.141634	310.2	23.2	-90.8	16.8
2025-01-01 20:52:42.302022	310.5	23.1	-90.1	6.5
2025-01-01 20:52:43.466133	310.7	23.0	-90.5	6.0
2025-01-01 20:52:44.625967	310.9	22.9	-91.3	8.6
2025-01-01 20:52:45.784483	311.2	22.8	-90.9	7.7
2025-01-01 20:52:46.944426	311.4	22.7	-90.6	9.2
2025-01-01 20:52:48.112858	311.6	22.6	-89.7	7.9
2025-01-01 20:52:49.268470	311.9	22.4	-90.2	7.1
2025-01-01 20:52:50.435460	312.1	22.3	-90.6	4.0
2025-01-01 20:52:51.598659	312.3	22.2	-89.8	5.1
2025-01-01 20:52:52.756102	312.6	22.1	-90.0	5.8
2025-01-01 20:52:53.906916	312.8	22.0	-90.7	4.9
2025-01-01 20:52:55.063727	313.0	21.9	-90.7	3.7
2025-01-01 20:52:56.241329	313.2	21.8	-90.2	6.5
2025-01-01 20:52:57.395759	313.4	21.7	-89.6	5.6
2025-01-01 20:52:58.567880	313.7	21.6	-90.4	4.3
2025-01-01 20:52:59.716782	313.9	21.5	-90.7	8.6
2025-01-01 20:53:00.867851	314.1	21.4	-90.7	8.8
2025-01-01 20:53:02.030643	314.3	21.3	-90.4	6.5
2025-01-01 20:53:03.185540	314.5	21.2	-90.3	5.3
2025-01-01 20:53:04.330466	314.7	21.1	-89.9	7.0
2025-01-01 20:53:05.451867	314.9	21.0	-88.5	7.2
2025-01-01 20:53:06.572138	315.1	20.9	-89.0	7.4
2025-01-01 20:53:07.692510	315.3	20.8	-89.0	4.2
2025-01-01 20:53:08.812477	315.5	20.7	-89.3	6.7
2025-01-01 20:53:09.933191	315.7	20.6	-90.0	4.7
2025-01-01 20:53:11.053742	315.9	20.5	-89.9	5.7
2025-01-01 20:53:12.178425	316.1	20.4	-90.0	6.9
2025-01-01 20:53:13.320862	316.3	20.3	-89.6	7.3
2025-01-01 20:53:14.481394	316.5	20.2	-89.3	4.8
2025-01-01 20:53:15.638215	316.7	20.0	-89.2	4.5
2025-01-01 20:53:16.796422	316.9	19.9	-89.2	5.2
2025-01-01 20:53:17.948757	317.1	19.8	-89.6	4.4
2025-01-01 20:53:19.107115	317.3	19.7	-89.5	4.5
2025-01-01 20:53:20.269855	317.5	19.6	-89.4	5.7
2025-01-01 20:53:21.431550	317.7	19.5	-89.2	6.4
2025-01-01 20:53:22.594683	317.9	19.4	-89.3	5.6
2025-01-01 20:53:23.754791	318.1	19.3	-89.2	3.2
2025-01-01 20:53:24.916726	318.3	19.2	-89.7	7.8
2025-01-01 20:53:26.076483	318.5	19.1	-89.6	5.9
2025-01-01 20:53:27.236095	318.7	19.0	-89.7	4.1
2025-01-01 20:53:28.394286	318.8	18.9	-89.7	3.8
2025-01-01 20:53:29.552750	319.0	18.8	-89.4	4.7
2025-01-01 20:53:30.719822	319.2	18.7	-89.6	5.3
2025-01-01 20:53:31.881917	319.4	18.6	-89.6	6.4
2025-01-01 20:53:33.049252	319.6	18.5	-89.8	6.2
2025-01-01 20:53:34.203483	319.8	18.4	-89.5	5.1
2025-01-01 20:53:35.366867	319.9	18.3	-89.0	6.8
2025-01-01 20:53:36.529525	320.1	18.2	-89.2	5.3
2025-01-01 20:53:37.689487	320.3	18.1	-89.2	5.8
2025-01-01 20:53:38.854116	320.5	18.0	-89.4	6.4
2025-01-01 20:53:40.012096	320.6	17.9	-89.5	4.7
2025-01-01 20:53:41.172671	320.8	17.8	-90.2	5.2
2025-01-01 20:53:42.335377	321.0	17.7	-90.5	5.8
2025-01-01 20:53:43.485707	321.2	17.6	-90.9	5.7
2025-01-01 20:53:44.646987	321.3	17.5	-90.4	3.3
2025-01-01 20:53:45.780488	321.5	17.4	-90.1	4.9
2025-01-01 20:53:46.917836	321.7	17.3	-90.5	7.9
2025-01-01 20:53:48.065692	321.8	17.2	-90.3	5.5
2025-01-01 20:53:49.212577	322.0	17.1	-90.2	5.8
2025-01-01 20:53:50.363491	322.1	17.0	-89.3	2.5
2025-01-01 20:53:51.512992	322.3	16.9	-89.9	6.7
2025-01-01 20:53:52.679163	322.5	16.8	-90.4	10.3
2025-01-01 20:53:53.827614	322.6	16.7	-90.5	4.4
2025-01-01 20:53:54.989887	322.8	16.6	-90.3	6.1
2025-01-01 20:53:56.148138	322.9	16.5	-89.3	6.7
2025-01-01 20:53:57.314630	323.1	16.4	-89.6	7.4
2025-01-01 20:53:58.470323	323.3	16.3	-89.5	4.4
2025-01-01 20:53:59.635662	323.4	16.2	-90.1	4.7
2025-01-01 20:54:00.762903	323.6	16.1	-90.1	7.6
2025-01-01 20:54:01.906139	323.7	16.0	-90.0	9.4
2025-01-01 20:54:03.059374	323.9	15.9	-89.8	3.4
2025-01-01 20:54:04.183639	324.0	15.8	-89.7	7.0
2025-01-01 20:54:05.329998	324.2	15.7	-89.3	7.7
2025-01-01 20:54:06.475666	324.3	15.6	-90.0	6.9
2025-01-01 20:54:07.613575	324.5	15.5	-89.3	6.3
2025-01-01 20:54:08.764209	324.6	15.4	-90.2	6.5
2025-01-01 20:54:09.916718	324.8	15.3	-90.7	7.8
2025-01-01 20:54:11.071820	324.9	15.2	-90.1	5.6
2025-01-01 20:54:12.222102	325.1	15.1	-90.8	7.1
2025-01-01 20:54:13.382907	325.2	15.0	-90.3	6.8
2025-01-01 20:54:14.541719	325.3	14.9	-90.9	6.4
2025-01-01 20:54:15.701846	325.5	14.8	-90.8	5.4
2025-01-01 20:54:16.846460	325.6	14.7	-90.4	8.7
2025-01-01 20:54:18.001034	325.8	14.6	-90.3	6.6
2025-01-01 20:54:19.154807	325.9	14.5	-90.3	4.3
#Closed at: 2025-01-01 20:46:34.256049