passes_logs/2025/01/01/LEX_Murmansk/LEX_Murmansk__20250101_202015_NOAA_19_rec.log

#Pass ID: 20250101_202015_NOAA 19
#Satellite: NOAA 19
#Configuration: NOAA 19
#Start time: 2025-01-01 20:20:10.645738

#LorettStation: 1.0.0 05.05.2024
#Station: LEX_Murmansk
#Location: 33.156738 lon 68.926811 lat
#TLE: 1 33591U 09005A   24366.84452498  .00000596  00000+0  34214-3 0  9996
#TLE: 2 33591  99.0219  64.4961 0014693  95.1476 265.1373 14.13246120819287

#Time	Az	El	Level	SNR
2025-01-01 20:20:22.846804	246.9	15.7	-89.3	8.0
2025-01-01 20:20:24.011408	247.1	15.7	-89.4	7.5
2025-01-01 20:20:25.166145	247.3	15.8	-89.0	5.0
2025-01-01 20:20:26.329143	247.6	15.9	-89.3	4.4
2025-01-01 20:20:27.480089	247.8	15.9	-89.6	10.1
2025-01-01 20:20:28.601150	248.0	16.0	-89.9	6.0
2025-01-01 20:20:29.721621	248.2	16.1	-89.6	6.2
2025-01-01 20:20:30.844851	248.4	16.1	-90.4	6.2
2025-01-01 20:20:31.966006	248.6	16.2	-90.0	5.1
2025-01-01 20:20:33.085932	248.8	16.2	-89.4	11.1
2025-01-01 20:20:34.206661	249.0	16.3	-90.0	5.1
2025-01-01 20:20:35.328194	249.3	16.4	-90.1	10.5
2025-01-01 20:20:36.492631	249.5	16.4	-90.5	7.3
2025-01-01 20:20:37.631143	249.7	16.5	-90.3	6.7
2025-01-01 20:20:38.767984	249.9	16.5	-90.3	4.8
2025-01-01 20:20:39.929714	250.2	16.6	-90.3	4.8
2025-01-01 20:20:41.078146	250.4	16.7	-89.8	4.0
2025-01-01 20:20:42.234816	250.6	16.7	-89.4	2.1
2025-01-01 20:20:43.391489	250.8	16.8	-89.5	2.6
2025-01-01 20:20:44.548956	251.1	16.8	-89.4	3.1
2025-01-01 20:20:45.713515	251.3	16.9	-89.1	4.1
2025-01-01 20:20:46.872846	251.5	17.0	-89.7	3.0
2025-01-01 20:20:48.034047	251.8	17.0	-89.7	6.5
2025-01-01 20:20:49.191324	252.0	17.1	-89.2	6.2
2025-01-01 20:20:50.350643	252.2	17.1	-89.6	3.9
2025-01-01 20:20:51.510286	252.5	17.2	-89.9	11.6
2025-01-01 20:20:52.664528	252.7	17.2	-90.1	7.2
2025-01-01 20:20:53.809750	252.9	17.3	-90.1	0.8
2025-01-01 20:20:54.948148	253.2	17.4	-90.6	3.6
2025-01-01 20:20:56.084158	253.4	17.4	-89.8	6.1
2025-01-01 20:20:57.232101	253.7	17.5	-89.9	5.3
2025-01-01 20:20:58.351863	253.9	17.5	-90.1	3.8
2025-01-01 20:20:59.500847	254.1	17.6	-90.1	6.6
2025-01-01 20:21:00.626475	254.4	17.6	-90.4	9.4
2025-01-01 20:21:01.782431	254.6	17.7	-89.9	6.4
2025-01-01 20:21:02.938500	254.8	17.7	-90.1	5.1
2025-01-01 20:21:04.096176	255.1	17.8	-89.3	5.8
2025-01-01 20:21:05.258166	255.3	17.8	-89.7	4.3
2025-01-01 20:21:06.417425	255.6	17.9	-90.0	4.7
2025-01-01 20:21:07.571603	255.8	18.0	-89.6	4.4
2025-01-01 20:21:08.730217	256.1	18.0	-90.4	2.0
2025-01-01 20:21:09.889553	256.3	18.1	-90.4	3.2
2025-01-01 20:21:11.052800	256.6	18.1	-89.4	1.8
2025-01-01 20:21:12.212573	256.8	18.2	-89.6	1.2
2025-01-01 20:21:13.381344	257.1	18.2	-89.3	2.3
2025-01-01 20:21:14.532917	257.3	18.3	-89.9	2.8
2025-01-01 20:21:15.687311	257.6	18.3	-89.9	4.4
2025-01-01 20:21:16.813933	257.8	18.4	-90.0	2.6
2025-01-01 20:21:17.965754	258.1	18.4	-89.7	4.4
2025-01-01 20:21:19.112337	258.3	18.5	-89.3	4.5
2025-01-01 20:21:20.256015	258.6	18.5	-90.2	4.6
2025-01-01 20:21:21.402873	258.9	18.5	-90.3	3.2
2025-01-01 20:21:22.561296	259.1	18.6	-90.1	3.2
2025-01-01 20:21:23.717790	259.4	18.6	-90.0	4.1
2025-01-01 20:21:24.882851	259.6	18.7	-90.3	4.7
2025-01-01 20:21:26.046055	259.9	18.7	-89.8	4.6
2025-01-01 20:21:27.205955	260.2	18.8	-89.8	2.5
2025-01-01 20:21:28.372105	260.4	18.8	-90.0	3.7
2025-01-01 20:21:29.527626	260.7	18.9	-90.4	2.3
2025-01-01 20:21:30.696443	260.9	18.9	-90.4	4.4
2025-01-01 20:21:31.860565	261.2	18.9	-90.4	5.8
2025-01-01 20:21:33.024330	261.5	19.0	-90.4	7.6
2025-01-01 20:21:34.183664	261.7	19.0	-89.7	4.5
2025-01-01 20:21:35.342463	262.0	19.1	-89.6	0.6
2025-01-01 20:21:36.504294	262.3	19.1	-89.6	4.3
2025-01-01 20:21:37.669299	262.5	19.2	-89.8	5.5
2025-01-01 20:21:38.831067	262.8	19.2	-89.9	5.0
2025-01-01 20:21:39.987488	263.1	19.2	-89.8	4.8
2025-01-01 20:21:41.168615	263.4	19.3	-89.8	3.9
2025-01-01 20:21:42.327067	263.6	19.3	-89.6	3.4
2025-01-01 20:21:43.493047	263.9	19.3	-89.9	3.7
2025-01-01 20:21:44.653008	264.2	19.4	-89.8	2.9
2025-01-01 20:21:45.820492	264.4	19.4	-89.9	1.8
2025-01-01 20:21:46.978453	264.7	19.5	-89.5	3.5
2025-01-01 20:21:48.143764	265.0	19.5	-89.6	3.6
2025-01-01 20:21:49.300407	265.3	19.5	-89.3	2.0
2025-01-01 20:21:50.460649	265.5	19.6	-89.4	1.8
2025-01-01 20:21:51.623544	265.8	19.6	-90.0	3.3
2025-01-01 20:21:52.786579	266.1	19.6	-89.8	2.6
2025-01-01 20:21:53.949171	266.4	19.7	-90.0	4.4
2025-01-01 20:21:55.111015	266.6	19.7	-89.5	2.5
2025-01-01 20:21:56.275401	266.9	19.7	-90.0	5.0
2025-01-01 20:21:57.435303	267.2	19.7	-90.7	5.2
2025-01-01 20:21:58.600200	267.5	19.8	-90.3	5.7
2025-01-01 20:21:59.757494	267.8	19.8	-90.2	4.5
2025-01-01 20:22:00.915622	268.0	19.8	-90.2	2.6
2025-01-01 20:22:02.073719	268.3	19.9	-90.0	3.3
2025-01-01 20:22:03.241628	268.6	19.9	-89.8	4.9
2025-01-01 20:22:04.408090	268.9	19.9	-90.6	2.9
2025-01-01 20:22:05.571193	269.2	19.9	-90.2	5.2
2025-01-01 20:22:06.738100	269.4	20.0	-90.0	1.9
2025-01-01 20:22:07.898584	269.7	20.0	-90.2	2.6
2025-01-01 20:22:09.058347	270.0	20.0	-89.6	4.1
2025-01-01 20:22:10.218057	270.3	20.0	-89.5	4.7
2025-01-01 20:22:11.383682	270.6	20.1	-90.2	3.5
2025-01-01 20:22:12.543093	270.9	20.1	-89.8	4.8
2025-01-01 20:22:13.704069	271.1	20.1	-89.8	3.0
2025-01-01 20:22:14.865114	271.4	20.1	-89.3	3.6
2025-01-01 20:22:16.031183	271.7	20.1	-89.4	3.8
2025-01-01 20:22:17.195868	272.0	20.2	-89.5	3.0
2025-01-01 20:22:18.365728	272.3	20.2	-89.4	2.7
2025-01-01 20:22:19.527465	272.6	20.2	-90.2	3.3
2025-01-01 20:22:20.698721	272.9	20.2	-90.0	3.5
2025-01-01 20:22:21.857355	273.2	20.2	-90.1	2.5
2025-01-01 20:22:23.019308	273.4	20.2	-89.8	3.9
2025-01-01 20:22:24.183648	273.7	20.3	-89.6	3.8
2025-01-01 20:22:25.345798	274.0	20.3	-89.7	2.4
2025-01-01 20:22:26.501972	274.3	20.3	-89.5	4.0
2025-01-01 20:22:27.648249	274.6	20.3	-89.8	4.5
2025-01-01 20:22:28.774061	274.9	20.3	-90.0	2.2
2025-01-01 20:22:29.895296	275.1	20.3	-89.5	4.4
2025-01-01 20:22:31.017112	275.4	20.3	-89.8	1.1
2025-01-01 20:22:32.137604	275.7	20.3	-89.7	4.0
2025-01-01 20:22:33.257063	276.0	20.4	-89.5	2.3
2025-01-01 20:22:34.377991	276.3	20.4	-89.6	2.1
2025-01-01 20:22:35.503295	276.5	20.4	-89.3	2.8
2025-01-01 20:22:36.641121	276.8	20.4	-89.3	2.7
2025-01-01 20:22:37.801027	277.1	20.4	-89.4	1.8
2025-01-01 20:22:38.964144	277.4	20.4	-89.5	4.9
2025-01-01 20:22:40.117189	277.7	20.4	-89.9	4.0
2025-01-01 20:22:41.258865	278.0	20.4	-89.9	2.3
2025-01-01 20:22:42.392433	278.3	20.4	-89.8	1.0
2025-01-01 20:22:43.539216	278.5	20.4	-89.7	5.5
2025-01-01 20:22:44.690642	278.8	20.4	-89.6	3.1
2025-01-01 20:22:45.836861	279.1	20.4	-89.6	3.6
2025-01-01 20:22:46.995711	279.4	20.4	-89.7	5.3
2025-01-01 20:22:48.154567	279.7	20.4	-89.9	3.1
2025-01-01 20:22:49.315448	280.0	20.4	-89.8	6.2
2025-01-01 20:22:50.474441	280.3	20.4	-90.1	9.0
2025-01-01 20:22:51.633271	280.6	20.4	-90.0	9.1
2025-01-01 20:22:52.788431	280.9	20.4	-89.8	7.9
2025-01-01 20:22:53.951371	281.2	20.4	-89.7	8.1
2025-01-01 20:22:55.111846	281.4	20.4	-89.4	7.9
2025-01-01 20:22:56.275790	281.7	20.4	-89.9	9.4
2025-01-01 20:22:57.430195	282.0	20.4	-90.0	8.1
2025-01-01 20:22:58.587001	282.3	20.4	-90.1	7.9
2025-01-01 20:22:59.716620	282.6	20.4	-90.2	6.3
2025-01-01 20:23:00.848303	282.9	20.4	-90.2	6.7
2025-01-01 20:23:02.001204	283.2	20.3	-90.3	8.2
2025-01-01 20:23:03.141675	283.4	20.3	-89.3	5.4
2025-01-01 20:23:04.300146	283.7	20.3	-89.9	3.2
2025-01-01 20:23:05.469829	284.0	20.3	-89.9	4.7
2025-01-01 20:23:06.637047	284.3	20.3	-90.6	5.9
2025-01-01 20:23:07.795104	284.6	20.3	-90.7	4.3
2025-01-01 20:23:08.954794	284.9	20.3	-90.4	4.4
2025-01-01 20:23:10.112309	285.2	20.3	-89.9	3.9
2025-01-01 20:23:11.273964	285.5	20.2	-90.3	5.1
2025-01-01 20:23:12.435581	285.7	20.2	-90.4	3.4
2025-01-01 20:23:13.603109	286.0	20.2	-90.6	6.3
2025-01-01 20:23:14.767498	286.3	20.2	-90.7	3.5
2025-01-01 20:23:15.937536	286.6	20.2	-90.8	7.0
2025-01-01 20:23:17.098455	286.9	20.2	-90.2	5.4
2025-01-01 20:23:18.261796	287.2	20.1	-89.9	2.8
2025-01-01 20:23:19.425007	287.5	20.1	-90.2	5.5
2025-01-01 20:23:20.585577	287.8	20.1	-90.5	3.0
2025-01-01 20:23:21.752000	288.0	20.1	-90.8	3.8
2025-01-01 20:23:22.908456	288.3	20.1	-90.8	4.7
2025-01-01 20:23:24.073619	288.6	20.0	-90.0	3.4
2025-01-01 20:23:25.235695	288.9	20.0	-90.0	3.0
2025-01-01 20:23:26.390445	289.2	20.0	-90.7	4.7
2025-01-01 20:23:27.557414	289.5	20.0	-90.5	6.1
2025-01-01 20:23:28.721304	289.7	19.9	-90.1	4.0
2025-01-01 20:23:29.884686	290.0	19.9	-89.6	3.0
2025-01-01 20:23:31.041384	290.3	19.9	-89.9	3.6
2025-01-01 20:23:32.205024	290.6	19.9	-90.2	2.1
2025-01-01 20:23:33.361784	290.9	19.8	-90.1	3.1
2025-01-01 20:23:34.528612	291.1	19.8	-90.2	2.8
2025-01-01 20:23:35.699475	291.4	19.8	-89.9	5.8
2025-01-01 20:23:36.857101	291.7	19.8	-90.2	4.8
2025-01-01 20:23:38.018412	292.0	19.7	-90.6	5.6
2025-01-01 20:23:39.179955	292.3	19.7	-90.4	6.5
2025-01-01 20:23:40.344755	292.5	19.7	-89.9	3.3
2025-01-01 20:23:41.500037	292.8	19.6	-90.3	4.4
2025-01-01 20:23:42.657007	293.1	19.6	-90.2	3.5
2025-01-01 20:23:43.782975	293.4	19.6	-90.4	4.1
2025-01-01 20:23:44.903502	293.6	19.5	-90.4	4.3
2025-01-01 20:23:46.024347	293.9	19.5	-90.6	5.1
2025-01-01 20:23:47.146202	294.1	19.5	-90.2	3.2
2025-01-01 20:23:48.267505	294.4	19.4	-89.9	4.4
2025-01-01 20:23:49.387943	294.7	19.4	-90.0	3.7
2025-01-01 20:23:50.508777	294.9	19.4	-90.1	3.9
2025-01-01 20:23:51.639601	295.2	19.3	-89.9	5.4
2025-01-01 20:23:52.790211	295.5	19.3	-90.6	3.8
2025-01-01 20:23:53.950747	295.7	19.3	-90.7	6.6
2025-01-01 20:23:55.105836	296.0	19.2	-90.4	6.5
2025-01-01 20:23:56.255922	296.3	19.2	-90.2	3.3
2025-01-01 20:23:57.393350	296.5	19.1	-90.6	2.0
2025-01-01 20:23:58.535124	296.8	19.1	-90.5	4.1
2025-01-01 20:23:59.687225	297.1	19.1	-89.9	3.6
2025-01-01 20:24:00.831806	297.3	19.0	-89.8	2.9
2025-01-01 20:24:01.992975	297.6	19.0	-89.7	5.5
2025-01-01 20:24:03.153956	297.8	18.9	-89.3	6.6
2025-01-01 20:24:04.315080	298.1	18.9	-89.9	1.7
2025-01-01 20:24:05.473504	298.4	18.8	-90.1	3.9
2025-01-01 20:24:06.632499	298.6	18.8	-90.0	5.8
2025-01-01 20:24:07.799345	298.9	18.8	-90.0	3.5
2025-01-01 20:24:08.962017	299.2	18.7	-90.3	5.4
2025-01-01 20:24:10.121617	299.4	18.7	-90.3	4.8
2025-01-01 20:24:11.278767	299.7	18.6	-90.2	3.1
2025-01-01 20:24:12.437351	299.9	18.6	-90.1	3.5
2025-01-01 20:24:13.601834	300.2	18.5	-90.4	4.6
2025-01-01 20:24:14.762255	300.5	18.5	-90.3	2.2
2025-01-01 20:24:15.929330	300.7	18.4	-91.1	3.8
2025-01-01 20:24:17.091426	301.0	18.4	-90.8	5.3
2025-01-01 20:24:18.251446	301.2	18.3	-90.7	4.2
2025-01-01 20:24:19.411601	301.5	18.3	-91.1	4.4
2025-01-01 20:24:20.572631	301.7	18.2	-90.8	1.1
2025-01-01 20:24:21.730190	302.0	18.2	-91.1	4.3
2025-01-01 20:24:22.896617	302.2	18.1	-91.0	3.9
2025-01-01 20:24:24.061894	302.5	18.1	-90.9	3.3
2025-01-01 20:24:25.229198	302.7	18.0	-90.8	1.2
2025-01-01 20:24:26.384174	303.0	18.0	-90.6	5.0
2025-01-01 20:24:27.544305	303.2	17.9	-90.5	3.5
2025-01-01 20:24:28.705158	303.5	17.9	-90.3	2.3
2025-01-01 20:24:29.865863	303.7	17.8	-90.1	1.8
2025-01-01 20:24:31.014488	304.0	17.8	-89.7	3.3
2025-01-01 20:24:32.167032	304.2	17.7	-90.0	2.9
2025-01-01 20:24:33.308753	304.4	17.7	-90.0	0.9
2025-01-01 20:24:34.430454	304.7	17.6	-90.5	3.8
2025-01-01 20:24:35.550735	304.9	17.6	-90.5	3.9
2025-01-01 20:24:36.672875	305.1	17.5	-90.7	3.4
2025-01-01 20:24:37.793784	305.4	17.4	-90.9	2.5
2025-01-01 20:24:38.913852	305.6	17.4	-90.8	3.2
2025-01-01 20:24:40.034945	305.8	17.3	-90.5	1.8
2025-01-01 20:24:41.157511	306.1	17.3	-90.7	4.0
2025-01-01 20:24:42.301817	306.3	17.2	-90.1	2.5
2025-01-01 20:24:43.457063	306.5	17.2	-90.6	5.5
2025-01-01 20:24:44.620974	306.8	17.1	-90.1	6.0
2025-01-01 20:24:45.782756	307.0	17.1	-90.5	3.5
2025-01-01 20:24:46.932868	307.2	17.0	-90.6	3.7
2025-01-01 20:24:48.091059	307.5	16.9	-90.4	4.0
2025-01-01 20:24:49.257411	307.7	16.9	-90.2	4.1
2025-01-01 20:24:50.415348	307.9	16.8	-90.4	4.9
2025-01-01 20:24:51.573599	308.2	16.8	-90.5	2.4
2025-01-01 20:24:52.734093	308.4	16.7	-90.7	1.9
2025-01-01 20:24:53.899056	308.6	16.6	-90.4	2.3
2025-01-01 20:24:55.062951	308.9	16.6	-90.9	5.3
2025-01-01 20:24:56.237995	309.1	16.5	-90.3	7.0
2025-01-01 20:24:57.403588	309.3	16.5	-90.7	5.7
2025-01-01 20:24:58.562362	309.5	16.4	-90.3	4.7
2025-01-01 20:24:59.726825	309.8	16.3	-90.7	6.6
2025-01-01 20:25:00.874483	310.0	16.3	-90.6	6.0
2025-01-01 20:25:02.039562	310.2	16.2	-90.4	4.9
2025-01-01 20:25:03.195980	310.4	16.2	-90.3	8.3
2025-01-01 20:25:04.347764	310.6	16.1	-90.4	6.5
2025-01-01 20:25:05.480085	310.9	16.0	-90.5	5.7
2025-01-01 20:25:06.628706	311.1	16.0	-90.3	4.9
2025-01-01 20:25:07.786700	311.3	15.9	-90.6	6.3
2025-01-01 20:25:08.936957	311.5	15.8	-90.2	4.8
2025-01-01 20:25:10.092746	311.7	15.8	-90.0	3.1
2025-01-01 20:25:11.240826	311.9	15.7	-90.1	3.0
2025-01-01 20:25:12.400182	312.1	15.7	-90.2	1.8
2025-01-01 20:25:13.556630	312.4	15.6	-90.4	3.2
2025-01-01 20:25:14.714004	312.6	15.5	-90.5	4.7
2025-01-01 20:25:15.859381	312.8	15.5	-90.9	2.4
2025-01-01 20:25:17.017179	313.0	15.4	-90.7	4.9
2025-01-01 20:25:18.177233	313.2	15.3	-90.7	2.8
2025-01-01 20:25:19.339935	313.4	15.3	-91.2	3.5
2025-01-01 20:25:20.498428	313.6	15.2	-91.5	3.1
2025-01-01 20:25:21.667027	313.8	15.1	-90.6	2.7
2025-01-01 20:25:22.828305	314.0	15.1	-90.7	1.6
2025-01-01 20:25:23.990573	314.2	15.0	-90.7	3.4
2025-01-01 20:25:25.257859	314.5	14.9	-89.5	2.5
2025-01-01 20:25:26.422962	314.7	14.9	-89.8	2.0
2025-01-01 20:25:27.587734	314.9	14.8	-90.5	3.7
2025-01-01 20:25:28.726450	315.1	14.7	-90.3	5.1
#Closed at: 2025-01-01 20:20:15.635212