passes_logs/2025/01/01/LEX_Murmansk/LEX_Murmansk__20250101_104517_NOAA_18_rec.log

#Pass ID: 20250101_104517_NOAA 18
#Satellite: NOAA 18
#Configuration: NOAA 18
#Start time: 2025-01-01 10:45:12.074057

#LorettStation: 1.0.0 05.05.2024
#Station: LEX_Murmansk
#Location: 33.156738 lon 68.926811 lat
#TLE: 1 28654U 05018A   24366.86382707  .00000695  00000+0  39254-3 0  9996
#TLE: 2 28654  98.8588  82.0571 0013692 219.5840 140.4334 14.13471437 11103

#Time	Az	El	Level	SNR
2025-01-01 10:45:24.226771	23.7	16.3	-92.8	6.9
2025-01-01 10:45:26.544578	23.6	16.5	-93.0	3.7
2025-01-01 10:45:28.859511	23.5	16.8	-93.1	3.7
2025-01-01 10:45:31.146257	23.5	17.0	-92.5	8.8
2025-01-01 10:45:33.388323	23.4	17.3	-92.5	9.6
2025-01-01 10:45:35.629202	23.3	17.5	-92.4	13.3
2025-01-01 10:45:37.876633	23.2	17.8	-92.7	8.8
2025-01-01 10:45:40.183305	23.1	18.1	-92.1	3.6
2025-01-01 10:45:42.505195	22.9	18.3	-93.2	7.5
2025-01-01 10:45:44.820348	22.8	18.6	-93.4	11.5
2025-01-01 10:45:47.138217	22.7	18.9	-91.1	9.4
2025-01-01 10:45:49.459875	22.6	19.2	-91.8	8.4
2025-01-01 10:45:51.789795	22.5	19.4	-93.3	7.6
2025-01-01 10:45:54.059976	22.4	19.7	-92.8	15.3
2025-01-01 10:45:56.357896	22.3	20.0	-92.4	9.1
2025-01-01 10:45:58.662145	22.1	20.3	-93.0	5.8
2025-01-01 10:46:00.965332	22.0	20.6	-93.2	7.5
2025-01-01 10:46:03.284140	21.9	20.9	-93.1	8.7
2025-01-01 10:46:05.610524	21.7	21.2	-93.4	2.6
2025-01-01 10:46:07.935444	21.6	21.5	-93.2	12.7
2025-01-01 10:46:10.256589	21.5	21.8	-92.8	13.4
2025-01-01 10:46:12.579538	21.3	22.1	-93.0	8.7
2025-01-01 10:46:14.899859	21.2	22.4	-92.3	12.6
2025-01-01 10:46:17.233873	21.0	22.7	-92.1	6.9
2025-01-01 10:46:19.546566	20.9	23.1	-92.5	14.2
2025-01-01 10:46:21.876035	20.7	23.4	-92.8	8.0
2025-01-01 10:46:24.156366	20.6	23.7	-92.3	8.2
2025-01-01 10:46:26.450294	20.4	24.0	-92.6	11.3
2025-01-01 10:46:28.762964	20.3	24.4	-93.3	14.6
2025-01-01 10:46:31.066242	20.1	24.7	-92.3	3.9
2025-01-01 10:46:33.389702	19.9	25.0	-93.0	13.2
2025-01-01 10:46:35.713709	19.7	25.4	-92.9	12.1
2025-01-01 10:46:38.027104	19.6	25.8	-92.9	14.6
2025-01-01 10:46:40.356457	19.4	26.1	-92.9	5.0
2025-01-01 10:46:42.676403	19.2	26.5	-92.3	10.0
2025-01-01 10:46:44.997694	19.0	26.8	-93.0	12.7
2025-01-01 10:46:47.316016	18.8	27.2	-92.8	11.5
2025-01-01 10:46:49.637682	18.6	27.6	-93.0	5.2
2025-01-01 10:46:51.965638	18.4	28.0	-91.1	12.4
2025-01-01 10:46:54.292151	18.2	28.4	-91.4	12.9
2025-01-01 10:46:56.609141	18.0	28.7	-93.1	7.7
2025-01-01 10:46:58.927643	17.7	29.1	-93.3	10.5
2025-01-01 10:47:01.241661	17.5	29.5	-92.3	10.8
2025-01-01 10:47:03.571746	17.3	29.9	-93.4	5.5
2025-01-01 10:47:05.881739	17.0	30.4	-92.8	9.1
2025-01-01 10:47:08.123596	16.8	30.8	-92.6	7.0
2025-01-01 10:47:10.364271	16.6	31.2	-92.8	13.8
2025-01-01 10:47:12.605793	16.3	31.6	-93.0	8.6
2025-01-01 10:47:14.874220	16.0	32.0	-93.1	15.2
2025-01-01 10:47:17.194622	15.8	32.4	-92.2	12.5
2025-01-01 10:47:19.505361	15.5	32.9	-93.2	9.4
2025-01-01 10:47:21.821015	15.2	33.3	-92.6	15.5
2025-01-01 10:47:24.117658	14.9	33.8	-92.6	5.5
2025-01-01 10:47:26.408604	14.6	34.2	-93.1	16.5
2025-01-01 10:47:28.695017	14.3	34.7	-92.5	13.7
2025-01-01 10:47:31.000869	14.0	35.2	-92.3	14.6
2025-01-01 10:47:33.322854	13.6	35.6	-93.2	10.4
2025-01-01 10:47:35.629238	13.3	36.1	-92.9	16.1
2025-01-01 10:47:37.944255	12.9	36.6	-92.9	9.1
2025-01-01 10:47:40.240679	12.6	37.1	-92.5	10.7
2025-01-01 10:47:42.532499	12.2	37.6	-93.4	4.6
2025-01-01 10:47:44.833327	11.8	38.1	-92.7	15.2
2025-01-01 10:47:47.145367	11.4	38.6	-92.2	9.0
2025-01-01 10:47:49.451126	11.0	39.1	-92.5	18.2
2025-01-01 10:47:51.779309	10.6	39.6	-92.9	16.0
2025-01-01 10:47:54.096433	10.1	40.2	-92.2	14.5
2025-01-01 10:47:56.412600	9.7	40.7	-91.5	16.9
2025-01-01 10:47:58.730710	9.2	41.3	-91.3	19.1
2025-01-01 10:48:01.035442	8.7	41.8	-93.2	9.5
2025-01-01 10:48:03.362691	8.2	42.4	-92.4	22.7
2025-01-01 10:48:05.678803	7.7	42.9	-93.0	12.3
2025-01-01 10:48:08.000108	7.1	43.5	-92.7	20.5
2025-01-01 10:48:10.317126	6.5	44.1	-92.5	21.9
2025-01-01 10:48:12.638455	5.9	44.6	-93.5	17.3
2025-01-01 10:48:14.959332	5.3	45.2	-93.3	16.4
2025-01-01 10:48:17.285112	4.7	45.8	-92.4	24.8
2025-01-01 10:48:19.597159	4.0	46.4	-92.9	19.3
2025-01-01 10:48:21.888235	3.4	47.0	-93.1	14.3
2025-01-01 10:48:24.129515	2.7	47.5	-92.7	7.5
2025-01-01 10:48:26.370562	2.0	48.1	-92.4	12.6
2025-01-01 10:48:28.615964	1.2	48.7	-93.2	13.5
2025-01-01 10:48:30.903132	0.5	49.3	-93.2	18.4
2025-01-01 10:48:33.216378	359.6	49.9	-93.2	12.4
2025-01-01 10:48:35.521409	358.8	50.5	-92.9	7.4
2025-01-01 10:48:37.849421	357.9	51.1	-93.0	16.6
2025-01-01 10:48:40.169273	356.9	51.7	-93.0	15.3
2025-01-01 10:48:42.499658	356.0	52.4	-93.5	19.6
2025-01-01 10:48:44.816610	354.9	53.0	-93.6	13.0
2025-01-01 10:48:47.092927	353.9	53.6	-93.2	7.7
2025-01-01 10:48:49.393873	352.8	54.2	-92.9	15.1
2025-01-01 10:48:51.705761	351.7	54.8	-93.0	14.5
2025-01-01 10:48:54.017751	350.5	55.4	-93.1	13.3
2025-01-01 10:48:56.337603	349.2	55.9	-93.1	16.1
2025-01-01 10:48:58.654342	347.9	56.5	-93.5	12.8
2025-01-01 10:49:00.965756	346.5	57.1	-91.8	17.3
2025-01-01 10:49:03.281447	345.1	57.6	-91.2	21.1
2025-01-01 10:49:05.601736	343.7	58.2	-93.3	14.4
2025-01-01 10:49:07.929871	342.1	58.7	-93.9	10.4
2025-01-01 10:49:10.244149	340.5	59.2	-93.1	14.2
2025-01-01 10:49:12.569148	338.8	59.7	-93.2	21.9
2025-01-01 10:49:14.886077	337.1	60.2	-93.4	25.7
2025-01-01 10:49:17.186690	335.3	60.7	-92.7	17.2
2025-01-01 10:49:19.444391	333.5	61.1	-93.0	13.2
2025-01-01 10:49:21.704743	331.6	61.5	-93.0	11.8
2025-01-01 10:49:23.973096	329.7	61.9	-93.4	12.3
2025-01-01 10:49:26.219844	327.7	62.2	-92.6	17.8
2025-01-01 10:49:28.474491	325.7	62.6	-92.9	15.0
2025-01-01 10:49:30.726772	323.6	62.9	-93.2	17.4
2025-01-01 10:49:32.985046	321.4	63.1	-93.4	14.8
2025-01-01 10:49:35.241793	319.2	63.3	-93.4	20.0
2025-01-01 10:49:37.497545	317.0	63.5	-93.5	18.1
2025-01-01 10:49:39.753958	314.7	63.7	-93.3	20.8
2025-01-01 10:49:42.027017	312.4	63.8	-93.6	11.4
2025-01-01 10:49:44.282427	310.1	63.9	-93.5	10.5
2025-01-01 10:49:46.545397	307.8	63.9	-93.1	12.6
2025-01-01 10:49:48.788660	305.4	63.9	-92.8	15.6
2025-01-01 10:49:51.029334	303.1	63.9	-93.2	2.7
2025-01-01 10:49:53.272237	300.8	63.8	-92.8	4.4
2025-01-01 10:49:55.521599	298.5	63.7	-92.8	4.5
2025-01-01 10:49:57.771825	296.3	63.6	-93.7	6.3
2025-01-01 10:50:00.030759	294.0	63.4	-93.4	6.9
2025-01-01 10:50:02.283408	291.8	63.2	-93.6	9.8
2025-01-01 10:50:04.537758	289.7	62.9	-92.7	5.1
2025-01-01 10:50:06.804796	287.5	62.6	-92.7	6.0
2025-01-01 10:50:09.079034	285.5	62.3	-93.0	9.6
2025-01-01 10:50:11.399852	283.4	61.9	-92.9	3.2
2025-01-01 10:50:13.717967	281.4	61.6	-93.5	11.5
2025-01-01 10:50:16.037216	279.5	61.1	-93.1	15.0
2025-01-01 10:50:18.354715	277.6	60.7	-93.0	17.2
2025-01-01 10:50:20.665045	275.8	60.2	-92.6	9.0
2025-01-01 10:50:22.990747	274.0	59.8	-92.8	11.6
2025-01-01 10:50:25.311491	272.4	59.3	-92.6	18.0
2025-01-01 10:50:27.631285	270.8	58.7	-92.8	11.2
2025-01-01 10:50:29.946445	269.2	58.2	-92.8	6.6
2025-01-01 10:50:32.270443	267.7	57.7	-92.7	15.1
2025-01-01 10:50:34.597158	266.3	57.1	-93.5	7.2
2025-01-01 10:50:36.924403	264.9	56.5	-93.3	9.6
2025-01-01 10:50:39.242047	263.6	55.9	-91.5	14.6
2025-01-01 10:50:41.555965	262.4	55.4	-93.1	2.0
2025-01-01 10:50:43.871868	261.2	54.8	-93.3	14.5
2025-01-01 10:50:46.191352	260.0	54.2	-92.7	10.8
2025-01-01 10:50:48.512007	258.9	53.6	-92.6	7.5
2025-01-01 10:50:50.824456	257.8	52.9	-92.9	19.4
2025-01-01 10:50:53.141546	256.8	52.3	-92.8	8.6
2025-01-01 10:50:55.465354	255.8	51.7	-92.9	12.0
2025-01-01 10:50:57.787801	254.9	51.1	-93.2	19.7
2025-01-01 10:51:00.116278	254.0	50.5	-92.1	13.9
2025-01-01 10:51:02.432269	253.1	49.9	-92.8	21.9
2025-01-01 10:51:04.758481	252.3	49.3	-93.0	20.1
2025-01-01 10:51:07.066668	251.5	48.7	-91.7	16.1
2025-01-01 10:51:09.381409	250.7	48.0	-91.4	16.7
2025-01-01 10:51:11.708439	250.0	47.4	-91.7	18.7
2025-01-01 10:51:14.023300	249.3	46.8	-93.5	14.5
2025-01-01 10:51:16.347254	248.6	46.2	-92.9	24.3
2025-01-01 10:51:18.664695	247.9	45.7	-92.6	12.7
2025-01-01 10:51:20.990543	247.3	45.1	-92.9	17.4
2025-01-01 10:51:23.306483	246.7	44.5	-92.4	22.6
2025-01-01 10:51:25.619403	246.1	43.9	-93.1	8.7
2025-01-01 10:51:27.938740	245.6	43.3	-93.3	15.4
2025-01-01 10:51:30.253294	245.0	42.8	-92.4	22.5
2025-01-01 10:51:32.578624	244.5	42.2	-92.9	20.5
2025-01-01 10:51:34.901400	244.0	41.6	-93.0	26.7
2025-01-01 10:51:37.219469	243.5	41.1	-92.9	20.9
2025-01-01 10:51:39.555506	243.0	40.5	-93.5	16.3
2025-01-01 10:51:41.885035	242.5	40.0	-93.2	20.2
2025-01-01 10:51:44.214906	242.1	39.5	-93.0	10.3
2025-01-01 10:51:46.548710	241.7	38.9	-93.3	9.8
2025-01-01 10:51:48.876897	241.2	38.4	-93.1	14.2
2025-01-01 10:51:51.194572	240.8	37.9	-92.9	12.8
2025-01-01 10:51:53.520620	240.4	37.4	-93.3	13.5
2025-01-01 10:51:55.811125	240.1	36.9	-93.3	15.5
2025-01-01 10:51:58.053501	239.7	36.4	-93.3	11.1
2025-01-01 10:52:00.295038	239.4	35.9	-93.3	9.1
2025-01-01 10:52:02.535891	239.0	35.5	-93.4	7.2
2025-01-01 10:52:04.790999	238.7	35.0	-93.7	15.5
2025-01-01 10:52:07.058002	238.4	34.5	-93.3	7.7
2025-01-01 10:52:09.355099	238.1	34.1	-92.8	14.4
2025-01-01 10:52:11.659495	237.8	33.6	-93.2	12.9
2025-01-01 10:52:13.975503	237.5	33.2	-92.3	17.6
2025-01-01 10:52:16.302257	237.2	32.7	-91.9	17.7
2025-01-01 10:52:18.624528	236.9	32.3	-93.5	11.4
2025-01-01 10:52:20.943202	236.6	31.8	-93.6	12.2
2025-01-01 10:52:23.269849	236.4	31.4	-93.0	12.7
2025-01-01 10:52:25.588207	236.1	31.0	-93.6	9.3
2025-01-01 10:52:27.910034	235.8	30.5	-93.7	8.6
2025-01-01 10:52:30.224723	235.6	30.1	-93.0	12.4
2025-01-01 10:52:32.539970	235.4	29.7	-93.3	11.7
2025-01-01 10:52:34.860902	235.1	29.3	-93.2	2.6
2025-01-01 10:52:37.182193	234.9	28.9	-93.1	4.9
2025-01-01 10:52:39.497366	234.7	28.5	-93.4	7.9
2025-01-01 10:52:41.807386	234.5	28.1	-93.7	8.4
2025-01-01 10:52:44.133990	234.2	27.7	-93.4	6.8
2025-01-01 10:52:46.454382	234.0	27.3	-93.4	9.6
2025-01-01 10:52:48.778680	233.8	27.0	-93.0	9.6
2025-01-01 10:52:51.105219	233.6	26.6	-93.0	5.4
2025-01-01 10:52:53.430423	233.4	26.2	-93.5	4.9
2025-01-01 10:52:55.751737	233.3	25.9	-93.5	6.0
2025-01-01 10:52:58.069350	233.1	25.5	-93.2	7.6
2025-01-01 10:53:00.374351	232.9	25.1	-92.7	7.3
2025-01-01 10:53:02.696014	232.7	24.8	-92.9	7.9
2025-01-01 10:53:05.020427	232.5	24.4	-92.9	7.3
2025-01-01 10:53:07.349816	232.4	24.1	-92.9	12.1
2025-01-01 10:53:09.667021	232.2	23.8	-93.1	7.2
2025-01-01 10:53:11.975765	232.1	23.4	-93.5	8.6
2025-01-01 10:53:14.310906	231.9	23.1	-93.3	11.8
2025-01-01 10:53:16.645452	231.7	22.8	-93.2	12.4
2025-01-01 10:53:18.966385	231.6	22.5	-92.3	10.9
2025-01-01 10:53:21.282100	231.4	22.1	-93.1	9.6
2025-01-01 10:53:23.597158	231.3	21.8	-92.8	7.3
2025-01-01 10:53:25.908740	231.2	21.5	-92.9	11.7
2025-01-01 10:53:28.237451	231.0	21.2	-92.6	13.0
2025-01-01 10:53:30.560328	230.9	20.9	-93.3	12.2
2025-01-01 10:53:32.885393	230.8	20.6	-93.6	14.4
2025-01-01 10:53:35.211378	230.6	20.3	-92.9	11.4
2025-01-01 10:53:37.535913	230.5	20.0	-93.1	8.9
2025-01-01 10:53:39.855531	230.4	19.7	-93.3	14.2
2025-01-01 10:53:42.179903	230.3	19.4	-92.7	7.9
2025-01-01 10:53:44.489145	230.1	19.1	-93.5	10.2
2025-01-01 10:53:46.813696	230.0	18.9	-93.4	11.7
2025-01-01 10:53:49.141545	229.9	18.6	-92.4	4.7
2025-01-01 10:53:51.462318	229.8	18.3	-93.3	7.4
2025-01-01 10:53:53.780206	229.7	18.0	-93.1	10.9
2025-01-01 10:53:56.098321	229.6	17.8	-92.9	7.4
2025-01-01 10:53:58.421859	229.5	17.5	-92.9	11.1
2025-01-01 10:54:00.730345	229.4	17.2	-93.3	11.2
2025-01-01 10:54:03.047614	229.3	17.0	-93.3	6.5
2025-01-01 10:54:05.365609	229.2	16.7	-92.4	9.0
2025-01-01 10:54:07.680686	229.1	16.5	-93.0	3.6
2025-01-01 10:54:09.998166	229.0	16.2	-93.1	6.1
2025-01-01 10:54:12.314419	228.9	16.0	-92.8	8.8
2025-01-01 10:54:14.638883	228.8	15.7	-92.9	4.6
2025-01-01 10:54:16.962051	228.7	15.5	-92.9	5.2
2025-01-01 10:54:19.287325	228.6	15.2	-92.5	3.6
2025-01-01 10:54:21.601967	228.5	15.0	-91.8	3.9
2025-01-01 10:54:23.910293	228.4	14.7	-91.2	8.0
2025-01-01 10:54:26.220940	228.3	14.5	-93.3	5.8
#Closed at: 2025-01-01 10:45:17.035661