passes_logs/2025/01/01/LEX_Murmansk/LEX_Murmansk__20250101_065546_NOAA_19_rec.log

#Pass ID: 20250101_065546_NOAA 19
#Satellite: NOAA 19
#Configuration: NOAA 19
#Start time: 2025-01-01 06:55:41.895875

#LorettStation: 1.0.0 05.05.2024
#Station: LEX_Murmansk
#Location: 33.156738 lon 68.926811 lat
#TLE: 1 33591U 09005A   24366.84452498  .00000596  00000+0  34214-3 0  9996
#TLE: 2 33591  99.0219  64.4961 0014693  95.1476 265.1373 14.13246120819287

#Time	Az	El	Level	SNR
2025-01-01 06:55:54.112491	38.7	16.0	-92.4	2.1
2025-01-01 06:55:55.275666	38.8	16.1	-92.6	2.9
2025-01-01 06:55:56.438832	39.0	16.2	-93.1	3.8
2025-01-01 06:55:57.602694	39.2	16.3	-92.6	2.6
2025-01-01 06:55:58.770977	39.4	16.4	-93.1	2.4
2025-01-01 06:55:59.933430	39.5	16.5	-93.0	2.2
2025-01-01 06:56:01.089532	39.7	16.6	-92.5	1.4
2025-01-01 06:56:02.246892	39.9	16.7	-92.7	1.8
2025-01-01 06:56:03.411962	40.1	16.8	-92.5	2.6
2025-01-01 06:56:04.575544	40.2	16.8	-93.2	1.1
2025-01-01 06:56:05.749895	40.4	16.9	-93.1	3.2
2025-01-01 06:56:06.907999	40.6	17.0	-93.4	4.3
2025-01-01 06:56:08.073013	40.8	17.1	-92.9	3.5
2025-01-01 06:56:09.230930	41.0	17.2	-92.6	1.8
2025-01-01 06:56:10.391721	41.1	17.3	-92.6	1.8
2025-01-01 06:56:11.550134	41.3	17.4	-92.9	4.4
2025-01-01 06:56:12.718286	41.5	17.5	-92.2	3.7
2025-01-01 06:56:13.883027	41.7	17.6	-92.5	5.3
2025-01-01 06:56:15.044388	41.9	17.7	-92.4	6.7
2025-01-01 06:56:16.206409	42.1	17.8	-92.4	2.9
2025-01-01 06:56:17.367758	42.3	17.9	-92.3	2.6
2025-01-01 06:56:18.533191	42.4	18.0	-92.3	1.4
2025-01-01 06:56:19.694683	42.6	18.1	-93.0	1.6
2025-01-01 06:56:20.860840	42.8	18.2	-93.0	1.7
2025-01-01 06:56:22.018549	43.0	18.3	-93.0	2.6
2025-01-01 06:56:23.186963	43.2	18.4	-92.6	1.8
2025-01-01 06:56:24.347700	43.4	18.5	-92.7	2.1
2025-01-01 06:56:25.512079	43.6	18.6	-92.4	5.0
2025-01-01 06:56:26.674101	43.8	18.7	-93.0	3.9
2025-01-01 06:56:27.838963	44.0	18.8	-92.6	4.6
2025-01-01 06:56:28.995101	44.2	18.9	-92.7	3.3
2025-01-01 06:56:30.154710	44.4	19.0	-92.2	5.1
2025-01-01 06:56:31.279902	44.6	19.1	-92.8	5.3
2025-01-01 06:56:32.401460	44.8	19.2	-92.5	5.7
2025-01-01 06:56:33.526723	45.0	19.3	-93.0	7.2
2025-01-01 06:56:34.647461	45.2	19.4	-92.7	8.8
2025-01-01 06:56:35.768479	45.4	19.5	-92.9	9.0
2025-01-01 06:56:36.889891	45.6	19.5	-93.1	4.2
2025-01-01 06:56:38.010790	45.8	19.6	-93.1	6.2
2025-01-01 06:56:39.139923	46.0	19.7	-92.3	7.7
2025-01-01 06:56:40.301338	46.3	19.8	-92.6	2.5
2025-01-01 06:56:41.456653	46.5	19.9	-92.9	3.1
2025-01-01 06:56:42.614765	46.7	20.0	-93.1	3.1
2025-01-01 06:56:43.768112	46.9	20.1	-93.0	2.4
2025-01-01 06:56:44.925669	47.1	20.2	-91.7	2.6
2025-01-01 06:56:46.089151	47.3	20.3	-91.3	9.1
2025-01-01 06:56:47.248382	47.6	20.4	-91.9	9.0
2025-01-01 06:56:48.415036	47.8	20.5	-92.0	7.6
2025-01-01 06:56:49.576311	48.0	20.6	-93.1	12.7
2025-01-01 06:56:50.733077	48.2	20.7	-92.9	7.9
2025-01-01 06:56:51.890070	48.5	20.8	-92.8	8.7
2025-01-01 06:56:53.057792	48.7	20.9	-92.3	4.6
2025-01-01 06:56:54.217532	48.9	21.0	-92.8	4.1
2025-01-01 06:56:55.372122	49.2	21.1	-92.5	6.1
2025-01-01 06:56:56.532756	49.4	21.2	-93.2	8.8
2025-01-01 06:56:57.667178	49.6	21.3	-92.5	11.2
2025-01-01 06:56:58.807353	49.9	21.4	-93.1	13.3
2025-01-01 06:56:59.964163	50.1	21.5	-93.2	9.8
2025-01-01 06:57:01.107001	50.3	21.6	-92.4	8.9
2025-01-01 06:57:02.267600	50.6	21.7	-92.4	2.4
2025-01-01 06:57:03.415327	50.8	21.8	-92.4	3.8
2025-01-01 06:57:04.571497	51.0	21.9	-93.2	3.1
2025-01-01 06:57:05.732588	51.3	22.0	-92.8	3.1
2025-01-01 06:57:06.885374	51.5	22.1	-92.9	4.1
2025-01-01 06:57:08.061860	51.8	22.2	-92.5	4.9
2025-01-01 06:57:09.227932	52.0	22.3	-92.4	8.9
2025-01-01 06:57:10.395832	52.3	22.3	-92.8	12.9
2025-01-01 06:57:11.562528	52.5	22.4	-92.9	12.5
2025-01-01 06:57:12.718487	52.8	22.5	-93.1	10.3
2025-01-01 06:57:13.880561	53.1	22.6	-93.1	10.6
2025-01-01 06:57:15.045798	53.3	22.7	-92.7	9.3
2025-01-01 06:57:16.213132	53.6	22.8	-92.4	6.7
2025-01-01 06:57:17.380683	53.8	22.9	-92.2	3.6
2025-01-01 06:57:18.547469	54.1	23.0	-92.8	9.4
2025-01-01 06:57:19.707882	54.4	23.1	-93.1	6.0
2025-01-01 06:57:20.870832	54.6	23.2	-93.2	7.5
2025-01-01 06:57:22.038277	54.9	23.3	-93.0	10.5
2025-01-01 06:57:23.198389	55.2	23.4	-92.7	13.8
2025-01-01 06:57:24.358441	55.4	23.5	-92.8	10.9
2025-01-01 06:57:25.513313	55.7	23.6	-93.0	5.8
2025-01-01 06:57:26.638232	56.0	23.7	-92.8	3.7
2025-01-01 06:57:27.800273	56.2	23.7	-93.1	4.4
2025-01-01 06:57:28.943799	56.5	23.8	-93.3	3.8
2025-01-01 06:57:30.100495	56.8	23.9	-92.6	3.6
2025-01-01 06:57:31.247023	57.1	24.0	-92.4	1.5
2025-01-01 06:57:32.381053	57.3	24.1	-93.3	5.1
2025-01-01 06:57:33.519908	57.6	24.2	-93.2	9.1
2025-01-01 06:57:34.668109	57.9	24.3	-93.2	7.6
2025-01-01 06:57:35.820772	58.2	24.4	-93.0	8.2
2025-01-01 06:57:36.977927	58.5	24.5	-92.9	9.6
2025-01-01 06:57:38.142451	58.7	24.5	-92.7	19.3
2025-01-01 06:57:39.302901	59.0	24.6	-93.2	9.7
2025-01-01 06:57:40.465714	59.3	24.7	-93.2	10.9
2025-01-01 06:57:41.630034	59.6	24.8	-93.2	4.0
2025-01-01 06:57:42.782603	59.9	24.9	-93.1	5.2
2025-01-01 06:57:43.950421	60.2	25.0	-93.2	7.9
2025-01-01 06:57:45.112960	60.5	25.1	-92.8	4.0
2025-01-01 06:57:46.268943	60.8	25.1	-92.9	4.9
2025-01-01 06:57:47.421041	61.1	25.2	-93.2	8.5
2025-01-01 06:57:48.570902	61.4	25.3	-93.2	14.2
2025-01-01 06:57:49.706556	61.7	25.4	-91.9	8.3
2025-01-01 06:57:50.854813	62.0	25.5	-92.9	13.7
2025-01-01 06:57:52.001702	62.3	25.6	-92.5	4.7
2025-01-01 06:57:53.153211	62.6	25.6	-92.0	6.8
2025-01-01 06:57:54.309273	62.9	25.7	-93.1	2.6
2025-01-01 06:57:55.463787	63.2	25.8	-93.0	4.3
2025-01-01 06:57:56.618858	63.5	25.9	-93.4	4.6
2025-01-01 06:57:57.780721	63.9	26.0	-93.5	3.8
2025-01-01 06:57:58.945406	64.2	26.0	-92.9	4.4
2025-01-01 06:58:00.109466	64.5	26.1	-93.0	0.6
2025-01-01 06:58:01.261750	64.8	26.2	-93.4	0.8
2025-01-01 06:58:02.420532	65.1	26.3	-93.1	5.9
2025-01-01 06:58:03.588181	65.4	26.3	-93.3	9.3
2025-01-01 06:58:04.748267	65.8	26.4	-93.1	6.2
2025-01-01 06:58:05.906232	66.1	26.5	-93.3	6.4
2025-01-01 06:58:07.070546	66.4	26.6	-92.8	9.3
2025-01-01 06:58:08.235388	66.8	26.6	-92.5	6.7
2025-01-01 06:58:09.395946	67.1	26.7	-92.9	6.3
2025-01-01 06:58:10.563609	67.4	26.8	-93.1	4.1
2025-01-01 06:58:11.732844	67.7	26.8	-93.2	3.1
2025-01-01 06:58:12.896535	68.1	26.9	-93.1	3.7
2025-01-01 06:58:14.069704	68.4	27.0	-93.1	2.5
2025-01-01 06:58:15.232299	68.8	27.0	-93.0	2.5
2025-01-01 06:58:16.399137	69.1	27.1	-93.2	3.7
2025-01-01 06:58:17.568739	69.4	27.2	-93.5	3.6
2025-01-01 06:58:18.725741	69.8	27.2	-93.1	1.1
2025-01-01 06:58:19.886828	70.1	27.3	-93.3	2.6
2025-01-01 06:58:21.051271	70.5	27.4	-93.1	2.8
2025-01-01 06:58:22.210622	70.8	27.4	-92.6	5.1
2025-01-01 06:58:23.369312	71.1	27.5	-92.7	2.1
2025-01-01 06:58:24.529095	71.5	27.5	-93.0	2.6
2025-01-01 06:58:25.693896	71.8	27.6	-92.7	2.7
2025-01-01 06:58:26.861591	72.2	27.7	-92.9	3.0
2025-01-01 06:58:28.023998	72.5	27.7	-93.4	6.7
2025-01-01 06:58:29.178432	72.9	27.8	-92.6	2.5
2025-01-01 06:58:30.341079	73.3	27.8	-92.8	1.1
2025-01-01 06:58:31.502845	73.6	27.9	-92.9	4.1
2025-01-01 06:58:32.669909	74.0	27.9	-93.4	3.1
2025-01-01 06:58:33.829559	74.3	28.0	-93.6	2.4
2025-01-01 06:58:34.991422	74.7	28.0	-93.1	3.6
2025-01-01 06:58:36.160451	75.0	28.1	-93.0	6.0
2025-01-01 06:58:37.324862	75.4	28.1	-92.8	3.0
2025-01-01 06:58:38.490286	75.8	28.2	-93.2	9.3
2025-01-01 06:58:39.653526	76.1	28.2	-93.5	3.5
2025-01-01 06:58:40.817967	76.5	28.3	-93.3	10.0
2025-01-01 06:58:41.986190	76.9	28.3	-93.0	10.7
2025-01-01 06:58:43.145012	77.2	28.4	-92.5	6.3
2025-01-01 06:58:44.304610	77.6	28.4	-92.9	7.9
2025-01-01 06:58:45.459085	77.9	28.4	-93.3	14.5
2025-01-01 06:58:46.619278	78.3	28.5	-93.1	13.4
2025-01-01 06:58:47.786392	78.7	28.5	-93.2	10.9
2025-01-01 06:58:48.950222	79.1	28.5	-92.5	14.4
2025-01-01 06:58:50.115967	79.4	28.6	-92.8	9.2
2025-01-01 06:58:51.277029	79.8	28.6	-92.3	6.3
2025-01-01 06:58:52.439195	80.2	28.6	-92.6	10.3
2025-01-01 06:58:53.598832	80.5	28.7	-92.0	9.8
2025-01-01 06:58:54.761799	80.9	28.7	-92.3	6.5
2025-01-01 06:58:55.924331	81.3	28.7	-92.2	8.7
2025-01-01 06:58:57.083309	81.7	28.8	-92.0	9.8
2025-01-01 06:58:58.246281	82.0	28.8	-92.8	3.7
2025-01-01 06:58:59.410398	82.4	28.8	-93.0	9.3
2025-01-01 06:59:00.557048	82.8	28.8	-92.8	10.0
2025-01-01 06:59:01.717371	83.2	28.9	-92.8	8.7
2025-01-01 06:59:02.874915	83.5	28.9	-92.9	9.4
2025-01-01 06:59:04.039716	83.9	28.9	-92.8	15.6
2025-01-01 06:59:05.204723	84.3	28.9	-92.6	8.5
2025-01-01 06:59:06.363625	84.7	28.9	-92.9	14.9
2025-01-01 06:59:07.533168	85.1	29.0	-93.0	20.3
2025-01-01 06:59:08.691892	85.4	29.0	-92.8	7.1
2025-01-01 06:59:09.856765	85.8	29.0	-92.9	19.3
2025-01-01 06:59:11.017811	86.2	29.0	-92.8	10.8
2025-01-01 06:59:12.185336	86.6	29.0	-92.5	11.3
2025-01-01 06:59:13.346754	87.0	29.0	-92.4	13.9
2025-01-01 06:59:14.508129	87.3	29.0	-92.9	8.7
2025-01-01 06:59:15.672352	87.7	29.0	-93.1	9.0
2025-01-01 06:59:16.837176	88.1	29.0	-93.3	4.9
2025-01-01 06:59:17.998867	88.5	29.0	-93.1	6.3
2025-01-01 06:59:19.162798	88.9	29.0	-93.0	7.7
2025-01-01 06:59:20.327747	89.2	29.0	-92.7	6.9
2025-01-01 06:59:21.495960	89.6	29.0	-92.8	8.7
2025-01-01 06:59:22.651297	90.0	29.0	-93.0	6.2
2025-01-01 06:59:23.815404	90.4	29.0	-92.9	4.3
2025-01-01 06:59:24.980657	90.8	29.0	-93.3	6.1
2025-01-01 06:59:26.145741	91.2	29.0	-92.9	6.3
2025-01-01 06:59:27.309792	91.5	29.0	-92.8	4.1
2025-01-01 06:59:28.474143	91.9	29.0	-92.9	6.6
2025-01-01 06:59:29.640731	92.3	29.0	-93.1	3.2
2025-01-01 06:59:30.803694	92.7	29.0	-92.7	4.6
2025-01-01 06:59:31.971305	93.1	29.0	-92.8	7.5
2025-01-01 06:59:33.126805	93.4	29.0	-92.4	8.1
2025-01-01 06:59:34.293887	93.8	28.9	-92.9	4.4
2025-01-01 06:59:35.458567	94.2	28.9	-93.4	5.2
2025-01-01 06:59:36.626798	94.6	28.9	-93.0	6.9
2025-01-01 06:59:37.790829	95.0	28.9	-93.4	4.2
2025-01-01 06:59:38.951661	95.3	28.9	-92.9	7.2
2025-01-01 06:59:40.114089	95.7	28.8	-92.6	6.4
2025-01-01 06:59:41.280423	96.1	28.8	-92.2	5.0
2025-01-01 06:59:42.441499	96.5	28.8	-92.5	8.4
2025-01-01 06:59:43.600059	96.8	28.8	-93.1	8.1
2025-01-01 06:59:44.763919	97.2	28.7	-92.9	5.3
2025-01-01 06:59:45.928692	97.6	28.7	-93.6	6.1
2025-01-01 06:59:47.094898	98.0	28.7	-93.2	9.1
2025-01-01 06:59:48.259207	98.3	28.7	-93.2	4.6
2025-01-01 06:59:49.423506	98.7	28.6	-93.2	9.5
2025-01-01 06:59:50.560822	99.1	28.6	-93.4	12.4
2025-01-01 06:59:51.726905	99.4	28.6	-93.0	7.8
2025-01-01 06:59:52.883173	99.8	28.5	-93.0	5.9
2025-01-01 06:59:54.045423	100.2	28.5	-93.3	6.3
2025-01-01 06:59:55.211395	100.6	28.4	-92.9	5.6
2025-01-01 06:59:56.392771	100.9	28.4	-92.8	7.3
2025-01-01 06:59:57.561389	101.3	28.4	-92.9	10.3
2025-01-01 06:59:58.736946	101.7	28.3	-92.4	2.0
2025-01-01 06:59:59.902583	102.0	28.3	-92.1	8.1
2025-01-01 07:00:01.048043	102.4	28.2	-92.3	0.4
2025-01-01 07:00:02.212468	102.8	28.2	-92.7	2.0
2025-01-01 07:00:03.372650	103.1	28.1	-93.0	3.7
2025-01-01 07:00:04.545680	103.5	28.1	-93.1	4.2
2025-01-01 07:00:05.715048	103.8	28.0	-93.8	5.4
2025-01-01 07:00:06.876322	104.2	28.0	-93.3	15.2
2025-01-01 07:00:08.040471	104.6	27.9	-93.2	6.6
2025-01-01 07:00:09.202290	104.9	27.9	-93.0	13.1
2025-01-01 07:00:10.366606	105.3	27.8	-93.1	8.3
2025-01-01 07:00:11.528270	105.6	27.8	-93.4	8.2
2025-01-01 07:00:12.694141	106.0	27.7	-93.3	11.3
2025-01-01 07:00:13.851015	106.3	27.7	-93.3	13.2
2025-01-01 07:00:15.016798	106.7	27.6	-93.1	10.0
2025-01-01 07:00:16.178386	107.0	27.6	-93.4	9.4
2025-01-01 07:00:17.344100	107.4	27.5	-93.5	13.2
2025-01-01 07:00:18.514078	107.7	27.4	-93.4	9.0
2025-01-01 07:00:19.678011	108.1	27.4	-93.5	11.0
2025-01-01 07:00:20.842043	108.4	27.3	-93.0	9.1
2025-01-01 07:00:22.009076	108.8	27.3	-93.1	8.9
2025-01-01 07:00:23.158850	109.1	27.2	-93.1	6.5
2025-01-01 07:00:24.323858	109.4	27.1	-93.1	11.4
2025-01-01 07:00:25.482383	109.8	27.1	-93.4	9.3
2025-01-01 07:00:26.649187	110.1	27.0	-93.2	10.8
2025-01-01 07:00:27.809810	110.5	26.9	-93.5	8.3
2025-01-01 07:00:28.973440	110.8	26.9	-93.4	2.2
2025-01-01 07:00:30.137349	111.1	26.8	-93.3	12.3
2025-01-01 07:00:31.305040	111.5	26.7	-93.3	7.6
2025-01-01 07:00:32.474550	111.8	26.6	-93.5	7.2
2025-01-01 07:00:33.628910	112.1	26.6	-93.2	10.5
2025-01-01 07:00:34.794481	112.4	26.5	-93.5	8.6
2025-01-01 07:00:35.958989	112.8	26.4	-93.1	4.2
2025-01-01 07:00:37.126356	113.1	26.4	-93.2	3.8
2025-01-01 07:00:38.285247	113.4	26.3	-92.6	5.2
2025-01-01 07:00:39.451219	113.7	26.2	-93.4	2.6
2025-01-01 07:00:40.615108	114.1	26.1	-93.5	2.4
2025-01-01 07:00:41.777980	114.4	26.0	-93.6	7.1
2025-01-01 07:00:42.947735	114.7	26.0	-93.3	5.9
2025-01-01 07:00:44.103525	115.0	25.9	-93.3	5.4
2025-01-01 07:00:45.272158	115.3	25.8	-92.9	6.4
2025-01-01 07:00:46.433636	115.6	25.7	-93.1	4.2
2025-01-01 07:00:47.601276	116.0	25.6	-93.1	4.0
2025-01-01 07:00:48.760158	116.3	25.6	-93.1	9.6
2025-01-01 07:00:49.926354	116.6	25.5	-93.0	4.3
2025-01-01 07:00:51.087786	116.9	25.4	-93.0	4.4
2025-01-01 07:00:52.247540	117.2	25.3	-93.1	5.3
2025-01-01 07:00:53.406844	117.5	25.2	-93.3	5.7
2025-01-01 07:00:54.568607	117.8	25.2	-93.4	4.2
2025-01-01 07:00:55.731636	118.1	25.1	-93.0	6.0
2025-01-01 07:00:56.904193	118.4	25.0	-93.1	3.0
2025-01-01 07:00:58.066345	118.7	24.9	-93.5	4.3
2025-01-01 07:00:59.232579	119.0	24.8	-93.1	9.3
2025-01-01 07:01:00.383267	119.3	24.7	-92.2	5.9
2025-01-01 07:01:01.545595	119.6	24.6	-93.1	5.1
2025-01-01 07:01:02.707972	119.9	24.5	-92.5	5.6
2025-01-01 07:01:03.867926	120.1	24.5	-92.6	6.8
2025-01-01 07:01:05.032544	120.4	24.4	-92.3	6.6
2025-01-01 07:01:06.191269	120.7	24.3	-92.7	12.3
2025-01-01 07:01:07.351778	121.0	24.2	-93.2	10.4
2025-01-01 07:01:08.512655	121.3	24.1	-93.1	8.5
2025-01-01 07:01:09.674351	121.6	24.0	-93.1	10.0
2025-01-01 07:01:10.833473	121.8	23.9	-93.0	16.3
2025-01-01 07:01:11.990470	122.1	23.8	-92.9	12.5
2025-01-01 07:01:13.134440	122.4	23.7	-92.3	14.8
2025-01-01 07:01:14.255848	122.7	23.7	-92.7	9.7
2025-01-01 07:01:15.377837	122.9	23.6	-92.4	13.3
2025-01-01 07:01:16.498939	123.2	23.5	-93.1	12.3
2025-01-01 07:01:17.619045	123.4	23.4	-93.1	11.3
2025-01-01 07:01:18.739199	123.7	23.3	-93.1	11.4
2025-01-01 07:01:19.863810	124.0	23.2	-92.9	9.8
2025-01-01 07:01:20.984733	124.2	23.1	-93.1	8.4
2025-01-01 07:01:22.140538	124.5	23.0	-93.1	11.2
2025-01-01 07:01:23.301083	124.7	22.9	-92.7	14.3
2025-01-01 07:01:24.462740	125.0	22.8	-93.4	13.9
2025-01-01 07:01:25.620511	125.3	22.7	-92.8	11.6
2025-01-01 07:01:26.774387	125.5	22.6	-93.1	11.8
2025-01-01 07:01:27.938927	125.8	22.6	-93.1	10.3
2025-01-01 07:01:29.102189	126.0	22.5	-93.2	11.7
2025-01-01 07:01:30.257549	126.3	22.4	-92.5	14.9
2025-01-01 07:01:31.409597	126.5	22.3	-93.3	10.4
2025-01-01 07:01:32.544878	126.8	22.2	-93.3	8.6
2025-01-01 07:01:33.685628	127.0	22.1	-93.2	12.9
2025-01-01 07:01:34.842921	127.3	22.0	-93.2	16.8
2025-01-01 07:01:35.987367	127.5	21.9	-93.4	7.5
2025-01-01 07:01:37.140579	127.8	21.8	-92.9	6.1
2025-01-01 07:01:38.293443	128.0	21.7	-93.1	11.7
2025-01-01 07:01:39.439821	128.2	21.6	-92.8	6.4
2025-01-01 07:01:40.600871	128.5	21.5	-92.9	6.4
2025-01-01 07:01:41.764226	128.7	21.4	-93.4	17.9
2025-01-01 07:01:42.928902	129.0	21.3	-93.3	8.9
2025-01-01 07:01:44.082425	129.2	21.2	-92.6	10.5
2025-01-01 07:01:45.242708	129.4	21.1	-92.7	11.9
2025-01-01 07:01:46.399564	129.7	21.0	-93.0	10.1
2025-01-01 07:01:47.563233	129.9	20.9	-93.4	15.5
2025-01-01 07:01:48.715647	130.1	20.8	-93.1	14.0
2025-01-01 07:01:49.881508	130.3	20.7	-92.8	14.8
2025-01-01 07:01:51.040852	130.6	20.6	-93.1	16.3
2025-01-01 07:01:52.207761	130.8	20.5	-93.2	12.5
2025-01-01 07:01:53.367969	131.0	20.4	-93.5	13.0
2025-01-01 07:01:54.525727	131.2	20.3	-93.5	13.8
2025-01-01 07:01:55.691242	131.5	20.2	-93.4	11.8
2025-01-01 07:01:56.855778	131.7	20.1	-93.2	13.8
2025-01-01 07:01:58.014423	131.9	20.0	-93.0	7.0
2025-01-01 07:01:59.177055	132.1	19.9	-92.9	10.7
2025-01-01 07:02:00.329434	132.3	19.8	-93.1	11.0
2025-01-01 07:02:01.489426	132.6	19.7	-93.2	6.6
2025-01-01 07:02:02.658346	132.8	19.6	-93.0	11.2
2025-01-01 07:02:03.808176	133.0	19.5	-92.9	14.5
2025-01-01 07:02:04.972917	133.2	19.4	-93.4	7.1
2025-01-01 07:02:06.129706	133.4	19.3	-92.3	6.0
2025-01-01 07:02:07.295922	133.6	19.3	-92.1	8.5
2025-01-01 07:02:08.460781	133.8	19.2	-91.9	5.8
2025-01-01 07:02:09.631314	134.0	19.1	-92.3	7.1
2025-01-01 07:02:10.793617	134.2	19.0	-93.0	11.0
2025-01-01 07:02:11.958738	134.4	18.9	-93.1	6.1
2025-01-01 07:02:13.123325	134.6	18.8	-93.0	8.3
2025-01-01 07:02:14.280616	134.8	18.7	-93.3	9.8
2025-01-01 07:02:15.443695	135.0	18.6	-93.4	10.4
2025-01-01 07:02:16.609250	135.2	18.5	-93.3	12.8
2025-01-01 07:02:17.771847	135.4	18.4	-93.4	7.9
2025-01-01 07:02:18.928790	135.6	18.3	-93.3	11.7
2025-01-01 07:02:20.098403	135.8	18.2	-93.1	8.4
2025-01-01 07:02:21.263963	136.0	18.1	-93.3	10.2
2025-01-01 07:02:22.430725	136.2	18.0	-93.5	5.9
2025-01-01 07:02:23.582302	136.4	17.9	-92.9	4.3
2025-01-01 07:02:24.745795	136.6	17.8	-93.4	7.7
2025-01-01 07:02:25.914436	136.8	17.7	-93.4	8.2
2025-01-01 07:02:27.074276	137.0	17.6	-93.0	3.4
2025-01-01 07:02:28.237492	137.2	17.5	-92.8	7.6
2025-01-01 07:02:29.399200	137.3	17.4	-92.8	3.1
2025-01-01 07:02:30.558818	137.5	17.3	-92.8	4.0
2025-01-01 07:02:31.718611	137.7	17.2	-92.7	5.3
2025-01-01 07:02:32.883330	137.9	17.1	-92.8	4.5
2025-01-01 07:02:34.036339	138.1	17.0	-93.2	2.0
2025-01-01 07:02:35.218396	138.3	16.9	-93.0	4.1
2025-01-01 07:02:36.381449	138.4	16.8	-93.0	2.9
2025-01-01 07:02:37.546035	138.6	16.7	-93.2	2.0
2025-01-01 07:02:38.711881	138.8	16.6	-92.8	2.2
2025-01-01 07:02:39.871045	139.0	16.5	-92.9	3.2
2025-01-01 07:02:41.038753	139.1	16.4	-93.0	3.3
2025-01-01 07:02:42.198485	139.3	16.3	-92.7	1.5
2025-01-01 07:02:43.362798	139.5	16.2	-92.9	1.8
2025-01-01 07:02:44.521181	139.7	16.1	-93.3	2.0
2025-01-01 07:02:45.689029	139.8	16.0	-93.5	2.8
2025-01-01 07:02:46.847587	140.0	15.9	-93.7	4.5
2025-01-01 07:02:48.012454	140.2	15.8	-93.4	2.1
2025-01-01 07:02:49.180752	140.3	15.8	-93.0	2.2
2025-01-01 07:02:50.342891	140.5	15.7	-93.2	1.4
2025-01-01 07:02:51.510365	140.7	15.6	-93.3	0.5
2025-01-01 07:02:52.671378	140.8	15.5	-93.6	2.9
2025-01-01 07:02:53.829938	141.0	15.4	-93.2	2.0
2025-01-01 07:02:54.994422	141.2	15.3	-92.9	2.5
2025-01-01 07:02:56.166410	141.3	15.2	-93.3	4.0
2025-01-01 07:02:57.332239	141.5	15.1	-93.1	6.0
2025-01-01 07:02:58.498146	141.6	15.0	-93.3	6.1
2025-01-01 07:02:59.662247	141.8	14.9	-93.1	7.0
2025-01-01 07:03:00.814753	141.9	14.8	-93.3	4.7
2025-01-01 07:03:01.977642	142.1	14.7	-93.5	3.1
2025-01-01 07:03:03.140435	142.3	14.6	-93.5	3.6
#Closed at: 2025-01-01 06:55:46.897165