passes_logs/2025/01/01/LEX_Murmansk/LEX_Murmansk__20250101_140613_NOAA_18_rec.log

#Pass ID: 20250101_140613_NOAA 18
#Satellite: NOAA 18
#Configuration: NOAA 18
#Start time: 2025-01-01 14:06:08.652694

#LorettStation: 1.0.0 05.05.2024
#Station: LEX_Murmansk
#Location: 33.156738 lon 68.926811 lat
#TLE: 1 28654U 05018A   24366.86382707  .00000695  00000+0  39254-3 0  9996
#TLE: 2 28654  98.8588  82.0571 0013692 219.5840 140.4334 14.13471437 11103

#Time	Az	El	Level	SNR
2025-01-01 14:06:26.832082	34.9	16.3	-90.4	4.5
2025-01-01 14:06:27.988245	34.7	16.4	-90.5	3.7
2025-01-01 14:06:29.154944	34.5	16.5	-90.5	3.8
2025-01-01 14:06:30.315817	34.3	16.6	-90.6	5.0
2025-01-01 14:06:31.486644	34.1	16.6	-90.6	6.3
2025-01-01 14:06:32.648580	33.9	16.7	-90.7	5.0
2025-01-01 14:06:33.812757	33.7	16.8	-90.6	4.3
2025-01-01 14:06:34.977580	33.5	16.9	-90.7	4.5
2025-01-01 14:06:36.138279	33.4	17.0	-90.7	5.0
2025-01-01 14:06:37.301153	33.2	17.1	-90.6	3.1
2025-01-01 14:06:38.479375	33.0	17.2	-90.5	5.6
2025-01-01 14:06:39.643528	32.8	17.2	-91.0	6.9
2025-01-01 14:06:40.804431	32.6	17.3	-91.0	7.3
2025-01-01 14:06:41.969134	32.4	17.4	-90.9	3.6
2025-01-01 14:06:43.136518	32.1	17.5	-90.2	4.9
2025-01-01 14:06:44.303918	31.9	17.6	-90.4	3.2
2025-01-01 14:06:45.468603	31.7	17.6	-91.0	7.1
2025-01-01 14:06:46.633646	31.5	17.7	-91.3	6.6
2025-01-01 14:06:47.797685	31.3	17.8	-90.6	6.4
2025-01-01 14:06:48.968460	31.1	17.9	-90.6	8.7
2025-01-01 14:06:50.134933	30.9	18.0	-90.7	8.4
2025-01-01 14:06:51.294887	30.7	18.1	-90.1	9.0
2025-01-01 14:06:52.463863	30.5	18.1	-90.9	6.9
2025-01-01 14:06:53.628033	30.3	18.2	-90.5	5.6
2025-01-01 14:06:54.791069	30.0	18.3	-91.0	6.8
2025-01-01 14:06:55.956162	29.8	18.4	-90.8	7.7
2025-01-01 14:06:57.112107	29.6	18.5	-90.3	5.2
2025-01-01 14:06:58.279879	29.4	18.6	-90.4	8.3
2025-01-01 14:06:59.444673	29.2	18.6	-90.9	11.6
2025-01-01 14:07:00.608634	29.0	18.7	-90.6	6.2
2025-01-01 14:07:01.769559	28.7	18.8	-89.9	6.7
2025-01-01 14:07:02.934352	28.5	18.9	-88.9	6.6
2025-01-01 14:07:04.098396	28.3	19.0	-89.1	7.2
2025-01-01 14:07:05.262047	28.1	19.0	-89.6	7.3
2025-01-01 14:07:06.429096	27.8	19.1	-88.8	6.9
2025-01-01 14:07:07.587741	27.6	19.2	-90.5	6.3
2025-01-01 14:07:08.755609	27.4	19.3	-90.1	8.2
2025-01-01 14:07:09.918026	27.1	19.4	-90.1	6.0
2025-01-01 14:07:11.086186	26.9	19.4	-90.4	6.2
2025-01-01 14:07:12.250938	26.7	19.5	-90.0	12.2
2025-01-01 14:07:13.416737	26.4	19.6	-90.3	10.6
2025-01-01 14:07:14.583186	26.2	19.7	-90.8	13.4
2025-01-01 14:07:15.747542	26.0	19.7	-90.6	11.8
2025-01-01 14:07:16.914082	25.7	19.8	-90.5	7.7
2025-01-01 14:07:18.051955	25.5	19.9	-90.7	5.4
2025-01-01 14:07:19.172442	25.3	20.0	-90.2	5.1
2025-01-01 14:07:20.325098	25.0	20.0	-90.3	4.5
2025-01-01 14:07:21.492938	24.8	20.1	-90.9	5.0
2025-01-01 14:07:22.659510	24.5	20.2	-90.6	5.6
2025-01-01 14:07:23.823204	24.3	20.3	-90.0	8.3
2025-01-01 14:07:24.989423	24.1	20.4	-90.3	10.3
2025-01-01 14:07:26.155131	23.8	20.4	-90.7	8.8
2025-01-01 14:07:27.316084	23.6	20.5	-90.2	7.9
2025-01-01 14:07:28.476367	23.3	20.6	-90.2	9.0
2025-01-01 14:07:29.640441	23.1	20.6	-90.8	13.6
2025-01-01 14:07:30.805343	22.8	20.7	-90.8	8.7
2025-01-01 14:07:31.968131	22.5	20.8	-90.5	9.2
2025-01-01 14:07:33.135579	22.3	20.9	-90.3	10.7
2025-01-01 14:07:34.302757	22.0	20.9	-89.8	8.3
2025-01-01 14:07:35.461809	21.8	21.0	-90.7	5.9
2025-01-01 14:07:36.629028	21.5	21.1	-90.1	7.9
2025-01-01 14:07:37.784405	21.3	21.2	-91.3	10.3
2025-01-01 14:07:38.952211	21.0	21.2	-91.1	5.7
2025-01-01 14:07:40.113511	20.7	21.3	-91.0	11.0
2025-01-01 14:07:41.277554	20.5	21.4	-90.9	10.0
2025-01-01 14:07:42.441654	20.2	21.4	-90.5	7.4
2025-01-01 14:07:43.606441	20.0	21.5	-91.0	5.6
2025-01-01 14:07:44.775792	19.7	21.6	-91.1	10.5
2025-01-01 14:07:45.937272	19.4	21.6	-91.0	10.3
2025-01-01 14:07:47.103536	19.1	21.7	-90.4	7.0
2025-01-01 14:07:48.262125	18.9	21.8	-90.5	9.0
2025-01-01 14:07:49.428789	18.6	21.8	-90.9	8.9
2025-01-01 14:07:50.587420	18.3	21.9	-90.9	4.3
2025-01-01 14:07:51.751135	18.1	22.0	-91.3	8.1
2025-01-01 14:07:52.917431	17.8	22.0	-91.0	7.3
2025-01-01 14:07:54.084799	17.5	22.1	-90.8	6.9
2025-01-01 14:07:55.251300	17.2	22.2	-90.6	10.5
2025-01-01 14:07:56.412123	17.0	22.2	-90.7	8.3
2025-01-01 14:07:57.569531	16.7	22.3	-90.4	7.7
2025-01-01 14:07:58.733641	16.4	22.3	-90.9	8.3
2025-01-01 14:07:59.898408	16.1	22.4	-91.2	11.9
2025-01-01 14:08:01.051169	15.8	22.5	-90.9	8.3
2025-01-01 14:08:02.218807	15.5	22.5	-90.7	9.1
2025-01-01 14:08:03.382738	15.3	22.6	-90.6	12.2
2025-01-01 14:08:04.549974	15.0	22.6	-91.0	6.2
2025-01-01 14:08:05.714176	14.7	22.7	-91.2	8.6
2025-01-01 14:08:06.867581	14.4	22.8	-90.7	12.8
2025-01-01 14:08:08.032638	14.1	22.8	-91.1	10.4
2025-01-01 14:08:09.195723	13.8	22.9	-90.8	8.1
2025-01-01 14:08:10.363759	13.5	22.9	-90.9	8.3
2025-01-01 14:08:11.529422	13.2	23.0	-90.4	9.3
2025-01-01 14:08:12.694254	12.9	23.0	-90.9	12.8
2025-01-01 14:08:13.859302	12.7	23.1	-91.2	9.9
2025-01-01 14:08:15.024230	12.4	23.1	-90.9	14.0
2025-01-01 14:08:16.189962	12.1	23.2	-90.8	8.4
2025-01-01 14:08:17.348549	11.8	23.3	-90.5	8.3
2025-01-01 14:08:18.506516	11.5	23.3	-90.8	6.1
2025-01-01 14:08:19.671095	11.2	23.4	-90.7	7.6
2025-01-01 14:08:20.841228	10.9	23.4	-91.1	11.4
2025-01-01 14:08:22.007851	10.6	23.4	-90.8	8.6
2025-01-01 14:08:23.170826	10.3	23.5	-90.6	10.1
2025-01-01 14:08:24.338813	10.0	23.5	-90.5	10.3
2025-01-01 14:08:25.501198	9.7	23.6	-90.6	6.9
2025-01-01 14:08:26.661188	9.4	23.6	-91.0	7.7
2025-01-01 14:08:27.827647	9.0	23.7	-90.0	9.9
2025-01-01 14:08:28.991313	8.7	23.7	-89.8	8.9
2025-01-01 14:08:30.155599	8.4	23.8	-89.6	12.5
2025-01-01 14:08:31.324141	8.1	23.8	-90.4	10.5
2025-01-01 14:08:32.488784	7.8	23.8	-91.0	14.2
2025-01-01 14:08:33.665458	7.5	23.9	-90.7	17.9
2025-01-01 14:08:34.825170	7.2	23.9	-91.0	9.9
2025-01-01 14:08:35.982009	6.9	24.0	-90.6	10.8
2025-01-01 14:08:37.148509	6.6	24.0	-89.8	8.7
2025-01-01 14:08:38.307907	6.3	24.0	-89.9	16.6
2025-01-01 14:08:39.469213	5.9	24.1	-90.3	9.4
2025-01-01 14:08:40.646051	5.6	24.1	-89.3	7.7
2025-01-01 14:08:41.817696	5.3	24.1	-90.5	9.9
2025-01-01 14:08:42.981884	5.0	24.2	-90.8	7.5
2025-01-01 14:08:44.147134	4.7	24.2	-90.2	9.8
2025-01-01 14:08:45.315608	4.4	24.2	-89.9	12.3
2025-01-01 14:08:46.480422	4.0	24.3	-89.7	8.9
2025-01-01 14:08:47.642477	3.7	24.3	-89.4	13.0
2025-01-01 14:08:48.806447	3.4	24.3	-89.2	11.3
2025-01-01 14:08:49.971987	3.1	24.4	-89.3	9.6
2025-01-01 14:08:51.138458	2.8	24.4	-88.9	13.1
2025-01-01 14:08:52.302649	2.4	24.4	-89.7	12.9
2025-01-01 14:08:53.468601	2.1	24.4	-89.9	10.4
2025-01-01 14:08:54.628303	1.8	24.5	-90.5	14.3
2025-01-01 14:08:55.795056	1.5	24.5	-90.1	11.9
2025-01-01 14:08:56.958204	1.2	24.5	-90.3	6.6
2025-01-01 14:08:58.119096	0.8	24.5	-90.3	8.8
2025-01-01 14:08:59.290873	0.5	24.5	-90.5	10.2
2025-01-01 14:09:00.441168	0.2	24.6	-90.4	7.1
2025-01-01 14:09:01.604930	359.9	24.6	-91.0	6.1
2025-01-01 14:09:02.772473	359.5	24.6	-90.4	12.0
2025-01-01 14:09:03.944566	359.2	24.6	-90.6	8.1
2025-01-01 14:09:05.108091	358.9	24.6	-89.3	7.4
2025-01-01 14:09:06.272386	358.6	24.6	-89.8	11.1
2025-01-01 14:09:07.432200	358.2	24.6	-89.8	11.9
2025-01-01 14:09:08.591210	357.9	24.7	-90.2	4.0
2025-01-01 14:09:09.760704	357.6	24.7	-90.6	11.4
2025-01-01 14:09:10.928348	357.3	24.7	-90.4	9.6
2025-01-01 14:09:12.100791	356.9	24.7	-90.2	8.4
2025-01-01 14:09:13.260927	356.6	24.7	-88.9	18.0
2025-01-01 14:09:14.423598	356.3	24.7	-89.0	12.6
2025-01-01 14:09:15.584272	355.9	24.7	-89.0	11.3
2025-01-01 14:09:16.745829	355.6	24.7	-88.9	14.6
2025-01-01 14:09:17.905716	355.3	24.7	-88.7	12.1
2025-01-01 14:09:19.071445	355.0	24.7	-89.0	8.1
2025-01-01 14:09:20.235059	354.6	24.7	-89.1	13.9
2025-01-01 14:09:21.396982	354.3	24.7	-90.2	12.3
2025-01-01 14:09:22.561782	354.0	24.7	-89.3	10.6
2025-01-01 14:09:23.724266	353.7	24.7	-90.6	10.1
2025-01-01 14:09:24.887547	353.3	24.7	-90.9	10.5
2025-01-01 14:09:26.048009	353.0	24.7	-90.7	9.9
2025-01-01 14:09:27.214142	352.7	24.7	-90.7	10.9
2025-01-01 14:09:28.371758	352.4	24.7	-90.3	13.7
2025-01-01 14:09:29.536475	352.0	24.7	-90.9	10.3
2025-01-01 14:09:30.704292	351.7	24.7	-90.7	13.6
2025-01-01 14:09:31.870618	351.4	24.7	-90.9	11.6
2025-01-01 14:09:33.035683	351.0	24.7	-90.4	13.0
2025-01-01 14:09:34.199121	350.7	24.7	-90.1	12.7
2025-01-01 14:09:35.359254	350.4	24.6	-90.3	13.1
2025-01-01 14:09:36.523780	350.1	24.6	-90.7	9.9
2025-01-01 14:09:37.690233	349.7	24.6	-90.7	11.4
2025-01-01 14:09:38.834805	349.4	24.6	-90.3	7.9
2025-01-01 14:09:39.999954	349.1	24.6	-90.4	7.1
2025-01-01 14:09:41.158248	348.8	24.6	-90.3	6.6
2025-01-01 14:09:42.323462	348.4	24.5	-90.2	12.4
2025-01-01 14:09:43.487592	348.1	24.5	-90.2	7.5
2025-01-01 14:09:44.646503	347.8	24.5	-89.8	5.7
2025-01-01 14:09:45.814042	347.5	24.5	-90.2	11.4
2025-01-01 14:09:46.976805	347.2	24.5	-89.9	7.7
2025-01-01 14:09:48.136382	346.8	24.4	-90.0	9.7
2025-01-01 14:09:49.299953	346.5	24.4	-90.1	10.9
2025-01-01 14:09:50.464482	346.2	24.4	-90.6	8.6
2025-01-01 14:09:51.631841	345.9	24.4	-90.5	8.2
2025-01-01 14:09:52.793688	345.6	24.3	-90.8	11.9
2025-01-01 14:09:53.958888	345.2	24.3	-90.8	6.7
2025-01-01 14:09:55.115213	344.9	24.3	-90.4	7.0
2025-01-01 14:09:56.279730	344.6	24.3	-90.8	13.5
2025-01-01 14:09:57.443923	344.3	24.2	-90.3	9.9
2025-01-01 14:09:58.605865	344.0	24.2	-90.4	6.2
2025-01-01 14:09:59.764885	343.6	24.2	-90.6	11.1
2025-01-01 14:10:00.926479	343.3	24.1	-90.4	12.6
2025-01-01 14:10:02.084308	343.0	24.1	-89.9	6.8
2025-01-01 14:10:03.251965	342.7	24.1	-89.4	10.4
2025-01-01 14:10:04.411967	342.4	24.0	-89.9	12.5
2025-01-01 14:10:05.576794	342.1	24.0	-89.9	7.7
2025-01-01 14:10:06.742923	341.8	23.9	-89.9	12.9
2025-01-01 14:10:07.897230	341.5	23.9	-89.4	11.5
2025-01-01 14:10:09.064281	341.1	23.9	-89.8	6.0
2025-01-01 14:10:10.228922	340.8	23.8	-89.5	12.1
2025-01-01 14:10:11.396430	340.5	23.8	-89.8	8.7
2025-01-01 14:10:12.555718	340.2	23.7	-90.8	5.8
2025-01-01 14:10:13.728056	339.9	23.7	-90.4	5.7
2025-01-01 14:10:14.892637	339.6	23.7	-90.4	9.1
2025-01-01 14:10:16.056049	339.3	23.6	-90.9	6.7
2025-01-01 14:10:17.220242	339.0	23.6	-90.9	7.7
2025-01-01 14:10:18.377125	338.7	23.5	-90.5	9.9
2025-01-01 14:10:19.541351	338.4	23.5	-90.9	2.3
2025-01-01 14:10:20.710218	338.1	23.4	-91.0	6.6
2025-01-01 14:10:21.874289	337.8	23.4	-91.1	7.9
2025-01-01 14:10:23.043524	337.5	23.3	-89.3	3.4
2025-01-01 14:10:24.213597	337.2	23.3	-89.0	9.4
2025-01-01 14:10:25.378042	336.9	23.2	-89.2	7.3
2025-01-01 14:10:26.539247	336.6	23.2	-89.3	2.8
2025-01-01 14:10:27.702046	336.3	23.1	-91.0	4.6
2025-01-01 14:10:28.862377	336.0	23.1	-91.3	10.6
2025-01-01 14:10:30.029337	335.7	23.0	-91.1	6.6
2025-01-01 14:10:31.186835	335.4	23.0	-90.8	9.2
2025-01-01 14:10:32.353940	335.1	22.9	-90.7	9.1
2025-01-01 14:10:33.517276	334.8	22.9	-90.9	5.2
2025-01-01 14:10:34.683367	334.5	22.8	-91.1	8.0
2025-01-01 14:10:35.851283	334.2	22.7	-91.3	14.1
2025-01-01 14:10:37.016198	333.9	22.7	-91.5	6.2
2025-01-01 14:10:38.175264	333.7	22.6	-90.6	6.8
2025-01-01 14:10:39.333654	333.4	22.6	-91.0	9.4
2025-01-01 14:10:40.498546	333.1	22.5	-91.4	4.7
2025-01-01 14:10:41.669166	332.8	22.4	-91.2	5.7
2025-01-01 14:10:42.829505	332.5	22.4	-90.8	11.8
2025-01-01 14:10:43.994618	332.2	22.3	-90.9	5.0
2025-01-01 14:10:45.165960	332.0	22.3	-90.4	7.2
2025-01-01 14:10:46.331411	331.7	22.2	-90.0	14.8
2025-01-01 14:10:47.482766	331.4	22.1	-90.4	7.2
2025-01-01 14:10:48.647167	331.1	22.1	-90.5	7.4
2025-01-01 14:10:49.805962	330.8	22.0	-90.8	10.7
2025-01-01 14:10:50.970722	330.6	21.9	-90.7	8.5
2025-01-01 14:10:52.131014	330.3	21.9	-90.6	5.0
2025-01-01 14:10:53.298637	330.0	21.8	-90.5	13.0
2025-01-01 14:10:54.463849	329.8	21.7	-90.8	8.8
2025-01-01 14:10:55.631385	329.5	21.7	-90.9	7.0
2025-01-01 14:10:56.794804	329.2	21.6	-90.9	13.5
2025-01-01 14:10:57.960111	328.9	21.5	-91.0	9.0
2025-01-01 14:10:59.122324	328.7	21.5	-90.7	6.7
2025-01-01 14:11:00.280471	328.4	21.4	-90.6	11.9
2025-01-01 14:11:01.443951	328.2	21.3	-91.0	9.0
2025-01-01 14:11:02.602820	327.9	21.3	-91.0	7.1
2025-01-01 14:11:03.770203	327.6	21.2	-91.2	8.3
2025-01-01 14:11:04.930064	327.4	21.1	-90.7	11.8
2025-01-01 14:11:06.100298	327.1	21.0	-90.1	8.9
2025-01-01 14:11:07.260812	326.8	21.0	-90.2	11.2
2025-01-01 14:11:08.424705	326.6	20.9	-90.6	8.8
2025-01-01 14:11:09.588634	326.3	20.8	-91.4	9.9
2025-01-01 14:11:10.754826	326.1	20.8	-91.4	7.8
2025-01-01 14:11:11.917037	325.8	20.7	-91.2	7.0
2025-01-01 14:11:13.081413	325.6	20.6	-90.4	9.6
2025-01-01 14:11:14.245034	325.3	20.5	-90.4	6.5
2025-01-01 14:11:15.410102	325.1	20.5	-90.9	7.7
2025-01-01 14:11:16.575310	324.8	20.4	-90.3	8.7
2025-01-01 14:11:17.739272	324.6	20.3	-90.8	6.8
2025-01-01 14:11:18.902455	324.3	20.2	-91.1	7.2
2025-01-01 14:11:20.062193	324.1	20.2	-90.9	6.8
2025-01-01 14:11:21.225126	323.8	20.1	-90.9	6.2
2025-01-01 14:11:22.392872	323.6	20.0	-90.8	3.0
2025-01-01 14:11:23.554802	323.4	19.9	-91.0	5.5
2025-01-01 14:11:24.719517	323.1	19.9	-91.1	5.0
2025-01-01 14:11:25.880981	322.9	19.8	-90.9	5.2
2025-01-01 14:11:27.043308	322.6	19.7	-90.9	4.2
2025-01-01 14:11:28.204382	322.4	19.6	-90.7	2.0
2025-01-01 14:11:29.360832	322.2	19.5	-91.0	3.1
2025-01-01 14:11:30.525135	321.9	19.5	-91.4	5.0
2025-01-01 14:11:31.702175	321.7	19.4	-91.0	8.0
2025-01-01 14:11:32.862440	321.5	19.3	-91.1	5.1
2025-01-01 14:11:34.025216	321.2	19.2	-91.3	4.1
2025-01-01 14:11:35.200024	321.0	19.1	-90.9	4.0
2025-01-01 14:11:36.365630	320.8	19.1	-91.0	6.8
2025-01-01 14:11:37.530224	320.5	19.0	-91.4	4.2
2025-01-01 14:11:38.692586	320.3	18.9	-91.7	4.5
2025-01-01 14:11:39.857269	320.1	18.8	-91.4	5.6
2025-01-01 14:11:41.022104	319.9	18.7	-91.3	4.9
2025-01-01 14:11:42.181526	319.7	18.7	-90.8	4.5
2025-01-01 14:11:43.353656	319.4	18.6	-91.3	6.5
2025-01-01 14:11:44.519675	319.2	18.5	-91.5	6.4
2025-01-01 14:11:45.686231	319.0	18.4	-91.3	5.7
2025-01-01 14:11:46.850404	318.8	18.3	-91.3	6.4
2025-01-01 14:11:48.013885	318.6	18.2	-91.4	3.3
2025-01-01 14:11:49.169150	318.3	18.2	-91.1	4.0
2025-01-01 14:11:50.329836	318.1	18.1	-90.8	5.7
2025-01-01 14:11:51.497691	317.9	18.0	-91.2	6.7
2025-01-01 14:11:52.662297	317.7	17.9	-91.0	4.7
2025-01-01 14:11:53.830472	317.5	17.8	-91.2	3.0
2025-01-01 14:11:54.994240	317.3	17.8	-91.4	4.7
2025-01-01 14:11:56.162888	317.1	17.7	-90.8	4.1
2025-01-01 14:11:57.326951	316.9	17.6	-89.9	6.1
2025-01-01 14:11:58.486209	316.7	17.5	-90.4	5.1
2025-01-01 14:11:59.653331	316.5	17.4	-90.6	4.1
2025-01-01 14:12:00.813013	316.2	17.3	-90.3	5.1
2025-01-01 14:12:01.975397	316.0	17.3	-91.4	4.0
2025-01-01 14:12:03.139871	315.8	17.2	-90.8	4.3
2025-01-01 14:12:04.304986	315.6	17.1	-91.0	3.2
2025-01-01 14:12:05.473149	315.4	17.0	-91.7	5.1
2025-01-01 14:12:06.635852	315.2	16.9	-91.2	6.0
2025-01-01 14:12:07.803400	315.0	16.8	-91.3	3.1
2025-01-01 14:12:08.960038	314.9	16.8	-91.2	6.3
2025-01-01 14:12:10.126174	314.7	16.7	-91.0	5.0
2025-01-01 14:12:11.288045	314.5	16.6	-91.0	5.1
2025-01-01 14:12:12.450129	314.3	16.5	-91.4	9.5
2025-01-01 14:12:13.615224	314.1	16.4	-90.4	7.0
2025-01-01 14:12:14.780659	313.9	16.3	-90.3	7.1
2025-01-01 14:12:15.943540	313.7	16.2	-90.4	7.6
2025-01-01 14:12:17.105185	313.5	16.2	-90.0	7.6
2025-01-01 14:12:18.267186	313.3	16.1	-90.0	4.5
2025-01-01 14:12:19.420311	313.1	16.0	-90.7	6.5
2025-01-01 14:12:20.585272	313.0	15.9	-91.2	8.7
2025-01-01 14:12:21.749377	312.8	15.8	-91.5	9.1
2025-01-01 14:12:22.917819	312.6	15.7	-91.8	5.5
2025-01-01 14:12:24.076413	312.4	15.7	-90.9	5.2
2025-01-01 14:12:25.239670	312.2	15.6	-90.6	8.8
2025-01-01 14:12:26.401168	312.0	15.5	-91.0	5.8
2025-01-01 14:12:27.564547	311.9	15.4	-91.5	6.3
2025-01-01 14:12:28.724456	311.7	15.3	-91.4	7.8
2025-01-01 14:12:29.886263	311.5	15.2	-91.3	5.4
2025-01-01 14:12:31.049529	311.3	15.2	-90.9	4.9
2025-01-01 14:12:32.213117	311.2	15.1	-91.1	8.1
2025-01-01 14:12:33.379644	311.0	15.0	-90.8	6.1
2025-01-01 14:12:34.540592	310.8	14.9	-91.3	6.5
2025-01-01 14:12:35.705018	310.6	14.8	-91.0	6.3
2025-01-01 14:12:36.870214	310.5	14.7	-91.2	10.1
2025-01-01 14:12:38.036442	310.3	14.6	-91.2	8.8
#Closed at: 2025-01-01 14:06:13.583041