passes_logs/2025/01/01/LEX_Murmansk/LEX_Murmansk__20250101_165541_NOAA_19_rec.log

#Pass ID: 20250101_165541_NOAA 19
#Satellite: NOAA 19
#Configuration: NOAA 19
#Start time: 2025-01-01 16:55:36.911960

#LorettStation: 1.0.0 05.05.2024
#Station: LEX_Murmansk
#Location: 33.156738 lon 68.926811 lat
#TLE: 1 33591U 09005A   24366.84452498  .00000596  00000+0  34214-3 0  9996
#TLE: 2 33591  99.0219  64.4961 0014693  95.1476 265.1373 14.13246120819287

#Time	Az	El	Level	SNR
2025-01-01 16:55:49.029696	128.9	16.3	-89.1	3.1
2025-01-01 16:55:51.352547	128.8	16.5	-88.7	2.8
2025-01-01 16:55:53.674248	128.7	16.8	-88.8	3.3
2025-01-01 16:55:55.997518	128.6	17.1	-89.4	2.3
2025-01-01 16:55:58.320565	128.5	17.3	-88.8	3.5
2025-01-01 16:56:00.635203	128.4	17.6	-89.2	8.4
2025-01-01 16:56:02.953915	128.2	17.9	-89.3	6.2
2025-01-01 16:56:05.289918	128.1	18.1	-89.3	6.0
2025-01-01 16:56:07.614326	128.0	18.4	-89.1	1.7
2025-01-01 16:56:09.940150	127.9	18.7	-89.0	4.9
2025-01-01 16:56:12.229446	127.8	19.0	-89.6	4.1
2025-01-01 16:56:14.545323	127.6	19.2	-89.2	3.8
2025-01-01 16:56:16.869606	127.5	19.5	-89.3	10.5
2025-01-01 16:56:19.183630	127.4	19.8	-89.8	11.6
2025-01-01 16:56:21.521860	127.2	20.1	-89.8	3.6
2025-01-01 16:56:23.845535	127.1	20.4	-90.7	2.5
2025-01-01 16:56:26.169162	126.9	20.7	-90.0	3.8
2025-01-01 16:56:28.487234	126.8	21.0	-89.7	10.6
2025-01-01 16:56:30.807869	126.6	21.3	-89.5	11.0
2025-01-01 16:56:33.131543	126.5	21.6	-89.9	7.9
2025-01-01 16:56:35.456613	126.3	21.9	-89.1	7.0
2025-01-01 16:56:37.776676	126.2	22.3	-90.1	7.8
2025-01-01 16:56:40.093984	126.0	22.6	-89.8	2.2
2025-01-01 16:56:42.421103	125.9	22.9	-89.9	6.9
2025-01-01 16:56:44.749577	125.7	23.2	-89.9	6.0
2025-01-01 16:56:47.075406	125.5	23.6	-90.2	6.1
2025-01-01 16:56:49.397063	125.3	23.9	-89.4	5.1
2025-01-01 16:56:51.714084	125.2	24.2	-89.6	6.4
2025-01-01 16:56:54.055591	125.0	24.6	-89.5	4.7
2025-01-01 16:56:56.375657	124.8	24.9	-90.2	4.4
2025-01-01 16:56:58.703904	124.6	25.3	-89.9	3.8
2025-01-01 16:57:01.010081	124.4	25.6	-90.4	8.4
2025-01-01 16:57:03.333518	124.2	26.0	-90.0	6.1
2025-01-01 16:57:05.657664	124.0	26.4	-90.1	3.4
2025-01-01 16:57:07.981831	123.8	26.7	-90.8	3.4
2025-01-01 16:57:10.304223	123.6	27.1	-90.3	2.2
2025-01-01 16:57:12.634110	123.3	27.5	-90.6	1.8
2025-01-01 16:57:14.970029	123.1	27.9	-90.7	3.1
2025-01-01 16:57:17.299039	122.9	28.3	-90.6	0.9
2025-01-01 16:57:19.618132	122.6	28.6	-90.4	5.6
2025-01-01 16:57:21.945977	122.4	29.0	-90.5	4.0
2025-01-01 16:57:24.274478	122.1	29.5	-90.7	9.6
2025-01-01 16:57:26.603573	121.9	29.9	-90.5	9.7
2025-01-01 16:57:28.935995	121.6	30.3	-90.3	2.0
2025-01-01 16:57:31.258224	121.3	30.7	-89.9	3.8
2025-01-01 16:57:33.586078	121.0	31.1	-90.4	4.6
2025-01-01 16:57:35.913442	120.8	31.6	-90.4	9.4
2025-01-01 16:57:38.245111	120.5	32.0	-90.6	6.6
2025-01-01 16:57:40.564625	120.2	32.4	-90.1	4.8
2025-01-01 16:57:42.890351	119.8	32.9	-90.2	11.1
2025-01-01 16:57:45.210270	119.5	33.3	-90.4	10.7
2025-01-01 16:57:47.534399	119.2	33.8	-90.0	3.1
2025-01-01 16:57:49.862645	118.8	34.3	-91.1	4.5
2025-01-01 16:57:52.190620	118.5	34.7	-90.5	4.9
2025-01-01 16:57:54.521913	118.1	35.2	-90.1	8.9
2025-01-01 16:57:56.854006	117.8	35.7	-90.5	8.3
2025-01-01 16:57:59.182263	117.4	36.2	-90.2	6.3
2025-01-01 16:58:01.498091	117.0	36.7	-90.1	10.7
2025-01-01 16:58:03.829699	116.6	37.2	-90.4	6.1
2025-01-01 16:58:06.156983	116.1	37.7	-90.3	4.8
2025-01-01 16:58:08.490448	115.7	38.2	-90.4	3.7
2025-01-01 16:58:10.813845	115.3	38.7	-91.0	5.6
2025-01-01 16:58:13.137290	114.8	39.2	-89.6	11.5
2025-01-01 16:58:15.460957	114.3	39.7	-89.3	11.0
2025-01-01 16:58:17.802959	113.8	40.3	-90.1	6.1
2025-01-01 16:58:20.126522	113.3	40.8	-89.1	8.4
2025-01-01 16:58:22.455492	112.8	41.4	-89.1	8.2
2025-01-01 16:58:24.777676	112.2	41.9	-90.6	10.5
2025-01-01 16:58:27.105167	111.7	42.5	-89.9	4.7
2025-01-01 16:58:29.429778	111.1	43.0	-90.1	4.3
2025-01-01 16:58:31.755903	110.5	43.6	-89.4	7.9
2025-01-01 16:58:34.081894	109.8	44.2	-89.5	11.4
2025-01-01 16:58:36.410451	109.2	44.7	-89.6	13.3
2025-01-01 16:58:38.736583	108.5	45.3	-90.1	7.8
2025-01-01 16:58:41.056889	107.8	45.9	-90.9	7.1
2025-01-01 16:58:43.382427	107.1	46.5	-90.6	8.6
2025-01-01 16:58:45.705787	106.3	47.1	-90.6	13.5
2025-01-01 16:58:48.043580	105.5	47.7	-90.4	6.3
2025-01-01 16:58:50.365394	104.7	48.3	-90.2	5.0
2025-01-01 16:58:52.697399	103.8	48.8	-90.8	4.5
2025-01-01 16:58:55.039868	102.9	49.4	-90.7	5.1
2025-01-01 16:58:57.364252	102.0	50.0	-90.7	4.0
2025-01-01 16:58:59.691074	101.0	50.6	-91.0	11.8
2025-01-01 16:59:02.003937	100.1	51.2	-90.7	4.4
2025-01-01 16:59:04.333994	99.0	51.8	-90.1	3.9
2025-01-01 16:59:06.662452	97.9	52.4	-90.0	7.9
2025-01-01 16:59:08.987992	96.8	53.0	-90.2	12.2
2025-01-01 16:59:11.310107	95.6	53.6	-90.1	16.0
2025-01-01 16:59:13.631646	94.4	54.1	-90.4	8.6
2025-01-01 16:59:15.962118	93.2	54.7	-90.6	3.5
2025-01-01 16:59:18.269998	91.9	55.2	-90.4	5.7
2025-01-01 16:59:20.517477	90.5	55.8	-90.5	3.2
2025-01-01 16:59:22.758377	89.2	56.3	-91.0	7.6
2025-01-01 16:59:24.999694	87.7	56.8	-90.7	9.6
2025-01-01 16:59:27.254252	86.3	57.3	-90.4	16.4
2025-01-01 16:59:29.573033	84.7	57.8	-89.9	13.3
2025-01-01 16:59:31.894575	83.0	58.2	-89.7	10.1
2025-01-01 16:59:34.218349	81.3	58.7	-90.3	8.4
2025-01-01 16:59:36.515397	79.6	59.1	-90.5	6.4
2025-01-01 16:59:38.814071	77.8	59.5	-89.5	6.4
2025-01-01 16:59:41.138879	75.9	59.9	-89.4	13.9
2025-01-01 16:59:43.440337	74.0	60.3	-89.9	15.1
2025-01-01 16:59:45.730235	72.1	60.6	-90.4	14.7
2025-01-01 16:59:48.014023	70.1	60.9	-90.2	14.7
2025-01-01 16:59:50.318077	68.0	61.2	-90.2	12.8
2025-01-01 16:59:52.615550	65.9	61.4	-89.8	7.3
2025-01-01 16:59:54.913591	63.8	61.6	-90.0	6.7
2025-01-01 16:59:57.225662	61.6	61.8	-90.4	7.5
2025-01-01 16:59:59.536113	59.4	61.9	-90.4	2.8
2025-01-01 17:00:01.812150	57.2	62.0	-90.0	6.3
2025-01-01 17:00:04.119047	55.0	62.1	-89.7	4.4
2025-01-01 17:00:06.432263	52.7	62.1	-89.6	4.3
2025-01-01 17:00:08.671711	50.6	62.1	-90.6	9.1
2025-01-01 17:00:10.913460	48.4	62.1	-90.7	12.9
2025-01-01 17:00:13.156336	46.2	62.0	-90.5	12.8
2025-01-01 17:00:15.402589	44.1	61.9	-90.4	14.0
2025-01-01 17:00:17.664919	41.9	61.7	-90.3	15.4
2025-01-01 17:00:19.908719	39.8	61.5	-90.7	13.8
2025-01-01 17:00:22.151979	37.8	61.3	-90.9	16.5
2025-01-01 17:00:24.430074	35.7	61.0	-91.2	13.7
2025-01-01 17:00:26.689029	33.7	60.8	-90.8	14.0
2025-01-01 17:00:28.935122	31.8	60.5	-90.5	10.9
2025-01-01 17:00:31.177508	29.9	60.1	-90.8	11.3
2025-01-01 17:00:33.418835	28.1	59.8	-90.7	10.7
2025-01-01 17:00:35.663365	26.3	59.4	-90.8	7.5
2025-01-01 17:00:37.907590	24.5	59.0	-90.9	10.7
2025-01-01 17:00:40.149529	22.9	58.5	-91.2	10.9
2025-01-01 17:00:42.390252	21.3	58.1	-91.0	5.0
2025-01-01 17:00:44.634477	19.7	57.6	-90.6	8.5
2025-01-01 17:00:46.882492	18.2	57.2	-90.7	10.2
2025-01-01 17:00:49.127243	16.7	56.7	-90.5	3.4
2025-01-01 17:00:51.392319	15.3	56.2	-90.6	6.7
2025-01-01 17:00:53.717993	13.9	55.6	-90.9	7.7
2025-01-01 17:00:56.042007	12.5	55.1	-91.3	4.1
2025-01-01 17:00:58.362741	11.2	54.5	-91.0	10.1
2025-01-01 17:01:00.682065	10.0	53.9	-91.3	10.5
2025-01-01 17:01:03.009259	8.8	53.4	-90.8	12.8
2025-01-01 17:01:05.329382	7.6	52.8	-90.5	5.9
2025-01-01 17:01:07.654195	6.5	52.2	-90.5	8.9
2025-01-01 17:01:09.975658	5.5	51.6	-90.0	10.4
2025-01-01 17:01:12.294384	4.4	51.0	-90.3	6.0
2025-01-01 17:01:14.615043	3.5	50.5	-90.3	5.1
2025-01-01 17:01:17.386686	2.3	49.7	-90.0	8.6
2025-01-01 17:01:19.712983	1.4	49.2	-89.6	7.7
2025-01-01 17:01:22.036914	0.6	48.6	-89.7	3.8
2025-01-01 17:01:24.371482	359.7	48.0	-89.7	7.3
2025-01-01 17:01:26.700999	358.9	47.4	-90.9	6.9
2025-01-01 17:01:29.028023	358.2	46.8	-90.8	7.9
2025-01-01 17:01:31.364939	357.4	46.2	-90.7	13.5
2025-01-01 17:01:33.692422	356.7	45.6	-90.7	16.4
2025-01-01 17:01:36.025276	356.0	45.0	-90.9	17.2
2025-01-01 17:01:38.353552	355.3	44.5	-90.9	17.1
2025-01-01 17:01:40.673891	354.7	43.9	-91.0	17.8
2025-01-01 17:01:43.003196	354.1	43.3	-90.9	11.2
2025-01-01 17:01:45.325452	353.5	42.8	-90.6	9.6
2025-01-01 17:01:47.651428	352.9	42.2	-91.1	8.1
2025-01-01 17:01:49.979732	352.3	41.7	-90.2	5.2
2025-01-01 17:01:52.298036	351.8	41.1	-90.2	9.0
2025-01-01 17:01:54.624769	351.3	40.6	-90.6	9.1
2025-01-01 17:01:56.954616	350.8	40.0	-91.2	10.8
2025-01-01 17:01:59.284473	350.3	39.5	-90.9	14.2
2025-01-01 17:02:01.592241	349.8	39.0	-90.8	12.6
2025-01-01 17:02:03.914005	349.4	38.5	-91.3	16.2
2025-01-01 17:02:06.240361	348.9	37.9	-90.8	11.3
2025-01-01 17:02:08.564789	348.5	37.4	-91.3	6.3
2025-01-01 17:02:10.890292	348.1	36.9	-91.1	7.0
2025-01-01 17:02:13.219338	347.7	36.4	-91.2	7.8
2025-01-01 17:02:15.542646	347.3	36.0	-90.8	6.4
2025-01-01 17:02:17.870028	346.9	35.5	-91.0	8.3
2025-01-01 17:02:20.204329	346.5	35.0	-91.3	10.4
2025-01-01 17:02:22.526651	346.2	34.5	-90.9	7.2
2025-01-01 17:02:24.851914	345.8	34.1	-91.3	7.2
2025-01-01 17:02:27.182396	345.5	33.6	-90.6	4.6
2025-01-01 17:02:29.499919	345.2	33.1	-90.6	3.1
2025-01-01 17:02:31.815564	344.9	32.7	-90.8	3.7
2025-01-01 17:02:34.136383	344.5	32.2	-91.0	7.7
2025-01-01 17:02:36.466886	344.2	31.8	-91.1	2.8
2025-01-01 17:02:38.797110	344.0	31.4	-91.0	7.4
2025-01-01 17:02:41.119736	343.7	30.9	-91.4	5.2
2025-01-01 17:02:43.436293	343.4	30.5	-91.0	5.3
2025-01-01 17:02:45.760408	343.1	30.1	-91.2	2.9
2025-01-01 17:02:48.089050	342.9	29.7	-91.5	2.4
2025-01-01 17:02:50.423813	342.6	29.3	-91.2	4.7
2025-01-01 17:02:52.738553	342.4	28.9	-90.7	5.8
2025-01-01 17:02:55.040163	342.1	28.5	-90.7	9.9
2025-01-01 17:02:57.280543	341.9	28.1	-90.2	5.4
2025-01-01 17:02:59.521504	341.7	27.8	-90.0	1.7
2025-01-01 17:03:01.765271	341.4	27.4	-90.5	5.1
2025-01-01 17:03:04.010261	341.2	27.0	-90.8	2.7
2025-01-01 17:03:06.306292	341.0	26.7	-91.1	6.2
2025-01-01 17:03:08.602587	340.8	26.3	-90.4	7.5
2025-01-01 17:03:10.925489	340.6	25.9	-90.9	7.2
2025-01-01 17:03:13.234616	340.4	25.6	-91.1	3.1
2025-01-01 17:03:15.565808	340.2	25.2	-91.1	2.6
2025-01-01 17:03:17.892265	340.0	24.9	-91.2	4.5
2025-01-01 17:03:20.229932	339.8	24.5	-91.1	3.1
2025-01-01 17:03:22.554839	339.7	24.2	-90.5	2.9
2025-01-01 17:03:24.885928	339.5	23.8	-91.3	15.5
2025-01-01 17:03:27.223053	339.3	23.5	-91.4	4.6
2025-01-01 17:03:29.545313	339.1	23.2	-90.6	2.1
2025-01-01 17:03:31.861112	339.0	22.8	-90.8	5.3
2025-01-01 17:03:33.914527	338.8	22.6	-91.0	3.7
2025-01-01 17:03:36.236939	338.7	22.2	-90.7	4.7
2025-01-01 17:03:38.553772	338.5	21.9	-90.9	5.2
2025-01-01 17:03:40.875196	338.3	21.6	-90.8	11.5
2025-01-01 17:03:43.192756	338.2	21.3	-90.0	6.3
2025-01-01 17:03:45.518226	338.1	21.0	-90.0	3.6
2025-01-01 17:03:47.839511	337.9	20.7	-90.0	3.1
2025-01-01 17:03:50.166696	337.8	20.4	-91.0	4.2
2025-01-01 17:03:52.484041	337.6	20.1	-90.9	6.7
2025-01-01 17:03:54.815382	337.5	19.8	-90.8	3.4
2025-01-01 17:03:57.150653	337.4	19.5	-90.6	3.7
2025-01-01 17:03:59.471375	337.2	19.2	-91.1	2.4
2025-01-01 17:04:01.776028	337.1	19.0	-91.0	2.0
2025-01-01 17:04:04.096666	337.0	18.7	-91.3	1.4
2025-01-01 17:04:06.425830	336.9	18.4	-91.0	6.1
2025-01-01 17:04:08.742365	336.7	18.1	-90.6	2.1
2025-01-01 17:04:11.071087	336.6	17.9	-90.6	1.9
2025-01-01 17:04:13.389029	336.5	17.6	-90.5	2.3
2025-01-01 17:04:15.667876	336.4	17.3	-91.1	2.4
2025-01-01 17:04:17.957674	336.3	17.1	-91.1	1.6
2025-01-01 17:04:20.285574	336.2	16.8	-91.0	3.6
2025-01-01 17:04:22.608578	336.1	16.6	-90.7	2.2
2025-01-01 17:04:25.008191	336.0	16.3	-90.7	3.8
2025-01-01 17:04:27.336411	335.8	16.0	-90.7	1.7
2025-01-01 17:04:29.662052	335.7	15.8	-90.7	2.3
2025-01-01 17:04:31.983684	335.6	15.5	-90.7	1.8
2025-01-01 17:04:34.267048	335.5	15.3	-90.8	4.8
2025-01-01 17:04:36.508149	335.5	15.1	-90.9	3.7
2025-01-01 17:04:38.749950	335.4	14.8	-90.9	3.8
2025-01-01 17:04:40.996103	335.3	14.6	-91.3	4.0
#Closed at: 2025-01-01 16:55:41.839541