passes_logs/2025/01/01/LEX_Murmansk/LEX_Murmansk__20250101_101706_NOAA_19_rec.log

#Pass ID: 20250101_101706_NOAA 19
#Satellite: NOAA 19
#Configuration: NOAA 19
#Start time: 2025-01-01 10:17:01.195448

#LorettStation: 1.0.0 05.05.2024
#Station: LEX_Murmansk
#Location: 33.156738 lon 68.926811 lat
#TLE: 1 33591U 09005A   24366.84452498  .00000596  00000+0  34214-3 0  9996
#TLE: 2 33591  99.0219  64.4961 0014693  95.1476 265.1373 14.13246120819287

#Time	Az	El	Level	SNR
2025-01-01 10:17:13.392246	23.4	16.2	-92.5	5.2
2025-01-01 10:17:14.557996	23.3	16.4	-92.7	3.6
2025-01-01 10:17:15.719673	23.2	16.5	-92.9	3.4
2025-01-01 10:17:16.882372	23.2	16.6	-92.3	3.2
2025-01-01 10:17:18.043155	23.1	16.7	-92.5	1.1
2025-01-01 10:17:19.207079	23.0	16.8	-92.8	4.5
2025-01-01 10:17:20.369156	22.9	17.0	-93.1	7.8
2025-01-01 10:17:21.530418	22.8	17.1	-92.9	6.4
2025-01-01 10:17:22.695488	22.7	17.2	-93.0	5.7
2025-01-01 10:17:23.854054	22.6	17.3	-92.9	4.4
2025-01-01 10:17:25.018964	22.5	17.5	-93.0	1.9
2025-01-01 10:17:26.179326	22.4	17.6	-92.8	1.2
2025-01-01 10:17:27.347885	22.3	17.7	-92.6	3.9
2025-01-01 10:17:28.513386	22.2	17.8	-92.7	5.3
2025-01-01 10:17:29.672893	22.1	18.0	-92.4	16.4
2025-01-01 10:17:30.833383	22.0	18.1	-92.9	15.3
2025-01-01 10:17:31.995386	21.8	18.2	-92.6	6.7
2025-01-01 10:17:33.147422	21.7	18.4	-90.9	5.0
2025-01-01 10:17:34.317093	21.6	18.5	-89.9	1.7
2025-01-01 10:17:35.477971	21.5	18.6	-91.4	7.0
2025-01-01 10:17:36.646405	21.4	18.7	-90.4	9.6
2025-01-01 10:17:37.800423	21.3	18.9	-92.6	8.1
2025-01-01 10:17:38.963825	21.2	19.0	-92.6	7.0
2025-01-01 10:17:40.132601	21.1	19.1	-91.5	2.4
2025-01-01 10:17:41.297080	21.0	19.3	-91.0	1.5
2025-01-01 10:17:42.464829	20.9	19.4	-90.7	3.6
2025-01-01 10:17:43.625857	20.7	19.5	-91.1	3.5
2025-01-01 10:17:44.784727	20.6	19.7	-91.5	2.4
2025-01-01 10:17:45.953053	20.5	19.8	-91.7	2.6
2025-01-01 10:17:47.112355	20.4	19.9	-91.0	9.2
2025-01-01 10:17:48.280420	20.3	20.1	-91.4	7.7
2025-01-01 10:17:49.441678	20.1	20.2	-92.4	5.4
2025-01-01 10:17:50.604737	20.0	20.4	-92.8	4.8
2025-01-01 10:17:51.763346	19.9	20.5	-91.5	5.1
2025-01-01 10:17:52.909887	19.8	20.6	-91.6	5.3
2025-01-01 10:17:54.072628	19.6	20.8	-91.3	10.0
2025-01-01 10:17:55.247782	19.5	20.9	-91.0	5.3
2025-01-01 10:17:56.414132	19.4	21.1	-91.9	3.5
2025-01-01 10:17:57.573094	19.3	21.2	-91.6	0.4
2025-01-01 10:17:58.751776	19.1	21.3	-93.2	1.8
2025-01-01 10:17:59.908217	19.0	21.5	-93.0	2.5
2025-01-01 10:18:01.059362	18.9	21.6	-92.4	1.8
2025-01-01 10:18:02.220600	18.7	21.8	-91.7	5.4
2025-01-01 10:18:03.387406	18.6	21.9	-92.9	8.1
2025-01-01 10:18:04.540480	18.5	22.1	-93.0	13.9
2025-01-01 10:18:05.706648	18.3	22.2	-93.1	7.0
2025-01-01 10:18:06.871553	18.2	22.4	-93.1	4.4
2025-01-01 10:18:08.030739	18.0	22.5	-92.9	9.0
2025-01-01 10:18:09.191395	17.9	22.6	-93.0	2.4
2025-01-01 10:18:10.355351	17.8	22.8	-92.3	15.5
2025-01-01 10:18:11.517780	17.6	22.9	-93.1	14.8
2025-01-01 10:18:12.679776	17.5	23.1	-93.1	14.8
2025-01-01 10:18:13.844982	17.3	23.2	-92.9	9.5
2025-01-01 10:18:14.994600	17.2	23.4	-92.6	6.1
2025-01-01 10:18:16.130680	17.0	23.5	-92.9	5.2
2025-01-01 10:18:17.290412	16.9	23.7	-92.8	1.2
2025-01-01 10:18:18.452298	16.7	23.8	-92.7	5.4
2025-01-01 10:18:19.614139	16.6	24.0	-92.8	8.7
2025-01-01 10:18:20.777904	16.4	24.2	-92.5	9.4
2025-01-01 10:18:21.937129	16.2	24.3	-93.3	9.8
2025-01-01 10:18:23.098428	16.1	24.5	-93.0	14.1
2025-01-01 10:18:24.258619	15.9	24.6	-93.1	6.9
2025-01-01 10:18:25.411534	15.8	24.8	-92.9	4.4
2025-01-01 10:18:26.575154	15.6	24.9	-93.0	4.6
2025-01-01 10:18:27.743137	15.4	25.1	-93.0	5.8
2025-01-01 10:18:28.903172	15.3	25.3	-92.9	6.8
2025-01-01 10:18:30.061896	15.1	25.4	-93.2	14.5
2025-01-01 10:18:31.227710	14.9	25.6	-92.7	8.7
2025-01-01 10:18:32.387549	14.7	25.7	-92.7	4.7
2025-01-01 10:18:33.544560	14.6	25.9	-92.4	4.3
2025-01-01 10:18:34.700358	14.4	26.1	-93.0	2.9
2025-01-01 10:18:35.861564	14.2	26.2	-93.1	1.1
2025-01-01 10:18:37.025084	14.0	26.4	-93.1	2.7
2025-01-01 10:18:38.189503	13.8	26.6	-92.6	2.4
2025-01-01 10:18:39.350785	13.7	26.7	-92.4	8.7
2025-01-01 10:18:40.513573	13.5	26.9	-92.8	10.7
2025-01-01 10:18:41.669525	13.3	27.0	-92.7	9.8
2025-01-01 10:18:42.836754	13.1	27.2	-91.8	7.5
2025-01-01 10:18:44.000348	12.9	27.4	-92.3	5.5
2025-01-01 10:18:45.165504	12.7	27.6	-91.4	3.1
2025-01-01 10:18:46.329879	12.5	27.7	-92.2	3.0
2025-01-01 10:18:47.484929	12.3	27.9	-92.1	8.8
2025-01-01 10:18:48.646089	12.1	28.1	-92.0	5.1
2025-01-01 10:18:49.810364	11.9	28.2	-91.7	2.3
2025-01-01 10:18:50.975031	11.7	28.4	-92.7	4.5
2025-01-01 10:18:52.133896	11.5	28.6	-92.5	1.4
2025-01-01 10:18:53.296536	11.3	28.8	-92.4	0.6
2025-01-01 10:18:54.456481	11.1	28.9	-92.9	2.6
2025-01-01 10:18:55.621991	10.8	29.1	-92.9	2.4
2025-01-01 10:18:56.784480	10.6	29.3	-93.0	1.2
2025-01-01 10:18:57.956379	10.4	29.5	-92.9	4.4
2025-01-01 10:18:59.116657	10.2	29.6	-92.5	9.7
2025-01-01 10:19:00.261154	10.0	29.8	-92.8	11.6
2025-01-01 10:19:01.418013	9.7	30.0	-92.5	6.1
2025-01-01 10:19:02.576266	9.5	30.2	-93.1	7.5
2025-01-01 10:19:03.736172	9.3	30.3	-93.2	6.2
2025-01-01 10:19:04.905389	9.0	30.5	-93.2	5.4
2025-01-01 10:19:06.074846	8.8	30.7	-92.7	13.2
2025-01-01 10:19:07.238315	8.6	30.9	-92.4	16.4
2025-01-01 10:19:08.398281	8.3	31.1	-92.1	10.4
2025-01-01 10:19:09.563401	8.1	31.2	-92.8	17.5
2025-01-01 10:19:10.731532	7.8	31.4	-92.9	12.8
2025-01-01 10:19:11.889379	7.6	31.6	-92.6	6.5
2025-01-01 10:19:13.055034	7.3	31.8	-93.2	4.6
2025-01-01 10:19:14.217731	7.1	32.0	-92.8	2.9
2025-01-01 10:19:15.382176	6.8	32.2	-92.8	3.0
2025-01-01 10:19:16.546898	6.5	32.3	-93.0	4.4
2025-01-01 10:19:17.707454	6.3	32.5	-93.0	6.1
2025-01-01 10:19:18.867309	6.0	32.7	-92.8	12.7
2025-01-01 10:19:20.028780	5.7	32.9	-92.5	19.2
2025-01-01 10:19:21.195195	5.4	33.1	-92.6	13.7
2025-01-01 10:19:22.350331	5.2	33.3	-92.2	12.7
2025-01-01 10:19:23.507299	4.9	33.4	-92.7	12.1
2025-01-01 10:19:24.631875	4.6	33.6	-92.4	11.8
2025-01-01 10:19:25.751331	4.3	33.8	-93.0	8.8
2025-01-01 10:19:26.873252	4.0	34.0	-92.2	7.9
2025-01-01 10:19:27.993158	3.8	34.2	-91.8	14.5
2025-01-01 10:19:29.114399	3.5	34.3	-92.0	7.5
2025-01-01 10:19:30.235953	3.2	34.5	-92.1	11.0
2025-01-01 10:19:31.357423	2.9	34.7	-91.8	5.8
2025-01-01 10:19:32.496600	2.6	34.9	-92.3	6.9
2025-01-01 10:19:33.670376	2.3	35.1	-92.1	4.9
2025-01-01 10:19:34.828964	2.0	35.3	-92.3	2.3
2025-01-01 10:19:35.999071	1.6	35.5	-92.5	5.9
2025-01-01 10:19:37.152412	1.3	35.7	-92.1	6.5
2025-01-01 10:19:38.318292	1.0	35.8	-92.2	6.5
2025-01-01 10:19:39.482217	0.6	36.0	-92.7	6.5
2025-01-01 10:19:40.639697	0.3	36.2	-93.1	5.5
2025-01-01 10:19:41.803229	360.0	36.4	-92.5	15.0
2025-01-01 10:19:42.956350	359.6	36.6	-92.5	14.6
2025-01-01 10:19:44.120907	359.3	36.8	-91.4	13.0
2025-01-01 10:19:45.285936	358.9	37.0	-91.8	4.8
2025-01-01 10:19:46.452898	358.6	37.2	-91.6	6.7
2025-01-01 10:19:47.613521	358.2	37.3	-92.0	10.6
2025-01-01 10:19:48.774262	357.9	37.5	-92.2	3.1
2025-01-01 10:19:49.940521	357.5	37.7	-91.6	11.7
2025-01-01 10:19:51.100277	357.1	37.9	-91.0	12.5
2025-01-01 10:19:52.262916	356.7	38.1	-92.3	15.7
2025-01-01 10:19:53.418217	356.4	38.3	-92.3	18.0
2025-01-01 10:19:54.584675	356.0	38.5	-91.7	12.9
2025-01-01 10:19:55.744990	355.6	38.7	-91.8	4.6
2025-01-01 10:19:56.913464	355.2	38.8	-92.4	6.5
2025-01-01 10:19:58.072630	354.8	39.0	-92.1	7.8
2025-01-01 10:19:59.239347	354.4	39.2	-91.9	2.1
2025-01-01 10:20:00.392089	354.0	39.4	-91.7	4.9
2025-01-01 10:20:01.548382	353.6	39.6	-93.2	11.5
2025-01-01 10:20:02.705051	353.1	39.8	-93.3	9.0
2025-01-01 10:20:03.866755	352.7	39.9	-93.0	13.1
2025-01-01 10:20:05.032239	352.3	40.1	-92.8	19.0
2025-01-01 10:20:06.191408	351.9	40.3	-92.4	19.7
2025-01-01 10:20:07.352962	351.4	40.5	-92.9	18.9
2025-01-01 10:20:08.519941	351.0	40.6	-93.0	17.6
2025-01-01 10:20:09.687084	350.5	40.8	-92.8	13.8
2025-01-01 10:20:10.845183	350.1	41.0	-92.3	10.5
2025-01-01 10:20:12.009079	349.6	41.2	-92.9	13.2
2025-01-01 10:20:13.173190	349.2	41.3	-92.3	8.5
2025-01-01 10:20:14.342498	348.7	41.5	-92.1	8.8
2025-01-01 10:20:15.506072	348.2	41.7	-93.2	13.3
2025-01-01 10:20:16.672627	347.8	41.9	-92.6	15.5
2025-01-01 10:20:17.834339	347.3	42.0	-92.6	20.0
2025-01-01 10:20:18.995533	346.8	42.2	-92.9	18.0
2025-01-01 10:20:20.163681	346.3	42.3	-92.4	20.0
2025-01-01 10:20:21.328183	345.8	42.5	-92.1	18.4
2025-01-01 10:20:22.483686	345.3	42.7	-92.6	15.3
2025-01-01 10:20:23.642468	344.8	42.8	-93.1	8.6
2025-01-01 10:20:24.809859	344.3	43.0	-92.3	10.0
2025-01-01 10:20:25.974902	343.8	43.1	-93.0	6.5
2025-01-01 10:20:27.134243	343.2	43.3	-92.8	11.5
2025-01-01 10:20:28.293692	342.7	43.4	-93.0	3.6
2025-01-01 10:20:29.458585	342.2	43.6	-92.7	5.8
2025-01-01 10:20:30.629227	341.6	43.7	-93.2	8.1
2025-01-01 10:20:31.761264	341.1	43.9	-92.5	8.0
2025-01-01 10:20:32.881460	340.6	44.0	-93.2	7.6
2025-01-01 10:20:34.047249	340.0	44.1	-93.0	20.3
2025-01-01 10:20:35.201550	339.5	44.3	-92.7	18.0
2025-01-01 10:20:36.367426	338.9	44.4	-93.0	21.0
2025-01-01 10:20:37.530584	338.4	44.5	-93.1	19.8
2025-01-01 10:20:38.693256	337.8	44.7	-93.1	13.3
2025-01-01 10:20:39.854450	337.2	44.8	-93.0	17.5
2025-01-01 10:20:41.018859	336.6	44.9	-93.2	13.2
2025-01-01 10:20:42.174633	336.1	45.0	-92.4	15.8
2025-01-01 10:20:43.332477	335.5	45.2	-92.2	6.5
2025-01-01 10:20:44.493667	334.9	45.3	-93.0	14.4
2025-01-01 10:20:45.661918	334.3	45.4	-92.5	7.6
2025-01-01 10:20:46.828001	333.7	45.5	-92.8	8.1
2025-01-01 10:20:47.989379	333.1	45.6	-92.7	8.8
2025-01-01 10:20:49.153986	332.5	45.7	-92.0	11.1
2025-01-01 10:20:50.311183	331.9	45.8	-91.8	9.5
2025-01-01 10:20:51.478097	331.2	45.9	-92.0	11.5
2025-01-01 10:20:52.635064	330.6	46.0	-91.6	14.6
2025-01-01 10:20:53.802059	330.0	46.1	-91.7	9.8
2025-01-01 10:20:54.965313	329.4	46.1	-91.7	18.3
2025-01-01 10:20:56.128714	328.7	46.2	-92.7	15.5
2025-01-01 10:20:57.294857	328.1	46.3	-92.6	18.2
2025-01-01 10:20:58.446973	327.5	46.4	-92.6	11.3
2025-01-01 10:20:59.606211	326.8	46.4	-92.8	8.5
2025-01-01 10:21:00.760153	326.2	46.5	-92.8	7.1
2025-01-01 10:21:01.909350	325.6	46.6	-92.6	6.6
2025-01-01 10:21:03.069521	324.9	46.6	-93.3	7.9
2025-01-01 10:21:04.234462	324.3	46.7	-93.1	5.7
2025-01-01 10:21:05.398893	323.6	46.7	-93.3	7.0
2025-01-01 10:21:06.566780	323.0	46.8	-92.9	8.5
2025-01-01 10:21:07.731425	322.3	46.8	-92.8	6.6
2025-01-01 10:21:08.898086	321.7	46.8	-93.2	6.6
2025-01-01 10:21:10.062090	321.0	46.9	-92.0	5.2
2025-01-01 10:21:11.223738	320.3	46.9	-92.1	1.4
2025-01-01 10:21:12.384394	319.7	46.9	-92.1	5.0
2025-01-01 10:21:13.542905	319.0	47.0	-92.4	6.8
2025-01-01 10:21:14.705067	318.4	47.0	-92.4	5.9
2025-01-01 10:21:15.873467	317.7	47.0	-91.9	4.6
2025-01-01 10:21:17.042912	317.0	47.0	-91.7	6.0
2025-01-01 10:21:18.202149	316.4	47.0	-91.4	3.4
2025-01-01 10:21:19.381939	315.7	47.0	-92.3	10.1
2025-01-01 10:21:20.535044	315.0	47.0	-92.4	10.0
2025-01-01 10:21:21.700880	314.4	47.0	-92.4	6.8
2025-01-01 10:21:22.859233	313.7	47.0	-93.1	10.9
2025-01-01 10:21:24.027495	313.1	46.9	-92.7	10.4
2025-01-01 10:21:25.189164	312.4	46.9	-92.7	7.4
2025-01-01 10:21:26.332936	311.7	46.9	-92.3	7.4
2025-01-01 10:21:27.454026	311.1	46.9	-93.1	11.7
2025-01-01 10:21:28.574449	310.5	46.8	-92.9	15.8
2025-01-01 10:21:29.695795	309.8	46.8	-93.1	16.8
2025-01-01 10:21:30.816216	309.2	46.8	-92.9	14.9
2025-01-01 10:21:31.936572	308.6	46.7	-93.1	12.9
2025-01-01 10:21:33.057543	308.0	46.7	-92.7	14.6
2025-01-01 10:21:34.179366	307.3	46.6	-93.0	14.5
2025-01-01 10:21:35.335394	306.7	46.6	-92.5	16.0
2025-01-01 10:21:36.491534	306.1	46.5	-92.9	14.0
2025-01-01 10:21:37.652356	305.4	46.4	-92.6	13.9
2025-01-01 10:21:38.815203	304.8	46.4	-91.7	15.6
2025-01-01 10:21:39.967851	304.1	46.3	-91.8	12.7
2025-01-01 10:21:41.136401	303.5	46.2	-92.1	9.5
2025-01-01 10:21:42.292462	302.9	46.1	-92.2	10.1
2025-01-01 10:21:43.452039	302.3	46.1	-93.0	11.7
2025-01-01 10:21:44.619064	301.6	46.0	-92.8	13.8
2025-01-01 10:21:45.779207	301.0	45.9	-93.0	8.3
2025-01-01 10:21:46.943311	300.4	45.8	-93.0	12.7
2025-01-01 10:21:48.102015	299.8	45.7	-92.8	9.0
2025-01-01 10:21:49.265620	299.2	45.6	-92.6	14.0
2025-01-01 10:21:50.428004	298.6	45.5	-92.8	14.0
2025-01-01 10:21:51.594360	298.0	45.4	-92.9	13.2
2025-01-01 10:21:52.750676	297.4	45.3	-92.8	10.2
2025-01-01 10:21:53.912978	296.8	45.1	-92.7	14.3
2025-01-01 10:21:55.073948	296.2	45.0	-93.1	13.7
2025-01-01 10:21:56.237800	295.6	44.9	-92.5	6.5
2025-01-01 10:21:57.401217	295.0	44.8	-92.7	9.5
2025-01-01 10:21:58.564029	294.5	44.7	-92.6	14.4
2025-01-01 10:21:59.729547	293.9	44.5	-92.7	16.2
2025-01-01 10:22:00.874612	293.3	44.4	-92.5	16.8
2025-01-01 10:22:02.032719	292.8	44.3	-92.5	13.6
2025-01-01 10:22:03.196929	292.2	44.1	-92.1	12.0
2025-01-01 10:22:04.359962	291.7	44.0	-92.4	16.4
2025-01-01 10:22:05.518853	291.1	43.8	-92.9	17.4
2025-01-01 10:22:06.678494	290.6	43.7	-92.7	14.3
2025-01-01 10:22:07.834646	290.1	43.6	-93.0	11.8
2025-01-01 10:22:09.003299	289.5	43.4	-93.0	16.3
2025-01-01 10:22:10.156913	289.0	43.3	-92.9	13.4
2025-01-01 10:22:11.323023	288.5	43.1	-92.7	10.9
2025-01-01 10:22:12.478907	288.0	43.0	-92.7	11.5
2025-01-01 10:22:13.637877	287.5	42.8	-92.3	13.3
2025-01-01 10:22:14.800202	287.0	42.6	-93.0	9.8
2025-01-01 10:22:15.962442	286.5	42.5	-93.0	12.8
2025-01-01 10:22:17.123612	286.0	42.3	-92.8	14.3
2025-01-01 10:22:18.280050	285.5	42.2	-92.3	7.1
2025-01-01 10:22:19.440345	285.0	42.0	-92.7	9.4
2025-01-01 10:22:20.590761	284.5	41.8	-93.2	11.2
2025-01-01 10:22:21.712167	284.1	41.7	-92.9	6.8
2025-01-01 10:22:22.832492	283.6	41.5	-91.4	5.1
2025-01-01 10:22:23.953836	283.1	41.3	-92.1	9.4
2025-01-01 10:22:25.073943	282.7	41.2	-91.1	9.3
2025-01-01 10:22:26.194622	282.3	41.0	-91.5	5.6
2025-01-01 10:22:27.319698	281.8	40.8	-91.9	5.4
2025-01-01 10:22:28.440165	281.4	40.7	-92.4	9.6
2025-01-01 10:22:29.603312	281.0	40.5	-93.1	7.5
2025-01-01 10:22:30.756552	280.5	40.3	-93.2	6.2
2025-01-01 10:22:31.918297	280.1	40.1	-93.2	6.9
2025-01-01 10:22:33.072271	279.7	40.0	-92.5	10.1
2025-01-01 10:22:34.232119	279.2	39.8	-92.9	6.4
2025-01-01 10:22:35.404900	278.8	39.6	-92.2	7.8
2025-01-01 10:22:36.570194	278.4	39.4	-91.7	8.8
2025-01-01 10:22:37.733244	278.0	39.2	-92.1	7.4
2025-01-01 10:22:38.900295	277.6	39.0	-92.5	12.6
2025-01-01 10:22:40.066142	277.2	38.9	-92.2	11.4
2025-01-01 10:22:41.226636	276.8	38.7	-92.2	14.7
2025-01-01 10:22:42.386633	276.4	38.5	-92.6	14.1
2025-01-01 10:22:43.548628	276.0	38.3	-93.2	17.5
2025-01-01 10:22:44.714238	275.6	38.1	-93.2	14.2
2025-01-01 10:22:45.874893	275.2	37.9	-93.4	17.5
2025-01-01 10:22:47.038594	274.9	37.7	-92.1	17.4
2025-01-01 10:22:48.200224	274.5	37.5	-91.9	17.0
2025-01-01 10:22:49.367240	274.1	37.4	-91.9	16.0
2025-01-01 10:22:50.531071	273.8	37.2	-91.9	15.5
2025-01-01 10:22:51.699574	273.4	37.0	-91.9	15.3
2025-01-01 10:22:52.854663	273.1	36.8	-91.8	11.4
2025-01-01 10:22:54.022794	272.7	36.6	-91.7	10.0
2025-01-01 10:22:55.184218	272.4	36.4	-93.3	10.9
2025-01-01 10:22:56.344061	272.0	36.2	-93.2	5.7
2025-01-01 10:22:57.505779	271.7	36.0	-93.1	9.3
2025-01-01 10:22:58.653437	271.4	35.8	-93.4	9.8
2025-01-01 10:22:59.814333	271.0	35.7	-93.1	6.1
2025-01-01 10:23:00.965449	270.7	35.5	-92.9	3.6
2025-01-01 10:23:02.133788	270.4	35.3	-93.0	6.3
2025-01-01 10:23:03.285568	270.1	35.1	-92.8	3.5
2025-01-01 10:23:04.457691	269.8	34.9	-93.1	6.3
2025-01-01 10:23:05.620005	269.5	34.7	-93.3	6.3
2025-01-01 10:23:06.780684	269.1	34.5	-93.3	3.5
2025-01-01 10:23:07.940924	268.8	34.3	-93.2	11.2
2025-01-01 10:23:09.104235	268.5	34.2	-92.7	9.0
2025-01-01 10:23:10.258398	268.2	34.0	-92.9	12.9
2025-01-01 10:23:11.418273	268.0	33.8	-93.4	13.3
2025-01-01 10:23:12.543810	267.7	33.6	-93.4	13.0
2025-01-01 10:23:13.665100	267.4	33.4	-93.3	15.0
2025-01-01 10:23:14.785777	267.1	33.2	-93.2	13.3
2025-01-01 10:23:15.906777	266.9	33.1	-92.9	16.8
2025-01-01 10:23:17.028273	266.6	32.9	-93.2	12.0
2025-01-01 10:23:18.149004	266.3	32.7	-92.5	14.7
2025-01-01 10:23:19.273096	266.1	32.5	-92.7	9.7
2025-01-01 10:23:20.424105	265.8	32.3	-93.0	13.5
2025-01-01 10:23:21.581103	265.5	32.2	-92.9	13.8
2025-01-01 10:23:22.731787	265.3	32.0	-92.7	5.6
2025-01-01 10:23:23.897847	265.0	31.8	-92.9	9.3
2025-01-01 10:23:25.046083	264.8	31.6	-92.9	8.7
2025-01-01 10:23:26.203371	264.5	31.4	-91.9	6.5
2025-01-01 10:23:27.370673	264.3	31.2	-92.9	2.1
2025-01-01 10:23:28.532250	264.0	31.1	-93.2	8.1
2025-01-01 10:23:29.695023	263.8	30.9	-93.4	10.0
2025-01-01 10:23:30.857215	263.5	30.7	-93.3	10.3
2025-01-01 10:23:32.022001	263.3	30.5	-93.2	9.9
2025-01-01 10:23:33.174946	263.1	30.3	-92.9	13.2
2025-01-01 10:23:34.337596	262.8	30.2	-93.0	11.9
2025-01-01 10:23:35.500681	262.6	30.0	-92.9	13.3
2025-01-01 10:23:36.666286	262.4	29.8	-92.4	10.4
2025-01-01 10:23:37.823975	262.1	29.6	-92.9	15.6
2025-01-01 10:23:38.982602	261.9	29.5	-92.7	12.3
2025-01-01 10:23:40.142368	261.7	29.3	-92.6	12.8
2025-01-01 10:23:41.306060	261.5	29.1	-92.5	6.0
2025-01-01 10:23:42.470831	261.3	28.9	-92.5	6.3
2025-01-01 10:23:43.633017	261.0	28.8	-92.8	7.4
2025-01-01 10:23:44.798256	260.8	28.6	-93.2	2.1
2025-01-01 10:23:45.948586	260.6	28.4	-92.8	4.2
2025-01-01 10:23:47.106737	260.4	28.2	-92.3	4.3
2025-01-01 10:23:48.269713	260.2	28.1	-92.2	1.9
2025-01-01 10:23:49.428825	260.0	27.9	-93.2	7.0
2025-01-01 10:23:50.584858	259.8	27.7	-92.9	5.9
2025-01-01 10:23:51.752811	259.6	27.6	-93.0	10.2
2025-01-01 10:23:52.912705	259.4	27.4	-92.5	10.4
2025-01-01 10:23:54.079254	259.2	27.2	-92.6	9.0
2025-01-01 10:23:55.233778	259.0	27.0	-91.2	7.4
2025-01-01 10:23:56.394887	258.8	26.9	-92.3	5.9
2025-01-01 10:23:57.561565	258.7	26.7	-92.5	3.6
2025-01-01 10:23:58.724626	258.5	26.5	-93.6	13.1
2025-01-01 10:23:59.890093	258.3	26.4	-93.1	12.7
2025-01-01 10:24:01.046660	258.1	26.2	-93.1	9.5
2025-01-01 10:24:02.221947	257.9	26.1	-93.1	5.9
2025-01-01 10:24:03.385048	257.7	25.9	-93.0	4.9
2025-01-01 10:24:04.548595	257.6	25.7	-93.1	3.6
2025-01-01 10:24:05.709231	257.4	25.6	-93.4	8.1
2025-01-01 10:24:06.882629	257.2	25.4	-92.9	7.4
2025-01-01 10:24:08.025372	257.0	25.2	-93.3	7.0
2025-01-01 10:24:09.185479	256.9	25.1	-92.7	11.3
2025-01-01 10:24:10.333557	256.7	24.9	-92.6	9.3
2025-01-01 10:24:11.494512	256.5	24.8	-92.8	6.3
2025-01-01 10:24:12.655266	256.4	24.6	-92.9	11.1
2025-01-01 10:24:13.815626	256.2	24.5	-93.1	10.3
2025-01-01 10:24:14.969121	256.1	24.3	-92.8	8.7
2025-01-01 10:24:16.119022	255.9	24.2	-92.3	6.2
2025-01-01 10:24:17.239376	255.8	24.0	-92.2	6.6
2025-01-01 10:24:18.359452	255.6	23.9	-92.8	3.1
2025-01-01 10:24:19.480488	255.5	23.7	-92.9	3.3
2025-01-01 10:24:20.601749	255.3	23.6	-92.4	2.6
2025-01-01 10:24:21.721778	255.2	23.4	-92.0	3.4
2025-01-01 10:24:22.843357	255.0	23.3	-91.0	3.3
2025-01-01 10:24:24.356482	254.8	23.1	-91.0	0.5
2025-01-01 10:24:25.510633	254.7	22.9	-92.4	0.9
2025-01-01 10:24:26.677121	254.5	22.8	-92.3	2.6
2025-01-01 10:24:27.841342	254.4	22.6	-93.0	3.6
2025-01-01 10:24:28.995212	254.2	22.5	-93.3	4.7
2025-01-01 10:24:30.137997	254.1	22.3	-93.0	4.5
2025-01-01 10:24:31.263016	254.0	22.2	-92.9	2.8
2025-01-01 10:24:32.420716	253.8	22.0	-92.9	4.0
2025-01-01 10:24:33.563196	253.7	21.9	-92.6	6.7
2025-01-01 10:24:34.719848	253.6	21.8	-92.8	8.0
2025-01-01 10:24:35.868422	253.4	21.6	-92.8	6.4
2025-01-01 10:24:37.026208	253.3	21.5	-92.7	3.6
2025-01-01 10:24:38.183023	253.2	21.3	-92.4	5.8
2025-01-01 10:24:39.345414	253.0	21.2	-93.1	7.7
2025-01-01 10:24:40.507003	252.9	21.0	-93.3	5.9
2025-01-01 10:24:41.673470	252.8	20.9	-93.0	6.2
2025-01-01 10:24:42.829646	252.6	20.8	-93.1	8.5
2025-01-01 10:24:44.000100	252.5	20.6	-93.1	5.7
2025-01-01 10:24:45.163386	252.4	20.5	-92.9	3.3
2025-01-01 10:24:46.325080	252.3	20.3	-92.8	8.4
2025-01-01 10:24:47.489623	252.1	20.2	-92.9	8.8
2025-01-01 10:24:48.642197	252.0	20.1	-93.3	6.6
2025-01-01 10:24:49.809877	251.9	19.9	-92.9	3.1
2025-01-01 10:24:50.975848	251.8	19.8	-92.9	4.7
2025-01-01 10:24:52.139633	251.7	19.7	-92.6	2.6
2025-01-01 10:24:53.296390	251.5	19.5	-92.8	3.3
2025-01-01 10:24:54.460391	251.4	19.4	-93.1	2.9
2025-01-01 10:24:55.620628	251.3	19.3	-93.6	2.2
2025-01-01 10:24:56.775945	251.2	19.1	-93.2	6.5
2025-01-01 10:24:57.940828	251.1	19.0	-93.1	3.2
2025-01-01 10:24:59.102957	251.0	18.9	-91.6	7.6
2025-01-01 10:25:00.259292	250.9	18.7	-93.6	7.1
2025-01-01 10:25:01.419925	250.8	18.6	-93.4	9.3
2025-01-01 10:25:02.583815	250.6	18.5	-93.4	11.6
2025-01-01 10:25:03.713801	250.5	18.3	-93.7	13.3
2025-01-01 10:25:04.874010	250.4	18.2	-93.3	11.7
2025-01-01 10:25:06.039558	250.3	18.1	-93.0	8.5
2025-01-01 10:25:07.204418	250.2	17.9	-92.7	12.7
2025-01-01 10:25:08.373078	250.1	17.8	-92.6	9.1
2025-01-01 10:25:09.537191	250.0	17.7	-93.4	6.8
2025-01-01 10:25:10.698539	249.9	17.6	-93.6	11.3
2025-01-01 10:25:11.860338	249.8	17.4	-93.7	10.9
2025-01-01 10:25:13.022053	249.7	17.3	-93.4	13.9
2025-01-01 10:25:14.188458	249.6	17.2	-93.0	12.8
2025-01-01 10:25:15.352471	249.5	17.1	-93.2	12.3
2025-01-01 10:25:16.514889	249.4	16.9	-93.2	9.5
2025-01-01 10:25:17.678433	249.3	16.8	-93.2	12.7
2025-01-01 10:25:18.838139	249.2	16.7	-93.2	9.0
2025-01-01 10:25:19.999953	249.1	16.6	-93.4	3.4
2025-01-01 10:25:21.163906	249.0	16.5	-93.3	4.9
2025-01-01 10:25:22.330253	248.9	16.3	-93.1	9.0
2025-01-01 10:25:23.490482	248.8	16.2	-93.4	5.2
2025-01-01 10:25:24.652864	248.7	16.1	-92.9	6.3
2025-01-01 10:25:25.803630	248.6	16.0	-93.4	6.9
2025-01-01 10:25:26.969863	248.6	15.9	-93.2	6.8
2025-01-01 10:25:28.132184	248.5	15.7	-92.8	10.8
2025-01-01 10:25:29.297284	248.4	15.6	-92.7	14.8
2025-01-01 10:25:30.455789	248.3	15.5	-92.8	14.3
2025-01-01 10:25:31.622604	248.2	15.4	-93.2	16.0
2025-01-01 10:25:32.782359	248.1	15.3	-93.3	8.4
2025-01-01 10:25:33.941195	248.0	15.1	-93.0	10.1
2025-01-01 10:25:35.109121	247.9	15.0	-92.7	7.9
2025-01-01 10:25:36.272537	247.9	14.9	-92.7	13.4
2025-01-01 10:25:37.439900	247.8	14.8	-92.9	9.3
2025-01-01 10:25:38.604859	247.7	14.7	-93.2	7.8
2025-01-01 10:25:39.758882	247.6	14.6	-93.3	11.6
2025-01-01 10:25:40.955178	247.5	14.5	-92.8	7.5
#Closed at: 2025-01-01 10:17:06.177865