passes_logs/2025/01/01/LEX_Murmansk/LEX_Murmansk__20250101_151623_NOAA_19_rec.log

#Pass ID: 20250101_151623_NOAA 19
#Satellite: NOAA 19
#Configuration: NOAA 19
#Start time: 2025-01-01 15:16:18.748587

#LorettStation: 1.0.0 05.05.2024
#Station: LEX_Murmansk
#Location: 33.156738 lon 68.926811 lat
#TLE: 1 33591U 09005A   24366.84452498  .00000596  00000+0  34214-3 0  9996
#TLE: 2 33591  99.0219  64.4961 0014693  95.1476 265.1373 14.13246120819287

#Time	Az	El	Level	SNR
2025-01-01 15:16:30.965879	82.2	16.1	-90.6	7.7
2025-01-01 15:16:32.111258	82.1	16.2	-90.3	9.0
2025-01-01 15:16:33.257182	81.9	16.3	-90.4	2.3
2025-01-01 15:16:34.408434	81.8	16.4	-90.3	4.3
2025-01-01 15:16:35.561716	81.6	16.5	-90.4	4.6
2025-01-01 15:16:36.708950	81.5	16.6	-90.3	1.9
2025-01-01 15:16:37.856734	81.3	16.7	-90.5	3.1
2025-01-01 15:16:39.003973	81.2	16.8	-90.6	3.7
2025-01-01 15:16:40.158467	81.0	16.9	-90.4	8.4
2025-01-01 15:16:41.305057	80.9	17.0	-90.1	10.5
2025-01-01 15:16:42.453457	80.7	17.1	-89.9	10.8
2025-01-01 15:16:43.602104	80.6	17.2	-90.3	7.7
2025-01-01 15:16:44.754693	80.4	17.3	-90.4	5.7
2025-01-01 15:16:45.902847	80.2	17.4	-90.0	8.4
2025-01-01 15:16:47.050375	80.1	17.5	-89.6	8.9
2025-01-01 15:16:48.203295	79.9	17.7	-89.2	10.0
2025-01-01 15:16:49.350821	79.7	17.8	-89.7	8.5
2025-01-01 15:16:50.498705	79.6	17.9	-90.3	7.1
2025-01-01 15:16:51.647217	79.4	18.0	-90.3	4.4
2025-01-01 15:16:52.794232	79.3	18.1	-90.5	2.0
2025-01-01 15:16:53.943129	79.1	18.2	-90.3	2.9
2025-01-01 15:16:55.096748	78.9	18.3	-90.0	3.5
2025-01-01 15:16:56.247546	78.7	18.4	-89.5	1.9
2025-01-01 15:16:57.400039	78.6	18.5	-89.8	5.7
2025-01-01 15:16:58.547924	78.4	18.6	-89.9	9.0
2025-01-01 15:16:59.702911	78.2	18.7	-89.9	8.1
2025-01-01 15:17:00.843757	78.1	18.8	-89.6	8.4
2025-01-01 15:17:01.992453	77.9	18.9	-89.6	6.1
2025-01-01 15:17:03.144993	77.7	19.1	-89.8	8.4
2025-01-01 15:17:04.289136	77.5	19.2	-89.5	4.7
2025-01-01 15:17:05.435110	77.3	19.3	-89.5	5.4
2025-01-01 15:17:06.576437	77.2	19.4	-90.2	8.0
2025-01-01 15:17:07.722017	77.0	19.5	-90.3	4.9
2025-01-01 15:17:08.869749	76.8	19.6	-90.1	5.9
2025-01-01 15:17:10.014915	76.6	19.7	-90.3	8.1
2025-01-01 15:17:11.162132	76.4	19.8	-90.1	3.4
2025-01-01 15:17:12.308685	76.2	19.9	-89.7	3.7
2025-01-01 15:17:13.458332	76.0	20.0	-90.0	3.9
2025-01-01 15:17:14.605492	75.9	20.2	-90.2	4.9
2025-01-01 15:17:15.755038	75.7	20.3	-89.9	2.7
2025-01-01 15:17:16.907067	75.5	20.4	-90.1	4.8
2025-01-01 15:17:18.059602	75.3	20.5	-90.1	3.8
2025-01-01 15:17:19.212759	75.1	20.6	-90.1	8.7
2025-01-01 15:17:20.363375	74.9	20.7	-89.5	7.4
2025-01-01 15:17:21.511567	74.7	20.8	-89.8	7.6
2025-01-01 15:17:22.657455	74.5	20.9	-89.9	6.9
2025-01-01 15:17:23.805638	74.3	21.0	-89.9	6.4
2025-01-01 15:17:24.951693	74.1	21.2	-90.0	5.1
2025-01-01 15:17:26.099002	73.9	21.3	-90.3	8.0
2025-01-01 15:17:27.251436	73.7	21.4	-89.9	10.4
2025-01-01 15:17:28.396691	73.4	21.5	-90.2	10.0
2025-01-01 15:17:29.547436	73.2	21.6	-90.2	6.7
2025-01-01 15:17:30.700465	73.0	21.7	-90.1	6.6
2025-01-01 15:17:31.849220	72.8	21.8	-90.3	6.8
2025-01-01 15:17:32.994040	72.6	21.9	-89.5	3.5
2025-01-01 15:17:34.139248	72.4	22.1	-90.0	5.0
2025-01-01 15:17:35.290536	72.2	22.2	-89.9	5.4
2025-01-01 15:17:36.440284	71.9	22.3	-89.6	2.6
2025-01-01 15:17:37.588009	71.7	22.4	-89.9	6.2
2025-01-01 15:17:38.739278	71.5	22.5	-89.6	7.1
2025-01-01 15:17:39.888044	71.3	22.6	-89.8	8.0
2025-01-01 15:17:41.030605	71.0	22.7	-90.5	10.9
2025-01-01 15:17:42.177434	70.8	22.8	-90.0	5.7
2025-01-01 15:17:43.322098	70.6	23.0	-89.4	5.4
2025-01-01 15:17:44.469289	70.4	23.1	-90.0	7.8
2025-01-01 15:17:45.617955	70.1	23.2	-90.3	7.3
2025-01-01 15:17:46.770750	69.9	23.3	-90.6	7.7
2025-01-01 15:17:47.918289	69.7	23.4	-90.4	8.5
2025-01-01 15:17:49.065920	69.4	23.5	-89.5	9.4
2025-01-01 15:17:50.217944	69.2	23.6	-89.7	7.6
2025-01-01 15:17:51.373351	68.9	23.7	-89.6	8.8
2025-01-01 15:17:52.521919	68.7	23.9	-89.9	6.1
2025-01-01 15:17:53.666954	68.4	24.0	-89.6	3.3
2025-01-01 15:17:54.816136	68.2	24.1	-89.7	2.6
2025-01-01 15:17:55.958088	68.0	24.2	-90.2	2.7
2025-01-01 15:17:57.103558	67.7	24.3	-89.7	4.3
2025-01-01 15:17:58.253406	67.5	24.4	-89.6	1.3
2025-01-01 15:17:59.399531	67.2	24.5	-90.2	4.9
2025-01-01 15:18:00.540280	66.9	24.6	-90.0	4.6
2025-01-01 15:18:01.687219	66.7	24.7	-89.8	5.6
2025-01-01 15:18:02.831449	66.4	24.9	-90.0	5.6
2025-01-01 15:18:03.976620	66.2	25.0	-89.8	6.6
2025-01-01 15:18:05.120478	65.9	25.1	-89.9	6.7
2025-01-01 15:18:06.267787	65.6	25.2	-89.5	2.5
2025-01-01 15:18:07.422259	65.4	25.3	-88.9	3.4
2025-01-01 15:18:08.566445	65.1	25.4	-89.0	4.7
2025-01-01 15:18:09.712915	64.8	25.5	-89.0	4.6
2025-01-01 15:18:10.865203	64.6	25.6	-89.4	6.2
2025-01-01 15:18:12.012908	64.3	25.7	-89.6	7.3
2025-01-01 15:18:13.165258	64.0	25.8	-90.1	3.6
2025-01-01 15:18:14.317707	63.7	25.9	-90.8	7.2
2025-01-01 15:18:15.463169	63.5	26.1	-90.4	5.9
2025-01-01 15:18:16.610002	63.2	26.2	-90.6	1.1
2025-01-01 15:18:17.757622	62.9	26.3	-90.7	0.6
2025-01-01 15:18:18.902779	62.6	26.4	-89.5	1.9
2025-01-01 15:18:20.041709	62.3	26.5	-89.7	3.4
2025-01-01 15:18:21.191401	62.0	26.6	-90.0	2.2
2025-01-01 15:18:22.311955	61.7	26.7	-89.7	2.8
2025-01-01 15:18:23.432952	61.5	26.8	-89.5	2.0
2025-01-01 15:18:24.553294	61.2	26.9	-89.4	5.9
2025-01-01 15:18:25.674005	60.9	27.0	-89.6	4.0
2025-01-01 15:18:26.793918	60.6	27.1	-90.1	4.1
2025-01-01 15:18:27.916120	60.3	27.2	-90.1	3.2
2025-01-01 15:18:29.041961	60.0	27.3	-89.7	2.4
2025-01-01 15:18:30.185136	59.7	27.4	-89.3	3.0
2025-01-01 15:18:31.333864	59.4	27.5	-89.2	2.4
2025-01-01 15:18:32.481540	59.1	27.6	-90.0	3.5
2025-01-01 15:18:33.633651	58.8	27.7	-89.7	2.6
2025-01-01 15:18:34.779005	58.5	27.8	-90.0	2.6
2025-01-01 15:18:35.930314	58.1	27.9	-90.2	4.4
2025-01-01 15:18:37.082134	57.8	28.0	-89.7	7.1
2025-01-01 15:18:38.234482	57.5	28.1	-90.0	7.1
2025-01-01 15:18:39.382644	57.2	28.2	-89.8	6.1
2025-01-01 15:18:40.529284	56.9	28.3	-90.3	5.9
2025-01-01 15:18:41.679925	56.5	28.4	-90.2	6.0
2025-01-01 15:18:42.827467	56.2	28.5	-90.0	6.3
2025-01-01 15:18:43.980057	55.9	28.6	-90.5	3.3
2025-01-01 15:18:45.126237	55.5	28.7	-90.4	3.7
2025-01-01 15:18:46.272684	55.2	28.8	-90.5	2.1
2025-01-01 15:18:47.424172	54.9	28.9	-90.2	2.8
2025-01-01 15:18:48.578174	54.5	29.0	-90.0	1.6
2025-01-01 15:18:49.728030	54.2	29.1	-90.2	3.4
2025-01-01 15:18:50.874082	53.9	29.2	-90.7	1.9
2025-01-01 15:18:52.027698	53.5	29.2	-90.9	4.2
2025-01-01 15:18:53.172535	53.2	29.3	-90.1	5.3
2025-01-01 15:18:54.324324	52.8	29.4	-90.2	3.5
2025-01-01 15:18:55.474157	52.5	29.5	-90.1	9.2
2025-01-01 15:18:56.624274	52.1	29.6	-89.5	6.5
2025-01-01 15:18:57.773931	51.8	29.7	-90.1	7.8
2025-01-01 15:18:58.926466	51.4	29.8	-90.1	3.2
2025-01-01 15:19:00.076705	51.1	29.8	-90.3	4.5
2025-01-01 15:19:01.218077	50.7	29.9	-90.4	4.3
2025-01-01 15:19:02.364275	50.4	30.0	-90.2	1.1
2025-01-01 15:19:03.513575	50.0	30.1	-90.6	2.2
2025-01-01 15:19:04.659641	49.6	30.2	-90.7	1.9
2025-01-01 15:19:05.809963	49.3	30.2	-90.8	4.9
2025-01-01 15:19:06.961323	48.9	30.3	-89.8	9.1
2025-01-01 15:19:08.109344	48.5	30.4	-90.3	9.7
2025-01-01 15:19:09.266732	48.2	30.5	-90.5	7.9
2025-01-01 15:19:10.416007	47.8	30.5	-90.1	7.9
2025-01-01 15:19:11.565482	47.4	30.6	-90.5	8.2
2025-01-01 15:19:12.709851	47.0	30.7	-90.4	8.2
2025-01-01 15:19:13.860322	46.7	30.8	-89.7	5.8
2025-01-01 15:19:15.004296	46.3	30.8	-89.7	3.3
2025-01-01 15:19:16.155199	45.9	30.9	-89.7	4.3
2025-01-01 15:19:17.308268	45.5	31.0	-89.7	4.1
2025-01-01 15:19:18.452769	45.1	31.0	-89.8	4.2
2025-01-01 15:19:19.601920	44.8	31.1	-89.4	4.9
2025-01-01 15:19:20.746128	44.4	31.2	-90.1	3.0
2025-01-01 15:19:21.891319	44.0	31.2	-90.7	3.1
2025-01-01 15:19:23.036473	43.6	31.3	-90.8	3.7
2025-01-01 15:19:24.182080	43.2	31.3	-90.5	3.3
2025-01-01 15:19:25.329784	42.8	31.4	-90.3	4.2
2025-01-01 15:19:26.473138	42.4	31.4	-90.3	9.1
2025-01-01 15:19:27.620591	42.0	31.5	-90.6	7.7
2025-01-01 15:19:28.766825	41.6	31.5	-90.2	9.6
2025-01-01 15:19:29.912554	41.2	31.6	-90.0	11.5
2025-01-01 15:19:31.057524	40.8	31.6	-89.8	11.5
2025-01-01 15:19:32.202356	40.4	31.7	-89.4	14.5
2025-01-01 15:19:33.349237	40.0	31.7	-89.7	14.3
2025-01-01 15:19:34.475482	39.7	31.8	-90.0	11.1
2025-01-01 15:19:35.597157	39.3	31.8	-90.6	10.9
2025-01-01 15:19:36.717922	38.9	31.9	-90.5	6.3
2025-01-01 15:19:37.839604	38.5	31.9	-90.5	6.0
2025-01-01 15:19:38.961131	38.1	31.9	-91.3	8.5
2025-01-01 15:19:40.081700	37.7	32.0	-89.5	6.4
2025-01-01 15:19:41.202089	37.3	32.0	-89.9	6.2
2025-01-01 15:19:42.340513	36.9	32.1	-89.6	5.8
2025-01-01 15:19:43.483611	36.5	32.1	-90.1	6.9
2025-01-01 15:19:44.631242	36.1	32.1	-90.1	6.6
2025-01-01 15:19:45.780190	35.6	32.1	-89.9	4.3
2025-01-01 15:19:46.920746	35.2	32.2	-89.4	5.6
2025-01-01 15:19:48.059482	34.8	32.2	-89.8	4.7
2025-01-01 15:19:49.199476	34.4	32.2	-89.5	5.8
2025-01-01 15:19:50.322584	34.0	32.2	-89.4	6.2
2025-01-01 15:19:51.463993	33.6	32.3	-89.9	11.3
2025-01-01 15:19:52.609416	33.2	32.3	-90.1	11.0
2025-01-01 15:19:53.752402	32.8	32.3	-90.9	11.3
2025-01-01 15:19:54.895018	32.4	32.3	-90.7	12.1
2025-01-01 15:19:56.037371	32.0	32.3	-90.5	12.8
2025-01-01 15:19:57.193194	31.5	32.3	-90.5	13.5
2025-01-01 15:19:58.344405	31.1	32.4	-90.8	11.9
2025-01-01 15:19:59.496567	30.7	32.4	-90.9	11.4
2025-01-01 15:20:00.637516	30.3	32.4	-90.6	12.4
2025-01-01 15:20:01.784953	29.9	32.4	-90.7	8.9
2025-01-01 15:20:02.936009	29.5	32.4	-90.8	7.8
2025-01-01 15:20:04.082760	29.0	32.4	-90.4	5.4
2025-01-01 15:20:05.229761	28.6	32.4	-89.9	5.4
2025-01-01 15:20:06.377331	28.2	32.4	-90.4	6.5
2025-01-01 15:20:07.524348	27.8	32.4	-90.2	4.7
2025-01-01 15:20:08.673446	27.4	32.4	-90.3	5.2
2025-01-01 15:20:09.820562	27.0	32.4	-90.5	3.7
2025-01-01 15:20:10.965831	26.5	32.4	-90.9	5.6
2025-01-01 15:20:12.120703	26.1	32.3	-90.3	6.7
2025-01-01 15:20:13.264961	25.7	32.3	-90.1	3.7
2025-01-01 15:20:14.408324	25.3	32.3	-90.8	5.2
2025-01-01 15:20:15.548809	24.9	32.3	-90.7	3.7
2025-01-01 15:20:16.696116	24.5	32.3	-90.8	1.9
2025-01-01 15:20:17.847242	24.1	32.3	-91.2	2.6
2025-01-01 15:20:18.992468	23.6	32.3	-90.8	3.9
2025-01-01 15:20:20.126400	23.2	32.2	-90.6	3.4
2025-01-01 15:20:21.253035	22.8	32.2	-90.9	3.2
2025-01-01 15:20:22.393547	22.4	32.2	-90.9	3.7
2025-01-01 15:20:23.542237	22.0	32.2	-91.0	4.2
2025-01-01 15:20:24.685987	21.6	32.1	-90.9	3.7
2025-01-01 15:20:25.829337	21.2	32.1	-91.0	2.1
2025-01-01 15:20:26.973339	20.8	32.1	-90.9	7.1
2025-01-01 15:20:28.118244	20.4	32.0	-89.5	4.8
2025-01-01 15:20:29.262042	20.0	32.0	-89.8	5.0
2025-01-01 15:20:30.407802	19.6	32.0	-89.7	5.4
2025-01-01 15:20:31.558391	19.2	31.9	-89.5	6.6
2025-01-01 15:20:32.703246	18.8	31.9	-89.9	4.1
2025-01-01 15:20:33.847729	18.3	31.8	-89.9	5.1
2025-01-01 15:20:34.993356	17.9	31.8	-90.2	7.4
2025-01-01 15:20:36.138827	17.5	31.8	-89.8	6.5
2025-01-01 15:20:37.283577	17.1	31.7	-89.8	4.6
2025-01-01 15:20:38.431375	16.7	31.7	-89.7	6.2
2025-01-01 15:20:39.585352	16.3	31.6	-89.6	7.6
2025-01-01 15:20:40.735154	15.9	31.6	-89.0	4.2
2025-01-01 15:20:41.881550	15.6	31.5	-90.4	5.4
2025-01-01 15:20:43.028603	15.2	31.5	-90.2	7.6
2025-01-01 15:20:44.179990	14.8	31.4	-90.0	4.6
2025-01-01 15:20:45.325878	14.4	31.4	-89.9	4.9
2025-01-01 15:20:46.472676	14.0	31.3	-89.8	7.4
2025-01-01 15:20:47.619306	13.6	31.2	-90.2	7.6
2025-01-01 15:20:48.766719	13.2	31.2	-90.6	6.5
2025-01-01 15:20:49.915589	12.8	31.1	-89.3	8.0
2025-01-01 15:20:51.061123	12.4	31.1	-89.8	5.8
2025-01-01 15:20:52.208837	12.1	31.0	-89.9	5.2
2025-01-01 15:20:53.353038	11.7	30.9	-89.7	7.5
2025-01-01 15:20:54.498578	11.3	30.9	-89.6	6.9
2025-01-01 15:20:55.641547	10.9	30.8	-89.8	6.3
2025-01-01 15:20:56.795360	10.5	30.7	-89.8	3.6
2025-01-01 15:20:57.946799	10.2	30.6	-90.3	6.4
2025-01-01 15:20:59.099074	9.8	30.6	-89.6	4.0
2025-01-01 15:21:00.243084	9.4	30.5	-89.8	4.9
2025-01-01 15:21:01.396188	9.0	30.4	-90.0	5.6
2025-01-01 15:21:02.538086	8.7	30.4	-90.7	5.4
2025-01-01 15:21:03.693522	8.3	30.3	-90.7	2.6
2025-01-01 15:21:04.838572	8.0	30.2	-89.8	3.7
2025-01-01 15:21:05.990591	7.6	30.1	-90.3	5.1
2025-01-01 15:21:07.142310	7.2	30.0	-89.6	2.8
2025-01-01 15:21:08.293771	6.9	30.0	-89.7	1.3
2025-01-01 15:21:09.433083	6.5	29.9	-89.7	4.2
2025-01-01 15:21:10.577662	6.2	29.8	-89.8	1.7
2025-01-01 15:21:11.724463	5.8	29.7	-89.8	4.3
2025-01-01 15:21:12.871313	5.4	29.6	-90.0	4.1
2025-01-01 15:21:14.021622	5.1	29.5	-91.1	1.5
2025-01-01 15:21:15.168180	4.7	29.5	-90.9	2.6
2025-01-01 15:21:16.313063	4.4	29.4	-90.8	2.6
2025-01-01 15:21:17.470246	4.1	29.3	-91.2	3.9
2025-01-01 15:21:18.617410	3.7	29.2	-90.6	2.7
2025-01-01 15:21:19.766757	3.4	29.1	-90.6	2.8
2025-01-01 15:21:20.914230	3.0	29.0	-89.4	2.7
2025-01-01 15:21:22.060371	2.7	28.9	-89.6	2.2
2025-01-01 15:21:23.214083	2.4	28.8	-89.4	2.7
2025-01-01 15:21:24.368699	2.0	28.7	-90.2	3.6
2025-01-01 15:21:25.528148	1.7	28.6	-89.8	4.2
2025-01-01 15:21:26.672612	1.4	28.5	-90.0	1.5
2025-01-01 15:21:27.823307	1.0	28.4	-89.7	1.1
2025-01-01 15:21:28.972465	0.7	28.4	-90.2	2.2
2025-01-01 15:21:30.120971	0.4	28.3	-89.6	4.5
2025-01-01 15:21:31.270123	0.1	28.2	-89.9	3.5
2025-01-01 15:21:32.420231	359.7	28.1	-89.5	4.8
2025-01-01 15:21:33.578374	359.4	28.0	-89.5	4.4
2025-01-01 15:21:34.722240	359.1	27.9	-89.9	3.1
2025-01-01 15:21:35.872668	358.8	27.8	-90.2	4.2
2025-01-01 15:21:37.023915	358.5	27.7	-89.3	0.9
2025-01-01 15:21:38.182767	358.2	27.6	-89.6	1.5
2025-01-01 15:21:39.326121	357.9	27.5	-89.9	4.1
2025-01-01 15:21:40.486080	357.6	27.3	-89.9	4.4
2025-01-01 15:21:41.635271	357.3	27.2	-89.6	7.4
2025-01-01 15:21:42.781935	357.0	27.1	-90.2	5.2
2025-01-01 15:21:43.932820	356.7	27.0	-90.0	6.7
2025-01-01 15:21:45.090641	356.4	26.9	-89.6	7.4
2025-01-01 15:21:46.235647	356.1	26.8	-89.2	6.1
2025-01-01 15:21:47.381998	355.8	26.7	-89.4	11.1
2025-01-01 15:21:48.527864	355.5	26.6	-89.6	11.3
2025-01-01 15:21:49.658499	355.2	26.5	-90.5	11.1
2025-01-01 15:21:50.780025	354.9	26.4	-90.3	12.1
2025-01-01 15:21:51.902184	354.6	26.3	-90.0	11.2
2025-01-01 15:21:53.022707	354.4	26.2	-90.2	9.8
2025-01-01 15:21:54.143242	354.1	26.1	-89.9	6.7
2025-01-01 15:21:55.264663	353.8	26.0	-89.6	7.2
2025-01-01 15:21:56.389038	353.5	25.9	-89.2	8.2
2025-01-01 15:21:57.518448	353.3	25.8	-89.5	6.3
2025-01-01 15:21:58.663137	353.0	25.7	-89.6	7.8
2025-01-01 15:21:59.807621	352.7	25.6	-89.6	5.6
2025-01-01 15:22:00.948426	352.4	25.5	-89.5	5.3
2025-01-01 15:22:02.088008	352.2	25.3	-89.4	1.6
2025-01-01 15:22:03.237534	351.9	25.2	-88.3	0.6
2025-01-01 15:22:04.385566	351.6	25.1	-90.6	6.0
2025-01-01 15:22:05.534357	351.4	25.0	-90.5	5.8
2025-01-01 15:22:06.681353	351.1	24.9	-90.7	4.4
2025-01-01 15:22:07.825477	350.9	24.8	-91.0	2.8
2025-01-01 15:22:08.981131	350.6	24.7	-91.2	2.9
2025-01-01 15:22:10.128381	350.3	24.6	-90.5	7.2
2025-01-01 15:22:11.286070	350.1	24.5	-90.5	1.3
2025-01-01 15:22:12.432300	349.8	24.3	-90.8	7.4
2025-01-01 15:22:13.582258	349.6	24.2	-90.6	5.6
2025-01-01 15:22:14.731149	349.3	24.1	-90.2	7.7
2025-01-01 15:22:15.878802	349.1	24.0	-90.8	9.4
2025-01-01 15:22:17.025382	348.8	23.9	-90.9	8.8
2025-01-01 15:22:18.174826	348.6	23.8	-90.6	5.8
2025-01-01 15:22:19.328374	348.4	23.7	-90.7	7.1
2025-01-01 15:22:20.473330	348.1	23.6	-90.7	5.8
2025-01-01 15:22:21.623323	347.9	23.4	-90.6	7.7
2025-01-01 15:22:22.770349	347.6	23.3	-90.4	7.5
2025-01-01 15:22:23.918454	347.4	23.2	-90.2	8.4
2025-01-01 15:22:25.063842	347.2	23.1	-90.6	5.7
2025-01-01 15:22:26.211847	346.9	23.0	-90.7	2.7
2025-01-01 15:22:27.358286	346.7	22.9	-90.5	5.1
2025-01-01 15:22:28.503547	346.5	22.8	-90.2	7.9
2025-01-01 15:22:29.652545	346.3	22.7	-90.3	5.2
2025-01-01 15:22:30.801616	346.0	22.6	-90.6	5.6
2025-01-01 15:22:31.948071	345.8	22.4	-90.5	4.3
2025-01-01 15:22:33.098344	345.6	22.3	-90.8	2.2
2025-01-01 15:22:34.351229	345.4	22.2	-90.3	3.7
2025-01-01 15:22:35.499358	345.1	22.1	-90.7	4.6
2025-01-01 15:22:36.648377	344.9	22.0	-90.3	10.7
2025-01-01 15:22:37.796360	344.7	21.9	-90.3	8.7
2025-01-01 15:22:38.950874	344.5	21.8	-90.7	10.1
2025-01-01 15:22:40.094387	344.3	21.6	-90.6	7.3
2025-01-01 15:22:41.249164	344.1	21.5	-90.1	4.6
2025-01-01 15:22:42.393612	343.9	21.4	-90.1	10.6
2025-01-01 15:22:43.540974	343.7	21.3	-90.2	11.6
2025-01-01 15:22:44.687811	343.4	21.2	-90.3	12.3
2025-01-01 15:22:45.835115	343.2	21.1	-90.5	9.2
2025-01-01 15:22:46.985289	343.0	21.0	-90.5	9.5
2025-01-01 15:22:48.128961	342.8	20.9	-90.4	4.5
2025-01-01 15:22:49.277400	342.6	20.7	-90.3	3.7
2025-01-01 15:22:50.420483	342.4	20.6	-90.7	8.5
2025-01-01 15:22:51.569666	342.2	20.5	-90.8	5.2
2025-01-01 15:22:52.722223	342.0	20.4	-90.6	3.7
2025-01-01 15:22:53.872443	341.9	20.3	-90.3	1.8
2025-01-01 15:22:55.022537	341.7	20.2	-90.3	3.0
2025-01-01 15:22:56.165588	341.5	20.1	-90.4	4.0
2025-01-01 15:22:57.318607	341.3	20.0	-90.5	0.6
2025-01-01 15:22:58.470428	341.1	19.9	-90.6	2.6
2025-01-01 15:22:59.613546	340.9	19.8	-90.8	2.6
2025-01-01 15:23:00.760553	340.7	19.6	-90.5	1.1
2025-01-01 15:23:01.911522	340.5	19.5	-90.2	3.9
2025-01-01 15:23:03.057421	340.4	19.4	-90.0	1.5
2025-01-01 15:23:04.203253	340.2	19.3	-89.7	2.0
2025-01-01 15:23:05.352957	340.0	19.2	-90.0	1.6
2025-01-01 15:23:06.502900	339.8	19.1	-89.5	3.6
2025-01-01 15:23:07.648245	339.6	19.0	-90.2	2.8
2025-01-01 15:23:08.798123	339.5	18.9	-90.8	2.9
2025-01-01 15:23:09.950640	339.3	18.8	-89.9	4.1
2025-01-01 15:23:11.097675	339.1	18.7	-90.3	3.7
2025-01-01 15:23:12.243793	338.9	18.6	-90.4	3.4
2025-01-01 15:23:13.391950	338.8	18.4	-90.0	3.1
2025-01-01 15:23:14.543735	338.6	18.3	-90.7	2.4
2025-01-01 15:23:15.687768	338.4	18.2	-90.6	0.8
2025-01-01 15:23:16.838926	338.3	18.1	-90.4	3.7
2025-01-01 15:23:17.994584	338.1	18.0	-90.6	4.1
2025-01-01 15:23:19.146997	337.9	17.9	-89.8	5.3
2025-01-01 15:23:20.292653	337.8	17.8	-90.3	3.8
2025-01-01 15:23:21.447756	337.6	17.7	-90.3	2.7
2025-01-01 15:23:22.597849	337.4	17.6	-90.4	4.7
2025-01-01 15:23:23.752942	337.3	17.5	-90.3	3.1
2025-01-01 15:23:24.907670	337.1	17.4	-89.8	2.9
2025-01-01 15:23:26.054553	337.0	17.3	-89.9	1.6
2025-01-01 15:23:27.209445	336.8	17.2	-90.3	3.2
2025-01-01 15:23:28.366445	336.6	17.1	-90.2	0.4
2025-01-01 15:23:29.518553	336.5	17.0	-90.2	1.3
2025-01-01 15:23:30.669571	336.3	16.8	-90.4	4.2
2025-01-01 15:23:31.822866	336.2	16.7	-90.1	3.0
2025-01-01 15:23:32.981039	336.0	16.6	-90.4	2.3
2025-01-01 15:23:34.136630	335.9	16.5	-90.0	3.0
2025-01-01 15:23:35.283914	335.7	16.4	-90.3	3.3
2025-01-01 15:23:36.427027	335.6	16.3	-90.5	2.1
2025-01-01 15:23:37.585457	335.4	16.2	-90.7	1.9
2025-01-01 15:23:38.733009	335.3	16.1	-90.7	3.0
2025-01-01 15:23:39.880069	335.1	16.0	-91.0	4.3
2025-01-01 15:23:41.027521	335.0	15.9	-91.0	3.4
2025-01-01 15:23:42.175409	334.8	15.8	-90.4	5.8
2025-01-01 15:23:43.324894	334.7	15.7	-90.5	3.6
2025-01-01 15:23:44.476646	334.6	15.6	-90.6	2.1
2025-01-01 15:23:45.636768	334.4	15.5	-90.6	3.1
2025-01-01 15:23:46.782756	334.3	15.4	-90.6	4.1
2025-01-01 15:23:47.934195	334.1	15.3	-90.7	4.3
2025-01-01 15:23:49.080828	334.0	15.2	-90.5	6.1
2025-01-01 15:23:50.228090	333.9	15.1	-90.5	4.0
2025-01-01 15:23:51.379010	333.7	15.0	-90.5	2.7
2025-01-01 15:23:52.523152	333.6	14.9	-90.9	3.5
2025-01-01 15:23:53.671600	333.5	14.8	-90.6	3.8
2025-01-01 15:23:54.820456	333.3	14.7	-90.7	2.6
2025-01-01 15:23:55.971747	333.2	14.6	-90.2	2.8
#Closed at: 2025-01-01 15:16:23.776254