passes_logs/2025/01/01/LEX_Murmansk/LEX_Murmansk__20250101_115743_NOAA_19_rec.log

#Pass ID: 20250101_115743_NOAA 19
#Satellite: NOAA 19
#Configuration: NOAA 19
#Start time: 2025-01-01 11:57:38.355786

#LorettStation: 1.0.0 05.05.2024
#Station: LEX_Murmansk
#Location: 33.156738 lon 68.926811 lat
#TLE: 1 33591U 09005A   24366.84452498  .00000596  00000+0  34214-3 0  9996
#TLE: 2 33591  99.0219  64.4961 0014693  95.1476 265.1373 14.13246120819287

#Time	Az	El	Level	SNR
2025-01-01 11:57:50.645714	27.4	16.0	-92.9	1.0
2025-01-01 11:57:51.809593	27.2	16.1	-92.6	3.4
2025-01-01 11:57:52.974782	27.1	16.2	-92.4	2.1
2025-01-01 11:57:54.138666	26.9	16.3	-92.6	4.9
2025-01-01 11:57:55.292982	26.7	16.4	-92.1	3.5
2025-01-01 11:57:56.453155	26.6	16.5	-92.7	0.9
2025-01-01 11:57:57.617629	26.4	16.6	-92.4	2.4
2025-01-01 11:57:58.783814	26.2	16.7	-92.2	1.6
2025-01-01 11:57:59.949681	26.0	16.8	-92.3	1.8
2025-01-01 11:58:01.108604	25.8	16.9	-92.1	5.4
2025-01-01 11:58:02.273284	25.7	16.9	-91.8	5.6
2025-01-01 11:58:03.438772	25.5	17.0	-91.8	3.8
2025-01-01 11:58:04.604078	25.3	17.1	-93.0	3.9
2025-01-01 11:58:05.759863	25.1	17.2	-92.8	5.2
2025-01-01 11:58:06.925745	24.9	17.3	-92.9	5.8
2025-01-01 11:58:08.086899	24.7	17.4	-92.2	3.5
2025-01-01 11:58:09.253933	24.6	17.5	-92.2	2.7
2025-01-01 11:58:10.415353	24.4	17.6	-92.6	2.2
2025-01-01 11:58:11.581049	24.2	17.7	-92.1	4.3
2025-01-01 11:58:12.745685	24.0	17.8	-92.5	3.1
2025-01-01 11:58:13.911377	23.8	17.9	-92.6	6.4
2025-01-01 11:58:15.075094	23.6	18.0	-92.1	0.6
2025-01-01 11:58:16.236378	23.4	18.1	-92.1	2.4
2025-01-01 11:58:17.402154	23.2	18.2	-92.4	3.6
2025-01-01 11:58:18.571920	23.0	18.3	-92.2	2.7
2025-01-01 11:58:19.734640	22.8	18.4	-91.7	2.4
2025-01-01 11:58:20.902291	22.6	18.5	-91.9	5.1
2025-01-01 11:58:22.058414	22.4	18.6	-92.0	8.1
2025-01-01 11:58:23.225510	22.2	18.7	-92.5	8.1
2025-01-01 11:58:24.390956	22.0	18.8	-92.8	9.5
2025-01-01 11:58:25.545509	21.8	18.9	-92.7	6.8
2025-01-01 11:58:26.706553	21.6	19.0	-92.5	6.2
2025-01-01 11:58:27.869545	21.4	19.1	-92.8	7.0
2025-01-01 11:58:29.034293	21.2	19.2	-92.3	5.3
2025-01-01 11:58:30.200936	21.0	19.3	-92.1	7.1
2025-01-01 11:58:31.363950	20.8	19.4	-92.4	6.4
2025-01-01 11:58:32.527489	20.6	19.5	-92.3	6.9
2025-01-01 11:58:33.694792	20.4	19.6	-92.7	6.3
2025-01-01 11:58:34.854508	20.1	19.6	-93.1	5.1
2025-01-01 11:58:36.021387	19.9	19.7	-92.8	4.7
2025-01-01 11:58:37.182581	19.7	19.8	-92.9	2.6
2025-01-01 11:58:38.347573	19.5	19.9	-92.7	0.6
2025-01-01 11:58:39.509894	19.3	20.0	-92.6	2.8
2025-01-01 11:58:40.670982	19.0	20.1	-92.7	3.3
2025-01-01 11:58:41.833751	18.8	20.2	-92.6	3.0
2025-01-01 11:58:42.997876	18.6	20.3	-92.2	5.3
2025-01-01 11:58:44.163738	18.4	20.4	-91.0	6.8
2025-01-01 11:58:45.321508	18.1	20.5	-91.5	10.0
2025-01-01 11:58:46.484439	17.9	20.6	-91.5	9.8
2025-01-01 11:58:47.642902	17.7	20.7	-92.7	7.2
2025-01-01 11:58:48.806849	17.5	20.8	-91.3	6.6
2025-01-01 11:58:49.966902	17.2	20.9	-92.7	8.3
2025-01-01 11:58:51.134523	17.0	21.0	-92.4	4.9
2025-01-01 11:58:52.299575	16.7	21.1	-92.3	5.3
2025-01-01 11:58:53.464675	16.5	21.2	-92.4	7.2
2025-01-01 11:58:54.628614	16.3	21.3	-92.4	8.1
2025-01-01 11:58:55.787718	16.0	21.4	-92.7	10.5
2025-01-01 11:58:56.951467	15.8	21.5	-92.8	8.2
2025-01-01 11:58:58.108868	15.5	21.6	-92.3	6.9
2025-01-01 11:58:59.269914	15.3	21.6	-92.3	3.1
2025-01-01 11:59:00.412012	15.1	21.7	-92.8	3.9
2025-01-01 11:59:01.532702	14.8	21.8	-92.9	3.0
2025-01-01 11:59:02.653558	14.6	21.9	-92.6	3.2
2025-01-01 11:59:03.773478	14.3	22.0	-92.4	0.2
2025-01-01 11:59:04.894140	14.1	22.1	-92.8	0.2
2025-01-01 11:59:06.014420	13.8	22.2	-92.5	5.1
2025-01-01 11:59:07.138361	13.6	22.3	-92.4	7.2
2025-01-01 11:59:08.262833	13.4	22.4	-92.2	11.2
2025-01-01 11:59:09.421554	13.1	22.5	-92.4	12.0
2025-01-01 11:59:10.579627	12.8	22.5	-92.7	13.9
2025-01-01 11:59:11.742968	12.6	22.6	-92.4	7.5
2025-01-01 11:59:12.902189	12.3	22.7	-92.4	3.9
2025-01-01 11:59:14.054888	12.1	22.8	-92.5	7.0
2025-01-01 11:59:15.219112	11.8	22.9	-92.3	7.2
2025-01-01 11:59:16.380994	11.5	23.0	-92.3	6.9
2025-01-01 11:59:17.540918	11.3	23.1	-92.1	11.0
2025-01-01 11:59:18.702866	11.0	23.2	-92.4	11.1
2025-01-01 11:59:19.861902	10.7	23.3	-92.5	7.3
2025-01-01 11:59:21.019656	10.4	23.3	-92.7	13.0
2025-01-01 11:59:22.176398	10.2	23.4	-91.5	9.5
2025-01-01 11:59:23.301889	9.9	23.5	-91.5	9.6
2025-01-01 11:59:24.461540	9.6	23.6	-92.2	8.3
2025-01-01 11:59:25.609575	9.3	23.7	-92.6	7.7
2025-01-01 11:59:26.759412	9.1	23.8	-92.6	3.3
2025-01-01 11:59:27.916528	8.8	23.9	-92.5	4.7
2025-01-01 11:59:29.075911	8.5	23.9	-92.8	4.2
2025-01-01 11:59:30.239941	8.2	24.0	-92.7	3.8
2025-01-01 11:59:31.400896	7.9	24.1	-92.9	4.6
2025-01-01 11:59:32.565462	7.6	24.2	-92.6	7.2
2025-01-01 11:59:33.728445	7.3	24.3	-92.3	5.8
2025-01-01 11:59:34.899773	7.1	24.4	-92.9	5.8
2025-01-01 11:59:36.061017	6.8	24.4	-92.8	10.1
2025-01-01 11:59:37.218028	6.5	24.5	-91.7	6.8
2025-01-01 11:59:38.378517	6.2	24.6	-92.3	10.2
2025-01-01 11:59:39.547261	5.9	24.7	-92.8	10.7
2025-01-01 11:59:40.706386	5.6	24.8	-92.7	7.6
2025-01-01 11:59:41.874549	5.3	24.8	-92.9	8.4
2025-01-01 11:59:43.039254	5.0	24.9	-92.3	4.7
2025-01-01 11:59:44.203182	4.7	25.0	-92.2	6.1
2025-01-01 11:59:45.364660	4.4	25.1	-92.7	6.2
2025-01-01 11:59:46.524105	4.1	25.1	-92.5	8.4
2025-01-01 11:59:47.684650	3.7	25.2	-91.3	12.0
2025-01-01 11:59:48.846639	3.4	25.3	-91.6	12.2
2025-01-01 11:59:50.010983	3.1	25.4	-91.6	10.2
2025-01-01 11:59:51.176146	2.8	25.4	-91.6	8.2
2025-01-01 11:59:52.330635	2.5	25.5	-92.7	7.0
2025-01-01 11:59:53.484026	2.2	25.6	-92.2	4.3
2025-01-01 11:59:54.610909	1.9	25.6	-92.7	5.6
2025-01-01 11:59:55.757241	1.6	25.7	-92.4	3.2
2025-01-01 11:59:56.903538	1.2	25.8	-92.2	3.4
2025-01-01 11:59:58.029518	0.9	25.8	-92.8	3.7
2025-01-01 11:59:59.188761	0.6	25.9	-92.5	3.6
2025-01-01 12:00:00.340433	0.3	26.0	-92.5	3.3
2025-01-01 12:00:01.490882	360.0	26.0	-92.9	3.5
2025-01-01 12:00:02.655218	359.6	26.1	-92.8	8.4
2025-01-01 12:00:03.813070	359.3	26.2	-92.5	9.0
2025-01-01 12:00:04.978675	359.0	26.2	-92.7	10.6
2025-01-01 12:00:06.141310	358.7	26.3	-92.3	7.4
2025-01-01 12:00:07.312681	358.3	26.4	-92.2	9.6
2025-01-01 12:00:08.469576	358.0	26.4	-92.4	9.0
2025-01-01 12:00:09.636492	357.7	26.5	-92.7	10.2
2025-01-01 12:00:10.799726	357.3	26.5	-92.1	9.8
2025-01-01 12:00:11.967021	357.0	26.6	-91.9	10.4
2025-01-01 12:00:13.129200	356.6	26.6	-91.9	9.9
2025-01-01 12:00:14.287259	356.3	26.7	-91.5	4.6
2025-01-01 12:00:15.452547	356.0	26.8	-92.0	5.7
2025-01-01 12:00:16.613848	355.6	26.8	-91.8	6.5
2025-01-01 12:00:17.781959	355.3	26.9	-91.8	4.9
2025-01-01 12:00:18.943900	354.9	26.9	-91.8	6.3
2025-01-01 12:00:20.111236	354.6	27.0	-91.7	8.0
2025-01-01 12:00:21.269304	354.2	27.0	-91.5	5.3
2025-01-01 12:00:22.432261	353.9	27.1	-91.9	10.3
2025-01-01 12:00:23.596162	353.5	27.1	-92.1	11.3
2025-01-01 12:00:24.757944	353.2	27.2	-92.2	11.1
2025-01-01 12:00:25.919973	352.8	27.2	-92.0	5.8
2025-01-01 12:00:27.081869	352.5	27.2	-91.9	4.6
2025-01-01 12:00:28.240912	352.1	27.3	-92.6	5.5
2025-01-01 12:00:29.400756	351.8	27.3	-93.0	6.3
2025-01-01 12:00:30.564425	351.4	27.4	-92.9	3.8
2025-01-01 12:00:31.723268	351.1	27.4	-92.5	2.3
2025-01-01 12:00:32.890955	350.7	27.4	-92.6	4.5
2025-01-01 12:00:34.054181	350.4	27.5	-92.4	2.8
2025-01-01 12:00:35.222495	350.0	27.5	-92.5	5.2
2025-01-01 12:00:36.378549	349.7	27.6	-92.0	2.8
2025-01-01 12:00:37.544937	349.3	27.6	-92.9	3.8
2025-01-01 12:00:38.705967	348.9	27.6	-92.9	2.6
2025-01-01 12:00:39.869612	348.6	27.6	-92.3	3.2
2025-01-01 12:00:41.036448	348.2	27.7	-92.4	2.4
2025-01-01 12:00:42.201626	347.9	27.7	-92.1	1.2
2025-01-01 12:00:43.365950	347.5	27.7	-92.2	4.1
2025-01-01 12:00:44.526814	347.1	27.8	-92.6	7.7
2025-01-01 12:00:45.686959	346.8	27.8	-92.5	3.0
2025-01-01 12:00:46.848638	346.4	27.8	-92.4	5.1
2025-01-01 12:00:48.008606	346.0	27.8	-92.5	2.4
2025-01-01 12:00:49.173678	345.7	27.8	-92.7	2.8
2025-01-01 12:00:50.347467	345.3	27.9	-92.8	8.3
2025-01-01 12:00:51.507510	344.9	27.9	-93.0	7.1
2025-01-01 12:00:52.672011	344.6	27.9	-92.7	9.4
2025-01-01 12:00:53.846711	344.2	27.9	-92.5	7.4
2025-01-01 12:00:55.010311	343.8	27.9	-92.8	4.4
2025-01-01 12:00:56.169416	343.5	27.9	-92.7	4.7
2025-01-01 12:00:57.347969	343.1	28.0	-92.5	2.9
2025-01-01 12:00:58.505783	342.7	28.0	-92.6	5.6
2025-01-01 12:00:59.667923	342.4	28.0	-92.3	2.8
2025-01-01 12:01:00.826765	342.0	28.0	-92.2	4.2
2025-01-01 12:01:01.992157	341.6	28.0	-92.4	6.3
2025-01-01 12:01:03.153817	341.3	28.0	-92.4	5.0
2025-01-01 12:01:04.317972	340.9	28.0	-92.4	4.5
2025-01-01 12:01:05.482286	340.5	28.0	-92.5	3.4
2025-01-01 12:01:06.640199	340.1	28.0	-92.8	6.6
2025-01-01 12:01:07.807178	339.8	28.0	-93.0	3.5
2025-01-01 12:01:08.971127	339.4	28.0	-92.7	4.7
2025-01-01 12:01:10.131063	339.0	28.0	-92.4	1.7
2025-01-01 12:01:11.289996	338.7	28.0	-92.5	1.9
2025-01-01 12:01:12.436189	338.3	28.0	-92.8	6.0
2025-01-01 12:01:13.556948	338.0	28.0	-91.3	5.3
2025-01-01 12:01:14.676910	337.6	28.0	-92.8	5.5
2025-01-01 12:01:15.796885	337.2	28.0	-93.0	3.6
2025-01-01 12:01:16.917660	336.9	27.9	-92.6	5.0
2025-01-01 12:01:18.038884	336.5	27.9	-92.9	6.4
2025-01-01 12:01:19.161298	336.2	27.9	-92.2	7.0
2025-01-01 12:01:20.283755	335.8	27.9	-92.4	5.4
2025-01-01 12:01:21.446963	335.5	27.9	-92.6	10.0
2025-01-01 12:01:22.608239	335.1	27.9	-92.5	10.0
2025-01-01 12:01:23.771294	334.7	27.9	-92.8	8.6
2025-01-01 12:01:24.925723	334.4	27.8	-92.9	11.2
2025-01-01 12:01:26.087700	334.0	27.8	-92.5	9.2
2025-01-01 12:01:27.252067	333.6	27.8	-91.2	7.4
2025-01-01 12:01:28.418413	333.3	27.8	-91.9	6.8
2025-01-01 12:01:29.581734	332.9	27.7	-91.9	3.4
2025-01-01 12:01:30.747517	332.5	27.7	-92.0	9.0
2025-01-01 12:01:31.913635	332.2	27.7	-93.0	10.6
2025-01-01 12:01:33.073816	331.8	27.7	-92.6	9.2
2025-01-01 12:01:34.241806	331.5	27.6	-92.3	9.0
2025-01-01 12:01:35.409097	331.1	27.6	-92.9	9.7
2025-01-01 12:01:36.570284	330.7	27.6	-92.5	7.6
2025-01-01 12:01:37.727089	330.4	27.5	-92.9	8.7
2025-01-01 12:01:38.893020	330.0	27.5	-92.6	9.0
2025-01-01 12:01:40.056086	329.7	27.5	-92.9	9.1
2025-01-01 12:01:41.222242	329.3	27.4	-92.6	9.3
2025-01-01 12:01:42.383539	328.9	27.4	-92.8	8.8
2025-01-01 12:01:43.543295	328.6	27.4	-92.2	4.5
2025-01-01 12:01:44.708000	328.2	27.3	-92.7	4.1
2025-01-01 12:01:45.872888	327.9	27.3	-92.7	8.3
2025-01-01 12:01:47.036117	327.5	27.2	-92.6	8.3
2025-01-01 12:01:48.201759	327.2	27.2	-92.5	8.9
2025-01-01 12:01:49.366966	326.8	27.1	-92.1	7.8
2025-01-01 12:01:50.523470	326.5	27.1	-93.0	9.0
2025-01-01 12:01:51.688342	326.1	27.0	-92.7	7.8
2025-01-01 12:01:52.848973	325.8	27.0	-92.6	9.1
2025-01-01 12:01:54.010070	325.4	26.9	-92.6	9.7
2025-01-01 12:01:55.174282	325.1	26.9	-92.5	6.5
2025-01-01 12:01:56.332295	324.8	26.8	-92.7	6.0
2025-01-01 12:01:57.493616	324.4	26.8	-92.6	8.7
2025-01-01 12:01:58.665208	324.1	26.7	-92.7	8.6
2025-01-01 12:01:59.823735	323.7	26.7	-93.0	5.6
2025-01-01 12:02:00.971558	323.4	26.6	-93.0	9.1
2025-01-01 12:02:02.134682	323.1	26.6	-92.8	9.8
2025-01-01 12:02:03.296499	322.7	26.5	-92.6	9.4
2025-01-01 12:02:04.460509	322.4	26.5	-92.9	8.6
2025-01-01 12:02:05.624558	322.1	26.4	-92.8	13.3
2025-01-01 12:02:06.784817	321.7	26.3	-92.9	7.9
2025-01-01 12:02:07.946522	321.4	26.3	-92.8	11.3
2025-01-01 12:02:09.111488	321.1	26.2	-92.3	8.9
2025-01-01 12:02:10.276418	320.7	26.1	-92.0	11.0
2025-01-01 12:02:11.435322	320.4	26.1	-92.7	9.8
2025-01-01 12:02:12.599779	320.1	26.0	-93.1	5.9
2025-01-01 12:02:13.760899	319.8	26.0	-92.9	10.2
2025-01-01 12:02:14.924164	319.4	25.9	-93.2	7.9
2025-01-01 12:02:16.091031	319.1	25.8	-92.9	9.4
2025-01-01 12:02:17.245578	318.8	25.7	-92.3	8.1
2025-01-01 12:02:18.404003	318.5	25.7	-92.9	10.6
2025-01-01 12:02:19.571216	318.1	25.6	-93.0	11.3
2025-01-01 12:02:20.736206	317.8	25.5	-92.7	13.0
2025-01-01 12:02:21.899627	317.5	25.5	-92.0	7.7
2025-01-01 12:02:23.064727	317.2	25.4	-92.5	10.1
2025-01-01 12:02:24.223580	316.9	25.3	-92.6	9.2
2025-01-01 12:02:25.388768	316.6	25.2	-92.9	9.2
2025-01-01 12:02:26.545427	316.3	25.2	-92.8	7.5
2025-01-01 12:02:27.710872	316.0	25.1	-92.8	5.0
2025-01-01 12:02:28.875531	315.7	25.0	-93.0	9.8
2025-01-01 12:02:30.045064	315.3	24.9	-93.1	6.5
2025-01-01 12:02:31.203079	315.0	24.9	-92.7	10.3
2025-01-01 12:02:32.366488	314.7	24.8	-91.6	7.6
2025-01-01 12:02:33.532363	314.4	24.7	-91.8	8.0
2025-01-01 12:02:34.692974	314.1	24.6	-92.2	10.9
2025-01-01 12:02:35.852210	313.8	24.6	-92.7	6.4
2025-01-01 12:02:37.015334	313.5	24.5	-92.6	7.2
2025-01-01 12:02:38.174886	313.3	24.4	-92.4	8.6
2025-01-01 12:02:39.337003	313.0	24.3	-92.4	10.2
2025-01-01 12:02:40.506119	312.7	24.2	-92.6	11.8
2025-01-01 12:02:41.670211	312.4	24.1	-92.9	7.1
2025-01-01 12:02:42.836814	312.1	24.1	-93.1	5.0
2025-01-01 12:02:44.001880	311.8	24.0	-92.8	4.1
2025-01-01 12:02:45.164404	311.5	23.9	-92.5	4.1
2025-01-01 12:02:46.332709	311.2	23.8	-92.7	2.6
2025-01-01 12:02:47.486607	311.0	23.7	-92.7	6.2
2025-01-01 12:02:48.651941	310.7	23.6	-92.9	4.4
2025-01-01 12:02:49.815726	310.4	23.5	-93.1	1.8
2025-01-01 12:02:50.978453	310.1	23.5	-93.2	3.9
2025-01-01 12:02:52.137635	309.8	23.4	-92.5	6.7
2025-01-01 12:02:53.301259	309.6	23.3	-92.8	0.7
2025-01-01 12:02:54.459618	309.3	23.2	-93.1	3.1
2025-01-01 12:02:55.624929	309.0	23.1	-92.8	3.9
2025-01-01 12:02:56.786828	308.8	23.0	-92.8	2.1
2025-01-01 12:02:57.950789	308.5	22.9	-92.8	5.9
2025-01-01 12:02:59.115534	308.2	22.8	-92.3	5.4
2025-01-01 12:03:00.274320	308.0	22.8	-92.6	3.1
2025-01-01 12:03:01.437717	307.7	22.7	-93.1	5.5
2025-01-01 12:03:02.601115	307.4	22.6	-93.4	6.2
2025-01-01 12:03:03.778868	307.2	22.5	-93.0	3.3
2025-01-01 12:03:04.942978	306.9	22.4	-92.8	3.7
2025-01-01 12:03:06.105541	306.6	22.3	-92.1	3.9
2025-01-01 12:03:07.263060	306.4	22.2	-92.1	4.7
2025-01-01 12:03:08.423528	306.1	22.1	-92.6	2.7
2025-01-01 12:03:09.588956	305.9	22.0	-92.7	4.4
2025-01-01 12:03:10.753399	305.6	21.9	-92.7	6.7
2025-01-01 12:03:11.921365	305.4	21.8	-93.1	5.9
2025-01-01 12:03:13.084063	305.1	21.7	-92.8	7.3
2025-01-01 12:03:14.251176	304.9	21.7	-92.8	5.4
2025-01-01 12:03:15.411971	304.6	21.6	-92.8	3.1
2025-01-01 12:03:16.569578	304.4	21.5	-93.1	6.9
2025-01-01 12:03:17.728700	304.2	21.4	-93.1	3.4
2025-01-01 12:03:18.885140	303.9	21.3	-92.9	4.1
2025-01-01 12:03:20.051035	303.7	21.2	-92.5	3.4
2025-01-01 12:03:21.213492	303.4	21.1	-91.5	3.7
2025-01-01 12:03:22.378946	303.2	21.0	-91.6	3.5
2025-01-01 12:03:23.543752	303.0	20.9	-92.2	1.8
2025-01-01 12:03:24.713080	302.7	20.8	-91.8	3.0
2025-01-01 12:03:25.875503	302.5	20.7	-92.1	0.4
2025-01-01 12:03:27.026365	302.3	20.6	-92.1	3.6
2025-01-01 12:03:28.183566	302.0	20.5	-91.8	1.9
2025-01-01 12:03:29.348180	301.8	20.4	-92.9	2.1
2025-01-01 12:03:30.511937	301.6	20.3	-92.1	3.6
2025-01-01 12:03:31.674952	301.4	20.2	-92.2	3.2
2025-01-01 12:03:32.838581	301.1	20.1	-91.9	4.1
2025-01-01 12:03:34.002561	300.9	20.0	-91.8	4.9
2025-01-01 12:03:35.168476	300.7	19.9	-91.8	4.8
2025-01-01 12:03:36.326315	300.5	19.8	-92.0	3.4
2025-01-01 12:03:37.486181	300.3	19.7	-92.9	7.4
2025-01-01 12:03:38.647271	300.0	19.7	-92.6	7.3
2025-01-01 12:03:39.807829	299.8	19.6	-92.6	5.1
2025-01-01 12:03:40.968336	299.6	19.5	-92.9	6.8
2025-01-01 12:03:42.131703	299.4	19.4	-92.7	6.8
2025-01-01 12:03:43.297094	299.2	19.3	-91.8	7.5
2025-01-01 12:03:44.459521	299.0	19.2	-92.0	5.3
2025-01-01 12:03:45.624115	298.8	19.1	-91.8	4.1
2025-01-01 12:03:46.786846	298.6	19.0	-91.9	4.0
2025-01-01 12:03:47.949053	298.4	18.9	-91.7	2.0
2025-01-01 12:03:49.112554	298.2	18.8	-91.7	4.8
2025-01-01 12:03:50.280371	297.9	18.7	-91.9	1.6
2025-01-01 12:03:51.447001	297.7	18.6	-92.3	3.5
2025-01-01 12:03:52.604607	297.5	18.5	-92.9	4.6
2025-01-01 12:03:53.774357	297.3	18.4	-93.1	2.2
2025-01-01 12:03:54.934464	297.1	18.3	-92.8	5.1
2025-01-01 12:03:56.101374	296.9	18.2	-92.5	1.9
2025-01-01 12:03:57.262153	296.8	18.1	-92.4	2.4
2025-01-01 12:03:58.427109	296.6	18.0	-92.9	6.2
2025-01-01 12:03:59.589901	296.4	17.9	-92.7	5.0
2025-01-01 12:04:00.743656	296.2	17.8	-92.6	4.0
2025-01-01 12:04:01.913560	296.0	17.7	-92.8	7.6
2025-01-01 12:04:03.067164	295.8	17.6	-92.1	7.7
2025-01-01 12:04:04.229805	295.6	17.5	-92.5	4.9
2025-01-01 12:04:05.394689	295.4	17.4	-92.6	6.9
2025-01-01 12:04:06.558039	295.2	17.3	-92.4	7.7
2025-01-01 12:04:07.707523	295.1	17.2	-92.9	4.6
2025-01-01 12:04:08.875840	294.9	17.1	-93.0	7.9
2025-01-01 12:04:10.039965	294.7	17.0	-92.9	7.1
2025-01-01 12:04:11.208546	294.5	17.0	-92.3	2.0
2025-01-01 12:04:12.373197	294.3	16.9	-92.8	4.3
2025-01-01 12:04:13.533097	294.1	16.8	-93.1	3.6
2025-01-01 12:04:14.686088	294.0	16.7	-92.8	5.7
2025-01-01 12:04:15.833269	293.8	16.6	-92.8	3.8
2025-01-01 12:04:16.992690	293.6	16.5	-93.2	5.2
2025-01-01 12:04:18.157519	293.4	16.4	-92.9	4.6
2025-01-01 12:04:19.318796	293.3	16.3	-92.5	3.7
2025-01-01 12:04:20.483895	293.1	16.2	-92.3	5.0
2025-01-01 12:04:21.642630	292.9	16.1	-92.8	4.6
2025-01-01 12:04:22.805491	292.8	16.0	-92.8	4.4
2025-01-01 12:04:23.969534	292.6	15.9	-92.3	4.8
2025-01-01 12:04:25.130121	292.4	15.8	-92.2	5.1
2025-01-01 12:04:26.295216	292.3	15.7	-92.6	3.5
2025-01-01 12:04:27.447335	292.1	15.6	-92.8	4.4
2025-01-01 12:04:28.613632	291.9	15.5	-93.4	4.7
2025-01-01 12:04:29.773471	291.8	15.4	-92.9	4.5
2025-01-01 12:04:30.931072	291.6	15.3	-92.7	3.9
2025-01-01 12:04:32.095850	291.4	15.2	-92.4	4.4
2025-01-01 12:04:33.260381	291.3	15.2	-92.9	2.8
2025-01-01 12:04:34.422884	291.1	15.1	-93.0	2.3
2025-01-01 12:04:35.595396	291.0	15.0	-92.8	5.0
2025-01-01 12:04:36.761054	290.8	14.9	-92.6	2.3
2025-01-01 12:04:37.915260	290.7	14.8	-92.1	2.9
2025-01-01 12:04:39.079097	290.5	14.7	-92.1	5.6
2025-01-01 12:04:40.238169	290.3	14.6	-92.0	2.6
#Closed at: 2025-01-01 11:57:43.449785