passes_logs/2025/01/01/LEX_Murmansk/LEX_Murmansk__20250101_122603_NOAA_18_rec.log

#Pass ID: 20250101_122603_NOAA 18
#Satellite: NOAA 18
#Configuration: NOAA 18
#Start time: 2025-01-01 12:25:58.028625

#LorettStation: 1.0.0 05.05.2024
#Station: LEX_Murmansk
#Location: 33.156738 lon 68.926811 lat
#TLE: 1 28654U 05018A   24366.86382707  .00000695  00000+0  39254-3 0  9996
#TLE: 2 28654  98.8588  82.0571 0013692 219.5840 140.4334 14.13471437 11103

#Time	Az	El	Level	SNR
2025-01-01 12:26:10.181661	24.4	16.1	-89.0	5.9
2025-01-01 12:26:11.331307	24.2	16.2	-89.1	6.2
2025-01-01 12:26:12.482393	24.1	16.3	-89.2	4.1
2025-01-01 12:26:13.625542	23.9	16.4	-89.3	5.7
2025-01-01 12:26:14.780630	23.8	16.5	-89.4	7.3
2025-01-01 12:26:15.925793	23.6	16.6	-89.3	5.2
2025-01-01 12:26:17.075144	23.5	16.7	-89.1	1.8
2025-01-01 12:26:18.225432	23.4	16.8	-89.2	9.5
2025-01-01 12:26:19.375086	23.2	16.9	-89.6	6.3
2025-01-01 12:26:20.528578	23.1	17.0	-89.4	5.4
2025-01-01 12:26:21.673388	22.9	17.1	-89.6	5.9
2025-01-01 12:26:22.825079	22.8	17.2	-90.0	6.8
2025-01-01 12:26:23.970463	22.6	17.3	-89.6	5.8
2025-01-01 12:26:25.116588	22.5	17.4	-89.4	5.9
2025-01-01 12:26:26.267396	22.3	17.5	-89.7	4.0
2025-01-01 12:26:27.419319	22.1	17.6	-89.9	6.8
2025-01-01 12:26:28.570290	22.0	17.7	-90.2	7.2
2025-01-01 12:26:29.715048	21.8	17.9	-89.4	6.2
2025-01-01 12:26:30.871945	21.7	18.0	-89.1	5.4
2025-01-01 12:26:32.019253	21.5	18.1	-89.3	4.0
2025-01-01 12:26:33.162749	21.4	18.2	-88.3	8.6
2025-01-01 12:26:34.320467	21.2	18.3	-88.4	8.8
2025-01-01 12:26:35.465664	21.0	18.4	-89.3	7.4
2025-01-01 12:26:36.615414	20.9	18.5	-89.4	7.3
2025-01-01 12:26:37.759430	20.7	18.6	-89.2	9.6
2025-01-01 12:26:38.908457	20.5	18.7	-89.5	8.0
2025-01-01 12:26:40.057467	20.4	18.8	-89.6	9.7
2025-01-01 12:26:41.206878	20.2	18.9	-89.3	7.9
2025-01-01 12:26:42.355551	20.0	19.0	-89.4	4.2
2025-01-01 12:26:43.500715	19.8	19.1	-89.6	10.7
2025-01-01 12:26:44.649325	19.7	19.3	-90.0	6.2
2025-01-01 12:26:45.800816	19.5	19.4	-89.8	11.4
2025-01-01 12:26:46.953200	19.3	19.5	-89.4	8.7
2025-01-01 12:26:48.101944	19.1	19.6	-89.6	7.8
2025-01-01 12:26:49.258135	19.0	19.7	-89.3	6.5
2025-01-01 12:26:50.408473	18.8	19.8	-89.6	8.2
2025-01-01 12:26:51.556933	18.6	19.9	-90.0	9.0
2025-01-01 12:26:52.703748	18.4	20.0	-89.6	6.5
2025-01-01 12:26:53.859920	18.2	20.1	-89.1	7.9
2025-01-01 12:26:55.015341	18.1	20.2	-88.6	4.4
2025-01-01 12:26:56.171607	17.9	20.4	-88.6	5.8
2025-01-01 12:26:57.319228	17.7	20.5	-89.0	6.5
2025-01-01 12:26:58.470669	17.5	20.6	-89.6	7.4
2025-01-01 12:26:59.617390	17.3	20.7	-89.5	8.0
2025-01-01 12:27:00.760762	17.1	20.8	-89.6	6.6
2025-01-01 12:27:01.906758	16.9	20.9	-89.5	6.7
2025-01-01 12:27:03.055058	16.7	21.0	-89.5	8.7
2025-01-01 12:27:04.200423	16.5	21.1	-89.7	6.9
2025-01-01 12:27:05.344231	16.3	21.3	-89.5	10.0
2025-01-01 12:27:06.489956	16.1	21.4	-89.6	6.0
2025-01-01 12:27:07.639141	15.9	21.5	-89.2	4.4
2025-01-01 12:27:08.788836	15.7	21.6	-89.3	8.0
2025-01-01 12:27:09.938310	15.5	21.7	-89.4	4.6
2025-01-01 12:27:11.095487	15.3	21.8	-89.0	6.0
2025-01-01 12:27:12.247455	15.1	21.9	-88.8	6.6
2025-01-01 12:27:13.391521	14.9	22.0	-89.4	6.6
2025-01-01 12:27:14.538284	14.7	22.2	-89.7	4.1
2025-01-01 12:27:15.689069	14.5	22.3	-89.8	6.1
2025-01-01 12:27:16.836669	14.3	22.4	-89.7	9.4
2025-01-01 12:27:17.985592	14.1	22.5	-89.6	5.1
2025-01-01 12:27:19.134228	13.9	22.6	-89.1	7.8
2025-01-01 12:27:20.277383	13.6	22.7	-89.2	10.7
2025-01-01 12:27:21.424607	13.4	22.8	-88.5	6.0
2025-01-01 12:27:22.570756	13.2	22.9	-88.8	6.0
2025-01-01 12:27:23.719443	13.0	23.1	-89.3	13.2
2025-01-01 12:27:24.867524	12.8	23.2	-89.4	12.9
2025-01-01 12:27:26.013520	12.5	23.3	-89.2	10.3
2025-01-01 12:27:27.164261	12.3	23.4	-89.2	6.8
2025-01-01 12:27:28.320421	12.1	23.5	-89.0	7.7
2025-01-01 12:27:29.465289	11.8	23.6	-89.5	6.3
2025-01-01 12:27:30.609838	11.6	23.7	-89.2	9.0
2025-01-01 12:27:31.757015	11.4	23.9	-89.6	6.8
2025-01-01 12:27:32.899877	11.1	24.0	-89.3	5.6
2025-01-01 12:27:34.049886	10.9	24.1	-89.3	4.0
2025-01-01 12:27:35.195808	10.7	24.2	-88.5	6.1
2025-01-01 12:27:36.345164	10.4	24.3	-88.5	5.5
2025-01-01 12:27:37.492984	10.2	24.4	-87.1	6.1
2025-01-01 12:27:38.639565	9.9	24.5	-87.4	1.8
2025-01-01 12:27:39.789879	9.7	24.6	-88.0	5.8
2025-01-01 12:27:40.938031	9.4	24.8	-87.8	6.7
2025-01-01 12:27:42.082740	9.2	24.9	-87.8	7.3
2025-01-01 12:27:43.232254	8.9	25.0	-88.8	6.0
2025-01-01 12:27:44.387599	8.7	25.1	-88.3	9.9
2025-01-01 12:27:45.538694	8.4	25.2	-88.6	7.0
2025-01-01 12:27:46.685979	8.2	25.3	-88.0	10.1
2025-01-01 12:27:47.831933	7.9	25.4	-88.0	8.8
2025-01-01 12:27:48.980653	7.7	25.5	-89.0	6.7
2025-01-01 12:27:50.127929	7.4	25.7	-89.1	8.0
2025-01-01 12:27:51.274129	7.1	25.8	-88.9	6.8
2025-01-01 12:27:52.422109	6.9	25.9	-88.7	10.6
2025-01-01 12:27:53.569566	6.6	26.0	-89.0	8.3
2025-01-01 12:27:54.712721	6.3	26.1	-89.4	8.5
2025-01-01 12:27:55.858319	6.1	26.2	-90.1	8.9
2025-01-01 12:27:57.011193	5.8	26.3	-89.7	6.9
2025-01-01 12:27:58.159163	5.5	26.4	-89.6	5.7
2025-01-01 12:27:59.306517	5.2	26.5	-89.7	9.4
2025-01-01 12:28:00.448429	5.0	26.6	-89.4	6.8
2025-01-01 12:28:01.594769	4.7	26.8	-89.5	4.9
2025-01-01 12:28:02.748229	4.4	26.9	-90.0	8.3
2025-01-01 12:28:03.893998	4.1	27.0	-89.7	10.3
2025-01-01 12:28:05.047409	3.8	27.1	-89.8	5.8
2025-01-01 12:28:06.192983	3.5	27.2	-89.9	11.3
2025-01-01 12:28:07.345140	3.2	27.3	-89.7	9.6
2025-01-01 12:28:08.489479	3.0	27.4	-90.1	6.0
2025-01-01 12:28:09.636627	2.7	27.5	-90.0	6.4
2025-01-01 12:28:10.788367	2.4	27.6	-89.9	10.0
2025-01-01 12:28:11.935037	2.1	27.7	-89.8	6.6
2025-01-01 12:28:13.083326	1.8	27.8	-89.2	5.7
2025-01-01 12:28:14.238942	1.5	27.9	-89.7	7.9
2025-01-01 12:28:15.387560	1.2	28.0	-89.7	6.6
2025-01-01 12:28:16.532701	0.9	28.1	-89.5	9.1
2025-01-01 12:28:17.684327	0.5	28.2	-89.3	6.6
2025-01-01 12:28:18.842485	0.2	28.3	-89.6	8.6
2025-01-01 12:28:19.988846	359.9	28.4	-89.4	7.5
2025-01-01 12:28:21.137280	359.6	28.5	-88.5	4.9
2025-01-01 12:28:22.285944	359.3	28.6	-89.4	8.7
2025-01-01 12:28:23.433432	359.0	28.7	-89.4	7.5
2025-01-01 12:28:24.580626	358.6	28.8	-89.5	5.9
2025-01-01 12:28:25.731526	358.3	28.9	-89.9	5.3
2025-01-01 12:28:26.882515	358.0	29.0	-89.2	9.2
2025-01-01 12:28:28.028819	357.7	29.1	-89.0	5.6
2025-01-01 12:28:29.175568	357.3	29.2	-89.3	7.8
2025-01-01 12:28:30.321350	357.0	29.3	-88.8	7.1
2025-01-01 12:28:31.466365	356.7	29.4	-89.3	8.5
2025-01-01 12:28:32.618054	356.3	29.5	-89.5	8.2
2025-01-01 12:28:33.760986	356.0	29.6	-88.8	9.0
2025-01-01 12:28:34.916162	355.7	29.7	-89.2	8.3
2025-01-01 12:28:36.063861	355.3	29.8	-89.8	10.4
2025-01-01 12:28:37.212088	355.0	29.9	-89.0	5.6
2025-01-01 12:28:38.361903	354.6	30.0	-89.4	10.4
2025-01-01 12:28:39.506379	354.3	30.1	-89.0	7.7
2025-01-01 12:28:40.664827	354.0	30.1	-88.9	7.9
2025-01-01 12:28:41.810466	353.6	30.2	-88.9	11.5
2025-01-01 12:28:42.963600	353.2	30.3	-88.9	7.9
2025-01-01 12:28:44.106786	352.9	30.4	-89.6	6.3
2025-01-01 12:28:45.249752	352.5	30.5	-89.7	10.6
2025-01-01 12:28:46.398092	352.2	30.6	-89.7	6.4
2025-01-01 12:28:47.539192	351.8	30.6	-89.9	14.1
2025-01-01 12:28:48.692958	351.5	30.7	-89.8	6.1
2025-01-01 12:28:49.837747	351.1	30.8	-89.0	12.5
2025-01-01 12:28:50.984963	350.7	30.9	-89.9	10.8
2025-01-01 12:28:52.133033	350.4	31.0	-89.6	9.3
2025-01-01 12:28:53.275558	350.0	31.0	-89.5	13.4
2025-01-01 12:28:54.427973	349.6	31.1	-89.8	9.8
2025-01-01 12:28:55.583647	349.3	31.2	-89.8	6.0
2025-01-01 12:28:56.727495	348.9	31.3	-89.8	11.5
2025-01-01 12:28:57.874930	348.5	31.3	-89.7	14.6
2025-01-01 12:28:59.021560	348.1	31.4	-89.6	6.4
2025-01-01 12:29:00.168636	347.8	31.5	-89.3	7.6
2025-01-01 12:29:01.310060	347.4	31.5	-89.2	9.9
2025-01-01 12:29:02.461990	347.0	31.6	-89.6	8.9
2025-01-01 12:29:03.607557	346.6	31.7	-89.5	5.0
2025-01-01 12:29:04.757310	346.2	31.7	-89.3	7.6
2025-01-01 12:29:05.904719	345.8	31.8	-89.0	8.6
2025-01-01 12:29:07.047144	345.5	31.9	-88.8	5.8
2025-01-01 12:29:08.190566	345.1	31.9	-88.4	7.7
2025-01-01 12:29:09.338238	344.7	32.0	-89.0	11.3
2025-01-01 12:29:10.493957	344.3	32.0	-89.1	14.9
2025-01-01 12:29:11.651917	343.9	32.1	-89.3	15.8
2025-01-01 12:29:12.804778	343.5	32.1	-89.7	6.3
2025-01-01 12:29:13.954086	343.1	32.2	-89.4	8.5
2025-01-01 12:29:15.104049	342.7	32.3	-89.2	7.7
2025-01-01 12:29:16.248680	342.3	32.3	-89.7	10.1
2025-01-01 12:29:17.396658	341.9	32.3	-89.4	13.6
2025-01-01 12:29:18.543655	341.5	32.4	-88.8	5.5
2025-01-01 12:29:19.689944	341.1	32.4	-89.0	10.2
2025-01-01 12:29:20.836995	340.7	32.5	-89.4	9.7
2025-01-01 12:29:21.984804	340.3	32.5	-89.2	7.4
2025-01-01 12:29:23.131741	339.9	32.6	-89.1	11.5
2025-01-01 12:29:24.276360	339.5	32.6	-88.8	13.3
2025-01-01 12:29:25.427303	339.1	32.6	-89.4	11.1
2025-01-01 12:29:26.574093	338.7	32.7	-89.3	12.2
2025-01-01 12:29:27.720895	338.3	32.7	-89.2	10.4
2025-01-01 12:29:28.868489	337.9	32.7	-88.4	14.9
2025-01-01 12:29:30.015168	337.4	32.8	-89.5	13.7
2025-01-01 12:29:31.163586	337.0	32.8	-89.4	11.6
2025-01-01 12:29:32.310885	336.6	32.8	-88.7	12.0
2025-01-01 12:29:33.466569	336.2	32.9	-89.2	6.7
2025-01-01 12:29:34.613780	335.8	32.9	-89.2	11.6
2025-01-01 12:29:35.761923	335.4	32.9	-89.3	12.1
2025-01-01 12:29:36.905605	335.0	32.9	-89.3	14.2
2025-01-01 12:29:38.053293	334.6	32.9	-89.3	8.4
2025-01-01 12:29:39.203144	334.1	33.0	-89.5	10.9
2025-01-01 12:29:40.347544	333.7	33.0	-89.4	10.4
2025-01-01 12:29:41.493582	333.3	33.0	-89.8	6.2
2025-01-01 12:29:42.641113	332.9	33.0	-90.3	7.3
2025-01-01 12:29:43.785143	332.5	33.0	-89.4	8.5
2025-01-01 12:29:44.931412	332.1	33.0	-88.6	5.4
2025-01-01 12:29:46.077019	331.6	33.0	-88.9	5.4
2025-01-01 12:29:47.221840	331.2	33.0	-89.2	8.9
2025-01-01 12:29:48.369665	330.8	33.0	-89.7	11.2
2025-01-01 12:29:49.514791	330.4	33.0	-90.0	6.7
2025-01-01 12:29:50.664430	330.0	33.0	-90.3	10.8
2025-01-01 12:29:51.813708	329.5	33.0	-89.9	14.8
2025-01-01 12:29:52.959571	329.1	33.0	-89.9	9.2
2025-01-01 12:29:54.107966	328.7	33.0	-89.9	9.4
2025-01-01 12:29:55.255531	328.3	33.0	-89.9	15.3
2025-01-01 12:29:56.403029	327.9	33.0	-90.0	11.2
2025-01-01 12:29:57.549644	327.5	33.0	-90.2	10.3
2025-01-01 12:29:58.686531	327.0	33.0	-89.4	10.5
2025-01-01 12:29:59.838395	326.6	33.0	-89.7	10.3
2025-01-01 12:30:00.979541	326.2	33.0	-88.4	11.8
2025-01-01 12:30:02.126197	325.8	33.0	-88.8	11.0
2025-01-01 12:30:03.272676	325.4	32.9	-88.9	14.3
2025-01-01 12:30:04.419049	325.0	32.9	-88.8	9.6
2025-01-01 12:30:05.566612	324.6	32.9	-89.0	12.1
2025-01-01 12:30:06.713592	324.1	32.9	-88.8	12.5
2025-01-01 12:30:07.859558	323.7	32.8	-88.8	11.3
2025-01-01 12:30:09.008154	323.3	32.8	-88.9	15.2
2025-01-01 12:30:10.152121	322.9	32.8	-89.6	16.4
2025-01-01 12:30:11.303048	322.5	32.8	-89.2	10.8
2025-01-01 12:30:12.450937	322.1	32.7	-89.5	11.4
2025-01-01 12:30:13.598304	321.7	32.7	-89.9	12.8
2025-01-01 12:30:14.754739	321.3	32.7	-89.5	12.0
2025-01-01 12:30:15.910535	320.9	32.6	-89.8	13.2
2025-01-01 12:30:17.054712	320.4	32.6	-89.7	15.2
2025-01-01 12:30:18.201881	320.0	32.5	-89.6	14.5
2025-01-01 12:30:19.350274	319.6	32.5	-89.8	13.7
2025-01-01 12:30:20.497335	319.2	32.4	-90.0	10.7
2025-01-01 12:30:21.646896	318.8	32.4	-89.7	13.3
2025-01-01 12:30:22.794941	318.4	32.4	-89.5	7.3
2025-01-01 12:30:23.942083	318.0	32.3	-89.8	8.8
2025-01-01 12:30:25.087730	317.6	32.3	-89.4	7.3
2025-01-01 12:30:26.230281	317.2	32.2	-89.5	12.6
2025-01-01 12:30:27.377449	316.8	32.2	-89.1	12.0
2025-01-01 12:30:28.521526	316.4	32.1	-89.8	14.9
2025-01-01 12:30:29.670817	316.0	32.0	-90.0	10.7
2025-01-01 12:30:30.815057	315.7	32.0	-89.4	9.7
2025-01-01 12:30:31.959548	315.3	31.9	-89.7	5.7
2025-01-01 12:30:33.106385	314.9	31.9	-89.8	6.5
2025-01-01 12:30:34.248015	314.5	31.8	-89.4	6.6
2025-01-01 12:30:35.391875	314.1	31.7	-89.6	10.1
2025-01-01 12:30:36.539445	313.7	31.7	-90.2	9.8
2025-01-01 12:30:37.685901	313.3	31.6	-90.1	9.1
2025-01-01 12:30:38.830264	312.9	31.6	-90.4	8.5
2025-01-01 12:30:39.977652	312.6	31.5	-89.7	12.2
2025-01-01 12:30:41.123420	312.2	31.4	-88.8	8.3
2025-01-01 12:30:42.275584	311.8	31.3	-89.6	13.3
2025-01-01 12:30:43.427275	311.4	31.3	-90.3	11.4
2025-01-01 12:30:44.576458	311.1	31.2	-90.1	8.8
2025-01-01 12:30:45.725689	310.7	31.1	-90.0	13.6
2025-01-01 12:30:46.874493	310.3	31.1	-90.0	9.0
2025-01-01 12:30:48.019222	309.9	31.0	-90.1	11.5
2025-01-01 12:30:49.165642	309.6	30.9	-90.0	11.4
2025-01-01 12:30:50.312035	309.2	30.8	-90.0	12.4
2025-01-01 12:30:51.459481	308.8	30.7	-90.3	10.7
2025-01-01 12:30:52.610006	308.5	30.7	-89.5	15.7
2025-01-01 12:30:53.757408	308.1	30.6	-89.7	16.2
2025-01-01 12:30:54.908384	307.8	30.5	-90.1	15.8
2025-01-01 12:30:56.066953	307.4	30.4	-90.0	12.4
2025-01-01 12:30:57.215124	307.0	30.3	-89.6	11.8
2025-01-01 12:30:58.359771	306.7	30.2	-89.5	11.7
2025-01-01 12:30:59.509176	306.3	30.2	-89.6	11.4
2025-01-01 12:31:00.657046	306.0	30.1	-89.5	13.0
2025-01-01 12:31:01.805807	305.6	30.0	-89.9	14.6
2025-01-01 12:31:02.952880	305.3	29.9	-89.8	14.0
2025-01-01 12:31:04.098983	305.0	29.8	-89.7	13.6
2025-01-01 12:31:05.253185	304.6	29.7	-89.7	11.8
2025-01-01 12:31:06.396092	304.3	29.6	-89.6	14.2
2025-01-01 12:31:07.541879	303.9	29.5	-89.5	14.3
2025-01-01 12:31:08.683609	303.6	29.4	-90.2	14.1
2025-01-01 12:31:09.826848	303.3	29.3	-88.8	8.2
2025-01-01 12:31:10.978275	302.9	29.2	-88.1	8.8
2025-01-01 12:31:12.122617	302.6	29.1	-87.9	13.2
2025-01-01 12:31:13.280731	302.3	29.0	-88.2	11.0
2025-01-01 12:31:14.424492	302.0	28.9	-89.2	15.3
2025-01-01 12:31:15.576079	301.6	28.8	-89.6	15.9
2025-01-01 12:31:16.723440	301.3	28.7	-90.1	11.4
2025-01-01 12:31:17.870470	301.0	28.6	-89.7	14.2
2025-01-01 12:31:19.017332	300.7	28.5	-90.1	9.7
2025-01-01 12:31:20.166034	300.4	28.4	-89.7	7.2
2025-01-01 12:31:21.308074	300.0	28.3	-89.6	13.2
2025-01-01 12:31:22.453874	299.7	28.2	-90.0	7.5
2025-01-01 12:31:23.601561	299.4	28.1	-90.1	10.4
2025-01-01 12:31:24.747506	299.1	28.0	-89.9	9.4
2025-01-01 12:31:25.890251	298.8	27.9	-90.4	8.4
2025-01-01 12:31:27.040517	298.5	27.8	-89.7	6.4
2025-01-01 12:31:28.196818	298.2	27.7	-89.5	8.7
2025-01-01 12:31:29.344823	297.9	27.6	-89.4	6.9
2025-01-01 12:31:30.489129	297.6	27.5	-90.2	5.8
2025-01-01 12:31:31.634713	297.3	27.4	-89.7	5.9
2025-01-01 12:31:32.785042	297.0	27.3	-90.3	9.2
2025-01-01 12:31:33.924419	296.7	27.2	-89.9	6.7
2025-01-01 12:31:35.069551	296.4	27.1	-90.0	5.2
2025-01-01 12:31:36.220650	296.1	27.0	-90.3	10.4
2025-01-01 12:31:37.368071	295.9	26.9	-89.9	12.5
2025-01-01 12:31:38.517584	295.6	26.8	-88.9	7.6
2025-01-01 12:31:39.662694	295.3	26.6	-89.7	5.9
2025-01-01 12:31:40.809126	295.0	26.5	-89.1	6.5
2025-01-01 12:31:41.957234	294.7	26.4	-89.2	6.3
2025-01-01 12:31:43.108027	294.5	26.3	-89.3	9.2
2025-01-01 12:31:44.255009	294.2	26.2	-89.0	13.1
2025-01-01 12:31:45.406950	293.9	26.1	-89.7	13.6
2025-01-01 12:31:46.564631	293.6	26.0	-89.8	9.4
2025-01-01 12:31:47.707446	293.4	25.9	-89.7	7.6
2025-01-01 12:31:48.855636	293.1	25.8	-89.5	5.7
2025-01-01 12:31:50.008798	292.8	25.6	-89.9	5.5
2025-01-01 12:31:51.156034	292.6	25.5	-90.0	4.8
2025-01-01 12:31:52.305652	292.3	25.4	-88.8	6.9
2025-01-01 12:31:53.456644	292.0	25.3	-89.7	9.2
2025-01-01 12:31:54.606639	291.8	25.2	-89.7	7.8
2025-01-01 12:31:55.754041	291.5	25.1	-89.5	11.0
2025-01-01 12:31:56.900539	291.3	25.0	-89.8	9.1
2025-01-01 12:31:58.049780	291.0	24.9	-89.7	6.2
2025-01-01 12:31:59.198625	290.8	24.7	-89.7	8.2
2025-01-01 12:32:00.337747	290.5	24.6	-89.7	7.0
2025-01-01 12:32:01.484975	290.3	24.5	-90.1	8.0
2025-01-01 12:32:02.635535	290.0	24.4	-90.2	4.9
2025-01-01 12:32:03.781466	289.8	24.3	-89.9	8.9
2025-01-01 12:32:04.924725	289.5	24.2	-90.1	8.7
2025-01-01 12:32:06.072616	289.3	24.1	-90.4	5.3
2025-01-01 12:32:07.220261	289.1	23.9	-89.8	5.8
2025-01-01 12:32:08.365366	288.8	23.8	-89.8	6.6
2025-01-01 12:32:09.515040	288.6	23.7	-89.9	6.2
2025-01-01 12:32:10.667279	288.4	23.6	-90.2	8.2
2025-01-01 12:32:11.827261	288.1	23.5	-90.2	7.1
2025-01-01 12:32:12.975627	287.9	23.4	-90.3	6.0
2025-01-01 12:32:14.124436	287.7	23.3	-88.3	8.9
2025-01-01 12:32:15.270271	287.4	23.1	-89.9	8.3
2025-01-01 12:32:16.414282	287.2	23.0	-89.5	10.2
2025-01-01 12:32:17.564573	287.0	22.9	-89.5	8.6
2025-01-01 12:32:18.716728	286.8	22.8	-90.6	8.3
2025-01-01 12:32:19.864263	286.6	22.7	-90.6	6.5
2025-01-01 12:32:21.007659	286.3	22.6	-90.7	8.3
2025-01-01 12:32:22.155097	286.1	22.5	-90.4	9.2
2025-01-01 12:32:23.310947	285.9	22.3	-90.3	8.4
2025-01-01 12:32:24.470116	285.7	22.2	-90.7	8.2
2025-01-01 12:32:25.627209	285.5	22.1	-90.5	9.8
2025-01-01 12:32:26.773848	285.3	22.0	-90.2	8.4
2025-01-01 12:32:27.919685	285.1	21.9	-89.9	9.0
2025-01-01 12:32:29.068514	284.8	21.8	-90.3	8.6
2025-01-01 12:32:30.219390	284.6	21.7	-90.4	14.9
2025-01-01 12:32:31.362636	284.4	21.6	-89.4	6.0
2025-01-01 12:32:32.510116	284.2	21.4	-89.3	6.8
2025-01-01 12:32:33.661407	284.0	21.3	-89.4	6.8
2025-01-01 12:32:34.804082	283.8	21.2	-90.0	6.6
2025-01-01 12:32:35.954414	283.6	21.1	-91.0	5.1
2025-01-01 12:32:37.100522	283.4	21.0	-90.6	8.9
2025-01-01 12:32:38.247136	283.2	20.9	-90.4	5.8
2025-01-01 12:32:39.399493	283.0	20.8	-90.2	6.8
2025-01-01 12:32:40.547991	282.9	20.6	-90.6	6.6
2025-01-01 12:32:41.702054	282.7	20.5	-90.6	9.0
2025-01-01 12:32:42.847382	282.5	20.4	-90.5	6.0
2025-01-01 12:32:43.993156	282.3	20.3	-90.5	9.4
2025-01-01 12:32:45.137189	282.1	20.2	-90.1	7.3
2025-01-01 12:32:46.290627	281.9	20.1	-90.1	11.3
2025-01-01 12:32:47.438628	281.7	20.0	-90.5	8.3
2025-01-01 12:32:48.579680	281.5	19.9	-90.3	7.1
2025-01-01 12:32:49.726541	281.4	19.8	-90.4	8.5
2025-01-01 12:32:50.858480	281.2	19.6	-90.5	7.2
2025-01-01 12:32:51.978946	281.0	19.5	-90.6	5.8
2025-01-01 12:32:53.098878	280.8	19.4	-90.2	6.9
2025-01-01 12:32:54.220787	280.7	19.3	-90.5	5.1
2025-01-01 12:32:55.341425	280.5	19.2	-90.6	9.3
2025-01-01 12:32:56.462784	280.3	19.1	-90.7	10.2
2025-01-01 12:32:57.587139	280.2	19.0	-90.5	6.3
2025-01-01 12:32:58.712079	280.0	18.9	-90.6	7.8
2025-01-01 12:32:59.859204	279.8	18.8	-90.6	8.2
2025-01-01 12:33:01.006267	279.6	18.7	-89.9	8.2
2025-01-01 12:33:02.150663	279.5	18.6	-89.8	6.0
2025-01-01 12:33:03.296871	279.3	18.5	-90.0	6.1
2025-01-01 12:33:04.443080	279.1	18.4	-90.1	5.2
2025-01-01 12:33:05.593297	279.0	18.2	-89.9	5.9
2025-01-01 12:33:06.745238	278.8	18.1	-89.8	6.9
2025-01-01 12:33:07.895271	278.7	18.0	-89.5	4.7
2025-01-01 12:33:09.042563	278.5	17.9	-89.2	5.0
2025-01-01 12:33:10.185139	278.3	17.8	-89.2	3.6
2025-01-01 12:33:11.334315	278.2	17.7	-89.2	7.6
2025-01-01 12:33:12.476309	278.0	17.6	-90.5	4.6
2025-01-01 12:33:13.621782	277.9	17.5	-91.0	7.3
2025-01-01 12:33:14.765618	277.7	17.4	-90.4	10.7
2025-01-01 12:33:15.914945	277.6	17.3	-89.8	8.5
2025-01-01 12:33:17.062638	277.4	17.2	-89.8	4.7
2025-01-01 12:33:18.212419	277.2	17.1	-89.6	8.6
2025-01-01 12:33:19.364745	277.1	17.0	-89.9	9.2
2025-01-01 12:33:20.517685	276.9	16.9	-90.0	4.4
2025-01-01 12:33:21.668824	276.8	16.7	-89.9	6.7
2025-01-01 12:33:22.815412	276.6	16.6	-90.6	8.2
2025-01-01 12:33:23.961386	276.5	16.5	-89.5	4.6
2025-01-01 12:33:25.102634	276.4	16.4	-89.8	3.2
2025-01-01 12:33:26.247462	276.2	16.3	-90.2	11.2
2025-01-01 12:33:27.382254	276.1	16.2	-90.4	10.1
2025-01-01 12:33:28.533360	275.9	16.1	-90.4	5.3
2025-01-01 12:33:29.695942	275.8	16.0	-90.7	11.0
2025-01-01 12:33:30.840650	275.6	15.9	-90.7	10.7
2025-01-01 12:33:31.988423	275.5	15.8	-90.4	5.8
2025-01-01 12:33:33.136548	275.4	15.7	-90.1	8.6
2025-01-01 12:33:34.277197	275.2	15.6	-90.6	6.4
2025-01-01 12:33:35.424003	275.1	15.5	-90.7	7.2
2025-01-01 12:33:36.583314	275.0	15.4	-90.6	8.6
2025-01-01 12:33:37.735720	274.8	15.3	-90.4	5.5
2025-01-01 12:33:38.886792	274.7	15.2	-90.6	7.6
2025-01-01 12:33:40.032372	274.5	15.1	-90.0	8.4
2025-01-01 12:33:41.178769	274.4	15.0	-89.8	5.1
2025-01-01 12:33:42.326997	274.3	14.9	-90.3	7.3
2025-01-01 12:33:43.469475	274.2	14.8	-90.5	4.7
2025-01-01 12:33:44.618866	274.0	14.7	-90.3	4.4
2025-01-01 12:33:45.770162	273.9	14.6	-90.4	5.3
2025-01-01 12:33:46.928663	273.8	14.5	-89.6	5.4
#Closed at: 2025-01-01 12:26:03.011030