passes_logs/2025/01/01/LEX_Murmansk/LEX_Murmansk__20250101_133729_NOAA_19_rec.log

#Pass ID: 20250101_133729_NOAA 19
#Satellite: NOAA 19
#Configuration: NOAA 19
#Start time: 2025-01-01 13:37:24.608360

#LorettStation: 1.0.0 05.05.2024
#Station: LEX_Murmansk
#Location: 33.156738 lon 68.926811 lat
#TLE: 1 33591U 09005A   24366.84452498  .00000596  00000+0  34214-3 0  9996
#TLE: 2 33591  99.0219  64.4961 0014693  95.1476 265.1373 14.13246120819287

#Time	Az	El	Level	SNR
2025-01-01 13:37:36.809999	45.8	15.9	-90.5	2.5
2025-01-01 13:37:37.967803	45.6	16.0	-90.5	3.8
2025-01-01 13:37:39.112012	45.4	16.1	-90.1	3.5
2025-01-01 13:37:40.253520	45.2	16.1	-90.1	2.2
2025-01-01 13:37:41.397297	45.0	16.2	-90.4	4.0
2025-01-01 13:37:42.542690	44.9	16.3	-90.0	3.4
2025-01-01 13:37:43.690225	44.7	16.4	-90.5	4.1
2025-01-01 13:37:44.839125	44.5	16.5	-90.7	3.6
2025-01-01 13:37:45.991039	44.3	16.6	-90.7	2.5
2025-01-01 13:37:47.145595	44.1	16.6	-90.3	3.3
2025-01-01 13:37:48.295085	43.9	16.7	-90.1	3.1
2025-01-01 13:37:49.449253	43.7	16.8	-90.2	2.5
2025-01-01 13:37:50.594618	43.5	16.9	-90.4	1.6
2025-01-01 13:37:51.745187	43.3	17.0	-90.1	3.8
2025-01-01 13:37:52.892230	43.1	17.1	-90.2	2.1
2025-01-01 13:37:54.041783	42.9	17.1	-90.2	4.2
2025-01-01 13:37:55.192945	42.7	17.2	-89.8	2.6
2025-01-01 13:37:56.340010	42.5	17.3	-89.2	2.5
2025-01-01 13:37:57.492311	42.3	17.4	-89.9	4.0
2025-01-01 13:37:58.639520	42.1	17.5	-90.4	4.0
2025-01-01 13:37:59.785291	41.9	17.6	-89.1	2.5
2025-01-01 13:38:00.930022	41.7	17.6	-89.1	3.6
2025-01-01 13:38:02.083241	41.5	17.7	-89.6	2.7
2025-01-01 13:38:03.235275	41.2	17.8	-89.8	4.2
2025-01-01 13:38:04.383898	41.0	17.9	-90.0	5.0
2025-01-01 13:38:05.535471	40.8	18.0	-90.1	5.1
2025-01-01 13:38:06.681291	40.6	18.0	-89.7	4.6
2025-01-01 13:38:07.825550	40.4	18.1	-89.1	1.9
2025-01-01 13:38:08.970949	40.2	18.2	-88.6	0.7
2025-01-01 13:38:10.120647	40.0	18.3	-89.0	2.8
2025-01-01 13:38:11.272695	39.7	18.4	-89.8	3.4
2025-01-01 13:38:12.424090	39.5	18.5	-89.8	2.5
2025-01-01 13:38:13.577471	39.3	18.5	-90.0	4.5
2025-01-01 13:38:14.722481	39.1	18.6	-90.2	4.3
2025-01-01 13:38:15.871914	38.9	18.7	-90.3	4.1
2025-01-01 13:38:17.017752	38.6	18.8	-90.6	9.7
2025-01-01 13:38:18.166719	38.4	18.9	-90.3	8.3
2025-01-01 13:38:19.314571	38.2	18.9	-90.7	6.0
2025-01-01 13:38:20.454751	38.0	19.0	-90.3	6.6
2025-01-01 13:38:21.600335	37.7	19.1	-90.7	6.4
2025-01-01 13:38:22.753970	37.5	19.2	-90.7	2.2
2025-01-01 13:38:23.902561	37.3	19.3	-90.8	3.5
2025-01-01 13:38:25.056433	37.0	19.3	-90.4	3.1
2025-01-01 13:38:26.205427	36.8	19.4	-90.4	5.0
2025-01-01 13:38:27.356766	36.6	19.5	-90.3	6.9
2025-01-01 13:38:28.502132	36.3	19.6	-90.4	8.2
2025-01-01 13:38:29.649462	36.1	19.6	-90.0	6.8
2025-01-01 13:38:30.799249	35.9	19.7	-90.2	4.4
2025-01-01 13:38:31.947183	35.6	19.8	-90.4	5.0
2025-01-01 13:38:33.099873	35.4	19.9	-90.2	1.9
2025-01-01 13:38:34.249402	35.1	20.0	-90.0	3.2
2025-01-01 13:38:35.400153	34.9	20.0	-90.4	2.4
2025-01-01 13:38:36.549000	34.7	20.1	-90.6	1.2
2025-01-01 13:38:37.699184	34.4	20.2	-91.0	4.1
2025-01-01 13:38:38.849787	34.2	20.3	-90.5	2.8
2025-01-01 13:38:39.993119	33.9	20.3	-90.8	2.7
2025-01-01 13:38:41.146368	33.7	20.4	-90.6	7.9
2025-01-01 13:38:42.294311	33.4	20.5	-90.6	6.1
2025-01-01 13:38:43.445201	33.2	20.6	-90.2	6.6
2025-01-01 13:38:44.596276	32.9	20.6	-90.6	12.2
2025-01-01 13:38:45.741610	32.7	20.7	-90.9	7.7
2025-01-01 13:38:46.898034	32.4	20.8	-90.7	6.8
2025-01-01 13:38:48.046529	32.1	20.8	-90.7	7.4
2025-01-01 13:38:49.194972	31.9	20.9	-90.6	3.9
2025-01-01 13:38:50.342878	31.6	21.0	-90.7	5.2
2025-01-01 13:38:51.490068	31.4	21.1	-90.9	5.5
2025-01-01 13:38:52.639992	31.1	21.1	-90.7	6.4
2025-01-01 13:38:53.789191	30.8	21.2	-90.5	7.7
2025-01-01 13:38:54.944829	30.6	21.3	-90.3	9.4
2025-01-01 13:38:56.089798	30.3	21.3	-89.5	8.3
2025-01-01 13:38:57.242797	30.0	21.4	-89.6	6.0
2025-01-01 13:38:58.386130	29.8	21.5	-90.0	7.4
2025-01-01 13:38:59.536448	29.5	21.5	-90.3	6.8
2025-01-01 13:39:00.677755	29.2	21.6	-90.5	4.4
2025-01-01 13:39:01.824114	29.0	21.7	-90.7	3.7
2025-01-01 13:39:02.971820	28.7	21.7	-90.3	2.8
2025-01-01 13:39:04.121710	28.4	21.8	-90.3	7.0
2025-01-01 13:39:05.269594	28.2	21.9	-90.3	3.3
2025-01-01 13:39:06.419063	27.9	21.9	-90.5	5.6
2025-01-01 13:39:07.564933	27.6	22.0	-90.7	4.9
2025-01-01 13:39:08.713293	27.3	22.1	-90.6	5.4
2025-01-01 13:39:09.860108	27.0	22.1	-90.6	6.6
2025-01-01 13:39:11.004375	26.8	22.2	-90.3	10.8
2025-01-01 13:39:12.151676	26.5	22.2	-89.6	7.8
2025-01-01 13:39:13.298358	26.2	22.3	-89.5	8.9
2025-01-01 13:39:14.448540	25.9	22.4	-89.5	12.2
2025-01-01 13:39:15.596036	25.6	22.4	-90.1	8.9
2025-01-01 13:39:16.748414	25.3	22.5	-90.4	5.2
2025-01-01 13:39:17.895010	25.1	22.5	-90.9	3.6
2025-01-01 13:39:19.040788	24.8	22.6	-90.7	6.4
2025-01-01 13:39:20.189343	24.5	22.7	-90.0	6.2
2025-01-01 13:39:21.339283	24.2	22.7	-90.1	6.5
2025-01-01 13:39:22.486822	23.9	22.8	-90.6	7.3
2025-01-01 13:39:23.632357	23.6	22.8	-90.7	12.9
2025-01-01 13:39:24.776518	23.3	22.9	-91.0	11.9
2025-01-01 13:39:25.924994	23.0	22.9	-90.6	7.5
2025-01-01 13:39:27.072073	22.7	23.0	-90.7	6.8
2025-01-01 13:39:28.217171	22.4	23.0	-90.9	9.5
2025-01-01 13:39:29.365151	22.1	23.1	-90.7	8.4
2025-01-01 13:39:30.506864	21.8	23.1	-90.7	5.0
2025-01-01 13:39:31.655872	21.5	23.2	-90.5	6.2
2025-01-01 13:39:32.806123	21.2	23.2	-89.9	5.1
2025-01-01 13:39:33.958628	20.9	23.3	-89.6	4.7
2025-01-01 13:39:35.109428	20.6	23.3	-89.5	5.4
2025-01-01 13:39:36.258207	20.3	23.4	-90.0	2.0
2025-01-01 13:39:37.409738	20.0	23.4	-90.6	5.9
2025-01-01 13:39:38.554091	19.7	23.5	-90.4	4.0
2025-01-01 13:39:39.706141	19.4	23.5	-90.2	3.9
2025-01-01 13:39:40.849296	19.1	23.6	-90.2	4.9
2025-01-01 13:39:41.999133	18.8	23.6	-90.3	7.2
2025-01-01 13:39:43.147157	18.5	23.7	-89.8	6.3
2025-01-01 13:39:44.297544	18.2	23.7	-90.2	5.0
2025-01-01 13:39:45.447850	17.9	23.7	-90.4	10.2
2025-01-01 13:39:46.592050	17.6	23.8	-90.1	10.6
2025-01-01 13:39:47.742164	17.3	23.8	-89.9	7.9
2025-01-01 13:39:48.888434	17.0	23.9	-90.2	10.9
2025-01-01 13:39:50.037219	16.6	23.9	-89.8	7.3
2025-01-01 13:39:51.179400	16.3	23.9	-90.1	7.2
2025-01-01 13:39:52.324615	16.0	24.0	-90.5	6.1
2025-01-01 13:39:53.472640	15.7	24.0	-90.5	7.3
2025-01-01 13:39:54.619737	15.4	24.0	-90.4	5.8
2025-01-01 13:39:55.776372	15.1	24.1	-90.4	5.6
2025-01-01 13:39:56.925172	14.8	24.1	-90.0	4.7
2025-01-01 13:39:58.070708	14.4	24.1	-90.4	6.0
2025-01-01 13:39:59.217919	14.1	24.2	-90.5	4.9
2025-01-01 13:40:00.360759	13.8	24.2	-91.0	4.3
2025-01-01 13:40:01.500348	13.5	24.2	-90.7	5.1
2025-01-01 13:40:02.647775	13.2	24.2	-90.7	6.2
2025-01-01 13:40:03.796589	12.8	24.3	-90.6	6.0
2025-01-01 13:40:04.946242	12.5	24.3	-90.4	3.7
2025-01-01 13:40:06.090026	12.2	24.3	-90.2	5.4
2025-01-01 13:40:07.238900	11.9	24.3	-90.8	4.0
2025-01-01 13:40:08.387929	11.6	24.4	-90.3	4.6
2025-01-01 13:40:09.536057	11.2	24.4	-90.7	3.5
2025-01-01 13:40:10.682710	10.9	24.4	-90.6	4.5
2025-01-01 13:40:11.831612	10.6	24.4	-90.1	2.4
2025-01-01 13:40:12.981829	10.3	24.4	-90.4	5.3
2025-01-01 13:40:14.132333	9.9	24.5	-90.0	4.9
2025-01-01 13:40:15.286466	9.6	24.5	-90.3	2.0
2025-01-01 13:40:16.441053	9.3	24.5	-90.7	6.5
2025-01-01 13:40:17.588578	9.0	24.5	-90.8	3.7
2025-01-01 13:40:18.737105	8.6	24.5	-90.6	1.6
2025-01-01 13:40:19.887064	8.3	24.5	-90.8	2.4
2025-01-01 13:40:21.040429	8.0	24.5	-91.2	4.4
2025-01-01 13:40:22.192796	7.7	24.6	-90.8	0.0
2025-01-01 13:40:23.348436	7.3	24.6	-90.8	2.5
2025-01-01 13:40:24.499452	7.0	24.6	-90.6	3.8
2025-01-01 13:40:25.648140	6.7	24.6	-90.0	3.1
2025-01-01 13:40:26.793112	6.3	24.6	-90.4	3.1
2025-01-01 13:40:27.939297	6.0	24.6	-90.4	3.3
2025-01-01 13:40:29.091749	5.7	24.6	-89.9	5.6
2025-01-01 13:40:30.244170	5.4	24.6	-90.0	5.2
2025-01-01 13:40:31.391219	5.0	24.6	-90.4	7.1
2025-01-01 13:40:32.539787	4.7	24.6	-90.4	6.4
2025-01-01 13:40:33.687780	4.4	24.6	-90.5	5.2
2025-01-01 13:40:34.835211	4.0	24.6	-91.0	4.8
2025-01-01 13:40:35.984053	3.7	24.6	-91.1	10.7
2025-01-01 13:40:37.135939	3.4	24.6	-91.0	10.7
2025-01-01 13:40:38.278534	3.1	24.6	-90.9	9.3
2025-01-01 13:40:39.426975	2.7	24.6	-91.0	9.9
2025-01-01 13:40:40.577594	2.4	24.6	-90.7	9.0
2025-01-01 13:40:41.725785	2.1	24.6	-90.6	11.7
2025-01-01 13:40:42.878448	1.8	24.6	-90.6	10.6
2025-01-01 13:40:44.025932	1.4	24.6	-91.4	7.8
2025-01-01 13:40:45.176917	1.1	24.5	-90.8	10.0
2025-01-01 13:40:46.322804	0.8	24.5	-90.9	9.3
2025-01-01 13:40:47.472464	0.4	24.5	-90.8	9.8
2025-01-01 13:40:48.625174	0.1	24.5	-90.9	12.2
2025-01-01 13:40:49.776208	359.8	24.5	-90.8	10.7
2025-01-01 13:40:50.928712	359.5	24.5	-91.0	9.8
2025-01-01 13:40:52.074025	359.1	24.5	-90.8	5.8
2025-01-01 13:40:53.224401	358.8	24.5	-90.2	6.1
2025-01-01 13:40:54.373120	358.5	24.4	-90.6	8.7
2025-01-01 13:40:55.521435	358.2	24.4	-90.6	9.0
2025-01-01 13:40:56.673119	357.8	24.4	-90.7	8.6
2025-01-01 13:40:57.826752	357.5	24.4	-91.0	8.4
2025-01-01 13:40:58.972680	357.2	24.4	-90.3	8.9
2025-01-01 13:41:00.123723	356.9	24.3	-90.1	7.8
2025-01-01 13:41:01.264072	356.6	24.3	-90.4	7.9
2025-01-01 13:41:02.410545	356.2	24.3	-90.6	8.0
2025-01-01 13:41:03.556031	355.9	24.3	-91.0	6.1
2025-01-01 13:41:04.711048	355.6	24.2	-90.6	4.4
2025-01-01 13:41:05.859516	355.3	24.2	-91.2	5.1
2025-01-01 13:41:07.005938	355.0	24.2	-89.8	3.6
2025-01-01 13:41:08.155493	354.6	24.1	-89.6	5.2
2025-01-01 13:41:09.305588	354.3	24.1	-90.1	4.4
2025-01-01 13:41:10.456551	354.0	24.1	-90.2	9.1
2025-01-01 13:41:11.604837	353.7	24.0	-90.4	6.9
2025-01-01 13:41:12.757035	353.4	24.0	-90.2	3.8
2025-01-01 13:41:13.905620	353.1	24.0	-90.9	6.8
2025-01-01 13:41:15.054556	352.7	23.9	-91.1	8.7
2025-01-01 13:41:16.203952	352.4	23.9	-90.5	3.1
2025-01-01 13:41:17.354595	352.1	23.9	-90.7	5.7
2025-01-01 13:41:18.502089	351.8	23.8	-90.9	6.2
2025-01-01 13:41:19.654394	351.5	23.8	-90.8	4.4
2025-01-01 13:41:20.801852	351.2	23.8	-90.4	3.6
2025-01-01 13:41:21.941280	350.9	23.7	-90.8	5.2
2025-01-01 13:41:23.085287	350.6	23.7	-90.9	4.0
2025-01-01 13:41:24.233105	350.3	23.6	-90.6	3.4
2025-01-01 13:41:25.378955	349.9	23.6	-91.0	4.9
2025-01-01 13:41:26.525697	349.6	23.5	-90.7	4.2
2025-01-01 13:41:27.678805	349.3	23.5	-90.8	5.5
2025-01-01 13:41:28.832123	349.0	23.5	-90.5	5.5
2025-01-01 13:41:29.998768	348.7	23.4	-90.5	5.5
2025-01-01 13:41:31.144877	348.4	23.4	-90.2	3.7
2025-01-01 13:41:32.293824	348.1	23.3	-90.4	3.9
2025-01-01 13:41:33.442133	347.8	23.3	-89.9	4.4
2025-01-01 13:41:34.592572	347.5	23.2	-90.4	5.1
2025-01-01 13:41:35.738402	347.2	23.2	-90.0	3.4
2025-01-01 13:41:36.884026	346.9	23.1	-90.2	3.2
2025-01-01 13:41:38.032702	346.6	23.1	-90.6	3.5
2025-01-01 13:41:39.180303	346.3	23.0	-89.8	2.6
2025-01-01 13:41:40.327183	346.0	23.0	-90.5	3.2
2025-01-01 13:41:41.475084	345.7	22.9	-90.8	4.7
2025-01-01 13:41:42.624899	345.4	22.9	-90.6	4.5
2025-01-01 13:41:43.776336	345.1	22.8	-90.8	2.7
2025-01-01 13:41:44.925439	344.9	22.7	-90.4	3.9
2025-01-01 13:41:46.069735	344.6	22.7	-89.8	6.1
2025-01-01 13:41:47.217260	344.3	22.6	-89.6	2.9
2025-01-01 13:41:48.365857	344.0	22.6	-89.4	3.7
2025-01-01 13:41:49.509747	343.7	22.5	-90.3	3.0
2025-01-01 13:41:50.666563	343.4	22.5	-90.3	4.7
2025-01-01 13:41:51.809469	343.1	22.4	-90.5	3.7
2025-01-01 13:41:52.957167	342.8	22.3	-90.1	5.9
2025-01-01 13:41:54.106327	342.6	22.3	-90.0	5.8
2025-01-01 13:41:55.253815	342.3	22.2	-89.9	4.1
2025-01-01 13:41:56.403585	342.0	22.2	-90.2	7.0
2025-01-01 13:41:57.549006	341.7	22.1	-90.6	7.4
2025-01-01 13:41:58.698864	341.4	22.0	-90.1	6.0
2025-01-01 13:41:59.844433	341.2	22.0	-90.8	6.6
2025-01-01 13:42:00.981754	340.9	21.9	-90.7	4.9
2025-01-01 13:42:02.126442	340.6	21.8	-90.6	10.5
2025-01-01 13:42:03.277455	340.3	21.8	-90.6	5.1
2025-01-01 13:42:04.426237	340.1	21.7	-90.3	5.7
2025-01-01 13:42:05.572574	339.8	21.6	-90.4	4.3
2025-01-01 13:42:06.722495	339.5	21.6	-90.4	3.2
2025-01-01 13:42:07.873721	339.3	21.5	-90.2	4.8
2025-01-01 13:42:09.020110	339.0	21.4	-89.9	4.0
2025-01-01 13:42:10.167429	338.7	21.4	-90.2	5.0
2025-01-01 13:42:11.314180	338.5	21.3	-90.7	6.0
2025-01-01 13:42:12.460474	338.2	21.2	-90.4	7.5
2025-01-01 13:42:13.606196	337.9	21.2	-90.6	7.2
2025-01-01 13:42:14.755425	337.7	21.1	-90.4	5.5
2025-01-01 13:42:15.905960	337.4	21.0	-90.3	11.3
2025-01-01 13:42:17.050740	337.2	20.9	-90.1	11.4
2025-01-01 13:42:18.197208	336.9	20.9	-90.2	6.9
2025-01-01 13:42:19.345414	336.6	20.8	-90.7	7.6
2025-01-01 13:42:20.494355	336.4	20.7	-90.3	5.8
2025-01-01 13:42:21.644939	336.1	20.7	-90.9	8.2
2025-01-01 13:42:22.791626	335.9	20.6	-90.8	4.3
2025-01-01 13:42:23.937495	335.6	20.5	-90.8	3.0
2025-01-01 13:42:25.088166	335.4	20.4	-90.3	4.0
2025-01-01 13:42:26.235083	335.1	20.4	-90.6	3.8
2025-01-01 13:42:27.381525	334.9	20.3	-90.5	4.7
2025-01-01 13:42:28.524291	334.6	20.2	-90.2	4.8
2025-01-01 13:42:29.678032	334.4	20.1	-90.0	3.5
2025-01-01 13:42:30.825305	334.1	20.1	-90.0	3.0
2025-01-01 13:42:31.977881	333.9	20.0	-89.7	3.9
2025-01-01 13:42:33.125742	333.7	19.9	-90.0	3.2
2025-01-01 13:42:34.275138	333.4	19.8	-90.3	1.6
2025-01-01 13:42:35.425220	333.2	19.8	-91.0	4.9
2025-01-01 13:42:36.573290	332.9	19.7	-91.0	2.5
2025-01-01 13:42:37.720810	332.7	19.6	-90.7	2.0
2025-01-01 13:42:38.868368	332.5	19.5	-90.9	1.9
2025-01-01 13:42:40.014553	332.2	19.4	-90.7	4.4
2025-01-01 13:42:41.163709	332.0	19.4	-89.9	2.2
2025-01-01 13:42:42.307283	331.8	19.3	-90.3	2.6
2025-01-01 13:42:43.456765	331.5	19.2	-90.5	2.5
2025-01-01 13:42:44.601890	331.3	19.1	-90.5	3.8
2025-01-01 13:42:45.751979	331.1	19.1	-91.0	3.1
2025-01-01 13:42:46.905123	330.8	19.0	-91.3	4.7
2025-01-01 13:42:48.051208	330.6	18.9	-90.7	4.3
2025-01-01 13:42:49.200502	330.4	18.8	-90.6	2.0
2025-01-01 13:42:50.350174	330.2	18.7	-90.7	4.6
2025-01-01 13:42:51.496279	329.9	18.7	-90.4	6.0
2025-01-01 13:42:52.642386	329.7	18.6	-90.3	5.3
2025-01-01 13:42:53.792026	329.5	18.5	-90.4	6.0
2025-01-01 13:42:54.945616	329.3	18.4	-90.4	5.7
2025-01-01 13:42:56.095175	329.1	18.3	-89.7	3.9
2025-01-01 13:42:57.243938	328.8	18.2	-90.1	3.2
2025-01-01 13:42:58.390854	328.6	18.2	-90.3	4.9
2025-01-01 13:42:59.538813	328.4	18.1	-90.9	3.3
2025-01-01 13:43:00.683787	328.2	18.0	-90.6	2.7
2025-01-01 13:43:01.833478	328.0	17.9	-90.5	3.6
2025-01-01 13:43:02.982997	327.8	17.8	-90.7	2.2
2025-01-01 13:43:04.125355	327.6	17.8	-90.4	2.3
2025-01-01 13:43:05.270864	327.4	17.7	-90.3	3.9
2025-01-01 13:43:06.420163	327.1	17.6	-91.0	4.2
2025-01-01 13:43:07.569723	326.9	17.5	-90.4	2.0
2025-01-01 13:43:08.717888	326.7	17.4	-90.9	2.6
2025-01-01 13:43:09.867521	326.5	17.3	-90.8	3.8
2025-01-01 13:43:11.012806	326.3	17.3	-91.1	1.5
2025-01-01 13:43:12.168404	326.1	17.2	-90.6	1.8
2025-01-01 13:43:13.315450	325.9	17.1	-90.6	2.2
2025-01-01 13:43:14.466233	325.7	17.0	-90.1	2.4
2025-01-01 13:43:15.613138	325.5	16.9	-90.4	2.1
2025-01-01 13:43:16.762816	325.3	16.8	-90.7	2.1
2025-01-01 13:43:17.915985	325.1	16.8	-90.9	4.7
2025-01-01 13:43:19.065255	324.9	16.7	-90.7	2.4
2025-01-01 13:43:20.214033	324.7	16.6	-90.7	5.6
2025-01-01 13:43:21.361705	324.5	16.5	-90.5	3.8
2025-01-01 13:43:22.512055	324.4	16.4	-91.2	2.8
2025-01-01 13:43:23.657941	324.2	16.3	-91.1	3.9
2025-01-01 13:43:24.805505	324.0	16.3	-90.9	2.2
2025-01-01 13:43:25.955248	323.8	16.2	-90.8	3.5
2025-01-01 13:43:27.104803	323.6	16.1	-90.8	3.3
2025-01-01 13:43:28.256026	323.4	16.0	-90.7	2.1
2025-01-01 13:43:29.403742	323.2	15.9	-90.8	3.5
2025-01-01 13:43:30.553505	323.0	15.8	-90.9	4.9
2025-01-01 13:43:31.700394	322.9	15.8	-91.2	3.1
2025-01-01 13:43:32.851197	322.7	15.7	-91.1	1.9
2025-01-01 13:43:33.999381	322.5	15.6	-91.0	2.6
2025-01-01 13:43:35.145547	322.3	15.5	-90.9	3.9
2025-01-01 13:43:36.297366	322.1	15.4	-90.9	4.2
2025-01-01 13:43:37.446957	321.9	15.3	-91.1	3.7
2025-01-01 13:43:38.595301	321.8	15.3	-90.6	4.1
2025-01-01 13:43:39.744590	321.6	15.2	-91.0	3.8
2025-01-01 13:43:40.888071	321.4	15.1	-91.1	3.9
2025-01-01 13:43:42.031103	321.2	15.0	-90.5	3.8
2025-01-01 13:43:43.179125	321.1	14.9	-90.0	4.7
2025-01-01 13:43:44.327414	320.9	14.8	-90.6	6.2
2025-01-01 13:43:45.480866	320.7	14.8	-90.6	9.4
2025-01-01 13:43:46.628716	320.6	14.7	-90.1	5.1
#Closed at: 2025-01-01 13:37:29.616851