passes_logs/2025/01/01/LEX_Murmansk/LEX_Murmansk__20250101_090429_NOAA_18_rec.log

#Pass ID: 20250101_090429_NOAA 18
#Satellite: NOAA 18
#Configuration: NOAA 18
#Start time: 2025-01-01 09:04:24.981400

#LorettStation: 1.0.0 05.05.2024
#Station: LEX_Murmansk
#Location: 33.156738 lon 68.926811 lat
#TLE: 1 28654U 05018A   24366.86382707  .00000695  00000+0  39254-3 0  9996
#TLE: 2 28654  98.8588  82.0571 0013692 219.5840 140.4334 14.13471437 11103

#Time	Az	El	Level	SNR
2025-01-01 09:04:37.168417	29.7	16.2	-92.4	5.3
2025-01-01 09:04:39.497081	29.9	16.5	-93.1	5.2
2025-01-01 09:04:41.817403	30.0	16.7	-92.9	7.0
2025-01-01 09:04:44.136411	30.2	17.0	-90.3	4.8
2025-01-01 09:04:46.467090	30.4	17.2	-91.3	6.9
2025-01-01 09:04:48.790353	30.6	17.5	-93.1	6.7
2025-01-01 09:04:51.105332	30.7	17.7	-92.5	4.1
2025-01-01 09:04:53.389457	30.9	18.0	-92.7	9.5
2025-01-01 09:04:55.631766	31.1	18.2	-92.9	7.4
2025-01-01 09:04:57.872661	31.3	18.5	-93.1	5.0
2025-01-01 09:05:00.121496	31.5	18.7	-92.3	5.0
2025-01-01 09:05:02.404759	31.7	19.0	-92.7	7.9
2025-01-01 09:05:04.731936	31.9	19.2	-92.9	5.8
2025-01-01 09:05:07.043476	32.1	19.5	-92.9	4.1
2025-01-01 09:05:09.368542	32.3	19.8	-92.7	11.6
2025-01-01 09:05:11.698098	32.5	20.1	-93.3	8.6
2025-01-01 09:05:14.018585	32.7	20.3	-92.7	19.5
2025-01-01 09:05:16.348295	32.9	20.6	-92.8	11.3
2025-01-01 09:05:18.666134	33.1	20.9	-93.2	4.5
2025-01-01 09:05:20.995985	33.3	21.2	-93.4	4.1
2025-01-01 09:05:23.315980	33.6	21.5	-92.4	7.3
2025-01-01 09:05:25.646630	33.8	21.8	-93.0	18.6
2025-01-01 09:05:27.970236	34.0	22.1	-93.3	13.1
2025-01-01 09:05:30.298018	34.3	22.4	-92.9	16.2
2025-01-01 09:05:32.623616	34.5	22.7	-93.2	13.6
2025-01-01 09:05:34.940767	34.8	23.0	-93.4	7.1
2025-01-01 09:05:37.269685	35.0	23.3	-92.6	11.9
2025-01-01 09:05:39.594644	35.3	23.6	-92.9	9.2
2025-01-01 09:05:41.937233	35.5	23.9	-93.3	16.6
2025-01-01 09:05:44.264621	35.8	24.2	-91.7	12.4
2025-01-01 09:05:46.595380	36.1	24.5	-92.2	9.8
2025-01-01 09:05:48.926207	36.4	24.8	-92.1	15.8
2025-01-01 09:05:51.247764	36.6	25.2	-91.8	9.1
2025-01-01 09:05:53.582542	36.9	25.5	-92.2	8.7
2025-01-01 09:05:55.908792	37.2	25.8	-91.6	14.1
2025-01-01 09:05:58.235516	37.5	26.2	-90.8	12.5
2025-01-01 09:06:00.546466	37.8	26.5	-92.4	10.5
2025-01-01 09:06:02.866767	38.1	26.8	-91.7	10.7
2025-01-01 09:06:05.190913	38.5	27.2	-91.9	13.4
2025-01-01 09:06:07.528634	38.8	27.5	-91.9	8.2
2025-01-01 09:06:09.849485	39.1	27.9	-91.7	13.3
2025-01-01 09:06:12.175502	39.5	28.2	-91.5	7.5
2025-01-01 09:06:14.501304	39.8	28.6	-91.6	5.0
2025-01-01 09:06:16.825872	40.2	29.0	-90.9	10.6
2025-01-01 09:06:19.150944	40.5	29.3	-90.9	10.2
2025-01-01 09:06:21.482920	40.9	29.7	-91.2	8.2
2025-01-01 09:06:23.802239	41.3	30.1	-93.5	10.9
2025-01-01 09:06:26.125585	41.7	30.5	-92.1	12.1
2025-01-01 09:06:28.454790	42.1	30.8	-91.6	12.4
2025-01-01 09:06:30.784310	42.5	31.2	-91.7	13.3
2025-01-01 09:06:33.109663	42.9	31.6	-90.8	6.3
2025-01-01 09:06:35.430809	43.3	32.0	-92.2	12.7
2025-01-01 09:06:37.756843	43.8	32.4	-93.0	14.3
2025-01-01 09:06:40.080562	44.2	32.8	-92.8	16.1
2025-01-01 09:06:42.404971	44.7	33.2	-93.5	20.7
2025-01-01 09:06:44.726961	45.1	33.6	-93.3	21.9
2025-01-01 09:06:47.050341	45.6	34.0	-92.4	17.4
2025-01-01 09:06:49.385666	46.1	34.4	-93.0	20.6
2025-01-01 09:06:51.710604	46.6	34.8	-93.4	15.8
2025-01-01 09:06:54.039593	47.1	35.2	-93.2	12.4
2025-01-01 09:06:56.369400	47.7	35.7	-93.0	17.7
2025-01-01 09:06:58.683936	48.2	36.1	-93.2	20.5
2025-01-01 09:07:01.002410	48.8	36.5	-92.8	12.8
2025-01-01 09:07:03.326099	49.3	36.9	-92.6	17.7
2025-01-01 09:07:05.650759	49.9	37.4	-93.6	20.3
2025-01-01 09:07:07.984482	50.5	37.8	-93.2	19.5
2025-01-01 09:07:10.312733	51.1	38.2	-93.3	18.7
2025-01-01 09:07:12.639773	51.8	38.7	-93.3	6.3
2025-01-01 09:07:14.958143	52.4	39.1	-91.5	10.6
2025-01-01 09:07:17.282107	53.1	39.5	-91.1	16.1
2025-01-01 09:07:19.609254	53.8	40.0	-91.5	14.9
2025-01-01 09:07:21.928637	54.5	40.4	-92.2	13.6
2025-01-01 09:07:24.248619	55.2	40.9	-92.0	18.0
2025-01-01 09:07:26.576089	56.0	41.3	-91.7	12.8
2025-01-01 09:07:28.895364	56.7	41.8	-91.7	17.8
2025-01-01 09:07:31.223759	57.5	42.2	-91.1	14.5
2025-01-01 09:07:33.554588	58.3	42.6	-91.8	9.0
2025-01-01 09:07:35.884050	59.1	43.1	-93.1	19.6
2025-01-01 09:07:38.216993	60.0	43.5	-92.8	13.1
2025-01-01 09:07:40.541993	60.9	44.0	-92.9	14.2
2025-01-01 09:07:42.856539	61.8	44.4	-93.4	15.0
2025-01-01 09:07:45.185874	62.7	44.8	-92.9	17.0
2025-01-01 09:07:47.512058	63.7	45.2	-93.4	14.5
2025-01-01 09:07:49.847117	64.6	45.7	-93.1	18.4
2025-01-01 09:07:52.172858	65.6	46.1	-92.7	10.6
2025-01-01 09:07:54.497001	66.7	46.5	-93.5	16.0
2025-01-01 09:07:56.828701	67.7	46.9	-93.3	14.6
2025-01-01 09:07:59.156892	68.8	47.3	-93.0	13.4
2025-01-01 09:08:01.478961	69.9	47.7	-91.1	10.2
2025-01-01 09:08:03.804867	71.1	48.1	-91.4	11.3
2025-01-01 09:08:06.125111	72.2	48.5	-91.4	5.1
2025-01-01 09:08:08.449283	73.4	48.8	-93.8	9.4
2025-01-01 09:08:10.781016	74.6	49.2	-93.7	16.1
2025-01-01 09:08:13.107250	75.9	49.5	-92.7	7.0
2025-01-01 09:08:15.431855	77.2	49.9	-93.2	12.0
2025-01-01 09:08:17.760245	78.5	50.2	-93.3	15.0
2025-01-01 09:08:20.091699	79.8	50.5	-93.3	13.4
2025-01-01 09:08:22.418310	81.2	50.8	-92.9	15.0
2025-01-01 09:08:24.738544	82.5	51.0	-93.4	16.4
2025-01-01 09:08:27.067068	84.0	51.3	-92.2	10.5
2025-01-01 09:08:29.389599	85.4	51.5	-93.0	17.3
2025-01-01 09:08:31.711617	86.8	51.8	-93.4	16.7
2025-01-01 09:08:34.035638	88.3	52.0	-93.5	13.2
2025-01-01 09:08:36.358723	89.8	52.2	-93.3	13.7
2025-01-01 09:08:38.693353	91.3	52.3	-93.6	15.4
2025-01-01 09:08:41.021386	92.9	52.5	-93.5	6.3
2025-01-01 09:08:43.344712	94.4	52.6	-93.1	16.0
2025-01-01 09:08:45.662894	96.0	52.7	-93.5	9.3
2025-01-01 09:08:47.982958	97.5	52.8	-93.2	12.2
2025-01-01 09:08:50.300245	99.1	52.9	-93.1	17.5
2025-01-01 09:08:52.626931	100.7	52.9	-93.4	13.4
2025-01-01 09:08:54.948257	102.3	52.9	-93.1	16.5
2025-01-01 09:08:57.274642	103.9	52.9	-93.0	17.8
2025-01-01 09:08:59.604940	105.4	52.9	-93.4	14.9
2025-01-01 09:09:01.919778	107.0	52.9	-93.3	9.9
2025-01-01 09:09:04.245360	108.6	52.8	-93.0	14.8
2025-01-01 09:09:06.579573	110.2	52.7	-90.9	14.7
2025-01-01 09:09:08.899741	111.7	52.6	-92.0	16.5
2025-01-01 09:09:11.231988	113.3	52.5	-92.7	15.0
2025-01-01 09:09:13.562852	114.8	52.3	-92.1	10.0
2025-01-01 09:09:15.882812	116.3	52.2	-91.4	12.5
2025-01-01 09:09:18.207013	117.8	52.0	-91.4	12.5
2025-01-01 09:09:20.522866	119.3	51.8	-93.3	16.9
2025-01-01 09:09:22.853816	120.8	51.5	-92.7	16.4
2025-01-01 09:09:25.176295	122.2	51.3	-92.7	14.1
2025-01-01 09:09:27.501550	123.6	51.0	-92.8	17.4
2025-01-01 09:09:29.841810	125.0	50.7	-93.0	19.2
2025-01-01 09:09:32.168218	126.4	50.4	-92.6	10.3
2025-01-01 09:09:34.502101	127.7	50.1	-93.3	9.0
2025-01-01 09:09:36.834395	129.0	49.8	-93.7	11.9
2025-01-01 09:09:39.149077	130.3	49.5	-92.4	6.0
2025-01-01 09:09:41.480159	131.5	49.1	-93.2	3.1
2025-01-01 09:09:43.790429	132.7	48.8	-93.5	8.2
2025-01-01 09:09:46.112106	133.9	48.4	-93.2	5.2
2025-01-01 09:09:48.432161	135.1	48.0	-92.6	9.8
2025-01-01 09:09:50.753748	136.2	47.6	-93.2	17.3
2025-01-01 09:09:53.077079	137.3	47.2	-93.0	13.8
2025-01-01 09:09:55.395496	138.4	46.8	-93.1	18.0
2025-01-01 09:09:57.722975	139.5	46.4	-92.6	11.6
2025-01-01 09:10:00.055717	140.5	46.0	-92.8	13.2
2025-01-01 09:10:02.368544	141.5	45.6	-92.5	18.7
2025-01-01 09:10:04.689940	142.5	45.2	-92.9	15.4
2025-01-01 09:10:07.018660	143.4	44.7	-92.3	18.3
2025-01-01 09:10:09.341992	144.4	44.3	-92.7	20.9
2025-01-01 09:10:11.671071	145.3	43.9	-93.3	15.9
2025-01-01 09:10:13.992562	146.1	43.4	-92.9	14.5
2025-01-01 09:10:16.317714	147.0	43.0	-92.5	17.2
2025-01-01 09:10:18.644954	147.8	42.5	-93.0	7.7
2025-01-01 09:10:20.966692	148.6	42.1	-91.9	11.4
2025-01-01 09:10:23.293651	149.4	41.7	-92.7	17.7
2025-01-01 09:10:25.624481	150.2	41.2	-93.2	11.6
2025-01-01 09:10:27.961595	150.9	40.8	-93.2	14.7
2025-01-01 09:10:30.297836	151.7	40.3	-90.7	14.6
2025-01-01 09:10:32.630063	152.4	39.9	-91.5	15.1
2025-01-01 09:10:34.950557	153.1	39.4	-91.4	13.0
2025-01-01 09:10:37.276956	153.7	39.0	-91.6	11.0
2025-01-01 09:10:39.606050	154.4	38.5	-91.1	10.4
2025-01-01 09:10:41.928155	155.0	38.1	-91.5	10.0
2025-01-01 09:10:44.254217	155.6	37.7	-91.3	13.1
2025-01-01 09:10:46.577477	156.3	37.2	-91.5	5.7
2025-01-01 09:10:48.898467	156.8	36.8	-92.8	11.4
2025-01-01 09:10:51.226233	157.4	36.4	-92.2	8.1
2025-01-01 09:10:53.559545	158.0	35.9	-91.4	5.7
2025-01-01 09:10:55.890991	158.5	35.5	-91.5	11.5
2025-01-01 09:10:58.217709	159.0	35.1	-92.0	11.3
2025-01-01 09:11:00.544644	159.6	34.7	-91.4	10.6
2025-01-01 09:11:02.868846	160.1	34.2	-91.5	12.9
2025-01-01 09:11:05.194193	160.6	33.8	-90.8	15.6
2025-01-01 09:11:07.521850	161.0	33.4	-91.0	11.5
2025-01-01 09:11:09.848028	161.5	33.0	-91.4	11.9
2025-01-01 09:11:12.169999	162.0	32.6	-90.5	7.0
2025-01-01 09:11:14.494510	162.4	32.2	-91.5	6.6
2025-01-01 09:11:16.816972	162.9	31.8	-91.4	10.7
2025-01-01 09:11:19.137331	163.3	31.4	-91.3	13.4
2025-01-01 09:11:21.456059	163.7	31.0	-91.1	13.3
2025-01-01 09:11:23.779441	164.1	30.6	-91.5	13.4
2025-01-01 09:11:26.095884	164.5	30.3	-91.3	7.2
2025-01-01 09:11:28.416762	164.9	29.9	-91.3	7.0
2025-01-01 09:11:30.739182	165.3	29.5	-93.2	8.7
2025-01-01 09:11:33.061360	165.6	29.1	-93.1	7.8
2025-01-01 09:11:35.382986	166.0	28.8	-91.8	11.7
2025-01-01 09:11:37.712273	166.4	28.4	-91.6	12.0
2025-01-01 09:11:40.038121	166.7	28.0	-90.6	11.6
2025-01-01 09:11:42.362423	167.0	27.7	-91.3	6.5
2025-01-01 09:11:44.692009	167.4	27.3	-91.2	6.2
2025-01-01 09:11:47.011547	167.7	27.0	-91.3	5.6
2025-01-01 09:11:49.338482	168.0	26.6	-91.2	9.1
2025-01-01 09:11:51.666632	168.3	26.3	-92.8	8.5
2025-01-01 09:11:53.990969	168.6	25.9	-93.6	12.2
2025-01-01 09:11:56.304807	168.9	25.6	-90.9	11.7
2025-01-01 09:11:58.634412	169.2	25.3	-91.9	10.5
2025-01-01 09:12:00.947014	169.5	24.9	-91.1	8.1
2025-01-01 09:12:03.270413	169.8	24.6	-91.6	9.5
2025-01-01 09:12:05.597176	170.1	24.3	-93.6	4.5
2025-01-01 09:12:07.923095	170.3	24.0	-93.0	10.1
2025-01-01 09:12:10.247899	170.6	23.7	-92.4	11.8
2025-01-01 09:12:12.566350	170.9	23.3	-93.3	10.5
2025-01-01 09:12:14.902354	171.1	23.0	-91.9	5.1
2025-01-01 09:12:17.227223	171.4	22.7	-90.6	8.8
2025-01-01 09:12:19.557340	171.6	22.4	-91.6	3.8
2025-01-01 09:12:21.879942	171.9	22.1	-91.7	6.2
2025-01-01 09:12:24.210723	172.1	21.8	-90.6	6.3
2025-01-01 09:12:26.539513	172.3	21.5	-93.1	9.7
2025-01-01 09:12:28.847666	172.6	21.2	-93.1	6.1
2025-01-01 09:12:31.098239	172.8	20.9	-93.3	4.8
2025-01-01 09:12:33.339110	173.0	20.7	-92.8	8.1
2025-01-01 09:12:35.579418	173.2	20.4	-93.7	5.1
2025-01-01 09:12:37.832664	173.4	20.1	-93.3	8.6
2025-01-01 09:12:40.160646	173.6	19.8	-93.2	9.5
2025-01-01 09:12:42.469387	173.8	19.6	-93.6	12.7
2025-01-01 09:12:44.791414	174.0	19.3	-93.1	8.6
2025-01-01 09:12:47.112379	174.2	19.0	-92.0	6.2
2025-01-01 09:12:49.424698	174.4	18.8	-93.3	6.2
2025-01-01 09:12:51.707224	174.6	18.5	-92.7	5.8
2025-01-01 09:12:54.000151	174.8	18.2	-92.8	4.7
2025-01-01 09:12:56.292867	175.0	18.0	-92.9	6.8
2025-01-01 09:12:58.570947	175.2	17.7	-93.4	4.5
2025-01-01 09:13:00.862657	175.4	17.5	-93.4	3.2
2025-01-01 09:13:03.174484	175.5	17.2	-92.6	5.1
2025-01-01 09:13:05.486457	175.7	17.0	-92.8	2.4
2025-01-01 09:13:07.812972	175.9	16.7	-93.3	3.8
2025-01-01 09:13:10.138965	176.1	16.5	-92.8	2.5
2025-01-01 09:13:12.463587	176.2	16.2	-93.4	4.9
2025-01-01 09:13:14.795593	176.4	16.0	-91.2	6.3
2025-01-01 09:13:17.137918	176.6	15.7	-90.8	3.6
2025-01-01 09:13:19.460376	176.7	15.5	-91.8	3.3
2025-01-01 09:13:21.786674	176.9	15.3	-93.1	6.8
2025-01-01 09:13:24.112194	177.0	15.0	-92.8	4.5
2025-01-01 09:13:26.438027	177.2	14.8	-93.5	8.7
2025-01-01 09:13:28.761934	177.3	14.6	-93.8	8.1
#Closed at: 2025-01-01 09:04:29.958171