passes_logs/2025/01/01/LEX_Murmansk/LEX_Murmansk__20250101_154521_NOAA_18_rec.log

#Pass ID: 20250101_154521_NOAA 18
#Satellite: NOAA 18
#Configuration: NOAA 18
#Start time: 2025-01-01 15:45:16.256965

#LorettStation: 1.0.0 05.05.2024
#Station: LEX_Murmansk
#Location: 33.156738 lon 68.926811 lat
#TLE: 1 28654U 05018A   24366.86382707  .00000695  00000+0  39254-3 0  9996
#TLE: 2 28654  98.8588  82.0571 0013692 219.5840 140.4334 14.13471437 11103

#Time	Az	El	Level	SNR
2025-01-01 15:45:28.405433	65.3	16.0	-89.8	9.1
2025-01-01 15:45:29.564694	65.1	16.1	-89.9	9.8
2025-01-01 15:45:30.715008	65.0	16.1	-90.2	11.7
2025-01-01 15:45:31.864033	64.8	16.2	-89.9	8.1
2025-01-01 15:45:32.989297	64.6	16.3	-90.1	6.3
2025-01-01 15:45:34.134643	64.5	16.4	-89.7	4.2
2025-01-01 15:45:35.276431	64.3	16.5	-90.2	10.6
2025-01-01 15:45:36.429628	64.1	16.6	-90.3	9.2
2025-01-01 15:45:37.573196	63.9	16.7	-89.8	5.4
2025-01-01 15:45:38.721129	63.8	16.8	-90.1	12.9
2025-01-01 15:45:39.872357	63.6	16.9	-90.2	13.8
2025-01-01 15:45:41.022327	63.4	17.0	-89.9	12.5
2025-01-01 15:45:42.175009	63.2	17.1	-89.8	12.5
2025-01-01 15:45:43.318548	63.1	17.2	-89.8	15.2
2025-01-01 15:45:44.465788	62.9	17.2	-90.0	9.9
2025-01-01 15:45:45.606169	62.7	17.3	-89.2	11.9
2025-01-01 15:45:46.758316	62.5	17.4	-89.5	15.9
2025-01-01 15:45:47.908558	62.3	17.5	-89.5	13.0
2025-01-01 15:45:49.064181	62.1	17.6	-89.1	14.0
2025-01-01 15:45:50.215655	62.0	17.7	-89.1	7.5
2025-01-01 15:45:51.364137	61.8	17.8	-88.7	7.5
2025-01-01 15:45:52.512463	61.6	17.9	-89.4	4.3
2025-01-01 15:45:53.664007	61.4	18.0	-89.6	7.5
2025-01-01 15:45:54.819019	61.2	18.1	-89.2	6.7
2025-01-01 15:45:55.971901	61.0	18.2	-89.0	5.4
2025-01-01 15:45:57.124835	60.8	18.3	-89.9	9.3
2025-01-01 15:45:58.274240	60.6	18.4	-90.0	12.7
2025-01-01 15:45:59.431779	60.4	18.4	-90.0	12.6
2025-01-01 15:46:00.579761	60.2	18.5	-90.6	12.0
2025-01-01 15:46:01.735115	60.0	18.6	-90.3	12.9
2025-01-01 15:46:02.888668	59.8	18.7	-89.9	14.1
2025-01-01 15:46:04.043483	59.6	18.8	-90.1	9.5
2025-01-01 15:46:05.192409	59.4	18.9	-89.9	13.9
2025-01-01 15:46:06.354098	59.2	19.0	-89.8	10.0
2025-01-01 15:46:07.500574	59.0	19.1	-90.3	9.8
2025-01-01 15:46:08.651455	58.8	19.2	-89.3	11.9
2025-01-01 15:46:09.803757	58.6	19.3	-88.5	9.0
2025-01-01 15:46:10.956862	58.4	19.4	-88.9	8.3
2025-01-01 15:46:12.115693	58.2	19.5	-88.9	5.4
2025-01-01 15:46:13.271012	58.0	19.6	-88.8	11.1
2025-01-01 15:46:14.417263	57.8	19.7	-89.1	9.1
2025-01-01 15:46:15.571657	57.5	19.7	-89.3	6.2
2025-01-01 15:46:16.732001	57.3	19.8	-89.3	11.4
2025-01-01 15:46:17.887700	57.1	19.9	-88.7	11.5
2025-01-01 15:46:19.045728	56.9	20.0	-89.4	5.4
2025-01-01 15:46:20.190559	56.7	20.1	-88.8	9.7
2025-01-01 15:46:21.342252	56.5	20.2	-88.8	7.9
2025-01-01 15:46:22.493725	56.2	20.3	-89.0	8.9
2025-01-01 15:46:23.652549	56.0	20.4	-89.0	9.4
2025-01-01 15:46:24.810223	55.8	20.5	-89.1	11.8
2025-01-01 15:46:25.961080	55.6	20.6	-89.0	6.8
2025-01-01 15:46:27.114382	55.3	20.7	-89.2	8.7
2025-01-01 15:46:28.270626	55.1	20.8	-88.9	9.4
2025-01-01 15:46:29.429497	54.9	20.8	-88.6	8.0
2025-01-01 15:46:30.576687	54.6	20.9	-90.0	11.5
2025-01-01 15:46:31.726096	54.4	21.0	-89.7	12.1
2025-01-01 15:46:32.881815	54.2	21.1	-88.7	10.7
2025-01-01 15:46:34.025576	53.9	21.2	-88.5	9.4
2025-01-01 15:46:35.176879	53.7	21.3	-88.4	9.2
2025-01-01 15:46:36.312615	53.5	21.4	-88.4	5.8
2025-01-01 15:46:37.433106	53.2	21.5	-88.8	6.6
2025-01-01 15:46:38.555451	53.0	21.6	-88.9	4.9
2025-01-01 15:46:39.677682	52.8	21.6	-89.8	8.3
2025-01-01 15:46:40.800260	52.5	21.7	-89.7	9.4
2025-01-01 15:46:41.920515	52.3	21.8	-89.4	7.7
2025-01-01 15:46:43.045037	52.1	21.9	-89.5	7.5
2025-01-01 15:46:44.166424	51.8	22.0	-89.9	9.4
2025-01-01 15:46:45.320376	51.6	22.1	-89.6	12.6
2025-01-01 15:46:46.470247	51.3	22.2	-89.8	10.1
2025-01-01 15:46:47.621482	51.1	22.2	-90.0	10.1
2025-01-01 15:46:48.773058	50.8	22.3	-90.0	10.8
2025-01-01 15:46:49.924434	50.6	22.4	-89.9	8.5
2025-01-01 15:46:51.080141	50.3	22.5	-89.1	6.1
2025-01-01 15:46:52.231868	50.0	22.6	-89.5	13.4
2025-01-01 15:46:53.388330	49.8	22.7	-89.3	7.0
2025-01-01 15:46:54.545012	49.5	22.8	-89.0	6.6
2025-01-01 15:46:55.718603	49.3	22.8	-89.2	8.7
2025-01-01 15:46:56.867789	49.0	22.9	-89.5	8.6
2025-01-01 15:46:58.021912	48.7	23.0	-89.7	9.3
2025-01-01 15:46:59.167796	48.5	23.1	-89.7	8.5
2025-01-01 15:47:00.314262	48.2	23.2	-89.6	6.8
2025-01-01 15:47:01.443831	47.9	23.3	-90.0	9.2
2025-01-01 15:47:02.599695	47.7	23.3	-89.7	4.9
2025-01-01 15:47:03.746762	47.4	23.4	-90.0	8.3
2025-01-01 15:47:04.896635	47.1	23.5	-89.1	6.4
2025-01-01 15:47:06.043307	46.8	23.6	-89.5	7.3
2025-01-01 15:47:07.196632	46.6	23.7	-90.2	10.2
2025-01-01 15:47:08.344908	46.3	23.7	-89.4	8.2
2025-01-01 15:47:09.505662	46.0	23.8	-89.4	5.3
2025-01-01 15:47:10.654109	45.7	23.9	-90.0	6.1
2025-01-01 15:47:11.812813	45.5	24.0	-89.5	9.6
2025-01-01 15:47:12.967294	45.2	24.1	-89.2	14.6
2025-01-01 15:47:14.122639	44.9	24.1	-89.2	11.6
2025-01-01 15:47:15.281833	44.6	24.2	-89.3	10.6
2025-01-01 15:47:16.437688	44.3	24.3	-89.5	12.5
2025-01-01 15:47:17.584498	44.0	24.4	-89.2	10.5
2025-01-01 15:47:18.738710	43.7	24.4	-89.3	9.6
2025-01-01 15:47:19.884469	43.4	24.5	-88.6	9.6
2025-01-01 15:47:21.041023	43.2	24.6	-90.2	9.8
2025-01-01 15:47:22.194133	42.9	24.7	-90.3	11.5
2025-01-01 15:47:23.352412	42.6	24.7	-90.1	13.8
2025-01-01 15:47:24.504097	42.3	24.8	-89.7	9.4
2025-01-01 15:47:25.651586	42.0	24.9	-90.6	10.6
2025-01-01 15:47:26.804264	41.7	24.9	-90.4	9.1
2025-01-01 15:47:27.958828	41.4	25.0	-90.6	8.1
2025-01-01 15:47:29.112122	41.1	25.1	-89.9	7.1
2025-01-01 15:47:30.269974	40.8	25.1	-90.2	6.3
2025-01-01 15:47:31.419521	40.5	25.2	-90.2	8.3
2025-01-01 15:47:32.568091	40.2	25.3	-90.2	7.7
2025-01-01 15:47:33.721862	39.8	25.3	-90.2	8.1
2025-01-01 15:47:34.873672	39.5	25.4	-90.5	13.3
2025-01-01 15:47:36.025150	39.2	25.5	-90.2	6.4
2025-01-01 15:47:37.180925	38.9	25.5	-90.1	10.8
2025-01-01 15:47:38.336295	38.6	25.6	-88.7	10.1
2025-01-01 15:47:39.489088	38.3	25.7	-88.4	9.4
2025-01-01 15:47:40.647484	38.0	25.7	-88.7	6.7
2025-01-01 15:47:41.796614	37.7	25.8	-89.1	10.6
2025-01-01 15:47:42.951477	37.3	25.8	-88.8	7.1
2025-01-01 15:47:44.092927	37.0	25.9	-88.7	7.1
2025-01-01 15:47:45.250919	36.7	26.0	-88.8	14.7
2025-01-01 15:47:46.408801	36.4	26.0	-88.6	9.0
2025-01-01 15:47:47.558905	36.1	26.1	-89.3	7.9
2025-01-01 15:47:48.716853	35.7	26.1	-89.9	8.8
2025-01-01 15:47:49.870513	35.4	26.2	-90.0	9.7
2025-01-01 15:47:51.022649	35.1	26.2	-90.0	4.9
2025-01-01 15:47:52.172174	34.8	26.3	-89.9	6.3
2025-01-01 15:47:53.331339	34.4	26.3	-89.7	12.0
2025-01-01 15:47:54.483956	34.1	26.4	-89.6	6.8
2025-01-01 15:47:55.647966	33.8	26.4	-89.5	6.0
2025-01-01 15:47:56.800601	33.5	26.5	-89.8	4.2
2025-01-01 15:47:57.959256	33.1	26.5	-89.5	7.2
2025-01-01 15:47:59.115755	32.8	26.6	-89.3	6.6
2025-01-01 15:48:00.263368	32.5	26.6	-89.7	9.8
2025-01-01 15:48:01.414600	32.1	26.7	-90.3	10.1
2025-01-01 15:48:02.577116	31.8	26.7	-89.7	11.2
2025-01-01 15:48:03.731336	31.4	26.8	-89.7	7.4
2025-01-01 15:48:04.880569	31.1	26.8	-90.2	15.2
2025-01-01 15:48:06.041125	30.8	26.8	-90.2	9.8
2025-01-01 15:48:07.189847	30.4	26.9	-89.3	7.8
2025-01-01 15:48:08.344097	30.1	26.9	-89.8	9.6
2025-01-01 15:48:09.497303	29.7	27.0	-90.4	6.5
2025-01-01 15:48:10.653129	29.4	27.0	-89.7	5.2
2025-01-01 15:48:11.799126	29.1	27.0	-88.6	11.7
2025-01-01 15:48:12.952733	28.7	27.1	-89.2	8.4
2025-01-01 15:48:14.088845	28.4	27.1	-89.2	6.1
2025-01-01 15:48:15.209367	28.1	27.1	-89.0	7.8
2025-01-01 15:48:16.329432	27.7	27.2	-89.0	5.9
2025-01-01 15:48:17.450566	27.4	27.2	-89.0	4.5
2025-01-01 15:48:18.570740	27.0	27.2	-88.7	4.9
2025-01-01 15:48:19.691973	26.7	27.2	-89.3	5.9
2025-01-01 15:48:20.816077	26.4	27.3	-89.1	7.2
2025-01-01 15:48:21.946746	26.0	27.3	-88.8	7.2
2025-01-01 15:48:23.090613	25.7	27.3	-88.6	10.3
2025-01-01 15:48:24.240522	25.3	27.3	-88.0	15.7
2025-01-01 15:48:25.401714	25.0	27.4	-88.2	10.1
2025-01-01 15:48:26.554252	24.6	27.4	-89.1	11.8
2025-01-01 15:48:27.704107	24.3	27.4	-89.0	11.0
2025-01-01 15:48:28.863135	23.9	27.4	-89.8	5.7
2025-01-01 15:48:30.013052	23.6	27.4	-89.2	9.4
2025-01-01 15:48:31.166011	23.2	27.5	-89.0	7.7
2025-01-01 15:48:32.317970	22.9	27.5	-89.1	10.7
2025-01-01 15:48:33.470708	22.5	27.5	-89.2	8.9
2025-01-01 15:48:34.624988	22.2	27.5	-89.8	9.2
2025-01-01 15:48:35.778351	21.8	27.5	-89.6	13.4
2025-01-01 15:48:36.933248	21.5	27.5	-89.2	7.2
2025-01-01 15:48:38.092625	21.1	27.5	-88.4	4.1
2025-01-01 15:48:39.246143	20.8	27.5	-88.4	7.6
2025-01-01 15:48:40.400775	20.4	27.5	-88.8	7.5
2025-01-01 15:48:41.550617	20.1	27.5	-88.5	6.0
2025-01-01 15:48:42.702838	19.7	27.6	-89.0	8.1
2025-01-01 15:48:43.861068	19.3	27.6	-88.5	11.4
2025-01-01 15:48:45.024834	19.0	27.6	-88.4	8.4
2025-01-01 15:48:46.171377	18.6	27.6	-88.9	7.3
2025-01-01 15:48:47.319479	18.3	27.6	-89.5	13.8
2025-01-01 15:48:48.446480	17.9	27.6	-89.6	8.8
2025-01-01 15:48:49.591457	17.6	27.6	-89.8	10.4
2025-01-01 15:48:50.737158	17.2	27.5	-89.5	8.9
2025-01-01 15:48:51.878085	16.9	27.5	-90.1	12.7
2025-01-01 15:48:53.029716	16.5	27.5	-89.4	9.2
2025-01-01 15:48:54.174004	16.2	27.5	-89.3	8.8
2025-01-01 15:48:55.324362	15.8	27.5	-89.4	10.9
2025-01-01 15:48:56.479311	15.5	27.5	-89.7	7.7
2025-01-01 15:48:57.629979	15.1	27.5	-89.4	7.2
2025-01-01 15:48:58.777582	14.8	27.5	-89.1	9.2
2025-01-01 15:48:59.926398	14.4	27.5	-89.4	7.8
2025-01-01 15:49:01.068641	14.1	27.5	-88.4	9.8
2025-01-01 15:49:02.213691	13.7	27.4	-88.2	7.9
2025-01-01 15:49:03.362786	13.4	27.4	-89.0	8.1
2025-01-01 15:49:04.507604	13.0	27.4	-88.9	7.8
2025-01-01 15:49:05.650676	12.7	27.4	-88.5	8.1
2025-01-01 15:49:06.779905	12.3	27.4	-88.0	7.8
2025-01-01 15:49:07.925712	12.0	27.3	-88.6	8.1
2025-01-01 15:49:09.066581	11.6	27.3	-88.3	8.2
2025-01-01 15:49:10.217739	11.3	27.3	-88.5	9.1
2025-01-01 15:49:11.360952	11.0	27.3	-89.1	6.3
2025-01-01 15:49:12.510398	10.6	27.2	-89.6	5.4
2025-01-01 15:49:13.667071	10.3	27.2	-90.0	7.9
2025-01-01 15:49:14.820912	9.9	27.2	-90.4	5.3
2025-01-01 15:49:15.977490	9.6	27.1	-90.6	10.0
2025-01-01 15:49:17.130458	9.2	27.1	-90.0	7.3
2025-01-01 15:49:18.280310	8.9	27.1	-90.0	8.4
2025-01-01 15:49:19.434748	8.5	27.0	-90.1	6.3
2025-01-01 15:49:20.590473	8.2	27.0	-90.1	6.0
2025-01-01 15:49:21.745780	7.9	27.0	-89.0	7.3
2025-01-01 15:49:22.888396	7.5	26.9	-89.1	5.5
2025-01-01 15:49:24.035444	7.2	26.9	-89.0	5.1
2025-01-01 15:49:25.194923	6.8	26.9	-89.5	8.4
2025-01-01 15:49:26.345416	6.5	26.8	-89.8	9.9
2025-01-01 15:49:27.504242	6.2	26.8	-89.5	4.2
2025-01-01 15:49:28.658614	5.8	26.7	-89.5	4.5
2025-01-01 15:49:29.821059	5.5	26.7	-90.2	13.3
2025-01-01 15:49:30.975920	5.1	26.6	-90.1	6.3
2025-01-01 15:49:32.130020	4.8	26.6	-89.6	8.9
2025-01-01 15:49:33.283182	4.5	26.6	-90.0	10.3
2025-01-01 15:49:34.444665	4.1	26.5	-90.4	5.9
2025-01-01 15:49:35.601143	3.8	26.5	-90.1	5.8
2025-01-01 15:49:36.753558	3.5	26.4	-89.9	7.4
2025-01-01 15:49:37.911496	3.2	26.4	-89.4	8.2
2025-01-01 15:49:39.064273	2.8	26.3	-89.7	5.9
2025-01-01 15:49:40.222670	2.5	26.3	-89.6	10.6
2025-01-01 15:49:41.380882	2.2	26.2	-89.8	9.3
2025-01-01 15:49:42.531413	1.8	26.1	-90.1	5.5
2025-01-01 15:49:43.688949	1.5	26.1	-89.1	3.6
2025-01-01 15:49:44.840608	1.2	26.0	-89.5	11.2
2025-01-01 15:49:45.995207	0.9	26.0	-90.2	6.8
2025-01-01 15:49:47.148138	0.6	25.9	-89.9	5.9
2025-01-01 15:49:48.312042	0.2	25.9	-89.7	7.5
2025-01-01 15:49:49.459481	359.9	25.8	-90.2	7.1
2025-01-01 15:49:50.609759	359.6	25.7	-90.5	5.3
2025-01-01 15:49:51.766361	359.3	25.7	-90.4	7.5
2025-01-01 15:49:52.915508	359.0	25.6	-90.1	10.7
2025-01-01 15:49:54.067589	358.7	25.6	-90.3	5.6
2025-01-01 15:49:55.215384	358.4	25.5	-90.3	12.4
2025-01-01 15:49:56.367585	358.0	25.4	-89.7	9.2
2025-01-01 15:49:57.524410	357.7	25.4	-90.3	7.9
2025-01-01 15:49:58.681938	357.4	25.3	-90.7	9.0
2025-01-01 15:49:59.837072	357.1	25.2	-90.5	12.8
2025-01-01 15:50:00.986426	356.8	25.2	-90.4	5.4
2025-01-01 15:50:02.138045	356.5	25.1	-90.1	5.8
2025-01-01 15:50:03.289371	356.2	25.0	-90.2	10.4
2025-01-01 15:50:04.449057	355.9	25.0	-89.8	6.0
2025-01-01 15:50:05.597900	355.6	24.9	-89.8	11.3
2025-01-01 15:50:06.749776	355.3	24.8	-90.1	12.0
2025-01-01 15:50:07.894649	355.0	24.7	-90.1	14.9
2025-01-01 15:50:09.045544	354.7	24.7	-90.1	7.4
2025-01-01 15:50:10.202873	354.4	24.6	-89.7	13.3
2025-01-01 15:50:11.358555	354.1	24.5	-89.6	14.2
2025-01-01 15:50:12.507743	353.8	24.5	-88.5	6.8
2025-01-01 15:50:13.663637	353.5	24.4	-88.4	12.5
2025-01-01 15:50:14.822021	353.3	24.3	-88.5	11.5
2025-01-01 15:50:15.972649	353.0	24.2	-89.4	10.0
2025-01-01 15:50:17.126340	352.7	24.2	-89.3	11.8
2025-01-01 15:50:18.282958	352.4	24.1	-89.3	12.1
2025-01-01 15:50:19.445977	352.1	24.0	-89.1	10.7
2025-01-01 15:50:20.604599	351.8	23.9	-89.3	9.3
2025-01-01 15:50:21.756105	351.5	23.8	-89.9	13.5
2025-01-01 15:50:22.917092	351.3	23.8	-90.0	10.4
2025-01-01 15:50:24.074419	351.0	23.7	-90.0	6.2
2025-01-01 15:50:25.224428	350.7	23.6	-90.2	6.2
2025-01-01 15:50:26.391464	350.4	23.5	-89.8	13.3
2025-01-01 15:50:27.544076	350.2	23.4	-89.8	6.8
2025-01-01 15:50:28.708559	349.9	23.4	-89.5	7.8
2025-01-01 15:50:29.864100	349.6	23.3	-89.6	7.0
2025-01-01 15:50:31.020625	349.3	23.2	-89.6	7.6
2025-01-01 15:50:32.171751	349.1	23.1	-89.5	10.7
2025-01-01 15:50:33.326582	348.8	23.0	-89.2	11.8
2025-01-01 15:50:34.476799	348.5	22.9	-88.9	10.1
2025-01-01 15:50:35.634571	348.3	22.9	-88.7	9.2
2025-01-01 15:50:36.784573	348.0	22.8	-88.7	11.0
2025-01-01 15:50:37.947564	347.8	22.7	-89.2	8.9
2025-01-01 15:50:39.099865	347.5	22.6	-88.5	8.0
2025-01-01 15:50:40.256737	347.2	22.5	-88.6	10.8
2025-01-01 15:50:41.408445	347.0	22.4	-89.2	10.4
2025-01-01 15:50:42.556578	346.7	22.3	-89.5	5.9
2025-01-01 15:50:43.716850	346.5	22.3	-89.4	4.8
2025-01-01 15:50:44.871633	346.2	22.2	-89.5	8.6
2025-01-01 15:50:46.028852	346.0	22.1	-89.5	5.5
2025-01-01 15:50:47.175491	345.7	22.0	-88.9	3.2
2025-01-01 15:50:48.329874	345.5	21.9	-88.1	8.0
2025-01-01 15:50:49.481521	345.2	21.8	-88.4	4.9
2025-01-01 15:50:50.635388	345.0	21.7	-88.6	6.2
2025-01-01 15:50:51.787342	344.7	21.6	-88.9	10.4
2025-01-01 15:50:52.939199	344.5	21.6	-88.6	5.2
2025-01-01 15:50:54.092267	344.3	21.5	-88.3	6.4
2025-01-01 15:50:55.252919	344.0	21.4	-88.2	7.7
2025-01-01 15:50:56.408522	343.8	21.3	-88.0	6.2
2025-01-01 15:50:57.569764	343.5	21.2	-89.4	9.9
2025-01-01 15:50:58.717881	343.3	21.1	-89.6	13.0
2025-01-01 15:50:59.860947	343.1	21.0	-89.4	9.2
2025-01-01 15:51:01.007060	342.8	20.9	-89.3	9.3
2025-01-01 15:51:02.156406	342.6	20.8	-89.2	8.2
2025-01-01 15:51:03.277585	342.4	20.7	-89.2	8.4
2025-01-01 15:51:04.398225	342.2	20.7	-89.3	9.0
2025-01-01 15:51:05.518976	341.9	20.6	-87.2	5.2
2025-01-01 15:51:06.639422	341.7	20.5	-89.1	5.7
2025-01-01 15:51:07.759756	341.5	20.4	-88.4	6.7
2025-01-01 15:51:08.885372	341.3	20.3	-88.9	4.9
2025-01-01 15:51:10.009701	341.1	20.2	-88.8	4.5
2025-01-01 15:51:11.161106	340.8	20.1	-89.1	4.8
2025-01-01 15:51:12.309489	340.6	20.0	-89.4	7.3
2025-01-01 15:51:13.456952	340.4	19.9	-89.3	6.4
2025-01-01 15:51:14.605622	340.2	19.8	-90.0	2.6
2025-01-01 15:51:15.760286	340.0	19.8	-89.9	5.7
2025-01-01 15:51:16.910543	339.8	19.7	-89.6	6.2
2025-01-01 15:51:18.057854	339.5	19.6	-88.5	4.7
2025-01-01 15:51:19.209335	339.3	19.5	-88.7	5.1
2025-01-01 15:51:20.364140	339.1	19.4	-88.8	8.3
2025-01-01 15:51:21.517895	338.9	19.3	-89.6	5.4
2025-01-01 15:51:22.673197	338.7	19.2	-89.2	7.1
2025-01-01 15:51:23.831920	338.5	19.1	-89.1	6.0
2025-01-01 15:51:24.979977	338.3	19.0	-89.0	8.1
2025-01-01 15:51:26.140071	338.1	18.9	-88.6	10.9
2025-01-01 15:51:27.288282	337.9	18.8	-88.9	7.6
2025-01-01 15:51:28.448530	337.7	18.7	-89.0	6.8
2025-01-01 15:51:29.610405	337.5	18.6	-89.0	7.7
2025-01-01 15:51:30.764157	337.3	18.5	-89.3	4.8
2025-01-01 15:51:31.915773	337.1	18.5	-89.3	4.6
2025-01-01 15:51:33.068902	336.9	18.4	-90.1	3.9
2025-01-01 15:51:34.216379	336.7	18.3	-89.5	5.3
2025-01-01 15:51:35.369578	336.5	18.2	-89.3	6.7
2025-01-01 15:51:36.517563	336.3	18.1	-89.3	6.1
2025-01-01 15:51:37.667309	336.1	18.0	-89.4	6.1
2025-01-01 15:51:38.824076	335.9	17.9	-89.2	5.2
2025-01-01 15:51:39.972492	335.7	17.8	-89.7	6.2
2025-01-01 15:51:41.127522	335.5	17.7	-89.7	4.5
2025-01-01 15:51:42.281976	335.4	17.6	-89.8	3.8
2025-01-01 15:51:43.437033	335.2	17.5	-89.0	6.6
2025-01-01 15:51:44.583832	335.0	17.4	-89.4	5.5
2025-01-01 15:51:45.745946	334.8	17.3	-89.3	4.9
2025-01-01 15:51:46.896444	334.6	17.2	-89.1	5.9
2025-01-01 15:51:48.049118	334.4	17.2	-88.9	5.8
2025-01-01 15:51:49.210513	334.3	17.1	-89.2	4.7
2025-01-01 15:51:50.357813	334.1	17.0	-90.0	3.8
2025-01-01 15:51:51.520370	333.9	16.9	-89.9	6.0
2025-01-01 15:51:52.670853	333.7	16.8	-89.7	5.5
2025-01-01 15:51:53.824402	333.5	16.7	-89.5	6.4
2025-01-01 15:51:54.977110	333.4	16.6	-89.1	6.2
2025-01-01 15:51:56.129748	333.2	16.5	-89.5	10.1
2025-01-01 15:51:57.280260	333.0	16.4	-88.8	5.4
2025-01-01 15:51:58.432045	332.9	16.3	-88.2	3.9
2025-01-01 15:51:59.592101	332.7	16.2	-88.0	5.7
2025-01-01 15:52:00.748967	332.5	16.1	-88.2	5.1
2025-01-01 15:52:01.901250	332.3	16.0	-89.2	6.8
2025-01-01 15:52:03.049580	332.2	16.0	-89.4	5.0
2025-01-01 15:52:04.205460	332.0	15.9	-88.8	4.9
2025-01-01 15:52:05.365491	331.8	15.8	-88.7	7.3
2025-01-01 15:52:06.523835	331.7	15.7	-89.3	4.6
2025-01-01 15:52:07.674868	331.5	15.6	-89.6	6.5
2025-01-01 15:52:08.829513	331.4	15.5	-89.5	7.2
2025-01-01 15:52:09.990714	331.2	15.4	-89.6	5.8
2025-01-01 15:52:11.143974	331.0	15.3	-89.2	6.6
2025-01-01 15:52:12.303236	330.9	15.2	-88.6	3.6
2025-01-01 15:52:13.460169	330.7	15.1	-88.8	5.9
2025-01-01 15:52:14.605752	330.6	15.0	-89.3	7.2
2025-01-01 15:52:15.763723	330.4	14.9	-89.3	4.4
2025-01-01 15:52:16.919037	330.2	14.9	-89.0	7.5
2025-01-01 15:52:18.072643	330.1	14.8	-88.8	7.4
2025-01-01 15:52:19.221750	329.9	14.7	-89.1	6.4
#Closed at: 2025-01-01 15:45:21.205270