passes_logs/2025/01/01/LEX_Murmansk/LEX_Murmansk__20250101_183634_NOAA_19_rec.log

#Pass ID: 20250101_183634_NOAA 19
#Satellite: NOAA 19
#Configuration: NOAA 19
#Start time: 2025-01-01 18:36:29.618054

#LorettStation: 1.0.0 05.05.2024
#Station: LEX_Murmansk
#Location: 33.156738 lon 68.926811 lat
#TLE: 1 33591U 09005A   24366.84452498  .00000596  00000+0  34214-3 0  9996
#TLE: 2 33591  99.0219  64.4961 0014693  95.1476 265.1373 14.13246120819287

#Time	Az	El	Level	SNR
2025-01-01 18:36:41.827122	181.6	16.3	-89.5	4.4
2025-01-01 18:36:44.153547	181.7	16.5	-89.1	2.4
2025-01-01 18:36:46.482734	181.9	16.8	-90.1	3.7
2025-01-01 18:36:48.811589	182.1	17.0	-89.4	3.4
2025-01-01 18:36:51.132550	182.2	17.3	-89.5	3.6
2025-01-01 18:36:53.455544	182.4	17.5	-89.6	2.2
2025-01-01 18:36:55.748421	182.6	17.8	-89.7	2.6
2025-01-01 18:36:58.000450	182.7	18.0	-90.1	3.0
2025-01-01 18:37:00.241972	182.9	18.3	-89.3	1.6
2025-01-01 18:37:02.486015	183.1	18.5	-89.5	3.4
2025-01-01 18:37:04.840499	183.3	18.8	-90.2	3.2
2025-01-01 18:37:07.144790	183.5	19.1	-89.9	2.0
2025-01-01 18:37:09.476455	183.7	19.4	-89.2	6.3
2025-01-01 18:37:11.753045	183.9	19.6	-89.4	5.8
2025-01-01 18:37:14.064414	184.1	19.9	-89.1	6.0
2025-01-01 18:37:16.368856	184.3	20.2	-89.0	6.4
2025-01-01 18:37:18.697252	184.5	20.5	-88.8	5.0
2025-01-01 18:37:21.017114	184.7	20.8	-89.7	1.7
2025-01-01 18:37:23.344708	184.9	21.1	-89.3	1.5
2025-01-01 18:37:25.672074	185.1	21.4	-89.6	5.6
2025-01-01 18:37:27.992473	185.3	21.7	-89.5	7.8
2025-01-01 18:37:30.312883	185.6	22.0	-89.9	4.0
2025-01-01 18:37:32.643899	185.8	22.3	-89.9	10.9
2025-01-01 18:37:34.962985	186.0	22.6	-90.4	9.9
2025-01-01 18:37:37.282293	186.3	22.9	-89.7	3.2
2025-01-01 18:37:39.605434	186.5	23.2	-89.6	2.4
2025-01-01 18:37:41.934479	186.8	23.5	-89.9	4.1
2025-01-01 18:37:44.249390	187.0	23.8	-89.5	8.7
2025-01-01 18:37:46.576614	187.3	24.2	-90.0	3.9
2025-01-01 18:37:48.908088	187.5	24.5	-89.5	5.3
2025-01-01 18:37:51.234644	187.8	24.8	-89.2	8.7
2025-01-01 18:37:53.557989	188.1	25.2	-89.0	1.6
2025-01-01 18:37:55.852639	188.3	25.5	-89.0	1.3
2025-01-01 18:37:58.094321	188.6	25.8	-90.1	3.2
2025-01-01 18:38:00.336815	188.9	26.1	-90.1	4.5
2025-01-01 18:38:02.582921	189.2	26.5	-90.4	7.9
2025-01-01 18:38:04.860721	189.5	26.8	-90.8	4.0
2025-01-01 18:38:07.182913	189.8	27.2	-90.3	5.8
2025-01-01 18:38:09.502945	190.1	27.5	-90.0	7.1
2025-01-01 18:38:11.828423	190.4	27.9	-90.4	1.9
2025-01-01 18:38:14.146430	190.8	28.3	-89.8	3.6
2025-01-01 18:38:16.480489	191.1	28.6	-90.0	4.9
2025-01-01 18:38:18.810132	191.5	29.0	-90.1	7.5
2025-01-01 18:38:21.146295	191.8	29.4	-90.0	7.1
2025-01-01 18:38:23.475658	192.2	29.8	-90.0	4.3
2025-01-01 18:38:25.793465	192.5	30.2	-90.4	6.5
2025-01-01 18:38:28.126559	192.9	30.6	-90.2	5.8
2025-01-01 18:38:30.459739	193.3	31.0	-90.7	2.8
2025-01-01 18:38:32.774474	193.7	31.4	-90.1	2.9
2025-01-01 18:38:35.054480	194.1	31.8	-90.5	6.1
2025-01-01 18:38:37.353314	194.5	32.2	-90.0	6.6
2025-01-01 18:38:39.674365	195.0	32.6	-89.9	9.1
2025-01-01 18:38:41.995633	195.4	33.0	-90.2	8.2
2025-01-01 18:38:44.316971	195.8	33.4	-89.5	7.4
2025-01-01 18:38:46.637834	196.3	33.8	-89.8	8.9
2025-01-01 18:38:48.961834	196.8	34.2	-89.9	5.1
2025-01-01 18:38:51.285442	197.3	34.7	-89.9	2.4
2025-01-01 18:38:53.603185	197.8	35.1	-89.9	2.6
2025-01-01 18:38:55.925145	198.3	35.5	-90.0	6.0
2025-01-01 18:38:58.252330	198.8	36.0	-89.9	10.1
2025-01-01 18:39:00.570091	199.3	36.4	-89.7	5.8
2025-01-01 18:39:02.892325	199.9	36.9	-90.2	8.1
2025-01-01 18:39:05.225242	200.5	37.3	-89.9	9.3
2025-01-01 18:39:07.545096	201.0	37.8	-89.8	9.5
2025-01-01 18:39:09.859327	201.6	38.2	-90.1	4.1
2025-01-01 18:39:12.162899	202.2	38.7	-90.0	3.9
2025-01-01 18:39:14.412490	202.9	39.1	-90.1	6.4
2025-01-01 18:39:16.653302	203.5	39.6	-89.4	7.4
2025-01-01 18:39:18.894294	204.1	40.0	-90.5	14.1
2025-01-01 18:39:21.155445	204.8	40.5	-89.4	9.6
2025-01-01 18:39:23.463709	205.5	40.9	-90.3	7.9
2025-01-01 18:39:25.771499	206.2	41.4	-89.8	9.7
2025-01-01 18:39:28.093868	207.0	41.9	-90.7	15.2
2025-01-01 18:39:30.425183	207.7	42.4	-89.9	10.8
2025-01-01 18:39:32.749645	208.5	42.8	-90.6	6.5
2025-01-01 18:39:35.068324	209.4	43.3	-89.8	5.2
2025-01-01 18:39:37.396311	210.2	43.8	-90.1	6.5
2025-01-01 18:39:39.718588	211.1	44.2	-90.4	8.8
2025-01-01 18:39:42.045558	211.9	44.7	-89.8	12.8
2025-01-01 18:39:44.369695	212.9	45.2	-90.0	9.8
2025-01-01 18:39:46.699979	213.8	45.6	-90.0	7.6
2025-01-01 18:39:49.028600	214.8	46.1	-90.5	7.1
2025-01-01 18:39:51.350458	215.8	46.5	-90.2	5.5
2025-01-01 18:39:53.674966	216.8	47.0	-90.5	8.2
2025-01-01 18:39:55.987294	217.9	47.4	-90.5	9.6
2025-01-01 18:39:58.316066	218.9	47.9	-90.0	4.8
2025-01-01 18:40:00.635761	220.1	48.3	-90.1	7.5
2025-01-01 18:40:02.958075	221.2	48.7	-90.1	5.4
2025-01-01 18:40:05.274903	222.4	49.1	-89.8	5.2
2025-01-01 18:40:07.595330	223.6	49.6	-90.5	13.9
2025-01-01 18:40:09.923003	224.8	50.0	-90.3	15.8
2025-01-01 18:40:12.239687	226.1	50.3	-90.0	15.8
2025-01-01 18:40:14.562402	227.4	50.7	-90.4	13.8
2025-01-01 18:40:16.892022	228.7	51.1	-90.2	8.1
2025-01-01 18:40:19.212886	230.1	51.4	-90.1	7.0
2025-01-01 18:40:21.532884	231.5	51.7	-90.5	9.0
2025-01-01 18:40:23.855837	232.9	52.1	-90.0	13.7
2025-01-01 18:40:26.171886	234.4	52.4	-89.7	10.6
2025-01-01 18:40:28.498799	235.9	52.6	-90.1	6.0
2025-01-01 18:40:30.817616	237.4	52.9	-89.8	7.8
2025-01-01 18:40:33.089332	238.9	53.1	-90.9	7.1
2025-01-01 18:40:35.331885	240.4	53.4	-89.9	4.6
2025-01-01 18:40:37.572449	242.0	53.6	-90.1	5.4
2025-01-01 18:40:39.818754	243.5	53.7	-89.9	2.7
2025-01-01 18:40:42.132545	245.1	53.9	-90.2	5.2
2025-01-01 18:40:44.430388	246.8	54.0	-90.0	7.1
2025-01-01 18:40:46.711852	248.4	54.2	-90.5	4.4
2025-01-01 18:40:49.011506	250.1	54.3	-90.9	7.5
2025-01-01 18:40:51.309199	251.7	54.3	-90.4	6.4
2025-01-01 18:40:53.592398	253.4	54.4	-90.1	5.5
2025-01-01 18:40:55.903978	255.1	54.4	-89.7	8.2
2025-01-01 18:40:58.225593	256.8	54.4	-89.7	10.8
2025-01-01 18:41:00.540642	258.4	54.4	-89.9	8.0
2025-01-01 18:41:02.859753	260.1	54.3	-90.1	12.6
2025-01-01 18:41:05.144861	261.8	54.2	-90.0	7.4
2025-01-01 18:41:07.448204	263.4	54.1	-90.3	14.9
2025-01-01 18:41:09.757992	265.1	54.0	-90.4	8.1
2025-01-01 18:41:12.081974	266.7	53.9	-90.1	14.5
2025-01-01 18:41:14.406510	268.3	53.7	-90.3	9.5
2025-01-01 18:41:16.717744	269.9	53.5	-90.3	8.3
2025-01-01 18:41:18.993373	271.5	53.3	-90.5	7.4
2025-01-01 18:41:21.293865	273.0	53.1	-90.4	6.9
2025-01-01 18:41:23.604606	274.6	52.8	-90.1	10.3
2025-01-01 18:41:25.917331	276.1	52.5	-89.9	12.9
2025-01-01 18:41:28.230615	277.5	52.3	-90.2	5.6
2025-01-01 18:41:30.509783	278.9	52.0	-90.3	6.0
2025-01-01 18:41:32.811279	280.4	51.6	-90.3	3.6
2025-01-01 18:41:35.120257	281.7	51.3	-90.1	8.2
2025-01-01 18:41:37.419303	283.1	51.0	-90.7	2.7
2025-01-01 18:41:39.716167	284.4	50.6	-90.1	4.4
2025-01-01 18:41:42.019982	285.7	50.2	-90.2	8.9
2025-01-01 18:41:44.309595	286.9	49.8	-90.3	3.7
2025-01-01 18:41:46.616609	288.1	49.5	-90.2	7.4
2025-01-01 18:41:48.938232	289.3	49.0	-89.4	10.1
2025-01-01 18:41:51.255248	290.5	48.6	-90.1	1.1
2025-01-01 18:41:53.577068	291.6	48.2	-90.0	5.2
2025-01-01 18:41:55.854531	292.7	47.8	-89.5	2.5
2025-01-01 18:41:58.159159	293.8	47.3	-90.2	2.5
2025-01-01 18:42:00.456410	294.8	46.9	-90.3	6.2
2025-01-01 18:42:02.770057	295.9	46.5	-89.4	9.3
2025-01-01 18:42:05.071450	296.8	46.0	-89.1	10.6
2025-01-01 18:42:07.349088	297.8	45.6	-90.0	13.6
2025-01-01 18:42:09.655941	298.7	45.1	-90.3	14.6
2025-01-01 18:42:11.961486	299.6	44.6	-90.3	14.0
2025-01-01 18:42:14.268463	300.5	44.2	-89.8	11.8
2025-01-01 18:42:16.591362	301.3	43.7	-90.2	10.0
2025-01-01 18:42:18.922355	302.2	43.2	-90.4	6.7
2025-01-01 18:42:21.252179	303.0	42.8	-90.3	7.4
2025-01-01 18:42:23.575019	303.8	42.3	-90.0	6.0
2025-01-01 18:42:25.891422	304.5	41.8	-90.0	3.9
2025-01-01 18:42:28.213526	305.3	41.4	-89.9	5.1
2025-01-01 18:42:30.537175	306.0	40.9	-90.2	6.7
2025-01-01 18:42:32.860255	306.7	40.4	-90.2	7.9
2025-01-01 18:42:35.177720	307.4	40.0	-89.7	8.8
2025-01-01 18:42:37.501367	308.1	39.5	-90.2	8.6
2025-01-01 18:42:39.829885	308.7	39.0	-89.4	7.4
2025-01-01 18:42:42.157815	309.3	38.6	-90.3	4.5
2025-01-01 18:42:44.481345	310.0	38.1	-90.1	14.9
2025-01-01 18:42:46.808009	310.5	37.7	-90.6	8.5
2025-01-01 18:42:49.131831	311.1	37.2	-90.4	8.4
2025-01-01 18:42:51.392799	311.7	36.8	-90.5	3.6
2025-01-01 18:42:53.635259	312.2	36.3	-90.3	7.4
2025-01-01 18:42:55.876280	312.7	35.9	-90.6	3.4
2025-01-01 18:42:58.125804	313.2	35.5	-89.9	6.6
2025-01-01 18:43:00.427757	313.7	35.1	-90.2	5.6
2025-01-01 18:43:02.720179	314.2	34.6	-90.2	4.5
2025-01-01 18:43:05.037471	314.7	34.2	-90.0	11.4
2025-01-01 18:43:07.357410	315.2	33.8	-89.8	11.7
2025-01-01 18:43:09.688852	315.6	33.4	-90.0	8.3
2025-01-01 18:43:12.013313	316.1	33.0	-90.2	8.2
2025-01-01 18:43:14.346832	316.5	32.5	-89.9	6.2
2025-01-01 18:43:16.670740	316.9	32.1	-90.0	6.1
2025-01-01 18:43:18.998744	317.4	31.7	-90.4	6.3
2025-01-01 18:43:21.320476	317.8	31.3	-90.3	9.2
2025-01-01 18:43:23.647632	318.2	30.9	-90.1	9.4
2025-01-01 18:43:25.972648	318.5	30.5	-90.4	17.1
2025-01-01 18:43:28.291620	318.9	30.1	-90.6	5.6
2025-01-01 18:43:30.617257	319.3	29.8	-90.7	4.3
2025-01-01 18:43:32.945367	319.7	29.4	-89.7	3.7
2025-01-01 18:43:35.266744	320.0	29.0	-90.9	3.9
2025-01-01 18:43:37.585274	320.4	28.6	-90.7	4.6
2025-01-01 18:43:39.910356	320.7	28.3	-90.5	7.6
2025-01-01 18:43:42.232126	321.0	27.9	-90.1	13.3
2025-01-01 18:43:44.549798	321.3	27.5	-90.1	13.4
2025-01-01 18:43:46.873197	321.7	27.2	-90.5	8.2
2025-01-01 18:43:49.199362	322.0	26.8	-90.1	8.3
2025-01-01 18:43:51.525327	322.3	26.5	-89.4	5.5
2025-01-01 18:43:53.852533	322.6	26.1	-89.7	4.5
2025-01-01 18:43:56.177888	322.9	25.8	-90.2	6.2
2025-01-01 18:43:58.500542	323.1	25.4	-90.5	4.4
2025-01-01 18:44:00.821901	323.4	25.1	-90.4	9.6
2025-01-01 18:44:03.151313	323.7	24.8	-90.4	9.3
2025-01-01 18:44:05.482359	324.0	24.4	-90.7	6.2
2025-01-01 18:44:07.806795	324.2	24.1	-90.7	3.2
2025-01-01 18:44:10.139154	324.5	23.8	-90.3	5.5
2025-01-01 18:44:12.469982	324.7	23.5	-90.7	7.9
2025-01-01 18:44:14.796237	325.0	23.2	-89.8	11.0
2025-01-01 18:44:17.119457	325.2	22.8	-90.2	4.5
2025-01-01 18:44:19.435862	325.5	22.5	-89.6	4.8
2025-01-01 18:44:21.703198	325.7	22.2	-90.7	5.7
2025-01-01 18:44:23.943940	325.9	21.9	-90.4	4.1
2025-01-01 18:44:26.184662	326.1	21.7	-90.7	5.2
2025-01-01 18:44:28.429175	326.3	21.4	-90.7	10.5
2025-01-01 18:44:30.729948	326.6	21.1	-90.2	4.4
2025-01-01 18:44:33.015563	326.8	20.8	-90.0	5.2
2025-01-01 18:44:35.315126	327.0	20.5	-89.9	3.4
2025-01-01 18:44:37.618893	327.2	20.2	-90.7	3.0
2025-01-01 18:44:39.940143	327.4	19.9	-90.2	3.4
2025-01-01 18:44:42.267244	327.6	19.7	-90.4	2.9
2025-01-01 18:44:44.594185	327.8	19.4	-90.9	3.7
2025-01-01 18:44:46.914191	328.0	19.1	-90.0	1.4
2025-01-01 18:44:49.243286	328.2	18.8	-90.1	3.3
2025-01-01 18:44:51.558845	328.4	18.6	-90.5	4.2
2025-01-01 18:44:53.884533	328.5	18.3	-90.6	3.4
2025-01-01 18:44:56.205156	328.7	18.0	-90.0	3.2
2025-01-01 18:44:58.532403	328.9	17.8	-89.5	2.4
2025-01-01 18:45:00.852150	329.1	17.5	-89.8	1.4
2025-01-01 18:45:03.168906	329.2	17.3	-90.0	2.2
2025-01-01 18:45:05.493766	329.4	17.0	-90.0	4.5
2025-01-01 18:45:07.834492	329.6	16.8	-90.1	2.9
2025-01-01 18:45:10.145621	329.7	16.5	-89.7	2.2
2025-01-01 18:45:12.456538	329.9	16.3	-90.3	3.9
2025-01-01 18:45:14.779115	330.1	16.0	-90.6	3.9
2025-01-01 18:45:17.098391	330.2	15.8	-90.4	2.5
2025-01-01 18:45:19.428666	330.4	15.5	-88.5	2.4
2025-01-01 18:45:21.751485	330.5	15.3	-90.5	2.3
2025-01-01 18:45:24.069098	330.7	15.1	-90.8	3.2
2025-01-01 18:45:26.374950	330.8	14.8	-90.4	2.8
2025-01-01 18:45:28.696135	331.0	14.6	-89.8	3.6
#Closed at: 2025-01-01 18:36:34.639673