passes_logs/2026/01/18/R4.6S_Anadyr/R4.6S_Anadyr__20260118_194709_FENGYUN_3D_rec.log

#Pass ID: 20260118_194709_FENGYUN 3D
#Satellite: FENGYUN 3D
#Configuration: FENGYUN 3D
#almurnet v.1.7.20251203
#Start time: 2026-01-18 19:47:12

#Version: 2.2.20231116
#Station: R4.6S_Anadyr
#Location: 177.4865 lon 64.73178 lat
#TLE: 1 43010U 17072A   26017.96359538  .00000271  00000+0  15011-3 0  9999
#TLE: 2 43010  98.9936 349.8252 0002386 103.8840 256.2601 14.19697057423673

#Time	Az	El	Level	Level2	SNR	BER	BlckErr	Temp	State	Recorded	gain1	gain2
2026-01-18 19:47:12.16	34.48	0.13	-50.1	-67.8	3.5	3.02e+01	0	38	0	0	60	94484
2026-01-18 19:47:16.19	34.23	0.35	-49.7	-61.8	3.6	8.47e-01	0	39	104	0	60	44408
2026-01-18 19:47:20.23	33.97	0.56	-49.7	-61.9	3.6	8.44e-01	0	40	104	0	60	44991
2026-01-18 19:47:24.27	33.71	0.77	-49.7	-61.8	3.6	8.46e-01	0	40	104	0	60	44309
2026-01-18 19:47:28.30	33.45	0.99	-49.4	-61.5	3.6	8.44e-01	0	40	104	0	60	42970
2026-01-18 19:47:32.34	33.18	1.20	-49.1	-61.2	3.6	8.46e-01	0	40	104	0	60	41604
2026-01-18 19:47:36.38	32.91	1.42	-48.1	-60.2	3.6	8.45e-01	0	40	104	0	60	37114
2026-01-18 19:47:40.42	32.63	1.64	-47.8	-59.9	3.5	8.45e-01	0	40	104	0	60	35741
2026-01-18 19:47:44.45	32.35	1.86	-47.8	-60.0	3.6	8.45e-01	0	40	104	0	60	35966
2026-01-18 19:47:48.49	32.06	2.08	-47.8	-59.8	3.6	8.46e-01	0	40	104	0	60	35160
2026-01-18 19:47:52.52	31.78	2.30	-47.7	-59.2	3.6	8.45e-01	0	40	104	0	60	32850
2026-01-18 19:47:56.56	31.48	2.52	-47.8	-59.6	3.6	8.45e-01	0	40	104	0	60	34543
2026-01-18 19:48:00.60	31.18	2.75	-47.8	-59.6	3.6	8.46e-01	0	40	104	0	60	34648
2026-01-18 19:48:04.64	30.88	2.97	-47.5	-57.1	3.6	8.37e-01	0	40	104	0	60	25853
2026-01-18 19:48:08.68	30.57	3.20	-46.4	-51.0	7.1	2.72e-01	0	40	0	3145728	60	12815
2026-01-18 19:48:12.72	30.26	3.42	-45.6	-49.6	10.5	7.31e-01	0	40	104	14680064	60	10870
2026-01-18 19:48:16.76	29.94	3.65	-37.6	-38.5	20.6	0.00e+00	0	40	0	29360128	48	6054
2026-01-18 19:48:20.80	29.61	3.88	-38.2	-39.1	20.2	0.00e+00	0	40	0	51380224	48	6518
2026-01-18 19:48:24.84	29.28	4.11	-38.0	-39.0	19.9	0.00e+00	0	41	0	74448896	48	6391
2026-01-18 19:48:28.88	28.95	4.34	-38.1	-39.1	20.3	0.00e+00	0	41	0	97517568	48	6481
2026-01-18 19:48:32.92	28.61	4.57	-37.7	-38.6	20.7	0.00e+00	0	40	0	119537664	48	6124
2026-01-18 19:48:36.96	28.26	4.81	-37.3	-38.2	21.1	0.00e+00	0	41	0	142606336	48	5855
2026-01-18 19:48:41.00	27.91	5.04	-37.3	-38.1	21.2	0.00e+00	0	41	0	165675008	48	5819
2026-01-18 19:48:45.04	27.55	5.27	-36.8	-37.6	21.7	0.00e+00	0	41	0	187695104	48	5492
2026-01-18 19:48:49.07	27.19	5.51	-36.7	-37.5	21.9	0.00e+00	0	41	0	210763776	46	6084
2026-01-18 19:48:53.11	26.82	5.75	-37.0	-37.8	21.6	0.00e+00	0	41	0	233832448	46	6293
2026-01-18 19:48:57.15	26.44	5.98	-36.8	-37.6	21.8	0.00e+00	0	41	0	255852544	46	6166
2026-01-18 19:49:01.19	26.06	6.22	-36.7	-37.6	22.0	0.00e+00	0	41	0	278921216	46	6104
2026-01-18 19:49:05.23	25.67	6.46	-36.6	-37.4	22.1	0.00e+00	0	41	0	301989888	46	6000
2026-01-18 19:49:09.27	25.27	6.70	-36.4	-37.2	22.3	0.00e+00	0	41	0	325058560	46	5829
2026-01-18 19:49:13.31	24.87	6.95	-36.4	-37.2	22.5	0.00e+00	0	41	0	347078656	46	5846
2026-01-18 19:49:17.35	24.46	7.19	-36.5	-37.3	22.4	0.00e+00	0	41	0	370147328	46	5915
2026-01-18 19:49:21.39	24.04	7.43	-36.3	-37.1	22.6	0.00e+00	0	41	0	392167424	46	5769
2026-01-18 19:49:25.43	23.61	7.68	-36.1	-36.9	22.8	0.00e+00	0	41	0	415236096	46	5660
2026-01-18 19:49:29.47	23.18	7.92	-36.0	-36.8	22.9	0.00e+00	0	41	0	438304768	46	5593
2026-01-18 19:49:33.51	22.74	8.17	-36.2	-37.0	22.7	0.00e+00	0	41	0	460324864	46	5704
2026-01-18 19:49:37.55	22.29	8.41	-36.1	-36.8	22.9	0.00e+00	0	41	0	483393536	46	5621
2026-01-18 19:49:41.59	21.84	8.66	-35.8	-36.5	23.3	0.00e+00	0	41	0	506462208	46	5404
2026-01-18 19:49:45.63	21.38	8.91	-35.5	-36.2	23.5	0.00e+00	0	41	0	529530880	44	5869
2026-01-18 19:49:49.66	20.90	9.16	-35.3	-36.0	23.8	0.00e+00	0	41	0	551550976	44	5723
2026-01-18 19:49:53.70	20.42	9.41	-35.1	-35.8	23.9	0.00e+00	0	41	0	574619648	44	5630
2026-01-18 19:49:57.74	19.94	9.66	-35.1	-35.8	23.9	0.00e+00	0	41	0	596639744	44	5602
2026-01-18 19:50:01.78	19.44	9.91	-35.4	-36.1	23.6	0.00e+00	0	41	0	619708416	44	5784
2026-01-18 19:50:05.81	18.93	10.16	-35.1	-35.8	24.0	0.00e+00	0	41	0	642777088	44	5588
2026-01-18 19:50:09.85	18.42	10.41	-35.2	-36.0	23.8	0.00e+00	0	41	0	664797184	44	5702
2026-01-18 19:50:13.89	17.89	10.66	-35.1	-35.8	24.0	0.00e+00	0	41	0	687865856	44	5574
2026-01-18 19:50:17.94	17.36	10.91	-34.9	-35.6	24.3	0.00e+00	0	41	0	710934528	44	5444
2026-01-18 19:50:21.97	16.82	11.16	-34.9	-35.6	24.2	0.00e+00	0	41	0	734003200	44	5448
2026-01-18 19:50:26.01	16.27	11.41	-34.9	-35.6	24.2	0.00e+00	0	41	0	756023296	44	5479
2026-01-18 19:50:30.05	15.70	11.66	-34.6	-35.3	24.6	0.00e+00	0	41	0	779091968	42	5943
2026-01-18 19:50:34.09	15.13	11.92	-34.6	-35.3	24.6	0.00e+00	0	41	0	801112064	42	5909
2026-01-18 19:50:38.12	14.55	12.17	-34.6	-35.3	24.6	0.00e+00	0	41	0	824180736	42	5916
2026-01-18 19:50:42.15	13.96	12.42	-34.4	-35.1	24.8	0.00e+00	0	41	0	847249408	42	5772
2026-01-18 19:50:46.19	13.36	12.67	-34.4	-35.0	24.8	0.00e+00	0	41	0	869269504	42	5751
2026-01-18 19:50:50.23	12.74	12.91	-34.5	-35.2	24.7	0.00e+00	0	41	0	892338176	42	5865
2026-01-18 19:50:54.27	12.12	13.16	-34.2	-34.9	25.0	0.00e+00	0	41	0	915406848	42	5669
2026-01-18 19:50:58.31	11.48	13.41	-34.3	-34.9	25.0	0.00e+00	0	41	0	937426944	42	5690
2026-01-18 19:51:02.34	10.84	13.66	-34.1	-34.8	25.1	0.00e+00	0	41	0	960495616	42	5589
2026-01-18 19:51:06.38	10.18	13.90	-34.2	-34.9	25.0	0.00e+00	0	41	0	983564288	42	5643
2026-01-18 19:51:10.43	9.51	14.15	-34.0	-34.7	25.3	0.00e+00	0	41	0	1005584384	42	5521
2026-01-18 19:51:14.47	8.83	14.39	-33.8	-34.5	25.3	0.00e+00	0	41	0	1028653056	40	6048
2026-01-18 19:51:18.50	8.14	14.63	-33.8	-34.5	25.4	0.00e+00	0	41	0	1051721728	40	6049
2026-01-18 19:51:22.54	7.44	14.87	-34.3	-35.0	25.0	0.00e+00	0	41	0	1073741824	40	6412
2026-01-18 19:51:26.58	6.73	15.10	-33.8	-34.5	25.5	0.00e+00	0	41	0	1096810496	40	6070
2026-01-18 19:51:30.61	6.01	15.34	-33.7	-34.3	25.6	0.00e+00	0	41	0	1119879168	40	5954
2026-01-18 19:51:34.65	5.27	15.57	-33.4	-34.1	25.8	0.00e+00	0	41	0	1141899264	40	5782
2026-01-18 19:51:38.70	4.52	15.80	-33.4	-34.1	25.8	0.00e+00	0	41	0	1164967936	40	5794
2026-01-18 19:51:42.74	3.76	16.02	-33.6	-34.3	25.6	0.00e+00	0	41	0	1188036608	40	5906
2026-01-18 19:51:46.78	2.99	16.25	-33.3	-34.0	25.9	0.00e+00	0	41	0	1210056704	40	5740
2026-01-18 19:51:50.82	2.20	16.47	-33.3	-34.0	25.8	0.00e+00	0	41	0	1233125376	40	5727
2026-01-18 19:51:54.86	1.41	16.68	-33.3	-34.0	25.9	0.00e+00	0	41	0	1256194048	40	5704
2026-01-18 19:51:58.90	0.60	16.89	-33.1	-33.8	26.0	0.00e+00	0	41	0	1278214144	40	5600
2026-01-18 19:52:02.95	359.78	17.10	-33.2	-33.8	26.1	0.00e+00	0	41	0	1301282816	40	5620
2026-01-18 19:52:06.99	358.95	17.31	-33.0	-33.6	26.2	0.00e+00	0	41	0	1324351488	40	5482
2026-01-18 19:52:11.03	358.11	17.51	-32.8	-33.5	26.3	0.00e+00	0	41	0	1347420160	40	5386
2026-01-18 19:52:15.07	357.26	17.70	-32.9	-33.5	26.3	0.00e+00	0	41	0	1369440256	40	5422
2026-01-18 19:52:19.10	356.40	17.89	-33.1	-33.7	26.2	0.00e+00	0	41	0	1392508928	40	5532
2026-01-18 19:52:23.14	355.52	18.07	-32.6	-33.2	26.6	0.00e+00	0	41	0	1414529024	38	5882
2026-01-18 19:52:27.18	354.64	18.25	-32.7	-33.3	26.5	0.00e+00	0	41	0	1437597696	38	5962
2026-01-18 19:52:31.22	353.74	18.42	-32.6	-33.2	26.6	0.00e+00	0	41	0	1460666368	38	5860
2026-01-18 19:52:35.26	352.84	18.59	-32.9	-33.6	26.2	0.00e+00	0	41	0	1482686464	38	6160
2026-01-18 19:52:39.29	351.93	18.75	-32.9	-33.6	26.4	0.00e+00	0	41	0	1505755136	38	6111
2026-01-18 19:52:43.33	351.00	18.90	-33.0	-33.6	26.3	0.00e+00	0	41	0	1528823808	38	6141
2026-01-18 19:52:47.37	350.07	19.05	-32.8	-33.5	26.4	0.00e+00	0	41	0	1550843904	38	6069
2026-01-18 19:52:51.41	349.13	19.19	-32.5	-33.1	26.7	0.00e+00	0	41	0	1573912576	38	5801
2026-01-18 19:52:55.44	348.18	19.32	-32.2	-32.8	26.9	0.00e+00	0	41	0	1596981248	38	5619
2026-01-18 19:52:59.48	347.22	19.44	-32.2	-32.8	27.0	0.00e+00	0	41	0	1619001344	38	5595
2026-01-18 19:53:03.52	346.25	19.56	-32.2	-32.9	26.9	0.00e+00	0	41	0	1642070016	38	5664
2026-01-18 19:53:07.56	345.28	19.66	-32.1	-32.7	27.0	0.00e+00	0	41	0	1665138688	38	5548
2026-01-18 19:53:11.60	344.30	19.76	-32.1	-32.7	27.1	0.00e+00	0	41	0	1687158784	38	5523
2026-01-18 19:53:15.64	343.31	19.85	-32.1	-32.8	27.0	0.00e+00	0	41	0	1710227456	38	5573
2026-01-18 19:53:19.68	342.32	19.93	-32.3	-32.9	26.9	0.00e+00	0	41	0	1733296128	38	5665
2026-01-18 19:53:23.71	341.32	20.01	-32.2	-32.9	27.0	0.00e+00	0	41	0	1755316224	38	5637
2026-01-18 19:53:27.75	340.32	20.07	-32.3	-32.9	26.8	0.00e+00	0	41	0	1778384896	38	5633
2026-01-18 19:53:31.79	339.31	20.13	-32.3	-33.0	26.8	0.00e+00	0	41	0	1801453568	38	5713
2026-01-18 19:53:35.83	338.30	20.17	-32.3	-32.9	26.9	0.00e+00	0	41	0	1823473664	38	5680
2026-01-18 19:53:39.87	337.29	20.21	-32.2	-32.9	26.9	0.00e+00	0	41	0	1846542336	38	5658
2026-01-18 19:53:43.91	336.28	20.24	-32.3	-33.0	26.8	0.00e+00	0	41	0	1869611008	38	5714
2026-01-18 19:53:47.94	335.26	20.26	-32.6	-33.3	26.5	0.00e+00	0	41	0	1891631104	38	5906
2026-01-18 19:53:51.98	334.24	20.26	-32.2	-32.9	26.9	0.00e+00	0	41	0	1914699776	38	5665
2026-01-18 19:53:56.02	333.23	20.26	-32.1	-32.7	26.9	0.00e+00	0	41	0	1937768448	38	5565
2026-01-18 19:54:00.06	332.21	20.25	-32.2	-32.8	27.0	0.00e+00	0	41	0	1959788544	38	5608
2026-01-18 19:54:04.10	331.19	20.23	-32.3	-33.0	26.9	0.00e+00	0	40	0	1982857216	38	5705
2026-01-18 19:54:08.14	330.18	20.20	-32.2	-32.8	27.0	0.00e+00	0	41	0	2005925888	38	5576
2026-01-18 19:54:12.18	329.17	20.16	-32.5	-33.2	26.7	0.00e+00	0	41	0	2027945984	38	5862
2026-01-18 19:54:16.22	328.16	20.11	-32.4	-33.1	26.9	0.00e+00	0	41	0	2051014656	38	5794
2026-01-18 19:54:20.26	327.15	20.06	-32.2	-32.8	27.1	0.00e+00	0	41	0	2074083328	38	5610
2026-01-18 19:54:24.30	326.15	19.99	-32.4	-33.0	26.9	0.00e+00	0	41	0	2096103424	38	5738
2026-01-18 19:54:28.34	325.15	19.91	-32.0	-32.7	27.1	0.00e+00	0	41	0	2119172096	38	5504
2026-01-18 19:54:32.38	324.16	19.83	-32.2	-32.9	27.0	0.00e+00	0	41	0	2142240768	38	5656
2026-01-18 19:54:36.42	323.17	19.74	-32.2	-32.8	27.0	0.00e+00	0	41	0	2165309440	38	5602
2026-01-18 19:54:40.46	322.19	19.64	-32.2	-32.8	27.0	0.00e+00	0	41	0	2187329536	38	5629
2026-01-18 19:54:44.50	321.22	19.53	-32.4	-33.1	26.9	0.00e+00	0	41	0	2210398208	38	5762
2026-01-18 19:54:48.55	320.25	19.41	-32.4	-33.0	26.8	0.00e+00	0	41	0	2232418304	38	5759
2026-01-18 19:54:52.59	319.29	19.28	-32.1	-32.7	27.0	0.00e+00	0	41	0	2255486976	38	5535
2026-01-18 19:54:56.63	318.34	19.15	-32.2	-32.9	26.9	0.00e+00	0	41	0	2278555648	38	5685
2026-01-18 19:55:00.67	317.40	19.01	-32.5	-33.2	26.6	0.00e+00	0	41	0	2301624320	38	5873
2026-01-18 19:55:04.71	316.47	18.86	-32.6	-33.3	26.7	0.00e+00	0	40	0	2323644416	38	5943
2026-01-18 19:55:08.75	315.55	18.71	-32.7	-33.3	26.7	0.00e+00	0	40	0	2346713088	38	5930
2026-01-18 19:55:12.79	314.63	18.54	-32.3	-33.0	26.9	0.00e+00	0	40	0	2369781760	38	5745
2026-01-18 19:55:16.83	313.73	18.38	-32.6	-33.3	26.6	0.00e+00	0	40	0	2391801856	38	5920
2026-01-18 19:55:20.87	312.83	18.20	-32.7	-33.3	26.7	0.00e+00	0	40	0	2414870528	38	5930
2026-01-18 19:55:24.91	311.95	18.02	-32.8	-33.5	26.4	0.00e+00	0	41	0	2436890624	38	6051
2026-01-18 19:55:28.94	311.08	17.84	-33.0	-33.6	26.4	0.00e+00	0	40	0	2459959296	38	6170
2026-01-18 19:55:32.98	310.22	17.65	-33.0	-33.7	26.4	0.00e+00	0	41	0	2483027968	38	6203
2026-01-18 19:55:37.01	309.37	17.45	-33.0	-33.5	26.4	0.00e+00	0	41	0	2505048064	38	6102
2026-01-18 19:55:41.06	308.53	17.25	-33.1	-33.8	26.2	0.00e+00	0	41	0	2528116736	38	6251
2026-01-18 19:55:45.09	307.70	17.05	-33.4	-34.0	26.0	0.00e+00	0	41	0	2551185408	38	6441
2026-01-18 19:55:49.14	306.88	16.84	-33.4	-34.1	26.0	0.00e+00	0	41	0	2574254080	38	6487
2026-01-18 19:55:53.18	306.08	16.62	-33.5	-34.0	25.9	0.00e+00	0	41	0	2596274176	38	6455
2026-01-18 19:55:57.22	305.28	16.40	-33.4	-34.2	25.9	0.00e+00	0	40	0	2619342848	38	6554
2026-01-18 19:56:01.26	304.50	16.18	-33.4	-34.0	25.9	0.00e+00	0	41	0	2641362944	38	6425
2026-01-18 19:56:05.30	303.73	15.96	-33.5	-34.1	26.0	0.00e+00	0	40	0	2664431616	38	6494
2026-01-18 19:56:09.34	302.97	15.73	-33.6	-34.4	25.7	0.00e+00	0	40	0	2687500288	40	5975
2026-01-18 19:56:13.38	302.23	15.50	-33.6	-34.2	25.9	0.00e+00	0	40	0	2710568960	40	5870
2026-01-18 19:56:17.42	301.49	15.27	-33.7	-34.3	25.7	0.00e+00	0	40	0	2732589056	40	5941
2026-01-18 19:56:21.46	300.77	15.03	-33.6	-34.3	25.7	0.00e+00	0	40	0	2755657728	40	5957
2026-01-18 19:56:25.50	300.05	14.80	-34.0	-34.6	25.3	0.00e+00	0	40	0	2778726400	40	6148
2026-01-18 19:56:29.55	299.35	14.56	-33.6	-34.3	25.5	0.00e+00	0	40	0	2800746496	40	5904
2026-01-18 19:56:33.59	298.66	14.31	-33.9	-34.6	25.2	0.00e+00	0	40	0	2823815168	40	6143
2026-01-18 19:56:37.63	297.98	14.07	-33.8	-34.4	25.2	0.00e+00	0	40	0	2846883840	40	6001
2026-01-18 19:56:41.66	297.32	13.83	-34.2	-34.8	25.0	0.00e+00	0	40	0	2868903936	40	6278
2026-01-18 19:56:45.70	296.66	13.58	-34.2	-34.8	25.1	0.00e+00	0	40	0	2891972608	40	6279
2026-01-18 19:56:49.74	296.02	13.33	-34.4	-35.0	24.9	0.00e+00	0	40	0	2915041280	40	6460
2026-01-18 19:56:53.78	295.38	13.09	-34.6	-35.2	24.8	0.00e+00	0	40	0	2937061376	40	6613
2026-01-18 19:56:57.82	294.76	12.84	-34.5	-35.2	24.8	0.00e+00	0	40	0	2960130048	40	6563
2026-01-18 19:57:01.86	294.15	12.59	-34.4	-35.2	24.8	0.00e+00	0	41	0	2983198720	40	6580
2026-01-18 19:57:05.89	293.55	12.34	-34.7	-35.3	24.6	0.00e+00	0	41	0	3005218816	40	6684
2026-01-18 19:57:09.93	292.96	12.09	-34.8	-35.4	24.4	0.00e+00	0	40	0	3028287488	42	6031
2026-01-18 19:57:13.97	292.37	11.83	-34.8	-35.6	24.4	0.00e+00	0	40	0	3050307584	42	6119
2026-01-18 19:57:18.01	291.80	11.58	-34.7	-35.3	24.5	0.00e+00	0	40	0	3073376256	42	5929
2026-01-18 19:57:22.05	291.24	11.33	-34.7	-35.4	24.5	0.00e+00	0	40	0	3096444928	42	5966
2026-01-18 19:57:26.08	290.69	11.08	-34.9	-35.6	24.3	0.00e+00	0	40	0	3119513600	42	6136
2026-01-18 19:57:30.12	290.15	10.83	-35.2	-35.9	24.1	0.00e+00	0	40	0	3141533696	42	6384
2026-01-18 19:57:34.15	289.62	10.58	-35.3	-35.9	23.9	0.00e+00	0	40	0	3164602368	42	6350
2026-01-18 19:57:38.19	289.09	10.33	-35.4	-36.1	23.9	0.00e+00	0	41	0	3187671040	42	6484
2026-01-18 19:57:42.23	288.58	10.07	-35.6	-36.3	23.6	0.00e+00	0	41	0	3209691136	42	6627
2026-01-18 19:57:46.27	288.07	9.82	-35.5	-36.3	23.7	0.00e+00	0	40	0	3232759808	44	5898
2026-01-18 19:57:50.31	287.57	9.57	-35.3	-36.1	23.9	0.00e+00	0	40	0	3254779904	44	5806
2026-01-18 19:57:54.35	287.09	9.32	-35.6	-36.3	23.6	0.00e+00	0	40	0	3277848576	44	5951
2026-01-18 19:57:58.38	286.61	9.07	-35.7	-36.5	23.4	0.00e+00	0	40	0	3300917248	44	6103
2026-01-18 19:58:02.42	286.14	8.82	-35.7	-36.5	23.4	0.00e+00	0	40	0	3323985920	44	6056
2026-01-18 19:58:06.46	285.67	8.58	-35.9	-36.6	23.2	0.00e+00	0	40	0	3346006016	44	6150
2026-01-18 19:58:10.50	285.22	8.33	-36.0	-36.7	23.1	0.00e+00	0	40	0	3369074688	44	6232
2026-01-18 19:58:14.54	284.77	8.08	-36.1	-36.8	23.0	0.00e+00	0	40	0	3392143360	44	6280
2026-01-18 19:58:18.58	284.33	7.84	-36.3	-37.0	22.8	0.00e+00	0	40	0	3414163456	44	6419
2026-01-18 19:58:22.62	283.90	7.59	-36.6	-37.3	22.4	0.00e+00	0	40	0	3437232128	44	6655
2026-01-18 19:58:26.66	283.47	7.35	-36.1	-37.0	22.9	0.00e+00	0	40	0	3459252224	44	6392
2026-01-18 19:58:30.70	283.06	7.10	-36.3	-37.0	22.7	0.00e+00	0	40	0	3482320896	44	6404
2026-01-18 19:58:34.74	282.65	6.86	-36.6	-37.3	22.3	0.00e+00	0	40	0	3505389568	44	6634
2026-01-18 19:58:38.79	282.24	6.62	-36.4	-37.2	22.6	0.00e+00	0	40	0	3528458240	44	6589
2026-01-18 19:58:42.83	281.84	6.38	-36.8	-37.5	22.1	0.00e+00	0	40	0	3550478336	44	6821
2026-01-18 19:58:46.87	281.45	6.14	-36.7	-37.6	22.1	0.00e+00	0	41	0	3573547008	46	6143
2026-01-18 19:58:50.91	281.07	5.90	-36.7	-37.6	22.1	0.00e+00	0	40	0	3596615680	46	6136
2026-01-18 19:58:54.95	280.69	5.66	-36.6	-37.3	22.2	0.00e+00	0	40	0	3618635776	46	5954
2026-01-18 19:58:58.98	280.32	5.42	-37.0	-37.9	21.8	0.00e+00	0	40	0	3641704448	46	6378
2026-01-18 19:59:03.02	279.96	5.19	-37.1	-37.9	21.6	0.00e+00	0	40	0	3664773120	46	6370
2026-01-18 19:59:07.06	279.60	4.95	-36.9	-37.6	21.8	0.00e+00	0	41	0	3686793216	46	6140
2026-01-18 19:59:11.10	279.25	4.72	-36.7	-37.5	21.9	0.00e+00	0	40	0	3709861888	46	6064
2026-01-18 19:59:15.13	278.90	4.48	-36.9	-37.8	21.6	0.00e+00	0	40	0	3732930560	46	6310
2026-01-18 19:59:19.18	278.56	4.25	-37.3	-38.1	21.2	0.00e+00	0	40	0	3754950656	46	6491
2026-01-18 19:59:23.21	278.23	4.02	-37.4	-38.2	21.1	0.00e+00	0	40	0	3778019328	46	6607
2026-01-18 19:59:27.25	277.89	3.79	-37.6	-38.5	20.8	0.00e+00	0	40	0	3801088000	46	6775
2026-01-18 19:59:31.29	277.57	3.56	-38.0	-39.0	20.5	0.00e+00	0	40	0	3823108096	48	6413
2026-01-18 19:59:35.33	277.25	3.34	-38.0	-38.9	20.3	0.00e+00	0	40	0	3846176768	48	6319
2026-01-18 19:59:39.36	276.94	3.11	-38.3	-39.3	19.8	0.00e+00	0	40	0	3868196864	48	6638
2026-01-18 19:59:43.40	276.63	2.88	-49.1	-61.2	3.6	8.46e-01	0	40	104	3881828352	60	41611
2026-01-18 19:59:47.44	276.32	2.66	-49.7	-61.8	3.6	8.45e-01	0	40	104	3881828352	60	44413
2026-01-18 19:59:51.48	276.02	2.44	-49.8	-61.9	3.5	8.46e-01	0	41	104	3881828352	60	45093
2026-01-18 19:59:55.52	275.73	2.21	-49.8	-61.9	3.6	8.45e-01	0	40	104	3881828352	60	45241
2026-01-18 19:59:59.55	275.44	1.99	-49.7	-61.8	3.6	8.45e-01	0	40	104	3881828352	60	44569
2026-01-18 20:00:03.59	275.15	1.77	-49.7	-61.8	3.6	8.46e-01	0	41	104	3881828352	60	44307
2026-01-18 20:00:07.63	274.87	1.55	-49.8	-62.0	3.6	8.45e-01	0	41	104	3881828352	60	45297
2026-01-18 20:00:11.67	274.59	1.33	-49.7	-61.8	3.6	8.46e-01	0	41	104	3881828352	60	44673
2026-01-18 20:00:15.71	274.32	1.12	-49.7	-61.9	3.6	8.45e-01	0	41	104	3881828352	60	44936
2026-01-18 20:00:19.75	274.05	0.90	-49.7	-61.9	3.6	8.45e-01	0	41	104	3881828352	60	44849
2026-01-18 20:00:23.79	273.78	0.68	-49.7	-61.8	3.6	8.46e-01	0	41	104	3881828352	60	44532
2026-01-18 20:00:27.83	273.52	0.47	-49.7	-61.8	3.6	8.45e-01	0	41	104	3881828352	60	44606
2026-01-18 20:00:31.87	273.27	0.26	-49.7	-61.8	3.6	8.46e-01	0	41	104	3881828352	60	44515
2026-01-18 20:00:35.90	273.01	0.04	-49.7	-61.8	3.6	8.45e-01	0	41	104	3881828352	60	44664

#Closed at: 2026-01-18 20:00:39
#Recorded file [3881 MB]: D:/lorett/data/35029_260119_074712.dat