passes_logs/2026/01/18/R4.6S_Anadyr/R4.6S_Anadyr__20260118_040335_AQUA_rec.log

#Pass ID: 20260118_040335_AQUA
#Satellite: AQUA
#Configuration: AQUA
#almurnet v.1.7.20251203
#Start time: 2026-01-18 04:03:36

#Version: 2.2.20231116
#Station: R4.6S_Anadyr
#Location: 177.4865 lon 64.73178 lat
#TLE: 1 27424U 02022A   26017.62394888  .00000781  00000+0  16630-3 0  9993
#TLE: 2 27424  98.4086 344.0954 0002010  75.0132 339.4723 14.61825944261279

#Time	Az	El	Level	Level2	SNR	BER	BlckErr	Temp	State	Recorded	gain1	gain2
2026-01-18 04:03:36.31	214.10	0.05	-49.2	-64.1	3.5	1.51e+00	0	26	0	0	60	58058
2026-01-18 04:03:39.33	214.34	0.21	-50.1	-68.2	3.5	3.02e+01	0	27	104	0	60	98493
2026-01-18 04:03:42.36	214.58	0.36	-49.6	-67.7	3.5	3.02e+01	0	27	104	0	60	93381
2026-01-18 04:03:45.39	214.82	0.52	-49.1	-67.1	3.5	3.02e+01	0	27	104	0	60	86958
2026-01-18 04:03:48.42	215.06	0.68	-49.1	-66.9	3.5	3.02e+01	0	27	104	0	60	85453
2026-01-18 04:03:51.45	215.31	0.84	-49.0	-66.8	3.5	3.02e+01	0	27	104	0	60	84620
2026-01-18 04:03:54.48	215.56	1.01	-48.7	-66.8	3.5	3.02e+01	0	27	104	0	60	83851
2026-01-18 04:03:57.51	215.81	1.17	-48.6	-66.5	3.5	3.02e+01	0	27	104	0	60	81348
2026-01-18 04:04:00.54	216.06	1.33	-47.4	-65.3	3.5	3.02e+01	0	27	104	0	60	71096
2026-01-18 04:04:03.57	216.32	1.49	-47.5	-65.3	3.5	3.02e+01	0	28	104	0	60	71141
2026-01-18 04:04:06.60	216.58	1.65	-47.5	-65.2	3.5	3.02e+01	0	28	104	0	60	69678
2026-01-18 04:04:09.63	216.85	1.82	-47.5	-65.3	3.5	3.02e+01	0	27	104	0	60	71065
2026-01-18 04:04:12.66	217.11	1.98	-47.5	-65.2	3.5	3.02e+01	0	27	104	0	60	69708
2026-01-18 04:04:15.69	217.38	2.15	-47.8	-65.6	3.5	3.02e+01	0	28	104	0	60	73309
2026-01-18 04:04:18.71	217.66	2.31	-47.7	-65.2	3.5	3.02e+01	0	28	104	0	60	69893
2026-01-18 04:04:21.74	217.93	2.48	-47.7	-64.6	3.5	3.02e+01	0	28	104	0	60	65636
2026-01-18 04:04:24.77	218.21	2.65	-47.4	-60.7	4.9	3.02e+01	0	28	104	0	60	41625
2026-01-18 04:04:27.80	218.50	2.81	-47.2	-59.3	5.9	3.02e+01	92	28	104	0	60	35410
2026-01-18 04:04:30.83	218.78	2.98	-43.6	-46.8	18.1	3.02e+01	92	28	0	4718592	60	8404
2026-01-18 04:04:33.86	219.07	3.15	-42.1	-44.6	20.2	3.02e+01	91	28	0	10485760	58	7335
2026-01-18 04:04:36.89	219.37	3.32	-39.3	-41.3	22.2	3.02e+01	92	28	104	14680064	58	5040
2026-01-18 04:04:39.92	219.66	3.49	-42.0	-44.5	20.6	3.02e+01	92	28	0	19398656	60	6450
2026-01-18 04:04:42.94	219.96	3.66	-40.8	-42.8	22.0	3.02e+01	92	28	0	25165824	56	6713
2026-01-18 04:04:45.97	220.27	3.83	-41.1	-43.2	21.5	3.02e+01	92	28	0	30932992	54	7887
2026-01-18 04:04:49.00	220.58	4.00	-40.0	-42.0	22.8	3.02e+01	90	28	0	36700160	54	6865
2026-01-18 04:04:52.03	220.89	4.17	-39.6	-41.4	23.5	3.02e+01	92	28	0	42467328	54	6414
2026-01-18 04:04:55.05	221.20	4.35	-39.6	-41.4	23.5	3.02e+01	92	28	0	48234496	54	6402
2026-01-18 04:04:58.08	221.52	4.52	-39.9	-41.8	22.9	3.02e+01	92	28	0	54001664	54	6696
2026-01-18 04:05:01.11	221.85	4.69	-39.2	-41.1	24.0	3.02e+01	90	28	0	59244544	52	6916
2026-01-18 04:05:04.14	222.18	4.87	-39.6	-41.7	23.2	3.02e+01	89	28	0	65011712	52	7398
2026-01-18 04:05:07.16	222.51	5.04	-39.6	-42.3	23.2	3.02e+01	91	28	0	70778880	54	7077
2026-01-18 04:05:10.19	222.84	5.22	-39.2	-42.0	23.1	3.02e+01	92	28	0	76546048	54	6873
2026-01-18 04:05:13.22	223.18	5.39	-38.3	-41.0	24.2	3.02e+01	92	28	0	82313216	52	6862
2026-01-18 04:05:16.25	223.53	5.57	-38.6	-41.7	23.6	3.02e+01	92	28	0	87556096	52	7414
2026-01-18 04:05:19.28	223.88	5.75	-38.9	-41.8	23.4	3.02e+01	90	28	0	93323264	52	7506
2026-01-18 04:05:22.31	224.23	5.93	-39.0	-41.7	23.5	3.02e+01	89	28	0	99090432	52	7450
2026-01-18 04:05:25.34	224.59	6.10	-39.0	-41.4	23.9	3.02e+01	86	28	0	104857600	52	7135
2026-01-18 04:05:28.37	224.95	6.28	-39.3	-41.5	23.8	3.02e+01	92	28	0	110624768	52	7266
2026-01-18 04:05:31.40	225.32	6.46	-39.4	-41.8	23.5	3.02e+01	92	28	0	116391936	52	7463
2026-01-18 04:05:34.43	225.69	6.64	-39.1	-41.4	23.9	3.02e+01	90	28	0	122159104	52	7156
2026-01-18 04:05:37.47	226.07	6.82	-39.1	-41.6	23.7	3.02e+01	92	28	0	127401984	52	7367
2026-01-18 04:05:40.49	226.45	7.00	-39.1	-41.9	23.5	3.02e+01	92	28	0	133169152	52	7572
2026-01-18 04:05:43.52	226.84	7.18	-39.7	-42.0	23.3	3.02e+01	92	28	0	138936320	52	7721
2026-01-18 04:05:46.55	227.23	7.36	-40.0	-42.2	23.2	3.02e+01	92	28	0	144703488	54	6966
2026-01-18 04:05:49.58	227.63	7.54	-40.4	-42.5	22.9	3.02e+01	91	28	0	150470656	54	7277
2026-01-18 04:05:52.61	228.03	7.72	-40.0	-42.2	23.3	3.02e+01	92	28	0	155713536	54	7012
2026-01-18 04:05:55.64	228.44	7.91	-39.8	-42.2	23.2	3.02e+01	91	28	0	161480704	54	7031
2026-01-18 04:05:58.66	228.85	8.09	-39.9	-42.2	23.2	3.02e+01	92	28	0	167247872	54	6988
2026-01-18 04:06:01.69	229.27	8.27	-40.4	-42.2	23.2	3.02e+01	91	28	0	173015040	54	7013
2026-01-18 04:06:04.72	229.70	8.45	-40.6	-42.4	23.1	3.02e+01	89	28	0	178782208	54	7180
2026-01-18 04:06:07.74	230.13	8.64	-40.4	-42.4	23.1	3.02e+01	91	28	0	184549376	54	7193
2026-01-18 04:06:10.77	230.56	8.82	-40.3	-42.4	23.1	3.02e+01	90	28	0	190316544	54	7189
2026-01-18 04:06:13.80	231.00	9.00	-40.8	-42.7	22.9	3.02e+01	92	28	0	195559424	54	7400
2026-01-18 04:06:16.83	231.45	9.19	-40.6	-42.6	22.9	3.02e+01	89	28	0	201326592	54	7360
2026-01-18 04:06:19.86	231.90	9.37	-40.5	-42.5	23.0	3.02e+01	91	28	0	207093760	54	7267
2026-01-18 04:06:22.89	232.36	9.55	-40.6	-42.5	23.0	3.02e+01	92	28	0	212860928	54	7239
2026-01-18 04:06:25.92	232.83	9.74	-40.5	-42.2	23.3	3.02e+01	89	28	0	218628096	54	7035
2026-01-18 04:06:28.95	233.30	9.92	-40.8	-42.7	23.0	3.02e+01	91	28	0	223870976	54	7418
2026-01-18 04:06:31.97	233.78	10.10	-41.0	-42.8	22.8	3.02e+01	92	28	0	229638144	56	6713
2026-01-18 04:06:35.00	234.26	10.28	-40.2	-41.9	23.8	3.02e+01	90	28	0	235405312	56	6059
2026-01-18 04:06:38.02	234.75	10.47	-40.0	-41.6	23.9	3.02e+01	92	28	0	241172480	54	6560
2026-01-18 04:06:41.05	235.25	10.65	-39.5	-41.1	24.4	3.02e+01	92	28	0	246939648	54	6201
2026-01-18 04:06:44.09	235.75	10.83	-39.5	-41.1	24.4	3.02e+01	90	28	0	252706816	54	6193
2026-01-18 04:06:47.11	236.26	11.01	-39.1	-40.7	24.8	3.02e+01	92	28	0	257949696	54	5897
2026-01-18 04:06:50.14	236.78	11.19	-39.1	-40.7	24.8	3.02e+01	90	28	0	263716864	54	5890
2026-01-18 04:06:53.17	237.30	11.38	-38.7	-40.2	25.3	3.02e+01	91	28	0	269484032	52	6236
2026-01-18 04:06:56.20	237.83	11.56	-38.5	-40.0	25.5	3.02e+01	92	28	0	275251200	52	6112
2026-01-18 04:06:59.23	238.37	11.74	-38.4	-39.9	25.7	3.02e+01	90	28	0	281018368	52	6022
2026-01-18 04:07:02.25	238.91	11.91	-38.3	-39.7	25.8	3.02e+01	91	28	0	286785536	52	5913
2026-01-18 04:07:05.28	239.46	12.09	-37.5	-38.8	26.7	3.02e+01	92	28	0	292028416	50	5990
2026-01-18 04:07:08.31	240.02	12.27	-37.4	-38.8	26.8	3.02e+01	92	28	0	297795584	50	5955
2026-01-18 04:07:11.34	240.58	12.45	-37.1	-38.5	27.1	3.02e+01	92	28	0	303562752	50	5731
2026-01-18 04:07:14.36	241.15	12.62	-36.9	-38.3	27.4	3.02e+01	91	28	0	309329920	48	6283
2026-01-18 04:07:17.39	241.73	12.80	-36.2	-37.5	28.1	3.02e+01	91	28	0	315097088	48	5739
2026-01-18 04:07:20.42	242.32	12.97	-36.4	-37.6	27.9	3.02e+01	92	28	0	320339968	48	5852
2026-01-18 04:07:23.44	242.91	13.14	-36.1	-37.4	28.1	3.02e+01	92	28	0	326107136	48	5672
2026-01-18 04:07:26.47	243.51	13.31	-35.8	-37.1	28.4	3.02e+01	86	28	0	331874304	46	6166
2026-01-18 04:07:29.50	244.12	13.48	-35.9	-37.1	28.5	3.02e+01	92	28	0	337641472	46	6199
2026-01-18 04:07:32.53	244.73	13.65	-35.5	-36.7	28.7	3.02e+01	92	28	0	343408640	46	5909
2026-01-18 04:07:35.56	245.35	13.81	-35.6	-36.8	28.7	3.02e+01	91	28	0	349175808	46	5973
2026-01-18 04:07:38.59	245.98	13.98	-35.5	-36.7	28.8	3.02e+01	91	28	0	354942976	46	5919
2026-01-18 04:07:41.62	246.62	14.14	-35.5	-36.7	28.8	3.02e+01	92	28	0	360185856	46	5884
2026-01-18 04:07:44.64	247.26	14.30	-35.6	-36.9	28.7	3.02e+01	92	28	0	365953024	46	6003
2026-01-18 04:07:47.67	247.91	14.46	-35.5	-36.7	28.9	3.02e+01	92	28	0	371720192	46	5918
2026-01-18 04:07:50.69	248.57	14.61	-35.4	-36.6	28.9	3.02e+01	91	28	0	377487360	46	5851
2026-01-18 04:07:53.72	249.23	14.77	-35.5	-36.8	28.7	3.02e+01	92	28	0	383254528	46	5942
2026-01-18 04:07:56.75	249.91	14.92	-35.9	-37.1	28.5	3.02e+01	90	28	0	388497408	46	6180
2026-01-18 04:07:59.78	250.58	15.07	-35.8	-37.1	28.6	3.02e+01	92	28	0	394264576	46	6154
2026-01-18 04:08:02.81	251.27	15.21	-35.7	-36.9	28.6	3.02e+01	92	28	0	400031744	46	6062
2026-01-18 04:08:05.84	251.96	15.36	-35.6	-36.8	28.8	3.02e+01	89	28	0	405798912	46	5989
2026-01-18 04:08:08.86	252.66	15.50	-35.5	-36.7	28.8	3.02e+01	92	28	0	411566080	46	5914
2026-01-18 04:08:11.89	253.37	15.63	-35.5	-36.7	28.9	3.02e+01	92	28	0	417333248	46	5917
2026-01-18 04:08:14.92	254.08	15.77	-35.3	-36.5	29.1	3.02e+01	92	28	0	422576128	46	5780
2026-01-18 04:08:17.94	254.80	15.90	-35.4	-36.6	29.0	3.02e+01	92	28	0	428343296	46	5831
2026-01-18 04:08:20.97	255.53	16.03	-35.2	-36.4	29.1	3.02e+01	90	28	0	434110464	46	5716
2026-01-18 04:08:24.00	256.26	16.15	-35.2	-36.4	29.1	3.02e+01	92	28	0	439877632	46	5668
2026-01-18 04:08:27.03	257.00	16.27	-35.4	-36.7	28.9	3.02e+01	92	28	0	445644800	46	5868
2026-01-18 04:08:30.06	257.75	16.39	-35.3	-36.6	29.1	3.02e+01	88	28	0	451411968	46	5802
2026-01-18 04:08:33.08	258.49	16.50	-35.4	-36.6	29.1	3.02e+01	90	28	0	456654848	46	5820
2026-01-18 04:08:36.11	259.25	16.61	-35.4	-36.7	29.0	3.02e+01	92	28	0	462422016	46	5869
2026-01-18 04:08:39.14	260.01	16.72	-35.2	-36.4	29.1	3.02e+01	90	28	0	468189184	46	5705
2026-01-18 04:08:42.17	260.78	16.82	-35.4	-36.7	29.0	3.02e+01	92	28	0	473956352	46	5861
2026-01-18 04:08:45.19	261.55	16.91	-35.6	-36.8	28.8	3.02e+01	89	28	0	479723520	46	5959
2026-01-18 04:08:48.22	262.33	17.01	-35.4	-36.6	29.1	3.02e+01	90	28	0	485490688	46	5813
2026-01-18 04:08:51.25	263.11	17.09	-35.5	-36.7	29.0	3.02e+01	91	28	0	490733568	46	5899
2026-01-18 04:08:54.27	263.90	17.18	-35.4	-36.7	28.9	3.02e+01	91	28	0	496500736	46	5859
2026-01-18 04:08:57.31	264.69	17.26	-49.1	-58.3	26.1	3.02e+01	92	28	0	502267904	60	31496
2026-01-18 04:09:00.34	265.49	17.33	-35.8	-37.0	29.0	3.02e+01	91	28	0	508035072	46	6116
2026-01-18 04:09:03.36	266.29	17.40	-35.7	-37.0	28.7	3.02e+01	92	28	0	513277952	46	6075
2026-01-18 04:09:06.39	267.09	17.46	-35.3	-36.5	29.2	3.02e+01	90	28	0	519045120	46	5746
2026-01-18 04:09:09.42	267.90	17.52	-35.5	-36.8	28.9	3.02e+01	92	28	0	524812288	46	5932
2026-01-18 04:09:12.45	268.70	17.58	-35.2	-36.4	29.1	3.02e+01	92	28	0	530579456	46	5699
2026-01-18 04:09:15.48	269.52	17.62	-35.2	-36.4	29.3	3.02e+01	92	28	0	536346624	46	5684
2026-01-18 04:09:18.50	270.33	17.67	-35.3	-36.5	29.1	3.02e+01	92	28	0	542113792	46	5774
2026-01-18 04:09:21.53	271.15	17.70	-35.3	-36.6	29.0	3.02e+01	92	28	0	547880960	46	5802
2026-01-18 04:09:24.55	271.96	17.74	-35.2	-36.4	29.2	3.02e+01	92	28	0	553123840	46	5715
2026-01-18 04:09:27.58	272.78	17.76	-35.4	-36.6	29.1	3.02e+01	87	28	0	558891008	46	5810
2026-01-18 04:09:30.61	273.61	17.79	-35.4	-36.6	29.1	3.02e+01	90	28	0	564658176	46	5841
2026-01-18 04:09:33.64	274.43	17.80	-35.2	-36.4	29.1	3.02e+01	91	28	0	570425344	46	5715
2026-01-18 04:09:36.67	275.25	17.81	-35.2	-36.4	29.2	3.02e+01	90	28	0	576192512	46	5665
2026-01-18 04:09:39.69	276.07	17.82	-35.1	-36.3	29.3	3.02e+01	91	28	0	581435392	46	5639
2026-01-18 04:09:42.72	276.90	17.82	-35.8	-37.0	28.5	3.02e+01	92	28	0	587202560	46	6134
2026-01-18 04:09:45.75	277.72	17.81	-35.8	-37.1	28.7	3.02e+01	92	28	0	592969728	46	6139
2026-01-18 04:09:48.78	278.55	17.80	-36.0	-37.3	28.7	3.02e+01	92	28	0	598736896	46	6309
2026-01-18 04:09:51.80	279.37	17.79	-35.8	-37.0	28.6	3.02e+01	91	28	0	604504064	46	6113
2026-01-18 04:09:54.83	280.19	17.76	-36.5	-37.8	28.1	3.02e+01	91	28	0	610271232	46	6697
2026-01-18 04:09:57.86	281.01	17.74	-36.1	-37.4	28.4	3.02e+01	92	28	0	615514112	46	6402
2026-01-18 04:10:00.89	281.83	17.70	-35.4	-36.6	29.1	3.02e+01	92	28	0	621281280	46	5852
2026-01-18 04:10:03.91	282.64	17.67	-35.4	-36.6	29.1	3.02e+01	92	28	0	627048448	46	5833
2026-01-18 04:10:06.94	283.45	17.62	-35.6	-36.8	29.0	3.02e+01	92	28	0	632815616	46	5959
2026-01-18 04:10:09.97	284.27	17.58	-35.2	-36.4	29.3	3.02e+01	92	28	0	638582784	46	5679
2026-01-18 04:10:13.00	285.07	17.52	-35.1	-36.3	29.3	3.02e+01	90	28	0	644349952	46	5635
2026-01-18 04:10:16.03	285.88	17.46	-35.2	-36.5	29.2	3.02e+01	92	28	0	649592832	46	5728
2026-01-18 04:10:19.05	286.68	17.40	-35.3	-36.5	29.3	3.02e+01	92	28	0	655360000	46	5784
2026-01-18 04:10:22.08	287.48	17.33	-35.4	-36.6	29.2	3.02e+01	92	28	0	661127168	46	5855
2026-01-18 04:10:25.11	288.27	17.26	-35.5	-36.8	29.1	3.02e+01	92	28	0	666894336	46	5935
2026-01-18 04:10:28.14	289.06	17.18	-35.2	-36.4	29.4	3.02e+01	92	28	0	672661504	46	5674
2026-01-18 04:10:31.17	289.85	17.10	-35.3	-36.5	29.3	3.02e+01	91	28	0	677904384	46	5726
2026-01-18 04:10:34.20	290.63	17.01	-35.2	-36.5	29.3	3.02e+01	91	28	0	683671552	46	5728
2026-01-18 04:10:37.22	291.40	16.92	-35.1	-36.3	29.4	3.02e+01	92	28	0	689438720	46	5620
2026-01-18 04:10:40.25	292.17	16.82	-35.3	-36.6	29.2	3.02e+01	92	28	0	695205888	46	5794
2026-01-18 04:10:43.28	292.94	16.72	-35.1	-36.3	29.3	3.02e+01	90	28	0	700973056	46	5628
2026-01-18 04:10:46.31	293.70	16.62	-35.4	-36.6	29.4	3.02e+01	92	28	0	706740224	46	5808
2026-01-18 04:10:49.34	294.45	16.51	-35.3	-36.6	29.2	3.02e+01	92	28	0	712507392	46	5800
2026-01-18 04:10:52.36	295.20	16.39	-35.1	-36.3	29.4	3.02e+01	90	28	0	717750272	46	5631
2026-01-18 04:10:55.39	295.94	16.28	-35.0	-36.2	29.4	3.02e+01	92	28	0	723517440	46	5593
2026-01-18 04:10:58.41	296.67	16.16	-35.3	-36.5	29.4	3.02e+01	92	28	0	729284608	46	5757
2026-01-18 04:11:01.44	297.41	16.03	-35.4	-36.6	29.2	3.02e+01	92	28	0	735051776	46	5829
2026-01-18 04:11:04.47	298.13	15.91	-35.3	-36.5	29.1	3.02e+01	92	28	0	740818944	46	5786
2026-01-18 04:11:07.50	298.85	15.78	-35.2	-36.4	29.2	3.02e+01	90	28	0	746061824	46	5682
2026-01-18 04:11:10.53	299.56	15.64	-35.3	-36.5	29.1	3.02e+01	92	28	0	751828992	46	5763
2026-01-18 04:11:13.56	300.26	15.51	-35.3	-36.5	29.1	3.02e+01	45	28	0	757596160	46	5758
2026-01-18 04:11:16.59	300.96	15.37	-34.9	-36.1	29.5	3.02e+01	56	28	0	763363328	44	6151
2026-01-18 04:11:19.62	301.65	15.22	-35.2	-36.4	29.2	3.02e+01	61	28	0	769130496	44	6396
2026-01-18 04:11:22.64	302.33	15.08	-34.8	-36.0	29.5	3.02e+01	59	28	0	774897664	44	6123
2026-01-18 04:11:25.67	303.01	14.93	-35.2	-36.4	29.4	3.02e+01	59	28	0	780140544	44	6386
2026-01-18 04:11:28.69	303.67	14.78	-35.0	-36.2	29.3	3.02e+01	58	28	0	785907712	44	6277
2026-01-18 04:11:31.72	304.34	14.63	-35.1	-36.4	29.4	3.02e+01	47	28	0	791674880	44	6364
2026-01-18 04:11:34.75	304.99	14.47	-35.1	-36.3	29.4	3.02e+01	54	28	0	797442048	44	6312
2026-01-18 04:11:37.78	305.64	14.32	-35.5	-36.7	29.2	3.02e+01	62	28	0	803209216	44	6605
2026-01-18 04:11:40.81	306.28	14.16	-35.6	-36.8	29.3	3.02e+01	61	28	0	808976384	44	6679
2026-01-18 04:11:43.83	306.91	14.00	-35.5	-36.7	29.2	3.02e+01	58	28	0	814219264	44	6643
2026-01-18 04:11:46.86	307.54	13.83	-35.5	-36.7	29.1	3.02e+01	61	28	0	819986432	44	6647
2026-01-18 04:11:49.89	308.16	13.67	-35.1	-36.3	29.4	3.02e+01	59	28	0	825753600	44	6346
2026-01-18 04:11:52.92	308.77	13.50	-35.7	-36.9	29.2	3.02e+01	59	28	0	831520768	46	6026
2026-01-18 04:11:55.95	309.38	13.34	-35.8	-37.1	28.9	3.02e+01	45	28	0	837287936	46	6158
2026-01-18 04:11:58.98	309.97	13.17	-35.3	-36.5	29.2	3.02e+01	45	28	0	843055104	46	5735
2026-01-18 04:12:02.01	310.56	13.00	-35.2	-36.5	29.2	3.02e+01	59	28	0	848297984	46	5741
2026-01-18 04:12:05.04	311.15	12.82	-35.4	-36.6	29.1	3.02e+01	60	28	0	854065152	46	5838
2026-01-18 04:12:08.06	311.72	12.65	-35.6	-36.8	29.0	3.02e+01	60	28	0	859832320	46	5960
2026-01-18 04:12:11.09	312.29	12.48	-35.5	-36.7	29.0	3.02e+01	60	28	0	865599488	46	5904
2026-01-18 04:12:14.11	312.85	12.30	-36.0	-37.2	28.7	3.02e+01	57	28	0	871366656	46	6262
2026-01-18 04:12:17.14	313.41	12.13	-36.1	-37.4	28.6	3.02e+01	51	28	0	877133824	46	6381
2026-01-18 04:12:20.17	313.96	11.95	-36.2	-37.5	28.6	3.02e+01	45	28	0	882376704	48	5755
2026-01-18 04:12:23.20	314.50	11.77	-35.9	-37.1	28.9	3.02e+01	57	28	0	888143872	46	6184
2026-01-18 04:12:26.22	315.03	11.60	-35.8	-37.0	28.7	3.02e+01	56	28	0	893911040	46	6104
2026-01-18 04:12:29.25	315.56	11.42	-35.5	-36.8	29.0	3.02e+01	59	28	0	899678208	46	5936
2026-01-18 04:12:32.28	316.08	11.24	-35.4	-36.7	29.0	3.02e+01	59	28	0	905445376	46	5865
2026-01-18 04:12:35.31	316.59	11.06	-35.6	-36.8	28.7	3.02e+01	60	28	0	910688256	46	5986
2026-01-18 04:12:38.34	317.10	10.88	-35.9	-37.2	28.7	3.02e+01	57	28	0	916455424	46	6221
2026-01-18 04:12:41.36	317.60	10.70	-35.9	-37.1	28.5	3.02e+01	49	28	0	922222592	46	6180
2026-01-18 04:12:44.39	318.10	10.52	-36.0	-37.3	28.6	3.02e+01	60	28	0	927989760	46	6316
2026-01-18 04:12:47.42	318.59	10.34	-35.8	-37.1	28.4	3.02e+01	60	28	0	933756928	46	6153
2026-01-18 04:12:50.45	319.07	10.15	-35.7	-36.9	28.5	3.02e+01	59	28	0	939524096	46	6058
2026-01-18 04:12:53.47	319.54	9.97	-35.7	-36.9	28.5	3.02e+01	57	28	0	945291264	46	6048
2026-01-18 04:12:56.49	320.01	9.79	-36.2	-37.5	28.0	3.02e+01	60	28	0	950534144	46	6494
2026-01-18 04:12:59.52	320.47	9.61	-36.5	-37.7	28.2	3.02e+01	59	28	0	956301312	46	6645
2026-01-18 04:13:02.55	320.93	9.43	-36.7	-38.0	28.1	3.02e+01	55	28	0	962068480	46	6814
2026-01-18 04:13:05.58	321.38	9.25	-36.3	-37.6	28.3	3.02e+01	44	28	0	967835648	46	6511
2026-01-18 04:13:08.60	321.83	9.07	-36.1	-37.3	28.2	3.02e+01	59	28	0	973602816	46	6350
2026-01-18 04:13:11.63	322.27	8.88	-36.4	-37.6	28.0	3.02e+01	59	28	0	978845696	48	5845
2026-01-18 04:13:14.66	322.70	8.70	-36.6	-37.9	27.8	3.02e+01	58	28	0	984612864	48	6055
2026-01-18 04:13:17.69	323.13	8.52	-36.3	-37.6	27.8	3.02e+01	59	28	0	990380032	48	5845
2026-01-18 04:13:20.71	323.56	8.34	-36.4	-37.7	27.7	3.02e+01	59	28	0	996147200	48	5894
2026-01-18 04:13:23.74	323.97	8.16	-36.6	-37.9	27.6	3.02e+01	52	28	0	1001914368	48	6062
2026-01-18 04:13:26.77	324.39	7.98	-37.2	-38.5	27.1	3.02e+01	53	28	0	1007157248	48	6463
2026-01-18 04:13:29.79	324.79	7.80	-37.3	-38.6	27.0	3.02e+01	61	28	0	1012924416	48	6558
2026-01-18 04:13:32.82	325.19	7.62	-37.7	-39.1	26.3	3.02e+01	61	28	0	1018691584	50	6192
2026-01-18 04:13:35.85	325.59	7.44	-37.7	-39.1	26.4	3.02e+01	60	28	0	1024458752	48	6909
2026-01-18 04:13:38.88	325.98	7.26	-37.5	-38.9	26.8	3.02e+01	58	28	0	1030225920	50	6029
2026-01-18 04:13:41.91	326.37	7.08	-37.6	-39.0	26.5	3.02e+01	58	28	0	1035993088	50	6100
2026-01-18 04:13:44.93	326.75	6.90	-37.8	-48.1	3.6	3.02e+01	0	28	104	1037041664	50	17395
2026-01-18 04:13:47.96	327.13	6.73	-44.4	-56.4	3.4	3.02e+01	0	28	104	1037041664	54	35775
2026-01-18 04:13:51.00	327.50	6.55	-40.0	-50.6	3.6	3.02e+01	0	28	104	1037041664	56	16355
2026-01-18 04:13:54.02	327.87	6.37	-39.8	-50.4	3.6	3.02e+01	0	28	104	1037041664	52	20158
2026-01-18 04:13:57.05	328.23	6.19	-42.1	-53.2	3.5	3.02e+01	0	28	104	1037041664	54	24811
2026-01-18 04:14:00.08	328.59	6.02	-38.5	-48.9	3.9	3.02e+01	0	28	104	1037041664	54	15136
2026-01-18 04:14:03.10	328.94	5.84	-38.1	-48.5	4.1	3.02e+01	0	28	104	1037041664	50	18261
2026-01-18 04:14:06.13	329.29	5.67	-47.3	-63.5	3.5	3.02e+01	0	28	104	1037041664	60	57546
2026-01-18 04:14:09.16	329.63	5.49	-39.0	-49.5	3.5	3.02e+01	0	28	104	1037041664	54	16186
2026-01-18 04:14:12.19	329.97	5.32	-39.0	-49.6	3.6	3.02e+01	0	28	104	1037041664	52	18352
2026-01-18 04:14:15.22	330.31	5.14	-45.0	-57.5	3.5	3.02e+01	0	28	104	1037041664	60	28996
2026-01-18 04:14:18.25	330.64	4.97	-39.9	-50.6	3.5	3.02e+01	0	28	104	1037041664	54	18359
2026-01-18 04:14:21.27	330.97	4.80	-39.4	-50.0	3.5	3.02e+01	0	28	104	1037041664	54	17178
2026-01-18 04:14:24.30	331.29	4.62	-46.7	-63.3	3.5	3.02e+01	0	28	104	1037041664	60	56118
2026-01-18 04:14:27.33	331.61	4.45	-40.2	-51.0	3.5	3.02e+01	0	28	104	1037041664	56	17188
2026-01-18 04:14:30.36	331.93	4.28	-39.6	-50.3	3.6	3.02e+01	0	28	104	1037041664	54	17858
2026-01-18 04:14:33.39	332.24	4.11	-45.1	-61.9	3.5	3.02e+01	0	28	104	1037041664	60	47851
2026-01-18 04:14:36.41	332.55	3.94	-43.3	-56.3	3.5	3.02e+01	0	28	104	1037041664	60	25172
2026-01-18 04:14:39.44	332.86	3.77	-44.2	-59.9	3.5	3.02e+01	0	28	104	1037041664	60	37869
2026-01-18 04:14:42.47	333.16	3.60	-44.4	-62.2	3.5	3.02e+01	0	28	104	1037041664	60	49480
2026-01-18 04:14:45.50	333.46	3.43	-44.3	-62.0	3.5	3.02e+01	0	28	104	1037041664	60	48508
2026-01-18 04:14:48.52	333.75	3.27	-44.3	-62.2	3.5	3.02e+01	0	28	104	1037041664	60	49520
2026-01-18 04:14:51.55	334.04	3.10	-44.4	-62.3	3.5	3.02e+01	0	28	104	1037041664	60	50178
2026-01-18 04:14:54.58	334.33	2.93	-48.0	-65.9	3.5	3.02e+01	0	28	104	1037041664	60	75592
2026-01-18 04:14:57.61	334.61	2.77	-48.8	-66.7	3.5	3.02e+01	0	28	104	1037041664	60	83412
2026-01-18 04:15:00.63	334.89	2.60	-49.1	-66.9	3.5	3.02e+01	0	28	104	1037041664	60	85632
2026-01-18 04:15:03.66	335.17	2.44	-49.4	-67.3	3.5	3.02e+01	0	28	104	1037041664	60	89413
2026-01-18 04:15:06.69	335.44	2.27	-48.9	-67.2	3.5	3.02e+01	0	28	104	1037041664	60	87694
2026-01-18 04:15:09.72	335.71	2.11	-50.0	-68.0	3.5	3.02e+01	0	28	104	1037041664	60	96587
2026-01-18 04:15:12.75	335.98	1.95	-49.1	-67.1	3.5	3.02e+01	0	28	104	1037041664	60	86985
2026-01-18 04:15:15.78	336.25	1.78	-48.6	-67.0	3.5	3.02e+01	0	28	104	1037041664	60	86217
2026-01-18 04:15:18.81	336.51	1.62	-49.4	-67.2	3.5	3.02e+01	0	28	104	1037041664	60	87741
2026-01-18 04:15:21.84	336.77	1.46	-49.7	-67.5	3.5	3.02e+01	0	28	104	1037041664	60	91630
2026-01-18 04:15:24.87	337.02	1.30	-49.8	-67.6	3.5	3.02e+01	0	28	104	1037041664	60	92036
2026-01-18 04:15:27.89	337.28	1.14	-49.4	-67.2	3.5	3.02e+01	0	28	104	1037041664	60	88375
2026-01-18 04:15:30.92	337.53	0.98	-49.5	-67.3	3.5	3.02e+01	0	28	104	1037041664	60	89123
2026-01-18 04:15:33.95	337.78	0.82	-50.1	-67.9	3.5	3.02e+01	0	28	104	1037041664	60	95986
2026-01-18 04:15:36.98	338.02	0.66	-49.9	-67.7	3.5	3.02e+01	0	28	104	1037041664	60	93525
2026-01-18 04:15:40.01	338.26	0.51	-49.2	-67.0	3.5	3.02e+01	0	28	104	1037041664	60	86567
2026-01-18 04:15:43.04	338.50	0.35	-49.9	-67.8	3.5	3.02e+01	0	28	104	1037041664	60	93986
2026-01-18 04:15:46.07	338.74	0.19	-49.3	-67.1	3.5	3.02e+01	0	28	104	1037041664	60	87109
2026-01-18 04:15:49.10	338.98	0.04	-49.9	-67.8	3.5	3.02e+01	0	28	104	1037041664	60	94068

#Closed at: 2026-01-18 04:15:51
#Recorded file [1037 MB]: D:/lorett/data/35029_260118_160336.dat