passes_logs/2026/01/18/R4.6S_Anadyr/R4.6S_Anadyr__20260118_162656_FENGYUN_3D_rec.log

#Pass ID: 20260118_162656_FENGYUN 3D
#Satellite: FENGYUN 3D
#Configuration: FENGYUN 3D
#almurnet v.1.7.20251203
#Start time: 2026-01-18 16:26:59

#Version: 2.2.20231116
#Station: R4.6S_Anadyr
#Location: 177.4865 lon 64.73178 lat
#TLE: 1 43010U 17072A   26017.61121112  .00000213  00000+0  12257-3 0  9991
#TLE: 2 43010  98.9934 349.4672 0002374 103.9362 256.2078 14.19696413423628

#Time	Az	El	Level	Level2	SNR	BER	BlckErr	Temp	State	Recorded	gain1	gain2
2026-01-18 16:26:59.84	20.42	0.18	-49.6	-60.3	3.3	8.41e-01	0	38	0	0	60	37345
2026-01-18 16:27:03.88	20.48	0.43	-49.6	-61.8	3.6	8.46e-01	0	38	104	0	60	44619
2026-01-18 16:27:07.92	20.54	0.67	-49.6	-61.8	3.6	8.46e-01	0	38	104	0	60	44375
2026-01-18 16:27:11.96	20.61	0.91	-49.4	-61.6	3.6	8.45e-01	0	38	104	0	60	43331
2026-01-18 16:27:16.00	20.67	1.16	-49.0	-61.1	3.6	8.46e-01	0	38	104	0	60	40997
2026-01-18 16:27:20.04	20.74	1.41	-48.7	-60.7	3.6	8.46e-01	0	38	104	0	60	39276
2026-01-18 16:27:24.08	20.81	1.66	-48.2	-60.3	3.6	8.45e-01	0	38	104	0	60	37235
2026-01-18 16:27:28.12	20.87	1.92	-48.1	-59.7	3.6	8.44e-01	0	38	104	0	60	35062
2026-01-18 16:27:32.16	20.94	2.17	-47.9	-57.4	3.9	8.44e-01	0	38	104	0	60	26740
2026-01-18 16:27:36.21	21.01	2.43	-47.4	-53.4	4.8	7.79e-01	0	39	0	0	60	16920
2026-01-18 16:27:40.25	21.08	2.69	-47.3	-52.8	5.3	7.55e-01	0	39	0	0	60	15864
2026-01-18 16:27:44.29	21.15	2.96	-43.2	-45.1	14.2	4.50e-06	0	39	0	22020096	60	6507
2026-01-18 16:27:48.33	21.23	3.22	-39.7	-40.8	18.4	0.00e+00	0	39	0	45088768	52	6307
2026-01-18 16:27:52.37	21.30	3.49	-41.2	-42.6	16.5	0.00e+00	0	39	0	67108864	54	6914
2026-01-18 16:27:56.41	21.37	3.76	-37.1	-37.9	21.3	0.00e+00	0	39	0	90177536	48	5676
2026-01-18 16:28:00.45	21.45	4.04	-45.2	-48.4	12.5	5.66e-01	0	39	104	97517568	60	9455
2026-01-18 16:28:04.49	21.53	4.31	-37.0	-37.8	21.5	0.00e+00	0	39	0	116391936	48	5616
2026-01-18 16:28:08.53	21.60	4.59	-36.8	-37.6	21.8	0.00e+00	0	39	0	139460608	46	6132
2026-01-18 16:28:12.57	21.68	4.87	-36.5	-37.3	21.9	0.00e+00	0	39	0	162529280	46	5938
2026-01-18 16:28:16.61	21.76	5.16	-36.6	-37.4	22.1	0.00e+00	0	39	0	185597952	46	6001
2026-01-18 16:28:20.65	21.84	5.45	-36.2	-37.0	22.5	0.00e+00	0	39	0	207618048	46	5712
2026-01-18 16:28:24.69	21.92	5.74	-36.3	-37.0	22.5	0.00e+00	0	39	0	230686720	46	5747
2026-01-18 16:28:28.73	22.01	6.03	-36.0	-36.7	22.8	0.00e+00	0	39	0	253755392	46	5557
2026-01-18 16:28:32.77	22.09	6.33	-35.9	-36.6	23.0	0.00e+00	0	39	0	275775488	44	6145
2026-01-18 16:28:36.81	22.18	6.63	-35.6	-36.3	23.2	0.00e+00	0	39	0	298844160	44	5929
2026-01-18 16:28:40.86	22.27	6.94	-35.8	-36.5	23.2	0.00e+00	0	39	0	320864256	44	6096
2026-01-18 16:28:44.90	22.36	7.25	-35.2	-35.9	23.5	0.00e+00	0	39	0	343932928	44	5692
2026-01-18 16:28:48.94	22.45	7.56	-35.2	-35.9	23.7	0.00e+00	0	39	0	367001600	44	5668
2026-01-18 16:28:52.98	22.54	7.88	-35.2	-36.0	23.7	0.00e+00	0	39	0	390070272	44	5717
2026-01-18 16:28:57.02	22.63	8.20	-35.0	-35.7	23.8	0.00e+00	0	39	0	412090368	44	5525
2026-01-18 16:29:01.06	22.73	8.52	-35.1	-35.8	23.8	0.00e+00	0	39	0	435159040	44	5598
2026-01-18 16:29:05.10	22.83	8.85	-34.8	-35.5	24.1	0.00e+00	0	39	0	458227712	42	6058
2026-01-18 16:29:09.14	22.93	9.18	-34.8	-35.4	24.2	0.00e+00	0	39	0	480247808	42	6032
2026-01-18 16:29:13.19	23.03	9.52	-34.8	-35.5	24.2	0.00e+00	0	39	0	503316480	42	6037
2026-01-18 16:29:17.22	23.13	9.86	-34.7	-35.3	24.3	0.00e+00	0	39	0	526385152	42	5962
2026-01-18 16:29:21.26	23.24	10.21	-34.7	-35.4	24.2	0.00e+00	0	39	0	548405248	42	5994
2026-01-18 16:29:25.30	23.34	10.56	-34.5	-35.2	24.4	0.00e+00	0	39	0	571473920	42	5884
2026-01-18 16:29:29.34	23.45	10.92	-34.7	-35.4	24.3	0.00e+00	0	39	0	594542592	42	5977
2026-01-18 16:29:33.38	23.56	11.28	-34.8	-35.4	24.3	0.00e+00	0	39	0	616562688	42	6030
2026-01-18 16:29:37.42	23.68	11.64	-34.9	-35.6	24.2	0.00e+00	0	39	0	639631360	42	6135
2026-01-18 16:29:41.46	23.79	12.02	-34.8	-35.6	24.1	0.00e+00	0	39	0	662700032	42	6117
2026-01-18 16:29:45.50	23.91	12.39	-34.9	-35.6	24.3	0.00e+00	0	39	0	684720128	42	6139
2026-01-18 16:29:49.54	24.03	12.78	-34.8	-35.5	24.3	0.00e+00	0	39	0	707788800	42	6039
2026-01-18 16:29:53.58	24.16	13.17	-34.7	-35.4	24.4	0.00e+00	0	39	0	730857472	42	6003
2026-01-18 16:29:57.61	24.29	13.57	-34.5	-35.2	24.6	0.00e+00	0	39	0	752877568	42	5879
2026-01-18 16:30:01.65	24.42	13.97	-34.3	-35.1	24.7	0.00e+00	0	39	0	775946240	42	5784
2026-01-18 16:30:05.69	24.55	14.38	-34.2	-34.9	24.9	0.00e+00	0	39	0	799014912	42	5690
2026-01-18 16:30:09.73	24.69	14.79	-34.0	-34.7	25.1	0.00e+00	0	39	0	821035008	42	5553
2026-01-18 16:30:13.77	24.83	15.22	-33.7	-34.4	25.3	0.00e+00	0	39	0	844103680	42	5361
2026-01-18 16:30:17.82	24.97	15.65	-33.3	-34.0	25.6	0.00e+00	0	39	0	867172352	40	5697
2026-01-18 16:30:21.86	25.12	16.09	-33.1	-33.7	25.9	0.00e+00	0	39	0	889192448	40	5552
2026-01-18 16:30:25.90	25.27	16.54	-32.9	-33.5	26.1	0.00e+00	0	39	0	912261120	40	5416
2026-01-18 16:30:29.94	25.42	16.99	-32.8	-33.5	26.1	0.00e+00	0	39	0	935329792	40	5387
2026-01-18 16:30:33.98	25.58	17.46	-32.7	-33.3	26.4	0.00e+00	0	39	0	957349888	38	5947
2026-01-18 16:30:38.03	25.75	17.93	-32.7	-33.3	26.3	0.00e+00	0	39	0	980418560	38	5962
2026-01-18 16:30:42.06	25.92	18.41	-32.5	-33.1	26.5	0.00e+00	0	39	0	1003487232	38	5799
2026-01-18 16:30:46.11	26.09	18.90	-32.6	-33.2	26.5	0.00e+00	0	39	0	1025507328	38	5883
2026-01-18 16:30:50.15	26.27	19.40	-32.5	-33.1	26.6	0.00e+00	0	39	0	1048576000	38	5815
2026-01-18 16:30:54.18	26.45	19.91	-32.4	-33.1	26.5	0.00e+00	0	39	0	1071644672	38	5779
2026-01-18 16:30:58.22	26.64	20.43	-32.3	-33.0	26.7	0.00e+00	0	39	0	1094713344	38	5704
2026-01-18 16:31:02.26	26.84	20.96	-32.2	-32.8	26.8	0.00e+00	0	39	0	1116733440	38	5619
2026-01-18 16:31:06.30	27.04	21.51	-32.1	-32.7	26.9	0.00e+00	0	39	0	1139802112	38	5532
2026-01-18 16:31:10.34	27.25	22.06	-32.1	-32.7	27.0	0.00e+00	0	39	0	1161822208	38	5540
2026-01-18 16:31:14.39	27.47	22.63	-32.2	-32.9	26.9	0.00e+00	0	39	0	1184890880	38	5643
2026-01-18 16:31:18.42	27.69	23.21	-32.0	-32.6	27.0	0.00e+00	0	39	0	1207959552	38	5477
2026-01-18 16:31:22.47	27.92	23.80	-31.5	-32.2	27.4	0.00e+00	0	39	0	1231028224	36	5832
2026-01-18 16:31:26.51	28.16	24.41	-31.5	-32.1	27.4	0.00e+00	0	39	0	1253048320	36	5795
2026-01-18 16:31:30.55	28.41	25.03	-31.4	-31.9	27.6	0.00e+00	0	39	0	1276116992	36	5695
2026-01-18 16:31:34.59	28.67	25.66	-31.2	-31.8	27.7	0.00e+00	0	39	0	1299185664	36	5595
2026-01-18 16:31:38.63	28.94	26.31	-31.0	-31.6	27.8	0.00e+00	0	39	0	1321205760	36	5499
2026-01-18 16:31:42.67	29.21	26.98	-30.8	-31.4	28.0	0.00e+00	0	39	0	1344274432	36	5344
2026-01-18 16:31:46.71	29.50	27.66	-31.2	-31.8	27.7	0.00e+00	0	39	0	1367343104	36	5595
2026-01-18 16:31:50.75	29.81	28.36	-31.5	-32.1	27.4	0.00e+00	0	39	0	1389363200	36	5812
2026-01-18 16:31:54.79	30.12	29.07	-31.4	-32.0	27.6	0.00e+00	0	39	0	1412431872	36	5746
2026-01-18 16:31:58.83	30.45	29.80	-30.9	-31.5	27.9	0.00e+00	0	39	0	1435500544	36	5386
2026-01-18 16:32:02.87	30.79	30.55	-30.9	-31.5	27.9	0.00e+00	0	39	0	1457520640	36	5425
2026-01-18 16:32:06.90	31.15	31.32	-30.8	-31.4	28.0	0.00e+00	0	39	0	1480589312	34	6006
2026-01-18 16:32:10.94	31.52	32.11	-31.1	-31.7	27.8	0.00e+00	0	39	0	1503657984	34	6219
2026-01-18 16:32:14.99	31.92	32.92	-30.9	-31.5	28.0	0.00e+00	0	39	0	1525678080	34	6056
2026-01-18 16:32:19.03	32.33	33.75	-31.2	-31.8	27.8	0.00e+00	0	39	0	1548746752	34	6293
2026-01-18 16:32:23.07	32.76	34.61	-30.8	-31.4	28.1	0.00e+00	0	39	0	1571815424	34	5992
2026-01-18 16:32:27.11	33.22	35.48	-30.7	-31.3	28.2	0.00e+00	0	39	0	1593835520	34	5926
2026-01-18 16:32:31.15	33.70	36.38	-30.2	-30.8	28.5	0.00e+00	0	39	0	1616904192	34	5629
2026-01-18 16:32:35.18	34.21	37.30	-30.3	-30.9	28.3	0.00e+00	0	39	0	1639972864	34	5684
2026-01-18 16:32:39.22	34.74	38.24	-30.5	-31.1	28.3	0.00e+00	0	39	0	1661992960	34	5814
2026-01-18 16:32:43.26	35.31	39.21	-30.3	-30.9	28.5	0.00e+00	0	39	0	1685061632	34	5651
2026-01-18 16:32:47.30	35.91	40.20	-30.8	-31.4	28.2	0.00e+00	0	39	0	1708130304	34	5976
2026-01-18 16:32:51.35	36.55	41.22	-30.5	-31.1	28.4	0.00e+00	0	39	0	1730150400	34	5787
2026-01-18 16:32:55.39	37.23	42.27	-30.6	-31.1	28.3	0.00e+00	0	39	0	1753219072	34	5809
2026-01-18 16:32:59.43	37.96	43.34	-31.2	-31.9	27.7	0.00e+00	0	39	0	1776287744	34	6323
2026-01-18 16:33:03.47	38.74	44.43	-31.1	-31.7	27.9	0.00e+00	0	39	0	1798307840	34	6192
2026-01-18 16:33:07.51	39.56	45.55	-31.2	-31.8	27.8	0.00e+00	0	39	0	1821376512	34	6295
2026-01-18 16:33:11.54	40.45	46.70	-31.5	-32.1	27.5	0.00e+00	0	39	0	1844445184	34	6469
2026-01-18 16:33:15.58	41.41	47.87	-31.1	-31.7	27.8	0.00e+00	0	39	0	1866465280	34	6241
2026-01-18 16:33:19.63	42.44	49.07	-30.8	-31.4	28.1	0.00e+00	0	39	0	1889533952	34	5984
2026-01-18 16:33:23.67	43.56	50.28	-31.4	-32.0	27.6	0.00e+00	0	39	0	1912602624	34	6436
2026-01-18 16:33:27.71	44.77	51.52	-31.3	-32.0	27.7	0.00e+00	0	39	0	1934622720	34	6399
2026-01-18 16:33:31.75	46.08	52.78	-31.7	-32.3	27.4	0.00e+00	0	39	0	1957691392	34	6672
2026-01-18 16:33:35.79	47.51	54.05	-31.8	-32.5	27.3	0.00e+00	0	39	0	1980760064	36	6058
2026-01-18 16:33:39.83	49.07	55.34	-32.3	-32.9	26.9	0.00e+00	0	39	0	2002780160	36	6387
2026-01-18 16:33:43.87	50.77	56.63	-31.9	-32.5	27.1	0.00e+00	0	39	0	2025848832	36	6098
2026-01-18 16:33:47.91	52.65	57.93	-32.0	-32.6	27.2	0.00e+00	0	39	0	2048917504	36	6141
2026-01-18 16:33:51.95	54.71	59.23	-31.4	-32.0	27.5	0.00e+00	0	39	0	2070937600	36	5733
2026-01-18 16:33:55.99	56.99	60.52	-31.3	-32.0	27.8	0.00e+00	0	39	0	2094006272	36	5715
2026-01-18 16:34:00.03	59.50	61.79	-30.4	-31.0	28.4	0.00e+00	0	39	0	2117074944	34	5748
2026-01-18 16:34:04.07	62.29	63.03	-30.4	-31.1	28.4	0.00e+00	0	39	0	2140143616	34	5764
2026-01-18 16:34:08.11	65.37	64.23	-30.2	-30.8	28.5	0.00e+00	0	39	0	2162163712	34	5592
2026-01-18 16:34:12.15	68.78	65.38	-30.2	-30.8	28.5	0.00e+00	0	39	0	2185232384	34	5572
2026-01-18 16:34:16.19	72.55	66.45	-29.9	-30.5	28.7	0.00e+00	0	39	0	2207252480	34	5405
2026-01-18 16:34:20.23	76.71	67.44	-30.3	-30.9	28.5	0.00e+00	0	40	0	2230321152	34	5657
2026-01-18 16:34:24.27	81.25	68.32	-30.2	-30.8	28.5	0.00e+00	0	39	0	2253389824	34	5579
2026-01-18 16:34:28.30	86.17	69.08	-30.1	-30.7	28.5	0.00e+00	0	39	0	2275409920	34	5545
2026-01-18 16:34:32.34	91.45	69.68	-30.1	-30.7	28.5	0.00e+00	0	39	0	2298478592	34	5563
2026-01-18 16:34:36.38	97.04	70.12	-29.7	-30.3	28.8	0.00e+00	0	39	0	2321547264	32	5928
2026-01-18 16:34:40.42	102.83	70.38	-29.8	-30.4	28.7	0.00e+00	0	39	0	2344615936	32	6012
2026-01-18 16:34:44.46	108.73	70.44	-29.6	-30.2	28.9	0.00e+00	0	39	0	2366636032	32	5851
2026-01-18 16:34:48.50	114.61	70.31	-30.0	-30.6	28.6	0.00e+00	0	39	0	2389704704	32	6169
2026-01-18 16:34:52.53	120.34	70.00	-30.0	-30.6	28.6	0.00e+00	0	39	0	2411724800	32	6141
2026-01-18 16:34:56.58	125.85	69.51	-30.2	-30.8	28.5	0.00e+00	0	39	0	2434793472	32	6269
2026-01-18 16:35:00.61	131.02	68.85	-30.3	-30.8	28.5	0.00e+00	0	39	0	2457862144	32	6295
2026-01-18 16:35:04.65	135.84	68.06	-30.2	-30.7	28.6	0.00e+00	0	39	0	2479882240	32	6244
2026-01-18 16:35:08.69	140.26	67.14	-30.2	-30.9	28.5	0.00e+00	0	39	0	2502950912	32	6331
2026-01-18 16:35:12.73	144.29	66.12	-30.3	-31.0	28.5	0.00e+00	0	39	0	2526019584	32	6398
2026-01-18 16:35:16.77	147.95	65.01	-30.3	-30.9	28.4	0.00e+00	0	39	0	2549088256	32	6386
2026-01-18 16:35:20.81	151.26	63.84	-30.2	-30.9	28.4	0.00e+00	0	39	0	2571108352	32	6328
2026-01-18 16:35:24.85	154.25	62.63	-30.5	-31.2	28.2	0.00e+00	0	39	0	2594177024	32	6547
2026-01-18 16:35:28.89	156.95	61.37	-30.0	-30.5	28.7	0.00e+00	0	39	0	2616197120	34	5383
2026-01-18 16:35:32.93	159.39	60.09	-30.8	-31.4	28.0	0.00e+00	0	40	0	2639265792	34	5976
2026-01-18 16:35:36.97	161.59	58.80	-31.4	-32.0	27.6	0.00e+00	0	39	0	2662334464	34	6432
2026-01-18 16:35:41.01	163.60	57.49	-31.2	-31.9	27.8	0.00e+00	0	39	0	2684354560	34	6355
2026-01-18 16:35:45.05	165.42	56.19	-31.7	-32.3	27.3	0.00e+00	0	40	0	2707423232	34	6681
2026-01-18 16:35:49.09	167.08	54.90	-31.7	-32.3	27.5	0.00e+00	0	39	0	2730491904	36	5953
2026-01-18 16:35:53.12	168.59	53.61	-31.9	-32.6	27.2	0.00e+00	0	39	0	2753560576	36	6108
2026-01-18 16:35:57.16	169.98	52.34	-31.6	-32.1	27.4	0.00e+00	0	40	0	2775580672	36	5820
2026-01-18 16:36:01.20	171.26	51.08	-31.4	-32.0	27.4	0.00e+00	0	40	0	2798649344	36	5727
2026-01-18 16:36:05.24	172.44	49.85	-30.8	-31.3	28.1	0.00e+00	0	40	0	2820669440	36	5295
2026-01-18 16:36:09.27	173.52	48.64	-30.8	-31.5	28.2	0.00e+00	0	39	0	2843738112	34	6034
2026-01-18 16:36:13.31	174.53	47.45	-31.2	-31.9	27.6	0.00e+00	0	39	0	2866806784	34	6361
2026-01-18 16:36:17.33	175.46	46.28	-31.3	-32.0	27.8	0.00e+00	0	40	0	2888826880	34	6405
2026-01-18 16:36:21.37	176.33	45.14	-31.0	-31.5	27.9	0.00e+00	0	39	0	2911895552	34	6075
2026-01-18 16:36:25.42	177.15	44.02	-30.7	-31.4	28.2	0.00e+00	0	39	0	2934964224	34	5980
2026-01-18 16:36:29.46	177.91	42.93	-30.6	-31.2	28.2	0.00e+00	0	39	0	2956984320	34	5896
2026-01-18 16:36:33.50	178.62	41.86	-30.5	-31.2	28.2	0.00e+00	0	40	0	2980052992	34	5867
2026-01-18 16:36:37.54	179.28	40.82	-30.6	-31.1	28.0	0.00e+00	0	40	0	3003121664	34	5814
2026-01-18 16:36:41.58	179.91	39.81	-30.1	-30.6	28.5	0.00e+00	0	40	0	3025141760	34	5498
2026-01-18 16:36:45.61	180.50	38.82	-30.1	-30.8	28.4	0.00e+00	0	39	0	3048210432	34	5594
2026-01-18 16:36:49.65	181.06	37.86	-30.3	-31.0	28.3	0.00e+00	0	39	0	3071279104	34	5753
2026-01-18 16:36:53.69	181.58	36.92	-30.5	-31.2	28.2	0.00e+00	0	40	0	3094347776	34	5855
2026-01-18 16:36:57.73	182.08	36.00	-30.3	-30.9	28.3	0.00e+00	0	39	0	3116367872	34	5694
2026-01-18 16:37:01.76	182.55	35.11	-30.4	-30.9	28.3	0.00e+00	0	39	0	3139436544	34	5695
2026-01-18 16:37:05.81	183.00	34.24	-30.4	-31.0	28.2	0.00e+00	0	40	0	3161456640	34	5701
2026-01-18 16:37:09.85	183.43	33.39	-30.4	-31.1	28.3	0.00e+00	0	39	0	3184525312	34	5791
2026-01-18 16:37:13.89	183.83	32.56	-30.5	-31.0	28.1	0.00e+00	0	40	0	3207593984	34	5760
2026-01-18 16:37:17.94	184.22	31.76	-30.9	-31.6	27.9	0.00e+00	0	40	0	3230662656	34	6129
2026-01-18 16:37:21.98	184.59	30.97	-30.9	-31.5	27.9	0.00e+00	0	40	0	3252682752	34	6040
2026-01-18 16:37:26.02	184.94	30.20	-30.8	-31.5	27.9	0.00e+00	0	39	0	3275751424	34	6080
2026-01-18 16:37:30.06	185.28	29.46	-30.6	-31.1	28.1	0.00e+00	0	40	0	3298820096	34	5823
2026-01-18 16:37:34.10	185.60	28.73	-30.6	-31.2	28.0	0.00e+00	0	40	0	3320840192	34	5830
2026-01-18 16:37:38.14	185.91	28.01	-30.6	-31.3	28.1	0.00e+00	0	39	0	3343908864	34	5903
2026-01-18 16:37:42.18	186.20	27.32	-30.6	-31.2	28.0	0.00e+00	0	40	0	3365928960	34	5833
2026-01-18 16:37:46.22	186.49	26.64	-30.8	-31.4	28.0	0.00e+00	0	40	0	3388997632	34	5970
2026-01-18 16:37:50.26	186.76	25.98	-31.2	-31.7	27.6	0.00e+00	0	40	0	3412066304	34	6213
2026-01-18 16:37:54.30	187.02	25.33	-31.2	-31.8	27.6	0.00e+00	0	40	0	3435134976	34	6267
2026-01-18 16:37:58.33	187.28	24.70	-31.3	-31.9	27.5	0.00e+00	0	39	0	3457155072	34	6320
2026-01-18 16:38:02.37	187.52	24.09	-31.4	-31.9	27.4	0.00e+00	0	40	0	3480223744	34	6383
2026-01-18 16:38:06.41	187.76	23.48	-31.4	-32.0	27.4	0.00e+00	0	40	0	3503292416	34	6405
2026-01-18 16:38:10.45	187.98	22.89	-31.6	-32.1	27.2	0.00e+00	0	40	0	3525312512	34	6511
2026-01-18 16:38:14.50	188.20	22.31	-31.7	-32.3	27.1	0.00e+00	0	40	0	3548381184	34	6616
2026-01-18 16:38:18.54	188.41	21.75	-31.6	-32.2	27.3	0.00e+00	0	40	0	3571449856	36	5836
2026-01-18 16:38:22.58	188.62	21.20	-31.8	-32.4	27.1	0.00e+00	0	40	0	3593469952	36	5978
2026-01-18 16:38:26.62	188.82	20.65	-31.8	-32.4	27.1	0.00e+00	0	40	0	3616538624	36	5972
2026-01-18 16:38:30.66	189.01	20.12	-32.0	-32.6	26.9	0.00e+00	0	39	0	3639607296	36	6129
2026-01-18 16:38:34.70	189.20	19.61	-32.0	-32.6	26.9	0.00e+00	0	39	0	3661627392	36	6105
2026-01-18 16:38:38.73	189.38	19.10	-32.2	-32.9	26.8	0.00e+00	0	39	0	3684696064	36	6375
2026-01-18 16:38:42.77	189.55	18.60	-32.3	-33.0	26.7	0.00e+00	0	40	0	3707764736	36	6458
2026-01-18 16:38:46.81	189.72	18.11	-32.6	-33.2	26.4	0.00e+00	0	39	0	3729784832	36	6545
2026-01-18 16:38:50.86	189.89	17.63	-32.6	-33.2	26.4	0.00e+00	0	40	0	3752853504	36	6572
2026-01-18 16:38:54.89	190.05	17.16	-33.0	-33.7	26.1	0.00e+00	0	40	0	3775922176	38	6185
2026-01-18 16:38:58.94	190.20	16.69	-33.0	-33.7	26.1	0.00e+00	0	40	0	3797942272	38	6230
2026-01-18 16:39:02.98	190.35	16.24	-33.3	-33.8	25.9	0.00e+00	0	40	0	3821010944	38	6311
2026-01-18 16:39:07.03	190.50	15.79	-33.2	-33.8	25.9	0.00e+00	0	39	0	3844079616	38	6265
2026-01-18 16:39:11.07	190.65	15.36	-33.6	-34.3	25.6	0.00e+00	0	40	0	3866099712	38	6687
2026-01-18 16:39:15.11	190.79	14.93	-33.6	-34.3	25.4	0.00e+00	0	40	0	3889168384	38	6677
2026-01-18 16:39:19.14	190.92	14.50	-33.7	-34.4	25.3	0.00e+00	0	40	0	3912237056	40	6019
2026-01-18 16:39:23.18	191.05	14.09	-33.9	-34.5	25.2	0.00e+00	0	40	0	3935305728	40	6038
2026-01-18 16:39:27.23	191.18	13.68	-33.8	-34.5	25.2	0.00e+00	0	40	0	3957325824	40	6041
2026-01-18 16:39:31.27	191.31	13.28	-34.1	-34.7	24.9	0.00e+00	0	40	0	3980394496	40	6212
2026-01-18 16:39:35.31	191.43	12.88	-34.1	-34.8	25.0	0.00e+00	0	40	0	4002414592	40	6307
2026-01-18 16:39:39.35	191.56	12.49	-34.1	-34.7	25.0	0.00e+00	0	40	0	4025483264	40	6202
2026-01-18 16:39:43.39	191.67	12.11	-34.1	-34.8	24.9	0.00e+00	0	40	0	4048551936	40	6251
2026-01-18 16:39:47.43	191.79	11.73	-34.2	-34.8	24.8	0.00e+00	0	40	0	4070572032	40	6275
2026-01-18 16:39:51.47	191.90	11.36	-34.3	-34.9	24.7	0.00e+00	0	40	0	4093640704	40	6354
2026-01-18 16:39:55.51	192.01	10.99	-34.6	-35.2	24.4	0.00e+00	0	40	0	4116709376	40	6571
2026-01-18 16:39:59.55	192.12	10.63	-34.5	-35.3	24.5	0.00e+00	0	40	0	4139778048	40	6620
2026-01-18 16:40:03.59	192.23	10.28	-34.6	-35.2	24.4	0.00e+00	0	40	0	4161798144	42	5875
2026-01-18 16:40:07.64	192.33	9.93	-34.7	-35.3	24.2	0.00e+00	0	40	0	4184866816	42	5934
2026-01-18 16:40:11.68	192.43	9.58	-34.7	-35.5	24.3	0.00e+00	0	40	0	4206886912	42	6039
2026-01-18 16:40:15.72	192.53	9.24	-34.8	-35.4	24.3	0.00e+00	0	40	0	4229955584	42	5992
2026-01-18 16:40:19.76	192.63	8.90	-34.9	-35.6	24.1	0.00e+00	0	40	0	4253024256	42	6110
2026-01-18 16:40:23.80	192.72	8.57	-34.9	-35.7	24.0	0.00e+00	0	40	0	4276092928	42	6186
2026-01-18 16:40:27.84	192.82	8.24	-35.1	-35.9	23.8	0.00e+00	0	40	0	4298113024	42	6343
2026-01-18 16:40:31.89	192.91	7.92	-35.1	-35.7	23.9	0.00e+00	0	40	0	4321181696	42	6228
2026-01-18 16:40:35.92	193.00	7.60	-35.2	-35.8	23.7	0.00e+00	0	40	0	4344250368	42	6300
2026-01-18 16:40:39.97	193.09	7.28	-35.4	-36.2	23.4	0.00e+00	0	40	0	4366270464	42	6594
2026-01-18 16:40:44.01	193.17	6.97	-35.4	-36.2	23.4	0.00e+00	0	40	0	4389339136	42	6549
2026-01-18 16:40:48.05	193.26	6.66	-35.7	-36.4	22.9	0.00e+00	0	40	0	4412407808	44	5986
2026-01-18 16:40:52.09	193.34	6.36	-35.7	-36.4	22.9	0.00e+00	0	40	0	4434427904	44	6032
2026-01-18 16:40:56.12	193.43	6.06	-36.0	-36.8	22.5	0.00e+00	0	40	0	4457496576	44	6314
2026-01-18 16:41:00.16	193.51	5.76	-35.9	-36.6	22.8	0.00e+00	0	40	0	4480565248	44	6124
2026-01-18 16:41:04.20	193.59	5.46	-36.3	-37.1	22.2	0.00e+00	0	40	0	4502585344	44	6467
2026-01-18 16:41:08.24	193.66	5.17	-36.8	-37.6	21.7	0.00e+00	0	40	0	4525654016	46	6152
2026-01-18 16:41:12.29	193.74	4.88	-36.4	-37.3	22.1	0.00e+00	0	40	0	4548722688	46	5899
2026-01-18 16:41:16.32	193.82	4.60	-36.5	-37.3	21.9	0.00e+00	0	40	0	4570742784	46	5910
2026-01-18 16:41:20.36	193.89	4.32	-37.0	-37.9	21.4	0.00e+00	0	40	0	4593811456	46	6352
2026-01-18 16:41:24.40	193.96	4.04	-37.0	-37.8	21.3	0.00e+00	0	40	0	4616880128	46	6315
2026-01-18 16:41:28.44	194.04	3.76	-36.8	-37.5	21.4	0.00e+00	0	40	0	4638900224	46	6086
2026-01-18 16:41:32.48	194.11	3.49	-37.1	-38.0	21.1	0.00e+00	0	40	0	4661968896	46	6446
2026-01-18 16:41:36.52	194.18	3.22	-37.2	-38.1	20.8	0.00e+00	0	40	0	4685037568	48	5809
2026-01-18 16:41:40.56	194.25	2.95	-48.5	-60.5	3.6	8.46e-01	0	40	104	4700766208	60	38315
2026-01-18 16:41:44.60	194.31	2.68	-49.2	-61.4	3.6	8.46e-01	0	40	104	4700766208	60	42366
2026-01-18 16:41:48.64	194.38	2.42	-49.4	-61.6	3.6	8.45e-01	0	40	104	4700766208	60	43706
2026-01-18 16:41:52.68	194.45	2.16	-49.5	-61.6	3.6	8.46e-01	0	40	104	4700766208	60	43615
2026-01-18 16:41:56.72	194.51	1.90	-49.5	-61.6	3.6	8.44e-01	0	40	104	4700766208	60	43354
2026-01-18 16:42:00.76	194.58	1.65	-49.4	-61.5	3.6	8.46e-01	0	40	104	4700766208	60	43124
2026-01-18 16:42:04.80	194.64	1.39	-49.5	-61.6	3.6	8.45e-01	0	40	104	4700766208	60	43608
2026-01-18 16:42:08.84	194.70	1.14	-49.5	-61.6	3.6	8.45e-01	0	40	104	4700766208	60	43262
2026-01-18 16:42:12.88	194.76	0.89	-49.5	-61.6	3.6	8.45e-01	0	40	104	4700766208	60	43411
2026-01-18 16:42:16.92	194.82	0.64	-49.5	-61.6	3.6	8.45e-01	0	40	104	4700766208	60	43299
2026-01-18 16:42:20.96	194.88	0.40	-49.4	-61.6	3.6	8.45e-01	0	40	104	4700766208	60	43608
2026-01-18 16:42:25.01	194.94	0.15	-49.4	-61.6	3.6	8.45e-01	0	40	104	4700766208	60	43309
2026-01-18 16:42:29.04	195.00	-0.09	-49.4	-61.5	3.6	8.44e-01	0	40	104	4700766208	60	43172

#Closed at: 2026-01-18 16:42:30
#Recorded file [4700 MB]: D:/lorett/data/35029_260119_042659.dat