passes_logs/2026/01/18/R4.6S_Anadyr/R4.6S_Anadyr__20260118_184807_SUOMI_NPP_rec.log

#Pass ID: 20260118_184807_SUOMI NPP
#Satellite: SUOMI NPP
#Configuration: NPP
#almurnet v.1.7.20251203
#Start time: 2026-01-18 18:48:10

#Version: 2.2.20231116
#Station: R4.6S_Anadyr
#Location: 177.4865 lon 64.73178 lat
#TLE: 1 37849U 11061A   26017.57099531  .00000072  00000+0  54974-4 0  9996
#TLE: 2 37849  98.7814 319.5974 0002398  59.1749 300.9663 14.19525865737072

#Time	Az	El	Level	Level2	SNR	BER	BlckErr	Temp	State	Recorded	gain1	gain2
2026-01-18 18:48:10.89	43.74	0.15	-49.7	-63.4	3.3	1.54e+00	0	39	0	0	60	53630
2026-01-18 18:48:13.92	43.52	0.30	-49.7	-65.0	3.6	1.51e+00	0	39	104	0	60	63955
2026-01-18 18:48:16.95	43.29	0.45	-49.8	-64.9	3.6	1.51e+00	0	40	104	0	60	63879
2026-01-18 18:48:19.98	43.06	0.60	-49.7	-65.0	3.6	1.51e+00	0	40	104	0	60	64141
2026-01-18 18:48:23.01	42.83	0.75	-49.7	-64.9	3.6	1.51e+00	0	40	104	0	60	63309
2026-01-18 18:48:26.05	42.60	0.90	-49.5	-64.8	3.6	1.51e+00	0	40	104	0	60	62477
2026-01-18 18:48:29.08	42.36	1.05	-49.3	-64.5	3.6	1.51e+00	0	40	104	0	60	60650
2026-01-18 18:48:32.11	42.13	1.20	-48.7	-63.9	3.6	1.51e+00	0	40	104	0	60	56868
2026-01-18 18:48:35.14	41.88	1.36	-47.8	-63.0	3.6	1.51e+00	0	40	104	0	60	51079
2026-01-18 18:48:38.17	41.64	1.51	-47.8	-63.0	3.6	1.51e+00	0	40	104	0	60	50950
2026-01-18 18:48:41.20	41.40	1.66	-47.8	-63.0	3.6	1.51e+00	0	40	104	0	60	50835
2026-01-18 18:48:44.23	41.15	1.81	-47.8	-63.0	3.6	1.51e+00	0	40	104	0	60	51125
2026-01-18 18:48:47.26	40.90	1.97	-47.8	-62.9	3.6	1.51e+00	0	40	104	0	60	50468
2026-01-18 18:48:50.29	40.64	2.12	-47.7	-62.5	3.6	1.51e+00	0	40	104	0	60	48461
2026-01-18 18:48:53.32	40.39	2.27	-47.8	-62.9	3.5	1.51e+00	0	40	104	0	60	50630
2026-01-18 18:48:56.35	40.13	2.43	-47.7	-62.5	3.6	1.51e+00	0	40	104	0	60	48208
2026-01-18 18:48:59.38	39.86	2.58	-47.7	-62.8	3.6	1.51e+00	0	40	104	0	60	49817
2026-01-18 18:49:02.41	39.60	2.74	-47.7	-61.1	3.6	1.51e+00	0	40	104	0	60	40826
2026-01-18 18:49:05.44	39.33	2.89	-47.7	-60.9	3.6	1.51e+00	0	40	104	0	60	40318
2026-01-18 18:49:08.47	39.06	3.05	-47.6	-57.2	3.8	1.60e-01	0	40	0	3145728	60	26138
2026-01-18 18:49:11.50	38.79	3.20	-47.8	-62.7	3.6	1.51e+00	0	40	104	3145728	60	49469
2026-01-18 18:49:14.53	38.51	3.36	-44.7	-47.7	13.9	0.00e+00	0	40	0	5242880	60	8806
2026-01-18 18:49:17.56	38.23	3.51	-43.7	-46.0	16.0	0.00e+00	0	40	0	10485760	60	7228
2026-01-18 18:49:20.60	37.95	3.67	-43.4	-45.6	16.3	0.00e+00	0	40	0	15728640	60	6913
2026-01-18 18:49:23.62	37.66	3.82	-43.7	-46.0	16.1	0.00e+00	0	40	0	22020096	60	7239
2026-01-18 18:49:26.66	37.37	3.98	-43.7	-46.0	16.1	0.00e+00	0	40	0	27262976	60	7223
2026-01-18 18:49:29.69	37.08	4.14	-43.4	-45.6	16.7	0.00e+00	0	40	0	33554432	60	6864
2026-01-18 18:49:32.72	36.78	4.29	-43.6	-45.9	16.5	0.00e+00	0	40	0	38797312	60	7123
2026-01-18 18:49:35.75	36.48	4.45	-43.6	-45.9	16.4	0.00e+00	0	40	0	45088768	60	7106
2026-01-18 18:49:38.78	36.18	4.61	-43.2	-45.3	17.1	0.00e+00	0	40	0	50331648	60	6681
2026-01-18 18:49:41.81	35.88	4.77	-43.2	-45.2	17.2	0.00e+00	0	40	0	55574528	60	6610
2026-01-18 18:49:44.84	35.57	4.92	-43.1	-45.2	17.3	0.00e+00	0	40	0	61865984	60	6582
2026-01-18 18:49:47.87	35.25	5.08	-42.8	-44.7	17.7	0.00e+00	0	40	0	67108864	58	6976
2026-01-18 18:49:50.90	34.94	5.24	-42.8	-44.7	17.7	0.00e+00	0	40	0	73400320	58	6928
2026-01-18 18:49:53.93	34.62	5.40	-43.0	-45.0	17.4	0.00e+00	0	40	0	78643200	58	7171
2026-01-18 18:49:56.96	34.29	5.55	-43.1	-45.1	17.4	0.00e+00	0	40	0	84934656	58	7314
2026-01-18 18:49:59.99	33.97	5.71	-43.0	-44.9	17.7	0.00e+00	0	40	0	90177536	58	7149
2026-01-18 18:50:03.01	33.64	5.87	-42.9	-44.9	17.3	0.00e+00	0	40	0	95420416	58	7120
2026-01-18 18:50:06.05	33.30	6.03	-42.9	-44.8	17.9	0.00e+00	0	40	0	101711872	58	7061
2026-01-18 18:50:09.07	32.97	6.19	-42.7	-44.6	17.9	0.00e+00	0	40	0	106954752	58	6854
2026-01-18 18:50:12.10	32.62	6.34	-42.9	-44.8	17.8	0.00e+00	0	40	0	113246208	58	7035
2026-01-18 18:50:15.13	32.28	6.50	-42.5	-44.2	18.4	0.00e+00	0	40	0	118489088	58	6571
2026-01-18 18:50:18.16	31.93	6.66	-42.2	-43.9	18.6	0.00e+00	0	40	0	123731968	58	6355
2026-01-18 18:50:21.20	31.57	6.82	-42.1	-43.7	18.8	0.00e+00	0	40	0	130023424	56	6992
2026-01-18 18:50:24.23	31.22	6.98	-41.6	-43.0	19.6	0.00e+00	0	40	0	135266304	56	6435
2026-01-18 18:50:27.26	30.85	7.13	-41.6	-43.0	19.3	0.00e+00	0	40	0	141557760	56	6430
2026-01-18 18:50:30.29	30.49	7.29	-41.7	-43.2	19.4	0.00e+00	0	40	0	146800640	56	6583
2026-01-18 18:50:33.32	30.12	7.45	-41.7	-43.1	19.5	0.00e+00	0	40	0	153092096	56	6533
2026-01-18 18:50:36.35	29.75	7.61	-41.8	-43.3	19.3	0.00e+00	0	40	0	158334976	56	6656
2026-01-18 18:50:39.38	29.37	7.76	-42.0	-43.5	19.2	0.00e+00	0	40	0	163577856	56	6818
2026-01-18 18:50:42.41	28.99	7.92	-42.1	-43.7	19.2	0.00e+00	0	40	0	169869312	56	6941
2026-01-18 18:50:45.44	28.60	8.08	-42.1	-43.7	19.0	0.00e+00	0	40	0	175112192	56	6956
2026-01-18 18:50:48.47	28.21	8.23	-42.4	-44.1	18.9	0.00e+00	0	40	0	181403648	56	7290
2026-01-18 18:50:51.50	27.81	8.39	-42.1	-43.6	19.0	0.00e+00	0	41	0	186646528	56	6895
2026-01-18 18:50:54.53	27.41	8.55	-41.8	-43.3	19.5	0.00e+00	0	41	0	191889408	56	6645
2026-01-18 18:50:57.56	27.01	8.70	-41.9	-43.3	19.4	0.00e+00	0	41	0	198180864	56	6690
2026-01-18 18:51:00.58	26.60	8.86	-41.7	-43.1	19.7	0.00e+00	0	41	0	203423744	56	6519
2026-01-18 18:51:03.61	26.19	9.01	-41.5	-42.9	20.0	0.00e+00	0	40	0	209715200	56	6333
2026-01-18 18:51:06.64	25.77	9.16	-41.7	-43.2	19.5	0.00e+00	0	41	0	214958080	56	6543
2026-01-18 18:51:09.67	25.35	9.32	-41.8	-43.2	19.6	0.00e+00	0	41	0	221249536	56	6610
2026-01-18 18:51:12.70	24.93	9.47	-42.0	-43.5	19.3	0.00e+00	0	41	0	226492416	56	6817
2026-01-18 18:51:15.73	24.50	9.62	-42.3	-44.0	19.0	0.00e+00	0	40	0	231735296	56	7184
2026-01-18 18:51:18.75	24.06	9.77	-42.1	-43.6	19.3	0.00e+00	0	41	0	238026752	56	6911
2026-01-18 18:51:21.78	23.62	9.92	-42.1	-43.6	19.4	0.00e+00	0	41	0	243269632	56	6905
2026-01-18 18:51:24.81	23.18	10.07	-41.9	-43.4	19.6	0.00e+00	0	41	0	249561088	56	6746
2026-01-18 18:51:27.84	22.73	10.22	-41.1	-42.4	20.4	0.00e+00	0	41	0	254803968	56	5971
2026-01-18 18:51:30.87	22.27	10.37	-40.9	-42.2	20.5	0.00e+00	0	41	0	260046848	56	5872
2026-01-18 18:51:33.90	21.82	10.52	-40.6	-41.9	20.8	0.00e+00	0	41	0	266338304	54	6342
2026-01-18 18:51:36.93	21.35	10.67	-40.3	-41.5	21.2	0.00e+00	0	41	0	271581184	54	6088
2026-01-18 18:51:39.96	20.89	10.81	-40.1	-41.3	21.4	0.00e+00	0	41	0	277872640	54	5918
2026-01-18 18:51:42.99	20.41	10.96	-39.7	-40.8	21.8	0.00e+00	0	41	0	283115520	54	5624
2026-01-18 18:51:46.02	19.93	11.10	-39.9	-41.0	21.6	0.00e+00	0	41	0	289406976	52	6445
2026-01-18 18:51:49.05	19.45	11.24	-40.4	-41.7	21.1	0.00e+00	0	41	0	294649856	52	6942
2026-01-18 18:51:52.08	18.97	11.38	-40.1	-41.2	21.4	0.00e+00	0	41	0	299892736	52	6592
2026-01-18 18:51:55.11	18.47	11.52	-40.0	-41.2	21.5	0.00e+00	0	41	0	306184192	52	6567
2026-01-18 18:51:58.14	17.98	11.66	-39.4	-40.5	22.1	0.00e+00	0	41	0	311427072	52	6060
2026-01-18 18:52:01.17	17.48	11.80	-39.6	-40.6	22.0	0.00e+00	0	41	0	317718528	52	6153
2026-01-18 18:52:04.20	16.97	11.94	-39.6	-40.6	22.0	0.00e+00	0	41	0	322961408	52	6152
2026-01-18 18:52:07.23	16.46	12.07	-39.8	-40.9	21.8	0.00e+00	0	41	0	328204288	52	6332
2026-01-18 18:52:10.26	15.94	12.20	-39.9	-41.0	21.6	0.00e+00	0	41	0	334495744	52	6459
2026-01-18 18:52:13.29	15.42	12.34	-39.4	-40.4	22.2	0.00e+00	0	41	0	339738624	52	6019
2026-01-18 18:52:16.32	14.90	12.47	-39.1	-40.1	22.5	0.00e+00	0	41	0	346030080	52	5772
2026-01-18 18:52:19.35	14.37	12.59	-39.0	-40.0	22.6	0.00e+00	0	41	0	351272960	50	6410
2026-01-18 18:52:22.38	13.83	12.72	-39.2	-40.2	22.2	0.00e+00	0	41	0	357564416	50	6588
2026-01-18 18:52:25.41	13.29	12.84	-39.7	-40.8	21.9	0.00e+00	0	41	0	362807296	50	7010
2026-01-18 18:52:28.44	12.75	12.97	-39.8	-40.9	21.8	0.00e+00	0	40	0	368050176	52	6331
2026-01-18 18:52:31.47	12.20	13.09	-39.6	-40.6	22.1	0.00e+00	0	41	0	374341632	52	6164
2026-01-18 18:52:34.50	11.65	13.21	-39.7	-40.8	21.7	0.00e+00	0	41	0	379584512	52	6289
2026-01-18 18:52:37.53	11.09	13.32	-40.2	-41.4	21.4	0.00e+00	0	41	0	385875968	52	6710
2026-01-18 18:52:40.56	10.53	13.44	-40.1	-41.3	21.6	0.00e+00	0	40	0	391118848	52	6624
2026-01-18 18:52:43.59	9.96	13.55	-39.7	-40.8	22.0	0.00e+00	0	40	0	396361728	52	6293
2026-01-18 18:52:46.62	9.39	13.66	-39.4	-40.4	22.2	0.00e+00	0	41	0	402653184	52	5995
2026-01-18 18:52:49.65	8.82	13.77	-39.5	-40.6	22.0	0.00e+00	0	41	0	407896064	52	6148
2026-01-18 18:52:52.68	8.24	13.87	-39.1	-40.1	22.4	0.00e+00	0	41	0	414187520	52	5782
2026-01-18 18:52:55.71	7.66	13.97	-39.1	-40.1	22.4	0.00e+00	0	40	0	419430400	52	5803
2026-01-18 18:52:58.74	7.07	14.07	-39.5	-40.6	22.1	0.00e+00	0	41	0	425721856	52	6143
2026-01-18 18:53:01.77	6.48	14.17	-39.7	-40.9	21.9	0.00e+00	0	40	0	430964736	52	6328
2026-01-18 18:53:04.80	5.88	14.27	-39.4	-40.5	22.0	0.00e+00	0	41	0	436207616	52	6055
2026-01-18 18:53:07.83	5.28	14.36	-38.9	-39.9	22.7	0.00e+00	0	41	0	442499072	52	5649
2026-01-18 18:53:10.86	4.68	14.45	-39.1	-40.1	22.4	0.00e+00	0	41	0	447741952	52	5762
2026-01-18 18:53:13.89	4.08	14.53	-39.3	-40.4	22.5	0.00e+00	0	41	0	454033408	52	5967
2026-01-18 18:53:16.93	3.46	14.62	-38.9	-39.9	22.6	0.00e+00	0	41	0	459276288	52	5663
2026-01-18 18:53:19.95	2.85	14.70	-38.6	-39.5	22.9	0.00e+00	0	41	0	465567744	50	6058
2026-01-18 18:53:22.99	2.23	14.77	-38.6	-39.6	23.0	0.00e+00	0	41	0	470810624	50	6122
2026-01-18 18:53:26.02	1.61	14.85	-39.3	-40.3	22.4	0.00e+00	0	41	0	476053504	50	6629
2026-01-18 18:53:29.05	0.99	14.92	-39.2	-40.2	22.5	0.00e+00	0	41	0	482344960	50	6614
2026-01-18 18:53:32.08	0.37	14.99	-39.3	-40.4	22.4	0.00e+00	0	41	0	487587840	50	6696
2026-01-18 18:53:35.11	359.74	15.05	-39.9	-41.0	21.9	0.00e+00	0	41	0	493879296	52	6404
2026-01-18 18:53:38.14	359.11	15.11	-39.4	-40.4	22.2	0.00e+00	0	41	0	499122176	52	6028
2026-01-18 18:53:41.17	358.47	15.17	-39.5	-40.6	22.2	0.00e+00	0	41	0	504365056	52	6151
2026-01-18 18:53:44.20	357.84	15.22	-39.3	-40.3	22.5	0.00e+00	0	41	0	510656512	52	5918
2026-01-18 18:53:47.23	357.20	15.27	-38.7	-39.6	22.9	0.00e+00	0	41	0	515899392	52	5488
2026-01-18 18:53:50.26	356.56	15.32	-39.0	-40.0	22.7	0.00e+00	0	41	0	522190848	50	6443
2026-01-18 18:53:53.29	355.92	15.37	-39.1	-40.1	22.6	0.00e+00	0	41	0	527433728	50	6520
2026-01-18 18:53:56.31	355.27	15.41	-39.1	-40.2	22.5	0.00e+00	0	41	0	533725184	50	6563
2026-01-18 18:53:59.34	354.63	15.44	-39.5	-40.5	22.2	0.00e+00	0	41	0	538968064	50	6818
2026-01-18 18:54:02.38	353.98	15.48	-39.5	-40.6	22.2	0.00e+00	0	41	0	544210944	50	6861
2026-01-18 18:54:05.41	353.33	15.51	-39.5	-40.5	22.2	0.00e+00	0	41	0	550502400	52	6101
2026-01-18 18:54:08.44	352.68	15.53	-39.8	-40.9	22.0	0.00e+00	0	41	0	555745280	52	6335
2026-01-18 18:54:11.47	352.03	15.55	-39.4	-40.4	22.3	0.00e+00	0	41	0	562036736	52	6031
2026-01-18 18:54:14.50	351.38	15.57	-39.4	-40.4	22.4	0.00e+00	0	41	0	567279616	52	5992
2026-01-18 18:54:17.53	350.73	15.59	-39.7	-40.8	22.0	0.00e+00	0	41	0	572522496	52	6247
2026-01-18 18:54:20.56	350.07	15.60	-39.4	-40.4	22.4	0.00e+00	0	41	0	578813952	52	6019
2026-01-18 18:54:23.59	349.42	15.60	-39.2	-40.3	22.3	0.00e+00	0	41	0	584056832	52	5911
2026-01-18 18:54:26.63	348.76	15.61	-39.7	-40.8	22.0	0.00e+00	0	41	0	590348288	52	6272
2026-01-18 18:54:29.65	348.11	15.61	-39.5	-40.5	22.4	0.00e+00	0	41	0	595591168	52	6068
2026-01-18 18:54:32.68	347.46	15.60	-38.8	-39.7	22.9	0.00e+00	0	41	0	601882624	52	5541
2026-01-18 18:54:35.71	346.80	15.59	-38.9	-39.9	22.7	0.00e+00	0	41	0	607125504	50	6339
2026-01-18 18:54:38.74	346.15	15.58	-39.3	-40.4	22.2	0.00e+00	0	41	0	612368384	50	6733
2026-01-18 18:54:41.77	345.50	15.57	-39.7	-40.8	21.4	0.00e+00	0	41	0	618659840	52	6272
2026-01-18 18:54:44.80	344.85	15.55	-40.0	-41.2	21.6	0.00e+00	0	41	0	623902720	52	6556
2026-01-18 18:54:47.83	344.20	15.52	-40.3	-41.5	21.4	0.00e+00	0	41	0	630194176	52	6818
2026-01-18 18:54:50.86	343.55	15.50	-40.0	-41.2	21.8	0.00e+00	0	41	0	635437056	52	6554
2026-01-18 18:54:53.89	342.90	15.47	-39.6	-40.8	22.1	0.00e+00	0	41	0	640679936	52	6246
2026-01-18 18:54:56.92	342.25	15.43	-39.3	-40.3	22.4	0.00e+00	0	41	0	646971392	52	5939
2026-01-18 18:54:59.95	341.60	15.39	-39.4	-40.4	22.4	0.00e+00	0	41	0	652214272	52	6012
2026-01-18 18:55:02.98	340.96	15.35	-39.5	-40.6	22.2	0.00e+00	0	41	0	658505728	52	6127
2026-01-18 18:55:06.01	340.32	15.31	-39.2	-40.3	22.3	0.00e+00	0	41	0	663748608	52	5899
2026-01-18 18:55:09.05	339.68	15.26	-39.2	-40.2	22.6	0.00e+00	0	41	0	670040064	52	5876
2026-01-18 18:55:12.08	339.04	15.21	-39.4	-40.4	22.3	0.00e+00	0	41	0	675282944	52	6013
2026-01-18 18:55:15.11	338.40	15.15	-39.6	-40.7	22.0	0.00e+00	0	41	0	680525824	52	6176
2026-01-18 18:55:18.14	337.77	15.09	-40.4	-41.5	21.3	0.00e+00	0	41	0	686817280	52	6834
2026-01-18 18:55:21.17	337.14	15.03	-40.8	-42.0	21.0	0.00e+00	0	41	0	692060160	54	6438
2026-01-18 18:55:24.20	336.51	14.97	-40.8	-42.1	20.9	0.00e+00	0	41	0	698351616	54	6487
2026-01-18 18:55:27.23	335.89	14.90	-40.7	-42.0	21.0	0.00e+00	0	41	0	703594496	54	6411
2026-01-18 18:55:30.26	335.27	14.83	-39.6	-40.7	22.0	0.00e+00	0	41	0	709885952	52	6195
2026-01-18 18:55:33.29	334.65	14.75	-39.3	-40.3	22.4	0.00e+00	0	41	0	715128832	52	5964
2026-01-18 18:55:36.32	334.03	14.67	-39.5	-40.5	22.4	0.00e+00	0	41	0	720371712	52	6090
2026-01-18 18:55:39.35	333.42	14.59	-39.4	-40.4	22.2	0.00e+00	0	41	0	726663168	52	5989
2026-01-18 18:55:42.38	332.81	14.51	-40.2	-41.3	21.3	0.00e+00	0	41	0	731906048	52	6691
2026-01-18 18:55:45.41	332.21	14.42	-40.5	-41.6	21.4	0.00e+00	0	41	0	738197504	52	6899
2026-01-18 18:55:48.44	331.60	14.33	-40.4	-41.6	21.3	0.00e+00	0	41	0	743440384	52	6871
2026-01-18 18:55:51.47	331.01	14.24	-40.8	-42.0	20.9	0.00e+00	0	41	0	748683264	54	6458
2026-01-18 18:55:54.50	330.41	14.14	-40.3	-41.5	21.5	0.00e+00	0	41	0	754974720	54	6056
2026-01-18 18:55:57.53	329.82	14.04	-39.6	-40.6	22.3	0.00e+00	0	41	0	760217600	52	6128
2026-01-18 18:56:00.56	329.24	13.94	-39.1	-40.1	22.6	0.00e+00	0	41	0	766509056	52	5790
2026-01-18 18:56:03.59	328.65	13.84	-39.0	-40.0	22.7	0.00e+00	0	41	0	771751936	52	5739
2026-01-18 18:56:06.62	328.08	13.73	-39.1	-40.0	22.7	0.00e+00	0	41	0	778043392	52	5752
2026-01-18 18:56:09.65	327.50	13.63	-38.5	-39.4	23.2	0.00e+00	0	41	0	783286272	50	6017
2026-01-18 18:56:12.68	326.93	13.52	-38.4	-39.3	22.8	0.00e+00	0	41	0	788529152	50	5953
2026-01-18 18:56:15.71	326.37	13.40	-39.0	-39.9	22.8	0.00e+00	0	41	0	794820608	50	6382
2026-01-18 18:56:18.74	325.81	13.29	-39.7	-40.8	22.2	0.00e+00	0	41	0	800063488	50	7017
2026-01-18 18:56:21.77	325.25	13.17	-40.1	-41.2	21.7	0.00e+00	0	41	0	806354944	52	6568
2026-01-18 18:56:24.80	324.70	13.05	-40.6	-41.8	21.2	0.00e+00	0	41	0	811597824	52	7052
2026-01-18 18:56:27.82	324.15	12.93	-40.5	-41.7	21.2	0.00e+00	0	41	0	816840704	54	6193
2026-01-18 18:56:30.85	323.61	12.81	-40.3	-41.4	21.5	0.00e+00	0	41	0	823132160	54	6011
2026-01-18 18:56:33.89	323.07	12.68	-40.4	-41.5	21.5	0.00e+00	0	41	0	828375040	54	6086
2026-01-18 18:56:36.92	322.54	12.55	-41.0	-42.2	21.0	0.00e+00	0	41	0	834666496	54	6572
2026-01-18 18:56:39.95	322.01	12.43	-40.6	-41.8	21.3	0.00e+00	0	41	0	839909376	54	6265
2026-01-18 18:56:42.98	321.49	12.30	-40.6	-41.7	21.3	0.00e+00	0	41	0	846200832	54	6226
2026-01-18 18:56:46.01	320.97	12.16	-40.5	-41.6	21.4	0.00e+00	0	41	0	851443712	54	6111
2026-01-18 18:56:49.04	320.45	12.03	-39.8	-40.9	22.0	0.00e+00	0	41	0	856686592	54	5634
2026-01-18 18:56:52.07	319.94	11.90	-39.6	-40.6	22.2	0.00e+00	0	41	0	862978048	52	6168
2026-01-18 18:56:55.10	319.44	11.76	-40.4	-41.5	21.4	0.00e+00	0	41	0	868220928	52	6787
2026-01-18 18:56:58.13	318.94	11.62	-41.1	-42.4	20.9	0.00e+00	0	41	0	874512384	54	6713
2026-01-18 18:57:01.16	318.44	11.48	-40.9	-42.1	20.9	0.00e+00	0	41	0	879755264	54	6504
2026-01-18 18:57:04.19	317.95	11.34	-40.4	-41.5	21.5	0.00e+00	0	41	0	884998144	54	6098
2026-01-18 18:57:07.22	317.46	11.20	-40.9	-42.0	20.9	0.00e+00	0	41	0	891289600	54	6460
2026-01-18 18:57:10.25	316.98	11.06	-42.6	-44.1	19.1	0.00e+00	0	41	0	896532480	56	7304
2026-01-18 18:57:13.28	316.51	10.91	-43.6	-45.5	17.7	0.00e+00	0	41	0	902823936	58	7642
2026-01-18 18:57:16.31	316.03	10.77	-43.5	-45.3	17.9	0.00e+00	0	41	0	908066816	60	6656
2026-01-18 18:57:19.35	315.57	10.62	-42.8	-44.4	18.9	0.00e+00	0	41	0	913309696	60	5973
2026-01-18 18:57:22.38	315.10	10.47	-42.5	-44.0	19.2	0.00e+00	0	41	0	919601152	58	6437
2026-01-18 18:57:25.41	314.65	10.33	-41.9	-43.2	19.9	0.00e+00	0	41	0	924844032	58	5891
2026-01-18 18:57:28.43	314.19	10.18	-41.5	-42.8	20.3	0.00e+00	0	41	0	931135488	56	6300
2026-01-18 18:57:31.47	313.75	10.03	-41.5	-42.8	20.2	0.00e+00	0	41	0	936378368	56	6298
2026-01-18 18:57:34.50	313.30	9.88	-41.6	-42.9	20.1	0.00e+00	0	41	0	942669824	56	6354
2026-01-18 18:57:37.53	312.86	9.73	-41.4	-42.6	20.4	0.00e+00	0	41	0	947912704	56	6147
2026-01-18 18:57:40.56	312.43	9.57	-41.1	-42.3	20.8	0.00e+00	0	41	0	953155584	56	5934
2026-01-18 18:57:43.59	312.00	9.42	-40.6	-41.8	20.9	0.00e+00	0	41	0	959447040	54	6297
2026-01-18 18:57:46.62	311.57	9.27	-40.8	-42.1	21.0	0.00e+00	0	41	0	964689920	54	6469
2026-01-18 18:57:49.65	311.15	9.12	-41.0	-42.2	20.6	0.00e+00	0	41	0	970981376	54	6568
2026-01-18 18:57:52.68	310.74	8.96	-41.6	-42.9	20.1	0.00e+00	0	41	0	976224256	54	7126
2026-01-18 18:57:55.71	310.33	8.81	-41.4	-42.7	20.2	0.00e+00	0	41	0	982515712	54	6992
2026-01-18 18:57:58.74	309.92	8.65	-41.4	-42.8	20.2	0.00e+00	0	41	0	987758592	54	7022
2026-01-18 18:58:01.77	309.52	8.50	-41.3	-42.7	20.3	0.00e+00	0	41	0	993001472	54	6928
2026-01-18 18:58:04.80	309.12	8.34	-41.6	-43.0	20.0	0.00e+00	0	41	0	999292928	56	6425
2026-01-18 18:58:07.83	308.72	8.18	-40.4	-41.6	21.1	0.00e+00	0	41	0	1004535808	54	6160
2026-01-18 18:58:10.86	308.33	8.03	-40.2	-41.4	21.3	0.00e+00	0	41	0	1010827264	54	5972
2026-01-18 18:58:13.89	307.95	7.87	-40.0	-41.1	21.6	0.00e+00	0	41	0	1016070144	54	5790
2026-01-18 18:58:16.92	307.57	7.71	-39.9	-41.0	21.7	0.00e+00	0	41	0	1021313024	52	6392
2026-01-18 18:58:19.95	307.19	7.56	-40.1	-41.3	21.4	0.00e+00	0	41	0	1027604480	52	6624
2026-01-18 18:58:22.98	306.82	7.40	-39.8	-40.9	21.7	0.00e+00	0	41	0	1032847360	52	6362
2026-01-18 18:58:26.01	306.45	7.24	-40.0	-41.1	21.5	0.00e+00	0	41	0	1039138816	52	6480
2026-01-18 18:58:29.04	306.08	7.08	-39.9	-41.0	21.6	0.00e+00	0	41	0	1044381696	52	6400
2026-01-18 18:58:32.08	305.72	6.92	-40.4	-41.5	21.1	0.00e+00	0	41	0	1050673152	52	6843
2026-01-18 18:58:35.11	305.36	6.77	-40.5	-41.7	20.9	0.00e+00	0	41	0	1055916032	52	6960
2026-01-18 18:58:38.14	305.01	6.61	-40.6	-41.9	20.7	0.00e+00	0	41	0	1061158912	54	6332
2026-01-18 18:58:41.17	304.66	6.45	-40.7	-41.9	20.6	0.00e+00	0	41	0	1067450368	54	6358
2026-01-18 18:58:44.20	304.32	6.29	-40.9	-42.2	20.4	0.00e+00	0	41	0	1072693248	54	6573
2026-01-18 18:58:47.23	303.98	6.13	-40.9	-42.2	20.2	0.00e+00	0	41	0	1078984704	54	6554
2026-01-18 18:58:50.26	303.64	5.98	-41.0	-42.3	20.3	0.00e+00	0	41	0	1084227584	54	6627
2026-01-18 18:58:53.29	303.31	5.82	-40.9	-42.2	20.3	0.00e+00	0	41	0	1089470464	54	6561
2026-01-18 18:58:56.33	302.97	5.66	-40.5	-41.8	20.7	0.00e+00	0	41	0	1095761920	54	6266
2026-01-18 18:58:59.36	302.65	5.50	-40.4	-41.6	20.8	0.00e+00	0	41	0	1101004800	54	6161
2026-01-18 18:59:02.39	302.33	5.34	-40.7	-42.0	20.5	0.00e+00	0	41	0	1107296256	54	6404
2026-01-18 18:59:05.43	302.01	5.19	-41.3	-42.7	19.8	0.00e+00	0	41	0	1112539136	54	6977
2026-01-18 18:59:08.45	301.69	5.03	-41.8	-43.3	19.4	0.00e+00	0	41	0	1118830592	56	6644
2026-01-18 18:59:11.48	301.38	4.87	-41.7	-43.2	19.3	0.00e+00	0	41	0	1124073472	56	6565
2026-01-18 18:59:14.51	301.07	4.71	-41.2	-42.6	19.9	0.00e+00	0	41	0	1129316352	56	6131
2026-01-18 18:59:17.54	300.77	4.56	-40.9	-42.2	20.2	0.00e+00	0	41	0	1135607808	56	5877
2026-01-18 18:59:20.57	300.46	4.40	-40.6	-41.9	20.5	0.00e+00	0	41	0	1140850688	54	6327
2026-01-18 18:59:23.60	300.16	4.24	-40.2	-41.4	20.8	0.00e+00	0	41	0	1147142144	54	6005
2026-01-18 18:59:26.63	299.87	4.09	-40.7	-42.0	20.2	0.00e+00	0	41	0	1152385024	54	6454
2026-01-18 18:59:29.67	299.58	3.93	-41.1	-42.5	19.8	0.00e+00	0	41	0	1158676480	54	6770
2026-01-18 18:59:32.69	299.29	3.77	-42.0	-43.6	18.8	0.00e+00	0	41	0	1163919360	56	6898
2026-01-18 18:59:35.72	299.00	3.62	-42.3	-44.0	18.3	0.00e+00	0	41	0	1169162240	56	7202
2026-01-18 18:59:38.75	298.72	3.46	-42.7	-44.6	17.8	0.00e+00	0	41	0	1175453696	56	7701
2026-01-18 18:59:41.78	298.44	3.30	-42.7	-44.5	17.8	0.00e+00	0	41	0	1180696576	58	6839
2026-01-18 18:59:44.81	298.16	3.15	-42.7	-44.5	17.7	0.00e+00	0	41	0	1186988032	58	6832
2026-01-18 18:59:47.84	297.89	2.99	-48.6	-63.7	3.6	2.66e-01	0	41	104	1191182336	60	55285
2026-01-18 18:59:50.87	297.62	2.84	-49.5	-64.7	3.6	1.51e+00	0	41	104	1191182336	60	61948
2026-01-18 18:59:53.90	297.35	2.69	-49.8	-65.0	3.6	1.51e+00	0	41	104	1191182336	60	64004
2026-01-18 18:59:56.93	297.09	2.53	-49.9	-65.1	3.6	1.51e+00	0	41	104	1191182336	60	65077
2026-01-18 18:59:59.96	296.83	2.38	-49.8	-65.1	3.6	1.51e+00	0	41	104	1191182336	60	64732
2026-01-18 19:00:02.99	296.57	2.22	-49.7	-65.1	3.6	1.51e+00	0	41	104	1191182336	60	64771
2026-01-18 19:00:06.02	296.31	2.07	-49.8	-65.0	3.6	1.51e+00	0	41	104	1191182336	60	64324
2026-01-18 19:00:09.05	296.06	1.92	-49.7	-64.9	3.6	1.51e+00	0	41	104	1191182336	60	63629
2026-01-18 19:00:12.08	295.81	1.76	-49.7	-64.9	3.6	1.51e+00	0	41	104	1191182336	60	63454
2026-01-18 19:00:15.11	295.56	1.61	-49.8	-64.9	3.6	1.51e+00	0	41	104	1191182336	60	63894
2026-01-18 19:00:18.14	295.31	1.46	-49.8	-65.0	3.6	1.51e+00	0	41	104	1191182336	60	64192
2026-01-18 19:00:21.18	295.07	1.31	-49.8	-65.0	3.6	1.51e+00	0	41	104	1191182336	60	63990
2026-01-18 19:00:24.21	294.83	1.15	-49.8	-65.0	3.6	1.51e+00	0	41	104	1191182336	60	63962
2026-01-18 19:00:27.24	294.59	1.00	-49.8	-64.9	3.6	1.51e+00	0	41	104	1191182336	60	63851
2026-01-18 19:00:30.27	294.36	0.85	-49.7	-64.9	3.6	1.51e+00	0	41	104	1191182336	60	63532
2026-01-18 19:00:33.30	294.12	0.70	-49.8	-64.9	3.6	1.51e+00	0	41	104	1191182336	60	63755
2026-01-18 19:00:36.33	293.89	0.55	-49.7	-64.9	3.6	1.51e+00	0	41	104	1191182336	60	63811
2026-01-18 19:00:39.36	293.67	0.40	-49.7	-65.0	3.6	1.51e+00	0	41	104	1191182336	60	64072
2026-01-18 19:00:42.38	293.44	0.25	-49.8	-64.9	3.6	1.51e+00	0	41	104	1191182336	60	63507
2026-01-18 19:00:45.41	293.22	0.10	-49.7	-64.9	3.6	1.51e+00	0	41	104	1191182336	60	63803

#Closed at: 2026-01-18 19:00:47
#Recorded file [1191 MB]: D:/lorett/data/35029_260119_064810.dat