passes_logs/2026/01/18/R4.6S_Anadyr/R4.6S_Anadyr__20260118_004724_AQUA_rec.log

#Pass ID: 20260118_004724_AQUA
#Satellite: AQUA
#Configuration: AQUA
#almurnet v.1.7.20251203
#Start time: 2026-01-18 00:47:27

#Version: 2.2.20231116
#Station: R4.6S_Anadyr
#Location: 177.4865 lon 64.73178 lat
#TLE: 1 27424U 02022A   26017.62394888  .00000781  00000+0  16630-3 0  9993
#TLE: 2 27424  98.4086 344.0954 0002010  75.0132 339.4723 14.61825944261279

#Time	Az	El	Level	Level2	SNR	BER	BlckErr	Temp	State	Recorded	gain1	gain2
2026-01-18 00:47:27.51	126.40	0.21	-49.4	-66.1	3.3	3.02e+01	0	31	0	0	60	77329
2026-01-18 00:47:30.53	126.29	0.39	-49.5	-67.6	3.5	3.02e+01	0	31	104	0	60	92495
2026-01-18 00:47:33.56	126.18	0.57	-49.5	-67.6	3.5	3.02e+01	0	31	104	0	60	92223
2026-01-18 00:47:36.58	126.07	0.76	-49.1	-67.3	3.5	3.02e+01	0	31	104	0	60	88966
2026-01-18 00:47:39.61	125.95	0.94	-49.7	-67.8	3.5	3.02e+01	0	31	104	0	60	94777
2026-01-18 00:47:42.64	125.84	1.13	-49.5	-67.7	3.5	3.02e+01	0	31	104	0	60	93475
2026-01-18 00:47:45.67	125.72	1.32	-49.6	-67.7	3.5	3.02e+01	0	31	104	0	60	93728
2026-01-18 00:47:48.70	125.60	1.51	-49.0	-67.2	3.5	3.02e+01	0	31	104	0	60	88009
2026-01-18 00:47:51.73	125.48	1.70	-49.1	-67.2	3.5	3.02e+01	0	31	104	0	60	88531
2026-01-18 00:47:54.76	125.35	1.90	-49.4	-67.6	3.5	3.02e+01	0	32	104	0	60	91799
2026-01-18 00:47:57.79	125.23	2.09	-49.2	-67.4	3.5	3.02e+01	0	32	104	0	60	90293
2026-01-18 00:48:00.81	125.10	2.29	-49.7	-67.8	3.5	3.02e+01	0	32	104	0	60	94986
2026-01-18 00:48:03.84	124.97	2.48	-49.7	-67.9	3.5	3.02e+01	0	32	104	0	60	95036
2026-01-18 00:48:06.87	124.84	2.68	-49.5	-67.6	3.5	3.02e+01	0	32	104	0	60	92557
2026-01-18 00:48:09.90	124.70	2.88	-49.3	-67.4	3.5	3.02e+01	0	32	104	0	60	89746
2026-01-18 00:48:12.93	124.57	3.08	-49.3	-67.4	3.5	3.02e+01	0	32	104	0	60	89876
2026-01-18 00:48:15.95	124.43	3.28	-49.3	-67.5	3.5	3.02e+01	0	32	104	0	60	91087
2026-01-18 00:48:18.99	124.29	3.49	-49.2	-67.3	3.5	3.02e+01	0	32	104	0	60	89481
2026-01-18 00:48:22.01	124.15	3.69	-49.4	-67.5	3.5	3.02e+01	0	32	104	0	60	91251
2026-01-18 00:48:25.04	124.00	3.90	-49.3	-67.4	3.5	3.02e+01	0	32	104	0	60	90525
2026-01-18 00:48:28.07	123.85	4.11	-49.4	-67.6	3.5	3.02e+01	0	32	104	0	60	91937
2026-01-18 00:48:31.10	123.70	4.32	-49.3	-67.5	3.5	3.02e+01	0	32	104	0	60	91115
2026-01-18 00:48:34.13	123.55	4.53	-49.7	-67.8	3.5	3.02e+01	0	32	104	0	60	95003
2026-01-18 00:48:37.16	123.39	4.75	-49.4	-67.6	3.5	3.02e+01	0	32	104	0	60	92159
2026-01-18 00:48:40.19	123.24	4.96	-49.5	-67.7	3.5	3.02e+01	0	32	104	0	60	93227
2026-01-18 00:48:43.21	123.08	5.18	-49.2	-67.4	3.5	3.02e+01	0	32	104	0	60	89736
2026-01-18 00:48:46.24	122.91	5.40	-49.3	-67.4	3.5	3.02e+01	0	32	104	0	60	90561
2026-01-18 00:48:49.27	122.75	5.62	-49.5	-67.7	3.5	3.02e+01	0	32	104	0	60	92959
2026-01-18 00:48:52.30	122.58	5.84	-49.4	-67.6	3.5	3.02e+01	0	32	104	0	60	91997
2026-01-18 00:48:55.33	122.40	6.07	-49.2	-67.3	3.5	3.02e+01	0	32	104	0	60	89407
2026-01-18 00:48:58.36	122.23	6.29	-49.7	-67.8	3.5	3.02e+01	0	32	104	0	60	94487
2026-01-18 00:49:01.38	122.05	6.52	-49.5	-67.7	3.5	3.02e+01	0	32	104	0	60	92923
2026-01-18 00:49:04.41	121.87	6.75	-49.9	-68.0	3.5	3.02e+01	0	32	104	0	60	96228
2026-01-18 00:49:07.44	121.68	6.98	-49.2	-67.3	3.5	3.02e+01	0	32	104	0	60	89487
2026-01-18 00:49:10.47	121.50	7.22	-49.3	-67.4	3.5	3.02e+01	0	32	104	0	60	90131
2026-01-18 00:49:13.50	121.30	7.45	-49.5	-67.6	3.5	3.02e+01	0	32	104	0	60	92219
2026-01-18 00:49:16.52	121.11	7.69	-50.0	-68.1	3.5	3.02e+01	0	32	104	0	60	97653
2026-01-18 00:49:19.56	120.91	7.93	-50.0	-68.1	3.5	3.02e+01	0	32	104	0	60	98217
2026-01-18 00:49:22.59	120.71	8.18	-49.2	-67.4	3.5	3.02e+01	0	32	104	0	60	90558
2026-01-18 00:49:25.62	120.50	8.42	-49.6	-67.8	3.5	3.02e+01	0	32	104	0	60	94208
2026-01-18 00:49:28.65	120.29	8.67	-49.2	-67.4	3.5	3.02e+01	0	32	104	0	60	90139
2026-01-18 00:49:31.68	120.07	8.92	-49.3	-67.4	3.5	3.02e+01	0	32	104	0	60	90663
2026-01-18 00:49:34.71	119.85	9.18	-49.7	-67.8	3.5	3.02e+01	0	32	104	0	60	94219
2026-01-18 00:49:37.73	119.63	9.43	-49.8	-67.9	3.5	3.02e+01	0	32	104	0	60	96060
2026-01-18 00:49:40.76	119.40	9.69	-49.4	-67.5	3.5	3.02e+01	0	32	104	0	60	91751
2026-01-18 00:49:43.79	119.17	9.95	-49.8	-68.0	3.5	3.02e+01	0	32	104	0	60	96174
2026-01-18 00:49:46.81	118.93	10.21	-49.6	-67.7	3.5	3.02e+01	0	32	104	0	60	93675
2026-01-18 00:49:49.84	118.69	10.48	-49.7	-67.8	3.5	3.02e+01	0	32	104	0	60	94529
2026-01-18 00:49:52.87	118.44	10.75	-49.4	-67.6	3.5	3.02e+01	0	32	104	0	60	92012
2026-01-18 00:49:55.89	118.19	11.02	-49.4	-67.6	3.5	3.02e+01	0	32	104	0	60	91818
2026-01-18 00:49:58.93	117.93	11.29	-49.5	-67.6	3.5	3.02e+01	0	32	104	0	60	92501
2026-01-18 00:50:01.95	117.67	11.57	-49.7	-67.8	3.5	3.02e+01	0	32	104	0	60	94843
2026-01-18 00:50:04.98	117.40	11.85	-49.3	-67.4	3.5	3.02e+01	0	32	104	0	60	90476
2026-01-18 00:50:08.01	117.13	12.13	-49.5	-67.7	3.5	3.02e+01	0	32	104	0	60	93417
2026-01-18 00:50:11.04	116.85	12.42	-49.4	-67.6	3.5	3.02e+01	0	32	104	0	60	91852
2026-01-18 00:50:14.07	116.56	12.71	-49.5	-67.7	3.5	3.02e+01	0	32	104	0	60	93188
2026-01-18 00:50:17.11	116.27	13.00	-49.4	-67.5	3.5	3.02e+01	0	32	104	0	60	91642
2026-01-18 00:50:20.14	115.97	13.30	-49.4	-67.6	3.5	3.02e+01	0	32	104	0	60	92158
2026-01-18 00:50:23.17	115.66	13.60	-49.4	-67.6	3.5	3.02e+01	0	32	104	0	60	91989
2026-01-18 00:50:26.20	115.35	13.90	-49.6	-67.8	3.5	3.02e+01	0	32	104	0	60	94436
2026-01-18 00:50:29.23	115.03	14.20	-49.5	-67.6	3.5	3.02e+01	0	32	104	0	60	92493
2026-01-18 00:50:32.25	114.70	14.51	-49.6	-67.7	3.5	3.02e+01	0	32	104	0	60	93778
2026-01-18 00:50:35.28	114.37	14.82	-49.8	-68.0	3.5	3.02e+01	0	32	104	0	60	96125
2026-01-18 00:50:38.31	114.02	15.14	-49.4	-67.6	3.5	3.02e+01	0	33	104	0	60	92174
2026-01-18 00:50:41.33	113.67	15.46	-49.3	-67.5	3.5	3.02e+01	0	32	104	0	60	90802
2026-01-18 00:50:44.36	113.31	15.78	-49.4	-67.6	3.5	3.02e+01	0	32	104	0	60	91836
2026-01-18 00:50:47.39	112.95	16.11	-49.4	-67.6	3.5	3.02e+01	0	32	104	0	60	91884
2026-01-18 00:50:50.42	112.57	16.44	-49.2	-67.4	3.5	3.02e+01	0	32	104	0	60	89984
2026-01-18 00:50:53.45	112.18	16.77	-49.4	-67.5	3.5	3.02e+01	0	32	104	0	60	91615
2026-01-18 00:50:56.48	111.79	17.11	-49.3	-67.5	3.5	3.02e+01	0	32	104	0	60	90915
2026-01-18 00:50:59.51	111.38	17.45	-49.2	-67.3	3.5	3.02e+01	0	33	104	0	60	89595
2026-01-18 00:51:02.54	110.97	17.80	-49.5	-67.7	3.5	3.02e+01	0	32	104	0	60	92906
2026-01-18 00:51:05.57	110.54	18.15	-49.2	-67.4	3.5	3.02e+01	0	33	104	0	60	90341
2026-01-18 00:51:08.60	110.11	18.50	-49.4	-67.6	3.5	3.02e+01	0	33	104	0	60	92003
2026-01-18 00:51:11.62	109.66	18.86	-49.4	-67.6	3.5	3.02e+01	0	32	104	0	60	91799
2026-01-18 00:51:14.65	109.20	19.22	-49.4	-67.5	3.5	3.02e+01	0	32	104	0	60	91298
2026-01-18 00:51:17.69	108.73	19.58	-49.4	-67.6	3.5	3.02e+01	0	32	104	0	60	92025
2026-01-18 00:51:20.71	108.25	19.95	-49.3	-67.4	3.5	3.02e+01	0	32	104	0	60	90617
2026-01-18 00:51:23.74	107.75	20.33	-49.5	-67.7	3.5	3.02e+01	0	32	104	0	60	93070
2026-01-18 00:51:26.78	107.24	20.70	-49.3	-67.4	3.5	3.02e+01	0	32	104	0	60	90412
2026-01-18 00:51:29.81	106.72	21.08	-49.3	-67.4	3.5	3.02e+01	0	33	104	0	60	90600
2026-01-18 00:51:32.83	106.19	21.47	-49.0	-67.2	3.5	3.02e+01	0	33	104	0	60	88031
2026-01-18 00:51:35.86	105.64	21.86	-49.2	-67.3	3.5	3.02e+01	0	33	104	0	60	89492
2026-01-18 00:51:38.89	105.07	22.25	-49.3	-67.5	3.5	3.02e+01	0	32	104	0	60	90937
2026-01-18 00:51:41.92	104.49	22.64	-49.1	-67.2	3.5	3.02e+01	0	33	104	0	60	88649
2026-01-18 00:51:44.95	103.89	23.04	-49.0	-67.2	3.5	3.02e+01	0	33	104	0	60	87673
2026-01-18 00:51:47.98	103.28	23.44	-49.1	-67.3	3.5	3.02e+01	0	33	104	0	60	89211
2026-01-18 00:51:51.01	102.65	23.85	-49.6	-67.7	3.5	3.02e+01	0	33	104	0	60	93652
2026-01-18 00:51:54.04	102.00	24.26	-49.3	-67.4	3.5	3.02e+01	0	33	104	0	60	90694
2026-01-18 00:51:57.06	101.34	24.67	-49.9	-68.0	3.5	3.02e+01	0	32	104	0	60	96764
2026-01-18 00:52:00.09	100.65	25.09	-49.2	-67.4	3.5	3.02e+01	0	32	104	0	60	89798
2026-01-18 00:52:03.12	99.95	25.50	-49.4	-67.5	3.5	3.02e+01	0	32	104	0	60	91139
2026-01-18 00:52:06.15	99.23	25.92	-49.3	-67.5	3.5	3.02e+01	0	33	104	0	60	90793
2026-01-18 00:52:09.18	98.48	26.34	-49.5	-67.7	3.5	3.02e+01	0	33	104	0	60	93396
2026-01-18 00:52:12.21	97.72	26.77	-49.5	-67.7	3.5	3.02e+01	0	33	104	0	60	93599
2026-01-18 00:52:15.24	96.93	27.19	-49.2	-67.3	3.5	3.02e+01	0	33	104	0	60	89617
2026-01-18 00:52:18.27	96.12	27.62	-49.4	-67.5	3.5	3.02e+01	0	33	104	0	60	91586
2026-01-18 00:52:21.30	95.29	28.05	-49.5	-67.6	3.5	3.02e+01	0	33	104	0	60	92324
2026-01-18 00:52:24.32	94.44	28.47	-49.6	-67.8	3.5	3.02e+01	0	33	104	0	60	94663
2026-01-18 00:52:27.35	93.56	28.90	-49.4	-67.5	3.5	3.02e+01	0	33	104	0	60	91426
2026-01-18 00:52:30.38	92.66	29.33	-49.4	-67.5	3.5	3.02e+01	0	33	104	0	60	91772
2026-01-18 00:52:33.41	91.73	29.75	-49.5	-67.7	3.6	3.02e+01	0	33	104	0	60	93111
2026-01-18 00:52:36.43	90.78	30.18	-49.5	-67.6	3.5	3.02e+01	0	33	104	0	60	92505
2026-01-18 00:52:39.46	89.80	30.60	-49.6	-67.7	3.5	3.02e+01	0	32	104	0	60	93444
2026-01-18 00:52:42.49	88.79	31.02	-49.5	-67.7	3.5	3.02e+01	0	32	104	0	60	93190
2026-01-18 00:52:45.52	87.75	31.43	-49.5	-67.7	3.5	3.02e+01	0	33	104	0	60	92902
2026-01-18 00:52:48.55	86.69	31.84	-49.3	-67.5	3.5	3.02e+01	0	32	104	0	60	91459
2026-01-18 00:52:51.58	85.60	32.25	-49.4	-67.5	3.5	3.02e+01	0	33	104	0	60	91121
2026-01-18 00:52:54.61	84.48	32.65	-49.2	-67.4	3.5	3.02e+01	0	33	104	0	60	90120
2026-01-18 00:52:57.63	83.34	33.04	-49.3	-67.5	3.5	3.02e+01	0	32	104	0	60	90916
2026-01-18 00:53:00.67	82.16	33.43	-49.4	-67.5	3.5	3.02e+01	0	33	104	0	60	91754
2026-01-18 00:53:03.70	80.95	33.80	-49.3	-67.5	3.5	3.02e+01	0	33	104	0	60	90999
2026-01-18 00:53:06.72	79.72	34.17	-49.8	-67.9	3.5	3.02e+01	0	32	104	0	60	95429
2026-01-18 00:53:09.76	78.46	34.53	-49.5	-67.6	3.5	3.02e+01	0	33	104	0	60	92125
2026-01-18 00:53:12.78	77.17	34.87	-49.6	-67.7	3.5	3.02e+01	0	33	104	0	60	93886
2026-01-18 00:53:15.81	75.85	35.20	-49.3	-67.4	3.5	3.02e+01	0	33	104	0	60	90245
2026-01-18 00:53:18.83	74.51	35.52	-49.3	-67.5	3.5	3.02e+01	0	33	104	0	60	91356
2026-01-18 00:53:21.86	73.14	35.82	-49.1	-67.3	3.5	3.02e+01	0	33	104	0	60	88941
2026-01-18 00:53:24.89	71.74	36.11	-49.2	-67.3	3.5	3.02e+01	0	33	104	0	60	89557
2026-01-18 00:53:27.92	70.32	36.38	-49.1	-67.3	3.5	3.02e+01	0	33	104	0	60	88970
2026-01-18 00:53:30.95	68.88	36.63	-49.3	-67.5	3.5	3.02e+01	0	33	104	0	60	90943
2026-01-18 00:53:33.97	67.41	36.87	-49.1	-67.2	3.5	3.02e+01	0	33	104	0	60	88460
2026-01-18 00:53:37.00	65.92	37.08	-49.2	-67.4	3.5	3.02e+01	0	33	104	0	60	90202
2026-01-18 00:53:40.03	64.42	37.27	-49.0	-67.2	3.5	3.02e+01	0	33	104	0	60	87887
2026-01-18 00:53:43.06	62.89	37.45	-48.9	-67.1	3.5	3.02e+01	0	33	104	0	60	87214
2026-01-18 00:53:46.09	61.35	37.60	-49.0	-67.2	3.5	3.02e+01	0	33	104	0	60	87736
2026-01-18 00:53:49.12	59.80	37.72	-49.3	-67.5	3.5	3.02e+01	0	33	104	0	60	90878
2026-01-18 00:53:52.15	58.23	37.83	-49.6	-67.7	3.5	3.02e+01	0	32	104	0	60	93177
2026-01-18 00:53:55.17	56.66	37.91	-49.2	-67.3	3.5	3.02e+01	0	33	104	0	60	89399
2026-01-18 00:53:58.20	55.08	37.97	-49.3	-67.4	3.5	3.02e+01	0	32	104	0	60	90370
2026-01-18 00:54:01.23	53.50	38.00	-49.4	-67.5	3.5	3.02e+01	0	33	104	0	60	91550
2026-01-18 00:54:04.26	51.91	38.01	-49.2	-67.3	3.5	3.02e+01	0	33	104	0	60	89329
2026-01-18 00:54:07.29	50.32	37.99	-49.4	-67.6	3.5	3.02e+01	0	33	104	0	60	91902
2026-01-18 00:54:10.31	48.74	37.95	-49.5	-67.6	3.5	3.02e+01	0	33	104	0	60	92769
2026-01-18 00:54:13.33	47.17	37.88	-49.6	-67.8	3.5	3.02e+01	0	33	104	0	60	94025
2026-01-18 00:54:16.36	45.60	37.79	-49.4	-67.5	3.5	3.02e+01	0	33	104	0	60	91764
2026-01-18 00:54:19.39	44.04	37.68	-49.5	-67.7	3.5	3.02e+01	0	32	104	0	60	92933
2026-01-18 00:54:22.42	42.49	37.54	-49.2	-67.4	3.5	3.02e+01	0	33	104	0	60	90250
2026-01-18 00:54:25.45	40.96	37.38	-49.6	-67.7	3.5	3.02e+01	0	33	104	0	60	92933
2026-01-18 00:54:28.48	39.44	37.20	-49.3	-67.4	3.5	3.02e+01	0	33	104	0	60	90693
2026-01-18 00:54:31.51	37.94	37.00	-49.5	-67.6	3.5	3.02e+01	0	33	104	0	60	92663
2026-01-18 00:54:34.54	36.47	36.78	-49.4	-67.5	3.5	3.02e+01	0	33	104	0	60	91072
2026-01-18 00:54:37.57	35.01	36.54	-49.5	-67.6	3.5	3.02e+01	0	33	104	0	60	92288
2026-01-18 00:54:40.60	33.57	36.28	-49.5	-67.6	3.5	3.02e+01	0	33	104	0	60	92548
2026-01-18 00:54:43.63	32.16	36.00	-49.7	-67.8	3.5	3.02e+01	0	33	104	0	60	94051
2026-01-18 00:54:46.66	30.78	35.71	-49.5	-67.7	3.5	3.02e+01	0	33	104	0	60	93020
2026-01-18 00:54:49.69	29.42	35.40	-49.4	-67.6	3.5	3.02e+01	0	32	104	0	60	92784
2026-01-18 00:54:52.72	28.09	35.08	-49.5	-67.5	3.5	3.02e+01	0	32	104	0	60	91480
2026-01-18 00:54:55.75	26.79	34.74	-49.6	-67.7	3.5	3.02e+01	0	33	104	0	60	93225
2026-01-18 00:54:58.78	25.51	34.39	-49.4	-67.5	3.5	3.02e+01	0	33	104	0	60	91621
2026-01-18 00:55:01.80	24.27	34.04	-49.5	-67.6	3.5	3.02e+01	0	33	104	0	60	92205
2026-01-18 00:55:04.83	23.05	33.67	-49.3	-67.5	3.5	3.02e+01	0	33	104	0	60	91060
2026-01-18 00:55:07.86	21.86	33.29	-49.2	-67.3	3.5	3.02e+01	0	33	104	0	60	89129
2026-01-18 00:55:10.89	20.69	32.90	-49.2	-67.3	3.5	3.02e+01	0	33	104	0	60	89655
2026-01-18 00:55:13.92	19.56	32.51	-49.2	-67.3	3.5	3.02e+01	0	33	104	0	60	89382
2026-01-18 00:55:16.95	18.46	32.11	-49.3	-67.5	3.5	3.02e+01	0	33	104	0	60	90884
2026-01-18 00:55:19.98	17.38	31.70	-49.3	-67.4	3.5	3.02e+01	0	33	104	0	60	90605
2026-01-18 00:55:23.01	16.33	31.29	-49.4	-67.5	3.5	3.02e+01	0	33	104	0	60	91560
2026-01-18 00:55:26.04	15.31	30.87	-49.3	-67.4	3.5	3.02e+01	0	33	104	0	60	90668
2026-01-18 00:55:29.07	14.31	30.45	-49.2	-67.3	3.5	3.02e+01	0	33	104	0	60	89505
2026-01-18 00:55:32.10	13.35	30.03	-49.3	-67.4	3.5	3.02e+01	0	33	104	0	60	90319
2026-01-18 00:55:35.13	12.41	29.61	-49.5	-67.6	3.5	3.02e+01	0	33	104	0	60	92144
2026-01-18 00:55:38.15	11.49	29.19	-49.4	-67.6	3.5	3.02e+01	0	33	104	0	60	91950
2026-01-18 00:55:41.18	10.60	28.76	-49.2	-67.4	3.5	3.02e+01	0	33	104	0	60	89932
2026-01-18 00:55:44.21	9.73	28.34	-49.5	-67.6	3.5	3.02e+01	0	33	104	0	60	92690
2026-01-18 00:55:47.24	8.89	27.91	-49.5	-67.6	3.5	3.02e+01	0	33	104	0	60	92258
2026-01-18 00:55:50.27	8.07	27.48	-49.3	-67.5	3.5	3.02e+01	0	33	104	0	60	90824
2026-01-18 00:55:53.29	7.28	27.06	-49.3	-67.5	3.5	3.02e+01	0	33	104	0	60	91325
2026-01-18 00:55:56.32	6.50	26.64	-49.3	-67.5	3.5	3.02e+01	0	33	104	0	60	91387
2026-01-18 00:55:59.35	5.75	26.22	-49.7	-67.8	3.5	3.02e+01	0	33	104	0	60	93989
2026-01-18 00:56:02.38	5.01	25.80	-49.3	-67.4	3.5	3.02e+01	0	33	104	0	60	90256
2026-01-18 00:56:05.41	4.30	25.38	-49.4	-67.5	3.5	3.02e+01	0	33	104	0	60	90889
2026-01-18 00:56:08.44	3.61	24.97	-49.4	-67.5	3.5	3.02e+01	0	33	104	0	60	91182
2026-01-18 00:56:11.46	2.94	24.55	-49.2	-67.4	3.5	3.02e+01	0	33	104	0	60	89719
2026-01-18 00:56:14.49	2.28	24.15	-49.3	-67.4	3.5	3.02e+01	0	33	104	0	60	90223
2026-01-18 00:56:17.52	1.64	23.74	-49.4	-67.6	3.5	3.02e+01	0	33	104	0	60	91874
2026-01-18 00:56:20.55	1.02	23.34	-49.5	-67.6	3.5	3.02e+01	0	33	104	0	60	92576
2026-01-18 00:56:23.58	0.42	22.94	-49.6	-67.7	3.5	3.02e+01	0	33	104	0	60	93141
2026-01-18 00:56:26.61	359.83	22.54	-49.1	-67.3	3.5	3.02e+01	0	33	104	0	60	89044
2026-01-18 00:56:29.64	359.26	22.15	-49.3	-67.4	3.5	3.02e+01	0	33	104	0	60	90702
2026-01-18 00:56:32.66	358.70	21.76	-49.3	-67.4	3.5	3.02e+01	0	33	104	0	60	90334
2026-01-18 00:56:35.69	358.16	21.37	-49.6	-67.7	3.5	3.02e+01	0	33	104	0	60	93882
2026-01-18 00:56:38.72	357.63	20.99	-49.4	-67.5	3.5	3.02e+01	0	33	104	0	60	90948
2026-01-18 00:56:41.75	357.12	20.62	-49.4	-67.5	3.5	3.02e+01	0	33	104	0	60	91257
2026-01-18 00:56:44.78	356.61	20.24	-49.4	-67.5	3.5	3.02e+01	0	33	104	0	60	91520
2026-01-18 00:56:47.80	356.13	19.87	-49.3	-67.4	3.5	3.02e+01	0	33	104	0	60	90281
2026-01-18 00:56:50.84	355.65	19.51	-49.4	-67.5	3.5	3.02e+01	0	33	104	0	60	91455
2026-01-18 00:56:53.86	355.19	19.14	-49.3	-67.5	3.5	3.02e+01	0	33	104	0	60	90801
2026-01-18 00:56:56.89	354.74	18.79	-49.6	-67.7	3.5	3.02e+01	0	33	104	0	60	93839
2026-01-18 00:56:59.92	354.29	18.43	-49.5	-67.6	3.5	3.02e+01	0	33	104	0	60	92613
2026-01-18 00:57:02.95	353.86	18.08	-49.4	-67.5	3.5	3.02e+01	0	33	104	0	60	91318
2026-01-18 00:57:05.98	353.44	17.73	-49.2	-67.4	3.5	3.02e+01	0	33	104	0	60	90550
2026-01-18 00:57:09.01	353.04	17.39	-49.1	-67.3	3.5	3.02e+01	0	33	104	0	60	88908
2026-01-18 00:57:12.03	352.64	17.05	-49.5	-67.6	3.5	3.02e+01	0	33	104	0	60	92551
2026-01-18 00:57:15.06	352.25	16.72	-49.4	-67.5	3.5	3.02e+01	0	33	104	0	60	90903
2026-01-18 00:57:18.09	351.87	16.39	-49.4	-67.5	3.5	3.02e+01	0	33	104	0	60	91219
2026-01-18 00:57:21.12	351.50	16.06	-49.3	-67.4	3.5	3.02e+01	0	33	104	0	60	90422
2026-01-18 00:57:24.15	351.13	15.73	-49.3	-67.4	3.5	3.02e+01	0	33	104	0	60	89876
2026-01-18 00:57:27.18	350.78	15.41	-49.3	-67.5	3.5	3.02e+01	0	33	104	0	60	90891
2026-01-18 00:57:30.22	350.43	15.10	-49.4	-67.5	3.5	3.02e+01	0	33	104	0	60	91027
2026-01-18 00:57:33.25	350.10	14.78	-49.3	-67.4	3.5	3.02e+01	0	33	104	0	60	90442
2026-01-18 00:57:36.28	349.77	14.47	-49.4	-67.5	3.5	3.02e+01	0	33	104	0	60	91349
2026-01-18 00:57:39.31	349.44	14.17	-49.4	-67.5	3.5	3.02e+01	0	33	104	0	60	91355
2026-01-18 00:57:42.33	349.13	13.86	-49.3	-67.4	3.5	3.02e+01	0	33	104	0	60	90640
2026-01-18 00:57:45.36	348.82	13.56	-49.4	-67.6	3.5	3.02e+01	0	33	104	0	60	91892
2026-01-18 00:57:48.39	348.52	13.27	-49.4	-67.5	3.5	3.02e+01	0	33	104	0	60	91238
2026-01-18 00:57:51.42	348.22	12.97	-49.3	-67.4	3.5	3.02e+01	0	33	104	0	60	90029
2026-01-18 00:57:54.45	347.94	12.68	-49.6	-67.7	3.5	3.02e+01	0	33	104	0	60	93713
2026-01-18 00:57:57.48	347.65	12.40	-49.2	-67.4	3.5	3.02e+01	0	33	104	0	60	90340
2026-01-18 00:58:00.51	347.38	12.11	-49.3	-67.4	3.5	3.02e+01	0	33	104	0	60	90083
2026-01-18 00:58:03.54	347.11	11.83	-49.3	-67.5	3.5	3.02e+01	0	33	104	0	60	90749
2026-01-18 00:58:06.57	346.84	11.55	-49.3	-67.4	3.5	3.02e+01	0	33	104	0	60	90360
2026-01-18 00:58:09.60	346.58	11.28	-49.7	-67.8	3.5	3.02e+01	0	33	104	0	60	94891
2026-01-18 00:58:12.63	346.33	11.00	-49.3	-67.3	3.5	3.02e+01	0	33	104	0	60	89663
2026-01-18 00:58:15.66	346.08	10.73	-49.4	-67.5	3.5	3.02e+01	0	33	104	0	60	91512
2026-01-18 00:58:18.69	345.84	10.47	-49.4	-67.6	3.5	3.02e+01	0	33	104	0	60	92100
2026-01-18 00:58:21.72	345.60	10.20	-49.5	-67.6	3.5	3.02e+01	0	33	104	0	60	92725
2026-01-18 00:58:24.75	345.37	9.94	-49.2	-67.4	3.5	3.02e+01	0	33	104	0	60	89917
2026-01-18 00:58:27.78	345.14	9.68	-49.5	-67.6	3.5	3.02e+01	0	33	104	0	60	92174
2026-01-18 00:58:30.81	344.91	9.43	-50.1	-68.3	3.5	3.02e+01	0	33	104	0	60	99760
2026-01-18 00:58:33.84	344.69	9.17	-49.6	-67.7	3.5	3.02e+01	0	33	104	0	60	93709
2026-01-18 00:58:36.87	344.48	8.92	-49.5	-67.6	3.5	3.02e+01	0	33	104	0	60	92448
2026-01-18 00:58:39.90	344.27	8.67	-49.7	-67.8	3.5	3.02e+01	0	33	104	0	60	94404
2026-01-18 00:58:42.92	344.06	8.43	-49.3	-67.5	3.5	3.02e+01	0	33	104	0	60	91046
2026-01-18 00:58:45.95	343.86	8.18	-49.2	-67.3	3.5	3.02e+01	0	33	104	0	60	89269
2026-01-18 00:58:48.98	343.66	7.94	-49.5	-67.6	3.5	3.02e+01	0	33	104	0	60	92311
2026-01-18 00:58:52.01	343.46	7.70	-49.3	-67.4	3.5	3.02e+01	0	33	104	0	60	90380
2026-01-18 00:58:55.04	343.27	7.46	-49.8	-67.9	3.5	3.02e+01	0	33	104	0	60	95828
2026-01-18 00:58:58.07	343.08	7.23	-49.4	-67.6	3.5	3.02e+01	0	33	104	0	60	92027
2026-01-18 00:59:01.10	342.90	6.99	-49.3	-67.4	3.5	3.02e+01	0	33	104	0	60	90322
2026-01-18 00:59:04.13	342.71	6.76	-49.1	-67.3	3.5	3.02e+01	0	33	104	0	60	89287
2026-01-18 00:59:07.16	342.54	6.53	-49.3	-67.4	3.5	3.02e+01	0	33	104	0	60	90333
2026-01-18 00:59:10.19	342.36	6.31	-49.3	-67.5	3.5	3.02e+01	0	33	104	0	60	91231
2026-01-18 00:59:13.22	342.19	6.08	-49.3	-67.4	3.5	3.02e+01	0	33	104	0	60	90487
2026-01-18 00:59:16.25	342.02	5.86	-49.3	-67.4	3.5	3.02e+01	0	33	104	0	60	90019
2026-01-18 00:59:19.27	341.85	5.64	-49.1	-67.3	3.5	3.02e+01	0	33	104	0	60	88974
2026-01-18 00:59:22.30	341.69	5.42	-49.4	-67.5	3.5	3.02e+01	0	33	104	0	60	91372
2026-01-18 00:59:25.33	341.53	5.20	-49.3	-67.4	3.5	3.02e+01	0	33	104	0	60	90283
2026-01-18 00:59:28.36	341.37	4.98	-49.3	-67.5	3.5	3.02e+01	0	33	104	0	60	91343
2026-01-18 00:59:31.39	341.22	4.77	-49.2	-67.4	3.5	3.02e+01	0	33	104	0	60	89984
2026-01-18 00:59:34.41	341.07	4.56	-49.1	-67.3	3.5	3.02e+01	0	33	104	0	60	89630
2026-01-18 00:59:37.44	340.92	4.34	-49.0	-67.2	3.5	3.02e+01	0	33	104	0	60	88380
2026-01-18 00:59:40.47	340.77	4.14	-49.2	-67.3	3.5	3.02e+01	0	33	104	0	60	89684
2026-01-18 00:59:43.49	340.63	3.93	-49.2	-67.4	3.5	3.02e+01	0	33	104	0	60	89886
2026-01-18 00:59:46.52	340.49	3.72	-49.0	-67.2	3.5	3.02e+01	0	33	104	0	60	87826
2026-01-18 00:59:49.55	340.35	3.52	-49.2	-67.3	3.5	3.02e+01	0	33	104	0	60	89589
2026-01-18 00:59:52.58	340.21	3.31	-49.2	-67.4	3.5	3.02e+01	0	33	104	0	60	89905
2026-01-18 00:59:55.61	340.07	3.11	-49.3	-67.4	3.5	3.02e+01	0	33	104	0	60	90600
2026-01-18 00:59:58.64	339.94	2.91	-49.4	-67.5	3.5	3.02e+01	0	33	104	0	60	91289
2026-01-18 01:00:01.66	339.81	2.71	-49.1	-67.2	3.5	3.02e+01	0	33	104	0	60	87856
2026-01-18 01:00:04.69	339.68	2.52	-49.1	-67.4	3.5	3.02e+01	0	33	104	0	60	89753
2026-01-18 01:00:07.71	339.55	2.32	-49.2	-67.3	3.5	3.02e+01	0	33	104	0	60	89018
2026-01-18 01:00:10.74	339.43	2.13	-49.3	-67.5	3.5	3.02e+01	0	33	104	0	60	90947
2026-01-18 01:00:13.77	339.31	1.93	-49.2	-67.4	3.5	3.02e+01	0	33	104	0	60	89962
2026-01-18 01:00:16.80	339.19	1.74	-49.1	-67.3	3.5	3.02e+01	0	33	104	0	60	89459
2026-01-18 01:00:19.83	339.07	1.55	-49.1	-67.3	3.5	3.02e+01	0	33	104	0	60	89076
2026-01-18 01:00:22.86	338.95	1.36	-49.3	-67.5	3.5	3.02e+01	0	33	104	0	60	90784
2026-01-18 01:00:25.89	338.84	1.17	-49.4	-67.5	3.5	3.02e+01	0	33	104	0	60	91750
2026-01-18 01:00:28.92	338.72	0.99	-49.7	-67.8	3.5	3.02e+01	0	33	104	0	60	94048
2026-01-18 01:00:31.95	338.61	0.80	-49.3	-67.5	3.5	3.02e+01	0	33	104	0	60	91009
2026-01-18 01:00:34.97	338.50	0.62	-49.4	-67.5	3.5	3.02e+01	0	33	104	0	60	91169
2026-01-18 01:00:38.00	338.39	0.43	-49.6	-67.7	3.5	3.02e+01	0	33	104	0	60	93636
2026-01-18 01:00:41.03	338.28	0.25	-49.3	-67.5	3.5	3.02e+01	0	33	104	0	60	90807
2026-01-18 01:00:44.05	338.18	0.07	-49.5	-67.6	3.5	3.02e+01	0	33	104	0	60	92402

#Closed at: 2026-01-18 01:00:46
#Recorded file [0 MB]: D:/lorett/data/35029_260118_124727.dat