passes_logs/2026/01/18/R4.6S_Anadyr/R4.6S_Anadyr__20260118_145851_NOAA_21_JPSS-2_rec.log

#Pass ID: 20260118_145851_NOAA 21 (JPSS-2)
#Satellite: NOAA 21 (JPSS-2)
#Configuration: NOAA-21
#almurnet v.1.7.20251203
#Start time: 2026-01-18 14:58:54

#Version: 2.2.20231116
#Station: R4.6S_Anadyr
#Location: 177.4865 lon 64.73178 lat
#TLE: 1 54234U 22150A   26017.62066529  .00000042  00000+0  40984-4 0  9994
#TLE: 2 54234  98.7502 318.4887 0000613 271.5460  88.5645 14.19535234165189

#Time	Az	El	Level	Level2	SNR	BER	BlckErr	Temp	State	Recorded	gain1	gain2
2026-01-18 14:58:54.46	21.05	0.20	-49.5	-60.8	3.3	1.54e+00	0	36	0	0	60	38697
2026-01-18 14:58:58.50	21.04	0.44	-49.5	-62.4	3.4	1.52e+00	0	36	104	0	60	46335
2026-01-18 14:59:02.54	21.02	0.69	-49.5	-62.4	3.5	1.52e+00	0	36	104	0	60	46330
2026-01-18 14:59:06.58	21.01	0.94	-49.4	-62.3	3.5	1.52e+00	0	36	104	0	60	45734
2026-01-18 14:59:10.62	21.00	1.18	-48.9	-61.8	3.5	1.52e+00	0	37	104	0	60	43166
2026-01-18 14:59:14.66	20.99	1.44	-48.4	-61.2	3.5	1.52e+00	0	36	104	0	60	40490
2026-01-18 14:59:18.69	20.97	1.69	-48.0	-60.9	3.5	1.52e+00	0	37	104	0	60	38811
2026-01-18 14:59:22.73	20.96	1.94	-48.0	-60.8	3.5	1.52e+00	0	37	104	0	60	38348
2026-01-18 14:59:26.77	20.94	2.20	-48.0	-60.2	3.5	1.52e+00	0	37	104	0	60	35863
2026-01-18 14:59:30.81	20.92	2.46	-47.9	-59.8	3.5	1.51e+00	0	37	104	0	60	34125
2026-01-18 14:59:34.85	20.91	2.73	-47.6	-56.8	3.7	1.51e+00	0	37	104	0	60	24411
2026-01-18 14:59:38.89	20.89	2.99	-45.1	-48.4	11.6	1.70e-03	120	37	0	9437184	60	9256
2026-01-18 14:59:42.93	20.87	3.26	-43.1	-45.4	14.9	7.00e-07	123	37	0	22020096	60	6503
2026-01-18 14:59:46.97	20.85	3.53	-44.3	-47.1	12.9	1.44e-05	123	37	0	34603008	60	7966
2026-01-18 14:59:51.01	20.83	3.80	-43.7	-46.2	13.5	0.00e+00	123	37	0	47185920	58	8014
2026-01-18 14:59:55.05	20.81	4.08	-39.7	-41.4	18.4	1.41e+00	24	37	104	49283072	54	5798
2026-01-18 14:59:59.09	20.79	4.36	-39.5	-40.8	19.5	0.00e+00	122	37	0	59768832	52	6090
2026-01-18 15:00:03.13	20.77	4.64	-39.0	-40.2	20.1	0.00e+00	123	37	0	72351744	52	5675
2026-01-18 15:00:07.17	20.75	4.92	-38.8	-40.0	20.4	0.00e+00	123	37	0	84934656	50	6245
2026-01-18 15:00:11.21	20.73	5.21	-38.5	-39.6	20.6	0.00e+00	123	37	0	97517568	50	5988
2026-01-18 15:00:15.25	20.70	5.50	-38.6	-39.8	20.5	0.00e+00	122	37	0	110100480	50	6081
2026-01-18 15:00:19.30	20.68	5.80	-38.4	-39.6	20.7	0.00e+00	122	37	0	122683392	50	5952
2026-01-18 15:00:23.34	20.65	6.09	-38.3	-39.5	20.9	0.00e+00	123	37	0	135266304	50	5862
2026-01-18 15:00:27.38	20.63	6.40	-38.0	-39.1	21.2	0.00e+00	121	37	0	147849216	50	5635
2026-01-18 15:00:31.41	20.60	6.70	-38.1	-39.2	21.1	0.00e+00	122	37	0	160432128	50	5696
2026-01-18 15:00:35.46	20.57	7.01	-37.8	-38.9	21.3	0.00e+00	122	37	0	173015040	50	5516
2026-01-18 15:00:39.50	20.54	7.32	-37.8	-38.9	21.5	0.00e+00	122	37	0	185597952	48	6156
2026-01-18 15:00:43.54	20.51	7.64	-37.8	-38.9	21.5	0.00e+00	122	37	0	198180864	48	6183
2026-01-18 15:00:47.59	20.48	7.96	-37.7	-38.8	21.6	0.00e+00	122	37	0	210763776	48	6078
2026-01-18 15:00:51.62	20.45	8.28	-37.3	-38.3	22.1	0.00e+00	122	37	0	223346688	48	5761
2026-01-18 15:00:55.66	20.41	8.61	-37.2	-38.2	22.1	0.00e+00	122	37	0	235929600	48	5723
2026-01-18 15:00:59.70	20.38	8.94	-37.2	-38.2	22.2	0.00e+00	123	37	0	248512512	48	5720
2026-01-18 15:01:03.74	20.34	9.27	-37.2	-38.2	22.1	0.00e+00	122	37	0	261095424	48	5710
2026-01-18 15:01:07.79	20.31	9.62	-37.0	-38.0	22.4	0.00e+00	123	37	0	273678336	48	5556
2026-01-18 15:01:11.82	20.27	9.96	-36.8	-37.8	22.5	0.00e+00	120	37	0	286261248	46	6094
2026-01-18 15:01:15.87	20.23	10.31	-36.4	-37.4	22.9	0.00e+00	123	37	0	298844160	46	5832
2026-01-18 15:01:19.91	20.19	10.67	-36.4	-37.4	22.9	0.00e+00	123	37	0	312475648	46	5833
2026-01-18 15:01:23.95	20.14	11.03	-36.4	-37.3	23.0	0.00e+00	122	37	0	325058560	46	5783
2026-01-18 15:01:28.00	20.10	11.40	-36.2	-37.2	23.1	0.00e+00	123	37	0	337641472	46	5661
2026-01-18 15:01:32.04	20.05	11.77	-36.1	-37.1	23.1	0.00e+00	123	37	0	350224384	46	5621
2026-01-18 15:01:36.07	20.01	12.15	-36.1	-37.0	23.3	0.00e+00	122	37	0	362807296	46	5590
2026-01-18 15:01:40.11	19.96	12.53	-35.9	-36.9	23.4	0.00e+00	122	37	0	375390208	46	5486
2026-01-18 15:01:44.15	19.91	12.92	-35.9	-36.8	23.5	0.00e+00	123	37	0	387973120	46	5440
2026-01-18 15:01:48.19	19.85	13.31	-35.9	-36.9	23.4	0.00e+00	123	38	0	400556032	46	5486
2026-01-18 15:01:52.23	19.80	13.72	-35.9	-36.8	23.5	0.00e+00	122	37	0	413138944	46	5448
2026-01-18 15:01:56.27	19.74	14.13	-35.8	-36.7	23.5	0.00e+00	122	37	0	425721856	44	6055
2026-01-18 15:02:00.32	19.68	14.54	-35.7	-36.7	23.6	0.00e+00	122	37	0	438304768	44	6008
2026-01-18 15:02:04.36	19.62	14.97	-35.9	-36.9	23.4	0.00e+00	123	37	0	450887680	44	6139
2026-01-18 15:02:08.40	19.56	15.40	-35.8	-36.7	23.6	0.00e+00	123	37	0	463470592	44	6045
2026-01-18 15:02:12.45	19.49	15.84	-35.7	-36.6	23.7	0.00e+00	122	37	0	476053504	44	5988
2026-01-18 15:02:16.49	19.43	16.28	-35.7	-36.6	23.7	0.00e+00	123	38	0	488636416	44	5970
2026-01-18 15:02:20.53	19.35	16.74	-35.9	-36.8	23.5	0.00e+00	122	37	0	501219328	44	6128
2026-01-18 15:02:24.57	19.28	17.20	-35.9	-36.8	23.5	0.00e+00	121	37	0	513802240	44	6128
2026-01-18 15:02:28.61	19.21	17.67	-35.8	-36.7	23.6	0.00e+00	122	38	0	526385152	44	6027
2026-01-18 15:02:32.65	19.13	18.15	-36.0	-36.9	23.4	0.00e+00	120	38	0	538968064	44	6193
2026-01-18 15:02:36.69	19.04	18.65	-36.0	-36.9	23.4	0.00e+00	121	38	0	551550976	44	6180
2026-01-18 15:02:40.73	18.96	19.15	-36.0	-37.0	23.4	0.00e+00	122	38	0	564133888	44	6217
2026-01-18 15:02:44.78	18.87	19.66	-35.7	-36.7	23.7	0.00e+00	122	38	0	577765376	44	5996
2026-01-18 15:02:48.81	18.78	20.18	-35.5	-36.5	23.8	0.00e+00	120	38	0	589299712	44	5877
2026-01-18 15:02:52.86	18.68	20.71	-35.5	-36.4	24.0	0.00e+00	123	38	0	602931200	44	5824
2026-01-18 15:02:56.90	18.58	21.26	-35.2	-36.1	24.3	0.00e+00	123	38	0	615514112	44	5611
2026-01-18 15:03:00.94	18.48	21.81	-35.1	-36.0	24.3	0.00e+00	122	38	0	628097024	44	5588
2026-01-18 15:03:04.99	18.37	22.38	-34.8	-35.7	24.4	0.00e+00	123	38	0	640679936	44	5374
2026-01-18 15:03:09.03	18.25	22.97	-34.6	-35.5	24.7	0.00e+00	122	38	0	653262848	42	5862
2026-01-18 15:03:13.07	18.14	23.56	-34.4	-35.3	24.7	0.00e+00	123	38	0	665845760	42	5741
2026-01-18 15:03:17.11	18.01	24.17	-34.3	-35.2	24.8	0.00e+00	123	38	0	678428672	42	5687
2026-01-18 15:03:21.15	17.88	24.79	-34.5	-35.3	24.7	0.00e+00	122	38	0	691011584	42	5786
2026-01-18 15:03:25.19	17.75	25.43	-34.8	-35.7	24.3	0.00e+00	123	38	0	703594496	42	6015
2026-01-18 15:03:29.24	17.61	26.08	-35.2	-36.1	24.0	0.00e+00	123	38	0	716177408	42	6339
2026-01-18 15:03:33.28	17.46	26.75	-35.6	-36.5	23.8	0.00e+00	123	38	0	728760320	42	6595
2026-01-18 15:03:37.32	17.30	27.44	-35.9	-36.9	23.6	0.00e+00	123	38	0	741343232	44	6155
2026-01-18 15:03:41.36	17.14	28.14	-36.1	-37.1	23.6	0.00e+00	125	38	0	753926144	44	6287
2026-01-18 15:03:45.40	16.97	28.86	-36.1	-37.1	23.5	0.00e+00	123	38	0	766509056	44	6291
2026-01-18 15:03:49.44	16.79	29.60	-35.6	-36.5	23.9	0.00e+00	122	38	0	779091968	44	5880
2026-01-18 15:03:53.48	16.60	30.36	-35.4	-36.3	23.8	0.00e+00	123	38	0	791674880	44	5742
2026-01-18 15:03:57.52	16.40	31.14	-35.1	-36.1	23.8	0.00e+00	123	38	0	804257792	44	5595
2026-01-18 15:04:01.55	16.19	31.94	-35.2	-36.2	23.7	0.00e+00	122	38	0	816840704	44	5671
2026-01-18 15:04:05.59	15.97	32.77	-35.3	-36.2	23.9	0.00e+00	123	38	0	829423616	44	5696
2026-01-18 15:04:09.63	15.74	33.61	-35.5	-36.4	24.0	0.00e+00	122	38	0	842006528	44	5797
2026-01-18 15:04:13.67	15.49	34.48	-36.0	-36.9	23.6	0.00e+00	122	38	0	854589440	44	6197
2026-01-18 15:04:17.71	15.23	35.37	-36.6	-37.5	23.3	0.00e+00	123	38	0	867172352	44	6636
2026-01-18 15:04:21.75	14.95	36.29	-36.8	-37.8	23.1	0.00e+00	123	38	0	879755264	46	6110
2026-01-18 15:04:25.79	14.65	37.24	-37.1	-38.1	22.9	0.00e+00	123	38	0	893386752	46	6327
2026-01-18 15:04:29.84	14.34	38.21	-37.4	-38.4	22.7	0.00e+00	123	38	0	905969664	46	6537
2026-01-18 15:04:33.87	14.00	39.20	-36.9	-37.8	23.1	0.00e+00	122	38	0	918552576	46	6132
2026-01-18 15:04:37.91	13.65	40.23	-37.1	-38.1	22.7	0.00e+00	121	38	0	931135488	46	6318
2026-01-18 15:04:41.96	13.26	41.29	-36.8	-37.8	23.1	0.00e+00	120	38	0	943718400	46	6101
2026-01-18 15:04:46.00	12.86	42.38	-37.1	-38.0	22.9	0.00e+00	122	38	0	956301312	46	6275
2026-01-18 15:04:50.04	12.42	43.49	-37.8	-38.8	21.8	0.00e+00	122	38	0	968884224	48	6126
2026-01-18 15:04:54.08	11.94	44.64	-38.4	-39.5	21.7	0.00e+00	121	38	0	981467136	48	6583
2026-01-18 15:04:58.12	11.44	45.82	-38.6	-39.7	21.5	0.00e+00	122	38	0	994050048	50	6042
2026-01-18 15:05:02.16	10.88	47.04	-37.9	-38.9	21.9	0.00e+00	122	38	0	1006632960	50	5519
2026-01-18 15:05:06.20	10.29	48.28	-37.4	-38.4	22.5	0.00e+00	122	38	0	1019215872	48	5825
2026-01-18 15:05:10.24	9.64	49.56	-37.1	-38.2	22.6	0.00e+00	123	38	0	1031798784	48	5664
2026-01-18 15:05:14.28	8.93	50.88	-37.9	-39.0	22.0	0.00e+00	123	38	0	1044381696	48	6224
2026-01-18 15:05:18.32	8.16	52.22	-36.6	-37.6	22.9	0.00e+00	122	38	0	1056964608	46	5939
2026-01-18 15:05:22.36	7.30	53.60	-36.6	-37.5	23.3	0.00e+00	123	38	0	1069547520	46	5913
2026-01-18 15:05:26.41	6.36	55.01	-36.1	-37.1	23.6	0.00e+00	122	38	0	1082130432	46	5612
2026-01-18 15:05:30.45	5.32	56.45	-35.3	-36.2	24.0	0.00e+00	121	38	0	1094713344	44	5723
2026-01-18 15:05:34.49	4.17	57.91	-34.8	-35.7	24.6	0.00e+00	122	38	0	1107296256	44	5365
2026-01-18 15:05:38.54	2.87	59.41	-34.8	-35.6	24.8	0.00e+00	120	38	0	1119879168	42	5994
2026-01-18 15:05:42.58	1.42	60.92	-34.3	-35.2	25.0	0.00e+00	123	38	0	1132462080	42	5716
2026-01-18 15:05:46.62	359.78	62.45	-34.0	-34.9	24.9	0.00e+00	122	38	0	1145044992	42	5483
2026-01-18 15:05:50.66	357.91	63.99	-34.4	-35.3	24.9	0.00e+00	122	38	0	1157627904	42	5782
2026-01-18 15:05:54.70	355.78	65.53	-34.4	-35.3	24.9	0.00e+00	122	38	0	1171259392	42	5758
2026-01-18 15:05:58.74	353.32	67.07	-34.6	-35.5	24.8	0.00e+00	122	38	0	1183842304	42	5908
2026-01-18 15:06:02.78	350.47	68.60	-34.2	-35.0	25.1	0.00e+00	123	38	0	1196425216	42	5576
2026-01-18 15:06:06.82	347.16	70.09	-33.5	-34.3	25.5	0.00e+00	123	38	0	1209008128	40	5774
2026-01-18 15:06:10.86	343.27	71.53	-33.7	-34.5	25.4	0.00e+00	123	38	0	1221591040	40	5914
2026-01-18 15:06:14.90	338.70	72.89	-33.5	-34.3	25.5	0.00e+00	122	38	0	1234173952	40	5752
2026-01-18 15:06:18.94	333.33	74.15	-33.4	-34.2	25.7	0.00e+00	123	38	0	1246756864	40	5673
2026-01-18 15:06:22.98	327.05	75.26	-33.8	-34.7	25.5	0.00e+00	120	38	0	1259339776	40	6016
2026-01-18 15:06:27.02	319.80	76.17	-34.1	-35.0	25.0	0.00e+00	122	38	0	1271922688	40	6262
2026-01-18 15:06:31.06	311.63	76.85	-34.1	-35.0	25.2	0.00e+00	123	38	0	1284505600	42	5532
2026-01-18 15:06:35.10	302.75	77.25	-34.3	-35.2	24.8	0.00e+00	122	38	0	1297088512	42	5681
2026-01-18 15:06:39.14	293.51	77.33	-34.7	-35.6	24.6	0.00e+00	123	38	0	1309671424	42	5973
2026-01-18 15:06:43.19	284.37	77.09	-34.1	-35.0	24.7	0.00e+00	122	38	0	1322254336	42	5548
2026-01-18 15:06:47.22	275.82	76.55	-33.9	-34.8	24.9	0.00e+00	123	38	0	1334837248	42	5458
2026-01-18 15:06:51.26	268.08	75.75	-34.1	-35.0	25.1	0.00e+00	122	38	0	1347420160	42	5564
2026-01-18 15:06:55.31	261.29	74.73	-33.2	-34.0	25.7	0.00e+00	123	38	0	1360003072	40	5594
2026-01-18 15:06:59.35	255.46	73.54	-33.7	-34.6	24.9	0.00e+00	120	38	0	1372585984	40	5976
2026-01-18 15:07:03.38	250.51	72.23	-34.0	-34.9	25.2	0.00e+00	121	38	0	1385168896	40	6189
2026-01-18 15:07:07.42	246.28	70.82	-34.2	-35.1	24.8	0.00e+00	123	38	0	1397751808	42	5659
2026-01-18 15:07:11.46	242.69	69.35	-34.2	-35.2	24.9	0.00e+00	121	38	0	1410334720	42	5665
2026-01-18 15:07:15.50	239.61	67.84	-34.0	-34.8	25.1	0.00e+00	123	38	0	1422917632	40	6131
2026-01-18 15:07:19.54	236.96	66.31	-34.5	-35.5	23.8	0.00e+00	122	38	0	1435500544	42	5864
2026-01-18 15:07:23.58	234.67	64.76	-34.2	-35.1	24.9	0.00e+00	122	38	0	1448083456	40	6316
2026-01-18 15:07:27.63	232.66	63.21	-33.6	-34.5	25.2	0.00e+00	120	38	0	1461714944	40	5892
2026-01-18 15:07:31.66	230.92	61.67	-35.1	-36.0	24.0	0.00e+00	123	38	0	1473249280	42	6262
2026-01-18 15:07:35.70	229.37	60.15	-33.6	-34.5	24.0	0.00e+00	122	38	0	1486880768	40	5908
2026-01-18 15:07:39.74	228.00	58.64	-35.3	-36.2	24.2	0.00e+00	120	38	0	1499463680	42	6389
2026-01-18 15:07:43.78	226.77	57.16	-36.0	-37.0	22.9	0.00e+00	123	38	0	1512046592	44	6255
2026-01-18 15:07:47.82	225.68	55.70	-34.5	-35.3	24.5	0.00e+00	123	38	0	1524629504	42	5772
2026-01-18 15:07:51.86	224.69	54.27	-36.9	-38.0	22.0	0.00e+00	122	38	0	1537212416	46	6219
2026-01-18 15:07:55.90	223.79	52.88	-36.1	-37.0	23.7	0.00e+00	123	38	0	1549795328	46	5569
2026-01-18 15:07:59.95	222.97	51.51	-37.3	-38.4	22.4	0.00e+00	122	38	0	1562378240	46	6520
2026-01-18 15:08:03.99	222.23	50.17	-37.1	-38.2	22.2	0.00e+00	122	38	0	1574961152	48	5668
2026-01-18 15:08:08.03	221.55	48.87	-37.3	-38.3	22.7	0.00e+00	123	38	0	1587544064	46	6424
2026-01-18 15:08:12.07	220.93	47.61	-37.3	-38.3	22.7	0.00e+00	123	38	0	1600126976	46	6443
2026-01-18 15:08:16.11	220.35	46.37	-37.2	-38.3	21.7	0.00e+00	123	38	0	1612709888	46	6429
2026-01-18 15:08:20.15	219.82	45.17	-37.3	-38.3	22.5	0.00e+00	122	38	0	1625292800	46	6463
2026-01-18 15:08:24.19	219.33	44.00	-38.5	-39.6	21.5	0.00e+00	123	38	0	1637875712	48	6722
2026-01-18 15:08:28.22	218.88	42.87	-37.4	-38.4	22.5	0.00e+00	123	38	0	1650458624	48	5843
2026-01-18 15:08:32.27	218.45	41.76	-38.5	-39.6	21.2	0.00e+00	123	38	0	1663041536	48	6721
2026-01-18 15:08:36.31	218.05	40.69	-38.2	-39.4	21.4	0.00e+00	122	38	0	1675624448	50	5799
2026-01-18 15:08:40.35	217.68	39.64	-36.7	-37.7	22.8	0.00e+00	121	38	0	1688207360	46	6045
2026-01-18 15:08:44.39	217.34	38.62	-38.0	-39.1	21.6	0.00e+00	123	38	0	1700790272	48	6316
2026-01-18 15:08:48.42	217.01	37.64	-38.1	-39.2	22.0	0.00e+00	120	38	0	1713373184	48	6356
2026-01-18 15:08:52.47	216.70	36.68	-36.9	-37.8	23.0	0.00e+00	122	38	0	1725956096	48	5467
2026-01-18 15:08:56.51	216.42	35.74	-36.6	-37.5	23.0	0.00e+00	121	38	0	1738539008	46	5920
2026-01-18 15:09:00.55	216.14	34.83	-36.8	-37.8	23.1	0.00e+00	122	38	0	1751121920	46	6103
2026-01-18 15:09:04.59	215.89	33.95	-36.7	-37.7	23.2	0.00e+00	123	38	0	1763704832	46	6020
2026-01-18 15:09:08.63	215.65	33.09	-36.8	-37.8	23.0	0.00e+00	122	38	0	1777336320	46	6098
2026-01-18 15:09:12.67	215.42	32.25	-36.5	-37.5	23.3	0.00e+00	122	38	0	1788870656	46	5860
2026-01-18 15:09:16.71	215.20	31.44	-35.9	-36.8	23.5	0.00e+00	122	38	0	1802502144	46	5452
2026-01-18 15:09:20.75	214.99	30.65	-35.3	-36.2	24.3	0.00e+00	123	38	0	1815085056	44	5692
2026-01-18 15:09:24.79	214.80	29.87	-34.8	-35.7	23.2	0.00e+00	123	38	0	1827667968	44	5367
2026-01-18 15:09:28.83	214.61	29.12	-34.6	-35.4	24.9	0.00e+00	122	38	0	1840250880	42	5833
2026-01-18 15:09:32.87	214.43	28.39	-35.1	-36.0	24.5	0.00e+00	120	38	0	1852833792	42	6233
2026-01-18 15:09:36.91	214.27	27.67	-35.5	-36.4	24.2	0.00e+00	123	38	0	1865416704	42	6536
2026-01-18 15:09:40.95	214.10	26.98	-35.3	-36.2	24.4	0.00e+00	122	38	0	1877999616	42	6379
2026-01-18 15:09:44.99	213.95	26.30	-35.1	-36.0	24.5	0.00e+00	120	38	0	1890582528	42	6242
2026-01-18 15:09:49.03	213.80	25.63	-35.2	-36.2	24.4	0.00e+00	123	38	0	1903165440	42	6357
2026-01-18 15:09:53.07	213.66	24.99	-35.3	-36.2	24.4	0.00e+00	123	38	0	1915748352	42	6361
2026-01-18 15:09:57.11	213.53	24.36	-35.7	-36.6	23.9	0.00e+00	123	38	0	1928331264	42	6716
2026-01-18 15:10:01.15	213.40	23.74	-35.8	-36.7	23.8	0.00e+00	120	38	0	1940914176	44	6059
2026-01-18 15:10:05.19	213.28	23.13	-35.6	-36.5	24.0	0.00e+00	123	38	0	1953497088	44	5900
2026-01-18 15:10:09.23	213.16	22.54	-35.4	-36.3	24.0	0.00e+00	123	38	0	1966080000	44	5751
2026-01-18 15:10:13.27	213.05	21.97	-35.1	-36.1	24.1	0.00e+00	122	38	0	1978662912	44	5598
2026-01-18 15:10:17.31	212.94	21.40	-34.9	-35.8	24.4	0.00e+00	122	38	0	1991245824	42	6100
2026-01-18 15:10:21.34	212.84	20.85	-34.7	-35.6	24.5	0.00e+00	123	38	0	2003828736	42	5941
2026-01-18 15:10:25.39	212.73	20.31	-34.7	-35.6	24.4	0.00e+00	123	38	0	2016411648	42	5977
2026-01-18 15:10:29.43	212.64	19.78	-34.9	-35.8	24.4	0.00e+00	123	38	0	2028994560	42	6083
2026-01-18 15:10:33.47	212.55	19.27	-34.9	-35.8	24.4	0.00e+00	121	38	0	2041577472	42	6095
2026-01-18 15:10:37.51	212.46	18.76	-35.0	-35.8	24.5	0.00e+00	122	38	0	2054160384	42	6128
2026-01-18 15:10:41.55	212.37	18.26	-35.0	-35.9	24.4	0.00e+00	120	38	0	2066743296	42	6194
2026-01-18 15:10:45.58	212.29	17.78	-35.3	-36.2	24.2	0.00e+00	123	38	0	2079326208	42	6361
2026-01-18 15:10:49.62	212.21	17.30	-35.4	-36.3	24.1	0.00e+00	123	38	0	2091909120	42	6468
2026-01-18 15:10:53.66	212.13	16.83	-35.8	-36.7	23.8	0.00e+00	122	38	0	2104492032	42	6765
2026-01-18 15:10:57.70	212.06	16.37	-35.9	-36.8	23.6	0.00e+00	122	38	0	2118123520	44	6116
2026-01-18 15:11:01.74	211.99	15.92	-36.0	-37.0	23.6	0.00e+00	122	38	0	2130706432	44	6215
2026-01-18 15:11:05.78	211.92	15.47	-36.0	-37.0	23.6	0.00e+00	122	38	0	2143289344	44	6225
2026-01-18 15:11:09.81	211.85	15.04	-36.3	-37.2	23.4	0.00e+00	123	38	0	2155872256	44	6395
2026-01-18 15:11:13.85	211.79	14.61	-36.4	-37.4	23.2	0.00e+00	123	38	0	2168455168	44	6531
2026-01-18 15:11:17.89	211.72	14.19	-36.4	-37.4	23.2	0.00e+00	120	38	0	2181038080	44	6518
2026-01-18 15:11:21.93	211.66	13.78	-36.6	-37.6	23.0	0.00e+00	122	38	0	2193620992	44	6689
2026-01-18 15:11:25.97	211.60	13.37	-36.6	-37.6	23.1	0.00e+00	123	38	0	2206203904	44	6662
2026-01-18 15:11:30.01	211.55	12.97	-36.7	-37.7	23.0	0.00e+00	123	38	0	2218786816	46	6002
2026-01-18 15:11:34.05	211.49	12.58	-36.9	-37.9	22.7	0.00e+00	122	38	0	2231369728	46	6161
2026-01-18 15:11:38.09	211.44	12.19	-36.6	-37.5	23.0	0.00e+00	122	38	0	2243952640	46	5921
2026-01-18 15:11:42.14	211.39	11.81	-36.6	-37.6	23.0	0.00e+00	120	38	0	2256535552	46	5936
2026-01-18 15:11:46.18	211.34	11.43	-36.6	-37.6	22.9	0.00e+00	123	38	0	2269118464	46	5956
2026-01-18 15:11:50.22	211.29	11.06	-36.7	-37.7	22.9	0.00e+00	123	38	0	2281701376	46	6018
2026-01-18 15:11:54.26	211.25	10.70	-36.7	-37.7	22.8	0.00e+00	123	38	0	2294284288	46	6047
2026-01-18 15:11:58.30	211.20	10.34	-36.9	-37.8	22.7	0.00e+00	123	38	0	2306867200	46	6121
2026-01-18 15:12:02.34	211.16	9.98	-36.9	-37.9	22.6	0.00e+00	123	38	0	2319450112	46	6148
2026-01-18 15:12:06.38	211.12	9.63	-37.0	-38.0	22.6	0.00e+00	123	38	0	2332033024	46	6270
2026-01-18 15:12:10.42	211.07	9.29	-37.1	-38.0	22.5	0.00e+00	123	38	0	2344615936	46	6273
2026-01-18 15:12:14.46	211.03	8.95	-37.3	-38.3	22.3	0.00e+00	122	38	0	2357198848	46	6436
2026-01-18 15:12:18.50	211.00	8.62	-37.5	-38.5	22.1	0.00e+00	123	38	0	2369781760	46	6600
2026-01-18 15:12:22.54	210.96	8.28	-37.5	-38.5	22.0	0.00e+00	122	38	0	2382364672	46	6642
2026-01-18 15:12:26.57	210.92	7.96	-37.9	-39.0	21.6	0.00e+00	121	38	0	2394947584	48	6252
2026-01-18 15:12:30.61	210.89	7.64	-37.8	-38.8	21.7	0.00e+00	122	38	0	2407530496	48	6125
2026-01-18 15:12:34.65	210.85	7.32	-38.0	-39.0	21.6	0.00e+00	122	38	0	2420113408	48	6270
2026-01-18 15:12:38.69	210.82	7.00	-38.3	-39.4	21.3	0.00e+00	123	38	0	2433744896	48	6535
2026-01-18 15:12:42.73	210.79	6.69	-38.4	-39.5	21.1	0.00e+00	122	38	0	2446327808	48	6623
2026-01-18 15:12:46.77	210.76	6.39	-38.3	-39.4	21.1	0.00e+00	120	38	0	2458910720	48	6551
2026-01-18 15:12:50.82	210.73	6.08	-38.2	-39.3	21.2	0.00e+00	123	38	0	2471493632	48	6492
2026-01-18 15:12:54.86	210.70	5.78	-38.7	-39.8	20.8	0.00e+00	123	38	0	2484076544	48	6841
2026-01-18 15:12:58.90	210.67	5.49	-38.6	-39.7	20.7	0.00e+00	123	38	0	2496659456	50	6059
2026-01-18 15:13:02.94	210.64	5.19	-39.1	-40.3	20.2	0.00e+00	123	38	0	2509242368	50	6467
2026-01-18 15:13:06.98	210.61	4.90	-38.9	-40.1	20.4	0.00e+00	123	38	0	2521825280	50	6298
2026-01-18 15:13:11.02	210.59	4.62	-39.4	-40.6	19.9	0.00e+00	122	38	0	2534408192	50	6692
2026-01-18 15:13:15.06	210.56	4.33	-39.3	-40.5	19.9	0.00e+00	123	38	0	2546991104	50	6608
2026-01-18 15:13:19.10	210.54	4.05	-39.7	-41.0	19.4	0.00e+00	121	38	0	2559574016	52	6275
2026-01-18 15:13:23.14	210.51	3.78	-39.8	-41.1	19.2	0.00e+00	120	38	0	2572156928	52	6304
2026-01-18 15:13:27.18	210.49	3.50	-40.0	-41.3	18.9	0.00e+00	123	38	0	2584739840	52	6483
2026-01-18 15:13:31.23	210.47	3.23	-40.2	-41.6	18.7	0.00e+00	123	38	0	2597322752	52	6674
2026-01-18 15:13:35.27	210.44	2.96	-48.6	-61.5	3.5	1.52e+00	0	38	104	2607808512	60	41635
2026-01-18 15:13:39.31	210.42	2.69	-49.3	-62.3	3.5	1.52e+00	0	38	104	2607808512	60	45776
2026-01-18 15:13:43.35	210.40	2.43	-49.6	-62.5	3.5	1.52e+00	0	38	104	2607808512	60	46938
2026-01-18 15:13:47.39	210.38	2.16	-49.6	-62.5	3.5	1.52e+00	0	39	104	2607808512	60	46855
2026-01-18 15:13:51.43	210.36	1.90	-49.5	-62.4	3.5	1.52e+00	0	38	104	2607808512	60	46486
2026-01-18 15:13:55.47	210.34	1.65	-49.5	-62.4	3.5	1.52e+00	0	38	104	2607808512	60	46318
2026-01-18 15:13:59.51	210.32	1.39	-49.5	-62.3	3.5	1.52e+00	0	38	104	2607808512	60	46002
2026-01-18 15:14:03.55	210.31	1.14	-49.5	-62.4	3.5	1.52e+00	0	38	104	2607808512	60	46373
2026-01-18 15:14:07.58	210.29	0.89	-49.5	-62.4	3.5	1.52e+00	0	38	104	2607808512	60	46346
2026-01-18 15:14:11.62	210.27	0.64	-49.5	-62.4	3.5	1.52e+00	0	38	104	2607808512	60	46414
2026-01-18 15:14:15.66	210.25	0.39	-49.5	-62.4	3.5	1.52e+00	0	39	104	2607808512	60	46427
2026-01-18 15:14:19.70	210.24	0.15	-49.5	-62.4	3.5	1.52e+00	0	38	104	2607808512	60	46108
2026-01-18 15:14:23.74	210.22	-0.09	-49.5	-62.4	3.5	1.52e+00	0	38	104	2607808512	60	46273

#Closed at: 2026-01-18 15:14:24
#Recorded file [2607 MB]: D:/lorett/data/35029_260119_025854.dat