passes_logs/2026/01/18/R4.6S_Anadyr/R4.6S_Anadyr__20260118_022426_AQUA_rec.log

#Pass ID: 20260118_022426_AQUA
#Satellite: AQUA
#Configuration: AQUA
#almurnet v.1.7.20251203
#Start time: 2026-01-18 02:24:28

#Version: 2.2.20231116
#Station: R4.6S_Anadyr
#Location: 177.4865 lon 64.73178 lat
#TLE: 1 27424U 02022A   26017.62394888  .00000781  00000+0  16630-3 0  9993
#TLE: 2 27424  98.4086 344.0954 0002010  75.0132 339.4723 14.61825944261279

#Time	Az	El	Level	Level2	SNR	BER	BlckErr	Temp	State	Recorded	gain1	gain2
2026-01-18 02:24:28.13	168.29	0.09	-49.4	-64.3	3.5	1.51e+00	0	29	0	0	60	59227
2026-01-18 02:24:32.17	168.36	0.34	-49.5	-67.3	3.5	3.02e+01	0	30	104	0	60	89149
2026-01-18 02:24:36.21	168.44	0.59	-49.6	-67.5	3.5	3.02e+01	0	30	104	0	60	90839
2026-01-18 02:24:40.25	168.52	0.84	-49.2	-67.1	3.5	3.02e+01	0	30	104	0	60	86791
2026-01-18 02:24:44.29	168.60	1.10	-48.8	-66.9	3.5	3.02e+01	0	30	104	0	60	84895
2026-01-18 02:24:48.33	168.68	1.36	-48.4	-66.4	3.5	3.02e+01	0	30	104	0	60	80361
2026-01-18 02:24:52.37	168.76	1.62	-47.7	-65.6	3.5	3.02e+01	0	30	104	0	60	73216
2026-01-18 02:24:56.41	168.84	1.88	-47.6	-64.2	3.5	3.02e+01	0	30	104	0	60	62218
2026-01-18 02:25:00.45	168.92	2.15	-47.5	-65.1	3.5	3.02e+01	0	31	104	0	60	69466
2026-01-18 02:25:04.48	169.01	2.42	-47.5	-65.0	3.5	3.02e+01	0	30	104	0	60	68733
2026-01-18 02:25:08.53	169.10	2.69	-47.4	-62.1	3.6	3.02e+01	0	31	104	0	60	49051
2026-01-18 02:25:12.56	169.18	2.97	-47.4	-61.5	4.3	3.02e+01	0	31	104	0	60	45928
2026-01-18 02:25:16.61	169.27	3.25	-44.3	-48.0	17.1	3.02e+01	0	31	0	4718592	60	9696
2026-01-18 02:25:20.65	169.37	3.53	-38.7	-40.3	24.6	3.02e+01	0	31	0	12582912	52	6343
2026-01-18 02:25:24.69	169.46	3.81	-38.8	-40.4	24.4	3.02e+01	0	31	0	19922944	50	7203
2026-01-18 02:25:28.72	169.55	4.10	-46.4	-53.3	9.2	3.02e+01	0	31	0	27787264	60	17755
2026-01-18 02:25:32.76	169.65	4.39	-40.0	-41.8	23.0	3.02e+01	0	31	0	33030144	54	6698
2026-01-18 02:25:36.79	169.75	4.69	-39.0	-40.6	24.7	3.02e+01	0	31	0	40370176	52	6501
2026-01-18 02:25:40.83	169.85	4.99	-38.8	-40.4	24.8	3.02e+01	0	31	0	47710208	50	7167
2026-01-18 02:25:44.87	169.95	5.29	-38.2	-39.8	25.3	3.02e+01	0	31	0	55574528	52	5952
2026-01-18 02:25:48.90	170.06	5.59	-38.8	-40.3	25.3	3.02e+01	0	31	0	62914560	52	6338
2026-01-18 02:25:52.94	170.16	5.90	-37.7	-39.1	26.0	3.02e+01	0	31	0	70778880	50	6192
2026-01-18 02:25:56.98	170.27	6.22	-37.6	-39.0	26.4	3.02e+01	0	31	0	78118912	50	6095
2026-01-18 02:26:01.01	170.38	6.54	-37.4	-38.8	26.6	3.02e+01	0	31	0	85983232	50	5974
2026-01-18 02:26:05.05	170.50	6.86	-36.8	-38.1	27.1	3.02e+01	0	31	0	93323264	48	6197
2026-01-18 02:26:09.08	170.61	7.19	-36.8	-38.2	27.1	3.02e+01	0	31	0	100663296	48	6208
2026-01-18 02:26:13.12	170.73	7.52	-37.3	-38.8	26.7	3.02e+01	0	31	0	108527616	48	6667
2026-01-18 02:26:17.16	170.85	7.86	-36.5	-37.9	27.4	3.02e+01	0	31	0	115867648	48	6007
2026-01-18 02:26:21.20	170.98	8.20	-37.0	-38.4	26.8	3.02e+01	0	31	0	123731968	48	6387
2026-01-18 02:26:25.24	171.10	8.55	-36.3	-37.6	27.7	3.02e+01	0	31	0	131072000	48	5830
2026-01-18 02:26:29.28	171.23	8.90	-36.5	-37.8	27.4	3.02e+01	0	31	0	138936320	46	6708
2026-01-18 02:26:33.31	171.36	9.26	-36.0	-37.3	28.0	3.02e+01	0	31	0	146276352	46	6339
2026-01-18 02:26:37.35	171.50	9.62	-36.0	-37.3	28.1	3.02e+01	0	31	0	154140672	46	6310
2026-01-18 02:26:41.39	171.64	9.99	-35.6	-36.9	28.5	3.02e+01	0	31	0	161480704	46	6043
2026-01-18 02:26:45.42	171.78	10.36	-36.1	-37.4	28.0	3.02e+01	0	31	0	168820736	46	6362
2026-01-18 02:26:49.46	171.93	10.75	-35.9	-37.2	28.2	3.02e+01	0	31	0	176685056	46	6210
2026-01-18 02:26:53.49	172.08	11.14	-35.6	-36.9	28.5	3.02e+01	0	31	0	184025088	46	6021
2026-01-18 02:26:57.53	172.23	11.53	-35.5	-36.8	28.6	3.02e+01	0	31	0	191889408	46	5953
2026-01-18 02:27:01.57	172.39	11.93	-35.4	-36.7	28.8	3.02e+01	0	31	0	199229440	46	5867
2026-01-18 02:27:05.61	172.56	12.34	-35.3	-36.6	28.9	3.02e+01	0	31	0	207093760	46	5801
2026-01-18 02:27:09.64	172.72	12.76	-35.5	-36.7	28.8	3.02e+01	0	31	0	214433792	46	5891
2026-01-18 02:27:13.68	172.90	13.19	-35.4	-36.7	28.8	3.02e+01	0	31	0	221773824	46	5866
2026-01-18 02:27:17.71	173.07	13.62	-35.1	-36.4	29.1	3.02e+01	0	31	0	229638144	46	5669
2026-01-18 02:27:21.75	173.25	14.06	-35.4	-36.6	28.9	3.02e+01	0	31	0	236978176	46	5853
2026-01-18 02:27:25.79	173.44	14.51	-35.2	-36.5	29.0	3.02e+01	0	31	0	244842496	46	5734
2026-01-18 02:27:29.83	173.64	14.97	-35.2	-36.4	29.1	3.02e+01	0	31	0	252182528	46	5695
2026-01-18 02:27:33.86	173.84	15.44	-35.1	-36.3	29.2	3.02e+01	0	31	0	260046848	46	5615
2026-01-18 02:27:37.89	174.04	15.92	-35.1	-36.3	29.2	3.02e+01	0	31	0	267386880	46	5655
2026-01-18 02:27:41.93	174.25	16.41	-35.1	-36.3	29.3	3.02e+01	0	31	0	275251200	46	5606
2026-01-18 02:27:45.97	174.47	16.91	-35.7	-45.8	3.4	3.02e+01	0	31	104	275775488	46	16892
2026-01-18 02:27:50.01	174.70	17.43	-47.4	-61.6	3.5	3.02e+01	0	31	104	275775488	60	46101
2026-01-18 02:27:54.05	174.94	17.95	-35.7	-45.9	3.6	3.02e+01	0	31	104	275775488	46	16965
2026-01-18 02:27:58.09	175.18	18.49	-48.0	-63.6	3.5	3.02e+01	0	31	104	275775488	60	58024
2026-01-18 02:28:02.12	175.43	19.03	-37.5	-47.7	3.4	3.02e+01	0	31	104	275775488	50	16652
2026-01-18 02:28:06.16	175.69	19.60	-41.5	-52.4	3.5	3.02e+01	0	31	104	275775488	58	17973
2026-01-18 02:28:10.19	175.97	20.17	-37.7	-48.0	3.5	3.02e+01	0	31	104	275775488	50	17265
2026-01-18 02:28:14.23	176.25	20.76	-39.4	-49.8	3.5	3.02e+01	0	31	104	275775488	58	13377
2026-01-18 02:28:18.26	176.54	21.37	-38.2	-48.6	3.5	3.02e+01	0	31	104	275775488	52	16466
2026-01-18 02:28:22.30	176.84	21.99	-39.8	-50.3	3.5	3.02e+01	0	31	104	275775488	54	17843
2026-01-18 02:28:26.34	177.16	22.62	-47.7	-62.2	3.5	3.02e+01	0	31	104	275775488	60	49570
2026-01-18 02:28:30.37	177.49	23.27	-36.7	-47.0	3.5	3.02e+01	0	31	104	275775488	50	15366
2026-01-18 02:28:34.41	177.84	23.95	-39.6	-50.2	3.6	3.02e+01	0	31	104	275775488	60	12398
2026-01-18 02:28:38.44	178.20	24.63	-36.9	-47.2	3.5	3.02e+01	0	31	104	275775488	48	17505
2026-01-18 02:28:42.48	178.57	25.34	-41.4	-52.2	3.5	3.02e+01	0	31	104	275775488	60	15747
2026-01-18 02:28:46.52	178.97	26.07	-35.9	-46.0	3.5	3.02e+01	0	31	104	275775488	46	17286
2026-01-18 02:28:50.56	179.38	26.82	-36.2	-46.5	3.5	3.02e+01	0	31	104	275775488	46	18227
2026-01-18 02:28:54.59	179.81	27.59	-38.8	-49.2	3.5	3.02e+01	0	31	104	275775488	52	17670
2026-01-18 02:28:58.63	180.26	28.38	-37.9	-48.3	3.5	3.02e+01	0	31	104	275775488	46	22275
2026-01-18 02:29:02.66	180.74	29.19	-40.5	-51.2	3.4	3.02e+01	0	31	104	275775488	58	15623
2026-01-18 02:29:06.70	181.24	30.03	-39.2	-49.7	3.5	3.02e+01	0	31	104	275775488	50	21021
2026-01-18 02:29:10.74	181.77	30.89	-39.0	-49.4	3.5	3.02e+01	0	31	104	275775488	46	25381
2026-01-18 02:29:14.78	182.33	31.78	-35.6	-45.8	3.5	3.02e+01	0	31	104	275775488	46	16758
2026-01-18 02:29:18.81	182.92	32.70	-43.0	-54.1	3.5	3.02e+01	0	31	104	275775488	60	19523
2026-01-18 02:29:22.85	183.55	33.64	-37.6	-48.0	3.5	3.02e+01	0	31	104	275775488	50	17130
2026-01-18 02:29:26.89	184.21	34.61	-43.0	-54.0	3.5	3.02e+01	0	31	104	275775488	56	24191
2026-01-18 02:29:30.93	184.92	35.61	-39.4	-49.9	3.5	3.02e+01	0	31	104	275775488	54	16971
2026-01-18 02:29:34.96	185.67	36.64	-44.8	-56.7	3.5	3.02e+01	0	31	104	275775488	60	26399
2026-01-18 02:29:39.00	186.47	37.70	-38.6	-49.1	3.5	3.02e+01	0	31	104	275775488	52	17350
2026-01-18 02:29:43.04	187.32	38.79	-43.0	-54.2	3.6	3.02e+01	0	31	104	275775488	58	22266
2026-01-18 02:29:47.08	188.23	39.91	-48.2	-64.0	3.5	3.02e+01	0	31	104	275775488	60	61335
2026-01-18 02:29:51.11	189.21	41.05	-36.9	-47.2	3.5	3.02e+01	0	31	104	275775488	50	15758
2026-01-18 02:29:55.15	190.26	42.23	-44.3	-56.1	3.6	3.02e+01	0	31	104	275775488	60	24518
2026-01-18 02:29:59.18	191.40	43.44	-36.1	-46.5	3.5	3.02e+01	0	31	104	275775488	48	16223
2026-01-18 02:30:03.22	192.62	44.67	-45.1	-57.0	3.5	3.02e+01	0	31	104	275775488	60	27282
2026-01-18 02:30:07.26	193.94	45.94	-35.6	-45.9	3.5	3.02e+01	0	31	104	275775488	46	16946
2026-01-18 02:30:11.30	195.38	47.22	-38.6	-49.1	3.7	3.02e+01	0	31	104	275775488	60	10972
2026-01-18 02:30:15.33	196.94	48.53	-39.4	-49.8	3.5	3.02e+01	0	31	104	275775488	54	16808
2026-01-18 02:30:19.37	198.63	49.85	-41.5	-52.2	3.5	3.02e+01	0	31	104	275775488	60	15659
2026-01-18 02:30:23.41	200.49	51.19	-46.3	-58.8	3.5	3.02e+01	0	31	104	275775488	60	33613
2026-01-18 02:30:27.45	202.51	52.53	-35.1	-45.2	3.6	3.02e+01	0	31	104	275775488	46	15742
2026-01-18 02:30:31.49	204.74	53.88	-37.5	-47.6	3.5	3.02e+01	0	31	104	275775488	58	10398
2026-01-18 02:30:35.53	207.17	55.21	-36.3	-46.5	3.6	3.02e+01	0	31	104	275775488	46	18210
2026-01-18 02:30:39.56	209.84	56.52	-44.8	-56.5	3.5	3.02e+01	0	31	104	275775488	60	25592
2026-01-18 02:30:43.60	212.78	57.80	-39.0	-49.4	3.5	3.02e+01	0	31	104	275775488	52	18020
2026-01-18 02:30:47.63	216.00	59.02	-39.0	-49.2	3.5	3.02e+01	0	31	104	275775488	50	19851
2026-01-18 02:30:51.67	219.53	60.19	-41.5	-52.2	3.5	3.02e+01	0	31	104	275775488	58	17596
2026-01-18 02:30:55.71	223.38	61.27	-40.9	-51.6	3.5	3.02e+01	0	31	104	275775488	54	20718
2026-01-18 02:30:59.76	227.57	62.25	-43.0	-54.0	3.5	3.02e+01	0	31	104	275775488	60	19218
2026-01-18 02:31:03.79	232.07	63.09	-44.3	-55.8	3.6	3.02e+01	0	31	104	275775488	60	23759
2026-01-18 02:31:07.83	236.89	63.80	-41.0	-51.7	3.4	3.02e+01	0	31	104	275775488	52	23530
2026-01-18 02:31:11.87	241.97	64.33	-39.9	-50.3	3.5	3.02e+01	0	31	104	275775488	56	15918
2026-01-18 02:31:15.90	247.23	64.69	-48.9	-65.7	3.5	3.02e+01	0	31	104	275775488	60	74239
2026-01-18 02:31:19.94	252.63	64.85	-41.9	-52.5	3.5	3.02e+01	0	31	104	275775488	58	18162
2026-01-18 02:31:23.97	258.04	64.81	-49.0	-65.1	3.5	3.02e+01	0	31	104	275775488	60	69023
2026-01-18 02:31:28.00	263.38	64.57	-41.0	-51.5	3.5	3.02e+01	0	31	104	275775488	56	18249
2026-01-18 02:31:32.04	268.58	64.14	-47.2	-60.4	3.5	3.02e+01	0	31	104	275775488	60	40440
2026-01-18 02:31:36.08	273.56	63.54	-39.5	-49.8	3.5	3.02e+01	0	31	104	275775488	54	16878
2026-01-18 02:31:40.12	278.25	62.77	-47.7	-61.3	3.5	3.02e+01	0	31	104	275775488	60	44859
2026-01-18 02:31:44.15	282.62	61.87	-47.7	-61.3	3.5	3.02e+01	0	31	104	275775488	60	44921
2026-01-18 02:31:48.18	286.66	60.86	-41.9	-52.5	3.5	3.02e+01	0	31	104	275775488	58	18266
2026-01-18 02:31:52.21	290.37	59.75	-48.7	-63.3	3.6	3.02e+01	0	31	104	275775488	60	56592
2026-01-18 02:31:56.25	293.77	58.56	-38.9	-49.5	3.6	3.02e+01	0	31	104	275775488	52	18146
2026-01-18 02:32:00.29	296.88	57.31	-48.3	-63.3	3.5	3.02e+01	0	31	104	275775488	60	56201
2026-01-18 02:32:04.32	299.70	56.03	-37.7	-48.1	3.5	3.02e+01	0	31	104	275775488	50	17345
2026-01-18 02:32:08.36	302.27	54.71	-37.5	-47.8	3.6	3.02e+01	0	31	104	275775488	54	13286
2026-01-18 02:32:12.39	304.62	53.38	-40.1	-50.4	3.5	3.02e+01	0	31	104	275775488	54	18074
2026-01-18 02:32:16.43	306.76	52.04	-41.1	-51.7	3.5	3.02e+01	0	31	104	275775488	60	14839
2026-01-18 02:32:20.47	308.71	50.70	-42.3	-53.0	3.5	3.02e+01	0	31	104	275775488	60	17168
2026-01-18 02:32:24.50	310.50	49.38	-38.7	-49.1	3.6	3.02e+01	0	31	104	275775488	48	21908
2026-01-18 02:32:28.53	312.13	48.07	-39.5	-49.9	3.7	3.02e+01	0	31	104	275775488	60	12032
2026-01-18 02:32:32.57	313.64	46.77	-37.6	-47.9	3.5	3.02e+01	0	31	104	275775488	48	19035
2026-01-18 02:32:36.60	315.03	45.50	-48.7	-64.0	3.5	3.02e+01	0	31	104	275775488	60	60852
2026-01-18 02:32:40.64	316.31	44.25	-37.5	-47.6	3.5	3.02e+01	0	31	104	275775488	50	16373
2026-01-18 02:32:44.68	317.50	43.03	-41.8	-52.4	3.5	3.02e+01	0	31	104	275775488	48	32094
2026-01-18 02:32:48.72	318.60	41.84	-37.5	-47.7	3.5	3.02e+01	0	31	104	275775488	50	16623
2026-01-18 02:32:52.76	319.62	40.68	-41.5	-52.3	3.5	3.02e+01	0	31	104	275775488	56	19885
2026-01-18 02:32:56.79	320.58	39.55	-40.3	-50.7	3.5	3.02e+01	0	31	104	275775488	58	14833
2026-01-18 02:33:00.83	321.47	38.44	-37.0	-47.4	3.5	3.02e+01	0	31	104	275775488	48	18008
2026-01-18 02:33:04.86	322.30	37.37	-44.0	-55.2	3.6	3.02e+01	0	31	104	275775488	58	24844
2026-01-18 02:33:08.90	323.08	36.33	-39.7	-50.3	3.5	3.02e+01	0	31	104	275775488	54	17720
2026-01-18 02:33:12.94	323.81	35.31	-49.2	-67.0	3.5	3.02e+01	0	31	104	275775488	60	86432
2026-01-18 02:33:16.98	324.50	34.33	-35.8	-46.0	3.5	3.02e+01	0	31	104	275775488	46	17194
2026-01-18 02:33:21.02	325.15	33.37	-49.1	-67.1	3.5	3.02e+01	0	31	104	275775488	60	87066
2026-01-18 02:33:25.05	325.76	32.45	-37.2	-47.6	3.5	3.02e+01	0	31	104	275775488	50	16366
2026-01-18 02:33:29.09	326.34	31.54	-40.4	-51.0	3.5	3.02e+01	0	31	104	275775488	58	15320
2026-01-18 02:33:33.13	326.89	30.67	-39.0	-49.4	3.5	3.02e+01	0	31	104	275775488	52	18073
2026-01-18 02:33:37.16	327.41	29.82	-34.7	-44.8	3.5	3.02e+01	0	31	104	275775488	44	16792
2026-01-18 02:33:41.20	327.90	28.99	-40.1	-50.5	3.5	3.02e+01	0	31	104	275775488	54	18181
2026-01-18 02:33:45.24	328.37	28.19	-35.9	-46.3	3.5	3.02e+01	0	31	104	275775488	46	17805
2026-01-18 02:33:49.27	328.81	27.41	-46.8	-60.0	3.6	3.02e+01	0	31	104	275775488	60	38362
2026-01-18 02:33:53.30	329.24	26.65	-36.5	-46.8	3.5	3.02e+01	0	31	104	275775488	48	16767
2026-01-18 02:33:57.34	329.65	25.92	-49.0	-65.7	3.5	3.02e+01	0	31	104	275775488	60	74155
2026-01-18 02:34:01.37	330.03	25.20	-38.9	-49.4	3.5	3.02e+01	0	31	104	275775488	52	17988
2026-01-18 02:34:05.41	330.40	24.50	-36.6	-47.1	3.5	3.02e+01	0	31	104	275775488	50	15416
2026-01-18 02:34:09.45	330.76	23.82	-36.4	-46.8	3.5	3.02e+01	0	31	104	275775488	48	16795
2026-01-18 02:34:13.47	331.10	23.16	-36.0	-46.2	3.5	3.02e+01	0	31	104	275775488	48	15660
2026-01-18 02:34:17.51	331.43	22.52	-38.8	-49.4	3.5	3.02e+01	0	31	104	275775488	54	15996
2026-01-18 02:34:21.54	331.74	21.89	-36.9	-47.0	3.6	3.02e+01	0	31	104	275775488	46	19318
2026-01-18 02:34:25.58	332.04	21.28	-35.3	-36.8	24.7	3.02e+01	0	31	104	278921216	48	5303
2026-01-18 02:34:29.62	332.33	20.68	-34.7	-35.9	29.6	3.02e+01	0	31	0	285736960	44	6058
2026-01-18 02:34:33.66	332.61	20.10	-34.6	-35.8	29.8	3.02e+01	0	31	0	293076992	44	5973
2026-01-18 02:34:37.70	332.88	19.53	-34.7	-35.8	29.7	3.02e+01	0	31	0	300941312	44	5979
2026-01-18 02:34:41.73	333.14	18.97	-34.7	-35.9	29.7	3.02e+01	0	31	0	308281344	44	6010
2026-01-18 02:34:45.77	333.39	18.43	-34.7	-35.9	29.6	3.02e+01	0	31	0	316145664	44	6003
2026-01-18 02:34:49.81	333.63	17.90	-34.8	-36.1	29.6	3.02e+01	0	31	0	323485696	44	6135
2026-01-18 02:34:53.84	333.87	17.38	-34.7	-35.9	29.6	3.02e+01	0	31	0	331350016	44	6026
2026-01-18 02:34:57.88	334.09	16.88	-34.9	-36.1	29.5	3.02e+01	0	31	0	338690048	44	6163
2026-01-18 02:35:01.92	334.31	16.38	-34.8	-36.0	29.5	3.02e+01	0	31	0	346554368	44	6086
2026-01-18 02:35:05.96	334.52	15.90	-34.7	-35.9	29.6	3.02e+01	0	31	0	353894400	44	6013
2026-01-18 02:35:10.00	334.73	15.42	-34.8	-36.0	29.4	3.02e+01	0	31	0	361234432	44	6073
2026-01-18 02:35:14.03	334.93	14.96	-34.9	-36.1	29.4	3.02e+01	0	31	0	369098752	44	6159
2026-01-18 02:35:18.07	335.12	14.50	-34.7	-36.0	29.4	3.02e+01	0	31	0	376438784	44	6069
2026-01-18 02:35:22.11	335.31	14.05	-34.5	-35.7	29.7	3.02e+01	0	31	0	384303104	44	5891
2026-01-18 02:35:26.14	335.49	13.62	-34.7	-35.9	29.6	3.02e+01	0	31	0	391643136	44	6061
2026-01-18 02:35:30.18	335.67	13.19	-35.0	-36.2	29.3	3.02e+01	0	31	0	399507456	44	6267
2026-01-18 02:35:34.21	335.84	12.77	-34.7	-36.0	29.4	3.02e+01	0	31	0	406847488	44	6073
2026-01-18 02:35:38.25	336.01	12.35	-34.9	-36.1	29.3	3.02e+01	0	31	0	414711808	44	6175
2026-01-18 02:35:42.29	336.18	11.95	-35.1	-36.4	29.1	3.02e+01	0	31	0	422051840	44	6364
2026-01-18 02:35:46.32	336.34	11.55	-35.2	-36.5	28.9	3.02e+01	0	31	0	429391872	44	6451
2026-01-18 02:35:50.36	336.49	11.16	-35.2	-36.5	28.9	3.02e+01	0	31	0	437256192	44	6429
2026-01-18 02:35:54.40	336.64	10.77	-35.1	-36.3	29.0	3.02e+01	0	31	0	444596224	44	6338
2026-01-18 02:35:58.43	336.79	10.39	-35.2	-36.5	28.8	3.02e+01	0	31	0	452460544	44	6448
2026-01-18 02:36:02.47	336.93	10.02	-35.3	-36.6	28.8	3.02e+01	0	31	0	459800576	46	5796
2026-01-18 02:36:06.50	337.08	9.65	-35.9	-37.2	28.4	3.02e+01	0	31	0	467664896	46	6240
2026-01-18 02:36:10.54	337.21	9.29	-35.8	-37.1	28.2	3.02e+01	0	31	0	475004928	46	6166
2026-01-18 02:36:14.55	337.35	8.94	-36.3	-37.6	27.9	3.02e+01	0	31	0	482344960	46	6550
2026-01-18 02:36:18.59	337.48	8.59	-35.8	-37.1	28.3	3.02e+01	0	31	0	490209280	46	6143
2026-01-18 02:36:22.63	337.61	8.25	-36.0	-37.2	28.1	3.02e+01	0	31	0	497549312	46	6272
2026-01-18 02:36:26.66	337.73	7.91	-36.4	-37.7	27.7	3.02e+01	0	31	0	505413632	46	6628
2026-01-18 02:36:30.70	337.86	7.57	-36.3	-37.7	27.7	3.02e+01	0	31	0	512753664	46	6579
2026-01-18 02:36:34.74	337.98	7.24	-36.4	-37.7	27.5	3.02e+01	0	31	0	520617984	46	6640
2026-01-18 02:36:38.77	338.09	6.92	-36.9	-38.3	26.9	3.02e+01	0	31	0	527958016	46	7099
2026-01-18 02:36:42.81	338.21	6.60	-36.3	-37.6	27.4	3.02e+01	0	31	0	535298048	48	5852
2026-01-18 02:36:46.85	338.32	6.28	-36.5	-37.8	27.4	3.02e+01	0	31	0	543162368	48	5972
2026-01-18 02:36:50.89	338.44	5.97	-36.6	-37.9	27.0	3.02e+01	0	31	0	550502400	48	6044
2026-01-18 02:36:54.92	338.54	5.66	-36.9	-38.3	26.5	3.02e+01	0	31	0	558366720	48	6333
2026-01-18 02:36:58.96	338.65	5.36	-37.9	-39.4	25.4	3.02e+01	0	31	0	565706752	48	7159
2026-01-18 02:37:02.99	338.76	5.06	-39.3	-41.1	23.3	3.02e+01	0	31	0	573571072	52	6933
2026-01-18 02:37:07.03	338.86	4.76	-41.2	-43.7	20.1	3.02e+01	0	31	0	580911104	56	7402
2026-01-18 02:37:11.05	338.96	4.47	-42.8	-46.9	16.2	3.02e+01	0	31	0	588251136	58	9532
2026-01-18 02:37:15.09	339.06	4.18	-44.0	-51.1	11.1	3.02e+01	0	31	0	596115456	60	13776
2026-01-18 02:37:19.12	339.16	3.90	-44.5	-54.2	7.1	3.02e+01	90	31	0	603455488	60	19840
2026-01-18 02:37:23.17	339.25	3.61	-44.5	-59.4	4.1	3.02e+01	0	31	104	604504064	60	35867
2026-01-18 02:37:27.20	339.35	3.33	-44.6	-62.5	3.5	3.02e+01	0	31	104	604504064	60	51427
2026-01-18 02:37:31.24	339.44	3.06	-44.5	-62.0	3.5	3.02e+01	0	31	104	604504064	60	48532
2026-01-18 02:37:35.28	339.53	2.78	-48.5	-66.4	3.5	3.02e+01	0	31	104	604504064	60	80063
2026-01-18 02:37:39.32	339.62	2.51	-49.1	-66.9	3.5	3.02e+01	0	31	104	604504064	60	85567
2026-01-18 02:37:43.35	339.71	2.24	-49.2	-67.0	3.5	3.02e+01	0	31	104	604504064	60	86622
2026-01-18 02:37:47.39	339.80	1.98	-48.9	-67.1	3.5	3.02e+01	0	31	104	604504064	60	86916
2026-01-18 02:37:51.43	339.88	1.72	-49.2	-67.1	3.5	3.02e+01	0	31	104	604504064	60	87299
2026-01-18 02:37:55.47	339.97	1.46	-49.4	-67.2	3.5	3.02e+01	0	31	104	604504064	60	88404
2026-01-18 02:37:59.51	340.05	1.20	-49.2	-67.1	3.5	3.02e+01	0	31	104	604504064	60	87030
2026-01-18 02:38:03.54	340.13	0.94	-49.2	-67.0	3.5	3.02e+01	0	31	104	604504064	60	86601
2026-01-18 02:38:07.58	340.22	0.69	-49.5	-67.4	3.5	3.02e+01	0	31	104	604504064	60	90436
2026-01-18 02:38:11.62	340.30	0.44	-49.5	-67.4	3.5	3.02e+01	0	31	104	604504064	60	89888
2026-01-18 02:38:15.66	340.37	0.19	-49.5	-67.3	3.5	3.02e+01	0	31	104	604504064	60	89261
2026-01-18 02:38:19.69	340.45	-0.05	-49.4	-67.2	3.5	3.02e+01	0	31	104	604504064	60	88562

#Closed at: 2026-01-18 02:38:21
#Recorded file [604 MB]: D:/lorett/data/35029_260118_142428.dat