passes_logs/2026/01/18/R4.6S_Anadyr/R4.6S_Anadyr__20260118_134806_SUOMI_NPP_rec.log

#Pass ID: 20260118_134806_SUOMI NPP
#Satellite: SUOMI NPP
#Configuration: NPP
#almurnet v.1.7.20251203
#Start time: 2026-01-18 13:48:08

#Version: 2.2.20231116
#Station: R4.6S_Anadyr
#Location: 177.4865 lon 64.73178 lat
#TLE: 1 37849U 11061A   26017.57099531  .00000072  00000+0  54974-4 0  9996
#TLE: 2 37849  98.7814 319.5974 0002398  59.1749 300.9663 14.19525865737072

#Time	Az	El	Level	Level2	SNR	BER	BlckErr	Temp	State	Recorded	gain1	gain2
2026-01-18 13:48:08.57	19.13	0.10	-49.4	-61.9	3.4	1.52e+00	0	33	0	0	60	43696
2026-01-18 13:48:12.60	19.27	0.33	-49.5	-64.8	3.6	1.51e+00	0	34	104	0	60	62814
2026-01-18 13:48:16.64	19.41	0.56	-49.7	-64.8	3.6	1.51e+00	0	35	104	0	60	62961
2026-01-18 13:48:20.67	19.55	0.80	-49.6	-64.9	3.6	1.51e+00	0	34	104	0	60	63211
2026-01-18 13:48:24.70	19.69	1.04	-49.4	-64.6	3.6	1.51e+00	0	35	104	0	60	61716
2026-01-18 13:48:28.74	19.84	1.28	-48.9	-64.1	3.6	1.51e+00	0	35	104	0	60	58151
2026-01-18 13:48:32.78	19.99	1.52	-48.2	-63.3	3.6	1.51e+00	0	35	104	0	60	53121
2026-01-18 13:48:36.81	20.14	1.77	-48.1	-63.4	3.6	1.51e+00	0	35	104	0	60	53207
2026-01-18 13:48:40.85	20.29	2.01	-48.1	-63.2	3.6	1.51e+00	0	35	104	0	60	52542
2026-01-18 13:48:44.89	20.45	2.26	-48.0	-61.9	3.6	1.51e+00	0	35	104	0	60	45015
2026-01-18 13:48:48.91	20.60	2.51	-48.1	-62.6	3.5	1.51e+00	0	35	104	0	60	48955
2026-01-18 13:48:52.95	20.76	2.76	-47.1	-53.4	8.4	1.33e-01	91	35	0	2097152	60	16967
2026-01-18 13:48:56.99	20.92	3.02	-43.7	-46.0	16.3	0.00e+00	0	35	0	10485760	60	7232
2026-01-18 13:49:01.02	21.09	3.28	-43.2	-45.3	16.8	0.00e+00	0	35	0	17825792	58	7454
2026-01-18 13:49:05.05	21.25	3.53	-46.1	-50.5	11.3	3.35e-04	0	35	0	25165824	60	12158
2026-01-18 13:49:09.09	21.42	3.80	-48.0	-59.0	3.8	1.04e-01	4	35	0	30408704	60	32100
2026-01-18 13:49:13.12	21.60	4.06	-45.2	-48.4	13.8	2.89e-05	0	35	0	32505856	60	9485
2026-01-18 13:49:17.16	21.77	4.33	-45.3	-48.5	13.8	8.30e-06	0	35	0	40894464	60	9661
2026-01-18 13:49:21.19	21.95	4.59	-45.2	-48.3	14.1	3.80e-06	49	35	0	48234496	60	9349
2026-01-18 13:49:25.23	22.13	4.86	-44.5	-47.2	15.2	0.00e+00	0	35	0	55574528	60	8246
2026-01-18 13:49:29.26	22.31	5.14	-43.4	-45.5	17.1	0.00e+00	0	35	0	62914560	60	6806
2026-01-18 13:49:33.30	22.50	5.41	-42.3	-44.0	18.6	0.00e+00	0	35	0	71303168	58	6424
2026-01-18 13:49:37.34	22.69	5.69	-42.2	-43.9	18.6	0.00e+00	68	35	0	78643200	58	6352
2026-01-18 13:49:41.38	22.89	5.98	-41.9	-43.5	19.0	0.00e+00	0	35	0	85983232	58	6077
2026-01-18 13:49:45.41	23.08	6.26	-42.0	-43.6	18.9	0.00e+00	0	35	0	93323264	58	6162
2026-01-18 13:49:49.44	23.28	6.55	-41.9	-43.5	19.1	0.00e+00	0	35	0	100663296	56	6786
2026-01-18 13:49:53.47	23.49	6.84	-41.7	-43.1	19.4	0.00e+00	87	35	0	109051904	56	6534
2026-01-18 13:49:57.51	23.69	7.13	-41.5	-42.9	19.7	0.00e+00	0	35	0	116391936	56	6373
2026-01-18 13:50:01.55	23.91	7.43	-41.5	-42.9	19.8	0.00e+00	0	35	0	123731968	56	6340
2026-01-18 13:50:05.58	24.12	7.73	-41.5	-42.9	19.8	0.00e+00	87	35	0	131072000	56	6376
2026-01-18 13:50:09.62	24.34	8.03	-41.4	-42.8	20.0	0.00e+00	0	36	0	138412032	56	6271
2026-01-18 13:50:13.65	24.57	8.34	-41.3	-42.7	20.0	0.00e+00	0	35	0	146800640	56	6215
2026-01-18 13:50:17.69	24.80	8.65	-41.1	-42.5	20.2	0.00e+00	0	35	0	154140672	56	6041
2026-01-18 13:50:21.72	25.03	8.96	-40.8	-42.1	20.6	0.00e+00	4	36	0	161480704	56	5775
2026-01-18 13:50:25.75	25.27	9.28	-40.9	-42.2	20.4	0.00e+00	0	35	0	168820736	56	5868
2026-01-18 13:50:29.79	25.51	9.60	-40.3	-41.5	21.1	0.00e+00	0	35	0	177209344	54	6081
2026-01-18 13:50:33.83	25.76	9.92	-40.4	-41.6	21.1	0.00e+00	0	36	0	184549376	54	6124
2026-01-18 13:50:37.86	26.01	10.25	-40.0	-41.2	21.5	0.00e+00	89	36	0	191889408	54	5838
2026-01-18 13:50:41.89	26.27	10.58	-39.8	-40.9	21.7	0.00e+00	0	36	0	199229440	54	5675
2026-01-18 13:50:45.92	26.53	10.92	-39.8	-40.9	21.7	0.00e+00	0	35	0	206569472	54	5653
2026-01-18 13:50:49.96	26.80	11.26	-39.7	-40.8	21.9	0.00e+00	1	35	0	214958080	52	6246
2026-01-18 13:50:53.99	27.07	11.60	-39.6	-40.7	22.0	0.00e+00	25	36	0	222298112	52	6209
2026-01-18 13:50:58.03	27.35	11.95	-39.2	-40.2	22.3	0.00e+00	0	36	0	229638144	52	5857
2026-01-18 13:51:02.06	27.64	12.31	-38.9	-39.8	22.8	0.00e+00	0	35	0	236978176	52	5600
2026-01-18 13:51:06.10	27.94	12.67	-38.7	-39.6	22.8	0.00e+00	65	36	0	245366784	50	6157
2026-01-18 13:51:10.13	28.24	13.03	-38.6	-39.5	22.9	0.00e+00	0	36	0	252706816	50	6066
2026-01-18 13:51:14.17	28.55	13.40	-38.7	-39.7	22.8	0.00e+00	0	36	0	260046848	50	6185
2026-01-18 13:51:18.21	28.86	13.77	-38.7	-39.7	22.9	0.00e+00	0	36	0	267386880	50	6224
2026-01-18 13:51:22.24	29.18	14.15	-39.0	-40.0	22.6	0.00e+00	71	36	0	274726912	50	6454
2026-01-18 13:51:26.27	29.51	14.53	-38.9	-39.9	22.8	0.00e+00	0	36	0	283115520	50	6343
2026-01-18 13:51:30.31	29.85	14.92	-39.1	-40.1	22.6	0.00e+00	0	36	0	290455552	50	6514
2026-01-18 13:51:34.35	30.20	15.31	-39.4	-40.4	22.5	0.00e+00	1	36	0	297795584	50	6717
2026-01-18 13:51:38.38	30.56	15.71	-39.5	-40.5	22.2	0.00e+00	71	36	0	305135616	50	6826
2026-01-18 13:51:42.41	30.92	16.12	-39.4	-40.5	22.3	0.00e+00	0	36	0	312475648	52	6042
2026-01-18 13:51:46.44	31.30	16.53	-39.4	-40.4	22.4	0.00e+00	0	36	0	320864256	52	6016
2026-01-18 13:51:50.48	31.68	16.94	-39.8	-40.8	22.2	0.00e+00	15	36	0	328204288	52	6290
2026-01-18 13:51:54.51	32.08	17.37	-39.6	-40.7	22.2	0.00e+00	25	36	0	335544320	52	6195
2026-01-18 13:51:58.55	32.49	17.79	-39.6	-40.7	22.2	0.00e+00	0	36	0	342884352	52	6211
2026-01-18 13:52:02.58	32.90	18.23	-39.8	-40.9	21.9	0.00e+00	0	36	0	351272960	52	6342
2026-01-18 13:52:06.62	33.33	18.67	-39.4	-40.4	22.5	0.00e+00	0	36	0	358612992	52	5970
2026-01-18 13:52:10.66	33.77	19.12	-39.6	-40.6	22.3	0.00e+00	0	36	0	365953024	52	6171
2026-01-18 13:52:14.69	34.23	19.57	-39.6	-40.6	22.3	0.00e+00	0	36	0	373293056	52	6128
2026-01-18 13:52:18.73	34.70	20.03	-39.8	-40.9	22.0	0.00e+00	0	36	0	380633088	52	6340
2026-01-18 13:52:22.76	35.18	20.50	-39.7	-40.8	22.1	0.00e+00	89	36	0	389021696	52	6278
2026-01-18 13:52:26.79	35.67	20.98	-39.4	-40.4	22.5	0.00e+00	0	36	0	396361728	52	5969
2026-01-18 13:52:30.83	36.18	21.46	-39.7	-40.7	22.2	0.00e+00	0	36	0	403701760	52	6219
2026-01-18 13:52:34.86	36.71	21.95	-39.5	-40.5	22.3	0.00e+00	0	36	0	411041792	52	6103
2026-01-18 13:52:38.90	37.25	22.44	-39.6	-40.6	22.3	0.00e+00	90	36	0	418381824	52	6152
2026-01-18 13:52:42.93	37.81	22.95	-39.5	-40.6	22.6	0.00e+00	0	36	0	426770432	52	6108
2026-01-18 13:52:46.97	38.39	23.46	-39.4	-40.4	22.5	0.00e+00	0	36	0	434110464	52	6012
2026-01-18 13:52:51.00	38.98	23.98	-39.3	-40.3	22.6	0.00e+00	70	36	0	441450496	52	5961
2026-01-18 13:52:55.04	39.60	24.50	-39.3	-40.3	22.7	0.00e+00	54	36	0	448790528	52	5936
2026-01-18 13:52:59.07	40.23	25.03	-39.9	-40.9	22.5	0.00e+00	0	36	0	456130560	52	6380
2026-01-18 13:53:03.11	40.89	25.57	-39.0	-40.0	22.7	0.00e+00	0	36	0	464519168	52	5700
2026-01-18 13:53:07.14	41.57	26.12	-39.5	-40.5	22.4	0.00e+00	73	36	0	471859200	52	6047
2026-01-18 13:53:11.18	42.27	26.68	-40.4	-41.5	21.6	0.00e+00	0	36	0	479199232	52	6819
2026-01-18 13:53:15.21	43.00	27.24	-39.2	-40.1	22.8	0.00e+00	0	36	0	486539264	52	5805
2026-01-18 13:53:19.25	43.75	27.80	-39.2	-40.1	22.7	0.00e+00	0	36	0	494927872	50	6533
2026-01-18 13:53:23.28	44.53	28.38	-40.0	-41.1	22.1	0.00e+00	90	36	0	502267904	52	6496
2026-01-18 13:53:27.31	45.34	28.96	-40.1	-41.1	22.0	0.00e+00	0	36	0	509607936	52	6539
2026-01-18 13:53:31.35	46.18	29.54	-39.8	-40.8	22.3	0.00e+00	0	36	0	516947968	52	6305
2026-01-18 13:53:35.39	47.05	30.14	-40.4	-41.5	21.0	0.00e+00	4	36	0	524288000	52	6840
2026-01-18 13:53:39.42	47.94	30.73	-41.8	-43.2	20.3	0.00e+00	92	36	0	532676608	56	6543
2026-01-18 13:53:43.46	48.88	31.34	-40.4	-41.5	21.7	0.00e+00	0	36	0	540016640	54	6039
2026-01-18 13:53:47.49	49.84	31.94	-40.1	-41.2	21.9	0.00e+00	0	36	0	547356672	54	5874
2026-01-18 13:53:51.53	50.85	32.55	-39.9	-41.0	22.2	0.00e+00	2	36	0	554696704	52	6425
2026-01-18 13:53:55.56	51.89	33.16	-40.4	-41.5	21.9	0.00e+00	0	36	0	563085312	52	6838
2026-01-18 13:53:59.60	52.97	33.78	-40.0	-41.1	21.9	0.00e+00	0	36	0	570425344	52	6525
2026-01-18 13:54:03.63	54.09	34.39	-41.6	-42.9	20.5	0.00e+00	0	36	0	577765376	54	7153
2026-01-18 13:54:07.66	55.25	35.01	-40.4	-41.5	21.7	0.00e+00	38	36	0	585105408	54	6063
2026-01-18 13:54:11.70	56.46	35.62	-40.3	-41.4	21.7	0.00e+00	0	36	0	592445440	52	6726
2026-01-18 13:54:15.73	57.71	36.23	-40.0	-41.1	22.1	0.00e+00	0	36	0	600834048	52	6472
2026-01-18 13:54:19.77	59.01	36.84	-39.6	-40.6	22.6	0.00e+00	0	36	0	608174080	52	6127
2026-01-18 13:54:23.80	60.36	37.44	-39.9	-40.9	22.1	0.00e+00	90	36	0	615514112	52	6356
2026-01-18 13:54:27.84	61.76	38.04	-40.9	-42.1	21.2	0.00e+00	0	36	0	622854144	54	6539
2026-01-18 13:54:31.87	63.21	38.62	-40.5	-41.6	21.6	0.00e+00	0	36	0	630194176	54	6125
2026-01-18 13:54:35.91	64.71	39.20	-40.5	-41.6	21.6	0.00e+00	7	36	0	638582784	54	6142
2026-01-18 13:54:39.95	66.26	39.76	-40.0	-41.1	22.0	0.00e+00	92	36	0	645922816	52	6490
2026-01-18 13:54:43.98	67.87	40.31	-39.2	-40.2	22.8	0.00e+00	0	36	0	653262848	52	5881
2026-01-18 13:54:48.02	69.53	40.84	-39.9	-40.9	22.0	0.00e+00	0	36	0	660602880	52	6388
2026-01-18 13:54:52.06	71.25	41.35	-39.5	-40.5	22.7	0.00e+00	75	36	0	668991488	52	6097
2026-01-18 13:54:56.09	73.01	41.83	-38.3	-39.2	23.5	0.00e+00	0	36	0	676331520	50	5870
2026-01-18 13:55:00.13	74.84	42.30	-39.4	-40.4	22.6	0.00e+00	0	36	0	683671552	52	6029
2026-01-18 13:55:04.17	76.71	42.73	-39.8	-40.9	22.2	0.00e+00	0	36	0	691011584	52	6360
2026-01-18 13:55:08.20	78.63	43.14	-39.6	-40.7	22.4	0.00e+00	92	36	0	698351616	52	6188
2026-01-18 13:55:12.24	80.60	43.52	-41.0	-42.3	21.0	0.00e+00	0	36	0	706740224	54	6656
2026-01-18 13:55:16.28	82.61	43.86	-39.1	-40.1	22.7	0.00e+00	0	36	0	714080256	52	5774
2026-01-18 13:55:20.31	84.67	44.16	-39.8	-40.8	22.3	0.00e+00	0	36	0	721420288	52	6278
2026-01-18 13:55:24.35	86.76	44.42	-39.1	-40.1	22.7	0.00e+00	92	36	0	728760320	52	5802
2026-01-18 13:55:28.37	88.87	44.65	-39.4	-40.4	22.6	0.00e+00	0	36	0	736100352	52	5991
2026-01-18 13:55:32.41	91.02	44.83	-37.4	-38.3	24.2	0.00e+00	0	36	0	744488960	48	5909
2026-01-18 13:55:36.45	93.20	44.97	-38.6	-39.5	23.2	0.00e+00	44	36	0	751828992	48	6815
2026-01-18 13:55:40.48	95.38	45.07	-38.2	-39.1	23.6	0.00e+00	87	36	0	759169024	50	5802
2026-01-18 13:55:44.52	97.58	45.12	-38.5	-39.5	23.4	0.00e+00	0	36	0	766509056	48	6774
2026-01-18 13:55:48.56	99.79	45.12	-38.0	-38.8	23.7	0.00e+00	0	36	0	774897664	50	5630
2026-01-18 13:55:52.59	101.98	45.08	-39.0	-39.9	22.9	0.00e+00	91	36	0	782237696	50	6387
2026-01-18 13:55:56.63	104.17	44.99	-39.0	-39.9	22.6	0.00e+00	0	36	0	789577728	50	6387
2026-01-18 13:56:00.66	106.35	44.86	-38.9	-39.8	23.2	0.00e+00	0	36	0	796917760	50	6279
2026-01-18 13:56:04.69	108.50	44.68	-39.8	-40.9	22.1	0.00e+00	0	36	0	804257792	54	5686
2026-01-18 13:56:08.73	110.63	44.47	-40.3	-41.5	21.7	0.00e+00	90	36	0	812646400	54	6037
2026-01-18 13:56:12.76	112.73	44.21	-39.8	-40.9	22.3	0.00e+00	0	36	0	819986432	54	5653
2026-01-18 13:56:16.79	114.79	43.91	-40.9	-42.1	21.2	0.00e+00	0	36	0	827326464	52	7266
2026-01-18 13:56:20.83	116.81	43.57	-40.9	-42.1	21.3	0.00e+00	0	36	0	834666496	54	6532
2026-01-18 13:56:24.86	118.79	43.20	-39.5	-40.5	22.4	0.00e+00	72	36	0	842006528	52	6070
2026-01-18 13:56:28.90	120.72	42.80	-38.5	-39.4	23.4	0.00e+00	4	36	0	850395136	50	5988
2026-01-18 13:56:32.94	122.61	42.37	-37.7	-38.6	24.0	0.00e+00	0	36	0	857735168	50	5475
2026-01-18 13:56:36.97	124.44	41.91	-38.5	-39.5	23.2	0.00e+00	36	36	0	865075200	48	6778
2026-01-18 13:56:41.00	126.21	41.43	-38.4	-39.3	23.5	0.00e+00	0	36	0	872415232	48	6686
2026-01-18 13:56:45.04	127.94	40.92	-40.2	-41.3	21.6	0.00e+00	0	36	0	880803840	52	6684
2026-01-18 13:56:49.08	129.62	40.39	-40.8	-42.1	21.2	0.00e+00	0	36	0	888143872	52	7287
2026-01-18 13:56:53.10	131.23	39.84	-38.9	-39.8	23.0	0.00e+00	0	36	0	895483904	52	5615
2026-01-18 13:56:57.14	132.80	39.28	-40.2	-41.4	21.9	0.00e+00	0	36	0	902823936	52	6693
2026-01-18 13:57:01.18	134.32	38.71	-40.2	-41.3	21.9	0.00e+00	3	36	0	910163968	52	6643
2026-01-18 13:57:05.21	135.78	38.12	-40.0	-41.1	22.2	0.00e+00	27	36	0	918552576	54	5797
2026-01-18 13:57:09.25	137.19	37.52	-40.1	-41.2	21.8	0.00e+00	90	36	0	925892608	52	6577
2026-01-18 13:57:13.29	138.55	36.92	-37.6	-38.5	24.1	0.00e+00	0	36	0	933232640	48	6037
2026-01-18 13:57:17.32	139.86	36.31	-39.3	-40.3	22.6	0.00e+00	0	36	0	940572672	52	5949
2026-01-18 13:57:21.35	141.12	35.70	-39.7	-40.7	22.3	0.00e+00	0	36	0	948961280	50	6970
2026-01-18 13:57:25.39	142.34	35.08	-38.3	-39.2	23.6	0.00e+00	84	36	0	956301312	50	5874
2026-01-18 13:57:29.43	143.51	34.46	-40.2	-41.4	21.6	0.00e+00	0	36	0	963641344	52	6705
2026-01-18 13:57:33.47	144.65	33.85	-37.4	-38.2	24.3	0.00e+00	0	36	0	970981376	48	5867
2026-01-18 13:57:37.50	145.73	33.23	-40.6	-41.8	21.3	0.00e+00	81	36	0	978321408	54	6298
2026-01-18 13:57:41.54	146.78	32.61	-38.2	-39.1	23.4	0.00e+00	0	36	0	986710016	50	5767
2026-01-18 13:57:45.57	147.79	32.00	-42.5	-44.2	19.3	0.00e+00	0	36	0	994050048	58	6572
2026-01-18 13:57:49.61	148.77	31.39	-37.9	-38.7	23.9	0.00e+00	0	36	0	1001390080	50	5564
2026-01-18 13:57:53.64	149.71	30.78	-42.2	-43.7	19.8	0.00e+00	90	36	0	1008730112	56	6953
2026-01-18 13:57:57.68	150.62	30.18	-39.6	-40.7	22.6	0.00e+00	0	36	0	1016070144	52	6209
2026-01-18 13:58:01.72	151.49	29.58	-36.9	-37.7	24.6	0.00e+00	0	36	0	1024458752	46	6212
2026-01-18 13:58:05.75	152.33	29.00	-39.1	-40.1	22.6	0.00e+00	0	36	0	1031798784	50	6471
2026-01-18 13:58:09.79	153.15	28.41	-38.9	-39.9	22.9	0.00e+00	59	36	0	1039138816	50	6332
2026-01-18 13:58:13.81	153.93	27.83	-39.0	-40.0	22.8	0.00e+00	0	36	0	1046478848	50	6423
2026-01-18 13:58:17.84	154.68	27.26	-39.6	-40.7	22.2	0.00e+00	0	36	0	1054867456	50	6930
2026-01-18 13:58:21.87	155.41	26.70	-38.8	-39.7	23.1	0.00e+00	0	36	0	1062207488	52	5529
2026-01-18 13:58:25.90	156.12	26.14	-37.8	-38.7	23.8	0.00e+00	92	36	0	1069547520	48	6191
2026-01-18 13:58:29.94	156.81	25.59	-38.5	-39.5	23.0	0.00e+00	0	36	0	1076887552	48	6808
2026-01-18 13:58:33.97	157.47	25.05	-40.1	-41.2	21.8	0.00e+00	0	36	0	1084227584	52	6606
2026-01-18 13:58:38.01	158.11	24.51	-39.5	-40.5	22.4	0.00e+00	0	36	0	1092616192	52	6070
2026-01-18 13:58:42.04	158.72	23.98	-40.9	-42.2	20.9	0.00e+00	0	36	0	1099956224	54	6605
2026-01-18 13:58:46.08	159.32	23.46	-40.9	-42.3	20.8	0.00e+00	0	36	0	1107296256	54	6632
2026-01-18 13:58:50.11	159.90	22.94	-40.5	-41.7	21.3	0.00e+00	0	36	0	1114636288	54	6225
2026-01-18 13:58:54.15	160.47	22.44	-41.6	-43.0	20.1	0.00e+00	91	36	0	1121976320	54	7180
2026-01-18 13:58:58.18	161.01	21.94	-40.3	-41.5	21.4	0.00e+00	32	36	0	1130364928	54	6077
2026-01-18 13:59:02.22	161.54	21.44	-38.1	-39.0	23.5	0.00e+00	0	36	0	1137704960	50	5727
2026-01-18 13:59:06.25	162.05	20.96	-37.5	-38.4	23.9	0.00e+00	0	36	0	1145044992	48	5984
2026-01-18 13:59:10.28	162.55	20.48	-38.6	-39.6	22.9	0.00e+00	92	36	0	1152385024	48	6854
2026-01-18 13:59:14.32	163.03	20.01	-40.4	-41.6	21.4	0.00e+00	0	36	0	1159725056	52	6868
2026-01-18 13:59:18.36	163.50	19.55	-40.9	-42.2	20.8	0.00e+00	0	36	0	1168113664	54	6590
2026-01-18 13:59:22.40	163.96	19.09	-40.3	-41.4	21.5	0.00e+00	0	36	0	1175453696	54	6025
2026-01-18 13:59:26.43	164.40	18.64	-39.5	-40.6	22.2	0.00e+00	91	36	0	1182793728	52	6126
2026-01-18 13:59:30.47	164.83	18.19	-39.2	-40.3	22.3	0.00e+00	0	36	0	1190133760	52	5910
2026-01-18 13:59:34.51	165.25	17.75	-39.4	-40.5	22.1	0.00e+00	0	36	0	1198522368	52	6072
2026-01-18 13:59:38.55	165.65	17.32	-39.8	-40.9	22.0	0.00e+00	85	36	0	1205862400	52	6319
2026-01-18 13:59:42.58	166.05	16.90	-39.7	-40.7	22.0	0.00e+00	0	36	0	1213202432	52	6234
2026-01-18 13:59:46.61	166.43	16.48	-39.5	-40.6	22.1	0.00e+00	0	36	0	1220542464	52	6124
2026-01-18 13:59:50.65	166.81	16.06	-39.1	-40.0	22.6	0.00e+00	0	36	0	1227882496	52	5740
2026-01-18 13:59:54.68	167.17	15.66	-39.7	-40.8	21.9	0.00e+00	92	36	0	1236271104	52	6281
2026-01-18 13:59:58.72	167.53	15.25	-40.4	-41.6	21.2	0.00e+00	0	36	0	1243611136	52	6887
2026-01-18 14:00:02.75	167.88	14.86	-40.2	-41.4	21.4	0.00e+00	0	36	0	1250951168	54	5984
2026-01-18 14:00:06.79	168.22	14.47	-39.9	-41.0	21.8	0.00e+00	0	36	0	1258291200	54	5706
2026-01-18 14:00:10.82	168.55	14.08	-38.9	-39.9	22.6	0.00e+00	82	36	0	1266679808	52	5685
2026-01-18 14:00:14.85	168.87	13.70	-38.5	-39.5	23.1	0.00e+00	0	36	0	1274019840	50	6043
2026-01-18 14:00:18.88	169.18	13.33	-38.6	-39.5	22.9	0.00e+00	0	36	0	1281359872	50	6047
2026-01-18 14:00:22.92	169.49	12.96	-39.4	-40.4	22.3	0.00e+00	0	36	0	1288699904	50	6710
2026-01-18 14:00:26.95	169.79	12.59	-40.2	-41.4	21.4	0.00e+00	33	36	0	1296039936	52	6723
2026-01-18 14:00:30.98	170.08	12.23	-41.1	-42.4	20.4	0.00e+00	0	36	0	1304428544	54	6739
2026-01-18 14:00:35.02	170.37	11.87	-41.3	-42.7	20.2	0.00e+00	0	36	0	1311768576	54	6969
2026-01-18 14:00:39.05	170.65	11.52	-41.2	-42.5	20.4	0.00e+00	2	36	0	1319108608	54	6813
2026-01-18 14:00:43.09	170.92	11.18	-41.1	-42.4	20.5	0.00e+00	0	36	0	1326448640	54	6743
2026-01-18 14:00:47.12	171.19	10.83	-40.7	-42.0	20.8	0.00e+00	0	36	0	1333788672	54	6404
2026-01-18 14:00:51.16	171.45	10.49	-39.9	-41.0	21.6	0.00e+00	0	36	0	1342177280	54	5743
2026-01-18 14:00:55.19	171.71	10.16	-39.7	-40.7	21.9	0.00e+00	91	36	0	1349517312	52	6245
2026-01-18 14:00:59.22	171.96	9.83	-39.1	-40.1	22.3	0.00e+00	0	36	0	1356857344	52	5810
2026-01-18 14:01:03.26	172.21	9.50	-39.0	-40.0	22.4	0.00e+00	0	36	0	1364197376	52	5700
2026-01-18 14:01:07.29	172.45	9.18	-39.1	-40.1	22.3	0.00e+00	0	36	0	1372585984	52	5812
2026-01-18 14:01:11.32	172.68	8.86	-39.4	-40.5	21.9	0.00e+00	92	36	0	1379926016	52	6058
2026-01-18 14:01:15.37	172.91	8.55	-39.8	-40.9	21.5	0.00e+00	0	36	0	1387266048	52	6365
2026-01-18 14:01:19.40	173.14	8.24	-40.2	-41.4	21.0	0.00e+00	0	36	0	1394606080	52	6731
2026-01-18 14:01:23.43	173.36	7.93	-40.5	-41.8	20.8	0.00e+00	57	36	0	1401946112	52	7029
2026-01-18 14:01:27.46	173.58	7.62	-41.1	-42.5	20.0	0.00e+00	92	36	0	1410334720	54	6779
2026-01-18 14:01:31.49	173.79	7.32	-41.2	-42.6	20.0	0.00e+00	0	36	0	1417674752	54	6888
2026-01-18 14:01:35.52	174.00	7.02	-41.3	-42.6	19.9	0.00e+00	0	36	0	1425014784	54	6908
2026-01-18 14:01:39.56	174.21	6.73	-41.5	-43.0	19.4	0.00e+00	79	36	0	1432354816	54	7184
2026-01-18 14:01:43.59	174.41	6.44	-41.5	-42.9	19.5	0.00e+00	0	36	0	1439694848	56	6366
2026-01-18 14:01:47.62	174.60	6.15	-41.6	-43.1	19.4	0.00e+00	0	36	0	1448083456	56	6475
2026-01-18 14:01:51.66	174.80	5.86	-41.8	-43.3	19.1	0.00e+00	0	36	0	1455423488	56	6664
2026-01-18 14:01:55.69	174.99	5.58	-42.1	-43.6	18.8	0.00e+00	92	36	0	1462763520	56	6909
2026-01-18 14:01:59.73	175.18	5.30	-42.2	-43.8	18.4	0.00e+00	0	36	0	1470103552	56	7069
2026-01-18 14:02:03.76	175.36	5.02	-42.5	-44.3	18.3	0.00e+00	0	36	0	1477443584	56	7423
2026-01-18 14:02:07.80	175.54	4.74	-42.8	-44.7	17.7	0.00e+00	0	36	0	1485832192	58	6929
2026-01-18 14:02:11.84	175.72	4.47	-43.0	-45.0	17.6	0.00e+00	88	36	0	1493172224	58	7177
2026-01-18 14:02:15.87	175.89	4.20	-42.7	-44.6	17.6	0.00e+00	0	36	0	1500512256	58	6883
2026-01-18 14:02:19.91	176.07	3.93	-43.1	-45.1	17.2	0.00e+00	0	36	0	1507852288	58	7337
2026-01-18 14:02:23.94	176.24	3.67	-43.0	-45.0	17.1	0.00e+00	57	36	0	1516240896	58	7245
2026-01-18 14:02:27.98	176.40	3.41	-43.1	-45.2	17.1	0.00e+00	62	36	0	1523580928	58	7354
2026-01-18 14:02:32.02	176.57	3.15	-43.1	-45.2	17.0	0.00e+00	0	36	0	1530920960	58	7374
2026-01-18 14:02:36.06	176.73	2.89	-48.9	-64.1	3.6	1.51e+00	0	36	104	1535115264	60	58105
2026-01-18 14:02:40.09	176.88	2.63	-49.4	-64.7	3.6	1.51e+00	0	36	104	1535115264	60	61831
2026-01-18 14:02:44.13	177.04	2.38	-49.6	-64.8	3.6	1.51e+00	0	36	104	1535115264	60	63006
2026-01-18 14:02:48.16	177.19	2.13	-49.7	-64.9	3.6	1.51e+00	0	36	104	1535115264	60	63314
2026-01-18 14:02:52.19	177.34	1.88	-49.6	-64.9	3.6	1.51e+00	0	36	104	1535115264	60	63355
2026-01-18 14:02:56.23	177.49	1.63	-49.6	-64.8	3.6	1.51e+00	0	36	104	1535115264	60	62708
2026-01-18 14:03:00.26	177.64	1.38	-49.6	-64.8	3.6	1.51e+00	0	36	104	1535115264	60	63055
2026-01-18 14:03:04.30	177.78	1.14	-49.6	-64.8	3.6	1.51e+00	0	36	104	1535115264	60	62693
2026-01-18 14:03:08.33	177.93	0.90	-49.6	-64.8	3.6	1.51e+00	0	36	104	1535115264	60	62892
2026-01-18 14:03:12.37	178.07	0.66	-49.6	-64.8	3.6	1.51e+00	0	37	104	1535115264	60	62856
2026-01-18 14:03:16.40	178.20	0.42	-49.6	-64.8	3.6	1.51e+00	0	37	104	1535115264	60	62795
2026-01-18 14:03:20.44	178.34	0.18	-49.6	-64.8	3.6	1.51e+00	0	37	104	1535115264	60	62723
2026-01-18 14:03:24.48	178.48	-0.05	-49.6	-64.8	3.6	1.51e+00	0	36	104	1535115264	60	62806

#Closed at: 2026-01-18 14:03:25
#Recorded file [1535 MB]: D:/lorett/data/35029_260119_014808.dat