passes_logs/2026/01/18/R4.6S_Anadyr/R4.6S_Anadyr__20260118_152833_SUOMI_NPP_rec.log

#Pass ID: 20260118_152833_SUOMI NPP
#Satellite: SUOMI NPP
#Configuration: NPP
#almurnet v.1.7.20251203
#Start time: 2026-01-18 15:28:36

#Version: 2.2.20231116
#Station: R4.6S_Anadyr
#Location: 177.4865 lon 64.73178 lat
#TLE: 1 37849U 11061A   26017.57099531  .00000072  00000+0  54974-4 0  9996
#TLE: 2 37849  98.7814 319.5974 0002398  59.1749 300.9663 14.19525865737072

#Time	Az	El	Level	Level2	SNR	BER	BlckErr	Temp	State	Recorded	gain1	gain2
2026-01-18 15:28:36.39	22.19	0.20	-49.5	-63.2	3.3	1.54e+00	0	37	0	0	60	52468
2026-01-18 15:28:40.42	22.13	0.44	-49.5	-64.8	3.6	1.51e+00	0	37	104	0	60	62633
2026-01-18 15:28:44.46	22.07	0.68	-49.6	-64.7	3.6	1.51e+00	0	37	104	0	60	62426
2026-01-18 15:28:48.50	22.01	0.93	-49.3	-64.6	3.6	1.51e+00	0	37	104	0	60	61325
2026-01-18 15:28:52.54	21.95	1.18	-48.9	-64.2	3.6	1.51e+00	0	37	104	0	60	58708
2026-01-18 15:28:56.58	21.89	1.43	-48.5	-63.6	3.6	1.51e+00	0	37	104	0	60	54619
2026-01-18 15:29:00.62	21.82	1.68	-48.1	-63.1	3.6	1.51e+00	0	37	104	0	60	51759
2026-01-18 15:29:04.66	21.76	1.93	-48.1	-63.2	3.6	1.51e+00	0	37	104	0	60	52221
2026-01-18 15:29:08.70	21.69	2.19	-48.1	-63.3	3.6	1.51e+00	0	37	104	0	60	52749
2026-01-18 15:29:12.74	21.62	2.45	-48.0	-62.5	3.6	1.51e+00	0	37	104	0	60	48114
2026-01-18 15:29:16.78	21.55	2.71	-48.0	-62.5	3.6	1.51e+00	0	37	104	0	60	47951
2026-01-18 15:29:20.82	21.48	2.97	-47.9	-60.4	3.7	1.51e+00	0	38	104	0	60	38030
2026-01-18 15:29:24.85	21.41	3.24	-46.7	-52.1	9.7	2.17e-02	0	38	0	5242880	60	14609
2026-01-18 15:29:28.89	21.33	3.51	-46.1	-50.5	11.4	7.98e-04	0	38	0	12582912	60	12113
2026-01-18 15:29:32.93	21.25	3.78	-41.7	-43.3	18.9	1.15e-01	0	38	0	17825792	56	6619
2026-01-18 15:29:36.97	21.17	4.05	-43.2	-45.3	17.0	1.53e-02	90	37	0	22020096	60	6664
2026-01-18 15:29:41.01	21.09	4.33	-41.2	-42.6	19.6	0.00e+00	0	38	0	29360128	56	6170
2026-01-18 15:29:45.05	21.01	4.61	-41.2	-42.6	19.6	0.00e+00	0	38	0	36700160	56	6135
2026-01-18 15:29:49.08	20.93	4.89	-40.7	-42.0	20.1	0.00e+00	0	37	0	44040192	54	6445
2026-01-18 15:29:53.12	20.84	5.17	-40.6	-42.0	20.2	0.00e+00	70	37	0	52428800	54	6408
2026-01-18 15:29:57.16	20.75	5.46	-40.5	-41.8	20.3	0.00e+00	0	38	0	59768832	54	6315
2026-01-18 15:30:01.19	20.66	5.75	-40.4	-41.7	20.6	0.00e+00	0	38	0	67108864	54	6174
2026-01-18 15:30:05.23	20.57	6.04	-40.1	-41.3	20.9	0.00e+00	57	38	0	74448896	54	5951
2026-01-18 15:30:09.27	20.47	6.34	-40.0	-41.2	21.0	0.00e+00	90	38	0	82837504	54	5895
2026-01-18 15:30:13.31	20.38	6.64	-39.9	-41.1	21.2	0.00e+00	0	38	0	90177536	52	6473
2026-01-18 15:30:17.36	20.28	6.95	-39.7	-40.8	21.4	0.00e+00	19	38	0	97517568	52	6292
2026-01-18 15:30:21.40	20.17	7.26	-39.6	-40.8	21.5	0.00e+00	90	38	0	104857600	52	6259
2026-01-18 15:30:25.44	20.07	7.57	-39.4	-40.5	21.7	0.00e+00	0	38	0	112197632	52	6098
2026-01-18 15:30:29.48	19.96	7.88	-39.4	-40.5	21.7	0.00e+00	0	38	0	120586240	52	6098
2026-01-18 15:30:33.52	19.85	8.20	-39.4	-40.5	21.9	0.00e+00	0	38	0	127926272	52	6073
2026-01-18 15:30:37.56	19.74	8.52	-39.2	-40.2	22.1	0.00e+00	73	38	0	135266304	52	5867
2026-01-18 15:30:41.60	19.62	8.85	-39.1	-40.1	22.2	0.00e+00	0	38	0	142606336	52	5820
2026-01-18 15:30:45.63	19.50	9.18	-38.9	-39.9	22.3	0.00e+00	0	38	0	150994944	52	5690
2026-01-18 15:30:49.67	19.38	9.52	-38.8	-39.8	22.4	0.00e+00	10	38	0	158334976	50	6300
2026-01-18 15:30:53.71	19.25	9.86	-39.2	-40.3	22.1	0.00e+00	19	38	0	165675008	50	6618
2026-01-18 15:30:57.75	19.13	10.20	-38.7	-39.7	22.6	0.00e+00	0	38	0	173015040	50	6178
2026-01-18 15:31:01.79	18.99	10.55	-38.6	-39.6	22.6	0.00e+00	0	38	0	180355072	50	6108
2026-01-18 15:31:05.83	18.86	10.90	-38.3	-39.3	22.9	0.00e+00	10	38	0	188743680	50	5904
2026-01-18 15:31:09.86	18.72	11.26	-38.1	-39.0	22.9	0.00e+00	0	38	0	196083712	50	5747
2026-01-18 15:31:13.90	18.57	11.63	-38.0	-38.9	22.8	0.00e+00	0	38	0	203423744	50	5658
2026-01-18 15:31:17.94	18.43	12.00	-37.8	-38.7	23.2	0.00e+00	0	38	0	210763776	48	6220
2026-01-18 15:31:21.97	18.28	12.37	-37.8	-38.7	23.4	0.00e+00	92	38	0	219152384	48	6230
2026-01-18 15:31:26.01	18.12	12.75	-37.8	-38.7	23.5	0.00e+00	0	38	0	226492416	48	6175
2026-01-18 15:31:30.05	17.96	13.14	-37.8	-38.7	23.5	0.00e+00	0	38	0	233832448	48	6209
2026-01-18 15:31:34.08	17.79	13.53	-37.6	-38.5	23.6	0.00e+00	0	38	0	241172480	48	6079
2026-01-18 15:31:38.12	17.62	13.93	-37.7	-38.5	23.6	0.00e+00	83	38	0	248512512	48	6102
2026-01-18 15:31:42.16	17.45	14.33	-37.6	-38.4	23.7	0.00e+00	0	38	0	256901120	48	6031
2026-01-18 15:31:46.20	17.27	14.74	-37.6	-38.5	23.6	0.00e+00	0	38	0	264241152	48	6054
2026-01-18 15:31:50.24	17.08	15.16	-37.5	-38.4	23.7	0.00e+00	12	38	0	271581184	48	5972
2026-01-18 15:31:54.28	16.89	15.59	-37.7	-38.5	23.7	0.00e+00	0	38	0	278921216	48	6103
2026-01-18 15:31:58.32	16.69	16.02	-37.3	-38.1	24.0	0.00e+00	0	38	0	287309824	48	5828
2026-01-18 15:32:02.35	16.49	16.46	-37.3	-38.1	24.1	0.00e+00	0	38	0	294649856	48	5805
2026-01-18 15:32:06.39	16.28	16.91	-37.3	-38.2	24.0	0.00e+00	90	38	0	301989888	48	5829
2026-01-18 15:32:10.43	16.06	17.36	-37.4	-38.3	24.0	0.00e+00	0	38	0	309329920	48	5903
2026-01-18 15:32:14.47	15.83	17.82	-37.5	-38.4	23.8	0.00e+00	0	38	0	316669952	48	5986
2026-01-18 15:32:18.50	15.60	18.30	-37.6	-38.5	23.7	0.00e+00	0	38	0	325058560	48	6084
2026-01-18 15:32:22.54	15.36	18.78	-37.9	-38.8	23.6	0.00e+00	91	38	0	332398592	48	6271
2026-01-18 15:32:26.58	15.11	19.26	-38.0	-38.9	23.5	0.00e+00	0	38	0	339738624	48	6373
2026-01-18 15:32:30.62	14.85	19.76	-38.2	-39.1	23.3	0.00e+00	0	38	0	347078656	48	6502
2026-01-18 15:32:34.66	14.59	20.27	-37.8	-38.7	23.6	0.00e+00	6	38	0	355467264	48	6204
2026-01-18 15:32:38.70	14.31	20.79	-37.6	-38.5	23.8	0.00e+00	0	38	0	362807296	48	6055
2026-01-18 15:32:42.74	14.02	21.32	-37.8	-38.7	23.7	0.00e+00	0	38	0	370147328	48	6181
2026-01-18 15:32:46.78	13.73	21.86	-38.0	-38.9	23.5	0.00e+00	0	38	0	377487360	48	6327
2026-01-18 15:32:50.82	13.42	22.41	-38.3	-39.2	23.3	0.00e+00	92	38	0	384827392	48	6584
2026-01-18 15:32:54.85	13.10	22.96	-38.2	-39.1	23.4	0.00e+00	0	38	0	393216000	48	6481
2026-01-18 15:32:58.89	12.77	23.54	-38.4	-39.4	23.2	0.00e+00	0	38	0	400556032	48	6697
2026-01-18 15:33:02.93	12.42	24.12	-39.1	-40.1	22.7	0.00e+00	0	38	0	407896064	50	6478
2026-01-18 15:33:06.97	12.06	24.71	-39.7	-40.8	22.1	0.00e+00	92	38	0	415236096	52	6298
2026-01-18 15:33:11.01	11.69	25.32	-39.6	-40.7	22.2	0.00e+00	0	38	0	423624704	52	6183
2026-01-18 15:33:15.05	11.30	25.94	-39.4	-40.4	22.5	0.00e+00	0	38	0	430964736	52	6020
2026-01-18 15:33:19.09	10.89	26.58	-39.6	-40.6	22.3	0.00e+00	0	38	0	438304768	52	6153
2026-01-18 15:33:23.13	10.47	27.23	-39.1	-40.1	22.6	0.00e+00	87	38	0	445644800	52	5795
2026-01-18 15:33:27.17	10.03	27.89	-39.3	-40.3	22.7	0.00e+00	0	38	0	452984832	52	5948
2026-01-18 15:33:31.20	9.57	28.56	-39.7	-40.8	22.2	0.00e+00	14	38	0	461373440	52	6267
2026-01-18 15:33:35.24	9.09	29.25	-40.6	-41.8	21.3	0.00e+00	58	38	0	468713472	54	6251
2026-01-18 15:33:39.28	8.59	29.96	-41.2	-42.5	20.8	0.00e+00	0	38	0	476053504	54	6800
2026-01-18 15:33:43.32	8.06	30.68	-40.5	-41.6	21.5	0.00e+00	0	38	0	483393536	54	6159
2026-01-18 15:33:47.36	7.51	31.41	-40.2	-41.3	21.9	0.00e+00	0	38	0	491782144	54	5933
2026-01-18 15:33:51.40	6.93	32.16	-40.4	-41.5	21.6	0.00e+00	40	38	0	499122176	54	6060
2026-01-18 15:33:55.43	6.33	32.93	-40.2	-41.3	21.8	0.00e+00	0	38	0	506462208	54	5956
2026-01-18 15:33:59.47	5.69	33.71	-41.8	-43.3	19.9	0.00e+00	0	38	0	513802240	56	6653
2026-01-18 15:34:03.51	5.02	34.51	-41.5	-42.8	20.6	0.00e+00	0	38	0	521142272	56	6286
2026-01-18 15:34:07.55	4.32	35.32	-41.5	-42.8	20.9	0.00e+00	74	38	0	529530880	56	6269
2026-01-18 15:34:11.59	3.58	36.15	-41.9	-43.3	20.0	0.00e+00	0	38	0	536870912	56	6692
2026-01-18 15:34:15.62	2.80	37.00	-42.1	-43.6	19.8	0.00e+00	0	38	0	544210944	56	6851
2026-01-18 15:34:19.66	1.98	37.86	-42.8	-44.5	18.9	0.00e+00	37	38	0	551550976	58	6845
2026-01-18 15:34:23.70	1.11	38.74	-41.6	-42.9	20.4	0.00e+00	35	38	0	558891008	56	6377
2026-01-18 15:34:27.74	0.19	39.63	-40.1	-41.2	21.5	0.00e+00	0	38	0	567279616	54	5845
2026-01-18 15:34:31.78	359.22	40.54	-40.2	-41.3	21.9	0.00e+00	0	38	0	574619648	54	5920
2026-01-18 15:34:35.81	358.19	41.46	-40.8	-42.0	21.1	0.00e+00	14	38	0	581959680	54	6398
2026-01-18 15:34:39.85	357.10	42.39	-41.9	-43.4	19.8	0.00e+00	0	38	0	589299712	54	7545
2026-01-18 15:34:43.89	355.95	43.34	-41.3	-42.6	20.8	0.00e+00	0	38	0	597688320	56	6147
2026-01-18 15:34:47.93	354.72	44.29	-41.3	-42.7	20.8	0.00e+00	0	38	0	605028352	56	6178
2026-01-18 15:34:51.96	353.42	45.25	-41.4	-42.7	20.6	0.00e+00	87	38	0	612368384	54	6975
2026-01-18 15:34:56.01	352.02	46.22	-39.8	-40.9	21.8	0.00e+00	0	38	0	619708416	54	5639
2026-01-18 15:35:00.05	350.55	47.19	-39.7	-40.7	22.3	0.00e+00	0	38	0	627048448	52	6210
2026-01-18 15:35:04.08	348.98	48.16	-40.1	-41.3	21.7	0.00e+00	0	38	0	635437056	52	6665
2026-01-18 15:35:08.12	347.30	49.13	-41.1	-42.5	20.6	0.00e+00	65	38	0	642777088	54	6777
2026-01-18 15:35:12.16	345.52	50.09	-39.2	-40.1	22.6	0.00e+00	0	38	0	650117120	52	5827
2026-01-18 15:35:16.20	343.62	51.03	-38.4	-39.3	23.1	0.00e+00	0	38	0	657457152	50	5933
2026-01-18 15:35:20.23	341.60	51.96	-37.8	-38.6	23.9	0.00e+00	42	38	0	665845760	48	6159
2026-01-18 15:35:24.27	339.44	52.87	-39.5	-40.6	22.1	0.00e+00	11	38	0	673185792	50	6915
2026-01-18 15:35:28.30	337.16	53.75	-38.2	-39.1	23.4	0.00e+00	0	38	0	680525824	50	5802
2026-01-18 15:35:32.34	334.72	54.60	-39.7	-40.9	22.2	0.00e+00	0	38	0	687865856	52	6329
2026-01-18 15:35:36.38	332.14	55.40	-38.9	-39.8	22.9	0.00e+00	91	38	0	695205888	50	6296
2026-01-18 15:35:40.42	329.42	56.16	-38.4	-39.3	23.3	0.00e+00	0	38	0	703594496	50	5936
2026-01-18 15:35:44.46	326.54	56.86	-37.8	-38.7	23.1	0.00e+00	13	38	0	710934528	50	5536
2026-01-18 15:35:48.50	323.52	57.49	-40.0	-41.2	21.8	0.00e+00	0	38	0	718274560	52	6557
2026-01-18 15:35:52.54	320.37	58.05	-39.4	-40.4	22.5	0.00e+00	60	38	0	725614592	52	6027
2026-01-18 15:35:56.58	317.09	58.53	-38.0	-38.9	23.6	0.00e+00	0	38	0	734003200	50	5664
2026-01-18 15:36:00.62	313.70	58.92	-37.2	-38.1	24.0	0.00e+00	0	38	0	741343232	48	5772
2026-01-18 15:36:04.65	310.23	59.22	-38.6	-39.6	23.0	0.00e+00	54	38	0	748683264	50	6127
2026-01-18 15:36:08.69	306.68	59.42	-37.6	-38.5	23.9	0.00e+00	68	38	0	756023296	48	6088
2026-01-18 15:36:12.73	303.09	59.52	-36.7	-37.5	24.7	0.00e+00	0	38	0	763363328	48	5399
2026-01-18 15:36:16.69	299.56	59.51	-35.9	-36.6	25.2	0.00e+00	0	38	0	771751936	46	5478
2026-01-18 15:36:20.73	295.97	59.41	-37.0	-37.9	24.2	0.00e+00	92	38	0	779091968	46	6385
2026-01-18 15:36:24.76	292.43	59.20	-36.1	-36.9	25.0	0.00e+00	0	38	0	786432000	44	6344
2026-01-18 15:36:28.79	288.97	58.90	-36.1	-36.9	25.0	0.00e+00	0	38	0	793772032	46	5637
2026-01-18 15:36:32.83	285.58	58.50	-37.1	-37.9	24.2	0.00e+00	0	38	0	802160640	46	6383
2026-01-18 15:36:36.87	282.30	58.02	-38.5	-39.5	23.2	0.00e+00	92	38	0	809500672	48	6783
2026-01-18 15:36:40.90	279.16	57.46	-38.2	-39.1	23.5	0.00e+00	0	38	0	816840704	48	6508
2026-01-18 15:36:44.94	276.15	56.82	-37.1	-37.9	24.3	0.00e+00	0	38	0	824180736	48	5644
2026-01-18 15:36:48.98	273.28	56.12	-37.0	-37.8	24.5	0.00e+00	0	38	0	831520768	48	5612
2026-01-18 15:36:53.02	270.55	55.36	-37.2	-38.0	24.4	0.00e+00	81	38	0	839909376	46	6445
2026-01-18 15:36:57.06	267.98	54.55	-37.5	-38.3	24.0	0.00e+00	0	38	0	847249408	48	5948
2026-01-18 15:37:01.09	265.55	53.70	-38.2	-39.1	23.2	0.00e+00	0	38	0	854589440	50	5802
2026-01-18 15:37:05.14	263.26	52.81	-39.0	-40.0	22.9	0.00e+00	92	38	0	861929472	50	6462
2026-01-18 15:37:09.18	261.11	51.90	-40.2	-41.3	21.9	0.00e+00	0	38	0	870318080	52	6669
2026-01-18 15:37:13.21	259.09	50.97	-38.7	-39.6	23.2	0.00e+00	0	38	0	877658112	50	6154
2026-01-18 15:37:17.25	257.20	50.02	-38.2	-39.1	23.6	0.00e+00	0	38	0	884998144	50	5771
2026-01-18 15:37:21.29	255.41	49.06	-40.3	-41.4	21.7	0.00e+00	92	38	0	892338176	52	6739
2026-01-18 15:37:25.34	253.74	48.08	-40.8	-42.0	21.2	0.00e+00	0	38	0	899678208	54	6411
2026-01-18 15:37:29.38	252.17	47.11	-43.5	-45.5	17.9	0.00e+00	0	38	0	908066816	58	7676
2026-01-18 15:37:33.41	250.70	46.14	-40.9	-42.0	21.0	0.00e+00	0	38	0	915406848	56	5755
2026-01-18 15:37:37.45	249.31	45.17	-40.2	-41.3	21.9	0.00e+00	46	38	0	922746880	54	5940
2026-01-18 15:37:41.49	248.01	44.20	-39.4	-40.4	22.4	0.00e+00	0	38	0	930086912	52	6020
2026-01-18 15:37:45.53	246.79	43.25	-40.7	-41.8	21.2	0.00e+00	0	38	0	938475520	54	6292
2026-01-18 15:37:49.57	245.63	42.30	-42.4	-43.9	19.2	0.00e+00	13	38	0	945815552	58	6351
2026-01-18 15:37:53.61	244.54	41.37	-40.8	-42.0	21.4	0.00e+00	69	38	0	953155584	56	5731
2026-01-18 15:37:57.65	243.51	40.44	-41.0	-42.2	21.0	0.00e+00	0	38	0	960495616	54	6598
2026-01-18 15:38:01.69	242.54	39.53	-42.1	-43.5	19.8	0.00e+00	0	38	0	967835648	56	6805
2026-01-18 15:38:05.72	241.63	38.64	-41.7	-43.1	20.2	0.00e+00	8	38	0	976224256	56	6467
2026-01-18 15:38:09.76	240.76	37.76	-41.7	-43.0	20.4	0.00e+00	0	38	0	983564288	56	6400
2026-01-18 15:38:13.79	239.94	36.90	-41.8	-43.2	20.3	0.00e+00	0	38	0	990904320	56	6544
2026-01-18 15:38:17.83	239.16	36.05	-39.9	-40.9	22.2	0.00e+00	0	38	0	998244352	52	6346
2026-01-18 15:38:21.87	238.42	35.22	-41.2	-42.4	21.1	0.00e+00	92	38	0	1006632960	56	6026
2026-01-18 15:38:25.90	237.72	34.40	-41.5	-42.8	20.5	0.00e+00	0	38	0	1013972992	54	7019
2026-01-18 15:38:29.94	237.05	33.60	-40.2	-41.3	21.9	0.00e+00	0	38	0	1021313024	54	5928
2026-01-18 15:38:33.98	236.41	32.82	-41.4	-42.7	20.7	0.00e+00	0	38	0	1028653056	56	6224
2026-01-18 15:38:38.02	235.81	32.05	-40.3	-41.5	21.7	0.00e+00	92	38	0	1035993088	52	6787
2026-01-18 15:38:42.06	235.23	31.30	-41.1	-42.3	21.0	0.00e+00	0	38	0	1044381696	56	5939
2026-01-18 15:38:46.10	234.68	30.56	-39.6	-40.6	22.4	0.00e+00	0	38	0	1051721728	52	6108
2026-01-18 15:38:50.14	234.15	29.84	-39.2	-40.1	22.8	0.00e+00	15	38	0	1059061760	52	5814
2026-01-18 15:38:54.17	233.65	29.14	-39.6	-40.7	22.2	0.00e+00	0	38	0	1066401792	50	6938
2026-01-18 15:38:58.21	233.17	28.45	-41.0	-42.2	21.3	0.00e+00	0	38	0	1073741824	54	6599
2026-01-18 15:39:02.24	232.71	27.77	-40.5	-41.7	21.4	0.00e+00	0	38	0	1082130432	54	6185
2026-01-18 15:39:06.28	232.27	27.11	-39.9	-41.0	22.0	0.00e+00	87	38	0	1089470464	54	5698
2026-01-18 15:39:10.32	231.84	26.46	-39.2	-40.1	22.8	0.00e+00	0	38	0	1096810496	52	5807
2026-01-18 15:39:14.35	231.44	25.83	-40.7	-41.9	21.2	0.00e+00	0	38	0	1104150528	52	7109
2026-01-18 15:39:18.39	231.05	25.21	-41.0	-42.3	20.9	0.00e+00	0	38	0	1112539136	54	6622
2026-01-18 15:39:22.43	230.67	24.60	-40.9	-42.1	21.0	0.00e+00	90	38	0	1119879168	54	6484
2026-01-18 15:39:26.46	230.31	24.00	-40.9	-42.1	21.0	0.00e+00	0	38	0	1127219200	54	6491
2026-01-18 15:39:30.50	229.97	23.42	-39.9	-40.9	22.2	0.00e+00	0	38	0	1134559232	54	5652
2026-01-18 15:39:34.54	229.63	22.85	-39.8	-40.8	22.3	0.00e+00	57	38	0	1141899264	52	6276
2026-01-18 15:39:38.58	229.31	22.29	-39.6	-40.6	22.3	0.00e+00	0	38	0	1150287872	52	6116
2026-01-18 15:39:42.61	229.00	21.74	-39.1	-40.0	22.8	0.00e+00	0	38	0	1157627904	52	5758
2026-01-18 15:39:46.65	228.70	21.20	-39.5	-40.5	22.5	0.00e+00	0	38	0	1164967936	52	6060
2026-01-18 15:39:50.69	228.42	20.67	-40.9	-42.2	20.8	0.00e+00	28	38	0	1172307968	54	6575
2026-01-18 15:39:54.73	228.14	20.15	-41.9	-43.3	19.9	0.00e+00	0	38	0	1180696576	56	6669
2026-01-18 15:39:58.77	227.87	19.64	-41.7	-43.0	20.3	0.00e+00	0	38	0	1188036608	56	6446
2026-01-18 15:40:02.81	227.61	19.14	-40.6	-41.8	21.4	0.00e+00	0	38	0	1195376640	54	6250
2026-01-18 15:40:06.85	227.36	18.65	-39.8	-40.9	22.2	0.00e+00	92	38	0	1202716672	54	5640
2026-01-18 15:40:10.89	227.12	18.17	-39.0	-40.0	22.8	0.00e+00	0	38	0	1210056704	52	5696
2026-01-18 15:40:14.93	226.88	17.70	-39.2	-40.1	22.7	0.00e+00	0	38	0	1218445312	52	5818
2026-01-18 15:40:18.97	226.66	17.24	-39.6	-40.6	22.3	0.00e+00	4	38	0	1225785344	52	6169
2026-01-18 15:40:23.01	226.44	16.78	-40.2	-41.2	21.7	0.00e+00	81	38	0	1233125376	52	6608
2026-01-18 15:40:27.05	226.22	16.33	-40.4	-41.5	21.6	0.00e+00	0	39	0	1240465408	52	6794
2026-01-18 15:40:31.09	226.02	15.89	-40.1	-41.1	21.8	0.00e+00	0	38	0	1248854016	52	6538
2026-01-18 15:40:35.12	225.82	15.46	-40.1	-41.2	21.8	0.00e+00	73	38	0	1256194048	52	6549
2026-01-18 15:40:39.16	225.62	15.03	-40.1	-41.2	21.6	0.00e+00	8	38	0	1263534080	52	6562
2026-01-18 15:40:43.19	225.43	14.62	-40.7	-41.9	21.0	0.00e+00	0	39	0	1270874112	54	6321
2026-01-18 15:40:47.24	225.25	14.20	-41.7	-43.0	19.9	0.00e+00	0	38	0	1278214144	54	7244
2026-01-18 15:40:51.28	225.07	13.80	-41.8	-43.2	20.0	0.00e+00	92	38	0	1286602752	56	6572
2026-01-18 15:40:55.32	224.90	13.40	-41.0	-42.2	20.8	0.00e+00	0	38	0	1293942784	56	5835
2026-01-18 15:40:59.36	224.73	13.01	-40.3	-41.4	21.4	0.00e+00	0	38	0	1301282816	54	5967
2026-01-18 15:41:03.40	224.57	12.62	-39.4	-40.4	22.2	0.00e+00	5	38	0	1308622848	52	5998
2026-01-18 15:41:07.44	224.41	12.24	-39.5	-40.5	22.1	0.00e+00	92	38	0	1317011456	52	6103
2026-01-18 15:41:11.47	224.26	11.86	-39.4	-40.4	22.0	0.00e+00	0	38	0	1324351488	52	6018
2026-01-18 15:41:15.51	224.11	11.50	-39.9	-40.9	21.8	0.00e+00	0	38	0	1331691520	52	6386
2026-01-18 15:41:19.55	223.96	11.13	-40.5	-41.6	21.2	0.00e+00	5	38	0	1339031552	52	6905
2026-01-18 15:41:23.59	223.82	10.77	-41.1	-42.3	20.6	0.00e+00	0	38	0	1346371584	54	6674
2026-01-18 15:41:27.63	223.68	10.42	-41.2	-42.5	20.4	0.00e+00	0	38	0	1354760192	56	6035
2026-01-18 15:41:31.66	223.55	10.07	-41.3	-42.6	20.3	0.00e+00	0	38	0	1362100224	56	6132
2026-01-18 15:41:35.70	223.42	9.72	-41.1	-42.4	20.5	0.00e+00	92	38	0	1369440256	56	5987
2026-01-18 15:41:39.74	223.29	9.38	-41.2	-42.5	20.3	0.00e+00	0	38	0	1376780288	56	6088
2026-01-18 15:41:43.78	223.16	9.05	-41.4	-42.7	20.2	0.00e+00	0	38	0	1385168896	56	6234
2026-01-18 15:41:47.82	223.04	8.72	-41.5	-42.9	19.9	0.00e+00	0	38	0	1392508928	56	6360
2026-01-18 15:41:51.86	222.92	8.39	-42.3	-43.9	19.1	0.00e+00	92	38	0	1399848960	56	7091
2026-01-18 15:41:55.90	222.81	8.06	-42.3	-43.8	19.0	0.00e+00	0	39	0	1407188992	56	7065
2026-01-18 15:41:59.94	222.69	7.75	-43.0	-44.8	17.9	0.00e+00	0	38	0	1414529024	58	7062
2026-01-18 15:42:03.98	222.58	7.43	-42.9	-44.7	18.0	0.00e+00	0	38	0	1422917632	58	6999
2026-01-18 15:42:08.02	222.47	7.12	-43.2	-45.1	17.6	0.00e+00	68	38	0	1430257664	58	7315
2026-01-18 15:42:12.06	222.37	6.81	-43.3	-45.3	17.5	0.00e+00	0	38	0	1437597696	58	7436
2026-01-18 15:42:16.10	222.27	6.51	-43.5	-45.6	17.1	0.00e+00	0	38	0	1444937728	58	7701
2026-01-18 15:42:20.14	222.17	6.20	-43.4	-45.5	16.9	0.00e+00	92	38	0	1453326336	58	7612
2026-01-18 15:42:24.18	222.07	5.91	-43.5	-45.6	17.1	0.00e+00	0	38	0	1460666368	60	6867
2026-01-18 15:42:28.21	221.97	5.61	-43.6	-45.7	16.8	0.00e+00	0	38	0	1468006400	60	6987
2026-01-18 15:42:32.25	221.88	5.32	-43.6	-45.7	16.8	0.00e+00	0	38	0	1475346432	60	6985
2026-01-18 15:42:36.29	221.79	5.03	-43.8	-46.1	16.3	0.00e+00	92	38	0	1482686464	60	7279
2026-01-18 15:42:40.32	221.70	4.75	-43.7	-45.9	16.5	0.00e+00	0	38	0	1491075072	60	7156
2026-01-18 15:42:44.36	221.61	4.47	-43.6	-45.9	16.3	0.00e+00	0	38	0	1498415104	60	7157
2026-01-18 15:42:48.40	221.52	4.19	-43.8	-46.2	16.0	0.00e+00	0	38	0	1505755136	60	7415
2026-01-18 15:42:52.44	221.44	3.91	-43.9	-46.4	15.7	0.00e+00	90	38	0	1513095168	60	7535
2026-01-18 15:42:56.48	221.36	3.64	-43.5	-45.9	16.2	0.00e+00	0	38	0	1521483776	60	7095
2026-01-18 15:43:00.52	221.28	3.37	-43.9	-46.4	15.8	0.00e+00	0	38	0	1528823808	60	7579
2026-01-18 15:43:04.55	221.20	3.10	-43.4	-45.8	16.0	0.00e+00	0	39	0	1536163840	60	7016
2026-01-18 15:43:08.59	221.12	2.83	-49.0	-64.1	3.6	1.51e+00	0	38	104	1539309568	60	58285
2026-01-18 15:43:12.63	221.04	2.57	-49.5	-64.8	3.6	1.51e+00	0	39	104	1539309568	60	62511
2026-01-18 15:43:16.67	220.97	2.31	-49.6	-64.9	3.6	1.51e+00	0	39	104	1539309568	60	63389
2026-01-18 15:43:20.71	220.90	2.05	-49.6	-64.8	3.6	1.51e+00	0	39	104	1539309568	60	62868
2026-01-18 15:43:24.75	220.83	1.79	-49.5	-64.7	3.6	1.51e+00	0	39	104	1539309568	60	61910
2026-01-18 15:43:28.79	220.76	1.54	-49.4	-64.6	3.6	1.51e+00	0	38	104	1539309568	60	61378
2026-01-18 15:43:32.83	220.69	1.29	-49.4	-64.7	3.6	1.51e+00	0	39	104	1539309568	60	62040
2026-01-18 15:43:36.87	220.62	1.04	-49.4	-64.7	3.6	1.51e+00	0	39	104	1539309568	60	62071
2026-01-18 15:43:40.90	220.56	0.79	-49.4	-64.7	3.6	1.51e+00	0	38	104	1539309568	60	62086
2026-01-18 15:43:44.94	220.49	0.54	-49.4	-64.7	3.6	1.51e+00	0	39	104	1539309568	60	61869
2026-01-18 15:43:48.98	220.43	0.30	-49.4	-64.6	3.6	1.51e+00	0	39	104	1539309568	60	61717
2026-01-18 15:43:53.02	220.37	0.06	-49.4	-64.6	3.6	1.51e+00	0	39	104	1539309568	60	61715

#Closed at: 2026-01-18 15:43:55
#Recorded file [1539 MB]: D:/lorett/data/35029_260119_032836.dat