passes_logs/2026/01/18/R4.6S_Anadyr/R4.6S_Anadyr__20260118_131823_NOAA_21_JPSS-2_rec.log

#Pass ID: 20260118_131823_NOAA 21 (JPSS-2)
#Satellite: NOAA 21 (JPSS-2)
#Configuration: NOAA-21
#almurnet v.1.7.20251203
#Start time: 2026-01-18 13:18:25

#Version: 2.2.20231116
#Station: R4.6S_Anadyr
#Location: 177.4865 lon 64.73178 lat
#TLE: 1 54234U 22150A   26017.62066529  .00000042  00000+0  40984-4 0  9994
#TLE: 2 54234  98.7502 318.4887 0000613 271.5460  88.5645 14.19535234165189

#Time	Az	El	Level	Level2	SNR	BER	BlckErr	Temp	State	Recorded	gain1	gain2
2026-01-18 13:18:25.00	18.78	0.08	-49.6	-64.5	3.5	1.51e+00	0	32	0	0	60	60463
2026-01-18 13:18:29.04	18.97	0.31	-49.6	-62.4	3.5	1.52e+00	0	34	104	0	60	46427
2026-01-18 13:18:33.07	19.16	0.54	-49.7	-62.5	3.5	1.52e+00	0	34	104	0	60	46766
2026-01-18 13:18:37.11	19.35	0.76	-49.6	-62.4	3.5	1.52e+00	0	34	104	0	60	46417
2026-01-18 13:18:41.15	19.55	0.99	-49.3	-62.2	3.5	1.52e+00	0	34	104	0	60	45250
2026-01-18 13:18:45.18	19.75	1.22	-48.9	-61.7	3.5	1.52e+00	0	34	104	0	60	42738
2026-01-18 13:18:49.22	19.95	1.46	-48.1	-60.9	3.5	1.52e+00	0	34	104	0	60	38994
2026-01-18 13:18:53.25	20.15	1.69	-48.0	-60.8	3.5	1.52e+00	0	34	104	0	60	38473
2026-01-18 13:18:57.28	20.36	1.93	-48.1	-60.9	3.5	1.51e+00	0	35	104	0	60	38787
2026-01-18 13:19:01.32	20.57	2.17	-48.0	-60.7	3.5	1.52e+00	0	34	104	0	60	38000
2026-01-18 13:19:05.36	20.78	2.41	-47.9	-59.4	3.5	1.51e+00	0	35	104	0	60	32689
2026-01-18 13:19:09.39	21.00	2.65	-47.5	-56.4	4.8	1.41e+00	122	35	104	0	60	23144
2026-01-18 13:19:13.43	21.22	2.89	-41.6	-43.3	16.9	0.00e+00	123	35	0	11534336	58	5736
2026-01-18 13:19:17.47	21.44	3.14	-39.2	-40.5	19.6	0.00e+00	122	35	0	24117248	52	5876
2026-01-18 13:19:21.50	21.67	3.38	-42.7	-44.7	15.3	0.00e+00	123	35	0	36700160	56	7586
2026-01-18 13:19:25.54	21.90	3.63	-42.4	-44.3	10.9	0.00e+00	123	35	0	49283072	52	9138
2026-01-18 13:19:29.58	22.13	3.88	-39.7	-41.1	19.1	0.00e+00	123	34	0	56623104	52	6288
2026-01-18 13:19:33.62	22.37	4.14	-39.8	-41.1	19.0	0.00e+00	122	35	0	69206016	52	6309
2026-01-18 13:19:37.65	22.61	4.39	-40.0	-41.4	18.8	0.00e+00	123	35	0	81788928	52	6554
2026-01-18 13:19:41.68	22.86	4.65	-39.5	-40.8	19.2	0.00e+00	123	35	0	94371840	52	6084
2026-01-18 13:19:45.72	23.11	4.91	-39.8	-41.1	19.2	0.00e+00	123	35	0	106954752	52	6313
2026-01-18 13:19:49.76	23.36	5.17	-40.4	-41.8	19.0	0.00e+00	120	35	0	119537664	52	6870
2026-01-18 13:19:53.79	23.62	5.43	-38.6	-39.8	20.5	0.00e+00	122	35	0	132120576	50	6074
2026-01-18 13:19:57.82	23.88	5.70	-38.4	-39.6	20.8	0.00e+00	121	35	0	144703488	50	5949
2026-01-18 13:20:01.86	24.15	5.96	-38.3	-39.4	20.9	0.00e+00	121	35	0	157286400	50	5848
2026-01-18 13:20:05.90	24.42	6.23	-38.2	-39.3	21.0	0.00e+00	122	35	0	169869312	50	5788
2026-01-18 13:20:09.94	24.69	6.51	-38.4	-39.6	20.9	0.00e+00	122	35	0	182452224	50	5956
2026-01-18 13:20:13.97	24.97	6.78	-38.3	-39.5	21.0	0.00e+00	120	35	0	195035136	50	5859
2026-01-18 13:20:18.01	25.26	7.06	-37.8	-38.9	21.4	0.00e+00	123	35	0	207618048	48	6187
2026-01-18 13:20:22.04	25.55	7.34	-38.0	-39.1	21.5	0.00e+00	123	35	0	220200960	48	6344
2026-01-18 13:20:26.08	25.85	7.62	-37.7	-38.7	21.7	0.00e+00	122	35	0	232783872	48	6035
2026-01-18 13:20:30.11	26.15	7.90	-37.6	-38.7	21.7	0.00e+00	122	35	0	245366784	48	6026
2026-01-18 13:20:34.15	26.45	8.19	-37.5	-38.6	21.9	0.00e+00	122	35	0	257949696	48	5930
2026-01-18 13:20:38.18	26.77	8.48	-37.3	-38.4	22.0	0.00e+00	123	35	0	270532608	48	5818
2026-01-18 13:20:42.22	27.09	8.77	-37.2	-38.2	22.3	0.00e+00	122	35	0	283115520	48	5680
2026-01-18 13:20:46.26	27.41	9.07	-37.0	-38.1	22.4	0.00e+00	123	35	0	295698432	48	5604
2026-01-18 13:20:50.29	27.74	9.37	-36.9	-37.8	22.6	0.00e+00	123	35	0	308281344	48	5463
2026-01-18 13:20:54.33	28.08	9.67	-36.8	-37.8	22.6	0.00e+00	120	35	0	320864256	48	5416
2026-01-18 13:20:58.36	28.42	9.97	-36.9	-37.9	22.6	0.00e+00	122	35	0	333447168	48	5484
2026-01-18 13:21:02.39	28.77	10.28	-36.9	-37.9	22.6	0.00e+00	123	35	0	346030080	48	5491
2026-01-18 13:21:06.43	29.13	10.59	-36.7	-37.7	22.8	0.00e+00	123	35	0	358612992	46	6001
2026-01-18 13:21:10.47	29.50	10.90	-36.6	-37.6	22.9	0.00e+00	120	35	0	371195904	46	5960
2026-01-18 13:21:14.51	29.87	11.21	-36.4	-37.4	23.0	0.00e+00	122	35	0	383778816	46	5821
2026-01-18 13:21:18.53	30.25	11.53	-36.3	-37.3	23.1	0.00e+00	122	35	0	396361728	46	5764
2026-01-18 13:21:22.56	30.64	11.85	-36.3	-37.3	23.2	0.00e+00	122	35	0	408944640	46	5773
2026-01-18 13:21:26.60	31.03	12.18	-36.2	-37.1	23.2	0.00e+00	123	35	0	421527552	46	5659
2026-01-18 13:21:30.64	31.44	12.51	-36.0	-37.0	23.5	0.00e+00	123	35	0	434110464	46	5559
2026-01-18 13:21:34.67	31.85	12.84	-36.1	-37.0	23.4	0.00e+00	122	35	0	446693376	46	5561
2026-01-18 13:21:38.70	32.27	13.17	-35.7	-36.6	23.7	0.00e+00	120	35	0	459276288	44	5994
2026-01-18 13:21:42.74	32.71	13.51	-35.8	-36.7	23.7	0.00e+00	121	35	0	471859200	44	6048
2026-01-18 13:21:46.78	33.15	13.85	-35.8	-36.7	23.7	0.00e+00	123	35	0	484442112	44	6043
2026-01-18 13:21:50.82	33.60	14.19	-35.8	-36.7	23.7	0.00e+00	120	35	0	497025024	44	6038
2026-01-18 13:21:54.85	34.06	14.54	-35.7	-36.6	23.8	0.00e+00	122	35	0	509607936	44	5987
2026-01-18 13:21:58.89	34.53	14.89	-36.0	-36.9	23.5	0.00e+00	120	35	0	523239424	44	6163
2026-01-18 13:22:02.92	35.02	15.25	-35.8	-36.7	23.7	0.00e+00	122	35	0	535822336	44	6060
2026-01-18 13:22:06.96	35.51	15.60	-35.8	-36.7	23.7	0.00e+00	123	35	0	547356672	44	6061
2026-01-18 13:22:11.00	36.02	15.96	-35.7	-36.6	23.8	0.00e+00	123	36	0	560988160	44	5958
2026-01-18 13:22:15.03	36.53	16.33	-35.9	-36.9	23.7	0.00e+00	122	36	0	573571072	44	6154
2026-01-18 13:22:19.07	37.06	16.70	-35.9	-36.9	23.7	0.00e+00	123	35	0	586153984	44	6138
2026-01-18 13:22:23.10	37.60	17.07	-36.0	-36.9	23.6	0.00e+00	123	35	0	598736896	44	6160
2026-01-18 13:22:27.14	38.16	17.44	-35.9	-36.8	23.7	0.00e+00	122	35	0	611319808	44	6126
2026-01-18 13:22:31.17	38.73	17.82	-36.0	-37.0	23.6	0.00e+00	123	36	0	623902720	44	6237
2026-01-18 13:22:35.21	39.31	18.20	-35.8	-36.7	23.8	0.00e+00	122	35	0	636485632	44	6038
2026-01-18 13:22:39.24	39.91	18.58	-35.7	-36.7	23.9	0.00e+00	122	36	0	649068544	44	5995
2026-01-18 13:22:43.28	40.52	18.97	-35.6	-36.5	23.9	0.00e+00	123	35	0	661651456	44	5907
2026-01-18 13:22:47.32	41.15	19.36	-35.3	-36.2	24.1	0.00e+00	123	35	0	674234368	44	5710
2026-01-18 13:22:51.36	41.79	19.75	-35.3	-36.2	24.2	0.00e+00	120	35	0	686817280	44	5708
2026-01-18 13:22:55.39	42.45	20.14	-35.2	-36.1	24.3	0.00e+00	120	35	0	699400192	44	5648
2026-01-18 13:22:59.42	43.13	20.54	-35.2	-36.1	24.3	0.00e+00	122	35	0	711983104	44	5623
2026-01-18 13:23:03.45	43.82	20.94	-35.1	-36.0	24.4	0.00e+00	123	36	0	724566016	44	5548
2026-01-18 13:23:07.49	44.53	21.34	-35.0	-35.9	24.4	0.00e+00	122	36	0	737148928	44	5529
2026-01-18 13:23:11.52	45.26	21.75	-35.0	-35.9	24.5	0.00e+00	123	36	0	749731840	44	5479
2026-01-18 13:23:15.56	46.01	22.15	-34.9	-35.8	24.5	0.00e+00	120	36	0	762314752	44	5431
2026-01-18 13:23:19.59	46.77	22.56	-34.9	-35.8	24.6	0.00e+00	120	35	0	774897664	42	6097
2026-01-18 13:23:23.62	47.56	22.97	-34.8	-35.7	24.6	0.00e+00	122	35	0	787480576	42	6032
2026-01-18 13:23:27.65	48.37	23.37	-35.0	-35.9	24.5	0.00e+00	123	36	0	800063488	42	6166
2026-01-18 13:23:31.68	49.19	23.78	-34.6	-35.5	24.8	0.00e+00	120	35	0	812646400	42	5867
2026-01-18 13:23:35.72	50.05	24.19	-34.8	-35.7	24.7	0.00e+00	122	35	0	825229312	42	5999
2026-01-18 13:23:39.75	50.92	24.60	-35.1	-36.0	24.4	0.00e+00	122	35	0	837812224	42	6208
2026-01-18 13:23:43.79	51.81	25.01	-35.4	-36.3	24.3	0.00e+00	120	35	0	850395136	42	6472
2026-01-18 13:23:47.82	52.73	25.42	-35.2	-36.2	24.4	0.00e+00	123	36	0	862978048	42	6355
2026-01-18 13:23:51.86	53.67	25.83	-34.9	-35.8	24.6	0.00e+00	122	36	0	875560960	42	6071
2026-01-18 13:23:55.89	54.63	26.23	-35.0	-35.9	24.6	0.00e+00	122	35	0	888143872	42	6152
2026-01-18 13:23:59.92	55.62	26.64	-35.4	-36.3	24.4	0.00e+00	123	36	0	900726784	42	6466
2026-01-18 13:24:03.96	56.64	27.04	-35.2	-36.1	24.4	0.00e+00	123	35	0	913309696	42	6278
2026-01-18 13:24:07.99	57.67	27.43	-35.1	-36.0	24.4	0.00e+00	123	36	0	925892608	42	6276
2026-01-18 13:24:12.02	58.74	27.82	-35.5	-36.4	24.2	0.00e+00	122	35	0	938475520	42	6569
2026-01-18 13:24:16.05	59.82	28.21	-35.9	-36.8	23.8	0.00e+00	122	36	0	951058432	44	6125
2026-01-18 13:24:20.09	60.94	28.59	-35.4	-36.3	24.2	0.00e+00	123	36	0	963641344	44	5750
2026-01-18 13:24:24.12	62.08	28.96	-35.4	-36.3	24.2	0.00e+00	124	35	0	976224256	44	5749
2026-01-18 13:24:28.16	63.25	29.33	-35.1	-36.0	24.4	0.00e+00	123	36	0	988807168	44	5559
2026-01-18 13:24:32.20	64.45	29.69	-35.2	-36.0	24.5	0.00e+00	120	36	0	1001390080	44	5593
2026-01-18 13:24:36.24	65.67	30.04	-35.2	-36.1	24.4	0.00e+00	123	36	0	1013972992	44	5641
2026-01-18 13:24:40.27	66.92	30.37	-35.5	-36.4	24.1	0.00e+00	123	36	0	1027604480	44	5850
2026-01-18 13:24:44.30	68.19	30.70	-35.2	-36.1	24.4	0.00e+00	123	36	0	1039138816	44	5635
2026-01-18 13:24:48.33	69.48	31.02	-35.7	-36.6	24.0	0.00e+00	123	36	0	1052770304	44	5983
2026-01-18 13:24:52.37	70.81	31.32	-35.6	-36.5	24.1	0.00e+00	123	36	0	1065353216	44	5873
2026-01-18 13:24:56.40	72.15	31.61	-36.0	-37.0	23.8	0.00e+00	123	36	0	1077936128	44	6224
2026-01-18 13:25:00.44	73.52	31.88	-36.1	-37.0	23.6	0.00e+00	122	36	0	1090519040	44	6239
2026-01-18 13:25:04.47	74.91	32.14	-36.1	-37.0	23.7	0.00e+00	123	36	0	1103101952	44	6260
2026-01-18 13:25:08.51	76.33	32.39	-35.7	-36.6	24.0	0.00e+00	120	36	0	1115684864	44	5971
2026-01-18 13:25:12.54	77.76	32.61	-35.5	-36.4	24.2	0.00e+00	122	35	0	1128267776	44	5843
2026-01-18 13:25:16.57	79.21	32.82	-35.7	-36.6	23.8	0.00e+00	123	36	0	1140850688	44	5974
2026-01-18 13:25:20.60	80.68	33.01	-36.0	-36.9	23.8	0.00e+00	123	36	0	1153433600	44	6197
2026-01-18 13:25:24.64	82.17	33.17	-36.0	-36.9	23.8	0.00e+00	123	36	0	1166016512	44	6191
2026-01-18 13:25:28.67	83.67	33.32	-35.8	-36.8	23.9	0.00e+00	123	36	0	1178599424	44	6066
2026-01-18 13:25:32.70	85.18	33.45	-35.7	-36.6	24.0	0.00e+00	123	36	0	1191182336	44	5986
2026-01-18 13:25:36.73	86.70	33.55	-36.3	-37.2	23.5	0.00e+00	122	36	0	1203765248	44	6384
2026-01-18 13:25:40.76	88.24	33.64	-36.2	-37.1	23.5	0.00e+00	123	36	0	1216348160	44	6350
2026-01-18 13:25:44.80	89.78	33.70	-36.2	-37.1	23.6	0.00e+00	123	36	0	1228931072	44	6305
2026-01-18 13:25:48.83	91.32	33.74	-36.0	-37.0	23.6	0.00e+00	122	36	0	1241513984	44	6218
2026-01-18 13:25:52.86	92.87	33.75	-36.3	-37.3	23.5	0.00e+00	123	36	0	1254096896	44	6451
2026-01-18 13:25:56.89	94.42	33.75	-36.2	-37.1	23.6	0.00e+00	122	36	0	1266679808	44	6318
2026-01-18 13:26:00.92	95.96	33.72	-36.1	-37.0	23.7	0.00e+00	120	36	0	1279262720	44	6266
2026-01-18 13:26:04.96	97.51	33.66	-36.0	-36.9	23.7	0.00e+00	123	36	0	1291845632	44	6196
2026-01-18 13:26:08.99	99.04	33.59	-36.3	-37.3	23.5	0.00e+00	122	36	0	1304428544	44	6441
2026-01-18 13:26:13.03	100.57	33.49	-36.0	-36.9	23.8	0.00e+00	122	36	0	1317011456	44	6170
2026-01-18 13:26:17.06	102.09	33.37	-35.9	-36.9	23.8	0.00e+00	123	36	0	1329594368	44	6153
2026-01-18 13:26:21.10	103.60	33.23	-36.0	-36.9	23.7	0.00e+00	123	36	0	1342177280	44	6186
2026-01-18 13:26:25.13	105.10	33.07	-35.9	-36.9	23.7	0.00e+00	122	36	0	1354760192	44	6164
2026-01-18 13:26:29.16	106.57	32.89	-35.8	-36.7	23.9	0.00e+00	123	36	0	1367343104	44	6037
2026-01-18 13:26:33.19	108.03	32.69	-36.0	-37.0	23.8	0.00e+00	123	36	0	1379926016	44	6235
2026-01-18 13:26:37.23	109.48	32.47	-35.7	-36.7	23.8	0.00e+00	123	36	0	1392508928	44	6023
2026-01-18 13:26:41.26	110.90	32.23	-36.0	-36.9	23.6	0.00e+00	123	36	0	1405091840	44	6161
2026-01-18 13:26:45.30	112.31	31.98	-35.9	-36.8	23.6	0.00e+00	123	36	0	1417674752	44	6097
2026-01-18 13:26:49.34	113.69	31.71	-36.2	-37.1	23.6	0.00e+00	120	36	0	1430257664	44	6329
2026-01-18 13:26:53.37	115.05	31.43	-35.9	-36.8	23.8	0.00e+00	122	36	0	1442840576	44	6129
2026-01-18 13:26:57.40	116.38	31.13	-35.6	-36.5	24.1	0.00e+00	120	36	0	1455423488	44	5893
2026-01-18 13:27:01.44	117.69	30.81	-35.3	-36.2	24.3	0.00e+00	122	36	0	1468006400	44	5708
2026-01-18 13:27:05.48	118.98	30.49	-34.9	-35.8	24.6	0.00e+00	123	36	0	1480589312	44	5435
2026-01-18 13:27:09.51	120.24	30.15	-35.1	-36.0	24.4	0.00e+00	123	36	0	1493172224	44	5539
2026-01-18 13:27:13.55	121.48	29.81	-34.9	-35.8	24.6	0.00e+00	123	36	0	1505755136	44	5439
2026-01-18 13:27:17.58	122.68	29.45	-34.9	-35.7	24.7	0.00e+00	123	36	0	1518338048	42	6063
2026-01-18 13:27:21.62	123.87	29.08	-34.7	-35.6	24.8	0.00e+00	123	36	0	1530920960	42	5971
2026-01-18 13:27:25.66	125.02	28.71	-35.1	-36.0	24.5	0.00e+00	122	36	0	1543503872	42	6249
2026-01-18 13:27:29.69	126.15	28.33	-35.2	-36.1	24.3	0.00e+00	123	36	0	1556086784	42	6308
2026-01-18 13:27:33.73	127.26	27.94	-34.6	-35.5	24.8	0.00e+00	123	36	0	1568669696	42	5886
2026-01-18 13:27:37.77	128.33	27.55	-34.7	-35.6	24.7	0.00e+00	120	36	0	1582301184	42	5939
2026-01-18 13:27:41.81	129.39	27.15	-34.6	-35.5	24.8	0.00e+00	122	36	0	1593835520	42	5907
2026-01-18 13:27:45.84	130.41	26.75	-34.7	-35.7	24.6	0.00e+00	122	36	0	1606418432	42	5997
2026-01-18 13:27:49.88	131.42	26.35	-34.9	-35.8	24.6	0.00e+00	123	36	0	1620049920	42	6102
2026-01-18 13:27:53.91	132.39	25.94	-35.0	-35.9	24.6	0.00e+00	123	36	0	1631584256	42	6169
2026-01-18 13:27:57.95	133.34	25.53	-35.0	-35.9	24.6	0.00e+00	120	36	0	1645215744	42	6143
2026-01-18 13:28:01.99	134.27	25.12	-34.9	-35.8	24.6	0.00e+00	122	36	0	1657798656	42	6087
2026-01-18 13:28:06.02	135.18	24.71	-34.8	-35.7	24.4	0.00e+00	123	36	0	1670381568	42	6039
2026-01-18 13:28:10.06	136.06	24.30	-35.0	-36.0	24.4	0.00e+00	122	36	0	1682964480	42	6210
2026-01-18 13:28:14.10	136.92	23.88	-35.2	-36.1	24.2	0.00e+00	123	36	0	1695547392	42	6305
2026-01-18 13:28:18.13	137.76	23.47	-35.0	-35.9	24.4	0.00e+00	122	36	0	1708130304	42	6191
2026-01-18 13:28:22.18	138.58	23.06	-35.0	-36.0	24.4	0.00e+00	122	36	0	1720713216	42	6215
2026-01-18 13:28:26.22	139.38	22.65	-35.2	-36.1	24.4	0.00e+00	123	36	0	1733296128	42	6304
2026-01-18 13:28:30.25	140.15	22.24	-35.2	-36.1	24.3	0.00e+00	123	36	0	1745879040	42	6326
2026-01-18 13:28:34.29	140.91	21.83	-35.2	-36.1	24.3	0.00e+00	123	36	0	1758461952	42	6322
2026-01-18 13:28:38.33	141.65	21.42	-35.1	-36.0	24.4	0.00e+00	122	36	0	1771044864	42	6224
2026-01-18 13:28:42.36	142.37	21.01	-35.2	-36.1	24.3	0.00e+00	122	36	0	1783627776	42	6338
2026-01-18 13:28:46.40	143.07	20.61	-35.4	-36.3	24.1	0.00e+00	123	36	0	1796210688	42	6443
2026-01-18 13:28:50.44	143.75	20.21	-35.2	-36.2	24.2	0.00e+00	120	36	0	1808793600	42	6351
2026-01-18 13:28:54.48	144.42	19.81	-35.0	-35.9	24.3	0.00e+00	123	36	0	1821376512	42	6189
2026-01-18 13:28:58.52	145.07	19.41	-34.8	-35.7	24.4	0.00e+00	123	36	0	1833959424	42	6036
2026-01-18 13:29:02.55	145.70	19.02	-34.6	-35.6	24.5	0.00e+00	123	36	0	1846542336	42	5933
2026-01-18 13:29:06.59	146.32	18.63	-35.2	-36.1	24.0	0.00e+00	123	36	0	1859125248	42	6302
2026-01-18 13:29:10.62	146.93	18.24	-35.1	-36.1	24.2	0.00e+00	122	36	0	1871708160	42	6278
2026-01-18 13:29:14.66	147.51	17.86	-35.1	-36.0	24.2	0.00e+00	123	36	0	1884291072	42	6237
2026-01-18 13:29:18.69	148.09	17.48	-35.1	-36.0	24.2	0.00e+00	123	36	0	1896873984	42	6269
2026-01-18 13:29:22.73	148.65	17.10	-35.2	-36.1	24.0	0.00e+00	122	36	0	1909456896	42	6332
2026-01-18 13:29:26.76	149.20	16.73	-35.5	-36.4	23.9	0.00e+00	122	36	0	1922039808	42	6524
2026-01-18 13:29:30.80	149.73	16.36	-35.7	-36.7	23.6	0.00e+00	123	36	0	1934622720	44	6019
2026-01-18 13:29:34.84	150.25	15.99	-35.9	-36.9	23.5	0.00e+00	122	36	0	1947205632	44	6140
2026-01-18 13:29:38.87	150.76	15.62	-36.0	-36.9	23.3	0.00e+00	123	36	0	1959788544	44	6186
2026-01-18 13:29:42.91	151.26	15.26	-36.1	-37.0	23.3	0.00e+00	123	36	0	1972371456	44	6257
2026-01-18 13:29:46.95	151.75	14.90	-36.0	-36.9	23.4	0.00e+00	122	36	0	1984954368	44	6195
2026-01-18 13:29:50.98	152.22	14.55	-36.0	-36.9	23.4	0.00e+00	120	36	0	1997537280	44	6200
2026-01-18 13:29:55.01	152.69	14.20	-36.3	-37.2	23.1	0.00e+00	123	36	0	2010120192	44	6393
2026-01-18 13:29:59.05	153.14	13.85	-36.8	-37.8	22.5	0.00e+00	123	36	0	2022703104	46	6105
2026-01-18 13:30:03.08	153.58	13.51	-38.0	-39.1	21.0	0.00e+00	123	36	0	2036334592	48	6299
2026-01-18 13:30:07.12	154.02	13.17	-39.3	-40.6	19.3	0.00e+00	123	36	0	2047868928	50	6671
2026-01-18 13:30:11.15	154.44	12.83	-40.3	-41.8	17.9	0.00e+00	120	36	0	2061500416	52	6882
2026-01-18 13:30:15.18	154.86	12.49	-40.5	-42.0	17.9	0.00e+00	120	36	0	2074083328	52	6990
2026-01-18 13:30:19.21	155.26	12.16	-40.1	-41.6	18.4	0.00e+00	122	36	0	2086666240	52	6653
2026-01-18 13:30:23.25	155.66	11.84	-39.0	-40.2	20.1	0.00e+00	123	36	0	2099249152	52	5702
2026-01-18 13:30:27.29	156.05	11.51	-37.9	-39.0	21.2	0.00e+00	122	36	0	2111832064	50	5585
2026-01-18 13:30:31.33	156.44	11.19	-37.5	-38.6	21.7	0.00e+00	123	36	0	2124414976	48	5958
2026-01-18 13:30:35.36	156.81	10.87	-36.8	-37.8	22.4	0.00e+00	123	36	0	2136997888	48	5451
2026-01-18 13:30:39.40	157.18	10.55	-36.6	-37.6	22.6	0.00e+00	123	36	0	2149580800	46	5981
2026-01-18 13:30:43.43	157.53	10.24	-36.6	-37.6	22.7	0.00e+00	123	36	0	2162163712	46	5952
2026-01-18 13:30:47.47	157.89	9.93	-36.7	-37.7	22.6	0.00e+00	120	36	0	2174746624	46	6022
2026-01-18 13:30:51.50	158.23	9.63	-36.7	-37.7	22.6	0.00e+00	122	36	0	2187329536	46	6038
2026-01-18 13:30:55.54	158.57	9.32	-36.7	-37.7	22.6	0.00e+00	122	36	0	2199912448	46	6036
2026-01-18 13:30:59.58	158.90	9.02	-37.0	-38.0	22.3	0.00e+00	123	36	0	2212495360	46	6263
2026-01-18 13:31:03.61	159.22	8.72	-37.4	-38.5	22.0	0.00e+00	123	36	0	2225078272	46	6575
2026-01-18 13:31:07.65	159.54	8.43	-37.8	-38.8	21.5	0.00e+00	123	36	0	2237661184	46	6882
2026-01-18 13:31:11.68	159.86	8.14	-37.7	-38.8	21.5	0.00e+00	123	36	0	2250244096	48	6107
2026-01-18 13:31:15.71	160.16	7.85	-38.0	-39.1	21.3	0.00e+00	123	36	0	2262827008	48	6295
2026-01-18 13:31:19.75	160.46	7.56	-37.9	-39.0	21.3	0.00e+00	122	36	0	2275409920	48	6252
2026-01-18 13:31:23.79	160.76	7.27	-37.9	-39.0	21.3	0.00e+00	120	36	0	2287992832	48	6222
2026-01-18 13:31:27.83	161.05	6.99	-37.8	-38.9	21.4	0.00e+00	122	36	0	2300575744	48	6148
2026-01-18 13:31:31.86	161.33	6.71	-37.7	-38.8	21.4	0.00e+00	123	36	0	2313158656	48	6106
2026-01-18 13:31:35.90	161.61	6.44	-37.6	-38.7	21.5	0.00e+00	123	36	0	2325741568	48	6039
2026-01-18 13:31:39.93	161.89	6.16	-37.9	-39.0	21.2	0.00e+00	122	36	0	2338324480	48	6250
2026-01-18 13:31:43.96	162.16	5.89	-38.1	-39.2	21.0	0.00e+00	123	36	0	2350907392	48	6384
2026-01-18 13:31:48.00	162.42	5.62	-38.1	-39.2	20.9	0.00e+00	123	36	0	2363490304	48	6386
2026-01-18 13:31:52.03	162.68	5.35	-38.4	-39.6	20.6	0.00e+00	120	36	0	2376073216	48	6704
2026-01-18 13:31:56.07	162.94	5.09	-38.6	-39.8	20.4	0.00e+00	120	36	0	2388656128	48	6831
2026-01-18 13:32:00.11	163.19	4.82	-38.5	-39.7	20.4	0.00e+00	123	36	0	2401239040	48	6774
2026-01-18 13:32:04.15	163.44	4.56	-38.8	-40.1	20.0	0.00e+00	122	36	0	2413821952	50	6287
2026-01-18 13:32:08.18	163.68	4.30	-39.1	-40.3	19.8	0.00e+00	123	36	0	2426404864	50	6461
2026-01-18 13:32:12.21	163.92	4.05	-39.1	-40.4	19.6	0.00e+00	123	36	0	2438987776	50	6519
2026-01-18 13:32:16.25	164.16	3.79	-39.2	-40.5	19.5	0.00e+00	123	36	0	2451570688	50	6588
2026-01-18 13:32:20.28	164.39	3.54	-39.6	-41.0	18.7	0.00e+00	123	36	0	2464153600	50	6964
2026-01-18 13:32:24.32	164.62	3.29	-39.5	-40.9	18.9	0.00e+00	122	36	0	2476736512	52	6171
2026-01-18 13:32:28.36	164.84	3.04	-40.2	-41.8	17.7	0.00e+00	122	36	0	2489319424	52	6819
2026-01-18 13:32:32.39	165.06	2.79	-47.9	-60.8	3.5	1.52e+00	0	36	104	2490368000	60	38348
2026-01-18 13:32:36.43	165.28	2.54	-49.3	-62.2	3.5	1.51e+00	0	36	104	2490368000	60	45325
2026-01-18 13:32:40.46	165.50	2.30	-49.5	-62.4	3.5	1.52e+00	0	36	104	2490368000	60	46369
2026-01-18 13:32:44.49	165.71	2.06	-49.5	-62.4	3.5	1.52e+00	0	36	104	2490368000	60	46378
2026-01-18 13:32:48.53	165.91	1.82	-49.5	-62.4	3.5	1.52e+00	0	36	104	2490368000	60	46156
2026-01-18 13:32:52.57	166.12	1.58	-49.5	-62.3	3.5	1.52e+00	0	36	104	2490368000	60	45951
2026-01-18 13:32:56.61	166.32	1.34	-49.4	-62.3	3.5	1.52e+00	0	36	104	2490368000	60	45663
2026-01-18 13:33:00.64	166.52	1.11	-49.4	-62.3	3.5	1.52e+00	0	36	104	2490368000	60	45847
2026-01-18 13:33:04.68	166.72	0.88	-49.4	-62.3	3.5	1.52e+00	0	36	104	2490368000	60	45829
2026-01-18 13:33:08.72	166.91	0.64	-49.4	-62.3	3.5	1.52e+00	0	36	104	2490368000	60	45667
2026-01-18 13:33:12.76	167.10	0.41	-49.4	-62.3	3.5	1.52e+00	0	36	104	2490368000	60	45601
2026-01-18 13:33:16.79	167.29	0.19	-49.4	-62.3	3.5	1.52e+00	0	36	104	2490368000	60	45660
2026-01-18 13:33:20.83	167.47	-0.04	-49.4	-62.3	3.5	1.52e+00	0	36	104	2490368000	60	45584

#Closed at: 2026-01-18 13:33:21
#Recorded file [2490 MB]: D:/lorett/data/35029_260119_011824.dat