passes_logs/2026/01/18/R4.6S_Anadyr/R4.6S_Anadyr__20260118_170841_SUOMI_NPP_rec.log

#Pass ID: 20260118_170841_SUOMI NPP
#Satellite: SUOMI NPP
#Configuration: NPP
#almurnet v.1.7.20251203
#Start time: 2026-01-18 17:08:44

#Version: 2.2.20231116
#Station: R4.6S_Anadyr
#Location: 177.4865 lon 64.73178 lat
#TLE: 1 37849U 11061A   26017.57099531  .00000072  00000+0  54974-4 0  9996
#TLE: 2 37849  98.7814 319.5974 0002398  59.1749 300.9663 14.19525865737072

#Time	Az	El	Level	Level2	SNR	BER	BlckErr	Temp	State	Recorded	gain1	gain2
2026-01-18 17:08:44.57	29.41	0.17	-49.6	-63.3	3.3	1.54e+00	0	39	0	0	60	53055
2026-01-18 17:08:48.61	29.19	0.39	-49.6	-64.9	3.6	1.51e+00	0	39	104	0	60	63243
2026-01-18 17:08:52.65	28.97	0.61	-49.5	-64.8	3.6	1.51e+00	0	39	104	0	60	62850
2026-01-18 17:08:56.69	28.75	0.84	-49.4	-64.6	3.6	1.51e+00	0	39	104	0	60	61252
2026-01-18 17:09:00.72	28.53	1.06	-49.1	-64.3	3.6	1.51e+00	0	39	104	0	60	58990
2026-01-18 17:09:04.76	28.30	1.29	-48.4	-63.7	3.6	1.51e+00	0	39	104	0	60	55332
2026-01-18 17:09:08.80	28.07	1.52	-48.0	-63.1	3.6	1.51e+00	0	39	104	0	60	51884
2026-01-18 17:09:12.84	27.83	1.75	-47.9	-63.1	3.6	1.51e+00	0	39	104	0	60	51760
2026-01-18 17:09:16.89	27.59	1.98	-47.9	-62.9	3.6	1.51e+00	0	39	104	0	60	50215
2026-01-18 17:09:20.93	27.35	2.21	-47.9	-63.0	3.6	1.51e+00	0	39	104	0	60	51333
2026-01-18 17:09:24.96	27.10	2.44	-47.9	-63.0	3.6	1.51e+00	0	39	104	0	60	51157
2026-01-18 17:09:29.00	26.85	2.68	-47.9	-62.4	3.6	1.51e+00	0	39	104	0	60	47753
2026-01-18 17:09:33.04	26.60	2.92	-47.9	-61.9	3.6	1.51e+00	0	39	104	0	60	45066
2026-01-18 17:09:37.08	26.34	3.15	-47.4	-55.3	5.9	5.02e-01	0	39	0	2097152	60	20955
2026-01-18 17:09:41.12	26.07	3.39	-48.0	-62.2	3.6	1.51e+00	0	39	104	6291456	60	46498
2026-01-18 17:09:45.15	25.80	3.63	-42.6	-44.6	16.7	1.37e+00	0	39	104	8388608	58	6893
2026-01-18 17:09:49.19	25.53	3.88	-42.8	-44.9	17.2	0.00e+00	37	39	0	14680064	58	7090
2026-01-18 17:09:53.23	25.25	4.12	-43.1	-45.2	17.0	0.00e+00	0	39	0	22020096	58	7338
2026-01-18 17:09:57.27	24.96	4.37	-42.6	-44.6	17.7	0.00e+00	0	39	0	29360128	58	6870
2026-01-18 17:10:01.32	24.67	4.61	-43.0	-45.0	17.3	0.00e+00	19	39	0	37748736	58	7180
2026-01-18 17:10:05.36	24.38	4.86	-43.3	-45.4	16.9	0.00e+00	92	39	0	45088768	58	7580
2026-01-18 17:10:09.40	24.08	5.11	-42.6	-44.5	17.7	0.00e+00	0	39	0	52428800	58	6817
2026-01-18 17:10:13.44	23.77	5.36	-42.7	-44.6	17.8	0.00e+00	0	39	0	59768832	58	6900
2026-01-18 17:10:17.48	23.46	5.62	-42.1	-43.8	18.5	0.00e+00	80	39	0	68157440	58	6269
2026-01-18 17:10:21.52	23.14	5.87	-42.1	-43.7	18.7	0.00e+00	0	39	0	75497472	58	6241
2026-01-18 17:10:25.56	22.82	6.13	-41.6	-43.1	19.2	0.00e+00	0	39	0	82837504	56	6522
2026-01-18 17:10:29.60	22.49	6.39	-41.6	-43.1	19.4	0.00e+00	0	39	0	90177536	56	6510
2026-01-18 17:10:33.65	22.16	6.65	-41.5	-42.9	19.5	0.00e+00	76	40	0	98566144	56	6375
2026-01-18 17:10:37.69	21.82	6.91	-41.5	-42.9	19.5	0.00e+00	0	39	0	105906176	56	6384
2026-01-18 17:10:41.72	21.47	7.17	-41.4	-42.9	19.4	0.00e+00	0	39	0	113246208	56	6353
2026-01-18 17:10:45.76	21.11	7.44	-41.8	-43.3	19.2	0.00e+00	29	39	0	120586240	56	6653
2026-01-18 17:10:49.80	20.75	7.70	-41.5	-42.9	19.7	0.00e+00	92	40	0	127926272	56	6357
2026-01-18 17:10:53.84	20.39	7.97	-41.6	-43.0	19.5	0.00e+00	0	40	0	136314880	56	6451
2026-01-18 17:10:57.88	20.01	8.24	-41.5	-42.9	19.6	0.00e+00	0	39	0	143654912	56	6385
2026-01-18 17:11:01.92	19.63	8.51	-41.7	-43.2	19.5	0.00e+00	67	40	0	150994944	56	6551
2026-01-18 17:11:05.96	19.24	8.79	-41.5	-43.0	19.6	0.00e+00	0	40	0	158334976	56	6432
2026-01-18 17:11:10.00	18.84	9.06	-42.1	-43.8	18.8	0.00e+00	0	40	0	166723584	56	7008
2026-01-18 17:11:14.04	18.43	9.34	-41.5	-42.9	19.7	0.00e+00	0	40	0	174063616	56	6382
2026-01-18 17:11:18.07	18.02	9.62	-41.1	-42.5	20.2	0.00e+00	87	39	0	181403648	56	6038
2026-01-18 17:11:22.11	17.60	9.90	-41.0	-42.3	20.2	0.00e+00	0	40	0	188743680	56	5953
2026-01-18 17:11:26.14	17.17	10.18	-40.8	-42.1	20.5	0.00e+00	0	40	0	196083712	54	6473
2026-01-18 17:11:30.19	16.73	10.46	-40.7	-42.0	20.7	0.00e+00	32	40	0	204472320	54	6407
2026-01-18 17:11:34.23	16.28	10.75	-40.6	-41.8	20.9	0.00e+00	90	40	0	211812352	54	6305
2026-01-18 17:11:38.27	15.83	11.03	-40.5	-41.7	21.0	0.00e+00	0	39	0	219152384	54	6229
2026-01-18 17:11:42.31	15.36	11.32	-40.4	-41.6	21.1	0.00e+00	0	39	0	226492416	54	6158
2026-01-18 17:11:46.35	14.88	11.61	-40.5	-41.7	20.8	0.00e+00	56	39	0	234881024	54	6228
2026-01-18 17:11:50.39	14.40	11.90	-40.9	-42.1	20.5	0.00e+00	0	40	0	242221056	54	6518
2026-01-18 17:11:54.43	13.90	12.19	-40.8	-42.1	20.6	0.00e+00	0	40	0	249561088	54	6485
2026-01-18 17:11:58.47	13.40	12.49	-41.0	-42.3	20.4	0.00e+00	6	40	0	256901120	54	6664
2026-01-18 17:12:02.51	12.88	12.78	-40.7	-41.9	20.9	0.00e+00	48	40	0	264241152	54	6327
2026-01-18 17:12:06.55	12.35	13.08	-40.0	-41.1	21.5	0.00e+00	0	40	0	272629760	54	5806
2026-01-18 17:12:10.59	11.81	13.37	-39.6	-40.7	21.9	0.00e+00	0	40	0	279969792	52	6192
2026-01-18 17:12:14.63	11.27	13.67	-39.7	-40.8	21.9	0.00e+00	0	40	0	287309824	52	6300
2026-01-18 17:12:18.66	10.71	13.97	-39.8	-40.9	21.6	0.00e+00	92	40	0	294649856	52	6341
2026-01-18 17:12:22.71	10.13	14.27	-40.1	-41.2	21.4	0.00e+00	0	40	0	303038464	52	6611
2026-01-18 17:12:26.74	9.55	14.57	-39.5	-40.6	22.0	0.00e+00	0	40	0	310378496	52	6140
2026-01-18 17:12:30.79	8.95	14.87	-39.9	-41.0	21.7	0.00e+00	64	40	0	317718528	52	6426
2026-01-18 17:12:34.82	8.34	15.17	-39.4	-40.5	22.2	0.00e+00	0	40	0	325058560	52	6043
2026-01-18 17:12:38.86	7.72	15.48	-39.9	-41.0	21.1	0.00e+00	0	40	0	332398592	52	6400
2026-01-18 17:12:42.90	7.09	15.78	-40.2	-41.3	21.4	0.00e+00	0	40	0	340787200	52	6676
2026-01-18 17:12:46.94	6.44	16.08	-40.3	-41.5	21.2	0.00e+00	91	40	0	348127232	52	6819
2026-01-18 17:12:50.98	5.78	16.38	-40.5	-41.7	21.2	0.00e+00	0	40	0	355467264	52	6975
2026-01-18 17:12:55.02	5.10	16.68	-40.2	-41.3	21.5	0.00e+00	0	40	0	362807296	52	6678
2026-01-18 17:12:59.06	4.41	16.99	-40.4	-41.6	21.3	0.00e+00	0	40	0	371195904	52	6849
2026-01-18 17:13:03.10	3.71	17.29	-40.5	-41.6	21.3	0.00e+00	87	40	0	378535936	52	6918
2026-01-18 17:13:07.14	2.99	17.59	-40.1	-41.3	21.7	0.00e+00	0	40	0	385875968	52	6628
2026-01-18 17:13:11.18	2.26	17.89	-40.4	-41.6	21.3	0.00e+00	0	40	0	393216000	52	6882
2026-01-18 17:13:15.22	1.51	18.18	-40.1	-41.3	21.5	0.00e+00	3	40	0	400556032	52	6621
2026-01-18 17:13:19.26	0.75	18.48	-39.9	-41.0	21.8	0.00e+00	76	40	0	408944640	52	6415
2026-01-18 17:13:23.30	359.97	18.77	-39.8	-40.9	22.0	0.00e+00	0	40	0	416284672	52	6376
2026-01-18 17:13:27.34	359.18	19.07	-40.2	-41.4	21.3	0.00e+00	0	40	0	423624704	52	6693
2026-01-18 17:13:31.38	358.37	19.36	-39.7	-40.8	22.0	0.00e+00	24	40	0	430964736	52	6262
2026-01-18 17:13:35.42	357.55	19.64	-39.7	-40.8	22.0	0.00e+00	0	40	0	439353344	52	6290
2026-01-18 17:13:39.46	356.71	19.93	-38.9	-39.9	22.7	0.00e+00	0	40	0	446693376	50	6358
2026-01-18 17:13:43.50	355.86	20.21	-38.5	-39.4	23.0	0.00e+00	0	40	0	454033408	50	6032
2026-01-18 17:13:47.53	354.99	20.48	-37.8	-38.7	23.5	0.00e+00	90	40	0	461373440	50	5526
2026-01-18 17:13:51.57	354.10	20.75	-38.4	-39.3	23.1	0.00e+00	0	40	0	468713472	50	5952
2026-01-18 17:13:55.61	353.20	21.02	-38.0	-39.0	23.3	0.00e+00	0	40	0	477102080	50	5715
2026-01-18 17:13:59.65	352.28	21.28	-38.2	-39.1	23.4	0.00e+00	9	40	0	484442112	50	5791
2026-01-18 17:14:03.69	351.34	21.54	-37.7	-38.6	23.7	0.00e+00	90	40	0	491782144	48	6131
2026-01-18 17:14:07.72	350.40	21.79	-38.2	-39.2	23.1	0.00e+00	0	40	0	499122176	48	6565
2026-01-18 17:14:11.76	349.43	22.04	-37.3	-38.2	24.1	0.00e+00	0	40	0	507510784	48	5867
2026-01-18 17:14:15.80	348.45	22.28	-37.6	-38.4	23.9	0.00e+00	90	40	0	514850816	48	6016
2026-01-18 17:14:19.83	347.45	22.51	-37.3	-38.2	24.0	0.00e+00	4	40	0	522190848	48	5845
2026-01-18 17:14:23.87	346.44	22.74	-37.6	-38.5	23.8	0.00e+00	0	40	0	529530880	48	6049
2026-01-18 17:14:27.91	345.42	22.95	-37.6	-38.5	23.8	0.00e+00	0	40	0	536870912	48	6057
2026-01-18 17:14:31.95	344.38	23.16	-38.0	-38.9	23.6	0.00e+00	92	40	0	545259520	48	6387
2026-01-18 17:14:35.98	343.32	23.36	-38.0	-38.9	23.5	0.00e+00	13	40	0	552599552	48	6374
2026-01-18 17:14:40.02	342.26	23.55	-37.5	-38.4	23.6	0.00e+00	0	40	0	559939584	48	5993
2026-01-18 17:14:44.06	341.18	23.73	-37.7	-38.6	23.8	0.00e+00	0	40	0	567279616	48	6104
2026-01-18 17:14:48.10	340.08	23.90	-37.0	-37.9	24.3	0.00e+00	39	40	0	575668224	48	5635
2026-01-18 17:14:52.14	338.98	24.07	-37.3	-38.2	24.0	0.00e+00	0	40	0	583008256	48	5846
2026-01-18 17:14:56.18	337.86	24.22	-37.8	-38.7	23.6	0.00e+00	0	40	0	590348288	48	6211
2026-01-18 17:15:00.22	336.74	24.36	-39.8	-40.9	22.0	0.00e+00	0	40	0	597688320	50	7121
2026-01-18 17:15:04.26	335.60	24.48	-39.5	-40.6	22.4	0.00e+00	66	40	0	605028352	52	6130
2026-01-18 17:15:08.29	334.46	24.60	-39.7	-40.7	22.1	0.00e+00	0	40	0	613416960	52	6239
2026-01-18 17:15:12.33	333.31	24.70	-38.9	-39.9	22.9	0.00e+00	0	40	0	620756992	52	5659
2026-01-18 17:15:16.37	332.15	24.79	-39.7	-40.7	22.2	0.00e+00	34	40	0	628097024	52	6219
2026-01-18 17:15:20.40	330.98	24.87	-40.0	-41.1	21.8	0.00e+00	0	40	0	635437056	52	6477
2026-01-18 17:15:24.44	329.81	24.94	-40.7	-41.9	21.4	0.00e+00	0	40	0	643825664	52	7149
2026-01-18 17:15:28.48	328.63	24.99	-39.4	-40.4	22.5	0.00e+00	0	40	0	651165696	52	6009
2026-01-18 17:15:32.52	327.45	25.03	-40.0	-41.1	21.9	0.00e+00	73	40	0	658505728	52	6468
2026-01-18 17:15:36.56	326.27	25.06	-40.2	-41.3	21.8	0.00e+00	0	40	0	665845760	52	6640
2026-01-18 17:15:40.59	325.09	25.07	-38.9	-39.8	23.0	0.00e+00	0	40	0	673185792	52	5621
2026-01-18 17:15:44.63	323.90	25.07	-39.3	-40.3	22.6	0.00e+00	0	40	0	681574400	50	6683
2026-01-18 17:15:48.66	322.72	25.06	-39.8	-40.8	22.2	0.00e+00	80	40	0	688914432	52	6303
2026-01-18 17:15:52.70	321.54	25.03	-40.1	-41.2	21.8	0.00e+00	0	40	0	696254464	52	6599
2026-01-18 17:15:56.74	320.36	24.99	-38.5	-39.5	23.0	0.00e+00	0	40	0	703594496	50	6042
2026-01-18 17:16:00.78	319.18	24.94	-38.1	-39.0	23.6	0.00e+00	48	40	0	710934528	50	5723
2026-01-18 17:16:04.82	318.01	24.87	-38.4	-39.3	23.5	0.00e+00	0	40	0	719323136	50	5906
2026-01-18 17:16:08.85	316.84	24.79	-37.0	-37.8	24.4	0.00e+00	0	40	0	726663168	48	5600
2026-01-18 17:16:12.89	315.68	24.70	-36.6	-37.3	24.5	0.00e+00	0	40	0	734003200	46	5942
2026-01-18 17:16:16.92	314.53	24.60	-37.0	-37.8	24.5	0.00e+00	92	40	0	741343232	46	6264
2026-01-18 17:16:20.96	313.39	24.48	-37.6	-38.4	24.0	0.00e+00	0	40	0	749731840	46	6756
2026-01-18 17:16:25.00	312.25	24.35	-37.7	-38.5	24.0	0.00e+00	0	40	0	757071872	48	6090
2026-01-18 17:16:29.04	311.12	24.21	-37.7	-38.5	24.1	0.00e+00	0	40	0	764411904	48	6096
2026-01-18 17:16:33.09	310.00	24.06	-38.9	-39.8	23.0	0.00e+00	91	40	0	771751936	50	6311
2026-01-18 17:16:37.12	308.90	23.90	-38.4	-39.3	23.4	0.00e+00	0	40	0	779091968	50	5935
2026-01-18 17:16:41.16	307.81	23.73	-39.1	-40.1	22.7	0.00e+00	0	40	0	787480576	50	6480
2026-01-18 17:16:45.19	306.73	23.55	-39.6	-40.7	22.4	0.00e+00	34	40	0	794820608	52	6180
2026-01-18 17:16:49.23	305.66	23.36	-40.4	-41.6	21.6	0.00e+00	0	40	0	802160640	52	6849
2026-01-18 17:16:53.27	304.60	23.16	-40.1	-41.2	22.0	0.00e+00	0	40	0	809500672	54	5842
2026-01-18 17:16:57.30	303.56	22.95	-39.9	-40.9	22.1	0.00e+00	0	40	0	817889280	52	6347
2026-01-18 17:17:01.34	302.53	22.73	-40.3	-41.4	21.7	0.00e+00	91	40	0	825229312	52	6704
2026-01-18 17:17:05.38	301.52	22.51	-39.4	-40.4	22.5	0.00e+00	0	40	0	832569344	52	5975
2026-01-18 17:17:09.42	300.52	22.27	-39.6	-40.7	22.4	0.00e+00	0	40	0	839909376	52	6182
2026-01-18 17:17:13.46	299.54	22.03	-40.8	-42.0	21.0	0.00e+00	0	40	0	847249408	54	6452
2026-01-18 17:17:17.50	298.57	21.79	-40.0	-41.0	22.1	0.00e+00	46	40	0	855638016	52	6437
2026-01-18 17:17:21.54	297.62	21.54	-40.6	-41.8	21.5	0.00e+00	0	40	0	862978048	52	7021
2026-01-18 17:17:25.58	296.68	21.28	-40.7	-41.9	21.4	0.00e+00	0	40	0	870318080	54	6328
2026-01-18 17:17:29.62	295.76	21.01	-38.9	-39.8	23.0	0.00e+00	0	40	0	877658112	52	5626
2026-01-18 17:17:33.66	294.86	20.75	-39.2	-40.2	22.7	0.00e+00	66	40	0	886046720	52	5886
2026-01-18 17:17:37.70	293.97	20.47	-38.8	-39.7	23.1	0.00e+00	0	40	0	893386752	52	5556
2026-01-18 17:17:41.74	293.10	20.20	-37.7	-38.5	23.9	0.00e+00	0	40	0	900726784	48	6079
2026-01-18 17:17:45.78	292.24	19.91	-37.5	-38.3	24.1	0.00e+00	31	40	0	908066816	48	5956
2026-01-18 17:17:49.82	291.40	19.63	-38.8	-39.7	23.0	0.00e+00	0	40	0	915406848	50	6201
2026-01-18 17:17:53.85	290.58	19.34	-39.2	-40.2	22.5	0.00e+00	0	40	0	923795456	50	6570
2026-01-18 17:17:57.89	289.77	19.05	-38.9	-39.9	22.9	0.00e+00	0	40	0	931135488	50	6324
2026-01-18 17:18:01.93	288.97	18.76	-38.2	-39.1	23.5	0.00e+00	86	40	0	938475520	50	5827
2026-01-18 17:18:05.97	288.19	18.47	-38.7	-39.6	23.1	0.00e+00	0	40	0	945815552	50	6151
2026-01-18 17:18:10.01	287.43	18.17	-38.9	-39.9	22.7	0.00e+00	0	40	0	954204160	50	6366
2026-01-18 17:18:14.05	286.68	17.87	-38.9	-39.9	22.9	0.00e+00	0	40	0	961544192	50	6338
2026-01-18 17:18:18.08	285.95	17.57	-39.5	-40.5	22.2	0.00e+00	92	40	0	968884224	50	6837
2026-01-18 17:18:22.12	285.23	17.27	-38.7	-39.6	23.1	0.00e+00	0	40	0	976224256	50	6144
2026-01-18 17:18:26.16	284.52	16.97	-38.3	-39.2	23.4	0.00e+00	0	40	0	983564288	50	5888
2026-01-18 17:18:30.20	283.83	16.67	-38.8	-39.8	22.8	0.00e+00	29	40	0	991952896	50	6271
2026-01-18 17:18:34.24	283.15	16.37	-38.6	-39.5	23.1	0.00e+00	0	40	0	999292928	50	6071
2026-01-18 17:18:38.28	282.49	16.06	-37.9	-38.8	23.6	0.00e+00	0	40	0	1006632960	50	5567
2026-01-18 17:18:42.32	281.84	15.76	-38.2	-39.1	23.4	0.00e+00	0	40	0	1013972992	48	6511
2026-01-18 17:18:46.36	281.20	15.46	-38.7	-39.6	22.9	0.00e+00	92	40	0	1022361600	48	6892
2026-01-18 17:18:50.40	280.58	15.15	-38.9	-39.8	22.8	0.00e+00	0	40	0	1029701632	50	6314
2026-01-18 17:18:54.44	279.97	14.85	-38.2	-39.0	23.5	0.00e+00	0	40	0	1037041664	50	5755
2026-01-18 17:18:58.47	279.37	14.55	-39.3	-40.3	22.2	0.00e+00	0	40	0	1044381696	50	6627
2026-01-18 17:19:02.51	278.79	14.25	-39.4	-40.4	22.4	0.00e+00	36	40	0	1051721728	50	6722
2026-01-18 17:19:06.54	278.21	13.95	-39.1	-40.1	22.6	0.00e+00	0	40	0	1060110336	50	6477
2026-01-18 17:19:10.58	277.65	13.65	-38.6	-39.6	23.0	0.00e+00	0	40	0	1067450368	50	6146
2026-01-18 17:19:14.62	277.10	13.35	-38.4	-39.3	23.2	0.00e+00	0	40	0	1074790400	50	5960
2026-01-18 17:19:18.66	276.56	13.05	-39.7	-40.8	22.0	0.00e+00	92	40	0	1082130432	50	7043
2026-01-18 17:19:22.70	276.03	12.76	-40.1	-41.2	21.7	0.00e+00	0	40	0	1090519040	52	6594
2026-01-18 17:19:26.73	275.51	12.46	-39.1	-40.1	22.4	0.00e+00	0	40	0	1097859072	52	5781
2026-01-18 17:19:30.77	275.00	12.17	-39.0	-40.0	22.5	0.00e+00	86	40	0	1105199104	50	6423
2026-01-18 17:19:34.82	274.50	11.88	-39.1	-40.1	22.6	0.00e+00	0	40	0	1112539136	50	6469
2026-01-18 17:19:38.86	274.02	11.58	-39.4	-40.4	22.3	0.00e+00	0	40	0	1119879168	50	6731
2026-01-18 17:19:42.89	273.54	11.29	-40.0	-41.1	21.7	0.00e+00	0	40	0	1128267776	52	6509
2026-01-18 17:19:46.94	273.07	11.01	-40.3	-41.4	21.4	0.00e+00	90	40	0	1135607808	52	6761
2026-01-18 17:19:50.98	272.61	10.72	-40.3	-41.5	21.3	0.00e+00	0	40	0	1142947840	52	6830
2026-01-18 17:19:55.02	272.16	10.43	-41.3	-42.6	20.4	0.00e+00	0	40	0	1150287872	54	6916
2026-01-18 17:19:59.06	271.72	10.15	-41.3	-42.6	20.3	0.00e+00	6	40	0	1158676480	54	6920
2026-01-18 17:20:03.10	271.29	9.87	-40.4	-41.6	21.0	0.00e+00	90	40	0	1166016512	54	6164
2026-01-18 17:20:07.13	270.86	9.59	-39.7	-40.8	21.8	0.00e+00	7	40	0	1173356544	54	5580
2026-01-18 17:20:11.17	270.45	9.31	-40.1	-41.3	21.4	0.00e+00	0	40	0	1180696576	52	6626
2026-01-18 17:20:15.21	270.04	9.03	-40.8	-42.0	20.7	0.00e+00	29	40	0	1188036608	52	7246
2026-01-18 17:20:19.25	269.64	8.76	-40.6	-41.9	20.8	0.00e+00	0	40	0	1196425216	54	6321
2026-01-18 17:20:23.29	269.25	8.48	-40.2	-41.3	21.2	0.00e+00	0	40	0	1203765248	54	5955
2026-01-18 17:20:27.32	268.86	8.21	-40.2	-41.4	21.2	0.00e+00	0	40	0	1211105280	54	5974
2026-01-18 17:20:31.36	268.49	7.94	-40.3	-41.5	21.0	0.00e+00	20	40	0	1218445312	54	6051
2026-01-18 17:20:35.40	268.12	7.67	-40.9	-42.2	20.4	0.00e+00	0	40	0	1226833920	54	6563
2026-01-18 17:20:39.44	267.75	7.40	-41.4	-42.8	20.0	0.00e+00	0	40	0	1234173952	54	7052
2026-01-18 17:20:43.48	267.40	7.14	-42.2	-43.8	19.0	0.00e+00	0	40	0	1241513984	56	7009
2026-01-18 17:20:47.51	267.05	6.88	-42.3	-44.0	18.7	0.00e+00	92	40	0	1248854016	56	7172
2026-01-18 17:20:51.55	266.70	6.61	-42.3	-43.9	18.8	0.00e+00	0	40	0	1256194048	56	7142
2026-01-18 17:20:55.58	266.37	6.35	-42.2	-43.8	18.9	0.00e+00	0	40	0	1264582656	56	7038
2026-01-18 17:20:59.62	266.04	6.10	-42.4	-44.0	18.6	0.00e+00	0	40	0	1271922688	56	7226
2026-01-18 17:21:03.66	265.71	5.84	-42.9	-44.7	17.9	0.00e+00	0	40	0	1279262720	58	6947
2026-01-18 17:21:07.70	265.39	5.58	-43.1	-45.0	17.7	0.00e+00	0	40	0	1286602752	58	7239
2026-01-18 17:21:11.74	265.08	5.33	-43.2	-45.2	17.4	0.00e+00	0	40	0	1294991360	58	7394
2026-01-18 17:21:15.78	264.77	5.08	-42.8	-44.7	17.9	0.00e+00	92	40	0	1302331392	58	6937
2026-01-18 17:21:19.82	264.47	4.83	-41.9	-43.4	18.9	0.00e+00	0	40	0	1309671424	58	6018
2026-01-18 17:21:23.85	264.17	4.58	-41.5	-43.0	19.5	0.00e+00	0	40	0	1317011456	56	6403
2026-01-18 17:21:27.89	263.88	4.33	-41.4	-42.9	19.4	0.00e+00	0	40	0	1324351488	56	6325
2026-01-18 17:21:31.93	263.59	4.09	-41.7	-43.3	18.9	0.00e+00	90	40	0	1332740096	56	6635
2026-01-18 17:21:35.97	263.31	3.84	-42.7	-44.6	17.7	0.00e+00	0	40	0	1340080128	56	7739
2026-01-18 17:21:40.01	263.03	3.60	-43.0	-45.1	17.2	0.00e+00	0	40	0	1347420160	58	7261
2026-01-18 17:21:44.05	262.76	3.36	-43.8	-46.2	16.0	0.00e+00	0	40	0	1354760192	60	7368
2026-01-18 17:21:48.08	262.49	3.12	-43.7	-46.1	16.0	0.00e+00	84	40	0	1363148800	60	7272
2026-01-18 17:21:52.13	262.23	2.88	-49.0	-64.2	3.6	1.51e+00	0	40	104	1367343104	60	58789
2026-01-18 17:21:56.16	261.97	2.64	-49.6	-64.7	3.6	1.51e+00	0	40	104	1367343104	60	62389
2026-01-18 17:22:00.20	261.72	2.41	-49.7	-64.9	3.6	1.51e+00	0	40	104	1367343104	60	63672
2026-01-18 17:22:04.24	261.47	2.17	-49.7	-64.9	3.6	1.51e+00	0	40	104	1367343104	60	63793
2026-01-18 17:22:08.28	261.22	1.94	-49.6	-64.8	3.6	1.51e+00	0	40	104	1367343104	60	63068
2026-01-18 17:22:12.32	260.98	1.71	-49.5	-64.8	3.6	1.51e+00	0	40	104	1367343104	60	62661
2026-01-18 17:22:16.36	260.74	1.48	-49.7	-64.9	3.6	1.51e+00	0	40	104	1367343104	60	63555
2026-01-18 17:22:20.41	260.51	1.25	-49.6	-64.8	3.6	1.51e+00	0	40	104	1367343104	60	63130
2026-01-18 17:22:24.44	260.28	1.03	-49.6	-64.7	3.6	1.51e+00	0	40	104	1367343104	60	62415
2026-01-18 17:22:28.48	260.05	0.80	-49.6	-64.8	3.6	1.51e+00	0	40	104	1367343104	60	62762
2026-01-18 17:22:32.52	259.82	0.57	-49.6	-64.7	3.6	1.51e+00	0	40	104	1367343104	60	62393
2026-01-18 17:22:36.57	259.60	0.35	-49.6	-64.8	3.6	1.51e+00	0	40	104	1367343104	60	62597
2026-01-18 17:22:40.61	259.39	0.13	-49.6	-64.8	3.6	1.51e+00	0	40	104	1367343104	60	62686

#Closed at: 2026-01-18 17:22:43
#Recorded file [1367 MB]: D:/lorett/data/35029_260119_050844.dat