passes_logs/2026/01/18/R4.6S_Anadyr/R4.6S_Anadyr__20260118_042309_FENGYUN_3D_rec.log

#Pass ID: 20260118_042309_FENGYUN 3D
#Satellite: FENGYUN 3D
#Configuration: FENGYUN 3D
#almurnet v.1.7.20251203
#Start time: 2026-01-18 04:23:11

#Version: 2.2.20231116
#Station: R4.6S_Anadyr
#Location: 177.4865 lon 64.73178 lat
#TLE: 1 43010U 17072A   26017.61121112  .00000213  00000+0  12257-3 0  9991
#TLE: 2 43010  98.9934 349.4672 0002374 103.9362 256.2078 14.19696413423628

#Time	Az	El	Level	Level2	SNR	BER	BlckErr	Temp	State	Recorded	gain1	gain2
2026-01-18 04:23:11.03	211.45	0.10	-50.7	-68.5	3.5	3.02e+01	0	25	0	0	60	101839
2026-01-18 04:23:15.07	211.72	0.31	-49.8	-62.0	3.6	8.45e-01	0	27	104	0	60	45569
2026-01-18 04:23:19.11	212.00	0.52	-49.3	-61.5	3.6	8.44e-01	0	27	104	0	60	42715
2026-01-18 04:23:23.14	212.28	0.73	-49.0	-61.0	3.6	8.45e-01	0	27	104	0	60	40741
2026-01-18 04:23:27.18	212.56	0.94	-48.7	-60.9	3.6	8.44e-01	0	27	104	0	60	39897
2026-01-18 04:23:31.22	212.85	1.15	-48.3	-60.5	3.6	8.46e-01	0	27	104	0	60	38342
2026-01-18 04:23:35.26	213.14	1.37	-47.6	-59.6	3.6	8.45e-01	0	27	104	0	60	34415
2026-01-18 04:23:39.30	213.44	1.58	-47.2	-59.4	3.6	8.44e-01	0	27	104	0	60	33612
2026-01-18 04:23:43.34	213.74	1.80	-47.2	-59.2	3.5	8.46e-01	0	27	104	0	60	33079
2026-01-18 04:23:47.38	214.04	2.01	-47.1	-59.1	3.6	8.46e-01	0	27	104	0	60	32415
2026-01-18 04:23:51.42	214.35	2.23	-47.1	-59.1	3.6	8.46e-01	0	27	104	0	60	32697
2026-01-18 04:23:55.45	214.66	2.45	-47.1	-58.5	3.6	8.46e-01	0	27	104	0	60	30409
2026-01-18 04:23:59.49	214.98	2.67	-47.0	-57.7	3.6	8.43e-01	0	27	104	0	60	27714
2026-01-18 04:24:03.53	215.30	2.89	-42.9	-45.1	13.7	8.17e-04	0	27	0	7340032	60	6468
2026-01-18 04:24:07.56	215.62	3.11	-38.4	-39.4	18.7	0.00e+00	0	27	0	30408704	50	6009
2026-01-18 04:24:11.60	215.95	3.33	-46.0	-51.9	9.9	8.43e-01	0	27	104	42991616	60	14211
2026-01-18 04:24:15.64	216.29	3.56	-39.2	-40.3	18.0	0.00e+00	0	27	0	63963136	50	6656
2026-01-18 04:24:19.68	216.63	3.78	-37.7	-38.6	20.1	0.00e+00	0	27	0	87031808	48	6145
2026-01-18 04:24:23.72	216.98	4.01	-37.4	-38.3	20.5	0.00e+00	0	27	0	109051904	46	6651
2026-01-18 04:24:27.76	217.33	4.23	-36.8	-37.7	20.8	0.00e+00	0	27	0	132120576	46	6243
2026-01-18 04:24:31.80	217.68	4.46	-35.7	-36.5	21.8	0.00e+00	0	27	0	155189248	46	5394
2026-01-18 04:24:35.84	218.04	4.69	-36.1	-36.9	21.6	0.00e+00	0	27	0	177209344	44	6353
2026-01-18 04:24:39.87	218.41	4.92	-35.5	-36.3	22.1	0.00e+00	0	27	0	200278016	44	5927
2026-01-18 04:24:43.91	218.78	5.15	-35.6	-36.4	22.1	0.00e+00	0	27	0	223346688	44	5983
2026-01-18 04:24:47.95	219.16	5.38	-35.1	-35.9	22.5	0.00e+00	0	27	0	246415360	44	5684
2026-01-18 04:24:51.99	219.54	5.62	-35.7	-36.5	22.1	0.00e+00	0	27	0	268435456	44	6058
2026-01-18 04:24:56.03	219.93	5.85	-35.7	-36.5	22.2	0.00e+00	0	27	0	291504128	44	6087
2026-01-18 04:25:00.07	220.33	6.09	-35.1	-35.9	22.6	0.00e+00	0	27	0	313524224	44	5661
2026-01-18 04:25:04.10	220.73	6.32	-35.3	-36.1	22.5	0.00e+00	0	27	0	336592896	44	5794
2026-01-18 04:25:08.14	221.14	6.56	-35.4	-36.2	22.4	0.00e+00	0	28	0	359661568	44	5830
2026-01-18 04:25:12.18	221.55	6.80	-35.2	-36.0	22.6	0.00e+00	0	27	0	381681664	44	5735
2026-01-18 04:25:16.21	221.97	7.03	-35.1	-35.9	22.7	0.00e+00	0	27	0	404750336	44	5667
2026-01-18 04:25:20.25	222.40	7.27	-35.5	-36.3	22.3	0.00e+00	0	27	0	427819008	44	5920
2026-01-18 04:25:24.29	222.84	7.51	-36.1	-36.9	21.7	0.00e+00	0	28	0	449839104	44	6359
2026-01-18 04:25:28.33	223.28	7.76	-35.2	-36.0	22.6	0.00e+00	0	27	0	472907776	44	5744
2026-01-18 04:25:32.36	223.72	8.00	-35.2	-36.0	22.6	0.00e+00	0	28	0	495976448	44	5730
2026-01-18 04:25:36.40	224.18	8.24	-35.2	-36.0	22.9	0.00e+00	0	28	0	517996544	44	5697
2026-01-18 04:25:40.44	224.64	8.49	-35.4	-36.1	22.7	0.00e+00	0	28	0	541065216	44	5827
2026-01-18 04:25:44.48	225.11	8.73	-35.2	-36.0	22.7	0.00e+00	0	28	0	564133888	44	5734
2026-01-18 04:25:48.52	225.59	8.98	-34.9	-35.7	23.1	0.00e+00	0	28	0	586153984	44	5545
2026-01-18 04:25:52.56	226.08	9.22	-35.0	-35.8	23.0	0.00e+00	0	28	0	609222656	44	5573
2026-01-18 04:25:56.60	226.57	9.47	-35.3	-36.1	22.8	0.00e+00	0	28	0	632291328	44	5787
2026-01-18 04:26:00.64	227.08	9.72	-35.5	-36.3	22.7	0.00e+00	0	28	0	654311424	44	5898
2026-01-18 04:26:04.67	227.59	9.97	-35.5	-36.3	22.7	0.00e+00	0	28	0	677380096	44	5940
2026-01-18 04:26:08.71	228.11	10.21	-35.4	-36.2	22.8	0.00e+00	0	28	0	700448768	44	5829
2026-01-18 04:26:12.75	228.63	10.46	-35.1	-35.8	23.2	0.00e+00	0	28	0	722468864	44	5614
2026-01-18 04:26:16.79	229.17	10.71	-35.2	-35.9	23.2	0.00e+00	0	27	0	745537536	44	5676
2026-01-18 04:26:20.82	229.71	10.96	-35.8	-36.6	22.5	0.00e+00	0	28	0	768606208	44	6132
2026-01-18 04:26:24.86	230.27	11.21	-35.4	-36.2	22.8	0.00e+00	0	28	0	790626304	44	5872
2026-01-18 04:26:28.90	230.83	11.46	-35.1	-35.9	23.2	0.00e+00	0	28	0	813694976	44	5638
2026-01-18 04:26:32.94	231.41	11.71	-34.9	-35.6	23.3	0.00e+00	0	28	0	836763648	44	5502
2026-01-18 04:26:36.98	231.99	11.96	-34.9	-35.6	23.3	0.00e+00	0	28	0	858783744	44	5470
2026-01-18 04:26:41.02	232.58	12.21	-34.9	-35.6	23.4	0.00e+00	0	28	0	881852416	42	6162
2026-01-18 04:26:45.05	233.18	12.46	-34.6	-35.3	23.8	0.00e+00	0	28	0	904921088	42	5914
2026-01-18 04:26:49.09	233.79	12.71	-34.6	-35.3	23.9	0.00e+00	0	28	0	926941184	42	5918
2026-01-18 04:26:53.13	234.41	12.96	-34.2	-34.9	24.0	0.00e+00	0	28	0	950009856	42	5688
2026-01-18 04:26:57.17	235.05	13.21	-34.0	-34.7	24.1	0.00e+00	0	28	0	973078528	42	5525
2026-01-18 04:27:01.20	235.69	13.46	-33.7	-34.5	24.5	0.00e+00	0	28	0	995098624	40	6049
2026-01-18 04:27:05.24	236.34	13.70	-33.8	-34.5	24.5	0.00e+00	0	28	0	1018167296	40	6092
2026-01-18 04:27:09.28	237.00	13.95	-33.6	-34.3	24.6	0.00e+00	0	28	0	1041235968	40	5901
2026-01-18 04:27:13.32	237.68	14.19	-33.6	-34.3	24.7	0.00e+00	0	28	0	1063256064	40	5918
2026-01-18 04:27:17.36	238.36	14.44	-33.2	-33.9	25.1	0.00e+00	0	27	0	1086324736	40	5649
2026-01-18 04:27:21.40	239.06	14.68	-32.8	-33.4	25.4	0.00e+00	0	28	0	1109393408	38	6032
2026-01-18 04:27:25.43	239.77	14.92	-32.8	-33.4	25.4	0.00e+00	0	28	0	1131413504	38	6021
2026-01-18 04:27:29.47	240.48	15.16	-32.6	-33.3	25.6	0.00e+00	0	28	0	1154482176	38	5944
2026-01-18 04:27:33.51	241.21	15.40	-32.4	-33.1	25.8	0.00e+00	0	28	0	1177550848	38	5778
2026-01-18 04:27:37.55	241.95	15.63	-32.4	-33.1	25.8	0.00e+00	0	28	0	1199570944	38	5780
2026-01-18 04:27:41.59	242.71	15.87	-32.2	-32.9	25.9	0.00e+00	0	28	0	1222639616	38	5655
2026-01-18 04:27:45.62	243.47	16.10	-32.1	-32.8	26.0	0.00e+00	0	28	0	1245708288	38	5568
2026-01-18 04:27:49.66	244.24	16.32	-32.5	-33.2	25.7	0.00e+00	0	28	0	1267728384	38	5846
2026-01-18 04:27:53.70	245.03	16.55	-32.3	-32.9	26.0	0.00e+00	0	28	0	1290797056	38	5687
2026-01-18 04:27:57.73	245.82	16.77	-32.3	-32.9	25.7	0.00e+00	0	28	0	1312817152	38	5662
2026-01-18 04:28:01.77	246.63	16.99	-31.9	-32.6	26.2	0.00e+00	0	28	0	1335885824	38	5473
2026-01-18 04:28:05.81	247.45	17.20	-31.9	-32.5	26.4	0.00e+00	0	28	0	1358954496	38	5433
2026-01-18 04:28:09.84	248.28	17.41	-32.0	-32.6	26.2	0.00e+00	0	28	0	1382023168	36	6135
2026-01-18 04:28:13.88	249.13	17.62	-32.0	-32.7	26.3	0.00e+00	0	28	0	1404043264	36	6219
2026-01-18 04:28:17.92	249.98	17.82	-31.9	-32.6	26.4	0.00e+00	0	28	0	1427111936	36	6111
2026-01-18 04:28:21.96	250.85	18.02	-31.7	-32.3	26.5	0.00e+00	0	28	0	1450180608	36	5921
2026-01-18 04:28:25.99	251.72	18.21	-31.6	-32.3	26.5	0.00e+00	0	28	0	1472200704	36	5915
2026-01-18 04:28:30.03	252.61	18.40	-31.4	-32.1	26.7	0.00e+00	0	28	0	1495269376	36	5763
2026-01-18 04:28:34.07	253.50	18.58	-31.3	-31.9	26.8	0.00e+00	0	28	0	1517289472	36	5690
2026-01-18 04:28:38.11	254.41	18.76	-31.5	-32.2	26.7	0.00e+00	0	28	0	1540358144	36	5850
2026-01-18 04:28:42.15	255.33	18.93	-31.4	-32.1	26.7	0.00e+00	0	28	0	1563426816	36	5765
2026-01-18 04:28:46.19	256.26	19.09	-31.4	-32.1	26.6	0.00e+00	0	28	0	1586495488	36	5785
2026-01-18 04:28:50.24	257.20	19.25	-31.4	-32.0	26.6	0.00e+00	0	28	0	1608515584	36	5755
2026-01-18 04:28:54.27	258.14	19.41	-31.3	-32.0	26.8	0.00e+00	0	28	0	1631584256	36	5720
2026-01-18 04:28:58.31	259.09	19.55	-31.1	-31.8	26.9	0.00e+00	0	28	0	1654652928	36	5600
2026-01-18 04:29:02.35	260.06	19.69	-31.1	-31.8	27.0	0.00e+00	0	28	0	1676673024	36	5576
2026-01-18 04:29:06.39	261.03	19.82	-30.9	-31.5	27.1	0.00e+00	0	28	0	1699741696	36	5439
2026-01-18 04:29:10.43	262.01	19.94	-30.8	-31.4	27.1	0.00e+00	0	28	0	1721761792	34	6011
2026-01-18 04:29:14.47	263.00	20.06	-31.2	-31.8	26.8	0.00e+00	0	28	0	1744830464	34	6308
2026-01-18 04:29:18.50	263.99	20.17	-31.0	-31.7	27.0	0.00e+00	0	28	0	1767899136	34	6175
2026-01-18 04:29:22.54	264.99	20.27	-31.2	-31.8	26.9	0.00e+00	0	28	0	1789919232	34	6308
2026-01-18 04:29:26.58	266.00	20.36	-31.0	-31.6	27.0	0.00e+00	0	28	0	1812987904	34	6147
2026-01-18 04:29:30.62	267.01	20.44	-31.4	-32.0	26.7	0.00e+00	0	28	0	1836056576	34	6455
2026-01-18 04:29:34.66	268.03	20.51	-31.2	-31.8	26.8	0.00e+00	0	28	0	1859125248	34	6281
2026-01-18 04:29:38.69	269.05	20.58	-30.9	-31.5	27.0	0.00e+00	0	28	0	1881145344	34	6103
2026-01-18 04:29:42.73	270.07	20.64	-30.8	-31.4	27.2	0.00e+00	0	28	0	1904214016	34	6001
2026-01-18 04:29:46.77	271.10	20.68	-31.0	-31.6	27.0	0.00e+00	0	28	0	1926234112	34	6155
2026-01-18 04:29:50.81	272.14	20.72	-30.8	-31.4	27.3	0.00e+00	0	28	0	1949302784	34	5985
2026-01-18 04:29:54.84	273.17	20.75	-30.8	-31.4	27.2	0.00e+00	0	28	0	1972371456	34	6025
2026-01-18 04:29:58.88	274.20	20.77	-30.8	-31.4	27.1	0.00e+00	0	28	0	1994391552	34	6029
2026-01-18 04:30:02.92	275.24	20.78	-31.1	-31.7	27.1	0.00e+00	0	28	0	2017460224	34	6208
2026-01-18 04:30:06.96	276.28	20.78	-31.0	-31.6	27.0	0.00e+00	0	28	0	2040528896	34	6151
2026-01-18 04:30:11.00	277.31	20.77	-31.0	-31.7	27.2	0.00e+00	0	28	0	2063597568	34	6174
2026-01-18 04:30:15.04	278.35	20.76	-31.2	-31.9	26.9	0.00e+00	0	28	0	2085617664	34	6322
2026-01-18 04:30:19.08	279.38	20.73	-31.1	-31.7	26.9	0.00e+00	0	28	0	2108686336	34	6201
2026-01-18 04:30:23.11	280.41	20.69	-31.0	-31.6	27.0	0.00e+00	0	28	0	2130706432	34	6152
2026-01-18 04:30:27.15	281.44	20.65	-31.1	-31.7	27.0	0.00e+00	0	28	0	2153775104	34	6236
2026-01-18 04:30:31.19	282.47	20.59	-30.8	-31.5	27.2	0.00e+00	0	28	0	2176843776	34	6034
2026-01-18 04:30:35.22	283.48	20.53	-30.9	-31.5	27.3	0.00e+00	0	28	0	2198863872	34	6074
2026-01-18 04:30:39.26	284.50	20.46	-31.2	-31.9	27.0	0.00e+00	0	28	0	2221932544	34	6343
2026-01-18 04:30:43.30	285.51	20.38	-31.9	-32.5	26.6	0.00e+00	0	28	0	2245001216	36	6072
2026-01-18 04:30:47.34	286.52	20.29	-32.0	-32.7	26.6	0.00e+00	0	28	0	2267021312	36	6244
2026-01-18 04:30:51.38	287.52	20.19	-31.5	-32.1	26.9	0.00e+00	0	28	0	2290089984	36	5804
2026-01-18 04:30:55.42	288.52	20.09	-31.7	-32.3	26.6	0.00e+00	0	28	0	2313158656	36	5948
2026-01-18 04:30:59.46	289.50	19.97	-31.5	-32.2	26.7	0.00e+00	0	28	0	2335178752	36	5838
2026-01-18 04:31:03.50	290.48	19.85	-32.0	-32.7	27.0	0.00e+00	0	28	0	2358247424	36	6181
2026-01-18 04:31:07.54	291.46	19.72	-32.1	-32.6	26.7	0.00e+00	0	28	0	2381316096	36	6142
2026-01-18 04:31:11.58	292.42	19.59	-31.5	-32.2	26.8	0.00e+00	0	28	0	2403336192	36	5866
2026-01-18 04:31:15.62	293.37	19.45	-31.9	-32.6	26.6	0.00e+00	0	28	0	2426404864	36	6166
2026-01-18 04:31:19.66	294.32	19.30	-31.7	-32.4	26.8	0.00e+00	0	28	0	2449473536	36	5965
2026-01-18 04:31:23.70	295.26	19.14	-32.0	-32.6	26.5	0.00e+00	0	28	0	2472542208	36	6120
2026-01-18 04:31:27.73	296.18	18.98	-31.7	-32.4	26.6	0.00e+00	0	28	0	2494562304	36	5990
2026-01-18 04:31:31.77	297.10	18.81	-32.0	-32.6	26.4	0.00e+00	0	28	0	2517630976	36	6149
2026-01-18 04:31:35.81	298.01	18.63	-32.3	-33.0	26.7	0.00e+00	0	28	0	2539651072	36	6459
2026-01-18 04:31:39.84	298.90	18.45	-32.4	-33.1	26.3	0.00e+00	0	28	0	2562719744	36	6533
2026-01-18 04:31:43.89	299.79	18.27	-32.6	-33.3	26.4	0.00e+00	0	28	0	2585788416	38	5922
2026-01-18 04:31:47.93	300.67	18.08	-32.6	-33.2	26.5	0.00e+00	0	28	0	2607808512	38	5840
2026-01-18 04:31:51.97	301.53	17.88	-32.5	-33.1	26.5	0.00e+00	0	28	0	2630877184	38	5774
2026-01-18 04:31:56.01	302.39	17.68	-32.4	-33.0	26.4	0.00e+00	0	28	0	2653945856	38	5744
2026-01-18 04:32:00.05	303.23	17.48	-32.3	-32.9	26.2	0.00e+00	0	28	0	2677014528	38	5679
2026-01-18 04:32:04.09	304.06	17.27	-32.7	-33.4	25.8	0.00e+00	0	28	0	2699034624	38	5975
2026-01-18 04:32:08.13	304.88	17.06	-32.2	-32.8	26.3	0.00e+00	0	28	0	2722103296	38	5619
2026-01-18 04:32:12.17	305.69	16.84	-32.5	-33.3	25.9	0.00e+00	0	28	0	2744123392	38	5898
2026-01-18 04:32:16.21	306.49	16.62	-32.9	-33.5	25.8	0.00e+00	0	28	0	2767192064	38	6055
2026-01-18 04:32:20.25	307.27	16.40	-32.8	-33.5	26.0	0.00e+00	0	28	0	2790260736	38	6053
2026-01-18 04:32:24.29	308.05	16.17	-32.7	-33.3	26.0	0.00e+00	0	28	0	2813329408	38	5921
2026-01-18 04:32:28.34	308.81	15.94	-33.2	-33.9	25.9	0.00e+00	0	28	0	2835349504	38	6343
2026-01-18 04:32:32.38	309.57	15.71	-33.2	-33.9	25.5	0.00e+00	0	28	0	2858418176	38	6381
2026-01-18 04:32:36.42	310.31	15.48	-33.1	-33.7	25.5	0.00e+00	0	28	0	2881486848	40	5531
2026-01-18 04:32:40.46	311.04	15.25	-33.1	-33.8	25.5	0.00e+00	0	28	0	2903506944	40	5576
2026-01-18 04:32:44.50	311.76	15.01	-33.2	-34.0	25.2	0.00e+00	0	28	0	2926575616	40	5698
2026-01-18 04:32:48.53	312.46	14.77	-32.9	-33.5	25.5	0.00e+00	0	27	0	2948595712	40	5392
2026-01-18 04:32:52.57	313.16	14.53	-32.8	-33.3	25.5	0.00e+00	0	28	0	2971664384	38	5964
2026-01-18 04:32:56.61	313.84	14.29	-32.8	-33.4	25.6	0.00e+00	0	28	0	2994733056	38	6008
2026-01-18 04:33:00.65	314.52	14.05	-33.5	-34.1	25.2	0.00e+00	0	28	0	3017801728	40	5776
2026-01-18 04:33:04.69	315.18	13.80	-33.0	-33.7	25.4	0.00e+00	0	28	0	3039821824	40	5512
2026-01-18 04:33:08.73	315.84	13.56	-33.5	-34.1	25.3	0.00e+00	0	28	0	3062890496	40	5788
2026-01-18 04:33:12.77	316.48	13.31	-34.0	-34.6	25.0	0.00e+00	0	28	0	3085959168	40	6127
2026-01-18 04:33:16.80	317.11	13.07	-33.6	-34.2	25.0	0.00e+00	0	28	0	3107979264	40	5858
2026-01-18 04:33:20.84	317.73	12.82	-33.8	-34.6	24.8	0.00e+00	0	28	0	3131047936	40	6107
2026-01-18 04:33:24.88	318.35	12.57	-33.9	-34.6	25.0	0.00e+00	0	28	0	3153068032	40	6145
2026-01-18 04:33:28.92	318.95	12.32	-33.3	-33.9	25.1	0.00e+00	0	28	0	3176136704	40	5667
2026-01-18 04:33:32.97	319.54	12.08	-33.6	-34.2	25.1	0.00e+00	0	27	0	3199205376	40	5894
2026-01-18 04:33:37.00	320.12	11.83	-33.7	-34.4	24.9	0.00e+00	0	28	0	3222274048	40	5996
2026-01-18 04:33:41.04	320.70	11.58	-33.7	-34.5	24.8	0.00e+00	0	27	0	3244294144	40	6066
2026-01-18 04:33:45.08	321.26	11.33	-33.8	-34.4	24.8	0.00e+00	0	28	0	3267362816	40	5985
2026-01-18 04:33:49.12	321.82	11.08	-34.1	-34.8	24.5	0.00e+00	0	27	0	3290431488	40	6316
2026-01-18 04:33:53.16	322.37	10.84	-34.3	-35.0	24.3	0.00e+00	0	27	0	3312451584	42	5705
2026-01-18 04:33:57.20	322.90	10.59	-34.8	-35.6	24.2	0.00e+00	0	28	0	3335520256	42	6107
2026-01-18 04:34:01.23	323.43	10.34	-34.5	-35.1	24.0	0.00e+00	0	28	0	3357540352	42	5818
2026-01-18 04:34:05.27	323.95	10.09	-34.3	-34.9	24.0	0.00e+00	0	28	0	3380609024	42	5658
2026-01-18 04:34:09.31	324.46	9.85	-34.4	-35.0	24.0	0.00e+00	0	27	0	3403677696	42	5736
2026-01-18 04:34:13.35	324.97	9.60	-34.9	-35.6	23.5	0.00e+00	0	28	0	3426746368	42	6157
2026-01-18 04:34:17.39	325.46	9.36	-34.7	-35.6	23.6	0.00e+00	0	27	0	3448766464	42	6113
2026-01-18 04:34:21.42	325.95	9.11	-34.8	-35.6	23.6	0.00e+00	0	27	0	3471835136	42	6146
2026-01-18 04:34:25.47	326.43	8.87	-34.7	-35.5	23.6	0.00e+00	0	28	0	3494903808	42	6065
2026-01-18 04:34:29.50	326.90	8.63	-34.9	-35.7	23.4	0.00e+00	0	28	0	3516923904	42	6175
2026-01-18 04:34:33.53	327.37	8.39	-35.1	-35.9	23.3	0.00e+00	0	28	0	3539992576	42	6359
2026-01-18 04:34:37.57	327.83	8.14	-34.9	-35.5	23.5	0.00e+00	0	28	0	3562012672	42	6100
2026-01-18 04:34:41.61	328.28	7.90	-34.7	-35.4	23.4	0.00e+00	0	27	0	3585081344	42	5982
2026-01-18 04:34:45.65	328.72	7.66	-34.9	-35.6	23.2	0.00e+00	0	28	0	3608150016	42	6106
2026-01-18 04:34:49.69	329.16	7.42	-35.3	-35.9	23.1	0.00e+00	0	28	0	3631218688	42	6372
2026-01-18 04:34:53.73	329.59	7.19	-35.3	-36.0	22.7	0.00e+00	0	28	0	3653238784	42	6399
2026-01-18 04:34:57.76	330.01	6.95	-35.2	-35.9	22.9	0.00e+00	0	28	0	3676307456	44	5694
2026-01-18 04:35:01.80	330.43	6.71	-35.1	-35.8	22.8	0.00e+00	0	28	0	3699376128	44	5599
2026-01-18 04:35:05.84	330.84	6.48	-35.2	-35.9	22.7	0.00e+00	0	28	0	3721396224	44	5649
2026-01-18 04:35:09.88	331.24	6.24	-35.5	-36.2	22.6	0.00e+00	0	28	0	3744464896	44	5863
2026-01-18 04:35:13.92	331.64	6.01	-35.4	-36.1	22.4	0.00e+00	0	27	0	3766484992	44	5827
2026-01-18 04:35:17.96	332.03	5.78	-35.9	-36.7	22.0	0.00e+00	0	27	0	3789553664	44	6235
2026-01-18 04:35:22.00	332.42	5.55	-36.5	-37.5	21.1	0.00e+00	0	28	0	3812622336	44	6779
2026-01-18 04:35:26.04	332.80	5.32	-37.8	-38.8	19.3	0.00e+00	0	28	0	3834642432	48	6315
2026-01-18 04:35:30.07	333.17	5.09	-39.3	-40.7	16.3	0.00e+00	0	28	0	3857711104	50	6951
2026-01-18 04:35:34.11	333.54	4.86	-41.4	-44.1	11.2	7.16e-04	0	28	0	3880779776	54	8190
2026-01-18 04:35:38.15	333.90	4.63	-42.8	-47.6	6.4	2.27e-01	0	28	0	3903848448	58	9725
2026-01-18 04:35:42.19	334.26	4.41	-43.5	-53.2	3.8	8.42e-01	0	28	104	3906994176	58	18483
2026-01-18 04:35:46.23	334.62	4.18	-43.6	-54.6	3.6	8.46e-01	0	28	104	3906994176	58	21874
2026-01-18 04:35:50.26	334.96	3.96	-43.8	-55.9	3.6	8.45e-01	0	28	104	3906994176	60	22516
2026-01-18 04:35:54.31	335.31	3.73	-43.8	-55.5	3.6	8.47e-01	0	28	104	3906994176	60	21533
2026-01-18 04:35:58.34	335.65	3.51	-44.0	-56.1	3.6	8.46e-01	0	28	104	3906994176	60	23167
2026-01-18 04:36:02.38	335.98	3.29	-44.1	-56.2	3.6	8.45e-01	0	28	104	3906994176	60	23243
2026-01-18 04:36:06.41	336.31	3.07	-43.9	-56.0	3.6	8.45e-01	0	28	104	3906994176	60	22854
2026-01-18 04:36:10.45	336.63	2.85	-48.3	-60.3	3.6	8.45e-01	0	28	104	3906994176	60	37626
2026-01-18 04:36:14.42	336.95	2.64	-48.9	-61.0	3.6	8.45e-01	0	28	104	3906994176	60	40642
2026-01-18 04:36:18.46	337.26	2.42	-49.2	-61.4	3.6	8.46e-01	0	28	104	3906994176	60	42256
2026-01-18 04:36:22.50	337.57	2.21	-49.1	-61.4	3.6	8.44e-01	0	28	104	3906994176	60	42674
2026-01-18 04:36:26.54	337.88	1.99	-49.2	-61.4	3.6	8.46e-01	0	28	104	3906994176	60	42278
2026-01-18 04:36:30.58	338.18	1.78	-49.1	-61.3	3.6	8.46e-01	0	28	104	3906994176	60	41851
2026-01-18 04:36:34.62	338.48	1.56	-49.1	-61.3	3.6	8.46e-01	0	28	104	3906994176	60	41791
2026-01-18 04:36:38.65	338.78	1.35	-49.6	-61.7	3.6	8.46e-01	0	28	104	3906994176	60	43783
2026-01-18 04:36:42.69	339.07	1.14	-49.2	-61.4	3.6	8.45e-01	0	28	104	3906994176	60	42248
2026-01-18 04:36:46.73	339.36	0.93	-48.9	-61.0	3.6	8.44e-01	0	28	104	3906994176	60	40617
2026-01-18 04:36:50.77	339.64	0.72	-49.4	-61.5	3.6	8.45e-01	0	28	104	3906994176	60	42821
2026-01-18 04:36:54.80	339.92	0.51	-49.7	-61.8	3.6	8.45e-01	0	28	104	3906994176	60	44350
2026-01-18 04:36:58.84	340.20	0.31	-49.7	-61.8	3.6	8.45e-01	0	28	104	3906994176	60	44675
2026-01-18 04:37:02.88	340.47	0.10	-49.6	-61.7	3.6	8.46e-01	0	28	104	3906994176	60	43777

#Closed at: 2026-01-18 04:37:06
#Recorded file [3906 MB]: D:/lorett/data/35029_260118_162311.dat