passes_logs/2026/01/18/R4.6S_Anadyr/R4.6S_Anadyr__20260118_002254_NOAA_20_JPSS-1_rec.log

#Pass ID: 20260118_002254_NOAA 20 (JPSS-1)
#Satellite: NOAA 20 (JPSS-1)
#Configuration: NOAA 20
#almurnet v.1.7.20251203
#Start time: 2026-01-18 00:22:56

#Version: 2.2.20231116
#Station: R4.6S_Anadyr
#Location: 177.4865 lon 64.73178 lat
#TLE: 1 43013U 17073A   26017.58553584  .00000066  00000+0  52288-4 0  9998
#TLE: 2 43013  98.7639 318.4977 0001406  35.6039 324.5231 14.19536575423107

#Time	Az	El	Level	Level2	SNR	BER	BlckErr	Temp	State	Recorded	gain1	gain2
2026-01-18 00:22:56.47	160.32	0.14	-49.4	-64.3	3.6	1.51e+00	0	30	0	0	60	59223
2026-01-18 00:23:00.51	160.35	0.39	-49.1	-64.4	3.6	1.51e+00	0	31	104	0	60	60013
2026-01-18 00:23:04.55	160.39	0.63	-49.1	-64.4	3.6	1.51e+00	0	31	104	0	60	59710
2026-01-18 00:23:08.59	160.42	0.88	-49.3	-64.5	3.6	1.51e+00	0	31	104	0	60	60868
2026-01-18 00:23:12.63	160.46	1.13	-49.2	-64.5	3.6	1.51e+00	0	31	104	0	60	60598
2026-01-18 00:23:16.67	160.49	1.38	-49.6	-64.9	3.6	1.51e+00	0	31	104	0	60	63395
2026-01-18 00:23:20.71	160.53	1.64	-49.2	-64.4	3.6	1.51e+00	0	31	104	0	60	60141
2026-01-18 00:23:24.75	160.56	1.90	-49.5	-64.7	3.6	1.51e+00	0	31	104	0	60	62301
2026-01-18 00:23:28.79	160.60	2.15	-49.1	-64.4	3.6	1.51e+00	0	31	104	0	60	59663
2026-01-18 00:23:32.82	160.64	2.42	-49.3	-64.6	3.6	1.51e+00	0	31	104	0	60	61175
2026-01-18 00:23:36.86	160.67	2.68	-49.2	-64.5	3.6	1.51e+00	0	32	104	0	60	60713
2026-01-18 00:23:40.90	160.71	2.95	-49.5	-64.7	3.6	1.51e+00	0	32	104	0	60	62106
2026-01-18 00:23:44.93	160.75	3.22	-49.2	-64.4	3.6	1.51e+00	0	32	104	0	60	60058
2026-01-18 00:23:48.97	160.79	3.49	-49.2	-64.4	3.6	1.51e+00	0	32	104	0	60	60052
2026-01-18 00:23:53.01	160.83	3.76	-49.3	-64.5	3.6	1.51e+00	0	32	104	0	60	60967
2026-01-18 00:23:57.05	160.87	4.04	-49.2	-64.4	3.6	1.51e+00	0	32	104	0	60	60197
2026-01-18 00:24:01.09	160.91	4.32	-49.3	-64.5	3.6	1.51e+00	0	32	104	0	60	60912
2026-01-18 00:24:05.13	160.95	4.60	-49.5	-64.8	3.6	1.51e+00	0	32	104	0	60	62745
2026-01-18 00:24:09.17	160.99	4.89	-49.8	-65.1	3.5	1.51e+00	0	32	104	0	60	64977
2026-01-18 00:24:13.21	161.03	5.18	-49.3	-64.6	3.6	1.51e+00	0	32	104	0	60	61168
2026-01-18 00:24:17.24	161.07	5.47	-49.1	-64.3	3.6	1.51e+00	0	32	104	0	60	59405
2026-01-18 00:24:21.28	161.12	5.77	-49.4	-64.7	3.6	1.51e+00	0	32	104	0	60	61881
2026-01-18 00:24:25.32	161.16	6.07	-49.0	-64.3	3.6	1.51e+00	0	32	104	0	60	58991
2026-01-18 00:24:29.35	161.21	6.37	-49.3	-64.5	3.6	1.51e+00	0	32	104	0	60	60948
2026-01-18 00:24:33.39	161.25	6.68	-49.3	-64.5	3.6	1.51e+00	0	32	104	0	60	60469
2026-01-18 00:24:37.44	161.30	6.99	-49.1	-64.4	3.6	1.51e+00	0	32	104	0	60	59871
2026-01-18 00:24:41.47	161.34	7.30	-49.6	-64.8	3.5	1.51e+00	0	32	104	0	60	62753
2026-01-18 00:24:45.51	161.39	7.62	-49.6	-64.9	3.6	1.51e+00	0	32	104	0	60	63475
2026-01-18 00:24:49.55	161.44	7.94	-49.4	-64.6	3.6	1.51e+00	0	32	104	0	60	61645
2026-01-18 00:24:53.59	161.49	8.27	-49.4	-64.6	3.6	1.51e+00	0	32	104	0	60	61255
2026-01-18 00:24:57.62	161.54	8.60	-49.4	-64.6	3.6	1.51e+00	0	32	104	0	60	61439
2026-01-18 00:25:01.66	161.59	8.93	-49.3	-64.6	3.6	1.51e+00	0	32	104	0	60	61084
2026-01-18 00:25:05.70	161.64	9.27	-49.3	-64.6	3.6	1.51e+00	0	32	104	0	60	61108
2026-01-18 00:25:09.74	161.69	9.61	-49.3	-64.6	3.6	1.51e+00	0	32	104	0	60	61356
2026-01-18 00:25:13.78	161.75	9.96	-49.5	-64.8	3.6	1.51e+00	0	32	104	0	60	62707
2026-01-18 00:25:17.82	161.80	10.32	-49.3	-64.5	3.6	1.51e+00	0	32	104	0	60	60984
2026-01-18 00:25:21.86	161.85	10.67	-49.1	-64.3	3.6	1.51e+00	0	32	104	0	60	59162
2026-01-18 00:25:25.90	161.91	11.04	-49.8	-65.1	3.6	1.51e+00	0	32	104	0	60	64877
2026-01-18 00:25:29.93	161.97	11.41	-49.3	-64.6	3.6	1.51e+00	0	32	104	0	60	61144
2026-01-18 00:25:33.97	162.03	11.78	-49.2	-64.5	3.6	1.51e+00	0	32	104	0	60	60508
2026-01-18 00:25:38.01	162.09	12.16	-49.7	-64.9	3.6	1.51e+00	0	32	104	0	60	63542
2026-01-18 00:25:42.05	162.15	12.55	-49.1	-64.3	3.6	1.51e+00	0	32	104	0	60	59404
2026-01-18 00:25:46.09	162.21	12.94	-49.1	-64.4	3.6	1.51e+00	0	32	104	0	60	59932
2026-01-18 00:25:50.13	162.27	13.34	-49.1	-64.3	3.6	1.51e+00	0	32	104	0	60	59547
2026-01-18 00:25:54.17	162.34	13.75	-49.3	-64.5	3.6	1.51e+00	0	32	104	0	60	60942
2026-01-18 00:25:58.21	162.40	14.16	-49.2	-64.4	3.6	1.51e+00	0	32	104	0	60	60273
2026-01-18 00:26:02.24	162.47	14.58	-49.1	-64.4	3.6	1.51e+00	0	32	104	0	60	59668
2026-01-18 00:26:06.29	162.54	15.01	-49.0	-64.3	3.6	1.51e+00	0	32	104	0	60	59032
2026-01-18 00:26:10.33	162.61	15.45	-48.9	-64.2	3.6	1.51e+00	0	32	104	0	60	58562
2026-01-18 00:26:14.37	162.69	15.89	-48.9	-64.1	3.6	1.51e+00	0	32	104	0	60	58178
2026-01-18 00:26:18.41	162.76	16.34	-49.2	-64.3	3.6	1.51e+00	0	32	104	0	60	59541
2026-01-18 00:26:22.45	162.84	16.80	-49.3	-64.5	3.6	1.51e+00	0	32	104	0	60	60760
2026-01-18 00:26:26.49	162.91	17.27	-49.6	-64.8	3.6	1.51e+00	0	32	104	0	60	62914
2026-01-18 00:26:30.53	162.99	17.75	-49.3	-64.6	3.6	1.51e+00	0	32	104	0	60	61280
2026-01-18 00:26:34.57	163.08	18.24	-49.2	-64.4	3.6	1.51e+00	0	32	104	0	60	60223
2026-01-18 00:26:38.61	163.16	18.74	-49.3	-64.5	3.6	1.51e+00	0	32	104	0	60	60897
2026-01-18 00:26:42.65	163.25	19.24	-49.1	-64.3	3.6	1.51e+00	0	32	104	0	60	59476
2026-01-18 00:26:46.69	163.34	19.76	-49.3	-64.5	3.6	1.51e+00	0	32	104	0	60	60785
2026-01-18 00:26:50.73	163.43	20.29	-49.2	-64.4	3.6	1.51e+00	0	32	104	0	60	60221
2026-01-18 00:26:54.77	163.53	20.83	-49.2	-64.4	3.6	1.51e+00	0	32	104	0	60	60047
2026-01-18 00:26:58.81	163.62	21.38	-49.1	-64.3	3.6	1.51e+00	0	32	104	0	60	59251
2026-01-18 00:27:02.86	163.73	21.95	-48.9	-64.2	3.6	1.51e+00	0	32	104	0	60	58735
2026-01-18 00:27:06.89	163.83	22.53	-48.9	-64.1	3.5	1.51e+00	0	32	104	0	60	58018
2026-01-18 00:27:10.93	163.94	23.12	-49.0	-64.2	3.6	1.51e+00	0	32	104	0	60	58821
2026-01-18 00:27:14.97	164.05	23.72	-49.2	-64.4	3.6	1.51e+00	0	32	104	0	60	60140
2026-01-18 00:27:19.01	164.16	24.34	-49.2	-64.4	3.6	1.51e+00	0	32	104	0	60	59847
2026-01-18 00:27:23.05	164.28	24.97	-49.2	-64.4	3.6	1.51e+00	0	32	104	0	60	60235
2026-01-18 00:27:27.09	164.41	25.62	-49.1	-64.3	3.6	1.51e+00	0	32	104	0	60	59527
2026-01-18 00:27:31.13	164.54	26.29	-49.4	-64.6	3.6	1.51e+00	0	32	104	0	60	61551
2026-01-18 00:27:35.17	164.67	26.97	-49.2	-64.4	3.6	1.51e+00	0	32	104	0	60	60225
2026-01-18 00:27:39.21	164.81	27.67	-49.2	-64.4	3.6	1.51e+00	0	32	104	0	60	60168
2026-01-18 00:27:43.25	164.95	28.39	-49.2	-64.4	3.6	1.51e+00	0	32	104	0	60	59842
2026-01-18 00:27:47.29	165.10	29.12	-49.2	-64.4	3.6	1.51e+00	0	32	104	0	60	59949
2026-01-18 00:27:51.33	165.26	29.88	-48.9	-64.2	3.6	1.51e+00	0	32	104	0	60	58650
2026-01-18 00:27:55.37	165.42	30.65	-49.0	-64.2	3.6	1.51e+00	0	32	104	0	60	58858
2026-01-18 00:27:59.41	165.59	31.45	-49.3	-64.6	3.6	1.51e+00	0	32	104	0	60	61179
2026-01-18 00:28:03.45	165.77	32.27	-49.7	-65.0	3.6	1.51e+00	0	32	104	0	60	64127
2026-01-18 00:28:07.49	165.96	33.11	-49.3	-64.5	3.6	1.51e+00	0	32	104	0	60	60823
2026-01-18 00:28:11.52	166.15	33.98	-49.3	-64.5	3.6	1.51e+00	0	32	104	0	60	60658
2026-01-18 00:28:15.56	166.36	34.87	-49.3	-64.6	3.6	1.51e+00	0	32	104	0	60	61418
2026-01-18 00:28:19.60	166.58	35.78	-49.2	-64.4	3.6	1.51e+00	0	32	104	0	60	60254
2026-01-18 00:28:23.64	166.81	36.72	-49.3	-64.5	3.6	1.51e+00	0	32	104	0	60	60681
2026-01-18 00:28:27.67	167.05	37.69	-49.2	-64.5	3.6	1.51e+00	0	32	104	0	60	60383
2026-01-18 00:28:31.71	167.31	38.69	-49.4	-64.6	3.6	1.51e+00	0	32	104	0	60	61120
2026-01-18 00:28:35.74	167.58	39.71	-49.4	-64.7	3.6	1.51e+00	0	33	104	0	60	61982
2026-01-18 00:28:39.78	167.87	40.77	-49.2	-64.5	3.6	1.51e+00	0	32	104	0	60	60711
2026-01-18 00:28:43.82	168.17	41.86	-49.4	-64.7	3.6	1.51e+00	0	32	104	0	60	61963
2026-01-18 00:28:47.86	168.50	42.98	-49.5	-64.7	3.6	1.51e+00	0	32	104	0	60	62379
2026-01-18 00:28:51.90	168.85	44.14	-49.1	-64.3	3.6	1.51e+00	0	32	104	0	60	59353
2026-01-18 00:28:55.93	169.23	45.32	-49.1	-64.3	3.6	1.51e+00	0	32	104	0	60	59524
2026-01-18 00:28:59.96	169.63	46.54	-49.1	-64.3	3.6	1.51e+00	0	32	104	0	60	59459
2026-01-18 00:29:04.00	170.07	47.80	-49.0	-64.2	3.6	1.51e+00	0	32	104	0	60	58820
2026-01-18 00:29:08.03	170.54	49.09	-49.0	-64.3	3.6	1.51e+00	0	32	104	0	60	58986
2026-01-18 00:29:12.07	171.05	50.43	-49.0	-64.2	3.6	1.51e+00	0	33	104	0	60	58928
2026-01-18 00:29:16.11	171.62	51.79	-49.1	-64.3	3.6	1.51e+00	0	32	104	0	60	59302
2026-01-18 00:29:20.15	172.23	53.20	-49.3	-64.6	3.6	1.51e+00	0	32	104	0	60	61117
2026-01-18 00:29:24.18	172.90	54.64	-49.2	-64.4	3.6	1.51e+00	0	32	104	0	60	60240
2026-01-18 00:29:28.23	173.65	56.12	-49.3	-64.6	3.6	1.51e+00	0	32	104	0	60	61286
2026-01-18 00:29:32.27	174.48	57.63	-49.3	-64.6	3.6	1.51e+00	0	32	104	0	60	61124
2026-01-18 00:29:36.31	175.41	59.18	-49.1	-64.4	3.6	1.51e+00	0	32	104	0	60	59873
2026-01-18 00:29:40.35	176.45	60.76	-49.1	-64.3	3.6	1.51e+00	0	32	104	0	60	59033
2026-01-18 00:29:44.38	177.63	62.37	-49.1	-64.4	3.6	1.51e+00	0	32	104	0	60	59948
2026-01-18 00:29:48.42	178.97	64.01	-49.3	-64.5	3.6	1.51e+00	0	33	104	0	60	61004
2026-01-18 00:29:52.46	180.52	65.67	-49.0	-64.3	3.6	1.51e+00	0	32	104	0	60	59151
2026-01-18 00:29:56.50	182.33	67.35	-49.3	-64.5	3.6	1.51e+00	0	33	104	0	60	60741
2026-01-18 00:30:00.53	184.44	69.03	-49.1	-64.3	3.6	1.51e+00	0	32	104	0	60	59340
2026-01-18 00:30:04.57	186.95	70.72	-49.1	-64.3	3.6	1.51e+00	0	33	104	0	60	59540
2026-01-18 00:30:08.61	189.98	72.39	-49.2	-64.4	3.6	1.51e+00	0	33	104	0	60	60191
2026-01-18 00:30:12.64	193.66	74.03	-49.1	-64.4	3.6	1.51e+00	0	33	104	0	60	59725
2026-01-18 00:30:16.68	198.21	75.61	-49.2	-64.4	3.5	1.51e+00	0	32	104	0	60	60189
2026-01-18 00:30:20.72	203.89	77.11	-49.1	-64.4	3.6	1.51e+00	0	33	104	0	60	60064
2026-01-18 00:30:24.76	211.02	78.46	-49.3	-64.5	3.6	1.51e+00	0	32	104	0	60	61021
2026-01-18 00:30:28.80	219.90	79.60	-49.2	-64.4	3.6	1.51e+00	0	33	104	0	60	60208
2026-01-18 00:30:32.83	230.67	80.45	-49.3	-64.5	3.6	1.51e+00	0	32	104	0	60	60871
2026-01-18 00:30:36.87	243.06	80.91	-49.4	-64.6	3.6	1.51e+00	0	33	104	0	60	61236
2026-01-18 00:30:40.91	256.12	80.92	-49.4	-64.6	3.6	1.51e+00	0	32	104	0	60	61448
2026-01-18 00:30:44.95	268.57	80.48	-49.3	-64.6	3.6	1.51e+00	0	33	104	0	60	61413
2026-01-18 00:30:48.98	279.43	79.65	-49.5	-64.7	3.6	1.51e+00	0	33	104	0	60	62159
2026-01-18 00:30:53.02	288.42	78.53	-49.8	-64.9	3.6	1.51e+00	0	33	104	0	60	63860
2026-01-18 00:30:57.06	295.62	77.18	-49.2	-64.5	3.6	1.51e+00	0	33	104	0	60	60498
2026-01-18 00:31:01.10	301.37	75.70	-49.1	-64.4	3.6	1.51e+00	0	32	104	0	60	59707
2026-01-18 00:31:05.14	305.97	74.12	-49.0	-64.3	3.6	1.51e+00	0	33	104	0	60	59000
2026-01-18 00:31:09.18	309.69	72.48	-49.2	-64.4	3.6	1.51e+00	0	33	104	0	60	60161
2026-01-18 00:31:13.22	312.75	70.81	-49.4	-64.7	3.6	1.51e+00	0	33	104	0	60	61756
2026-01-18 00:31:17.26	315.29	69.13	-49.4	-64.6	3.6	1.51e+00	0	33	104	0	60	61616
2026-01-18 00:31:21.31	317.42	67.44	-49.2	-64.4	3.6	1.51e+00	0	33	104	0	60	59847
2026-01-18 00:31:25.34	319.24	65.77	-49.4	-64.6	3.6	1.51e+00	0	33	104	0	60	61477
2026-01-18 00:31:29.38	320.80	64.12	-49.2	-64.5	3.6	1.51e+00	0	33	104	0	60	60365
2026-01-18 00:31:33.42	322.15	62.48	-49.3	-64.5	3.6	1.51e+00	0	33	104	0	60	60872
2026-01-18 00:31:37.46	323.34	60.87	-49.6	-64.9	3.6	1.51e+00	0	32	104	0	60	63448
2026-01-18 00:31:41.50	324.39	59.29	-49.6	-64.8	3.6	1.51e+00	0	33	104	0	60	62897
2026-01-18 00:31:45.54	325.32	57.75	-49.3	-64.5	3.6	1.51e+00	0	33	104	0	60	60890
2026-01-18 00:31:49.58	326.15	56.24	-49.3	-64.5	3.6	1.51e+00	0	33	104	0	60	60538
2026-01-18 00:31:53.62	326.90	54.76	-49.1	-64.3	3.6	1.51e+00	0	33	104	0	60	59604
2026-01-18 00:31:57.66	327.58	53.32	-49.7	-64.8	3.6	1.51e+00	0	33	104	0	60	63172
2026-01-18 00:32:01.70	328.20	51.92	-49.4	-64.7	3.6	1.51e+00	0	33	104	0	60	62037
2026-01-18 00:32:05.74	328.76	50.55	-49.6	-64.8	3.6	1.51e+00	0	33	104	0	60	62694
2026-01-18 00:32:09.78	329.28	49.23	-49.8	-65.1	3.6	1.51e+00	0	33	104	0	60	64831
2026-01-18 00:32:13.82	329.75	47.93	-49.4	-64.6	3.6	1.51e+00	0	32	104	0	60	61548
2026-01-18 00:32:17.86	330.19	46.68	-49.3	-64.5	3.6	1.51e+00	0	33	104	0	60	60915
2026-01-18 00:32:21.90	330.60	45.46	-49.7	-64.9	3.6	1.51e+00	0	32	104	0	60	63712
2026-01-18 00:32:25.94	330.98	44.27	-49.2	-64.4	3.6	1.51e+00	0	33	104	0	60	60315
2026-01-18 00:32:29.97	331.33	43.12	-49.6	-64.8	3.6	1.51e+00	0	33	104	0	60	62850
2026-01-18 00:32:34.00	331.66	42.00	-49.4	-64.6	3.6	1.51e+00	0	33	104	0	60	61269
2026-01-18 00:32:38.04	331.97	40.92	-49.4	-64.7	3.6	1.51e+00	0	33	104	0	60	61778
2026-01-18 00:32:42.07	332.26	39.86	-49.3	-64.6	3.6	1.51e+00	0	33	104	0	60	61040
2026-01-18 00:32:46.11	332.53	38.84	-49.5	-64.7	3.6	1.51e+00	0	33	104	0	60	62440
2026-01-18 00:32:50.15	332.79	37.84	-49.2	-64.5	3.6	1.51e+00	0	33	104	0	60	60476
2026-01-18 00:32:54.18	333.04	36.88	-49.5	-64.8	3.6	1.51e+00	0	33	104	0	60	62555
2026-01-18 00:32:58.22	333.27	35.94	-49.4	-64.6	3.6	1.51e+00	0	33	104	0	60	61609
2026-01-18 00:33:02.25	333.49	35.03	-49.4	-64.6	3.6	1.51e+00	0	32	104	0	60	61524
2026-01-18 00:33:06.29	333.69	34.14	-49.4	-64.6	3.6	1.51e+00	0	33	104	0	60	61243
2026-01-18 00:33:10.33	333.89	33.27	-49.3	-64.5	3.6	1.51e+00	0	33	104	0	60	60727
2026-01-18 00:33:14.37	334.08	32.43	-49.5	-64.7	3.6	1.51e+00	0	33	104	0	60	62151
2026-01-18 00:33:18.41	334.26	31.61	-49.5	-64.7	3.6	1.51e+00	0	33	104	0	60	61954
2026-01-18 00:33:22.45	334.43	30.82	-49.3	-64.5	3.6	1.51e+00	0	33	104	0	60	60904
2026-01-18 00:33:26.49	334.60	30.04	-49.7	-64.9	3.6	1.51e+00	0	33	104	0	60	63680
2026-01-18 00:33:30.53	334.76	29.29	-49.7	-65.0	3.6	1.51e+00	0	33	104	0	60	64320
2026-01-18 00:33:34.56	334.91	28.56	-49.4	-64.6	3.6	1.51e+00	0	33	104	0	60	61460
2026-01-18 00:33:38.60	335.06	27.84	-49.1	-64.3	3.6	1.51e+00	0	33	104	0	60	59301
2026-01-18 00:33:42.64	335.20	27.14	-49.2	-64.5	3.6	1.51e+00	0	33	104	0	60	60559
2026-01-18 00:33:46.69	335.33	26.46	-49.2	-64.4	3.6	1.51e+00	0	33	104	0	60	60233
2026-01-18 00:33:50.73	335.46	25.80	-49.1	-64.4	3.6	1.51e+00	0	33	104	0	60	59691
2026-01-18 00:33:54.77	335.59	25.15	-49.3	-64.5	3.6	1.51e+00	0	33	104	0	60	60670
2026-01-18 00:33:58.80	335.71	24.52	-49.4	-64.7	3.6	1.51e+00	0	33	104	0	60	61927
2026-01-18 00:34:02.84	335.83	23.90	-49.2	-64.5	3.6	1.51e+00	0	33	104	0	60	60634
2026-01-18 00:34:06.88	335.94	23.30	-49.5	-64.7	3.6	1.51e+00	0	33	104	0	60	61938
2026-01-18 00:34:10.92	336.05	22.71	-49.4	-64.7	3.6	1.51e+00	0	33	104	0	60	62365
2026-01-18 00:34:14.96	336.16	22.13	-49.3	-64.5	3.6	1.51e+00	0	33	104	0	60	61029
2026-01-18 00:34:19.00	336.26	21.57	-49.3	-64.5	3.6	1.51e+00	0	33	104	0	60	60991
2026-01-18 00:34:23.04	336.36	21.02	-49.1	-64.4	3.6	1.51e+00	0	33	104	0	60	59658
2026-01-18 00:34:27.08	336.46	20.48	-49.5	-64.7	3.5	1.51e+00	0	33	104	0	60	62385
2026-01-18 00:34:31.12	336.55	19.95	-49.3	-64.5	3.6	1.51e+00	0	33	104	0	60	60702
2026-01-18 00:34:35.16	336.64	19.43	-49.2	-64.4	3.6	1.51e+00	0	33	104	0	60	60082
2026-01-18 00:34:39.20	336.73	18.92	-49.0	-64.2	3.6	1.51e+00	0	33	104	0	60	58907
2026-01-18 00:34:43.24	336.82	18.43	-49.2	-64.5	3.6	1.51e+00	0	33	104	0	60	60361
2026-01-18 00:34:47.27	336.90	17.94	-49.1	-64.3	3.6	1.51e+00	0	33	104	0	60	59420
2026-01-18 00:34:51.31	336.99	17.46	-49.1	-64.4	3.6	1.51e+00	0	33	104	0	60	59763
2026-01-18 00:34:55.36	337.07	16.99	-49.4	-64.7	3.6	1.51e+00	0	33	104	0	60	61754
2026-01-18 00:34:59.40	337.15	16.53	-49.4	-64.7	3.6	1.51e+00	0	33	104	0	60	62009
2026-01-18 00:35:03.44	337.22	16.08	-49.6	-64.9	3.6	1.51e+00	0	33	104	0	60	63509
2026-01-18 00:35:07.47	337.30	15.64	-49.3	-64.6	3.6	1.51e+00	0	33	104	0	60	61201
2026-01-18 00:35:11.51	337.37	15.21	-50.3	-65.5	3.6	1.51e+00	0	33	104	0	60	68003
2026-01-18 00:35:15.55	337.45	14.78	-49.6	-64.9	3.6	1.51e+00	0	33	104	0	60	63471
2026-01-18 00:35:19.59	337.52	14.36	-49.6	-64.9	3.6	1.51e+00	0	33	104	0	60	63306
2026-01-18 00:35:23.62	337.58	13.95	-49.6	-64.9	3.6	1.51e+00	0	33	104	0	60	63192
2026-01-18 00:35:27.66	337.65	13.54	-49.9	-65.1	3.6	1.51e+00	0	33	104	0	60	64798
2026-01-18 00:35:31.70	337.72	13.14	-49.4	-64.7	3.6	1.51e+00	0	33	104	0	60	61855
2026-01-18 00:35:35.74	337.78	12.75	-49.2	-64.4	3.6	1.51e+00	0	33	104	0	60	60107
2026-01-18 00:35:39.77	337.85	12.36	-49.4	-64.6	3.6	1.51e+00	0	33	104	0	60	61229
2026-01-18 00:35:43.82	337.91	11.98	-49.5	-64.7	3.6	1.51e+00	0	33	104	0	60	62104
2026-01-18 00:35:47.86	337.97	11.61	-49.8	-65.1	3.6	1.51e+00	0	33	104	0	60	64786
2026-01-18 00:35:51.89	338.03	11.24	-49.7	-65.0	3.6	1.51e+00	0	33	104	0	60	64155
2026-01-18 00:35:55.93	338.09	10.88	-49.4	-64.6	3.6	1.51e+00	0	33	104	0	60	61443
2026-01-18 00:35:59.97	338.15	10.52	-49.1	-64.4	3.6	1.51e+00	0	33	104	0	60	59686
2026-01-18 00:36:04.01	338.21	10.16	-49.5	-64.8	3.6	1.51e+00	0	33	104	0	60	62752
2026-01-18 00:36:08.05	338.26	9.82	-49.8	-65.1	3.6	1.51e+00	0	33	104	0	60	65072
2026-01-18 00:36:12.09	338.32	9.47	-49.3	-64.5	3.6	1.51e+00	0	33	104	0	60	60768
2026-01-18 00:36:16.06	338.37	9.14	-49.8	-65.0	3.6	1.51e+00	0	33	104	0	60	64527
2026-01-18 00:36:20.10	338.43	8.81	-49.5	-64.7	3.6	1.51e+00	0	33	104	0	60	62324
2026-01-18 00:36:24.13	338.48	8.48	-49.6	-64.8	3.6	1.51e+00	0	33	104	0	60	62854
2026-01-18 00:36:28.17	338.53	8.15	-49.5	-64.7	3.6	1.51e+00	0	33	104	0	60	62222
2026-01-18 00:36:32.21	338.58	7.83	-49.1	-64.3	3.6	1.51e+00	0	33	104	0	60	59455
2026-01-18 00:36:36.25	338.63	7.51	-49.3	-64.5	3.6	1.51e+00	0	33	104	0	60	60585
2026-01-18 00:36:40.29	338.68	7.20	-49.7	-65.0	3.6	1.51e+00	0	33	104	0	60	64323
2026-01-18 00:36:44.32	338.73	6.89	-49.4	-64.6	3.5	1.51e+00	0	33	104	0	60	61107
2026-01-18 00:36:48.36	338.78	6.58	-49.3	-64.6	3.6	1.51e+00	0	33	104	0	60	61075
2026-01-18 00:36:52.40	338.83	6.28	-49.2	-64.5	3.6	1.51e+00	0	33	104	0	60	60893
2026-01-18 00:36:56.44	338.88	5.98	-49.5	-64.6	3.6	1.51e+00	0	33	104	0	60	61711
2026-01-18 00:37:00.48	338.92	5.69	-49.6	-64.9	3.6	1.51e+00	0	33	104	0	60	63235
2026-01-18 00:37:04.53	338.97	5.39	-49.1	-64.4	3.6	1.51e+00	0	33	104	0	60	59863
2026-01-18 00:37:08.57	339.02	5.10	-49.5	-64.7	3.6	1.51e+00	0	33	104	0	60	62366
2026-01-18 00:37:12.60	339.06	4.82	-49.2	-64.5	3.6	1.51e+00	0	33	104	0	60	60496
2026-01-18 00:37:16.64	339.11	4.54	-49.3	-64.6	3.6	1.51e+00	0	33	104	0	60	61134
2026-01-18 00:37:20.68	339.15	4.26	-49.3	-64.5	3.6	1.51e+00	0	33	104	0	60	60795
2026-01-18 00:37:24.71	339.19	3.98	-49.4	-64.7	3.6	1.51e+00	0	33	104	0	60	61943
2026-01-18 00:37:28.75	339.24	3.71	-49.3	-64.5	3.6	1.51e+00	0	33	104	0	60	60563
2026-01-18 00:37:32.79	339.28	3.43	-49.3	-64.5	3.6	1.51e+00	0	33	104	0	60	60843
2026-01-18 00:37:36.83	339.32	3.17	-49.0	-64.3	3.6	1.51e+00	0	33	104	0	60	59329
2026-01-18 00:37:40.87	339.36	2.90	-49.3	-64.5	3.6	1.51e+00	0	33	104	0	60	60524
2026-01-18 00:37:44.91	339.41	2.63	-49.2	-64.4	3.6	1.51e+00	0	33	104	0	60	59910
2026-01-18 00:37:48.94	339.45	2.37	-49.4	-64.6	3.6	1.51e+00	0	33	104	0	60	61574
2026-01-18 00:37:52.98	339.49	2.11	-49.4	-64.7	3.6	1.51e+00	0	33	104	0	60	61800
2026-01-18 00:37:57.02	339.53	1.86	-49.2	-64.5	3.6	1.51e+00	0	33	104	0	60	60432
2026-01-18 00:38:01.06	339.57	1.60	-49.2	-64.5	3.6	1.51e+00	0	33	104	0	60	60592
2026-01-18 00:38:05.10	339.61	1.35	-49.1	-64.4	3.6	1.51e+00	0	33	104	0	60	59726
2026-01-18 00:38:09.14	339.65	1.10	-49.3	-64.6	3.6	1.51e+00	0	32	104	0	60	61115
2026-01-18 00:38:13.17	339.68	0.85	-49.4	-64.7	3.6	1.51e+00	0	33	104	0	60	62266
2026-01-18 00:38:17.21	339.72	0.61	-49.7	-64.9	3.6	1.51e+00	0	33	104	0	60	63498
2026-01-18 00:38:21.25	339.76	0.36	-49.3	-64.6	3.6	1.51e+00	0	33	104	0	60	61141
2026-01-18 00:38:25.29	339.80	0.12	-49.2	-64.4	3.6	1.51e+00	0	33	104	0	60	60214

#Closed at: 2026-01-18 00:38:28
#Recorded file [0 MB]: D:/lorett/data/35029_260118_122256.dat