passes_logs/2026/01/18/R4.6S_Anadyr/R4.6S_Anadyr__20260118_113806_NOAA_21_JPSS-2_rec.log

#Pass ID: 20260118_113806_NOAA 21 (JPSS-2)
#Satellite: NOAA 21 (JPSS-2)
#Configuration: NOAA-21
#almurnet v.1.7.20251203
#Start time: 2026-01-18 11:38:09

#Version: 2.2.20231116
#Station: R4.6S_Anadyr
#Location: 177.4865 lon 64.73178 lat
#TLE: 1 54234U 22150A   26017.62066529  .00000042  00000+0  40984-4 0  9994
#TLE: 2 54234  98.7502 318.4887 0000613 271.5460  88.5645 14.19535234165189

#Time	Az	El	Level	Level2	SNR	BER	BlckErr	Temp	State	Recorded	gain1	gain2
2026-01-18 11:38:09.95	20.66	0.14	-49.2	-60.6	3.3	1.54e+00	0	30	0	0	60	37520
2026-01-18 11:38:12.97	20.94	0.26	-49.2	-62.1	3.5	1.52e+00	0	31	104	0	60	44829
2026-01-18 11:38:16.00	21.23	0.38	-49.3	-62.1	3.5	1.52e+00	0	31	104	0	60	44928
2026-01-18 11:38:19.03	21.52	0.51	-49.2	-62.1	3.5	1.52e+00	0	31	104	0	60	44459
2026-01-18 11:38:22.06	21.82	0.63	-49.1	-62.0	3.5	1.52e+00	0	31	104	0	60	44094
2026-01-18 11:38:25.09	22.11	0.75	-48.8	-61.7	3.5	1.52e+00	0	31	104	0	60	42782
2026-01-18 11:38:28.12	22.41	0.87	-48.6	-61.4	3.5	1.52e+00	0	31	104	0	60	41057
2026-01-18 11:38:31.14	22.71	1.00	-47.8	-60.6	3.5	1.52e+00	0	31	104	0	60	37725
2026-01-18 11:38:34.17	23.01	1.12	-47.5	-60.3	3.5	1.52e+00	0	31	104	0	60	36437
2026-01-18 11:38:37.19	23.31	1.24	-47.5	-60.4	3.5	1.52e+00	0	31	104	0	60	36674
2026-01-18 11:38:40.22	23.62	1.36	-47.5	-60.4	3.5	1.52e+00	0	31	104	0	60	36717
2026-01-18 11:38:43.25	23.93	1.48	-47.5	-60.4	3.5	1.52e+00	0	31	104	0	60	36565
2026-01-18 11:38:46.27	24.24	1.60	-47.5	-60.4	3.5	1.52e+00	0	31	104	0	60	36626
2026-01-18 11:38:49.30	24.55	1.73	-47.5	-60.4	3.5	1.52e+00	0	31	104	0	60	36571
2026-01-18 11:38:52.32	24.87	1.85	-47.5	-60.4	3.5	1.52e+00	0	31	104	0	60	36645
2026-01-18 11:38:55.35	25.19	1.97	-47.5	-60.4	3.5	1.52e+00	0	31	104	0	60	36590
2026-01-18 11:38:58.38	25.51	2.09	-47.5	-60.4	3.5	1.52e+00	0	31	104	0	60	36608
2026-01-18 11:39:01.40	25.83	2.21	-47.5	-60.4	3.5	1.52e+00	0	31	104	0	60	36697
2026-01-18 11:39:04.43	26.16	2.33	-47.5	-60.3	3.5	1.52e+00	0	31	104	0	60	36453
2026-01-18 11:39:07.46	26.49	2.45	-47.5	-60.3	3.5	1.51e+00	0	31	104	0	60	36424
2026-01-18 11:39:10.48	26.82	2.57	-47.5	-59.5	3.5	1.52e+00	0	32	104	0	60	33180
2026-01-18 11:39:13.51	27.15	2.69	-47.3	-58.0	3.6	1.51e+00	0	32	104	0	60	27730
2026-01-18 11:39:16.53	27.49	2.81	-42.8	-45.0	14.6	3.80e-06	122	31	0	5242880	60	6273
2026-01-18 11:39:19.56	27.83	2.93	-40.3	-41.8	17.7	0.00e+00	123	32	0	14680064	54	6110
2026-01-18 11:39:22.59	28.17	3.05	-42.2	-44.2	16.5	2.31e-04	127	31	0	24117248	60	5679
2026-01-18 11:39:25.62	28.51	3.17	-47.5	-60.2	3.5	1.51e+00	0	31	104	27262976	60	35956
2026-01-18 11:39:28.64	28.86	3.28	-39.4	-40.8	18.8	0.00e+00	120	32	0	32505856	52	6075
2026-01-18 11:39:31.67	29.21	3.40	-39.5	-40.8	18.9	0.00e+00	122	31	0	41943040	52	6100
2026-01-18 11:39:34.70	29.56	3.52	-39.4	-40.7	18.8	0.00e+00	123	31	0	51380224	52	6041
2026-01-18 11:39:37.73	29.92	3.64	-38.8	-40.1	19.4	0.00e+00	123	31	0	60817408	52	5647
2026-01-18 11:39:40.75	30.28	3.75	-39.2	-40.6	19.1	0.00e+00	123	32	0	70254592	52	5931
2026-01-18 11:39:43.78	30.64	3.87	-38.9	-40.1	19.5	0.00e+00	122	32	0	79691776	50	6342
2026-01-18 11:39:46.81	31.00	3.99	-38.7	-39.9	19.7	0.00e+00	122	32	0	89128960	50	6169
2026-01-18 11:39:49.84	31.37	4.10	-38.8	-40.1	19.5	0.00e+00	123	32	0	98566144	50	6317
2026-01-18 11:39:52.87	31.74	4.22	-38.7	-40.0	19.6	0.00e+00	120	32	0	108003328	50	6230
2026-01-18 11:39:55.90	32.11	4.33	-38.7	-39.9	19.7	0.00e+00	122	32	0	117440512	50	6165
2026-01-18 11:39:58.92	32.48	4.45	-38.7	-39.9	19.7	0.00e+00	122	32	0	126877696	50	6189
2026-01-18 11:40:01.95	32.86	4.56	-38.6	-39.9	19.8	0.00e+00	123	32	0	136314880	50	6141
2026-01-18 11:40:04.97	33.24	4.67	-38.4	-39.6	20.0	0.00e+00	122	32	0	145752064	50	5987
2026-01-18 11:40:08.00	33.62	4.79	-38.4	-39.6	20.0	0.00e+00	122	32	0	155189248	50	5992
2026-01-18 11:40:11.03	34.01	4.90	-38.5	-39.7	20.0	0.00e+00	123	32	0	164626432	50	6015
2026-01-18 11:40:14.06	34.40	5.01	-38.5	-39.7	20.0	0.00e+00	120	32	0	174063616	50	6000
2026-01-18 11:40:17.09	34.79	5.12	-38.3	-39.5	20.4	0.00e+00	122	32	0	183500800	50	5875
2026-01-18 11:40:20.12	35.18	5.23	-38.5	-39.7	20.1	0.00e+00	123	32	0	192937984	50	6064
2026-01-18 11:40:23.14	35.58	5.34	-38.5	-39.8	20.1	0.00e+00	123	32	0	202375168	50	6079
2026-01-18 11:40:26.17	35.98	5.45	-38.3	-39.5	20.4	0.00e+00	123	32	0	211812352	50	5874
2026-01-18 11:40:29.20	36.38	5.56	-38.2	-39.4	20.5	0.00e+00	123	32	0	221249536	50	5797
2026-01-18 11:40:32.23	36.79	5.67	-37.8	-38.9	20.9	0.00e+00	123	32	0	230686720	50	5494
2026-01-18 11:40:35.26	37.20	5.77	-37.8	-38.9	20.9	0.00e+00	123	32	0	240123904	48	6193
2026-01-18 11:40:38.29	37.61	5.88	-37.9	-39.0	20.9	0.00e+00	123	32	0	250609664	48	6261
2026-01-18 11:40:41.31	38.02	5.99	-38.1	-39.3	20.6	0.00e+00	122	32	0	260046848	48	6436
2026-01-18 11:40:44.34	38.44	6.09	-38.4	-39.6	20.7	0.00e+00	123	32	0	269484032	48	6706
2026-01-18 11:40:47.37	38.86	6.19	-38.2	-39.4	20.5	0.00e+00	122	32	0	278921216	48	6528
2026-01-18 11:40:50.39	39.28	6.30	-38.1	-39.2	20.6	0.00e+00	123	32	0	288358400	48	6423
2026-01-18 11:40:53.42	39.71	6.40	-38.5	-39.7	20.5	0.00e+00	123	32	0	297795584	48	6772
2026-01-18 11:40:56.45	40.14	6.50	-37.7	-38.8	21.1	0.00e+00	120	32	0	307232768	48	6134
2026-01-18 11:40:59.48	40.57	6.60	-37.7	-38.9	21.2	0.00e+00	123	32	0	316669952	48	6143
2026-01-18 11:41:02.51	41.01	6.70	-37.8	-38.9	21.1	0.00e+00	122	32	0	326107136	48	6164
2026-01-18 11:41:05.54	41.44	6.80	-37.8	-38.9	21.2	0.00e+00	123	32	0	335544320	48	6169
2026-01-18 11:41:08.57	41.89	6.89	-37.7	-38.8	21.3	0.00e+00	120	32	0	344981504	48	6068
2026-01-18 11:41:11.59	42.33	6.99	-37.7	-38.8	21.3	0.00e+00	123	32	0	354418688	48	6093
2026-01-18 11:41:14.62	42.77	7.08	-37.4	-38.5	21.6	0.00e+00	122	32	0	363855872	48	5902
2026-01-18 11:41:17.65	43.22	7.18	-37.5	-38.6	21.4	0.00e+00	122	32	0	373293056	48	5949
2026-01-18 11:41:20.68	43.68	7.27	-37.7	-38.8	21.3	0.00e+00	122	32	0	382730240	48	6095
2026-01-18 11:41:23.70	44.13	7.36	-37.4	-38.5	21.5	0.00e+00	124	32	0	392167424	48	5872
2026-01-18 11:41:26.73	44.59	7.45	-37.6	-38.7	21.4	0.00e+00	122	32	0	401604608	48	6021
2026-01-18 11:41:29.76	45.05	7.54	-37.6	-38.7	21.5	0.00e+00	120	32	0	411041792	48	6011
2026-01-18 11:41:32.79	45.51	7.63	-37.6	-38.7	21.3	0.00e+00	123	32	0	420478976	48	6009
2026-01-18 11:41:35.82	45.97	7.72	-37.9	-39.1	21.1	0.00e+00	120	32	0	429916160	48	6290
2026-01-18 11:41:38.85	46.44	7.80	-37.7	-38.8	21.4	0.00e+00	120	32	0	439353344	48	6119
2026-01-18 11:41:41.88	46.91	7.88	-37.4	-38.5	21.7	0.00e+00	122	32	0	448790528	48	5866
2026-01-18 11:41:44.91	47.39	7.97	-37.1	-38.1	22.0	0.00e+00	122	32	0	458227712	48	5645
2026-01-18 11:41:47.94	47.86	8.05	-37.3	-38.3	21.8	0.00e+00	120	32	0	467664896	48	5787
2026-01-18 11:41:50.97	48.34	8.13	-37.2	-38.2	21.9	0.00e+00	123	32	0	477102080	48	5705
2026-01-18 11:41:54.00	48.82	8.21	-37.2	-38.2	21.9	0.00e+00	123	32	0	486539264	48	5713
2026-01-18 11:41:57.02	49.31	8.28	-37.3	-38.4	21.7	0.00e+00	123	32	0	495976448	48	5797
2026-01-18 11:42:00.05	49.79	8.36	-37.0	-38.1	22.0	0.00e+00	120	32	0	505413632	48	5614
2026-01-18 11:42:03.05	50.28	8.43	-37.3	-38.4	21.8	0.00e+00	123	32	0	514850816	48	5794
2026-01-18 11:42:06.08	50.77	8.50	-37.2	-38.2	22.0	0.00e+00	123	32	0	524288000	48	5677
2026-01-18 11:42:09.11	51.26	8.57	-37.2	-38.2	21.9	0.00e+00	120	32	0	533725184	48	5712
2026-01-18 11:42:12.14	51.76	8.64	-37.2	-38.2	22.0	0.00e+00	123	32	0	543162368	48	5715
2026-01-18 11:42:15.17	52.25	8.71	-37.2	-38.3	21.8	0.00e+00	122	32	0	552599552	48	5760
2026-01-18 11:42:18.19	52.75	8.77	-37.2	-38.2	21.9	0.00e+00	122	32	0	562036736	48	5700
2026-01-18 11:42:21.22	53.25	8.84	-36.9	-38.0	22.2	0.00e+00	121	32	0	571473920	48	5538
2026-01-18 11:42:24.25	53.76	8.90	-37.1	-38.1	22.1	0.00e+00	122	32	0	580911104	48	5632
2026-01-18 11:42:27.27	54.26	8.96	-37.1	-38.2	21.9	0.00e+00	123	32	0	590348288	48	5674
2026-01-18 11:42:30.30	54.77	9.02	-37.4	-38.4	21.9	0.00e+00	123	32	0	599785472	48	5846
2026-01-18 11:42:33.34	55.28	9.08	-37.7	-38.8	21.6	0.00e+00	121	32	0	609222656	48	6094
2026-01-18 11:42:36.37	55.80	9.13	-37.4	-38.4	21.8	0.00e+00	120	32	0	618659840	48	5830
2026-01-18 11:42:39.40	56.31	9.18	-37.1	-38.1	22.0	0.00e+00	122	32	0	628097024	48	5643
2026-01-18 11:42:42.42	56.83	9.23	-37.2	-38.3	21.9	0.00e+00	123	32	0	638582784	48	5727
2026-01-18 11:42:45.45	57.34	9.28	-37.1	-38.2	22.0	0.00e+00	122	32	0	646971392	48	5661
2026-01-18 11:42:48.48	57.86	9.33	-36.9	-37.9	22.2	0.00e+00	123	32	0	657457152	48	5499
2026-01-18 11:42:51.50	58.38	9.38	-36.9	-38.0	22.2	0.00e+00	123	32	0	665845760	48	5548
2026-01-18 11:42:54.53	58.90	9.42	-37.2	-38.2	22.0	0.00e+00	122	32	0	676331520	48	5693
2026-01-18 11:42:57.56	59.43	9.46	-37.1	-38.1	22.1	0.00e+00	123	32	0	685768704	48	5631
2026-01-18 11:43:00.59	59.95	9.50	-36.9	-37.9	22.2	0.00e+00	122	32	0	695205888	48	5489
2026-01-18 11:43:03.62	60.48	9.54	-36.9	-38.0	22.2	0.00e+00	122	32	0	704643072	48	5548
2026-01-18 11:43:06.64	61.01	9.57	-37.0	-38.0	22.1	0.00e+00	120	32	0	714080256	48	5583
2026-01-18 11:43:09.67	61.54	9.61	-37.1	-38.2	22.0	0.00e+00	122	32	0	723517440	48	5661
2026-01-18 11:43:12.70	62.07	9.64	-37.0	-38.1	22.1	0.00e+00	123	32	0	732954624	48	5611
2026-01-18 11:43:15.72	62.60	9.67	-36.7	-37.7	22.4	0.00e+00	124	32	0	742391808	46	6053
2026-01-18 11:43:18.75	63.13	9.69	-36.8	-37.9	22.2	0.00e+00	123	32	0	751828992	46	6151
2026-01-18 11:43:21.78	63.66	9.72	-36.9	-37.9	22.2	0.00e+00	123	32	0	761266176	46	6173
2026-01-18 11:43:24.80	64.20	9.74	-37.0	-38.0	22.1	0.00e+00	123	32	0	770703360	46	6240
2026-01-18 11:43:27.83	64.73	9.76	-36.8	-37.8	22.2	0.00e+00	123	32	0	780140544	46	6114
2026-01-18 11:43:30.86	65.27	9.78	-36.9	-37.9	22.2	0.00e+00	122	32	0	789577728	46	6157
2026-01-18 11:43:33.89	65.80	9.79	-36.8	-37.8	22.3	0.00e+00	122	32	0	799014912	46	6112
2026-01-18 11:43:36.92	66.34	9.81	-36.9	-37.9	22.2	0.00e+00	121	32	0	808452096	46	6155
2026-01-18 11:43:39.94	66.88	9.82	-36.8	-37.8	22.2	0.00e+00	123	32	0	817889280	46	6114
2026-01-18 11:43:42.97	67.42	9.83	-37.0	-38.0	22.1	0.00e+00	123	32	0	827326464	46	6265
2026-01-18 11:43:46.00	67.95	9.84	-36.8	-37.8	22.3	0.00e+00	120	32	0	836763648	46	6106
2026-01-18 11:43:49.03	68.49	9.84	-36.8	-37.9	22.2	0.00e+00	122	32	0	846200832	46	6141
2026-01-18 11:43:52.05	69.03	9.84	-37.0	-38.0	22.2	0.00e+00	122	32	0	855638016	46	6245
2026-01-18 11:43:55.08	69.57	9.85	-36.8	-37.8	22.3	0.00e+00	122	32	0	865075200	46	6088
2026-01-18 11:43:58.11	70.11	9.84	-36.8	-37.8	22.3	0.00e+00	123	32	0	874512384	46	6103
2026-01-18 11:44:01.14	70.65	9.84	-36.7	-37.7	22.3	0.00e+00	122	32	0	883949568	46	6029
2026-01-18 11:44:04.17	71.19	9.83	-36.6	-37.6	22.4	0.00e+00	120	32	0	893386752	46	5992
2026-01-18 11:44:07.19	71.72	9.83	-36.5	-37.5	22.4	0.00e+00	122	32	0	902823936	46	5917
2026-01-18 11:44:10.22	72.26	9.82	-36.9	-38.0	22.1	0.00e+00	120	32	0	912261120	46	6207
2026-01-18 11:44:13.25	72.80	9.80	-36.6	-37.6	22.5	0.00e+00	122	32	0	921698304	46	5971
2026-01-18 11:44:16.27	73.33	9.79	-36.6	-37.6	22.6	0.00e+00	123	32	0	931135488	46	5927
2026-01-18 11:44:19.30	73.87	9.77	-36.7	-37.7	22.3	0.00e+00	123	32	0	940572672	46	6041
2026-01-18 11:44:22.33	74.41	9.75	-36.6	-37.6	22.5	0.00e+00	124	32	0	950009856	46	5960
2026-01-18 11:44:25.36	74.94	9.73	-36.7	-37.7	22.4	0.00e+00	123	32	0	959447040	46	6061
2026-01-18 11:44:28.39	75.48	9.71	-36.7	-37.8	22.4	0.00e+00	122	32	0	968884224	46	6067
2026-01-18 11:44:31.41	76.01	9.68	-36.7	-37.7	22.5	0.00e+00	122	32	0	978321408	46	6032
2026-01-18 11:44:34.44	76.54	9.65	-36.7	-37.7	22.4	0.00e+00	123	32	0	987758592	46	6039
2026-01-18 11:44:37.47	77.07	9.62	-36.7	-37.8	22.4	0.00e+00	122	32	0	997195776	46	6083
2026-01-18 11:44:40.49	77.60	9.59	-37.0	-38.1	22.2	0.00e+00	122	32	0	1006632960	46	6337
2026-01-18 11:44:43.53	78.13	9.56	-37.0	-38.1	22.1	0.00e+00	123	32	0	1016070144	46	6349
2026-01-18 11:44:46.55	78.66	9.52	-36.9	-38.0	22.2	0.00e+00	123	32	0	1025507328	46	6229
2026-01-18 11:44:49.58	79.19	9.48	-37.1	-38.2	22.1	0.00e+00	123	32	0	1034944512	46	6376
2026-01-18 11:44:52.61	79.72	9.44	-37.2	-38.3	21.9	0.00e+00	122	32	0	1044381696	46	6432
2026-01-18 11:44:55.63	80.24	9.40	-37.2	-38.2	21.9	0.00e+00	122	32	0	1053818880	46	6414
2026-01-18 11:44:58.66	80.76	9.36	-37.3	-38.3	21.8	0.00e+00	123	32	0	1064304640	46	6472
2026-01-18 11:45:01.69	81.28	9.31	-37.0	-38.0	22.1	0.00e+00	123	32	0	1073741824	46	6255
2026-01-18 11:45:04.72	81.80	9.26	-37.0	-38.1	21.9	0.00e+00	123	32	0	1083179008	46	6297
2026-01-18 11:45:07.75	82.32	9.21	-37.2	-38.3	21.7	0.00e+00	120	32	0	1092616192	46	6467
2026-01-18 11:45:10.77	82.84	9.16	-37.0	-38.1	21.9	0.00e+00	123	32	0	1102053376	46	6288
2026-01-18 11:45:13.80	83.35	9.11	-36.9	-37.9	22.0	0.00e+00	120	32	0	1111490560	46	6178
2026-01-18 11:45:16.83	83.86	9.05	-36.8	-37.9	22.1	0.00e+00	123	32	0	1120927744	46	6155
2026-01-18 11:45:19.86	84.38	8.99	-36.9	-38.0	22.1	0.00e+00	122	32	0	1130364928	46	6206
2026-01-18 11:45:22.89	84.88	8.93	-37.0	-38.0	22.1	0.00e+00	123	32	0	1139802112	46	6242
2026-01-18 11:45:25.91	85.39	8.87	-36.9	-37.9	22.0	0.00e+00	123	32	0	1149239296	46	6152
2026-01-18 11:45:28.94	85.89	8.81	-36.9	-38.0	22.0	0.00e+00	123	32	0	1158676480	46	6222
2026-01-18 11:45:31.96	86.40	8.74	-36.8	-37.9	22.2	0.00e+00	122	32	0	1168113664	46	6151
2026-01-18 11:45:34.99	86.90	8.68	-36.7	-37.8	22.3	0.00e+00	122	32	0	1177550848	46	6078
2026-01-18 11:45:38.02	87.40	8.61	-36.7	-37.7	22.4	0.00e+00	122	33	0	1186988032	46	6001
2026-01-18 11:45:41.05	87.89	8.54	-36.9	-37.9	22.2	0.00e+00	123	32	0	1196425216	46	6162
2026-01-18 11:45:44.08	88.39	8.47	-36.9	-37.9	22.2	0.00e+00	123	32	0	1205862400	46	6177
2026-01-18 11:45:47.10	88.88	8.40	-36.9	-38.0	22.1	0.00e+00	123	32	0	1215299584	46	6211
2026-01-18 11:45:50.13	89.37	8.32	-37.0	-38.0	22.0	0.00e+00	123	32	0	1224736768	46	6263
2026-01-18 11:45:53.16	89.85	8.24	-36.9	-38.0	22.0	0.00e+00	122	32	0	1234173952	46	6247
2026-01-18 11:45:56.19	90.34	8.17	-37.0	-38.0	22.0	0.00e+00	123	32	0	1243611136	46	6252
2026-01-18 11:45:59.21	90.82	8.09	-37.0	-38.1	22.0	0.00e+00	122	32	0	1253048320	46	6299
2026-01-18 11:46:02.24	91.30	8.01	-37.0	-38.1	21.9	0.00e+00	123	32	0	1262485504	46	6316
2026-01-18 11:46:05.27	91.77	7.92	-37.0	-38.2	21.8	0.00e+00	120	32	0	1271922688	46	6372
2026-01-18 11:46:08.30	92.25	7.84	-37.1	-38.4	21.6	0.00e+00	123	32	0	1281359872	46	6524
2026-01-18 11:46:11.33	92.72	7.76	-36.8	-37.9	22.1	0.00e+00	123	32	0	1290797056	46	6179
2026-01-18 11:46:14.35	93.19	7.67	-36.8	-37.9	22.1	0.00e+00	123	32	0	1300234240	46	6190
2026-01-18 11:46:17.38	93.65	7.58	-37.0	-38.1	21.9	0.00e+00	122	32	0	1309671424	46	6335
2026-01-18 11:46:20.41	94.12	7.49	-37.3	-38.4	21.7	0.00e+00	123	32	0	1319108608	46	6505
2026-01-18 11:46:23.44	94.58	7.40	-37.5	-38.6	21.5	0.00e+00	123	32	0	1328545792	46	6690
2026-01-18 11:46:26.47	95.04	7.31	-37.6	-38.7	21.4	0.00e+00	120	32	0	1337982976	46	6777
2026-01-18 11:46:29.50	95.49	7.22	-37.3	-38.4	21.6	0.00e+00	122	32	0	1347420160	46	6546
2026-01-18 11:46:32.52	95.94	7.12	-37.1	-38.2	21.8	0.00e+00	122	32	0	1356857344	46	6397
2026-01-18 11:46:35.55	96.39	7.03	-37.2	-38.4	21.7	0.00e+00	121	32	0	1366294528	46	6539
2026-01-18 11:46:38.58	96.84	6.93	-37.4	-38.6	21.5	0.00e+00	123	32	0	1375731712	46	6650
2026-01-18 11:46:41.61	97.28	6.84	-37.8	-38.9	21.2	0.00e+00	122	32	0	1385168896	48	6159
2026-01-18 11:46:44.63	97.72	6.74	-37.7	-38.8	21.1	0.00e+00	122	32	0	1394606080	48	6132
2026-01-18 11:46:47.66	98.16	6.64	-37.5	-38.7	21.2	0.00e+00	123	32	0	1404043264	48	6055
2026-01-18 11:46:50.69	98.60	6.54	-37.6	-38.8	21.1	0.00e+00	123	32	0	1413480448	48	6100
2026-01-18 11:46:53.72	99.03	6.44	-37.7	-39.0	21.1	0.00e+00	122	32	0	1422917632	48	6208
2026-01-18 11:46:56.75	99.46	6.33	-37.9	-39.0	20.9	0.00e+00	123	32	0	1432354816	48	6266
2026-01-18 11:46:59.77	99.88	6.23	-37.8	-39.0	20.9	0.00e+00	123	32	0	1441792000	48	6234
2026-01-18 11:47:02.80	100.31	6.13	-38.0	-39.2	20.9	0.00e+00	123	32	0	1451229184	48	6365
2026-01-18 11:47:05.82	100.73	6.02	-37.8	-39.0	21.0	0.00e+00	123	32	0	1461714944	48	6228
2026-01-18 11:47:08.85	101.15	5.92	-37.8	-39.0	20.9	0.00e+00	123	32	0	1470103552	48	6230
2026-01-18 11:47:11.88	101.56	5.81	-37.8	-38.9	20.7	0.00e+00	122	32	0	1480589312	48	6202
2026-01-18 11:47:14.91	101.97	5.70	-37.8	-39.1	20.7	0.00e+00	123	32	0	1488977920	48	6299
2026-01-18 11:47:17.94	102.38	5.59	-37.8	-39.0	20.9	0.00e+00	123	32	0	1499463680	48	6275
2026-01-18 11:47:20.96	102.79	5.49	-37.9	-39.1	20.7	0.00e+00	122	32	0	1508900864	48	6301
2026-01-18 11:47:23.99	103.19	5.38	-37.8	-38.9	20.7	0.00e+00	122	32	0	1518338048	48	6190
2026-01-18 11:47:27.02	103.59	5.27	-38.0	-39.3	20.6	0.00e+00	122	32	0	1527775232	48	6432
2026-01-18 11:47:30.04	103.99	5.15	-38.0	-39.3	20.6	0.00e+00	120	32	0	1537212416	48	6436
2026-01-18 11:47:33.07	104.38	5.04	-37.7	-39.0	20.7	0.00e+00	123	32	0	1546649600	48	6264
2026-01-18 11:47:36.10	104.78	4.93	-38.1	-39.2	20.6	0.00e+00	124	32	0	1556086784	48	6422
2026-01-18 11:47:39.13	105.17	4.82	-37.9	-39.4	20.4	0.00e+00	122	32	0	1565523968	48	6534
2026-01-18 11:47:42.16	105.55	4.70	-37.8	-39.5	20.2	0.00e+00	123	33	0	1574961152	48	6578
2026-01-18 11:47:45.19	105.94	4.59	-38.6	-39.8	19.9	0.00e+00	123	32	0	1584398336	48	6814
2026-01-18 11:47:48.21	106.31	4.48	-38.3	-39.8	19.8	0.00e+00	123	33	0	1593835520	48	6832
2026-01-18 11:47:51.24	106.69	4.36	-38.6	-39.9	19.6	0.00e+00	120	33	0	1603272704	48	6959
2026-01-18 11:47:54.27	107.07	4.24	-38.5	-40.1	19.4	0.00e+00	122	33	0	1612709888	50	6283
2026-01-18 11:47:57.29	107.44	4.13	-38.6	-40.1	19.4	0.00e+00	123	33	0	1622147072	50	6287
2026-01-18 11:48:00.32	107.81	4.01	-38.8	-40.4	19.0	0.00e+00	123	32	0	1631584256	50	6501
2026-01-18 11:48:03.35	108.17	3.89	-39.3	-40.8	18.7	0.00e+00	120	33	0	1641021440	50	6843
2026-01-18 11:48:06.38	108.54	3.78	-39.2	-40.7	18.6	0.00e+00	120	32	0	1650458624	50	6798
2026-01-18 11:48:09.41	108.90	3.66	-39.4	-40.8	18.6	0.00e+00	122	32	0	1659895808	50	6849
2026-01-18 11:48:12.43	109.25	3.54	-39.2	-40.7	18.4	0.00e+00	123	32	0	1669332992	50	6759
2026-01-18 11:48:15.46	109.61	3.42	-39.4	-40.9	18.2	0.00e+00	123	32	0	1678770176	50	6961
2026-01-18 11:48:18.49	109.96	3.30	-40.3	-42.0	17.3	0.00e+00	123	32	0	1688207360	52	6983
2026-01-18 11:48:21.52	110.31	3.18	-39.4	-41.3	17.5	0.00e+00	123	32	0	1697644544	52	6483
2026-01-18 11:48:24.54	110.66	3.06	-39.4	-41.3	17.3	0.00e+00	122	33	0	1707081728	52	6487
2026-01-18 11:48:27.57	111.00	2.94	-46.7	-61.1	3.5	1.52e+00	0	33	104	1713373184	60	39744
2026-01-18 11:48:30.60	111.34	2.82	-48.8	-61.8	3.5	1.52e+00	0	33	104	1713373184	60	43420
2026-01-18 11:48:33.63	111.68	2.70	-49.2	-62.1	3.5	1.52e+00	0	33	104	1713373184	60	44541
2026-01-18 11:48:36.65	112.02	2.58	-49.3	-62.2	3.5	1.52e+00	0	33	104	1713373184	60	45129
2026-01-18 11:48:39.68	112.35	2.46	-49.4	-62.2	3.5	1.52e+00	0	33	104	1713373184	60	45382
2026-01-18 11:48:42.71	112.68	2.34	-49.4	-62.2	3.5	1.52e+00	0	33	104	1713373184	60	45260
2026-01-18 11:48:45.73	113.01	2.22	-49.4	-62.3	3.5	1.52e+00	0	33	104	1713373184	60	45651
2026-01-18 11:48:48.76	113.34	2.09	-49.4	-62.2	3.5	1.52e+00	0	33	104	1713373184	60	45468
2026-01-18 11:48:51.79	113.66	1.97	-49.4	-62.2	3.5	1.52e+00	0	33	104	1713373184	60	45403
2026-01-18 11:48:54.82	113.98	1.85	-49.4	-62.2	3.5	1.51e+00	0	33	104	1713373184	60	45379
2026-01-18 11:48:57.84	114.30	1.73	-49.4	-62.3	3.5	1.52e+00	0	33	104	1713373184	60	45503
2026-01-18 11:49:00.88	114.62	1.60	-49.4	-62.2	3.5	1.52e+00	0	33	104	1713373184	60	45211
2026-01-18 11:49:03.90	114.93	1.48	-49.4	-62.2	3.5	1.52e+00	0	33	104	1713373184	60	45447
2026-01-18 11:49:06.93	115.24	1.36	-49.4	-62.2	3.5	1.52e+00	0	33	104	1713373184	60	45357
2026-01-18 11:49:09.95	115.55	1.24	-49.4	-62.2	3.5	1.52e+00	0	33	104	1713373184	60	44974
2026-01-18 11:49:12.98	115.85	1.11	-49.4	-62.2	3.5	1.52e+00	0	33	104	1713373184	60	45249
2026-01-18 11:49:16.01	116.16	0.99	-49.4	-62.2	3.5	1.52e+00	0	33	104	1713373184	60	45258
2026-01-18 11:49:19.03	116.46	0.87	-49.4	-62.2	3.5	1.52e+00	0	33	104	1713373184	60	45371
2026-01-18 11:49:22.06	116.76	0.74	-49.4	-62.2	3.5	1.52e+00	0	33	104	1713373184	60	45364
2026-01-18 11:49:25.08	117.05	0.62	-49.4	-62.2	3.5	1.52e+00	0	33	104	1713373184	60	45183
2026-01-18 11:49:28.11	117.35	0.49	-49.4	-62.2	3.5	1.52e+00	0	33	104	1713373184	60	45441
2026-01-18 11:49:31.14	117.64	0.37	-49.4	-62.2	3.5	1.52e+00	0	33	104	1713373184	60	45301
2026-01-18 11:49:34.17	117.93	0.25	-49.4	-62.2	3.5	1.52e+00	0	33	104	1713373184	60	45122
2026-01-18 11:49:37.19	118.21	0.12	-49.4	-62.2	3.5	1.52e+00	0	33	104	1713373184	60	45337
2026-01-18 11:49:40.22	118.50	-0.00	-49.4	-62.2	3.5	1.51e+00	0	33	104	1713373184	60	45356

#Closed at: 2026-01-18 11:49:42
#Recorded file [1713 MB]: D:/lorett/data/35029_260118_233809.dat