passes_logs/2026/01/18/R4.6S_Anadyr/R4.6S_Anadyr__20260118_120744_SUOMI_NPP_rec.log

#Pass ID: 20260118_120744_SUOMI NPP
#Satellite: SUOMI NPP
#Configuration: NPP
#almurnet v.1.7.20251203
#Start time: 2026-01-18 12:07:45

#Version: 2.2.20231116
#Station: R4.6S_Anadyr
#Location: 177.4865 lon 64.73178 lat
#TLE: 1 37849U 11061A   26017.57099531  .00000072  00000+0  54974-4 0  9996
#TLE: 2 37849  98.7814 319.5974 0002398  59.1749 300.9663 14.19525865737072

#Time	Az	El	Level	Level2	SNR	BER	BlckErr	Temp	State	Recorded	gain1	gain2
2026-01-18 12:07:45.52	19.61	0.05	-49.4	-61.9	3.5	1.52e+00	0	30	0	0	60	43485
2026-01-18 12:07:48.53	19.87	0.19	-49.6	-64.8	3.6	1.51e+00	0	31	104	0	60	63040
2026-01-18 12:07:51.56	20.12	0.33	-49.7	-64.8	3.6	1.51e+00	0	31	104	0	60	62839
2026-01-18 12:07:54.59	20.38	0.47	-49.7	-64.9	3.6	1.51e+00	0	32	104	0	60	63707
2026-01-18 12:07:57.62	20.63	0.60	-49.6	-64.9	3.6	1.51e+00	0	32	104	0	60	63324
2026-01-18 12:08:00.65	20.89	0.74	-49.5	-64.7	3.6	1.51e+00	0	32	104	0	60	62157
2026-01-18 12:08:03.67	21.16	0.88	-49.3	-64.5	3.6	1.51e+00	0	32	104	0	60	60812
2026-01-18 12:08:06.70	21.42	1.02	-49.0	-64.1	3.6	1.51e+00	0	32	104	0	60	58275
2026-01-18 12:08:09.73	21.69	1.16	-48.2	-63.4	3.6	1.51e+00	0	32	104	0	60	53718
2026-01-18 12:08:12.75	21.96	1.30	-47.9	-63.1	3.6	1.51e+00	0	32	104	0	60	51459
2026-01-18 12:08:15.77	22.23	1.44	-47.9	-63.1	3.6	1.51e+00	0	32	104	0	60	51369
2026-01-18 12:08:18.80	22.50	1.58	-47.9	-63.1	3.6	1.51e+00	0	32	104	0	60	51531
2026-01-18 12:08:21.83	22.78	1.72	-47.9	-63.1	3.6	1.51e+00	0	32	104	0	60	51567
2026-01-18 12:08:24.85	23.06	1.86	-47.9	-63.0	3.6	1.51e+00	0	32	104	0	60	51264
2026-01-18 12:08:27.88	23.34	2.00	-47.9	-63.0	3.6	1.51e+00	0	32	104	0	60	51210
2026-01-18 12:08:30.91	23.63	2.14	-47.9	-63.0	3.6	1.51e+00	0	32	104	0	60	50965
2026-01-18 12:08:33.94	23.91	2.28	-47.9	-63.0	3.6	1.51e+00	0	32	104	0	60	51238
2026-01-18 12:08:36.97	24.20	2.42	-47.8	-62.3	3.6	1.51e+00	0	32	104	0	60	47033
2026-01-18 12:08:39.99	24.50	2.56	-47.8	-61.5	3.6	1.51e+00	0	32	104	0	60	43054
2026-01-18 12:08:43.02	24.79	2.70	-45.8	-50.0	11.9	2.00e-03	0	32	0	3145728	60	11407
2026-01-18 12:08:46.04	25.09	2.84	-42.8	-44.8	17.2	0.00e+00	69	32	0	8388608	60	6285
2026-01-18 12:08:49.06	25.39	2.98	-44.8	-48.0	13.7	0.00e+00	0	32	0	14680064	60	9056
2026-01-18 12:08:52.08	25.69	3.12	-47.7	-62.1	3.6	6.87e-03	0	32	104	19922944	60	45846
2026-01-18 12:08:55.11	26.00	3.26	-47.9	-62.7	3.6	2.74e-05	0	32	104	22020096	60	49171
2026-01-18 12:08:58.14	26.31	3.41	-43.4	-45.6	16.5	0.00e+00	0	32	0	24117248	60	6897
2026-01-18 12:09:01.16	26.62	3.55	-42.4	-44.3	17.9	0.00e+00	0	32	0	29360128	58	6626
2026-01-18 12:09:04.19	26.93	3.69	-42.1	-43.9	18.0	0.00e+00	92	32	0	35651584	58	6354
2026-01-18 12:09:07.22	27.25	3.83	-41.9	-43.6	18.5	0.00e+00	0	32	0	40894464	56	6889
2026-01-18 12:09:10.24	27.57	3.97	-41.6	-43.2	18.9	0.00e+00	0	32	0	46137344	56	6567
2026-01-18 12:09:13.26	27.89	4.11	-40.9	-42.4	19.6	0.00e+00	0	32	0	52428800	56	5973
2026-01-18 12:09:16.28	28.22	4.25	-40.8	-42.1	19.9	0.00e+00	1	32	0	57671680	56	5827
2026-01-18 12:09:19.31	28.54	4.40	-41.1	-42.6	19.4	0.00e+00	0	32	0	63963136	56	6129
2026-01-18 12:09:22.34	28.88	4.54	-41.3	-42.8	19.1	0.00e+00	0	32	0	69206016	56	6260
2026-01-18 12:09:25.37	29.21	4.68	-41.5	-43.0	19.1	0.00e+00	44	32	0	74448896	56	6444
2026-01-18 12:09:28.39	29.55	4.82	-41.3	-42.8	19.4	0.00e+00	0	32	0	80740352	56	6279
2026-01-18 12:09:31.42	29.89	4.96	-41.3	-42.7	19.7	0.00e+00	33	32	0	85983232	56	6196
2026-01-18 12:09:34.45	30.24	5.10	-41.6	-43.1	19.3	0.00e+00	92	32	0	92274688	56	6506
2026-01-18 12:09:37.48	30.59	5.25	-41.2	-42.6	19.8	0.00e+00	0	32	0	97517568	56	6110
2026-01-18 12:09:40.50	30.94	5.39	-41.2	-42.7	19.8	0.00e+00	0	32	0	102760448	56	6175
2026-01-18 12:09:43.53	31.29	5.53	-41.3	-42.7	19.8	0.00e+00	0	32	0	109051904	56	6236
2026-01-18 12:09:46.55	31.65	5.67	-40.7	-42.0	20.2	0.00e+00	65	32	0	114294784	54	6447
2026-01-18 12:09:49.57	32.01	5.81	-40.8	-42.2	20.3	0.00e+00	0	32	0	120586240	54	6549
2026-01-18 12:09:52.60	32.37	5.95	-41.0	-42.3	20.2	0.00e+00	0	32	0	125829120	54	6682
2026-01-18 12:09:55.63	32.74	6.09	-40.6	-41.9	20.5	0.00e+00	92	32	0	132120576	54	6360
2026-01-18 12:09:58.65	33.11	6.23	-40.2	-41.3	21.0	0.00e+00	0	32	0	137363456	54	5961
2026-01-18 12:10:01.68	33.49	6.37	-40.1	-41.3	21.1	0.00e+00	0	32	0	142606336	54	5941
2026-01-18 12:10:04.71	33.86	6.51	-40.1	-41.2	21.1	0.00e+00	37	32	0	148897792	54	5887
2026-01-18 12:10:07.74	34.25	6.65	-40.0	-41.2	21.2	0.00e+00	0	32	0	154140672	54	5863
2026-01-18 12:10:10.76	34.63	6.79	-39.8	-41.0	21.5	0.00e+00	0	32	0	160432128	52	6412
2026-01-18 12:10:13.79	35.02	6.93	-39.5	-40.6	21.6	0.00e+00	0	33	0	165675008	52	6167
2026-01-18 12:10:16.81	35.41	7.07	-39.8	-40.9	21.5	0.00e+00	15	32	0	170917888	52	6388
2026-01-18 12:10:19.84	35.81	7.20	-40.1	-41.3	21.1	0.00e+00	0	32	0	177209344	52	6618
2026-01-18 12:10:22.86	36.20	7.34	-40.2	-41.4	21.1	0.00e+00	0	32	0	182452224	52	6724
2026-01-18 12:10:25.89	36.61	7.48	-40.1	-41.2	21.2	0.00e+00	92	32	0	188743680	52	6587
2026-01-18 12:10:28.92	37.01	7.62	-39.8	-41.0	21.4	0.00e+00	0	32	0	193986560	52	6409
2026-01-18 12:10:31.94	37.42	7.75	-40.1	-41.3	21.3	0.00e+00	0	32	0	199229440	52	6631
2026-01-18 12:10:34.97	37.84	7.89	-40.2	-41.3	21.2	0.00e+00	82	33	0	205520896	52	6676
2026-01-18 12:10:37.99	38.26	8.02	-40.3	-41.4	21.0	0.00e+00	57	33	0	210763776	52	6766
2026-01-18 12:10:41.01	38.68	8.16	-40.2	-41.3	21.2	0.00e+00	0	33	0	217055232	52	6668
2026-01-18 12:10:44.04	39.10	8.29	-40.0	-41.1	21.1	0.00e+00	0	33	0	222298112	52	6525
2026-01-18 12:10:47.06	39.53	8.42	-40.2	-41.3	21.2	0.00e+00	72	32	0	227540992	52	6668
2026-01-18 12:10:50.09	39.96	8.56	-40.2	-41.4	21.2	0.00e+00	0	33	0	233832448	52	6697
2026-01-18 12:10:53.12	40.40	8.69	-40.0	-41.2	21.4	0.00e+00	0	33	0	239075328	52	6561
2026-01-18 12:10:56.15	40.84	8.82	-40.1	-41.3	21.3	0.00e+00	87	33	0	245366784	52	6627
2026-01-18 12:10:59.17	41.28	8.95	-40.3	-41.4	21.1	0.00e+00	0	32	0	250609664	52	6757
2026-01-18 12:11:02.20	41.73	9.08	-40.7	-42.0	20.8	0.00e+00	0	33	0	256901120	54	6397
2026-01-18 12:11:05.23	42.19	9.21	-40.2	-41.4	21.2	0.00e+00	92	33	0	262144000	54	6020
2026-01-18 12:11:08.25	42.64	9.34	-40.1	-41.2	21.3	0.00e+00	0	33	0	267386880	54	5866
2026-01-18 12:11:11.27	43.10	9.47	-40.4	-41.7	21.0	0.00e+00	0	33	0	273678336	54	6176
2026-01-18 12:11:14.30	43.56	9.59	-40.8	-42.1	20.6	0.00e+00	0	33	0	278921216	54	6491
2026-01-18 12:11:17.32	44.03	9.72	-40.9	-42.2	20.5	0.00e+00	0	33	0	285212672	54	6589
2026-01-18 12:11:20.35	44.50	9.84	-40.7	-41.9	20.8	0.00e+00	0	33	0	290455552	54	6369
2026-01-18 12:11:23.38	44.98	9.96	-40.3	-41.5	21.2	0.00e+00	0	33	0	295698432	54	6081
2026-01-18 12:11:26.40	45.46	10.09	-40.7	-42.0	20.9	0.00e+00	84	33	0	301989888	54	6403
2026-01-18 12:11:29.43	45.94	10.21	-40.9	-42.2	20.5	0.00e+00	0	33	0	307232768	54	6591
2026-01-18 12:11:32.46	46.43	10.33	-41.1	-42.4	20.5	0.00e+00	0	33	0	313524224	54	6721
2026-01-18 12:11:35.49	46.92	10.45	-41.3	-42.7	20.2	0.00e+00	0	33	0	318767104	54	6952
2026-01-18 12:11:38.52	47.41	10.56	-41.2	-42.5	20.3	0.00e+00	0	33	0	324009984	54	6810
2026-01-18 12:11:41.55	47.91	10.68	-41.3	-42.6	20.2	0.00e+00	0	33	0	330301440	54	6923
2026-01-18 12:11:44.57	48.41	10.79	-41.4	-42.7	19.9	0.00e+00	0	33	0	335544320	54	6969
2026-01-18 12:11:47.60	48.92	10.91	-41.0	-42.3	20.6	0.00e+00	15	33	0	341835776	54	6662
2026-01-18 12:11:50.63	49.43	11.02	-40.8	-42.0	20.8	0.00e+00	0	33	0	347078656	54	6420
2026-01-18 12:11:53.66	49.95	11.13	-40.8	-42.0	20.8	0.00e+00	0	33	0	353370112	54	6454
2026-01-18 12:11:56.68	50.46	11.24	-40.8	-42.1	20.7	0.00e+00	88	33	0	358612992	54	6503
2026-01-18 12:11:59.71	50.98	11.34	-40.7	-41.9	21.0	0.00e+00	0	33	0	363855872	54	6345
2026-01-18 12:12:02.74	51.51	11.45	-40.5	-41.7	21.1	0.00e+00	0	33	0	370147328	54	6190
2026-01-18 12:12:05.77	52.04	11.55	-40.6	-41.9	21.0	0.00e+00	0	33	0	375390208	54	6329
2026-01-18 12:12:08.79	52.57	11.65	-40.9	-42.1	20.9	0.00e+00	0	33	0	381681664	54	6534
2026-01-18 12:12:11.82	53.11	11.76	-41.1	-42.4	20.5	0.00e+00	0	33	0	386924544	54	6733
2026-01-18 12:12:14.85	53.65	11.85	-40.9	-42.2	20.7	0.00e+00	0	33	0	392167424	54	6564
2026-01-18 12:12:17.88	54.19	11.95	-40.7	-41.9	20.9	0.00e+00	69	33	0	398458880	54	6340
2026-01-18 12:12:20.90	54.73	12.04	-40.5	-41.7	21.0	0.00e+00	0	33	0	403701760	54	6187
2026-01-18 12:12:23.93	55.28	12.14	-40.1	-41.2	21.6	0.00e+00	0	33	0	409993216	54	5876
2026-01-18 12:12:26.95	55.84	12.23	-39.7	-40.8	21.9	0.00e+00	91	33	0	415236096	52	6259
2026-01-18 12:12:29.98	56.39	12.32	-40.0	-41.1	21.6	0.00e+00	0	33	0	421527552	52	6529
2026-01-18 12:12:33.01	56.95	12.40	-40.3	-41.4	21.1	0.00e+00	0	33	0	426770432	52	6756
2026-01-18 12:12:36.03	57.51	12.49	-39.9	-41.0	21.8	0.00e+00	0	33	0	432013312	52	6418
2026-01-18 12:12:39.05	58.08	12.57	-39.6	-40.6	22.1	0.00e+00	0	33	0	438304768	52	6170
2026-01-18 12:12:42.08	58.65	12.65	-40.0	-41.1	21.7	0.00e+00	0	33	0	443547648	52	6477
2026-01-18 12:12:45.11	59.22	12.72	-39.8	-40.9	21.8	0.00e+00	0	33	0	449839104	52	6374
2026-01-18 12:12:48.14	59.80	12.80	-39.2	-40.2	22.3	0.00e+00	73	33	0	455081984	52	5832
2026-01-18 12:12:51.16	60.37	12.87	-40.0	-41.1	21.7	0.00e+00	0	33	0	460324864	52	6471
2026-01-18 12:12:54.19	60.95	12.94	-40.5	-41.7	21.2	0.00e+00	0	33	0	466616320	52	6965
2026-01-18 12:12:57.22	61.54	13.01	-39.7	-40.8	21.9	0.00e+00	86	33	0	471859200	52	6262
2026-01-18 12:13:00.25	62.12	13.07	-41.0	-42.3	20.7	0.00e+00	0	33	0	478150656	54	6619
2026-01-18 12:13:03.28	62.71	13.14	-42.1	-43.6	19.5	0.00e+00	0	33	0	483393536	56	6858
2026-01-18 12:13:06.31	63.30	13.20	-41.2	-42.5	20.6	0.00e+00	0	33	0	488636416	56	6068
2026-01-18 12:13:09.34	63.90	13.26	-40.6	-41.8	21.0	0.00e+00	49	33	0	494927872	54	6291
2026-01-18 12:13:12.36	64.49	13.31	-41.3	-42.6	20.4	0.00e+00	0	33	0	500170752	54	6875
2026-01-18 12:13:15.39	65.09	13.36	-40.5	-41.7	21.2	0.00e+00	0	33	0	506462208	54	6187
2026-01-18 12:13:18.41	65.68	13.41	-40.5	-41.7	21.1	0.00e+00	65	33	0	511705088	54	6178
2026-01-18 12:13:21.45	66.29	13.46	-40.7	-41.9	21.0	0.00e+00	0	33	0	517996544	54	6343
2026-01-18 12:13:24.47	66.89	13.50	-40.0	-41.1	21.7	0.00e+00	30	33	0	523239424	54	5815
2026-01-18 12:13:27.50	67.49	13.54	-39.8	-40.9	21.8	0.00e+00	92	33	0	528482304	52	6320
2026-01-18 12:13:30.52	68.10	13.58	-40.0	-41.1	21.4	0.00e+00	0	33	0	534773760	52	6488
2026-01-18 12:13:33.55	68.71	13.62	-39.7	-40.8	22.0	0.00e+00	0	33	0	540016640	52	6298
2026-01-18 12:13:36.57	69.32	13.65	-38.9	-39.9	22.7	0.00e+00	0	33	0	546308096	52	5639
2026-01-18 12:13:39.60	69.93	13.68	-39.0	-40.0	22.5	0.00e+00	0	33	0	551550976	52	5750
2026-01-18 12:13:42.63	70.54	13.70	-39.3	-40.4	22.4	0.00e+00	0	33	0	556793856	52	5968
2026-01-18 12:13:45.65	71.15	13.73	-39.6	-40.7	22.1	0.00e+00	0	33	0	563085312	52	6230
2026-01-18 12:13:48.68	71.76	13.75	-39.7	-40.8	21.9	0.00e+00	92	33	0	568328192	52	6292
2026-01-18 12:13:51.71	72.38	13.76	-39.5	-40.5	22.2	0.00e+00	0	33	0	574619648	52	6098
2026-01-18 12:13:54.73	72.99	13.78	-39.5	-40.5	22.1	0.00e+00	0	33	0	579862528	52	6091
2026-01-18 12:13:57.76	73.61	13.79	-40.0	-41.2	21.7	0.00e+00	92	33	0	585105408	52	6544
2026-01-18 12:14:00.79	74.22	13.80	-39.6	-40.7	22.0	0.00e+00	0	33	0	591396864	52	6224
2026-01-18 12:14:03.82	74.84	13.80	-39.4	-40.5	22.2	0.00e+00	0	33	0	596639744	52	6064
2026-01-18 12:14:06.85	75.46	13.81	-39.6	-40.7	22.0	0.00e+00	0	33	0	602931200	52	6189
2026-01-18 12:14:09.87	76.07	13.81	-39.3	-40.4	22.4	0.00e+00	13	33	0	608174080	52	5970
2026-01-18 12:14:12.90	76.69	13.80	-39.3	-40.3	22.4	0.00e+00	0	33	0	614465536	52	5956
2026-01-18 12:14:15.93	77.31	13.79	-39.1	-40.1	22.5	0.00e+00	0	33	0	619708416	52	5824
2026-01-18 12:14:18.95	77.92	13.78	-38.6	-39.5	23.0	0.00e+00	85	33	0	624951296	50	6083
2026-01-18 12:14:21.97	78.54	13.77	-38.5	-39.5	22.9	0.00e+00	0	33	0	631242752	50	6045
2026-01-18 12:14:25.00	79.15	13.76	-38.7	-39.7	22.5	0.00e+00	0	33	0	636485632	50	6175
2026-01-18 12:14:28.03	79.77	13.74	-38.7	-39.7	22.7	0.00e+00	89	33	0	642777088	50	6233
2026-01-18 12:14:31.05	80.38	13.72	-39.0	-40.0	22.4	0.00e+00	0	33	0	648019968	50	6412
2026-01-18 12:14:34.07	80.99	13.69	-39.0	-40.0	22.5	0.00e+00	0	33	0	653262848	50	6456
2026-01-18 12:14:37.10	81.60	13.66	-39.1	-40.2	22.5	0.00e+00	0	33	0	659554304	50	6551
2026-01-18 12:14:40.12	82.21	13.63	-39.0	-40.0	22.6	0.00e+00	72	33	0	664797184	50	6430
2026-01-18 12:14:43.15	82.82	13.60	-39.2	-40.2	22.5	0.00e+00	0	33	0	671088640	50	6580
2026-01-18 12:14:46.17	83.43	13.56	-39.0	-40.1	22.5	0.00e+00	0	33	0	676331520	50	6490
2026-01-18 12:14:49.19	84.03	13.52	-38.8	-39.8	22.7	0.00e+00	92	33	0	681574400	50	6260
2026-01-18 12:14:52.22	84.64	13.48	-38.7	-39.6	22.8	0.00e+00	0	33	0	687865856	50	6171
2026-01-18 12:14:55.24	85.24	13.43	-38.4	-39.4	23.0	0.00e+00	0	33	0	693108736	50	5997
2026-01-18 12:14:58.27	85.84	13.39	-38.2	-39.1	23.2	0.00e+00	83	33	0	699400192	50	5807
2026-01-18 12:15:01.29	86.44	13.34	-38.3	-39.2	23.1	0.00e+00	0	33	0	704643072	50	5863
2026-01-18 12:15:04.31	87.03	13.28	-38.0	-38.9	23.4	0.00e+00	0	33	0	709885952	50	5657
2026-01-18 12:15:07.34	87.63	13.23	-38.0	-39.0	23.3	0.00e+00	0	33	0	716177408	50	5718
2026-01-18 12:15:10.37	88.22	13.17	-38.2	-39.2	23.2	0.00e+00	25	33	0	721420288	50	5833
2026-01-18 12:15:13.39	88.81	13.11	-38.6	-39.6	22.8	0.00e+00	0	33	0	727711744	50	6128
2026-01-18 12:15:16.42	89.40	13.04	-38.8	-39.7	22.8	0.00e+00	0	33	0	732954624	50	6228
2026-01-18 12:15:19.45	89.99	12.98	-38.3	-39.2	23.0	0.00e+00	75	33	0	739246080	50	5880
2026-01-18 12:15:22.47	90.57	12.91	-38.1	-39.0	23.2	0.00e+00	0	33	0	744488960	50	5755
2026-01-18 12:15:25.50	91.15	12.83	-38.2	-39.1	23.3	0.00e+00	0	34	0	749731840	50	5777
2026-01-18 12:15:28.53	91.73	12.76	-37.6	-38.5	23.7	0.00e+00	21	33	0	756023296	48	6085
2026-01-18 12:15:31.55	92.30	12.68	-37.5	-38.4	23.8	0.00e+00	0	33	0	761266176	48	5996
2026-01-18 12:15:34.59	92.88	12.61	-37.8	-38.7	23.6	0.00e+00	0	33	0	767557632	48	6187
2026-01-18 12:15:37.62	93.44	12.52	-38.2	-39.2	23.2	0.00e+00	0	33	0	772800512	48	6540
2026-01-18 12:15:40.64	94.01	12.44	-38.4	-39.3	23.1	0.00e+00	72	33	0	778043392	50	5952
2026-01-18 12:15:43.67	94.57	12.36	-38.3	-39.2	23.2	0.00e+00	0	33	0	784334848	50	5860
2026-01-18 12:15:46.70	95.13	12.27	-38.4	-39.3	23.1	0.00e+00	0	33	0	789577728	50	5957
2026-01-18 12:15:49.72	95.69	12.18	-38.4	-39.3	22.9	0.00e+00	65	33	0	795869184	50	5961
2026-01-18 12:15:52.74	96.24	12.09	-38.4	-39.4	23.0	0.00e+00	0	33	0	801112064	50	5970
2026-01-18 12:15:55.77	96.79	11.99	-38.3	-39.2	23.1	0.00e+00	0	33	0	806354944	50	5886
2026-01-18 12:15:58.79	97.33	11.90	-38.9	-39.9	22.6	0.00e+00	0	33	0	812646400	50	6366
2026-01-18 12:16:01.82	97.88	11.80	-39.2	-40.3	22.3	0.00e+00	9	33	0	817889280	50	6626
2026-01-18 12:16:04.84	98.42	11.70	-39.3	-40.4	21.9	0.00e+00	6	33	0	824180736	50	6724
2026-01-18 12:16:07.87	98.95	11.60	-39.2	-40.3	22.1	0.00e+00	0	33	0	829423616	50	6642
2026-01-18 12:16:10.90	99.49	11.49	-39.8	-40.9	21.8	0.00e+00	63	33	0	835715072	52	6355
2026-01-18 12:16:13.92	100.01	11.39	-40.7	-41.9	21.0	0.00e+00	0	33	0	840957952	52	7121
2026-01-18 12:16:16.95	100.54	11.28	-40.4	-41.6	21.0	0.00e+00	0	33	0	846200832	54	6170
2026-01-18 12:16:19.97	101.06	11.17	-40.3	-41.4	21.2	0.00e+00	92	33	0	852492288	54	6021
2026-01-18 12:16:23.00	101.58	11.06	-41.1	-42.4	20.5	0.00e+00	0	33	0	857735168	54	6716
2026-01-18 12:16:26.03	102.09	10.95	-40.1	-41.3	21.3	0.00e+00	0	33	0	864026624	54	5946
2026-01-18 12:16:29.06	102.60	10.84	-39.5	-40.6	21.8	0.00e+00	2	33	0	869269504	52	6153
2026-01-18 12:16:32.08	103.11	10.72	-40.1	-41.2	21.4	0.00e+00	57	33	0	874512384	52	6615
2026-01-18 12:16:35.11	103.61	10.61	-40.7	-42.0	20.7	0.00e+00	0	33	0	880803840	54	6449
2026-01-18 12:16:38.13	104.11	10.49	-40.7	-42.2	20.4	0.00e+00	0	33	0	886046720	54	6608
2026-01-18 12:16:41.16	104.60	10.37	-40.7	-42.1	20.6	0.00e+00	43	33	0	892338176	54	6507
2026-01-18 12:16:44.18	105.09	10.25	-40.4	-41.7	21.0	0.00e+00	0	33	0	897581056	54	6245
2026-01-18 12:16:47.21	105.58	10.13	-40.7	-41.9	20.8	0.00e+00	0	33	0	902823936	54	6380
2026-01-18 12:16:50.24	106.06	10.01	-40.7	-41.9	20.6	0.00e+00	92	33	0	909115392	54	6370
2026-01-18 12:16:53.26	106.54	9.89	-40.5	-41.8	20.7	0.00e+00	0	33	0	914358272	54	6281
2026-01-18 12:16:56.29	107.01	9.76	-40.2	-41.3	21.2	0.00e+00	0	33	0	920649728	54	5952
2026-01-18 12:16:59.32	107.49	9.63	-40.2	-41.3	21.2	0.00e+00	0	33	0	925892608	54	5950
2026-01-18 12:17:02.34	107.95	9.51	-40.5	-41.7	20.8	0.00e+00	41	33	0	932184064	54	6209
2026-01-18 12:17:05.37	108.42	9.38	-41.0	-42.3	20.4	0.00e+00	0	33	0	937426944	54	6644
2026-01-18 12:17:08.40	108.88	9.25	-40.8	-42.3	20.5	0.00e+00	30	33	0	942669824	54	6633
2026-01-18 12:17:11.42	109.33	9.12	-40.5	-41.8	20.9	0.00e+00	64	33	0	948961280	54	6250
2026-01-18 12:17:14.44	109.78	8.99	-39.9	-41.1	21.3	0.00e+00	31	33	0	954204160	54	5805
2026-01-18 12:17:17.47	110.23	8.86	-40.0	-41.1	21.2	0.00e+00	30	33	0	960495616	54	5823
2026-01-18 12:17:20.50	110.67	8.73	-39.9	-41.1	21.3	0.00e+00	71	33	0	965738496	52	6477
2026-01-18 12:17:23.52	111.11	8.60	-40.0	-41.1	21.4	0.00e+00	0	33	0	970981376	52	6516
2026-01-18 12:17:26.55	111.55	8.46	-39.8	-40.9	21.4	0.00e+00	0	34	0	977272832	52	6377
2026-01-18 12:17:29.57	111.98	8.33	-40.1	-41.3	21.2	0.00e+00	92	33	0	982515712	52	6655
2026-01-18 12:17:32.60	112.41	8.19	-39.9	-41.0	21.4	0.00e+00	70	34	0	988807168	52	6446
2026-01-18 12:17:35.63	112.83	8.06	-39.6	-40.7	21.5	0.00e+00	0	34	0	994050048	52	6241
2026-01-18 12:17:38.65	113.25	7.92	-39.6	-40.8	21.5	0.00e+00	0	33	0	999292928	52	6267
2026-01-18 12:17:41.68	113.67	7.78	-39.8	-41.0	21.3	0.00e+00	43	33	0	1005584384	52	6405
2026-01-18 12:17:44.71	114.09	7.65	-40.0	-41.1	21.2	0.00e+00	0	33	0	1010827264	52	6524
2026-01-18 12:17:47.74	114.50	7.51	-39.9	-41.0	21.3	0.00e+00	0	33	0	1017118720	52	6456
2026-01-18 12:17:50.76	114.90	7.37	-39.9	-41.0	21.4	0.00e+00	91	34	0	1022361600	52	6439
2026-01-18 12:17:53.79	115.30	7.23	-40.1	-41.3	21.1	0.00e+00	0	33	0	1028653056	52	6647
2026-01-18 12:17:56.82	115.70	7.09	-40.2	-41.4	21.0	0.00e+00	0	33	0	1033895936	52	6733
2026-01-18 12:17:59.84	116.10	6.95	-40.1	-41.3	21.1	0.00e+00	0	33	0	1039138816	52	6651
2026-01-18 12:18:02.88	116.49	6.81	-40.1	-41.3	21.0	0.00e+00	0	34	0	1045430272	52	6625
2026-01-18 12:18:05.91	116.88	6.67	-40.4	-41.6	20.7	0.00e+00	0	34	0	1050673152	52	6892
2026-01-18 12:18:08.94	117.26	6.53	-40.3	-41.5	20.8	0.00e+00	0	34	0	1056964608	52	6840
2026-01-18 12:18:11.96	117.64	6.39	-40.4	-41.7	20.6	0.00e+00	92	34	0	1062207488	52	6940
2026-01-18 12:18:14.99	118.02	6.25	-40.2	-41.5	20.8	0.00e+00	0	34	0	1067450368	52	6820
2026-01-18 12:18:18.01	118.39	6.11	-40.3	-41.6	20.7	0.00e+00	0	33	0	1073741824	52	6852
2026-01-18 12:18:21.04	118.76	5.97	-40.5	-41.8	20.5	0.00e+00	92	34	0	1078984704	52	7034
2026-01-18 12:18:24.05	119.13	5.83	-40.5	-41.9	20.4	0.00e+00	0	33	0	1085276160	52	7104
2026-01-18 12:18:27.08	119.49	5.68	-40.4	-41.6	20.6	0.00e+00	0	33	0	1090519040	52	6920
2026-01-18 12:18:30.11	119.85	5.54	-40.2	-41.5	20.6	0.00e+00	0	33	0	1095761920	52	6823
2026-01-18 12:18:33.14	120.21	5.40	-40.5	-41.9	20.3	0.00e+00	65	34	0	1102053376	52	7150
2026-01-18 12:18:36.17	120.56	5.26	-41.0	-42.4	19.8	0.00e+00	0	34	0	1107296256	54	6764
2026-01-18 12:18:39.19	120.91	5.11	-41.2	-42.6	19.6	0.00e+00	0	33	0	1113587712	54	6916
2026-01-18 12:18:42.21	121.25	4.97	-41.1	-42.6	19.6	0.00e+00	65	34	0	1118830592	54	6849
2026-01-18 12:18:45.24	121.60	4.83	-41.2	-42.7	19.4	0.00e+00	0	33	0	1125122048	54	6974
2026-01-18 12:18:48.27	121.94	4.69	-41.5	-43.0	19.2	0.00e+00	0	34	0	1130364928	54	7228
2026-01-18 12:18:51.30	122.28	4.54	-42.0	-43.6	18.8	0.00e+00	92	33	0	1135607808	56	6914
2026-01-18 12:18:54.32	122.61	4.40	-42.0	-43.6	18.6	0.00e+00	0	33	0	1141899264	56	6920
2026-01-18 12:18:57.35	122.94	4.26	-41.8	-43.5	18.7	0.00e+00	0	34	0	1147142144	56	6833
2026-01-18 12:19:00.37	123.27	4.11	-41.2	-42.8	19.3	0.00e+00	0	34	0	1153433600	56	6288
2026-01-18 12:19:03.40	123.59	3.97	-41.4	-43.2	18.9	0.00e+00	61	33	0	1158676480	56	6548
2026-01-18 12:19:06.43	123.91	3.83	-41.9	-43.8	18.4	0.00e+00	0	33	0	1163919360	56	7024
2026-01-18 12:19:09.45	124.23	3.69	-42.7	-44.9	17.0	0.00e+00	0	34	0	1170210816	58	7121
2026-01-18 12:19:12.47	124.55	3.54	-43.2	-45.7	16.2	0.00e+00	92	34	0	1175453696	58	7850
2026-01-18 12:19:15.50	124.86	3.40	-42.9	-45.3	16.5	0.00e+00	0	33	0	1181745152	58	7429
2026-01-18 12:19:18.53	125.17	3.26	-42.8	-45.0	16.9	0.00e+00	0	33	0	1186988032	58	7183
2026-01-18 12:19:21.56	125.48	3.11	-42.7	-44.8	16.8	0.00e+00	92	34	0	1192230912	58	7058
2026-01-18 12:19:24.58	125.78	2.97	-48.0	-63.7	3.6	1.51e+00	0	34	104	1196425216	60	55243
2026-01-18 12:19:27.61	126.08	2.83	-49.2	-64.4	3.6	1.51e+00	0	34	104	1196425216	60	59708
2026-01-18 12:19:30.64	126.38	2.69	-49.5	-64.7	3.6	1.51e+00	0	34	104	1196425216	60	61845
2026-01-18 12:19:33.67	126.68	2.54	-49.6	-64.8	3.6	1.51e+00	0	34	104	1196425216	60	62636
2026-01-18 12:19:36.70	126.97	2.40	-49.6	-64.9	3.6	1.51e+00	0	34	104	1196425216	60	63650
2026-01-18 12:19:39.73	127.26	2.26	-49.6	-64.8	3.6	1.51e+00	0	34	104	1196425216	60	63052
2026-01-18 12:19:42.75	127.55	2.12	-49.6	-64.8	3.6	1.51e+00	0	34	104	1196425216	60	63091
2026-01-18 12:19:45.78	127.83	1.98	-49.6	-64.8	3.5	1.51e+00	0	34	104	1196425216	60	63076
2026-01-18 12:19:48.81	128.12	1.83	-49.6	-64.8	3.6	1.51e+00	0	34	104	1196425216	60	62842
2026-01-18 12:19:51.83	128.40	1.69	-49.6	-64.8	3.6	1.51e+00	0	34	104	1196425216	60	62972
2026-01-18 12:19:54.86	128.67	1.55	-49.6	-64.8	3.6	1.51e+00	0	34	104	1196425216	60	63031
2026-01-18 12:19:57.88	128.95	1.41	-49.6	-64.8	3.6	1.51e+00	0	34	104	1196425216	60	62572
2026-01-18 12:20:00.91	129.22	1.27	-49.6	-64.8	3.6	1.51e+00	0	34	104	1196425216	60	62587
2026-01-18 12:20:03.94	129.49	1.13	-49.6	-64.8	3.6	1.51e+00	0	34	104	1196425216	60	62764
2026-01-18 12:20:06.96	129.76	0.99	-49.6	-64.8	3.6	1.51e+00	0	34	104	1196425216	60	62900
2026-01-18 12:20:09.99	130.02	0.85	-49.6	-64.8	3.6	1.51e+00	0	34	104	1196425216	60	62915
2026-01-18 12:20:13.01	130.29	0.71	-49.6	-64.8	3.6	1.51e+00	0	34	104	1196425216	60	62789
2026-01-18 12:20:16.04	130.55	0.57	-49.6	-64.8	3.6	1.51e+00	0	34	104	1196425216	60	62659
2026-01-18 12:20:19.07	130.81	0.43	-49.6	-64.8	3.6	1.51e+00	0	34	104	1196425216	60	62655
2026-01-18 12:20:22.09	131.06	0.29	-49.6	-64.8	3.6	1.51e+00	0	34	104	1196425216	60	62699
2026-01-18 12:20:25.12	131.31	0.15	-49.6	-64.8	3.6	1.51e+00	0	34	104	1196425216	60	62514
2026-01-18 12:20:28.15	131.57	0.01	-49.6	-64.8	3.6	1.51e+00	0	34	104	1196425216	60	62854

#Closed at: 2026-01-18 12:20:29
#Recorded file [1196 MB]: D:/lorett/data/35029_260119_000745.dat