passes_logs/2026/01/18/R4.6S_Anadyr/R4.6S_Anadyr__20260118_222817_TY-42_rec.log

#Pass ID: 20260118_222817_TY-42
#Satellite: TY-42
#Configuration: TY-42_900M
#almurnet v.1.7.20251203
#Start time: 2026-01-18 22:28:49

#Version: 2.2.20231116
#Station: R4.6S_Anadyr
#Location: 177.4865 lon 64.73178 lat
#TLE: 1 64048U 25103A   26018.72976852  .00008010  00000-0  38191-3 0 09990
#TLE: 2 64048 097.4122 094.0771 0001867 093.5651 311.8460 15.19169237 37386

#Time	Az	El	Level	Level2	SNR	BER	BlckErr	Temp	State	Recorded	gain1	gain2
2026-01-18 22:28:49.33	21.83	2.00	-50.0	-64.8	3.5	1.51e+00	0	39	0	0	60	62877
2026-01-18 22:28:52.35	22.03	2.19	-48.8	-51.2	6.1	0.00e+00	0	40	104	0	60	44670
2026-01-18 22:28:55.38	22.23	2.39	-48.8	-51.2	6.1	0.00e+00	0	40	104	0	60	44615
2026-01-18 22:28:58.41	22.43	2.59	-48.8	-51.3	6.1	0.00e+00	0	40	104	0	60	44803
2026-01-18 22:29:01.43	22.63	2.80	-48.8	-51.2	6.1	0.00e+00	0	40	104	0	60	44674
2026-01-18 22:29:04.47	22.84	3.00	-48.8	-51.2	6.1	0.00e+00	0	40	104	0	60	44652
2026-01-18 22:29:07.49	23.05	3.21	-48.8	-51.2	6.1	0.00e+00	0	40	104	0	60	44640
2026-01-18 22:29:10.52	23.27	3.41	-48.8	-51.3	6.1	0.00e+00	0	41	104	0	60	44737
2026-01-18 22:29:13.55	23.49	3.62	-48.8	-51.2	6.1	0.00e+00	0	41	104	0	60	44566
2026-01-18 22:29:16.58	23.71	3.83	-48.8	-51.3	6.1	0.00e+00	0	41	104	0	60	45052
2026-01-18 22:29:19.61	23.94	4.05	-48.7	-51.2	6.1	0.00e+00	0	41	104	0	60	44334
2026-01-18 22:29:22.64	24.17	4.26	-48.8	-51.2	6.1	0.00e+00	0	41	104	0	60	44658
2026-01-18 22:29:25.66	24.40	4.48	-48.9	-51.4	6.1	0.00e+00	0	41	104	0	60	45320
2026-01-18 22:29:28.69	24.64	4.70	-48.8	-51.4	6.1	0.00e+00	0	41	104	0	60	45270
2026-01-18 22:29:31.72	24.88	4.92	-48.8	-51.3	6.1	0.00e+00	0	41	104	0	60	44764
2026-01-18 22:29:34.74	25.13	5.14	-48.9	-51.4	6.1	0.00e+00	0	41	104	0	60	45726
2026-01-18 22:29:37.77	25.38	5.37	-49.1	-51.5	6.1	0.00e+00	0	41	104	0	60	46122
2026-01-18 22:29:40.80	25.64	5.60	-49.0	-51.5	6.1	0.00e+00	0	41	104	0	60	46001
2026-01-18 22:29:43.82	25.90	5.82	-48.0	-50.0	6.2	0.00e+00	0	41	104	0	60	38700
2026-01-18 22:29:46.85	26.17	6.06	-46.5	-47.8	6.5	0.00e+00	0	41	104	0	60	30092
2026-01-18 22:29:49.88	26.44	6.29	-47.0	-48.6	6.3	0.00e+00	0	41	104	0	60	32784
2026-01-18 22:29:52.91	26.72	6.53	-30.8	-31.1	13.3	0.00e+00	37	41	104	0	38	15551
2026-01-18 22:29:55.94	27.00	6.77	-30.2	-30.5	13.3	0.00e+00	18	41	104	16777216	36	16357
2026-01-18 22:29:58.97	27.29	7.01	-30.8	-31.2	15.5	2.01e-02	0	42	0	327155712	36	17735
2026-01-18 22:30:02.00	27.58	7.25	-29.9	-30.4	15.7	2.37e-03	0	42	0	671088640	34	18014
2026-01-18 22:30:05.03	27.88	7.50	-29.4	-29.8	15.9	1.37e-03	0	42	0	1015021568	34	16823
2026-01-18 22:30:08.06	28.19	7.75	-29.5	-29.8	16.0	8.94e-04	0	42	0	1350565888	34	16988
2026-01-18 22:30:11.09	28.50	8.00	-29.7	-30.0	16.0	7.74e-04	0	42	0	1694498816	34	17396
2026-01-18 22:30:14.12	28.82	8.26	-30.2	-30.6	15.8	1.09e-03	0	42	0	2038431744	34	18436
2026-01-18 22:30:17.15	29.15	8.52	-29.5	-29.9	16.0	1.47e-03	0	42	0	2382364672	34	17169
2026-01-18 22:30:20.18	29.48	8.78	-29.2	-29.6	16.1	8.28e-04	0	42	0	2717908992	34	16574
2026-01-18 22:30:23.21	29.82	9.04	-27.6	-28.0	16.4	2.78e-04	0	42	0	3061841920	30	17384
2026-01-18 22:30:26.24	30.17	9.31	-27.4	-27.9	16.5	7.62e-05	0	42	0	3397386240	30	17026
2026-01-18 22:30:29.26	30.52	9.58	-27.5	-27.9	16.5	4.35e-05	0	42	0	3741319168	30	17048
2026-01-18 22:30:32.29	30.88	9.85	-27.4	-27.8	16.5	4.35e-05	0	42	0	4085252096	30	16942
2026-01-18 22:30:35.32	31.26	10.13	-27.2	-27.6	16.6	8.71e-05	0	43	0	4420796416	30	16534
2026-01-18 22:30:38.35	31.63	10.41	-27.2	-27.6	16.6	1.63e-05	0	42	0	4764729344	30	16536
2026-01-18 22:30:41.38	32.02	10.69	-27.1	-27.5	16.7	2.17e-05	0	43	0	5100273664	30	16385
2026-01-18 22:30:44.41	32.42	10.98	-27.0	-27.5	16.7	1.63e-05	0	43	0	5444206592	30	16255
2026-01-18 22:30:47.44	32.83	11.27	-26.5	-27.0	16.8	1.08e-05	0	43	0	5788139520	28	17212
2026-01-18 22:30:50.47	33.24	11.56	-26.6	-27.1	16.7	1.63e-05	0	43	0	6123683840	28	17429
2026-01-18 22:30:53.49	33.66	11.85	-26.5	-26.9	16.8	1.63e-05	0	43	0	6467616768	28	17071
2026-01-18 22:30:56.51	34.10	12.15	-26.4	-26.8	16.8	1.08e-05	0	43	0	6803161088	28	16955
2026-01-18 22:30:59.54	34.55	12.46	-26.3	-26.8	16.8	2.17e-05	0	43	0	7147094016	28	16908
2026-01-18 22:31:02.57	35.00	12.76	-26.5	-26.9	16.8	1.08e-05	0	43	0	7482638336	28	17146
2026-01-18 22:31:05.60	35.47	13.07	-26.4	-26.9	16.7	2.17e-05	0	43	0	7826571264	28	17011
2026-01-18 22:31:08.62	35.95	13.39	-26.3	-26.7	16.8	5.40e-06	0	43	0	8170504192	28	16748
2026-01-18 22:31:11.65	36.44	13.71	-26.3	-26.7	16.8	1.08e-05	0	43	0	8506048512	28	16765
2026-01-18 22:31:14.68	36.95	14.03	-25.9	-26.4	16.9	0.00e+00	0	43	0	8849981440	28	16055
2026-01-18 22:31:17.71	37.46	14.36	-25.7	-26.2	16.9	5.40e-06	0	43	0	9193914368	26	17642
2026-01-18 22:31:20.74	37.99	14.68	-25.5	-26.0	17.0	0.00e+00	0	43	0	9529458688	26	17230
2026-01-18 22:31:23.77	38.54	15.02	-25.3	-25.8	17.0	0.00e+00	0	43	0	9873391616	26	16846
2026-01-18 22:31:26.80	39.10	15.36	-25.2	-25.6	17.0	0.00e+00	0	43	0	10208935936	26	16616
2026-01-18 22:31:29.82	39.67	15.70	-25.0	-25.5	17.1	0.00e+00	0	43	0	10552868864	26	16308
2026-01-18 22:31:32.85	40.26	16.04	-24.8	-25.3	17.1	0.00e+00	0	43	0	10896801792	26	15922
2026-01-18 22:31:35.88	40.86	16.39	-25.0	-25.4	17.1	0.00e+00	0	43	0	11232346112	26	16184
2026-01-18 22:31:38.91	41.48	16.74	-24.8	-25.2	17.2	0.00e+00	0	43	0	11576279040	24	17782
2026-01-18 22:31:41.94	42.12	17.10	-25.0	-25.5	17.1	0.00e+00	0	43	0	11920211968	24	18221
2026-01-18 22:31:44.97	42.78	17.46	-24.3	-24.8	17.2	0.00e+00	0	43	0	12255756288	24	16836
2026-01-18 22:31:48.00	43.45	17.82	-24.3	-24.7	17.2	0.00e+00	0	43	0	12599689216	24	16768
2026-01-18 22:31:51.02	44.14	18.19	-24.0	-24.5	17.3	0.00e+00	0	43	0	12935233536	24	16283
2026-01-18 22:31:54.05	44.85	18.56	-23.8	-24.3	17.3	0.00e+00	0	43	0	13279166464	22	17823
2026-01-18 22:31:57.08	45.58	18.93	-23.7	-24.2	17.4	0.00e+00	0	43	0	13614710784	22	17700
2026-01-18 22:32:00.11	46.33	19.31	-23.6	-24.0	17.4	0.00e+00	0	43	0	13958643712	22	17350
2026-01-18 22:32:03.14	47.11	19.69	-23.4	-23.9	17.4	0.00e+00	0	43	0	14302576640	22	17192
2026-01-18 22:32:06.17	47.90	20.07	-23.1	-23.6	17.4	0.00e+00	0	43	0	14638120960	22	16593
2026-01-18 22:32:09.20	48.72	20.45	-23.1	-23.6	17.4	0.00e+00	0	43	0	14982053888	22	16513
2026-01-18 22:32:12.23	49.56	20.84	-23.0	-23.5	17.4	0.00e+00	0	43	0	15317598208	22	16303
2026-01-18 22:32:15.25	50.42	21.23	-23.0	-23.5	17.5	0.00e+00	0	43	0	15661531136	22	16316
2026-01-18 22:32:18.28	51.31	21.61	-22.6	-23.2	17.5	0.00e+00	0	43	0	16005464064	20	17617
2026-01-18 22:32:21.31	52.23	22.00	-22.5	-22.9	17.4	0.00e+00	0	43	0	16349396992	20	17199
2026-01-18 22:32:24.34	53.17	22.40	-22.4	-22.9	17.4	0.00e+00	0	43	0	16684941312	20	17174
2026-01-18 22:32:27.37	54.13	22.79	-22.2	-22.7	17.5	0.00e+00	0	43	0	17028874240	20	16741
2026-01-18 22:32:30.39	55.13	23.17	-22.2	-22.7	17.5	0.00e+00	0	43	0	17372807168	20	16630
2026-01-18 22:32:33.42	56.15	23.56	-22.1	-22.6	17.5	0.00e+00	0	43	0	17708351488	20	16443
2026-01-18 22:32:36.45	57.20	23.95	-21.8	-22.3	17.5	0.00e+00	0	43	0	18052284416	20	15909
2026-01-18 22:32:39.48	58.28	24.34	-21.6	-22.1	17.5	0.00e+00	0	43	0	18387828736	18	17469
2026-01-18 22:32:42.51	59.39	24.72	-21.4	-21.9	17.5	0.00e+00	0	43	0	18731761664	18	17177
2026-01-18 22:32:45.54	60.52	25.10	-21.2	-21.7	17.5	0.00e+00	0	43	0	19075694592	18	16788
2026-01-18 22:32:48.57	61.69	25.47	-21.1	-21.6	17.5	0.00e+00	0	43	0	19411238912	18	16519
2026-01-18 22:32:51.60	62.89	25.84	-21.1	-21.6	17.5	0.00e+00	0	43	0	19755171840	18	16561
2026-01-18 22:32:54.62	64.12	26.20	-21.1	-21.6	17.6	0.00e+00	0	43	0	20090716160	18	16468
2026-01-18 22:32:57.65	65.38	26.56	-20.8	-21.3	17.6	0.00e+00	0	43	0	20434649088	18	16013
2026-01-18 22:33:00.68	66.67	26.90	-20.7	-21.2	17.6	0.00e+00	0	43	0	20770193408	16	17714
2026-01-18 22:33:03.71	67.99	27.24	-20.7	-21.1	17.6	0.00e+00	0	43	0	21114126336	16	17551
2026-01-18 22:33:06.74	69.34	27.57	-20.7	-21.2	17.6	0.00e+00	0	44	0	21458059264	16	17668
2026-01-18 22:33:09.77	70.72	27.88	-20.7	-21.1	17.6	0.00e+00	0	43	0	21793603584	16	17572
2026-01-18 22:33:12.80	72.13	28.18	-20.4	-20.9	17.5	0.00e+00	0	43	0	22137536512	16	17140
2026-01-18 22:33:15.83	73.57	28.47	-20.2	-20.7	17.6	0.00e+00	0	43	0	22473080832	16	16644
2026-01-18 22:33:18.86	75.04	28.74	-20.1	-20.6	17.5	0.00e+00	0	43	0	22817013760	16	16474
2026-01-18 22:33:21.88	76.53	29.00	-20.0	-20.6	17.5	0.00e+00	0	43	0	23160946688	16	16432
2026-01-18 22:33:24.90	78.04	29.24	-19.9	-20.4	17.5	0.00e+00	0	43	0	23496491008	16	16185
2026-01-18 22:33:27.93	79.58	29.46	-19.9	-20.4	17.5	0.00e+00	0	44	0	23840423936	16	16133
2026-01-18 22:33:30.96	81.14	29.66	-20.0	-20.4	17.5	0.00e+00	0	43	0	24184356864	16	16234
2026-01-18 22:33:33.99	82.73	29.85	-19.8	-20.3	17.4	0.00e+00	0	43	0	24528289792	16	15975
2026-01-18 22:33:37.02	84.33	30.01	-19.9	-20.4	17.4	0.00e+00	0	43	0	24863834112	16	16145
2026-01-18 22:33:40.04	85.94	30.15	-19.6	-20.1	17.4	0.00e+00	0	44	0	25207767040	14	17492
2026-01-18 22:33:43.07	87.58	30.26	-19.6	-20.1	17.4	0.00e+00	0	43	0	25543311360	14	17497
2026-01-18 22:33:46.10	89.22	30.35	-19.5	-20.0	17.3	0.00e+00	0	43	0	25887244288	14	17260
2026-01-18 22:33:49.13	90.87	30.42	-19.7	-20.2	17.4	0.00e+00	0	44	0	26222788608	14	17629
2026-01-18 22:33:52.16	92.53	30.47	-19.7	-20.2	17.3	0.00e+00	0	43	0	26566721536	14	17616
2026-01-18 22:33:55.19	94.20	30.49	-19.6	-20.1	17.3	0.00e+00	0	43	0	26910654464	14	17470
2026-01-18 22:33:58.21	95.86	30.48	-19.7	-20.1	17.3	0.00e+00	0	44	0	27246198784	14	17584
2026-01-18 22:34:01.24	97.52	30.45	-19.7	-20.1	17.3	0.00e+00	0	43	0	27590131712	14	17572
2026-01-18 22:34:04.27	99.18	30.40	-19.9	-20.3	17.3	0.00e+00	0	43	0	27925676032	14	17904
2026-01-18 22:34:07.30	100.83	30.32	-19.8	-20.3	17.3	0.00e+00	0	43	0	28269608960	14	17861
2026-01-18 22:34:10.33	102.47	30.22	-19.9	-20.3	17.2	0.00e+00	0	43	0	28605153280	14	17890
2026-01-18 22:34:13.35	104.10	30.10	-19.9	-20.4	17.2	0.00e+00	0	44	0	28949086208	14	18014
2026-01-18 22:34:16.38	105.71	29.95	-19.9	-20.3	17.2	0.00e+00	0	44	0	29284630528	14	17996
2026-01-18 22:34:19.41	107.31	29.78	-20.0	-20.4	17.3	0.00e+00	0	44	0	29628563456	14	18193
2026-01-18 22:34:22.44	108.89	29.59	-20.1	-20.5	17.4	0.00e+00	0	43	0	29972496384	14	18396
2026-01-18 22:34:25.47	110.45	29.38	-20.1	-20.5	17.4	0.00e+00	0	44	0	30308040704	14	18392
2026-01-18 22:34:28.50	111.98	29.15	-20.2	-20.6	17.4	0.00e+00	0	43	0	30651973632	14	18485
2026-01-18 22:34:31.53	113.50	28.90	-20.3	-20.7	17.4	0.00e+00	0	44	0	30995906560	14	18787
2026-01-18 22:34:34.56	114.98	28.64	-20.4	-20.9	17.5	0.00e+00	0	43	0	31339839488	14	19087
2026-01-18 22:34:37.59	116.44	28.36	-20.5	-21.0	17.5	0.00e+00	0	44	0	31675383808	14	19302
2026-01-18 22:34:40.61	117.87	28.06	-20.5	-21.0	17.6	0.00e+00	0	43	0	32019316736	14	19340
2026-01-18 22:34:43.64	119.28	27.75	-20.5	-21.0	17.6	0.00e+00	0	43	0	32363249664	14	19336
2026-01-18 22:34:46.67	120.65	27.43	-20.6	-21.0	17.6	0.00e+00	0	44	0	32698793984	14	19455
2026-01-18 22:34:49.70	121.99	27.10	-20.7	-21.1	17.7	0.00e+00	0	43	0	33042726912	16	17602
2026-01-18 22:34:52.73	123.31	26.76	-20.7	-21.1	17.8	0.00e+00	0	43	0	33378271232	16	17502
2026-01-18 22:34:55.76	124.59	26.41	-20.8	-21.3	17.8	0.00e+00	0	43	0	33722204160	16	17829
2026-01-18 22:34:58.78	125.84	26.05	-20.8	-21.2	17.8	0.00e+00	0	44	0	34057748480	16	17689
2026-01-18 22:35:01.81	127.06	25.68	-20.9	-21.3	17.9	0.00e+00	0	44	0	34401681408	16	17925
2026-01-18 22:35:04.84	128.26	25.31	-21.0	-21.4	17.9	0.00e+00	0	43	0	34737225728	16	18165
2026-01-18 22:35:07.86	129.41	24.93	-21.1	-21.5	17.9	0.00e+00	0	44	0	35081158656	16	18423
2026-01-18 22:35:10.88	130.54	24.55	-21.3	-21.7	17.9	0.00e+00	0	44	0	35416702976	16	18773
2026-01-18 22:35:13.91	131.64	24.16	-21.5	-22.0	17.8	0.00e+00	0	43	0	35760635904	16	19347
2026-01-18 22:35:16.94	132.72	23.77	-21.6	-22.1	17.9	0.00e+00	0	44	0	36096180224	18	17429
2026-01-18 22:35:19.97	133.76	23.38	-21.7	-22.2	17.9	0.00e+00	0	44	0	36440113152	18	17696
2026-01-18 22:35:23.00	134.77	22.99	-21.8	-22.3	17.8	0.00e+00	0	44	0	36784046080	18	17857
2026-01-18 22:35:26.02	135.76	22.60	-21.8	-22.3	17.8	0.00e+00	0	44	0	37127979008	18	17912
2026-01-18 22:35:29.05	136.72	22.21	-22.0	-22.5	17.7	0.00e+00	0	44	0	37463523328	18	18272
2026-01-18 22:35:32.08	137.65	21.81	-22.1	-22.6	17.8	0.00e+00	0	44	0	37807456256	18	18440
2026-01-18 22:35:35.11	138.56	21.42	-22.3	-22.7	17.7	0.00e+00	0	44	0	38151389184	18	18839
2026-01-18 22:35:38.13	139.44	21.03	-22.2	-22.7	17.7	0.00e+00	0	44	0	38486933504	18	18752
2026-01-18 22:35:41.16	140.30	20.64	-50.0	-52.5	6.1	0.00e+00	0	43	104	38503710720	60	51763
2026-01-18 22:35:44.19	141.14	20.25	-50.0	-52.5	6.1	0.00e+00	0	43	104	38503710720	60	51701
2026-01-18 22:35:47.22	141.95	19.87	-50.0	-52.5	6.1	0.00e+00	0	43	104	38503710720	60	51591
2026-01-18 22:35:50.25	142.74	19.48	-50.0	-52.5	6.1	0.00e+00	0	43	104	38503710720	60	51586
2026-01-18 22:35:53.27	143.50	19.10	-49.9	-52.4	6.1	0.00e+00	0	43	104	38503710720	60	50946
2026-01-18 22:35:56.30	144.25	18.73	-50.0	-52.5	6.0	0.00e+00	0	43	104	38503710720	60	51353
2026-01-18 22:35:59.33	144.98	18.35	-49.9	-52.4	6.1	0.00e+00	0	43	104	38503710720	60	51062
2026-01-18 22:36:02.36	145.68	17.98	-50.0	-52.4	6.1	0.00e+00	0	43	104	38503710720	60	51107
2026-01-18 22:36:05.38	146.37	17.61	-49.9	-52.3	6.1	0.00e+00	0	43	104	38503710720	60	50577
2026-01-18 22:36:08.41	147.04	17.25	-49.9	-52.3	6.1	0.00e+00	0	43	104	38503710720	60	50668
2026-01-18 22:36:11.44	147.69	16.89	-49.9	-52.3	6.1	0.00e+00	0	43	104	38503710720	60	50673
2026-01-18 22:36:14.47	148.32	16.53	-49.9	-52.4	6.1	0.00e+00	0	43	104	38503710720	60	50865
2026-01-18 22:36:17.45	148.93	16.18	-49.9	-52.3	6.1	0.00e+00	0	43	104	38503710720	60	50531
2026-01-18 22:36:20.48	149.53	15.83	-49.9	-52.3	6.1	0.00e+00	0	43	104	38503710720	60	50506
2026-01-18 22:36:23.51	150.11	15.49	-49.8	-52.3	6.1	0.00e+00	0	43	104	38503710720	60	50588
2026-01-18 22:36:26.53	150.68	15.14	-49.8	-52.3	6.1	0.00e+00	0	43	104	38503710720	60	50339
2026-01-18 22:36:29.56	151.23	14.81	-49.8	-52.3	6.1	0.00e+00	0	43	104	38503710720	60	50210
2026-01-18 22:36:32.59	151.77	14.47	-49.8	-52.3	6.1	0.00e+00	0	43	104	38503710720	60	50242
2026-01-18 22:36:35.61	152.30	14.14	-49.8	-52.3	6.1	0.00e+00	0	43	104	38503710720	60	50442
2026-01-18 22:36:38.64	152.81	13.82	-49.7	-52.2	6.1	0.00e+00	0	43	104	38503710720	60	49909
2026-01-18 22:36:41.67	153.31	13.49	-49.6	-52.1	6.1	0.00e+00	0	43	104	38503710720	60	49553
2026-01-18 22:36:44.70	153.80	13.17	-49.5	-51.9	6.1	0.00e+00	0	43	104	38503710720	60	48437
2026-01-18 22:36:47.72	154.28	12.86	-49.0	-51.5	6.1	0.00e+00	0	43	104	38503710720	60	46087
2026-01-18 22:36:50.75	154.74	12.55	-48.8	-51.3	6.1	0.00e+00	0	43	104	38503710720	60	44732
2026-01-18 22:36:53.78	155.20	12.24	-48.8	-51.3	6.1	0.00e+00	0	43	104	38503710720	60	44750
2026-01-18 22:36:56.81	155.64	11.94	-48.9	-51.4	6.1	0.00e+00	0	43	104	38503710720	60	45479
2026-01-18 22:36:59.84	156.07	11.64	-49.1	-51.6	6.1	0.00e+00	0	43	104	38503710720	60	46349
2026-01-18 22:37:02.87	156.49	11.34	-49.6	-52.1	6.0	0.00e+00	0	43	104	38503710720	60	49132
2026-01-18 22:37:05.89	156.90	11.05	-49.6	-52.1	6.1	0.00e+00	0	43	104	38503710720	60	49325
2026-01-18 22:37:08.92	157.31	10.76	-49.6	-52.0	6.1	0.00e+00	0	43	104	38503710720	60	48813
2026-01-18 22:37:11.95	157.70	10.47	-49.6	-52.1	6.1	0.00e+00	0	43	104	38503710720	60	49360
2026-01-18 22:37:14.98	158.08	10.19	-49.6	-52.1	6.1	0.00e+00	0	43	104	38503710720	60	49158
2026-01-18 22:37:18.01	158.46	9.91	-49.6	-52.1	6.1	0.00e+00	0	43	104	38503710720	60	49373
2026-01-18 22:37:21.04	158.83	9.63	-49.6	-52.0	6.1	0.00e+00	0	43	104	38503710720	60	48727
2026-01-18 22:37:24.07	159.19	9.36	-49.6	-52.1	6.1	0.00e+00	0	43	104	38503710720	60	49215
2026-01-18 22:37:27.10	159.54	9.09	-49.6	-52.0	6.1	0.00e+00	0	43	104	38503710720	60	49038
2026-01-18 22:37:30.13	159.88	8.82	-49.6	-52.1	6.1	0.00e+00	0	43	104	38503710720	60	49440
2026-01-18 22:37:33.15	160.22	8.56	-49.5	-52.0	6.1	0.00e+00	0	43	104	38503710720	60	48847
2026-01-18 22:37:36.18	160.55	8.29	-49.5	-52.0	6.1	0.00e+00	0	43	104	38503710720	60	48784
2026-01-18 22:37:39.21	160.87	8.04	-49.5	-52.0	6.1	0.00e+00	0	43	104	38503710720	60	48672
2026-01-18 22:37:42.23	161.19	7.78	-49.5	-52.0	6.1	0.00e+00	0	43	104	38503710720	60	48928
2026-01-18 22:37:45.26	161.50	7.53	-49.4	-51.9	6.1	0.00e+00	0	43	104	38503710720	60	48302
2026-01-18 22:37:48.29	161.80	7.28	-49.5	-51.9	6.1	0.00e+00	0	43	104	38503710720	60	48428
2026-01-18 22:37:51.32	162.10	7.03	-49.4	-51.9	6.1	0.00e+00	0	43	104	38503710720	60	48125
2026-01-18 22:37:54.35	162.39	6.78	-49.5	-51.9	6.1	0.00e+00	0	43	104	38503710720	60	48252
2026-01-18 22:37:57.38	162.67	6.54	-49.4	-51.8	6.1	0.00e+00	0	43	104	38503710720	60	47747
2026-01-18 22:38:00.41	162.95	6.30	-49.4	-51.8	6.1	0.00e+00	0	43	104	38503710720	60	47758
2026-01-18 22:38:03.44	163.23	6.07	-49.3	-51.8	6.1	0.00e+00	0	43	104	38503710720	60	47590
2026-01-18 22:38:06.47	163.50	5.83	-49.4	-51.8	6.1	0.00e+00	0	43	104	38503710720	60	47742
2026-01-18 22:38:09.50	163.76	5.60	-49.3	-51.8	6.1	0.00e+00	0	43	104	38503710720	60	47686
2026-01-18 22:38:12.52	164.02	5.37	-49.2	-51.7	6.1	0.00e+00	0	43	104	38503710720	60	46980
2026-01-18 22:38:15.55	164.27	5.14	-49.2	-51.7	6.1	0.00e+00	0	43	104	38503710720	60	46981
2026-01-18 22:38:18.57	164.52	4.92	-49.2	-51.7	6.0	0.00e+00	0	43	104	38503710720	60	46922
2026-01-18 22:38:21.60	164.77	4.69	-49.2	-51.6	6.1	0.00e+00	0	43	104	38503710720	60	46723
2026-01-18 22:38:24.63	165.01	4.47	-49.0	-51.5	6.1	0.00e+00	0	43	104	38503710720	60	46138
2026-01-18 22:38:27.66	165.24	4.25	-49.1	-51.5	6.1	0.00e+00	0	43	104	38503710720	60	46229
2026-01-18 22:38:30.69	165.47	4.03	-49.0	-51.5	6.1	0.00e+00	0	43	104	38503710720	60	45988
2026-01-18 22:38:33.71	165.70	3.82	-49.1	-51.6	6.1	0.00e+00	0	43	104	38503710720	60	46350
2026-01-18 22:38:36.74	165.93	3.60	-48.8	-51.2	6.1	0.00e+00	0	43	104	38503710720	60	44665
2026-01-18 22:38:39.77	166.15	3.39	-48.9	-51.4	6.1	0.00e+00	0	43	104	38503710720	60	45250
2026-01-18 22:38:42.80	166.36	3.18	-48.7	-51.2	6.1	0.00e+00	0	43	104	38503710720	60	44303
2026-01-18 22:38:45.83	166.57	2.97	-48.8	-51.2	6.1	0.00e+00	0	43	104	38503710720	60	44550
2026-01-18 22:38:48.86	166.78	2.77	-49.3	-51.7	6.1	0.00e+00	0	43	104	38503710720	60	47308
2026-01-18 22:38:51.89	166.99	2.56	-50.0	-52.5	6.1	0.00e+00	0	43	104	38503710720	60	51377
2026-01-18 22:38:54.91	167.19	2.36	-50.3	-52.7	6.1	0.00e+00	0	43	104	38503710720	60	52999
2026-01-18 22:38:57.94	167.39	2.16	-50.4	-52.9	6.1	0.00e+00	0	43	104	38503710720	60	53940
2026-01-18 22:39:00.96	167.58	1.96	-50.4	-52.9	6.1	0.00e+00	0	43	104	38503710720	60	53952
2026-01-18 22:39:04.00	167.78	1.76	-50.4	-52.8	6.1	0.00e+00	0	43	104	38503710720	60	53752
2026-01-18 22:39:07.03	167.97	1.57	-50.4	-52.9	6.1	0.00e+00	0	43	104	38503710720	60	53794
2026-01-18 22:39:10.05	168.15	1.37	-50.4	-52.9	6.1	0.00e+00	0	43	104	38503710720	60	53880
2026-01-18 22:39:13.08	168.34	1.18	-50.4	-52.8	6.1	0.00e+00	0	43	104	38503710720	60	53640
2026-01-18 22:39:16.11	168.52	0.99	-50.4	-52.9	6.1	0.00e+00	0	43	104	38503710720	60	53908
2026-01-18 22:39:19.14	168.69	0.80	-50.4	-52.8	6.1	0.00e+00	0	43	104	38503710720	60	53650
2026-01-18 22:39:22.17	168.87	0.61	-50.4	-52.8	6.1	0.00e+00	0	43	104	38503710720	60	53637
2026-01-18 22:39:25.20	169.04	0.42	-50.4	-52.8	6.1	0.00e+00	0	43	104	38503710720	60	53659
2026-01-18 22:39:28.23	169.21	0.23	-50.4	-52.8	6.1	0.00e+00	0	43	104	38503710720	60	53758
2026-01-18 22:39:31.26	169.38	0.05	-50.4	-52.9	6.1	0.00e+00	0	43	104	38503710720	60	53799

#Closed at: 2026-01-18 22:39:32
#Recorded file [38503 MB]: D:/lorett/data/35029_260119_102849.dat