passes_logs/2026/01/18/R4.6S_Anadyr/R4.6S_Anadyr__20260118_204639_NOAA_20_JPSS-1_rec.log

#Pass ID: 20260118_204639_NOAA 20 (JPSS-1)
#Satellite: NOAA 20 (JPSS-1)
#Configuration: NOAA 20
#almurnet v.1.7.20251203
#Start time: 2026-01-18 20:46:41

#Version: 2.2.20231116
#Station: R4.6S_Anadyr
#Location: 177.4865 lon 64.73178 lat
#TLE: 1 43013U 17073A   26017.93796159  .00000077  00000+0  57252-4 0  9992
#TLE: 2 43013  98.7639 318.8464 0001390  34.9771 325.1496 14.19536703423157

#Time	Az	El	Level	Level2	SNR	BER	BlckErr	Temp	State	Recorded	gain1	gain2
2026-01-18 20:46:41.05	76.62	0.07	-49.4	-64.4	3.5	1.51e+00	0	38	0	0	60	60036
2026-01-18 20:46:45.08	76.34	0.27	-49.4	-64.6	3.6	1.51e+00	0	39	104	0	60	61480
2026-01-18 20:46:49.11	76.06	0.48	-49.4	-64.6	3.6	1.51e+00	0	39	104	0	60	61558
2026-01-18 20:46:53.16	75.77	0.69	-49.4	-64.7	3.6	1.51e+00	0	40	104	0	60	61747
2026-01-18 20:46:57.19	75.48	0.89	-49.4	-64.6	3.6	1.51e+00	0	40	104	0	60	61289
2026-01-18 20:47:01.23	75.18	1.10	-48.1	-64.4	3.6	1.51e+00	0	40	104	0	60	59679
2026-01-18 20:47:05.27	74.88	1.31	-48.3	-63.5	3.6	1.51e+00	0	40	104	0	60	54024
2026-01-18 20:47:09.31	74.57	1.52	-47.3	-62.5	3.6	1.51e+00	0	40	104	0	60	48359
2026-01-18 20:47:13.35	74.26	1.73	-47.3	-62.6	3.6	1.51e+00	0	40	104	0	60	48695
2026-01-18 20:47:17.38	73.95	1.94	-47.3	-62.5	3.6	1.51e+00	0	40	104	0	60	48376
2026-01-18 20:47:21.42	73.63	2.15	-47.3	-62.0	3.6	1.51e+00	0	40	104	0	60	45522
2026-01-18 20:47:25.46	73.30	2.36	-47.3	-62.5	3.6	1.51e+00	0	40	104	0	60	48455
2026-01-18 20:47:29.50	72.97	2.57	-47.3	-62.5	3.6	1.51e+00	0	40	104	0	60	48069
2026-01-18 20:47:33.54	72.64	2.79	-47.2	-61.1	3.6	1.51e+00	0	40	104	0	60	40814
2026-01-18 20:47:37.58	72.30	3.00	-46.9	-55.5	5.4	6.19e-01	91	40	0	1048576	60	21649
2026-01-18 20:47:41.61	71.95	3.21	-45.7	-51.0	5.5	1.50e+00	0	40	104	5242880	60	12812
2026-01-18 20:47:45.65	71.60	3.43	-43.5	-46.1	15.5	7.00e-07	0	40	104	6291456	60	7292
2026-01-18 20:47:49.68	71.25	3.65	-43.3	-45.6	16.2	0.00e+00	50	40	0	13631488	60	6925
2026-01-18 20:47:53.72	70.89	3.86	-43.2	-45.5	16.5	0.00e+00	92	40	0	20971520	60	6801
2026-01-18 20:47:57.76	70.52	4.08	-42.9	-44.9	17.2	0.00e+00	91	40	0	28311552	60	6381
2026-01-18 20:48:01.79	70.15	4.30	-42.8	-44.8	17.2	0.00e+00	0	40	0	35651584	58	7041
2026-01-18 20:48:05.83	69.77	4.52	-42.9	-45.0	17.0	0.00e+00	92	40	0	44040192	58	7246
2026-01-18 20:48:09.87	69.38	4.74	-42.8	-45.0	17.1	0.00e+00	91	40	0	51380224	58	7231
2026-01-18 20:48:13.91	68.99	4.96	-43.2	-45.3	16.9	0.00e+00	92	40	0	58720256	58	7479
2026-01-18 20:48:17.95	68.60	5.18	-42.8	-44.8	17.4	0.00e+00	0	40	0	66060288	58	7068
2026-01-18 20:48:21.99	68.20	5.40	-42.8	-44.7	17.6	0.00e+00	92	40	0	73400320	58	6962
2026-01-18 20:48:26.03	67.79	5.62	-42.9	-44.9	17.6	0.00e+00	91	40	0	81788928	58	7118
2026-01-18 20:48:30.06	67.37	5.84	-43.2	-45.2	17.2	0.00e+00	92	40	0	89128960	58	7414
2026-01-18 20:48:34.10	66.95	6.06	-42.7	-44.6	17.7	0.00e+00	20	40	0	96468992	58	6869
2026-01-18 20:48:38.14	66.52	6.29	-42.4	-44.2	18.2	0.00e+00	90	40	0	103809024	58	6614
2026-01-18 20:48:42.18	66.09	6.51	-42.2	-43.9	18.5	0.00e+00	92	40	0	112197632	58	6351
2026-01-18 20:48:46.23	65.64	6.73	-42.1	-43.7	18.7	0.00e+00	18	40	0	119537664	58	6231
2026-01-18 20:48:50.26	65.20	6.96	-42.0	-43.6	18.9	0.00e+00	0	40	0	126877696	58	6134
2026-01-18 20:48:54.30	64.74	7.18	-41.9	-43.5	19.1	0.00e+00	92	40	0	134217728	58	6089
2026-01-18 20:48:58.34	64.28	7.41	-41.8	-43.3	19.3	0.00e+00	92	40	0	141557760	56	6688
2026-01-18 20:49:02.38	63.81	7.63	-41.7	-43.2	19.5	0.00e+00	66	40	0	149946368	56	6572
2026-01-18 20:49:06.42	63.33	7.85	-41.4	-42.8	19.8	0.00e+00	0	40	0	157286400	56	6311
2026-01-18 20:49:10.45	62.84	8.08	-41.4	-42.8	19.9	0.00e+00	92	40	0	164626432	56	6284
2026-01-18 20:49:14.49	62.35	8.30	-41.6	-43.0	19.7	0.00e+00	79	40	0	171966464	56	6412
2026-01-18 20:49:18.53	61.85	8.53	-41.8	-43.3	19.4	0.00e+00	0	40	0	180355072	56	6684
2026-01-18 20:49:22.56	61.34	8.75	-41.6	-43.1	19.7	0.00e+00	91	40	0	187695104	56	6468
2026-01-18 20:49:26.60	60.82	8.98	-41.6	-43.0	19.8	0.00e+00	92	40	0	195035136	56	6420
2026-01-18 20:49:30.64	60.30	9.20	-41.3	-42.7	20.1	0.00e+00	68	40	0	202375168	56	6191
2026-01-18 20:49:34.68	59.76	9.42	-41.2	-42.6	20.2	0.00e+00	14	40	0	209715200	56	6109
2026-01-18 20:49:38.72	59.22	9.65	-41.1	-42.4	20.3	0.00e+00	92	40	0	218103808	56	6027
2026-01-18 20:49:42.75	58.67	9.87	-41.1	-42.4	20.4	0.00e+00	92	40	0	225443840	56	6007
2026-01-18 20:49:46.79	58.11	10.09	-41.1	-42.4	20.4	0.00e+00	74	40	0	232783872	56	5998
2026-01-18 20:49:50.83	57.54	10.31	-41.3	-42.7	20.3	0.00e+00	8	40	0	240123904	56	6174
2026-01-18 20:49:54.86	56.97	10.53	-41.4	-42.7	20.1	0.00e+00	92	40	0	247463936	56	6235
2026-01-18 20:49:58.90	56.38	10.75	-41.1	-42.4	20.5	0.00e+00	90	40	0	255852544	56	5978
2026-01-18 20:50:02.94	55.79	10.97	-41.3	-42.7	20.2	0.00e+00	0	40	0	263192576	56	6187
2026-01-18 20:50:06.97	55.18	11.19	-41.4	-42.8	20.0	0.00e+00	74	40	0	270532608	56	6260
2026-01-18 20:50:11.01	54.57	11.40	-41.3	-42.6	20.3	0.00e+00	91	40	0	277872640	56	6136
2026-01-18 20:50:15.05	53.95	11.62	-40.9	-42.2	20.8	0.00e+00	90	40	0	286261248	56	5861
2026-01-18 20:50:19.09	53.32	11.83	-40.7	-41.9	21.0	0.00e+00	0	40	0	293601280	56	5664
2026-01-18 20:50:23.13	52.68	12.04	-40.2	-41.3	21.5	0.00e+00	2	40	0	300941312	54	5940
2026-01-18 20:50:27.17	52.03	12.25	-40.1	-41.2	21.7	0.00e+00	90	40	0	308281344	54	5850
2026-01-18 20:50:31.21	51.37	12.46	-39.9	-41.0	21.9	0.00e+00	89	40	0	315621376	52	6393
2026-01-18 20:50:35.24	50.70	12.67	-39.6	-40.7	22.1	0.00e+00	0	40	0	324009984	52	6204
2026-01-18 20:50:39.28	50.02	12.87	-39.7	-40.7	22.2	0.00e+00	0	40	0	331350016	52	6221
2026-01-18 20:50:43.32	49.33	13.07	-39.5	-40.5	22.4	0.00e+00	91	40	0	338690048	52	6071
2026-01-18 20:50:47.36	48.64	13.27	-39.1	-40.1	22.8	0.00e+00	91	40	0	346030080	52	5816
2026-01-18 20:50:51.40	47.93	13.47	-38.8	-39.8	23.0	0.00e+00	0	40	0	354418688	52	5610
2026-01-18 20:50:55.44	47.21	13.66	-38.7	-39.7	23.0	0.00e+00	32	40	0	361758720	50	6203
2026-01-18 20:50:59.47	46.49	13.85	-38.6	-39.5	23.2	0.00e+00	92	40	0	369098752	50	6071
2026-01-18 20:51:03.51	45.75	14.04	-38.7	-39.7	23.0	0.00e+00	0	40	0	376438784	50	6207
2026-01-18 20:51:07.55	45.01	14.22	-38.9	-39.9	22.9	0.00e+00	5	40	0	383778816	50	6373
2026-01-18 20:51:11.58	44.26	14.40	-39.1	-40.1	22.7	0.00e+00	92	40	0	392167424	50	6532
2026-01-18 20:51:15.62	43.49	14.58	-39.2	-40.2	22.7	0.00e+00	92	40	0	399507456	50	6556
2026-01-18 20:51:19.66	42.72	14.75	-39.0	-39.9	22.9	0.00e+00	74	40	0	406847488	50	6372
2026-01-18 20:51:23.70	41.94	14.92	-39.0	-39.9	22.9	0.00e+00	14	40	0	414187520	50	6364
2026-01-18 20:51:27.74	41.15	15.08	-38.7	-39.7	23.2	0.00e+00	92	40	0	422576128	50	6174
2026-01-18 20:51:31.77	40.35	15.24	-38.5	-39.5	23.3	0.00e+00	92	40	0	429916160	50	6044
2026-01-18 20:51:35.81	39.54	15.40	-38.6	-39.6	23.3	0.00e+00	76	40	0	437256192	50	6118
2026-01-18 20:51:39.86	38.73	15.55	-38.5	-39.5	22.4	0.00e+00	7	40	0	444596224	50	6036
2026-01-18 20:51:43.89	37.91	15.69	-38.4	-39.3	23.5	0.00e+00	92	40	0	451936256	50	5947
2026-01-18 20:51:47.93	37.07	15.83	-38.3	-39.2	23.6	0.00e+00	92	40	0	460324864	50	5867
2026-01-18 20:51:51.97	36.23	15.97	-38.4	-39.3	23.5	0.00e+00	0	40	0	467664896	50	5925
2026-01-18 20:51:56.01	35.39	16.10	-38.5	-39.4	23.4	0.00e+00	0	40	0	475004928	50	6012
2026-01-18 20:52:00.04	34.53	16.22	-38.7	-39.6	23.3	0.00e+00	92	40	0	482344960	50	6140
2026-01-18 20:52:04.08	33.67	16.34	-38.6	-39.5	23.2	0.00e+00	6	40	0	490733568	50	6094
2026-01-18 20:52:08.12	32.81	16.45	-38.6	-39.5	23.3	0.00e+00	0	40	0	498073600	50	6097
2026-01-18 20:52:12.16	31.93	16.55	-38.8	-39.7	23.2	0.00e+00	0	40	0	505413632	50	6215
2026-01-18 20:52:16.20	31.05	16.65	-39.1	-40.0	22.9	0.00e+00	91	40	0	512753664	50	6454
2026-01-18 20:52:20.24	30.16	16.74	-39.7	-40.7	22.3	0.00e+00	5	40	0	520093696	50	6993
2026-01-18 20:52:24.28	29.27	16.83	-39.0	-40.0	22.9	0.00e+00	4	40	0	528482304	50	6418
2026-01-18 20:52:28.31	28.38	16.91	-38.8	-39.8	23.1	0.00e+00	90	40	0	535822336	50	6281
2026-01-18 20:52:32.35	27.48	16.98	-39.2	-40.2	22.7	0.00e+00	13	40	0	543162368	50	6549
2026-01-18 20:52:36.39	26.58	17.04	-39.3	-40.3	22.6	0.00e+00	0	40	0	550502400	50	6644
2026-01-18 20:52:40.43	25.67	17.10	-39.5	-40.5	22.4	0.00e+00	74	40	0	558891008	50	6803
2026-01-18 20:52:44.47	24.76	17.15	-39.4	-40.4	22.5	0.00e+00	92	40	0	566231040	50	6767
2026-01-18 20:52:48.51	23.84	17.19	-39.7	-40.8	22.3	0.00e+00	5	40	0	573571072	52	6256
2026-01-18 20:52:52.54	22.93	17.23	-39.6	-40.6	22.4	0.00e+00	6	40	0	580911104	52	6128
2026-01-18 20:52:56.58	22.01	17.26	-39.4	-40.4	22.6	0.00e+00	74	40	0	588251136	52	6002
2026-01-18 20:53:00.62	21.09	17.28	-39.5	-40.5	22.4	0.00e+00	92	40	0	596639744	52	6054
2026-01-18 20:53:04.65	20.17	17.29	-39.5	-40.6	22.4	0.00e+00	10	40	0	603979776	52	6113
2026-01-18 20:53:08.69	19.25	17.29	-39.5	-40.5	22.5	0.00e+00	11	40	0	611319808	52	6095
2026-01-18 20:53:12.73	18.33	17.29	-39.3	-40.3	22.3	0.00e+00	5	40	0	618659840	52	5940
2026-01-18 20:53:16.77	17.41	17.28	-39.3	-40.2	22.7	0.00e+00	92	40	0	627048448	52	5893
2026-01-18 20:53:20.81	16.49	17.26	-39.5	-40.5	22.5	0.00e+00	0	40	0	634388480	52	6062
2026-01-18 20:53:24.84	15.57	17.24	-39.1	-40.0	22.9	0.00e+00	76	40	0	641728512	52	5747
2026-01-18 20:53:28.88	14.65	17.21	-39.2	-40.2	22.7	0.00e+00	6	40	0	649068544	52	5862
2026-01-18 20:53:32.92	13.74	17.16	-38.9	-39.9	23.1	0.00e+00	92	40	0	656408576	52	5637
2026-01-18 20:53:36.95	12.83	17.12	-38.9	-39.8	23.1	0.00e+00	0	40	0	664797184	52	5615
2026-01-18 20:53:40.99	11.92	17.06	-38.6	-39.5	23.3	0.00e+00	0	40	0	672137216	50	6102
2026-01-18 20:53:45.03	11.02	17.00	-38.2	-39.1	23.8	0.00e+00	41	40	0	679477248	50	5771
2026-01-18 20:53:49.07	10.11	16.93	-38.2	-39.1	23.7	0.00e+00	92	40	0	686817280	50	5797
2026-01-18 20:53:53.10	9.22	16.85	-38.5	-39.4	23.5	0.00e+00	2	40	0	695205888	50	6027
2026-01-18 20:53:57.14	8.33	16.77	-38.6	-39.5	23.3	0.00e+00	0	40	0	702545920	50	6078
2026-01-18 20:54:01.18	7.44	16.68	-38.8	-39.8	23.2	0.00e+00	74	40	0	709885952	50	6262
2026-01-18 20:54:05.22	6.56	16.58	-38.9	-39.8	23.1	0.00e+00	92	40	0	717225984	50	6302
2026-01-18 20:54:09.26	5.69	16.48	-38.9	-39.8	23.1	0.00e+00	2	40	0	724566016	50	6305
2026-01-18 20:54:13.30	4.82	16.37	-39.2	-40.2	22.8	0.00e+00	2	40	0	732954624	50	6562
2026-01-18 20:54:17.33	3.96	16.26	-39.3	-40.3	22.6	0.00e+00	92	40	0	740294656	50	6631
2026-01-18 20:54:21.38	3.10	16.14	-39.4	-40.4	22.5	0.00e+00	76	40	0	747634688	50	6733
2026-01-18 20:54:25.42	2.25	16.01	-39.4	-40.4	22.6	0.00e+00	7	40	0	754974720	50	6705
2026-01-18 20:54:29.45	1.41	15.88	-38.8	-39.8	23.1	0.00e+00	7	40	0	763363328	50	6283
2026-01-18 20:54:33.49	0.58	15.74	-38.9	-39.8	22.9	0.00e+00	92	40	0	770703360	50	6297
2026-01-18 20:54:37.53	359.75	15.59	-38.9	-39.9	22.7	0.00e+00	5	40	0	778043392	50	6346
2026-01-18 20:54:41.57	358.94	15.45	-39.2	-40.2	22.5	0.00e+00	4	40	0	785383424	50	6603
2026-01-18 20:54:45.61	358.13	15.29	-39.0	-40.0	22.9	0.00e+00	68	40	0	792723456	50	6396
2026-01-18 20:54:49.64	357.33	15.13	-38.9	-39.9	22.9	0.00e+00	92	40	0	801112064	50	6357
2026-01-18 20:54:53.68	356.54	14.97	-39.3	-40.3	22.6	0.00e+00	7	40	0	808452096	50	6676
2026-01-18 20:54:57.72	355.76	14.80	-39.6	-40.7	22.2	0.00e+00	0	40	0	815792128	50	6951
2026-01-18 20:55:01.75	354.98	14.63	-39.3	-40.4	22.5	0.00e+00	5	40	0	823132160	50	6700
2026-01-18 20:55:05.79	354.22	14.46	-39.7	-40.7	22.2	0.00e+00	89	40	0	831520768	50	6967
2026-01-18 20:55:09.83	353.46	14.28	-39.7	-40.7	22.1	0.00e+00	71	40	0	838860800	50	6969
2026-01-18 20:55:13.87	352.72	14.10	-39.8	-40.9	22.1	0.00e+00	9	40	0	846200832	52	6332
2026-01-18 20:55:17.91	351.98	13.91	-40.0	-41.1	21.8	0.00e+00	7	40	0	853540864	52	6515
2026-01-18 20:55:21.95	351.25	13.72	-40.3	-41.4	21.5	0.00e+00	91	40	0	860880896	52	6763
2026-01-18 20:55:25.99	350.54	13.53	-40.8	-42.0	20.9	0.00e+00	74	40	0	869269504	54	6404
2026-01-18 20:55:30.03	349.83	13.33	-40.9	-42.2	20.6	0.00e+00	8	40	0	876609536	54	6548
2026-01-18 20:55:34.07	349.13	13.14	-40.9	-42.2	20.6	0.00e+00	73	40	0	883949568	54	6561
2026-01-18 20:55:38.11	348.44	12.94	-42.0	-43.4	19.9	0.00e+00	90	40	0	891289600	56	6749
2026-01-18 20:55:42.15	347.76	12.73	-41.6	-43.0	20.1	0.00e+00	2	40	0	899678208	56	6415
2026-01-18 20:55:46.19	347.09	12.53	-41.8	-43.2	19.5	0.00e+00	2	40	0	907018240	56	6599
2026-01-18 20:55:50.23	346.43	12.32	-42.0	-43.5	19.5	0.00e+00	75	40	0	914358272	56	6814
2026-01-18 20:55:54.27	345.78	12.11	-42.2	-43.7	19.4	0.00e+00	0	40	0	921698304	56	6971
2026-01-18 20:55:58.31	345.14	11.90	-42.5	-44.1	18.8	0.00e+00	0	40	0	929038336	56	7281
2026-01-18 20:56:02.35	344.50	11.69	-42.2	-43.7	19.2	0.00e+00	0	40	0	937426944	56	6956
2026-01-18 20:56:06.39	343.88	11.47	-41.3	-42.7	20.3	0.00e+00	92	40	0	944766976	56	6177
2026-01-18 20:56:10.43	343.27	11.26	-41.2	-42.5	20.5	0.00e+00	2	40	0	952107008	56	6060
2026-01-18 20:56:14.47	342.66	11.04	-40.9	-42.2	20.8	0.00e+00	6	40	0	959447040	56	5856
2026-01-18 20:56:18.51	342.07	10.82	-40.5	-41.7	21.1	0.00e+00	5	40	0	967835648	54	6242
2026-01-18 20:56:22.54	341.48	10.61	-40.6	-41.8	21.0	0.00e+00	92	40	0	975175680	54	6291
2026-01-18 20:56:26.58	340.90	10.39	-40.4	-41.6	21.1	0.00e+00	0	40	0	982515712	54	6145
2026-01-18 20:56:30.62	340.33	10.16	-40.0	-41.1	21.6	0.00e+00	70	40	0	989855744	54	5801
2026-01-18 20:56:34.65	339.77	9.94	-39.7	-40.8	21.9	0.00e+00	67	40	0	997195776	52	6277
2026-01-18 20:56:38.69	339.22	9.72	-39.6	-40.7	21.9	0.00e+00	91	40	0	1005584384	52	6205
2026-01-18 20:56:42.73	338.68	9.50	-39.5	-40.6	22.1	0.00e+00	6	40	0	1012924416	52	6147
2026-01-18 20:56:46.77	338.15	9.28	-39.5	-40.6	22.0	0.00e+00	72	40	0	1020264448	52	6116
2026-01-18 20:56:50.81	337.62	9.05	-39.4	-40.5	21.9	0.00e+00	0	40	0	1027604480	52	6071
2026-01-18 20:56:54.85	337.10	8.83	-39.7	-40.7	21.9	0.00e+00	92	40	0	1035993088	52	6238
2026-01-18 20:56:58.89	336.59	8.61	-39.7	-40.8	21.8	0.00e+00	16	40	0	1043333120	52	6247
2026-01-18 20:57:02.92	336.09	8.38	-39.8	-41.0	21.6	0.00e+00	0	40	0	1050673152	52	6410
2026-01-18 20:57:06.96	335.60	8.16	-40.0	-41.1	21.4	0.00e+00	66	40	0	1058013184	52	6531
2026-01-18 20:57:11.00	335.11	7.93	-40.2	-41.4	21.1	0.00e+00	92	40	0	1065353216	52	6753
2026-01-18 20:57:15.04	334.63	7.71	-40.3	-41.5	21.0	0.00e+00	0	40	0	1073741824	52	6840
2026-01-18 20:57:19.08	334.16	7.48	-40.1	-41.3	21.1	0.00e+00	12	40	0	1081081856	52	6663
2026-01-18 20:57:23.11	333.70	7.26	-40.1	-41.3	21.2	0.00e+00	92	40	0	1088421888	52	6654
2026-01-18 20:57:27.15	333.24	7.04	-40.4	-41.6	20.9	0.00e+00	90	40	0	1095761920	52	6877
2026-01-18 20:57:31.19	332.79	6.81	-40.7	-42.0	20.6	0.00e+00	0	40	0	1104150528	52	7188
2026-01-18 20:57:35.22	332.35	6.59	-40.8	-42.2	20.4	0.00e+00	11	40	0	1111490560	54	6542
2026-01-18 20:57:39.26	331.91	6.37	-40.9	-42.2	20.3	0.00e+00	92	40	0	1118830592	54	6557
2026-01-18 20:57:43.30	331.48	6.15	-41.3	-42.7	19.8	0.00e+00	2	40	0	1126170624	54	6959
2026-01-18 20:57:47.34	331.06	5.92	-41.3	-42.8	19.6	0.00e+00	0	40	0	1133510656	54	7021
2026-01-18 20:57:51.38	330.65	5.70	-41.7	-43.2	19.1	0.00e+00	0	40	0	1141899264	54	7418
2026-01-18 20:57:55.42	330.24	5.48	-41.7	-43.3	19.2	0.00e+00	92	40	0	1149239296	56	6623
2026-01-18 20:57:59.46	329.84	5.26	-41.8	-43.4	19.2	0.00e+00	11	40	0	1156579328	56	6694
2026-01-18 20:58:03.50	329.44	5.04	-42.0	-43.6	18.9	0.00e+00	0	40	0	1163919360	56	6852
2026-01-18 20:58:07.54	329.05	4.82	-42.4	-44.1	18.3	0.00e+00	0	40	0	1172307968	56	7265
2026-01-18 20:58:11.57	328.67	4.60	-42.6	-44.3	18.1	0.00e+00	90	40	0	1179648000	56	7502
2026-01-18 20:58:15.61	328.29	4.38	-42.6	-44.3	18.1	0.00e+00	67	40	0	1186988032	56	7508
2026-01-18 20:58:19.65	327.91	4.16	-42.4	-44.2	18.1	0.00e+00	25	40	0	1194328064	58	6585
2026-01-18 20:58:23.68	327.55	3.95	-42.7	-44.7	17.5	0.00e+00	6	40	0	1201668096	58	6939
2026-01-18 20:58:27.71	327.19	3.73	-42.9	-45.0	17.2	0.00e+00	92	40	0	1210056704	58	7172
2026-01-18 20:58:31.75	326.83	3.51	-42.9	-44.9	17.2	0.00e+00	0	40	0	1217396736	58	7147
2026-01-18 20:58:35.79	326.48	3.30	-42.8	-44.7	17.3	0.00e+00	62	40	0	1224736768	58	7006
2026-01-18 20:58:39.82	326.14	3.09	-43.2	-45.5	16.4	0.00e+00	62	40	0	1232076800	58	7604
2026-01-18 20:58:43.86	325.80	2.87	-49.0	-64.1	3.6	1.51e+00	0	40	104	1235222528	60	58064
2026-01-18 20:58:47.90	325.46	2.66	-49.6	-64.8	3.6	1.51e+00	0	40	104	1235222528	60	62629
2026-01-18 20:58:51.94	325.13	2.45	-49.7	-64.9	3.6	1.51e+00	0	40	104	1235222528	60	63499
2026-01-18 20:58:55.98	324.81	2.23	-49.7	-64.9	3.6	1.51e+00	0	40	104	1235222528	60	63803
2026-01-18 20:59:00.02	324.49	2.02	-49.6	-64.7	3.6	1.51e+00	0	41	104	1235222528	60	62248
2026-01-18 20:59:04.06	324.17	1.81	-49.5	-64.6	3.6	1.51e+00	0	41	104	1235222528	60	61680
2026-01-18 20:59:08.10	323.86	1.60	-49.5	-64.7	3.6	1.51e+00	0	41	104	1235222528	60	62258
2026-01-18 20:59:12.14	323.56	1.39	-49.5	-64.7	3.6	1.51e+00	0	41	104	1235222528	60	62123
2026-01-18 20:59:16.18	323.26	1.18	-49.5	-64.7	3.6	1.51e+00	0	40	104	1235222528	60	62361
2026-01-18 20:59:20.22	322.96	0.98	-49.5	-64.7	3.6	1.51e+00	0	40	104	1235222528	60	62360
2026-01-18 20:59:24.26	322.67	0.77	-49.5	-64.7	3.6	1.51e+00	0	40	104	1235222528	60	62053
2026-01-18 20:59:28.30	322.38	0.56	-49.5	-64.7	3.6	1.51e+00	0	41	104	1235222528	60	62126
2026-01-18 20:59:32.33	322.09	0.36	-49.5	-64.7	3.6	1.51e+00	0	40	104	1235222528	60	62242
2026-01-18 20:59:36.37	321.81	0.15	-49.5	-64.7	3.6	1.51e+00	0	40	104	1235222528	60	62190
2026-01-18 20:59:40.41	321.54	-0.05	-49.5	-64.7	3.6	1.51e+00	0	40	104	1235222528	60	62366

#Closed at: 2026-01-18 20:59:41
#Recorded file [1235 MB]: D:/lorett/data/35029_260119_084641.dat