passes_logs/2026/01/18/R4.6S_Anadyr/R4.6S_Anadyr__20260118_234335_SUOMI_NPP_rec.log

#Pass ID: 20260118_234335_SUOMI NPP
#Satellite: SUOMI NPP
#Configuration: NPP
#almurnet v.1.7.20251203
#Start time: 2026-01-18 23:43:38

#Version: 2.2.20231116
#Station: R4.6S_Anadyr
#Location: 177.4865 lon 64.73178 lat
#TLE: 1 37849U 11061A   26018.62828014  .00000065  00000+0  51921-4 0  9990
#TLE: 2 37849  98.7815 320.6456 0002372  57.2989 302.8415 14.19526102737226

#Time	Az	El	Level	Level2	SNR	BER	BlckErr	Temp	State	Recorded	gain1	gain2
2026-01-18 23:43:38.06	142.25	0.16	-50.0	-62.5	3.4	1.52e+00	0	38	0	0	60	47038
2026-01-18 23:43:42.09	142.20	0.40	-49.9	-65.1	3.6	1.51e+00	0	39	104	0	60	65287
2026-01-18 23:43:46.13	142.15	0.64	-50.0	-65.2	3.6	1.51e+00	0	39	104	0	60	65516
2026-01-18 23:43:50.17	142.10	0.89	-49.9	-65.1	3.6	1.51e+00	0	39	104	0	60	64843
2026-01-18 23:43:54.21	142.04	1.14	-49.7	-64.8	3.6	1.51e+00	0	40	104	0	60	63064
2026-01-18 23:43:58.25	141.99	1.39	-49.1	-64.3	3.6	1.51e+00	0	40	104	0	60	59518
2026-01-18 23:44:02.28	141.93	1.65	-46.5	-62.4	3.6	1.51e+00	0	40	104	0	60	47728
2026-01-18 23:44:06.31	141.88	1.90	-46.8	-62.0	3.6	1.51e+00	0	40	104	0	60	45498
2026-01-18 23:44:10.35	141.82	2.16	-46.8	-61.9	3.6	1.51e+00	0	40	104	0	60	44986
2026-01-18 23:44:14.39	141.76	2.42	-46.8	-61.9	3.6	1.51e+00	0	40	104	0	60	44966
2026-01-18 23:44:18.42	141.70	2.68	-46.8	-62.0	3.6	1.51e+00	0	40	104	0	60	45303
2026-01-18 23:44:22.47	141.63	2.95	-46.7	-61.7	3.6	1.51e+00	0	40	104	0	60	44012
2026-01-18 23:44:26.51	141.57	3.22	-46.7	-60.9	3.6	1.51e+00	0	40	104	0	60	40143
2026-01-18 23:44:30.54	141.51	3.49	-46.6	-61.6	3.6	1.51e+00	0	40	104	0	60	43487
2026-01-18 23:44:34.58	141.44	3.76	-46.3	-61.9	3.6	1.51e+00	0	40	104	0	60	45030
2026-01-18 23:44:38.62	141.37	4.04	-46.6	-61.8	3.6	1.51e+00	0	40	104	0	60	44283
2026-01-18 23:44:42.66	141.30	4.32	-46.9	-60.9	3.6	1.51e+00	0	40	104	0	60	39974
2026-01-18 23:44:46.70	141.23	4.60	-46.9	-61.4	3.6	1.51e+00	0	40	104	0	60	42348
2026-01-18 23:44:50.74	141.16	4.89	-46.6	-58.1	3.9	1.51e+00	0	40	104	0	60	29196
2026-01-18 23:44:54.78	141.08	5.17	-45.8	-53.2	7.2	1.73e-01	0	40	0	5242880	60	16440
2026-01-18 23:44:58.81	141.01	5.46	-45.8	-53.2	7.4	8.15e-02	0	40	0	12582912	60	16454
2026-01-18 23:45:02.83	140.93	5.76	-46.2	-52.6	8.0	5.96e-02	0	40	0	19922944	60	15386
2026-01-18 23:45:06.87	140.85	6.05	-46.1	-52.1	9.2	4.13e-02	0	40	0	28311552	60	14476
2026-01-18 23:45:10.91	140.77	6.35	-45.6	-51.0	10.2	9.09e-03	0	40	0	35651584	60	12862
2026-01-18 23:45:14.95	140.68	6.66	-44.6	-49.2	12.4	1.41e-04	0	40	0	42991616	60	10423
2026-01-18 23:45:18.98	140.60	6.97	-44.3	-47.3	14.5	7.00e-07	0	40	0	50331648	60	8410
2026-01-18 23:45:23.02	140.51	7.28	-44.1	-46.8	15.2	0.00e+00	0	40	0	58720256	60	7870
2026-01-18 23:45:27.06	140.42	7.59	-43.5	-45.9	16.4	0.00e+00	0	40	0	66060288	60	7127
2026-01-18 23:45:31.09	140.33	7.91	-42.7	-44.7	17.6	0.00e+00	0	40	0	73400320	58	6996
2026-01-18 23:45:35.13	140.24	8.23	-41.8	-43.5	18.9	0.00e+00	0	40	0	80740352	56	6791
2026-01-18 23:45:39.17	140.14	8.56	-41.8	-43.3	19.3	0.00e+00	0	40	0	88080384	56	6653
2026-01-18 23:45:43.20	140.04	8.89	-41.3	-42.7	19.9	0.00e+00	0	40	0	96468992	56	6215
2026-01-18 23:45:47.24	139.94	9.23	-40.6	-42.0	20.5	0.00e+00	0	40	0	103809024	54	6421
2026-01-18 23:45:51.28	139.83	9.57	-40.3	-41.5	21.1	0.00e+00	0	40	0	111149056	54	6078
2026-01-18 23:45:55.31	139.73	9.91	-40.0	-41.1	21.4	0.00e+00	0	40	0	118489088	54	5803
2026-01-18 23:45:59.35	139.62	10.26	-40.0	-41.1	21.4	0.00e+00	0	40	0	125829120	54	5822
2026-01-18 23:46:03.38	139.50	10.62	-39.6	-40.8	21.8	0.00e+00	0	40	0	134217728	52	6247
2026-01-18 23:46:07.42	139.39	10.98	-39.4	-40.4	22.2	0.00e+00	0	40	0	141557760	52	6017
2026-01-18 23:46:11.46	139.27	11.34	-39.1	-40.1	22.4	0.00e+00	0	40	0	148897792	52	5808
2026-01-18 23:46:15.49	139.14	11.71	-39.1	-40.1	22.5	0.00e+00	0	40	0	156237824	52	5775
2026-01-18 23:46:19.53	139.02	12.09	-38.6	-39.6	22.9	0.00e+00	0	40	0	164626432	50	6108
2026-01-18 23:46:23.57	138.89	12.47	-38.4	-39.3	23.2	0.00e+00	0	40	0	171966464	50	5936
2026-01-18 23:46:27.61	138.75	12.86	-38.4	-39.3	23.2	0.00e+00	0	40	0	179306496	50	5930
2026-01-18 23:46:31.65	138.62	13.25	-38.4	-39.3	23.2	0.00e+00	0	40	0	186646528	50	5938
2026-01-18 23:46:35.69	138.47	13.65	-38.2	-39.1	23.4	0.00e+00	0	40	0	193986560	50	5784
2026-01-18 23:46:39.73	138.33	14.06	-38.3	-39.2	23.3	0.00e+00	0	40	0	202375168	50	5854
2026-01-18 23:46:43.77	138.18	14.47	-38.5	-39.4	23.2	0.00e+00	0	40	0	209715200	50	5992
2026-01-18 23:46:47.81	138.02	14.89	-38.4	-39.3	23.4	0.00e+00	0	40	0	217055232	50	5899
2026-01-18 23:46:51.85	137.86	15.32	-38.3	-39.2	23.4	0.00e+00	0	40	0	224395264	50	5879
2026-01-18 23:46:55.89	137.70	15.75	-38.2	-39.1	23.5	0.00e+00	0	40	0	232783872	50	5768
2026-01-18 23:46:59.93	137.53	16.19	-38.1	-39.0	23.6	0.00e+00	0	40	0	240123904	50	5727
2026-01-18 23:47:03.96	137.35	16.64	-38.0	-38.8	23.8	0.00e+00	0	40	0	247463936	50	5610
2026-01-18 23:47:08.00	137.17	17.10	-38.1	-38.9	23.6	0.00e+00	0	40	0	254803968	48	6371
2026-01-18 23:47:12.04	136.98	17.57	-38.3	-39.3	23.5	0.00e+00	0	40	0	262144000	48	6621
2026-01-18 23:47:16.08	136.79	18.04	-38.4	-39.3	23.4	0.00e+00	0	40	0	270532608	48	6649
2026-01-18 23:47:20.11	136.59	18.52	-38.3	-39.2	23.5	0.00e+00	0	40	0	277872640	48	6597
2026-01-18 23:47:24.16	136.38	19.02	-38.4	-39.3	23.3	0.00e+00	0	40	0	285212672	48	6636
2026-01-18 23:47:28.19	136.17	19.52	-38.7	-39.6	23.2	0.00e+00	0	40	0	292552704	50	6172
2026-01-18 23:47:32.23	135.95	20.03	-38.3	-39.2	23.5	0.00e+00	0	40	0	300941312	50	5873
2026-01-18 23:47:36.27	135.71	20.56	-38.2	-39.1	23.6	0.00e+00	0	40	0	308281344	50	5825
2026-01-18 23:47:40.30	135.48	21.09	-38.4	-39.4	23.4	0.00e+00	0	40	0	315621376	50	5971
2026-01-18 23:47:44.34	135.23	21.63	-38.7	-39.6	23.3	0.00e+00	0	40	0	322961408	50	6127
2026-01-18 23:47:48.38	134.97	22.19	-39.0	-40.0	23.0	0.00e+00	0	40	0	330301440	50	6392
2026-01-18 23:47:52.42	134.70	22.76	-38.8	-39.7	23.1	0.00e+00	0	40	0	338690048	50	6232
2026-01-18 23:47:56.46	134.43	23.34	-38.9	-39.9	23.0	0.00e+00	0	40	0	346030080	50	6328
2026-01-18 23:48:00.49	134.14	23.93	-39.3	-40.3	22.8	0.00e+00	0	40	0	353370112	50	6672
2026-01-18 23:48:04.53	133.84	24.53	-39.8	-40.8	22.3	0.00e+00	0	40	0	360710144	52	6308
2026-01-18 23:48:08.57	133.53	25.15	-40.0	-41.1	22.2	0.00e+00	0	40	0	368050176	52	6494
2026-01-18 23:48:12.60	133.20	25.78	-39.8	-40.9	22.3	0.00e+00	0	40	0	376438784	52	6339
2026-01-18 23:48:16.64	132.86	26.43	-39.9	-41.0	22.3	0.00e+00	0	41	0	383778816	52	6436
2026-01-18 23:48:20.68	132.51	27.09	-40.5	-41.6	21.9	0.00e+00	0	41	0	391118848	52	6878
2026-01-18 23:48:24.72	132.14	27.77	-40.0	-41.0	22.3	0.00e+00	0	40	0	398458880	52	6452
2026-01-18 23:48:28.75	131.75	28.46	-40.0	-41.0	22.1	0.00e+00	0	41	0	406847488	52	6395
2026-01-18 23:48:32.79	131.35	29.17	-40.7	-41.8	21.6	0.00e+00	0	41	0	414187520	54	6281
2026-01-18 23:48:36.83	130.93	29.89	-41.6	-42.9	20.6	0.00e+00	0	41	0	421527552	56	6322
2026-01-18 23:48:40.87	130.48	30.63	-41.3	-42.5	21.1	0.00e+00	0	40	0	428867584	56	6063
2026-01-18 23:48:44.90	130.02	31.39	-41.4	-42.6	20.5	0.00e+00	0	41	0	436207616	56	6165
2026-01-18 23:48:48.94	129.53	32.16	-42.0	-43.3	20.5	0.00e+00	0	41	0	444596224	56	6657
2026-01-18 23:48:52.98	129.02	32.96	-41.8	-43.1	20.7	0.00e+00	0	41	0	451936256	56	6506
2026-01-18 23:48:57.02	128.48	33.77	-42.8	-44.3	19.4	0.00e+00	0	41	0	459276288	58	6644
2026-01-18 23:49:01.05	127.91	34.60	-42.9	-44.4	19.5	0.00e+00	0	41	0	466616320	58	6721
2026-01-18 23:49:05.09	127.31	35.45	-43.8	-45.6	18.3	0.00e+00	0	41	0	475004928	60	6914
2026-01-18 23:49:09.13	126.68	36.32	-42.6	-44.1	19.8	0.00e+00	0	41	0	482344960	60	5807
2026-01-18 23:49:13.16	126.02	37.21	-41.6	-42.8	20.9	0.00e+00	0	41	0	489684992	56	6310
2026-01-18 23:49:17.20	125.31	38.12	-41.7	-42.9	20.7	0.00e+00	0	41	0	497025024	56	6380
2026-01-18 23:49:21.24	124.56	39.05	-41.5	-42.7	20.9	0.00e+00	0	41	0	504365056	56	6220
2026-01-18 23:49:25.28	123.77	39.99	-41.0	-42.2	21.4	0.00e+00	0	41	0	512753664	54	6547
2026-01-18 23:49:29.32	122.93	40.96	-41.3	-42.5	21.1	0.00e+00	0	41	0	520093696	54	6833
2026-01-18 23:49:33.36	122.04	41.95	-41.2	-42.3	21.4	0.00e+00	0	40	0	527433728	54	6681
2026-01-18 23:49:37.40	121.08	42.95	-41.2	-42.3	21.2	0.00e+00	0	40	0	534773760	56	5941
2026-01-18 23:49:41.43	120.07	43.97	-41.9	-43.2	20.6	0.00e+00	0	41	0	543162368	56	6591
2026-01-18 23:49:45.47	118.99	45.01	-41.4	-42.6	21.1	0.00e+00	0	41	0	550502400	56	6164
2026-01-18 23:49:49.50	117.84	46.06	-41.1	-42.3	21.6	0.00e+00	0	41	0	557842432	54	6616
2026-01-18 23:49:53.54	116.60	47.13	-40.2	-41.2	22.5	0.00e+00	0	41	0	565182464	54	5865
2026-01-18 23:49:57.57	115.28	48.21	-40.4	-41.5	22.0	0.00e+00	0	41	0	572522496	54	6091
2026-01-18 23:50:01.61	113.85	49.29	-39.8	-40.8	22.6	0.00e+00	0	41	0	580911104	52	6312
2026-01-18 23:50:05.65	112.32	50.39	-39.5	-40.5	22.8	0.00e+00	0	41	0	588251136	52	6076
2026-01-18 23:50:09.69	110.68	51.48	-39.1	-40.1	22.9	0.00e+00	0	41	0	595591168	50	6502
2026-01-18 23:50:13.72	108.91	52.58	-38.8	-39.7	23.4	0.00e+00	0	41	0	602931200	52	5506
2026-01-18 23:50:17.75	107.01	53.66	-39.9	-41.0	22.5	0.00e+00	0	41	0	610271232	52	6400
2026-01-18 23:50:21.79	104.95	54.74	-40.5	-41.6	21.9	0.00e+00	0	41	0	618659840	54	6136
2026-01-18 23:50:25.83	102.73	55.80	-39.0	-39.9	23.2	0.00e+00	0	41	0	625999872	52	5680
2026-01-18 23:50:29.86	100.35	56.83	-39.8	-40.8	22.5	0.00e+00	0	41	0	633339904	52	6290
2026-01-18 23:50:33.90	97.77	57.83	-39.3	-40.2	23.0	0.00e+00	0	41	0	640679936	52	5843
2026-01-18 23:50:37.94	95.01	58.78	-40.7	-41.9	21.7	0.00e+00	0	41	0	649068544	54	6375
2026-01-18 23:50:41.98	92.03	59.69	-39.0	-40.0	23.2	0.00e+00	0	40	0	656408576	50	6400
2026-01-18 23:50:46.01	88.86	60.52	-38.7	-39.6	23.5	0.00e+00	0	41	0	663748608	50	6157
2026-01-18 23:50:50.05	85.48	61.29	-38.0	-38.9	24.1	0.00e+00	0	41	0	671088640	50	5667
2026-01-18 23:50:54.09	81.89	61.97	-37.2	-38.0	24.6	0.00e+00	0	41	0	678428672	48	5718
2026-01-18 23:50:58.12	78.12	62.56	-36.9	-37.6	25.0	0.00e+00	0	41	0	686817280	48	5501
2026-01-18 23:51:02.16	74.17	63.04	-39.0	-40.0	23.3	0.00e+00	0	41	0	694157312	48	7178
2026-01-18 23:51:06.18	70.10	63.40	-37.9	-38.7	24.4	0.00e+00	0	41	0	701497344	48	6222
2026-01-18 23:51:10.23	65.89	63.64	-36.1	-36.9	25.3	0.00e+00	0	41	0	708837376	46	5651
2026-01-18 23:51:14.26	61.63	63.76	-36.4	-37.2	25.2	0.00e+00	0	41	0	717225984	44	6554
2026-01-18 23:51:18.30	57.35	63.74	-37.1	-38.0	24.6	0.00e+00	0	41	0	724566016	46	6392
2026-01-18 23:51:22.34	53.10	63.59	-36.7	-37.4	24.9	0.00e+00	0	41	0	731906048	46	6015
2026-01-18 23:51:26.37	48.94	63.32	-38.6	-39.5	23.8	0.00e+00	0	41	0	739246080	48	6844
2026-01-18 23:51:30.41	44.88	62.92	-37.5	-38.3	24.6	0.00e+00	0	40	0	746586112	48	5933
2026-01-18 23:51:34.45	40.98	62.42	-36.5	-37.2	25.2	0.00e+00	0	40	0	754974720	46	5877
2026-01-18 23:51:38.49	37.25	61.81	-36.3	-37.1	25.0	0.00e+00	0	41	0	762314752	46	5787
2026-01-18 23:51:42.53	33.72	61.10	-38.0	-38.9	24.0	0.00e+00	0	41	0	769654784	48	6332
2026-01-18 23:51:46.57	30.39	60.31	-41.0	-42.3	21.5	0.00e+00	0	41	0	776994816	54	6627
2026-01-18 23:51:50.61	27.27	59.46	-40.7	-41.8	21.9	0.00e+00	0	41	0	785383424	54	6247
2026-01-18 23:51:54.65	24.36	58.54	-42.4	-43.8	19.8	0.00e+00	0	41	0	792723456	56	7012
2026-01-18 23:51:58.69	21.65	57.58	-39.4	-40.4	22.9	0.00e+00	0	41	0	800063488	52	5979
2026-01-18 23:52:02.72	19.13	56.57	-39.4	-40.3	23.0	0.00e+00	0	41	0	807403520	52	5941
2026-01-18 23:52:06.76	16.79	55.53	-41.9	-43.2	20.7	0.00e+00	0	41	0	814743552	56	6584
2026-01-18 23:52:10.80	14.62	54.47	-42.5	-44.1	19.6	0.00e+00	0	41	0	823132160	56	7273
2026-01-18 23:52:14.84	12.61	53.40	-39.7	-40.7	22.9	0.00e+00	0	41	0	830472192	52	6185
2026-01-18 23:52:18.88	10.74	52.31	-40.1	-41.2	22.2	0.00e+00	0	41	0	837812224	54	5830
2026-01-18 23:52:22.90	9.01	51.22	-40.4	-41.5	21.8	0.00e+00	0	41	0	845152256	54	6076
2026-01-18 23:52:26.94	7.40	50.13	-39.7	-40.6	22.8	0.00e+00	0	40	0	853540864	52	6167
2026-01-18 23:52:30.98	5.90	49.04	-41.9	-43.3	20.6	0.00e+00	0	41	0	860880896	56	6658
2026-01-18 23:52:35.02	4.51	47.96	-41.5	-42.7	21.6	0.00e+00	0	41	0	868220928	56	6216
2026-01-18 23:52:39.05	3.21	46.89	-39.2	-40.2	23.2	0.00e+00	0	41	0	875560960	52	5832
2026-01-18 23:52:43.08	2.00	45.83	-42.1	-43.5	20.4	0.00e+00	0	41	0	882900992	56	6781
2026-01-18 23:52:47.12	0.87	44.78	-42.0	-43.3	20.4	0.00e+00	0	41	0	891289600	58	5933
2026-01-18 23:52:51.15	359.81	43.76	-40.9	-42.0	21.7	0.00e+00	0	41	0	898629632	56	5723
2026-01-18 23:52:55.19	358.81	42.74	-39.7	-40.7	22.9	0.00e+00	0	41	0	905969664	52	6196
2026-01-18 23:52:59.23	357.88	41.74	-42.7	-44.3	19.7	0.00e+00	0	41	0	913309696	56	7435
2026-01-18 23:53:03.27	357.00	40.77	-44.2	-46.2	17.9	0.00e+00	0	41	0	920649728	60	7349
2026-01-18 23:53:07.30	356.18	39.81	-40.6	-41.7	21.8	0.00e+00	0	41	0	929038336	54	6210
2026-01-18 23:53:11.34	355.40	38.87	-40.2	-41.2	22.4	0.00e+00	0	41	0	936378368	52	6571
2026-01-18 23:53:15.38	354.67	37.95	-42.5	-43.9	18.8	0.00e+00	0	40	0	943718400	56	7160
2026-01-18 23:53:19.42	353.97	37.05	-42.8	-44.3	19.4	0.00e+00	0	41	0	951058432	58	6677
2026-01-18 23:53:23.45	353.32	36.17	-42.6	-44.1	19.6	0.00e+00	0	41	0	959447040	58	6503
2026-01-18 23:53:27.49	352.70	35.31	-41.4	-42.6	20.9	0.00e+00	0	41	0	966787072	56	6153
2026-01-18 23:53:31.52	352.11	34.47	-39.9	-40.9	22.4	0.00e+00	0	41	0	974127104	52	6371
2026-01-18 23:53:35.56	351.55	33.64	-43.8	-45.6	18.3	0.00e+00	0	41	0	981467136	60	6860
2026-01-18 23:53:39.60	351.02	32.84	-42.2	-43.6	20.1	0.00e+00	0	41	0	988807168	58	6127
2026-01-18 23:53:43.63	350.52	32.05	-41.4	-42.6	21.1	0.00e+00	0	41	0	997195776	56	6166
2026-01-18 23:53:47.66	350.04	31.28	-41.5	-42.8	20.9	0.00e+00	0	41	0	1004535808	56	6275
2026-01-18 23:53:51.70	349.58	30.53	-40.4	-41.5	21.9	0.00e+00	0	41	0	1011875840	54	6067
2026-01-18 23:53:55.74	349.14	29.80	-43.2	-44.8	18.7	0.00e+00	0	41	0	1019215872	58	7063
2026-01-18 23:53:59.77	348.73	29.08	-43.3	-44.9	19.0	0.00e+00	0	41	0	1027604480	60	6390
2026-01-18 23:54:03.81	348.33	28.38	-43.0	-44.6	19.3	0.00e+00	0	41	0	1034944512	60	6114
2026-01-18 23:54:07.85	347.95	27.70	-43.1	-44.7	19.1	0.00e+00	0	41	0	1042284544	60	6203
2026-01-18 23:54:11.89	347.59	27.03	-41.7	-43.0	20.4	0.00e+00	0	41	0	1049624576	56	6434
2026-01-18 23:54:15.93	347.24	26.37	-41.2	-42.4	20.9	0.00e+00	0	41	0	1056964608	56	6007
2026-01-18 23:54:19.96	346.91	25.73	-42.1	-43.5	20.2	0.00e+00	0	41	0	1065353216	56	6824
2026-01-18 23:54:23.99	346.59	25.11	-42.5	-43.9	19.7	0.00e+00	0	41	0	1072693248	58	6375
2026-01-18 23:54:28.03	346.28	24.49	-41.4	-42.6	21.2	0.00e+00	0	41	0	1080033280	56	6137
2026-01-18 23:54:32.06	345.98	23.89	-40.3	-41.3	22.0	0.00e+00	0	41	0	1087373312	54	5943
2026-01-18 23:54:36.10	345.70	23.31	-40.7	-41.9	21.3	0.00e+00	0	41	0	1094713344	54	6332
2026-01-18 23:54:40.14	345.43	22.73	-41.2	-42.4	21.0	0.00e+00	0	41	0	1103101952	54	6728
2026-01-18 23:54:44.17	345.17	22.17	-40.5	-41.7	21.6	0.00e+00	0	41	0	1110441984	54	6198
2026-01-18 23:54:48.21	344.91	21.62	-40.6	-41.8	21.4	0.00e+00	0	41	0	1117782016	54	6295
2026-01-18 23:54:52.25	344.67	21.08	-41.4	-42.7	20.6	0.00e+00	0	41	0	1125122048	54	6979
2026-01-18 23:54:56.29	344.43	20.55	-41.1	-42.3	21.0	0.00e+00	0	41	0	1133510656	54	6659
2026-01-18 23:55:00.33	344.21	20.03	-40.8	-42.0	21.3	0.00e+00	0	41	0	1140850688	54	6394
2026-01-18 23:55:04.37	343.99	19.52	-40.6	-41.8	21.4	0.00e+00	0	41	0	1148190720	54	6265
2026-01-18 23:55:08.40	343.78	19.02	-40.4	-41.5	21.7	0.00e+00	0	41	0	1155530752	54	6076
2026-01-18 23:55:12.44	343.58	18.53	-40.3	-41.4	21.7	0.00e+00	0	41	0	1162870784	54	5966
2026-01-18 23:55:16.48	343.38	18.05	-40.2	-41.2	21.8	0.00e+00	0	41	0	1171259392	54	5887
2026-01-18 23:55:20.52	343.19	17.58	-40.1	-41.2	21.7	0.00e+00	0	41	0	1178599424	54	5865
2026-01-18 23:55:24.56	343.01	17.11	-40.9	-42.1	21.1	0.00e+00	0	40	0	1185939456	54	6472
2026-01-18 23:55:28.59	342.83	16.66	-41.3	-42.6	20.5	0.00e+00	0	41	0	1193279488	54	6874
2026-01-18 23:55:32.63	342.66	16.21	-41.5	-42.8	20.4	0.00e+00	0	41	0	1201668096	56	6308
2026-01-18 23:55:36.67	342.49	15.77	-41.7	-43.0	20.4	0.00e+00	0	41	0	1209008128	56	6463
2026-01-18 23:55:40.70	342.33	15.34	-41.2	-42.5	20.5	0.00e+00	0	41	0	1216348160	56	6069
2026-01-18 23:55:44.74	342.17	14.92	-41.5	-42.8	20.3	0.00e+00	0	41	0	1223688192	56	6309
2026-01-18 23:55:48.78	342.02	14.50	-42.2	-43.8	19.9	0.00e+00	0	41	0	1231028224	56	7040
2026-01-18 23:55:52.81	341.88	14.09	-42.6	-44.3	19.1	0.00e+00	0	41	0	1239416832	56	7452
2026-01-18 23:55:56.84	341.73	13.69	-42.5	-44.2	19.1	0.00e+00	0	41	0	1246756864	58	6595
2026-01-18 23:56:00.88	341.60	13.29	-42.2	-43.9	19.3	0.00e+00	0	41	0	1254096896	58	6361
2026-01-18 23:56:04.91	341.46	12.90	-41.7	-43.2	20.1	0.00e+00	0	41	0	1261436928	56	6564
2026-01-18 23:56:08.95	341.33	12.52	-41.0	-42.3	20.8	0.00e+00	0	41	0	1268776960	56	5905
2026-01-18 23:56:12.99	341.21	12.14	-40.6	-41.9	21.1	0.00e+00	0	41	0	1277165568	54	6369
2026-01-18 23:56:17.03	341.08	11.76	-40.5	-41.8	21.2	0.00e+00	0	41	0	1284505600	54	6288
2026-01-18 23:56:21.07	340.96	11.40	-40.5	-41.9	21.1	0.00e+00	0	41	0	1291845632	54	6330
2026-01-18 23:56:25.11	340.85	11.03	-40.6	-41.9	21.0	0.00e+00	0	41	0	1299185664	54	6375
2026-01-18 23:56:29.15	340.73	10.68	-40.8	-42.2	20.8	0.00e+00	0	41	0	1307574272	54	6585
2026-01-18 23:56:33.19	340.62	10.32	-41.1	-42.5	20.3	0.00e+00	0	41	0	1314914304	54	6833
2026-01-18 23:56:37.22	340.52	9.98	-41.5	-43.0	19.8	0.00e+00	0	41	0	1322254336	54	7252
2026-01-18 23:56:41.26	340.41	9.63	-41.7	-43.3	19.6	0.00e+00	0	41	0	1329594368	56	6677
2026-01-18 23:56:45.30	340.31	9.29	-42.0	-43.7	19.3	0.00e+00	0	41	0	1336934400	56	6993
2026-01-18 23:56:49.33	340.22	8.96	-42.6	-44.4	18.7	0.00e+00	0	41	0	1345323008	56	7586
2026-01-18 23:56:53.37	340.12	8.63	-42.5	-44.4	18.7	0.00e+00	0	41	0	1352663040	58	6693
2026-01-18 23:56:57.41	340.03	8.30	-42.5	-44.4	18.5	0.00e+00	0	41	0	1360003072	58	6727
2026-01-18 23:57:01.45	339.94	7.98	-43.1	-45.2	17.9	0.00e+00	0	41	0	1367343104	58	7348
2026-01-18 23:57:05.49	339.85	7.67	-42.7	-44.7	18.3	0.00e+00	0	41	0	1375731712	58	6931
2026-01-18 23:57:09.53	339.76	7.35	-43.0	-45.1	18.0	0.00e+00	0	41	0	1383071744	58	7255
2026-01-18 23:57:13.56	339.68	7.04	-43.0	-45.0	18.0	0.00e+00	0	41	0	1390411776	58	7238
2026-01-18 23:57:17.60	339.59	6.74	-43.1	-45.2	17.7	0.00e+00	0	41	0	1397751808	58	7339
2026-01-18 23:57:21.64	339.51	6.43	-42.9	-44.8	17.9	0.00e+00	0	41	0	1405091840	58	7067
2026-01-18 23:57:25.68	339.44	6.13	-43.0	-45.0	17.6	0.00e+00	0	41	0	1413480448	58	7214
2026-01-18 23:57:29.71	339.36	5.84	-43.3	-45.5	16.9	0.00e+00	0	41	0	1420820480	58	7651
2026-01-18 23:57:33.76	339.29	5.54	-43.7	-46.2	15.8	0.00e+00	0	41	0	1428160512	58	8322
2026-01-18 23:57:37.79	339.21	5.26	-44.4	-47.9	13.5	5.30e-06	0	41	0	1435500544	60	8988
2026-01-18 23:57:41.83	339.14	4.97	-44.9	-50.0	10.4	2.93e-03	0	41	0	1443889152	60	11385
2026-01-18 23:57:45.87	339.08	4.69	-45.3	-52.1	7.4	6.56e-02	0	41	0	1451229184	60	14523
2026-01-18 23:57:49.91	339.01	4.40	-45.4	-54.4	4.5	5.92e-01	0	41	0	1458569216	60	18977
2026-01-18 23:57:53.94	338.94	4.13	-45.4	-58.4	3.6	1.48e+00	0	41	104	1461714944	60	29905
2026-01-18 23:57:57.98	338.88	3.85	-45.3	-60.0	3.6	1.51e+00	0	41	104	1461714944	60	36175
2026-01-18 23:58:02.02	338.82	3.58	-45.3	-60.3	3.6	1.51e+00	0	41	104	1461714944	60	37567
2026-01-18 23:58:06.05	338.76	3.31	-45.3	-60.5	3.6	1.51e+00	0	41	104	1461714944	60	38136
2026-01-18 23:58:10.09	338.70	3.04	-45.3	-60.5	3.6	1.51e+00	0	41	104	1461714944	60	38272
2026-01-18 23:58:14.13	338.64	2.78	-49.4	-64.6	3.6	1.51e+00	0	41	104	1461714944	60	61078
2026-01-18 23:58:18.16	338.58	2.52	-50.0	-65.1	3.6	1.51e+00	0	41	104	1461714944	60	65312
2026-01-18 23:58:22.20	338.53	2.26	-50.1	-65.3	3.6	1.51e+00	0	41	104	1461714944	60	66572
2026-01-18 23:58:26.24	338.47	2.00	-49.5	-65.0	3.6	1.51e+00	0	41	104	1461714944	60	64006
2026-01-18 23:58:30.28	338.42	1.74	-50.0	-65.2	3.6	1.51e+00	0	41	104	1461714944	60	65615
2026-01-18 23:58:34.32	338.37	1.49	-50.0	-65.2	3.6	1.51e+00	0	41	104	1461714944	60	66017
2026-01-18 23:58:38.36	338.32	1.24	-50.0	-65.2	3.6	1.51e+00	0	41	104	1461714944	60	65718
2026-01-18 23:58:42.40	338.27	0.99	-50.0	-65.2	3.6	1.51e+00	0	41	104	1461714944	60	65939
2026-01-18 23:58:46.43	338.22	0.75	-50.0	-65.2	3.6	1.51e+00	0	41	104	1461714944	60	65935
2026-01-18 23:58:50.47	338.17	0.50	-50.0	-65.2	3.6	1.51e+00	0	41	104	1461714944	60	65799
2026-01-18 23:58:54.52	338.12	0.26	-50.0	-65.2	3.6	1.51e+00	0	41	104	1461714944	60	65612
2026-01-18 23:58:58.55	338.08	0.02	-50.0	-65.2	3.6	1.51e+00	0	41	104	1461714944	60	65614

#Closed at: 2026-01-18 23:58:59
#Recorded file [1461 MB]: D:/lorett/data/35029_260119_114338.dat