passes_logs/2026/01/18/R4.6S_Anadyr/R4.6S_Anadyr__20260118_020431_NOAA_20_JPSS-1_rec.log

#Pass ID: 20260118_020431_NOAA 20 (JPSS-1)
#Satellite: NOAA 20 (JPSS-1)
#Configuration: NOAA 20
#almurnet v.1.7.20251203
#Start time: 2026-01-18 02:04:36

#Version: 2.2.20231116
#Station: R4.6S_Anadyr
#Location: 177.4865 lon 64.73178 lat
#TLE: 1 43013U 17073A   26017.58553584  .00000066  00000+0  52288-4 0  9998
#TLE: 2 43013  98.7639 318.4977 0001406  35.6039 324.5231 14.19536575423107

#Time	Az	El	Level	Level2	SNR	BER	BlckErr	Temp	State	Recorded	gain1	gain2
2026-01-18 02:04:36.47	204.50	0.28	-49.3	-50.7	5.7	0.00e+00	0	31	0	0	60	42206
2026-01-18 02:04:40.51	204.74	0.50	-49.4	-64.6	3.6	1.51e+00	0	32	104	0	60	61366
2026-01-18 02:04:44.54	204.99	0.71	-48.7	-63.9	3.6	1.51e+00	0	32	104	0	60	56409
2026-01-18 02:04:48.58	205.24	0.93	-47.7	-62.9	3.6	1.51e+00	0	32	104	0	60	50396
2026-01-18 02:04:52.62	205.49	1.16	-47.4	-62.5	3.6	1.51e+00	0	32	104	0	60	48420
2026-01-18 02:04:56.65	205.74	1.38	-47.4	-62.4	3.6	1.51e+00	0	32	104	0	60	47772
2026-01-18 02:05:00.69	206.00	1.60	-47.3	-62.4	3.6	1.51e+00	0	32	104	0	60	47790
2026-01-18 02:05:04.72	206.27	1.83	-47.3	-62.5	3.5	1.51e+00	0	32	104	0	60	47936
2026-01-18 02:05:08.76	206.53	2.06	-47.4	-62.5	3.6	1.51e+00	0	32	104	0	60	47926
2026-01-18 02:05:12.81	206.81	2.29	-47.3	-62.4	3.6	1.51e+00	0	32	104	0	60	47850
2026-01-18 02:05:16.84	207.08	2.51	-47.3	-61.5	3.6	1.51e+00	0	32	104	0	60	42990
2026-01-18 02:05:20.88	207.36	2.75	-47.3	-61.2	3.6	1.51e+00	0	32	104	0	60	41509
2026-01-18 02:05:24.92	207.64	2.98	-45.8	-50.8	10.3	9.16e-03	0	32	0	3145728	60	12517
2026-01-18 02:05:28.96	207.93	3.21	-42.9	-45.2	16.5	0.00e+00	0	32	0	10485760	60	6565
2026-01-18 02:05:33.00	208.22	3.45	-43.1	-45.5	15.2	1.44e+00	68	32	104	15728640	58	7649
2026-01-18 02:05:37.03	208.52	3.68	-43.8	-46.5	15.3	7.00e-07	0	32	0	22020096	60	7610
2026-01-18 02:05:41.07	208.82	3.92	-43.1	-45.4	16.4	0.00e+00	0	32	0	29360128	60	6754
2026-01-18 02:05:45.11	209.13	4.16	-42.4	-44.4	17.3	0.00e+00	0	32	0	36700160	58	6735
2026-01-18 02:05:49.16	209.44	4.40	-42.1	-43.9	18.0	0.00e+00	0	32	0	44040192	58	6373
2026-01-18 02:05:53.19	209.75	4.65	-41.1	-42.6	19.2	0.00e+00	0	32	0	51380224	56	6149
2026-01-18 02:05:57.23	210.07	4.89	-40.5	-41.9	19.9	0.00e+00	0	32	0	59768832	54	6360
2026-01-18 02:06:01.26	210.40	5.14	-40.1	-41.4	20.5	0.00e+00	0	32	0	67108864	54	5982
2026-01-18 02:06:05.30	210.73	5.38	-40.8	-42.2	19.8	0.00e+00	0	32	0	74448896	54	6564
2026-01-18 02:06:09.34	211.07	5.63	-40.8	-42.2	19.9	0.00e+00	0	32	0	81788928	54	6559
2026-01-18 02:06:13.37	211.41	5.88	-40.2	-41.5	20.6	0.00e+00	0	32	0	89128960	52	6787
2026-01-18 02:06:17.41	211.76	6.13	-40.1	-41.3	20.8	0.00e+00	0	32	0	97517568	52	6653
2026-01-18 02:06:21.44	212.11	6.39	-40.2	-41.4	20.7	0.00e+00	0	32	0	104857600	52	6739
2026-01-18 02:06:25.47	212.47	6.64	-40.0	-41.2	20.9	0.00e+00	0	32	0	112197632	52	6599
2026-01-18 02:06:29.51	212.83	6.90	-40.4	-41.7	20.6	0.00e+00	0	32	0	119537664	52	7003
2026-01-18 02:06:33.55	213.21	7.16	-40.3	-41.5	20.7	0.00e+00	0	32	0	127926272	52	6807
2026-01-18 02:06:37.59	213.58	7.42	-39.8	-41.0	21.2	0.00e+00	0	32	0	135266304	52	6428
2026-01-18 02:06:41.63	213.97	7.68	-40.1	-41.3	20.9	0.00e+00	0	32	0	142606336	52	6641
2026-01-18 02:06:45.67	214.36	7.94	-39.8	-40.9	21.3	0.00e+00	0	32	0	149946368	52	6366
2026-01-18 02:06:49.71	214.76	8.21	-39.4	-40.5	21.6	0.00e+00	0	32	0	157286400	52	6070
2026-01-18 02:06:53.74	215.16	8.47	-39.7	-40.9	21.3	0.00e+00	0	32	0	165675008	52	6327
2026-01-18 02:06:57.78	215.58	8.74	-39.5	-40.6	21.6	0.00e+00	0	32	0	173015040	52	6147
2026-01-18 02:07:01.82	216.00	9.01	-39.5	-40.6	21.7	0.00e+00	0	32	0	180355072	52	6159
2026-01-18 02:07:05.86	216.42	9.28	-39.5	-40.6	21.6	0.00e+00	0	32	0	187695104	52	6154
2026-01-18 02:07:09.89	216.86	9.55	-39.6	-40.8	21.6	0.00e+00	0	32	0	196083712	52	6252
2026-01-18 02:07:13.93	217.30	9.83	-39.4	-40.5	21.7	0.00e+00	0	32	0	203423744	52	6095
2026-01-18 02:07:17.97	217.75	10.10	-39.1	-40.2	22.1	0.00e+00	0	32	0	210763776	52	5854
2026-01-18 02:07:22.02	218.21	10.38	-38.9	-40.0	22.3	0.00e+00	0	32	0	218103808	52	5708
2026-01-18 02:07:26.05	218.68	10.66	-39.1	-40.2	22.2	0.00e+00	0	32	0	225443840	52	5859
2026-01-18 02:07:30.09	219.15	10.94	-39.1	-40.1	22.4	0.00e+00	0	32	0	233832448	52	5796
2026-01-18 02:07:34.13	219.64	11.22	-39.0	-40.1	22.4	0.00e+00	0	32	0	241172480	52	5762
2026-01-18 02:07:38.16	220.13	11.51	-39.1	-40.1	22.3	0.00e+00	0	32	0	248512512	52	5806
2026-01-18 02:07:42.20	220.64	11.79	-39.2	-40.3	22.2	0.00e+00	0	32	0	255852544	52	5897
2026-01-18 02:07:46.24	221.15	12.08	-39.0	-40.0	22.4	0.00e+00	0	32	0	264241152	52	5754
2026-01-18 02:07:50.27	221.67	12.37	-38.8	-39.7	22.7	0.00e+00	0	32	0	271581184	52	5564
2026-01-18 02:07:54.31	222.21	12.65	-38.8	-39.8	22.5	0.00e+00	0	32	0	278921216	52	5621
2026-01-18 02:07:58.35	222.75	12.94	-38.9	-39.9	22.6	0.00e+00	0	32	0	286261248	52	5656
2026-01-18 02:08:02.38	223.30	13.23	-38.6	-39.6	23.0	0.00e+00	0	32	0	293601280	50	6113
2026-01-18 02:08:06.41	223.86	13.53	-38.5	-39.4	23.0	0.00e+00	0	32	0	301989888	50	6000
2026-01-18 02:08:10.45	224.44	13.82	-38.7	-39.7	22.8	0.00e+00	0	32	0	309329920	50	6175
2026-01-18 02:08:14.49	225.02	14.11	-38.7	-39.6	22.8	0.00e+00	0	32	0	316669952	50	6159
2026-01-18 02:08:18.52	225.62	14.41	-38.4	-39.3	23.1	0.00e+00	0	32	0	324009984	50	5919
2026-01-18 02:08:22.56	226.23	14.70	-38.6	-39.5	23.1	0.00e+00	0	32	0	331350016	50	6094
2026-01-18 02:08:26.60	226.85	15.00	-38.2	-39.1	23.3	0.00e+00	0	32	0	339738624	50	5796
2026-01-18 02:08:30.64	227.48	15.29	-38.4	-39.3	23.1	0.00e+00	0	32	0	347078656	50	5948
2026-01-18 02:08:34.67	228.13	15.59	-38.3	-39.2	23.4	0.00e+00	0	32	0	354418688	50	5846
2026-01-18 02:08:38.71	228.78	15.89	-38.0	-38.9	23.6	0.00e+00	0	32	0	361758720	50	5645
2026-01-18 02:08:42.75	229.45	16.18	-37.8	-38.7	23.7	0.00e+00	0	32	0	370147328	50	5522
2026-01-18 02:08:46.79	230.14	16.48	-37.6	-38.4	24.0	0.00e+00	0	32	0	377487360	48	6024
2026-01-18 02:08:50.83	230.83	16.78	-37.9	-38.7	23.7	0.00e+00	0	32	0	384827392	48	6231
2026-01-18 02:08:54.86	231.54	17.07	-38.0	-38.9	23.6	0.00e+00	0	32	0	392167424	48	6376
2026-01-18 02:08:58.91	232.27	17.37	-38.1	-39.0	23.5	0.00e+00	0	32	0	399507456	48	6456
2026-01-18 02:09:02.94	233.00	17.66	-38.3	-39.2	23.3	0.00e+00	0	32	0	407896064	48	6613
2026-01-18 02:09:06.98	233.76	17.96	-38.1	-39.0	23.5	0.00e+00	0	32	0	415236096	48	6416
2026-01-18 02:09:11.02	234.52	18.25	-37.8	-38.6	23.9	0.00e+00	0	32	0	422576128	48	6156
2026-01-18 02:09:15.06	235.30	18.54	-37.5	-38.4	24.0	0.00e+00	0	32	0	429916160	48	5997
2026-01-18 02:09:19.10	236.10	18.83	-37.4	-38.3	24.1	0.00e+00	0	32	0	438304768	48	5915
2026-01-18 02:09:23.13	236.90	19.11	-36.8	-37.6	24.7	0.00e+00	0	32	0	445644800	48	5487
2026-01-18 02:09:27.16	237.73	19.40	-36.8	-37.6	24.7	0.00e+00	0	32	0	452984832	48	5489
2026-01-18 02:09:31.12	238.55	19.67	-36.7	-37.5	24.7	0.00e+00	0	32	0	460324864	46	6062
2026-01-18 02:09:35.04	239.38	19.94	-36.8	-37.6	24.7	0.00e+00	0	31	0	467664896	46	6154
2026-01-18 02:09:38.95	240.22	20.21	-37.0	-37.8	24.4	0.00e+00	0	32	0	475004928	46	6293
2026-01-18 02:09:42.86	241.07	20.47	-37.0	-37.8	24.5	0.00e+00	0	32	0	482344960	46	6293
2026-01-18 02:09:46.78	241.94	20.73	-37.2	-38.1	24.4	0.00e+00	0	32	0	489684992	46	6466
2026-01-18 02:09:50.69	242.82	20.99	-37.0	-37.8	24.6	0.00e+00	0	31	0	497025024	46	6273
2026-01-18 02:09:54.61	243.72	21.24	-37.5	-38.4	24.1	0.00e+00	0	31	0	504365056	46	6711
2026-01-18 02:09:58.52	244.64	21.49	-37.8	-38.6	23.9	0.00e+00	0	32	0	511705088	48	6160
2026-01-18 02:10:02.42	245.56	21.73	-38.0	-38.9	23.7	0.00e+00	0	32	0	519045120	48	6328
2026-01-18 02:10:06.33	246.50	21.96	-38.2	-39.1	23.3	0.00e+00	0	32	0	526385152	48	6504
2026-01-18 02:10:10.25	247.45	22.19	-38.1	-39.1	23.5	0.00e+00	0	32	0	533725184	48	6471
2026-01-18 02:10:14.16	248.42	22.42	-37.7	-38.6	23.9	0.00e+00	0	31	0	541065216	48	6123
2026-01-18 02:10:18.06	249.40	22.63	-38.0	-38.9	23.6	0.00e+00	0	31	0	548405248	48	6384
2026-01-18 02:10:21.97	250.39	22.85	-38.5	-39.5	23.2	0.00e+00	0	32	0	555745280	48	6793
2026-01-18 02:10:25.87	251.40	23.05	-38.6	-39.5	23.1	0.00e+00	0	32	0	563085312	50	6080
2026-01-18 02:10:29.77	252.41	23.24	-38.9	-39.8	22.9	0.00e+00	0	32	0	570425344	50	6296
2026-01-18 02:10:33.69	253.45	23.43	-39.5	-40.6	22.2	0.00e+00	0	32	0	577765376	50	6851
2026-01-18 02:10:37.59	254.49	23.61	-39.2	-40.2	22.5	0.00e+00	0	32	0	585105408	50	6554
2026-01-18 02:10:41.49	255.54	23.78	-38.9	-39.9	23.0	0.00e+00	0	32	0	592445440	50	6323
2026-01-18 02:10:45.40	256.60	23.95	-39.4	-40.4	22.2	0.00e+00	0	32	0	599785472	50	6743
2026-01-18 02:10:49.30	257.68	24.10	-39.7	-40.7	22.1	0.00e+00	0	32	0	607125504	52	6239
2026-01-18 02:10:53.21	258.76	24.24	-39.5	-40.5	22.3	0.00e+00	0	32	0	614465536	52	6060
2026-01-18 02:10:57.12	259.86	24.38	-40.0	-41.1	21.8	0.00e+00	0	32	0	621805568	52	6517
2026-01-18 02:11:01.03	260.96	24.50	-40.1	-41.2	21.7	0.00e+00	0	32	0	629145600	52	6595
2026-01-18 02:11:04.94	262.07	24.61	-39.6	-40.6	22.3	0.00e+00	0	32	0	636485632	52	6126
2026-01-18 02:11:08.85	263.19	24.72	-39.6	-40.6	22.2	0.00e+00	0	32	0	643825664	52	6148
2026-01-18 02:11:12.76	264.32	24.81	-39.5	-40.5	22.3	0.00e+00	0	32	0	651165696	52	6094
2026-01-18 02:11:16.67	265.45	24.89	-38.7	-39.7	23.0	0.00e+00	0	31	0	658505728	50	6177
2026-01-18 02:11:20.58	266.59	24.95	-38.6	-39.6	23.2	0.00e+00	0	32	0	665845760	50	6106
2026-01-18 02:11:24.49	267.73	25.01	-38.4	-39.2	23.4	0.00e+00	0	32	0	673185792	50	5896
2026-01-18 02:11:28.40	268.88	25.06	-38.9	-39.9	22.9	0.00e+00	0	32	0	680525824	50	6355
2026-01-18 02:11:32.31	270.02	25.09	-39.6	-40.7	22.2	0.00e+00	0	32	0	687865856	50	6939
2026-01-18 02:11:36.22	271.17	25.11	-38.7	-39.7	23.0	0.00e+00	0	31	0	695205888	50	6205
2026-01-18 02:11:40.13	272.32	25.12	-38.6	-39.6	23.1	0.00e+00	0	32	0	702545920	50	6132
2026-01-18 02:11:44.05	273.48	25.12	-38.7	-39.6	23.0	0.00e+00	0	32	0	709885952	50	6143
2026-01-18 02:11:47.96	274.63	25.10	-38.3	-39.2	23.5	0.00e+00	0	32	0	717225984	50	5880
2026-01-18 02:11:51.87	275.78	25.08	-38.6	-39.6	23.4	0.00e+00	0	32	0	724566016	50	6112
2026-01-18 02:11:55.76	276.92	25.04	-38.8	-39.7	23.1	0.00e+00	0	32	0	731906048	50	6207
2026-01-18 02:11:59.68	278.06	24.99	-38.0	-38.9	23.8	0.00e+00	0	31	0	739246080	50	5660
2026-01-18 02:12:03.59	279.20	24.93	-38.8	-39.7	23.0	0.00e+00	0	32	0	746586112	50	6229
2026-01-18 02:12:07.50	280.33	24.86	-39.3	-40.3	22.5	0.00e+00	0	32	0	753926144	50	6652
2026-01-18 02:12:11.41	281.46	24.77	-39.3	-40.3	22.6	0.00e+00	0	31	0	761266176	50	6689
2026-01-18 02:12:15.33	282.59	24.68	-38.7	-39.6	23.3	0.00e+00	0	31	0	768606208	50	6133
2026-01-18 02:12:19.23	283.70	24.57	-39.0	-40.0	22.9	0.00e+00	0	31	0	775946240	50	6430
2026-01-18 02:12:23.15	284.81	24.45	-38.6	-39.6	23.3	0.00e+00	0	31	0	783286272	50	6109
2026-01-18 02:12:27.05	285.90	24.33	-38.9	-39.8	23.1	0.00e+00	0	32	0	790626304	50	6291
2026-01-18 02:12:30.97	286.99	24.19	-38.2	-39.1	23.7	0.00e+00	0	31	0	797966336	50	5787
2026-01-18 02:12:34.88	288.07	24.04	-38.2	-39.1	23.8	0.00e+00	0	32	0	805306368	50	5774
2026-01-18 02:12:38.79	289.14	23.88	-37.7	-38.6	24.1	0.00e+00	0	32	0	812646400	48	6123
2026-01-18 02:12:42.69	290.20	23.72	-37.8	-38.7	23.9	0.00e+00	0	31	0	819986432	48	6195
2026-01-18 02:12:46.60	291.25	23.55	-37.2	-38.0	24.6	0.00e+00	0	32	0	827326464	48	5750
2026-01-18 02:12:50.51	292.28	23.36	-37.1	-37.9	24.6	0.00e+00	0	31	0	834666496	48	5678
2026-01-18 02:12:54.42	293.30	23.17	-36.5	-37.3	25.1	0.00e+00	0	32	0	842006528	46	5921
2026-01-18 02:12:58.34	294.32	22.97	-37.0	-37.8	24.9	0.00e+00	0	31	0	849346560	46	6259
2026-01-18 02:13:02.25	295.32	22.77	-36.6	-37.4	25.0	0.00e+00	0	32	0	856686592	46	5982
2026-01-18 02:13:06.16	296.30	22.55	-37.8	-38.6	24.0	0.00e+00	0	31	0	864026624	48	6155
2026-01-18 02:13:10.06	297.27	22.34	-37.3	-38.1	24.7	0.00e+00	0	31	0	871366656	48	5776
2026-01-18 02:13:13.98	298.23	22.11	-37.6	-38.4	24.6	0.00e+00	0	32	0	878706688	48	6032
2026-01-18 02:13:17.89	299.17	21.88	-38.2	-39.0	24.2	0.00e+00	0	32	0	886046720	48	6457
2026-01-18 02:13:21.81	300.11	21.64	-38.7	-39.6	23.5	0.00e+00	0	32	0	893386752	50	6136
2026-01-18 02:13:25.74	301.03	21.40	-39.0	-40.0	23.3	0.00e+00	0	32	0	900726784	50	6396
2026-01-18 02:13:29.64	301.93	21.15	-39.1	-40.1	23.4	0.00e+00	0	32	0	908066816	50	6486
2026-01-18 02:13:33.55	302.82	20.90	-37.7	-38.5	24.1	0.00e+00	0	31	0	915406848	48	6099
2026-01-18 02:13:37.46	303.69	20.65	-38.4	-39.3	23.6	0.00e+00	0	32	0	922746880	48	6660
2026-01-18 02:13:41.38	304.55	20.39	-38.7	-39.6	23.2	0.00e+00	0	32	0	930086912	50	6170
2026-01-18 02:13:45.29	305.40	20.12	-38.8	-39.8	23.0	0.00e+00	0	32	0	937426944	50	6279
2026-01-18 02:13:49.19	306.22	19.86	-38.1	-39.0	23.8	0.00e+00	0	32	0	944766976	50	5728
2026-01-18 02:13:53.11	307.04	19.59	-38.4	-39.3	23.4	0.00e+00	0	31	0	952107008	50	5907
2026-01-18 02:13:57.02	307.85	19.32	-38.6	-39.5	23.4	0.00e+00	0	31	0	959447040	50	6039
2026-01-18 02:14:00.92	308.63	19.04	-38.6	-39.5	23.5	0.00e+00	0	31	0	966787072	50	6054
2026-01-18 02:14:04.84	309.41	18.77	-38.8	-39.7	23.3	0.00e+00	0	31	0	974127104	50	6224
2026-01-18 02:14:08.75	310.17	18.49	-39.0	-40.0	22.9	0.00e+00	0	31	0	981467136	50	6427
2026-01-18 02:14:12.66	310.92	18.21	-39.7	-40.7	22.4	0.00e+00	0	31	0	988807168	52	6196
2026-01-18 02:14:16.57	311.66	17.93	-38.3	-39.2	23.7	0.00e+00	0	31	0	995098624	50	5859
2026-01-18 02:14:20.48	312.38	17.65	-39.2	-40.2	22.7	0.00e+00	0	31	0	1002438656	50	6602
2026-01-18 02:14:24.38	313.09	17.37	-39.3	-40.4	22.5	0.00e+00	0	31	0	1009778688	52	5967
2026-01-18 02:14:28.29	313.78	17.08	-39.1	-40.0	23.1	0.00e+00	0	31	0	1018167296	50	6456
2026-01-18 02:14:32.21	314.47	16.80	-39.8	-40.8	22.5	0.00e+00	0	31	0	1024458752	52	6284
2026-01-18 02:14:36.11	315.14	16.51	-39.5	-40.4	22.9	0.00e+00	0	31	0	1031798784	52	6022
2026-01-18 02:14:40.02	315.79	16.23	-39.3	-40.2	22.7	0.00e+00	0	31	0	1039138816	50	6613
2026-01-18 02:14:43.93	316.44	15.94	-39.2	-40.2	22.5	0.00e+00	0	31	0	1046478848	50	6589
2026-01-18 02:14:47.83	317.07	15.66	-38.8	-39.7	23.3	0.00e+00	0	32	0	1053818880	50	6202
2026-01-18 02:14:51.74	317.70	15.37	-39.9	-40.9	21.9	0.00e+00	0	32	0	1061158912	52	6377
2026-01-18 02:14:55.64	318.31	15.09	-40.0	-41.1	21.8	0.00e+00	0	31	0	1068498944	52	6477
2026-01-18 02:14:59.54	318.91	14.81	-38.8	-39.8	23.0	0.00e+00	0	31	0	1075838976	52	5592
2026-01-18 02:15:03.46	319.50	14.52	-39.9	-40.9	22.3	0.00e+00	0	31	0	1083179008	52	6351
2026-01-18 02:15:07.36	320.07	14.24	-39.8	-40.8	22.2	0.00e+00	0	32	0	1090519040	52	6313
2026-01-18 02:15:11.28	320.64	13.96	-38.9	-39.9	22.7	0.00e+00	0	31	0	1097859072	52	5660
2026-01-18 02:15:15.18	321.20	13.68	-39.7	-40.8	21.9	0.00e+00	0	32	0	1105199104	52	6288
2026-01-18 02:15:19.10	321.75	13.40	-39.7	-40.8	21.8	0.00e+00	0	31	0	1112539136	52	6249
2026-01-18 02:15:23.02	322.29	13.12	-39.4	-40.4	22.4	0.00e+00	0	31	0	1119879168	52	6009
2026-01-18 02:15:26.93	322.82	12.84	-39.6	-40.7	22.1	0.00e+00	0	32	0	1127219200	52	6191
2026-01-18 02:15:30.85	323.34	12.56	-40.0	-41.2	21.6	0.00e+00	0	32	0	1134559232	52	6544
2026-01-18 02:15:34.76	323.85	12.28	-39.4	-40.5	22.0	0.00e+00	0	32	0	1141899264	52	6074
2026-01-18 02:15:38.68	324.35	12.01	-39.8	-40.8	22.0	0.00e+00	0	32	0	1149239296	52	6287
2026-01-18 02:15:42.59	324.84	11.73	-39.4	-40.4	22.0	0.00e+00	0	31	0	1156579328	52	6006
2026-01-18 02:15:46.50	325.32	11.46	-39.5	-40.6	21.9	0.00e+00	0	31	0	1163919360	52	6126
2026-01-18 02:15:50.40	325.79	11.19	-39.8	-40.9	21.6	0.00e+00	0	31	0	1171259392	52	6322
2026-01-18 02:15:54.32	326.26	10.92	-40.0	-41.2	21.1	0.00e+00	0	31	0	1178599424	52	6595
2026-01-18 02:15:58.23	326.72	10.65	-40.3	-41.5	21.1	0.00e+00	0	31	0	1185939456	52	6802
2026-01-18 02:16:02.15	327.17	10.38	-40.0	-41.2	21.3	0.00e+00	0	32	0	1193279488	52	6591
2026-01-18 02:16:06.06	327.61	10.12	-39.9	-41.1	21.4	0.00e+00	0	31	0	1200619520	52	6472
2026-01-18 02:16:09.97	328.04	9.85	-40.0	-41.2	21.1	0.00e+00	0	31	0	1207959552	52	6565
2026-01-18 02:16:13.88	328.47	9.59	-40.3	-41.6	20.7	0.00e+00	0	31	0	1215299584	52	6864
2026-01-18 02:16:17.78	328.89	9.33	-40.7	-42.0	20.2	0.00e+00	0	31	0	1222639616	54	6394
2026-01-18 02:16:21.70	329.30	9.07	-40.7	-42.1	20.2	0.00e+00	0	31	0	1229979648	54	6479
2026-01-18 02:16:25.60	329.71	8.81	-41.1	-42.5	19.9	0.00e+00	0	31	0	1237319680	54	6780
2026-01-18 02:16:29.51	330.11	8.55	-41.1	-42.5	19.7	0.00e+00	0	31	0	1244659712	54	6812
2026-01-18 02:16:33.42	330.50	8.30	-41.2	-42.6	19.5	0.00e+00	0	31	0	1251999744	54	6910
2026-01-18 02:16:37.32	330.88	8.04	-40.9	-42.3	19.8	0.00e+00	0	31	0	1259339776	54	6644
2026-01-18 02:16:41.23	331.26	7.79	-41.2	-42.7	19.4	0.00e+00	0	31	0	1266679808	54	6985
2026-01-18 02:16:45.15	331.64	7.54	-40.7	-42.1	20.1	0.00e+00	0	31	0	1274019840	54	6495
2026-01-18 02:16:49.05	332.00	7.29	-40.6	-42.0	20.1	0.00e+00	0	32	0	1281359872	54	6438
2026-01-18 02:16:52.97	332.36	7.04	-40.7	-42.1	19.9	0.00e+00	0	31	0	1288699904	54	6511
2026-01-18 02:16:56.88	332.72	6.79	-41.1	-42.6	19.4	0.00e+00	0	31	0	1296039936	54	6852
2026-01-18 02:17:00.80	333.07	6.55	-40.9	-42.4	19.5	0.00e+00	0	31	0	1303379968	54	6729
2026-01-18 02:17:04.71	333.41	6.30	-41.3	-42.9	18.8	0.00e+00	0	31	0	1310720000	54	7146
2026-01-18 02:17:08.62	333.75	6.06	-41.0	-42.6	19.0	0.00e+00	0	31	0	1318060032	54	6879
2026-01-18 02:17:12.53	334.09	5.82	-41.3	-43.1	17.9	0.00e+00	0	31	0	1325400064	54	7276
2026-01-18 02:17:16.44	334.42	5.58	-42.0	-44.5	15.8	0.00e+00	0	31	0	1332740096	56	7643
2026-01-18 02:17:20.34	334.74	5.34	-43.0	-46.7	12.6	4.95e-05	0	31	0	1340080128	58	8766
2026-01-18 02:17:24.26	335.06	5.11	-43.6	-49.3	9.1	1.70e-02	0	32	0	1347420160	58	11780
2026-01-18 02:17:28.17	335.37	4.87	-44.0	-51.5	6.1	1.78e-01	0	32	0	1354760192	60	13588
2026-01-18 02:17:32.09	335.68	4.64	-44.2	-53.3	4.5	6.86e-01	0	32	0	1362100224	60	16619
2026-01-18 02:17:36.00	335.99	4.41	-44.2	-56.0	4.0	1.41e+00	0	32	104	1366294528	60	22832
2026-01-18 02:17:39.91	336.29	4.18	-44.0	-57.2	3.7	1.51e+00	0	32	104	1366294528	60	26110
2026-01-18 02:17:43.82	336.58	3.95	-44.0	-58.0	3.6	1.51e+00	0	32	104	1366294528	60	28704
2026-01-18 02:17:47.73	336.87	3.72	-44.0	-58.3	3.6	1.51e+00	0	32	104	1366294528	60	29707
2026-01-18 02:17:51.64	337.16	3.49	-44.0	-58.9	3.6	1.51e+00	0	32	104	1366294528	60	31797
2026-01-18 02:17:55.56	337.44	3.27	-44.0	-59.1	3.6	1.51e+00	0	32	104	1366294528	60	32662
2026-01-18 02:17:59.47	337.72	3.04	-43.9	-59.1	3.6	1.51e+00	0	32	104	1366294528	60	32656
2026-01-18 02:18:03.37	338.00	2.82	-48.5	-63.7	3.6	1.51e+00	0	32	104	1366294528	60	55053
2026-01-18 02:18:07.28	338.27	2.60	-49.1	-64.3	3.6	1.51e+00	0	32	104	1366294528	60	58993
2026-01-18 02:18:11.20	338.54	2.38	-48.9	-64.1	3.6	1.51e+00	0	32	104	1366294528	60	58140
2026-01-18 02:18:15.11	338.80	2.16	-49.0	-64.2	3.6	1.51e+00	0	32	104	1366294528	60	58469
2026-01-18 02:18:19.02	339.06	1.94	-49.3	-64.5	3.6	1.51e+00	0	32	104	1366294528	60	60502
2026-01-18 02:18:22.93	339.32	1.72	-49.1	-64.3	3.6	1.51e+00	0	32	104	1366294528	60	59177
2026-01-18 02:18:26.84	339.57	1.51	-49.3	-64.4	3.6	1.51e+00	0	32	104	1366294528	60	60156
2026-01-18 02:18:30.76	339.82	1.29	-49.3	-64.5	3.6	1.51e+00	0	32	104	1366294528	60	60586
2026-01-18 02:18:34.67	340.07	1.08	-49.1	-64.2	3.6	1.51e+00	0	32	104	1366294528	60	58860
2026-01-18 02:18:38.59	340.31	0.87	-49.6	-64.7	3.6	1.51e+00	0	32	104	1366294528	60	62305
2026-01-18 02:18:42.50	340.56	0.66	-49.4	-64.6	3.6	1.51e+00	0	32	104	1366294528	60	61212
2026-01-18 02:18:46.41	340.79	0.45	-49.2	-64.3	3.6	1.51e+00	0	32	104	1366294528	60	59264
2026-01-18 02:18:50.33	341.03	0.24	-49.3	-64.5	3.6	1.51e+00	0	32	104	1366294528	60	60427
2026-01-18 02:18:54.24	341.26	0.03	-49.4	-64.6	3.6	1.51e+00	0	32	104	1366294528	60	61371

#Closed at: 2026-01-18 02:18:56
#Recorded file [1366 MB]: D:/lorett/data/35029_260118_140436.dat