passes_logs/2026/01/18/R4.6S_Anadyr/R4.6S_Anadyr__20260118_140847_NOAA_20_JPSS-1_rec.log

#Pass ID: 20260118_140847_NOAA 20 (JPSS-1)
#Satellite: NOAA 20 (JPSS-1)
#Configuration: NOAA 20
#almurnet v.1.7.20251203
#Start time: 2026-01-18 14:08:48

#Version: 2.2.20231116
#Station: R4.6S_Anadyr
#Location: 177.4865 lon 64.73178 lat
#TLE: 1 43013U 17073A   26017.58553584  .00000066  00000+0  52288-4 0  9998
#TLE: 2 43013  98.7639 318.4977 0001406  35.6039 324.5231 14.19536575423107

#Time	Az	El	Level	Level2	SNR	BER	BlckErr	Temp	State	Recorded	gain1	gain2
2026-01-18 14:08:48.71	19.54	0.09	-49.6	-64.5	3.5	1.51e+00	0	34	0	0	60	60605
2026-01-18 14:08:52.74	19.63	0.33	-49.6	-64.8	3.6	1.51e+00	0	35	104	0	60	63095
2026-01-18 14:08:56.77	19.71	0.57	-49.7	-64.9	3.6	1.51e+00	0	35	104	0	60	63460
2026-01-18 14:09:00.80	19.80	0.81	-49.7	-64.8	3.6	1.51e+00	0	35	104	0	60	63034
2026-01-18 14:09:04.84	19.89	1.06	-49.4	-64.6	3.6	1.51e+00	0	35	104	0	60	61457
2026-01-18 14:09:08.87	19.99	1.30	-49.0	-64.1	3.6	1.51e+00	0	35	104	0	60	57940
2026-01-18 14:09:12.91	20.08	1.55	-48.2	-63.4	3.6	1.51e+00	0	35	104	0	60	53225
2026-01-18 14:09:16.95	20.17	1.80	-48.1	-63.3	3.6	1.51e+00	0	36	104	0	60	53061
2026-01-18 14:09:20.98	20.27	2.05	-48.1	-62.9	3.6	1.51e+00	0	36	104	0	60	50683
2026-01-18 14:09:25.02	20.37	2.31	-48.0	-60.6	3.8	1.49e+00	0	36	104	0	60	38743
2026-01-18 14:09:29.06	20.46	2.57	-48.0	-61.0	3.6	1.50e+00	0	36	104	0	60	40392
2026-01-18 14:09:33.09	20.56	2.83	-46.3	-50.9	11.4	9.02e-03	0	36	0	4194304	60	12715
2026-01-18 14:09:37.13	20.66	3.09	-43.3	-45.4	17.0	0.00e+00	0	36	0	12582912	60	6704
2026-01-18 14:09:41.17	20.77	3.35	-42.8	-44.7	17.6	0.00e+00	61	36	0	19922944	58	6969
2026-01-18 14:09:45.20	20.87	3.62	-46.2	-50.5	11.5	1.14e-04	0	36	0	27262976	60	12141
2026-01-18 14:09:49.23	20.98	3.89	-48.0	-62.7	3.6	1.24e+00	0	36	104	33554432	60	49386
2026-01-18 14:09:53.27	21.08	4.16	-42.2	-43.8	18.6	0.00e+00	80	36	0	37748736	58	6296
2026-01-18 14:09:57.30	21.19	4.44	-41.7	-43.2	19.3	0.00e+00	92	36	0	45088768	56	6614
2026-01-18 14:10:01.34	21.30	4.71	-41.4	-42.8	19.7	0.00e+00	0	36	0	53477376	56	6279
2026-01-18 14:10:05.37	21.42	4.99	-41.3	-42.7	19.9	0.00e+00	2	36	0	60817408	56	6208
2026-01-18 14:10:09.41	21.53	5.28	-41.3	-42.7	19.9	0.00e+00	74	36	0	68157440	56	6230
2026-01-18 14:10:13.44	21.65	5.56	-41.1	-42.4	20.2	0.00e+00	92	36	0	75497472	56	6031
2026-01-18 14:10:17.48	21.76	5.85	-41.1	-42.4	20.4	0.00e+00	6	36	0	83886080	56	5965
2026-01-18 14:10:21.51	21.88	6.15	-40.8	-42.0	20.6	0.00e+00	6	36	0	91226112	54	6463
2026-01-18 14:10:25.55	22.01	6.44	-40.7	-42.0	20.8	0.00e+00	0	36	0	98566144	54	6420
2026-01-18 14:10:29.57	22.13	6.74	-40.6	-41.9	20.9	0.00e+00	92	36	0	105906176	54	6331
2026-01-18 14:10:33.61	22.26	7.04	-40.6	-41.8	21.0	0.00e+00	0	36	0	113246208	54	6305
2026-01-18 14:10:37.64	22.38	7.35	-40.6	-41.8	21.1	0.00e+00	4	36	0	121634816	54	6254
2026-01-18 14:10:41.67	22.51	7.66	-40.5	-41.7	21.1	0.00e+00	6	36	0	128974848	54	6230
2026-01-18 14:10:45.71	22.65	7.97	-40.3	-41.5	21.4	0.00e+00	90	36	0	136314880	54	6055
2026-01-18 14:10:49.75	22.78	8.29	-40.3	-41.4	21.4	0.00e+00	8	36	0	143654912	54	6021
2026-01-18 14:10:53.79	22.92	8.61	-40.2	-41.3	21.6	0.00e+00	80	36	0	150994944	54	5927
2026-01-18 14:10:57.82	23.06	8.94	-40.3	-41.4	21.5	0.00e+00	67	36	0	159383552	54	6012
2026-01-18 14:11:01.86	23.21	9.27	-40.2	-41.3	21.7	0.00e+00	92	36	0	166723584	54	5908
2026-01-18 14:11:05.90	23.35	9.60	-40.0	-41.1	21.9	0.00e+00	0	36	0	174063616	54	5815
2026-01-18 14:11:09.93	23.50	9.94	-40.1	-41.1	21.9	0.00e+00	0	36	0	181403648	54	5823
2026-01-18 14:11:13.96	23.66	10.28	-40.0	-41.0	22.0	0.00e+00	2	36	0	189792256	54	5751
2026-01-18 14:11:17.99	23.81	10.63	-40.0	-41.0	22.0	0.00e+00	90	36	0	197132288	54	5748
2026-01-18 14:11:22.03	23.97	10.98	-40.0	-41.1	21.9	0.00e+00	75	36	0	204472320	54	5807
2026-01-18 14:11:26.06	24.14	11.34	-39.9	-40.9	22.2	0.00e+00	82	36	0	211812352	54	5682
2026-01-18 14:11:30.09	24.30	11.70	-39.9	-41.0	22.0	0.00e+00	92	36	0	219152384	54	5721
2026-01-18 14:11:34.12	24.47	12.06	-39.9	-41.0	22.1	0.00e+00	71	36	0	227540992	54	5728
2026-01-18 14:11:38.16	24.65	12.44	-39.7	-40.7	22.4	0.00e+00	0	36	0	234881024	52	6232
2026-01-18 14:11:42.20	24.82	12.82	-39.7	-40.7	22.5	0.00e+00	81	36	0	242221056	52	6219
2026-01-18 14:11:46.23	25.01	13.20	-39.5	-40.5	22.6	0.00e+00	92	36	0	249561088	52	6078
2026-01-18 14:11:50.26	25.19	13.59	-39.6	-40.6	22.6	0.00e+00	10	36	0	256901120	52	6137
2026-01-18 14:11:54.30	25.38	13.99	-39.5	-40.5	22.7	0.00e+00	0	36	0	265289728	52	6056
2026-01-18 14:11:58.33	25.58	14.39	-39.5	-40.5	22.7	0.00e+00	0	36	0	272629760	52	6061
2026-01-18 14:12:02.37	25.78	14.80	-39.4	-40.4	22.8	0.00e+00	92	36	0	279969792	52	6006
2026-01-18 14:12:06.40	25.99	15.21	-39.4	-40.4	22.9	0.00e+00	0	36	0	287309824	52	5996
2026-01-18 14:12:10.44	26.20	15.64	-39.3	-40.3	23.0	0.00e+00	0	36	0	295698432	52	5912
2026-01-18 14:12:14.47	26.41	16.07	-39.3	-40.2	23.0	0.00e+00	0	36	0	303038464	52	5871
2026-01-18 14:12:18.50	26.64	16.50	-39.2	-40.2	23.0	0.00e+00	92	36	0	310378496	52	5861
2026-01-18 14:12:22.53	26.87	16.95	-39.2	-40.1	23.1	0.00e+00	0	36	0	317718528	52	5817
2026-01-18 14:12:26.57	27.10	17.40	-39.1	-40.1	23.2	0.00e+00	0	36	0	325058560	52	5764
2026-01-18 14:12:30.60	27.34	17.86	-39.1	-40.1	23.1	0.00e+00	83	36	0	333447168	52	5780
2026-01-18 14:12:34.63	27.59	18.33	-39.1	-40.0	23.2	0.00e+00	91	36	0	340787200	52	5756
2026-01-18 14:12:38.66	27.85	18.81	-39.1	-40.0	23.3	0.00e+00	3	36	0	348127232	52	5720
2026-01-18 14:12:42.70	28.11	19.30	-38.8	-39.7	23.6	0.00e+00	7	36	0	355467264	52	5554
2026-01-18 14:12:46.73	28.38	19.79	-38.9	-39.8	23.5	0.00e+00	0	36	0	362807296	50	6258
2026-01-18 14:12:50.77	28.66	20.30	-38.5	-39.3	23.8	0.00e+00	92	36	0	371195904	50	5951
2026-01-18 14:12:54.81	28.95	20.81	-38.1	-38.9	24.3	0.00e+00	81	36	0	378535936	50	5677
2026-01-18 14:12:58.84	29.25	21.34	-37.7	-38.5	24.6	0.00e+00	1	37	0	385875968	48	6071
2026-01-18 14:13:02.88	29.56	21.88	-37.6	-38.4	24.6	0.00e+00	0	36	0	393216000	48	6018
2026-01-18 14:13:06.91	29.88	22.42	-37.5	-38.3	24.8	0.00e+00	91	36	0	400556032	48	5920
2026-01-18 14:13:10.94	30.21	22.98	-37.5	-38.3	24.7	0.00e+00	0	36	0	408944640	48	5949
2026-01-18 14:13:14.97	30.55	23.55	-37.5	-38.3	24.8	0.00e+00	3	36	0	416284672	48	5913
2026-01-18 14:13:19.01	30.90	24.13	-37.5	-38.3	24.8	0.00e+00	0	37	0	423624704	48	5959
2026-01-18 14:13:23.04	31.26	24.72	-37.4	-38.2	24.9	0.00e+00	92	37	0	430964736	48	5889
2026-01-18 14:13:27.08	31.64	25.33	-37.5	-38.3	24.8	0.00e+00	0	36	0	439353344	48	5902
2026-01-18 14:13:31.11	32.04	25.95	-37.7	-38.5	24.7	0.00e+00	0	37	0	446693376	48	6083
2026-01-18 14:13:35.15	32.44	26.58	-37.8	-38.6	24.5	0.00e+00	0	36	0	454033408	48	6146
2026-01-18 14:13:39.19	32.87	27.23	-37.9	-38.7	24.3	0.00e+00	0	37	0	461373440	48	6217
2026-01-18 14:13:43.22	33.31	27.88	-38.1	-39.0	24.2	0.00e+00	81	36	0	468713472	48	6424
2026-01-18 14:13:47.25	33.77	28.56	-38.9	-39.8	23.6	0.00e+00	0	36	0	477102080	50	6295
2026-01-18 14:13:51.28	34.25	29.25	-39.5	-40.5	23.0	0.00e+00	90	37	0	484442112	50	6777
2026-01-18 14:13:55.32	34.75	29.95	-40.4	-41.5	22.1	0.00e+00	0	36	0	491782144	52	6787
2026-01-18 14:13:59.35	35.27	30.67	-41.3	-42.5	21.2	0.00e+00	0	37	0	499122176	54	6795
2026-01-18 14:14:03.39	35.81	31.41	-42.0	-43.3	20.5	0.00e+00	0	36	0	507510784	56	6653
2026-01-18 14:14:07.42	36.38	32.16	-42.2	-43.5	20.2	0.00e+00	92	37	0	514850816	56	6828
2026-01-18 14:14:11.46	36.97	32.92	-41.5	-42.7	21.1	0.00e+00	0	37	0	522190848	56	6208
2026-01-18 14:14:15.49	37.60	33.71	-40.8	-41.9	21.8	0.00e+00	6	37	0	529530880	56	5648
2026-01-18 14:14:19.53	38.25	34.51	-41.1	-42.3	21.3	0.00e+00	6	36	0	536870912	54	6634
2026-01-18 14:14:23.56	38.93	35.33	-41.1	-42.2	21.5	0.00e+00	92	36	0	545259520	54	6609
2026-01-18 14:14:27.59	39.65	36.16	-40.5	-41.6	22.0	0.00e+00	86	36	0	552599552	54	6150
2026-01-18 14:14:31.62	40.41	37.01	-40.0	-41.0	22.5	0.00e+00	1	36	0	559939584	54	5705
2026-01-18 14:14:35.65	41.21	37.88	-40.0	-41.0	22.5	0.00e+00	6	36	0	567279616	54	5740
2026-01-18 14:14:39.69	42.05	38.77	-40.2	-41.2	22.4	0.00e+00	92	36	0	574619648	54	5862
2026-01-18 14:14:43.73	42.93	39.67	-39.7	-40.7	22.9	0.00e+00	0	37	0	583008256	52	6183
2026-01-18 14:14:47.76	43.87	40.59	-38.7	-39.5	23.7	0.00e+00	7	37	0	590348288	50	6082
2026-01-18 14:14:51.80	44.86	41.52	-39.3	-40.2	23.2	0.00e+00	81	37	0	597688320	50	6590
2026-01-18 14:14:55.83	45.91	42.47	-39.3	-40.2	23.2	0.00e+00	92	37	0	605028352	50	6600
2026-01-18 14:14:59.88	47.03	43.43	-39.4	-40.4	23.1	0.00e+00	0	37	0	613416960	50	6697
2026-01-18 14:15:03.91	48.21	44.40	-40.3	-41.3	22.3	0.00e+00	0	37	0	620756992	52	6657
2026-01-18 14:15:07.95	49.46	45.39	-40.6	-41.7	21.9	0.00e+00	0	37	0	628097024	52	6959
2026-01-18 14:15:11.98	50.80	46.38	-41.8	-43.0	20.7	0.00e+00	90	37	0	635437056	56	6451
2026-01-18 14:15:16.02	52.22	47.38	-41.4	-42.6	21.1	0.00e+00	81	36	0	642777088	56	6104
2026-01-18 14:15:20.05	53.73	48.38	-42.6	-44.0	19.9	0.00e+00	0	37	0	651165696	56	7172
2026-01-18 14:15:24.09	55.35	49.39	-41.9	-43.2	20.7	0.00e+00	0	37	0	658505728	56	6563
2026-01-18 14:15:28.12	57.07	50.39	-41.5	-42.7	21.0	0.00e+00	92	37	0	665845760	56	6235
2026-01-18 14:15:32.15	58.90	51.38	-40.2	-41.2	22.3	0.00e+00	0	37	0	673185792	54	5871
2026-01-18 14:15:36.18	60.87	52.37	-39.7	-40.6	23.1	0.00e+00	81	37	0	680525824	52	6161
2026-01-18 14:15:40.22	62.97	53.34	-38.7	-39.5	23.7	0.00e+00	70	37	0	688914432	50	6093
2026-01-18 14:15:44.26	65.21	54.28	-38.1	-38.9	23.9	0.00e+00	65	37	0	696254464	50	5682
2026-01-18 14:15:48.29	67.59	55.20	-39.1	-40.0	23.5	0.00e+00	0	37	0	703594496	50	6418
2026-01-18 14:15:52.32	70.13	56.07	-39.0	-40.0	23.4	0.00e+00	0	37	0	710934528	50	6391
2026-01-18 14:15:56.35	72.83	56.91	-39.8	-40.9	22.7	0.00e+00	92	37	0	718274560	52	6318
2026-01-18 14:16:00.39	75.70	57.69	-40.1	-41.1	22.6	0.00e+00	81	37	0	726663168	52	6490
2026-01-18 14:16:04.42	78.73	58.41	-39.8	-40.8	22.7	0.00e+00	0	37	0	734003200	52	6298
2026-01-18 14:16:08.46	81.92	59.07	-39.2	-40.2	23.2	0.00e+00	81	37	0	741343232	52	5844
2026-01-18 14:16:12.50	85.27	59.64	-39.1	-40.0	23.5	0.00e+00	92	37	0	748683264	52	5747
2026-01-18 14:16:16.54	88.75	60.13	-39.8	-40.9	22.7	0.00e+00	0	37	0	757071872	52	6318
2026-01-18 14:16:20.57	92.35	60.53	-39.8	-40.8	22.7	0.00e+00	86	37	0	764411904	52	6291
2026-01-18 14:16:24.61	96.06	60.82	-39.0	-39.9	23.4	0.00e+00	85	37	0	771751936	52	5644
2026-01-18 14:16:28.64	99.83	61.01	-39.8	-40.8	22.8	0.00e+00	92	37	0	779091968	52	6285
2026-01-18 14:16:32.67	103.64	61.09	-38.5	-39.4	23.9	0.00e+00	3	37	0	786432000	50	5988
2026-01-18 14:16:36.71	107.47	61.06	-37.7	-38.5	24.5	0.00e+00	7	37	0	794820608	48	6044
2026-01-18 14:16:40.75	111.27	60.92	-37.5	-38.3	24.9	0.00e+00	0	37	0	802160640	48	5906
2026-01-18 14:16:44.79	115.01	60.67	-38.9	-39.8	23.6	0.00e+00	92	37	0	809500672	50	6293
2026-01-18 14:16:48.82	118.66	60.32	-39.9	-40.8	22.9	0.00e+00	0	37	0	816840704	52	6303
2026-01-18 14:16:52.86	122.21	59.87	-40.1	-41.2	22.3	0.00e+00	0	37	0	825229312	54	5832
2026-01-18 14:16:56.89	125.61	59.34	-40.8	-41.9	21.7	0.00e+00	0	37	0	832569344	54	6371
2026-01-18 14:17:00.93	128.88	58.72	-40.7	-41.8	21.9	0.00e+00	92	37	0	839909376	54	6252
2026-01-18 14:17:04.96	131.99	58.02	-40.6	-41.7	21.8	0.00e+00	0	37	0	847249408	54	6239
2026-01-18 14:17:09.00	134.93	57.26	-38.8	-39.7	23.8	0.00e+00	0	37	0	854589440	52	5527
2026-01-18 14:17:13.04	137.72	56.45	-38.6	-39.5	23.9	0.00e+00	65	37	0	862978048	50	6078
2026-01-18 14:17:17.07	140.33	55.59	-37.6	-38.4	24.8	0.00e+00	90	37	0	870318080	48	6013
2026-01-18 14:17:21.10	142.79	54.69	-36.2	-36.9	26.0	0.00e+00	2	37	0	877658112	46	5654
2026-01-18 14:17:25.14	145.10	53.75	-35.3	-36.0	26.7	0.00e+00	2	37	0	884998144	44	5716
2026-01-18 14:17:29.17	147.26	52.79	-35.8	-36.6	26.3	0.00e+00	87	37	0	893386752	44	6104
2026-01-18 14:17:33.21	149.29	51.81	-36.2	-37.0	25.9	0.00e+00	92	37	0	900726784	44	6406
2026-01-18 14:17:37.25	151.19	50.81	-37.9	-38.7	24.6	0.00e+00	0	37	0	908066816	46	6968
2026-01-18 14:17:41.29	152.97	49.81	-39.1	-40.0	23.3	0.00e+00	0	37	0	915406848	50	6393
2026-01-18 14:17:45.33	154.63	48.80	-41.5	-42.7	21.3	0.00e+00	92	37	0	922746880	56	6215
2026-01-18 14:17:49.36	156.19	47.80	-41.5	-42.6	21.1	0.00e+00	90	37	0	931135488	56	6173
2026-01-18 14:17:53.40	157.65	46.79	-43.5	-45.1	19.0	0.00e+00	81	37	0	938475520	60	6480
2026-01-18 14:17:57.44	159.03	45.79	-44.3	-46.2	17.8	0.00e+00	0	37	0	945815552	60	7417
2026-01-18 14:18:01.47	160.32	44.80	-44.3	-46.3	17.6	0.00e+00	92	37	0	953155584	60	7465
2026-01-18 14:18:05.51	161.53	43.81	-39.6	-40.5	23.1	0.00e+00	64	37	0	960495616	52	6091
2026-01-18 14:18:09.54	162.68	42.84	-40.1	-41.1	22.5	0.00e+00	5	37	0	968884224	52	6506
2026-01-18 14:18:13.58	163.75	41.88	-37.8	-38.6	24.0	0.00e+00	0	37	0	976224256	50	5440
2026-01-18 14:18:17.61	164.77	40.94	-40.2	-41.3	22.3	0.00e+00	90	37	0	983564288	52	6675
2026-01-18 14:18:21.65	165.73	40.01	-37.8	-38.6	24.7	0.00e+00	85	37	0	990904320	50	5470
2026-01-18 14:18:25.69	166.64	39.10	-40.1	-41.2	22.5	0.00e+00	0	37	0	999292928	52	6548
2026-01-18 14:18:29.72	167.50	38.20	-38.7	-39.6	23.8	0.00e+00	7	37	0	1006632960	50	6147
2026-01-18 14:18:33.76	168.32	37.32	-38.0	-38.8	24.4	0.00e+00	90	37	0	1013972992	48	6304
2026-01-18 14:18:37.79	169.09	36.46	-39.4	-40.4	23.2	0.00e+00	0	37	0	1021313024	52	5972
2026-01-18 14:18:41.82	169.83	35.62	-38.3	-39.1	24.2	0.00e+00	0	37	0	1028653056	50	5811
2026-01-18 14:18:45.86	170.53	34.79	-39.1	-40.0	23.5	0.00e+00	0	37	0	1037041664	50	6454
2026-01-18 14:18:49.89	171.19	33.98	-39.6	-40.6	23.0	0.00e+00	90	37	0	1044381696	52	6131
2026-01-18 14:18:53.93	171.83	33.18	-39.0	-39.8	23.6	0.00e+00	0	37	0	1051721728	52	5630
2026-01-18 14:18:57.96	172.44	32.40	-39.8	-40.8	22.8	0.00e+00	0	37	0	1059061760	52	6257
2026-01-18 14:19:01.99	173.01	31.64	-40.4	-41.5	22.0	0.00e+00	0	37	0	1066401792	52	6804
2026-01-18 14:19:06.03	173.57	30.90	-41.0	-42.1	21.6	0.00e+00	91	37	0	1074790400	54	6505
2026-01-18 14:19:10.07	174.10	30.17	-40.8	-42.0	21.8	0.00e+00	80	37	0	1082130432	54	6411
2026-01-18 14:19:14.10	174.61	29.45	-40.2	-41.2	22.4	0.00e+00	0	37	0	1089470464	54	5879
2026-01-18 14:19:18.14	175.09	28.76	-39.9	-40.9	22.6	0.00e+00	0	37	0	1096810496	54	5695
2026-01-18 14:19:22.17	175.56	28.07	-40.1	-41.2	22.3	0.00e+00	91	37	0	1104150528	54	5834
2026-01-18 14:19:26.20	176.01	27.41	-40.3	-41.4	22.2	0.00e+00	81	37	0	1112539136	54	5989
2026-01-18 14:19:30.24	176.44	26.75	-39.6	-40.6	23.0	0.00e+00	0	37	0	1119879168	52	6105
2026-01-18 14:19:34.27	176.85	26.11	-38.7	-39.6	23.8	0.00e+00	82	37	0	1127219200	50	6111
2026-01-18 14:19:38.31	177.25	25.48	-39.0	-39.9	23.5	0.00e+00	92	37	0	1134559232	50	6370
2026-01-18 14:19:42.34	177.63	24.87	-39.7	-40.7	22.8	0.00e+00	0	37	0	1142947840	50	6972
2026-01-18 14:19:46.38	178.00	24.27	-39.2	-40.2	23.2	0.00e+00	0	37	0	1150287872	50	6555
2026-01-18 14:19:50.41	178.36	23.68	-38.2	-39.0	24.2	0.00e+00	36	37	0	1157627904	50	5735
2026-01-18 14:19:54.45	178.70	23.10	-37.6	-38.4	24.7	0.00e+00	0	37	0	1164967936	48	5996
2026-01-18 14:19:58.49	179.04	22.54	-37.5	-38.4	24.7	0.00e+00	6	37	0	1172307968	48	5970
2026-01-18 14:20:02.52	179.36	21.99	-37.9	-38.8	24.4	0.00e+00	0	37	0	1180696576	48	6247
2026-01-18 14:20:06.55	179.67	21.44	-38.3	-39.2	24.0	0.00e+00	90	37	0	1188036608	48	6564
2026-01-18 14:20:10.59	179.97	20.91	-38.3	-39.1	24.1	0.00e+00	0	37	0	1195376640	48	6531
2026-01-18 14:20:14.63	180.26	20.39	-38.0	-38.9	24.1	0.00e+00	6	37	0	1202716672	48	6354
2026-01-18 14:20:18.66	180.54	19.88	-37.7	-38.6	24.5	0.00e+00	5	37	0	1211105280	48	6104
2026-01-18 14:20:22.69	180.82	19.38	-37.6	-38.5	24.6	0.00e+00	92	37	0	1218445312	48	6035
2026-01-18 14:20:26.73	181.08	18.88	-37.7	-38.5	24.5	0.00e+00	0	37	0	1225785344	48	6089
2026-01-18 14:20:30.76	181.34	18.40	-38.0	-38.9	24.3	0.00e+00	6	37	0	1233125376	48	6332
2026-01-18 14:20:34.79	181.59	17.93	-38.3	-39.1	24.0	0.00e+00	76	37	0	1240465408	48	6536
2026-01-18 14:20:38.82	181.83	17.46	-38.2	-39.1	24.0	0.00e+00	92	37	0	1248854016	48	6507
2026-01-18 14:20:42.85	182.07	17.01	-38.5	-39.3	23.8	0.00e+00	0	37	0	1256194048	48	6681
2026-01-18 14:20:46.89	182.30	16.55	-38.5	-39.4	23.8	0.00e+00	1	37	0	1263534080	48	6709
2026-01-18 14:20:50.92	182.52	16.11	-38.7	-39.6	23.6	0.00e+00	0	37	0	1270874112	48	6874
2026-01-18 14:20:54.95	182.73	15.68	-39.0	-39.9	23.2	0.00e+00	92	37	0	1278214144	50	6367
2026-01-18 14:20:58.99	182.95	15.25	-39.1	-40.0	23.0	0.00e+00	2	37	0	1286602752	50	6445
2026-01-18 14:21:03.02	183.15	14.83	-39.4	-40.3	22.9	0.00e+00	0	37	0	1293942784	50	6679
2026-01-18 14:21:07.05	183.35	14.42	-39.4	-40.4	22.8	0.00e+00	3	37	0	1301282816	50	6752
2026-01-18 14:21:11.09	183.55	14.01	-39.6	-40.6	22.6	0.00e+00	92	37	0	1308622848	50	6892
2026-01-18 14:21:15.12	183.74	13.61	-39.6	-40.6	22.6	0.00e+00	0	37	0	1317011456	50	6915
2026-01-18 14:21:19.15	183.92	13.22	-39.7	-40.8	22.5	0.00e+00	0	37	0	1324351488	50	7022
2026-01-18 14:21:23.18	184.11	12.83	-39.8	-40.8	22.4	0.00e+00	0	37	0	1331691520	52	6275
2026-01-18 14:21:27.22	184.28	12.45	-39.8	-40.9	22.4	0.00e+00	92	37	0	1339031552	52	6328
2026-01-18 14:21:31.25	184.46	12.07	-39.7	-40.8	22.5	0.00e+00	0	37	0	1346371584	52	6248
2026-01-18 14:21:35.29	184.62	11.70	-39.7	-40.7	22.6	0.00e+00	0	37	0	1354760192	52	6196
2026-01-18 14:21:39.32	184.79	11.34	-39.6	-40.6	22.6	0.00e+00	66	37	0	1362100224	52	6131
2026-01-18 14:21:43.35	184.95	10.98	-39.6	-40.6	22.6	0.00e+00	92	37	0	1369440256	52	6135
2026-01-18 14:21:47.38	185.11	10.62	-39.5	-40.5	22.7	7.00e-07	0	37	0	1376780288	52	6079
2026-01-18 14:21:51.42	185.26	10.27	-39.5	-40.5	22.7	0.00e+00	78	37	0	1384120320	52	6083
2026-01-18 14:21:55.45	185.41	9.92	-39.5	-40.5	22.6	0.00e+00	76	37	0	1392508928	52	6095
2026-01-18 14:21:59.49	185.56	9.58	-39.5	-40.4	22.7	0.00e+00	92	37	0	1399848960	52	6029
2026-01-18 14:22:03.52	185.71	9.25	-39.6	-40.6	22.6	0.00e+00	6	37	0	1407188992	52	6107
2026-01-18 14:22:07.55	185.85	8.92	-39.7	-40.7	22.4	0.00e+00	7	37	0	1414529024	52	6225
2026-01-18 14:22:11.59	185.99	8.59	-39.6	-40.7	22.4	0.00e+00	92	37	0	1421869056	52	6180
2026-01-18 14:22:15.63	186.13	8.26	-39.8	-40.8	22.3	0.00e+00	92	37	0	1430257664	52	6284
2026-01-18 14:22:19.66	186.26	7.94	-39.9	-40.9	22.1	0.00e+00	73	37	0	1437597696	52	6369
2026-01-18 14:22:23.70	186.39	7.63	-40.3	-41.4	21.8	0.00e+00	11	37	0	1444937728	52	6730
2026-01-18 14:22:27.73	186.52	7.31	-40.2	-41.2	21.8	0.00e+00	92	37	0	1452277760	52	6611
2026-01-18 14:22:31.77	186.65	7.01	-40.2	-41.3	21.7	0.00e+00	0	37	0	1460666368	52	6652
2026-01-18 14:22:35.81	186.77	6.70	-40.3	-41.5	21.6	0.00e+00	70	37	0	1468006400	52	6775
2026-01-18 14:22:39.85	186.89	6.40	-40.5	-41.7	21.3	0.00e+00	70	37	0	1475346432	52	6940
2026-01-18 14:22:43.88	187.01	6.10	-40.5	-41.6	21.4	0.00e+00	91	37	0	1482686464	52	6923
2026-01-18 14:22:47.92	187.13	5.81	-41.0	-42.2	20.8	0.00e+00	0	37	0	1490026496	54	6612
2026-01-18 14:22:51.96	187.24	5.51	-40.9	-42.2	20.8	0.00e+00	2	37	0	1498415104	54	6560
2026-01-18 14:22:56.00	187.36	5.22	-41.0	-42.2	20.6	0.00e+00	67	37	0	1505755136	54	6593
2026-01-18 14:23:00.04	187.47	4.94	-41.1	-42.4	20.4	0.00e+00	92	37	0	1513095168	54	6694
2026-01-18 14:23:04.08	187.58	4.66	-41.2	-42.5	20.3	0.00e+00	11	37	0	1520435200	54	6811
2026-01-18 14:23:08.12	187.68	4.38	-41.4	-42.8	19.9	0.00e+00	2	37	0	1528823808	54	7026
2026-01-18 14:23:12.16	187.79	4.10	-41.4	-42.8	19.7	0.00e+00	0	37	0	1536163840	54	7059
2026-01-18 14:23:16.20	187.89	3.83	-41.6	-43.1	19.6	0.00e+00	92	37	0	1543503872	54	7260
2026-01-18 14:23:20.24	188.00	3.55	-41.8	-43.3	19.4	0.00e+00	75	37	0	1550843904	56	6621
2026-01-18 14:23:24.28	188.10	3.28	-42.0	-43.5	19.0	0.00e+00	2	37	0	1558183936	56	6807
2026-01-18 14:23:28.32	188.20	3.02	-42.1	-43.6	19.2	0.00e+00	72	37	0	1566572544	56	6921
2026-01-18 14:23:32.36	188.29	2.75	-49.3	-64.6	3.6	1.51e+00	0	37	104	1566572544	60	61438
2026-01-18 14:23:36.39	188.39	2.49	-49.7	-64.9	3.6	1.51e+00	0	37	104	1566572544	60	63767
2026-01-18 14:23:40.43	188.49	2.23	-49.7	-65.0	3.6	1.51e+00	0	37	104	1566572544	60	64240
2026-01-18 14:23:44.47	188.58	1.98	-49.8	-65.0	3.6	1.51e+00	0	37	104	1566572544	60	64207
2026-01-18 14:23:48.51	188.67	1.72	-49.7	-64.9	3.6	1.51e+00	0	37	104	1566572544	60	63651
2026-01-18 14:23:52.55	188.76	1.47	-49.8	-65.0	3.6	1.51e+00	0	37	104	1566572544	60	64090
2026-01-18 14:23:56.59	188.85	1.22	-49.8	-65.0	3.6	1.51e+00	0	37	104	1566572544	60	64090
2026-01-18 14:24:00.63	188.94	0.97	-49.8	-65.0	3.6	1.51e+00	0	37	104	1566572544	60	63961
2026-01-18 14:24:04.67	189.02	0.72	-49.8	-65.0	3.6	1.51e+00	0	37	104	1566572544	60	63942
2026-01-18 14:24:08.71	189.11	0.48	-49.7	-65.0	3.6	1.51e+00	0	37	104	1566572544	60	64044
2026-01-18 14:24:12.75	189.19	0.24	-49.8	-65.0	3.6	1.51e+00	0	37	104	1566572544	60	64369
2026-01-18 14:24:16.79	189.28	-0.00	-49.7	-65.0	3.6	1.51e+00	0	37	104	1566572544	60	64080

#Closed at: 2026-01-18 14:24:18
#Recorded file [1566 MB]: D:/lorett/data/35029_260119_020848.dat