passes_logs/2026/01/18/R4.6S_Anadyr/R4.6S_Anadyr__20260118_172413_AQUA_rec.log

#Pass ID: 20260118_172413_AQUA
#Satellite: AQUA
#Configuration: AQUA
#almurnet v.1.7.20251203
#Start time: 2026-01-18 17:24:15

#Version: 2.2.20231116
#Station: R4.6S_Anadyr
#Location: 177.4865 lon 64.73178 lat
#TLE: 1 27424U 02022A   26017.62394888  .00000781  00000+0  16630-3 0  9993
#TLE: 2 27424  98.4086 344.0954 0002010  75.0132 339.4723 14.61825944261279

#Time	Az	El	Level	Level2	SNR	BER	BlckErr	Temp	State	Recorded	gain1	gain2
2026-01-18 17:24:15.55	21.33	0.12	-49.6	-64.5	3.5	1.51e+00	0	38	0	0	60	60451
2026-01-18 17:24:19.59	21.21	0.37	-49.9	-67.8	3.5	3.02e+01	0	39	104	0	60	94579
2026-01-18 17:24:23.63	21.09	0.61	-50.0	-67.8	3.5	3.02e+01	0	39	104	0	60	94478
2026-01-18 17:24:27.67	20.97	0.86	-49.9	-67.7	3.5	3.02e+01	0	40	104	0	60	93560
2026-01-18 17:24:31.70	20.84	1.11	-49.7	-67.5	3.5	3.02e+01	0	40	104	0	60	91301
2026-01-18 17:24:35.75	20.71	1.37	-49.2	-67.0	3.5	3.02e+01	0	39	104	0	60	85695
2026-01-18 17:24:39.79	20.58	1.62	-48.5	-66.3	3.5	3.02e+01	0	40	104	0	60	79444
2026-01-18 17:24:43.83	20.45	1.88	-48.5	-66.3	3.5	3.02e+01	0	40	104	0	60	79380
2026-01-18 17:24:47.87	20.32	2.14	-48.4	-66.2	3.5	3.02e+01	0	40	104	0	60	78159
2026-01-18 17:24:51.91	20.18	2.41	-48.4	-66.2	3.5	3.02e+01	0	40	104	0	60	78809
2026-01-18 17:24:55.95	20.03	2.67	-48.4	-66.2	3.5	3.02e+01	0	40	104	0	60	78873
2026-01-18 17:24:59.99	19.89	2.94	-48.3	-62.8	4.2	3.02e+01	0	40	104	0	60	53238
2026-01-18 17:25:04.03	19.74	3.21	-48.2	-61.0	5.0	3.02e+01	0	40	104	1572864	60	43417
2026-01-18 17:25:08.06	19.59	3.48	-47.8	-56.6	8.6	3.02e+01	50	40	0	3145728	60	25871
2026-01-18 17:25:12.11	19.43	3.76	-45.8	-50.1	15.6	3.02e+01	61	40	0	10485760	60	12262
2026-01-18 17:25:16.15	19.27	4.04	-48.3	-63.7	4.0	3.02e+01	0	40	104	14680064	60	59020
2026-01-18 17:25:20.18	19.11	4.32	-39.6	-41.2	24.2	3.02e+01	56	40	0	20971520	54	6247
2026-01-18 17:25:24.21	18.95	4.61	-38.8	-40.3	25.5	3.02e+01	58	40	0	28311552	52	6319
2026-01-18 17:25:28.25	18.77	4.90	-38.3	-39.8	26.1	3.02e+01	58	40	0	36175872	52	5936
2026-01-18 17:25:32.29	18.60	5.19	-38.1	-39.5	26.4	3.02e+01	57	40	0	43515904	52	5763
2026-01-18 17:25:36.33	18.42	5.48	-38.2	-39.6	26.3	3.02e+01	58	40	0	51380224	52	5853
2026-01-18 17:25:40.37	18.24	5.78	-38.4	-39.8	26.0	3.02e+01	59	40	0	58720256	52	5981
2026-01-18 17:25:44.41	18.05	6.09	-38.1	-39.5	26.2	3.02e+01	58	40	0	66584576	52	5764
2026-01-18 17:25:48.45	17.86	6.39	-38.0	-39.4	26.4	3.02e+01	59	40	0	73924608	50	6420
2026-01-18 17:25:52.48	17.66	6.70	-37.7	-39.0	27.0	3.02e+01	59	40	0	81788928	50	6121
2026-01-18 17:25:56.52	17.46	7.01	-37.6	-39.0	27.0	3.02e+01	62	40	0	89128960	50	6074
2026-01-18 17:26:00.56	17.25	7.33	-37.5	-38.8	27.2	3.02e+01	61	40	0	96468992	50	5994
2026-01-18 17:26:04.59	17.04	7.65	-37.2	-38.6	27.5	3.02e+01	57	40	0	104333312	50	5795
2026-01-18 17:26:08.63	16.82	7.98	-37.0	-38.3	27.7	3.02e+01	56	40	0	111673344	48	6286
2026-01-18 17:26:12.66	16.59	8.31	-36.9	-38.2	27.9	3.02e+01	59	40	0	119537664	48	6240
2026-01-18 17:26:16.70	16.36	8.64	-36.9	-38.2	27.8	3.02e+01	58	40	0	126877696	48	6250
2026-01-18 17:26:20.73	16.13	8.98	-36.7	-37.9	28.1	3.02e+01	58	40	0	134742016	48	6060
2026-01-18 17:26:24.77	15.88	9.33	-36.8	-38.1	28.0	3.02e+01	47	40	0	142082048	48	6175
2026-01-18 17:26:28.81	15.63	9.68	-36.8	-38.0	28.1	3.02e+01	59	40	0	149422080	48	6124
2026-01-18 17:26:32.84	15.38	10.03	-36.5	-37.8	28.4	3.02e+01	46	40	0	157286400	48	5937
2026-01-18 17:26:36.88	15.11	10.39	-36.4	-37.6	28.5	3.02e+01	58	40	0	164626432	48	5853
2026-01-18 17:26:40.92	14.84	10.75	-36.3	-37.6	28.5	3.02e+01	54	40	0	172490752	48	5798
2026-01-18 17:26:44.96	14.56	11.12	-36.3	-37.5	28.6	3.02e+01	57	40	0	179830784	48	5786
2026-01-18 17:26:49.00	14.27	11.50	-36.0	-37.2	28.8	3.02e+01	60	40	0	187695104	48	5565
2026-01-18 17:26:53.04	13.98	11.88	-36.0	-37.2	28.9	3.02e+01	61	40	0	195035136	48	5572
2026-01-18 17:26:57.08	13.67	12.26	-36.0	-37.3	28.9	3.02e+01	52	40	0	202899456	46	6305
2026-01-18 17:27:01.12	13.36	12.66	-36.1	-37.3	28.9	3.02e+01	58	40	0	210239488	46	6347
2026-01-18 17:27:05.16	13.03	13.06	-36.0	-37.3	28.9	3.02e+01	51	40	0	217579520	46	6298
2026-01-18 17:27:09.20	12.70	13.46	-36.1	-37.3	28.9	3.02e+01	57	40	0	225443840	46	6322
2026-01-18 17:27:13.24	12.35	13.88	-35.8	-37.0	29.2	3.02e+01	38	40	0	232783872	46	6104
2026-01-18 17:27:17.28	12.00	14.30	-35.8	-37.0	29.2	3.02e+01	60	40	0	240648192	46	6096
2026-01-18 17:27:21.32	11.63	14.72	-35.7	-36.9	29.3	3.02e+01	53	40	0	247988224	46	6032
2026-01-18 17:27:25.36	11.25	15.16	-35.8	-37.0	29.2	3.02e+01	57	40	0	255852544	46	6076
2026-01-18 17:27:29.40	10.86	15.60	-35.7	-36.9	29.2	3.02e+01	43	40	0	263192576	46	6062
2026-01-18 17:27:33.44	10.45	16.05	-35.8	-37.0	29.2	3.02e+01	62	40	0	271056896	46	6127
2026-01-18 17:27:37.47	10.04	16.50	-35.8	-37.0	29.0	3.02e+01	56	40	0	278396928	46	6126
2026-01-18 17:27:41.51	9.60	16.97	-35.6	-36.8	29.4	3.02e+01	60	40	0	285736960	46	5939
2026-01-18 17:27:45.55	9.15	17.44	-35.8	-37.0	29.2	3.02e+01	60	40	0	293601280	46	6097
2026-01-18 17:27:49.59	8.69	17.92	-35.7	-36.9	29.4	3.02e+01	59	40	0	300941312	46	6047
2026-01-18 17:27:53.63	8.21	18.41	-35.7	-36.9	29.3	3.02e+01	60	40	0	308805632	46	6043
2026-01-18 17:27:57.68	7.71	18.91	-35.8	-37.0	29.2	3.02e+01	57	40	0	316145664	46	6130
2026-01-18 17:28:01.71	7.20	19.41	-35.9	-37.1	29.2	3.02e+01	56	40	0	324009984	46	6181
2026-01-18 17:28:05.74	6.66	19.93	-36.1	-37.3	29.1	3.02e+01	60	40	0	331350016	46	6312
2026-01-18 17:28:09.79	6.11	20.46	-35.9	-37.1	29.2	3.02e+01	60	40	0	339214336	46	6202
2026-01-18 17:28:13.82	5.53	20.99	-36.1	-37.3	29.2	3.02e+01	61	40	0	346554368	46	6288
2026-01-18 17:28:17.85	4.94	21.53	-36.1	-37.3	29.2	3.02e+01	62	40	0	353894400	46	6337
2026-01-18 17:28:21.90	4.31	22.09	-36.1	-37.3	29.1	3.02e+01	59	40	0	361758720	46	6319
2026-01-18 17:28:25.93	3.67	22.65	-36.3	-37.5	28.9	3.02e+01	58	40	0	369098752	46	6480
2026-01-18 17:28:29.97	3.00	23.22	-36.1	-37.3	29.2	3.02e+01	58	40	0	376963072	46	6295
2026-01-18 17:28:34.01	2.30	23.81	-36.2	-37.4	29.0	3.02e+01	58	40	0	384303104	46	6365
2026-01-18 17:28:38.05	1.57	24.40	-36.1	-37.4	29.1	3.02e+01	58	40	0	392167424	46	6357
2026-01-18 17:28:42.09	0.81	25.00	-36.5	-37.8	28.7	3.02e+01	58	40	0	399507456	46	6673
2026-01-18 17:28:46.12	0.03	25.62	-36.2	-37.4	29.1	3.02e+01	45	40	0	407371776	46	6380
2026-01-18 17:28:50.16	359.21	26.24	-35.8	-37.1	29.4	3.02e+01	59	40	0	414711808	46	6135
2026-01-18 17:28:54.20	358.35	26.87	-36.0	-37.3	29.3	3.02e+01	44	40	0	422051840	46	6287
2026-01-18 17:28:58.24	357.46	27.51	-35.8	-37.0	29.5	3.02e+01	60	40	0	429916160	46	6087
2026-01-18 17:29:02.27	356.53	28.15	-35.8	-37.0	29.4	3.02e+01	56	40	0	437256192	46	6098
2026-01-18 17:29:06.31	355.55	28.81	-35.4	-36.6	29.8	3.02e+01	59	40	0	445120512	46	5847
2026-01-18 17:29:10.35	354.54	29.47	-35.6	-36.8	29.7	3.02e+01	45	40	0	452460544	46	5948
2026-01-18 17:29:14.38	353.48	30.14	-35.1	-36.3	30.1	3.02e+01	61	40	0	460324864	46	5635
2026-01-18 17:29:18.42	352.37	30.82	-35.3	-36.5	29.9	3.02e+01	59	40	0	467664896	46	5763
2026-01-18 17:29:22.46	351.21	31.50	-35.3	-36.4	30.0	3.02e+01	60	40	0	475004928	46	5717
2026-01-18 17:29:26.50	350.00	32.18	-35.5	-36.7	29.8	3.02e+01	47	40	0	482869248	46	5913
2026-01-18 17:29:30.54	348.74	32.87	-35.4	-36.6	29.9	3.02e+01	51	40	0	490209280	46	5841
2026-01-18 17:29:34.58	347.42	33.55	-35.6	-36.8	29.7	3.02e+01	50	40	0	498073600	46	5949
2026-01-18 17:29:38.62	346.04	34.24	-36.0	-37.2	29.3	3.02e+01	59	40	0	505413632	46	6272
2026-01-18 17:29:42.65	344.60	34.92	-36.0	-37.2	29.3	3.02e+01	51	40	0	513277952	46	6262
2026-01-18 17:29:46.69	343.10	35.59	-36.4	-37.6	29.0	3.02e+01	59	40	0	520617984	46	6534
2026-01-18 17:29:50.73	341.53	36.26	-37.0	-38.3	28.5	3.02e+01	51	40	0	528482304	48	6288
2026-01-18 17:29:54.77	339.89	36.92	-36.8	-38.0	28.7	3.02e+01	59	40	0	535822336	48	6096
2026-01-18 17:29:58.82	338.18	37.56	-37.2	-38.5	28.2	3.02e+01	59	40	0	543686656	48	6450
2026-01-18 17:30:02.85	336.41	38.19	-37.5	-38.8	27.9	3.02e+01	58	40	0	551026688	48	6660
2026-01-18 17:30:06.89	334.57	38.80	-37.3	-38.6	28.2	3.02e+01	57	40	0	558366720	48	6529
2026-01-18 17:30:10.93	332.65	39.38	-37.3	-38.6	28.2	3.02e+01	60	40	0	566231040	48	6503
2026-01-18 17:30:14.97	330.66	39.94	-37.2	-38.4	28.3	3.02e+01	59	40	0	573571072	48	6408
2026-01-18 17:30:19.01	328.61	40.46	-37.6	-38.9	28.0	3.02e+01	60	40	0	581435392	48	6730
2026-01-18 17:30:23.05	326.48	40.95	-37.7	-39.0	27.9	3.02e+01	64	40	0	588775424	48	6833
2026-01-18 17:30:27.08	324.30	41.40	-37.3	-38.6	28.2	3.02e+01	58	40	0	596639744	48	6552
2026-01-18 17:30:31.12	322.05	41.81	-37.0	-38.3	28.4	3.02e+01	53	40	0	603979776	48	6304
2026-01-18 17:30:35.15	319.75	42.17	-36.7	-37.9	28.8	3.02e+01	60	40	0	611319808	48	6064
2026-01-18 17:30:39.19	317.40	42.48	-37.0	-38.3	28.5	3.02e+01	60	40	0	619184128	48	6312
2026-01-18 17:30:43.22	315.01	42.74	-37.1	-38.4	28.3	3.02e+01	59	40	0	626524160	48	6381
2026-01-18 17:30:47.26	312.58	42.95	-36.9	-38.1	28.7	3.02e+01	58	40	0	634388480	48	6174
2026-01-18 17:30:51.30	310.11	43.10	-37.1	-38.4	28.5	3.02e+01	56	40	0	641728512	48	6381
2026-01-18 17:30:55.33	307.64	43.19	-37.2	-38.4	28.3	3.02e+01	60	40	0	649592832	48	6396
2026-01-18 17:30:59.37	305.15	43.22	-37.2	-38.4	28.4	3.02e+01	59	40	0	656932864	48	6403
2026-01-18 17:31:03.41	302.66	43.19	-36.8	-38.1	28.7	3.02e+01	62	40	0	664272896	48	6138
2026-01-18 17:31:07.45	300.18	43.10	-36.6	-37.9	28.9	3.02e+01	50	40	0	672137216	46	6747
2026-01-18 17:31:11.49	297.72	42.96	-37.1	-38.3	28.4	3.02e+01	58	40	0	679477248	48	6339
2026-01-18 17:31:15.53	295.28	42.75	-37.0	-38.2	28.4	3.02e+01	48	40	0	687341568	48	6277
2026-01-18 17:31:19.57	292.88	42.49	-36.5	-37.7	29.0	3.02e+01	59	40	0	694681600	48	5860
2026-01-18 17:31:23.61	290.52	42.18	-37.4	-38.7	27.8	3.02e+01	50	40	0	702545920	48	6618
2026-01-18 17:31:27.65	288.21	41.82	-35.9	-37.0	29.2	3.02e+01	61	40	0	709885952	46	6085
2026-01-18 17:31:31.69	285.96	41.41	-38.0	-39.4	27.0	3.02e+01	44	40	0	717750272	50	6364
2026-01-18 17:31:35.73	283.77	40.96	-36.5	-37.7	28.5	3.02e+01	59	40	0	725090304	48	5872
2026-01-18 17:31:39.77	281.64	40.47	-37.9	-39.3	27.4	3.02e+01	55	40	0	732954624	48	7044
2026-01-18 17:31:43.81	279.58	39.94	-37.4	-38.8	27.9	3.02e+01	63	40	0	740294656	48	6683
2026-01-18 17:31:47.85	277.58	39.39	-37.6	-39.0	27.7	3.02e+01	46	40	0	747634688	48	6833
2026-01-18 17:31:51.89	275.66	38.80	-36.6	-37.8	28.3	3.02e+01	57	40	0	755499008	48	5941
2026-01-18 17:31:55.93	273.81	38.20	-38.4	-39.8	26.0	3.02e+01	53	40	0	762839040	52	5951
2026-01-18 17:31:59.96	272.03	37.57	-38.2	-39.4	27.4	3.02e+01	59	40	0	770703360	52	5700
2026-01-18 17:32:04.00	270.32	36.92	-37.0	-38.2	28.2	3.02e+01	46	40	0	778043392	48	6261
2026-01-18 17:32:08.04	268.68	36.27	-37.7	-39.0	27.7	3.02e+01	61	40	0	785907712	50	6095
2026-01-18 17:32:12.08	267.10	35.60	-37.3	-38.6	28.2	3.02e+01	45	40	0	793247744	50	5814
2026-01-18 17:32:16.12	265.60	34.92	-37.4	-38.7	28.0	3.02e+01	58	40	0	801112064	48	6600
2026-01-18 17:32:20.16	264.15	34.23	-37.8	-39.1	28.1	3.02e+01	58	40	0	808452096	50	6173
2026-01-18 17:32:24.20	262.76	33.55	-37.3	-38.6	28.2	3.02e+01	58	40	0	815792128	48	6561
2026-01-18 17:32:28.23	261.44	32.86	-36.5	-37.6	29.0	3.02e+01	58	40	0	823656448	48	5857
2026-01-18 17:32:32.27	260.17	32.17	-36.6	-37.8	29.0	3.02e+01	51	40	0	830996480	48	5936
2026-01-18 17:32:36.31	258.96	31.49	-36.6	-37.8	28.9	3.02e+01	58	40	0	838860800	48	5933
2026-01-18 17:32:40.35	257.80	30.80	-36.1	-37.3	29.3	3.02e+01	59	40	0	846200832	48	5650
2026-01-18 17:32:44.39	256.68	30.13	-36.2	-37.4	29.2	3.02e+01	58	40	0	854065152	48	5703
2026-01-18 17:32:48.44	255.62	29.45	-36.5	-37.7	28.9	3.02e+01	60	40	0	861405184	46	6641
2026-01-18 17:32:52.48	254.60	28.78	-36.7	-38.0	28.7	3.02e+01	59	40	0	869269504	46	6809
2026-01-18 17:32:56.52	253.62	28.13	-36.9	-38.1	28.6	3.02e+01	56	40	0	876609536	48	6172
2026-01-18 17:33:00.55	252.69	27.48	-36.8	-38.1	28.6	3.02e+01	59	40	0	883949568	48	6145
2026-01-18 17:33:04.59	251.79	26.83	-36.4	-37.6	29.1	3.02e+01	56	40	0	891813888	48	5797
2026-01-18 17:33:08.63	250.93	26.20	-36.9	-38.1	28.5	3.02e+01	57	40	0	899153920	48	6186
2026-01-18 17:33:12.67	250.10	25.58	-36.8	-38.0	28.7	3.02e+01	60	40	0	907018240	48	6110
2026-01-18 17:33:16.71	249.31	24.96	-36.8	-38.0	28.7	3.02e+01	58	40	0	914358272	48	6112
2026-01-18 17:33:20.75	248.55	24.36	-36.9	-38.1	28.6	3.02e+01	61	40	0	922222592	48	6192
2026-01-18 17:33:24.79	247.82	23.76	-36.8	-38.1	28.6	3.02e+01	61	40	0	929562624	48	6146
2026-01-18 17:33:28.83	247.12	23.18	-36.6	-37.9	28.8	3.02e+01	47	40	0	937426944	48	6000
2026-01-18 17:33:32.87	246.44	22.60	-37.0	-38.3	28.4	3.02e+01	60	40	0	944766976	48	6287
2026-01-18 17:33:36.91	245.79	22.03	-36.6	-37.9	28.7	3.02e+01	57	40	0	952107008	48	6008
2026-01-18 17:33:40.95	245.17	21.48	-36.4	-37.7	28.9	3.02e+01	60	40	0	959971328	48	5865
2026-01-18 17:33:45.00	244.57	20.93	-36.9	-38.1	28.5	3.02e+01	61	40	0	967311360	48	6176
2026-01-18 17:33:49.04	243.99	20.39	-36.7	-38.0	28.6	3.02e+01	60	40	0	975175680	48	6074
2026-01-18 17:33:53.08	243.43	19.87	-36.8	-38.0	28.6	3.02e+01	50	40	0	982515712	48	6107
2026-01-18 17:33:57.13	242.89	19.35	-36.7	-37.9	28.7	3.02e+01	59	40	0	990380032	48	6046
2026-01-18 17:34:01.16	242.37	18.84	-36.8	-38.1	28.4	3.02e+01	51	40	0	997720064	48	6153
2026-01-18 17:34:05.21	241.87	18.34	-36.6	-37.8	28.7	3.02e+01	59	40	0	1005584384	48	5969
2026-01-18 17:34:09.24	241.39	17.85	-37.0	-38.2	28.4	3.02e+01	46	40	0	1012924416	48	6275
2026-01-18 17:34:13.28	240.92	17.36	-36.4	-37.6	28.8	3.02e+01	61	40	0	1020788736	48	5804
2026-01-18 17:34:17.32	240.47	16.89	-36.6	-37.9	28.6	3.02e+01	53	40	0	1028128768	48	6020
2026-01-18 17:34:21.37	240.04	16.42	-37.0	-38.3	28.2	3.02e+01	59	40	0	1035993088	48	6327
2026-01-18 17:34:25.41	239.62	15.97	-36.8	-38.0	28.4	3.02e+01	45	40	0	1043333120	48	6120
2026-01-18 17:34:29.45	239.21	15.52	-36.9	-38.1	28.4	3.02e+01	59	40	0	1050673152	48	6169
2026-01-18 17:34:33.49	238.81	15.07	-37.0	-38.3	28.2	3.02e+01	60	40	0	1058537472	48	6302
2026-01-18 17:34:37.53	238.43	14.64	-37.2	-38.5	28.0	3.02e+01	56	40	0	1065877504	48	6454
2026-01-18 17:34:41.57	238.06	14.21	-37.3	-38.5	27.9	3.02e+01	59	40	0	1073741824	48	6491
2026-01-18 17:34:45.61	237.70	13.79	-37.7	-39.0	27.4	3.02e+01	56	40	0	1081081856	48	6875
2026-01-18 17:34:49.65	237.36	13.38	-38.1	-39.5	27.0	3.02e+01	51	40	0	1088946176	50	6441
2026-01-18 17:34:53.69	237.02	12.97	-38.3	-39.7	26.6	3.02e+01	61	40	0	1096286208	50	6606
2026-01-18 17:34:57.73	236.69	12.57	-38.6	-40.0	26.3	3.02e+01	57	40	0	1104150528	50	6827
2026-01-18 17:35:01.77	236.37	12.17	-38.9	-40.4	26.0	3.02e+01	60	40	0	1111490560	52	6369
2026-01-18 17:35:05.81	236.07	11.79	-39.4	-40.9	25.5	3.02e+01	60	40	0	1118830592	52	6767
2026-01-18 17:35:09.85	235.77	11.40	-39.9	-41.4	25.1	3.02e+01	58	40	0	1126694912	52	7162
2026-01-18 17:35:13.89	235.48	11.03	-40.2	-41.7	24.7	3.02e+01	59	40	0	1134034944	54	6642
2026-01-18 17:35:17.93	235.19	10.66	-40.5	-42.2	24.2	3.02e+01	61	40	0	1141899264	54	6984
2026-01-18 17:35:21.98	234.92	10.29	-41.2	-42.9	23.6	3.02e+01	60	40	0	1149239296	56	6796
2026-01-18 17:35:26.01	234.65	9.93	-41.6	-43.5	23.1	3.02e+01	60	40	0	1157103616	56	7221
2026-01-18 17:35:30.05	234.39	9.58	-42.0	-43.9	22.5	3.02e+01	63	40	0	1164443648	58	6773
2026-01-18 17:35:34.09	234.14	9.23	-42.4	-44.4	22.0	3.02e+01	56	40	0	1172307968	58	7185
2026-01-18 17:35:38.14	233.89	8.88	-42.9	-45.1	21.3	3.02e+01	56	40	0	1179648000	58	7764
2026-01-18 17:35:42.18	233.65	8.54	-43.3	-45.7	20.6	3.02e+01	45	40	0	1187512320	60	7426
2026-01-18 17:35:46.22	233.42	8.21	-43.7	-46.2	20.2	3.02e+01	61	40	0	1194852352	60	7842
2026-01-18 17:35:50.25	233.19	7.88	-44.1	-47.0	19.4	3.02e+01	61	40	0	1202192384	60	8574
2026-01-18 17:35:54.29	232.97	7.55	-44.5	-47.7	18.5	3.02e+01	60	40	0	1210056704	60	9350
2026-01-18 17:35:58.33	232.76	7.23	-44.8	-48.3	17.9	3.02e+01	47	40	0	1217396736	60	9960
2026-01-18 17:36:02.38	232.55	6.91	-44.7	-48.6	17.6	3.02e+01	57	40	0	1225261056	60	10328
2026-01-18 17:36:06.41	232.34	6.59	-45.3	-49.2	16.8	3.02e+01	46	40	0	1232601088	60	11083
2026-01-18 17:36:10.46	232.14	6.28	-45.7	-49.8	16.1	3.02e+01	59	40	0	1240465408	60	11905
2026-01-18 17:36:14.50	231.94	5.98	-45.9	-50.2	15.6	3.02e+01	46	40	0	1247805440	60	12462
2026-01-18 17:36:18.52	231.75	5.68	-46.1	-50.8	15.0	3.02e+01	60	40	0	1255669760	60	13341
2026-01-18 17:36:22.56	231.57	5.38	-46.2	-51.2	14.3	3.02e+01	46	40	0	1263009792	60	14030
2026-01-18 17:36:26.60	231.39	5.08	-46.4	-51.9	13.5	3.02e+01	61	40	0	1270349824	60	15197
2026-01-18 17:36:30.64	231.21	4.79	-46.4	-52.2	13.1	3.02e+01	50	40	0	1278214144	60	15588
2026-01-18 17:36:34.68	231.03	4.50	-46.5	-52.6	12.4	3.02e+01	59	40	0	1285554176	60	16329
2026-01-18 17:36:38.72	230.87	4.21	-46.5	-52.9	11.9	3.02e+01	44	40	0	1293418496	60	16916
2026-01-18 17:36:42.76	230.70	3.93	-46.6	-53.6	11.1	3.02e+01	61	40	0	1300758528	60	18359
2026-01-18 17:36:46.81	230.54	3.65	-46.6	-54.0	10.4	3.02e+01	59	40	0	1308622848	60	19292
2026-01-18 17:36:50.84	230.38	3.37	-46.6	-54.3	9.9	3.02e+01	62	40	0	1315962880	60	19903
2026-01-18 17:36:54.88	230.22	3.10	-46.7	-55.1	8.9	3.02e+01	56	40	0	1323827200	60	21819
2026-01-18 17:36:58.92	230.07	2.83	-49.2	-67.1	3.5	3.02e+01	0	40	104	1326448640	60	87261
2026-01-18 17:37:02.96	229.92	2.56	-49.9	-67.8	3.5	3.02e+01	0	40	104	1326448640	60	93929
2026-01-18 17:37:07.00	229.78	2.29	-50.0	-67.8	3.5	3.02e+01	0	40	104	1326448640	60	94708
2026-01-18 17:37:11.04	229.64	2.03	-49.9	-67.8	3.5	3.02e+01	0	40	104	1326448640	60	94387
2026-01-18 17:37:15.08	229.50	1.77	-49.8	-67.7	3.5	3.02e+01	0	40	104	1326448640	60	93481
2026-01-18 17:37:19.12	229.36	1.51	-49.7	-67.6	3.5	3.02e+01	0	40	104	1326448640	60	92336
2026-01-18 17:37:23.17	229.23	1.25	-49.8	-67.7	3.5	3.02e+01	0	40	104	1326448640	60	93227
2026-01-18 17:37:27.21	229.09	1.00	-49.8	-67.7	3.5	3.02e+01	0	40	104	1326448640	60	93332
2026-01-18 17:37:31.25	228.97	0.75	-49.8	-67.7	3.5	3.02e+01	0	40	104	1326448640	60	93207
2026-01-18 17:37:35.29	228.84	0.50	-49.8	-67.7	3.5	3.02e+01	0	40	104	1326448640	60	93520
2026-01-18 17:37:39.32	228.72	0.25	-49.8	-67.7	3.5	3.02e+01	0	40	104	1326448640	60	92993
2026-01-18 17:37:43.37	228.60	0.00	-49.8	-67.6	3.5	3.02e+01	0	41	104	1326448640	60	92768

#Closed at: 2026-01-18 17:37:45
#Recorded file [1326 MB]: D:/lorett/data/35029_260119_052415.dat