passes_logs/2026/01/18/R4.6S_Anadyr/R4.6S_Anadyr__20260118_202635_SUOMI_NPP_rec.log

#Pass ID: 20260118_202635_SUOMI NPP
#Satellite: SUOMI NPP
#Configuration: NPP
#almurnet v.1.7.20251203
#Start time: 2026-01-18 20:26:37

#Version: 2.2.20231116
#Station: R4.6S_Anadyr
#Location: 177.4865 lon 64.73178 lat
#TLE: 1 37849U 11061A   26017.92342359  .00000077  00000+0  57567-4 0  9990
#TLE: 2 37849  98.7814 319.9468 0002389  58.5705 301.5704 14.19525998737125

#Time	Az	El	Level	Level2	SNR	BER	BlckErr	Temp	State	Recorded	gain1	gain2
2026-01-18 20:26:37.35	68.76	0.07	-49.7	-61.3	3.5	8.45e-01	0	38	0	0	60	42054
2026-01-18 20:26:40.38	68.54	0.22	-49.6	-64.8	3.6	1.51e+00	0	39	104	0	60	62962
2026-01-18 20:26:43.41	68.32	0.37	-49.6	-64.8	3.6	1.51e+00	0	39	104	0	60	62862
2026-01-18 20:26:46.43	68.09	0.52	-49.6	-64.8	3.6	1.51e+00	0	39	104	0	60	63004
2026-01-18 20:26:49.46	67.87	0.67	-49.6	-64.8	3.6	1.51e+00	0	39	104	0	60	62906
2026-01-18 20:26:52.49	67.64	0.83	-49.5	-64.8	3.6	1.51e+00	0	39	104	0	60	62668
2026-01-18 20:26:55.52	67.40	0.98	-49.3	-64.6	3.6	1.51e+00	0	39	104	0	60	61320
2026-01-18 20:26:58.55	67.17	1.13	-49.1	-64.4	3.6	1.51e+00	0	39	104	0	60	59841
2026-01-18 20:27:01.58	66.93	1.28	-48.4	-63.6	3.6	1.51e+00	0	39	104	0	60	54471
2026-01-18 20:27:04.61	66.69	1.44	-47.7	-62.9	3.6	1.51e+00	0	40	104	0	60	50437
2026-01-18 20:27:07.63	66.45	1.59	-47.7	-62.8	3.6	1.51e+00	0	40	104	0	60	50019
2026-01-18 20:27:10.66	66.20	1.74	-47.7	-62.9	3.6	1.51e+00	0	40	104	0	60	50416
2026-01-18 20:27:13.69	65.95	1.89	-47.7	-62.9	3.6	1.51e+00	0	40	104	0	60	50451
2026-01-18 20:27:16.72	65.70	2.05	-47.7	-62.6	3.6	1.51e+00	0	40	104	0	60	48842
2026-01-18 20:27:19.74	65.45	2.20	-47.7	-62.5	3.6	1.51e+00	0	40	104	0	60	48089
2026-01-18 20:27:22.78	65.19	2.36	-47.7	-62.9	3.6	1.51e+00	0	40	104	0	60	50337
2026-01-18 20:27:25.80	64.93	2.51	-47.7	-62.7	3.5	1.51e+00	0	40	104	0	60	49113
2026-01-18 20:27:28.83	64.67	2.67	-47.7	-62.0	3.6	1.51e+00	0	40	104	0	60	45336
2026-01-18 20:27:31.86	64.41	2.82	-47.6	-61.4	3.6	1.50e+00	0	40	104	0	60	42635
2026-01-18 20:27:34.89	64.14	2.98	-47.3	-57.4	5.2	1.50e+00	0	40	104	0	60	26643
2026-01-18 20:27:37.92	63.87	3.14	-47.9	-62.1	3.6	1.51e+00	0	40	104	2097152	60	45981
2026-01-18 20:27:40.94	63.59	3.29	-47.5	-59.6	3.6	0.00e+00	40	40	0	4194304	60	34635
2026-01-18 20:27:43.97	63.32	3.45	-43.4	-45.7	16.3	0.00e+00	9	40	0	7340032	60	6971
2026-01-18 20:27:47.00	63.04	3.61	-43.2	-45.3	16.8	0.00e+00	0	40	0	12582912	60	6681
2026-01-18 20:27:50.02	62.75	3.76	-43.2	-45.4	16.9	0.00e+00	92	40	0	18874368	60	6745
2026-01-18 20:27:53.05	62.47	3.92	-43.2	-45.4	16.6	0.00e+00	61	40	0	24117248	60	6762
2026-01-18 20:27:56.08	62.18	4.08	-43.4	-45.7	16.5	0.00e+00	0	40	0	30408704	60	6929
2026-01-18 20:27:59.11	61.89	4.24	-43.4	-45.7	16.5	0.00e+00	92	40	0	35651584	60	6955
2026-01-18 20:28:02.13	61.59	4.39	-43.1	-45.2	16.9	0.00e+00	87	40	0	40894464	60	6600
2026-01-18 20:28:05.16	61.29	4.55	-43.2	-45.3	16.8	0.00e+00	9	40	0	47185920	60	6686
2026-01-18 20:28:08.18	60.99	4.71	-43.2	-45.2	17.1	0.00e+00	0	40	0	52428800	60	6612
2026-01-18 20:28:11.21	60.68	4.87	-42.9	-44.8	17.5	0.00e+00	92	40	0	58720256	58	7073
2026-01-18 20:28:14.24	60.37	5.03	-42.9	-44.9	17.4	0.00e+00	30	40	0	63963136	58	7098
2026-01-18 20:28:17.27	60.06	5.19	-42.9	-44.9	17.3	0.00e+00	0	40	0	70254592	58	7164
2026-01-18 20:28:20.29	59.75	5.35	-42.4	-44.3	18.0	0.00e+00	90	40	0	75497472	58	6650
2026-01-18 20:28:23.32	59.43	5.50	-42.5	-44.4	18.0	0.00e+00	92	40	0	80740352	58	6713
2026-01-18 20:28:26.35	59.10	5.66	-42.7	-44.7	17.7	0.00e+00	0	40	0	87031808	58	6930
2026-01-18 20:28:29.37	58.78	5.82	-42.6	-44.6	17.8	0.00e+00	73	40	0	92274688	58	6849
2026-01-18 20:28:32.40	58.45	5.98	-42.6	-44.5	18.0	0.00e+00	73	40	0	98566144	58	6790
2026-01-18 20:28:35.42	58.11	6.14	-42.9	-44.8	17.6	0.00e+00	0	40	0	103809024	58	7067
2026-01-18 20:28:38.45	57.77	6.30	-42.7	-44.5	18.0	0.00e+00	0	40	0	109051904	58	6822
2026-01-18 20:28:41.48	57.43	6.46	-42.0	-43.7	18.8	0.00e+00	92	40	0	115343360	58	6175
2026-01-18 20:28:44.51	57.08	6.62	-41.9	-43.4	19.0	0.00e+00	0	40	0	120586240	58	6022
2026-01-18 20:28:47.54	56.73	6.78	-41.6	-43.1	19.3	0.00e+00	0	40	0	126877696	56	6539
2026-01-18 20:28:50.57	56.38	6.94	-41.5	-42.9	19.6	0.00e+00	92	40	0	132120576	56	6358
2026-01-18 20:28:53.59	56.02	7.10	-41.6	-43.1	19.4	0.00e+00	92	40	0	137363456	56	6475
2026-01-18 20:28:56.62	55.66	7.26	-41.4	-42.9	19.6	0.00e+00	0	40	0	143654912	56	6340
2026-01-18 20:28:59.65	55.29	7.42	-41.5	-42.9	19.2	0.00e+00	24	40	0	148897792	56	6379
2026-01-18 20:29:02.68	54.92	7.58	-41.5	-43.0	19.6	0.00e+00	92	40	0	155189248	56	6398
2026-01-18 20:29:05.70	54.55	7.74	-41.6	-43.1	19.4	0.00e+00	0	40	0	160432128	56	6511
2026-01-18 20:29:08.73	54.17	7.90	-41.9	-43.5	19.1	0.00e+00	0	40	0	166723584	56	6811
2026-01-18 20:29:11.75	53.79	8.06	-41.8	-43.4	19.3	0.00e+00	62	40	0	171966464	56	6694
2026-01-18 20:29:14.78	53.40	8.21	-41.8	-43.3	19.3	0.00e+00	7	40	0	177209344	56	6633
2026-01-18 20:29:17.81	53.01	8.37	-41.9	-43.4	19.2	0.00e+00	0	40	0	183500800	56	6758
2026-01-18 20:29:20.84	52.62	8.53	-41.6	-43.1	19.5	0.00e+00	82	40	0	188743680	56	6477
2026-01-18 20:29:23.86	52.22	8.69	-41.5	-42.9	19.7	0.00e+00	92	40	0	195035136	56	6342
2026-01-18 20:29:26.89	51.81	8.85	-41.6	-43.1	19.5	0.00e+00	0	40	0	200278016	56	6482
2026-01-18 20:29:29.92	51.40	9.00	-41.3	-42.7	19.9	0.00e+00	0	40	0	205520896	56	6221
2026-01-18 20:29:32.95	50.99	9.16	-41.4	-42.8	19.9	0.00e+00	17	40	0	211812352	56	6279
2026-01-18 20:29:35.97	50.57	9.31	-41.9	-43.4	19.4	0.00e+00	12	40	0	217055232	56	6698
2026-01-18 20:29:39.00	50.15	9.47	-42.0	-43.6	19.1	0.00e+00	0	40	0	223346688	56	6869
2026-01-18 20:29:42.03	49.72	9.62	-42.2	-43.9	19.0	0.00e+00	79	40	0	228589568	56	7104
2026-01-18 20:29:45.06	49.29	9.78	-41.8	-43.3	19.4	0.00e+00	92	40	0	233832448	56	6668
2026-01-18 20:29:48.09	48.85	9.93	-41.5	-42.9	19.8	0.00e+00	0	40	0	240123904	56	6340
2026-01-18 20:29:51.12	48.41	10.09	-41.1	-42.5	20.1	0.00e+00	54	40	0	245366784	56	6056
2026-01-18 20:29:54.14	47.97	10.24	-41.0	-42.4	20.3	0.00e+00	88	40	0	251658240	56	5973
2026-01-18 20:29:57.17	47.52	10.39	-40.6	-41.8	20.8	0.00e+00	0	40	0	256901120	54	6316
2026-01-18 20:30:00.20	47.06	10.54	-40.4	-41.6	21.0	0.00e+00	0	40	0	263192576	54	6131
2026-01-18 20:30:03.23	46.60	10.69	-40.2	-41.4	21.1	0.00e+00	90	41	0	268435456	54	5983
2026-01-18 20:30:06.26	46.13	10.84	-39.8	-41.0	21.4	0.00e+00	0	40	0	273678336	54	5699
2026-01-18 20:30:09.29	45.66	10.99	-39.7	-40.8	21.7	0.00e+00	0	40	0	279969792	52	6275
2026-01-18 20:30:12.30	45.19	11.13	-39.6	-40.7	21.7	0.00e+00	92	40	0	285212672	52	6236
2026-01-18 20:30:15.32	44.71	11.28	-39.9	-41.1	21.4	0.00e+00	9	40	0	291504128	52	6501
2026-01-18 20:30:18.35	44.23	11.42	-39.8	-41.0	21.5	0.00e+00	0	40	0	296747008	52	6413
2026-01-18 20:30:21.38	43.74	11.57	-39.6	-40.7	21.6	0.00e+00	74	40	0	301989888	52	6211
2026-01-18 20:30:24.40	43.25	11.71	-39.4	-40.4	21.9	0.00e+00	63	40	0	308281344	52	6033
2026-01-18 20:30:27.43	42.75	11.85	-39.0	-40.0	22.4	0.00e+00	0	40	0	313524224	52	5742
2026-01-18 20:30:30.46	42.24	11.99	-39.1	-40.1	22.2	0.00e+00	0	40	0	319815680	52	5823
2026-01-18 20:30:33.49	41.74	12.13	-39.4	-40.5	22.0	0.00e+00	90	40	0	325058560	52	6078
2026-01-18 20:30:36.52	41.22	12.27	-39.4	-40.5	22.0	0.00e+00	9	40	0	331350016	52	6096
2026-01-18 20:30:39.55	40.70	12.40	-39.1	-40.2	22.2	0.00e+00	0	40	0	336592896	52	5829
2026-01-18 20:30:42.58	40.18	12.53	-38.4	-39.4	22.8	0.00e+00	90	40	0	341835776	50	5970
2026-01-18 20:30:45.60	39.65	12.67	-38.4	-39.4	22.7	0.00e+00	92	40	0	348127232	50	5981
2026-01-18 20:30:48.63	39.12	12.80	-38.8	-39.9	22.5	0.00e+00	0	40	0	353370112	50	6320
2026-01-18 20:30:51.66	38.58	12.93	-39.3	-40.4	22.0	0.00e+00	57	40	0	359661568	50	6707
2026-01-18 20:30:54.69	38.04	13.05	-39.7	-40.8	21.8	0.00e+00	59	40	0	364904448	52	6296
2026-01-18 20:30:57.71	37.49	13.18	-39.4	-40.5	22.0	0.00e+00	0	40	0	370147328	52	6078
2026-01-18 20:31:00.74	36.94	13.30	-39.5	-40.6	22.0	0.00e+00	0	41	0	376438784	52	6108
2026-01-18 20:31:03.76	36.39	13.42	-39.7	-40.9	21.8	0.00e+00	0	40	0	381681664	52	6334
2026-01-18 20:31:06.79	35.83	13.54	-39.9	-41.1	21.4	0.00e+00	7	40	0	387973120	52	6510
2026-01-18 20:31:09.82	35.26	13.66	-39.2	-40.2	22.2	0.00e+00	0	40	0	393216000	52	5882
2026-01-18 20:31:12.85	34.69	13.77	-39.2	-40.2	22.2	0.00e+00	0	40	0	398458880	52	5891
2026-01-18 20:31:15.88	34.12	13.88	-39.3	-40.3	22.1	0.00e+00	46	40	0	404750336	52	5938
2026-01-18 20:31:18.91	33.54	13.99	-38.8	-39.9	22.5	0.00e+00	0	40	0	409993216	50	6320
2026-01-18 20:31:21.93	32.96	14.10	-38.8	-39.8	22.5	0.00e+00	0	40	0	416284672	50	6292
2026-01-18 20:31:24.95	32.37	14.20	-38.9	-39.9	22.6	0.00e+00	91	40	0	421527552	50	6373
2026-01-18 20:31:27.97	31.78	14.30	-39.5	-40.6	21.9	0.00e+00	0	40	0	427819008	50	6875
2026-01-18 20:31:31.00	31.19	14.40	-38.8	-39.9	22.6	0.00e+00	0	40	0	433061888	50	6322
2026-01-18 20:31:34.03	30.59	14.50	-38.8	-39.8	22.5	0.00e+00	0	40	0	438304768	50	6310
2026-01-18 20:31:37.05	29.99	14.59	-38.1	-39.0	23.0	0.00e+00	11	40	0	444596224	50	5746
2026-01-18 20:31:40.08	29.38	14.69	-38.6	-39.5	22.7	0.00e+00	0	40	0	449839104	50	6099
2026-01-18 20:31:43.11	28.77	14.77	-38.6	-39.6	22.8	0.00e+00	0	40	0	456130560	50	6152
2026-01-18 20:31:46.14	28.15	14.86	-38.4	-39.4	23.0	0.00e+00	91	41	0	461373440	50	5978
2026-01-18 20:31:49.17	27.54	14.94	-38.6	-39.6	22.5	0.00e+00	0	41	0	466616320	50	6145
2026-01-18 20:31:52.20	26.91	15.02	-39.2	-40.3	22.2	0.00e+00	0	41	0	472907776	50	6622
2026-01-18 20:31:55.22	26.29	15.10	-39.4	-40.4	22.1	0.00e+00	92	40	0	478150656	50	6751
2026-01-18 20:31:58.25	25.66	15.17	-39.1	-40.1	22.4	0.00e+00	0	40	0	484442112	50	6509
2026-01-18 20:32:01.27	25.04	15.24	-39.6	-40.7	21.6	0.00e+00	0	40	0	489684992	50	6946
2026-01-18 20:32:04.30	24.40	15.30	-39.2	-40.2	22.3	0.00e+00	0	40	0	494927872	50	6576
2026-01-18 20:32:07.33	23.77	15.37	-39.1	-40.2	22.2	0.00e+00	0	40	0	501219328	50	6566
2026-01-18 20:32:10.36	23.13	15.43	-39.0	-39.9	22.5	0.00e+00	0	40	0	506462208	50	6390
2026-01-18 20:32:13.38	22.49	15.48	-38.4	-39.3	23.0	0.00e+00	0	40	0	512753664	50	5909
2026-01-18 20:32:16.41	21.84	15.53	-38.9	-39.9	22.5	0.00e+00	87	40	0	517996544	50	6354
2026-01-18 20:32:19.44	21.20	15.58	-39.1	-40.1	22.4	0.00e+00	0	40	0	524288000	50	6512
2026-01-18 20:32:22.46	20.55	15.63	-39.1	-40.2	22.2	0.00e+00	21	40	0	529530880	50	6544
2026-01-18 20:32:25.49	19.90	15.67	-39.3	-40.3	22.2	0.00e+00	92	40	0	534773760	50	6692
2026-01-18 20:32:28.52	19.25	15.71	-39.4	-40.5	21.9	0.00e+00	0	40	0	541065216	50	6814
2026-01-18 20:32:31.55	18.60	15.74	-39.9	-41.0	21.7	0.00e+00	0	40	0	546308096	52	6427
2026-01-18 20:32:34.58	17.94	15.77	-39.6	-40.7	22.1	0.00e+00	0	40	0	552599552	52	6198
2026-01-18 20:32:37.61	17.29	15.80	-39.6	-40.7	21.8	0.00e+00	58	40	0	557842432	52	6214
2026-01-18 20:32:40.64	16.63	15.82	-39.8	-40.9	21.7	0.00e+00	0	40	0	563085312	52	6324
2026-01-18 20:32:43.67	15.97	15.84	-39.7	-40.8	21.8	0.00e+00	0	40	0	569376768	52	6297
2026-01-18 20:32:46.70	15.31	15.85	-39.9	-41.0	21.7	0.00e+00	91	41	0	574619648	52	6451
2026-01-18 20:32:49.72	14.65	15.87	-39.5	-40.6	22.0	0.00e+00	0	40	0	580911104	52	6141
2026-01-18 20:32:52.76	13.99	15.87	-39.9	-41.0	21.9	0.00e+00	0	40	0	586153984	52	6453
2026-01-18 20:32:55.79	13.33	15.88	-39.6	-40.7	21.9	0.00e+00	92	40	0	592445440	52	6199
2026-01-18 20:32:58.82	12.67	15.88	-38.9	-39.9	22.6	0.00e+00	3	40	0	597688320	52	5644
2026-01-18 20:33:01.85	12.01	15.87	-38.7	-39.6	22.8	0.00e+00	0	40	0	602931200	50	6171
2026-01-18 20:33:04.87	11.36	15.87	-39.0	-40.0	22.4	0.00e+00	0	40	0	609222656	50	6455
2026-01-18 20:33:07.90	10.70	15.85	-39.4	-40.4	22.1	0.00e+00	10	40	0	614465536	50	6767
2026-01-18 20:33:10.93	10.04	15.84	-39.9	-41.0	21.6	0.00e+00	0	40	0	620756992	52	6439
2026-01-18 20:33:13.96	9.38	15.82	-40.2	-41.4	21.2	0.00e+00	0	40	0	625999872	52	6730
2026-01-18 20:33:16.98	8.73	15.80	-39.7	-40.9	21.8	0.00e+00	41	40	0	631242752	52	6321
2026-01-18 20:33:20.01	8.07	15.77	-39.4	-40.5	22.1	0.00e+00	0	41	0	637534208	52	6094
2026-01-18 20:33:23.04	7.42	15.74	-39.0	-40.1	22.6	0.00e+00	0	40	0	642777088	52	5763
2026-01-18 20:33:26.07	6.76	15.70	-39.4	-40.5	22.2	0.00e+00	44	40	0	649068544	52	6046
2026-01-18 20:33:29.10	6.11	15.67	-39.3	-40.4	22.2	0.00e+00	0	40	0	654311424	52	6019
2026-01-18 20:33:32.12	5.46	15.62	-38.6	-39.6	22.8	0.00e+00	0	40	0	660602880	50	6143
2026-01-18 20:33:35.15	4.82	15.58	-38.4	-39.3	22.9	0.00e+00	0	40	0	665845760	50	5957
2026-01-18 20:33:38.18	4.17	15.53	-38.8	-39.9	22.5	0.00e+00	12	40	0	671088640	50	6325
2026-01-18 20:33:41.21	3.53	15.48	-38.6	-39.7	22.6	0.00e+00	0	40	0	677380096	50	6178
2026-01-18 20:33:44.23	2.89	15.42	-38.8	-39.8	22.5	0.00e+00	0	40	0	682622976	50	6299
2026-01-18 20:33:47.26	2.25	15.36	-39.1	-40.2	22.4	0.00e+00	92	40	0	688914432	50	6566
2026-01-18 20:33:50.29	1.61	15.30	-39.2	-40.2	22.3	0.00e+00	0	40	0	694157312	50	6611
2026-01-18 20:33:53.32	0.98	15.23	-39.3	-40.3	22.2	0.00e+00	0	40	0	699400192	50	6686
2026-01-18 20:33:56.34	0.35	15.16	-38.4	-39.3	23.1	0.00e+00	22	40	0	705691648	50	5948
2026-01-18 20:33:59.37	359.73	15.09	-38.2	-39.1	23.2	0.00e+00	17	40	0	710934528	50	5779
2026-01-18 20:34:02.40	359.10	15.01	-38.3	-39.2	23.0	0.00e+00	0	40	0	717225984	50	5835
2026-01-18 20:34:05.43	358.48	14.94	-38.4	-39.4	22.8	0.00e+00	0	40	0	722468864	50	5981
2026-01-18 20:34:08.46	357.87	14.85	-39.1	-40.1	22.3	0.00e+00	92	41	0	727711744	50	6500
2026-01-18 20:34:11.48	357.25	14.77	-39.3	-40.4	22.1	0.00e+00	0	41	0	734003200	50	6703
2026-01-18 20:34:14.51	356.64	14.68	-39.4	-40.5	22.1	0.00e+00	0	41	0	739246080	50	6774
2026-01-18 20:34:17.54	356.04	14.59	-39.7	-40.8	21.5	0.00e+00	92	40	0	745537536	52	6294
2026-01-18 20:34:20.56	355.44	14.49	-39.8	-40.9	21.6	0.00e+00	0	41	0	750780416	52	6380
2026-01-18 20:34:23.59	354.84	14.40	-39.2	-40.2	22.2	0.00e+00	0	41	0	757071872	52	5870
2026-01-18 20:34:26.62	354.24	14.30	-39.3	-40.3	22.1	0.00e+00	0	40	0	762314752	52	5935
2026-01-18 20:34:29.64	353.65	14.20	-39.2	-40.2	22.3	0.00e+00	45	40	0	767557632	52	5879
2026-01-18 20:34:32.67	353.07	14.09	-39.5	-40.6	22.1	0.00e+00	0	40	0	773849088	52	6111
2026-01-18 20:34:35.70	352.49	13.98	-38.0	-38.9	23.2	0.00e+00	0	40	0	779091968	50	5684
2026-01-18 20:34:38.73	351.91	13.88	-38.1	-39.0	23.2	0.00e+00	91	40	0	785383424	50	5755
2026-01-18 20:34:41.76	351.34	13.76	-38.6	-39.5	22.7	0.00e+00	0	40	0	790626304	50	6089
2026-01-18 20:34:44.78	350.77	13.65	-38.9	-40.0	22.4	0.00e+00	0	40	0	795869184	50	6416
2026-01-18 20:34:47.81	350.20	13.53	-39.8	-41.0	21.4	0.00e+00	92	41	0	802160640	52	6402
2026-01-18 20:34:50.83	349.65	13.41	-40.0	-41.1	21.4	0.00e+00	0	40	0	807403520	52	6524
2026-01-18 20:34:53.86	349.09	13.29	-39.8	-40.9	21.6	0.00e+00	0	40	0	813694976	52	6360
2026-01-18 20:34:56.89	348.54	13.17	-40.0	-41.1	21.2	0.00e+00	0	41	0	818937856	52	6535
2026-01-18 20:34:59.92	347.99	13.05	-40.1	-41.3	21.4	0.00e+00	92	41	0	825229312	52	6637
2026-01-18 20:35:02.94	347.45	12.92	-40.0	-41.1	21.6	0.00e+00	0	41	0	830472192	52	6498
2026-01-18 20:35:05.97	346.92	12.79	-39.9	-41.0	21.5	0.00e+00	0	40	0	835715072	52	6463
2026-01-18 20:35:09.00	346.39	12.66	-40.1	-41.3	21.3	0.00e+00	58	41	0	842006528	52	6617
2026-01-18 20:35:12.03	345.86	12.53	-39.9	-41.0	21.6	0.00e+00	0	41	0	847249408	52	6391
2026-01-18 20:35:15.06	345.34	12.39	-39.4	-40.4	22.0	0.00e+00	0	41	0	853540864	52	6004
2026-01-18 20:35:18.08	344.82	12.26	-39.7	-40.8	21.6	0.00e+00	92	41	0	858783744	52	6304
2026-01-18 20:35:21.11	344.31	12.12	-40.4	-41.6	20.9	0.00e+00	0	41	0	864026624	52	6924
2026-01-18 20:35:24.14	343.80	11.98	-40.6	-41.9	20.7	0.00e+00	0	41	0	870318080	52	7122
2026-01-18 20:35:27.16	343.30	11.84	-40.3	-41.5	21.1	0.00e+00	0	41	0	875560960	52	6804
2026-01-18 20:35:30.19	342.80	11.70	-40.3	-41.5	21.0	0.00e+00	46	41	0	881852416	52	6799
2026-01-18 20:35:33.22	342.31	11.56	-41.5	-43.0	19.5	0.00e+00	0	41	0	887095296	54	7206
2026-01-18 20:35:36.24	341.82	11.42	-43.1	-45.0	17.8	0.00e+00	0	40	0	892338176	58	7205
2026-01-18 20:35:39.27	341.34	11.27	-42.9	-44.8	18.1	0.00e+00	92	41	0	898629632	58	7068
2026-01-18 20:35:42.30	340.86	11.13	-42.6	-44.4	18.7	0.00e+00	0	41	0	903872512	58	6707
2026-01-18 20:35:45.32	340.39	10.98	-42.0	-43.6	19.1	0.00e+00	0	41	0	910163968	58	6123
2026-01-18 20:35:48.35	339.92	10.83	-41.4	-42.8	19.9	0.00e+00	48	41	0	915406848	56	6314
2026-01-18 20:35:51.38	339.45	10.68	-40.8	-42.1	20.5	0.00e+00	0	41	0	921698304	56	5788
2026-01-18 20:35:54.41	339.00	10.53	-41.0	-42.3	20.2	0.00e+00	9	41	0	926941184	56	5960
2026-01-18 20:35:57.44	338.54	10.38	-41.0	-42.3	20.2	0.00e+00	10	41	0	932184064	56	5932
2026-01-18 20:36:00.46	338.09	10.23	-40.8	-42.1	20.5	0.00e+00	8	41	0	938475520	56	5775
2026-01-18 20:36:03.49	337.65	10.08	-40.3	-41.5	21.0	0.00e+00	0	41	0	943718400	54	6100
2026-01-18 20:36:06.52	337.21	9.93	-40.4	-41.6	20.9	0.00e+00	0	41	0	950009856	54	6133
2026-01-18 20:36:09.55	336.77	9.77	-40.6	-41.9	20.6	0.00e+00	76	41	0	955252736	54	6318
2026-01-18 20:36:12.58	336.34	9.62	-40.9	-42.2	20.2	0.00e+00	0	41	0	960495616	54	6577
2026-01-18 20:36:15.37	335.95	9.48	-41.2	-42.6	20.1	0.00e+00	0	41	0	966787072	54	6857
2026-01-18 20:36:18.58	335.50	9.31	-41.1	-42.5	20.0	0.00e+00	0	41	0	973078528	54	6770
2026-01-18 20:36:21.46	335.10	9.16	-40.7	-42.0	20.4	0.00e+00	0	41	0	978321408	54	6430
2026-01-18 20:36:24.64	334.67	9.00	-40.8	-42.1	20.3	0.00e+00	0	41	0	983564288	54	6480
2026-01-18 20:36:27.52	334.28	8.85	-40.5	-41.8	20.6	0.00e+00	0	41	0	989855744	54	6253
2026-01-18 20:36:30.69	333.86	8.69	-39.9	-41.1	21.2	0.00e+00	75	41	0	995098624	54	5779
2026-01-18 20:36:33.58	333.48	8.54	-39.4	-40.5	21.7	0.00e+00	0	41	0	1000341504	52	6068
2026-01-18 20:36:36.75	333.07	8.37	-39.7	-40.8	21.6	0.00e+00	0	41	0	1006632960	52	6282
2026-01-18 20:36:39.63	332.70	8.22	-39.7	-40.9	21.4	0.00e+00	77	41	0	1011875840	52	6327
2026-01-18 20:36:42.81	332.29	8.05	-39.7	-40.9	21.4	0.00e+00	3	41	0	1018167296	52	6339
2026-01-18 20:36:45.69	331.93	7.90	-39.5	-40.6	21.6	0.00e+00	0	41	0	1023410176	52	6152
2026-01-18 20:36:48.87	331.53	7.74	-39.4	-40.5	21.7	0.00e+00	0	41	0	1029701632	52	6089
2026-01-18 20:36:51.75	331.18	7.59	-39.7	-40.9	21.3	0.00e+00	11	41	0	1034944512	52	6349
2026-01-18 20:36:54.92	330.79	7.42	-40.0	-41.2	21.1	0.00e+00	0	41	0	1041235968	52	6562
2026-01-18 20:36:57.81	330.44	7.27	-40.4	-41.7	20.5	0.00e+00	0	41	0	1046478848	52	6940
2026-01-18 20:37:00.98	330.06	7.10	-40.4	-41.7	20.6	0.00e+00	72	41	0	1051721728	52	6971
2026-01-18 20:37:03.86	329.72	6.95	-40.2	-41.5	20.8	0.00e+00	0	41	0	1058013184	52	6777
2026-01-18 20:37:07.03	329.36	6.78	-40.3	-41.6	20.6	0.00e+00	0	41	0	1063256064	52	6856
2026-01-18 20:37:09.91	329.02	6.63	-40.2	-41.4	20.8	0.00e+00	90	41	0	1068498944	52	6732
2026-01-18 20:37:13.08	328.66	6.46	-40.1	-41.2	20.9	0.00e+00	0	41	0	1074790400	52	6613
2026-01-18 20:37:15.97	328.34	6.31	-39.8	-41.0	20.8	0.00e+00	0	41	0	1080033280	52	6400
2026-01-18 20:37:19.14	327.98	6.14	-39.6	-40.8	21.3	0.00e+00	0	41	0	1086324736	52	6251
2026-01-18 20:37:22.02	327.67	5.99	-39.7	-40.9	21.2	0.00e+00	71	41	0	1091567616	52	6332
2026-01-18 20:37:25.20	327.32	5.82	-40.3	-41.5	20.6	0.00e+00	9	41	0	1097859072	52	6843
2026-01-18 20:37:28.08	327.01	5.67	-40.6	-41.9	20.3	0.00e+00	0	41	0	1103101952	54	6331
2026-01-18 20:37:31.25	326.67	5.51	-40.9	-42.3	19.8	0.00e+00	92	41	0	1109393408	54	6676
2026-01-18 20:37:34.14	326.37	5.35	-40.6	-41.9	20.2	0.00e+00	0	41	0	1114636288	54	6363
2026-01-18 20:37:37.31	326.04	5.19	-40.0	-41.2	20.9	0.00e+00	0	41	0	1119879168	54	5832
2026-01-18 20:37:40.19	325.74	5.04	-39.9	-41.1	20.9	0.00e+00	92	41	0	1126170624	54	5795
2026-01-18 20:37:43.36	325.42	4.87	-40.0	-41.2	20.7	0.00e+00	26	41	0	1131413504	54	5837
2026-01-18 20:37:46.25	325.13	4.72	-40.2	-41.4	20.4	0.00e+00	0	41	0	1136656384	54	6008
2026-01-18 20:37:49.42	324.81	4.55	-40.8	-42.2	19.8	0.00e+00	0	41	0	1142947840	54	6564
2026-01-18 20:37:52.30	324.53	4.40	-41.3	-42.8	19.2	0.00e+00	91	41	0	1148190720	54	7012
2026-01-18 20:37:55.48	324.22	4.24	-42.0	-43.7	18.4	0.00e+00	0	41	0	1154482176	56	6928
2026-01-18 20:37:58.36	323.94	4.09	-42.4	-44.2	17.9	0.00e+00	0	41	0	1159725056	56	7421
2026-01-18 20:38:01.53	323.64	3.92	-42.4	-44.3	17.8	0.00e+00	25	41	0	1166016512	56	7462
2026-01-18 20:38:04.41	323.37	3.77	-42.4	-44.2	17.7	0.00e+00	0	41	0	1171259392	58	6587
2026-01-18 20:38:07.58	323.07	3.61	-42.4	-44.2	17.9	0.00e+00	0	41	0	1176502272	58	6604
2026-01-18 20:38:10.47	322.81	3.46	-42.0	-43.7	18.1	0.00e+00	92	41	0	1182793728	58	6239
2026-01-18 20:38:13.64	322.52	3.30	-42.9	-45.0	16.9	0.00e+00	64	41	0	1188036608	58	7226
2026-01-18 20:38:16.52	322.26	3.15	-43.0	-45.1	16.7	0.00e+00	0	41	0	1193279488	58	7318
2026-01-18 20:38:19.69	321.98	2.98	-48.0	-62.8	3.6	1.27e-01	0	41	104	1199570944	60	49675
2026-01-18 20:38:22.57	321.72	2.84	-49.0	-64.2	3.6	1.51e+00	0	41	104	1199570944	60	58618
2026-01-18 20:38:25.75	321.45	2.67	-49.4	-64.6	3.6	1.51e+00	0	41	104	1199570944	60	61598
2026-01-18 20:38:28.63	321.20	2.53	-49.5	-64.7	3.6	1.51e+00	0	41	104	1199570944	60	62150
2026-01-18 20:38:31.80	320.93	2.36	-49.6	-64.8	3.6	1.51e+00	0	41	104	1199570944	60	62766
2026-01-18 20:38:34.69	320.69	2.22	-49.5	-64.7	3.6	1.51e+00	0	41	104	1199570944	60	62361
2026-01-18 20:38:37.86	320.42	2.05	-49.4	-64.6	3.6	1.51e+00	0	41	104	1199570944	60	61169
2026-01-18 20:38:40.75	320.18	1.91	-49.4	-64.6	3.6	1.51e+00	0	41	104	1199570944	60	61070
2026-01-18 20:38:43.93	319.92	1.75	-49.4	-64.6	3.6	1.51e+00	0	41	104	1199570944	60	61034
2026-01-18 20:38:46.81	319.69	1.60	-49.4	-64.6	3.6	1.51e+00	0	41	104	1199570944	60	61404
2026-01-18 20:38:49.98	319.44	1.44	-49.4	-64.6	3.6	1.51e+00	0	41	104	1199570944	60	61657
2026-01-18 20:38:52.86	319.21	1.30	-49.4	-64.6	3.6	1.51e+00	0	41	104	1199570944	60	61513
2026-01-18 20:38:56.03	318.96	1.14	-49.4	-64.6	3.6	1.51e+00	0	41	104	1199570944	60	61520
2026-01-18 20:38:58.92	318.74	0.99	-49.4	-64.6	3.6	1.51e+00	0	41	104	1199570944	60	61392
2026-01-18 20:39:02.09	318.50	0.83	-49.4	-64.6	3.6	1.51e+00	0	41	104	1199570944	60	61233
2026-01-18 20:39:04.98	318.28	0.69	-49.4	-64.6	3.6	1.51e+00	0	41	104	1199570944	60	61202
2026-01-18 20:39:08.15	318.04	0.53	-49.4	-64.6	3.6	1.51e+00	0	41	104	1199570944	60	61257
2026-01-18 20:39:11.03	317.83	0.39	-49.4	-64.6	3.6	1.51e+00	0	41	104	1199570944	60	61437
2026-01-18 20:39:14.21	317.59	0.23	-49.4	-64.6	3.6	1.51e+00	0	41	104	1199570944	60	61269
2026-01-18 20:39:17.09	317.38	0.09	-49.4	-64.6	3.6	1.51e+00	0	41	104	1199570944	60	61537
2026-01-18 20:39:20.27	317.16	-0.07	-49.4	-64.6	3.6	1.51e+00	0	41	104	1199570944	60	61246

#Closed at: 2026-01-18 20:39:20
#Recorded file [1199 MB]: D:/lorett/data/35029_260119_082637.dat