passes_logs/2026/01/18/R4.6S_Anadyr/R4.6S_Anadyr__20260118_180716_FENGYUN_3D_rec.log

#Pass ID: 20260118_180716_FENGYUN 3D
#Satellite: FENGYUN 3D
#Configuration: FENGYUN 3D
#almurnet v.1.7.20251203
#Start time: 2026-01-18 18:07:19

#Version: 2.2.20231116
#Station: R4.6S_Anadyr
#Location: 177.4865 lon 64.73178 lat
#TLE: 1 43010U 17072A   26017.61121112  .00000213  00000+0  12257-3 0  9991
#TLE: 2 43010  98.9934 349.4672 0002374 103.9362 256.2078 14.19696413423628

#Time	Az	El	Level	Level2	SNR	BER	BlckErr	Temp	State	Recorded	gain1	gain2
2026-01-18 18:07:19.90	24.85	0.20	-49.5	-60.2	3.3	8.39e-01	0	39	0	0	60	37154
2026-01-18 18:07:23.94	24.73	0.44	-49.5	-61.7	3.6	8.45e-01	0	39	104	0	60	43972
2026-01-18 18:07:27.98	24.61	0.68	-49.5	-61.7	3.6	8.46e-01	0	39	104	0	60	43782
2026-01-18 18:07:32.01	24.48	0.92	-49.3	-61.5	3.6	8.44e-01	0	39	104	0	60	42865
2026-01-18 18:07:36.05	24.35	1.16	-48.8	-61.0	3.6	8.45e-01	0	39	104	0	60	40551
2026-01-18 18:07:40.09	24.22	1.40	-48.1	-60.2	3.6	8.45e-01	0	39	104	0	60	37089
2026-01-18 18:07:44.13	24.09	1.65	-47.8	-59.9	3.6	8.44e-01	0	39	104	0	60	35883
2026-01-18 18:07:48.17	23.95	1.90	-47.8	-59.4	3.6	8.44e-01	0	39	104	0	60	33846
2026-01-18 18:07:52.21	23.81	2.15	-47.8	-59.8	3.5	8.46e-01	0	39	104	0	60	35321
2026-01-18 18:07:56.25	23.67	2.40	-47.8	-59.8	3.6	8.45e-01	0	39	104	0	60	35236
2026-01-18 18:08:00.29	23.52	2.65	-47.7	-59.2	3.6	8.45e-01	0	40	104	0	60	32944
2026-01-18 18:08:04.33	23.37	2.91	-47.6	-57.4	3.7	8.44e-01	0	40	104	0	60	26936
2026-01-18 18:08:08.37	23.22	3.17	-47.5	-57.2	3.6	8.45e-01	0	40	104	0	60	26134
2026-01-18 18:08:12.41	23.07	3.43	-45.2	-48.4	10.1	1.18e-02	0	40	0	14680064	60	9534
2026-01-18 18:08:16.46	22.91	3.69	-43.7	-45.6	16.1	1.95e-01	0	40	0	37748736	60	6900
2026-01-18 18:08:20.50	22.75	3.96	-41.2	-42.6	16.5	1.94e-05	0	40	0	48234496	56	6172
2026-01-18 18:08:24.54	22.59	4.22	-38.2	-39.2	19.9	0.00e+00	0	40	0	71303168	50	5831
2026-01-18 18:08:28.58	22.43	4.49	-37.5	-38.4	20.6	0.00e+00	0	40	0	94371840	48	6020
2026-01-18 18:08:32.63	22.26	4.77	-37.5	-38.4	20.9	0.00e+00	0	40	0	117440512	48	6006
2026-01-18 18:08:36.67	22.08	5.04	-37.2	-38.1	20.8	0.00e+00	0	40	0	139460608	48	5777
2026-01-18 18:08:40.71	21.91	5.32	-37.2	-38.0	21.1	0.00e+00	0	40	0	162529280	48	5739
2026-01-18 18:08:44.75	21.73	5.60	-36.2	-37.0	22.3	0.00e+00	0	40	0	185597952	46	5706
2026-01-18 18:08:48.79	21.54	5.88	-36.0	-36.8	22.5	0.00e+00	0	40	0	207618048	46	5567
2026-01-18 18:08:52.83	21.35	6.17	-36.1	-36.9	22.5	0.00e+00	0	40	0	230686720	46	5673
2026-01-18 18:08:56.87	21.16	6.45	-35.8	-36.5	22.8	0.00e+00	0	40	0	253755392	44	6098
2026-01-18 18:09:00.91	20.96	6.74	-35.6	-36.3	23.0	0.00e+00	0	40	0	275775488	44	5960
2026-01-18 18:09:04.95	20.76	7.04	-35.8	-36.5	22.9	0.00e+00	0	40	0	298844160	44	6073
2026-01-18 18:09:09.00	20.56	7.34	-35.7	-36.5	22.9	0.00e+00	0	40	0	321912832	44	6048
2026-01-18 18:09:13.04	20.35	7.64	-35.7	-36.4	22.9	0.00e+00	0	40	0	343932928	44	6029
2026-01-18 18:09:17.07	20.13	7.94	-35.6	-36.4	23.1	0.00e+00	0	40	0	367001600	44	5997
2026-01-18 18:09:21.11	19.91	8.25	-35.7	-36.5	23.0	0.00e+00	0	40	0	390070272	44	6066
2026-01-18 18:09:25.15	19.69	8.56	-35.5	-36.3	23.3	0.00e+00	0	40	0	412090368	44	5911
2026-01-18 18:09:29.19	19.46	8.87	-35.4	-36.2	23.3	0.00e+00	0	40	0	435159040	44	5848
2026-01-18 18:09:33.23	19.22	9.19	-35.8	-36.5	23.1	0.00e+00	0	40	0	458227712	44	6069
2026-01-18 18:09:37.27	18.98	9.51	-35.3	-36.0	23.6	0.00e+00	0	40	0	480247808	44	5727
2026-01-18 18:09:41.31	18.74	9.83	-35.1	-35.8	23.7	0.00e+00	0	40	0	503316480	44	5625
2026-01-18 18:09:45.36	18.48	10.16	-35.1	-35.8	23.8	0.00e+00	0	40	0	526385152	44	5575
2026-01-18 18:09:49.40	18.23	10.49	-34.8	-35.5	24.1	0.00e+00	0	40	0	548405248	44	5425
2026-01-18 18:09:53.44	17.96	10.83	-34.9	-35.6	24.0	0.00e+00	0	40	0	571473920	44	5483
2026-01-18 18:09:57.48	17.69	11.17	-35.0	-35.7	23.9	0.00e+00	0	40	0	594542592	44	5534
2026-01-18 18:10:01.52	17.41	11.51	-34.9	-35.6	24.1	0.00e+00	0	40	0	617611264	44	5469
2026-01-18 18:10:05.56	17.13	11.86	-35.0	-35.7	24.1	0.00e+00	0	40	0	639631360	44	5534
2026-01-18 18:10:09.61	16.83	12.21	-34.7	-35.4	24.3	0.00e+00	0	40	0	662700032	42	5998
2026-01-18 18:10:13.65	16.53	12.57	-34.4	-35.1	24.6	0.00e+00	0	40	0	684720128	42	5819
2026-01-18 18:10:17.69	16.23	12.93	-34.0	-34.7	25.0	0.00e+00	0	40	0	707788800	42	5523
2026-01-18 18:10:21.73	15.91	13.29	-33.9	-34.6	25.1	0.00e+00	0	40	0	730857472	42	5475
2026-01-18 18:10:25.78	15.59	13.67	-34.1	-34.8	25.0	0.00e+00	0	40	0	753926144	42	5584
2026-01-18 18:10:29.82	15.25	14.04	-33.9	-34.6	25.1	0.00e+00	0	40	0	775946240	42	5445
2026-01-18 18:10:33.86	14.91	14.42	-34.1	-34.8	25.0	0.00e+00	0	40	0	799014912	42	5589
2026-01-18 18:10:37.90	14.56	14.80	-33.6	-34.3	25.4	0.00e+00	0	40	0	822083584	40	5942
2026-01-18 18:10:41.94	14.20	15.19	-33.6	-34.3	25.4	0.00e+00	0	40	0	844103680	40	5902
2026-01-18 18:10:45.98	13.83	15.59	-33.5	-34.2	25.5	0.00e+00	0	40	0	867172352	40	5846
2026-01-18 18:10:50.03	13.45	15.99	-33.3	-34.0	25.7	0.00e+00	0	40	0	890241024	40	5718
2026-01-18 18:10:54.07	13.06	16.39	-33.3	-34.0	25.8	0.00e+00	0	40	0	912261120	40	5703
2026-01-18 18:10:58.11	12.65	16.81	-33.0	-33.6	26.1	0.00e+00	0	40	0	935329792	40	5466
2026-01-18 18:11:02.15	12.24	17.22	-32.9	-33.6	26.1	0.00e+00	0	40	0	958398464	40	5474
2026-01-18 18:11:06.19	11.81	17.64	-33.0	-33.7	26.0	0.00e+00	0	40	0	980418560	40	5523
2026-01-18 18:11:10.23	11.37	18.07	-32.9	-33.5	26.2	0.00e+00	0	40	0	1003487232	40	5413
2026-01-18 18:11:14.27	10.92	18.50	-32.6	-33.2	26.4	0.00e+00	0	40	0	1026555904	38	5854
2026-01-18 18:11:18.31	10.45	18.94	-32.5	-33.2	26.5	0.00e+00	0	40	0	1048576000	38	5845
2026-01-18 18:11:22.35	9.97	19.39	-32.4	-33.1	26.6	0.00e+00	0	40	0	1071644672	38	5768
2026-01-18 18:11:26.39	9.48	19.84	-32.4	-33.0	26.6	0.00e+00	0	40	0	1094713344	38	5753
2026-01-18 18:11:30.43	8.97	20.29	-32.2	-32.8	26.8	0.00e+00	0	40	0	1116733440	38	5618
2026-01-18 18:11:34.47	8.44	20.75	-32.0	-32.6	26.9	0.00e+00	0	40	0	1139802112	38	5486
2026-01-18 18:11:38.52	7.90	21.22	-32.1	-32.7	26.9	0.00e+00	0	40	0	1162870784	38	5529
2026-01-18 18:11:42.56	7.34	21.70	-32.1	-32.7	26.9	0.00e+00	0	40	0	1184890880	38	5547
2026-01-18 18:11:46.60	6.76	22.18	-32.0	-32.6	26.9	0.00e+00	0	40	0	1207959552	38	5481
2026-01-18 18:11:50.64	6.17	22.66	-31.8	-32.5	27.2	0.00e+00	0	40	0	1231028224	36	6035
2026-01-18 18:11:54.69	5.55	23.16	-31.5	-32.1	27.3	0.00e+00	0	40	0	1254096896	36	5827
2026-01-18 18:11:58.73	4.91	23.65	-31.6	-32.2	27.4	0.00e+00	0	40	0	1276116992	36	5877
2026-01-18 18:12:02.77	4.26	24.16	-31.7	-32.4	27.2	0.00e+00	0	40	0	1299185664	36	5979
2026-01-18 18:12:06.82	3.58	24.67	-31.5	-32.2	27.5	0.00e+00	0	40	0	1322254336	36	5830
2026-01-18 18:12:10.85	2.88	25.18	-31.7	-32.4	27.3	0.00e+00	0	40	0	1344274432	36	5975
2026-01-18 18:12:14.90	2.15	25.70	-31.4	-32.0	27.5	0.00e+00	0	40	0	1367343104	36	5755
2026-01-18 18:12:18.93	1.40	26.22	-31.4	-32.0	27.5	0.00e+00	0	40	0	1390411776	36	5746
2026-01-18 18:12:22.97	0.62	26.75	-31.4	-32.0	27.5	0.00e+00	0	40	0	1412431872	36	5745
2026-01-18 18:12:27.01	359.82	27.28	-31.4	-32.1	27.5	0.00e+00	0	40	0	1435500544	36	5764
2026-01-18 18:12:31.05	358.99	27.82	-31.0	-31.5	27.9	0.00e+00	0	40	0	1458569216	36	5431
2026-01-18 18:12:35.09	358.13	28.36	-31.0	-31.6	27.8	0.00e+00	0	40	0	1480589312	36	5468
2026-01-18 18:12:39.13	357.24	28.90	-31.0	-31.7	27.7	0.00e+00	0	40	0	1503657984	36	5505
2026-01-18 18:12:43.17	356.32	29.45	-30.9	-31.6	27.9	0.00e+00	0	40	0	1526726656	36	5443
2026-01-18 18:12:47.21	355.37	30.00	-30.9	-31.5	27.9	0.00e+00	0	40	0	1548746752	36	5437
2026-01-18 18:12:51.25	354.38	30.55	-30.9	-31.5	27.9	0.00e+00	0	40	0	1571815424	36	5417
2026-01-18 18:12:55.29	353.36	31.10	-30.9	-31.5	27.9	0.00e+00	0	40	0	1594884096	36	5420
2026-01-18 18:12:59.34	352.30	31.65	-30.8	-31.4	28.0	0.00e+00	0	40	0	1616904192	34	6016
2026-01-18 18:13:03.38	351.20	32.19	-30.8	-31.4	28.0	0.00e+00	0	40	0	1639972864	34	5982
2026-01-18 18:13:07.42	350.07	32.74	-31.1	-31.7	27.8	0.00e+00	0	40	0	1663041536	34	6236
2026-01-18 18:13:11.47	348.90	33.28	-30.9	-31.5	28.0	0.00e+00	0	40	0	1686110208	34	6084
2026-01-18 18:13:15.51	347.69	33.82	-30.6	-31.3	28.1	0.00e+00	0	40	0	1708130304	34	5901
2026-01-18 18:13:19.55	346.43	34.36	-30.8	-31.4	28.0	0.00e+00	0	40	0	1731198976	34	6026
2026-01-18 18:13:23.60	345.14	34.88	-30.9	-31.5	27.9	0.00e+00	0	40	0	1753219072	34	6058
2026-01-18 18:13:27.63	343.80	35.40	-30.8	-31.4	28.0	0.00e+00	0	40	0	1776287744	34	5995
2026-01-18 18:13:31.68	342.42	35.90	-31.2	-31.8	27.8	0.00e+00	0	40	0	1799356416	34	6297
2026-01-18 18:13:35.71	341.00	36.40	-31.0	-31.7	27.9	0.00e+00	0	40	0	1822425088	34	6186
2026-01-18 18:13:39.75	339.54	36.88	-30.9	-31.5	28.0	0.00e+00	0	40	0	1844445184	34	6048
2026-01-18 18:13:43.79	338.03	37.34	-30.9	-31.5	28.0	0.00e+00	0	40	0	1867513856	34	6043
2026-01-18 18:13:47.83	336.47	37.79	-30.9	-31.5	28.0	0.00e+00	0	40	0	1890582528	34	6073
2026-01-18 18:13:51.87	334.88	38.22	-30.9	-31.5	28.0	0.00e+00	0	40	0	1912602624	34	6095
2026-01-18 18:13:55.92	333.23	38.63	-31.0	-31.6	27.9	0.00e+00	0	40	0	1935671296	34	6122
2026-01-18 18:13:59.96	331.55	39.02	-30.9	-31.6	28.0	0.00e+00	0	40	0	1957691392	34	6122
2026-01-18 18:14:04.00	329.84	39.38	-30.7	-31.3	28.2	0.00e+00	0	40	0	1980760064	34	5910
2026-01-18 18:14:08.03	328.08	39.72	-30.7	-31.3	28.2	0.00e+00	0	40	0	2003828736	34	5936
2026-01-18 18:14:12.08	326.29	40.02	-31.0	-31.7	28.0	0.00e+00	0	40	0	2026897408	34	6175
2026-01-18 18:14:16.12	324.46	40.30	-30.8	-31.4	28.1	0.00e+00	0	40	0	2048917504	34	5994
2026-01-18 18:14:20.16	322.61	40.55	-30.5	-31.1	28.4	0.00e+00	0	40	0	2071986176	34	5791
2026-01-18 18:14:24.20	320.73	40.76	-30.5	-31.0	28.3	0.00e+00	0	40	0	2095054848	34	5753
2026-01-18 18:14:28.24	318.82	40.94	-30.7	-31.2	28.2	0.00e+00	0	40	0	2117074944	34	5896
2026-01-18 18:14:32.29	316.89	41.08	-30.7	-31.3	28.2	0.00e+00	0	40	0	2140143616	34	5950
2026-01-18 18:14:36.33	314.96	41.18	-30.7	-31.4	28.2	0.00e+00	0	40	0	2163212288	34	5972
2026-01-18 18:14:40.37	313.01	41.25	-30.7	-31.3	28.3	0.00e+00	0	40	0	2185232384	34	5936
2026-01-18 18:14:44.41	311.05	41.28	-30.7	-31.3	28.2	0.00e+00	0	40	0	2208301056	34	5922
2026-01-18 18:14:48.45	309.09	41.28	-30.6	-31.2	28.3	0.00e+00	0	41	0	2231369728	34	5883
2026-01-18 18:14:52.50	307.14	41.23	-30.8	-31.4	28.1	0.00e+00	0	40	0	2253389824	34	6001
2026-01-18 18:14:56.54	305.19	41.15	-31.0	-31.6	27.9	0.00e+00	0	40	0	2276458496	34	6168
2026-01-18 18:15:00.58	303.25	41.03	-30.9	-31.6	28.1	0.00e+00	0	40	0	2299527168	34	6134
2026-01-18 18:15:04.62	301.34	40.87	-30.7	-31.4	28.2	0.00e+00	0	40	0	2322595840	34	5966
2026-01-18 18:15:08.65	299.44	40.68	-30.4	-31.0	28.4	0.00e+00	0	40	0	2344615936	34	5733
2026-01-18 18:15:12.70	297.57	40.46	-30.5	-31.0	28.4	0.00e+00	0	40	0	2367684608	34	5757
2026-01-18 18:15:16.73	295.72	40.20	-31.0	-31.6	28.0	0.00e+00	0	40	0	2389704704	34	6164
2026-01-18 18:15:20.78	293.91	39.91	-30.7	-31.3	28.1	0.00e+00	0	40	0	2412773376	34	5949
2026-01-18 18:15:24.82	292.12	39.59	-30.3	-30.8	28.5	0.00e+00	0	40	0	2435842048	34	5611
2026-01-18 18:15:28.86	290.38	39.25	-30.8	-31.5	28.1	0.00e+00	0	40	0	2457862144	34	6078
2026-01-18 18:15:32.91	288.67	38.87	-30.6	-31.3	28.3	0.00e+00	0	40	0	2480930816	34	5946
2026-01-18 18:15:36.95	287.00	38.48	-30.3	-30.9	28.4	0.00e+00	0	40	0	2503999488	34	5663
2026-01-18 18:15:40.99	285.37	38.06	-30.3	-30.8	28.5	0.00e+00	0	40	0	2527068160	34	5609
2026-01-18 18:15:45.03	283.79	37.62	-30.5	-31.0	28.4	0.00e+00	0	40	0	2549088256	34	5758
2026-01-18 18:15:49.07	282.25	37.17	-30.3	-31.0	28.4	0.00e+00	0	40	0	2572156928	34	5699
2026-01-18 18:15:53.12	280.75	36.69	-30.5	-31.0	28.3	0.00e+00	0	40	0	2595225600	34	5745
2026-01-18 18:15:57.16	279.30	36.20	-30.7	-31.3	28.2	0.00e+00	0	40	0	2617245696	34	5964
2026-01-18 18:16:01.20	277.89	35.70	-30.7	-31.2	28.2	0.00e+00	0	40	0	2640314368	34	5859
2026-01-18 18:16:05.24	276.52	35.19	-30.7	-31.2	28.3	0.00e+00	0	40	0	2663383040	34	5880
2026-01-18 18:16:09.29	275.19	34.67	-30.2	-30.8	28.6	0.00e+00	0	40	0	2685403136	34	5601
2026-01-18 18:16:13.33	273.91	34.14	-30.2	-30.8	28.6	0.00e+00	0	40	0	2708471808	34	5587
2026-01-18 18:16:17.37	272.67	33.60	-30.3	-30.8	28.5	0.00e+00	0	40	0	2731540480	34	5584
2026-01-18 18:16:21.41	271.47	33.06	-30.5	-31.1	28.2	0.00e+00	0	40	0	2754609152	34	5771
2026-01-18 18:16:25.45	270.32	32.51	-30.6	-31.2	28.0	0.00e+00	0	40	0	2776629248	34	5869
2026-01-18 18:16:29.49	269.19	31.97	-30.8	-31.4	28.0	0.00e+00	0	41	0	2799697920	34	5969
2026-01-18 18:16:33.53	268.11	31.42	-30.8	-31.5	28.0	0.00e+00	0	40	0	2821718016	34	6062
2026-01-18 18:16:37.58	267.06	30.86	-30.9	-31.4	27.9	0.00e+00	0	40	0	2844786688	34	5985
2026-01-18 18:16:41.62	266.05	30.31	-31.0	-31.6	27.8	0.00e+00	0	40	0	2867855360	34	6111
2026-01-18 18:16:45.66	265.07	29.76	-31.4	-32.0	27.5	0.00e+00	0	40	0	2889875456	34	6411
2026-01-18 18:16:49.70	264.13	29.21	-31.2	-31.7	27.6	0.00e+00	0	40	0	2912944128	34	6244
2026-01-18 18:16:53.74	263.22	28.66	-31.0	-31.6	27.8	0.00e+00	0	40	0	2936012800	34	6170
2026-01-18 18:16:57.78	262.34	28.12	-31.1	-31.8	27.7	0.00e+00	0	41	0	2959081472	34	6251
2026-01-18 18:17:01.82	261.49	27.58	-31.2	-31.7	27.6	0.00e+00	0	40	0	2981101568	34	6207
2026-01-18 18:17:05.86	260.66	27.04	-31.2	-31.9	27.5	0.00e+00	0	40	0	3004170240	34	6372
2026-01-18 18:17:09.91	259.87	26.51	-31.3	-31.9	27.5	0.00e+00	0	40	0	3026190336	34	6321
2026-01-18 18:17:13.95	259.10	25.98	-31.6	-32.3	27.2	0.00e+00	0	41	0	3049259008	34	6632
2026-01-18 18:17:17.99	258.35	25.45	-31.5	-32.2	27.3	0.00e+00	0	40	0	3072327680	36	5860
2026-01-18 18:17:22.03	257.63	24.94	-31.9	-32.6	27.0	0.00e+00	0	40	0	3095396352	36	6108
2026-01-18 18:17:26.07	256.94	24.42	-31.6	-32.2	27.3	0.00e+00	0	41	0	3117416448	36	5880
2026-01-18 18:17:30.11	256.26	23.91	-31.8	-32.4	27.1	0.00e+00	0	40	0	3140485120	36	5975
2026-01-18 18:17:34.15	255.61	23.41	-31.5	-32.1	27.3	0.00e+00	0	40	0	3163553792	36	5771
2026-01-18 18:17:38.19	254.98	22.92	-31.6	-32.2	27.2	0.00e+00	0	40	0	3185573888	36	5831
2026-01-18 18:17:42.23	254.37	22.42	-31.5	-32.2	27.3	0.00e+00	0	40	0	3208642560	36	5860
2026-01-18 18:17:46.27	253.78	21.94	-31.8	-32.3	27.0	0.00e+00	0	40	0	3231711232	36	5930
2026-01-18 18:17:50.32	253.20	21.46	-32.0	-32.6	26.9	0.00e+00	0	40	0	3253731328	36	6121
2026-01-18 18:17:54.36	252.65	20.99	-32.1	-32.8	26.8	0.00e+00	0	41	0	3276800000	36	6276
2026-01-18 18:17:58.40	252.11	20.52	-32.1	-32.6	26.9	0.00e+00	0	40	0	3299868672	36	6159
2026-01-18 18:18:02.44	251.59	20.06	-32.1	-32.8	26.8	0.00e+00	0	40	0	3321888768	36	6301
2026-01-18 18:18:06.48	251.08	19.60	-32.4	-33.0	26.5	0.00e+00	0	40	0	3344957440	36	6396
2026-01-18 18:18:10.53	250.59	19.15	-32.4	-32.9	26.6	0.00e+00	0	40	0	3368026112	36	6386
2026-01-18 18:18:14.57	250.11	18.71	-32.4	-33.1	26.5	0.00e+00	0	40	0	3391094784	36	6536
2026-01-18 18:18:18.61	249.65	18.27	-32.4	-33.1	26.6	0.00e+00	0	41	0	3413114880	36	6511
2026-01-18 18:18:22.65	249.20	17.84	-32.5	-33.1	26.5	0.00e+00	0	40	0	3436183552	36	6471
2026-01-18 18:18:26.69	248.76	17.41	-32.8	-33.5	26.2	0.00e+00	0	40	0	3458203648	38	6075
2026-01-18 18:18:30.73	248.34	16.99	-33.1	-33.7	26.0	0.00e+00	0	40	0	3481272320	38	6174
2026-01-18 18:18:34.78	247.92	16.57	-33.3	-33.9	25.8	0.00e+00	0	40	0	3504340992	38	6364
2026-01-18 18:18:38.82	247.52	16.17	-33.2	-33.8	25.8	0.00e+00	0	41	0	3527409664	40	5580
2026-01-18 18:18:42.86	247.13	15.76	-33.2	-33.8	25.9	0.00e+00	0	41	0	3549429760	40	5591
2026-01-18 18:18:46.90	246.75	15.36	-33.4	-34.0	25.7	0.00e+00	0	41	0	3572498432	40	5704
2026-01-18 18:18:50.95	246.38	14.97	-33.5	-34.1	25.5	0.00e+00	0	40	0	3595567104	40	5809
2026-01-18 18:18:54.99	246.02	14.58	-33.8	-34.5	25.3	0.00e+00	0	40	0	3617587200	40	6089
2026-01-18 18:18:59.03	245.67	14.19	-33.8	-34.4	25.2	0.00e+00	0	41	0	3640655872	40	6033
2026-01-18 18:19:03.07	245.33	13.82	-34.0	-34.6	25.1	0.00e+00	0	41	0	3663724544	40	6121
2026-01-18 18:19:07.11	245.00	13.44	-34.1	-34.8	25.0	0.00e+00	0	40	0	3685744640	40	6289
2026-01-18 18:19:11.15	244.68	13.07	-34.2	-34.9	24.8	0.00e+00	0	40	0	3708813312	40	6358
2026-01-18 18:19:15.19	244.36	12.71	-34.6	-35.4	24.5	0.00e+00	0	40	0	3731881984	42	5981
2026-01-18 18:19:19.23	244.06	12.35	-34.7	-35.3	24.4	0.00e+00	0	41	0	3753902080	42	5920
2026-01-18 18:19:23.28	243.76	11.99	-35.1	-35.9	23.9	0.00e+00	0	41	0	3776970752	42	6324
2026-01-18 18:19:27.32	243.46	11.64	-35.6	-36.3	23.4	0.00e+00	0	41	0	3800039424	42	6670
2026-01-18 18:19:31.36	243.18	11.29	-35.7	-36.3	23.3	0.00e+00	0	41	0	3822059520	44	5943
2026-01-18 18:19:35.40	242.90	10.95	-36.0	-36.7	22.8	0.00e+00	0	41	0	3845128192	44	6236
2026-01-18 18:19:39.44	242.63	10.61	-36.4	-37.1	22.4	0.00e+00	0	41	0	3868196864	44	6508
2026-01-18 18:19:43.49	242.36	10.28	-36.7	-37.6	22.1	0.00e+00	0	40	0	3890216960	44	6851
2026-01-18 18:19:47.53	242.11	9.94	-37.2	-38.0	21.5	0.00e+00	0	40	0	3913285632	46	6422
2026-01-18 18:19:51.57	241.85	9.62	-37.7	-38.6	21.1	0.00e+00	0	40	0	3936354304	48	6162
2026-01-18 18:19:55.61	241.61	9.29	-38.3	-39.3	20.3	0.00e+00	0	41	0	3958374400	48	6648
2026-01-18 18:19:59.65	241.36	8.97	-38.9	-39.9	19.7	0.00e+00	0	41	0	3981443072	50	6368
2026-01-18 18:20:03.69	241.13	8.66	-39.4	-40.3	19.2	0.00e+00	0	41	0	4004511744	50	6685
2026-01-18 18:20:07.73	240.90	8.34	-40.2	-41.3	18.2	0.00e+00	0	40	0	4026531840	52	6683
2026-01-18 18:20:11.77	240.67	8.04	-40.7	-41.9	17.6	0.00e+00	0	40	0	4049600512	52	7169
2026-01-18 18:20:15.81	240.45	7.73	-41.3	-42.5	16.9	0.00e+00	0	40	0	4072669184	54	6848
2026-01-18 18:20:19.85	240.24	7.43	-42.0	-43.5	16.1	0.00e+00	0	41	0	4094689280	56	6775
2026-01-18 18:20:23.90	240.03	7.13	-42.5	-44.1	15.3	0.00e+00	0	41	0	4117757952	56	7263
2026-01-18 18:20:27.94	239.82	6.83	-43.1	-44.9	14.5	1.10e-06	0	41	0	4140826624	58	7128
2026-01-18 18:20:31.98	239.62	6.54	-43.7	-45.7	13.5	5.70e-06	0	41	0	4163895296	58	7860
2026-01-18 18:20:36.02	239.42	6.25	-44.6	-47.1	12.0	1.43e-04	0	41	0	4185915392	60	8146
2026-01-18 18:20:40.05	239.23	5.96	-45.2	-48.2	10.6	1.74e-03	0	41	0	4208984064	60	9329
2026-01-18 18:20:44.09	239.04	5.67	-45.7	-49.2	9.6	1.07e-02	0	41	0	4231004160	60	10373
2026-01-18 18:20:48.14	238.85	5.39	-46.1	-50.1	8.4	3.55e-02	0	41	0	4254072832	60	11498
2026-01-18 18:20:52.18	238.67	5.11	-46.6	-51.3	6.8	2.16e-01	0	41	0	4277141504	60	13351
2026-01-18 18:20:56.22	238.49	4.83	-46.9	-52.4	5.6	4.00e-01	0	41	0	4300210176	60	15016
2026-01-18 18:21:00.27	238.31	4.56	-47.2	-53.4	4.6	7.76e-01	0	41	0	4306501632	60	16854
2026-01-18 18:21:04.31	238.14	4.29	-47.4	-54.5	4.0	8.24e-01	0	41	0	4306501632	60	19286
2026-01-18 18:21:08.36	237.97	4.02	-47.5	-56.9	3.8	8.42e-01	0	41	104	4306501632	60	25213
2026-01-18 18:21:12.40	237.81	3.75	-47.5	-57.8	3.6	8.44e-01	0	41	104	4306501632	60	28126
2026-01-18 18:21:16.43	237.65	3.49	-47.3	-59.2	3.6	8.45e-01	0	41	104	4306501632	60	32926
2026-01-18 18:21:20.47	237.49	3.23	-47.3	-59.3	3.6	8.45e-01	0	41	104	4306501632	60	33408
2026-01-18 18:21:24.51	237.33	2.97	-48.2	-60.3	3.6	8.46e-01	0	41	104	4306501632	60	37397
2026-01-18 18:21:28.55	237.18	2.71	-49.5	-61.6	3.6	8.45e-01	0	41	104	4306501632	60	43426
2026-01-18 18:21:32.59	237.03	2.45	-49.7	-61.8	3.6	8.45e-01	0	41	104	4306501632	60	44486
2026-01-18 18:21:36.63	236.88	2.20	-49.7	-61.8	3.6	8.45e-01	0	41	104	4306501632	60	44457
2026-01-18 18:21:40.67	236.74	1.95	-49.4	-61.6	3.6	8.46e-01	0	41	104	4306501632	60	43427
2026-01-18 18:21:44.71	236.60	1.70	-49.5	-61.7	3.6	8.45e-01	0	41	104	4306501632	60	43720
2026-01-18 18:21:48.75	236.46	1.45	-49.5	-61.6	3.6	8.46e-01	0	41	104	4306501632	60	43429
2026-01-18 18:21:52.79	236.32	1.21	-49.5	-61.6	3.6	8.46e-01	0	41	104	4306501632	60	43436
2026-01-18 18:21:56.83	236.19	0.96	-49.5	-61.6	3.6	8.45e-01	0	41	104	4306501632	60	43323
2026-01-18 18:22:00.87	236.06	0.72	-49.5	-61.6	3.6	8.46e-01	0	41	104	4306501632	60	43292
2026-01-18 18:22:04.91	235.93	0.48	-49.5	-61.6	3.6	8.45e-01	0	41	104	4306501632	60	43286
2026-01-18 18:22:08.95	235.80	0.24	-49.5	-61.6	3.6	8.46e-01	0	41	104	4306501632	60	43439
2026-01-18 18:22:12.98	235.67	0.01	-49.5	-61.5	3.6	8.45e-01	0	41	104	4306501632	60	43188

#Closed at: 2026-01-18 18:22:15
#Recorded file [4306 MB]: D:/lorett/data/35029_260119_060719.dat