passes_logs/2026/01/18/R4.6S_Anadyr/R4.6S_Anadyr__20260118_231407_NOAA_21_JPSS-2_rec.log

#Pass ID: 20260118_231407_NOAA 21 (JPSS-2)
#Satellite: NOAA 21 (JPSS-2)
#Configuration: NOAA-21
#almurnet v.1.7.20251203
#Start time: 2026-01-18 23:14:11

#Version: 2.2.20231116
#Station: R4.6S_Anadyr
#Location: 177.4865 lon 64.73178 lat
#TLE: 1 54234U 22150A   26018.60745868  .00000048  00000+0  43754-4 0  9997
#TLE: 2 54234  98.7503 319.4636 0000607 264.0480  96.0627 14.19535445165329

#Time	Az	El	Level	Level2	SNR	BER	BlckErr	Temp	State	Recorded	gain1	gain2
2026-01-18 23:14:11.37	132.10	0.26	-50.4	-51.9	5.7	0.00e+00	0	38	0	0	60	48295
2026-01-18 23:14:15.27	132.00	0.49	-50.3	-63.1	3.5	1.52e+00	0	39	104	0	60	50322
2026-01-18 23:14:19.18	131.91	0.73	-50.3	-63.1	3.5	1.52e+00	0	39	104	0	60	50388
2026-01-18 23:14:23.09	131.81	0.96	-50.0	-63.0	3.5	1.52e+00	0	40	104	0	60	49400
2026-01-18 23:14:27.01	131.71	1.20	-49.9	-62.8	3.5	1.51e+00	0	40	104	0	60	48428
2026-01-18 23:14:30.91	131.61	1.44	-49.5	-62.3	3.5	1.52e+00	0	40	104	0	60	45896
2026-01-18 23:14:34.82	131.51	1.68	-48.4	-61.4	3.5	1.51e+00	0	40	104	0	60	41214
2026-01-18 23:14:38.73	131.41	1.93	-48.4	-61.3	3.5	1.52e+00	0	40	104	0	60	40709
2026-01-18 23:14:42.64	131.30	2.18	-48.4	-61.3	3.5	1.52e+00	0	40	104	0	60	40918
2026-01-18 23:14:46.55	131.19	2.42	-48.3	-61.3	3.5	1.52e+00	0	40	104	0	60	40859
2026-01-18 23:14:50.45	131.08	2.67	-48.3	-61.0	3.5	1.52e+00	0	40	104	0	60	39436
2026-01-18 23:14:54.37	130.97	2.93	-48.2	-59.4	3.7	1.50e+00	0	40	104	0	60	32607
2026-01-18 23:14:58.28	130.86	3.18	-48.3	-61.1	3.5	1.52e+00	0	40	104	0	60	39892
2026-01-18 23:15:02.19	130.74	3.44	-46.4	-50.8	9.5	2.94e-02	122	40	0	3145728	60	12106
2026-01-18 23:15:06.10	130.62	3.70	-44.2	-46.8	13.7	1.29e-05	123	40	0	15728640	60	7690
2026-01-18 23:15:10.01	130.50	3.96	-48.6	-61.1	3.5	1.51e+00	0	40	104	16777216	60	39951
2026-01-18 23:15:13.93	130.38	4.23	-42.0	-43.9	17.0	0.00e+00	123	40	0	23068672	58	6154
2026-01-18 23:15:17.84	130.25	4.49	-40.5	-41.9	18.6	0.00e+00	124	40	0	35651584	54	6153
2026-01-18 23:15:21.75	130.12	4.76	-39.5	-40.7	19.9	0.00e+00	121	40	0	48234496	52	6035
2026-01-18 23:15:25.67	129.99	5.04	-40.2	-41.5	19.4	0.00e+00	121	40	0	59768832	52	6632
2026-01-18 23:15:29.57	129.86	5.31	-39.7	-41.0	19.9	0.00e+00	122	40	0	72351744	52	6215
2026-01-18 23:15:33.48	129.72	5.59	-39.5	-40.7	20.1	0.00e+00	121	40	0	84934656	52	6034
2026-01-18 23:15:37.40	129.58	5.87	-39.0	-40.2	20.7	0.00e+00	123	40	0	96468992	52	5676
2026-01-18 23:15:41.31	129.44	6.15	-39.3	-40.5	20.3	0.00e+00	122	40	0	109051904	50	6623
2026-01-18 23:15:45.22	129.30	6.44	-39.1	-40.3	20.5	0.00e+00	123	40	0	120586240	50	6468
2026-01-18 23:15:49.13	129.15	6.73	-39.0	-40.2	20.7	0.00e+00	123	40	0	133169152	50	6389
2026-01-18 23:15:53.04	129.00	7.02	-38.9	-40.2	20.6	0.00e+00	123	40	0	145752064	50	6372
2026-01-18 23:15:56.96	128.84	7.32	-38.5	-39.6	21.1	0.00e+00	124	40	0	157286400	50	5991
2026-01-18 23:16:00.88	128.68	7.62	-38.4	-39.6	21.1	0.00e+00	121	40	0	169869312	50	5937
2026-01-18 23:16:04.79	128.52	7.92	-38.2	-39.3	21.6	0.00e+00	121	41	0	182452224	50	5776
2026-01-18 23:16:08.70	128.36	8.22	-38.2	-39.2	21.6	0.00e+00	121	40	0	193986560	50	5714
2026-01-18 23:16:12.61	128.19	8.53	-38.1	-39.2	21.7	0.00e+00	123	41	0	206569472	50	5687
2026-01-18 23:16:16.52	128.01	8.84	-37.9	-39.0	22.0	0.00e+00	122	40	0	219152384	50	5532
2026-01-18 23:16:20.43	127.84	9.16	-37.7	-38.7	22.2	0.00e+00	122	41	0	230686720	48	6036
2026-01-18 23:16:24.34	127.65	9.48	-37.5	-38.6	22.3	0.00e+00	123	40	0	243269632	48	5963
2026-01-18 23:16:28.25	127.47	9.80	-37.6	-38.6	22.3	0.00e+00	121	40	0	255852544	48	5980
2026-01-18 23:16:32.17	127.28	10.13	-37.5	-38.5	22.3	0.00e+00	122	41	0	267386880	48	5918
2026-01-18 23:16:36.08	127.08	10.46	-37.4	-38.4	22.5	0.00e+00	119	41	0	279969792	48	5824
2026-01-18 23:16:39.98	126.88	10.80	-37.2	-38.2	22.7	0.00e+00	121	41	0	292552704	48	5684
2026-01-18 23:16:43.90	126.68	11.14	-37.2	-38.2	22.7	0.00e+00	121	41	0	304087040	48	5702
2026-01-18 23:16:47.81	126.47	11.48	-37.2	-38.2	22.8	0.00e+00	122	41	0	316669952	48	5684
2026-01-18 23:16:51.71	126.26	11.83	-37.1	-38.1	22.9	0.00e+00	117	41	0	329252864	48	5598
2026-01-18 23:16:55.62	126.04	12.19	-36.8	-37.8	23.2	0.00e+00	123	41	0	340787200	48	5425
2026-01-18 23:16:59.53	125.81	12.54	-36.8	-37.7	23.2	0.00e+00	121	41	0	353370112	48	5388
2026-01-18 23:17:03.43	125.58	12.91	-36.8	-37.7	23.2	0.00e+00	121	41	0	365953024	46	6046
2026-01-18 23:17:07.34	125.34	13.27	-36.7	-37.6	23.3	0.00e+00	119	41	0	377487360	46	5972
2026-01-18 23:17:11.26	125.10	13.65	-36.8	-37.8	23.2	0.00e+00	120	41	0	390070272	46	6069
2026-01-18 23:17:15.16	124.85	14.03	-36.9	-37.9	23.2	0.00e+00	123	41	0	402653184	46	6172
2026-01-18 23:17:19.07	124.59	14.41	-36.8	-37.8	23.2	0.00e+00	122	41	0	414187520	46	6074
2026-01-18 23:17:22.99	124.32	14.80	-36.8	-37.7	23.5	0.00e+00	122	41	0	426770432	46	6046
2026-01-18 23:17:26.91	124.05	15.20	-36.8	-37.7	23.4	0.00e+00	122	41	0	439353344	46	6043
2026-01-18 23:17:30.82	123.77	15.60	-36.7	-37.7	23.4	0.00e+00	123	41	0	450887680	46	6044
2026-01-18 23:17:34.73	123.49	16.00	-37.1	-38.0	23.1	0.00e+00	125	41	0	463470592	46	6259
2026-01-18 23:17:38.64	123.19	16.42	-36.9	-38.0	23.2	0.00e+00	121	41	0	476053504	46	6241
2026-01-18 23:17:42.55	122.89	16.84	-37.2	-38.1	23.1	0.00e+00	123	41	0	487587840	46	6349
2026-01-18 23:17:46.47	122.57	17.26	-37.4	-38.4	22.8	0.00e+00	127	41	0	500170752	46	6522
2026-01-18 23:17:50.38	122.25	17.69	-37.2	-38.1	23.1	0.00e+00	123	41	0	511705088	46	6335
2026-01-18 23:17:54.29	121.92	18.13	-37.1	-38.1	23.2	0.00e+00	121	41	0	524288000	46	6319
2026-01-18 23:17:58.20	121.57	18.58	-37.0	-37.9	23.4	0.00e+00	128	41	0	536870912	46	6205
2026-01-18 23:18:02.10	121.22	19.03	-36.9	-37.9	23.3	0.00e+00	120	41	0	548405248	46	6199
2026-01-18 23:18:06.02	120.86	19.49	-36.9	-38.0	23.2	0.00e+00	121	41	0	560988160	46	6247
2026-01-18 23:18:09.93	120.48	19.96	-36.8	-37.9	23.3	0.00e+00	123	41	0	573571072	46	6143
2026-01-18 23:18:13.83	120.09	20.43	-36.7	-37.7	23.4	0.00e+00	122	41	0	585105408	46	6040
2026-01-18 23:18:17.75	119.69	20.92	-36.5	-37.4	23.7	0.00e+00	123	41	0	597688320	46	5855
2026-01-18 23:18:21.66	119.28	21.41	-36.2	-37.2	23.9	0.00e+00	123	41	0	610271232	46	5660
2026-01-18 23:18:25.57	118.85	21.90	-35.9	-36.8	24.1	0.00e+00	122	41	0	621805568	46	5428
2026-01-18 23:18:29.48	118.41	22.41	-35.7	-36.6	24.3	0.00e+00	122	41	0	634388480	44	5976
2026-01-18 23:18:33.39	117.95	22.93	-35.4	-36.3	24.5	0.00e+00	120	41	0	646971392	44	5790
2026-01-18 23:18:37.31	117.48	23.45	-35.3	-36.3	24.6	0.00e+00	121	41	0	658505728	44	5734
2026-01-18 23:18:41.22	116.99	23.98	-35.4	-36.3	24.7	0.00e+00	124	41	0	671088640	44	5728
2026-01-18 23:18:45.12	116.49	24.52	-35.5	-36.4	24.5	0.00e+00	123	41	0	683671552	44	5847
2026-01-18 23:18:49.02	115.96	25.07	-35.6	-36.4	24.5	0.00e+00	123	41	0	695205888	44	5857
2026-01-18 23:18:52.93	115.42	25.62	-36.0	-36.9	24.2	0.00e+00	121	41	0	707788800	44	6183
2026-01-18 23:18:56.85	114.86	26.19	-36.1	-37.0	24.1	0.00e+00	123	41	0	720371712	44	6251
2026-01-18 23:19:00.76	114.27	26.77	-36.5	-37.4	23.9	0.00e+00	120	41	0	731906048	44	6557
2026-01-18 23:19:04.67	113.66	27.35	-36.7	-37.6	23.7	0.00e+00	122	41	0	744488960	44	6692
2026-01-18 23:19:08.58	113.04	27.94	-36.5	-37.4	23.8	0.00e+00	123	41	0	757071872	44	6563
2026-01-18 23:19:12.50	112.38	28.55	-36.8	-37.8	23.3	0.00e+00	121	41	0	768606208	46	6099
2026-01-18 23:19:16.41	111.70	29.16	-36.9	-37.9	23.5	0.00e+00	122	41	0	781189120	46	6179
2026-01-18 23:19:20.32	110.99	29.78	-36.7	-37.6	23.9	0.00e+00	125	41	0	792723456	46	5977
2026-01-18 23:19:24.23	110.26	30.40	-36.5	-37.5	23.7	0.00e+00	121	41	0	805306368	46	5874
2026-01-18 23:19:28.14	109.50	31.04	-36.8	-37.8	23.6	0.00e+00	122	41	0	817889280	46	6070
2026-01-18 23:19:32.05	108.70	31.68	-36.9	-37.8	23.7	0.00e+00	122	41	0	830472192	46	6111
2026-01-18 23:19:35.96	107.87	32.34	-37.0	-38.0	23.4	0.00e+00	120	41	0	842006528	46	6217
2026-01-18 23:19:39.87	107.01	32.99	-37.1	-38.1	23.3	0.00e+00	121	41	0	854589440	46	6330
2026-01-18 23:19:43.77	106.11	33.66	-37.4	-38.3	23.1	0.00e+00	122	41	0	866123776	46	6491
2026-01-18 23:19:47.68	105.18	34.33	-37.6	-38.6	23.0	0.00e+00	122	41	0	878706688	46	6681
2026-01-18 23:19:51.59	104.20	35.01	-37.8	-38.8	22.8	0.00e+00	122	41	0	891289600	48	6108
2026-01-18 23:19:55.49	103.19	35.69	-37.8	-38.9	22.7	0.00e+00	126	41	0	902823936	48	6142
2026-01-18 23:19:59.39	102.13	36.37	-38.0	-39.1	22.5	0.00e+00	121	41	0	915406848	48	6284
2026-01-18 23:20:03.31	101.02	37.06	-38.3	-39.3	22.3	0.00e+00	122	41	0	927989760	48	6468
2026-01-18 23:20:07.22	99.86	37.75	-38.4	-39.4	22.4	0.00e+00	121	41	0	939524096	48	6546
2026-01-18 23:20:11.13	98.65	38.44	-38.2	-39.3	22.5	0.00e+00	122	41	0	952107008	48	6427
2026-01-18 23:20:15.04	97.39	39.13	-38.0	-39.0	22.8	0.00e+00	123	41	0	964689920	48	6218
2026-01-18 23:20:18.94	96.08	39.81	-38.1	-39.1	22.6	0.00e+00	119	41	0	976224256	48	6283
2026-01-18 23:20:22.86	94.71	40.49	-38.3	-39.3	22.5	0.00e+00	122	41	0	988807168	48	6490
2026-01-18 23:20:26.78	93.28	41.17	-39.2	-40.2	21.7	0.00e+00	122	41	0	1001390080	50	6421
2026-01-18 23:20:30.69	91.79	41.83	-39.7	-40.8	21.1	0.00e+00	124	41	0	1012924416	52	6126
2026-01-18 23:20:34.60	90.23	42.49	-39.9	-41.1	21.1	0.00e+00	122	41	0	1025507328	52	6287
2026-01-18 23:20:38.51	88.62	43.13	-40.1	-41.3	20.8	0.00e+00	123	41	0	1038090240	52	6483
2026-01-18 23:20:42.43	86.93	43.75	-39.0	-40.1	21.9	0.00e+00	122	41	0	1049624576	52	5631
2026-01-18 23:20:46.34	85.18	44.36	-39.2	-40.3	21.6	0.00e+00	123	41	0	1062207488	52	5751
2026-01-18 23:20:50.26	83.36	44.94	-39.5	-40.7	21.3	0.00e+00	122	41	0	1074790400	52	6010
2026-01-18 23:20:54.17	81.48	45.50	-39.2	-40.2	21.8	0.00e+00	123	41	0	1086324736	52	5690
2026-01-18 23:20:58.08	79.54	46.03	-38.8	-39.8	22.1	0.00e+00	125	41	0	1098907648	52	5451
2026-01-18 23:21:02.01	77.51	46.53	-39.2	-40.3	21.4	0.00e+00	124	41	0	1111490560	50	6476
2026-01-18 23:21:05.92	75.44	46.99	-39.3	-40.4	21.4	0.00e+00	123	41	0	1123024896	50	6499
2026-01-18 23:21:09.84	73.30	47.42	-39.1	-40.1	21.7	0.00e+00	120	41	0	1135607808	52	5648
2026-01-18 23:21:13.74	71.11	47.80	-39.6	-40.7	21.4	0.00e+00	124	41	0	1148190720	52	5999
2026-01-18 23:21:17.65	68.87	48.15	-38.5	-39.5	22.4	0.00e+00	125	41	0	1159725056	50	5866
2026-01-18 23:21:21.56	66.58	48.44	-38.6	-39.6	22.3	0.00e+00	122	41	0	1172307968	50	5943
2026-01-18 23:21:25.46	64.25	48.69	-39.3	-40.4	21.6	0.00e+00	119	41	0	1183842304	50	6563
2026-01-18 23:21:29.37	61.89	48.88	-39.3	-40.4	21.6	0.00e+00	124	41	0	1196425216	52	5825
2026-01-18 23:21:33.28	59.50	49.02	-39.0	-40.1	22.0	0.00e+00	122	41	0	1209008128	52	5611
2026-01-18 23:21:37.19	57.09	49.11	-38.6	-39.6	22.1	0.00e+00	123	41	0	1220542464	50	5982
2026-01-18 23:21:41.10	54.67	49.15	-39.0	-40.1	21.8	0.00e+00	122	41	0	1233125376	50	6291
2026-01-18 23:21:45.01	52.26	49.12	-37.9	-38.9	22.7	0.00e+00	122	41	0	1245708288	50	5490
2026-01-18 23:21:48.92	49.85	49.05	-38.5	-39.5	22.4	0.00e+00	123	41	0	1257242624	50	5904
2026-01-18 23:21:52.82	47.46	48.92	-38.9	-40.0	21.9	0.00e+00	124	41	0	1269825536	50	6210
2026-01-18 23:21:56.73	45.09	48.74	-39.4	-40.5	21.5	0.00e+00	123	41	0	1282408448	50	6649
2026-01-18 23:22:00.63	42.76	48.50	-38.9	-40.0	22.1	0.00e+00	123	41	0	1293942784	50	6216
2026-01-18 23:22:04.54	40.46	48.22	-38.9	-40.0	21.9	0.00e+00	123	41	0	1306525696	50	6223
2026-01-18 23:22:08.45	38.21	47.89	-38.4	-39.5	22.3	0.00e+00	121	41	0	1319108608	50	5868
2026-01-18 23:22:12.36	36.00	47.52	-39.0	-40.0	21.8	0.00e+00	120	41	0	1330642944	50	6265
2026-01-18 23:22:16.27	33.86	47.10	-38.8	-39.8	21.8	0.00e+00	122	41	0	1343225856	50	6128
2026-01-18 23:22:20.18	31.77	46.65	-39.8	-40.9	21.1	0.00e+00	122	41	0	1355808768	52	6180
2026-01-18 23:22:24.09	29.75	46.16	-38.0	-39.0	22.7	0.00e+00	121	41	0	1367343104	50	5556
2026-01-18 23:22:28.00	27.79	45.64	-40.0	-41.2	20.6	0.00e+00	123	41	0	1379926016	52	6389
2026-01-18 23:22:31.91	25.89	45.09	-38.2	-39.2	22.6	0.00e+00	122	41	0	1392508928	48	6398
2026-01-18 23:22:35.82	24.06	44.51	-39.9	-41.0	20.4	0.00e+00	124	41	0	1404043264	54	5576
2026-01-18 23:22:39.74	22.30	43.91	-37.7	-38.7	23.0	0.00e+00	121	41	0	1416626176	48	6007
2026-01-18 23:22:43.65	20.60	43.30	-40.7	-42.2	18.8	0.00e+00	121	41	0	1429209088	54	6351
2026-01-18 23:22:47.56	18.97	42.66	-39.9	-41.1	20.8	0.00e+00	123	41	0	1440743424	52	6334
2026-01-18 23:22:51.48	17.41	42.01	-39.4	-40.5	21.3	0.00e+00	123	41	0	1453326336	52	5885
2026-01-18 23:22:55.38	15.91	41.35	-39.3	-40.4	21.5	0.00e+00	120	41	0	1465909248	50	6505
2026-01-18 23:22:59.30	14.46	40.68	-41.2	-42.5	19.6	0.00e+00	124	41	0	1477443584	56	5889
2026-01-18 23:23:03.20	13.08	40.00	-38.0	-39.0	22.8	0.00e+00	123	41	0	1490026496	50	5557
2026-01-18 23:23:07.12	11.76	39.32	-39.7	-40.8	21.1	0.00e+00	123	41	0	1501560832	50	6848
2026-01-18 23:23:11.03	10.49	38.64	-38.6	-39.7	22.1	0.00e+00	123	41	0	1514143744	50	6010
2026-01-18 23:23:14.94	9.27	37.95	-38.4	-39.5	22.4	0.00e+00	122	41	0	1526726656	48	6574
2026-01-18 23:23:18.85	8.11	37.26	-38.8	-39.9	21.9	0.00e+00	121	41	0	1538260992	50	6157
2026-01-18 23:23:22.75	6.99	36.58	-37.4	-38.4	23.3	0.00e+00	122	41	0	1550843904	48	5808
2026-01-18 23:23:26.66	5.92	35.89	-37.5	-38.5	23.2	0.00e+00	121	41	0	1563426816	48	5903
2026-01-18 23:23:30.57	4.89	35.21	-36.9	-37.8	23.6	0.00e+00	121	41	0	1574961152	48	5436
2026-01-18 23:23:34.48	3.91	34.54	-36.9	-37.9	23.5	0.00e+00	122	41	0	1587544064	46	6152
2026-01-18 23:23:38.39	2.97	33.87	-37.2	-38.2	23.0	0.00e+00	120	41	0	1600126976	46	6391
2026-01-18 23:23:42.31	2.06	33.20	-37.4	-38.4	22.9	0.00e+00	123	41	0	1611661312	46	6550
2026-01-18 23:23:46.22	1.19	32.54	-36.9	-37.9	23.5	0.00e+00	122	41	0	1624244224	46	6147
2026-01-18 23:23:50.14	0.36	31.89	-37.5	-38.5	23.1	0.00e+00	120	41	0	1636827136	46	6589
2026-01-18 23:23:54.06	359.55	31.25	-36.8	-37.7	23.6	0.00e+00	123	41	0	1648361472	46	6038
2026-01-18 23:23:57.96	358.79	30.61	-36.4	-37.3	24.0	0.00e+00	121	41	0	1660944384	46	5776
2026-01-18 23:24:01.87	358.05	29.99	-37.0	-38.0	23.5	0.00e+00	122	41	0	1673527296	46	6227
2026-01-18 23:24:05.80	357.33	29.36	-37.0	-38.0	23.3	0.00e+00	121	41	0	1685061632	46	6260
2026-01-18 23:24:09.71	356.65	28.75	-36.6	-37.5	23.8	0.00e+00	123	41	0	1697644544	46	5891
2026-01-18 23:24:13.62	355.99	28.15	-36.2	-37.1	24.1	0.00e+00	122	41	0	1710227456	46	5634
2026-01-18 23:24:17.53	355.36	27.56	-36.3	-37.2	24.0	0.00e+00	121	41	0	1721761792	46	5688
2026-01-18 23:24:21.44	354.75	26.97	-36.2	-37.2	24.0	0.00e+00	123	41	0	1734344704	46	5665
2026-01-18 23:24:25.35	354.16	26.40	-35.9	-36.8	24.3	0.00e+00	123	41	0	1746927616	46	5432
2026-01-18 23:24:29.26	353.60	25.83	-35.8	-36.7	24.3	0.00e+00	120	41	0	1758461952	44	6033
2026-01-18 23:24:33.16	353.05	25.28	-36.0	-37.0	24.1	0.00e+00	123	41	0	1771044864	44	6206
2026-01-18 23:24:37.08	352.52	24.73	-36.4	-37.3	23.8	0.00e+00	119	41	0	1782579200	44	6494
2026-01-18 23:24:40.99	352.02	24.19	-36.4	-37.3	23.8	0.00e+00	123	41	0	1795162112	44	6486
2026-01-18 23:24:44.90	351.53	23.65	-36.6	-37.6	23.7	0.00e+00	122	41	0	1807745024	44	6687
2026-01-18 23:24:48.81	351.05	23.13	-37.1	-38.1	23.3	0.00e+00	123	41	0	1819279360	46	6289
2026-01-18 23:24:52.72	350.59	22.62	-36.6	-37.5	23.6	0.00e+00	124	41	0	1831862272	46	5926
2026-01-18 23:24:56.62	350.15	22.11	-36.0	-36.9	24.0	0.00e+00	123	41	0	1844445184	46	5519
2026-01-18 23:25:00.53	349.72	21.61	-36.0	-36.9	24.2	0.00e+00	123	41	0	1857028096	46	5471
2026-01-18 23:25:04.45	349.31	21.12	-36.0	-36.9	24.3	0.00e+00	124	41	0	1868562432	46	5477
2026-01-18 23:25:08.35	348.91	20.64	-36.2	-37.2	23.9	0.00e+00	121	41	0	1881145344	46	5674
2026-01-18 23:25:12.26	348.52	20.16	-36.4	-37.4	23.7	0.00e+00	123	41	0	1892679680	46	5808
2026-01-18 23:25:16.16	348.14	19.70	-36.5	-37.5	23.4	0.00e+00	123	41	0	1905262592	46	5900
2026-01-18 23:25:20.07	347.78	19.24	-36.5	-37.4	23.4	0.00e+00	124	41	0	1917845504	46	5842
2026-01-18 23:25:23.98	347.43	18.78	-36.5	-37.4	23.6	0.00e+00	123	41	0	1929379840	46	5835
2026-01-18 23:25:27.89	347.08	18.34	-36.3	-37.2	23.8	0.00e+00	123	41	0	1941962752	46	5696
2026-01-18 23:25:31.80	346.75	17.90	-36.3	-37.2	23.8	0.00e+00	124	41	0	1954545664	46	5694
2026-01-18 23:25:35.71	346.43	17.47	-36.4	-37.3	23.8	0.00e+00	123	41	0	1966080000	46	5784
2026-01-18 23:25:39.61	346.12	17.04	-36.5	-37.4	23.6	0.00e+00	123	41	0	1978662912	46	5854
2026-01-18 23:25:43.52	345.81	16.62	-36.9	-37.9	23.3	0.00e+00	121	41	0	1991245824	46	6152
2026-01-18 23:25:47.43	345.52	16.21	-37.0	-37.9	23.3	0.00e+00	121	41	0	2002780160	46	6181
2026-01-18 23:25:51.34	345.23	15.80	-37.2	-38.2	23.1	0.00e+00	124	41	0	2015363072	46	6366
2026-01-18 23:25:55.26	344.95	15.40	-37.4	-38.4	22.8	0.00e+00	123	41	0	2027945984	46	6513
2026-01-18 23:25:59.17	344.68	15.00	-37.6	-38.6	22.6	0.00e+00	122	41	0	2039480320	46	6672
2026-01-18 23:26:03.08	344.41	14.61	-37.4	-38.4	22.7	0.00e+00	123	41	0	2052063232	46	6528
2026-01-18 23:26:06.98	344.16	14.23	-37.4	-38.5	22.6	0.00e+00	121	41	0	2064646144	46	6576
2026-01-18 23:26:10.90	343.91	13.85	-37.3	-38.3	22.7	0.00e+00	125	41	0	2076180480	46	6433
2026-01-18 23:26:14.80	343.66	13.48	-37.2	-38.2	22.7	0.00e+00	122	41	0	2088763392	46	6412
2026-01-18 23:26:18.71	343.43	13.11	-37.3	-38.3	22.6	0.00e+00	124	41	0	2100297728	46	6455
2026-01-18 23:26:22.62	343.20	12.75	-37.1	-38.1	22.8	0.00e+00	125	41	0	2112880640	46	6319
2026-01-18 23:26:26.52	342.97	12.39	-37.2	-38.2	22.7	0.00e+00	123	41	0	2125463552	46	6374
2026-01-18 23:26:30.43	342.75	12.03	-37.3	-38.3	22.7	0.00e+00	121	41	0	2136997888	46	6481
2026-01-18 23:26:34.35	342.54	11.68	-37.3	-38.3	22.6	0.00e+00	123	41	0	2149580800	46	6492
2026-01-18 23:26:38.26	342.33	11.34	-37.8	-38.9	22.3	0.00e+00	122	41	0	2162163712	48	6149
2026-01-18 23:26:42.17	342.13	11.00	-37.5	-38.6	22.4	0.00e+00	122	41	0	2173698048	48	5935
2026-01-18 23:26:46.08	341.93	10.66	-37.7	-38.8	22.2	0.00e+00	124	41	0	2186280960	48	6066
2026-01-18 23:26:50.00	341.74	10.33	-37.6	-38.7	22.2	0.00e+00	123	41	0	2198863872	48	6005
2026-01-18 23:26:53.91	341.55	10.00	-37.8	-39.0	22.0	0.00e+00	123	41	0	2210398208	48	6206
2026-01-18 23:26:57.81	341.36	9.68	-37.7	-38.8	22.0	0.00e+00	121	41	0	2222981120	48	6133
2026-01-18 23:27:01.72	341.19	9.36	-37.9	-39.0	21.9	0.00e+00	124	41	0	2235564032	48	6267
2026-01-18 23:27:05.62	341.01	9.04	-38.0	-39.1	21.7	0.00e+00	124	41	0	2247098368	48	6319
2026-01-18 23:27:09.54	340.84	8.73	-38.3	-39.4	21.4	0.00e+00	119	41	0	2259681280	48	6563
2026-01-18 23:27:13.45	340.67	8.42	-38.5	-39.6	21.2	0.00e+00	121	41	0	2272264192	48	6725
2026-01-18 23:27:17.35	340.51	8.12	-38.5	-39.6	21.2	0.00e+00	120	41	0	2283798528	48	6719
2026-01-18 23:27:21.26	340.35	7.81	-38.6	-39.8	21.1	0.00e+00	125	41	0	2296381440	50	6105
2026-01-18 23:27:25.17	340.19	7.51	-38.9	-40.1	20.8	0.00e+00	120	41	0	2307915776	50	6322
2026-01-18 23:27:29.09	340.04	7.22	-39.1	-40.4	20.5	0.00e+00	122	41	0	2320498688	50	6527
2026-01-18 23:27:33.00	339.89	6.93	-39.0	-40.3	20.4	0.00e+00	122	41	0	2333081600	50	6466
2026-01-18 23:27:36.91	339.74	6.64	-39.2	-40.5	20.3	0.00e+00	120	41	0	2344615936	50	6584
2026-01-18 23:27:40.82	339.60	6.35	-39.3	-40.6	20.1	0.00e+00	122	41	0	2357198848	50	6681
2026-01-18 23:27:44.72	339.46	6.07	-39.7	-41.1	19.6	0.00e+00	122	41	0	2369781760	52	6280
2026-01-18 23:27:48.64	339.32	5.79	-40.0	-41.5	19.0	0.00e+00	125	41	0	2381316096	52	6589
2026-01-18 23:27:52.55	339.19	5.51	-41.0	-42.7	17.3	0.00e+00	122	41	0	2393899008	54	6741
2026-01-18 23:27:56.47	339.06	5.23	-41.9	-43.9	15.9	0.00e+00	123	41	0	2406481920	56	6916
2026-01-18 23:28:00.38	338.93	4.96	-42.9	-45.6	13.7	8.30e-06	124	41	0	2418016256	58	7515
2026-01-18 23:28:04.29	338.80	4.69	-44.3	-48.3	10.2	3.21e-03	123	41	0	2430599168	60	9081
2026-01-18 23:28:08.20	338.68	4.42	-44.9	-50.3	7.0	1.21e-01	123	41	0	2443182080	60	11550
2026-01-18 23:28:12.11	338.56	4.16	-45.3	-54.5	4.4	8.96e-01	125	41	104	2446327808	60	18643
2026-01-18 23:28:16.02	338.44	3.90	-45.3	-57.3	3.5	1.51e+00	0	41	104	2446327808	60	25869
2026-01-18 23:28:19.92	338.32	3.64	-45.5	-57.4	3.5	1.51e+00	0	41	104	2446327808	60	25959
2026-01-18 23:28:23.84	338.21	3.38	-45.5	-57.8	3.5	1.51e+00	0	41	104	2446327808	60	27396
2026-01-18 23:28:27.76	338.10	3.12	-45.4	-58.2	3.5	1.52e+00	0	41	104	2446327808	60	28616
2026-01-18 23:28:31.67	337.99	2.87	-49.0	-61.8	3.5	1.51e+00	0	42	104	2446327808	60	43309
2026-01-18 23:28:35.59	337.88	2.62	-49.9	-62.7	3.5	1.52e+00	0	42	104	2446327808	60	47951
2026-01-18 23:28:39.49	337.78	2.37	-50.1	-63.0	3.5	1.52e+00	0	41	104	2446327808	60	49494
2026-01-18 23:28:43.40	337.68	2.12	-50.1	-63.0	3.5	1.52e+00	0	42	104	2446327808	60	49598
2026-01-18 23:28:47.32	337.57	1.88	-50.1	-62.9	3.5	1.51e+00	0	41	104	2446327808	60	48919
2026-01-18 23:28:51.22	337.48	1.64	-49.9	-62.9	3.5	1.51e+00	0	41	104	2446327808	60	48747
2026-01-18 23:28:55.12	337.38	1.40	-50.0	-63.0	3.5	1.52e+00	0	42	104	2446327808	60	49342
2026-01-18 23:28:59.04	337.28	1.16	-50.0	-62.9	3.5	1.52e+00	0	42	104	2446327808	60	49081
2026-01-18 23:29:02.94	337.19	0.92	-50.0	-62.9	3.5	1.52e+00	0	41	104	2446327808	60	49056
2026-01-18 23:29:06.85	337.10	0.68	-50.0	-62.9	3.5	1.52e+00	0	42	104	2446327808	60	48909
2026-01-18 23:29:10.76	337.01	0.45	-50.0	-62.9	3.5	1.52e+00	0	42	104	2446327808	60	48926
2026-01-18 23:29:14.66	336.92	0.22	-50.0	-62.9	3.5	1.52e+00	0	42	104	2446327808	60	48934
2026-01-18 23:29:18.58	336.83	-0.01	-50.0	-62.9	3.5	1.52e+00	0	42	104	2446327808	60	48735

#Closed at: 2026-01-18 23:29:19
#Recorded file [2446 MB]: D:/lorett/data/35029_260119_111411.dat