passes_logs/2026/01/18/R4.6S_Anadyr/R4.6S_Anadyr__20260118_213531_NOAA_21_JPSS-2_rec.log

#Pass ID: 20260118_213531_NOAA 21 (JPSS-2)
#Satellite: NOAA 21 (JPSS-2)
#Configuration: NOAA-21
#almurnet v.1.7.20251203
#Start time: 2026-01-18 21:35:34

#Version: 2.2.20231116
#Station: R4.6S_Anadyr
#Location: 177.4865 lon 64.73178 lat
#TLE: 1 54234U 22150A   26018.60745868  .00000048  00000+0  43754-4 0  9997
#TLE: 2 54234  98.7503 319.4636 0000607 264.0480  96.0627 14.19535445165329

#Time	Az	El	Level	Level2	SNR	BER	BlckErr	Temp	State	Recorded	gain1	gain2
2026-01-18 21:35:34.85	93.75	0.19	-49.7	-61.1	3.3	1.54e+00	0	39	0	0	60	39740
2026-01-18 21:35:38.88	93.51	0.40	-49.7	-62.6	3.5	1.52e+00	0	39	104	0	60	47118
2026-01-18 21:35:42.92	93.27	0.62	-49.6	-62.6	3.5	1.52e+00	0	40	104	0	60	47113
2026-01-18 21:35:46.96	93.02	0.84	-49.4	-62.5	3.5	1.51e+00	0	40	104	0	60	46859
2026-01-18 21:35:51.00	92.77	1.06	-49.0	-62.4	3.5	1.52e+00	0	40	104	0	60	46498
2026-01-18 21:35:55.04	92.51	1.28	-48.4	-61.9	3.5	1.52e+00	0	40	104	0	60	43539
2026-01-18 21:35:59.08	92.26	1.51	-46.1	-60.6	3.5	1.51e+00	0	40	104	0	60	37778
2026-01-18 21:36:03.12	91.99	1.73	-46.0	-60.7	3.5	1.51e+00	0	40	104	0	60	37928
2026-01-18 21:36:07.16	91.73	1.96	-46.0	-60.6	3.5	1.51e+00	0	40	104	0	60	37668
2026-01-18 21:36:11.20	91.46	2.18	-46.0	-60.0	3.5	1.51e+00	0	40	104	0	60	35227
2026-01-18 21:36:15.24	91.18	2.41	-46.0	-60.6	3.5	1.52e+00	0	40	104	0	60	37473
2026-01-18 21:36:19.26	90.90	2.64	-46.0	-60.5	3.5	1.52e+00	0	40	104	0	60	37189
2026-01-18 21:36:23.30	90.62	2.87	-45.9	-58.7	3.6	1.51e+00	0	40	104	0	60	30081
2026-01-18 21:36:27.34	90.33	3.10	-45.5	-54.9	5.5	1.17e+00	122	40	104	0	60	19592
2026-01-18 21:36:31.38	90.04	3.33	-46.4	-56.0	3.8	1.51e+00	0	40	104	8388608	60	22174
2026-01-18 21:36:35.42	89.74	3.56	-43.6	-48.0	12.3	1.69e-04	123	40	104	8388608	58	9915
2026-01-18 21:36:39.46	89.44	3.80	-43.6	-46.5	13.1	8.30e-06	123	40	0	20971520	58	8371
2026-01-18 21:36:43.49	89.13	4.04	-43.5	-46.3	13.0	1.37e-05	123	40	0	32505856	60	7271
2026-01-18 21:36:47.53	88.81	4.27	-41.2	-43.0	16.9	0.00e+00	123	40	0	45088768	56	6232
2026-01-18 21:36:51.57	88.49	4.51	-40.5	-42.1	18.1	0.00e+00	122	40	0	58720256	54	6279
2026-01-18 21:36:55.61	88.17	4.75	-40.5	-42.0	18.5	0.00e+00	123	40	0	71303168	54	6243
2026-01-18 21:36:59.64	87.84	4.99	-39.0	-40.5	19.8	0.00e+00	122	40	0	83886080	52	5860
2026-01-18 21:37:03.68	87.51	5.24	-38.6	-40.2	20.0	0.00e+00	122	40	0	96468992	50	6366
2026-01-18 21:37:07.72	87.16	5.48	-38.4	-39.9	20.2	0.00e+00	122	40	0	109051904	50	6136
2026-01-18 21:37:11.75	86.82	5.72	-38.1	-39.4	20.8	0.00e+00	123	40	0	121634816	50	5852
2026-01-18 21:37:15.79	86.46	5.97	-38.2	-39.5	20.7	0.00e+00	120	40	0	134217728	50	5882
2026-01-18 21:37:19.82	86.10	6.22	-37.9	-39.1	21.2	0.00e+00	123	40	0	146800640	50	5641
2026-01-18 21:37:23.86	85.74	6.47	-37.8	-39.0	21.2	0.00e+00	120	41	0	159383552	50	5579
2026-01-18 21:37:27.90	85.37	6.72	-37.9	-39.1	21.3	0.00e+00	120	41	0	171966464	50	5606
2026-01-18 21:37:31.94	84.99	6.97	-37.7	-38.8	21.5	0.00e+00	122	41	0	184549376	48	6105
2026-01-18 21:37:35.98	84.60	7.22	-37.7	-38.8	21.5	0.00e+00	122	41	0	197132288	48	6102
2026-01-18 21:37:40.02	84.21	7.48	-37.7	-38.9	21.5	0.00e+00	123	41	0	209715200	48	6162
2026-01-18 21:37:44.06	83.81	7.73	-37.4	-38.5	21.9	0.00e+00	123	40	0	222298112	48	5868
2026-01-18 21:37:48.09	83.40	7.99	-37.4	-38.5	21.9	0.00e+00	122	41	0	234881024	48	5886
2026-01-18 21:37:52.12	82.99	8.24	-37.2	-38.3	22.1	0.00e+00	122	41	0	247463936	48	5779
2026-01-18 21:37:56.16	82.56	8.50	-37.3	-38.4	22.0	0.00e+00	122	41	0	260046848	48	5836
2026-01-18 21:38:00.20	82.13	8.76	-37.1	-38.1	22.3	0.00e+00	120	41	0	272629760	48	5657
2026-01-18 21:38:04.24	81.69	9.02	-37.2	-38.2	22.2	0.00e+00	123	41	0	285212672	48	5711
2026-01-18 21:38:08.28	81.25	9.29	-37.0	-38.0	22.3	0.00e+00	123	41	0	297795584	48	5584
2026-01-18 21:38:12.32	80.79	9.55	-37.0	-38.0	22.4	0.00e+00	122	41	0	310378496	48	5543
2026-01-18 21:38:16.35	80.33	9.81	-37.1	-38.2	22.3	0.00e+00	122	41	0	322961408	48	5677
2026-01-18 21:38:20.39	79.86	10.08	-36.7	-37.7	22.7	0.00e+00	122	41	0	335544320	46	6023
2026-01-18 21:38:24.43	79.38	10.34	-36.7	-37.7	22.7	0.00e+00	122	41	0	348127232	46	6000
2026-01-18 21:38:28.48	78.89	10.61	-36.7	-37.8	22.6	0.00e+00	123	41	0	360710144	46	6067
2026-01-18 21:38:32.52	78.39	10.88	-36.8	-37.8	22.8	0.00e+00	120	41	0	373293056	46	6067
2026-01-18 21:38:36.56	77.88	11.15	-36.6	-37.5	22.8	0.00e+00	123	41	0	386924544	46	5912
2026-01-18 21:38:40.59	77.36	11.42	-36.6	-37.6	22.8	0.00e+00	123	41	0	398458880	46	5940
2026-01-18 21:38:44.62	76.84	11.69	-36.5	-37.5	23.0	0.00e+00	123	41	0	411041792	46	5905
2026-01-18 21:38:48.66	76.30	11.96	-36.1	-37.1	23.3	0.00e+00	123	41	0	424673280	46	5627
2026-01-18 21:38:52.71	75.75	12.23	-36.1	-37.1	23.3	0.00e+00	123	41	0	437256192	46	5600
2026-01-18 21:38:56.74	75.19	12.50	-36.2	-37.1	23.3	0.00e+00	120	41	0	449839104	46	5655
2026-01-18 21:39:00.79	74.62	12.77	-36.2	-37.1	23.4	0.00e+00	122	41	0	462422016	46	5654
2026-01-18 21:39:04.82	74.04	13.04	-36.1	-37.1	23.4	0.00e+00	123	41	0	475004928	46	5602
2026-01-18 21:39:08.86	73.45	13.31	-36.2	-37.1	23.3	0.00e+00	123	41	0	487587840	46	5655
2026-01-18 21:39:12.90	72.85	13.58	-36.4	-37.4	23.2	0.00e+00	122	41	0	500170752	46	5815
2026-01-18 21:39:16.94	72.24	13.86	-36.2	-37.2	23.2	0.00e+00	122	41	0	512753664	46	5706
2026-01-18 21:39:20.98	71.61	14.13	-36.5	-37.5	23.1	0.00e+00	123	41	0	525336576	46	5882
2026-01-18 21:39:25.01	70.98	14.40	-36.6	-37.7	22.9	0.00e+00	122	41	0	537919488	46	6006
2026-01-18 21:39:29.05	70.33	14.67	-36.2	-37.2	23.4	0.00e+00	122	41	0	550502400	46	5665
2026-01-18 21:39:33.09	69.67	14.94	-36.4	-37.5	23.1	0.00e+00	120	41	0	563085312	46	5871
2026-01-18 21:39:37.13	69.00	15.20	-36.0	-37.0	23.5	0.00e+00	123	41	0	575668224	46	5579
2026-01-18 21:39:41.17	68.31	15.47	-36.2	-37.2	23.3	0.00e+00	123	41	0	588251136	46	5674
2026-01-18 21:39:45.21	67.62	15.74	-36.3	-37.3	23.2	0.00e+00	122	41	0	600834048	46	5777
2026-01-18 21:39:49.25	66.91	16.00	-35.9	-36.9	23.6	0.00e+00	123	41	0	613416960	46	5487
2026-01-18 21:39:53.29	66.19	16.26	-36.2	-37.2	23.4	0.00e+00	123	41	0	625999872	46	5694
2026-01-18 21:39:57.33	65.45	16.52	-36.2	-37.2	23.5	0.00e+00	122	41	0	638582784	46	5670
2026-01-18 21:40:01.36	64.71	16.78	-36.3	-37.2	23.4	0.00e+00	120	41	0	651165696	46	5718
2026-01-18 21:40:05.41	63.94	17.04	-36.3	-37.2	23.4	0.00e+00	120	41	0	663748608	46	5698
2026-01-18 21:40:09.45	63.17	17.29	-36.2	-37.2	23.4	0.00e+00	123	41	0	676331520	46	5696
2026-01-18 21:40:13.49	62.38	17.54	-36.4	-37.4	23.2	0.00e+00	120	41	0	688914432	46	5816
2026-01-18 21:40:17.53	61.58	17.79	-36.2	-37.2	23.3	0.00e+00	122	41	0	701497344	46	5690
2026-01-18 21:40:21.57	60.77	18.03	-36.4	-37.3	23.3	0.00e+00	122	41	0	714080256	46	5790
2026-01-18 21:40:25.61	59.94	18.27	-36.2	-37.2	23.3	0.00e+00	123	41	0	726663168	46	5702
2026-01-18 21:40:29.65	59.10	18.51	-36.3	-37.3	23.4	0.00e+00	123	41	0	740294656	46	5736
2026-01-18 21:40:33.68	58.25	18.74	-36.0	-36.9	23.6	0.00e+00	120	41	0	751828992	46	5512
2026-01-18 21:40:37.73	57.38	18.97	-35.7	-36.6	23.9	0.00e+00	123	41	0	765460480	44	5949
2026-01-18 21:40:41.77	56.50	19.19	-35.4	-36.3	24.1	0.00e+00	123	41	0	778043392	44	5737
2026-01-18 21:40:45.81	55.61	19.41	-35.4	-36.3	24.0	0.00e+00	122	41	0	790626304	44	5752
2026-01-18 21:40:49.85	54.71	19.62	-35.3	-36.2	24.2	0.00e+00	123	41	0	803209216	44	5706
2026-01-18 21:40:53.89	53.79	19.83	-35.5	-36.4	24.1	0.00e+00	120	41	0	815792128	44	5825
2026-01-18 21:40:57.93	52.86	20.03	-35.6	-36.6	23.8	0.00e+00	122	41	0	828375040	44	5937
2026-01-18 21:41:01.96	51.92	20.22	-35.5	-36.4	24.1	0.00e+00	123	41	0	840957952	44	5808
2026-01-18 21:41:06.00	50.97	20.40	-35.6	-36.5	24.2	0.00e+00	123	41	0	853540864	44	5881
2026-01-18 21:41:10.04	50.00	20.58	-35.1	-36.0	24.3	0.00e+00	123	41	0	866123776	44	5566
2026-01-18 21:41:14.08	49.03	20.75	-35.3	-36.2	24.3	0.00e+00	123	41	0	878706688	44	5712
2026-01-18 21:41:18.12	48.04	20.92	-35.2	-36.1	24.4	0.00e+00	123	41	0	891289600	44	5623
2026-01-18 21:41:22.15	47.05	21.07	-35.2	-36.0	24.4	0.00e+00	123	41	0	903872512	44	5592
2026-01-18 21:41:26.19	46.04	21.22	-35.1	-36.0	24.5	0.00e+00	123	41	0	916455424	44	5557
2026-01-18 21:41:30.23	45.02	21.36	-35.0	-35.9	24.5	0.00e+00	123	41	0	929038336	44	5522
2026-01-18 21:41:34.27	44.00	21.49	-35.3	-36.2	24.3	0.00e+00	122	41	0	941621248	44	5706
2026-01-18 21:41:38.31	42.97	21.61	-35.3	-36.2	24.3	0.00e+00	123	41	0	954204160	44	5718
2026-01-18 21:41:42.35	41.93	21.72	-35.2	-36.1	24.4	0.00e+00	123	41	0	966787072	44	5645
2026-01-18 21:41:46.38	40.88	21.82	-35.2	-36.1	24.5	0.00e+00	122	41	0	979369984	44	5607
2026-01-18 21:41:50.42	39.82	21.91	-35.2	-36.1	24.3	0.00e+00	122	41	0	991952896	44	5624
2026-01-18 21:41:54.46	38.76	22.00	-35.4	-36.3	24.3	0.00e+00	123	41	0	1004535808	44	5771
2026-01-18 21:41:58.50	37.70	22.07	-35.3	-36.2	24.3	0.00e+00	123	41	0	1017118720	44	5706
2026-01-18 21:42:02.53	36.63	22.13	-35.4	-36.3	24.3	0.00e+00	122	41	0	1029701632	44	5762
2026-01-18 21:42:06.57	35.56	22.18	-35.1	-36.0	24.5	0.00e+00	122	41	0	1042284544	44	5562
2026-01-18 21:42:10.61	34.48	22.22	-35.1	-36.0	24.5	0.00e+00	118	41	0	1054867456	44	5584
2026-01-18 21:42:14.65	33.40	22.24	-35.4	-36.4	24.2	0.00e+00	120	41	0	1067450368	44	5799
2026-01-18 21:42:18.70	32.32	22.26	-35.0	-35.9	24.6	0.00e+00	122	41	0	1080033280	44	5480
2026-01-18 21:42:22.73	31.24	22.27	-34.9	-35.8	24.7	0.00e+00	122	41	0	1092616192	44	5413
2026-01-18 21:42:26.77	30.16	22.26	-35.3	-36.2	24.3	0.00e+00	122	41	0	1106247680	44	5681
2026-01-18 21:42:30.81	29.07	22.25	-35.4	-36.3	24.2	0.00e+00	123	41	0	1118830592	44	5749
2026-01-18 21:42:34.86	27.99	22.22	-35.8	-36.7	23.9	0.00e+00	122	41	0	1131413504	44	6030
2026-01-18 21:42:38.90	26.92	22.19	-35.5	-36.5	24.1	0.00e+00	123	41	0	1143996416	44	5867
2026-01-18 21:42:42.94	25.84	22.14	-35.1	-36.0	24.5	0.00e+00	123	41	0	1156579328	44	5591
2026-01-18 21:42:46.98	24.77	22.08	-34.9	-35.8	24.6	0.00e+00	123	41	0	1169162240	44	5425
2026-01-18 21:42:51.02	23.70	22.01	-35.2	-36.1	24.4	0.00e+00	120	41	0	1181745152	44	5613
2026-01-18 21:42:55.06	22.64	21.93	-35.2	-36.1	24.4	0.00e+00	123	41	0	1194328064	44	5621
2026-01-18 21:42:59.10	21.59	21.84	-35.1	-36.0	24.3	0.00e+00	127	41	0	1206910976	44	5585
2026-01-18 21:43:03.13	20.54	21.74	-35.0	-35.9	24.5	0.00e+00	120	41	0	1219493888	44	5494
2026-01-18 21:43:07.17	19.50	21.63	-35.2	-36.1	24.2	0.00e+00	120	41	0	1232076800	44	5615
2026-01-18 21:43:11.22	18.47	21.51	-35.4	-36.3	24.0	0.00e+00	122	41	0	1244659712	44	5779
2026-01-18 21:43:15.26	17.44	21.39	-35.2	-36.1	24.4	0.00e+00	122	41	0	1257242624	44	5595
2026-01-18 21:43:19.29	16.43	21.25	-35.3	-36.2	24.3	0.00e+00	120	41	0	1269825536	44	5702
2026-01-18 21:43:23.32	15.42	21.10	-35.2	-36.1	24.4	0.00e+00	120	41	0	1282408448	44	5606
2026-01-18 21:43:27.36	14.42	20.95	-35.4	-36.3	24.2	0.00e+00	122	41	0	1294991360	44	5783
2026-01-18 21:43:31.40	13.44	20.79	-35.5	-36.4	24.2	0.00e+00	123	41	0	1307574272	44	5840
2026-01-18 21:43:35.44	12.46	20.62	-35.5	-36.4	24.2	0.00e+00	122	41	0	1320157184	44	5846
2026-01-18 21:43:39.48	11.50	20.44	-35.6	-36.5	24.1	0.00e+00	123	41	0	1332740096	44	5896
2026-01-18 21:43:43.52	10.54	20.26	-35.2	-36.1	24.4	0.00e+00	123	41	0	1345323008	44	5646
2026-01-18 21:43:47.56	9.60	20.07	-35.3	-36.1	24.3	0.00e+00	123	41	0	1357905920	44	5658
2026-01-18 21:43:51.61	8.67	19.87	-35.7	-36.6	24.1	0.00e+00	123	41	0	1370488832	44	5985
2026-01-18 21:43:55.64	7.75	19.66	-36.0	-37.0	23.7	0.00e+00	123	41	0	1383071744	44	6230
2026-01-18 21:43:59.68	6.85	19.45	-35.5	-36.4	24.1	0.00e+00	122	41	0	1395654656	44	5826
2026-01-18 21:44:03.71	5.96	19.24	-35.8	-36.7	23.9	0.00e+00	122	41	0	1408237568	44	6043
2026-01-18 21:44:07.75	5.08	19.02	-35.8	-36.7	23.9	0.00e+00	123	41	0	1421869056	44	6029
2026-01-18 21:44:11.79	4.21	18.79	-35.8	-36.7	24.0	0.00e+00	123	41	0	1433403392	44	6024
2026-01-18 21:44:15.83	3.36	18.56	-35.7	-36.6	24.0	0.00e+00	121	41	0	1447034880	44	5958
2026-01-18 21:44:19.87	2.52	18.33	-35.4	-36.3	24.2	0.00e+00	120	41	0	1459617792	44	5776
2026-01-18 21:44:23.91	1.69	18.09	-35.8	-36.8	23.8	0.00e+00	122	41	0	1472200704	44	6077
2026-01-18 21:44:27.95	0.88	17.84	-35.9	-36.8	23.8	0.00e+00	123	41	0	1484783616	44	6089
2026-01-18 21:44:31.99	0.08	17.60	-35.6	-36.5	24.1	0.00e+00	123	41	0	1497366528	44	5876
2026-01-18 21:44:36.03	359.29	17.35	-35.7	-36.6	23.9	0.00e+00	123	41	0	1509949440	44	5990
2026-01-18 21:44:40.07	358.51	17.10	-35.7	-36.6	24.0	0.00e+00	124	41	0	1522532352	44	5957
2026-01-18 21:44:44.11	357.75	16.84	-36.2	-37.1	23.5	0.00e+00	120	41	0	1535115264	44	6331
2026-01-18 21:44:48.15	357.00	16.59	-36.4	-37.4	23.3	0.00e+00	120	41	0	1547698176	44	6510
2026-01-18 21:44:52.19	356.27	16.33	-36.3	-37.3	23.5	0.00e+00	122	41	0	1560281088	44	6444
2026-01-18 21:44:56.23	355.55	16.06	-36.2	-37.1	23.5	0.00e+00	123	41	0	1572864000	44	6328
2026-01-18 21:45:00.25	354.84	15.80	-36.2	-37.1	23.4	0.00e+00	123	41	0	1585446912	44	6330
2026-01-18 21:45:04.28	354.15	15.54	-36.0	-36.9	23.6	0.00e+00	123	41	0	1598029824	44	6195
2026-01-18 21:45:08.32	353.46	15.27	-36.2	-37.2	23.5	0.00e+00	122	41	0	1610612736	44	6365
2026-01-18 21:45:12.36	352.79	15.00	-36.6	-37.5	23.3	0.00e+00	123	41	0	1623195648	44	6624
2026-01-18 21:45:16.40	352.13	14.74	-36.7	-37.7	23.1	0.00e+00	120	41	0	1635778560	46	6023
2026-01-18 21:45:20.44	351.48	14.47	-36.4	-37.4	23.3	0.00e+00	120	41	0	1648361472	46	5806
2026-01-18 21:45:24.48	350.84	14.20	-36.4	-37.3	23.3	0.00e+00	123	41	0	1660944384	46	5786
2026-01-18 21:45:28.52	350.22	13.93	-36.2	-37.2	23.4	0.00e+00	123	41	0	1673527296	46	5675
2026-01-18 21:45:32.57	349.61	13.66	-36.2	-37.1	23.5	0.00e+00	123	41	0	1686110208	46	5638
2026-01-18 21:45:36.60	349.01	13.39	-36.3	-37.2	23.4	0.00e+00	123	41	0	1698693120	46	5723
2026-01-18 21:45:40.64	348.41	13.11	-36.4	-37.4	23.3	0.00e+00	123	41	0	1711276032	46	5792
2026-01-18 21:45:44.68	347.84	12.84	-36.6	-37.6	23.1	0.00e+00	122	41	0	1723858944	46	5963
2026-01-18 21:45:48.71	347.27	12.57	-37.3	-38.3	22.6	0.00e+00	120	41	0	1736441856	46	6435
2026-01-18 21:45:52.76	346.71	12.30	-37.5	-38.5	22.3	0.00e+00	123	41	0	1749024768	46	6610
2026-01-18 21:45:56.79	346.16	12.03	-37.3	-38.3	22.5	0.00e+00	123	41	0	1761607680	46	6466
2026-01-18 21:46:00.83	345.62	11.76	-37.3	-38.3	22.5	0.00e+00	122	41	0	1774190592	46	6433
2026-01-18 21:46:04.87	345.10	11.49	-37.5	-38.5	22.3	0.00e+00	123	41	0	1787822080	46	6627
2026-01-18 21:46:08.91	344.58	11.22	-37.6	-38.6	22.0	0.00e+00	120	41	0	1800404992	46	6714
2026-01-18 21:46:12.94	344.07	10.96	-37.4	-38.4	22.3	0.00e+00	118	41	0	1812987904	46	6565
2026-01-18 21:46:16.98	343.57	10.69	-37.2	-38.2	22.6	0.00e+00	122	41	0	1825570816	46	6371
2026-01-18 21:46:21.02	343.08	10.42	-37.5	-38.5	22.3	0.00e+00	123	41	0	1838153728	46	6614
2026-01-18 21:46:25.06	342.60	10.16	-37.9	-38.9	21.8	0.00e+00	123	41	0	1850736640	48	6202
2026-01-18 21:46:29.10	342.13	9.89	-37.6	-38.7	22.0	0.00e+00	123	41	0	1863319552	48	6020
2026-01-18 21:46:33.13	341.67	9.63	-37.6	-38.6	22.1	0.00e+00	123	41	0	1875902464	48	5957
2026-01-18 21:46:37.17	341.22	9.37	-37.8	-38.9	21.8	0.00e+00	122	41	0	1888485376	48	6158
2026-01-18 21:46:41.21	340.77	9.11	-38.3	-39.5	21.4	0.00e+00	123	41	0	1901068288	48	6580
2026-01-18 21:46:45.25	340.33	8.84	-38.6	-39.7	21.2	0.00e+00	123	41	0	1913651200	48	6796
2026-01-18 21:46:49.29	339.90	8.58	-38.1	-39.2	21.3	0.00e+00	123	41	0	1926234112	48	6400
2026-01-18 21:46:53.33	339.48	8.33	-37.7	-38.8	21.8	0.00e+00	118	41	0	1938817024	48	6094
2026-01-18 21:46:57.38	339.07	8.07	-37.9	-39.0	21.7	0.00e+00	123	41	0	1951399936	48	6217
2026-01-18 21:47:01.41	338.66	7.81	-38.5	-39.6	21.0	0.00e+00	123	42	0	1963982848	48	6709
2026-01-18 21:47:05.46	338.26	7.56	-38.8	-40.0	20.7	0.00e+00	123	42	0	1976565760	50	6271
2026-01-18 21:47:09.50	337.87	7.30	-38.6	-39.8	20.8	0.00e+00	123	42	0	1989148672	50	6082
2026-01-18 21:47:13.54	337.48	7.05	-38.3	-39.4	21.0	0.00e+00	123	41	0	2001731584	50	5858
2026-01-18 21:47:17.58	337.10	6.80	-38.2	-39.3	21.3	0.00e+00	122	42	0	2014314496	50	5785
2026-01-18 21:47:21.62	336.73	6.55	-38.2	-39.3	21.2	0.00e+00	123	42	0	2026897408	50	5782
2026-01-18 21:47:25.66	336.37	6.30	-38.5	-39.7	20.7	0.00e+00	123	42	0	2039480320	50	6043
2026-01-18 21:47:29.70	336.01	6.05	-39.4	-40.7	19.5	0.00e+00	123	42	0	2052063232	50	6747
2026-01-18 21:47:33.74	335.66	5.81	-40.7	-42.4	17.1	0.00e+00	122	42	0	2064646144	52	7339
2026-01-18 21:47:37.78	335.31	5.56	-42.0	-44.3	14.4	0.00e+00	123	42	0	2077229056	56	7242
2026-01-18 21:47:41.82	334.97	5.32	-43.0	-46.3	11.0	7.44e-04	122	42	0	2089811968	58	8113
2026-01-18 21:47:45.86	334.63	5.07	-44.0	-48.9	8.2	5.38e-02	123	42	0	2103443456	60	9775
2026-01-18 21:47:49.90	334.30	4.83	-44.4	-50.5	5.7	3.20e-01	122	42	0	2116026368	60	11732
2026-01-18 21:47:53.94	333.98	4.59	-44.6	-53.4	4.7	9.30e-01	123	42	104	2116026368	60	16421
2026-01-18 21:47:57.98	333.66	4.35	-44.7	-54.0	3.7	1.21e+00	0	42	104	2116026368	60	17658
2026-01-18 21:48:02.01	333.35	4.12	-45.2	-57.7	3.5	1.50e+00	0	42	104	2116026368	60	26934
2026-01-18 21:48:06.05	333.05	3.88	-44.8	-54.7	4.1	1.47e+00	0	42	104	2116026368	60	19063
2026-01-18 21:48:10.09	332.74	3.65	-45.1	-54.8	4.2	1.50e+00	0	42	104	2116026368	60	19273
2026-01-18 21:48:14.12	332.45	3.41	-44.7	-52.3	5.7	1.47e+00	123	42	104	2116026368	60	14510
2026-01-18 21:48:18.16	332.16	3.18	-44.7	-50.9	5.9	3.15e-01	123	42	0	2122317824	60	12272
2026-01-18 21:48:22.20	331.87	2.95	-48.7	-61.6	3.5	1.52e+00	0	42	104	2132803584	60	42178
2026-01-18 21:48:26.24	331.59	2.72	-49.7	-62.5	3.5	1.52e+00	0	42	104	2132803584	60	46858
2026-01-18 21:48:30.27	331.31	2.49	-49.9	-62.8	3.5	1.52e+00	0	42	104	2132803584	60	48473
2026-01-18 21:48:34.32	331.03	2.26	-50.0	-62.9	3.5	1.52e+00	0	42	104	2132803584	60	48824
2026-01-18 21:48:38.35	330.77	2.04	-49.8	-62.7	3.5	1.52e+00	0	42	104	2132803584	60	47718
2026-01-18 21:48:42.40	330.50	1.81	-49.8	-62.6	3.5	1.52e+00	0	42	104	2132803584	60	47431
2026-01-18 21:48:46.44	330.24	1.59	-49.9	-62.7	3.5	1.52e+00	0	42	104	2132803584	60	48040
2026-01-18 21:48:50.47	329.98	1.37	-49.8	-62.7	3.5	1.52e+00	0	42	104	2132803584	60	47942
2026-01-18 21:48:54.51	329.73	1.14	-49.8	-62.6	3.6	1.52e+00	0	42	104	2132803584	60	47601
2026-01-18 21:48:58.54	329.48	0.92	-49.9	-62.7	3.5	1.52e+00	0	42	104	2132803584	60	47878
2026-01-18 21:49:02.58	329.24	0.71	-49.8	-62.7	3.5	1.51e+00	0	42	104	2132803584	60	47744
2026-01-18 21:49:06.62	329.00	0.49	-49.8	-62.7	3.5	1.52e+00	0	42	104	2132803584	60	48001
2026-01-18 21:49:10.66	328.76	0.27	-49.9	-62.7	3.5	1.52e+00	0	42	104	2132803584	60	48067
2026-01-18 21:49:14.69	328.53	0.05	-49.9	-62.7	3.5	1.52e+00	0	42	104	2132803584	60	47820

#Closed at: 2026-01-18 21:49:18
#Recorded file [2132 MB]: D:/lorett/data/35029_260119_093534.dat