passes_logs/2026/01/18/R4.6S_Anadyr/R4.6S_Anadyr__20260118_011314_NOAA_21_JPSS-2_rec.log

#Pass ID: 20260118_011314_NOAA 21 (JPSS-2)
#Satellite: NOAA 21 (JPSS-2)
#Configuration: NOAA-21
#almurnet v.1.7.20251203
#Start time: 2026-01-18 01:13:15

#Version: 2.2.20231116
#Station: R4.6S_Anadyr
#Location: 177.4865 lon 64.73178 lat
#TLE: 1 54234U 22150A   26017.62066529  .00000042  00000+0  40984-4 0  9994
#TLE: 2 54234  98.7502 318.4887 0000613 271.5460  88.5645 14.19535234165189

#Time	Az	El	Level	Level2	SNR	BER	BlckErr	Temp	State	Recorded	gain1	gain2
2026-01-18 01:13:15.53	181.66	0.04	-49.2	-67.2	3.5	3.02e+01	0	30	0	0	60	88322
2026-01-18 01:13:19.56	181.80	0.27	-50.0	-62.9	3.5	1.51e+00	0	31	104	0	60	49126
2026-01-18 01:13:23.60	181.94	0.51	-49.5	-62.4	3.5	1.52e+00	0	31	104	0	60	46435
2026-01-18 01:13:27.64	182.08	0.75	-49.8	-62.7	3.5	1.52e+00	0	32	104	0	60	47763
2026-01-18 01:13:31.67	182.22	0.99	-49.9	-62.9	3.5	1.52e+00	0	32	104	0	60	48763
2026-01-18 01:13:35.71	182.36	1.23	-49.9	-62.8	3.5	1.52e+00	0	32	104	0	60	48237
2026-01-18 01:13:39.76	182.50	1.48	-49.7	-62.6	3.5	1.52e+00	0	32	104	0	60	47225
2026-01-18 01:13:43.79	182.65	1.72	-49.9	-62.7	3.5	1.52e+00	0	32	104	0	60	48135
2026-01-18 01:13:47.84	182.80	1.97	-49.2	-62.1	3.5	1.52e+00	0	32	104	0	60	44525
2026-01-18 01:13:51.87	182.95	2.22	-49.3	-62.2	3.5	1.51e+00	0	32	104	0	60	45305
2026-01-18 01:13:55.91	183.11	2.48	-49.6	-62.5	3.5	1.51e+00	0	32	104	0	60	46559
2026-01-18 01:13:59.95	183.27	2.73	-49.6	-62.5	3.5	1.52e+00	0	32	104	0	60	46620
2026-01-18 01:14:03.99	183.43	2.99	-49.2	-62.1	3.5	1.52e+00	0	32	104	0	60	44905
2026-01-18 01:14:08.03	183.59	3.25	-49.4	-62.3	3.5	1.52e+00	0	32	104	0	60	45516
2026-01-18 01:14:12.07	183.75	3.51	-49.9	-62.8	3.5	1.52e+00	0	32	104	0	60	48590
2026-01-18 01:14:16.11	183.92	3.77	-49.3	-62.2	3.5	1.52e+00	0	32	104	0	60	45266
2026-01-18 01:14:20.15	184.09	4.04	-49.4	-62.3	3.5	1.51e+00	0	32	104	0	60	45606
2026-01-18 01:14:24.19	184.26	4.31	-49.6	-62.5	3.5	1.52e+00	0	32	104	0	60	46987
2026-01-18 01:14:28.23	184.44	4.58	-49.6	-62.5	3.5	1.52e+00	0	32	104	0	60	46772
2026-01-18 01:14:32.27	184.62	4.85	-49.9	-62.8	3.5	1.52e+00	0	32	104	0	60	48707
2026-01-18 01:14:36.30	184.80	5.13	-49.5	-62.4	3.5	1.52e+00	0	32	104	0	60	46214
2026-01-18 01:14:40.34	184.99	5.41	-49.5	-62.4	3.5	1.52e+00	0	32	104	0	60	46124
2026-01-18 01:14:44.38	185.17	5.69	-49.5	-62.4	3.5	1.52e+00	0	32	104	0	60	46427
2026-01-18 01:14:48.42	185.37	5.97	-49.5	-62.4	3.5	1.52e+00	0	32	104	0	60	46273
2026-01-18 01:14:52.45	185.56	6.26	-49.7	-62.6	3.5	1.52e+00	0	32	104	0	60	47564
2026-01-18 01:14:56.49	185.76	6.55	-49.5	-62.4	3.5	1.52e+00	0	32	104	0	60	46336
2026-01-18 01:15:00.53	185.97	6.85	-49.3	-62.2	3.5	1.52e+00	0	32	104	0	60	45387
2026-01-18 01:15:04.56	186.17	7.14	-49.3	-62.2	3.5	1.52e+00	0	32	104	0	60	45132
2026-01-18 01:15:08.60	186.38	7.44	-49.2	-62.1	3.5	1.52e+00	0	32	104	0	60	44850
2026-01-18 01:15:12.64	186.60	7.75	-49.6	-62.5	3.5	1.52e+00	0	33	104	0	60	46579
2026-01-18 01:15:16.68	186.82	8.05	-49.7	-62.7	3.5	1.52e+00	0	33	104	0	60	47645
2026-01-18 01:15:20.72	187.04	8.36	-49.8	-62.7	3.5	1.52e+00	0	33	104	0	60	47819
2026-01-18 01:15:24.76	187.27	8.68	-49.4	-62.3	3.5	1.51e+00	0	33	104	0	60	45605
2026-01-18 01:15:28.80	187.50	8.99	-49.4	-62.3	3.5	1.52e+00	0	33	104	0	60	45515
2026-01-18 01:15:32.84	187.74	9.31	-49.3	-62.2	3.5	1.52e+00	0	33	104	0	60	45141
2026-01-18 01:15:36.88	187.98	9.64	-49.6	-62.5	3.5	1.52e+00	0	33	104	0	60	47031
2026-01-18 01:15:40.92	188.23	9.97	-49.4	-62.3	3.5	1.52e+00	0	33	104	0	60	45541
2026-01-18 01:15:44.96	188.49	10.30	-49.1	-61.9	3.5	1.52e+00	0	33	104	0	60	43803
2026-01-18 01:15:49.00	188.74	10.64	-49.2	-62.0	3.5	1.52e+00	0	33	104	0	60	44398
2026-01-18 01:15:53.04	189.01	10.98	-49.3	-62.2	3.5	1.52e+00	0	33	104	0	60	45287
2026-01-18 01:15:57.08	189.28	11.32	-49.5	-62.5	3.5	1.52e+00	0	33	104	0	60	46590
2026-01-18 01:16:01.11	189.56	11.67	-49.7	-62.6	3.5	1.51e+00	0	33	104	0	60	47165
2026-01-18 01:16:05.15	189.84	12.02	-49.7	-62.6	3.5	1.52e+00	0	33	104	0	60	47226
2026-01-18 01:16:09.18	190.13	12.38	-49.4	-62.3	3.5	1.52e+00	0	33	104	0	60	45929
2026-01-18 01:16:13.22	190.42	12.74	-49.8	-62.7	3.5	1.52e+00	0	33	104	0	60	47652
2026-01-18 01:16:17.26	190.73	13.11	-49.6	-62.5	3.5	1.52e+00	0	33	104	0	60	46620
2026-01-18 01:16:21.29	191.04	13.48	-49.9	-62.8	3.5	1.52e+00	0	33	104	0	60	48490
2026-01-18 01:16:25.33	191.35	13.86	-49.4	-62.3	3.5	1.51e+00	0	33	104	0	60	45745
2026-01-18 01:16:29.38	191.68	14.25	-49.6	-62.4	3.5	1.52e+00	0	33	104	0	60	46312
2026-01-18 01:16:33.41	192.01	14.63	-49.4	-62.3	3.5	1.52e+00	0	33	104	0	60	45787
2026-01-18 01:16:37.45	192.36	15.03	-49.8	-62.6	3.5	1.52e+00	0	33	104	0	60	47473
2026-01-18 01:16:41.49	192.71	15.43	-49.8	-62.7	3.5	1.52e+00	0	33	104	0	60	47934
2026-01-18 01:16:45.53	193.07	15.83	-49.3	-62.2	3.5	1.51e+00	0	33	104	0	60	45314
2026-01-18 01:16:49.57	193.44	16.24	-50.0	-62.9	3.5	1.52e+00	0	33	104	0	60	49039
2026-01-18 01:16:53.61	193.82	16.66	-49.6	-62.5	3.5	1.52e+00	0	33	104	0	60	46612
2026-01-18 01:16:57.65	194.21	17.08	-49.4	-62.4	3.5	1.52e+00	0	33	104	0	60	46087
2026-01-18 01:17:01.69	194.61	17.51	-49.2	-62.1	3.5	1.52e+00	0	33	104	0	60	44448
2026-01-18 01:17:05.73	195.02	17.94	-49.5	-62.4	3.5	1.52e+00	0	33	104	0	60	46031
2026-01-18 01:17:09.77	195.44	18.38	-49.5	-62.4	3.5	1.52e+00	0	33	104	0	60	46022
2026-01-18 01:17:13.80	195.88	18.83	-49.6	-62.4	3.5	1.52e+00	0	33	104	0	60	46525
2026-01-18 01:17:17.84	196.33	19.29	-50.0	-62.9	3.5	1.52e+00	0	33	104	0	60	48898
2026-01-18 01:17:21.88	196.79	19.75	-50.1	-62.9	3.5	1.52e+00	0	33	104	0	60	49169
2026-01-18 01:17:25.92	197.26	20.21	-49.5	-62.4	3.5	1.52e+00	0	33	104	0	60	46535
2026-01-18 01:17:29.95	197.75	20.69	-49.9	-62.8	3.5	1.51e+00	0	33	104	0	60	48508
2026-01-18 01:17:33.99	198.25	21.17	-49.2	-62.1	3.5	1.52e+00	0	33	104	0	60	44794
2026-01-18 01:17:38.04	198.77	21.66	-49.3	-62.2	3.5	1.52e+00	0	33	104	0	60	45231
2026-01-18 01:17:42.07	199.31	22.16	-49.4	-62.3	3.5	1.52e+00	0	33	104	0	60	45753
2026-01-18 01:17:46.11	199.86	22.66	-49.4	-62.3	3.5	1.52e+00	0	33	104	0	60	45586
2026-01-18 01:17:50.15	200.43	23.17	-49.5	-62.4	3.5	1.52e+00	0	33	104	0	60	46273
2026-01-18 01:17:54.19	201.02	23.69	-49.5	-62.4	3.5	1.52e+00	0	33	104	0	60	46308
2026-01-18 01:17:58.24	201.63	24.21	-49.7	-62.7	3.5	1.52e+00	0	33	104	0	60	47644
2026-01-18 01:18:02.28	202.26	24.75	-49.5	-62.4	3.5	1.52e+00	0	33	104	0	60	46307
2026-01-18 01:18:06.32	202.91	25.29	-49.5	-62.4	3.5	1.52e+00	0	33	104	0	60	46033
2026-01-18 01:18:10.36	203.58	25.83	-49.3	-62.2	3.5	1.52e+00	0	33	104	0	60	45303
2026-01-18 01:18:14.40	204.27	26.39	-49.4	-62.3	3.5	1.52e+00	0	33	104	0	60	45823
2026-01-18 01:18:18.44	204.99	26.95	-49.5	-62.4	3.5	1.52e+00	0	33	104	0	60	46154
2026-01-18 01:18:22.48	205.73	27.52	-49.5	-62.4	3.5	1.52e+00	0	33	104	0	60	46138
2026-01-18 01:18:26.51	206.50	28.09	-49.5	-62.4	3.5	1.52e+00	0	33	104	0	60	46075
2026-01-18 01:18:30.55	207.30	28.67	-49.4	-62.3	3.5	1.52e+00	0	33	104	0	60	45956
2026-01-18 01:18:34.59	208.12	29.26	-49.6	-62.6	3.5	1.51e+00	0	33	104	0	60	47097
2026-01-18 01:18:38.63	208.98	29.86	-49.4	-62.3	3.5	1.52e+00	0	33	104	0	60	45638
2026-01-18 01:18:42.67	209.87	30.45	-49.4	-62.3	3.5	1.52e+00	0	33	104	0	60	45756
2026-01-18 01:18:46.71	210.79	31.06	-50.0	-62.9	3.5	1.52e+00	0	33	104	0	60	49022
2026-01-18 01:18:50.75	211.74	31.67	-49.5	-62.4	3.5	1.52e+00	0	33	104	0	60	46450
2026-01-18 01:18:54.79	212.73	32.28	-49.5	-62.4	3.5	1.52e+00	0	33	104	0	60	46228
2026-01-18 01:18:58.83	213.76	32.89	-49.6	-62.5	3.5	1.52e+00	0	33	104	0	60	46677
2026-01-18 01:19:02.88	214.83	33.51	-49.4	-62.3	3.5	1.52e+00	0	33	104	0	60	45841
2026-01-18 01:19:06.91	215.94	34.13	-49.5	-62.4	3.5	1.52e+00	0	33	104	0	60	46014
2026-01-18 01:19:10.95	217.09	34.75	-49.5	-62.4	3.5	1.52e+00	0	33	104	0	60	46419
2026-01-18 01:19:14.99	218.28	35.36	-49.7	-62.7	3.5	1.52e+00	0	33	104	0	60	48028
2026-01-18 01:19:19.03	219.52	35.98	-49.5	-62.4	3.4	1.51e+00	0	33	104	0	60	46480
2026-01-18 01:19:23.06	220.80	36.59	-49.9	-62.7	3.5	1.52e+00	0	33	104	0	60	48152
2026-01-18 01:19:27.10	222.13	37.20	-49.3	-62.2	3.5	1.52e+00	0	33	104	0	60	45434
2026-01-18 01:19:31.14	223.51	37.80	-49.3	-62.2	3.5	1.51e+00	0	33	104	0	60	45053
2026-01-18 01:19:35.18	224.94	38.39	-49.6	-62.4	3.5	1.52e+00	0	33	104	0	60	46409
2026-01-18 01:19:39.21	226.43	38.97	-49.2	-62.1	3.5	1.52e+00	0	33	104	0	60	44526
2026-01-18 01:19:43.25	227.96	39.54	-49.2	-62.1	3.5	1.52e+00	0	33	104	0	60	44728
2026-01-18 01:19:47.29	229.55	40.10	-49.5	-62.4	3.5	1.52e+00	0	33	104	0	60	46403
2026-01-18 01:19:51.33	231.20	40.63	-49.9	-62.8	3.5	1.52e+00	0	33	104	0	60	48716
2026-01-18 01:19:55.36	232.89	41.15	-49.4	-62.3	3.5	1.52e+00	0	33	104	0	60	45634
2026-01-18 01:19:59.39	234.64	41.65	-49.5	-62.5	3.5	1.52e+00	0	33	104	0	60	46638
2026-01-18 01:20:03.43	236.44	42.12	-49.8	-62.7	3.5	1.52e+00	0	33	104	0	60	48044
2026-01-18 01:20:07.47	238.29	42.57	-49.4	-62.3	3.5	1.52e+00	0	33	104	0	60	45821
2026-01-18 01:20:11.52	240.20	42.99	-49.7	-62.6	3.5	1.52e+00	0	33	104	0	60	47551
2026-01-18 01:20:15.55	242.15	43.38	-49.2	-62.1	3.5	1.52e+00	0	33	104	0	60	44900
2026-01-18 01:20:19.59	244.15	43.74	-50.0	-63.0	3.5	1.52e+00	0	33	104	0	60	49364
2026-01-18 01:20:23.63	246.19	44.06	-49.4	-62.3	3.5	1.52e+00	0	33	104	0	60	45505
2026-01-18 01:20:27.67	248.27	44.34	-50.2	-63.1	3.5	1.52e+00	0	33	104	0	60	49909
2026-01-18 01:20:31.71	250.38	44.58	-49.2	-62.1	3.5	1.52e+00	0	33	104	0	60	44806
2026-01-18 01:20:35.75	252.52	44.78	-50.1	-63.0	3.5	1.52e+00	0	33	104	0	60	49526
2026-01-18 01:20:39.79	254.68	44.93	-49.1	-62.0	3.5	1.52e+00	0	33	104	0	60	44246
2026-01-18 01:20:43.82	256.86	45.05	-49.2	-62.2	3.5	1.52e+00	0	33	104	0	60	44999
2026-01-18 01:20:47.86	259.06	45.12	-49.3	-62.2	3.5	1.52e+00	0	33	104	0	60	45281
2026-01-18 01:20:51.90	261.26	45.14	-49.5	-62.4	3.5	1.52e+00	0	33	104	0	60	46394
2026-01-18 01:20:55.94	263.46	45.11	-49.4	-62.3	3.5	1.51e+00	0	33	104	0	60	45929
2026-01-18 01:20:59.97	265.65	45.04	-50.0	-62.8	3.5	1.51e+00	0	33	104	0	60	48648
2026-01-18 01:21:04.01	267.83	44.93	-49.6	-62.5	3.5	1.52e+00	0	33	104	0	60	46568
2026-01-18 01:21:08.05	269.99	44.77	-49.7	-62.6	3.5	1.52e+00	0	33	104	0	60	47075
2026-01-18 01:21:12.09	272.13	44.57	-49.8	-62.7	3.5	1.52e+00	0	33	104	0	60	47732
2026-01-18 01:21:16.13	274.24	44.33	-49.6	-62.5	3.5	1.52e+00	0	33	104	0	60	46586
2026-01-18 01:21:20.17	276.31	44.05	-49.6	-62.5	3.5	1.51e+00	0	33	104	0	60	46929
2026-01-18 01:21:24.21	278.35	43.73	-49.3	-62.2	3.5	1.51e+00	0	33	104	0	60	45111
2026-01-18 01:21:28.26	280.34	43.37	-49.2	-62.2	3.5	1.52e+00	0	33	104	0	60	45018
2026-01-18 01:21:32.29	282.29	42.98	-49.4	-62.3	3.5	1.51e+00	0	33	104	0	60	45995
2026-01-18 01:21:36.33	284.19	42.56	-50.4	-63.3	3.5	1.52e+00	0	33	104	0	60	51394
2026-01-18 01:21:40.37	286.04	42.12	-49.1	-62.0	3.5	1.52e+00	0	33	104	0	60	44062
2026-01-18 01:21:44.41	287.83	41.64	-49.6	-62.5	3.5	1.52e+00	0	33	104	0	60	46950
2026-01-18 01:21:48.45	289.58	41.15	-50.1	-63.0	3.5	1.51e+00	0	33	104	0	60	49321
2026-01-18 01:21:52.49	291.27	40.63	-49.5	-62.4	3.5	1.52e+00	0	33	104	0	60	46453
2026-01-18 01:21:56.53	292.91	40.09	-49.8	-62.6	3.5	1.52e+00	0	33	104	0	60	47594
2026-01-18 01:22:00.56	294.49	39.54	-49.1	-62.0	3.5	1.52e+00	0	33	104	0	60	44232
2026-01-18 01:22:04.60	296.02	38.97	-49.2	-62.1	3.5	1.52e+00	0	33	104	0	60	44863
2026-01-18 01:22:08.64	297.50	38.39	-49.4	-62.3	3.5	1.52e+00	0	33	104	0	60	45975
2026-01-18 01:22:12.67	298.92	37.80	-49.8	-62.6	3.5	1.52e+00	0	33	104	0	60	47590
2026-01-18 01:22:16.71	300.30	37.21	-49.7	-62.6	3.5	1.52e+00	0	33	104	0	60	47517
2026-01-18 01:22:20.75	301.63	36.60	-49.7	-62.6	3.5	1.52e+00	0	33	104	0	60	47398
2026-01-18 01:22:24.79	302.91	35.99	-49.6	-62.5	3.5	1.52e+00	0	33	104	0	60	46966
2026-01-18 01:22:28.83	304.14	35.38	-49.8	-62.7	3.5	1.52e+00	0	33	104	0	60	47866
2026-01-18 01:22:32.87	305.33	34.77	-49.8	-62.7	3.5	1.52e+00	0	33	104	0	60	47746
2026-01-18 01:22:36.91	306.48	34.15	-50.2	-63.1	3.5	1.52e+00	0	33	104	0	60	49891
2026-01-18 01:22:40.94	307.58	33.54	-50.0	-62.9	3.5	1.52e+00	0	33	104	0	60	49089
2026-01-18 01:22:44.98	308.64	32.92	-49.3	-62.2	3.5	1.52e+00	0	33	104	0	60	45249
2026-01-18 01:22:49.02	309.67	32.31	-49.5	-62.4	3.5	1.52e+00	0	33	104	0	60	46406
2026-01-18 01:22:53.06	310.65	31.70	-49.6	-62.5	3.5	1.52e+00	0	33	104	0	60	46787
2026-01-18 01:22:57.10	311.60	31.10	-49.4	-62.3	3.5	1.52e+00	0	33	104	0	60	45914
2026-01-18 01:23:01.14	312.52	30.50	-49.6	-62.5	3.5	1.52e+00	0	33	104	0	60	46871
2026-01-18 01:23:05.18	313.41	29.90	-49.3	-62.3	3.5	1.52e+00	0	33	104	0	60	45735
2026-01-18 01:23:09.22	314.26	29.31	-49.5	-62.4	3.5	1.51e+00	0	33	104	0	60	46298
2026-01-18 01:23:13.26	315.09	28.73	-50.1	-63.0	3.5	1.52e+00	0	33	104	0	60	49624
2026-01-18 01:23:17.29	315.88	28.15	-49.3	-62.3	3.5	1.52e+00	0	33	104	0	60	45609
2026-01-18 01:23:21.33	316.65	27.58	-49.2	-62.1	3.5	1.52e+00	0	33	104	0	60	44771
2026-01-18 01:23:25.37	317.39	27.02	-49.6	-62.6	3.5	1.52e+00	0	33	104	0	60	47235
2026-01-18 01:23:29.41	318.11	26.46	-49.8	-62.7	3.5	1.52e+00	0	33	104	0	60	47928
2026-01-18 01:23:33.44	318.80	25.91	-49.7	-62.6	3.5	1.52e+00	0	33	104	0	60	47307
2026-01-18 01:23:37.48	319.47	25.37	-49.7	-62.6	3.5	1.52e+00	0	33	104	0	60	47274
2026-01-18 01:23:41.53	320.12	24.83	-49.4	-62.3	3.5	1.52e+00	0	33	104	0	60	45539
2026-01-18 01:23:45.57	320.75	24.30	-49.3	-62.2	3.5	1.51e+00	0	33	104	0	60	45021
2026-01-18 01:23:49.60	321.35	23.78	-49.5	-62.4	3.5	1.51e+00	0	33	104	0	60	46061
2026-01-18 01:23:53.64	321.94	23.26	-49.5	-62.4	3.5	1.51e+00	0	33	104	0	60	46442
2026-01-18 01:23:57.69	322.51	22.75	-49.5	-62.5	3.5	1.51e+00	0	33	104	0	60	46563
2026-01-18 01:24:01.73	323.06	22.25	-49.6	-62.5	3.5	1.52e+00	0	33	104	0	60	46782
2026-01-18 01:24:05.77	323.60	21.76	-49.6	-62.5	3.5	1.52e+00	0	33	104	0	60	46860
2026-01-18 01:24:09.81	324.12	21.27	-49.3	-62.2	3.5	1.52e+00	0	33	104	0	60	45309
2026-01-18 01:24:13.85	324.62	20.79	-49.9	-62.8	3.5	1.52e+00	0	33	104	0	60	48718
2026-01-18 01:24:17.88	325.11	20.32	-49.6	-62.5	3.5	1.52e+00	0	33	104	0	60	47030
2026-01-18 01:24:21.92	325.59	19.86	-49.6	-62.5	3.5	1.52e+00	0	33	104	0	60	46600
2026-01-18 01:24:25.96	326.05	19.40	-49.5	-62.4	3.5	1.52e+00	0	33	104	0	60	46324
2026-01-18 01:24:30.00	326.50	18.95	-49.2	-62.1	3.5	1.52e+00	0	33	104	0	60	44935
2026-01-18 01:24:34.04	326.93	18.50	-49.4	-62.3	3.5	1.52e+00	0	33	104	0	60	45899
2026-01-18 01:24:38.08	327.36	18.06	-49.8	-62.7	3.5	1.52e+00	0	33	104	0	60	47692
2026-01-18 01:24:42.12	327.77	17.63	-49.7	-62.6	3.5	1.52e+00	0	33	104	0	60	47142
2026-01-18 01:24:46.16	328.17	17.20	-49.5	-62.4	3.5	1.52e+00	0	33	104	0	60	46063
2026-01-18 01:24:50.19	328.56	16.79	-49.3	-62.3	3.5	1.51e+00	0	33	104	0	60	45517
2026-01-18 01:24:54.23	328.94	16.37	-49.3	-62.2	3.5	1.52e+00	0	33	104	0	60	45394
2026-01-18 01:24:58.27	329.31	15.96	-49.7	-62.6	3.5	1.52e+00	0	33	104	0	60	47607
2026-01-18 01:25:02.31	329.68	15.56	-49.8	-62.6	3.5	1.52e+00	0	33	104	0	60	47532
2026-01-18 01:25:06.35	330.03	15.16	-49.4	-62.3	3.5	1.52e+00	0	33	104	0	60	45574
2026-01-18 01:25:10.39	330.37	14.77	-49.3	-62.2	3.5	1.52e+00	0	33	104	0	60	45056
2026-01-18 01:25:14.43	330.71	14.39	-49.7	-62.6	3.5	1.52e+00	0	33	104	0	60	47173
2026-01-18 01:25:18.46	331.03	14.01	-49.2	-62.1	3.5	1.52e+00	0	33	104	0	60	44571
2026-01-18 01:25:22.50	331.35	13.63	-49.2	-62.2	3.5	1.52e+00	0	33	104	0	60	45097
2026-01-18 01:25:26.55	331.67	13.26	-49.4	-62.3	3.5	1.52e+00	0	33	104	0	60	45762
2026-01-18 01:25:30.59	331.97	12.89	-49.6	-62.5	3.5	1.51e+00	0	33	104	0	60	46883
2026-01-18 01:25:34.62	332.27	12.53	-49.6	-62.5	3.5	1.52e+00	0	33	104	0	60	46933
2026-01-18 01:25:38.66	332.56	12.17	-49.2	-62.1	3.5	1.52e+00	0	33	104	0	60	44488
2026-01-18 01:25:42.70	332.85	11.82	-49.7	-62.6	3.5	1.52e+00	0	33	104	0	60	47270
2026-01-18 01:25:46.74	333.13	11.47	-49.2	-62.2	3.5	1.52e+00	0	33	104	0	60	45122
2026-01-18 01:25:50.78	333.40	11.13	-48.9	-61.8	3.5	1.52e+00	0	33	104	0	60	43382
2026-01-18 01:25:54.82	333.66	10.79	-49.1	-62.0	3.5	1.52e+00	0	33	104	0	60	44437
2026-01-18 01:25:58.86	333.93	10.46	-49.5	-62.4	3.5	1.52e+00	0	33	104	0	60	46144
2026-01-18 01:26:02.90	334.18	10.13	-49.4	-62.3	3.5	1.52e+00	0	33	104	0	60	45522
2026-01-18 01:26:06.94	334.43	9.80	-49.8	-62.7	3.5	1.51e+00	0	33	104	0	60	47788
2026-01-18 01:26:10.98	334.68	9.48	-49.4	-62.2	3.4	1.52e+00	0	33	104	0	60	45417
2026-01-18 01:26:15.02	334.92	9.16	-49.4	-62.3	3.5	1.52e+00	0	33	104	0	60	45578
2026-01-18 01:26:19.06	335.15	8.84	-49.4	-62.3	3.5	1.52e+00	0	33	104	0	60	45831
2026-01-18 01:26:23.10	335.39	8.53	-49.6	-62.5	3.5	1.52e+00	0	33	104	0	60	46713
2026-01-18 01:26:27.14	335.61	8.22	-49.4	-62.4	3.5	1.52e+00	0	33	104	0	60	46024
2026-01-18 01:26:31.18	335.83	7.92	-49.6	-62.5	3.5	1.52e+00	0	33	104	0	60	46728
2026-01-18 01:26:35.21	336.05	7.62	-49.3	-62.2	3.5	1.52e+00	0	33	104	0	60	45179
2026-01-18 01:26:39.25	336.27	7.32	-49.6	-62.6	3.5	1.52e+00	0	33	104	0	60	47085
2026-01-18 01:26:43.29	336.48	7.02	-49.8	-62.7	3.5	1.51e+00	0	33	104	0	60	48015
2026-01-18 01:26:47.33	336.68	6.73	-49.7	-62.6	3.5	1.52e+00	0	33	104	0	60	47538
2026-01-18 01:26:51.36	336.88	6.44	-49.6	-62.5	3.5	1.52e+00	0	33	104	0	60	46946
2026-01-18 01:26:55.41	337.08	6.15	-49.7	-62.6	3.5	1.52e+00	0	33	104	0	60	47308
2026-01-18 01:26:59.45	337.28	5.87	-49.4	-62.3	3.5	1.52e+00	0	33	104	0	60	45874
2026-01-18 01:27:03.48	337.47	5.59	-49.7	-62.6	3.5	1.51e+00	0	33	104	0	60	47318
2026-01-18 01:27:07.52	337.66	5.31	-49.7	-62.6	3.5	1.52e+00	0	33	104	0	60	47199
2026-01-18 01:27:11.56	337.85	5.04	-49.8	-62.7	3.5	1.52e+00	0	33	104	0	60	47766
2026-01-18 01:27:15.60	338.03	4.76	-49.3	-62.2	3.5	1.52e+00	0	33	104	0	60	45054
2026-01-18 01:27:19.65	338.21	4.49	-49.1	-62.0	3.5	1.52e+00	0	33	104	0	60	44153
2026-01-18 01:27:23.69	338.39	4.22	-49.4	-62.3	3.5	1.52e+00	0	33	104	0	60	45553
2026-01-18 01:27:27.72	338.56	3.96	-49.3	-62.2	3.5	1.52e+00	0	33	104	0	60	45391
2026-01-18 01:27:31.77	338.73	3.70	-49.4	-62.3	3.5	1.52e+00	0	33	104	0	60	45889
2026-01-18 01:27:35.80	338.90	3.44	-49.6	-62.5	3.5	1.52e+00	0	33	104	0	60	46612
2026-01-18 01:27:39.84	339.07	3.18	-49.8	-62.7	3.5	1.52e+00	0	33	104	0	60	47794
2026-01-18 01:27:43.88	339.23	2.92	-49.4	-62.4	3.5	1.52e+00	0	33	104	0	60	46077
2026-01-18 01:27:47.92	339.39	2.67	-49.5	-62.4	3.5	1.52e+00	0	33	104	0	60	46082
2026-01-18 01:27:51.96	339.55	2.42	-49.2	-62.1	3.5	1.52e+00	0	33	104	0	60	44646
2026-01-18 01:27:56.00	339.70	2.17	-49.1	-62.0	3.5	1.52e+00	0	33	104	0	60	44142
2026-01-18 01:28:00.05	339.86	1.92	-49.5	-62.3	3.5	1.52e+00	0	33	104	0	60	45777
2026-01-18 01:28:04.09	340.01	1.67	-49.5	-62.3	3.6	1.52e+00	0	33	104	0	60	45948
2026-01-18 01:28:08.13	340.16	1.43	-49.4	-62.3	3.5	1.52e+00	0	33	104	0	60	45750
2026-01-18 01:28:12.17	340.31	1.19	-49.6	-62.5	3.5	1.52e+00	0	33	104	0	60	46893
2026-01-18 01:28:16.21	340.45	0.95	-49.7	-62.5	3.5	1.52e+00	0	33	104	0	60	46795
2026-01-18 01:28:20.25	340.60	0.71	-49.4	-62.3	3.5	1.51e+00	0	33	104	0	60	45602
2026-01-18 01:28:24.29	340.74	0.47	-49.6	-62.5	3.5	1.52e+00	0	33	104	0	60	46777
2026-01-18 01:28:28.33	340.88	0.24	-49.1	-62.0	3.5	1.52e+00	0	33	104	0	60	44387
2026-01-18 01:28:32.37	341.01	0.01	-49.5	-62.4	3.5	1.52e+00	0	33	104	0	60	46469

#Closed at: 2026-01-18 01:28:33
#Recorded file [0 MB]: D:/lorett/data/35029_260118_131315.dat