passes_logs/2026/01/18/R4.6S_Anadyr/R4.6S_Anadyr__20260118_190132_AQUA_rec.log

#Pass ID: 20260118_190132_AQUA
#Satellite: AQUA
#Configuration: AQUA
#almurnet v.1.7.20251203
#Start time: 2026-01-18 19:01:34

#Version: 2.2.20231116
#Station: R4.6S_Anadyr
#Location: 177.4865 lon 64.73178 lat
#TLE: 1 27424U 02022A   26017.62394888  .00000781  00000+0  16630-3 0  9993
#TLE: 2 27424  98.4086 344.0954 0002010  75.0132 339.4723 14.61825944261279

#Time	Az	El	Level	Level2	SNR	BER	BlckErr	Temp	State	Recorded	gain1	gain2
2026-01-18 19:01:34.76	27.39	0.14	-49.7	-64.7	3.5	1.51e+00	0	39	0	0	60	61903
2026-01-18 19:01:37.78	27.18	0.31	-50.1	-67.9	3.5	3.02e+01	0	40	104	0	60	96033
2026-01-18 19:01:40.82	26.96	0.47	-50.2	-68.0	3.5	3.02e+01	0	40	104	0	60	97143
2026-01-18 19:01:43.84	26.74	0.63	-50.2	-68.0	3.5	3.02e+01	0	40	104	0	60	97117
2026-01-18 19:01:46.88	26.51	0.80	-50.1	-67.9	3.5	3.02e+01	0	40	104	0	60	95683
2026-01-18 19:01:49.91	26.28	0.96	-49.9	-67.8	3.5	3.02e+01	0	40	104	0	60	94007
2026-01-18 19:01:52.94	26.05	1.13	-49.5	-67.4	3.5	3.02e+01	0	41	104	0	60	90716
2026-01-18 19:01:55.97	25.82	1.29	-49.2	-67.1	3.5	3.02e+01	0	41	104	0	60	87107
2026-01-18 19:01:59.00	25.58	1.46	-48.4	-66.3	3.5	3.02e+01	0	40	104	0	60	79579
2026-01-18 19:02:02.03	25.35	1.63	-48.4	-66.2	3.5	3.02e+01	0	40	104	0	60	78563
2026-01-18 19:02:05.06	25.10	1.80	-48.4	-66.2	3.5	3.02e+01	0	41	104	0	60	78539
2026-01-18 19:02:08.09	24.86	1.97	-48.4	-66.2	3.5	3.02e+01	0	41	104	0	60	78706
2026-01-18 19:02:11.12	24.61	2.13	-48.4	-66.2	3.5	3.02e+01	0	41	104	0	60	78962
2026-01-18 19:02:14.15	24.36	2.30	-48.3	-66.0	3.5	3.02e+01	0	41	104	0	60	76927
2026-01-18 19:02:17.18	24.10	2.48	-48.3	-65.9	3.6	3.02e+01	0	41	104	0	60	76342
2026-01-18 19:02:20.21	23.84	2.65	-48.3	-66.1	3.5	3.02e+01	0	41	104	0	60	77894
2026-01-18 19:02:23.24	23.58	2.82	-48.4	-66.1	3.5	3.02e+01	0	41	104	0	60	77495
2026-01-18 19:02:26.27	23.32	2.99	-48.1	-64.8	3.5	3.02e+01	0	40	104	0	60	67223
2026-01-18 19:02:29.29	23.05	3.16	-48.2	-65.3	3.5	3.02e+01	0	41	104	0	60	71198
2026-01-18 19:02:32.32	22.77	3.34	-46.9	-60.9	3.5	3.02e+01	0	41	104	0	60	42510
2026-01-18 19:02:35.35	22.50	3.51	-44.1	-55.8	3.6	3.02e+01	0	41	104	0	60	23801
2026-01-18 19:02:38.38	22.22	3.69	-40.1	-50.8	3.5	3.02e+01	0	41	104	0	54	18766
2026-01-18 19:02:41.41	21.93	3.86	-39.5	-50.0	3.5	3.02e+01	0	41	104	0	54	17271
2026-01-18 19:02:44.44	21.64	4.04	-47.3	-61.6	3.5	3.02e+01	0	41	104	0	60	46151
2026-01-18 19:02:47.47	21.35	4.22	-42.8	-53.9	3.5	3.02e+01	0	40	104	0	60	19051
2026-01-18 19:02:50.50	21.06	4.39	-47.2	-61.2	3.5	3.02e+01	0	41	104	0	60	44135
2026-01-18 19:02:53.53	20.76	4.57	-48.5	-65.6	3.5	3.02e+01	0	41	104	0	60	73675
2026-01-18 19:02:56.56	20.45	4.75	-41.1	-51.8	3.5	3.02e+01	0	41	104	0	56	18875
2026-01-18 19:02:59.59	20.14	4.93	-39.6	-50.2	3.5	3.02e+01	0	41	104	0	54	17494
2026-01-18 19:03:02.62	19.83	5.11	-47.3	-61.2	3.5	3.02e+01	0	41	104	0	60	44089
2026-01-18 19:03:05.65	19.51	5.29	-46.4	-59.2	3.5	3.02e+01	0	40	104	0	60	35047
2026-01-18 19:03:08.68	19.19	5.47	-46.1	-58.7	3.5	3.02e+01	0	41	104	0	60	33011
2026-01-18 19:03:11.71	18.86	5.65	-48.7	-65.8	3.5	3.02e+01	0	41	104	0	60	75044
2026-01-18 19:03:14.74	18.53	5.84	-40.4	-50.9	3.6	3.02e+01	0	41	104	0	56	17019
2026-01-18 19:03:17.77	18.20	6.02	-38.9	-49.4	3.5	3.02e+01	0	40	104	0	52	18032
2026-01-18 19:03:20.81	17.86	6.20	-43.7	-54.9	3.5	3.02e+01	0	41	104	0	60	21413
2026-01-18 19:03:23.83	17.51	6.39	-41.1	-51.8	3.5	3.02e+01	0	41	104	0	58	16726
2026-01-18 19:03:26.86	17.16	6.57	-48.9	-66.0	3.5	3.02e+01	0	40	104	0	60	76571
2026-01-18 19:03:29.90	16.80	6.76	-48.7	-65.3	3.5	3.02e+01	0	41	104	0	60	70761
2026-01-18 19:03:32.92	16.44	6.94	-44.1	-55.4	3.5	3.02e+01	0	41	104	0	60	22751
2026-01-18 19:03:35.95	16.08	7.13	-39.1	-49.6	3.5	3.02e+01	0	41	104	0	54	16422
2026-01-18 19:03:38.98	15.71	7.31	-43.1	-54.1	3.5	3.02e+01	0	41	104	0	60	19558
2026-01-18 19:03:42.02	15.33	7.50	-41.2	-52.0	3.6	3.02e+01	0	41	104	0	58	17135
2026-01-18 19:03:45.04	14.95	7.69	-48.9	-65.9	3.5	3.02e+01	0	41	104	0	60	76331
2026-01-18 19:03:48.07	14.56	7.87	-49.1	-66.7	3.5	3.02e+01	0	41	104	0	60	83568
2026-01-18 19:03:51.11	14.17	8.06	-38.7	-49.1	3.5	3.02e+01	0	41	104	0	52	17488
2026-01-18 19:03:54.14	13.77	8.25	-43.4	-54.5	3.5	3.02e+01	0	41	104	0	60	20409
2026-01-18 19:03:57.17	13.37	8.44	-41.5	-52.3	3.5	3.02e+01	0	41	104	0	60	15908
2026-01-18 19:04:00.19	12.96	8.63	-44.6	-56.0	3.5	3.02e+01	0	41	104	0	60	24408
2026-01-18 19:04:03.22	12.54	8.82	-48.3	-62.9	3.5	3.02e+01	0	41	104	0	60	54026
2026-01-18 19:04:06.25	12.12	9.01	-49.2	-66.1	3.5	3.02e+01	0	41	104	0	60	77563
2026-01-18 19:04:09.28	11.69	9.20	-44.0	-55.2	3.5	3.02e+01	0	41	104	0	60	22178
2026-01-18 19:04:12.31	11.26	9.39	-41.4	-52.0	3.5	3.02e+01	0	41	104	0	58	17191
2026-01-18 19:04:15.34	10.81	9.58	-38.2	-48.6	3.5	3.02e+01	0	41	104	0	52	16401
2026-01-18 19:04:18.37	10.37	9.76	-38.4	-48.7	3.5	3.02e+01	0	41	104	0	52	16666
2026-01-18 19:04:21.40	9.91	9.95	-48.9	-64.7	3.5	3.02e+01	0	41	104	0	60	66385
2026-01-18 19:04:24.43	9.45	10.14	-46.9	-59.6	3.5	3.02e+01	0	41	104	0	60	36660
2026-01-18 19:04:27.46	8.99	10.33	-43.0	-54.0	3.5	3.02e+01	0	41	104	0	60	19262
2026-01-18 19:04:30.49	8.51	10.52	-44.2	-55.4	3.5	3.02e+01	0	41	104	0	60	22576
2026-01-18 19:04:33.52	8.03	10.71	-43.3	-54.3	3.5	3.02e+01	0	41	104	0	54	28053
2026-01-18 19:04:36.55	7.55	10.90	-39.9	-50.4	3.5	3.02e+01	0	41	104	0	56	16075
2026-01-18 19:04:39.57	7.05	11.09	-45.0	-56.6	3.5	3.02e+01	0	41	104	0	60	26052
2026-01-18 19:04:42.60	6.55	11.28	-39.3	-49.7	3.5	3.02e+01	0	41	104	0	56	14778
2026-01-18 19:04:45.63	6.04	11.47	-39.1	-49.6	3.6	3.02e+01	0	41	104	0	52	18397
2026-01-18 19:04:48.66	5.53	11.65	-42.5	-53.3	3.5	3.02e+01	0	41	104	0	56	22329
2026-01-18 19:04:51.69	5.00	11.84	-49.1	-65.4	3.5	3.02e+01	0	41	104	0	60	71832
2026-01-18 19:04:54.72	4.47	12.02	-39.1	-49.6	3.5	3.02e+01	0	41	104	0	54	16329
2026-01-18 19:04:57.75	3.94	12.21	-41.7	-52.4	3.4	3.02e+01	0	41	104	0	60	16103
2026-01-18 19:05:00.78	3.39	12.39	-39.1	-49.5	3.5	3.02e+01	0	41	104	0	52	18138
2026-01-18 19:05:03.80	2.84	12.58	-38.6	-48.9	3.5	3.02e+01	0	41	104	0	52	17066
2026-01-18 19:05:06.83	2.28	12.76	-44.5	-55.8	3.5	3.02e+01	0	41	104	0	60	23823
2026-01-18 19:05:09.86	1.71	12.94	-49.0	-64.7	3.5	3.02e+01	0	41	104	0	60	65918
2026-01-18 19:05:12.89	1.14	13.12	-38.0	-48.4	3.5	3.02e+01	0	41	104	0	50	17953
2026-01-18 19:05:15.92	0.56	13.30	-40.6	-51.2	3.5	3.02e+01	0	41	104	0	58	15593
2026-01-18 19:05:18.95	359.97	13.48	-41.1	-51.7	3.5	3.02e+01	0	41	104	0	54	20832
2026-01-18 19:05:21.98	359.37	13.65	-40.0	-50.4	3.5	3.02e+01	0	40	104	0	54	18023
2026-01-18 19:05:25.00	358.76	13.83	-46.8	-59.4	3.5	3.02e+01	0	41	104	0	60	35852
2026-01-18 19:05:28.03	358.15	14.00	-49.4	-66.4	3.5	3.02e+01	0	41	104	0	60	79997
2026-01-18 19:05:31.06	357.53	14.17	-41.2	-51.8	3.5	3.02e+01	0	41	104	0	56	18888
2026-01-18 19:05:34.09	356.90	14.34	-38.3	-48.6	3.5	3.02e+01	0	41	104	0	52	16401
2026-01-18 19:05:37.12	356.26	14.51	-43.1	-54.1	3.6	3.02e+01	0	41	104	0	58	21789
2026-01-18 19:05:40.15	355.62	14.67	-39.5	-50.0	3.5	3.02e+01	0	41	104	0	52	19218
2026-01-18 19:05:43.18	354.96	14.83	-47.6	-60.9	3.5	3.02e+01	0	41	104	0	60	42767
2026-01-18 19:05:46.21	354.30	14.99	-49.4	-66.2	3.5	3.02e+01	0	41	104	0	60	78178
2026-01-18 19:05:49.24	353.64	15.15	-38.2	-48.5	3.5	3.02e+01	0	41	104	0	52	16211
2026-01-18 19:05:52.27	352.96	15.31	-37.4	-47.7	3.5	3.02e+01	0	40	104	0	50	16574
2026-01-18 19:05:55.29	352.28	15.46	-44.0	-55.1	3.5	3.02e+01	0	41	104	0	60	21968
2026-01-18 19:05:58.32	351.59	15.61	-38.6	-49.0	3.5	3.02e+01	0	41	104	0	52	17232
2026-01-18 19:06:01.35	350.89	15.75	-37.3	-47.5	3.5	3.02e+01	0	40	104	0	50	16312
2026-01-18 19:06:04.38	350.19	15.90	-42.5	-53.2	3.5	3.02e+01	0	41	104	0	60	17682
2026-01-18 19:06:07.41	349.47	16.04	-37.6	-47.8	3.5	3.02e+01	0	41	104	0	50	16878
2026-01-18 19:06:10.44	348.75	16.17	-39.0	-49.3	3.5	3.02e+01	0	41	104	0	50	20034
2026-01-18 19:06:13.47	348.03	16.31	-47.1	-59.8	3.5	3.02e+01	0	41	104	0	60	37678
2026-01-18 19:06:16.50	347.29	16.44	-44.7	-56.0	3.5	3.02e+01	0	40	104	0	60	24368
2026-01-18 19:06:19.53	346.55	16.56	-42.5	-53.2	3.5	3.02e+01	0	41	104	0	60	17593
2026-01-18 19:06:22.55	345.81	16.68	-46.4	-58.6	3.5	3.02e+01	0	41	104	0	60	32573
2026-01-18 19:06:25.58	345.06	16.80	-39.8	-50.3	3.5	3.02e+01	0	41	104	0	54	17732
2026-01-18 19:06:28.61	344.30	16.91	-42.8	-53.6	3.5	3.02e+01	0	41	104	0	58	20714
2026-01-18 19:06:31.64	343.53	17.02	-44.0	-55.1	3.5	3.02e+01	0	41	104	0	60	21982
2026-01-18 19:06:34.67	342.76	17.12	-38.5	-48.8	3.5	3.02e+01	0	41	104	0	52	16839
2026-01-18 19:06:37.70	341.98	17.22	-48.7	-63.1	3.5	3.02e+01	0	41	104	0	60	55017
2026-01-18 19:06:40.73	341.20	17.32	-42.3	-53.0	3.5	3.02e+01	0	41	104	0	60	17201
2026-01-18 19:06:43.76	340.41	17.41	-38.9	-49.3	3.5	3.02e+01	0	40	104	0	54	15780
2026-01-18 19:06:46.79	339.62	17.49	-49.6	-67.3	3.5	3.02e+01	0	41	104	0	60	89126
2026-01-18 19:06:49.82	338.82	17.57	-42.0	-52.6	5.5	3.02e+01	0	41	104	0	60	16479
2026-01-18 19:06:52.85	338.02	17.64	-40.2	-41.7	25.8	3.02e+01	0	41	0	2621440	54	6643
2026-01-18 19:06:55.88	337.22	17.71	-37.6	-38.9	28.0	3.02e+01	0	40	0	8388608	50	6002
2026-01-18 19:06:58.92	336.41	17.78	-37.3	-38.5	28.3	3.02e+01	0	41	0	14155776	50	5788
2026-01-18 19:07:01.95	335.59	17.83	-37.3	-38.6	28.3	3.02e+01	0	40	0	19922944	50	5804
2026-01-18 19:07:04.98	334.78	17.89	-37.3	-38.6	28.3	3.02e+01	0	40	0	25690112	50	5824
2026-01-18 19:07:08.01	333.96	17.93	-37.2	-38.5	28.3	3.02e+01	0	41	0	30932992	50	5753
2026-01-18 19:07:11.04	333.14	17.98	-37.4	-38.7	28.2	3.02e+01	0	40	0	36700160	50	5909
2026-01-18 19:07:14.07	332.31	18.01	-37.5	-38.7	28.2	3.02e+01	0	41	0	42467328	50	5926
2026-01-18 19:07:17.10	331.49	18.04	-37.5	-38.7	28.2	3.02e+01	0	40	0	48234496	50	5918
2026-01-18 19:07:20.13	330.66	18.06	-37.2	-38.5	28.4	3.02e+01	0	40	0	54001664	50	5749
2026-01-18 19:07:23.16	329.83	18.08	-37.5	-38.7	28.1	3.02e+01	0	40	0	59768832	50	5917
2026-01-18 19:07:26.19	329.00	18.09	-37.3	-38.5	28.3	3.02e+01	0	41	0	65011712	50	5783
2026-01-18 19:07:29.22	328.17	18.10	-37.4	-38.7	28.2	3.02e+01	0	41	0	70778880	50	5868
2026-01-18 19:07:32.25	327.34	18.10	-37.4	-38.6	28.2	3.02e+01	0	40	0	76546048	50	5855
2026-01-18 19:07:35.28	326.51	18.09	-37.7	-39.0	27.9	3.02e+01	0	41	0	82313216	50	6125
2026-01-18 19:07:38.31	325.68	18.08	-37.6	-38.9	28.1	3.02e+01	0	40	0	88080384	50	6006
2026-01-18 19:07:41.34	324.85	18.07	-37.3	-38.6	28.3	3.02e+01	0	41	0	93847552	50	5796
2026-01-18 19:07:44.37	324.03	18.04	-37.9	-39.1	27.9	3.02e+01	0	40	0	99614720	50	6201
2026-01-18 19:07:47.40	323.20	18.01	-37.3	-38.6	28.3	3.02e+01	0	40	0	104857600	50	5803
2026-01-18 19:07:50.42	322.38	17.98	-37.5	-38.8	28.1	3.02e+01	0	40	0	110624768	50	5938
2026-01-18 19:07:53.45	321.56	17.94	-37.7	-39.0	27.9	3.02e+01	0	40	0	116391936	50	6069
2026-01-18 19:07:56.48	320.74	17.89	-37.4	-38.6	28.3	3.02e+01	0	40	0	122159104	50	5828
2026-01-18 19:07:59.51	319.92	17.84	-37.6	-38.9	28.1	3.02e+01	0	40	0	127926272	50	6010
2026-01-18 19:08:02.54	319.11	17.78	-37.5	-38.7	28.2	3.02e+01	0	40	0	133169152	50	5906
2026-01-18 19:08:05.56	318.30	17.72	-37.9	-39.2	27.8	3.02e+01	0	40	0	138936320	50	6226
2026-01-18 19:08:08.59	317.49	17.65	-37.4	-38.7	28.2	3.02e+01	0	40	0	144703488	50	5878
2026-01-18 19:08:11.62	316.69	17.58	-37.8	-39.1	27.9	3.02e+01	0	40	0	150470656	50	6156
2026-01-18 19:08:14.65	315.89	17.50	-37.5	-38.7	28.2	3.02e+01	0	40	0	156237824	50	5910
2026-01-18 19:08:17.67	315.10	17.41	-37.5	-38.7	28.2	3.02e+01	0	40	0	162004992	50	5919
2026-01-18 19:08:20.70	314.31	17.32	-37.4	-38.7	28.2	3.02e+01	0	40	0	167247872	50	5883
2026-01-18 19:08:23.73	313.53	17.23	-37.3	-38.6	28.3	3.02e+01	0	41	0	173015040	50	5820
2026-01-18 19:08:26.76	312.75	17.13	-37.4	-38.7	28.2	3.02e+01	0	40	0	178782208	50	5866
2026-01-18 19:08:29.78	311.98	17.03	-37.1	-38.3	28.5	3.02e+01	0	41	0	184549376	50	5612
2026-01-18 19:08:32.82	311.21	16.92	-37.6	-38.9	28.0	3.02e+01	0	41	0	190316544	50	6029
2026-01-18 19:08:35.84	310.45	16.81	-37.1	-38.4	28.3	3.02e+01	0	40	0	196083712	48	6377
2026-01-18 19:08:38.87	309.70	16.69	-37.8	-39.0	27.7	3.02e+01	0	41	0	201326592	50	6107
2026-01-18 19:08:41.89	308.95	16.57	-38.0	-39.3	27.6	3.02e+01	0	40	0	207093760	50	6323
2026-01-18 19:08:44.92	308.21	16.45	-37.3	-38.6	28.3	3.02e+01	0	40	0	212860928	50	5806
2026-01-18 19:08:47.95	307.47	16.32	-37.7	-39.0	27.9	3.02e+01	0	40	0	218628096	50	6110
2026-01-18 19:08:50.98	306.74	16.18	-37.3	-38.6	28.1	3.02e+01	0	40	0	224395264	48	6535
2026-01-18 19:08:54.01	306.02	16.05	-37.4	-38.7	28.1	3.02e+01	0	40	0	229638144	50	5888
2026-01-18 19:08:57.03	305.31	15.91	-37.7	-38.9	28.0	3.02e+01	0	40	0	235405312	50	6059
2026-01-18 19:09:00.06	304.60	15.77	-38.0	-39.2	27.6	3.02e+01	0	40	0	241172480	50	6273
2026-01-18 19:09:03.09	303.90	15.62	-37.7	-39.0	27.9	3.02e+01	0	40	0	246939648	50	6067
2026-01-18 19:09:06.12	303.21	15.47	-37.8	-39.1	27.9	3.02e+01	0	40	0	252706816	50	6145
2026-01-18 19:09:09.15	302.52	15.32	-38.3	-39.6	27.6	3.02e+01	0	40	0	258473984	50	6555
2026-01-18 19:09:12.17	301.85	15.16	-37.9	-39.2	27.7	3.02e+01	0	40	0	263716864	50	6210
2026-01-18 19:09:15.20	301.18	15.01	-38.3	-39.6	27.2	3.02e+01	0	40	0	269484032	50	6546
2026-01-18 19:09:18.22	300.52	14.85	-38.4	-39.8	27.4	3.02e+01	0	40	0	275251200	50	6687
2026-01-18 19:09:21.25	299.86	14.68	-37.7	-39.0	28.0	3.02e+01	0	40	0	281018368	50	6069
2026-01-18 19:09:24.28	299.21	14.52	-37.9	-39.2	27.5	3.02e+01	0	40	0	286785536	50	6253
2026-01-18 19:09:27.30	298.58	14.35	-38.7	-40.2	26.5	3.02e+01	0	40	0	292552704	50	6973
2026-01-18 19:09:30.33	297.94	14.18	-37.1	-38.3	28.3	3.02e+01	0	40	0	297795584	50	5618
2026-01-18 19:09:33.36	297.32	14.01	-37.2	-38.4	28.3	3.02e+01	0	40	0	303562752	50	5696
2026-01-18 19:09:36.39	296.70	13.84	-37.4	-38.6	28.2	3.02e+01	0	40	0	309329920	50	5852
2026-01-18 19:09:39.42	296.10	13.66	-37.9	-39.2	27.7	3.02e+01	0	40	0	315097088	50	6241
2026-01-18 19:09:42.44	295.50	13.49	-38.6	-39.9	27.0	3.02e+01	0	40	0	320864256	50	6797
2026-01-18 19:09:45.47	294.90	13.31	-37.7	-39.0	27.7	3.02e+01	0	40	0	326631424	50	6119
2026-01-18 19:09:48.51	294.32	13.13	-37.6	-38.9	27.8	3.02e+01	0	40	0	331874304	50	6040
2026-01-18 19:09:51.53	293.74	12.95	-37.7	-39.0	27.7	3.02e+01	0	40	0	337641472	50	6106
2026-01-18 19:09:54.56	293.17	12.77	-37.7	-39.0	27.8	3.02e+01	0	40	0	343408640	50	6090
2026-01-18 19:09:57.58	292.61	12.59	-37.7	-39.0	27.6	3.02e+01	0	40	0	349175808	50	6085
2026-01-18 19:10:00.61	292.06	12.40	-37.7	-39.0	27.7	3.02e+01	0	40	0	354942976	50	6105
2026-01-18 19:10:03.64	291.51	12.22	-37.9	-39.3	27.5	3.02e+01	0	40	0	360185856	50	6306
2026-01-18 19:10:06.66	290.97	12.03	-37.9	-39.2	27.5	3.02e+01	0	40	0	365953024	50	6260
2026-01-18 19:10:09.69	290.44	11.85	-37.7	-39.0	27.8	3.02e+01	0	40	0	371720192	50	6093
2026-01-18 19:10:12.72	289.91	11.66	-37.8	-39.1	27.6	3.02e+01	0	40	0	377487360	50	6160
2026-01-18 19:10:15.74	289.40	11.47	-37.9	-39.3	27.5	3.02e+01	0	40	0	383254528	50	6287
2026-01-18 19:10:18.77	288.88	11.29	-37.8	-39.1	27.6	3.02e+01	0	40	0	389021696	50	6161
2026-01-18 19:10:21.80	288.38	11.10	-37.9	-39.2	27.5	3.02e+01	0	40	0	394264576	50	6217
2026-01-18 19:10:24.83	287.88	10.91	-38.0	-39.3	27.3	3.02e+01	0	40	0	400031744	50	6343
2026-01-18 19:10:27.86	287.39	10.72	-38.0	-39.3	27.4	3.02e+01	0	40	0	405798912	50	6289
2026-01-18 19:10:30.89	286.91	10.53	-38.3	-39.6	27.1	3.02e+01	0	40	0	411566080	50	6549
2026-01-18 19:10:33.92	286.43	10.34	-37.9	-39.2	27.4	3.02e+01	0	40	0	417333248	50	6244
2026-01-18 19:10:36.95	285.97	10.15	-38.2	-39.5	27.1	3.02e+01	0	40	0	423100416	50	6476
2026-01-18 19:10:39.97	285.50	9.96	-38.2	-39.6	27.1	3.02e+01	0	40	0	428343296	50	6521
2026-01-18 19:10:43.00	285.05	9.77	-38.5	-39.9	26.8	3.02e+01	0	40	0	434110464	50	6772
2026-01-18 19:10:46.03	284.60	9.58	-38.5	-39.9	26.7	3.02e+01	0	40	0	439877632	50	6743
2026-01-18 19:10:49.05	284.16	9.39	-38.4	-39.8	26.9	3.02e+01	0	40	0	445644800	50	6655
2026-01-18 19:10:52.07	283.72	9.20	-38.6	-40.0	26.5	3.02e+01	0	40	0	451411968	50	6876
2026-01-18 19:10:55.10	283.29	9.01	-38.3	-39.7	27.0	3.02e+01	0	40	0	456654848	50	6582
2026-01-18 19:10:58.13	282.86	8.82	-38.6	-40.0	26.6	3.02e+01	0	40	0	462422016	50	6833
2026-01-18 19:11:01.15	282.45	8.63	-38.6	-40.0	26.6	3.02e+01	0	40	0	468189184	50	6835
2026-01-18 19:11:04.18	282.03	8.44	-38.5	-39.9	26.7	3.02e+01	0	40	0	473956352	50	6734
2026-01-18 19:11:07.21	281.63	8.25	-38.9	-40.3	26.2	3.02e+01	0	40	0	479723520	50	7121
2026-01-18 19:11:10.24	281.23	8.07	-38.8	-40.2	26.5	3.02e+01	0	40	0	485490688	52	6223
2026-01-18 19:11:13.27	280.83	7.88	-38.8	-40.2	26.4	3.02e+01	0	40	0	491257856	52	6206
2026-01-18 19:11:16.30	280.44	7.69	-38.8	-40.2	26.3	3.02e+01	0	40	0	496500736	52	6271
2026-01-18 19:11:19.33	280.06	7.50	-39.0	-40.4	26.1	3.02e+01	0	40	0	502267904	52	6404
2026-01-18 19:11:22.35	279.68	7.32	-39.0	-40.4	26.1	3.02e+01	0	40	0	508035072	52	6414
2026-01-18 19:11:25.38	279.31	7.13	-39.1	-40.5	26.0	3.02e+01	0	40	0	513802240	52	6474
2026-01-18 19:11:28.40	278.94	6.94	-39.0	-40.4	26.0	3.02e+01	0	40	0	519569408	52	6388
2026-01-18 19:11:31.43	278.58	6.76	-38.9	-40.3	26.2	3.02e+01	0	40	0	524812288	52	6319
2026-01-18 19:11:34.46	278.22	6.57	-39.0	-40.5	25.9	3.02e+01	0	40	0	530579456	52	6451
2026-01-18 19:11:37.49	277.87	6.39	-39.3	-40.8	25.6	3.02e+01	0	40	0	536346624	52	6668
2026-01-18 19:11:40.51	277.52	6.20	-39.0	-40.5	25.8	3.02e+01	0	40	0	542113792	52	6444
2026-01-18 19:11:43.54	277.18	6.02	-39.4	-40.9	25.4	3.02e+01	0	40	0	547880960	52	6766
2026-01-18 19:11:46.57	276.84	5.84	-39.4	-40.9	25.5	3.02e+01	0	41	0	553123840	52	6735
2026-01-18 19:11:49.60	276.50	5.65	-39.9	-41.5	24.8	3.02e+01	0	40	0	558891008	52	7225
2026-01-18 19:11:52.62	276.18	5.47	-39.6	-41.1	25.1	3.02e+01	0	40	0	564658176	54	6167
2026-01-18 19:11:55.65	275.85	5.29	-39.5	-41.0	25.3	3.02e+01	0	41	0	570425344	54	6103
2026-01-18 19:11:58.68	275.53	5.11	-39.5	-41.0	25.2	3.02e+01	0	41	0	576192512	54	6100
2026-01-18 19:12:01.71	275.22	4.93	-40.1	-41.7	24.5	3.02e+01	0	40	0	581959680	54	6598
2026-01-18 19:12:04.73	274.91	4.75	-39.6	-41.1	25.0	3.02e+01	0	40	0	587726848	54	6162
2026-01-18 19:12:07.76	274.60	4.57	-39.8	-41.4	24.8	3.02e+01	0	40	0	592969728	54	6395
2026-01-18 19:12:10.79	274.30	4.39	-39.8	-41.3	24.7	3.02e+01	0	40	0	598736896	54	6330
2026-01-18 19:12:13.82	274.00	4.21	-39.5	-41.0	25.0	3.02e+01	0	40	0	604504064	54	6119
2026-01-18 19:12:16.85	273.70	4.04	-39.6	-41.2	24.8	3.02e+01	0	40	0	610271232	54	6215
2026-01-18 19:12:19.87	273.42	3.86	-39.9	-41.5	24.4	3.02e+01	0	40	0	616038400	54	6466
2026-01-18 19:12:22.90	273.13	3.68	-40.0	-41.6	24.2	3.02e+01	0	40	0	621281280	54	6568
2026-01-18 19:12:25.93	272.85	3.51	-40.5	-42.2	24.0	3.02e+01	0	40	0	627048448	54	6996
2026-01-18 19:12:28.96	272.57	3.33	-40.4	-42.1	23.9	3.02e+01	0	40	0	632815616	54	6928
2026-01-18 19:12:31.99	272.29	3.16	-40.0	-41.7	24.0	3.02e+01	0	40	0	638582784	54	6628
2026-01-18 19:12:35.02	272.02	2.99	-49.1	-66.6	3.5	3.02e+01	0	40	104	643301376	60	81947
2026-01-18 19:12:38.05	271.75	2.81	-50.0	-67.8	3.5	3.02e+01	0	41	104	643301376	60	94481
2026-01-18 19:12:41.08	271.49	2.64	-50.2	-67.9	3.5	3.02e+01	0	40	104	643301376	60	96040
2026-01-18 19:12:44.11	271.23	2.47	-50.3	-68.1	3.5	3.02e+01	0	41	104	643301376	60	98193
2026-01-18 19:12:47.14	270.97	2.30	-50.3	-68.1	3.5	3.02e+01	0	41	104	643301376	60	98157
2026-01-18 19:12:50.17	270.71	2.13	-50.2	-68.1	3.5	3.02e+01	0	41	104	643301376	60	98244
2026-01-18 19:12:53.20	270.46	1.96	-50.1	-68.0	3.5	3.02e+01	0	41	104	643301376	60	96909
2026-01-18 19:12:56.23	270.22	1.79	-50.1	-68.0	3.5	3.02e+01	0	41	104	643301376	60	97108
2026-01-18 19:12:59.26	269.97	1.62	-50.1	-68.0	3.5	3.02e+01	0	41	104	643301376	60	96484
2026-01-18 19:13:02.29	269.73	1.45	-50.2	-68.1	3.5	3.02e+01	0	41	104	643301376	60	97262
2026-01-18 19:13:05.32	269.49	1.29	-50.2	-68.1	3.5	3.02e+01	0	41	104	643301376	60	97513
2026-01-18 19:13:08.35	269.26	1.12	-50.2	-68.0	3.5	3.02e+01	0	41	104	643301376	60	96723
2026-01-18 19:13:11.38	269.02	0.95	-50.1	-68.0	3.5	3.02e+01	0	40	104	643301376	60	96552
2026-01-18 19:13:14.41	268.80	0.79	-50.1	-68.0	3.5	3.02e+01	0	41	104	643301376	60	96384
2026-01-18 19:13:17.44	268.57	0.62	-50.2	-67.9	3.5	3.02e+01	0	41	104	643301376	60	96079
2026-01-18 19:13:20.47	268.34	0.46	-50.1	-68.0	3.5	3.02e+01	0	40	104	643301376	60	96630
2026-01-18 19:13:23.50	268.12	0.30	-50.1	-68.0	3.5	3.02e+01	0	41	104	643301376	60	96512
2026-01-18 19:13:26.53	267.91	0.13	-50.1	-68.0	3.5	3.02e+01	0	41	104	643301376	60	96348
2026-01-18 19:13:29.56	267.69	-0.03	-50.1	-68.0	3.5	3.02e+01	0	40	104	643301376	60	96579

#Closed at: 2026-01-18 19:13:31
#Recorded file [643 MB]: D:/lorett/data/35029_260119_070134.dat