passes_logs/2026/01/18/R4.6S_Anadyr/R4.6S_Anadyr__20260118_000217_SUOMI_NPP_rec.log

#Pass ID: 20260118_000217_SUOMI NPP
#Satellite: SUOMI NPP
#Configuration: NPP
#almurnet v.1.7.20251203
#Start time: 2026-01-18 00:02:21

#Version: 2.2.20231116
#Station: R4.6S_Anadyr
#Location: 177.4865 lon 64.73178 lat
#TLE: 1 37849U 11061A   26017.57099531  .00000072  00000+0  54974-4 0  9996
#TLE: 2 37849  98.7814 319.5974 0002398  59.1749 300.9663 14.19525865737072

#Time	Az	El	Level	Level2	SNR	BER	BlckErr	Temp	State	Recorded	gain1	gain2
2026-01-18 00:02:21.13	149.93	0.24	-45.9	-47.4	5.7	0.00e+00	0	30	0	0	60	28724
2026-01-18 00:02:25.17	149.92	0.49	-49.0	-64.3	3.6	1.51e+00	0	31	104	0	60	59158
2026-01-18 00:02:29.21	149.90	0.73	-48.9	-64.2	3.6	1.51e+00	0	31	104	0	60	58292
2026-01-18 00:02:33.25	149.88	0.98	-48.9	-64.2	3.6	1.51e+00	0	31	104	0	60	58727
2026-01-18 00:02:37.29	149.87	1.24	-48.9	-64.2	3.6	1.51e+00	0	32	104	0	60	58373
2026-01-18 00:02:41.33	149.85	1.49	-48.9	-64.2	3.6	1.51e+00	0	32	104	0	60	58459
2026-01-18 00:02:45.38	149.83	1.75	-49.1	-64.4	3.6	1.51e+00	0	32	104	0	60	59922
2026-01-18 00:02:49.42	149.81	2.00	-49.2	-64.4	3.6	1.51e+00	0	32	104	0	60	60104
2026-01-18 00:02:53.45	149.80	2.26	-49.1	-64.3	3.6	1.51e+00	0	32	104	0	60	59044
2026-01-18 00:02:57.49	149.78	2.53	-49.1	-64.3	3.6	1.51e+00	0	32	104	0	60	59402
2026-01-18 00:03:01.53	149.76	2.79	-49.1	-64.3	3.6	1.51e+00	0	32	104	0	60	59323
2026-01-18 00:03:05.57	149.74	3.06	-49.1	-64.4	3.6	1.51e+00	0	32	104	0	60	59700
2026-01-18 00:03:09.61	149.71	3.33	-48.9	-64.1	3.6	1.51e+00	0	32	104	0	60	58055
2026-01-18 00:03:13.65	149.69	3.61	-48.9	-64.1	3.6	1.51e+00	0	32	104	0	60	58093
2026-01-18 00:03:17.69	149.67	3.88	-49.0	-64.3	3.6	1.51e+00	0	32	104	0	60	58989
2026-01-18 00:03:21.73	149.65	4.16	-49.1	-64.4	3.5	1.51e+00	0	32	104	0	60	59721
2026-01-18 00:03:25.77	149.62	4.44	-49.1	-64.4	3.6	1.51e+00	0	32	104	0	60	59816
2026-01-18 00:03:29.81	149.60	4.73	-49.0	-64.2	3.6	1.51e+00	0	32	104	0	60	58764
2026-01-18 00:03:33.84	149.57	5.02	-49.2	-64.5	3.6	1.51e+00	0	32	104	0	60	60338
2026-01-18 00:03:37.88	149.55	5.31	-49.1	-64.3	3.6	1.51e+00	0	32	104	0	60	59523
2026-01-18 00:03:41.92	149.52	5.60	-49.1	-64.3	3.6	1.51e+00	0	32	104	0	60	59324
2026-01-18 00:03:45.96	149.50	5.90	-49.0	-64.2	3.6	1.51e+00	0	32	104	0	60	58617
2026-01-18 00:03:50.00	149.47	6.20	-49.0	-64.3	3.6	1.51e+00	0	32	104	0	60	59088
2026-01-18 00:03:54.04	149.44	6.51	-49.0	-64.2	3.6	1.51e+00	0	32	104	0	60	58636
2026-01-18 00:03:58.08	149.41	6.81	-49.0	-64.2	3.6	1.51e+00	0	32	104	0	60	58711
2026-01-18 00:04:02.11	149.38	7.13	-48.9	-64.2	3.6	1.51e+00	0	32	104	0	60	58377
2026-01-18 00:04:06.15	149.35	7.44	-49.0	-64.2	3.6	1.51e+00	0	32	104	0	60	58802
2026-01-18 00:04:10.19	149.31	7.76	-49.1	-64.4	3.6	1.51e+00	0	32	104	0	60	59819
2026-01-18 00:04:14.23	149.28	8.09	-48.9	-64.1	3.6	1.51e+00	0	32	104	0	60	58016
2026-01-18 00:04:18.27	149.24	8.41	-48.9	-64.1	3.6	1.51e+00	0	32	104	0	60	58135
2026-01-18 00:04:22.30	149.21	8.75	-49.0	-64.2	3.6	1.51e+00	0	32	104	0	60	58891
2026-01-18 00:04:26.34	149.17	9.08	-49.0	-64.2	3.6	1.51e+00	0	32	104	0	60	58679
2026-01-18 00:04:30.38	149.13	9.43	-49.0	-64.2	3.6	1.51e+00	0	32	104	0	60	58818
2026-01-18 00:04:34.42	149.09	9.77	-49.0	-64.3	3.6	1.51e+00	0	32	104	0	60	58986
2026-01-18 00:04:38.46	149.05	10.12	-49.2	-64.4	3.6	1.51e+00	0	32	104	0	60	60109
2026-01-18 00:04:42.49	149.01	10.48	-49.1	-64.3	3.6	1.51e+00	0	32	104	0	60	59416
2026-01-18 00:04:46.53	148.97	10.84	-49.3	-64.5	3.6	1.51e+00	0	32	104	0	60	60602
2026-01-18 00:04:50.57	148.92	11.21	-48.9	-64.2	3.6	1.51e+00	0	32	104	0	60	58520
2026-01-18 00:04:54.61	148.88	11.58	-49.1	-64.3	3.6	1.51e+00	0	32	104	0	60	59384
2026-01-18 00:04:58.64	148.83	11.96	-49.0	-64.3	3.6	1.51e+00	0	32	104	0	60	59047
2026-01-18 00:05:02.69	148.78	12.34	-49.2	-64.5	3.6	1.51e+00	0	32	104	0	60	60353
2026-01-18 00:05:06.73	148.73	12.73	-49.0	-64.2	3.6	1.51e+00	0	32	104	0	60	58607
2026-01-18 00:05:10.76	148.68	13.13	-49.0	-64.3	3.6	1.51e+00	0	32	104	0	60	59112
2026-01-18 00:05:14.80	148.62	13.53	-49.0	-64.2	3.6	1.51e+00	0	32	104	0	60	58783
2026-01-18 00:05:18.84	148.57	13.94	-49.0	-64.3	3.6	1.51e+00	0	32	104	0	60	59040
2026-01-18 00:05:22.88	148.51	14.36	-49.0	-64.3	3.6	1.51e+00	0	32	104	0	60	59037
2026-01-18 00:05:26.91	148.45	14.78	-49.1	-64.3	3.6	1.51e+00	0	32	104	0	60	59318
2026-01-18 00:05:30.95	148.38	15.21	-48.9	-64.2	3.6	1.51e+00	0	32	104	0	60	58520
2026-01-18 00:05:34.99	148.32	15.65	-49.4	-64.6	3.6	1.51e+00	0	32	104	0	60	61144
2026-01-18 00:05:39.03	148.25	16.10	-49.2	-64.4	3.6	1.51e+00	0	32	104	0	60	60189
2026-01-18 00:05:43.06	148.18	16.56	-49.1	-64.3	3.6	1.51e+00	0	32	104	0	60	59248
2026-01-18 00:05:47.10	148.11	17.02	-49.1	-64.4	3.6	1.51e+00	0	32	104	0	60	59689
2026-01-18 00:05:51.13	148.04	17.49	-49.0	-64.2	3.6	1.51e+00	0	32	104	0	60	58553
2026-01-18 00:05:55.16	147.96	17.98	-49.0	-64.2	3.6	1.51e+00	0	32	104	0	60	58664
2026-01-18 00:05:59.20	147.88	18.47	-49.1	-64.4	3.6	1.51e+00	0	32	104	0	60	60041
2026-01-18 00:06:03.24	147.80	18.97	-49.0	-64.2	3.6	1.51e+00	0	32	104	0	60	58613
2026-01-18 00:06:07.27	147.71	19.48	-49.0	-64.3	3.5	1.51e+00	0	32	104	0	60	59106
2026-01-18 00:06:11.31	147.62	20.00	-49.1	-64.3	3.6	1.51e+00	0	32	104	0	60	59629
2026-01-18 00:06:15.34	147.52	20.54	-49.1	-64.4	3.6	1.51e+00	0	32	104	0	60	59824
2026-01-18 00:06:19.38	147.43	21.08	-49.1	-64.3	3.6	1.51e+00	0	32	104	0	60	59560
2026-01-18 00:06:23.42	147.33	21.64	-49.1	-64.4	3.6	1.51e+00	0	32	104	0	60	59645
2026-01-18 00:06:27.46	147.22	22.21	-49.2	-64.4	3.6	1.51e+00	0	32	104	0	60	60029
2026-01-18 00:06:31.50	147.11	22.80	-49.2	-64.4	3.6	1.51e+00	0	32	104	0	60	59916
2026-01-18 00:06:35.54	146.99	23.39	-49.2	-64.4	3.6	1.51e+00	0	32	104	0	60	59948
2026-01-18 00:06:39.58	146.87	24.00	-49.1	-64.3	3.6	1.51e+00	0	32	104	0	60	59433
2026-01-18 00:06:43.61	146.75	24.63	-49.2	-64.4	3.6	1.51e+00	0	32	104	0	60	60120
2026-01-18 00:06:47.65	146.62	25.27	-49.3	-64.5	3.6	1.51e+00	0	32	104	0	60	60756
2026-01-18 00:06:51.69	146.48	25.92	-49.2	-64.5	3.6	1.51e+00	0	32	104	0	60	60727
2026-01-18 00:06:55.73	146.34	26.59	-49.2	-64.4	3.6	1.51e+00	0	32	104	0	60	59963
2026-01-18 00:06:59.77	146.19	27.28	-49.2	-64.4	3.6	1.51e+00	0	32	104	0	60	59863
2026-01-18 00:07:03.80	146.03	27.99	-49.1	-64.3	3.6	1.51e+00	0	32	104	0	60	59550
2026-01-18 00:07:07.84	145.86	28.71	-49.0	-64.2	3.6	1.51e+00	0	32	104	0	60	58528
2026-01-18 00:07:11.88	145.69	29.46	-49.0	-64.2	3.6	1.51e+00	0	32	104	0	60	58837
2026-01-18 00:07:15.92	145.51	30.22	-49.0	-64.3	3.6	1.51e+00	0	33	104	0	60	59019
2026-01-18 00:07:19.96	145.31	31.00	-49.2	-64.4	3.6	1.51e+00	0	32	104	0	60	59756
2026-01-18 00:07:24.00	145.11	31.81	-49.1	-64.3	3.5	1.51e+00	0	32	104	0	60	59594
2026-01-18 00:07:28.04	144.90	32.64	-49.1	-64.3	3.6	1.51e+00	0	32	104	0	60	59536
2026-01-18 00:07:32.08	144.67	33.48	-49.1	-64.4	3.6	1.51e+00	0	32	104	0	60	59753
2026-01-18 00:07:36.12	144.43	34.36	-49.2	-64.5	3.6	1.51e+00	0	32	104	0	60	60607
2026-01-18 00:07:40.16	144.18	35.26	-49.1	-64.3	3.6	1.51e+00	0	33	104	0	60	59080
2026-01-18 00:07:44.20	143.91	36.18	-49.4	-64.6	3.6	1.51e+00	0	32	104	0	60	61074
2026-01-18 00:07:48.23	143.62	37.13	-49.4	-64.6	3.6	1.51e+00	0	32	104	0	60	61514
2026-01-18 00:07:52.27	143.32	38.10	-49.1	-64.3	3.6	1.51e+00	0	32	104	0	60	59616
2026-01-18 00:07:56.31	143.00	39.11	-49.2	-64.4	3.6	1.51e+00	0	32	104	0	60	60155
2026-01-18 00:08:00.35	142.65	40.14	-49.0	-64.2	3.6	1.51e+00	0	32	104	0	60	58812
2026-01-18 00:08:04.37	142.29	41.20	-49.2	-64.5	3.6	1.51e+00	0	32	104	0	60	60355
2026-01-18 00:08:08.41	141.89	42.30	-49.0	-64.2	3.6	1.51e+00	0	33	104	0	60	58799
2026-01-18 00:08:12.45	141.47	43.42	-49.0	-64.2	3.6	1.51e+00	0	32	104	0	60	58883
2026-01-18 00:08:16.49	141.01	44.58	-49.0	-64.2	3.6	1.51e+00	0	32	104	0	60	58783
2026-01-18 00:08:20.53	140.52	45.77	-49.2	-64.4	3.6	1.51e+00	0	32	104	0	60	59852
2026-01-18 00:08:24.57	139.99	46.99	-49.0	-64.3	3.6	1.51e+00	0	32	104	0	60	59021
2026-01-18 00:08:28.61	139.41	48.25	-49.1	-64.4	3.6	1.51e+00	0	32	104	0	60	59991
2026-01-18 00:08:32.64	138.78	49.54	-49.1	-64.3	3.6	1.51e+00	0	32	104	0	60	59440
2026-01-18 00:08:36.68	138.10	50.86	-49.0	-64.3	3.6	1.51e+00	0	33	104	0	60	59428
2026-01-18 00:08:40.72	137.35	52.22	-49.2	-64.4	3.6	1.51e+00	0	32	104	0	60	60323
2026-01-18 00:08:44.75	136.53	53.61	-49.2	-64.4	3.6	1.51e+00	0	33	104	0	60	60308
2026-01-18 00:08:48.79	135.62	55.03	-49.4	-64.6	3.6	1.51e+00	0	32	104	0	60	61357
2026-01-18 00:08:52.82	134.61	56.48	-49.2	-64.5	3.6	1.51e+00	0	33	104	0	60	60552
2026-01-18 00:08:56.86	133.49	57.97	-49.2	-64.4	3.6	1.51e+00	0	32	104	0	60	60151
2026-01-18 00:09:00.90	132.23	59.47	-49.1	-64.3	3.6	1.51e+00	0	32	104	0	60	59550
2026-01-18 00:09:04.95	130.81	61.01	-49.0	-64.1	3.5	1.51e+00	0	33	104	0	60	58273
2026-01-18 00:09:08.98	129.22	62.56	-49.1	-64.3	3.6	1.51e+00	0	33	104	0	60	59547
2026-01-18 00:09:13.02	127.39	64.12	-49.1	-64.3	3.6	1.51e+00	0	33	104	0	60	59627
2026-01-18 00:09:17.06	125.30	65.69	-49.0	-64.2	3.6	1.51e+00	0	32	104	0	60	58871
2026-01-18 00:09:21.09	122.90	67.26	-48.9	-64.2	3.6	1.51e+00	0	33	104	0	60	58481
2026-01-18 00:09:25.14	120.09	68.81	-49.1	-64.4	3.6	1.51e+00	0	33	104	0	60	59701
2026-01-18 00:09:29.18	116.80	70.33	-48.9	-64.2	3.6	1.51e+00	0	33	104	0	60	58656
2026-01-18 00:09:33.21	112.94	71.80	-49.1	-64.4	3.6	1.51e+00	0	33	104	0	60	59692
2026-01-18 00:09:37.25	108.37	73.20	-49.0	-64.2	3.6	1.51e+00	0	33	104	0	60	58720
2026-01-18 00:09:41.28	102.97	74.49	-49.3	-64.6	3.6	1.51e+00	0	33	104	0	60	61136
2026-01-18 00:09:45.31	96.61	75.64	-49.1	-64.4	3.6	1.51e+00	0	33	104	0	60	59938
2026-01-18 00:09:49.35	89.19	76.59	-49.0	-64.2	3.6	1.51e+00	0	32	104	0	60	58587
2026-01-18 00:09:53.39	80.75	77.30	-49.1	-64.4	3.6	1.51e+00	0	33	104	0	60	59699
2026-01-18 00:09:57.42	71.54	77.72	-49.4	-64.6	3.6	1.51e+00	0	33	104	0	60	61664
2026-01-18 00:10:01.46	61.91	77.80	-49.4	-64.7	3.6	1.51e+00	0	33	104	0	60	61761
2026-01-18 00:10:05.50	52.42	77.55	-49.3	-64.5	3.6	1.51e+00	0	33	104	0	60	60889
2026-01-18 00:10:09.55	43.52	76.99	-49.2	-64.4	3.6	1.51e+00	0	33	104	0	60	60271
2026-01-18 00:10:13.59	35.58	76.15	-49.1	-64.4	3.6	1.51e+00	0	33	104	0	60	59870
2026-01-18 00:10:17.63	28.68	75.09	-49.2	-64.4	3.6	1.51e+00	0	33	104	0	60	60155
2026-01-18 00:10:21.67	22.80	73.87	-49.4	-64.6	3.6	1.51e+00	0	32	104	0	60	61566
2026-01-18 00:10:25.71	17.83	72.52	-49.3	-64.5	3.6	1.51e+00	0	33	104	0	60	60728
2026-01-18 00:10:29.75	13.63	71.08	-49.2	-64.5	3.6	1.51e+00	0	33	104	0	60	60424
2026-01-18 00:10:33.79	10.07	69.58	-49.4	-64.6	3.6	1.51e+00	0	33	104	0	60	61396
2026-01-18 00:10:37.82	7.05	68.05	-49.1	-64.4	3.6	1.51e+00	0	32	104	0	60	59834
2026-01-18 00:10:41.86	4.45	66.49	-49.0	-64.3	3.6	1.51e+00	0	33	104	0	60	59188
2026-01-18 00:10:45.90	2.21	64.93	-49.3	-64.5	3.6	1.51e+00	0	33	104	0	60	60696
2026-01-18 00:10:49.95	0.26	63.36	-49.3	-64.5	3.6	1.51e+00	0	32	104	0	60	60614
2026-01-18 00:10:53.99	358.55	61.80	-49.0	-64.3	3.6	1.51e+00	0	33	104	0	60	59471
2026-01-18 00:10:58.02	357.05	60.27	-49.3	-64.5	3.5	1.51e+00	0	33	104	0	60	60515
2026-01-18 00:11:02.06	355.72	58.75	-49.1	-64.3	3.6	1.51e+00	0	33	104	0	60	59510
2026-01-18 00:11:06.10	354.54	57.26	-49.2	-64.4	3.6	1.51e+00	0	33	104	0	60	60147
2026-01-18 00:11:10.14	353.47	55.79	-49.4	-64.7	3.6	1.51e+00	0	33	104	0	60	62002
2026-01-18 00:11:14.18	352.52	54.36	-49.4	-64.6	3.6	1.51e+00	0	33	104	0	60	61303
2026-01-18 00:11:18.22	351.65	52.96	-49.1	-64.4	3.6	1.51e+00	0	33	104	0	60	59645
2026-01-18 00:11:22.26	350.87	51.59	-49.2	-64.4	3.6	1.51e+00	0	32	104	0	60	59988
2026-01-18 00:11:26.30	350.15	50.25	-49.2	-64.5	3.6	1.51e+00	0	32	104	0	60	60488
2026-01-18 00:11:30.34	349.50	48.94	-49.1	-64.3	3.6	1.51e+00	0	32	104	0	60	59527
2026-01-18 00:11:34.38	348.90	47.68	-49.4	-64.6	3.6	1.51e+00	0	33	104	0	60	61305
2026-01-18 00:11:38.41	348.35	46.44	-49.3	-64.5	3.6	1.51e+00	0	33	104	0	60	60832
2026-01-18 00:11:42.45	347.84	45.24	-49.1	-64.4	3.6	1.51e+00	0	33	104	0	60	59864
2026-01-18 00:11:46.49	347.37	44.07	-49.3	-64.5	3.6	1.51e+00	0	33	104	0	60	60777
2026-01-18 00:11:50.53	346.93	42.93	-49.1	-64.3	3.6	1.51e+00	0	32	104	0	60	59486
2026-01-18 00:11:54.57	346.52	41.82	-49.3	-64.6	3.6	1.51e+00	0	33	104	0	60	61373
2026-01-18 00:11:58.60	346.14	40.75	-49.1	-64.3	3.6	1.51e+00	0	32	104	0	60	59329
2026-01-18 00:12:02.64	345.78	39.71	-49.2	-64.4	3.6	1.51e+00	0	32	104	0	60	60329
2026-01-18 00:12:06.69	345.45	38.69	-49.4	-64.7	3.6	1.51e+00	0	32	104	0	60	61836
2026-01-18 00:12:10.73	345.14	37.70	-49.2	-64.4	3.6	1.51e+00	0	32	104	0	60	59941
2026-01-18 00:12:14.77	344.85	36.74	-49.5	-64.7	3.6	1.51e+00	0	32	104	0	60	61957
2026-01-18 00:12:18.80	344.57	35.81	-49.3	-64.6	3.6	1.51e+00	0	32	104	0	60	61194
2026-01-18 00:12:22.84	344.31	34.90	-49.3	-64.6	3.6	1.51e+00	0	32	104	0	60	61431
2026-01-18 00:12:26.88	344.07	34.02	-49.2	-64.4	3.6	1.51e+00	0	32	104	0	60	60151
2026-01-18 00:12:30.92	343.84	33.16	-49.2	-64.4	3.6	1.51e+00	0	32	104	0	60	60238
2026-01-18 00:12:34.96	343.62	32.32	-49.2	-64.4	3.6	1.51e+00	0	33	104	0	60	60267
2026-01-18 00:12:38.99	343.41	31.51	-49.2	-64.4	3.6	1.51e+00	0	32	104	0	60	59984
2026-01-18 00:12:43.03	343.22	30.72	-49.2	-64.4	3.6	1.51e+00	0	32	104	0	60	60175
2026-01-18 00:12:47.06	343.03	29.95	-49.2	-64.4	3.6	1.51e+00	0	32	104	0	60	60327
2026-01-18 00:12:51.11	342.85	29.20	-49.4	-64.6	3.6	1.51e+00	0	32	104	0	60	61604
2026-01-18 00:12:55.14	342.69	28.47	-49.3	-64.5	3.6	1.51e+00	0	32	104	0	60	60519
2026-01-18 00:12:59.18	342.53	27.75	-49.0	-64.2	3.6	1.51e+00	0	33	104	0	60	58673
2026-01-18 00:13:03.22	342.37	27.06	-49.1	-64.4	3.6	1.51e+00	0	32	104	0	60	59715
2026-01-18 00:13:07.27	342.23	26.38	-48.9	-64.1	3.6	1.51e+00	0	32	104	0	60	58239
2026-01-18 00:13:11.30	342.09	25.72	-49.0	-64.3	3.6	1.51e+00	0	32	104	0	60	59190
2026-01-18 00:13:15.34	341.96	25.07	-49.4	-64.6	3.6	1.51e+00	0	33	104	0	60	61458
2026-01-18 00:13:19.38	341.83	24.44	-49.4	-64.7	3.6	1.51e+00	0	33	104	0	60	61858
2026-01-18 00:13:23.41	341.71	23.83	-49.2	-64.5	3.6	1.51e+00	0	33	104	0	60	60494
2026-01-18 00:13:27.46	341.59	23.22	-49.2	-64.5	3.6	1.51e+00	0	33	104	0	60	60529
2026-01-18 00:13:31.50	341.48	22.63	-49.4	-64.6	3.6	1.51e+00	0	32	104	0	60	61608
2026-01-18 00:13:35.54	341.38	22.06	-49.1	-64.3	3.6	1.51e+00	0	32	104	0	60	59223
2026-01-18 00:13:39.58	341.28	21.50	-49.2	-64.5	3.6	1.51e+00	0	32	104	0	60	60542
2026-01-18 00:13:43.61	341.18	20.95	-49.3	-64.5	3.6	1.51e+00	0	32	104	0	60	61030
2026-01-18 00:13:47.65	341.08	20.41	-49.3	-64.5	3.6	1.51e+00	0	32	104	0	60	60863
2026-01-18 00:13:51.69	340.99	19.88	-49.3	-64.5	3.6	1.51e+00	0	33	104	0	60	60968
2026-01-18 00:13:55.73	340.91	19.36	-49.3	-64.5	3.6	1.51e+00	0	32	104	0	60	60404
2026-01-18 00:13:59.77	340.83	18.86	-49.2	-64.4	3.6	1.51e+00	0	32	104	0	60	60029
2026-01-18 00:14:03.81	340.75	18.36	-49.2	-64.4	3.6	1.51e+00	0	32	104	0	60	60299
2026-01-18 00:14:07.85	340.67	17.88	-49.2	-64.4	3.6	1.51e+00	0	32	104	0	60	59987
2026-01-18 00:14:11.88	340.60	17.40	-49.4	-64.7	3.6	1.51e+00	0	32	104	0	60	61753
2026-01-18 00:14:15.92	340.52	16.93	-49.3	-64.5	3.6	1.51e+00	0	32	104	0	60	60715
2026-01-18 00:14:19.95	340.46	16.47	-49.1	-64.3	3.6	1.51e+00	0	33	104	0	60	59384
2026-01-18 00:14:24.00	340.39	16.02	-49.2	-64.5	3.6	1.51e+00	0	32	104	0	60	60367
2026-01-18 00:14:28.04	340.33	15.58	-49.3	-64.6	3.6	1.51e+00	0	33	104	0	60	61051
2026-01-18 00:14:32.08	340.27	15.15	-49.4	-64.6	3.6	1.51e+00	0	32	104	0	60	61380
2026-01-18 00:14:36.12	340.21	14.72	-49.2	-64.4	3.6	1.51e+00	0	33	104	0	60	60225
2026-01-18 00:14:40.16	340.15	14.30	-49.3	-64.5	3.6	1.51e+00	0	32	104	0	60	60991
2026-01-18 00:14:44.20	340.10	13.89	-49.3	-64.6	3.6	1.51e+00	0	33	104	0	60	61077
2026-01-18 00:14:48.24	340.04	13.48	-49.3	-64.5	3.6	1.51e+00	0	33	104	0	60	60943
2026-01-18 00:14:52.28	339.99	13.08	-49.2	-64.5	3.6	1.51e+00	0	32	104	0	60	60569
2026-01-18 00:14:56.32	339.94	12.69	-49.1	-64.3	3.6	1.51e+00	0	32	104	0	60	59338
2026-01-18 00:15:00.36	339.90	12.30	-49.2	-64.5	3.6	1.51e+00	0	33	104	0	60	60342
2026-01-18 00:15:04.40	339.85	11.92	-49.0	-64.3	3.6	1.51e+00	0	32	104	0	60	59352
2026-01-18 00:15:08.43	339.81	11.55	-49.1	-64.3	3.6	1.51e+00	0	33	104	0	60	59522
2026-01-18 00:15:12.47	339.76	11.18	-49.4	-64.6	3.6	1.51e+00	0	32	104	0	60	61649
2026-01-18 00:15:16.51	339.72	10.82	-49.0	-64.3	3.6	1.51e+00	0	33	104	0	60	58991
2026-01-18 00:15:20.55	339.68	10.46	-49.0	-64.3	3.6	1.51e+00	0	32	104	0	60	59061
2026-01-18 00:15:24.59	339.64	10.10	-49.0	-64.3	3.6	1.51e+00	0	32	104	0	60	59022
2026-01-18 00:15:28.62	339.61	9.76	-49.2	-64.4	3.6	1.51e+00	0	32	104	0	60	60186
2026-01-18 00:15:32.66	339.57	9.41	-49.4	-64.6	3.6	1.51e+00	0	32	104	0	60	61499
2026-01-18 00:15:36.70	339.54	9.08	-49.2	-64.4	3.6	1.51e+00	0	32	104	0	60	60009
2026-01-18 00:15:40.74	339.50	8.74	-49.5	-64.7	3.6	1.51e+00	0	32	104	0	60	62063
2026-01-18 00:15:44.78	339.47	8.41	-49.3	-64.5	3.6	1.51e+00	0	33	104	0	60	60833
2026-01-18 00:15:48.82	339.44	8.09	-49.1	-64.3	3.6	1.51e+00	0	33	104	0	60	59358
2026-01-18 00:15:52.86	339.41	7.76	-48.9	-64.2	3.6	1.51e+00	0	33	104	0	60	58680
2026-01-18 00:15:56.90	339.38	7.45	-48.9	-64.2	3.6	1.51e+00	0	33	104	0	60	58536
2026-01-18 00:16:00.94	339.35	7.13	-48.9	-64.2	3.6	1.51e+00	0	32	104	0	60	58505
2026-01-18 00:16:04.98	339.33	6.82	-48.9	-64.2	3.6	1.51e+00	0	32	104	0	60	58300
2026-01-18 00:16:09.02	339.30	6.52	-48.9	-64.1	3.6	1.51e+00	0	32	104	0	60	58136
2026-01-18 00:16:13.06	339.27	6.22	-49.2	-64.4	3.6	1.51e+00	0	32	104	0	60	60260
2026-01-18 00:16:17.10	339.25	5.92	-49.1	-64.3	3.6	1.51e+00	0	33	104	0	60	59302
2026-01-18 00:16:21.14	339.23	5.62	-49.3	-64.5	3.6	1.51e+00	0	33	104	0	60	60437
2026-01-18 00:16:25.18	339.20	5.33	-49.1	-64.4	3.6	1.51e+00	0	33	104	0	60	59812
2026-01-18 00:16:29.22	339.18	5.04	-49.5	-64.7	3.6	1.51e+00	0	32	104	0	60	62436
2026-01-18 00:16:33.25	339.16	4.75	-49.4	-64.6	3.6	1.51e+00	0	32	104	0	60	61571
2026-01-18 00:16:37.29	339.14	4.47	-49.1	-64.3	3.6	1.51e+00	0	32	104	0	60	59631
2026-01-18 00:16:41.33	339.12	4.19	-49.2	-64.5	3.6	1.51e+00	0	32	104	0	60	60450
2026-01-18 00:16:45.37	339.10	3.91	-49.1	-64.3	3.6	1.51e+00	0	32	104	0	60	59627
2026-01-18 00:16:49.40	339.08	3.64	-49.4	-64.6	3.6	1.51e+00	0	32	104	0	60	61583
2026-01-18 00:16:53.44	339.07	3.37	-49.6	-64.8	3.6	1.51e+00	0	32	104	0	60	62818
2026-01-18 00:16:57.48	339.05	3.10	-49.1	-64.4	3.6	1.51e+00	0	32	104	0	60	59970
2026-01-18 00:17:01.52	339.03	2.83	-49.2	-64.4	3.6	1.51e+00	0	33	104	0	60	60008
2026-01-18 00:17:05.56	339.02	2.57	-49.2	-64.4	3.6	1.51e+00	0	32	104	0	60	60136
2026-01-18 00:17:09.60	339.00	2.31	-49.1	-64.2	3.6	1.51e+00	0	33	104	0	60	58958
2026-01-18 00:17:13.64	338.99	2.05	-49.2	-64.4	3.6	1.51e+00	0	32	104	0	60	59737
2026-01-18 00:17:17.68	338.97	1.79	-49.4	-64.6	3.6	1.51e+00	0	32	104	0	60	61301
2026-01-18 00:17:21.72	338.96	1.54	-49.1	-64.3	3.6	1.51e+00	0	33	104	0	60	59179
2026-01-18 00:17:25.76	338.95	1.28	-49.0	-64.2	3.6	1.51e+00	0	32	104	0	60	58669
2026-01-18 00:17:29.79	338.94	1.03	-49.2	-64.5	3.6	1.51e+00	0	32	104	0	60	60369
2026-01-18 00:17:33.83	338.92	0.79	-49.2	-64.4	3.6	1.51e+00	0	32	104	0	60	59989
2026-01-18 00:17:37.87	338.91	0.54	-49.3	-64.5	3.6	1.51e+00	0	32	104	0	60	60441
2026-01-18 00:17:41.90	338.90	0.30	-49.1	-64.3	3.6	1.51e+00	0	32	104	0	60	59346
2026-01-18 00:17:45.94	338.89	0.06	-49.2	-64.4	3.6	1.51e+00	0	33	104	0	60	59935

#Closed at: 2026-01-18 00:17:46
#Recorded file [0 MB]: D:/lorett/data/35029_260118_120221.dat