passes_logs/2026/01/18/R4.6S_Anadyr/R4.6S_Anadyr__20260118_122821_NOAA_20_JPSS-1_rec.log

#Pass ID: 20260118_122821_NOAA 20 (JPSS-1)
#Satellite: NOAA 20 (JPSS-1)
#Configuration: NOAA 20
#almurnet v.1.7.20251203
#Start time: 2026-01-18 12:28:24

#Version: 2.2.20231116
#Station: R4.6S_Anadyr
#Location: 177.4865 lon 64.73178 lat
#TLE: 1 43013U 17073A   26017.58553584  .00000066  00000+0  52288-4 0  9998
#TLE: 2 43013  98.7639 318.4977 0001406  35.6039 324.5231 14.19536575423107

#Time	Az	El	Level	Level2	SNR	BER	BlckErr	Temp	State	Recorded	gain1	gain2
2026-01-18 12:28:24.10	19.13	0.15	-49.7	-63.4	3.3	1.54e+00	0	32	0	0	60	53699
2026-01-18 12:28:28.12	19.42	0.35	-49.7	-65.0	3.6	1.51e+00	0	32	104	0	60	64335
2026-01-18 12:28:32.16	19.71	0.55	-49.8	-65.0	3.6	1.51e+00	0	32	104	0	60	64141
2026-01-18 12:28:36.20	20.01	0.75	-49.6	-64.8	3.6	1.51e+00	0	32	104	0	60	62703
2026-01-18 12:28:40.24	20.31	0.96	-49.2	-64.4	3.6	1.51e+00	0	32	104	0	60	59762
2026-01-18 12:28:44.28	20.61	1.16	-48.6	-63.8	3.6	1.51e+00	0	33	104	0	60	55740
2026-01-18 12:28:48.32	20.92	1.37	-47.9	-63.1	3.6	1.51e+00	0	33	104	0	60	51600
2026-01-18 12:28:52.35	21.23	1.57	-47.9	-63.1	3.6	1.51e+00	0	33	104	0	60	51391
2026-01-18 12:28:56.39	21.55	1.78	-47.9	-63.0	3.6	1.51e+00	0	33	104	0	60	51071
2026-01-18 12:29:00.43	21.87	1.99	-47.9	-63.0	3.6	1.51e+00	0	33	104	0	60	51207
2026-01-18 12:29:04.47	22.19	2.20	-47.9	-62.7	3.6	1.51e+00	0	33	104	0	60	49235
2026-01-18 12:29:08.50	22.52	2.41	-47.8	-61.7	3.6	1.51e+00	0	33	104	0	60	43845
2026-01-18 12:29:12.54	22.86	2.62	-45.2	-48.7	13.4	2.66e-04	0	33	0	3145728	60	9816
2026-01-18 12:29:16.58	23.20	2.83	-43.3	-45.5	16.5	0.00e+00	0	33	0	11534336	60	6820
2026-01-18 12:29:20.61	23.54	3.04	-45.4	-48.9	13.1	1.32e-02	76	33	0	18874368	60	10023
2026-01-18 12:29:24.64	23.88	3.25	-46.8	-53.3	13.3	1.50e+00	82	33	104	23068672	60	16649
2026-01-18 12:29:28.68	24.24	3.46	-43.5	-45.6	16.8	0.00e+00	41	33	0	29360128	60	6919
2026-01-18 12:29:32.71	24.59	3.68	-43.9	-46.3	16.7	0.00e+00	6	33	0	37748736	60	7452
2026-01-18 12:29:36.75	24.96	3.89	-43.7	-46.0	16.5	0.00e+00	90	33	0	45088768	60	7179
2026-01-18 12:29:40.78	25.32	4.11	-43.3	-45.3	17.6	0.00e+00	45	33	0	52428800	60	6664
2026-01-18 12:29:44.82	25.70	4.33	-42.4	-44.1	18.5	0.00e+00	40	33	0	59768832	58	6484
2026-01-18 12:29:48.85	26.07	4.54	-42.6	-44.3	18.4	0.00e+00	45	33	0	67108864	58	6670
2026-01-18 12:29:52.89	26.46	4.76	-42.1	-43.8	18.9	0.00e+00	92	33	0	75497472	58	6249
2026-01-18 12:29:56.92	26.84	4.98	-42.3	-43.9	18.8	0.00e+00	25	33	0	82837504	58	6341
2026-01-18 12:30:00.96	27.24	5.20	-42.0	-43.5	19.1	0.00e+00	0	33	0	90177536	58	6085
2026-01-18 12:30:05.00	27.64	5.42	-41.9	-43.3	19.3	0.00e+00	0	33	0	97517568	58	5962
2026-01-18 12:30:09.03	28.04	5.64	-42.0	-43.5	19.3	0.00e+00	92	33	0	104857600	56	6799
2026-01-18 12:30:13.06	28.45	5.86	-41.9	-43.4	19.3	0.00e+00	2	33	0	113246208	56	6748
2026-01-18 12:30:17.10	28.87	6.09	-41.8	-43.3	19.6	0.00e+00	0	33	0	120586240	56	6632
2026-01-18 12:30:21.13	29.29	6.31	-41.5	-42.8	20.0	0.00e+00	0	33	0	127926272	56	6296
2026-01-18 12:30:25.16	29.72	6.53	-41.4	-42.8	20.1	0.00e+00	90	33	0	135266304	56	6279
2026-01-18 12:30:29.20	30.16	6.76	-41.3	-42.7	20.3	0.00e+00	47	33	0	143654912	56	6183
2026-01-18 12:30:33.23	30.60	6.98	-41.2	-42.5	20.4	0.00e+00	36	33	0	150994944	56	6039
2026-01-18 12:30:37.27	31.05	7.21	-40.5	-41.7	21.1	0.00e+00	48	33	0	158334976	54	6203
2026-01-18 12:30:41.29	31.50	7.43	-40.6	-41.8	21.0	0.00e+00	92	33	0	165675008	54	6282
2026-01-18 12:30:45.33	31.96	7.66	-40.6	-41.8	20.3	0.00e+00	2	33	0	173015040	54	6296
2026-01-18 12:30:49.37	32.43	7.89	-40.5	-41.7	21.1	0.00e+00	47	33	0	181403648	54	6219
2026-01-18 12:30:53.40	32.91	8.12	-40.5	-41.6	21.3	0.00e+00	0	33	0	188743680	54	6149
2026-01-18 12:30:57.43	33.39	8.34	-40.7	-41.9	21.1	0.00e+00	92	33	0	196083712	54	6331
2026-01-18 12:31:01.47	33.88	8.57	-40.6	-41.7	21.2	0.00e+00	2	33	0	203423744	54	6229
2026-01-18 12:31:05.50	34.38	8.80	-40.6	-41.8	21.3	0.00e+00	2	34	0	210763776	54	6257
2026-01-18 12:31:09.54	34.89	9.03	-40.4	-41.5	21.5	0.00e+00	81	33	0	219152384	54	6067
2026-01-18 12:31:13.57	35.40	9.26	-40.4	-41.5	21.5	0.00e+00	92	33	0	226492416	54	6074
2026-01-18 12:31:17.61	35.92	9.49	-40.3	-41.4	21.6	0.00e+00	35	33	0	233832448	54	6000
2026-01-18 12:31:21.64	36.45	9.72	-40.1	-41.2	21.7	0.00e+00	35	33	0	241172480	54	5870
2026-01-18 12:31:25.68	36.99	9.95	-40.2	-41.3	21.8	0.00e+00	92	33	0	249561088	54	5904
2026-01-18 12:31:29.72	37.53	10.18	-40.3	-41.5	21.7	0.00e+00	43	33	0	256901120	54	6036
2026-01-18 12:31:33.76	38.09	10.40	-40.4	-41.5	21.6	0.00e+00	47	33	0	264241152	54	6097
2026-01-18 12:31:37.79	38.65	10.63	-40.1	-41.1	22.0	0.00e+00	0	33	0	271581184	54	5820
2026-01-18 12:31:41.82	39.22	10.86	-39.8	-40.9	22.2	0.00e+00	92	34	0	278921216	54	5637
2026-01-18 12:31:45.86	39.80	11.09	-39.9	-41.0	22.1	0.00e+00	8	34	0	287309824	54	5707
2026-01-18 12:31:49.89	40.39	11.32	-39.7	-40.8	22.4	0.00e+00	6	34	0	294649856	52	6249
2026-01-18 12:31:53.93	40.99	11.55	-39.7	-40.7	22.5	0.00e+00	6	34	0	301989888	52	6182
2026-01-18 12:31:57.97	41.59	11.77	-39.2	-40.1	22.9	0.00e+00	92	34	0	309329920	52	5814
2026-01-18 12:32:02.00	42.21	12.00	-39.0	-40.0	23.0	0.00e+00	0	34	0	316669952	52	5727
2026-01-18 12:32:06.04	42.83	12.22	-39.0	-39.9	23.1	0.00e+00	31	34	0	325058560	52	5683
2026-01-18 12:32:10.07	43.46	12.45	-39.1	-40.1	23.0	0.00e+00	2	34	0	332398592	52	5790
2026-01-18 12:32:14.11	44.11	12.67	-39.1	-40.1	23.0	0.00e+00	92	34	0	339738624	52	5781
2026-01-18 12:32:18.13	44.76	12.89	-38.9	-39.8	23.2	0.00e+00	0	34	0	347078656	50	6307
2026-01-18 12:32:22.17	45.42	13.11	-39.0	-39.9	23.1	0.00e+00	0	34	0	355467264	50	6374
2026-01-18 12:32:26.20	46.09	13.33	-39.1	-40.0	23.0	0.00e+00	0	34	0	362807296	50	6459
2026-01-18 12:32:30.24	46.77	13.55	-38.9	-39.8	23.3	0.00e+00	92	34	0	370147328	50	6280
2026-01-18 12:32:34.28	47.46	13.76	-39.0	-39.9	23.2	0.00e+00	38	34	0	377487360	50	6379
2026-01-18 12:32:38.31	48.16	13.97	-39.3	-40.3	22.9	0.00e+00	0	34	0	384827392	50	6624
2026-01-18 12:32:42.34	48.87	14.19	-39.3	-40.2	22.9	0.00e+00	0	34	0	393216000	50	6610
2026-01-18 12:32:46.38	49.59	14.39	-39.6	-40.6	22.5	0.00e+00	92	34	0	400556032	50	6919
2026-01-18 12:32:50.41	50.32	14.60	-40.0	-41.1	22.2	0.00e+00	2	34	0	407896064	52	6473
2026-01-18 12:32:54.44	51.06	14.80	-40.3	-41.3	21.9	0.00e+00	50	34	0	415236096	52	6676
2026-01-18 12:32:58.47	51.81	15.01	-40.4	-41.5	21.8	0.00e+00	48	34	0	423624704	52	6783
2026-01-18 12:33:02.51	52.57	15.20	-40.6	-41.8	21.5	0.00e+00	92	34	0	430964736	52	7009
2026-01-18 12:33:06.54	53.34	15.40	-40.8	-42.0	21.4	0.00e+00	0	34	0	438304768	54	6420
2026-01-18 12:33:10.57	54.12	15.59	-40.9	-42.0	21.3	0.00e+00	0	34	0	445644800	54	6448
2026-01-18 12:33:14.61	54.91	15.78	-41.2	-42.4	20.9	0.00e+00	48	34	0	452984832	54	6721
2026-01-18 12:33:18.64	55.71	15.96	-41.2	-42.4	21.0	0.00e+00	90	34	0	461373440	54	6750
2026-01-18 12:33:22.68	56.52	16.14	-41.0	-42.1	21.2	0.00e+00	7	34	0	468713472	54	6538
2026-01-18 12:33:26.72	57.34	16.32	-40.8	-42.0	21.4	0.00e+00	6	34	0	476053504	54	6404
2026-01-18 12:33:30.76	58.16	16.49	-40.5	-41.5	21.7	0.00e+00	90	34	0	483393536	54	6098
2026-01-18 12:33:34.79	59.00	16.66	-40.2	-41.2	22.1	0.00e+00	43	34	0	490733568	54	5883
2026-01-18 12:33:38.83	59.85	16.82	-39.9	-40.9	22.3	0.00e+00	48	34	0	499122176	54	5662
2026-01-18 12:33:42.86	60.70	16.98	-39.9	-40.9	22.4	0.00e+00	39	34	0	506462208	52	6353
2026-01-18 12:33:46.90	61.56	17.14	-39.3	-40.3	22.9	0.00e+00	91	34	0	513802240	52	5932
2026-01-18 12:33:50.93	62.43	17.28	-39.4	-40.4	22.8	0.00e+00	0	34	0	521142272	52	5998
2026-01-18 12:33:54.96	63.31	17.42	-39.7	-40.7	22.6	0.00e+00	50	34	0	529530880	52	6217
2026-01-18 12:33:59.00	64.20	17.56	-39.8	-40.8	22.4	0.00e+00	0	34	0	536870912	52	6284
2026-01-18 12:34:03.03	65.10	17.69	-39.9	-41.0	22.3	0.00e+00	90	34	0	544210944	52	6439
2026-01-18 12:34:07.07	66.00	17.82	-39.6	-40.6	22.2	0.00e+00	2	34	0	551550976	52	6125
2026-01-18 12:34:11.09	66.91	17.93	-39.9	-40.9	22.4	0.00e+00	37	34	0	558891008	52	6384
2026-01-18 12:34:15.13	67.83	18.05	-39.9	-41.0	22.4	0.00e+00	2	34	0	567279616	52	6400
2026-01-18 12:34:19.17	68.75	18.15	-39.9	-40.9	22.5	0.00e+00	92	34	0	574619648	52	6338
2026-01-18 12:34:23.20	69.68	18.25	-39.9	-40.9	22.4	0.00e+00	0	34	0	581959680	52	6349
2026-01-18 12:34:27.23	70.61	18.34	-39.5	-40.5	22.8	0.00e+00	3	34	0	589299712	52	6061
2026-01-18 12:34:31.26	71.55	18.43	-39.9	-41.0	22.2	0.00e+00	0	34	0	596639744	52	6401
2026-01-18 12:34:35.30	72.50	18.50	-39.9	-41.0	22.3	0.00e+00	92	34	0	605028352	52	6458
2026-01-18 12:34:39.33	73.45	18.57	-39.9	-41.1	22.3	0.00e+00	2	34	0	612368384	52	6477
2026-01-18 12:34:43.36	74.40	18.63	-40.2	-41.3	22.0	0.00e+00	0	34	0	619708416	52	6634
2026-01-18 12:34:47.40	75.36	18.69	-40.2	-41.3	22.0	0.00e+00	0	34	0	627048448	52	6674
2026-01-18 12:34:51.44	76.32	18.74	-39.8	-40.9	22.5	0.00e+00	92	34	0	634388480	52	6323
2026-01-18 12:34:55.48	77.29	18.78	-40.2	-41.3	22.0	0.00e+00	31	34	0	642777088	52	6662
2026-01-18 12:34:59.51	78.25	18.81	-40.5	-41.6	21.8	0.00e+00	0	34	0	650117120	52	6867
2026-01-18 12:35:03.55	79.22	18.83	-40.4	-41.5	21.8	0.00e+00	15	34	0	657457152	52	6838
2026-01-18 12:35:07.58	80.19	18.85	-40.5	-41.6	21.8	0.00e+00	0	34	0	664797184	52	6893
2026-01-18 12:35:11.62	81.16	18.85	-40.3	-41.4	21.9	0.00e+00	33	34	0	673185792	52	6748
2026-01-18 12:35:15.65	82.13	18.85	-39.9	-41.1	22.2	0.00e+00	0	34	0	680525824	52	6466
2026-01-18 12:35:19.68	83.10	18.84	-39.8	-40.9	22.4	0.00e+00	92	34	0	687865856	52	6374
2026-01-18 12:35:23.71	84.07	18.83	-39.9	-40.9	22.5	0.00e+00	5	34	0	695205888	52	6356
2026-01-18 12:35:27.74	85.04	18.80	-40.2	-41.3	22.2	0.00e+00	0	34	0	702545920	52	6654
2026-01-18 12:35:31.78	86.00	18.77	-40.4	-41.5	21.9	0.00e+00	46	34	0	710934528	52	6803
2026-01-18 12:35:35.81	86.97	18.73	-40.2	-41.2	22.1	0.00e+00	92	34	0	718274560	52	6588
2026-01-18 12:35:39.84	87.93	18.68	-39.5	-40.5	22.6	0.00e+00	40	34	0	725614592	52	6062
2026-01-18 12:35:43.88	88.89	18.63	-39.7	-40.8	22.6	0.00e+00	7	34	0	732954624	52	6252
2026-01-18 12:35:47.91	89.84	18.56	-39.6	-40.6	22.8	0.00e+00	7	34	0	741343232	52	6106
2026-01-18 12:35:51.94	90.79	18.49	-39.2	-40.1	23.1	0.00e+00	92	34	0	748683264	52	5810
2026-01-18 12:35:55.97	91.74	18.41	-38.9	-39.8	23.3	0.00e+00	0	34	0	756023296	52	5607
2026-01-18 12:36:00.01	92.68	18.33	-38.8	-39.7	23.4	0.00e+00	49	34	0	763363328	50	6244
2026-01-18 12:36:04.04	93.62	18.24	-39.2	-40.2	22.9	0.00e+00	44	34	0	770703360	50	6596
2026-01-18 12:36:08.08	94.55	18.14	-39.4	-40.4	22.9	0.00e+00	91	34	0	779091968	50	6729
2026-01-18 12:36:12.12	95.47	18.03	-38.9	-39.9	23.3	0.00e+00	3	34	0	786432000	50	6321
2026-01-18 12:36:16.07	96.37	17.92	-37.9	-38.8	24.2	0.00e+00	2	34	0	793772032	50	5602
2026-01-18 12:36:20.11	97.29	17.80	-38.0	-38.9	24.2	0.00e+00	0	34	0	801112064	48	6331
2026-01-18 12:36:24.15	98.19	17.67	-38.3	-39.2	23.8	0.00e+00	92	34	0	809500672	48	6589
2026-01-18 12:36:28.18	99.09	17.54	-38.0	-38.8	24.2	0.00e+00	50	34	0	816840704	48	6312
2026-01-18 12:36:32.22	99.98	17.40	-37.6	-38.5	24.5	0.00e+00	49	34	0	824180736	48	6051
2026-01-18 12:36:36.25	100.86	17.26	-37.8	-38.7	24.2	0.00e+00	24	34	0	831520768	48	6190
2026-01-18 12:36:40.29	101.73	17.11	-38.0	-38.9	24.1	0.00e+00	90	34	0	838860800	48	6342
2026-01-18 12:36:44.32	102.59	16.96	-38.1	-39.0	23.8	0.00e+00	0	34	0	847249408	48	6426
2026-01-18 12:36:48.35	103.45	16.80	-38.1	-38.9	23.9	0.00e+00	0	34	0	854589440	48	6386
2026-01-18 12:36:52.39	104.30	16.63	-38.6	-39.6	23.4	0.00e+00	28	34	0	861929472	48	6883
2026-01-18 12:36:56.42	105.13	16.46	-39.3	-40.3	22.8	0.00e+00	34	34	0	869269504	50	6665
2026-01-18 12:37:00.46	105.96	16.29	-39.5	-40.6	22.4	0.00e+00	5	34	0	877658112	50	6859
2026-01-18 12:37:04.48	106.78	16.11	-39.5	-40.4	22.7	0.00e+00	5	34	0	884998144	52	6031
2026-01-18 12:37:08.52	107.59	15.93	-39.5	-40.6	22.8	0.00e+00	92	34	0	892338176	52	6128
2026-01-18 12:37:12.55	108.39	15.74	-40.4	-41.6	21.7	0.00e+00	47	34	0	899678208	52	6875
2026-01-18 12:37:16.59	109.18	15.55	-40.5	-41.6	21.4	0.00e+00	48	34	0	907018240	54	6134
2026-01-18 12:37:20.63	109.96	15.36	-39.9	-40.9	22.2	0.00e+00	46	34	0	915406848	54	5655
2026-01-18 12:37:24.66	110.73	15.16	-39.8	-40.9	22.3	0.00e+00	92	34	0	922746880	52	6330
2026-01-18 12:37:28.69	111.49	14.96	-40.0	-41.0	22.1	0.00e+00	7	34	0	930086912	52	6457
2026-01-18 12:37:32.72	112.25	14.76	-39.4	-40.3	22.8	0.00e+00	6	34	0	937426944	52	5960
2026-01-18 12:37:36.75	112.99	14.55	-38.9	-39.8	23.1	0.00e+00	0	34	0	945815552	52	5622
2026-01-18 12:37:40.78	113.72	14.35	-39.1	-40.2	22.9	0.00e+00	92	34	0	953155584	52	5834
2026-01-18 12:37:44.82	114.44	14.13	-40.0	-41.1	22.0	0.00e+00	34	34	0	960495616	52	6498
2026-01-18 12:37:48.85	115.15	13.92	-40.3	-41.5	21.6	0.00e+00	0	34	0	967835648	52	6785
2026-01-18 12:37:52.88	115.85	13.71	-39.5	-40.6	22.7	0.00e+00	32	34	0	975175680	52	6109
2026-01-18 12:37:56.92	116.54	13.49	-39.0	-40.0	23.0	0.00e+00	92	34	0	983564288	52	5734
2026-01-18 12:38:00.95	117.22	13.27	-39.2	-40.2	22.9	0.00e+00	0	34	0	990904320	52	5833
2026-01-18 12:38:04.98	117.90	13.05	-38.9	-39.9	23.1	0.00e+00	0	34	0	998244352	52	5647
2026-01-18 12:38:09.02	118.56	12.83	-39.4	-40.4	22.6	0.00e+00	52	34	0	1005584384	52	5989
2026-01-18 12:38:13.05	119.21	12.60	-38.9	-39.8	23.1	0.00e+00	92	34	0	1012924416	52	5612
2026-01-18 12:38:17.09	119.86	12.38	-38.7	-39.7	23.2	0.00e+00	37	34	0	1021313024	50	6203
2026-01-18 12:38:21.13	120.49	12.15	-39.3	-40.3	22.7	0.00e+00	0	34	0	1028653056	50	6667
2026-01-18 12:38:25.16	121.12	11.93	-38.9	-39.8	23.1	0.00e+00	0	34	0	1035993088	50	6313
2026-01-18 12:38:29.19	121.73	11.70	-39.0	-40.0	22.9	0.00e+00	92	34	0	1043333120	50	6432
2026-01-18 12:38:33.22	122.34	11.47	-39.8	-40.9	22.1	0.00e+00	42	34	0	1050673152	52	6320
2026-01-18 12:38:37.26	122.93	11.24	-39.5	-40.5	22.5	0.00e+00	0	34	0	1059061760	52	6085
2026-01-18 12:38:41.29	123.52	11.01	-39.4	-40.4	22.6	0.00e+00	76	34	0	1066401792	52	5991
2026-01-18 12:38:45.33	124.10	10.78	-39.8	-40.8	22.1	0.00e+00	90	34	0	1073741824	52	6311
2026-01-18 12:38:49.36	124.67	10.55	-39.6	-40.6	22.3	0.00e+00	42	34	0	1081081856	52	6150
2026-01-18 12:38:53.40	125.24	10.32	-39.6	-40.7	22.2	0.00e+00	46	34	0	1089470464	52	6200
2026-01-18 12:38:57.43	125.79	10.09	-40.2	-41.4	21.6	0.00e+00	43	34	0	1096810496	52	6704
2026-01-18 12:39:01.46	126.33	9.86	-40.4	-41.5	21.4	0.00e+00	91	34	0	1104150528	52	6820
2026-01-18 12:39:05.50	126.87	9.63	-40.0	-41.1	21.4	0.00e+00	0	34	0	1111490560	52	6490
2026-01-18 12:39:09.53	127.40	9.40	-40.4	-41.6	21.3	0.00e+00	0	34	0	1118830592	52	6855
2026-01-18 12:39:13.57	127.92	9.16	-40.6	-41.8	21.1	0.00e+00	92	34	0	1127219200	52	7023
2026-01-18 12:39:17.61	128.44	8.93	-40.4	-41.6	21.2	0.00e+00	41	34	0	1134559232	52	6903
2026-01-18 12:39:21.64	128.94	8.70	-40.7	-41.9	20.9	0.00e+00	0	34	0	1141899264	54	6366
2026-01-18 12:39:25.67	129.44	8.47	-41.1	-42.5	20.4	0.00e+00	7	34	0	1149239296	54	6772
2026-01-18 12:39:29.70	129.93	8.24	-40.9	-42.2	20.5	0.00e+00	92	34	0	1156579328	54	6564
2026-01-18 12:39:33.74	130.41	8.01	-40.5	-41.7	21.0	0.00e+00	0	34	0	1164967936	54	6242
2026-01-18 12:39:37.77	130.89	7.78	-40.6	-41.9	20.9	0.00e+00	37	34	0	1172307968	54	6330
2026-01-18 12:39:41.81	131.35	7.55	-40.7	-42.0	20.7	0.00e+00	39	34	0	1179648000	54	6396
2026-01-18 12:39:45.85	131.82	7.32	-40.6	-41.9	20.7	0.00e+00	92	34	0	1186988032	54	6378
2026-01-18 12:39:49.88	132.27	7.10	-41.0	-42.3	20.3	0.00e+00	38	34	0	1195376640	54	6669
2026-01-18 12:39:53.92	132.72	6.87	-41.6	-43.1	19.6	0.00e+00	0	34	0	1202716672	54	7261
2026-01-18 12:39:57.95	133.16	6.64	-41.8	-43.3	19.4	0.00e+00	0	34	0	1210056704	56	6645
2026-01-18 12:40:01.99	133.59	6.41	-41.6	-43.1	19.6	0.00e+00	92	34	0	1217396736	56	6466
2026-01-18 12:40:06.01	134.02	6.19	-41.6	-43.0	19.7	0.00e+00	43	34	0	1224736768	56	6431
2026-01-18 12:40:10.05	134.44	5.96	-41.8	-43.4	19.2	0.00e+00	43	34	0	1233125376	56	6705
2026-01-18 12:40:14.07	134.86	5.74	-42.0	-43.5	19.0	0.00e+00	0	34	0	1240465408	56	6845
2026-01-18 12:40:18.10	135.27	5.52	-42.2	-43.8	18.7	0.00e+00	92	34	0	1247805440	56	7057
2026-01-18 12:40:22.14	135.67	5.29	-42.2	-43.9	18.7	0.00e+00	0	34	0	1255145472	56	7104
2026-01-18 12:40:26.18	136.07	5.07	-42.4	-44.1	18.4	0.00e+00	0	34	0	1262485504	56	7315
2026-01-18 12:40:30.21	136.46	4.85	-42.4	-44.2	18.2	0.00e+00	0	34	0	1270874112	56	7353
2026-01-18 12:40:34.25	136.85	4.63	-42.5	-44.3	18.1	0.00e+00	90	34	0	1278214144	56	7435
2026-01-18 12:40:38.28	137.23	4.41	-42.5	-44.3	18.1	0.00e+00	0	34	0	1285554176	56	7447
2026-01-18 12:40:42.31	137.60	4.19	-42.5	-44.3	18.0	0.00e+00	0	34	0	1292894208	56	7492
2026-01-18 12:40:46.35	137.97	3.97	-42.5	-44.4	17.9	0.00e+00	1	34	0	1301282816	56	7511
2026-01-18 12:40:50.38	138.34	3.75	-42.7	-44.7	17.4	0.00e+00	45	34	0	1308622848	58	6968
2026-01-18 12:40:54.41	138.70	3.54	-43.0	-45.2	16.7	0.00e+00	43	34	0	1315962880	58	7379
2026-01-18 12:40:58.45	139.05	3.32	-43.2	-45.9	15.7	0.00e+00	6	34	0	1323302912	58	7965
2026-01-18 12:41:02.48	139.40	3.11	-44.2	-48.0	13.1	8.30e-06	81	34	0	1330642944	60	9065
2026-01-18 12:41:06.52	139.75	2.89	-48.6	-64.0	3.6	1.51e+00	0	34	104	1334837248	60	57037
2026-01-18 12:41:10.56	140.09	2.68	-49.3	-64.5	3.6	1.51e+00	0	34	104	1334837248	60	60868
2026-01-18 12:41:14.60	140.43	2.47	-49.6	-64.8	3.6	1.51e+00	0	34	104	1334837248	60	62867
2026-01-18 12:41:18.63	140.76	2.25	-49.6	-64.8	3.6	1.51e+00	0	34	104	1334837248	60	62902
2026-01-18 12:41:22.67	141.08	2.04	-49.6	-64.8	3.6	1.51e+00	0	34	104	1334837248	60	62947
2026-01-18 12:41:26.70	141.41	1.83	-49.6	-64.9	3.6	1.51e+00	0	34	104	1334837248	60	63215
2026-01-18 12:41:30.73	141.72	1.62	-49.6	-64.8	3.6	1.51e+00	0	34	104	1334837248	60	62817
2026-01-18 12:41:34.76	142.04	1.42	-49.6	-64.7	3.6	1.51e+00	0	34	104	1334837248	60	62414
2026-01-18 12:41:38.79	142.35	1.21	-49.6	-64.8	3.6	1.51e+00	0	34	104	1334837248	60	62553
2026-01-18 12:41:42.83	142.65	1.00	-49.6	-64.7	3.6	1.51e+00	0	34	104	1334837248	60	62297
2026-01-18 12:41:46.87	142.95	0.80	-49.6	-64.8	3.6	1.51e+00	0	34	104	1334837248	60	62541
2026-01-18 12:41:50.91	143.25	0.59	-49.6	-64.7	3.6	1.51e+00	0	34	104	1334837248	60	62329
2026-01-18 12:41:54.94	143.55	0.39	-49.6	-64.8	3.6	1.51e+00	0	34	104	1334837248	60	62613
2026-01-18 12:41:58.98	143.84	0.18	-49.6	-64.7	3.6	1.51e+00	0	34	104	1334837248	60	62268
2026-01-18 12:42:02.99	144.12	-0.02	-49.5	-64.8	3.6	1.51e+00	0	34	104	1334837248	60	62458

#Closed at: 2026-01-18 12:42:03
#Recorded file [1334 MB]: D:/lorett/data/35029_260119_002824.dat