passes_logs/2026/01/18/R4.6S_Anadyr/R4.6S_Anadyr__20260118_220441_SUOMI_NPP_rec.log

#Pass ID: 20260118_220441_SUOMI NPP
#Satellite: SUOMI NPP
#Configuration: NPP
#almurnet v.1.7.20251203
#Start time: 2026-01-18 22:04:42

#Version: 2.2.20231116
#Station: R4.6S_Anadyr
#Location: 177.4865 lon 64.73178 lat
#TLE: 1 37849U 11061A   26018.62828014  .00000065  00000+0  51921-4 0  9990
#TLE: 2 37849  98.7815 320.6456 0002372  57.2989 302.8415 14.19526102737226

#Time	Az	El	Level	Level2	SNR	BER	BlckErr	Temp	State	Recorded	gain1	gain2
2026-01-18 22:04:42.31	103.09	0.06	-49.8	-62.4	3.4	1.52e+00	0	38	0	0	60	46197
2026-01-18 22:04:46.35	102.88	0.28	-49.9	-65.2	3.6	1.51e+00	0	39	104	0	60	65398
2026-01-18 22:04:50.40	102.67	0.51	-49.9	-65.2	3.6	1.51e+00	0	39	104	0	60	65659
2026-01-18 22:04:54.44	102.46	0.74	-50.0	-65.2	3.6	1.51e+00	0	39	104	0	60	65480
2026-01-18 22:04:58.48	102.24	0.96	-48.9	-65.2	3.6	1.51e+00	0	39	104	0	60	65654
2026-01-18 22:05:02.52	102.02	1.19	-49.6	-64.9	3.6	1.51e+00	0	39	104	0	60	63304
2026-01-18 22:05:06.55	101.79	1.42	-49.0	-64.2	3.6	1.51e+00	0	39	104	0	60	58337
2026-01-18 22:05:10.59	101.56	1.65	-42.7	-62.8	3.6	1.51e+00	0	39	104	0	58	56292
2026-01-18 22:05:14.63	101.33	1.89	-42.6	-62.9	3.6	1.51e+00	0	39	104	0	58	56615
2026-01-18 22:05:18.67	101.09	2.12	-42.6	-62.7	3.6	1.51e+00	0	40	104	0	58	55202
2026-01-18 22:05:22.71	100.85	2.36	-42.6	-62.8	3.6	1.51e+00	0	40	104	0	58	55877
2026-01-18 22:05:26.75	100.61	2.59	-42.6	-62.8	3.6	1.51e+00	0	40	104	0	58	55938
2026-01-18 22:05:30.79	100.36	2.83	-42.6	-62.3	3.6	1.51e+00	0	40	104	0	58	52795
2026-01-18 22:05:34.83	100.11	3.07	-42.6	-61.9	3.6	1.51e+00	0	40	104	0	58	50599
2026-01-18 22:05:38.88	99.85	3.32	-42.3	-53.1	7.8	1.35e-01	0	40	0	2097152	58	18386
2026-01-18 22:05:42.92	99.59	3.56	-40.7	-52.1	9.0	1.20e+00	76	40	104	5242880	56	18358
2026-01-18 22:05:46.96	99.32	3.80	-41.2	-47.7	14.1	0.00e+00	92	40	0	7340032	56	10987
2026-01-18 22:05:51.00	99.05	4.05	-41.7	-46.2	15.7	0.00e+00	0	40	0	14680064	56	9344
2026-01-18 22:05:55.03	98.77	4.30	-43.2	-47.1	15.2	0.00e+00	92	40	0	23068672	58	9145
2026-01-18 22:05:59.07	98.49	4.55	-43.2	-45.8	16.4	0.00e+00	75	40	0	30408704	58	7881
2026-01-18 22:06:03.10	98.21	4.80	-43.1	-45.3	16.8	0.00e+00	0	40	0	37748736	58	7446
2026-01-18 22:06:07.15	97.91	5.05	-43.0	-45.1	17.0	0.00e+00	0	40	0	45088768	58	7275
2026-01-18 22:06:11.18	97.62	5.31	-41.9	-43.9	18.5	0.00e+00	91	40	0	52428800	58	6389
2026-01-18 22:06:15.21	97.32	5.57	-42.3	-44.3	18.1	0.00e+00	92	40	0	60817408	58	6616
2026-01-18 22:06:19.25	97.01	5.82	-42.4	-44.2	18.2	0.00e+00	0	40	0	68157440	58	6571
2026-01-18 22:06:23.28	96.70	6.08	-42.1	-43.7	18.8	0.00e+00	0	40	0	75497472	58	6201
2026-01-18 22:06:27.33	96.38	6.35	-42.4	-44.2	18.6	0.00e+00	92	40	0	82837504	58	6582
2026-01-18 22:06:31.36	96.05	6.61	-42.1	-43.9	18.8	0.00e+00	92	40	0	90177536	58	6379
2026-01-18 22:06:35.40	95.72	6.88	-41.7	-43.5	19.3	0.00e+00	0	40	0	98566144	56	6799
2026-01-18 22:06:39.44	95.38	7.14	-42.0	-43.6	19.2	0.00e+00	0	40	0	105906176	56	6880
2026-01-18 22:06:43.48	95.04	7.41	-42.3	-44.0	18.9	0.00e+00	87	40	0	113246208	56	7235
2026-01-18 22:06:47.51	94.69	7.68	-41.6	-43.4	19.2	0.00e+00	92	40	0	120586240	56	6711
2026-01-18 22:06:51.55	94.33	7.96	-42.2	-43.9	18.9	0.00e+00	0	40	0	128974848	56	7094
2026-01-18 22:06:55.59	93.97	8.23	-42.0	-43.8	19.1	0.00e+00	91	40	0	136314880	56	7020
2026-01-18 22:06:59.62	93.60	8.51	-42.1	-44.0	19.1	0.00e+00	92	40	0	143654912	56	7177
2026-01-18 22:07:03.66	93.22	8.79	-42.5	-44.2	18.9	0.00e+00	92	40	0	150994944	56	7365
2026-01-18 22:07:07.69	92.83	9.07	-42.3	-43.8	19.2	0.00e+00	0	40	0	158334976	58	6305
2026-01-18 22:07:11.73	92.44	9.35	-41.4	-42.8	20.1	0.00e+00	92	40	0	166723584	56	6309
2026-01-18 22:07:15.77	92.03	9.63	-41.6	-43.1	20.0	0.00e+00	92	40	0	174063616	56	6478
2026-01-18 22:07:19.80	91.62	9.92	-41.4	-42.7	20.1	0.00e+00	0	40	0	181403648	56	6233
2026-01-18 22:07:23.84	91.20	10.21	-41.2	-42.7	20.3	0.00e+00	0	40	0	188743680	56	6202
2026-01-18 22:07:27.88	90.78	10.50	-40.9	-42.3	20.6	0.00e+00	92	40	0	197132288	56	5953
2026-01-18 22:07:31.91	90.34	10.79	-41.4	-43.1	20.0	0.00e+00	92	40	0	204472320	56	6467
2026-01-18 22:07:35.95	89.90	11.08	-41.1	-42.4	20.7	0.00e+00	0	40	0	211812352	56	5991
2026-01-18 22:07:39.99	89.44	11.38	-41.2	-42.9	20.2	0.00e+00	77	40	0	219152384	56	6368
2026-01-18 22:07:44.03	88.98	11.68	-41.6	-43.3	19.9	0.00e+00	78	40	0	226492416	56	6625
2026-01-18 22:07:48.07	88.50	11.98	-41.5	-43.0	20.1	0.00e+00	92	40	0	234881024	56	6455
2026-01-18 22:07:52.11	88.02	12.28	-42.0	-43.5	19.8	0.00e+00	0	40	0	242221056	56	6787
2026-01-18 22:07:56.15	87.52	12.58	-41.2	-42.5	20.7	0.00e+00	67	40	0	249561088	56	6087
2026-01-18 22:08:00.18	87.02	12.88	-40.8	-42.1	21.1	0.00e+00	92	40	0	256901120	56	5768
2026-01-18 22:08:04.22	86.51	13.19	-40.0	-41.1	21.8	0.00e+00	0	40	0	265289728	54	5805
2026-01-18 22:08:08.25	85.98	13.49	-40.2	-41.3	21.6	0.00e+00	0	40	0	272629760	54	5950
2026-01-18 22:08:12.29	85.44	13.80	-40.5	-41.7	21.5	0.00e+00	92	40	0	279969792	54	6176
2026-01-18 22:08:16.31	84.90	14.11	-40.4	-41.6	21.5	0.00e+00	91	40	0	287309824	54	6159
2026-01-18 22:08:20.35	84.34	14.42	-40.4	-41.6	21.4	0.00e+00	0	40	0	294649856	54	6161
2026-01-18 22:08:24.39	83.76	14.73	-40.2	-41.4	21.6	0.00e+00	73	40	0	303038464	54	5967
2026-01-18 22:08:28.43	83.18	15.05	-40.5	-41.6	21.5	0.00e+00	81	40	0	310378496	54	6165
2026-01-18 22:08:32.47	82.58	15.36	-41.0	-42.3	21.1	0.00e+00	92	40	0	317718528	54	6640
2026-01-18 22:08:36.51	81.97	15.68	-40.7	-41.9	21.4	0.00e+00	0	40	0	325058560	54	6345
2026-01-18 22:08:40.55	81.34	15.99	-40.9	-42.2	21.0	0.00e+00	74	40	0	333447168	54	6549
2026-01-18 22:08:44.59	80.71	16.31	-41.0	-42.3	20.9	0.00e+00	91	40	0	340787200	54	6655
2026-01-18 22:08:48.62	80.06	16.62	-40.9	-42.1	21.1	0.00e+00	0	40	0	348127232	54	6511
2026-01-18 22:08:52.66	79.39	16.94	-41.1	-42.4	20.9	0.00e+00	0	40	0	355467264	54	6697
2026-01-18 22:08:56.70	78.71	17.26	-41.2	-42.5	20.8	0.00e+00	91	40	0	362807296	54	6798
2026-01-18 22:09:00.74	78.02	17.57	-40.9	-42.1	21.3	0.00e+00	92	40	0	371195904	54	6527
2026-01-18 22:09:04.77	77.31	17.89	-40.4	-41.5	21.7	0.00e+00	0	40	0	378535936	54	6097
2026-01-18 22:09:08.81	76.58	18.20	-40.6	-41.9	21.4	0.00e+00	0	40	0	385875968	54	6324
2026-01-18 22:09:12.84	75.85	18.52	-40.6	-41.8	21.4	0.00e+00	81	40	0	393216000	54	6278
2026-01-18 22:09:16.88	75.09	18.83	-40.5	-41.6	21.7	0.00e+00	92	40	0	401604608	54	6141
2026-01-18 22:09:20.91	74.32	19.14	-40.5	-41.7	21.5	0.00e+00	0	40	0	408944640	54	6202
2026-01-18 22:09:24.95	73.53	19.45	-40.7	-42.0	21.1	0.00e+00	82	40	0	416284672	54	6392
2026-01-18 22:09:28.99	72.73	19.76	-40.2	-41.4	21.8	0.00e+00	92	40	0	423624704	54	5978
2026-01-18 22:09:33.03	71.91	20.07	-39.7	-40.8	22.1	0.00e+00	0	40	0	430964736	52	6279
2026-01-18 22:09:37.06	71.08	20.37	-39.5	-40.6	22.7	0.00e+00	0	40	0	439353344	52	6120
2026-01-18 22:09:41.10	70.22	20.67	-39.3	-40.3	22.8	0.00e+00	92	40	0	446693376	52	5955
2026-01-18 22:09:45.14	69.35	20.97	-38.7	-39.6	23.3	0.00e+00	91	40	0	454033408	50	6143
2026-01-18 22:09:49.18	68.47	21.27	-38.8	-39.8	23.1	0.00e+00	0	40	0	461373440	50	6272
2026-01-18 22:09:53.21	67.56	21.55	-39.3	-40.3	22.9	0.00e+00	0	40	0	468713472	50	6664
2026-01-18 22:09:57.25	66.64	21.84	-39.0	-40.0	23.0	0.00e+00	74	40	0	477102080	50	6428
2026-01-18 22:10:01.29	65.70	22.12	-38.7	-39.6	23.2	0.00e+00	92	40	0	484442112	50	6143
2026-01-18 22:10:05.33	64.75	22.40	-38.6	-39.5	23.4	0.00e+00	0	40	0	491782144	50	6084
2026-01-18 22:10:09.37	63.78	22.66	-38.1	-38.9	23.7	0.00e+00	0	40	0	499122176	50	5686
2026-01-18 22:10:13.41	62.79	22.93	-38.3	-39.2	23.6	0.00e+00	82	40	0	507510784	50	5859
2026-01-18 22:10:17.45	61.78	23.18	-38.4	-39.3	23.6	0.00e+00	80	40	0	514850816	50	5940
2026-01-18 22:10:21.49	60.76	23.43	-38.3	-39.1	23.7	0.00e+00	0	40	0	522190848	50	5815
2026-01-18 22:10:25.53	59.72	23.67	-38.0	-38.9	23.8	0.00e+00	72	40	0	529530880	50	5635
2026-01-18 22:10:29.57	58.67	23.91	-38.3	-39.2	23.6	0.00e+00	92	40	0	536870912	50	5890
2026-01-18 22:10:33.60	57.60	24.13	-38.2	-39.1	23.8	0.00e+00	0	40	0	545259520	50	5775
2026-01-18 22:10:37.64	56.51	24.35	-37.8	-38.7	24.1	0.00e+00	0	40	0	552599552	48	6202
2026-01-18 22:10:41.67	55.42	24.55	-37.9	-38.7	23.7	0.00e+00	37	40	0	559939584	48	6218
2026-01-18 22:10:45.71	54.30	24.75	-37.7	-38.5	24.1	0.00e+00	92	40	0	567279616	48	6071
2026-01-18 22:10:49.75	53.17	24.93	-38.5	-39.4	23.4	0.00e+00	0	40	0	575668224	48	6715
2026-01-18 22:10:53.79	52.03	25.11	-39.5	-40.4	22.8	0.00e+00	0	40	0	583008256	50	6769
2026-01-18 22:10:57.82	50.88	25.27	-40.6	-41.7	21.7	0.00e+00	6	40	0	590348288	52	6987
2026-01-18 22:11:01.86	49.72	25.42	-39.5	-40.5	22.7	0.00e+00	0	40	0	597688320	52	6058
2026-01-18 22:11:05.90	48.54	25.56	-39.9	-41.0	22.3	0.00e+00	0	40	0	605028352	52	6395
2026-01-18 22:11:09.94	47.36	25.68	-40.0	-41.1	22.3	0.00e+00	86	40	0	613416960	52	6487
2026-01-18 22:11:13.97	46.17	25.79	-39.8	-40.8	22.4	0.00e+00	87	40	0	620756992	52	6264
2026-01-18 22:11:18.01	44.97	25.89	-40.4	-41.5	21.8	0.00e+00	0	40	0	628097024	54	6103
2026-01-18 22:11:22.06	43.75	25.98	-39.9	-40.9	22.4	0.00e+00	0	40	0	635437056	52	6379
2026-01-18 22:11:26.09	42.54	26.05	-39.7	-40.7	22.5	0.00e+00	91	40	0	643825664	52	6211
2026-01-18 22:11:30.13	41.32	26.11	-40.8	-42.0	21.4	0.00e+00	90	40	0	651165696	54	6424
2026-01-18 22:11:34.17	40.10	26.15	-40.3	-41.4	22.0	0.00e+00	0	40	0	658505728	54	6012
2026-01-18 22:11:38.20	38.88	26.18	-39.4	-40.4	22.7	0.00e+00	33	41	0	665845760	52	5983
2026-01-18 22:11:42.23	37.65	26.20	-40.7	-41.8	21.6	0.00e+00	28	40	0	673185792	52	7040
2026-01-18 22:11:46.27	36.42	26.20	-40.5	-41.6	21.7	0.00e+00	80	41	0	681574400	54	6146
2026-01-18 22:11:50.31	35.20	26.18	-39.1	-40.1	23.1	0.00e+00	0	40	0	688914432	52	5780
2026-01-18 22:11:54.34	33.97	26.15	-39.0	-40.0	23.1	0.00e+00	0	40	0	696254464	50	6393
2026-01-18 22:11:58.38	32.75	26.11	-38.7	-39.6	23.3	0.00e+00	92	40	0	703594496	50	6173
2026-01-18 22:12:02.42	31.53	26.05	-37.6	-38.4	24.3	0.00e+00	0	40	0	710934528	48	6032
2026-01-18 22:12:06.45	30.32	25.98	-37.9	-38.7	24.0	0.00e+00	0	40	0	719323136	48	6232
2026-01-18 22:12:10.49	29.11	25.90	-38.3	-39.2	23.6	0.00e+00	92	40	0	726663168	48	6593
2026-01-18 22:12:14.53	27.91	25.80	-38.7	-39.6	23.2	0.00e+00	76	40	0	734003200	50	6104
2026-01-18 22:12:18.57	26.72	25.69	-38.3	-39.1	23.8	0.00e+00	0	40	0	741343232	50	5814
2026-01-18 22:12:22.61	25.53	25.56	-39.1	-40.0	23.1	0.00e+00	0	41	0	749731840	50	6448
2026-01-18 22:12:26.65	24.36	25.42	-39.6	-40.6	22.5	0.00e+00	0	40	0	757071872	50	6906
2026-01-18 22:12:30.69	23.20	25.27	-38.9	-39.9	22.9	0.00e+00	60	40	0	764411904	52	5640
2026-01-18 22:12:34.72	22.05	25.11	-39.9	-41.0	22.3	0.00e+00	0	41	0	771751936	52	6404
2026-01-18 22:12:38.76	20.91	24.94	-39.8	-40.9	22.4	0.00e+00	0	40	0	779091968	52	6327
2026-01-18 22:12:42.80	19.78	24.76	-40.6	-41.7	21.7	0.00e+00	69	41	0	787480576	52	7006
2026-01-18 22:12:46.83	18.67	24.56	-39.9	-41.0	22.2	0.00e+00	0	40	0	794820608	52	6398
2026-01-18 22:12:50.87	17.57	24.36	-40.5	-41.5	21.9	0.00e+00	0	40	0	802160640	52	6846
2026-01-18 22:12:54.90	16.49	24.14	-40.0	-41.0	22.3	0.00e+00	84	40	0	809500672	52	6425
2026-01-18 22:12:58.94	15.42	23.92	-40.2	-41.2	22.1	0.00e+00	0	40	0	817889280	52	6610
2026-01-18 22:13:02.97	14.37	23.69	-40.9	-42.1	21.2	0.00e+00	0	40	0	825229312	54	6505
2026-01-18 22:13:07.01	13.34	23.45	-39.5	-40.5	22.7	0.00e+00	0	41	0	832569344	52	6087
2026-01-18 22:13:11.05	12.32	23.20	-40.2	-41.2	21.8	0.00e+00	68	40	0	839909376	52	6603
2026-01-18 22:13:15.08	11.31	22.94	-40.9	-42.1	21.3	0.00e+00	0	41	0	847249408	54	6496
2026-01-18 22:13:19.13	10.33	22.68	-39.2	-40.1	23.0	0.00e+00	0	41	0	855638016	52	5808
2026-01-18 22:13:23.16	9.36	22.41	-39.4	-40.4	22.7	0.00e+00	0	40	0	862978048	52	5999
2026-01-18 22:13:27.20	8.40	22.14	-40.2	-41.3	22.0	0.00e+00	92	41	0	870318080	52	6689
2026-01-18 22:13:31.23	7.47	21.86	-38.9	-39.9	23.1	0.00e+00	0	41	0	877658112	52	5635
2026-01-18 22:13:35.27	6.55	21.58	-38.2	-39.1	23.6	0.00e+00	0	41	0	884998144	50	5787
2026-01-18 22:13:39.31	5.65	21.29	-38.7	-39.6	23.4	0.00e+00	80	41	0	893386752	50	6153
2026-01-18 22:13:43.35	4.76	20.99	-38.9	-39.9	23.1	0.00e+00	0	41	0	900726784	50	6334
2026-01-18 22:13:47.38	3.90	20.70	-38.5	-39.4	23.4	0.00e+00	0	40	0	908066816	50	5986
2026-01-18 22:13:51.42	3.05	20.40	-38.7	-39.6	23.3	0.00e+00	0	41	0	915406848	50	6135
2026-01-18 22:13:55.46	2.21	20.10	-39.4	-40.4	22.6	0.00e+00	80	40	0	923795456	50	6748
2026-01-18 22:13:59.49	1.39	19.79	-38.8	-39.8	23.3	0.00e+00	0	41	0	931135488	50	6254
2026-01-18 22:14:03.53	0.59	19.48	-39.3	-40.3	22.8	0.00e+00	0	41	0	938475520	50	6626
2026-01-18 22:14:07.57	359.81	19.17	-38.0	-38.9	23.8	0.00e+00	0	41	0	945815552	50	5666
2026-01-18 22:14:11.60	359.04	18.86	-37.6	-38.4	24.0	0.00e+00	78	41	0	953155584	48	5990
2026-01-18 22:14:15.64	358.29	18.55	-37.8	-38.7	23.7	0.00e+00	0	41	0	961544192	48	6200
2026-01-18 22:14:19.68	357.55	18.24	-38.4	-39.3	23.4	0.00e+00	0	41	0	968884224	48	6659
2026-01-18 22:14:23.72	356.83	17.92	-37.7	-38.6	23.9	0.00e+00	0	41	0	976224256	48	6141
2026-01-18 22:14:27.76	356.12	17.61	-38.4	-39.3	23.5	0.00e+00	84	41	0	983564288	48	6686
2026-01-18 22:14:31.79	355.43	17.29	-38.8	-39.7	23.1	0.00e+00	0	41	0	991952896	50	6225
2026-01-18 22:14:35.83	354.75	16.98	-38.2	-39.0	23.6	0.00e+00	0	40	0	999292928	50	5749
2026-01-18 22:14:39.86	354.09	16.66	-38.3	-39.2	23.5	0.00e+00	7	41	0	1006632960	48	6545
2026-01-18 22:14:43.89	353.44	16.35	-39.8	-40.8	22.2	0.00e+00	0	41	0	1013972992	50	7081
2026-01-18 22:14:47.93	352.81	16.03	-38.9	-39.9	22.9	0.00e+00	0	41	0	1021313024	52	5643
2026-01-18 22:14:51.96	352.19	15.72	-38.6	-39.5	22.8	0.00e+00	0	41	0	1029701632	50	6071
2026-01-18 22:14:56.00	351.58	15.40	-39.0	-40.0	22.9	0.00e+00	34	41	0	1037041664	50	6444
2026-01-18 22:15:00.04	350.98	15.09	-39.9	-41.0	21.9	0.00e+00	0	41	0	1044381696	52	6443
2026-01-18 22:15:04.07	350.40	14.78	-40.1	-41.2	21.9	0.00e+00	0	41	0	1051721728	54	5839
2026-01-18 22:15:08.11	349.83	14.47	-38.8	-39.7	23.0	0.00e+00	0	41	0	1060110336	50	6238
2026-01-18 22:15:12.15	349.27	14.16	-38.8	-39.7	22.9	0.00e+00	39	40	0	1067450368	50	6208
2026-01-18 22:15:16.19	348.72	13.85	-39.2	-40.1	22.7	0.00e+00	0	41	0	1074790400	50	6525
2026-01-18 22:15:20.23	348.19	13.54	-39.1	-40.0	22.7	0.00e+00	0	40	0	1082130432	50	6456
2026-01-18 22:15:24.26	347.66	13.24	-39.5	-40.5	22.4	0.00e+00	9	41	0	1089470464	50	6839
2026-01-18 22:15:28.30	347.15	12.93	-39.6	-40.7	22.3	0.00e+00	90	41	0	1097859072	50	6929
2026-01-18 22:15:32.34	346.65	12.63	-39.9	-40.9	22.0	0.00e+00	0	41	0	1105199104	52	6362
2026-01-18 22:15:36.37	346.16	12.33	-40.4	-41.6	21.5	0.00e+00	0	40	0	1112539136	52	6864
2026-01-18 22:15:40.41	345.68	12.03	-40.2	-41.3	21.7	0.00e+00	5	41	0	1119879168	52	6631
2026-01-18 22:15:44.44	345.21	11.73	-39.7	-40.7	22.1	0.00e+00	0	41	0	1128267776	52	6239
2026-01-18 22:15:48.48	344.74	11.43	-40.4	-41.6	21.4	0.00e+00	0	41	0	1135607808	52	6907
2026-01-18 22:15:52.52	344.29	11.14	-41.2	-42.5	20.6	0.00e+00	0	41	0	1142947840	54	6812
2026-01-18 22:15:56.56	343.85	10.85	-40.6	-41.8	21.3	0.00e+00	92	41	0	1150287872	54	6259
2026-01-18 22:16:00.59	343.41	10.56	-39.9	-41.0	21.9	0.00e+00	0	41	0	1157627904	54	5703
2026-01-18 22:16:04.63	342.99	10.27	-40.2	-41.3	21.6	0.00e+00	0	41	0	1166016512	54	5964
2026-01-18 22:16:08.67	342.57	9.98	-41.2	-42.6	20.5	0.00e+00	0	41	0	1173356544	54	6888
2026-01-18 22:16:12.70	342.16	9.69	-41.7	-43.2	20.0	0.00e+00	74	41	0	1180696576	56	6542
2026-01-18 22:16:16.74	341.76	9.41	-42.0	-43.5	19.6	0.00e+00	0	41	0	1188036608	56	6800
2026-01-18 22:16:20.77	341.37	9.13	-41.8	-43.3	19.8	0.00e+00	0	41	0	1195376640	56	6643
2026-01-18 22:16:24.80	340.99	8.85	-41.8	-43.3	19.8	0.00e+00	72	41	0	1203765248	56	6683
2026-01-18 22:16:28.84	340.61	8.57	-41.6	-43.1	20.1	0.00e+00	0	41	0	1211105280	56	6488
2026-01-18 22:16:32.88	340.24	8.29	-42.2	-43.8	19.3	0.00e+00	0	41	0	1218445312	56	7079
2026-01-18 22:16:36.92	339.88	8.02	-42.7	-44.5	18.5	0.00e+00	0	41	0	1225785344	58	6784
2026-01-18 22:16:40.96	339.52	7.75	-42.7	-44.5	18.5	0.00e+00	77	41	0	1234173952	58	6809
2026-01-18 22:16:45.00	339.18	7.48	-41.4	-42.8	20.1	0.00e+00	0	41	0	1241513984	56	6305
2026-01-18 22:16:49.04	338.83	7.21	-40.8	-42.1	20.8	0.00e+00	0	41	0	1248854016	56	5791
2026-01-18 22:16:53.08	338.50	6.94	-40.7	-42.0	20.6	0.00e+00	0	41	0	1256194048	54	6457
2026-01-18 22:16:57.12	338.17	6.68	-41.2	-42.6	20.3	0.00e+00	41	41	0	1263534080	54	6852
2026-01-18 22:17:01.16	337.85	6.41	-41.6	-43.0	19.8	0.00e+00	0	41	0	1271922688	54	7252
2026-01-18 22:17:05.20	337.53	6.15	-42.5	-44.2	18.6	0.00e+00	33	41	0	1279262720	56	7383
2026-01-18 22:17:09.24	337.22	5.89	-43.3	-45.4	17.3	0.00e+00	10	41	0	1286602752	58	7576
2026-01-18 22:17:13.29	336.91	5.63	-43.9	-46.6	15.7	0.00e+00	83	41	0	1293942784	60	7688
2026-01-18 22:17:17.33	336.61	5.37	-44.4	-48.0	13.4	6.10e-06	0	41	0	1302331392	60	9091
2026-01-18 22:17:21.37	336.32	5.12	-45.0	-50.4	9.8	8.65e-03	0	41	0	1309671424	60	11928
2026-01-18 22:17:25.40	336.03	4.87	-45.2	-52.8	6.3	1.68e-01	72	41	0	1317011456	60	15802
2026-01-18 22:17:29.44	335.75	4.62	-45.2	-55.2	4.0	1.01e+00	61	41	0	1324351488	60	20695
2026-01-18 22:17:33.48	335.47	4.37	-45.1	-59.1	3.6	1.51e+00	0	41	104	1325400064	60	32615
2026-01-18 22:17:37.52	335.20	4.12	-45.1	-60.1	3.6	1.51e+00	0	41	104	1325400064	60	36708
2026-01-18 22:17:41.55	334.93	3.87	-45.1	-60.2	3.6	1.51e+00	0	41	104	1325400064	60	37189
2026-01-18 22:17:45.59	334.66	3.63	-45.1	-60.3	3.6	1.51e+00	0	41	104	1325400064	60	37322
2026-01-18 22:17:49.64	334.40	3.38	-45.0	-60.2	3.6	1.51e+00	0	41	104	1325400064	60	37058
2026-01-18 22:17:53.67	334.15	3.14	-45.0	-60.2	3.6	1.51e+00	0	41	104	1325400064	60	36910
2026-01-18 22:17:57.71	333.90	2.90	-49.0	-64.2	3.6	1.51e+00	0	41	104	1325400064	60	58426
2026-01-18 22:18:01.75	333.65	2.66	-49.8	-65.0	3.6	1.51e+00	0	41	104	1325400064	60	64264
2026-01-18 22:18:05.79	333.41	2.43	-50.0	-65.3	3.6	1.51e+00	0	41	104	1325400064	60	66284
2026-01-18 22:18:09.82	333.17	2.19	-50.1	-65.3	3.6	1.51e+00	0	41	104	1325400064	60	66514
2026-01-18 22:18:13.86	332.94	1.96	-50.0	-65.2	3.6	1.51e+00	0	41	104	1325400064	60	65935
2026-01-18 22:18:17.90	332.71	1.73	-49.8	-65.1	3.6	1.51e+00	0	41	104	1325400064	60	64859
2026-01-18 22:18:21.94	332.48	1.49	-50.0	-65.2	3.6	1.51e+00	0	41	104	1325400064	60	65808
2026-01-18 22:18:25.97	332.26	1.27	-50.0	-65.2	3.6	1.51e+00	0	41	104	1325400064	60	65457
2026-01-18 22:18:30.01	332.04	1.04	-50.0	-65.2	3.6	1.51e+00	0	41	104	1325400064	60	65808
2026-01-18 22:18:34.05	331.83	0.81	-50.0	-65.2	3.6	1.51e+00	0	41	104	1325400064	60	65648
2026-01-18 22:18:38.09	331.62	0.58	-50.0	-65.1	3.5	1.51e+00	0	41	104	1325400064	60	64926
2026-01-18 22:18:42.12	331.41	0.36	-50.0	-65.2	3.6	1.51e+00	0	41	104	1325400064	60	65855
2026-01-18 22:18:46.16	331.20	0.14	-50.0	-65.2	3.6	1.51e+00	0	41	104	1325400064	60	65503

#Closed at: 2026-01-18 22:18:49
#Recorded file [1325 MB]: D:/lorett/data/35029_260119_100442.dat