passes_logs/2026/01/18/R4.6S_Anadyr/R4.6S_Anadyr__20260118_015324_TY-42_rec.log

#Pass ID: 20260118_015324_TY-42
#Satellite: TY-42
#Configuration: TY-42_900M
#almurnet v.1.7.20251203
#Start time: 2026-01-18 01:53:58

#Version: 2.2.20231116
#Station: R4.6S_Anadyr
#Location: 177.4865 lon 64.73178 lat
#TLE: 1 64048U 25103A   26017.54141204  .00008008  00000-0  38191-3 0 09991
#TLE: 2 64048 097.4124 092.9111 0001919 092.8629 297.5859 15.19160543 37202

#Time	Az	El	Level	Level2	SNR	BER	BlckErr	Temp	State	Recorded	gain1	gain2
2026-01-18 01:53:58.24	14.82	1.85	-49.2	-61.8	3.5	1.51e+00	0	29	0	0	60	43153
2026-01-18 01:54:01.27	14.49	2.02	-48.6	-51.2	6.1	0.00e+00	0	31	104	0	60	44263
2026-01-18 01:54:04.29	14.16	2.19	-48.8	-51.4	6.1	0.00e+00	0	31	104	0	60	45308
2026-01-18 01:54:07.32	13.83	2.36	-49.1	-51.6	6.1	0.00e+00	0	31	104	0	60	46787
2026-01-18 01:54:10.35	13.49	2.53	-49.2	-51.7	6.1	0.00e+00	0	32	104	0	60	47010
2026-01-18 01:54:13.38	13.14	2.70	-48.9	-51.5	6.1	0.00e+00	0	32	104	0	60	45887
2026-01-18 01:54:16.41	12.79	2.87	-49.0	-51.5	6.1	0.00e+00	0	32	104	0	60	45769
2026-01-18 01:54:19.44	12.43	3.04	-49.4	-51.9	6.1	0.00e+00	0	32	104	0	60	48066
2026-01-18 01:54:22.46	12.07	3.21	-49.5	-52.0	6.1	0.00e+00	0	32	104	0	60	48686
2026-01-18 01:54:25.49	11.70	3.39	-49.1	-51.6	6.1	0.00e+00	0	32	104	0	60	46603
2026-01-18 01:54:28.51	11.32	3.56	-48.8	-51.4	6.1	0.00e+00	0	32	104	0	60	45313
2026-01-18 01:54:31.54	10.94	3.73	-48.7	-51.3	6.1	0.00e+00	0	32	104	0	60	44932
2026-01-18 01:54:34.56	10.56	3.91	-48.7	-51.2	6.1	0.00e+00	0	32	104	0	60	44621
2026-01-18 01:54:37.59	10.17	4.08	-48.9	-51.4	6.1	0.00e+00	0	32	104	0	60	45682
2026-01-18 01:54:40.62	9.77	4.26	-49.0	-51.6	6.1	0.00e+00	0	32	104	0	60	46408
2026-01-18 01:54:43.65	9.36	4.43	-49.0	-51.6	6.1	0.00e+00	0	32	104	0	60	46422
2026-01-18 01:54:46.68	8.95	4.61	-50.0	-52.5	6.1	0.00e+00	0	32	104	0	60	51641
2026-01-18 01:54:49.70	8.53	4.79	-49.1	-51.7	6.1	0.00e+00	0	32	104	0	60	46957
2026-01-18 01:54:52.73	8.11	4.96	-48.8	-51.3	6.1	0.00e+00	0	32	104	0	60	45133
2026-01-18 01:54:55.76	7.68	5.14	-48.8	-51.3	6.1	0.00e+00	0	32	104	0	60	44894
2026-01-18 01:54:58.79	7.24	5.32	-49.0	-51.5	6.1	0.00e+00	0	33	104	0	60	46254
2026-01-18 01:55:01.82	6.80	5.50	-49.5	-51.9	6.1	0.00e+00	0	33	104	0	60	48399
2026-01-18 01:55:04.85	6.34	5.67	-48.8	-51.3	6.1	0.00e+00	0	33	104	0	60	45189
2026-01-18 01:55:07.88	5.89	5.85	-49.1	-51.7	6.1	0.00e+00	0	33	104	0	60	47167
2026-01-18 01:55:10.91	5.42	6.03	-49.5	-52.0	6.1	0.00e+00	0	33	104	0	60	48504
2026-01-18 01:55:13.94	4.95	6.21	-49.1	-51.6	6.1	0.00e+00	0	33	104	0	60	46434
2026-01-18 01:55:16.96	4.47	6.39	-48.7	-51.2	6.1	0.00e+00	0	33	104	0	60	44547
2026-01-18 01:55:19.99	3.98	6.56	-49.1	-51.7	6.1	0.00e+00	0	33	104	0	60	46983
2026-01-18 01:55:23.01	3.48	6.74	-49.5	-52.1	6.1	0.00e+00	0	33	104	0	60	49146
2026-01-18 01:55:26.04	2.98	6.92	-48.8	-51.3	6.1	0.00e+00	0	33	104	0	60	44851
2026-01-18 01:55:29.07	2.47	7.10	-49.4	-51.8	6.1	0.00e+00	0	33	104	0	60	47900
2026-01-18 01:55:32.09	1.95	7.28	-49.8	-52.4	6.1	0.00e+00	0	33	104	0	60	50784
2026-01-18 01:55:35.12	1.42	7.45	-49.3	-51.8	6.1	0.00e+00	0	33	104	0	60	47766
2026-01-18 01:55:38.15	0.89	7.63	-49.2	-51.7	6.1	0.00e+00	0	33	104	0	60	47334
2026-01-18 01:55:41.18	0.34	7.81	-49.0	-51.6	6.1	0.00e+00	0	33	104	0	60	46305
2026-01-18 01:55:44.21	359.79	7.98	-49.0	-51.5	6.1	0.00e+00	0	33	104	0	60	46168
2026-01-18 01:55:47.24	359.23	8.16	-49.4	-51.9	6.1	0.00e+00	0	33	104	0	60	48080
2026-01-18 01:55:50.27	358.66	8.34	-49.3	-51.8	6.1	0.00e+00	0	33	104	0	60	47552
2026-01-18 01:55:53.30	358.08	8.51	-49.3	-51.8	6.1	0.00e+00	0	33	104	0	60	47815
2026-01-18 01:55:56.33	357.49	8.68	-49.5	-52.0	6.1	0.00e+00	0	33	104	0	60	48964
2026-01-18 01:55:59.36	356.89	8.86	-50.0	-52.5	6.1	0.00e+00	0	33	104	0	60	51604
2026-01-18 01:56:02.39	356.29	9.03	-79.4	-78.7	4.8	0.00e+00	0	33	104	0	60	1048539
2026-01-18 01:56:05.43	355.67	9.20	-50.3	-52.8	6.1	0.00e+00	0	33	104	0	60	53495
2026-01-18 01:56:08.46	355.05	9.37	-50.0	-52.4	6.0	0.00e+00	0	33	104	0	60	51323
2026-01-18 01:56:11.48	354.42	9.54	-49.6	-52.2	6.1	0.00e+00	0	33	104	0	60	49631
2026-01-18 01:56:14.51	353.78	9.71	-49.7	-52.1	6.1	0.00e+00	0	33	104	0	60	49314
2026-01-18 01:56:17.54	353.13	9.87	-49.4	-51.9	6.1	0.00e+00	0	33	104	0	60	48107
2026-01-18 01:56:20.57	352.47	10.03	-49.3	-51.8	6.1	0.00e+00	0	33	104	0	60	47449
2026-01-18 01:56:23.59	351.80	10.20	-49.5	-52.0	6.1	0.00e+00	0	34	104	0	60	48682
2026-01-18 01:56:26.62	351.12	10.36	-49.2	-51.6	6.1	0.00e+00	0	34	104	0	60	46662
2026-01-18 01:56:29.65	350.43	10.52	-49.1	-51.6	6.1	0.00e+00	0	34	104	0	60	46550
2026-01-18 01:56:32.68	349.74	10.67	-49.8	-52.3	6.1	0.00e+00	0	34	104	0	60	50340
2026-01-18 01:56:35.71	349.03	10.83	-49.2	-51.6	6.1	0.00e+00	0	34	104	0	60	46593
2026-01-18 01:56:38.73	348.32	10.98	-49.2	-51.7	6.1	0.00e+00	0	34	104	0	60	47093
2026-01-18 01:56:41.76	347.60	11.13	-49.5	-51.9	6.1	0.00e+00	0	34	104	0	60	48409
2026-01-18 01:56:44.79	346.86	11.27	-49.4	-51.9	6.1	0.00e+00	0	34	104	0	60	48044
2026-01-18 01:56:47.81	346.12	11.41	-49.5	-51.9	6.1	0.00e+00	0	34	104	0	60	48123
2026-01-18 01:56:50.84	345.37	11.56	-49.2	-51.6	6.1	0.00e+00	0	34	104	0	60	46743
2026-01-18 01:56:53.87	344.61	11.69	-49.5	-52.0	6.1	0.00e+00	0	34	104	0	60	48571
2026-01-18 01:56:56.89	343.85	11.83	-49.5	-52.1	6.1	0.00e+00	0	34	104	0	60	49062
2026-01-18 01:56:59.92	343.07	11.96	-49.5	-51.9	6.1	0.00e+00	0	34	104	0	60	48305
2026-01-18 01:57:02.94	342.29	12.08	-49.4	-51.9	6.1	0.00e+00	0	34	104	0	60	48017
2026-01-18 01:57:05.98	341.49	12.21	-49.6	-52.0	6.1	0.00e+00	0	34	104	0	60	48646
2026-01-18 01:57:09.00	340.69	12.33	-49.6	-52.1	6.1	0.00e+00	0	34	104	0	60	49221
2026-01-18 01:57:12.03	339.89	12.44	-49.5	-51.9	6.1	0.00e+00	0	34	104	0	60	48461
2026-01-18 01:57:15.06	339.07	12.56	-49.2	-51.6	6.1	0.00e+00	0	34	104	0	60	46635
2026-01-18 01:57:18.09	338.24	12.66	-49.8	-52.2	6.1	0.00e+00	0	34	104	0	60	50149
2026-01-18 01:57:21.12	337.41	12.77	-49.3	-51.8	6.1	0.00e+00	0	34	104	0	60	47892
2026-01-18 01:57:24.15	336.57	12.86	-49.5	-51.9	6.1	0.00e+00	0	34	104	0	60	48311
2026-01-18 01:57:27.18	335.73	12.96	-49.1	-51.5	6.1	0.00e+00	0	34	104	0	60	46245
2026-01-18 01:57:30.20	334.88	13.04	-49.6	-52.1	6.1	0.00e+00	0	34	104	0	60	49150
2026-01-18 01:57:33.23	334.02	13.13	-49.2	-51.7	6.1	0.00e+00	0	34	104	0	60	47182
2026-01-18 01:57:36.26	333.16	13.21	-49.2	-51.7	6.1	0.00e+00	0	34	104	0	60	47246
2026-01-18 01:57:39.29	332.29	13.28	-49.1	-51.7	6.1	0.00e+00	0	34	104	0	60	46916
2026-01-18 01:57:42.31	331.42	13.35	-27.0	-27.3	13.5	0.00e+00	53	34	104	0	30	15887
2026-01-18 01:57:45.34	330.54	13.41	-27.4	-27.8	16.0	9.51e-03	0	34	0	260046848	32	15048
2026-01-18 01:57:48.37	329.66	13.47	-45.0	-46.0	7.9	2.14e-03	0	34	104	536870912	60	24569
2026-01-18 01:57:51.39	328.78	13.52	-30.2	-30.7	14.9	2.14e-02	0	34	0	746586112	34	18714
2026-01-18 01:57:54.41	327.89	13.56	-31.0	-31.4	14.7	7.42e-03	0	34	0	1090519040	36	18171
2026-01-18 01:57:57.44	327.00	13.60	-27.2	-27.6	16.0	9.72e-03	0	34	0	1426063360	30	16524
2026-01-18 01:58:00.47	326.10	13.63	-25.9	-26.3	16.3	3.81e-05	0	34	0	1769996288	26	17842
2026-01-18 01:58:03.50	325.20	13.66	-25.8	-26.2	16.3	4.90e-05	0	34	0	2105540608	26	17695
2026-01-18 01:58:06.53	324.30	13.68	-25.8	-26.2	16.3	3.26e-05	0	34	0	2449473536	26	17776
2026-01-18 01:58:09.55	323.41	13.70	-26.5	-26.9	16.2	1.08e-05	0	34	0	2793406464	28	17159
2026-01-18 01:58:12.58	322.50	13.71	-25.7	-26.1	16.4	7.08e-05	0	34	0	3128950784	26	17510
2026-01-18 01:58:15.62	321.60	13.71	-25.9	-26.3	16.4	1.63e-05	0	34	0	3472883712	26	17823
2026-01-18 01:58:18.65	320.69	13.71	-25.8	-26.2	16.5	2.17e-05	0	34	0	3808428032	26	17782
2026-01-18 01:58:21.68	319.79	13.70	-25.9	-26.3	16.6	5.40e-06	0	34	0	4152360960	26	17931
2026-01-18 01:58:24.70	318.89	13.69	-26.0	-26.4	16.6	1.63e-05	0	34	0	4496293888	26	18117
2026-01-18 01:58:27.73	317.99	13.66	-25.7	-26.2	16.6	2.72e-05	0	35	0	4831838208	26	17680
2026-01-18 01:58:30.76	317.09	13.64	-25.5	-25.9	16.6	2.17e-05	0	34	0	5175771136	26	17161
2026-01-18 01:58:33.78	316.20	13.60	-25.7	-26.2	16.7	2.72e-05	0	35	0	5511315456	26	17741
2026-01-18 01:58:36.81	315.31	13.57	-25.7	-26.2	16.7	3.26e-05	0	35	0	5855248384	26	17655
2026-01-18 01:58:39.84	314.42	13.52	-25.8	-26.3	16.7	1.63e-05	0	35	0	6190792704	26	17989
2026-01-18 01:58:42.87	313.53	13.47	-25.7	-26.3	16.9	2.17e-05	0	34	0	6534725632	26	17819
2026-01-18 01:58:45.90	312.64	13.41	-26.0	-26.5	16.8	1.08e-05	0	35	0	6878658560	26	18391
2026-01-18 01:58:48.93	311.76	13.35	-25.9	-26.4	16.9	0.00e+00	0	35	0	7214202880	26	18091
2026-01-18 01:58:51.96	310.89	13.29	-48.8	-51.4	6.1	0.00e+00	0	34	104	7482638336	60	45320
2026-01-18 01:58:54.99	310.02	13.21	-48.9	-51.4	6.1	5.40e-06	0	34	104	7482638336	60	45498
2026-01-18 01:58:58.02	309.15	13.13	-48.9	-51.4	6.1	5.40e-06	0	34	104	7482638336	60	45767
2026-01-18 01:59:01.05	308.29	13.05	-48.7	-51.3	6.0	5.40e-06	0	34	104	7482638336	60	44916
2026-01-18 01:59:04.07	307.44	12.96	-48.3	-50.9	6.1	5.40e-06	0	34	104	7482638336	60	42899
2026-01-18 01:59:07.10	306.60	12.87	-48.9	-51.4	6.1	5.40e-06	0	34	104	7482638336	60	45744
2026-01-18 01:59:10.13	305.76	12.77	-48.8	-51.3	6.1	0.00e+00	0	34	104	7482638336	60	45215
2026-01-18 01:59:13.16	304.92	12.67	-48.6	-51.2	6.1	0.00e+00	0	34	104	7482638336	60	44656
2026-01-18 01:59:16.18	304.10	12.56	-48.5	-51.2	6.1	0.00e+00	0	34	104	7482638336	60	44394
2026-01-18 01:59:19.21	303.28	12.45	-49.0	-51.6	6.1	0.00e+00	0	34	104	7482638336	60	46502
2026-01-18 01:59:22.24	302.47	12.34	-48.7	-51.2	6.1	0.00e+00	0	34	104	7482638336	60	44663
2026-01-18 01:59:25.27	301.66	12.22	-48.7	-51.2	6.1	0.00e+00	0	34	104	7482638336	60	44686
2026-01-18 01:59:28.30	300.87	12.09	-49.6	-52.0	6.1	0.00e+00	0	34	104	7482638336	60	48843
2026-01-18 01:59:31.33	300.08	11.97	-49.2	-51.8	6.1	0.00e+00	0	34	104	7482638336	60	47418
2026-01-18 01:59:34.35	299.30	11.83	-49.4	-51.9	6.1	0.00e+00	0	34	104	7482638336	60	48368
2026-01-18 01:59:37.38	298.53	11.70	-49.3	-51.8	6.1	0.00e+00	0	34	104	7482638336	60	47683
2026-01-18 01:59:40.41	297.77	11.56	-49.4	-51.8	6.1	0.00e+00	0	34	104	7482638336	60	47831
2026-01-18 01:59:43.44	297.01	11.42	-49.0	-51.5	6.1	0.00e+00	0	34	104	7482638336	60	46230
2026-01-18 01:59:46.46	296.27	11.28	-49.1	-51.6	6.1	0.00e+00	0	34	104	7482638336	60	46517
2026-01-18 01:59:49.49	295.53	11.13	-49.1	-51.5	6.1	0.00e+00	0	34	104	7482638336	60	46220
2026-01-18 01:59:52.52	294.81	10.98	-49.1	-51.6	6.1	0.00e+00	0	34	104	7482638336	60	46443
2026-01-18 01:59:55.55	294.09	10.83	-49.0	-51.5	6.1	0.00e+00	0	34	104	7482638336	60	45775
2026-01-18 01:59:58.58	293.38	10.68	-49.5	-52.0	6.1	0.00e+00	0	34	104	7482638336	60	48824
2026-01-18 02:00:01.61	292.68	10.52	-48.8	-51.2	6.1	0.00e+00	0	34	104	7482638336	60	44599
2026-01-18 02:00:04.64	291.99	10.36	-48.7	-51.1	6.1	0.00e+00	0	34	104	7482638336	60	44199
2026-01-18 02:00:07.67	291.31	10.20	-48.6	-51.1	6.1	0.00e+00	0	34	104	7482638336	60	43988
2026-01-18 02:00:10.69	290.64	10.04	-48.7	-51.2	6.1	0.00e+00	0	34	104	7482638336	60	44407
2026-01-18 02:00:13.72	289.97	9.87	-48.8	-51.2	6.1	0.00e+00	0	34	104	7482638336	60	44616
2026-01-18 02:00:16.75	289.32	9.71	-48.8	-51.2	6.1	0.00e+00	0	34	104	7482638336	60	44656
2026-01-18 02:00:19.77	288.68	9.54	-48.6	-51.1	6.1	0.00e+00	0	34	104	7482638336	60	44017
2026-01-18 02:00:22.80	288.04	9.37	-48.7	-51.2	6.1	0.00e+00	0	34	104	7482638336	60	44412
2026-01-18 02:00:25.83	287.41	9.20	-48.8	-51.2	6.1	0.00e+00	0	34	104	7482638336	60	44596
2026-01-18 02:00:28.86	286.80	9.03	-48.7	-51.2	6.1	0.00e+00	0	34	104	7482638336	60	44336
2026-01-18 02:00:31.89	286.19	8.86	-48.7	-51.2	6.1	0.00e+00	0	34	104	7482638336	60	44342
2026-01-18 02:00:34.92	285.59	8.68	-48.7	-51.1	6.1	0.00e+00	0	34	104	7482638336	60	43954
2026-01-18 02:00:37.95	285.00	8.51	-48.8	-51.2	6.1	0.00e+00	0	34	104	7482638336	60	44599
2026-01-18 02:00:40.98	284.41	8.33	-48.8	-51.2	6.1	0.00e+00	0	34	104	7482638336	60	44585
2026-01-18 02:00:44.00	283.84	8.16	-48.6	-51.0	6.1	0.00e+00	0	34	104	7482638336	60	43557
2026-01-18 02:00:47.03	283.28	7.98	-48.7	-51.1	6.1	0.00e+00	0	34	104	7482638336	60	44028
2026-01-18 02:00:50.06	282.72	7.81	-48.5	-51.0	6.0	0.00e+00	0	34	104	7482638336	60	43239
2026-01-18 02:00:53.09	282.17	7.63	-48.4	-50.9	6.1	0.00e+00	0	34	104	7482638336	60	42831
2026-01-18 02:00:56.12	281.63	7.45	-48.5	-50.9	6.1	0.00e+00	0	34	104	7482638336	60	43135
2026-01-18 02:00:59.14	281.10	7.27	-48.5	-51.0	6.1	0.00e+00	0	34	104	7482638336	60	43345
2026-01-18 02:01:02.17	280.58	7.09	-48.5	-50.9	6.1	0.00e+00	0	34	104	7482638336	60	43124
2026-01-18 02:01:05.20	280.07	6.92	-48.4	-50.9	6.1	0.00e+00	0	34	104	7482638336	60	42905
2026-01-18 02:01:08.22	279.56	6.74	-48.4	-50.8	6.1	0.00e+00	0	34	104	7482638336	60	42699
2026-01-18 02:01:11.25	279.06	6.56	-48.5	-51.0	6.1	0.00e+00	0	34	104	7482638336	60	43364
2026-01-18 02:01:14.28	278.57	6.38	-48.4	-50.9	6.1	0.00e+00	0	34	104	7482638336	60	42866
2026-01-18 02:01:17.31	278.08	6.20	-48.3	-50.8	6.1	0.00e+00	0	34	104	7482638336	60	42251
2026-01-18 02:01:20.34	277.61	6.02	-48.2	-50.6	6.1	0.00e+00	0	34	104	7482638336	60	41681
2026-01-18 02:01:23.37	277.14	5.84	-48.2	-50.7	6.1	0.00e+00	0	34	104	7482638336	60	42044
2026-01-18 02:01:26.40	276.68	5.66	-48.2	-50.7	6.1	0.00e+00	0	34	104	7482638336	60	41832
2026-01-18 02:01:29.42	276.22	5.49	-48.2	-50.7	6.1	0.00e+00	0	34	104	7482638336	60	42045
2026-01-18 02:01:32.45	275.77	5.31	-48.1	-50.6	6.1	0.00e+00	0	34	104	7482638336	60	41502
2026-01-18 02:01:35.48	275.33	5.13	-48.2	-50.6	6.1	0.00e+00	0	34	104	7482638336	60	41666
2026-01-18 02:01:38.51	274.90	4.95	-48.2	-50.7	6.1	0.00e+00	0	34	104	7482638336	60	41945
2026-01-18 02:01:41.53	274.47	4.77	-48.2	-50.6	6.1	0.00e+00	0	34	104	7482638336	60	41559
2026-01-18 02:01:44.55	274.05	4.60	-48.0	-50.5	6.1	0.00e+00	0	34	104	7482638336	60	40805
2026-01-18 02:01:47.57	273.64	4.42	-48.1	-50.6	6.1	0.00e+00	0	34	104	7482638336	60	41290
2026-01-18 02:01:50.61	273.23	4.24	-48.1	-50.6	6.1	0.00e+00	0	34	104	7482638336	60	41467
2026-01-18 02:01:53.63	272.83	4.07	-47.9	-50.4	6.1	0.00e+00	0	34	104	7482638336	60	40703
2026-01-18 02:01:56.66	272.43	3.89	-47.8	-50.2	6.1	0.00e+00	0	34	104	7482638336	60	39790
2026-01-18 02:01:59.69	272.05	3.72	-47.7	-50.1	6.1	0.00e+00	0	34	104	7482638336	60	39359
2026-01-18 02:02:02.72	271.66	3.54	-47.8	-50.3	6.1	0.00e+00	0	34	104	7482638336	60	40127
2026-01-18 02:02:05.74	271.29	3.37	-47.7	-50.2	6.1	0.00e+00	0	34	104	7482638336	60	39608
2026-01-18 02:02:08.77	270.91	3.20	-47.5	-50.0	6.1	0.00e+00	0	34	104	7482638336	60	38558
2026-01-18 02:02:11.80	270.55	3.02	-47.4	-49.9	6.1	0.00e+00	0	34	104	7482638336	60	38282
2026-01-18 02:02:14.83	270.19	2.85	-48.8	-51.3	6.1	0.00e+00	0	34	104	7482638336	60	45035
2026-01-18 02:02:17.86	269.83	2.68	-49.1	-51.5	6.1	0.00e+00	0	34	104	7482638336	60	46042
2026-01-18 02:02:20.88	269.48	2.51	-49.2	-51.6	6.1	0.00e+00	0	34	104	7482638336	60	46469
2026-01-18 02:02:23.91	269.14	2.34	-49.0	-51.5	6.1	0.00e+00	0	34	104	7482638336	60	46150
2026-01-18 02:02:26.94	268.80	2.17	-49.6	-52.1	6.1	0.00e+00	0	34	104	7482638336	60	49387
2026-01-18 02:02:29.97	268.46	2.00	-49.4	-51.8	6.1	0.00e+00	0	34	104	7482638336	60	47792
2026-01-18 02:02:33.00	268.13	1.83	-49.5	-52.0	6.1	0.00e+00	0	34	104	7482638336	60	48726
2026-01-18 02:02:36.03	267.81	1.66	-49.5	-52.0	6.1	0.00e+00	0	34	104	7482638336	60	48606
2026-01-18 02:02:39.06	267.49	1.49	-49.3	-51.8	6.1	0.00e+00	0	34	104	7482638336	60	47585
2026-01-18 02:02:42.09	267.17	1.32	-49.3	-51.8	6.1	0.00e+00	0	34	104	7482638336	60	47609
2026-01-18 02:02:45.12	266.86	1.15	-49.5	-51.9	6.1	0.00e+00	0	34	104	7482638336	60	48283
2026-01-18 02:02:48.14	266.56	0.99	-49.5	-51.9	6.1	0.00e+00	0	34	104	7482638336	60	48368
2026-01-18 02:02:51.17	266.26	0.82	-49.3	-51.7	6.1	0.00e+00	0	34	104	7482638336	60	47074
2026-01-18 02:02:54.21	265.96	0.66	-49.7	-52.1	6.1	0.00e+00	0	34	104	7482638336	60	49246
2026-01-18 02:02:57.24	265.67	0.49	-49.5	-51.9	6.1	0.00e+00	0	34	104	7482638336	60	48326
2026-01-18 02:03:00.26	265.38	0.33	-49.3	-51.8	6.1	0.00e+00	0	34	104	7482638336	60	47595
2026-01-18 02:03:03.29	265.09	0.17	-49.6	-52.1	6.1	0.00e+00	0	34	104	7482638336	60	49156
2026-01-18 02:03:06.33	264.81	0.00	-49.5	-51.9	6.1	0.00e+00	0	34	104	7482638336	60	48144

#Closed at: 2026-01-18 02:03:08
#Recorded file [7482 MB]: D:/lorett/data/35029_260118_135358.dat