passes_logs/2026/01/18/R4.6S_Anadyr/R4.6S_Anadyr__20260118_024110_FENGYUN_3D_rec.log

#Pass ID: 20260118_024110_FENGYUN 3D
#Satellite: FENGYUN 3D
#Configuration: FENGYUN 3D
#almurnet v.1.7.20251203
#Start time: 2026-01-18 02:41:12

#Version: 2.2.20231116
#Station: R4.6S_Anadyr
#Location: 177.4865 lon 64.73178 lat
#TLE: 1 43010U 17072A   26017.61121112  .00000213  00000+0  12257-3 0  9991
#TLE: 2 43010  98.9934 349.4672 0002374 103.9362 256.2078 14.19696413423628

#Time	Az	El	Level	Level2	SNR	BER	BlckErr	Temp	State	Recorded	gain1	gain2
2026-01-18 02:41:12.44	166.67	0.13	-50.3	-68.0	3.5	3.02e+01	0	28	0	0	60	96983
2026-01-18 02:41:16.48	166.74	0.37	-50.0	-62.1	3.6	8.45e-01	0	30	104	0	60	45968
2026-01-18 02:41:20.52	166.81	0.62	-49.1	-61.2	3.6	8.45e-01	0	30	104	0	60	41728
2026-01-18 02:41:24.56	166.88	0.86	-49.1	-61.2	3.6	8.45e-01	0	30	104	0	60	41306
2026-01-18 02:41:28.60	166.95	1.11	-48.6	-60.7	3.6	8.44e-01	0	30	104	0	60	39079
2026-01-18 02:41:32.64	167.02	1.36	-47.3	-59.5	3.6	8.45e-01	0	30	104	0	60	33962
2026-01-18 02:41:36.68	167.09	1.62	-47.4	-59.5	3.6	8.45e-01	0	30	104	0	60	34032
2026-01-18 02:41:40.71	167.16	1.87	-47.3	-59.1	3.6	8.45e-01	0	30	104	0	60	32580
2026-01-18 02:41:44.76	167.24	2.13	-47.2	-59.2	3.6	8.45e-01	0	30	104	0	60	33117
2026-01-18 02:41:48.80	167.31	2.39	-47.2	-58.7	3.6	8.45e-01	0	30	104	0	60	31270
2026-01-18 02:41:52.83	167.39	2.65	-47.0	-56.9	3.6	8.45e-01	0	30	104	0	60	25343
2026-01-18 02:41:56.88	167.46	2.92	-46.8	-54.2	4.1	8.32e-01	0	30	0	0	60	18523
2026-01-18 02:42:00.91	167.54	3.18	-41.3	-42.8	15.8	1.10e-06	0	30	0	18874368	56	6303
2026-01-18 02:42:04.96	167.62	3.45	-37.2	-38.2	20.1	0.00e+00	0	30	0	41943040	48	5849
2026-01-18 02:42:09.00	167.70	3.73	-37.2	-38.1	20.1	0.00e+00	0	30	0	63963136	48	5784
2026-01-18 02:42:13.04	167.78	4.00	-47.0	-56.5	3.6	3.86e-01	0	30	104	85983232	60	24171
2026-01-18 02:42:17.08	167.87	4.28	-41.8	-43.5	15.1	0.00e+00	0	30	0	101711872	58	6039
2026-01-18 02:42:21.12	167.95	4.56	-39.9	-41.1	17.6	0.00e+00	0	30	0	124780544	50	7332
2026-01-18 02:42:25.16	168.04	4.84	-40.4	-41.7	18.5	0.00e+00	0	30	0	147849216	52	6971
2026-01-18 02:42:29.20	168.12	5.13	-38.1	-39.1	19.3	0.00e+00	0	30	0	169869312	50	5790
2026-01-18 02:42:33.24	168.21	5.42	-37.6	-38.5	19.6	0.00e+00	0	30	0	192937984	48	6088
2026-01-18 02:42:37.28	168.30	5.71	-36.8	-37.6	20.7	0.00e+00	0	30	0	216006656	46	6155
2026-01-18 02:42:41.32	168.40	6.01	-36.2	-37.0	21.6	0.00e+00	0	30	0	239075328	46	5746
2026-01-18 02:42:45.35	168.49	6.31	-36.0	-36.8	21.9	0.00e+00	0	30	0	261095424	44	6277
2026-01-18 02:42:49.39	168.59	6.61	-35.4	-36.1	22.3	0.00e+00	0	30	0	284164096	44	5816
2026-01-18 02:42:53.43	168.68	6.92	-35.2	-35.9	22.7	0.00e+00	0	30	0	306184192	42	6384
2026-01-18 02:42:57.47	168.78	7.23	-34.5	-35.3	23.3	0.00e+00	0	31	0	329252864	42	5902
2026-01-18 02:43:01.51	168.88	7.54	-34.5	-35.2	23.3	0.00e+00	0	30	0	352321536	42	5871
2026-01-18 02:43:05.55	168.98	7.86	-34.3	-35.0	23.7	0.00e+00	0	30	0	374341632	42	5718
2026-01-18 02:43:09.58	169.09	8.18	-34.0	-34.7	24.1	0.00e+00	0	30	0	397410304	42	5544
2026-01-18 02:43:13.63	169.20	8.51	-34.0	-34.7	23.9	0.00e+00	0	30	0	420478976	42	5551
2026-01-18 02:43:17.66	169.30	8.84	-33.9	-34.6	24.1	0.00e+00	0	30	0	443547648	40	6123
2026-01-18 02:43:21.70	169.42	9.17	-34.0	-34.7	23.9	0.00e+00	0	31	0	465567744	40	6234
2026-01-18 02:43:25.74	169.53	9.51	-33.6	-34.3	24.5	0.00e+00	0	31	0	488636416	40	5930
2026-01-18 02:43:29.77	169.64	9.85	-33.4	-34.1	24.7	0.00e+00	0	31	0	510656512	40	5809
2026-01-18 02:43:33.81	169.76	10.20	-33.6	-34.3	24.6	0.00e+00	0	31	0	533725184	40	5912
2026-01-18 02:43:37.85	169.88	10.56	-33.9	-34.5	24.4	0.00e+00	0	31	0	556793856	40	6103
2026-01-18 02:43:41.89	170.01	10.92	-33.8	-34.5	24.4	0.00e+00	0	30	0	578813952	40	6058
2026-01-18 02:43:45.93	170.13	11.28	-33.4	-34.0	24.8	0.00e+00	0	31	0	601882624	40	5754
2026-01-18 02:43:49.97	170.26	11.65	-33.6	-34.3	24.6	0.00e+00	0	31	0	624951296	40	5959
2026-01-18 02:43:54.01	170.39	12.02	-33.5	-34.2	24.7	0.00e+00	0	31	0	648019968	40	5856
2026-01-18 02:43:58.05	170.53	12.40	-33.5	-34.2	24.8	0.00e+00	0	30	0	670040064	40	5887
2026-01-18 02:44:02.08	170.67	12.79	-33.5	-34.2	24.8	0.00e+00	0	31	0	693108736	40	5856
2026-01-18 02:44:06.12	170.81	13.18	-33.4	-34.1	24.8	0.00e+00	0	31	0	715128832	40	5798
2026-01-18 02:44:10.16	170.95	13.58	-33.2	-33.9	25.0	0.00e+00	0	31	0	738197504	40	5688
2026-01-18 02:44:14.20	171.10	13.98	-33.0	-33.6	25.4	0.00e+00	0	31	0	761266176	38	6165
2026-01-18 02:44:18.24	171.25	14.40	-32.5	-33.2	25.7	0.00e+00	0	31	0	783286272	38	5849
2026-01-18 02:44:22.28	171.41	14.82	-32.2	-32.9	25.9	0.00e+00	0	31	0	806354944	38	5664
2026-01-18 02:44:26.32	171.57	15.24	-31.9	-32.5	26.1	0.00e+00	0	31	0	829423616	38	5428
2026-01-18 02:44:30.36	171.73	15.68	-32.1	-32.8	26.1	0.00e+00	0	31	0	852492288	38	5591
2026-01-18 02:44:34.40	171.90	16.12	-31.9	-32.5	26.4	0.00e+00	0	31	0	874512384	38	5423
2026-01-18 02:44:38.44	172.07	16.57	-31.7	-32.3	26.6	0.00e+00	0	31	0	897581056	36	5935
2026-01-18 02:44:42.48	172.25	17.02	-31.5	-32.1	26.7	0.00e+00	0	31	0	919601152	36	5805
2026-01-18 02:44:46.52	172.44	17.49	-31.3	-32.0	26.9	0.00e+00	0	31	0	942669824	36	5714
2026-01-18 02:44:50.56	172.63	17.96	-31.4	-32.0	26.8	0.00e+00	0	31	0	965738496	36	5742
2026-01-18 02:44:54.59	172.82	18.45	-31.6	-32.3	26.8	0.00e+00	0	31	0	987758592	36	5902
2026-01-18 02:44:58.63	173.02	18.94	-31.6	-32.2	26.8	0.00e+00	0	31	0	1010827264	36	5872
2026-01-18 02:45:02.67	173.23	19.44	-31.3	-31.9	27.0	0.00e+00	0	31	0	1033895936	36	5654
2026-01-18 02:45:06.71	173.44	19.95	-31.0	-31.6	27.2	0.00e+00	0	31	0	1056964608	36	5453
2026-01-18 02:45:10.74	173.66	20.48	-30.8	-31.5	27.3	0.00e+00	0	31	0	1078984704	36	5378
2026-01-18 02:45:14.78	173.88	21.01	-30.9	-31.5	27.2	0.00e+00	0	31	0	1102053376	36	5404
2026-01-18 02:45:18.82	174.12	21.55	-30.9	-31.5	27.3	0.00e+00	0	31	0	1124073472	36	5412
2026-01-18 02:45:22.86	174.36	22.11	-30.6	-31.2	27.4	0.00e+00	0	31	0	1147142144	34	5857
2026-01-18 02:45:26.91	174.61	22.68	-30.5	-31.1	27.5	0.00e+00	0	31	0	1170210816	34	5822
2026-01-18 02:45:30.95	174.87	23.26	-30.1	-30.7	27.9	0.00e+00	0	31	0	1192230912	34	5551
2026-01-18 02:45:34.98	175.14	23.85	-30.3	-31.0	27.8	0.00e+00	0	31	0	1215299584	34	5707
2026-01-18 02:45:39.02	175.42	24.46	-30.3	-30.9	27.9	0.00e+00	0	31	0	1238368256	34	5694
2026-01-18 02:45:43.06	175.71	25.08	-30.2	-30.8	27.9	0.00e+00	0	31	0	1261436928	34	5609
2026-01-18 02:45:47.10	176.01	25.72	-30.0	-30.6	28.0	0.00e+00	0	31	0	1283457024	34	5472
2026-01-18 02:45:51.14	176.32	26.37	-30.0	-30.7	28.1	0.00e+00	0	31	0	1306525696	34	5511
2026-01-18 02:45:55.18	176.64	27.03	-29.8	-30.4	28.2	0.00e+00	0	31	0	1328545792	32	6023
2026-01-18 02:45:59.21	176.98	27.71	-29.6	-30.2	28.3	0.00e+00	0	31	0	1351614464	32	5879
2026-01-18 02:46:03.25	177.33	28.41	-30.0	-30.6	28.0	0.00e+00	0	31	0	1374683136	32	6143
2026-01-18 02:46:07.29	177.70	29.12	-29.8	-30.4	28.2	0.00e+00	0	31	0	1396703232	32	6023
2026-01-18 02:46:11.32	178.08	29.85	-29.7	-30.3	28.2	0.00e+00	0	31	0	1419771904	32	5930
2026-01-18 02:46:15.36	178.48	30.60	-29.7	-30.3	28.3	0.00e+00	0	31	0	1442840576	32	5935
2026-01-18 02:46:19.40	178.90	31.36	-29.6	-30.2	28.4	0.00e+00	0	30	0	1464860672	32	5845
2026-01-18 02:46:23.44	179.34	32.15	-29.9	-30.5	28.3	0.00e+00	0	31	0	1487929344	32	6043
2026-01-18 02:46:27.47	179.80	32.95	-29.9	-30.5	28.3	0.00e+00	0	31	0	1510998016	32	6075
2026-01-18 02:46:31.51	180.28	33.78	-30.1	-30.7	28.2	0.00e+00	0	31	0	1533018112	32	6196
2026-01-18 02:46:35.54	180.78	34.62	-29.6	-30.2	28.4	0.00e+00	0	31	0	1556086784	32	5870
2026-01-18 02:46:39.58	181.32	35.49	-29.3	-30.0	28.6	0.00e+00	0	31	0	1579155456	32	5714
2026-01-18 02:46:43.62	181.88	36.37	-29.3	-29.9	28.7	0.00e+00	0	31	0	1601175552	32	5677
2026-01-18 02:46:47.65	182.47	37.28	-29.4	-30.0	28.6	0.00e+00	0	31	0	1624244224	32	5756
2026-01-18 02:46:51.69	183.10	38.21	-29.9	-30.5	28.2	0.00e+00	0	31	0	1647312896	32	6053
2026-01-18 02:46:55.73	183.76	39.17	-29.2	-29.8	28.7	0.00e+00	0	31	0	1669332992	32	5628
2026-01-18 02:46:59.77	184.46	40.14	-29.8	-30.4	28.2	0.00e+00	0	31	0	1692401664	32	6021
2026-01-18 02:47:03.81	185.20	41.14	-29.3	-29.9	28.6	0.00e+00	0	31	0	1715470336	32	5658
2026-01-18 02:47:07.85	186.00	42.16	-29.7	-30.3	28.4	0.00e+00	0	31	0	1737490432	32	5954
2026-01-18 02:47:11.88	186.84	43.21	-30.1	-30.7	28.0	0.00e+00	0	31	0	1760559104	32	6188
2026-01-18 02:47:15.92	187.73	44.27	-30.1	-30.7	28.1	0.00e+00	0	31	0	1783627776	32	6193
2026-01-18 02:47:19.96	188.69	45.36	-29.9	-30.5	28.3	0.00e+00	0	31	0	1805647872	32	6055
2026-01-18 02:47:24.01	189.72	46.47	-30.4	-31.0	28.0	0.00e+00	0	31	0	1828716544	32	6405
2026-01-18 02:47:28.05	190.83	47.60	-29.9	-30.5	28.3	0.00e+00	0	31	0	1851785216	32	6095
2026-01-18 02:47:32.09	192.01	48.75	-30.0	-30.6	28.2	0.00e+00	0	30	0	1873805312	32	6158
2026-01-18 02:47:36.12	193.28	49.91	-30.5	-31.1	27.9	0.00e+00	0	31	0	1896873984	32	6516
2026-01-18 02:47:40.16	194.66	51.09	-30.5	-31.1	27.9	0.00e+00	0	31	0	1919942656	32	6517
2026-01-18 02:47:44.20	196.15	52.28	-30.8	-31.4	27.6	0.00e+00	0	31	0	1941962752	34	6013
2026-01-18 02:47:48.24	197.76	53.48	-31.0	-31.7	27.4	0.00e+00	0	31	0	1965031424	34	6174
2026-01-18 02:47:52.27	199.50	54.67	-30.4	-31.0	27.9	0.00e+00	0	31	0	1988100096	34	5742
2026-01-18 02:47:56.31	201.41	55.88	-31.2	-31.8	27.3	0.00e+00	0	31	0	2010120192	34	6309
2026-01-18 02:48:00.35	203.47	57.07	-30.9	-31.5	27.7	0.00e+00	0	30	0	2033188864	34	6067
2026-01-18 02:48:04.39	205.73	58.25	-31.2	-31.8	27.5	0.00e+00	0	31	0	2056257536	36	5623
2026-01-18 02:48:08.43	208.19	59.41	-30.2	-30.8	27.9	0.00e+00	0	31	0	2078277632	34	5575
2026-01-18 02:48:12.47	210.87	60.54	-30.2	-30.8	28.1	0.00e+00	0	31	0	2101346304	34	5577
2026-01-18 02:48:16.51	213.80	61.63	-29.7	-30.3	28.3	0.00e+00	0	31	0	2124414976	32	5955
2026-01-18 02:48:20.55	216.99	62.66	-29.9	-30.5	28.3	0.00e+00	0	31	0	2146435072	32	6060
2026-01-18 02:48:24.59	220.45	63.63	-30.0	-30.7	28.4	0.00e+00	0	31	0	2169503744	32	6178
2026-01-18 02:48:28.63	224.20	64.52	-29.5	-30.1	28.5	0.00e+00	0	31	0	2192572416	32	5779
2026-01-18 02:48:32.67	228.23	65.32	-29.5	-30.2	28.7	0.00e+00	0	31	0	2214592512	32	5837
2026-01-18 02:48:36.71	232.54	66.01	-29.9	-30.5	28.5	0.00e+00	0	31	0	2237661184	32	6071
2026-01-18 02:48:40.75	237.10	66.57	-29.7	-30.3	28.9	0.00e+00	0	31	0	2260729856	32	5946
2026-01-18 02:48:44.79	241.88	66.99	-29.8	-30.4	28.7	0.00e+00	0	30	0	2282749952	32	6024
2026-01-18 02:48:48.83	246.81	67.26	-29.6	-30.2	28.7	0.00e+00	0	31	0	2305818624	32	5869
2026-01-18 02:48:52.87	251.84	67.38	-30.1	-30.8	28.8	0.00e+00	0	30	0	2328887296	32	6262
2026-01-18 02:48:56.91	256.89	67.34	-30.0	-30.6	28.6	0.00e+00	0	31	0	2350907392	32	6168
2026-01-18 02:49:00.95	261.88	67.14	-30.2	-30.8	28.2	0.00e+00	0	31	0	2373976064	34	5618
2026-01-18 02:49:04.99	266.74	66.79	-29.9	-30.5	28.8	0.00e+00	0	31	0	2397044736	32	6038
2026-01-18 02:49:09.03	271.41	66.29	-29.7	-30.3	28.8	0.00e+00	0	31	0	2419064832	32	5928
2026-01-18 02:49:13.07	275.84	65.67	-30.0	-30.7	28.7	0.00e+00	0	30	0	2442133504	32	6201
2026-01-18 02:49:17.11	280.01	64.92	-30.4	-31.0	28.5	0.00e+00	0	30	0	2465202176	34	5741
2026-01-18 02:49:21.15	283.89	64.08	-30.8	-31.4	27.8	0.00e+00	0	30	0	2487222272	34	6002
2026-01-18 02:49:25.19	287.48	63.15	-31.0	-31.7	27.9	0.00e+00	0	31	0	2510290944	34	6198
2026-01-18 02:49:29.23	290.80	62.14	-31.3	-31.9	27.5	0.00e+00	0	31	0	2533359616	34	6366
2026-01-18 02:49:33.26	293.84	61.08	-30.5	-31.0	28.3	0.00e+00	0	31	0	2555379712	32	6447
2026-01-18 02:49:37.30	296.64	59.98	-30.3	-30.8	28.3	0.00e+00	0	31	0	2578448384	34	5624
2026-01-18 02:49:41.34	299.20	58.83	-30.9	-31.6	27.7	0.00e+00	0	30	0	2601517056	34	6132
2026-01-18 02:49:45.39	301.56	57.66	-30.9	-31.6	27.4	0.00e+00	0	31	0	2623537152	34	6128
2026-01-18 02:49:49.43	303.71	56.48	-30.9	-31.5	27.5	0.00e+00	0	31	0	2646605824	34	6073
2026-01-18 02:49:53.46	305.68	55.28	-30.9	-31.5	27.6	0.00e+00	0	30	0	2669674496	34	6095
2026-01-18 02:49:57.50	307.50	54.08	-31.8	-32.6	27.1	0.00e+00	0	30	0	2691694592	34	6857
2026-01-18 02:50:01.54	309.18	52.89	-31.0	-31.7	27.7	0.00e+00	0	31	0	2714763264	36	5544
2026-01-18 02:50:05.58	310.72	51.70	-30.6	-31.3	27.8	0.00e+00	0	31	0	2737831936	34	5936
2026-01-18 02:50:09.62	312.15	50.52	-30.6	-31.3	27.7	0.00e+00	0	30	0	2759852032	34	5906
2026-01-18 02:50:13.66	313.47	49.35	-30.4	-31.0	27.9	0.00e+00	0	31	0	2782920704	34	5760
2026-01-18 02:50:17.71	314.70	48.20	-30.6	-31.3	27.9	0.00e+00	0	30	0	2805989376	34	5902
2026-01-18 02:50:21.74	315.84	47.06	-30.8	-31.5	27.6	0.00e+00	0	31	0	2828009472	34	6055
2026-01-18 02:50:25.78	316.90	45.95	-29.9	-30.6	28.3	0.00e+00	0	30	0	2851078144	34	5459
2026-01-18 02:50:29.82	317.90	44.86	-30.3	-30.8	28.2	0.00e+00	0	31	0	2874146816	34	5604
2026-01-18 02:50:33.86	318.82	43.78	-30.7	-31.3	28.3	0.00e+00	0	31	0	2897215488	34	5910
2026-01-18 02:50:37.89	319.69	42.73	-30.4	-30.9	28.3	0.00e+00	0	30	0	2919235584	34	5691
2026-01-18 02:50:41.93	320.51	41.70	-30.5	-31.1	28.2	0.00e+00	0	30	0	2942304256	34	5789
2026-01-18 02:50:45.96	321.27	40.70	-30.4	-31.0	28.1	0.00e+00	0	30	0	2964324352	34	5717
2026-01-18 02:50:50.00	321.99	39.72	-30.2	-30.9	28.0	0.00e+00	0	31	0	2987393024	34	5691
2026-01-18 02:50:54.04	322.67	38.75	-30.0	-30.6	28.4	0.00e+00	0	31	0	3010461696	34	5468
2026-01-18 02:50:58.08	323.32	37.81	-29.6	-30.2	28.7	0.00e+00	0	30	0	3032481792	32	5832
2026-01-18 02:51:02.12	323.93	36.90	-29.6	-30.2	28.7	0.00e+00	0	30	0	3055550464	32	5884
2026-01-18 02:51:06.16	324.50	36.00	-29.8	-30.5	28.4	0.00e+00	0	30	0	3078619136	32	6066
2026-01-18 02:51:10.19	325.05	35.13	-30.0	-30.5	28.5	0.00e+00	0	30	0	3100639232	32	6103
2026-01-18 02:51:14.24	325.57	34.28	-30.0	-30.6	28.2	0.00e+00	0	30	0	3123707904	32	6116
2026-01-18 02:51:18.27	326.07	33.45	-30.8	-31.4	28.2	0.00e+00	0	30	0	3146776576	34	5972
2026-01-18 02:51:22.31	326.54	32.63	-30.0	-30.5	28.2	0.00e+00	0	30	0	3168796672	34	5426
2026-01-18 02:51:26.35	326.99	31.84	-30.5	-31.0	28.0	0.00e+00	0	30	0	3191865344	34	5734
2026-01-18 02:51:30.38	327.41	31.07	-30.9	-31.4	27.9	0.00e+00	0	30	0	3214934016	34	6014
2026-01-18 02:51:34.43	327.83	30.31	-30.9	-31.4	27.9	0.00e+00	0	30	0	3236954112	34	6030
2026-01-18 02:51:38.46	328.22	29.58	-31.4	-32.0	27.7	0.00e+00	0	30	0	3260022784	34	6400
2026-01-18 02:51:42.50	328.59	28.86	-31.0	-31.5	27.6	0.00e+00	0	31	0	3283091456	34	6087
2026-01-18 02:51:46.54	328.95	28.16	-30.4	-31.0	27.9	0.00e+00	0	30	0	3305111552	34	5719
2026-01-18 02:51:50.58	329.30	27.47	-30.3	-30.8	28.1	0.00e+00	0	30	0	3328180224	34	5624
2026-01-18 02:51:54.62	329.63	26.80	-30.3	-31.0	28.1	0.00e+00	0	30	0	3351248896	34	5737
2026-01-18 02:51:58.66	329.95	26.15	-30.5	-31.2	28.2	0.00e+00	0	30	0	3373268992	34	5853
2026-01-18 02:52:02.70	330.26	25.51	-30.3	-30.9	28.0	0.00e+00	0	30	0	3396337664	34	5632
2026-01-18 02:52:06.74	330.55	24.88	-30.3	-31.0	27.9	0.00e+00	0	30	0	3419406336	34	5732
2026-01-18 02:52:10.77	330.84	24.27	-31.3	-31.9	27.6	0.00e+00	0	30	0	3441426432	34	6342
2026-01-18 02:52:14.81	331.11	23.67	-31.4	-32.1	27.1	0.00e+00	0	30	0	3464495104	36	5809
2026-01-18 02:52:18.84	331.38	23.09	-31.9	-32.5	26.5	0.00e+00	0	30	0	3486515200	36	6034
2026-01-18 02:52:22.88	331.64	22.52	-31.3	-31.9	27.1	0.00e+00	0	30	0	3509583872	36	5644
2026-01-18 02:52:26.91	331.88	21.96	-31.6	-32.2	27.1	0.00e+00	0	31	0	3532652544	36	5832
2026-01-18 02:52:30.95	332.12	21.41	-31.5	-32.2	26.9	0.00e+00	0	30	0	3554672640	36	5883
2026-01-18 02:52:34.98	332.35	20.87	-31.5	-32.2	26.8	0.00e+00	0	30	0	3577741312	36	5848
2026-01-18 02:52:39.02	332.58	20.34	-31.1	-31.7	27.1	0.00e+00	0	30	0	3600809984	36	5503
2026-01-18 02:52:43.06	332.80	19.83	-31.2	-31.9	27.0	0.00e+00	0	31	0	3623878656	36	5682
2026-01-18 02:52:47.09	333.01	19.32	-31.4	-32.0	26.8	0.00e+00	0	30	0	3645898752	36	5726
2026-01-18 02:52:51.14	333.21	18.83	-31.8	-32.4	26.5	0.00e+00	0	30	0	3668967424	36	6009
2026-01-18 02:52:55.17	333.41	18.34	-32.2	-32.8	26.2	0.00e+00	0	31	0	3690987520	36	6256
2026-01-18 02:52:59.21	333.61	17.86	-32.8	-33.4	26.1	0.00e+00	0	31	0	3714056192	38	5982
2026-01-18 02:53:03.25	333.80	17.39	-32.4	-33.0	26.0	0.00e+00	0	30	0	3737124864	38	5754
2026-01-18 02:53:07.28	333.98	16.94	-32.7	-33.4	25.7	0.00e+00	0	31	0	3759144960	38	6008
2026-01-18 02:53:11.32	334.16	16.48	-32.5	-33.2	26.1	0.00e+00	0	31	0	3782213632	38	5879
2026-01-18 02:53:15.36	334.33	16.04	-32.4	-33.2	26.0	0.00e+00	0	30	0	3805282304	38	5846
2026-01-18 02:53:19.39	334.50	15.60	-32.3	-33.0	26.0	0.00e+00	0	30	0	3827302400	38	5753
2026-01-18 02:53:23.43	334.66	15.18	-32.6	-33.2	25.9	0.00e+00	0	30	0	3850371072	38	5847
2026-01-18 02:53:27.46	334.82	14.76	-33.1	-33.8	25.2	0.00e+00	0	30	0	3873439744	38	6310
2026-01-18 02:53:31.50	334.98	14.34	-32.9	-33.5	25.6	0.00e+00	0	31	0	3895459840	38	6050
2026-01-18 02:53:35.54	335.13	13.93	-33.7	-34.3	24.7	0.00e+00	0	31	0	3918528512	40	5943
2026-01-18 02:53:39.58	335.28	13.53	-33.0	-33.6	25.3	0.00e+00	0	30	0	3941597184	40	5444
2026-01-18 02:53:43.61	335.43	13.14	-33.4	-34.0	25.0	0.00e+00	0	31	0	3963617280	40	5758
2026-01-18 02:53:47.65	335.57	12.75	-33.0	-33.7	25.1	0.00e+00	0	30	0	3986685952	40	5508
2026-01-18 02:53:51.69	335.71	12.37	-33.1	-33.9	25.1	0.00e+00	0	31	0	4009754624	40	5652
2026-01-18 02:53:55.73	335.85	11.99	-33.1	-33.9	25.0	0.00e+00	0	30	0	4031774720	40	5634
2026-01-18 02:53:59.77	335.98	11.62	-33.4	-34.0	24.8	0.00e+00	0	30	0	4054843392	40	5728
2026-01-18 02:54:03.81	336.11	11.26	-33.6	-34.4	24.7	0.00e+00	0	30	0	4077912064	40	5980
2026-01-18 02:54:07.84	336.24	10.90	-33.7	-34.3	24.6	0.00e+00	0	30	0	4099932160	40	5900
2026-01-18 02:54:11.88	336.36	10.54	-33.7	-34.5	24.6	0.00e+00	0	30	0	4123000832	40	6068
2026-01-18 02:54:15.92	336.48	10.19	-34.0	-34.6	24.4	0.00e+00	0	30	0	4146069504	40	6118
2026-01-18 02:54:19.95	336.60	9.85	-34.2	-35.0	24.0	0.00e+00	0	30	0	4168089600	40	6431
2026-01-18 02:54:23.99	336.72	9.51	-34.7	-35.4	23.6	0.00e+00	0	30	0	4191158272	42	5973
2026-01-18 02:54:28.03	336.84	9.17	-34.5	-35.2	23.7	0.00e+00	0	30	0	4214226944	42	5835
2026-01-18 02:54:32.07	336.95	8.84	-34.7	-35.5	23.6	0.00e+00	0	30	0	4236247040	42	6081
2026-01-18 02:54:36.11	337.06	8.51	-34.6	-35.2	23.7	0.00e+00	0	30	0	4259315712	42	5878
2026-01-18 02:54:40.15	337.17	8.19	-34.9	-35.6	23.4	0.00e+00	0	30	0	4281335808	42	6124
2026-01-18 02:54:44.18	337.28	7.87	-34.8	-35.5	23.3	0.00e+00	0	30	0	4304404480	42	6036
2026-01-18 02:54:48.22	337.38	7.55	-35.0	-35.9	23.1	0.00e+00	0	30	0	4327473152	42	6319
2026-01-18 02:54:52.25	337.48	7.24	-35.0	-35.8	23.1	0.00e+00	0	30	0	4349493248	42	6294
2026-01-18 02:54:56.29	337.59	6.94	-35.2	-36.0	22.7	0.00e+00	0	30	0	4372561920	42	6401
2026-01-18 02:55:00.33	337.69	6.63	-35.0	-35.8	22.9	0.00e+00	0	30	0	4395630592	42	6254
2026-01-18 02:55:04.36	337.78	6.33	-35.4	-36.1	22.5	0.00e+00	0	30	0	4418699264	42	6518
2026-01-18 02:55:08.40	337.88	6.03	-35.2	-35.9	22.4	0.00e+00	0	30	0	4440719360	44	5689
2026-01-18 02:55:12.44	337.97	5.74	-35.9	-36.8	21.4	0.00e+00	0	30	0	4463788032	44	6291
2026-01-18 02:55:16.48	338.07	5.45	-37.3	-38.4	19.3	0.00e+00	0	30	0	4485808128	46	6727
2026-01-18 02:55:20.52	338.16	5.16	-38.2	-39.4	18.2	0.00e+00	0	30	0	4508876800	48	6741
2026-01-18 02:55:24.56	338.25	4.88	-39.5	-41.2	15.2	0.00e+00	0	30	0	4531945472	50	7377
2026-01-18 02:55:28.60	338.34	4.60	-41.4	-44.3	11.3	8.54e-04	0	30	0	4553965568	54	8329
2026-01-18 02:55:32.64	338.43	4.32	-42.9	-47.7	6.8	1.00e-01	0	30	0	4577034240	58	9885
2026-01-18 02:55:36.68	338.51	4.04	-43.4	-50.8	4.0	8.28e-01	0	30	0	4585422848	58	14009
2026-01-18 02:55:40.72	338.60	3.77	-43.6	-54.5	3.6	8.45e-01	0	30	104	4585422848	58	21609
2026-01-18 02:55:44.75	338.68	3.50	-43.9	-56.1	3.6	8.45e-01	0	30	104	4585422848	60	22939
2026-01-18 02:55:48.79	338.77	3.23	-43.8	-55.7	3.6	8.45e-01	0	31	104	4585422848	60	22125
2026-01-18 02:55:52.82	338.85	2.97	-44.0	-56.2	3.6	8.46e-01	0	30	104	4585422848	60	23239
2026-01-18 02:55:56.86	338.93	2.70	-48.5	-60.6	3.6	8.46e-01	0	30	104	4585422848	60	38536
2026-01-18 02:56:00.90	339.01	2.44	-49.0	-61.1	3.6	8.45e-01	0	30	104	4585422848	60	40931
2026-01-18 02:56:04.94	339.08	2.18	-49.5	-61.6	3.6	8.46e-01	0	31	104	4585422848	60	43580
2026-01-18 02:56:08.98	339.16	1.93	-49.1	-61.2	3.6	8.47e-01	0	30	104	4585422848	60	41506
2026-01-18 02:56:13.02	339.24	1.67	-49.1	-61.2	3.6	8.45e-01	0	30	104	4585422848	60	41424
2026-01-18 02:56:17.06	339.31	1.42	-49.2	-61.3	3.6	8.46e-01	0	30	104	4585422848	60	41895
2026-01-18 02:56:21.10	339.39	1.17	-49.4	-61.5	3.6	8.45e-01	0	31	104	4585422848	60	42863
2026-01-18 02:56:25.14	339.46	0.93	-49.1	-61.2	3.6	8.46e-01	0	30	104	4585422848	60	41560
2026-01-18 02:56:29.18	339.53	0.68	-49.1	-61.2	3.6	8.44e-01	0	31	104	4585422848	60	41597
2026-01-18 02:56:33.21	339.61	0.44	-49.7	-61.7	3.6	8.46e-01	0	30	104	4585422848	60	44053
2026-01-18 02:56:37.25	339.68	0.20	-48.9	-61.0	3.6	8.45e-01	0	30	104	4585422848	60	40656
2026-01-18 02:56:41.29	339.75	-0.04	-49.7	-61.8	3.6	8.45e-01	0	30	104	4585422848	60	44394

#Closed at: 2026-01-18 02:56:41
#Recorded file [4585 MB]: D:/lorett/data/35029_260118_144112.dat