passes_logs/2026/01/18/R4.6S_Anadyr/R4.6S_Anadyr__20260118_032700_SUOMI_NPP_rec.log

#Pass ID: 20260118_032700_SUOMI NPP
#Satellite: SUOMI NPP
#Configuration: NPP
#almurnet v.1.7.20251203
#Start time: 2026-01-18 03:27:02

#Version: 2.2.20231116
#Station: R4.6S_Anadyr
#Location: 177.4865 lon 64.73178 lat
#TLE: 1 37849U 11061A   26017.57099531  .00000072  00000+0  54974-4 0  9996
#TLE: 2 37849  98.7814 319.5974 0002398  59.1749 300.9663 14.19525865737072

#Time	Az	El	Level	Level2	SNR	BER	BlckErr	Temp	State	Recorded	gain1	gain2
2026-01-18 03:27:02.79	242.00	0.08	-49.5	-61.1	3.5	8.45e-01	0	26	0	0	60	41026
2026-01-18 03:27:05.81	242.29	0.20	-49.9	-65.2	3.6	1.51e+00	0	27	104	0	60	65776
2026-01-18 03:27:08.84	242.58	0.33	-50.1	-65.3	3.6	1.51e+00	0	28	104	0	60	66753
2026-01-18 03:27:11.87	242.87	0.45	-49.6	-64.9	3.6	1.51e+00	0	28	104	0	60	63605
2026-01-18 03:27:14.90	243.17	0.57	-48.9	-64.1	3.6	1.51e+00	0	28	104	0	60	57752
2026-01-18 03:27:17.93	243.47	0.70	-48.9	-64.1	3.6	1.51e+00	0	28	104	0	60	57627
2026-01-18 03:27:20.96	243.77	0.82	-48.8	-63.9	3.6	1.51e+00	0	28	104	0	60	56896
2026-01-18 03:27:23.99	244.07	0.94	-48.5	-63.6	3.6	1.51e+00	0	28	104	0	60	54914
2026-01-18 03:27:27.02	244.37	1.07	-47.8	-63.0	3.6	1.51e+00	0	28	104	0	60	51286
2026-01-18 03:27:30.05	244.68	1.19	-47.2	-62.3	3.6	1.51e+00	0	28	104	0	60	47226
2026-01-18 03:27:33.08	244.99	1.31	-47.2	-62.3	3.6	1.51e+00	0	28	104	0	60	46967
2026-01-18 03:27:36.10	245.30	1.43	-47.2	-62.3	3.5	1.51e+00	0	28	104	0	60	47073
2026-01-18 03:27:39.13	245.61	1.56	-47.2	-62.3	3.6	1.51e+00	0	28	104	0	60	47301
2026-01-18 03:27:42.16	245.93	1.68	-47.2	-62.3	3.6	1.51e+00	0	28	104	0	60	46975
2026-01-18 03:27:45.19	246.25	1.80	-47.1	-62.3	3.6	1.51e+00	0	28	104	0	60	46988
2026-01-18 03:27:48.22	246.57	1.92	-47.1	-62.3	3.6	1.51e+00	0	28	104	0	60	46932
2026-01-18 03:27:51.25	246.89	2.04	-47.1	-62.2	3.6	1.51e+00	0	28	104	0	60	46460
2026-01-18 03:27:54.28	247.22	2.17	-47.1	-62.2	3.6	1.51e+00	0	28	104	0	60	46601
2026-01-18 03:27:57.31	247.55	2.29	-47.1	-62.2	3.6	1.51e+00	0	28	104	0	60	46571
2026-01-18 03:28:00.34	247.88	2.41	-47.1	-61.9	3.6	1.51e+00	0	28	104	0	60	45043
2026-01-18 03:28:03.37	248.22	2.53	-47.1	-62.2	3.6	1.51e+00	0	29	104	0	60	46407
2026-01-18 03:28:06.40	248.55	2.65	-47.0	-59.5	3.8	1.51e+00	0	29	104	0	60	33933
2026-01-18 03:28:09.43	248.89	2.77	-47.1	-61.1	3.6	1.51e+00	0	29	104	0	60	41049
2026-01-18 03:28:12.46	249.24	2.89	-45.4	-49.8	11.5	1.40e-02	44	28	0	3145728	60	11223
2026-01-18 03:28:15.49	249.58	3.01	-43.6	-46.4	14.8	0.00e+00	0	29	0	8388608	60	7546
2026-01-18 03:28:18.52	249.93	3.13	-44.3	-47.7	12.8	4.50e-06	92	29	0	14680064	60	8802
2026-01-18 03:28:21.55	250.28	3.25	-41.7	-43.5	18.0	0.00e+00	92	28	0	15728640	56	6770
2026-01-18 03:28:24.58	250.63	3.37	-39.6	-40.9	20.1	0.00e+00	0	29	0	22020096	54	5656
2026-01-18 03:28:27.60	250.99	3.48	-41.0	-42.7	18.5	0.00e+00	90	28	0	27262976	54	6939
2026-01-18 03:28:30.63	251.35	3.60	-40.5	-41.9	19.5	0.00e+00	90	29	0	33554432	54	6378
2026-01-18 03:28:33.66	251.71	3.72	-40.6	-42.1	19.1	0.00e+00	0	29	0	38797312	54	6483
2026-01-18 03:28:36.69	252.07	3.84	-40.2	-41.6	19.7	0.00e+00	92	29	0	44040192	54	6131
2026-01-18 03:28:39.71	252.44	3.95	-39.7	-41.0	20.4	0.00e+00	91	29	0	50331648	52	6443
2026-01-18 03:28:42.74	252.81	4.07	-40.4	-41.9	19.4	0.00e+00	0	29	0	55574528	52	7119
2026-01-18 03:28:45.77	253.18	4.18	-40.5	-42.0	19.3	0.00e+00	0	29	0	61865984	52	7197
2026-01-18 03:28:48.80	253.56	4.30	-40.7	-42.2	19.2	0.00e+00	92	29	0	67108864	54	6576
2026-01-18 03:28:51.82	253.93	4.41	-40.2	-41.6	19.7	0.00e+00	92	29	0	73400320	54	6140
2026-01-18 03:28:54.85	254.31	4.53	-40.0	-41.4	20.0	0.00e+00	0	29	0	78643200	52	6703
2026-01-18 03:28:57.88	254.70	4.64	-39.8	-41.1	20.1	0.00e+00	92	29	0	83886080	52	6539
2026-01-18 03:29:00.91	255.09	4.75	-40.0	-41.3	20.2	0.00e+00	91	29	0	90177536	52	6678
2026-01-18 03:29:03.94	255.48	4.87	-40.4	-41.8	19.6	0.00e+00	0	29	0	95420416	52	7074
2026-01-18 03:29:06.97	255.87	4.98	-40.4	-41.8	19.7	0.00e+00	74	29	0	101711872	52	7074
2026-01-18 03:29:10.00	256.26	5.09	-39.4	-40.6	20.8	0.00e+00	92	29	0	106954752	52	6171
2026-01-18 03:29:13.03	256.66	5.20	-39.8	-41.0	20.3	0.00e+00	17	29	0	112197632	52	6464
2026-01-18 03:29:16.06	257.06	5.31	-39.8	-41.1	20.1	0.00e+00	0	29	0	118489088	52	6530
2026-01-18 03:29:19.08	257.47	5.42	-40.1	-41.4	19.8	0.00e+00	54	29	0	123731968	52	6760
2026-01-18 03:29:22.11	257.87	5.52	-40.0	-41.3	20.4	0.00e+00	92	29	0	130023424	52	6672
2026-01-18 03:29:25.14	258.28	5.63	-40.0	-41.3	20.1	0.00e+00	0	29	0	135266304	52	6681
2026-01-18 03:29:28.17	258.70	5.74	-40.4	-41.8	19.6	0.00e+00	90	28	0	141557760	52	7081
2026-01-18 03:29:31.19	259.11	5.84	-40.3	-41.7	19.8	0.00e+00	92	29	0	146800640	54	6188
2026-01-18 03:29:34.22	259.53	5.95	-40.8	-42.3	19.2	0.00e+00	33	29	0	152043520	54	6662
2026-01-18 03:29:37.25	259.95	6.05	-40.6	-42.0	19.5	0.00e+00	0	29	0	158334976	54	6433
2026-01-18 03:29:40.27	260.37	6.16	-40.9	-42.4	19.3	0.00e+00	92	29	0	163577856	54	6731
2026-01-18 03:29:43.30	260.80	6.26	-40.7	-42.2	19.3	0.00e+00	92	29	0	169869312	54	6566
2026-01-18 03:29:46.33	261.23	6.36	-40.5	-42.0	19.6	0.00e+00	0	29	0	175112192	54	6403
2026-01-18 03:29:49.36	261.66	6.46	-40.6	-42.0	19.7	0.00e+00	92	29	0	180355072	54	6401
2026-01-18 03:29:52.39	262.10	6.56	-40.5	-41.9	19.8	0.00e+00	92	29	0	186646528	54	6333
2026-01-18 03:29:55.42	262.54	6.66	-40.6	-42.0	19.6	0.00e+00	0	29	0	191889408	54	6403
2026-01-18 03:29:58.45	262.98	6.76	-40.4	-41.8	19.8	0.00e+00	91	29	0	198180864	54	6287
2026-01-18 03:30:01.47	263.42	6.85	-40.7	-42.1	19.6	0.00e+00	92	29	0	203423744	54	6500
2026-01-18 03:30:04.50	263.87	6.95	-40.8	-42.3	19.3	0.00e+00	0	29	0	209715200	54	6651
2026-01-18 03:30:07.53	264.32	7.04	-40.6	-42.0	19.6	0.00e+00	0	29	0	214958080	54	6434
2026-01-18 03:30:10.56	264.77	7.13	-41.5	-43.0	18.9	1.50e-06	90	29	0	218103808	56	6395
2026-01-18 03:30:13.58	265.23	7.23	-41.1	-42.6	19.2	0.00e+00	54	29	0	223346688	56	6116
2026-01-18 03:30:16.61	265.69	7.32	-40.8	-42.2	19.4	0.00e+00	0	29	0	229638144	54	6615
2026-01-18 03:30:19.64	266.15	7.41	-40.5	-41.8	20.0	0.00e+00	92	29	0	234881024	54	6316
2026-01-18 03:30:22.67	266.61	7.49	-40.8	-42.2	19.4	0.00e+00	92	29	0	241172480	54	6600
2026-01-18 03:30:25.69	267.07	7.58	-40.1	-41.5	20.1	0.00e+00	0	29	0	246415360	54	6056
2026-01-18 03:30:28.72	267.54	7.67	-40.8	-42.3	19.4	0.00e+00	57	29	0	251658240	54	6653
2026-01-18 03:30:31.75	268.02	7.75	-41.0	-42.5	19.3	0.00e+00	53	29	0	257949696	54	6775
2026-01-18 03:30:34.78	268.49	7.83	-41.0	-42.5	19.3	0.00e+00	52	29	0	263192576	54	6779
2026-01-18 03:30:37.81	268.97	7.91	-40.5	-41.9	19.7	0.00e+00	0	29	0	269484032	54	6372
2026-01-18 03:30:40.83	269.44	7.99	-40.2	-41.5	20.2	0.00e+00	92	29	0	274726912	54	6059
2026-01-18 03:30:43.86	269.93	8.07	-40.5	-41.9	19.8	0.00e+00	92	29	0	279969792	54	6363
2026-01-18 03:30:46.89	270.41	8.15	-40.9	-42.3	19.4	0.00e+00	0	29	0	286261248	54	6689
2026-01-18 03:30:49.92	270.90	8.22	-40.6	-42.0	19.6	0.00e+00	92	29	0	291504128	54	6419
2026-01-18 03:30:52.95	271.39	8.30	-40.8	-42.3	19.6	0.00e+00	90	29	0	297795584	54	6626
2026-01-18 03:30:55.98	271.88	8.37	-40.8	-42.2	19.3	0.00e+00	0	29	0	303038464	54	6560
2026-01-18 03:30:59.01	272.37	8.44	-40.5	-41.9	19.9	0.00e+00	90	29	0	309329920	54	6359
2026-01-18 03:31:02.03	272.87	8.51	-40.2	-41.5	20.3	0.00e+00	92	29	0	314572800	54	6079
2026-01-18 03:31:05.06	273.36	8.58	-40.3	-41.7	20.1	0.00e+00	92	29	0	319815680	54	6178
2026-01-18 03:31:08.08	273.86	8.64	-40.9	-42.4	19.5	0.00e+00	0	29	0	326107136	54	6725
2026-01-18 03:31:11.11	274.37	8.71	-42.0	-43.8	18.3	0.00e+00	92	29	0	331350016	56	7027
2026-01-18 03:31:14.14	274.87	8.77	-41.9	-43.5	18.3	0.00e+00	91	29	0	337641472	56	6842
2026-01-18 03:31:17.17	275.38	8.83	-40.9	-42.3	19.6	0.00e+00	0	29	0	342884352	56	5922
2026-01-18 03:31:20.20	275.89	8.89	-40.6	-41.9	19.9	0.00e+00	92	29	0	348127232	54	6371
2026-01-18 03:31:23.23	276.40	8.94	-40.7	-42.1	19.7	0.00e+00	59	29	0	354418688	54	6467
2026-01-18 03:31:26.26	276.91	9.00	-40.4	-41.7	20.0	0.00e+00	0	29	0	359661568	54	6243
2026-01-18 03:31:29.29	277.42	9.05	-40.3	-41.6	20.1	0.00e+00	35	29	0	365953024	54	6157
2026-01-18 03:31:32.32	277.94	9.10	-41.1	-42.6	19.2	0.00e+00	91	29	0	371195904	54	6861
2026-01-18 03:31:35.35	278.46	9.15	-41.0	-42.4	19.4	0.00e+00	50	29	0	377487360	54	6762
2026-01-18 03:31:38.38	278.98	9.20	-39.9	-41.1	20.5	0.00e+00	0	29	0	382730240	54	5827
2026-01-18 03:31:41.41	279.50	9.25	-40.2	-41.5	20.2	0.00e+00	90	29	0	387973120	52	6806
2026-01-18 03:31:44.44	280.02	9.29	-41.1	-42.6	19.3	0.00e+00	92	29	0	394264576	54	6861
2026-01-18 03:31:47.47	280.54	9.33	-40.1	-41.3	20.4	0.00e+00	33	29	0	399507456	54	5960
2026-01-18 03:31:50.49	281.07	9.37	-39.9	-41.1	20.6	0.00e+00	90	29	0	405798912	54	5786
2026-01-18 03:31:53.52	281.59	9.41	-40.3	-41.6	20.2	0.00e+00	83	29	0	411041792	54	6151
2026-01-18 03:31:56.55	282.12	9.44	-40.3	-41.6	20.1	0.00e+00	0	29	0	416284672	54	6140
2026-01-18 03:31:59.57	282.65	9.47	-40.5	-41.9	19.9	0.00e+00	0	29	0	422576128	54	6364
2026-01-18 03:32:02.60	283.18	9.51	-41.4	-43.0	18.8	0.00e+00	92	29	0	427819008	54	7217
2026-01-18 03:32:05.63	283.71	9.53	-42.2	-44.0	18.1	0.00e+00	92	29	0	434110464	56	7186
2026-01-18 03:32:08.66	284.24	9.56	-41.7	-43.3	18.8	0.00e+00	0	29	0	439353344	56	6632
2026-01-18 03:32:11.68	284.77	9.59	-41.2	-42.7	19.2	0.00e+00	92	29	0	444596224	56	6179
2026-01-18 03:32:14.71	285.31	9.61	-41.4	-43.0	19.0	0.00e+00	92	29	0	450887680	56	6407
2026-01-18 03:32:17.73	285.84	9.63	-41.8	-43.5	18.6	0.00e+00	0	29	0	456130560	56	6782
2026-01-18 03:32:20.76	286.38	9.65	-41.9	-43.5	18.6	0.00e+00	89	29	0	462422016	56	6815
2026-01-18 03:32:23.79	286.91	9.66	-41.6	-43.2	19.0	0.00e+00	90	29	0	467664896	56	6573
2026-01-18 03:32:26.82	287.45	9.68	-41.4	-43.0	19.1	0.00e+00	53	29	0	473956352	56	6405
2026-01-18 03:32:29.84	287.98	9.69	-41.7	-43.3	19.0	0.00e+00	0	29	0	479199232	56	6664
2026-01-18 03:32:32.87	288.52	9.70	-41.3	-42.8	19.3	0.00e+00	91	29	0	484442112	56	6292
2026-01-18 03:32:35.90	289.06	9.71	-41.5	-43.0	19.0	0.00e+00	91	29	0	490733568	56	6427
2026-01-18 03:32:38.93	289.59	9.71	-41.4	-42.9	19.2	0.00e+00	0	29	0	495976448	56	6365
2026-01-18 03:32:41.95	290.13	9.71	-41.2	-42.6	19.6	0.00e+00	92	29	0	502267904	56	6119
2026-01-18 03:32:44.98	290.67	9.72	-41.6	-43.1	19.2	0.00e+00	58	29	0	507510784	56	6498
2026-01-18 03:32:48.01	291.21	9.71	-41.2	-42.6	19.5	0.00e+00	0	29	0	512753664	56	6137
2026-01-18 03:32:51.04	291.74	9.71	-40.0	-41.3	20.6	0.00e+00	0	29	0	519045120	54	5926
2026-01-18 03:32:54.07	292.28	9.70	-40.0	-41.2	20.6	0.00e+00	19	29	0	524288000	54	5856
2026-01-18 03:32:57.10	292.82	9.70	-39.9	-41.1	20.7	0.00e+00	46	29	0	530579456	52	6486
2026-01-18 03:33:00.12	293.35	9.69	-39.3	-40.4	21.2	0.00e+00	0	29	0	535822336	52	6028
2026-01-18 03:33:03.15	293.89	9.67	-39.6	-40.8	21.0	0.00e+00	92	29	0	542113792	52	6255
2026-01-18 03:33:06.18	294.42	9.66	-39.9	-41.1	20.8	0.00e+00	92	29	0	547356672	52	6514
2026-01-18 03:33:09.21	294.96	9.64	-40.1	-41.3	20.6	0.00e+00	0	29	0	552599552	52	6642
2026-01-18 03:33:12.23	295.49	9.62	-40.2	-41.4	20.7	0.00e+00	92	29	0	558891008	52	6756
2026-01-18 03:33:15.26	296.03	9.60	-40.2	-41.4	20.6	0.00e+00	52	29	0	564133888	52	6753
2026-01-18 03:33:18.29	296.56	9.58	-40.5	-41.8	20.5	0.00e+00	0	29	0	570425344	52	7021
2026-01-18 03:33:21.31	297.09	9.56	-39.8	-41.0	21.0	0.00e+00	0	29	0	575668224	52	6438
2026-01-18 03:33:24.34	297.62	9.53	-39.9	-41.1	20.9	0.00e+00	92	29	0	580911104	52	6518
2026-01-18 03:33:27.37	298.15	9.50	-39.5	-40.7	21.1	0.00e+00	80	29	0	587202560	52	6177
2026-01-18 03:33:30.40	298.68	9.47	-39.2	-40.3	21.6	0.00e+00	0	29	0	592445440	52	5911
2026-01-18 03:33:33.42	299.21	9.43	-39.0	-40.0	21.9	0.00e+00	91	29	0	598736896	50	6436
2026-01-18 03:33:36.45	299.73	9.40	-38.7	-39.7	22.0	0.00e+00	91	29	0	603979776	50	6192
2026-01-18 03:33:39.48	300.26	9.36	-39.0	-40.1	21.5	0.00e+00	0	29	0	609222656	50	6501
2026-01-18 03:33:42.50	300.78	9.32	-39.1	-40.2	21.5	0.00e+00	34	29	0	615514112	50	6608
2026-01-18 03:33:45.53	301.30	9.28	-39.5	-40.6	21.2	0.00e+00	45	29	0	620756992	50	6877
2026-01-18 03:33:48.56	301.82	9.24	-39.1	-40.2	21.5	0.00e+00	0	29	0	627048448	50	6587
2026-01-18 03:33:51.59	302.34	9.19	-39.3	-40.4	21.1	0.00e+00	0	29	0	632291328	50	6761
2026-01-18 03:33:54.62	302.86	9.14	-39.1	-40.2	21.5	0.00e+00	90	29	0	638582784	50	6574
2026-01-18 03:33:57.64	303.38	9.09	-39.0	-40.1	21.5	0.00e+00	47	29	0	643825664	50	6528
2026-01-18 03:34:00.67	303.89	9.04	-39.4	-40.6	21.3	0.00e+00	0	29	0	649068544	50	6852
2026-01-18 03:34:03.70	304.40	8.99	-40.1	-41.3	20.9	0.00e+00	92	29	0	655360000	52	6638
2026-01-18 03:34:06.73	304.91	8.93	-40.3	-41.6	20.4	0.00e+00	92	29	0	660602880	52	6879
2026-01-18 03:34:09.76	305.42	8.88	-40.2	-41.4	20.6	0.00e+00	0	29	0	666894336	54	5992
2026-01-18 03:34:12.78	305.93	8.82	-39.8	-41.0	20.9	0.00e+00	0	29	0	672137216	52	6393
2026-01-18 03:34:15.81	306.43	8.76	-39.5	-40.7	21.1	0.00e+00	92	29	0	677380096	52	6190
2026-01-18 03:34:18.84	306.93	8.70	-38.6	-39.6	22.0	0.00e+00	0	29	0	683671552	50	6171
2026-01-18 03:34:21.87	307.44	8.63	-38.2	-39.2	22.4	0.00e+00	0	29	0	688914432	50	5843
2026-01-18 03:34:24.89	307.93	8.57	-38.8	-39.8	22.0	0.00e+00	72	29	0	695205888	50	6292
2026-01-18 03:34:27.92	308.43	8.50	-39.3	-40.4	21.6	0.00e+00	92	29	0	700448768	50	6706
2026-01-18 03:34:30.95	308.92	8.43	-39.6	-40.7	21.1	0.00e+00	0	29	0	706740224	50	7000
2026-01-18 03:34:33.98	309.41	8.36	-39.4	-40.6	21.3	0.00e+00	44	29	0	711983104	52	6111
2026-01-18 03:34:37.01	309.90	8.29	-39.0	-40.1	21.5	0.00e+00	18	29	0	717225984	50	6504
2026-01-18 03:34:40.03	310.39	8.21	-39.2	-40.3	21.4	0.00e+00	0	29	0	723517440	50	6634
2026-01-18 03:34:43.07	310.87	8.14	-40.0	-41.2	20.9	0.00e+00	0	29	0	728760320	52	6606
2026-01-18 03:34:46.09	311.36	8.06	-39.7	-40.9	20.8	0.00e+00	10	29	0	735051776	52	6379
2026-01-18 03:34:49.13	311.84	7.98	-38.5	-39.5	22.0	0.00e+00	0	29	0	740294656	50	6069
2026-01-18 03:34:52.16	312.31	7.90	-38.1	-39.1	22.3	0.00e+00	0	29	0	745537536	50	5814
2026-01-18 03:34:55.19	312.79	7.82	-38.5	-39.5	21.9	0.00e+00	90	29	0	751828992	50	6087
2026-01-18 03:34:58.22	313.26	7.74	-39.0	-40.2	21.4	0.00e+00	92	29	0	757071872	50	6547
2026-01-18 03:35:01.25	313.73	7.66	-39.4	-40.6	20.8	0.00e+00	0	29	0	763363328	50	6856
2026-01-18 03:35:04.27	314.19	7.57	-39.6	-40.8	20.9	0.00e+00	37	29	0	768606208	52	6293
2026-01-18 03:35:07.30	314.66	7.49	-39.9	-41.1	20.5	0.00e+00	48	29	0	774897664	52	6493
2026-01-18 03:35:10.33	315.12	7.40	-40.4	-41.7	20.1	0.00e+00	0	29	0	780140544	52	6992
2026-01-18 03:35:13.36	315.58	7.31	-41.0	-42.4	19.3	0.00e+00	0	29	0	785383424	54	6769
2026-01-18 03:35:16.39	316.03	7.22	-40.5	-41.8	20.2	0.00e+00	67	29	0	791674880	54	6274
2026-01-18 03:35:19.42	316.49	7.13	-40.9	-42.3	19.5	0.00e+00	43	29	0	796917760	54	6660
2026-01-18 03:35:22.45	316.94	7.04	-40.9	-42.4	19.3	0.00e+00	0	29	0	803209216	54	6723
2026-01-18 03:35:25.48	317.39	6.94	-40.8	-42.3	19.2	0.00e+00	92	29	0	808452096	54	6628
2026-01-18 03:35:28.50	317.83	6.85	-40.6	-42.0	19.5	0.00e+00	92	29	0	813694976	54	6434
2026-01-18 03:35:31.54	318.27	6.75	-40.4	-41.7	19.8	0.00e+00	0	29	0	819986432	54	6235
2026-01-18 03:35:34.56	318.71	6.66	-41.0	-42.6	19.0	0.00e+00	0	29	0	825229312	54	6854
2026-01-18 03:35:37.59	319.15	6.56	-41.1	-42.6	19.0	0.00e+00	92	29	0	831520768	54	6894
2026-01-18 03:35:40.62	319.58	6.46	-41.2	-42.8	18.8	0.00e+00	0	29	0	836763648	54	7081
2026-01-18 03:35:43.65	320.01	6.36	-42.1	-43.8	17.9	0.00e+00	0	29	0	842006528	56	7079
2026-01-18 03:35:46.68	320.44	6.26	-42.6	-44.6	17.2	0.00e+00	63	29	0	848297984	58	6922
2026-01-18 03:35:49.70	320.86	6.16	-42.7	-44.8	17.0	0.00e+00	47	29	0	853540864	58	7088
2026-01-18 03:35:52.73	321.28	6.05	-42.3	-44.2	17.5	0.00e+00	0	29	0	859832320	58	6612
2026-01-18 03:35:55.76	321.70	5.95	-42.1	-43.9	17.7	0.00e+00	68	29	0	865075200	56	7158
2026-01-18 03:35:58.80	322.12	5.85	-41.3	-42.9	18.6	0.00e+00	43	29	0	871366656	56	6343
2026-01-18 03:36:01.83	322.53	5.74	-42.1	-43.9	17.7	0.00e+00	0	29	0	876609536	56	7157
2026-01-18 03:36:04.85	322.94	5.64	-42.5	-44.5	17.1	0.00e+00	0	29	0	881852416	56	7631
2026-01-18 03:36:07.88	323.35	5.53	-42.6	-44.6	16.9	0.00e+00	88	29	0	888143872	56	7752
2026-01-18 03:36:10.91	323.76	5.42	-42.2	-44.2	17.2	0.00e+00	0	29	0	893386752	56	7368
2026-01-18 03:36:14.19	324.19	5.30	-42.1	-44.0	17.6	0.00e+00	0	29	0	899678208	58	6424
2026-01-18 03:36:16.93	324.55	5.21	-42.0	-43.8	17.9	0.00e+00	92	29	0	904921088	56	7054
2026-01-18 03:36:20.24	324.98	5.09	-41.6	-43.3	18.3	0.00e+00	26	29	0	910163968	56	6648
2026-01-18 03:36:22.97	325.34	4.99	-42.1	-44.0	17.8	0.00e+00	0	29	0	915406848	56	7201
2026-01-18 03:36:26.29	325.77	4.87	-42.3	-44.3	17.6	0.00e+00	0	29	0	921698304	56	7440
2026-01-18 03:36:29.03	326.12	4.77	-42.0	-43.9	17.8	0.00e+00	13	29	0	926941184	56	7100
2026-01-18 03:36:32.34	326.54	4.64	-41.5	-43.2	18.2	0.00e+00	0	29	0	933232640	56	6601
2026-01-18 03:36:35.08	326.88	4.54	-40.9	-42.4	19.1	0.00e+00	0	29	0	938475520	56	6027
2026-01-18 03:36:38.40	327.30	4.42	-41.1	-42.7	18.7	0.00e+00	92	29	0	944766976	54	6974
2026-01-18 03:36:41.14	327.64	4.32	-40.3	-41.7	19.5	0.00e+00	0	29	0	950009856	54	6218
2026-01-18 03:36:44.45	328.05	4.19	-40.6	-42.1	19.3	0.00e+00	0	29	0	956301312	54	6483
2026-01-18 03:36:47.19	328.38	4.09	-41.3	-43.0	18.4	0.00e+00	47	29	0	961544192	54	7197
2026-01-18 03:36:50.51	328.78	3.96	-40.8	-42.3	19.0	0.00e+00	74	29	0	967835648	54	6680
2026-01-18 03:36:53.25	329.12	3.86	-41.4	-43.1	18.2	0.00e+00	0	29	0	973078528	56	6486
2026-01-18 03:36:56.57	329.51	3.73	-41.6	-43.4	17.8	0.00e+00	0	29	0	978321408	56	6739
2026-01-18 03:36:59.31	329.84	3.62	-40.6	-42.2	18.6	0.00e+00	12	29	0	983564288	54	6564
2026-01-18 03:37:02.62	330.23	3.50	-40.1	-41.6	19.1	0.00e+00	0	29	0	989855744	54	6136
2026-01-18 03:37:05.36	330.55	3.39	-40.8	-42.6	17.9	0.00e+00	0	29	0	995098624	54	6883
2026-01-18 03:37:08.68	330.93	3.26	-41.6	-43.9	16.2	0.00e+00	0	29	0	1001390080	56	7105
2026-01-18 03:37:11.42	331.25	3.16	-43.1	-47.0	12.6	3.00e-06	0	29	0	1006632960	58	9119
2026-01-18 03:37:14.74	331.63	3.03	-43.6	-49.7	7.9	1.92e-02	0	29	0	1012924416	58	12420
2026-01-18 03:37:17.48	331.94	2.92	-47.6	-62.8	3.6	1.51e+00	0	29	104	1015021568	60	49928
2026-01-18 03:37:20.80	332.31	2.79	-48.4	-63.6	3.6	1.51e+00	0	29	104	1015021568	60	54615
2026-01-18 03:37:23.54	332.62	2.68	-48.7	-63.8	3.6	1.51e+00	0	29	104	1015021568	60	56202
2026-01-18 03:37:26.86	332.99	2.55	-48.9	-64.0	3.6	1.51e+00	0	29	104	1015021568	60	57555
2026-01-18 03:37:29.60	333.29	2.44	-49.1	-64.3	3.6	1.51e+00	0	29	104	1015021568	60	59006
2026-01-18 03:37:32.92	333.65	2.31	-48.9	-64.1	3.6	1.51e+00	0	29	104	1015021568	60	58142
2026-01-18 03:37:35.66	333.95	2.20	-49.0	-64.2	3.6	1.51e+00	0	29	104	1015021568	60	58547
2026-01-18 03:37:38.98	334.30	2.07	-49.0	-64.2	3.6	1.51e+00	0	29	104	1015021568	60	58587
2026-01-18 03:37:41.72	334.60	1.96	-48.9	-64.1	3.6	1.51e+00	0	29	104	1015021568	60	57717
2026-01-18 03:37:45.04	334.95	1.83	-48.9	-64.0	3.6	1.51e+00	0	29	104	1015021568	60	57540
2026-01-18 03:37:47.78	335.23	1.72	-49.0	-64.2	3.6	1.51e+00	0	29	104	1015021568	60	58408
2026-01-18 03:37:51.10	335.58	1.59	-49.0	-64.2	3.6	1.51e+00	0	29	104	1015021568	60	58702
2026-01-18 03:37:53.84	335.86	1.48	-49.1	-64.3	3.6	1.51e+00	0	29	104	1015021568	60	59134
2026-01-18 03:37:57.16	336.20	1.35	-48.8	-64.0	3.6	1.51e+00	0	29	104	1015021568	60	57025
2026-01-18 03:37:59.90	336.48	1.24	-48.9	-64.0	3.6	1.51e+00	0	29	104	1015021568	60	57502
2026-01-18 03:38:03.21	336.82	1.11	-48.9	-64.1	3.6	1.51e+00	0	29	104	1015021568	60	58119
2026-01-18 03:38:05.95	337.09	1.00	-49.0	-64.1	3.6	1.51e+00	0	29	104	1015021568	60	58192
2026-01-18 03:38:09.27	337.42	0.86	-49.3	-64.4	3.6	1.51e+00	0	29	104	1015021568	60	60296
2026-01-18 03:38:12.01	337.69	0.75	-49.1	-64.3	3.6	1.51e+00	0	29	104	1015021568	60	59298
2026-01-18 03:38:15.33	338.02	0.62	-49.4	-64.5	3.6	1.51e+00	0	29	104	1015021568	60	60916
2026-01-18 03:38:18.07	338.28	0.51	-49.2	-64.3	3.6	1.51e+00	0	29	104	1015021568	60	59248
2026-01-18 03:38:21.39	338.60	0.37	-49.0	-64.2	3.6	1.51e+00	0	29	104	1015021568	60	58303
2026-01-18 03:38:24.13	338.86	0.26	-48.9	-64.1	3.6	1.51e+00	0	29	104	1015021568	60	57824
2026-01-18 03:38:27.45	339.18	0.13	-48.9	-64.1	3.6	1.51e+00	0	29	104	1015021568	60	58241
2026-01-18 03:38:30.19	339.44	0.02	-49.9	-65.2	3.5	1.51e+00	0	29	104	1015021568	60	65536

#Closed at: 2026-01-18 03:38:33
#Recorded file [1015 MB]: D:/lorett/data/35029_260118_152702.dat