passes_logs/2026/01/18/R4.6S_Anadyr/R4.6S_Anadyr__20260118_154639_AQUA_rec.log

#Pass ID: 20260118_154639_AQUA
#Satellite: AQUA
#Configuration: AQUA
#almurnet v.1.7.20251203
#Start time: 2026-01-18 15:46:41

#Version: 2.2.20231116
#Station: R4.6S_Anadyr
#Location: 177.4865 lon 64.73178 lat
#TLE: 1 27424U 02022A   26017.62394888  .00000781  00000+0  16630-3 0  9993
#TLE: 2 27424  98.4086 344.0954 0002010  75.0132 339.4723 14.61825944261279

#Time	Az	El	Level	Level2	SNR	BER	BlckErr	Temp	State	Recorded	gain1	gain2
2026-01-18 15:46:41.78	19.60	0.16	-49.4	-64.3	3.5	1.51e+00	0	36	0	0	60	59584
2026-01-18 15:46:45.82	19.70	0.41	-49.7	-67.5	3.5	3.02e+01	0	37	104	0	60	91758
2026-01-18 15:46:49.86	19.81	0.66	-49.9	-67.8	3.5	3.02e+01	0	37	104	0	60	94052
2026-01-18 15:46:53.90	19.92	0.91	-49.6	-67.6	3.5	3.02e+01	0	38	104	0	60	91968
2026-01-18 15:46:57.95	20.03	1.16	-49.3	-67.4	3.5	3.02e+01	0	38	104	0	60	90401
2026-01-18 15:47:01.99	20.15	1.41	-49.1	-66.9	3.5	3.02e+01	0	38	104	0	60	85241
2026-01-18 15:47:06.03	20.26	1.67	-48.5	-66.3	3.5	3.02e+01	0	38	104	0	60	79536
2026-01-18 15:47:10.07	20.38	1.93	-48.4	-66.0	3.5	3.02e+01	0	38	104	0	60	76607
2026-01-18 15:47:14.11	20.50	2.19	-48.4	-66.1	3.5	3.02e+01	0	38	104	0	60	77433
2026-01-18 15:47:18.14	20.62	2.46	-48.3	-65.4	3.5	3.02e+01	0	38	104	0	60	72064
2026-01-18 15:47:22.19	20.75	2.73	-48.1	-64.2	3.5	3.02e+01	0	38	104	0	60	62655
2026-01-18 15:47:26.23	20.87	3.00	-47.9	-63.7	3.5	3.02e+01	0	38	104	0	60	59006
2026-01-18 15:47:30.27	21.00	3.27	-43.0	-54.0	3.8	3.02e+01	0	38	104	0	60	19395
2026-01-18 15:47:34.31	21.13	3.55	-40.6	-51.2	3.6	3.02e+01	0	38	104	0	56	17681
2026-01-18 15:47:38.35	21.26	3.83	-43.8	-55.3	3.5	3.02e+01	0	38	104	0	60	22322
2026-01-18 15:47:42.39	21.40	4.11	-47.0	-61.2	3.5	3.02e+01	0	38	104	0	60	44268
2026-01-18 15:47:46.43	21.53	4.40	-43.8	-55.2	3.5	3.02e+01	0	38	104	0	60	22250
2026-01-18 15:47:50.47	21.67	4.69	-45.1	-57.1	3.5	3.02e+01	0	38	104	0	60	27443
2026-01-18 15:47:54.51	21.82	4.98	-45.4	-57.5	3.5	3.02e+01	0	38	104	0	60	28899
2026-01-18 15:47:58.55	21.96	5.27	-39.1	-49.6	3.5	3.02e+01	0	38	104	0	54	16470
2026-01-18 15:48:02.58	22.11	5.57	-43.2	-54.5	3.6	3.02e+01	0	38	104	0	54	28778
2026-01-18 15:48:06.62	22.26	5.88	-39.0	-49.5	3.5	3.02e+01	0	38	104	0	52	18256
2026-01-18 15:48:10.66	22.42	6.18	-46.8	-60.2	3.6	3.02e+01	0	38	104	0	60	39371
2026-01-18 15:48:14.70	22.57	6.50	-42.8	-53.8	3.5	3.02e+01	0	38	104	0	60	18946
2026-01-18 15:48:18.74	22.73	6.81	-48.6	-66.0	3.5	3.02e+01	0	38	104	0	60	76868
2026-01-18 15:48:22.78	22.90	7.13	-40.3	-50.9	3.5	3.02e+01	0	38	104	0	56	17039
2026-01-18 15:48:26.82	23.07	7.45	-40.4	-51.0	3.5	3.02e+01	0	38	104	0	56	17209
2026-01-18 15:48:30.85	23.24	7.78	-40.0	-50.6	3.5	3.02e+01	0	38	104	0	56	16329
2026-01-18 15:48:34.89	23.41	8.11	-41.5	-52.2	3.5	3.02e+01	0	38	104	0	54	22184
2026-01-18 15:48:38.93	23.59	8.45	-49.0	-66.5	3.5	3.02e+01	0	38	104	0	60	81658
2026-01-18 15:48:42.97	23.77	8.80	-39.9	-50.4	3.5	3.02e+01	0	38	104	0	56	16113
2026-01-18 15:48:47.01	23.96	9.14	-43.5	-54.8	3.5	3.02e+01	0	38	104	0	60	21136
2026-01-18 15:48:51.04	24.15	9.50	-39.3	-49.8	3.5	3.02e+01	0	38	104	0	54	16706
2026-01-18 15:48:55.08	24.35	9.85	-48.9	-66.1	3.5	3.02e+01	0	38	104	0	60	78039
2026-01-18 15:48:59.12	24.55	10.22	-39.6	-50.1	3.5	3.02e+01	0	38	104	0	54	17430
2026-01-18 15:49:03.16	24.76	10.59	-39.2	-49.7	3.5	3.02e+01	0	38	104	0	54	16570
2026-01-18 15:49:07.21	24.97	10.97	-42.1	-53.0	3.5	3.02e+01	0	38	104	0	60	17095
2026-01-18 15:49:11.25	25.19	11.35	-38.6	-49.0	3.6	3.02e+01	0	38	104	0	52	17178
2026-01-18 15:49:15.29	25.41	11.74	-49.0	-65.8	3.5	3.02e+01	0	38	104	0	60	75355
2026-01-18 15:49:19.32	25.64	12.13	-40.7	-51.3	3.6	3.02e+01	0	38	104	0	58	15811
2026-01-18 15:49:23.36	25.87	12.53	-37.8	-48.2	3.5	3.02e+01	0	38	104	0	52	15734
2026-01-18 15:49:27.40	26.12	12.94	-37.7	-48.0	3.5	3.02e+01	0	38	104	0	50	17281
2026-01-18 15:49:31.44	26.36	13.36	-49.1	-66.4	3.5	3.02e+01	0	38	104	0	60	80345
2026-01-18 15:49:35.48	26.62	13.78	-40.8	-51.4	3.5	3.02e+01	0	38	104	0	56	17998
2026-01-18 15:49:39.52	26.88	14.22	-41.7	-52.3	3.5	3.02e+01	0	38	104	0	52	25226
2026-01-18 15:49:43.55	27.15	14.66	-40.9	-51.5	3.5	3.02e+01	0	38	104	0	58	16219
2026-01-18 15:49:47.59	27.43	15.11	-36.8	-47.0	3.5	3.02e+01	0	38	104	0	48	17272
2026-01-18 15:49:51.63	27.72	15.56	-40.8	-51.4	3.5	3.02e+01	0	38	104	0	60	14252
2026-01-18 15:49:55.67	28.02	16.03	-37.3	-47.6	3.5	3.02e+01	0	38	104	0	48	18471
2026-01-18 15:49:59.70	28.32	16.51	-43.1	-54.0	3.5	3.02e+01	0	38	104	0	52	30525
2026-01-18 15:50:03.74	28.64	16.99	-41.2	-51.7	3.5	3.02e+01	0	38	104	0	56	18684
2026-01-18 15:50:07.78	28.97	17.49	-43.4	-54.6	3.5	3.02e+01	0	38	104	0	60	20571
2026-01-18 15:50:11.82	29.30	18.00	-39.2	-49.6	3.5	3.02e+01	0	38	104	0	54	16323
2026-01-18 15:50:15.86	29.65	18.51	-48.7	-64.4	3.5	3.02e+01	0	38	104	0	60	64196
2026-01-18 15:50:19.89	30.01	19.04	-37.3	-47.6	3.5	3.02e+01	0	38	104	0	50	16342
2026-01-18 15:50:23.93	30.39	19.58	-38.4	-48.8	3.5	3.02e+01	0	38	104	0	48	21054
2026-01-18 15:50:27.97	30.78	20.14	-41.3	-51.9	3.5	3.02e+01	0	38	104	0	58	17083
2026-01-18 15:50:32.01	31.18	20.70	-37.5	-47.9	3.5	3.02e+01	0	38	104	0	50	16921
2026-01-18 15:50:36.06	31.60	21.28	-49.6	-67.3	3.5	3.02e+01	0	38	104	0	60	89221
2026-01-18 15:50:40.10	32.03	21.87	-40.9	-51.4	3.5	3.02e+01	0	38	104	0	56	18088
2026-01-18 15:50:44.14	32.48	22.48	-43.0	-54.0	3.6	3.02e+01	0	38	104	0	60	19224
2026-01-18 15:50:48.18	32.95	23.10	-37.3	-47.6	3.6	3.02e+01	0	38	104	0	50	16354
2026-01-18 15:50:52.22	33.44	23.73	-49.1	-64.8	3.5	3.02e+01	0	38	104	0	60	67036
2026-01-18 15:50:56.26	33.95	24.38	-39.8	-50.3	3.5	3.02e+01	0	38	104	0	54	17785
2026-01-18 15:51:00.30	34.49	25.05	-38.0	-48.3	3.5	3.02e+01	0	38	104	0	52	15780
2026-01-18 15:51:04.33	35.04	25.73	-41.0	-51.6	3.5	3.02e+01	0	38	104	0	56	18388
2026-01-18 15:51:08.37	35.62	26.43	-39.4	-49.8	3.5	3.02e+01	0	38	104	0	54	16706
2026-01-18 15:51:12.41	36.23	27.14	-46.3	-58.8	3.5	3.02e+01	0	38	104	0	60	33667
2026-01-18 15:51:16.44	36.86	27.87	-38.3	-48.7	3.5	3.02e+01	0	38	104	0	48	20945
2026-01-18 15:51:20.48	37.52	28.62	-36.6	-46.7	3.5	3.02e+01	0	38	104	0	48	16648
2026-01-18 15:51:24.52	38.22	29.39	-41.2	-51.8	3.5	3.02e+01	0	38	104	0	56	18886
2026-01-18 15:51:28.56	38.96	30.18	-46.4	-59.1	3.6	3.02e+01	0	39	104	0	60	34511
2026-01-18 15:51:32.59	39.72	30.98	-38.5	-48.9	3.6	3.02e+01	0	38	104	0	52	16937
2026-01-18 15:51:36.63	40.53	31.81	-46.5	-58.6	3.5	3.02e+01	0	38	104	0	58	36825
2026-01-18 15:51:40.67	41.39	32.65	-37.9	-48.1	3.5	3.02e+01	0	39	104	0	50	17485
2026-01-18 15:51:44.71	42.29	33.51	-39.7	-50.0	3.5	3.02e+01	0	38	104	0	52	19328
2026-01-18 15:51:48.75	43.24	34.39	-42.9	-53.8	3.5	3.02e+01	0	38	104	0	60	18785
2026-01-18 15:51:52.79	44.24	35.29	-42.7	-53.7	3.5	3.02e+01	0	39	104	0	58	20811
2026-01-18 15:51:56.82	45.30	36.21	-48.1	-61.8	3.5	3.02e+01	0	39	104	0	60	47461
2026-01-18 15:52:00.86	46.42	37.14	-41.3	-51.9	3.5	3.02e+01	0	38	104	0	56	19092
2026-01-18 15:52:04.90	47.61	38.09	-44.8	-56.3	3.6	3.02e+01	0	38	104	0	60	25060
2026-01-18 15:52:08.94	48.88	39.06	-39.8	-50.2	3.5	3.02e+01	0	39	104	0	56	15725
2026-01-18 15:52:12.98	50.22	40.04	-49.2	-64.9	3.5	3.02e+01	0	38	104	0	60	67271
2026-01-18 15:52:17.02	51.64	41.03	-41.4	-52.1	3.5	3.02e+01	0	39	104	0	56	19531
2026-01-18 15:52:21.06	53.16	42.03	-38.9	-49.2	3.5	3.02e+01	0	39	104	0	54	15690
2026-01-18 15:52:25.10	54.78	43.03	-39.7	-50.1	3.5	3.02e+01	0	39	104	0	54	17320
2026-01-18 15:52:29.14	56.50	44.04	-37.0	-47.1	3.5	3.02e+01	0	38	104	0	48	17440
2026-01-18 15:52:33.18	58.33	45.04	-49.6	-66.4	3.5	3.02e+01	0	39	104	0	60	80032
2026-01-18 15:52:37.21	60.28	46.04	-36.1	-46.4	3.5	3.02e+01	0	39	104	0	48	15953
2026-01-18 15:52:41.25	62.36	47.02	-40.7	-51.3	3.6	3.02e+01	0	39	104	0	60	14159
2026-01-18 15:52:45.29	64.57	47.99	-36.3	-46.5	3.5	3.02e+01	0	38	104	0	48	16235
2026-01-18 15:52:49.33	66.93	48.93	-48.9	-63.6	3.4	3.02e+01	0	39	104	0	60	58537
2026-01-18 15:52:53.36	69.43	49.84	-37.3	-47.6	3.5	3.02e+01	0	39	104	0	50	16500
2026-01-18 15:52:57.41	72.09	50.70	-37.1	-47.3	3.5	3.02e+01	0	39	104	0	48	17775
2026-01-18 15:53:01.44	74.89	51.52	-39.8	-50.1	3.5	3.02e+01	0	39	104	0	54	17298
2026-01-18 15:53:05.48	77.85	52.27	-40.5	-51.0	3.5	3.02e+01	0	39	104	0	56	17149
2026-01-18 15:53:09.52	80.96	52.96	-45.4	-57.0	3.6	3.02e+01	0	39	104	0	60	27224
2026-01-18 15:53:13.56	84.21	53.56	-37.5	-47.8	3.5	3.02e+01	0	39	104	0	48	18811
2026-01-18 15:53:17.60	87.59	54.08	-38.6	-48.8	3.5	3.02e+01	0	39	104	0	50	18951
2026-01-18 15:53:21.64	91.08	54.50	-38.4	-48.7	3.5	3.02e+01	0	38	104	0	52	16581
2026-01-18 15:53:25.68	94.66	54.82	-43.2	-54.1	3.5	3.02e+01	0	39	104	0	60	19595
2026-01-18 15:53:29.71	98.30	55.02	-37.5	-47.9	3.5	3.02e+01	0	39	104	0	50	16954
2026-01-18 15:53:33.75	101.99	55.12	-48.2	-62.1	3.5	3.02e+01	0	38	104	0	60	48897
2026-01-18 15:53:37.79	105.69	55.09	-37.0	-47.3	3.6	3.02e+01	0	39	104	0	50	15897
2026-01-18 15:53:41.83	109.37	54.96	-43.0	-53.9	3.5	3.02e+01	0	39	104	0	60	19101
2026-01-18 15:53:45.87	113.00	54.71	-40.8	-42.7	22.3	3.02e+01	58	39	104	0	58	5886
2026-01-18 15:53:49.91	116.55	54.35	-38.9	-40.3	26.5	3.02e+01	62	38	0	6815744	52	6282
2026-01-18 15:53:53.95	120.01	53.89	-37.4	-38.6	27.8	3.02e+01	56	38	0	14155776	50	5855
2026-01-18 15:53:57.99	123.34	53.33	-36.3	-37.5	29.0	3.02e+01	63	38	0	22020096	48	5772
2026-01-18 15:54:02.03	126.54	52.69	-36.2	-37.4	29.0	3.02e+01	59	38	0	29360128	48	5709
2026-01-18 15:54:06.07	129.59	51.98	-36.3	-37.6	29.0	3.02e+01	61	38	0	36700160	48	5806
2026-01-18 15:54:10.11	132.50	51.19	-36.8	-38.1	28.7	3.02e+01	61	39	0	44564480	48	6174
2026-01-18 15:54:14.15	135.25	50.35	-36.8	-38.1	28.5	3.02e+01	38	39	0	51904512	48	6160
2026-01-18 15:54:18.19	137.85	49.47	-36.8	-38.1	28.6	3.02e+01	60	38	0	59768832	48	6163
2026-01-18 15:54:22.23	140.30	48.54	-37.0	-38.3	28.4	3.02e+01	51	39	0	67108864	48	6294
2026-01-18 15:54:26.26	142.59	47.59	-37.0	-38.3	28.4	3.02e+01	58	38	0	74973184	48	6320
2026-01-18 15:54:30.30	144.76	46.61	-36.5	-37.7	28.7	3.02e+01	53	38	0	82313216	48	5915
2026-01-18 15:54:34.34	146.79	45.62	-36.6	-37.9	28.7	3.02e+01	59	38	0	90177536	48	6008
2026-01-18 15:54:38.38	148.70	44.61	-36.4	-37.6	29.1	3.02e+01	52	38	0	97517568	48	5831
2026-01-18 15:54:42.42	150.49	43.60	-36.4	-37.7	28.9	3.02e+01	59	38	0	104857600	48	5864
2026-01-18 15:54:46.46	152.17	42.59	-36.7	-38.0	28.7	3.02e+01	51	38	0	112721920	48	6103
2026-01-18 15:54:50.50	153.75	41.59	-36.7	-37.9	28.7	3.02e+01	56	38	0	120061952	48	6060
2026-01-18 15:54:54.54	155.23	40.59	-37.1	-38.4	28.2	3.02e+01	50	38	0	127926272	48	6394
2026-01-18 15:54:58.57	156.62	39.60	-37.1	-38.3	28.4	3.02e+01	63	38	0	135266304	48	6334
2026-01-18 15:55:02.61	157.93	38.62	-36.9	-38.2	28.5	3.02e+01	45	38	0	143130624	48	6238
2026-01-18 15:55:06.65	159.17	37.66	-36.5	-37.8	28.8	3.02e+01	57	38	0	150470656	48	5930
2026-01-18 15:55:10.68	160.33	36.71	-36.4	-37.6	28.9	3.02e+01	42	38	0	158334976	48	5821
2026-01-18 15:55:14.72	161.43	35.78	-35.8	-37.0	29.6	3.02e+01	61	38	0	165675008	46	6071
2026-01-18 15:55:18.76	162.47	34.86	-35.8	-37.0	29.5	3.02e+01	55	38	0	173015040	46	6090
2026-01-18 15:55:22.80	163.45	33.97	-35.4	-36.6	29.8	3.02e+01	62	38	0	180879360	46	5824
2026-01-18 15:55:26.84	164.38	33.09	-35.0	-36.2	30.2	3.02e+01	62	38	0	188219392	46	5559
2026-01-18 15:55:30.88	165.26	32.23	-34.7	-35.9	30.3	3.02e+01	57	38	0	196083712	44	5999
2026-01-18 15:55:34.92	166.09	31.39	-35.0	-36.2	30.2	3.02e+01	61	38	0	203423744	44	6215
2026-01-18 15:55:38.96	166.89	30.57	-35.2	-36.3	29.9	3.02e+01	60	38	0	211288064	44	6337
2026-01-18 15:55:42.99	167.64	29.77	-35.0	-36.1	30.1	3.02e+01	61	38	0	218628096	44	6199
2026-01-18 15:55:47.03	168.36	28.99	-35.1	-36.3	30.0	3.02e+01	57	39	0	226492416	44	6306
2026-01-18 15:55:51.07	169.04	28.22	-35.4	-36.6	29.7	3.02e+01	60	38	0	233832448	44	6512
2026-01-18 15:55:55.11	169.70	27.48	-35.3	-36.5	29.8	3.02e+01	56	38	0	241172480	44	6484
2026-01-18 15:55:59.16	170.32	26.75	-35.7	-36.9	29.5	3.02e+01	58	39	0	249036800	44	6778
2026-01-18 15:56:03.20	170.92	26.04	-35.8	-37.0	29.4	3.02e+01	61	39	0	256376832	44	6874
2026-01-18 15:56:07.24	171.49	25.34	-35.9	-37.1	29.3	3.02e+01	57	39	0	264241152	46	6177
2026-01-18 15:56:11.28	172.03	24.67	-36.0	-37.3	29.1	3.02e+01	63	39	0	271581184	46	6280
2026-01-18 15:56:15.32	172.55	24.00	-36.4	-37.6	28.8	3.02e+01	55	38	0	279445504	46	6552
2026-01-18 15:56:19.36	173.05	23.36	-36.0	-37.2	29.0	3.02e+01	59	39	0	286785536	46	6259
2026-01-18 15:56:23.40	173.53	22.73	-35.9	-37.1	29.2	3.02e+01	58	39	0	294649856	46	6154
2026-01-18 15:56:27.44	173.99	22.11	-35.8	-37.0	29.2	3.02e+01	60	39	0	301989888	46	6120
2026-01-18 15:56:31.48	174.44	21.51	-36.0	-37.2	29.2	3.02e+01	61	39	0	309329920	46	6210
2026-01-18 15:56:35.52	174.86	20.92	-36.1	-37.3	29.1	3.02e+01	47	39	0	317194240	46	6314
2026-01-18 15:56:39.55	175.27	20.35	-36.1	-37.3	29.1	3.02e+01	64	38	0	324534272	46	6319
2026-01-18 15:56:43.59	175.67	19.78	-36.1	-37.3	29.1	3.02e+01	50	39	0	332398592	46	6309
2026-01-18 15:56:47.63	176.05	19.23	-35.9	-37.1	29.2	3.02e+01	59	39	0	339738624	46	6156
2026-01-18 15:56:51.67	176.42	18.70	-35.6	-36.8	29.5	3.02e+01	59	39	0	347602944	46	5959
2026-01-18 15:56:55.70	176.77	18.17	-35.7	-36.9	29.4	3.02e+01	58	39	0	354942976	46	6019
2026-01-18 15:56:59.74	177.12	17.66	-35.5	-36.7	29.4	3.02e+01	57	39	0	362807296	46	5923
2026-01-18 15:57:03.78	177.45	17.15	-35.5	-36.7	29.5	3.02e+01	63	39	0	370147328	46	5919
2026-01-18 15:57:07.82	177.77	16.66	-35.5	-36.7	29.5	3.02e+01	54	38	0	377487360	46	5910
2026-01-18 15:57:11.85	178.08	16.18	-35.8	-37.0	29.2	3.02e+01	56	39	0	385351680	46	6118
2026-01-18 15:57:15.90	178.38	15.70	-35.6	-36.8	29.5	3.02e+01	47	39	0	392691712	46	5947
2026-01-18 15:57:19.93	178.67	15.24	-35.6	-36.8	29.5	3.02e+01	59	38	0	400556032	46	5931
2026-01-18 15:57:23.97	178.95	14.78	-35.7	-36.9	29.2	3.02e+01	47	39	0	407896064	46	6063
2026-01-18 15:57:28.01	179.22	14.33	-35.8	-37.0	29.2	3.02e+01	59	39	0	415760384	46	6128
2026-01-18 15:57:32.05	179.49	13.89	-35.7	-36.9	29.3	3.02e+01	37	39	0	423100416	46	6034
2026-01-18 15:57:36.09	179.75	13.46	-35.9	-37.1	29.1	3.02e+01	57	39	0	430964736	46	6177
2026-01-18 15:57:40.13	180.00	13.04	-36.1	-37.4	28.9	3.02e+01	58	39	0	438304768	46	6371
2026-01-18 15:57:44.17	180.24	12.63	-36.0	-37.3	29.0	3.02e+01	62	39	0	445644800	46	6280
2026-01-18 15:57:48.20	180.48	12.22	-36.2	-37.4	28.8	3.02e+01	56	39	0	453509120	46	6413
2026-01-18 15:57:52.25	180.71	11.82	-36.1	-37.4	28.8	3.02e+01	60	39	0	460849152	46	6402
2026-01-18 15:57:56.28	180.93	11.42	-36.1	-37.3	28.9	3.02e+01	62	39	0	468713472	46	6341
2026-01-18 15:58:00.32	181.15	11.04	-36.3	-37.6	28.6	3.02e+01	58	39	0	476053504	46	6512
2026-01-18 15:58:04.36	181.36	10.66	-36.6	-37.8	28.3	3.02e+01	61	39	0	483917824	46	6726
2026-01-18 15:58:08.40	181.57	10.28	-36.6	-37.9	28.3	3.02e+01	59	39	0	491257856	46	6742
2026-01-18 15:58:12.44	181.77	9.91	-36.6	-37.9	28.4	3.02e+01	58	39	0	499122176	46	6728
2026-01-18 15:58:16.48	181.97	9.55	-36.6	-37.9	28.3	3.02e+01	59	39	0	506462208	46	6775
2026-01-18 15:58:20.51	182.16	9.19	-36.9	-38.2	28.1	3.02e+01	59	39	0	513802240	48	6214
2026-01-18 15:58:24.55	182.35	8.84	-36.9	-38.1	28.0	3.02e+01	59	39	0	521666560	48	6199
2026-01-18 15:58:28.58	182.53	8.50	-37.2	-38.5	27.7	3.02e+01	62	39	0	529006592	48	6437
2026-01-18 15:58:32.62	182.71	8.15	-37.3	-38.6	27.5	3.02e+01	59	39	0	536870912	48	6520
2026-01-18 15:58:36.66	182.88	7.82	-37.3	-38.6	27.5	3.02e+01	56	39	0	544210944	48	6540
2026-01-18 15:58:40.70	183.05	7.48	-37.3	-38.6	27.4	3.02e+01	59	39	0	552075264	48	6565
2026-01-18 15:58:44.74	183.22	7.16	-37.5	-38.9	27.2	3.02e+01	61	39	0	559415296	48	6731
2026-01-18 15:58:48.78	183.38	6.83	-37.8	-39.2	26.9	3.02e+01	59	39	0	567279616	48	6993
2026-01-18 15:58:52.82	183.54	6.51	-37.7	-39.1	26.9	3.02e+01	57	39	0	574619648	48	6952
2026-01-18 15:58:56.86	183.70	6.20	-37.8	-39.2	26.8	3.02e+01	44	39	0	581959680	50	6222
2026-01-18 15:59:00.90	183.85	5.89	-37.8	-39.2	26.7	3.02e+01	57	39	0	589824000	50	6274
2026-01-18 15:59:04.93	184.00	5.58	-38.0	-39.5	26.4	3.02e+01	57	39	0	597164032	50	6429
2026-01-18 15:59:08.97	184.15	5.28	-38.3	-39.8	26.0	3.02e+01	62	39	0	605028352	50	6655
2026-01-18 15:59:13.01	184.29	4.98	-38.4	-39.9	25.9	3.02e+01	57	39	0	612368384	50	6731
2026-01-18 15:59:17.04	184.43	4.69	-38.3	-39.8	26.0	3.02e+01	57	39	0	620232704	50	6680
2026-01-18 15:59:21.08	184.57	4.40	-38.5	-40.0	25.7	3.02e+01	49	39	0	627572736	50	6846
2026-01-18 15:59:25.12	184.71	4.11	-38.9	-40.4	25.3	3.02e+01	59	39	0	634912768	50	7195
2026-01-18 15:59:29.15	184.84	3.82	-39.1	-40.6	25.0	3.02e+01	53	39	0	642777088	52	6569
2026-01-18 15:59:33.19	184.97	3.54	-39.5	-41.1	24.6	3.02e+01	61	39	0	650117120	52	6902
2026-01-18 15:59:37.23	185.10	3.26	-39.2	-40.8	24.9	3.02e+01	46	39	0	657981440	52	6654
2026-01-18 15:59:41.27	185.22	2.98	-39.4	-41.0	24.0	3.02e+01	58	39	0	665321472	54	6111
2026-01-18 15:59:45.31	185.35	2.71	-49.6	-67.5	3.5	3.02e+01	0	39	104	665845760	60	90824
2026-01-18 15:59:49.35	185.47	2.44	-49.9	-67.8	3.5	3.02e+01	0	39	104	665845760	60	94523
2026-01-18 15:59:53.39	185.59	2.17	-49.9	-67.8	3.5	3.02e+01	0	39	104	665845760	60	94824
2026-01-18 15:59:57.42	185.70	1.91	-49.9	-67.8	3.5	3.02e+01	0	39	104	665845760	60	94594
2026-01-18 16:00:01.46	185.82	1.65	-49.3	-67.8	3.5	3.02e+01	0	39	104	665845760	60	94425
2026-01-18 16:00:05.50	185.93	1.39	-50.0	-67.9	3.5	3.02e+01	0	39	104	665845760	60	95102
2026-01-18 16:00:09.53	186.04	1.13	-50.0	-67.8	3.5	3.02e+01	0	39	104	665845760	60	94251
2026-01-18 16:00:13.58	186.15	0.88	-50.0	-67.8	3.5	3.02e+01	0	39	104	665845760	60	94673
2026-01-18 16:00:17.61	186.26	0.62	-50.0	-67.8	3.5	3.02e+01	0	39	104	665845760	60	94521
2026-01-18 16:00:21.65	186.36	0.37	-49.9	-67.7	3.5	3.02e+01	0	39	104	665845760	60	93904
2026-01-18 16:00:25.70	186.47	0.13	-50.0	-67.8	3.5	3.02e+01	0	39	104	665845760	60	94309

#Closed at: 2026-01-18 16:00:28
#Recorded file [665 MB]: D:/lorett/data/35029_260119_034641.dat