passes_logs/2025/01/07/PPK-1/PPK-1__20250107_004700_TY-41_rec.log

#Pass ID: 20250107_004700_TY-41
#Satellite: TY-41
#Configuration: TY-39
#almurnet v.1.7.20230919.trace
#Start time: 2025-01-07 00:46:59

#Version: 2.2.20231116
#Station: PPK-1
#Location: 158.6 lon 53.06666 lat
#TLE: 1 61231U 24173E   25006.22207071  .00006579  00000+0  31602-3 0  9995
#TLE: 2 61231  97.4115  83.2765 0001746  89.7362 270.4073 15.19170168 15756

#Time	Az	El	Level	Level2	SNR	BER	BlckErr	Temp	State
2025-01-07 00:46:59.89	8.22	7.99	-67.0	-72.9	3.6	0.00e+00	0	45	0
2025-01-07 00:47:01.79	8.15	8.16	-67.3	-73.1	3.6	0.00e+00	0	45	104
2025-01-07 00:47:03.69	8.09	8.34	-67.3	-73.0	3.6	0.00e+00	0	46	104
2025-01-07 00:47:05.59	8.02	8.52	-67.5	-73.3	3.7	0.00e+00	0	46	104
2025-01-07 00:47:07.49	7.95	8.70	-67.5	-73.4	3.7	0.00e+00	0	47	104
2025-01-07 00:47:09.38	7.88	8.89	-67.5	-73.3	3.7	0.00e+00	0	47	104
2025-01-07 00:47:11.28	7.81	9.07	-67.4	-73.0	3.6	0.00e+00	0	47	104
2025-01-07 00:47:13.18	7.74	9.26	-67.2	-72.4	3.6	0.00e+00	0	48	104
2025-01-07 00:47:15.08	7.67	9.45	-66.8	-71.6	3.4	0.00e+00	0	48	104
2025-01-07 00:47:16.98	7.59	9.64	-66.7	-71.0	3.7	0.00e+00	0	48	104
2025-01-07 00:47:18.88	7.52	9.83	-66.7	-71.0	3.7	0.00e+00	0	49	104
2025-01-07 00:47:20.78	7.44	10.02	-66.9	-71.6	3.6	0.00e+00	0	49	104
2025-01-07 00:47:22.68	7.36	10.22	-67.2	-72.4	3.6	0.00e+00	0	49	104
2025-01-07 00:47:24.58	7.28	10.42	-67.4	-72.9	3.6	0.00e+00	0	49	104
2025-01-07 00:47:26.48	7.20	10.62	-67.5	-73.1	3.6	0.00e+00	0	50	104
2025-01-07 00:47:28.38	7.12	10.82	-67.5	-73.1	3.7	0.00e+00	0	50	104
2025-01-07 00:47:30.27	7.04	11.02	-67.5	-73.1	3.7	0.00e+00	0	50	104
2025-01-07 00:47:32.17	6.95	11.23	-67.4	-72.9	3.6	0.00e+00	0	50	104
2025-01-07 00:47:34.06	6.86	11.44	-67.4	-73.0	3.6	0.00e+00	0	50	104
2025-01-07 00:47:35.96	6.77	11.65	-67.4	-73.0	3.6	0.00e+00	0	51	104
2025-01-07 00:47:37.86	6.68	11.86	-67.4	-73.0	3.6	0.00e+00	0	51	104
2025-01-07 00:47:39.76	6.59	12.08	-67.4	-73.1	3.7	0.00e+00	0	51	104
2025-01-07 00:47:41.66	6.50	12.30	-56.4	-59.1	11.7	4.78e-04	0	52	0
2025-01-07 00:47:43.55	6.40	12.52	-56.0	-58.7	12.0	2.64e-04	0	52	0
2025-01-07 00:47:45.44	6.30	12.74	-55.8	-58.4	12.0	1.94e-04	0	53	0
2025-01-07 00:47:47.34	6.20	12.97	-55.5	-58.3	11.9	1.80e-04	0	53	0
2025-01-07 00:47:49.23	6.10	13.20	-55.4	-58.0	11.7	3.81e-04	0	53	0
2025-01-07 00:47:51.12	6.00	13.43	-55.4	-58.1	11.6	4.58e-04	0	53	0
2025-01-07 00:47:53.02	5.89	13.66	-55.6	-58.5	11.5	4.02e-04	0	54	0
2025-01-07 00:47:54.91	5.78	13.90	-55.8	-58.8	11.7	4.23e-04	0	54	0
2025-01-07 00:47:56.80	5.67	14.14	-55.9	-59.1	11.6	3.54e-04	0	54	0
2025-01-07 00:47:58.69	5.56	14.38	-55.5	-58.2	11.9	3.47e-04	0	55	0
2025-01-07 00:48:00.59	5.45	14.63	-56.7	-60.2	10.8	8.25e-04	0	55	0
2025-01-07 00:48:02.48	5.33	14.88	-56.5	-59.4	11.0	1.90e-03	0	55	0
2025-01-07 00:48:04.38	5.21	15.13	-58.9	-62.1	9.1	1.56e-02	0	55	0
2025-01-07 00:48:06.27	5.09	15.39	-58.4	-61.3	9.4	2.05e-02	0	55	0
2025-01-07 00:48:08.16	4.96	15.64	-58.5	-61.3	9.5	1.73e-02	0	56	0
2025-01-07 00:48:10.06	4.83	15.91	-55.7	-58.2	11.8	1.05e-03	0	56	0
2025-01-07 00:48:11.95	4.70	16.17	-54.5	-57.3	12.4	9.71e-05	0	56	0
2025-01-07 00:48:13.85	4.57	16.44	-54.7	-57.6	12.2	4.85e-05	0	56	0
2025-01-07 00:48:15.74	4.43	16.72	-54.6	-57.4	12.1	1.60e-04	0	57	0
2025-01-07 00:48:17.63	4.30	16.99	-54.4	-57.1	12.1	1.39e-04	0	57	0
2025-01-07 00:48:19.53	4.15	17.28	-54.2	-56.7	12.5	7.62e-05	0	57	0
2025-01-07 00:48:21.43	4.01	17.56	-53.8	-56.2	13.1	1.38e-05	0	57	0
2025-01-07 00:48:23.34	3.86	17.85	-53.4	-56.0	13.4	0.00e+00	0	57	0
2025-01-07 00:48:25.24	3.70	18.15	-53.2	-55.5	13.6	0.00e+00	0	57	0
2025-01-07 00:48:27.14	3.54	18.45	-53.1	-55.8	13.7	0.00e+00	0	58	0
2025-01-07 00:48:29.04	3.38	18.75	-53.2	-56.0	13.8	0.00e+00	0	58	0
2025-01-07 00:48:30.93	3.22	19.06	-53.3	-56.3	13.9	0.00e+00	0	58	0
2025-01-07 00:48:32.83	3.05	19.37	-53.5	-56.6	13.9	0.00e+00	0	58	0
2025-01-07 00:48:34.74	2.88	19.69	-53.1	-55.9	14.1	0.00e+00	0	59	0
2025-01-07 00:48:36.64	2.70	20.01	-52.8	-55.3	14.3	0.00e+00	0	59	0
2025-01-07 00:48:38.54	2.52	20.34	-52.4	-55.0	14.5	0.00e+00	0	59	0
2025-01-07 00:48:40.44	2.33	20.67	-52.2	-54.5	14.6	0.00e+00	0	59	0
2025-01-07 00:48:42.34	2.14	21.01	-52.4	-55.0	14.4	0.00e+00	0	60	0
2025-01-07 00:48:44.24	1.94	21.35	-52.8	-55.7	14.2	0.00e+00	0	60	0
2025-01-07 00:48:46.14	1.74	21.70	-52.7	-55.7	14.3	0.00e+00	0	60	0
2025-01-07 00:48:48.04	1.53	22.06	-52.4	-55.0	14.6	0.00e+00	0	60	0
2025-01-07 00:48:49.94	1.32	22.42	-51.8	-54.3	14.9	0.00e+00	0	60	0
2025-01-07 00:48:51.84	1.10	22.79	-51.5	-54.2	15.1	0.00e+00	0	60	0
2025-01-07 00:48:53.74	0.88	23.16	-51.3	-53.8	15.1	0.00e+00	0	60	0
2025-01-07 00:48:55.64	0.65	23.54	-51.4	-54.0	15.0	0.00e+00	0	61	0
2025-01-07 00:48:57.54	0.41	23.92	-51.7	-54.5	15.0	0.00e+00	0	61	0
2025-01-07 00:48:59.44	0.16	24.31	-51.6	-54.3	15.0	0.00e+00	0	61	0
2025-01-07 00:49:01.34	359.91	24.71	-51.4	-53.9	15.0	0.00e+00	0	61	0
2025-01-07 00:49:03.23	359.65	25.12	-51.1	-53.8	15.1	0.00e+00	0	61	0
2025-01-07 00:49:05.13	359.39	25.53	-50.8	-53.2	15.3	0.00e+00	0	62	0
2025-01-07 00:49:07.03	359.11	25.95	-50.7	-53.0	15.4	0.00e+00	0	62	0
2025-01-07 00:49:08.93	358.83	26.38	-50.7	-53.1	15.5	0.00e+00	0	62	0
2025-01-07 00:49:10.83	358.54	26.81	-50.6	-52.8	15.4	0.00e+00	0	62	0
2025-01-07 00:49:12.73	358.24	27.26	-50.5	-53.1	15.5	0.00e+00	0	62	0
2025-01-07 00:49:14.63	357.93	27.71	-50.0	-52.7	15.6	0.00e+00	0	62	0
2025-01-07 00:49:16.53	357.61	28.17	-50.0	-52.6	15.6	0.00e+00	0	62	0
2025-01-07 00:49:18.43	357.27	28.63	-50.0	-52.6	15.6	0.00e+00	0	62	0
2025-01-07 00:49:20.33	356.93	29.11	-50.1	-52.8	15.7	0.00e+00	0	62	0
2025-01-07 00:49:22.23	356.58	29.59	-49.9	-52.5	15.7	0.00e+00	0	62	0
2025-01-07 00:49:24.12	356.21	30.08	-49.4	-52.0	15.7	0.00e+00	0	62	0
2025-01-07 00:49:26.02	355.84	30.59	-49.2	-51.6	15.9	0.00e+00	0	62	0
2025-01-07 00:49:27.92	355.44	31.10	-49.2	-51.5	16.0	0.00e+00	0	62	0
2025-01-07 00:49:29.82	355.04	31.62	-49.4	-51.8	15.8	0.00e+00	0	63	0
2025-01-07 00:49:31.72	354.62	32.15	-49.2	-51.4	15.7	0.00e+00	0	63	0
2025-01-07 00:49:33.62	354.18	32.69	-47.8	-50.3	15.6	0.00e+00	0	63	0
2025-01-07 00:49:35.52	353.73	33.24	-47.6	-49.9	15.8	0.00e+00	0	63	0
2025-01-07 00:49:37.42	353.26	33.80	-47.6	-50.3	15.9	0.00e+00	0	63	0
2025-01-07 00:49:39.32	352.78	34.37	-47.5	-50.0	15.9	0.00e+00	0	63	0
2025-01-07 00:49:41.22	352.27	34.95	-47.3	-49.8	15.8	0.00e+00	0	64	0
2025-01-07 00:49:43.12	351.75	35.54	-47.4	-49.9	15.6	0.00e+00	0	64	0
2025-01-07 00:49:45.01	351.20	36.13	-47.1	-49.3	16.0	0.00e+00	0	64	0
2025-01-07 00:49:46.91	350.63	36.74	-47.0	-49.5	16.0	0.00e+00	0	64	0
2025-01-07 00:49:48.81	350.04	37.36	-46.8	-49.3	15.8	0.00e+00	0	64	0
2025-01-07 00:49:50.71	349.43	37.99	-46.8	-49.3	16.1	0.00e+00	0	64	0
2025-01-07 00:49:52.61	348.78	38.63	-46.7	-48.9	15.7	0.00e+00	0	64	0
2025-01-07 00:49:54.51	348.11	39.28	-46.4	-49.0	16.2	0.00e+00	0	64	0
2025-01-07 00:49:56.41	347.41	39.94	-46.4	-48.9	15.7	0.00e+00	0	65	0
2025-01-07 00:49:58.31	346.68	40.61	-46.4	-49.0	16.1	0.00e+00	0	65	0
2025-01-07 00:50:00.21	345.92	41.29	-46.1	-48.3	15.9	0.00e+00	0	65	0
2025-01-07 00:50:02.11	345.12	41.97	-46.1	-48.8	16.0	0.00e+00	0	65	0
2025-01-07 00:50:04.01	344.29	42.67	-46.2	-49.0	15.9	0.00e+00	0	65	0
2025-01-07 00:50:05.90	343.42	43.37	-45.8	-48.3	16.0	0.00e+00	0	65	0
2025-01-07 00:50:07.80	342.51	44.08	-45.7	-48.1	16.2	0.00e+00	0	65	0
2025-01-07 00:50:09.70	341.55	44.79	-45.9	-48.4	15.8	0.00e+00	0	65	0
2025-01-07 00:50:11.60	340.55	45.51	-45.8	-48.2	16.0	0.00e+00	0	65	0
2025-01-07 00:50:13.50	339.49	46.24	-45.6	-47.9	16.4	0.00e+00	0	65	0
2025-01-07 00:50:15.40	338.39	46.97	-45.3	-47.8	16.0	0.00e+00	0	65	0
2025-01-07 00:50:17.30	337.23	47.70	-45.5	-48.2	16.3	0.00e+00	0	66	0
2025-01-07 00:50:19.20	336.01	48.44	-45.4	-48.0	16.3	0.00e+00	0	66	0
2025-01-07 00:50:21.10	334.73	49.17	-45.2	-47.5	16.5	0.00e+00	0	66	0
2025-01-07 00:50:23.00	333.39	49.90	-45.5	-48.0	16.4	0.00e+00	0	66	0
2025-01-07 00:50:24.90	331.98	50.62	-45.9	-48.9	16.2	0.00e+00	0	66	0
2025-01-07 00:50:26.80	330.50	51.34	-45.6	-48.4	16.3	0.00e+00	0	66	0
2025-01-07 00:50:28.69	328.95	52.05	-45.8	-48.8	16.2	0.00e+00	0	66	0
2025-01-07 00:50:30.59	327.31	52.75	-46.3	-49.7	15.9	0.00e+00	0	66	0
2025-01-07 00:50:32.49	325.60	53.44	-46.2	-49.1	16.1	0.00e+00	0	66	0
2025-01-07 00:50:34.39	323.80	54.11	-46.3	-49.1	16.2	0.00e+00	0	67	0
2025-01-07 00:50:36.29	321.91	54.75	-46.7	-50.0	16.3	0.00e+00	0	67	0
2025-01-07 00:50:38.19	319.93	55.38	-47.0	-50.2	16.2	0.00e+00	0	67	0
2025-01-07 00:50:40.09	317.87	55.98	-47.0	-50.0	16.2	0.00e+00	0	67	0
2025-01-07 00:50:41.99	315.71	56.55	-47.3	-50.2	15.9	0.00e+00	0	67	0
2025-01-07 00:50:43.89	313.47	57.08	-47.4	-50.4	16.1	0.00e+00	0	67	0
2025-01-07 00:50:45.79	311.14	57.58	-47.8	-50.7	16.0	0.00e+00	0	67	0
2025-01-07 00:50:47.69	308.72	58.03	-48.1	-51.2	15.8	0.00e+00	0	67	0
2025-01-07 00:50:49.59	306.22	58.44	-48.2	-51.5	15.8	0.00e+00	0	67	0
2025-01-07 00:50:51.48	303.66	58.80	-48.6	-51.9	15.6	0.00e+00	0	67	0
2025-01-07 00:50:53.38	301.02	59.10	-49.3	-52.8	15.3	0.00e+00	0	67	0
2025-01-07 00:50:55.28	298.33	59.36	-49.3	-52.2	15.4	0.00e+00	0	67	0
2025-01-07 00:50:57.18	295.58	59.55	-49.4	-52.4	15.2	0.00e+00	0	67	0
2025-01-07 00:50:59.08	292.80	59.69	-49.8	-53.2	15.1	0.00e+00	0	67	0
2025-01-07 00:51:00.98	289.99	59.76	-50.7	-53.6	15.3	0.00e+00	0	68	0
2025-01-07 00:51:02.88	287.18	59.78	-50.6	-53.3	15.5	0.00e+00	0	68	0
2025-01-07 00:51:04.78	284.37	59.73	-50.3	-52.7	15.5	0.00e+00	0	68	0
2025-01-07 00:51:06.68	281.57	59.62	-50.4	-52.9	15.4	0.00e+00	0	68	0
2025-01-07 00:51:08.58	278.81	59.45	-50.6	-53.3	15.4	0.00e+00	0	68	0
2025-01-07 00:51:10.48	276.09	59.22	-50.1	-52.9	15.7	0.00e+00	0	68	0
2025-01-07 00:51:12.37	273.43	58.94	-50.0	-52.6	15.7	0.00e+00	0	68	0
2025-01-07 00:51:14.27	270.83	58.60	-49.3	-51.7	16.1	0.00e+00	0	68	0
2025-01-07 00:51:16.17	268.29	58.22	-49.3	-51.7	16.1	0.00e+00	0	68	0
2025-01-07 00:51:18.07	265.84	57.78	-47.7	-50.0	16.1	0.00e+00	0	68	0
2025-01-07 00:51:19.97	263.46	57.30	-47.7	-50.6	16.1	0.00e+00	0	68	0
2025-01-07 00:51:21.87	261.17	56.78	-47.9	-50.9	16.1	0.00e+00	0	68	0
2025-01-07 00:51:23.77	258.98	56.23	-68.0	-74.2	3.6	0.00e+00	0	68	104
2025-01-07 00:51:25.67	256.87	55.64	-68.1	-74.1	3.6	0.00e+00	0	68	104
2025-01-07 00:51:27.57	254.85	55.03	-67.9	-73.7	3.6	0.00e+00	0	68	104
2025-01-07 00:51:29.47	252.92	54.38	-68.0	-73.7	3.7	0.00e+00	0	68	104
2025-01-07 00:51:31.37	251.08	53.72	-68.0	-73.7	3.7	0.00e+00	0	68	104
2025-01-07 00:51:33.26	249.33	53.05	-68.0	-73.8	3.7	0.00e+00	0	68	104
2025-01-07 00:51:35.16	247.65	52.35	-67.9	-73.6	3.6	0.00e+00	0	68	104
2025-01-07 00:51:37.06	246.06	51.64	-67.6	-73.5	3.6	0.00e+00	0	68	104
2025-01-07 00:51:38.96	244.54	50.92	-67.8	-73.4	3.6	0.00e+00	0	68	104
2025-01-07 00:51:40.86	243.09	50.20	-67.4	-72.9	3.7	0.00e+00	0	68	104
2025-01-07 00:51:42.76	241.72	49.46	-67.4	-73.0	3.7	0.00e+00	0	68	104
2025-01-07 00:51:44.66	240.41	48.73	-67.4	-72.8	3.6	0.00e+00	0	68	104
2025-01-07 00:51:46.56	239.16	47.99	-67.9	-73.6	3.6	0.00e+00	0	68	104
2025-01-07 00:51:48.46	237.97	47.26	-68.1	-73.9	3.6	0.00e+00	0	68	104
2025-01-07 00:51:50.36	236.84	46.52	-67.7	-73.5	3.6	0.00e+00	0	68	104
2025-01-07 00:51:52.26	235.76	45.79	-67.9	-73.7	3.7	0.00e+00	0	68	104
2025-01-07 00:51:54.16	234.74	45.06	-67.2	-72.4	3.7	0.00e+00	0	68	104
2025-01-07 00:51:56.05	233.76	44.35	-67.0	-73.1	3.6	0.00e+00	0	68	104
2025-01-07 00:51:57.95	232.83	43.63	-67.6	-73.8	3.6	0.00e+00	0	68	104
2025-01-07 00:51:59.85	231.93	42.92	-67.7	-73.9	3.6	0.00e+00	0	68	104
2025-01-07 00:52:01.75	231.08	42.22	-67.6	-73.7	3.6	0.00e+00	0	69	104
2025-01-07 00:52:03.65	230.27	41.53	-67.7	-73.9	3.7	0.00e+00	0	68	104
2025-01-07 00:52:05.55	229.49	40.84	-68.0	-73.9	3.7	0.00e+00	0	69	104
2025-01-07 00:52:07.45	228.74	40.17	-68.1	-74.1	3.7	0.00e+00	0	69	104
2025-01-07 00:52:09.35	228.03	39.50	-68.1	-73.9	3.6	0.00e+00	0	69	104
2025-01-07 00:52:11.25	227.34	38.84	-68.1	-74.1	3.6	0.00e+00	0	68	104
2025-01-07 00:52:13.15	226.69	38.20	-68.0	-74.0	3.6	0.00e+00	0	69	104
2025-01-07 00:52:15.05	226.06	37.56	-67.7	-73.4	3.7	0.00e+00	0	69	104
2025-01-07 00:52:16.94	225.46	36.94	-68.0	-73.9	3.7	0.00e+00	0	68	104
2025-01-07 00:52:18.84	224.88	36.32	-68.0	-74.0	3.6	0.00e+00	0	69	104
2025-01-07 00:52:20.74	224.32	35.71	-68.0	-74.0	3.6	0.00e+00	0	69	104
2025-01-07 00:52:22.64	223.78	35.12	-67.9	-73.9	3.6	0.00e+00	0	69	104
2025-01-07 00:52:24.54	223.27	34.53	-68.0	-74.1	3.6	0.00e+00	0	69	104
2025-01-07 00:52:26.44	222.77	33.95	-68.1	-74.1	3.7	0.00e+00	0	69	104
2025-01-07 00:52:28.34	222.29	33.39	-68.0	-74.0	3.7	0.00e+00	0	69	104
2025-01-07 00:52:30.24	221.83	32.83	-67.9	-73.8	3.6	0.00e+00	0	69	104
2025-01-07 00:52:32.14	221.39	32.28	-67.8	-73.5	3.6	0.00e+00	0	69	104
2025-01-07 00:52:34.04	220.96	31.75	-67.9	-73.4	3.6	0.00e+00	0	69	104
2025-01-07 00:52:35.94	220.55	31.22	-67.9	-73.5	3.6	0.00e+00	0	69	104
2025-01-07 00:52:37.83	220.15	30.71	-68.1	-73.9	3.7	0.00e+00	0	69	104
2025-01-07 00:52:39.73	219.77	30.20	-68.1	-74.1	3.7	0.00e+00	0	69	104
2025-01-07 00:52:41.63	219.39	29.70	-67.9	-73.8	3.7	0.00e+00	0	69	104
2025-01-07 00:52:43.53	219.03	29.21	-67.7	-73.4	3.6	0.00e+00	0	69	104
2025-01-07 00:52:45.43	218.68	28.73	-67.9	-73.7	3.6	0.00e+00	0	69	104
2025-01-07 00:52:47.33	218.35	28.25	-68.0	-73.9	3.6	0.00e+00	0	69	104
2025-01-07 00:52:49.23	218.02	27.79	-68.1	-74.0	3.7	0.00e+00	0	69	104
2025-01-07 00:52:51.13	217.70	27.33	-68.1	-74.0	3.7	0.00e+00	0	69	104
2025-01-07 00:52:53.03	217.40	26.88	-68.1	-74.0	3.7	0.00e+00	0	69	104
2025-01-07 00:52:54.93	217.10	26.44	-68.0	-73.9	3.6	0.00e+00	0	69	104
2025-01-07 00:52:56.83	216.81	26.01	-67.8	-73.6	3.6	0.00e+00	0	69	104
2025-01-07 00:52:58.72	216.53	25.59	-67.8	-73.4	3.6	0.00e+00	0	69	104
2025-01-07 00:53:00.62	216.26	25.17	-67.7	-73.2	3.7	0.00e+00	0	69	104
2025-01-07 00:53:02.52	216.00	24.76	-67.7	-73.2	3.7	0.00e+00	0	69	104
2025-01-07 00:53:04.42	215.74	24.36	-67.5	-73.0	3.7	0.00e+00	0	69	104
2025-01-07 00:53:06.32	215.50	23.96	-67.6	-73.0	3.6	0.00e+00	0	69	104
2025-01-07 00:53:08.22	215.25	23.57	-67.8	-73.5	3.6	0.00e+00	0	69	104
2025-01-07 00:53:10.12	215.02	23.19	-68.0	-73.8	3.6	0.00e+00	0	69	104
2025-01-07 00:53:12.02	214.79	22.81	-68.0	-73.7	3.7	0.00e+00	0	69	104
2025-01-07 00:53:13.92	214.57	22.44	-68.0	-73.8	3.7	0.00e+00	0	69	104
2025-01-07 00:53:15.82	214.35	22.07	-68.0	-73.8	3.7	0.00e+00	0	69	104
2025-01-07 00:53:17.72	214.14	21.71	-68.0	-73.9	3.6	0.00e+00	0	69	104
2025-01-07 00:53:19.61	213.94	21.36	-68.0	-74.0	3.6	0.00e+00	0	69	104
2025-01-07 00:53:21.51	213.74	21.02	-68.0	-74.0	3.6	0.00e+00	0	69	104
2025-01-07 00:53:23.41	213.54	20.68	-67.9	-73.8	3.7	0.00e+00	0	69	104
2025-01-07 00:53:25.31	213.35	20.34	-67.8	-73.6	3.7	0.00e+00	0	69	104
2025-01-07 00:53:27.21	213.17	20.01	-67.9	-73.7	3.7	0.00e+00	0	69	104
2025-01-07 00:53:29.11	212.99	19.68	-67.9	-73.7	3.6	0.00e+00	0	69	104
2025-01-07 00:53:31.01	212.81	19.36	-67.9	-73.7	3.6	0.00e+00	0	70	104
2025-01-07 00:53:32.91	212.64	19.05	-68.0	-73.7	3.6	0.00e+00	0	70	104
2025-01-07 00:53:34.81	212.47	18.73	-68.0	-73.8	3.7	0.00e+00	0	70	104
2025-01-07 00:53:36.71	212.31	18.43	-68.0	-73.8	3.7	0.00e+00	0	70	104
2025-01-07 00:53:38.61	212.15	18.13	-67.9	-73.7	3.6	0.00e+00	0	70	104
2025-01-07 00:53:40.51	211.99	17.83	-67.9	-73.7	3.6	0.00e+00	0	70	104
2025-01-07 00:53:42.40	211.84	17.54	-67.9	-73.6	3.6	0.00e+00	0	69	104
2025-01-07 00:53:44.30	211.69	17.25	-67.9	-73.5	3.6	0.00e+00	0	69	104
2025-01-07 00:53:46.20	211.54	16.96	-67.9	-73.5	3.7	0.00e+00	0	70	104
2025-01-07 00:53:48.10	211.40	16.68	-67.8	-73.3	3.7	0.00e+00	0	70	104
2025-01-07 00:53:50.00	211.26	16.40	-67.8	-73.1	3.7	0.00e+00	0	70	104
2025-01-07 00:53:51.90	211.12	16.13	-67.8	-73.1	3.6	0.00e+00	0	70	104
2025-01-07 00:53:53.80	210.99	15.86	-67.8	-73.4	3.6	0.00e+00	0	70	104
2025-01-07 00:53:55.70	210.86	15.60	-67.9	-73.6	3.6	0.00e+00	0	69	104
2025-01-07 00:53:57.60	210.73	15.33	-67.8	-73.6	3.7	0.00e+00	0	70	104
2025-01-07 00:53:59.50	210.61	15.07	-67.8	-73.6	3.7	0.00e+00	0	70	104
2025-01-07 00:54:01.40	210.48	14.82	-67.8	-73.7	3.6	0.00e+00	0	70	104
2025-01-07 00:54:03.29	210.36	14.57	-67.8	-73.6	3.6	0.00e+00	0	70	104
2025-01-07 00:54:05.19	210.25	14.32	-67.8	-73.6	3.6	0.00e+00	0	70	104
2025-01-07 00:54:07.09	210.13	14.07	-67.8	-73.5	3.6	0.00e+00	0	70	104
2025-01-07 00:54:08.99	210.02	13.83	-67.8	-73.4	3.7	0.00e+00	0	70	104
2025-01-07 00:54:10.89	209.91	13.59	-67.8	-73.4	3.7	0.00e+00	0	70	104
2025-01-07 00:54:12.79	209.80	13.36	-67.8	-73.4	3.6	0.00e+00	0	70	104
2025-01-07 00:54:14.69	209.69	13.12	-67.8	-73.3	3.6	0.00e+00	0	70	104
2025-01-07 00:54:16.59	209.59	12.89	-67.8	-73.3	3.6	0.00e+00	0	69	104
2025-01-07 00:54:18.49	209.49	12.66	-67.7	-73.1	3.6	0.00e+00	0	70	104
2025-01-07 00:54:20.39	209.39	12.44	-67.6	-72.9	3.6	0.00e+00	0	70	104
2025-01-07 00:54:22.29	209.29	12.21	-67.7	-73.0	3.7	0.00e+00	0	70	104
2025-01-07 00:54:24.18	209.19	11.99	-67.7	-73.1	3.7	0.00e+00	0	70	104
2025-01-07 00:54:26.08	209.10	11.78	-67.7	-73.2	3.7	0.00e+00	0	70	104
2025-01-07 00:54:27.98	209.00	11.56	-67.7	-73.2	3.6	0.00e+00	0	70	104
2025-01-07 00:54:29.88	208.91	11.35	-67.7	-73.2	3.6	0.00e+00	0	70	104
2025-01-07 00:54:31.78	208.82	11.14	-67.8	-73.4	3.6	0.00e+00	0	70	104
2025-01-07 00:54:33.68	208.74	10.93	-67.8	-73.5	3.7	0.00e+00	0	70	104
2025-01-07 00:54:35.58	208.65	10.72	-67.8	-73.5	3.7	0.00e+00	0	70	104
2025-01-07 00:54:37.48	208.56	10.52	-67.7	-73.3	3.6	0.00e+00	0	70	104
2025-01-07 00:54:39.38	208.48	10.32	-67.5	-73.0	3.6	0.00e+00	0	70	104
2025-01-07 00:54:41.28	208.40	10.12	-67.4	-72.9	3.6	0.00e+00	0	70	104
2025-01-07 00:54:43.18	208.32	9.92	-67.4	-72.9	3.6	0.00e+00	0	70	104
2025-01-07 00:54:45.07	208.24	9.73	-67.4	-72.8	3.7	0.00e+00	0	70	104
2025-01-07 00:54:46.97	208.16	9.53	-67.4	-72.7	3.7	0.00e+00	0	70	104
2025-01-07 00:54:48.87	208.09	9.34	-67.4	-72.8	3.7	0.00e+00	0	70	104
2025-01-07 00:54:50.77	208.01	9.15	-67.5	-72.8	3.6	0.00e+00	0	70	104
2025-01-07 00:54:52.67	207.94	8.96	-67.5	-72.9	3.6	0.00e+00	0	70	104
2025-01-07 00:54:54.57	207.86	8.78	-67.5	-73.0	3.6	0.00e+00	0	70	104
2025-01-07 00:54:56.47	207.79	8.59	-67.5	-73.0	3.7	0.00e+00	0	70	104
2025-01-07 00:54:58.37	207.72	8.41	-67.5	-72.9	3.7	0.00e+00	0	70	104
2025-01-07 00:55:00.27	207.65	8.23	-67.5	-72.9	3.6	0.00e+00	0	70	104
2025-01-07 00:55:02.17	207.59	8.05	-67.4	-72.5	3.6	0.00e+00	0	70	104

#Closed at: 2025-01-07 00:55:02
#Recorded file [16592 MB]: D:/data/31015_250107_125122.dat