passes_logs/2025/01/07/PPK-1/PPK-1__20250107_114147_TY-39_rec.log

#Pass ID: 20250107_114147_TY-39
#Satellite: TY-39
#Configuration: TY-39
#almurnet v.1.7.20230919.trace
#Start time: 2025-01-07 11:41:46

#Version: 2.2.20231116
#Station: PPK-1
#Location: 158.6 lon 53.06666 lat
#TLE: 1 51832U 22019J   25006.88654507  .00004562  00000+0  23474-3 0  9998
#TLE: 2 51832  97.4107  77.2724 0007693 266.5982  93.4372 15.16904819157916

#Time	Az	El	Level	Level2	SNR	BER	BlckErr	Temp	State
2025-01-07 11:41:46.77	207.96	7.94	-67.1	-73.5	3.6	0.00e+00	0	46	0
2025-01-07 11:41:48.66	208.20	8.08	-67.2	-73.6	3.6	0.00e+00	0	46	104
2025-01-07 11:41:50.56	208.45	8.23	-67.3	-73.7	3.6	0.00e+00	0	46	104
2025-01-07 11:41:52.45	208.70	8.38	-67.3	-72.9	3.7	0.00e+00	0	47	104
2025-01-07 11:41:54.35	208.96	8.54	-67.3	-73.0	3.7	0.00e+00	0	47	104
2025-01-07 11:41:56.25	209.22	8.69	-67.3	-73.1	3.7	0.00e+00	0	47	104
2025-01-07 11:41:58.15	209.48	8.84	-67.4	-73.2	3.6	0.00e+00	0	48	104
2025-01-07 11:42:00.04	209.74	8.99	-67.4	-73.3	3.6	0.00e+00	0	48	104
2025-01-07 11:42:01.94	210.01	9.15	-67.4	-73.3	3.6	0.00e+00	0	48	104
2025-01-07 11:42:03.84	210.29	9.30	-67.4	-73.3	3.7	0.00e+00	0	49	104
2025-01-07 11:42:05.74	210.56	9.46	-67.4	-73.3	3.7	0.00e+00	0	49	104
2025-01-07 11:42:07.64	210.84	9.62	-67.4	-73.3	3.7	0.00e+00	0	49	104
2025-01-07 11:42:09.54	211.12	9.77	-67.3	-72.9	3.7	0.00e+00	0	49	104
2025-01-07 11:42:11.44	211.41	9.93	-67.1	-72.4	3.6	0.00e+00	0	50	104
2025-01-07 11:42:13.34	211.70	10.09	-67.1	-72.3	3.5	0.00e+00	0	50	104
2025-01-07 11:42:15.23	211.99	10.25	-67.3	-72.7	3.7	0.00e+00	0	50	104
2025-01-07 11:42:17.13	212.29	10.41	-67.4	-73.0	3.6	0.00e+00	0	51	104
2025-01-07 11:42:19.02	212.59	10.57	-67.4	-73.1	3.6	0.00e+00	0	51	104
2025-01-07 11:42:20.92	212.90	10.73	-67.3	-73.1	3.6	0.00e+00	0	51	104
2025-01-07 11:42:22.82	213.21	10.90	-67.3	-73.2	3.6	0.00e+00	0	51	104
2025-01-07 11:42:24.72	213.52	11.06	-67.4	-73.3	3.6	0.00e+00	0	52	104
2025-01-07 11:42:26.62	213.84	11.23	-67.5	-73.3	3.7	0.00e+00	0	52	104
2025-01-07 11:42:28.52	214.16	11.39	-67.5	-73.4	3.7	0.00e+00	0	52	104
2025-01-07 11:42:30.42	214.48	11.56	-67.6	-73.5	3.7	0.00e+00	0	52	104
2025-01-07 11:42:32.32	214.82	11.72	-67.5	-73.3	3.6	0.00e+00	0	53	104
2025-01-07 11:42:34.22	215.15	11.89	-67.4	-72.9	3.6	0.00e+00	0	53	104
2025-01-07 11:42:36.12	215.49	12.06	-67.4	-72.8	3.6	0.00e+00	0	53	104
2025-01-07 11:42:38.02	215.83	12.23	-67.5	-73.3	3.7	0.00e+00	0	53	104
2025-01-07 11:42:39.91	216.18	12.40	-67.6	-73.5	3.7	0.00e+00	0	54	104
2025-01-07 11:42:41.81	216.53	12.57	-67.5	-73.3	3.7	0.00e+00	0	54	104
2025-01-07 11:42:43.71	216.89	12.74	-67.5	-73.3	3.6	0.00e+00	0	54	104
2025-01-07 11:42:45.61	217.25	12.91	-67.6	-73.5	3.6	0.00e+00	0	54	104
2025-01-07 11:42:47.51	217.62	13.08	-67.5	-73.4	3.6	0.00e+00	0	54	104
2025-01-07 11:42:49.41	218.00	13.25	-67.4	-73.3	3.7	0.00e+00	0	55	104
2025-01-07 11:42:51.31	218.37	13.43	-67.3	-73.2	3.7	0.00e+00	0	55	104
2025-01-07 11:42:53.21	218.76	13.60	-67.3	-73.3	3.6	0.00e+00	0	55	104
2025-01-07 11:42:55.11	219.14	13.78	-67.3	-73.3	3.6	0.00e+00	0	55	104
2025-01-07 11:42:57.01	219.54	13.95	-67.4	-73.4	3.6	0.00e+00	0	56	104
2025-01-07 11:42:58.91	219.94	14.13	-67.4	-73.3	3.6	0.00e+00	0	56	104
2025-01-07 11:43:00.80	220.34	14.30	-67.2	-73.2	3.7	0.00e+00	0	56	104
2025-01-07 11:43:02.70	220.75	14.48	-67.4	-73.5	3.7	0.00e+00	0	56	104
2025-01-07 11:43:04.60	221.17	14.66	-67.7	-73.7	3.7	0.00e+00	0	56	104
2025-01-07 11:43:06.50	221.59	14.83	-54.2	-56.7	12.8	2.08e-04	0	57	0
2025-01-07 11:43:08.40	222.01	15.01	-54.2	-56.6	12.8	6.24e-05	0	57	0
2025-01-07 11:43:10.29	222.44	15.19	-54.1	-56.4	12.9	2.77e-05	0	57	0
2025-01-07 11:43:12.19	222.88	15.37	-53.8	-56.3	13.3	2.08e-05	0	57	0
2025-01-07 11:43:14.08	223.33	15.54	-53.4	-56.0	13.5	0.00e+00	0	58	0
2025-01-07 11:43:15.98	223.78	15.72	-53.4	-56.0	13.5	0.00e+00	0	58	0
2025-01-07 11:43:17.88	224.23	15.90	-53.3	-55.9	13.5	0.00e+00	0	58	0
2025-01-07 11:43:19.78	224.70	16.08	-53.3	-55.9	13.5	6.90e-06	0	58	0
2025-01-07 11:43:21.68	225.17	16.26	-53.5	-56.3	13.4	0.00e+00	0	59	0
2025-01-07 11:43:23.57	225.64	16.44	-53.7	-56.6	13.2	0.00e+00	0	59	0
2025-01-07 11:43:25.46	226.12	16.61	-53.8	-56.9	13.2	3.46e-05	0	59	0
2025-01-07 11:43:27.35	226.61	16.79	-53.9	-57.1	13.3	6.90e-06	0	59	0
2025-01-07 11:43:29.24	227.10	16.97	-53.8	-56.9	13.2	6.90e-06	0	59	0
2025-01-07 11:43:31.14	227.60	17.15	-54.0	-57.3	13.1	2.08e-05	0	59	0
2025-01-07 11:43:33.04	228.11	17.33	-53.9	-57.0	13.0	6.90e-06	0	60	0
2025-01-07 11:43:34.94	228.63	17.50	-53.6	-56.5	13.1	1.38e-05	0	60	0
2025-01-07 11:43:36.84	229.15	17.68	-53.5	-56.2	13.1	6.90e-06	0	60	0
2025-01-07 11:43:38.73	229.68	17.86	-53.2	-55.6	13.3	0.00e+00	0	60	0
2025-01-07 11:43:40.63	230.22	18.03	-53.1	-55.9	13.4	1.38e-05	0	60	0
2025-01-07 11:43:42.53	230.76	18.21	-53.0	-55.8	13.5	0.00e+00	0	61	0
2025-01-07 11:43:44.42	231.31	18.38	-53.1	-56.0	13.4	0.00e+00	0	61	0
2025-01-07 11:43:46.32	231.86	18.56	-53.2	-56.1	13.3	0.00e+00	0	61	0
2025-01-07 11:43:48.22	232.43	18.73	-53.3	-56.3	13.3	0.00e+00	0	61	0
2025-01-07 11:43:50.11	233.00	18.90	-53.4	-56.6	13.2	0.00e+00	0	61	0
2025-01-07 11:43:52.01	233.58	19.07	-53.6	-57.0	13.2	0.00e+00	0	61	0
2025-01-07 11:43:53.90	234.16	19.24	-53.7	-57.2	12.8	4.16e-05	0	62	0
2025-01-07 11:43:55.80	234.76	19.41	-54.1	-57.4	12.5	5.54e-05	0	62	0
2025-01-07 11:43:57.70	235.36	19.58	-54.1	-57.4	12.7	7.62e-05	0	62	0
2025-01-07 11:43:59.60	235.97	19.74	-53.8	-56.8	13.1	2.77e-05	0	62	0
2025-01-07 11:44:01.50	236.58	19.91	-53.7	-56.7	12.9	5.54e-05	0	62	0
2025-01-07 11:44:03.40	237.21	20.07	-53.6	-56.5	13.0	3.46e-05	0	62	0
2025-01-07 11:44:05.30	237.84	20.23	-53.5	-56.3	13.2	6.90e-06	0	62	0
2025-01-07 11:44:07.20	238.47	20.39	-53.2	-55.6	13.4	0.00e+00	0	62	0
2025-01-07 11:44:09.10	239.12	20.54	-53.3	-55.8	13.3	0.00e+00	0	62	0
2025-01-07 11:44:11.00	239.77	20.70	-53.3	-55.9	13.5	0.00e+00	0	62	0
2025-01-07 11:44:12.90	240.43	20.85	-53.4	-56.0	13.4	6.90e-06	0	62	0
2025-01-07 11:44:14.80	241.10	21.00	-53.2	-56.1	13.3	1.38e-05	0	62	0
2025-01-07 11:44:16.70	241.77	21.15	-53.2	-56.1	13.3	2.77e-05	0	63	0
2025-01-07 11:44:18.60	242.45	21.29	-53.9	-56.9	13.2	2.08e-05	0	63	0
2025-01-07 11:44:20.50	243.14	21.43	-53.9	-56.9	13.1	0.00e+00	0	63	0
2025-01-07 11:44:22.40	243.84	21.57	-54.2	-57.6	12.6	4.16e-05	0	63	0
2025-01-07 11:44:24.30	244.54	21.71	-54.3	-57.8	12.7	5.54e-05	0	63	0
2025-01-07 11:44:26.19	245.24	21.84	-54.4	-57.5	12.9	2.08e-05	0	63	0
2025-01-07 11:44:28.09	245.96	21.97	-54.0	-56.8	12.9	4.16e-05	0	64	0
2025-01-07 11:44:29.99	246.68	22.10	-54.0	-56.8	13.0	4.16e-05	0	64	0
2025-01-07 11:44:31.89	247.41	22.22	-53.9	-56.6	13.3	2.77e-05	0	64	0
2025-01-07 11:44:33.79	248.14	22.34	-53.9	-56.5	13.3	0.00e+00	0	64	0
2025-01-07 11:44:35.69	248.88	22.45	-53.9	-56.5	13.1	1.38e-05	0	64	0
2025-01-07 11:44:37.59	249.63	22.56	-53.6	-56.5	13.0	2.77e-05	0	64	0
2025-01-07 11:44:39.49	250.38	22.67	-53.6	-56.5	13.2	3.46e-05	0	64	0
2025-01-07 11:44:41.39	251.13	22.77	-53.5	-56.2	13.4	6.90e-06	0	64	0
2025-01-07 11:44:43.29	251.90	22.87	-53.5	-56.3	13.4	0.00e+00	0	64	0
2025-01-07 11:44:45.19	252.66	22.97	-53.4	-56.0	13.6	0.00e+00	0	64	0
2025-01-07 11:44:47.09	253.44	23.06	-52.9	-55.6	13.8	0.00e+00	0	64	0
2025-01-07 11:44:48.99	254.21	23.14	-53.3	-56.4	13.6	6.90e-06	0	65	0
2025-01-07 11:44:50.88	254.99	23.22	-53.5	-56.8	13.5	0.00e+00	0	65	0
2025-01-07 11:44:52.78	255.78	23.30	-53.4	-56.1	13.5	2.77e-05	0	65	0
2025-01-07 11:44:54.68	256.57	23.37	-53.4	-56.1	13.5	6.90e-06	0	65	0
2025-01-07 11:44:56.58	257.36	23.43	-53.3	-55.8	13.7	0.00e+00	0	65	0
2025-01-07 11:44:58.48	258.16	23.50	-53.5	-56.3	13.5	0.00e+00	0	65	0
2025-01-07 11:45:00.38	258.96	23.55	-53.4	-56.1	13.5	1.38e-05	0	65	0
2025-01-07 11:45:02.28	259.76	23.60	-53.3	-55.9	13.5	3.46e-05	0	65	0
2025-01-07 11:45:04.18	260.57	23.65	-53.9	-57.1	13.1	3.46e-05	0	65	0
2025-01-07 11:45:06.08	261.37	23.69	-53.6	-56.4	13.4	6.90e-06	0	65	0
2025-01-07 11:45:07.98	262.18	23.72	-53.6	-56.5	13.4	6.90e-06	0	65	0
2025-01-07 11:45:09.88	263.00	23.75	-53.9	-57.1	13.2	1.38e-05	0	66	0
2025-01-07 11:45:11.78	263.81	23.77	-53.8	-56.8	13.3	0.00e+00	0	66	0
2025-01-07 11:45:13.67	264.62	23.79	-53.7	-56.7	13.4	1.38e-05	0	66	0
2025-01-07 11:45:15.57	265.43	23.81	-53.8	-56.9	13.3	1.38e-05	0	66	0
2025-01-07 11:45:17.47	266.25	23.81	-53.6	-56.5	13.4	2.08e-05	0	66	0
2025-01-07 11:45:19.37	267.07	23.81	-54.0	-57.3	13.1	3.46e-05	0	66	0
2025-01-07 11:45:21.27	267.88	23.81	-54.1	-57.5	13.0	6.90e-06	0	66	0
2025-01-07 11:45:23.17	268.70	23.80	-53.8	-56.9	13.3	0.00e+00	0	66	0
2025-01-07 11:45:25.07	269.51	23.79	-53.9	-57.1	13.2	0.00e+00	0	66	0
2025-01-07 11:45:26.97	270.32	23.77	-54.2	-57.6	13.0	2.77e-05	0	66	0
2025-01-07 11:45:28.87	271.14	23.74	-53.8	-56.8	13.4	0.00e+00	0	66	0
2025-01-07 11:45:30.77	271.95	23.71	-53.9	-56.6	13.2	0.00e+00	0	66	0
2025-01-07 11:45:32.67	272.75	23.67	-54.0	-56.8	13.2	6.90e-06	0	66	0
2025-01-07 11:45:34.56	273.55	23.63	-53.3	-55.9	13.5	6.90e-06	0	67	0
2025-01-07 11:45:36.46	274.36	23.58	-53.7	-56.7	13.5	6.90e-06	0	67	0
2025-01-07 11:45:38.36	275.16	23.53	-53.6	-56.4	13.5	0.00e+00	0	67	0
2025-01-07 11:45:40.26	275.96	23.47	-53.4	-56.1	13.4	6.90e-06	0	67	0
2025-01-07 11:45:42.16	276.75	23.41	-53.6	-56.4	13.3	1.38e-05	0	67	0
2025-01-07 11:45:44.06	277.54	23.34	-53.8	-56.8	13.4	0.00e+00	0	67	0
2025-01-07 11:45:45.96	278.33	23.27	-53.7	-56.7	13.4	1.38e-05	0	67	0
2025-01-07 11:45:47.86	279.11	23.19	-53.9	-57.0	13.2	0.00e+00	0	67	0
2025-01-07 11:45:49.76	279.88	23.11	-54.0	-57.3	13.1	2.08e-05	0	67	0
2025-01-07 11:45:51.66	280.66	23.03	-54.1	-57.0	13.0	2.77e-05	0	67	0
2025-01-07 11:45:53.56	281.42	22.93	-53.9	-57.0	13.3	0.00e+00	0	67	0
2025-01-07 11:45:55.45	282.18	22.84	-54.0	-57.2	13.1	6.90e-06	0	67	0
2025-01-07 11:45:57.35	282.94	22.74	-53.8	-56.9	13.0	3.46e-05	0	67	0
2025-01-07 11:45:59.25	283.69	22.64	-53.5	-56.2	13.3	0.00e+00	0	67	0
2025-01-07 11:46:01.15	284.44	22.53	-53.9	-57.1	13.2	1.38e-05	0	67	0
2025-01-07 11:46:03.05	285.18	22.42	-53.8	-56.9	13.1	1.38e-05	0	67	0
2025-01-07 11:46:04.95	285.91	22.30	-53.9	-56.5	13.0	4.85e-05	0	68	0
2025-01-07 11:46:06.85	286.64	22.18	-54.3	-57.4	12.8	1.38e-05	0	68	0
2025-01-07 11:46:08.75	287.36	22.06	-54.4	-57.7	12.7	4.85e-05	0	68	0
2025-01-07 11:46:10.65	288.08	21.93	-54.8	-57.8	12.5	9.71e-05	0	68	0
2025-01-07 11:46:12.55	288.79	21.80	-54.5	-57.2	12.5	6.24e-05	0	68	0
2025-01-07 11:46:14.45	289.49	21.67	-54.6	-57.5	12.5	1.25e-04	0	68	0
2025-01-07 11:46:16.34	290.18	21.53	-54.9	-58.2	12.2	1.39e-04	0	68	0
2025-01-07 11:46:18.24	290.87	21.39	-54.3	-56.8	12.8	1.38e-05	0	68	0
2025-01-07 11:46:20.14	291.55	21.25	-54.0	-56.7	13.2	1.38e-05	0	68	0
2025-01-07 11:46:22.04	292.22	21.11	-54.0	-56.7	13.1	2.77e-05	0	68	0
2025-01-07 11:46:23.94	292.89	20.96	-54.0	-56.7	13.1	2.08e-05	0	68	0
2025-01-07 11:46:25.84	293.55	20.81	-53.6	-56.5	13.3	6.90e-06	0	68	0
2025-01-07 11:46:27.74	294.20	20.66	-53.6	-56.4	13.2	6.90e-06	0	68	0
2025-01-07 11:46:29.64	294.85	20.51	-53.2	-55.6	13.4	0.00e+00	0	68	0
2025-01-07 11:46:31.54	295.49	20.35	-53.4	-56.2	13.3	6.90e-06	0	68	0
2025-01-07 11:46:33.44	296.12	20.19	-53.4	-56.1	13.5	0.00e+00	0	69	0
2025-01-07 11:46:35.34	296.74	20.03	-53.9	-57.0	13.1	2.08e-05	0	68	0
2025-01-07 11:46:37.23	297.36	19.87	-53.8	-56.8	13.2	2.08e-05	0	69	0
2025-01-07 11:46:39.13	297.97	19.71	-54.2	-57.1	13.0	4.16e-05	0	69	0
2025-01-07 11:46:41.03	298.57	19.55	-54.1	-57.0	13.1	3.46e-05	0	69	0
2025-01-07 11:46:42.93	299.16	19.38	-54.2	-57.2	13.0	2.08e-05	0	69	0
2025-01-07 11:46:44.83	299.75	19.21	-54.2	-57.1	12.9	1.38e-05	0	69	0
2025-01-07 11:46:46.73	300.33	19.04	-54.6	-57.9	12.5	9.71e-05	0	69	0
2025-01-07 11:46:48.63	300.90	18.88	-54.1	-57.1	12.8	9.71e-05	0	69	0
2025-01-07 11:46:50.53	301.47	18.70	-53.8	-56.4	13.2	3.46e-05	0	69	0
2025-01-07 11:46:52.43	302.03	18.53	-53.6	-56.5	13.4	0.00e+00	0	69	0
2025-01-07 11:46:54.33	302.58	18.36	-53.8	-56.9	13.3	6.90e-06	0	69	0
2025-01-07 11:46:56.23	303.12	18.19	-53.7	-56.6	13.3	6.90e-06	0	69	0
2025-01-07 11:46:58.13	303.66	18.01	-53.9	-57.0	13.2	1.38e-05	0	69	0
2025-01-07 11:47:00.02	304.19	17.84	-54.0	-57.2	13.1	2.77e-05	0	69	0
2025-01-07 11:47:01.92	304.71	17.67	-54.1	-57.4	13.1	3.46e-05	0	69	0
2025-01-07 11:47:03.82	305.23	17.49	-54.3	-57.3	13.0	6.90e-06	0	69	0
2025-01-07 11:47:05.72	305.74	17.31	-54.4	-57.6	12.9	6.90e-06	0	69	0
2025-01-07 11:47:07.62	306.24	17.14	-54.5	-57.7	12.8	1.38e-05	0	69	0
2025-01-07 11:47:09.52	306.74	16.96	-54.6	-58.0	12.8	4.85e-05	0	69	0
2025-01-07 11:47:11.42	307.23	16.78	-54.8	-57.9	12.7	4.16e-05	0	69	0
2025-01-07 11:47:13.32	307.71	16.61	-55.0	-58.3	12.6	4.16e-05	0	69	0
2025-01-07 11:47:15.22	308.19	16.43	-55.1	-58.5	12.5	9.71e-05	0	69	0
2025-01-07 11:47:17.12	308.66	16.25	-54.9	-58.1	12.6	6.24e-05	0	70	0
2025-01-07 11:47:19.02	309.12	16.08	-54.5	-57.3	12.8	5.54e-05	0	69	0
2025-01-07 11:47:20.91	309.58	15.90	-54.5	-57.2	12.8	1.38e-05	0	70	0
2025-01-07 11:47:22.81	310.03	15.73	-54.9	-58.0	12.5	6.93e-05	0	70	0
2025-01-07 11:47:24.71	310.47	15.55	-67.6	-73.7	3.6	6.93e-05	0	69	104
2025-01-07 11:47:26.61	310.91	15.37	-67.7	-73.8	3.6	6.93e-05	0	70	104
2025-01-07 11:47:28.51	311.35	15.20	-67.7	-73.3	3.6	6.93e-05	0	69	104
2025-01-07 11:47:30.41	311.78	15.02	-67.7	-73.3	3.6	6.93e-05	0	69	104
2025-01-07 11:47:32.31	312.20	14.85	-67.6	-73.1	3.7	4.85e-05	0	69	104
2025-01-07 11:47:34.21	312.61	14.67	-67.3	-72.7	3.7	4.85e-05	0	69	104
2025-01-07 11:47:36.11	313.03	14.50	-67.1	-73.0	3.6	4.85e-05	0	69	104
2025-01-07 11:47:38.01	313.43	14.32	-67.2	-73.0	3.6	4.85e-05	0	69	104
2025-01-07 11:47:39.91	313.83	14.15	-67.1	-73.0	3.6	4.85e-05	0	69	104
2025-01-07 11:47:41.80	314.22	13.98	-67.2	-73.2	3.6	4.85e-05	0	69	104
2025-01-07 11:47:43.70	314.61	13.80	-67.1	-73.1	3.7	4.85e-05	0	69	104
2025-01-07 11:47:45.60	315.00	13.63	-66.7	-73.3	3.7	4.85e-05	0	69	104
2025-01-07 11:47:47.50	315.38	13.46	-67.1	-73.7	3.6	4.85e-05	0	69	104
2025-01-07 11:47:49.40	315.75	13.29	-67.0	-73.1	3.6	4.85e-05	0	69	104
2025-01-07 11:47:51.30	316.12	13.12	-66.4	-73.5	3.6	4.85e-05	0	69	104
2025-01-07 11:47:53.20	316.48	12.95	-67.3	-73.4	3.6	4.85e-05	0	70	104
2025-01-07 11:47:55.10	316.84	12.78	-67.7	-73.8	3.7	4.85e-05	0	69	104
2025-01-07 11:47:57.00	317.19	12.61	-67.8	-73.4	3.7	4.85e-05	0	70	104
2025-01-07 11:47:58.90	317.54	12.44	-67.6	-73.2	3.7	4.85e-05	0	69	104
2025-01-07 11:48:00.80	317.89	12.27	-67.5	-72.8	3.7	4.85e-05	0	69	104
2025-01-07 11:48:02.69	318.23	12.11	-67.4	-72.6	3.6	4.85e-05	0	69	104
2025-01-07 11:48:04.59	318.56	11.94	-67.5	-72.7	3.6	4.85e-05	0	69	104
2025-01-07 11:48:06.49	318.90	11.78	-67.4	-72.7	3.7	4.85e-05	0	69	104
2025-01-07 11:48:08.39	319.22	11.61	-67.6	-73.0	3.7	4.85e-05	0	69	104
2025-01-07 11:48:10.29	319.55	11.45	-67.7	-73.3	3.6	4.85e-05	0	69	104
2025-01-07 11:48:12.19	319.86	11.28	-67.6	-73.2	3.6	4.85e-05	0	69	104
2025-01-07 11:48:14.09	320.18	11.12	-67.7	-73.2	3.6	4.85e-05	0	69	104
2025-01-07 11:48:15.99	320.49	10.96	-67.6	-73.1	3.6	4.85e-05	0	69	104
2025-01-07 11:48:17.89	320.80	10.80	-67.5	-73.0	3.7	4.85e-05	0	69	104
2025-01-07 11:48:19.79	321.10	10.64	-67.6	-73.1	3.7	4.85e-05	0	70	104
2025-01-07 11:48:21.69	321.40	10.48	-67.6	-73.1	3.7	4.85e-05	0	70	104
2025-01-07 11:48:23.59	321.69	10.32	-67.6	-73.0	3.6	4.85e-05	0	70	104
2025-01-07 11:48:25.48	321.98	10.16	-67.5	-72.7	3.6	4.85e-05	0	70	104
2025-01-07 11:48:27.38	322.27	10.01	-67.4	-72.6	3.6	4.85e-05	0	70	104
2025-01-07 11:48:29.28	322.55	9.85	-67.4	-72.6	3.7	4.85e-05	0	70	104
2025-01-07 11:48:31.18	322.83	9.70	-67.5	-72.8	3.7	4.85e-05	0	70	104
2025-01-07 11:48:33.08	323.11	9.54	-67.5	-72.9	3.7	4.85e-05	0	70	104
2025-01-07 11:48:34.98	323.39	9.39	-67.4	-72.7	3.7	4.85e-05	0	70	104
2025-01-07 11:48:36.88	323.66	9.23	-67.3	-72.4	3.6	4.85e-05	0	70	104
2025-01-07 11:48:38.78	323.92	9.08	-67.2	-72.0	3.6	4.85e-05	0	70	104
2025-01-07 11:48:40.68	324.19	8.93	-67.1	-72.2	3.7	4.85e-05	0	70	104
2025-01-07 11:48:42.58	324.45	8.78	-67.1	-72.1	3.7	4.85e-05	0	70	104
2025-01-07 11:48:44.48	324.70	8.63	-67.1	-72.4	3.6	4.85e-05	0	70	104
2025-01-07 11:48:46.37	324.96	8.48	-67.3	-72.8	3.6	4.85e-05	0	70	104
2025-01-07 11:48:48.27	325.21	8.33	-67.5	-73.3	3.6	4.85e-05	0	70	104
2025-01-07 11:48:50.17	325.45	8.18	-67.5	-73.3	3.6	4.85e-05	0	70	104
2025-01-07 11:48:52.07	325.70	8.03	-67.3	-72.8	3.7	4.85e-05	0	70	104

#Closed at: 2025-01-07 11:48:53
#Recorded file [19277 MB]: D:/data/31015_250107_234723.dat