passes_logs/2025/01/16/SPB_Silybum_02/SPB_Silybum_02__20250116_233519_SUOMI_NPP_rec.log

#Pass ID: 20250116_233519_SUOMI NPP
#Satellite: SUOMI NPP
#Configuration: NPP
#Start time: 2025-01-16 23:35:19

#Version: 2.0.20230423
#Station: SPB_Silybum_02
#Location: 30.233357 lon 59.946436 lat
#TLE: 1 37849U 11061A   25016.11811449  .00000162  00000+0  97827-4 0  9998
#TLE: 2 37849  98.7448 317.0925 0001640  39.6134 320.5162 14.19538688685075

#Time	Az	El	Level	Level2	SNR	BER	Gain	Gain2
2025-01-16 23:35:21.85	20.75	4.14	
2025-01-16 23:35:23.27	20.80	4.23	
2025-01-16 23:35:24.69	20.86	4.33	
2025-01-16 23:35:26.11	20.91	4.42	
2025-01-16 23:35:27.53	20.96	4.52	
2025-01-16 23:35:28.95	21.02	4.62	
2025-01-16 23:35:30.38	21.07	4.71	
2025-01-16 23:35:31.80	21.13	4.81	
2025-01-16 23:35:33.22	21.18	4.91	
2025-01-16 23:35:34.64	21.24	5.00	
2025-01-16 23:35:36.06	21.30	5.10	
2025-01-16 23:35:37.48	21.35	5.20	
2025-01-16 23:35:38.90	21.41	5.30	
2025-01-16 23:35:40.32	21.47	5.40	
2025-01-16 23:35:41.74	21.52	5.50	
2025-01-16 23:35:43.16	21.58	5.59	
2025-01-16 23:35:44.58	21.64	5.69	
2025-01-16 23:35:46.00	21.70	5.79	
2025-01-16 23:35:47.42	21.76	5.90	
2025-01-16 23:35:48.85	21.81	6.00	
2025-01-16 23:35:50.27	21.87	6.10	
2025-01-16 23:35:51.69	21.93	6.20	
2025-01-16 23:35:53.11	21.99	6.30	
2025-01-16 23:35:54.53	22.05	6.40	
2025-01-16 23:35:55.95	22.12	6.51	
2025-01-16 23:35:57.37	22.18	6.61	
2025-01-16 23:35:58.79	22.24	6.71	
2025-01-16 23:36:00.21	22.30	6.82	
2025-01-16 23:36:01.63	22.36	6.92	
2025-01-16 23:36:03.05	22.43	7.03	
2025-01-16 23:36:04.47	22.49	7.13	
2025-01-16 23:36:05.89	22.55	7.24	
2025-01-16 23:36:07.32	22.62	7.34	
2025-01-16 23:36:08.74	22.68	7.45	
2025-01-16 23:36:10.16	22.75	7.56	
2025-01-16 23:36:11.58	22.81	7.66	
2025-01-16 23:36:13.00	22.88	7.77	
2025-01-16 23:36:14.42	22.94	7.88	
2025-01-16 23:36:15.84	23.01	7.99	
2025-01-16 23:36:17.26	23.08	8.10	
2025-01-16 23:36:18.68	23.15	8.21	
2025-01-16 23:36:20.10	23.21	8.32	
2025-01-16 23:36:21.52	23.28	8.43	
2025-01-16 23:36:22.94	23.35	8.54	
2025-01-16 23:36:24.36	23.42	8.65	
2025-01-16 23:36:25.79	23.49	8.76	
2025-01-16 23:36:27.21	23.56	8.87	
2025-01-16 23:36:28.63	23.63	8.99	
2025-01-16 23:36:30.05	23.70	9.10	
2025-01-16 23:36:31.47	23.78	9.21	
2025-01-16 23:36:32.89	23.85	9.33	
2025-01-16 23:36:34.31	23.92	9.44	
2025-01-16 23:36:35.73	23.99	9.56	
2025-01-16 23:36:37.15	24.07	9.67	
2025-01-16 23:36:38.57	24.14	9.79	
2025-01-16 23:36:39.99	24.22	9.90	
2025-01-16 23:36:41.41	24.29	10.02	
2025-01-16 23:36:42.83	24.37	10.14	
2025-01-16 23:36:44.26	24.45	10.26	
2025-01-16 23:36:45.68	24.53	10.38	
2025-01-16 23:36:47.10	24.60	10.50	
2025-01-16 23:36:48.52	24.68	10.61	
2025-01-16 23:36:49.94	24.76	10.74	
2025-01-16 23:36:51.36	24.84	10.86	
2025-01-16 23:36:52.78	24.92	10.98	
2025-01-16 23:36:54.20	25.00	11.10	
2025-01-16 23:36:55.62	25.08	11.22	
2025-01-16 23:36:57.04	25.17	11.34	
2025-01-16 23:36:58.46	25.25	11.47	
2025-01-16 23:36:59.88	25.33	11.59	
2025-01-16 23:37:01.30	25.42	11.72	
2025-01-16 23:37:02.73	25.50	11.84	
2025-01-16 23:37:04.15	25.59	11.97	
2025-01-16 23:37:05.57	25.67	12.10	
2025-01-16 23:37:06.99	25.76	12.22	
2025-01-16 23:37:08.41	25.85	12.35	
2025-01-16 23:37:09.83	25.94	12.48	
2025-01-16 23:37:11.25	26.02	12.61	
2025-01-16 23:37:12.67	26.11	12.74	
2025-01-16 23:37:14.09	26.20	12.87	
2025-01-16 23:37:15.51	26.30	13.00	
2025-01-16 23:37:16.93	26.39	13.13	
2025-01-16 23:37:18.35	26.48	13.26	
2025-01-16 23:37:19.77	26.57	13.40	
2025-01-16 23:37:21.20	26.67	13.53	
2025-01-16 23:37:22.62	26.76	13.67	
2025-01-16 23:37:24.04	26.86	13.80	
2025-01-16 23:37:25.46	26.96	13.94	
2025-01-16 23:37:26.88	27.05	14.07	
2025-01-16 23:37:28.30	27.15	14.21	
2025-01-16 23:37:29.72	27.25	14.35	
2025-01-16 23:37:31.14	27.35	14.49	
2025-01-16 23:37:32.56	27.45	14.62	
2025-01-16 23:37:33.98	27.56	14.76	
2025-01-16 23:37:35.40	27.66	14.91	
2025-01-16 23:37:36.82	27.76	15.05	
2025-01-16 23:37:38.24	27.87	15.19	
2025-01-16 23:37:39.67	27.97	15.33	
2025-01-16 23:37:41.09	28.08	15.48	
2025-01-16 23:37:42.51	28.19	15.62	
2025-01-16 23:37:43.93	28.29	15.77	
2025-01-16 23:37:45.35	28.40	15.91	
2025-01-16 23:37:46.77	28.51	16.06	
2025-01-16 23:37:48.19	28.63	16.21	
2025-01-16 23:37:49.61	28.74	16.35	
2025-01-16 23:37:51.03	28.85	16.50	
2025-01-16 23:37:52.45	28.97	16.65	
2025-01-16 23:37:53.87	29.08	16.80	
2025-01-16 23:37:55.29	29.20	16.96	
2025-01-16 23:37:56.71	29.32	17.11	
2025-01-16 23:37:58.14	29.44	17.26	
2025-01-16 23:37:59.56	29.56	17.42	
2025-01-16 23:38:00.98	29.68	17.57	
2025-01-16 23:38:02.40	29.80	17.73	
2025-01-16 23:38:03.82	29.93	17.88	
2025-01-16 23:38:05.24	30.05	18.04	
2025-01-16 23:38:06.66	30.18	18.20	
2025-01-16 23:38:08.08	30.31	18.36	
2025-01-16 23:38:09.50	30.43	18.52	
2025-01-16 23:38:10.92	30.56	18.68	
2025-01-16 23:38:12.34	30.70	18.84	
2025-01-16 23:38:13.76	30.83	19.01	
2025-01-16 23:38:15.18	30.96	19.17	
2025-01-16 23:38:16.61	31.10	19.34	
2025-01-16 23:38:18.03	31.24	19.50	
2025-01-16 23:38:19.45	31.38	19.67	
2025-01-16 23:38:20.87	31.52	19.84	
2025-01-16 23:38:22.29	31.66	20.01	
2025-01-16 23:38:23.71	31.80	20.18	
2025-01-16 23:38:25.13	31.94	20.35	
2025-01-16 23:38:26.55	32.09	20.52	
2025-01-16 23:38:27.97	32.24	20.69	
2025-01-16 23:38:29.39	32.39	20.87	
2025-01-16 23:38:30.81	32.54	21.04	
2025-01-16 23:38:32.23	32.69	21.22	
2025-01-16 23:38:33.65	32.84	21.40	
2025-01-16 23:38:35.08	33.00	21.58	
2025-01-16 23:38:36.50	33.16	21.76	
2025-01-16 23:38:37.92	33.32	21.94	
2025-01-16 23:38:39.34	33.48	22.12	
2025-01-16 23:38:40.76	33.64	22.30	
2025-01-16 23:38:42.18	33.81	22.48	
2025-01-16 23:38:43.60	33.97	22.67	
2025-01-16 23:38:45.02	34.14	22.85	
2025-01-16 23:38:46.44	34.31	23.04	
2025-01-16 23:38:47.86	34.49	23.23	
2025-01-16 23:38:49.28	34.66	23.42	
2025-01-16 23:38:50.70	34.84	23.61	
2025-01-16 23:38:52.12	35.01	23.80	
2025-01-16 23:38:53.55	35.20	23.99	
2025-01-16 23:38:54.97	35.38	24.19	
2025-01-16 23:38:56.39	35.57	24.38	
2025-01-16 23:38:57.81	35.75	24.58	
2025-01-16 23:38:59.23	35.94	24.77	
2025-01-16 23:39:00.65	36.13	24.97	
2025-01-16 23:39:02.07	36.33	25.17	
2025-01-16 23:39:03.49	36.53	25.37	
2025-01-16 23:39:04.91	36.72	25.58	
2025-01-16 23:39:06.33	36.93	25.78	
2025-01-16 23:39:07.75	37.13	25.98	
2025-01-16 23:39:09.17	37.34	26.19	
2025-01-16 23:39:10.59	37.55	26.40	
2025-01-16 23:39:12.02	37.76	26.60	
2025-01-16 23:39:13.44	37.98	26.81	
2025-01-16 23:39:14.86	38.19	27.02	
2025-01-16 23:39:16.28	38.41	27.24	
2025-01-16 23:39:17.70	38.64	27.45	
2025-01-16 23:39:19.12	38.86	27.66	
2025-01-16 23:39:20.54	39.09	27.88	
2025-01-16 23:39:21.96	39.32	28.09	
2025-01-16 23:39:23.38	39.56	28.31	
2025-01-16 23:39:24.80	39.80	28.53	
2025-01-16 23:39:26.22	40.04	28.75	
2025-01-16 23:39:27.64	40.28	28.97	
2025-01-16 23:39:29.06	40.53	29.19	
2025-01-16 23:39:30.49	40.79	29.42	
2025-01-16 23:39:31.91	41.04	29.65	
2025-01-16 23:39:33.33	41.30	29.87	
2025-01-16 23:39:34.75	41.56	30.10	
2025-01-16 23:39:36.17	41.83	30.33	
2025-01-16 23:39:37.59	42.10	30.56	
2025-01-16 23:39:39.01	42.37	30.79	
2025-01-16 23:39:40.43	42.65	31.02	
2025-01-16 23:39:41.87	42.93	31.26	
2025-01-16 23:39:43.29	43.22	31.49	
2025-01-16 23:39:44.71	43.51	31.73	
2025-01-16 23:39:46.13	43.80	31.96	
2025-01-16 23:39:47.55	44.10	32.20	
2025-01-16 23:39:48.97	44.40	32.44	
2025-01-16 23:39:50.39	44.71	32.68	
2025-01-16 23:39:51.81	45.02	32.92	
2025-01-16 23:39:53.23	45.33	33.16	
2025-01-16 23:39:54.65	45.65	33.40	
2025-01-16 23:39:56.07	45.98	33.65	
2025-01-16 23:39:57.49	46.30	33.89	
2025-01-16 23:39:58.91	46.64	34.14	
2025-01-16 23:40:00.34	46.98	34.39	
2025-01-16 23:40:01.76	47.33	34.63	
2025-01-16 23:40:03.18	47.67	34.88	
2025-01-16 23:40:04.60	48.03	35.13	
2025-01-16 23:40:06.02	48.39	35.38	
2025-01-16 23:40:07.44	48.76	35.63	
2025-01-16 23:40:08.86	49.13	35.88	
2025-01-16 23:40:10.28	49.50	36.13	
2025-01-16 23:40:11.70	49.89	36.39	
2025-01-16 23:40:13.12	50.28	36.64	
2025-01-16 23:40:14.54	50.67	36.89	
2025-01-16 23:40:15.96	51.07	37.15	
2025-01-16 23:40:17.38	51.48	37.40	
2025-01-16 23:40:18.81	51.89	37.66	
2025-01-16 23:40:20.23	52.31	37.91	
2025-01-16 23:40:21.65	52.74	38.17	
2025-01-16 23:40:23.07	53.17	38.42	
2025-01-16 23:40:24.49	53.61	38.68	
2025-01-16 23:40:25.91	54.06	38.94	
2025-01-16 23:40:27.33	54.51	39.19	
2025-01-16 23:40:28.75	54.97	39.45	
2025-01-16 23:40:30.17	55.44	39.70	
2025-01-16 23:40:31.59	55.92	39.96	
2025-01-16 23:40:33.01	56.40	40.21	
2025-01-16 23:40:34.43	56.89	40.47	
2025-01-16 23:40:35.85	57.39	40.72	
2025-01-16 23:40:37.28	57.90	40.98	
2025-01-16 23:40:38.70	58.41	41.23	
2025-01-16 23:40:40.12	58.93	41.48	
2025-01-16 23:40:41.54	59.46	41.73	
2025-01-16 23:40:42.96	60.00	41.98	
2025-01-16 23:40:44.38	60.54	42.23	
2025-01-16 23:40:45.80	61.10	42.48	
2025-01-16 23:40:47.22	61.66	42.73	
2025-01-16 23:40:48.64	62.23	42.97	
2025-01-16 23:40:50.06	62.81	43.22	
2025-01-16 23:40:51.48	63.40	43.46	
2025-01-16 23:40:52.90	64.00	43.70	
2025-01-16 23:40:54.32	64.61	43.93	
2025-01-16 23:40:55.75	65.23	44.17	
2025-01-16 23:40:57.17	65.85	44.41	
2025-01-16 23:40:58.59	66.49	44.64	
2025-01-16 23:41:00.01	67.13	44.87	
2025-01-16 23:41:01.43	67.78	45.09	
2025-01-16 23:41:02.85	68.44	45.32	
2025-01-16 23:41:04.27	69.11	45.54	
2025-01-16 23:41:05.69	69.79	45.75	
2025-01-16 23:41:07.11	70.48	45.97	
2025-01-16 23:41:08.53	71.18	46.18	
2025-01-16 23:41:09.95	71.89	46.39	
2025-01-16 23:41:11.37	72.61	46.59	
2025-01-16 23:41:12.79	73.33	46.79	
2025-01-16 23:41:14.22	74.07	46.99	
2025-01-16 23:41:15.64	74.82	47.18	
2025-01-16 23:41:17.06	75.57	47.36	
2025-01-16 23:41:18.48	76.34	47.55	
2025-01-16 23:41:19.90	77.11	47.72	
2025-01-16 23:41:21.32	77.89	47.90	
2025-01-16 23:41:22.74	78.68	48.07	
2025-01-16 23:41:24.16	79.47	48.23	
2025-01-16 23:41:25.58	80.28	48.39	
2025-01-16 23:41:27.00	81.09	48.54	
2025-01-16 23:41:28.42	81.91	48.68	
2025-01-16 23:41:29.84	82.74	48.82	
2025-01-16 23:41:31.26	83.58	48.96	
2025-01-16 23:41:32.69	84.43	49.09	
2025-01-16 23:41:34.11	85.28	49.21	
2025-01-16 23:41:35.53	86.14	49.33	
2025-01-16 23:41:36.95	87.00	49.44	
2025-01-16 23:41:38.37	87.87	49.54	
2025-01-16 23:41:39.79	88.75	49.63	
2025-01-16 23:41:41.21	89.63	49.72	
2025-01-16 23:41:42.63	90.51	49.81	
2025-01-16 23:41:44.05	91.40	49.88	
2025-01-16 23:41:45.47	92.30	49.95	
2025-01-16 23:41:46.89	93.19	50.01	
2025-01-16 23:41:48.31	94.10	50.06	
2025-01-16 23:41:49.73	95.00	50.11	
2025-01-16 23:41:51.16	95.91	50.15	
2025-01-16 23:41:52.58	96.82	50.18	
2025-01-16 23:41:54.00	97.73	50.20	
2025-01-16 23:41:55.42	98.65	50.22	
2025-01-16 23:41:56.84	99.56	50.23	
2025-01-16 23:41:58.26	100.47	50.23	
2025-01-16 23:41:59.68	101.38	50.22	
2025-01-16 23:42:01.10	102.30	50.21	
2025-01-16 23:42:02.52	103.21	50.19	
2025-01-16 23:42:03.94	104.12	50.16	
2025-01-16 23:42:05.36	105.03	50.12	
2025-01-16 23:42:06.78	105.93	50.08	
2025-01-16 23:42:08.20	106.84	50.03	
2025-01-16 23:42:09.63	107.74	49.97	
2025-01-16 23:42:11.05	108.64	49.90	
2025-01-16 23:42:12.47	109.53	49.83	
2025-01-16 23:42:13.89	110.42	49.75	
2025-01-16 23:42:15.31	111.30	49.66	
2025-01-16 23:42:16.73	112.18	49.57	
2025-01-16 23:42:18.15	113.05	49.47	
2025-01-16 23:42:19.57	113.92	49.36	
2025-01-16 23:42:20.99	114.78	49.25	
2025-01-16 23:42:22.41	115.63	49.13	
2025-01-16 23:42:23.83	116.48	49.00	
2025-01-16 23:42:25.25	117.32	48.87	
2025-01-16 23:42:26.67	118.15	48.73	
2025-01-16 23:42:28.10	118.98	48.58	
2025-01-16 23:42:29.52	119.80	48.43	
2025-01-16 23:42:30.94	120.61	48.28	
2025-01-16 23:42:32.36	121.41	48.11	
2025-01-16 23:42:33.78	122.20	47.95	
2025-01-16 23:42:35.20	122.99	47.78	
2025-01-16 23:42:36.62	123.76	47.60	
2025-01-16 23:42:38.04	124.53	47.42	
2025-01-16 23:42:39.46	125.29	47.23	
2025-01-16 23:42:40.88	126.04	47.04	
2025-01-16 23:42:42.30	126.78	46.85	
2025-01-16 23:42:43.72	127.51	46.65	
2025-01-16 23:42:45.14	128.23	46.44	
2025-01-16 23:42:46.56	128.94	46.24	
2025-01-16 23:42:47.99	129.65	46.03	
2025-01-16 23:42:49.41	130.34	45.81	
2025-01-16 23:42:50.83	131.03	45.59	
2025-01-16 23:42:52.25	131.70	45.37	
2025-01-16 23:42:53.67	132.37	45.15	
2025-01-16 23:42:55.09	133.02	44.92	
2025-01-16 23:42:56.51	133.67	44.70	
2025-01-16 23:42:57.93	134.31	44.46	
2025-01-16 23:42:59.35	134.94	44.23	
2025-01-16 23:43:00.77	135.56	43.99	
2025-01-16 23:43:02.19	136.17	43.76	
2025-01-16 23:43:03.61	136.77	43.52	
2025-01-16 23:43:05.04	137.37	43.27	
2025-01-16 23:43:06.46	137.95	43.03	
2025-01-16 23:43:07.88	138.53	42.78	
2025-01-16 23:43:09.30	139.10	42.53	
2025-01-16 23:43:10.72	139.65	42.29	
2025-01-16 23:43:12.14	140.20	42.04	
2025-01-16 23:43:13.56	140.74	41.79	
2025-01-16 23:43:14.98	141.28	41.53	
2025-01-16 23:43:16.40	141.80	41.28	
2025-01-16 23:43:17.82	142.32	41.03	
2025-01-16 23:43:19.24	142.83	40.77	
2025-01-16 23:43:20.66	143.33	40.52	
2025-01-16 23:43:22.08	143.82	40.26	
2025-01-16 23:43:23.51	144.31	40.00	
2025-01-16 23:43:24.93	144.79	39.75	
2025-01-16 23:43:26.35	145.26	39.49	
2025-01-16 23:43:27.77	145.73	39.23	
2025-01-16 23:43:29.19	146.18	38.98	
2025-01-16 23:43:30.61	146.63	38.72	
2025-01-16 23:43:32.03	147.08	38.46	
2025-01-16 23:43:33.45	147.51	38.21	
2025-01-16 23:43:34.87	147.94	37.95	
2025-01-16 23:43:36.29	148.36	37.69	
2025-01-16 23:43:37.71	148.78	37.44	
2025-01-16 23:43:39.13	149.19	37.18	
2025-01-16 23:43:40.55	149.59	36.92	
2025-01-16 23:43:41.98	149.99	36.67	
2025-01-16 23:43:43.40	150.38	36.41	
2025-01-16 23:43:44.82	150.77	36.16	
2025-01-16 23:43:46.24	151.15	35.91	
2025-01-16 23:43:47.66	151.52	35.65	
2025-01-16 23:43:49.08	151.89	35.40	
2025-01-16 23:43:50.50	152.25	35.15	
2025-01-16 23:43:51.92	152.61	34.90	
2025-01-16 23:43:53.34	152.96	34.65	
2025-01-16 23:43:54.76	153.31	34.40	
2025-01-16 23:43:56.18	153.65	34.15	
2025-01-16 23:43:57.60	153.98	33.91	
2025-01-16 23:43:59.02	154.32	33.66	
2025-01-16 23:44:00.45	154.64	33.41	
2025-01-16 23:44:01.87	154.97	33.17	
2025-01-16 23:44:03.29	155.28	32.92	
2025-01-16 23:44:04.71	155.60	32.68	
2025-01-16 23:44:06.13	155.90	32.44	
2025-01-16 23:44:07.55	156.21	32.20	
2025-01-16 23:44:08.97	156.51	31.96	
2025-01-16 23:44:10.39	156.80	31.72	
2025-01-16 23:44:11.81	157.09	31.49	
2025-01-16 23:44:13.23	157.38	31.25	
2025-01-16 23:44:14.65	157.66	31.02	
2025-01-16 23:44:16.07	157.94	30.78	
2025-01-16 23:44:17.49	158.21	30.55	
2025-01-16 23:44:18.92	158.49	30.32	
2025-01-16 23:44:20.34	158.75	30.09	
2025-01-16 23:44:21.76	159.02	29.86	
2025-01-16 23:44:23.18	159.28	29.63	
2025-01-16 23:44:24.60	159.53	29.40	
2025-01-16 23:44:26.02	159.78	29.18	
2025-01-16 23:44:27.44	160.03	28.95	
2025-01-16 23:44:28.86	160.28	28.73	
2025-01-16 23:44:30.28	160.52	28.51	
2025-01-16 23:44:31.70	160.76	28.29	
2025-01-16 23:44:33.12	161.00	28.07	
2025-01-16 23:44:34.54	161.23	27.85	
2025-01-16 23:44:35.96	161.46	27.64	
2025-01-16 23:44:37.39	161.69	27.42	
2025-01-16 23:44:38.81	161.91	27.20	
2025-01-16 23:44:40.23	162.13	26.99	
2025-01-16 23:44:41.65	162.35	26.78	
2025-01-16 23:44:43.07	162.57	26.57	
2025-01-16 23:44:44.49	162.78	26.36	
2025-01-16 23:44:45.91	162.99	26.15	
2025-01-16 23:44:47.33	163.20	25.94	
2025-01-16 23:44:48.75	163.40	25.74	
2025-01-16 23:44:50.17	163.61	25.53	
2025-01-16 23:44:51.59	163.81	25.33	
2025-01-16 23:44:53.01	164.00	25.13	
2025-01-16 23:44:54.43	164.20	24.93	
2025-01-16 23:44:55.86	164.39	24.73	
2025-01-16 23:44:57.28	164.58	24.53	
2025-01-16 23:44:58.70	164.77	24.33	
2025-01-16 23:45:00.12	164.96	24.13	
2025-01-16 23:45:01.54	165.14	23.94	
2025-01-16 23:45:02.96	165.32	23.74	
2025-01-16 23:45:04.38	165.50	23.55	
2025-01-16 23:45:05.80	165.68	23.36	
2025-01-16 23:45:07.22	165.85	23.17	
2025-01-16 23:45:08.64	166.02	22.98	
2025-01-16 23:45:10.06	166.19	22.79	
2025-01-16 23:45:11.48	166.36	22.61	
2025-01-16 23:45:12.90	166.53	22.42	
2025-01-16 23:45:14.33	166.70	22.23	
2025-01-16 23:45:15.75	166.86	22.05	
2025-01-16 23:45:17.17	167.02	21.87	
2025-01-16 23:45:18.59	167.18	21.69	
2025-01-16 23:45:20.01	167.34	21.51	
2025-01-16 23:45:21.43	167.49	21.33	
2025-01-16 23:45:22.85	167.65	21.15	
2025-01-16 23:45:24.27	167.80	20.97	
2025-01-16 23:45:25.69	167.95	20.79	
2025-01-16 23:45:27.11	168.10	20.62	
2025-01-16 23:45:28.53	168.25	20.44	
2025-01-16 23:45:29.95	168.39	20.27	
2025-01-16 23:45:31.37	168.54	20.10	
2025-01-16 23:45:32.80	168.68	19.93	
2025-01-16 23:45:34.22	168.82	19.76	
2025-01-16 23:45:35.64	168.96	19.59	
2025-01-16 23:45:37.06	169.10	19.42	
2025-01-16 23:45:38.48	169.24	19.25	
2025-01-16 23:45:39.90	169.37	19.09	
2025-01-16 23:45:41.32	169.51	18.92	
2025-01-16 23:45:42.74	169.64	18.76	
2025-01-16 23:45:44.16	169.77	18.59	
2025-01-16 23:45:45.58	169.90	18.43	
2025-01-16 23:45:47.00	170.03	18.27	
2025-01-16 23:45:48.42	170.16	18.11	
2025-01-16 23:45:49.84	170.28	17.95	
2025-01-16 23:45:51.26	170.41	17.79	
2025-01-16 23:45:52.69	170.53	17.63	
2025-01-16 23:45:54.11	170.65	17.48	
2025-01-16 23:45:55.53	170.77	17.32	
2025-01-16 23:45:56.95	170.89	17.16	
2025-01-16 23:45:58.37	171.01	17.01	
2025-01-16 23:45:59.79	171.13	16.86	
2025-01-16 23:46:01.21	171.25	16.70	
2025-01-16 23:46:02.63	171.36	16.55	
2025-01-16 23:46:04.05	171.48	16.40	
2025-01-16 23:46:05.47	171.59	16.25	
2025-01-16 23:46:06.89	171.70	16.10	
2025-01-16 23:46:08.31	171.81	15.95	
2025-01-16 23:46:09.73	171.92	15.81	
2025-01-16 23:46:11.16	172.03	15.66	
2025-01-16 23:46:12.58	172.14	15.51	
2025-01-16 23:46:14.00	172.25	15.37	
2025-01-16 23:46:15.42	172.35	15.22	
2025-01-16 23:46:16.84	172.46	15.08	
2025-01-16 23:46:18.26	172.56	14.94	
2025-01-16 23:46:19.68	172.67	14.79	
2025-01-16 23:46:21.10	172.77	14.65	
2025-01-16 23:46:22.52	172.87	14.51	
2025-01-16 23:46:23.94	172.97	14.37	
2025-01-16 23:46:25.36	173.07	14.23	
2025-01-16 23:46:26.78	173.17	14.09	
2025-01-16 23:46:28.20	173.27	13.95	
2025-01-16 23:46:29.63	173.36	13.82	
2025-01-16 23:46:31.05	173.46	13.68	
2025-01-16 23:46:32.47	173.55	13.54	
2025-01-16 23:46:33.89	173.65	13.41	
2025-01-16 23:46:35.31	173.74	13.28	
2025-01-16 23:46:36.73	173.83	13.14	
2025-01-16 23:46:38.15	173.93	13.01	
2025-01-16 23:46:39.57	174.02	12.88	
2025-01-16 23:46:40.99	174.11	12.74	
2025-01-16 23:46:42.41	174.20	12.61	
2025-01-16 23:46:43.83	174.29	12.48	
2025-01-16 23:46:45.25	174.38	12.35	
2025-01-16 23:46:46.67	174.46	12.22	
2025-01-16 23:46:48.10	174.55	12.09	
2025-01-16 23:46:49.52	174.64	11.97	
2025-01-16 23:46:50.94	174.72	11.84	
2025-01-16 23:46:52.36	174.81	11.71	
2025-01-16 23:46:53.78	174.89	11.59	
2025-01-16 23:46:55.20	174.97	11.46	
2025-01-16 23:46:56.62	175.06	11.34	
2025-01-16 23:46:58.04	175.14	11.21	
2025-01-16 23:46:59.46	175.22	11.09	
2025-01-16 23:47:00.88	175.30	10.97	
2025-01-16 23:47:02.30	175.38	10.84	
2025-01-16 23:47:03.72	175.46	10.72	
2025-01-16 23:47:05.14	175.54	10.60	
2025-01-16 23:47:06.57	175.62	10.48	
2025-01-16 23:47:07.99	175.69	10.36	
2025-01-16 23:47:09.41	175.77	10.24	
2025-01-16 23:47:10.83	175.85	10.12	
2025-01-16 23:47:12.25	175.92	10.00	
2025-01-16 23:47:13.67	176.00	9.88	
2025-01-16 23:47:15.09	176.07	9.76	
2025-01-16 23:47:16.51	176.15	9.65	
2025-01-16 23:47:17.93	176.22	9.53	
2025-01-16 23:47:19.35	176.29	9.41	
2025-01-16 23:47:20.77	176.37	9.30	
2025-01-16 23:47:22.19	176.44	9.18	
2025-01-16 23:47:23.61	176.51	9.07	
2025-01-16 23:47:25.04	176.58	8.95	
2025-01-16 23:47:26.46	176.65	8.84	
2025-01-16 23:47:27.88	176.72	8.73	
2025-01-16 23:47:29.30	176.79	8.61	
2025-01-16 23:47:30.72	176.86	8.50	
2025-01-16 23:47:32.14	176.93	8.39	
2025-01-16 23:47:33.56	177.00	8.28	
2025-01-16 23:47:34.98	177.06	8.17	
2025-01-16 23:47:36.40	177.13	8.06	
2025-01-16 23:47:37.82	177.20	7.95	
2025-01-16 23:47:39.24	177.26	7.84	
2025-01-16 23:47:40.66	177.33	7.73	
2025-01-16 23:47:42.08	177.39	7.62	
2025-01-16 23:47:43.51	177.46	7.51	
2025-01-16 23:47:44.93	177.52	7.40	
2025-01-16 23:47:46.35	177.59	7.30	
2025-01-16 23:47:47.77	177.65	7.19	
2025-01-16 23:47:49.19	177.71	7.08	
2025-01-16 23:47:50.61	177.77	6.98	
2025-01-16 23:47:52.03	177.84	6.87	
2025-01-16 23:47:53.45	177.90	6.77	
2025-01-16 23:47:54.87	177.96	6.66	
2025-01-16 23:47:56.29	178.02	6.56	
2025-01-16 23:47:57.71	178.08	6.45	
2025-01-16 23:47:59.13	178.14	6.35	
2025-01-16 23:48:00.55	178.20	6.24	
2025-01-16 23:48:01.98	178.26	6.14	
2025-01-16 23:48:03.40	178.32	6.04	
2025-01-16 23:48:04.82	178.38	5.94	
2025-01-16 23:48:06.24	178.43	5.83	
2025-01-16 23:48:07.66	178.49	5.73	
2025-01-16 23:48:09.08	178.55	5.63	
2025-01-16 23:48:10.50	178.61	5.53	
2025-01-16 23:48:11.92	178.66	5.43	
2025-01-16 23:48:13.34	178.72	5.33	
2025-01-16 23:48:14.76	178.78	5.23	
2025-01-16 23:48:16.18	178.83	5.13	
2025-01-16 23:48:17.60	178.89	5.03	
2025-01-16 23:48:19.02	178.94	4.94	
2025-01-16 23:48:20.45	179.00	4.84	
2025-01-16 23:48:21.87	179.05	4.74	
2025-01-16 23:48:23.29	179.10	4.64	
2025-01-16 23:48:24.71	179.16	4.54	
2025-01-16 23:48:26.13	179.21	4.45	
2025-01-16 23:48:27.55	179.26	4.35	
2025-01-16 23:48:28.97	179.32	4.26	
2025-01-16 23:48:30.39	179.37	4.16	
2025-01-16 23:48:31.81	179.42	4.06	

#Closed at: 2025-01-16 23:48:32