passes_logs/2025/01/16/SPB_Silybum_02/SPB_Silybum_02__20250116_215543_SUOMI_NPP_rec.log

#Pass ID: 20250116_215543_SUOMI NPP
#Satellite: SUOMI NPP
#Configuration: NPP
#Start time: 2025-01-16 21:55:43

#Version: 2.0.20230423
#Station: SPB_Silybum_02
#Location: 30.233357 lon 59.946436 lat
#TLE: 1 37849U 11061A   25016.11811449  .00000162  00000+0  97827-4 0  9998
#TLE: 2 37849  98.7448 317.0925 0001640  39.6134 320.5162 14.19538688685075

#Time	Az	El	Level	Level2	SNR	BER	Gain	Gain2
2025-01-16 21:55:45.48	33.50	4.08	
2025-01-16 21:55:46.49	33.61	4.12	
2025-01-16 21:55:47.51	33.72	4.17	
2025-01-16 21:55:48.52	33.84	4.21	
2025-01-16 21:55:49.54	33.95	4.26	
2025-01-16 21:55:50.55	34.07	4.30	
2025-01-16 21:55:51.57	34.19	4.35	
2025-01-16 21:55:52.58	34.30	4.39	
2025-01-16 21:55:53.60	34.42	4.44	
2025-01-16 21:55:54.61	34.53	4.48	
2025-01-16 21:55:55.63	34.65	4.53	
2025-01-16 21:55:56.64	34.77	4.57	
2025-01-16 21:55:57.66	34.89	4.61	
2025-01-16 21:55:58.67	35.00	4.66	
2025-01-16 21:55:59.68	35.12	4.70	
2025-01-16 21:56:00.70	35.24	4.75	
2025-01-16 21:56:01.71	35.36	4.79	
2025-01-16 21:56:02.73	35.48	4.84	
2025-01-16 21:56:03.74	35.60	4.88	
2025-01-16 21:56:04.76	35.72	4.92	
2025-01-16 21:56:05.77	35.84	4.97	
2025-01-16 21:56:06.79	35.96	5.01	
2025-01-16 21:56:07.80	36.08	5.06	
2025-01-16 21:56:08.82	36.20	5.10	
2025-01-16 21:56:09.83	36.33	5.14	
2025-01-16 21:56:10.85	36.45	5.19	
2025-01-16 21:56:11.86	36.57	5.23	
2025-01-16 21:56:12.88	36.69	5.28	
2025-01-16 21:56:13.89	36.82	5.32	
2025-01-16 21:56:14.91	36.94	5.36	
2025-01-16 21:56:15.92	37.06	5.41	
2025-01-16 21:56:16.94	37.19	5.45	
2025-01-16 21:56:17.95	37.31	5.50	
2025-01-16 21:56:18.97	37.44	5.54	
2025-01-16 21:56:19.98	37.56	5.58	
2025-01-16 21:56:21.00	37.69	5.63	
2025-01-16 21:56:22.01	37.82	5.67	
2025-01-16 21:56:23.03	37.94	5.71	
2025-01-16 21:56:24.04	38.07	5.76	
2025-01-16 21:56:25.06	38.20	5.80	
2025-01-16 21:56:26.07	38.33	5.84	
2025-01-16 21:56:27.09	38.45	5.89	
2025-01-16 21:56:28.10	38.58	5.93	
2025-01-16 21:56:29.12	38.71	5.97	
2025-01-16 21:56:30.13	38.84	6.02	
2025-01-16 21:56:31.14	38.97	6.06	
2025-01-16 21:56:32.16	39.10	6.10	
2025-01-16 21:56:33.17	39.23	6.15	
2025-01-16 21:56:34.19	39.36	6.19	
2025-01-16 21:56:35.20	39.49	6.23	
2025-01-16 21:56:36.22	39.62	6.28	
2025-01-16 21:56:37.23	39.75	6.32	
2025-01-16 21:56:38.25	39.89	6.36	
2025-01-16 21:56:39.26	40.02	6.40	
2025-01-16 21:56:40.28	40.15	6.45	
2025-01-16 21:56:41.29	40.28	6.49	
2025-01-16 21:56:42.31	40.42	6.53	
2025-01-16 21:56:43.32	40.55	6.58	
2025-01-16 21:56:44.34	40.69	6.62	
2025-01-16 21:56:45.35	40.82	6.66	
2025-01-16 21:56:46.37	40.96	6.70	
2025-01-16 21:56:47.38	41.09	6.75	
2025-01-16 21:56:48.40	41.23	6.79	
2025-01-16 21:56:49.41	41.36	6.83	
2025-01-16 21:56:50.43	41.50	6.87	
2025-01-16 21:56:51.44	41.64	6.91	
2025-01-16 21:56:52.46	41.78	6.96	
2025-01-16 21:56:53.47	41.91	7.00	
2025-01-16 21:56:54.49	42.05	7.04	
2025-01-16 21:56:55.50	42.19	7.08	
2025-01-16 21:56:56.52	42.33	7.12	
2025-01-16 21:56:57.53	42.47	7.16	
2025-01-16 21:56:58.55	42.61	7.21	
2025-01-16 21:56:59.56	42.75	7.25	
2025-01-16 21:57:00.57	42.89	7.29	
2025-01-16 21:57:01.59	43.03	7.33	
2025-01-16 21:57:02.60	43.17	7.37	
2025-01-16 21:57:03.62	43.31	7.41	
2025-01-16 21:57:04.63	43.45	7.45	
2025-01-16 21:57:05.65	43.60	7.50	
2025-01-16 21:57:06.66	43.74	7.54	
2025-01-16 21:57:07.68	43.88	7.58	
2025-01-16 21:57:08.69	44.03	7.62	
2025-01-16 21:57:09.71	44.17	7.66	
2025-01-16 21:57:10.72	44.32	7.70	
2025-01-16 21:57:11.74	44.46	7.74	
2025-01-16 21:57:12.75	44.61	7.78	
2025-01-16 21:57:13.77	44.75	7.82	
2025-01-16 21:57:14.78	44.90	7.86	
2025-01-16 21:57:15.80	45.04	7.90	
2025-01-16 21:57:16.81	45.19	7.94	
2025-01-16 21:57:17.83	45.34	7.98	
2025-01-16 21:57:18.84	45.48	8.02	
2025-01-16 21:57:19.86	45.63	8.06	
2025-01-16 21:57:20.87	45.78	8.10	
2025-01-16 21:57:21.89	45.93	8.14	
2025-01-16 21:57:22.90	46.08	8.18	
2025-01-16 21:57:23.92	46.23	8.22	
2025-01-16 21:57:24.93	46.38	8.26	
2025-01-16 21:57:25.95	46.53	8.30	
2025-01-16 21:57:26.96	46.68	8.34	
2025-01-16 21:57:27.98	46.83	8.38	
2025-01-16 21:57:28.99	46.98	8.41	
2025-01-16 21:57:30.01	47.13	8.45	
2025-01-16 21:57:31.02	47.29	8.49	
2025-01-16 21:57:32.03	47.44	8.53	
2025-01-16 21:57:33.05	47.59	8.57	
2025-01-16 21:57:34.06	47.74	8.61	
2025-01-16 21:57:35.08	47.90	8.64	
2025-01-16 21:57:36.09	48.05	8.68	
2025-01-16 21:57:37.11	48.21	8.72	
2025-01-16 21:57:38.12	48.36	8.76	
2025-01-16 21:57:39.14	48.52	8.80	
2025-01-16 21:57:40.15	48.67	8.83	
2025-01-16 21:57:41.17	48.83	8.87	
2025-01-16 21:57:42.18	48.98	8.91	
2025-01-16 21:57:43.20	49.14	8.95	
2025-01-16 21:57:44.21	49.30	8.98	
2025-01-16 21:57:45.23	49.46	9.02	
2025-01-16 21:57:46.24	49.61	9.06	
2025-01-16 21:57:47.26	49.77	9.09	
2025-01-16 21:57:48.27	49.93	9.13	
2025-01-16 21:57:49.29	50.09	9.17	
2025-01-16 21:57:50.30	50.25	9.20	
2025-01-16 21:57:51.32	50.41	9.24	
2025-01-16 21:57:52.33	50.57	9.27	
2025-01-16 21:57:53.35	50.73	9.31	
2025-01-16 21:57:54.36	50.89	9.35	
2025-01-16 21:57:55.38	51.06	9.38	
2025-01-16 21:57:56.39	51.22	9.42	
2025-01-16 21:57:57.41	51.38	9.45	
2025-01-16 21:57:58.42	51.54	9.49	
2025-01-16 21:57:59.44	51.71	9.52	
2025-01-16 21:58:00.45	51.87	9.56	
2025-01-16 21:58:01.47	52.03	9.59	
2025-01-16 21:58:02.48	52.20	9.63	
2025-01-16 21:58:03.49	52.36	9.66	
2025-01-16 21:58:04.51	52.53	9.69	
2025-01-16 21:58:05.52	52.69	9.73	
2025-01-16 21:58:06.54	52.86	9.76	
2025-01-16 21:58:07.55	53.02	9.80	
2025-01-16 21:58:08.57	53.19	9.83	
2025-01-16 21:58:09.58	53.35	9.86	
2025-01-16 21:58:10.60	53.52	9.90	
2025-01-16 21:58:11.61	53.69	9.93	
2025-01-16 21:58:12.63	53.86	9.96	
2025-01-16 21:58:13.64	54.03	9.99	
2025-01-16 21:58:14.66	54.20	10.03	
2025-01-16 21:58:15.67	54.36	10.06	
2025-01-16 21:58:16.69	54.53	10.09	
2025-01-16 21:58:17.70	54.70	10.12	
2025-01-16 21:58:18.72	54.87	10.15	
2025-01-16 21:58:19.73	55.04	10.19	
2025-01-16 21:58:20.75	55.21	10.22	
2025-01-16 21:58:21.76	55.39	10.25	
2025-01-16 21:58:22.78	55.56	10.28	
2025-01-16 21:58:23.79	55.73	10.31	
2025-01-16 21:58:24.81	55.90	10.34	
2025-01-16 21:58:25.82	56.07	10.37	
2025-01-16 21:58:26.84	56.25	10.40	
2025-01-16 21:58:27.85	56.42	10.43	
2025-01-16 21:58:28.87	56.59	10.46	
2025-01-16 21:58:29.88	56.77	10.49	
2025-01-16 21:58:30.90	56.94	10.52	
2025-01-16 21:58:31.91	57.12	10.55	
2025-01-16 21:58:32.92	57.29	10.58	
2025-01-16 21:58:33.94	57.47	10.61	
2025-01-16 21:58:34.95	57.64	10.64	
2025-01-16 21:58:35.97	57.82	10.67	
2025-01-16 21:58:36.98	57.99	10.69	
2025-01-16 21:58:38.00	58.17	10.72	
2025-01-16 21:58:39.01	58.35	10.75	
2025-01-16 21:58:40.03	58.53	10.78	
2025-01-16 21:58:41.04	58.70	10.81	
2025-01-16 21:58:42.06	58.88	10.83	
2025-01-16 21:58:43.07	59.06	10.86	
2025-01-16 21:58:44.09	59.24	10.89	
2025-01-16 21:58:45.10	59.42	10.91	
2025-01-16 21:58:46.12	59.60	10.94	
2025-01-16 21:58:47.13	59.78	10.97	
2025-01-16 21:58:48.15	59.96	10.99	
2025-01-16 21:58:49.16	60.14	11.02	
2025-01-16 21:58:50.18	60.32	11.04	
2025-01-16 21:58:51.19	60.50	11.07	
2025-01-16 21:58:52.21	60.68	11.09	
2025-01-16 21:58:53.22	60.86	11.12	
2025-01-16 21:58:54.24	61.04	11.14	
2025-01-16 21:58:55.25	61.22	11.17	
2025-01-16 21:58:56.27	61.41	11.19	
2025-01-16 21:58:57.28	61.59	11.22	
2025-01-16 21:58:58.30	61.77	11.24	
2025-01-16 21:58:59.31	61.96	11.26	
2025-01-16 21:59:00.33	62.14	11.29	
2025-01-16 21:59:01.34	62.32	11.31	
2025-01-16 21:59:02.35	62.51	11.33	
2025-01-16 21:59:03.37	62.69	11.35	
2025-01-16 21:59:04.38	62.87	11.38	
2025-01-16 21:59:05.40	63.06	11.40	
2025-01-16 21:59:06.41	63.24	11.42	
2025-01-16 21:59:07.43	63.43	11.44	
2025-01-16 21:59:08.44	63.62	11.46	
2025-01-16 21:59:09.46	63.80	11.48	
2025-01-16 21:59:10.47	63.99	11.51	
2025-01-16 21:59:11.49	64.18	11.53	
2025-01-16 21:59:12.50	64.36	11.55	
2025-01-16 21:59:13.52	64.55	11.57	
2025-01-16 21:59:14.53	64.74	11.59	
2025-01-16 21:59:15.55	64.92	11.61	
2025-01-16 21:59:16.56	65.11	11.62	
2025-01-16 21:59:17.58	65.30	11.64	
2025-01-16 21:59:18.59	65.49	11.66	
2025-01-16 21:59:19.61	65.68	11.68	
2025-01-16 21:59:20.62	65.86	11.70	
2025-01-16 21:59:21.64	66.05	11.72	
2025-01-16 21:59:22.65	66.24	11.73	
2025-01-16 21:59:23.67	66.43	11.75	
2025-01-16 21:59:24.68	66.62	11.77	
2025-01-16 21:59:25.70	66.81	11.79	
2025-01-16 21:59:26.71	67.00	11.80	
2025-01-16 21:59:27.73	67.19	11.82	
2025-01-16 21:59:28.75	67.38	11.83	
2025-01-16 21:59:29.76	67.57	11.85	
2025-01-16 21:59:30.78	67.77	11.87	
2025-01-16 21:59:31.79	67.96	11.88	
2025-01-16 21:59:32.81	68.15	11.90	
2025-01-16 21:59:33.82	68.34	11.91	
2025-01-16 21:59:34.83	68.53	11.93	
2025-01-16 21:59:35.85	68.72	11.94	
2025-01-16 21:59:36.86	68.91	11.95	
2025-01-16 21:59:37.88	69.11	11.97	
2025-01-16 21:59:38.89	69.30	11.98	
2025-01-16 21:59:39.91	69.49	11.99	
2025-01-16 21:59:40.92	69.68	12.01	
2025-01-16 21:59:41.94	69.88	12.02	
2025-01-16 21:59:42.95	70.07	12.03	
2025-01-16 21:59:43.97	70.26	12.04	
2025-01-16 21:59:44.98	70.45	12.05	
2025-01-16 21:59:46.00	70.65	12.06	
2025-01-16 21:59:47.01	70.84	12.08	
2025-01-16 21:59:48.03	71.04	12.09	
2025-01-16 21:59:49.04	71.23	12.10	
2025-01-16 21:59:50.06	71.42	12.11	
2025-01-16 21:59:51.07	71.62	12.12	
2025-01-16 21:59:52.09	71.81	12.13	
2025-01-16 21:59:53.10	72.01	12.14	
2025-01-16 21:59:54.12	72.20	12.14	
2025-01-16 21:59:55.13	72.40	12.15	
2025-01-16 21:59:56.15	72.59	12.16	
2025-01-16 21:59:57.16	72.79	12.17	
2025-01-16 21:59:58.18	72.98	12.18	
2025-01-16 21:59:59.19	73.18	12.19	
2025-01-16 22:00:00.21	73.37	12.19	
2025-01-16 22:00:01.22	73.57	12.20	
2025-01-16 22:00:02.24	73.76	12.21	
2025-01-16 22:00:03.25	73.96	12.21	
2025-01-16 22:00:04.27	74.15	12.22	
2025-01-16 22:00:05.28	74.35	12.22	
2025-01-16 22:00:06.29	74.54	12.23	
2025-01-16 22:00:07.31	74.74	12.23	
2025-01-16 22:00:08.32	74.93	12.24	
2025-01-16 22:00:09.34	75.13	12.24	
2025-01-16 22:00:10.35	75.33	12.25	
2025-01-16 22:00:11.37	75.52	12.25	
2025-01-16 22:00:12.38	75.72	12.26	
2025-01-16 22:00:13.40	75.91	12.26	
2025-01-16 22:00:14.41	76.11	12.26	
2025-01-16 22:00:15.43	76.31	12.26	
2025-01-16 22:00:16.44	76.50	12.27	
2025-01-16 22:00:17.46	76.70	12.27	
2025-01-16 22:00:18.47	76.89	12.27	
2025-01-16 22:00:19.49	77.09	12.27	
2025-01-16 22:00:20.50	77.29	12.27	
2025-01-16 22:00:21.52	77.48	12.27	
2025-01-16 22:00:22.53	77.68	12.27	
2025-01-16 22:00:23.55	77.88	12.27	
2025-01-16 22:00:24.56	78.07	12.27	
2025-01-16 22:00:25.58	78.27	12.27	
2025-01-16 22:00:26.59	78.47	12.27	
2025-01-16 22:00:27.61	78.66	12.27	
2025-01-16 22:00:28.62	78.86	12.27	
2025-01-16 22:00:29.64	79.06	12.27	
2025-01-16 22:00:30.65	79.25	12.27	
2025-01-16 22:00:31.67	79.45	12.27	
2025-01-16 22:00:32.68	79.64	12.26	
2025-01-16 22:00:33.70	79.84	12.26	
2025-01-16 22:00:34.71	80.04	12.26	
2025-01-16 22:00:35.72	80.23	12.25	
2025-01-16 22:00:36.74	80.43	12.25	
2025-01-16 22:00:37.75	80.62	12.25	
2025-01-16 22:00:38.77	80.82	12.24	
2025-01-16 22:00:39.78	81.02	12.24	
2025-01-16 22:00:40.80	81.21	12.23	
2025-01-16 22:00:41.81	81.41	12.23	
2025-01-16 22:00:42.83	81.60	12.22	
2025-01-16 22:00:43.84	81.80	12.22	
2025-01-16 22:00:44.86	82.00	12.21	
2025-01-16 22:00:45.87	82.19	12.20	
2025-01-16 22:00:46.89	82.39	12.20	
2025-01-16 22:00:47.90	82.58	12.19	
2025-01-16 22:00:48.92	82.78	12.18	
2025-01-16 22:00:49.93	82.97	12.18	
2025-01-16 22:00:50.95	83.17	12.17	
2025-01-16 22:00:51.96	83.36	12.16	
2025-01-16 22:00:52.98	83.56	12.15	
2025-01-16 22:00:53.99	83.75	12.14	
2025-01-16 22:00:55.01	83.95	12.13	
2025-01-16 22:00:56.02	84.14	12.12	
2025-01-16 22:00:57.04	84.34	12.11	
2025-01-16 22:00:58.05	84.53	12.10	
2025-01-16 22:00:59.07	84.73	12.09	
2025-01-16 22:01:00.08	84.92	12.08	
2025-01-16 22:01:01.10	85.11	12.07	
2025-01-16 22:01:02.11	85.31	12.06	
2025-01-16 22:01:03.13	85.50	12.05	
2025-01-16 22:01:04.14	85.69	12.04	
2025-01-16 22:01:05.16	85.89	12.03	
2025-01-16 22:01:06.17	86.08	12.01	
2025-01-16 22:01:07.18	86.27	12.00	
2025-01-16 22:01:08.20	86.47	11.99	
2025-01-16 22:01:09.21	86.66	11.98	
2025-01-16 22:01:10.23	86.85	11.96	
2025-01-16 22:01:11.24	87.04	11.95	
2025-01-16 22:01:12.26	87.24	11.93	
2025-01-16 22:01:13.27	87.43	11.92	
2025-01-16 22:01:14.29	87.62	11.91	
2025-01-16 22:01:15.30	87.81	11.89	
2025-01-16 22:01:16.32	88.00	11.88	
2025-01-16 22:01:17.33	88.19	11.86	
2025-01-16 22:01:18.35	88.39	11.84	
2025-01-16 22:01:19.36	88.58	11.83	
2025-01-16 22:01:20.38	88.77	11.81	
2025-01-16 22:01:21.39	88.96	11.80	
2025-01-16 22:01:22.41	89.15	11.78	
2025-01-16 22:01:23.42	89.34	11.76	
2025-01-16 22:01:24.44	89.53	11.75	
2025-01-16 22:01:25.45	89.72	11.73	
2025-01-16 22:01:26.47	89.91	11.71	
2025-01-16 22:01:27.48	90.10	11.69	
2025-01-16 22:01:28.50	90.29	11.67	
2025-01-16 22:01:29.51	90.48	11.65	
2025-01-16 22:01:30.53	90.66	11.64	
2025-01-16 22:01:31.54	90.85	11.62	
2025-01-16 22:01:32.56	91.04	11.60	
2025-01-16 22:01:33.57	91.23	11.58	
2025-01-16 22:01:34.59	91.42	11.56	
2025-01-16 22:01:35.60	91.60	11.54	
2025-01-16 22:01:36.61	91.79	11.52	
2025-01-16 22:01:37.63	91.98	11.50	
2025-01-16 22:01:38.64	92.16	11.48	
2025-01-16 22:01:39.66	92.35	11.45	
2025-01-16 22:01:40.67	92.54	11.43	
2025-01-16 22:01:41.69	92.72	11.41	
2025-01-16 22:01:42.70	92.91	11.39	
2025-01-16 22:01:43.72	93.09	11.37	
2025-01-16 22:01:44.73	93.28	11.34	
2025-01-16 22:01:45.75	93.46	11.32	
2025-01-16 22:01:46.76	93.65	11.30	
2025-01-16 22:01:47.78	93.83	11.28	
2025-01-16 22:01:48.79	94.02	11.25	
2025-01-16 22:01:49.81	94.20	11.23	
2025-01-16 22:01:50.82	94.38	11.20	
2025-01-16 22:01:51.84	94.57	11.18	
2025-01-16 22:01:52.85	94.75	11.16	
2025-01-16 22:01:53.87	94.93	11.13	
2025-01-16 22:01:54.88	95.11	11.11	
2025-01-16 22:01:55.90	95.30	11.08	
2025-01-16 22:01:56.91	95.48	11.06	
2025-01-16 22:01:57.93	95.66	11.03	
2025-01-16 22:01:58.94	95.84	11.01	
2025-01-16 22:01:59.96	96.02	10.98	
2025-01-16 22:02:00.97	96.20	10.95	
2025-01-16 22:02:01.99	96.38	10.93	
2025-01-16 22:02:03.00	96.56	10.90	
2025-01-16 22:02:04.02	96.74	10.87	
2025-01-16 22:02:05.03	96.92	10.85	
2025-01-16 22:02:06.05	97.10	10.82	
2025-01-16 22:02:07.06	97.28	10.79	
2025-01-16 22:02:08.07	97.45	10.76	
2025-01-16 22:02:09.09	97.63	10.74	
2025-01-16 22:02:10.10	97.81	10.71	
2025-01-16 22:02:11.12	97.99	10.68	
2025-01-16 22:02:12.13	98.16	10.65	
2025-01-16 22:02:13.15	98.34	10.62	
2025-01-16 22:02:14.16	98.52	10.59	
2025-01-16 22:02:15.18	98.69	10.56	
2025-01-16 22:02:16.19	98.87	10.53	
2025-01-16 22:02:17.21	99.04	10.50	
2025-01-16 22:02:18.22	99.22	10.47	
2025-01-16 22:02:19.24	99.39	10.44	
2025-01-16 22:02:20.25	99.57	10.41	
2025-01-16 22:02:21.27	99.74	10.38	
2025-01-16 22:02:22.28	99.91	10.35	
2025-01-16 22:02:23.30	100.09	10.32	
2025-01-16 22:02:24.31	100.26	10.29	
2025-01-16 22:02:25.33	100.43	10.26	
2025-01-16 22:02:26.34	100.60	10.23	
2025-01-16 22:02:27.36	100.78	10.20	
2025-01-16 22:02:28.37	100.95	10.17	
2025-01-16 22:02:29.39	101.12	10.13	
2025-01-16 22:02:30.40	101.29	10.10	
2025-01-16 22:02:31.42	101.46	10.07	
2025-01-16 22:02:32.43	101.63	10.04	
2025-01-16 22:02:33.45	101.80	10.00	
2025-01-16 22:02:34.46	101.97	9.97	
2025-01-16 22:02:35.48	102.14	9.94	
2025-01-16 22:02:36.49	102.30	9.91	
2025-01-16 22:02:37.50	102.47	9.87	
2025-01-16 22:02:38.52	102.64	9.84	
2025-01-16 22:02:39.53	102.81	9.81	
2025-01-16 22:02:40.55	102.97	9.77	
2025-01-16 22:02:41.56	103.14	9.74	
2025-01-16 22:02:42.58	103.31	9.70	
2025-01-16 22:02:43.59	103.47	9.67	
2025-01-16 22:02:44.61	103.64	9.63	
2025-01-16 22:02:45.62	103.80	9.60	
2025-01-16 22:02:46.64	103.97	9.56	
2025-01-16 22:02:47.65	104.13	9.53	
2025-01-16 22:02:48.67	104.30	9.49	
2025-01-16 22:02:49.68	104.46	9.46	
2025-01-16 22:02:50.70	104.62	9.42	
2025-01-16 22:02:51.71	104.79	9.39	
2025-01-16 22:02:52.73	104.95	9.35	
2025-01-16 22:02:53.74	105.11	9.32	
2025-01-16 22:02:54.76	105.27	9.28	
2025-01-16 22:02:55.77	105.43	9.24	
2025-01-16 22:02:56.79	105.59	9.21	
2025-01-16 22:02:57.80	105.75	9.17	
2025-01-16 22:02:58.82	105.92	9.14	
2025-01-16 22:02:59.83	106.07	9.10	
2025-01-16 22:03:00.85	106.23	9.06	
2025-01-16 22:03:01.86	106.39	9.02	
2025-01-16 22:03:02.88	106.55	8.99	
2025-01-16 22:03:03.89	106.71	8.95	
2025-01-16 22:03:04.91	106.87	8.91	
2025-01-16 22:03:05.92	107.02	8.88	
2025-01-16 22:03:06.94	107.18	8.84	
2025-01-16 22:03:07.95	107.34	8.80	
2025-01-16 22:03:08.96	107.49	8.76	
2025-01-16 22:03:09.98	107.65	8.72	
2025-01-16 22:03:10.99	107.80	8.69	
2025-01-16 22:03:12.01	107.96	8.65	
2025-01-16 22:03:13.02	108.11	8.61	
2025-01-16 22:03:14.04	108.27	8.57	
2025-01-16 22:03:15.05	108.42	8.53	
2025-01-16 22:03:16.07	108.58	8.49	
2025-01-16 22:03:17.08	108.73	8.45	
2025-01-16 22:03:18.10	108.88	8.41	
2025-01-16 22:03:19.11	109.03	8.38	
2025-01-16 22:03:20.13	109.19	8.34	
2025-01-16 22:03:21.14	109.34	8.30	
2025-01-16 22:03:22.16	109.49	8.26	
2025-01-16 22:03:23.17	109.64	8.22	
2025-01-16 22:03:24.19	109.79	8.18	
2025-01-16 22:03:25.20	109.94	8.14	
2025-01-16 22:03:26.22	110.09	8.10	
2025-01-16 22:03:27.23	110.24	8.06	
2025-01-16 22:03:28.25	110.39	8.02	
2025-01-16 22:03:29.26	110.54	7.98	
2025-01-16 22:03:30.28	110.68	7.94	
2025-01-16 22:03:31.29	110.83	7.90	
2025-01-16 22:03:32.31	110.98	7.86	
2025-01-16 22:03:33.32	111.12	7.82	
2025-01-16 22:03:34.34	111.27	7.78	
2025-01-16 22:03:35.35	111.42	7.74	
2025-01-16 22:03:36.37	111.56	7.69	
2025-01-16 22:03:37.38	111.71	7.65	
2025-01-16 22:03:38.39	111.85	7.61	
2025-01-16 22:03:39.41	112.00	7.57	
2025-01-16 22:03:40.42	112.14	7.53	
2025-01-16 22:03:41.44	112.28	7.49	
2025-01-16 22:03:42.45	112.43	7.45	
2025-01-16 22:03:43.47	112.57	7.41	
2025-01-16 22:03:44.48	112.71	7.36	
2025-01-16 22:03:45.50	112.86	7.32	
2025-01-16 22:03:46.51	113.00	7.28	
2025-01-16 22:03:47.53	113.14	7.24	
2025-01-16 22:03:48.54	113.28	7.20	
2025-01-16 22:03:49.56	113.42	7.16	
2025-01-16 22:03:50.57	113.56	7.11	
2025-01-16 22:03:51.59	113.70	7.07	
2025-01-16 22:03:52.60	113.84	7.03	
2025-01-16 22:03:53.62	113.98	6.99	
2025-01-16 22:03:54.63	114.12	6.94	
2025-01-16 22:03:55.65	114.25	6.90	
2025-01-16 22:03:56.66	114.39	6.86	
2025-01-16 22:03:57.68	114.53	6.82	
2025-01-16 22:03:58.69	114.67	6.77	
2025-01-16 22:03:59.71	114.80	6.73	
2025-01-16 22:04:00.72	114.94	6.69	
2025-01-16 22:04:01.74	115.08	6.65	
2025-01-16 22:04:02.75	115.21	6.60	
2025-01-16 22:04:03.77	115.35	6.56	
2025-01-16 22:04:04.78	115.48	6.52	
2025-01-16 22:04:05.80	115.61	6.47	
2025-01-16 22:04:06.81	115.75	6.43	
2025-01-16 22:04:07.83	115.88	6.39	
2025-01-16 22:04:08.84	116.01	6.34	
2025-01-16 22:04:09.85	116.15	6.30	
2025-01-16 22:04:10.87	116.28	6.26	
2025-01-16 22:04:11.88	116.41	6.22	
2025-01-16 22:04:12.90	116.54	6.17	
2025-01-16 22:04:13.91	116.67	6.13	
2025-01-16 22:04:14.93	116.81	6.08	
2025-01-16 22:04:15.94	116.94	6.04	
2025-01-16 22:04:16.96	117.07	6.00	
2025-01-16 22:04:17.97	117.20	5.95	
2025-01-16 22:04:18.99	117.33	5.91	
2025-01-16 22:04:20.00	117.45	5.87	
2025-01-16 22:04:21.02	117.58	5.82	
2025-01-16 22:04:22.03	117.71	5.78	
2025-01-16 22:04:23.05	117.84	5.73	
2025-01-16 22:04:24.06	117.97	5.69	
2025-01-16 22:04:25.08	118.09	5.65	
2025-01-16 22:04:26.09	118.22	5.60	
2025-01-16 22:04:27.11	118.35	5.56	
2025-01-16 22:04:28.12	118.47	5.51	
2025-01-16 22:04:29.14	118.60	5.47	
2025-01-16 22:04:30.15	118.72	5.43	
2025-01-16 22:04:31.17	118.85	5.38	
2025-01-16 22:04:32.18	118.97	5.34	
2025-01-16 22:04:33.20	119.10	5.29	
2025-01-16 22:04:34.21	119.22	5.25	
2025-01-16 22:04:35.23	119.35	5.20	
2025-01-16 22:04:36.24	119.47	5.16	
2025-01-16 22:04:37.26	119.59	5.11	
2025-01-16 22:04:38.27	119.71	5.07	
2025-01-16 22:04:39.29	119.84	5.03	
2025-01-16 22:04:40.30	119.96	4.98	
2025-01-16 22:04:41.31	120.08	4.94	
2025-01-16 22:04:42.33	120.20	4.89	
2025-01-16 22:04:43.34	120.32	4.85	
2025-01-16 22:04:44.36	120.44	4.80	
2025-01-16 22:04:45.37	120.56	4.76	
2025-01-16 22:04:46.39	120.68	4.71	
2025-01-16 22:04:47.40	120.80	4.67	
2025-01-16 22:04:48.42	120.92	4.62	
2025-01-16 22:04:49.43	121.04	4.58	
2025-01-16 22:04:50.45	121.16	4.53	
2025-01-16 22:04:51.46	121.27	4.49	
2025-01-16 22:04:52.48	121.39	4.44	
2025-01-16 22:04:53.49	121.51	4.40	
2025-01-16 22:04:54.51	121.62	4.35	
2025-01-16 22:04:55.52	121.74	4.31	
2025-01-16 22:04:56.54	121.86	4.26	
2025-01-16 22:04:57.55	121.97	4.22	
2025-01-16 22:04:58.57	122.09	4.17	
2025-01-16 22:04:59.58	122.20	4.13	
2025-01-16 22:05:00.60	122.32	4.08	
2025-01-16 22:05:01.61	122.43	4.04	

#Closed at: 2025-01-16 22:05:02