passes_logs/2025/01/16/SPB_Silybum_02/SPB_Silybum_02__20250116_063201_SUOMI_NPP_rec.log

#Pass ID: 20250116_063201_SUOMI NPP
#Satellite: SUOMI NPP
#Configuration: NPP
#Start time: 2025-01-16 06:32:00

#Version: 2.0.20230423
#Station: SPB_Silybum_02
#Location: 30.233357 lon 59.946436 lat
#TLE: 1 37849U 11061A   25015.83617422  .00000154  00000+0  93894-4 0  9992
#TLE: 2 37849  98.7447 316.8141 0001652  39.8884 320.2413 14.19538521685036

#Time	Az	El	Level	Level2	SNR	BER	Gain	Gain2
2025-01-16 06:32:03.01	53.04	4.08	
2025-01-16 06:32:03.82	52.94	4.11	
2025-01-16 06:32:04.63	52.84	4.14	
2025-01-16 06:32:05.44	52.74	4.17	
2025-01-16 06:32:06.26	52.64	4.20	
2025-01-16 06:32:07.07	52.54	4.23	
2025-01-16 06:32:07.88	52.44	4.26	
2025-01-16 06:32:08.69	52.34	4.30	
2025-01-16 06:32:09.51	52.24	4.33	
2025-01-16 06:32:10.32	52.14	4.36	
2025-01-16 06:32:11.13	52.04	4.39	
2025-01-16 06:32:11.94	51.94	4.42	
2025-01-16 06:32:12.76	51.84	4.45	
2025-01-16 06:32:13.57	51.74	4.48	
2025-01-16 06:32:14.38	51.64	4.51	
2025-01-16 06:32:15.19	51.54	4.55	
2025-01-16 06:32:16.00	51.44	4.58	
2025-01-16 06:32:16.82	51.34	4.61	
2025-01-16 06:32:17.63	51.23	4.64	
2025-01-16 06:32:18.44	51.13	4.67	
2025-01-16 06:32:19.25	51.03	4.70	
2025-01-16 06:32:20.07	50.93	4.73	
2025-01-16 06:32:20.88	50.82	4.76	
2025-01-16 06:32:21.69	50.72	4.79	
2025-01-16 06:32:22.50	50.62	4.82	
2025-01-16 06:32:23.32	50.51	4.85	
2025-01-16 06:32:24.13	50.41	4.88	
2025-01-16 06:32:24.94	50.31	4.91	
2025-01-16 06:32:25.75	50.20	4.94	
2025-01-16 06:32:26.56	50.10	4.97	
2025-01-16 06:32:27.38	49.99	5.00	
2025-01-16 06:32:28.19	49.89	5.03	
2025-01-16 06:32:29.00	49.78	5.06	
2025-01-16 06:32:29.81	49.68	5.09	
2025-01-16 06:32:30.63	49.57	5.12	
2025-01-16 06:32:31.44	49.47	5.15	
2025-01-16 06:32:32.25	49.36	5.18	
2025-01-16 06:32:33.06	49.25	5.21	
2025-01-16 06:32:33.88	49.15	5.24	
2025-01-16 06:32:34.69	49.04	5.27	
2025-01-16 06:32:35.50	48.93	5.30	
2025-01-16 06:32:36.31	48.83	5.33	
2025-01-16 06:32:37.13	48.72	5.36	
2025-01-16 06:32:37.94	48.61	5.39	
2025-01-16 06:32:38.76	48.50	5.42	
2025-01-16 06:32:39.57	48.39	5.45	
2025-01-16 06:32:40.38	48.29	5.48	
2025-01-16 06:32:41.20	48.18	5.51	
2025-01-16 06:32:42.01	48.07	5.54	
2025-01-16 06:32:42.82	47.96	5.57	
2025-01-16 06:32:43.63	47.85	5.60	
2025-01-16 06:32:44.45	47.74	5.63	
2025-01-16 06:32:45.26	47.63	5.66	
2025-01-16 06:32:46.07	47.52	5.68	
2025-01-16 06:32:46.88	47.41	5.71	
2025-01-16 06:32:47.69	47.30	5.74	
2025-01-16 06:32:48.51	47.19	5.77	
2025-01-16 06:32:49.32	47.08	5.80	
2025-01-16 06:32:50.13	46.97	5.83	
2025-01-16 06:32:50.94	46.86	5.86	
2025-01-16 06:32:51.76	46.75	5.88	
2025-01-16 06:32:52.57	46.64	5.91	
2025-01-16 06:32:53.38	46.53	5.94	
2025-01-16 06:32:54.19	46.41	5.97	
2025-01-16 06:32:55.00	46.30	6.00	
2025-01-16 06:32:55.82	46.19	6.02	
2025-01-16 06:32:56.63	46.08	6.05	
2025-01-16 06:32:57.44	45.96	6.08	
2025-01-16 06:32:58.25	45.85	6.11	
2025-01-16 06:32:59.07	45.74	6.14	
2025-01-16 06:32:59.88	45.62	6.16	
2025-01-16 06:33:00.69	45.51	6.19	
2025-01-16 06:33:01.50	45.40	6.22	
2025-01-16 06:33:02.32	45.28	6.25	
2025-01-16 06:33:03.13	45.17	6.27	
2025-01-16 06:33:03.94	45.05	6.30	
2025-01-16 06:33:04.75	44.94	6.33	
2025-01-16 06:33:05.56	44.82	6.36	
2025-01-16 06:33:06.38	44.71	6.38	
2025-01-16 06:33:07.19	44.59	6.41	
2025-01-16 06:33:08.00	44.48	6.44	
2025-01-16 06:33:08.81	44.36	6.46	
2025-01-16 06:33:09.63	44.24	6.49	
2025-01-16 06:33:10.44	44.13	6.52	
2025-01-16 06:33:11.25	44.01	6.54	
2025-01-16 06:33:12.06	43.90	6.57	
2025-01-16 06:33:12.88	43.78	6.60	
2025-01-16 06:33:13.69	43.66	6.62	
2025-01-16 06:33:14.50	43.54	6.65	
2025-01-16 06:33:15.31	43.43	6.67	
2025-01-16 06:33:16.12	43.31	6.70	
2025-01-16 06:33:16.94	43.19	6.73	
2025-01-16 06:33:17.75	43.07	6.75	
2025-01-16 06:33:18.56	42.95	6.78	
2025-01-16 06:33:19.37	42.84	6.80	
2025-01-16 06:33:20.19	42.72	6.83	
2025-01-16 06:33:21.00	42.60	6.85	
2025-01-16 06:33:21.81	42.48	6.88	
2025-01-16 06:33:22.62	42.36	6.90	
2025-01-16 06:33:23.44	42.24	6.93	
2025-01-16 06:33:24.25	42.12	6.96	
2025-01-16 06:33:25.06	42.00	6.98	
2025-01-16 06:33:25.87	41.88	7.01	
2025-01-16 06:33:26.68	41.76	7.03	
2025-01-16 06:33:27.50	41.64	7.06	
2025-01-16 06:33:28.31	41.52	7.08	
2025-01-16 06:33:29.12	41.39	7.10	
2025-01-16 06:33:29.93	41.27	7.13	
2025-01-16 06:33:30.75	41.15	7.15	
2025-01-16 06:33:31.56	41.03	7.18	
2025-01-16 06:33:32.37	40.91	7.20	
2025-01-16 06:33:33.18	40.79	7.23	
2025-01-16 06:33:34.00	40.66	7.25	
2025-01-16 06:33:34.81	40.54	7.27	
2025-01-16 06:33:35.62	40.42	7.30	
2025-01-16 06:33:36.43	40.29	7.32	
2025-01-16 06:33:37.24	40.17	7.34	
2025-01-16 06:33:38.06	40.05	7.37	
2025-01-16 06:33:38.87	39.92	7.39	
2025-01-16 06:33:39.68	39.80	7.41	
2025-01-16 06:33:40.49	39.68	7.44	
2025-01-16 06:33:41.31	39.55	7.46	
2025-01-16 06:33:42.12	39.43	7.48	
2025-01-16 06:33:42.93	39.30	7.51	
2025-01-16 06:33:43.74	39.18	7.53	
2025-01-16 06:33:44.56	39.05	7.55	
2025-01-16 06:33:45.37	38.93	7.57	
2025-01-16 06:33:46.18	38.80	7.60	
2025-01-16 06:33:46.99	38.68	7.62	
2025-01-16 06:33:47.81	38.55	7.64	
2025-01-16 06:33:48.62	38.42	7.66	
2025-01-16 06:33:49.43	38.30	7.68	
2025-01-16 06:33:50.24	38.17	7.71	
2025-01-16 06:33:51.05	38.05	7.73	
2025-01-16 06:33:51.87	37.92	7.75	
2025-01-16 06:33:52.68	37.79	7.77	
2025-01-16 06:33:53.49	37.66	7.79	
2025-01-16 06:33:54.30	37.54	7.81	
2025-01-16 06:33:55.12	37.41	7.84	
2025-01-16 06:33:55.93	37.28	7.86	
2025-01-16 06:33:56.74	37.15	7.88	
2025-01-16 06:33:57.55	37.03	7.90	
2025-01-16 06:33:58.37	36.90	7.92	
2025-01-16 06:33:59.18	36.77	7.94	
2025-01-16 06:33:59.99	36.64	7.96	
2025-01-16 06:34:00.80	36.51	7.98	
2025-01-16 06:34:01.61	36.38	8.00	
2025-01-16 06:34:02.43	36.25	8.02	
2025-01-16 06:34:03.24	36.12	8.04	
2025-01-16 06:34:04.05	35.99	8.06	
2025-01-16 06:34:04.86	35.87	8.08	
2025-01-16 06:34:05.68	35.73	8.10	
2025-01-16 06:34:06.49	35.60	8.12	
2025-01-16 06:34:07.30	35.47	8.14	
2025-01-16 06:34:08.11	35.34	8.16	
2025-01-16 06:34:08.93	35.21	8.18	
2025-01-16 06:34:09.74	35.08	8.20	
2025-01-16 06:34:10.55	34.95	8.21	
2025-01-16 06:34:11.36	34.82	8.23	
2025-01-16 06:34:12.17	34.69	8.25	
2025-01-16 06:34:12.99	34.56	8.27	
2025-01-16 06:34:13.80	34.43	8.29	
2025-01-16 06:34:14.61	34.29	8.31	
2025-01-16 06:34:15.42	34.16	8.32	
2025-01-16 06:34:16.24	34.03	8.34	
2025-01-16 06:34:17.05	33.90	8.36	
2025-01-16 06:34:17.86	33.77	8.38	
2025-01-16 06:34:18.67	33.63	8.40	
2025-01-16 06:34:19.49	33.50	8.41	
2025-01-16 06:34:20.30	33.37	8.43	
2025-01-16 06:34:21.11	33.23	8.45	
2025-01-16 06:34:21.92	33.10	8.46	
2025-01-16 06:34:22.73	32.97	8.48	
2025-01-16 06:34:23.55	32.83	8.50	
2025-01-16 06:34:24.36	32.70	8.51	
2025-01-16 06:34:25.17	32.57	8.53	
2025-01-16 06:34:25.98	32.43	8.55	
2025-01-16 06:34:26.80	32.30	8.56	
2025-01-16 06:34:27.61	32.16	8.58	
2025-01-16 06:34:28.42	32.03	8.60	
2025-01-16 06:34:29.23	31.90	8.61	
2025-01-16 06:34:30.05	31.76	8.63	
2025-01-16 06:34:30.86	31.62	8.64	
2025-01-16 06:34:31.67	31.49	8.66	
2025-01-16 06:34:32.48	31.36	8.67	
2025-01-16 06:34:33.29	31.22	8.69	
2025-01-16 06:34:34.11	31.08	8.70	
2025-01-16 06:34:34.92	30.95	8.72	
2025-01-16 06:34:35.73	30.81	8.73	
2025-01-16 06:34:36.54	30.68	8.75	
2025-01-16 06:34:37.36	30.54	8.76	
2025-01-16 06:34:38.17	30.40	8.78	
2025-01-16 06:34:38.98	30.27	8.79	
2025-01-16 06:34:39.79	30.13	8.80	
2025-01-16 06:34:40.60	30.00	8.82	
2025-01-16 06:34:41.42	29.86	8.83	
2025-01-16 06:34:42.23	29.72	8.84	
2025-01-16 06:34:43.04	29.59	8.86	
2025-01-16 06:34:43.85	29.45	8.87	
2025-01-16 06:34:44.67	29.31	8.88	
2025-01-16 06:34:45.48	29.17	8.90	
2025-01-16 06:34:46.29	29.04	8.91	
2025-01-16 06:34:47.10	28.90	8.92	
2025-01-16 06:34:47.92	28.76	8.93	
2025-01-16 06:34:48.73	28.62	8.95	
2025-01-16 06:34:49.54	28.49	8.96	
2025-01-16 06:34:50.35	28.35	8.97	
2025-01-16 06:34:51.16	28.21	8.98	
2025-01-16 06:34:51.98	28.07	8.99	
2025-01-16 06:34:52.79	27.93	9.00	
2025-01-16 06:34:53.60	27.79	9.02	
2025-01-16 06:34:54.41	27.66	9.03	
2025-01-16 06:34:55.23	27.52	9.04	
2025-01-16 06:34:56.04	27.38	9.05	
2025-01-16 06:34:56.85	27.24	9.06	
2025-01-16 06:34:57.66	27.10	9.07	
2025-01-16 06:34:58.48	26.96	9.08	
2025-01-16 06:34:59.29	26.82	9.09	
2025-01-16 06:35:00.10	26.68	9.10	
2025-01-16 06:35:00.91	26.54	9.11	
2025-01-16 06:35:01.72	26.40	9.12	
2025-01-16 06:35:02.54	26.26	9.13	
2025-01-16 06:35:03.35	26.12	9.14	
2025-01-16 06:35:04.16	25.99	9.15	
2025-01-16 06:35:04.97	25.85	9.16	
2025-01-16 06:35:05.79	25.70	9.17	
2025-01-16 06:35:06.60	25.56	9.18	
2025-01-16 06:35:07.41	25.43	9.18	
2025-01-16 06:35:08.22	25.29	9.19	
2025-01-16 06:35:09.04	25.14	9.20	
2025-01-16 06:35:09.85	25.00	9.21	
2025-01-16 06:35:10.66	24.86	9.22	
2025-01-16 06:35:11.47	24.72	9.23	
2025-01-16 06:35:12.28	24.58	9.23	
2025-01-16 06:35:13.10	24.44	9.24	
2025-01-16 06:35:13.91	24.30	9.25	
2025-01-16 06:35:14.72	24.16	9.26	
2025-01-16 06:35:15.53	24.02	9.26	
2025-01-16 06:35:16.35	23.88	9.27	
2025-01-16 06:35:17.16	23.74	9.28	
2025-01-16 06:35:17.97	23.60	9.28	
2025-01-16 06:35:18.78	23.46	9.29	
2025-01-16 06:35:19.60	23.31	9.30	
2025-01-16 06:35:20.41	23.17	9.30	
2025-01-16 06:35:21.22	23.03	9.31	
2025-01-16 06:35:22.03	22.89	9.31	
2025-01-16 06:35:22.84	22.75	9.32	
2025-01-16 06:35:23.66	22.61	9.32	
2025-01-16 06:35:24.47	22.47	9.33	
2025-01-16 06:35:25.28	22.32	9.33	
2025-01-16 06:35:26.09	22.18	9.34	
2025-01-16 06:35:26.91	22.04	9.34	
2025-01-16 06:35:27.72	21.90	9.35	
2025-01-16 06:35:28.53	21.76	9.35	
2025-01-16 06:35:29.34	21.62	9.36	
2025-01-16 06:35:30.16	21.47	9.36	
2025-01-16 06:35:30.97	21.33	9.37	
2025-01-16 06:35:31.78	21.19	9.37	
2025-01-16 06:35:32.59	21.05	9.37	
2025-01-16 06:35:33.40	20.91	9.38	
2025-01-16 06:35:34.22	20.76	9.38	
2025-01-16 06:35:35.03	20.62	9.38	
2025-01-16 06:35:35.84	20.48	9.39	
2025-01-16 06:35:36.65	20.34	9.39	
2025-01-16 06:35:37.47	20.20	9.39	
2025-01-16 06:35:38.28	20.05	9.39	
2025-01-16 06:35:39.09	19.91	9.40	
2025-01-16 06:35:39.90	19.77	9.40	
2025-01-16 06:35:40.72	19.63	9.40	
2025-01-16 06:35:41.53	19.49	9.40	
2025-01-16 06:35:42.34	19.34	9.40	
2025-01-16 06:35:43.15	19.20	9.40	
2025-01-16 06:35:43.96	19.06	9.40	
2025-01-16 06:35:44.78	18.92	9.41	
2025-01-16 06:35:45.59	18.77	9.41	
2025-01-16 06:35:46.40	18.63	9.41	
2025-01-16 06:35:47.21	18.49	9.41	
2025-01-16 06:35:48.03	18.35	9.41	
2025-01-16 06:35:48.84	18.20	9.41	
2025-01-16 06:35:49.65	18.06	9.41	
2025-01-16 06:35:50.46	17.92	9.41	
2025-01-16 06:35:51.27	17.78	9.41	
2025-01-16 06:35:52.09	17.64	9.41	
2025-01-16 06:35:52.90	17.49	9.41	
2025-01-16 06:35:53.71	17.35	9.41	
2025-01-16 06:35:54.52	17.21	9.41	
2025-01-16 06:35:55.34	17.07	9.40	
2025-01-16 06:35:56.15	16.92	9.40	
2025-01-16 06:35:56.96	16.78	9.40	
2025-01-16 06:35:57.77	16.64	9.40	
2025-01-16 06:35:58.59	16.50	9.40	
2025-01-16 06:35:59.40	16.36	9.40	
2025-01-16 06:36:00.21	16.21	9.39	
2025-01-16 06:36:01.02	16.07	9.39	
2025-01-16 06:36:01.83	15.93	9.39	
2025-01-16 06:36:02.65	15.79	9.39	
2025-01-16 06:36:03.46	15.65	9.38	
2025-01-16 06:36:04.27	15.50	9.38	
2025-01-16 06:36:05.10	15.36	9.38	
2025-01-16 06:36:05.91	15.22	9.37	
2025-01-16 06:36:06.72	15.08	9.37	
2025-01-16 06:36:07.54	14.93	9.37	
2025-01-16 06:36:08.35	14.79	9.36	
2025-01-16 06:36:09.16	14.65	9.36	
2025-01-16 06:36:09.97	14.51	9.35	
2025-01-16 06:36:10.79	14.37	9.35	
2025-01-16 06:36:11.60	14.22	9.35	
2025-01-16 06:36:12.41	14.08	9.34	
2025-01-16 06:36:13.22	13.94	9.34	
2025-01-16 06:36:14.03	13.80	9.33	
2025-01-16 06:36:14.85	13.66	9.33	
2025-01-16 06:36:15.66	13.52	9.32	
2025-01-16 06:36:16.47	13.38	9.32	
2025-01-16 06:36:17.28	13.23	9.31	
2025-01-16 06:36:18.10	13.09	9.30	
2025-01-16 06:36:18.91	12.95	9.30	
2025-01-16 06:36:19.72	12.81	9.29	
2025-01-16 06:36:20.53	12.67	9.29	
2025-01-16 06:36:21.35	12.53	9.28	
2025-01-16 06:36:22.16	12.39	9.27	
2025-01-16 06:36:22.97	12.25	9.27	
2025-01-16 06:36:23.78	12.11	9.26	
2025-01-16 06:36:24.59	11.97	9.25	
2025-01-16 06:36:25.41	11.82	9.24	
2025-01-16 06:36:26.22	11.68	9.24	
2025-01-16 06:36:27.03	11.54	9.23	
2025-01-16 06:36:27.84	11.40	9.22	
2025-01-16 06:36:28.66	11.26	9.21	
2025-01-16 06:36:29.47	11.12	9.21	
2025-01-16 06:36:30.28	10.98	9.20	
2025-01-16 06:36:31.09	10.84	9.19	
2025-01-16 06:36:31.91	10.70	9.18	
2025-01-16 06:36:32.72	10.56	9.17	
2025-01-16 06:36:33.53	10.42	9.16	
2025-01-16 06:36:34.34	10.28	9.15	
2025-01-16 06:36:35.15	10.14	9.14	
2025-01-16 06:36:35.97	10.00	9.13	
2025-01-16 06:36:36.78	9.86	9.13	
2025-01-16 06:36:37.59	9.72	9.12	
2025-01-16 06:36:38.40	9.59	9.11	
2025-01-16 06:36:39.22	9.45	9.10	
2025-01-16 06:36:40.03	9.31	9.09	
2025-01-16 06:36:40.84	9.17	9.08	
2025-01-16 06:36:41.65	9.03	9.06	
2025-01-16 06:36:42.47	8.89	9.05	
2025-01-16 06:36:43.28	8.75	9.04	
2025-01-16 06:36:44.09	8.61	9.03	
2025-01-16 06:36:44.90	8.47	9.02	
2025-01-16 06:36:45.71	8.34	9.01	
2025-01-16 06:36:46.53	8.20	9.00	
2025-01-16 06:36:47.34	8.06	8.99	
2025-01-16 06:36:48.15	7.92	8.98	
2025-01-16 06:36:48.96	7.78	8.96	
2025-01-16 06:36:49.78	7.64	8.95	
2025-01-16 06:36:50.59	7.51	8.94	
2025-01-16 06:36:51.40	7.37	8.93	
2025-01-16 06:36:52.21	7.23	8.91	
2025-01-16 06:36:53.03	7.09	8.90	
2025-01-16 06:36:53.84	6.96	8.89	
2025-01-16 06:36:54.65	6.82	8.88	
2025-01-16 06:36:55.46	6.68	8.86	
2025-01-16 06:36:56.27	6.55	8.85	
2025-01-16 06:36:57.09	6.41	8.84	
2025-01-16 06:36:57.90	6.27	8.82	
2025-01-16 06:36:58.71	6.14	8.81	
2025-01-16 06:36:59.52	6.00	8.80	
2025-01-16 06:37:00.34	5.86	8.78	
2025-01-16 06:37:01.15	5.73	8.77	
2025-01-16 06:37:01.96	5.59	8.75	
2025-01-16 06:37:02.77	5.46	8.74	
2025-01-16 06:37:03.59	5.32	8.72	
2025-01-16 06:37:04.40	5.19	8.71	
2025-01-16 06:37:05.21	5.05	8.69	
2025-01-16 06:37:06.02	4.92	8.68	
2025-01-16 06:37:06.83	4.78	8.66	
2025-01-16 06:37:07.65	4.64	8.65	
2025-01-16 06:37:08.46	4.51	8.63	
2025-01-16 06:37:09.27	4.38	8.62	
2025-01-16 06:37:10.08	4.24	8.60	
2025-01-16 06:37:10.90	4.11	8.59	
2025-01-16 06:37:11.71	3.97	8.57	
2025-01-16 06:37:12.52	3.84	8.56	
2025-01-16 06:37:13.33	3.71	8.54	
2025-01-16 06:37:14.15	3.57	8.52	
2025-01-16 06:37:14.96	3.44	8.51	
2025-01-16 06:37:15.77	3.30	8.49	
2025-01-16 06:37:16.58	3.17	8.47	
2025-01-16 06:37:17.39	3.04	8.46	
2025-01-16 06:37:18.21	2.90	8.44	
2025-01-16 06:37:19.02	2.77	8.42	
2025-01-16 06:37:19.83	2.64	8.40	
2025-01-16 06:37:20.64	2.51	8.39	
2025-01-16 06:37:21.46	2.37	8.37	
2025-01-16 06:37:22.27	2.24	8.35	
2025-01-16 06:37:23.08	2.11	8.33	
2025-01-16 06:37:23.89	1.98	8.32	
2025-01-16 06:37:24.70	1.85	8.30	
2025-01-16 06:37:25.52	1.71	8.28	
2025-01-16 06:37:26.33	1.58	8.26	
2025-01-16 06:37:27.14	1.45	8.24	
2025-01-16 06:37:27.95	1.32	8.22	
2025-01-16 06:37:28.77	1.19	8.20	
2025-01-16 06:37:29.58	1.06	8.19	
2025-01-16 06:37:30.39	0.93	8.17	
2025-01-16 06:37:31.20	0.80	8.15	
2025-01-16 06:37:32.02	0.67	8.13	
2025-01-16 06:37:32.83	0.54	8.11	
2025-01-16 06:37:33.64	0.41	8.09	
2025-01-16 06:37:34.45	0.28	8.07	
2025-01-16 06:37:35.26	0.15	8.05	
2025-01-16 06:37:36.08	0.02	8.03	
2025-01-16 06:37:36.89	359.89	8.01	
2025-01-16 06:37:37.70	359.76	7.99	
2025-01-16 06:37:38.51	359.64	7.97	
2025-01-16 06:37:39.33	359.51	7.95	
2025-01-16 06:37:40.14	359.38	7.93	
2025-01-16 06:37:40.95	359.25	7.91	
2025-01-16 06:37:41.76	359.12	7.89	
2025-01-16 06:37:42.58	358.99	7.87	
2025-01-16 06:37:43.39	358.87	7.85	
2025-01-16 06:37:44.20	358.74	7.83	
2025-01-16 06:37:45.01	358.61	7.80	
2025-01-16 06:37:45.82	358.49	7.78	
2025-01-16 06:37:46.64	358.36	7.76	
2025-01-16 06:37:47.45	358.23	7.74	
2025-01-16 06:37:48.26	358.11	7.72	
2025-01-16 06:37:49.07	357.98	7.70	
2025-01-16 06:37:49.89	357.85	7.67	
2025-01-16 06:37:50.70	357.73	7.65	
2025-01-16 06:37:51.51	357.60	7.63	
2025-01-16 06:37:52.32	357.48	7.61	
2025-01-16 06:37:53.14	357.35	7.59	
2025-01-16 06:37:53.95	357.22	7.56	
2025-01-16 06:37:54.76	357.10	7.54	
2025-01-16 06:37:55.57	356.98	7.52	
2025-01-16 06:37:56.38	356.85	7.50	
2025-01-16 06:37:57.20	356.73	7.47	
2025-01-16 06:37:58.01	356.60	7.45	
2025-01-16 06:37:58.82	356.48	7.43	
2025-01-16 06:37:59.63	356.36	7.40	
2025-01-16 06:38:00.45	356.23	7.38	
2025-01-16 06:38:01.26	356.11	7.36	
2025-01-16 06:38:02.07	355.99	7.33	
2025-01-16 06:38:02.88	355.86	7.31	
2025-01-16 06:38:03.70	355.74	7.29	
2025-01-16 06:38:04.51	355.62	7.26	
2025-01-16 06:38:05.32	355.50	7.24	
2025-01-16 06:38:06.13	355.37	7.21	
2025-01-16 06:38:06.94	355.25	7.19	
2025-01-16 06:38:07.76	355.13	7.17	
2025-01-16 06:38:08.57	355.01	7.14	
2025-01-16 06:38:09.38	354.89	7.12	
2025-01-16 06:38:10.19	354.77	7.09	
2025-01-16 06:38:11.01	354.64	7.07	
2025-01-16 06:38:11.82	354.52	7.04	
2025-01-16 06:38:12.63	354.40	7.02	
2025-01-16 06:38:13.44	354.28	6.99	
2025-01-16 06:38:14.26	354.16	6.97	
2025-01-16 06:38:15.07	354.04	6.94	
2025-01-16 06:38:15.88	353.92	6.92	
2025-01-16 06:38:16.69	353.81	6.89	
2025-01-16 06:38:17.50	353.69	6.87	
2025-01-16 06:38:18.32	353.57	6.84	
2025-01-16 06:38:19.13	353.45	6.82	
2025-01-16 06:38:19.94	353.33	6.79	
2025-01-16 06:38:20.75	353.21	6.77	
2025-01-16 06:38:21.57	353.09	6.74	
2025-01-16 06:38:22.38	352.98	6.71	
2025-01-16 06:38:23.19	352.86	6.69	
2025-01-16 06:38:24.00	352.74	6.66	
2025-01-16 06:38:24.82	352.62	6.64	
2025-01-16 06:38:25.63	352.51	6.61	
2025-01-16 06:38:26.44	352.39	6.58	
2025-01-16 06:38:27.25	352.27	6.56	
2025-01-16 06:38:28.06	352.16	6.53	
2025-01-16 06:38:28.88	352.04	6.50	
2025-01-16 06:38:29.69	351.92	6.48	
2025-01-16 06:38:30.50	351.81	6.45	
2025-01-16 06:38:31.31	351.69	6.42	
2025-01-16 06:38:32.13	351.58	6.40	
2025-01-16 06:38:32.94	351.46	6.37	
2025-01-16 06:38:33.75	351.35	6.34	
2025-01-16 06:38:34.56	351.23	6.32	
2025-01-16 06:38:35.37	351.12	6.29	
2025-01-16 06:38:36.19	351.00	6.26	
2025-01-16 06:38:37.00	350.89	6.23	
2025-01-16 06:38:37.81	350.78	6.21	
2025-01-16 06:38:38.62	350.66	6.18	
2025-01-16 06:38:39.44	350.55	6.15	
2025-01-16 06:38:40.25	350.44	6.12	
2025-01-16 06:38:41.06	350.32	6.10	
2025-01-16 06:38:41.87	350.21	6.07	
2025-01-16 06:38:42.69	350.10	6.04	
2025-01-16 06:38:43.50	349.99	6.01	
2025-01-16 06:38:44.33	349.87	5.98	
2025-01-16 06:38:45.14	349.76	5.96	
2025-01-16 06:38:45.95	349.65	5.93	
2025-01-16 06:38:46.76	349.54	5.90	
2025-01-16 06:38:47.58	349.43	5.87	
2025-01-16 06:38:48.39	349.32	5.84	
2025-01-16 06:38:49.20	349.21	5.81	
2025-01-16 06:38:50.01	349.10	5.79	
2025-01-16 06:38:50.82	348.99	5.76	
2025-01-16 06:38:51.64	348.88	5.73	
2025-01-16 06:38:52.45	348.77	5.70	
2025-01-16 06:38:53.26	348.66	5.67	
2025-01-16 06:38:54.07	348.55	5.64	
2025-01-16 06:38:54.89	348.44	5.61	
2025-01-16 06:38:55.70	348.33	5.58	
2025-01-16 06:38:56.51	348.22	5.56	
2025-01-16 06:38:57.32	348.11	5.53	
2025-01-16 06:38:58.13	348.00	5.50	
2025-01-16 06:38:58.95	347.90	5.47	
2025-01-16 06:38:59.76	347.79	5.44	
2025-01-16 06:39:00.57	347.68	5.41	
2025-01-16 06:39:01.38	347.57	5.38	
2025-01-16 06:39:02.20	347.47	5.35	
2025-01-16 06:39:03.01	347.36	5.32	
2025-01-16 06:39:03.82	347.25	5.29	
2025-01-16 06:39:04.63	347.15	5.26	
2025-01-16 06:39:05.45	347.04	5.23	
2025-01-16 06:39:06.26	346.93	5.20	
2025-01-16 06:39:07.07	346.83	5.17	
2025-01-16 06:39:07.88	346.72	5.14	
2025-01-16 06:39:08.69	346.62	5.11	
2025-01-16 06:39:09.51	346.51	5.08	
2025-01-16 06:39:10.32	346.41	5.05	
2025-01-16 06:39:11.13	346.30	5.02	
2025-01-16 06:39:11.94	346.20	4.99	
2025-01-16 06:39:12.76	346.09	4.96	
2025-01-16 06:39:13.57	345.99	4.93	
2025-01-16 06:39:14.38	345.89	4.90	
2025-01-16 06:39:15.19	345.78	4.87	
2025-01-16 06:39:16.01	345.68	4.84	
2025-01-16 06:39:16.82	345.58	4.81	
2025-01-16 06:39:17.63	345.47	4.78	
2025-01-16 06:39:18.44	345.37	4.75	
2025-01-16 06:39:19.25	345.27	4.72	
2025-01-16 06:39:20.07	345.17	4.69	
2025-01-16 06:39:20.88	345.06	4.66	
2025-01-16 06:39:21.69	344.96	4.63	
2025-01-16 06:39:22.50	344.86	4.60	
2025-01-16 06:39:23.32	344.76	4.56	
2025-01-16 06:39:24.13	344.66	4.53	
2025-01-16 06:39:24.94	344.56	4.50	
2025-01-16 06:39:25.75	344.46	4.47	
2025-01-16 06:39:26.57	344.36	4.44	
2025-01-16 06:39:27.38	344.26	4.41	
2025-01-16 06:39:28.19	344.16	4.38	
2025-01-16 06:39:29.00	344.06	4.35	
2025-01-16 06:39:29.81	343.96	4.32	
2025-01-16 06:39:30.63	343.86	4.28	
2025-01-16 06:39:31.44	343.76	4.25	
2025-01-16 06:39:32.25	343.66	4.22	
2025-01-16 06:39:33.06	343.56	4.19	
2025-01-16 06:39:33.88	343.46	4.16	
2025-01-16 06:39:34.69	343.36	4.13	
2025-01-16 06:39:35.50	343.27	4.10	
2025-01-16 06:39:36.31	343.17	4.06	
2025-01-16 06:39:37.13	343.07	4.03	
2025-01-16 06:39:37.94	342.97	4.00	

#Closed at: 2025-01-16 06:39:38