passes_logs/2025/01/16/SPB_Silybum_02/SPB_Silybum_02__20250116_031500_SUOMI_NPP_rec.log

#Pass ID: 20250116_031500_SUOMI NPP
#Satellite: SUOMI NPP
#Configuration: NPP
#Start time: 2025-01-16 03:14:59

#Version: 2.0.20230423
#Station: SPB_Silybum_02
#Location: 30.233357 lon 59.946436 lat
#TLE: 1 37849U 11061A   25015.13132341  .00000162  00000+0  97654-4 0  9994
#TLE: 2 37849  98.7446 316.1182 0001675  40.9055 319.2247 14.19538225684933

#Time	Az	El	Level	Level2	SNR	BER	Gain	Gain2
2025-01-16 03:15:01.39	14.39	4.04	
2025-01-16 03:15:02.40	14.29	4.09	
2025-01-16 03:15:03.42	14.18	4.14	
2025-01-16 03:15:04.43	14.08	4.19	
2025-01-16 03:15:05.45	13.97	4.24	
2025-01-16 03:15:06.46	13.87	4.29	
2025-01-16 03:15:07.48	13.76	4.34	
2025-01-16 03:15:08.49	13.66	4.39	
2025-01-16 03:15:09.51	13.55	4.44	
2025-01-16 03:15:10.52	13.44	4.49	
2025-01-16 03:15:11.54	13.33	4.54	
2025-01-16 03:15:12.56	13.23	4.59	
2025-01-16 03:15:13.57	13.12	4.64	
2025-01-16 03:15:14.59	13.01	4.69	
2025-01-16 03:15:15.60	12.90	4.74	
2025-01-16 03:15:16.62	12.79	4.79	
2025-01-16 03:15:17.63	12.68	4.84	
2025-01-16 03:15:18.65	12.57	4.89	
2025-01-16 03:15:19.66	12.46	4.94	
2025-01-16 03:15:20.68	12.35	4.99	
2025-01-16 03:15:21.69	12.24	5.04	
2025-01-16 03:15:22.71	12.13	5.09	
2025-01-16 03:15:23.73	12.01	5.14	
2025-01-16 03:15:24.74	11.90	5.18	
2025-01-16 03:15:25.76	11.79	5.23	
2025-01-16 03:15:26.77	11.67	5.28	
2025-01-16 03:15:27.79	11.56	5.33	
2025-01-16 03:15:28.82	11.44	5.38	
2025-01-16 03:15:29.83	11.33	5.43	
2025-01-16 03:15:30.85	11.21	5.48	
2025-01-16 03:15:31.86	11.10	5.53	
2025-01-16 03:15:32.88	10.98	5.58	
2025-01-16 03:15:33.89	10.87	5.63	
2025-01-16 03:15:34.91	10.75	5.68	
2025-01-16 03:15:35.92	10.63	5.73	
2025-01-16 03:15:36.94	10.52	5.78	
2025-01-16 03:15:37.95	10.40	5.83	
2025-01-16 03:15:38.97	10.28	5.88	
2025-01-16 03:15:39.99	10.16	5.93	
2025-01-16 03:15:41.00	10.04	5.98	
2025-01-16 03:15:42.02	9.92	6.02	
2025-01-16 03:15:43.03	9.80	6.07	
2025-01-16 03:15:44.05	9.68	6.12	
2025-01-16 03:15:45.07	9.56	6.17	
2025-01-16 03:15:46.09	9.44	6.22	
2025-01-16 03:15:47.10	9.32	6.27	
2025-01-16 03:15:48.12	9.20	6.32	
2025-01-16 03:15:49.13	9.07	6.37	
2025-01-16 03:15:50.15	8.95	6.42	
2025-01-16 03:15:51.17	8.83	6.47	
2025-01-16 03:15:52.18	8.70	6.52	
2025-01-16 03:15:53.20	8.58	6.56	
2025-01-16 03:15:54.21	8.45	6.61	
2025-01-16 03:15:55.24	8.33	6.66	
2025-01-16 03:15:56.26	8.20	6.71	
2025-01-16 03:15:57.27	8.08	6.76	
2025-01-16 03:15:58.29	7.95	6.81	
2025-01-16 03:15:59.30	7.82	6.86	
2025-01-16 03:16:00.32	7.70	6.91	
2025-01-16 03:16:01.33	7.57	6.95	
2025-01-16 03:16:02.35	7.44	7.00	
2025-01-16 03:16:03.37	7.31	7.05	
2025-01-16 03:16:04.38	7.18	7.10	
2025-01-16 03:16:05.40	7.05	7.15	
2025-01-16 03:16:06.41	6.92	7.20	
2025-01-16 03:16:07.43	6.79	7.25	
2025-01-16 03:16:08.44	6.66	7.29	
2025-01-16 03:16:09.46	6.53	7.34	
2025-01-16 03:16:10.47	6.40	7.39	
2025-01-16 03:16:11.49	6.27	7.44	
2025-01-16 03:16:12.50	6.14	7.49	
2025-01-16 03:16:13.52	6.00	7.53	
2025-01-16 03:16:14.54	5.87	7.58	
2025-01-16 03:16:15.55	5.73	7.63	
2025-01-16 03:16:16.57	5.60	7.68	
2025-01-16 03:16:17.58	5.47	7.73	
2025-01-16 03:16:18.60	5.33	7.77	
2025-01-16 03:16:19.61	5.19	7.82	
2025-01-16 03:16:20.63	5.06	7.87	
2025-01-16 03:16:21.64	4.92	7.92	
2025-01-16 03:16:22.66	4.78	7.96	
2025-01-16 03:16:23.67	4.65	8.01	
2025-01-16 03:16:24.69	4.51	8.06	
2025-01-16 03:16:25.70	4.37	8.10	
2025-01-16 03:16:26.72	4.23	8.15	
2025-01-16 03:16:27.74	4.09	8.20	
2025-01-16 03:16:28.75	3.95	8.25	
2025-01-16 03:16:29.77	3.81	8.29	
2025-01-16 03:16:30.78	3.67	8.34	
2025-01-16 03:16:31.80	3.53	8.39	
2025-01-16 03:16:32.81	3.39	8.43	
2025-01-16 03:16:33.83	3.25	8.48	
2025-01-16 03:16:34.84	3.10	8.53	
2025-01-16 03:16:35.86	2.96	8.57	
2025-01-16 03:16:36.87	2.82	8.62	
2025-01-16 03:16:37.89	2.67	8.67	
2025-01-16 03:16:38.91	2.53	8.71	
2025-01-16 03:16:39.92	2.38	8.76	
2025-01-16 03:16:40.94	2.24	8.80	
2025-01-16 03:16:41.95	2.09	8.85	
2025-01-16 03:16:42.97	1.95	8.90	
2025-01-16 03:16:43.98	1.80	8.94	
2025-01-16 03:16:45.00	1.65	8.99	
2025-01-16 03:16:46.01	1.51	9.03	
2025-01-16 03:16:47.03	1.36	9.08	
2025-01-16 03:16:48.04	1.21	9.12	
2025-01-16 03:16:49.06	1.06	9.17	
2025-01-16 03:16:50.07	0.91	9.21	
2025-01-16 03:16:51.09	0.76	9.26	
2025-01-16 03:16:52.11	0.61	9.30	
2025-01-16 03:16:53.12	0.46	9.35	
2025-01-16 03:16:54.14	0.31	9.39	
2025-01-16 03:16:55.15	0.15	9.44	
2025-01-16 03:16:56.17	0.00	9.48	
2025-01-16 03:16:57.18	359.85	9.53	
2025-01-16 03:16:58.20	359.70	9.57	
2025-01-16 03:16:59.21	359.54	9.61	
2025-01-16 03:17:00.23	359.39	9.66	
2025-01-16 03:17:01.24	359.23	9.70	
2025-01-16 03:17:02.26	359.08	9.75	
2025-01-16 03:17:03.28	358.92	9.79	
2025-01-16 03:17:04.29	358.77	9.83	
2025-01-16 03:17:05.31	358.61	9.88	
2025-01-16 03:17:06.32	358.45	9.92	
2025-01-16 03:17:07.34	358.29	9.96	
2025-01-16 03:17:08.35	358.14	10.00	
2025-01-16 03:17:09.37	357.98	10.05	
2025-01-16 03:17:10.38	357.82	10.09	
2025-01-16 03:17:11.40	357.66	10.13	
2025-01-16 03:17:12.41	357.50	10.18	
2025-01-16 03:17:13.43	357.34	10.22	
2025-01-16 03:17:14.44	357.18	10.26	
2025-01-16 03:17:15.46	357.01	10.30	
2025-01-16 03:17:16.48	356.85	10.34	
2025-01-16 03:17:17.49	356.69	10.38	
2025-01-16 03:17:18.51	356.53	10.43	
2025-01-16 03:17:19.52	356.36	10.47	
2025-01-16 03:17:20.54	356.20	10.51	
2025-01-16 03:17:21.55	356.04	10.55	
2025-01-16 03:17:22.57	355.87	10.59	
2025-01-16 03:17:23.58	355.71	10.63	
2025-01-16 03:17:24.60	355.54	10.67	
2025-01-16 03:17:25.61	355.37	10.71	
2025-01-16 03:17:26.63	355.21	10.75	
2025-01-16 03:17:27.65	355.04	10.79	
2025-01-16 03:17:28.66	354.87	10.83	
2025-01-16 03:17:29.68	354.70	10.87	
2025-01-16 03:17:30.69	354.54	10.91	
2025-01-16 03:17:31.71	354.37	10.95	
2025-01-16 03:17:32.72	354.20	10.99	
2025-01-16 03:17:33.74	354.03	11.03	
2025-01-16 03:17:34.75	353.86	11.07	
2025-01-16 03:17:35.77	353.69	11.11	
2025-01-16 03:17:36.78	353.52	11.14	
2025-01-16 03:17:37.80	353.34	11.18	
2025-01-16 03:17:38.81	353.17	11.22	
2025-01-16 03:17:39.83	353.00	11.26	
2025-01-16 03:17:40.85	352.83	11.30	
2025-01-16 03:17:41.86	352.65	11.33	
2025-01-16 03:17:42.88	352.48	11.37	
2025-01-16 03:17:43.89	352.30	11.41	
2025-01-16 03:17:44.91	352.13	11.44	
2025-01-16 03:17:45.92	351.95	11.48	
2025-01-16 03:17:46.94	351.78	11.52	
2025-01-16 03:17:47.95	351.60	11.55	
2025-01-16 03:17:48.97	351.43	11.59	
2025-01-16 03:17:49.98	351.25	11.62	
2025-01-16 03:17:51.00	351.07	11.66	
2025-01-16 03:17:52.02	350.89	11.70	
2025-01-16 03:17:53.03	350.71	11.73	
2025-01-16 03:17:54.05	350.53	11.77	
2025-01-16 03:17:55.06	350.36	11.80	
2025-01-16 03:17:56.08	350.18	11.83	
2025-01-16 03:17:57.09	350.00	11.87	
2025-01-16 03:17:58.11	349.82	11.90	
2025-01-16 03:17:59.12	349.64	11.94	
2025-01-16 03:18:00.14	349.45	11.97	
2025-01-16 03:18:01.15	349.27	12.00	
2025-01-16 03:18:02.17	349.09	12.04	
2025-01-16 03:18:03.18	348.91	12.07	
2025-01-16 03:18:04.20	348.72	12.10	
2025-01-16 03:18:05.22	348.54	12.13	
2025-01-16 03:18:06.23	348.36	12.17	
2025-01-16 03:18:07.25	348.17	12.20	
2025-01-16 03:18:08.26	347.99	12.23	
2025-01-16 03:18:09.28	347.80	12.26	
2025-01-16 03:18:10.29	347.62	12.29	
2025-01-16 03:18:11.31	347.43	12.32	
2025-01-16 03:18:12.32	347.25	12.35	
2025-01-16 03:18:13.34	347.06	12.38	
2025-01-16 03:18:14.35	346.87	12.41	
2025-01-16 03:18:15.37	346.68	12.44	
2025-01-16 03:18:16.39	346.49	12.47	
2025-01-16 03:18:17.40	346.31	12.50	
2025-01-16 03:18:18.42	346.12	12.53	
2025-01-16 03:18:19.43	345.93	12.56	
2025-01-16 03:18:20.45	345.74	12.59	
2025-01-16 03:18:21.46	345.55	12.62	
2025-01-16 03:18:22.48	345.36	12.64	
2025-01-16 03:18:23.49	345.17	12.67	
2025-01-16 03:18:24.51	344.98	12.70	
2025-01-16 03:18:25.52	344.79	12.73	
2025-01-16 03:18:26.54	344.60	12.75	
2025-01-16 03:18:27.56	344.40	12.78	
2025-01-16 03:18:28.57	344.21	12.80	
2025-01-16 03:18:29.59	344.02	12.83	
2025-01-16 03:18:30.60	343.83	12.86	
2025-01-16 03:18:31.62	343.63	12.88	
2025-01-16 03:18:32.63	343.44	12.91	
2025-01-16 03:18:33.65	343.25	12.93	
2025-01-16 03:18:34.66	343.05	12.96	
2025-01-16 03:18:35.68	342.86	12.98	
2025-01-16 03:18:36.69	342.66	13.00	
2025-01-16 03:18:37.71	342.47	13.03	
2025-01-16 03:18:38.72	342.27	13.05	
2025-01-16 03:18:39.74	342.08	13.07	
2025-01-16 03:18:40.76	341.88	13.09	
2025-01-16 03:18:41.77	341.68	13.12	
2025-01-16 03:18:42.79	341.49	13.14	
2025-01-16 03:18:43.80	341.29	13.16	
2025-01-16 03:18:44.82	341.09	13.18	
2025-01-16 03:18:45.83	340.90	13.20	
2025-01-16 03:18:46.85	340.70	13.22	
2025-01-16 03:18:47.86	340.50	13.24	
2025-01-16 03:18:48.88	340.30	13.26	
2025-01-16 03:18:49.89	340.10	13.28	
2025-01-16 03:18:50.91	339.90	13.30	
2025-01-16 03:18:51.93	339.70	13.32	
2025-01-16 03:18:52.94	339.50	13.34	
2025-01-16 03:18:53.96	339.30	13.36	
2025-01-16 03:18:54.97	339.10	13.38	
2025-01-16 03:18:55.99	338.90	13.39	
2025-01-16 03:18:57.00	338.70	13.41	
2025-01-16 03:18:58.02	338.50	13.43	
2025-01-16 03:18:59.03	338.30	13.45	
2025-01-16 03:19:00.05	338.10	13.46	
2025-01-16 03:19:01.06	337.90	13.48	
2025-01-16 03:19:02.08	337.70	13.49	
2025-01-16 03:19:03.09	337.50	13.51	
2025-01-16 03:19:04.11	337.29	13.52	
2025-01-16 03:19:05.13	337.09	13.54	
2025-01-16 03:19:06.14	336.89	13.55	
2025-01-16 03:19:07.16	336.68	13.57	
2025-01-16 03:19:08.17	336.48	13.58	
2025-01-16 03:19:09.19	336.28	13.59	
2025-01-16 03:19:10.20	336.08	13.61	
2025-01-16 03:19:11.22	335.87	13.62	
2025-01-16 03:19:12.23	335.67	13.63	
2025-01-16 03:19:13.25	335.47	13.64	
2025-01-16 03:19:14.26	335.26	13.65	
2025-01-16 03:19:15.28	335.06	13.67	
2025-01-16 03:19:16.30	334.85	13.68	
2025-01-16 03:19:17.31	334.65	13.69	
2025-01-16 03:19:18.33	334.44	13.70	
2025-01-16 03:19:19.34	334.24	13.71	
2025-01-16 03:19:20.36	334.03	13.72	
2025-01-16 03:19:21.37	333.83	13.72	
2025-01-16 03:19:22.39	333.62	13.73	
2025-01-16 03:19:23.40	333.42	13.74	
2025-01-16 03:19:24.42	333.21	13.75	
2025-01-16 03:19:25.43	333.01	13.76	
2025-01-16 03:19:26.45	332.80	13.76	
2025-01-16 03:19:27.46	332.60	13.77	
2025-01-16 03:19:28.48	332.39	13.78	
2025-01-16 03:19:29.50	332.19	13.78	
2025-01-16 03:19:30.51	331.98	13.79	
2025-01-16 03:19:31.53	331.77	13.79	
2025-01-16 03:19:32.54	331.57	13.80	
2025-01-16 03:19:33.56	331.36	13.80	
2025-01-16 03:19:34.57	331.16	13.81	
2025-01-16 03:19:35.59	330.95	13.81	
2025-01-16 03:19:36.60	330.74	13.82	
2025-01-16 03:19:37.62	330.54	13.82	
2025-01-16 03:19:38.63	330.33	13.82	
2025-01-16 03:19:39.65	330.12	13.82	
2025-01-16 03:19:40.67	329.92	13.83	
2025-01-16 03:19:41.68	329.71	13.83	
2025-01-16 03:19:42.70	329.50	13.83	
2025-01-16 03:19:43.71	329.30	13.83	
2025-01-16 03:19:44.73	329.09	13.83	
2025-01-16 03:19:45.74	328.89	13.83	
2025-01-16 03:19:46.76	328.68	13.83	
2025-01-16 03:19:47.77	328.47	13.83	
2025-01-16 03:19:48.79	328.27	13.83	
2025-01-16 03:19:49.80	328.06	13.83	
2025-01-16 03:19:50.82	327.85	13.83	
2025-01-16 03:19:51.83	327.65	13.82	
2025-01-16 03:19:52.85	327.44	13.82	
2025-01-16 03:19:53.87	327.23	13.82	
2025-01-16 03:19:54.88	327.03	13.82	
2025-01-16 03:19:55.90	326.82	13.81	
2025-01-16 03:19:56.91	326.61	13.81	
2025-01-16 03:19:57.93	326.41	13.80	
2025-01-16 03:19:58.94	326.20	13.80	
2025-01-16 03:19:59.96	325.99	13.79	
2025-01-16 03:20:00.97	325.79	13.79	
2025-01-16 03:20:01.99	325.58	13.78	
2025-01-16 03:20:03.00	325.38	13.78	
2025-01-16 03:20:04.02	325.17	13.77	
2025-01-16 03:20:05.04	324.96	13.76	
2025-01-16 03:20:06.05	324.76	13.76	
2025-01-16 03:20:07.07	324.55	13.75	
2025-01-16 03:20:08.08	324.35	13.74	
2025-01-16 03:20:09.10	324.14	13.73	
2025-01-16 03:20:10.11	323.94	13.72	
2025-01-16 03:20:11.13	323.73	13.72	
2025-01-16 03:20:12.14	323.53	13.71	
2025-01-16 03:20:13.16	323.32	13.70	
2025-01-16 03:20:14.17	323.12	13.69	
2025-01-16 03:20:15.19	322.91	13.68	
2025-01-16 03:20:16.20	322.71	13.67	
2025-01-16 03:20:17.22	322.51	13.65	
2025-01-16 03:20:18.24	322.30	13.64	
2025-01-16 03:20:19.25	322.10	13.63	
2025-01-16 03:20:20.27	321.89	13.62	
2025-01-16 03:20:21.28	321.69	13.61	
2025-01-16 03:20:22.30	321.49	13.59	
2025-01-16 03:20:23.31	321.28	13.58	
2025-01-16 03:20:24.33	321.08	13.57	
2025-01-16 03:20:25.34	320.88	13.55	
2025-01-16 03:20:26.36	320.68	13.54	
2025-01-16 03:20:27.37	320.47	13.52	
2025-01-16 03:20:28.39	320.27	13.51	
2025-01-16 03:20:29.41	320.07	13.49	
2025-01-16 03:20:30.42	319.87	13.48	
2025-01-16 03:20:31.44	319.66	13.46	
2025-01-16 03:20:32.45	319.46	13.45	
2025-01-16 03:20:33.47	319.26	13.43	
2025-01-16 03:20:34.48	319.06	13.41	
2025-01-16 03:20:35.50	318.86	13.39	
2025-01-16 03:20:36.51	318.66	13.38	
2025-01-16 03:20:37.53	318.46	13.36	
2025-01-16 03:20:38.54	318.26	13.34	
2025-01-16 03:20:39.56	318.06	13.32	
2025-01-16 03:20:40.57	317.86	13.30	
2025-01-16 03:20:41.59	317.66	13.28	
2025-01-16 03:20:42.61	317.46	13.26	
2025-01-16 03:20:43.62	317.26	13.24	
2025-01-16 03:20:44.64	317.07	13.22	
2025-01-16 03:20:45.65	316.87	13.20	
2025-01-16 03:20:46.67	316.67	13.18	
2025-01-16 03:20:47.68	316.47	13.16	
2025-01-16 03:20:48.70	316.28	13.14	
2025-01-16 03:20:49.71	316.08	13.12	
2025-01-16 03:20:50.73	315.88	13.09	
2025-01-16 03:20:51.74	315.69	13.07	
2025-01-16 03:20:52.76	315.49	13.05	
2025-01-16 03:20:53.78	315.29	13.03	
2025-01-16 03:20:54.79	315.10	13.00	
2025-01-16 03:20:55.81	314.90	12.98	
2025-01-16 03:20:56.82	314.71	12.95	
2025-01-16 03:20:57.84	314.51	12.93	
2025-01-16 03:20:58.85	314.32	12.91	
2025-01-16 03:20:59.87	314.13	12.88	
2025-01-16 03:21:00.88	313.93	12.86	
2025-01-16 03:21:01.90	313.74	12.83	
2025-01-16 03:21:02.91	313.55	12.80	
2025-01-16 03:21:03.93	313.35	12.78	
2025-01-16 03:21:04.94	313.16	12.75	
2025-01-16 03:21:05.96	312.97	12.72	
2025-01-16 03:21:06.98	312.78	12.70	
2025-01-16 03:21:07.99	312.59	12.67	
2025-01-16 03:21:09.01	312.40	12.64	
2025-01-16 03:21:10.02	312.21	12.61	
2025-01-16 03:21:11.04	312.02	12.59	
2025-01-16 03:21:12.05	311.83	12.56	
2025-01-16 03:21:13.07	311.64	12.53	
2025-01-16 03:21:14.08	311.45	12.50	
2025-01-16 03:21:15.10	311.26	12.47	
2025-01-16 03:21:16.11	311.07	12.44	
2025-01-16 03:21:17.13	310.88	12.41	
2025-01-16 03:21:18.15	310.69	12.38	
2025-01-16 03:21:19.16	310.51	12.35	
2025-01-16 03:21:20.18	310.32	12.32	
2025-01-16 03:21:21.19	310.14	12.29	
2025-01-16 03:21:22.21	309.95	12.26	
2025-01-16 03:21:23.22	309.77	12.23	
2025-01-16 03:21:24.24	309.58	12.20	
2025-01-16 03:21:25.25	309.40	12.16	
2025-01-16 03:21:26.27	309.21	12.13	
2025-01-16 03:21:27.28	309.03	12.10	
2025-01-16 03:21:28.30	308.84	12.07	
2025-01-16 03:21:29.32	308.66	12.03	
2025-01-16 03:21:30.33	308.48	12.00	
2025-01-16 03:21:31.35	308.29	11.97	
2025-01-16 03:21:32.36	308.11	11.93	
2025-01-16 03:21:33.38	307.93	11.90	
2025-01-16 03:21:34.39	307.75	11.87	
2025-01-16 03:21:35.41	307.57	11.83	
2025-01-16 03:21:36.42	307.39	11.80	
2025-01-16 03:21:37.44	307.21	11.76	
2025-01-16 03:21:38.45	307.03	11.73	
2025-01-16 03:21:39.47	306.85	11.69	
2025-01-16 03:21:40.48	306.68	11.66	
2025-01-16 03:21:41.50	306.50	11.62	
2025-01-16 03:21:42.52	306.32	11.59	
2025-01-16 03:21:43.53	306.14	11.55	
2025-01-16 03:21:44.55	305.97	11.51	
2025-01-16 03:21:45.56	305.79	11.48	
2025-01-16 03:21:46.58	305.61	11.44	
2025-01-16 03:21:47.59	305.44	11.40	
2025-01-16 03:21:48.61	305.26	11.37	
2025-01-16 03:21:49.62	305.09	11.33	
2025-01-16 03:21:50.64	304.92	11.29	
2025-01-16 03:21:51.65	304.74	11.26	
2025-01-16 03:21:52.67	304.57	11.22	
2025-01-16 03:21:53.69	304.40	11.18	
2025-01-16 03:21:54.70	304.22	11.14	
2025-01-16 03:21:55.72	304.05	11.10	
2025-01-16 03:21:56.73	303.88	11.06	
2025-01-16 03:21:57.75	303.71	11.03	
2025-01-16 03:21:58.76	303.54	10.99	
2025-01-16 03:21:59.78	303.37	10.95	
2025-01-16 03:22:00.79	303.20	10.91	
2025-01-16 03:22:01.81	303.03	10.87	
2025-01-16 03:22:02.82	302.86	10.83	
2025-01-16 03:22:03.84	302.70	10.79	
2025-01-16 03:22:04.85	302.53	10.75	
2025-01-16 03:22:05.87	302.36	10.71	
2025-01-16 03:22:06.89	302.19	10.67	
2025-01-16 03:22:07.90	302.03	10.63	
2025-01-16 03:22:08.92	301.86	10.59	
2025-01-16 03:22:09.93	301.70	10.55	
2025-01-16 03:22:10.95	301.53	10.50	
2025-01-16 03:22:11.96	301.37	10.46	
2025-01-16 03:22:12.98	301.20	10.42	
2025-01-16 03:22:13.99	301.04	10.38	
2025-01-16 03:22:15.01	300.88	10.34	
2025-01-16 03:22:16.02	300.72	10.30	
2025-01-16 03:22:17.04	300.55	10.26	
2025-01-16 03:22:18.06	300.39	10.21	
2025-01-16 03:22:19.07	300.23	10.17	
2025-01-16 03:22:20.09	300.07	10.13	
2025-01-16 03:22:21.10	299.91	10.09	
2025-01-16 03:22:22.12	299.75	10.04	
2025-01-16 03:22:23.13	299.59	10.00	
2025-01-16 03:22:24.15	299.43	9.96	
2025-01-16 03:22:25.16	299.28	9.91	
2025-01-16 03:22:26.18	299.12	9.87	
2025-01-16 03:22:27.19	298.96	9.83	
2025-01-16 03:22:28.21	298.80	9.78	
2025-01-16 03:22:29.22	298.65	9.74	
2025-01-16 03:22:30.24	298.49	9.70	
2025-01-16 03:22:31.26	298.34	9.65	
2025-01-16 03:22:32.27	298.18	9.61	
2025-01-16 03:22:33.29	298.03	9.56	
2025-01-16 03:22:34.30	297.87	9.52	
2025-01-16 03:22:35.32	297.72	9.48	
2025-01-16 03:22:36.33	297.57	9.43	
2025-01-16 03:22:37.35	297.41	9.39	
2025-01-16 03:22:38.36	297.26	9.34	
2025-01-16 03:22:39.38	297.11	9.30	
2025-01-16 03:22:40.39	296.96	9.25	
2025-01-16 03:22:41.41	296.81	9.21	
2025-01-16 03:22:42.43	296.66	9.16	
2025-01-16 03:22:43.44	296.51	9.12	
2025-01-16 03:22:44.46	296.36	9.07	
2025-01-16 03:22:45.47	296.21	9.03	
2025-01-16 03:22:46.49	296.06	8.98	
2025-01-16 03:22:47.50	295.92	8.94	
2025-01-16 03:22:48.52	295.77	8.89	
2025-01-16 03:22:49.53	295.62	8.84	
2025-01-16 03:22:50.55	295.47	8.80	
2025-01-16 03:22:51.56	295.33	8.75	
2025-01-16 03:22:52.58	295.18	8.71	
2025-01-16 03:22:53.59	295.04	8.66	
2025-01-16 03:22:54.61	294.89	8.61	
2025-01-16 03:22:55.63	294.75	8.57	
2025-01-16 03:22:56.64	294.61	8.52	
2025-01-16 03:22:57.66	294.46	8.47	
2025-01-16 03:22:58.67	294.32	8.43	
2025-01-16 03:22:59.69	294.18	8.38	
2025-01-16 03:23:00.70	294.04	8.33	
2025-01-16 03:23:01.72	293.89	8.29	
2025-01-16 03:23:02.73	293.75	8.24	
2025-01-16 03:23:03.75	293.61	8.19	
2025-01-16 03:23:04.76	293.47	8.15	
2025-01-16 03:23:05.78	293.33	8.10	
2025-01-16 03:23:06.80	293.20	8.05	
2025-01-16 03:23:07.81	293.06	8.00	
2025-01-16 03:23:08.83	292.92	7.96	
2025-01-16 03:23:09.84	292.78	7.91	
2025-01-16 03:23:10.86	292.64	7.86	
2025-01-16 03:23:11.87	292.51	7.81	
2025-01-16 03:23:12.89	292.37	7.77	
2025-01-16 03:23:13.90	292.24	7.72	
2025-01-16 03:23:14.92	292.10	7.67	
2025-01-16 03:23:15.93	291.97	7.62	
2025-01-16 03:23:16.95	291.83	7.57	
2025-01-16 03:23:17.96	291.70	7.53	
2025-01-16 03:23:18.98	291.56	7.48	
2025-01-16 03:23:20.00	291.43	7.43	
2025-01-16 03:23:21.01	291.30	7.38	
2025-01-16 03:23:22.03	291.17	7.33	
2025-01-16 03:23:23.04	291.03	7.29	
2025-01-16 03:23:24.06	290.90	7.24	
2025-01-16 03:23:25.07	290.77	7.19	
2025-01-16 03:23:26.09	290.64	7.14	
2025-01-16 03:23:27.10	290.51	7.09	
2025-01-16 03:23:28.12	290.38	7.04	
2025-01-16 03:23:29.13	290.25	7.00	
2025-01-16 03:23:30.15	290.12	6.95	
2025-01-16 03:23:31.17	290.00	6.90	
2025-01-16 03:23:32.18	289.87	6.85	
2025-01-16 03:23:33.20	289.74	6.80	
2025-01-16 03:23:34.21	289.61	6.75	
2025-01-16 03:23:35.23	289.49	6.70	
2025-01-16 03:23:36.24	289.36	6.65	
2025-01-16 03:23:37.26	289.24	6.60	
2025-01-16 03:23:38.27	289.11	6.56	
2025-01-16 03:23:39.29	288.99	6.51	
2025-01-16 03:23:40.30	288.86	6.46	
2025-01-16 03:23:41.32	288.74	6.41	
2025-01-16 03:23:42.33	288.62	6.36	
2025-01-16 03:23:43.35	288.49	6.31	
2025-01-16 03:23:44.37	288.37	6.26	
2025-01-16 03:23:45.38	288.25	6.21	
2025-01-16 03:23:46.40	288.12	6.16	
2025-01-16 03:23:47.41	288.00	6.11	
2025-01-16 03:23:48.43	287.88	6.07	
2025-01-16 03:23:49.44	287.76	6.02	
2025-01-16 03:23:50.46	287.64	5.97	
2025-01-16 03:23:51.47	287.52	5.92	
2025-01-16 03:23:52.49	287.40	5.87	
2025-01-16 03:23:53.50	287.28	5.82	
2025-01-16 03:23:54.52	287.17	5.77	
2025-01-16 03:23:55.54	287.05	5.72	
2025-01-16 03:23:56.55	286.93	5.67	
2025-01-16 03:23:57.57	286.81	5.62	
2025-01-16 03:23:58.58	286.70	5.57	
2025-01-16 03:23:59.60	286.58	5.52	
2025-01-16 03:24:00.61	286.46	5.47	
2025-01-16 03:24:01.63	286.35	5.42	
2025-01-16 03:24:02.64	286.23	5.37	
2025-01-16 03:24:03.66	286.12	5.32	
2025-01-16 03:24:04.67	286.00	5.28	
2025-01-16 03:24:05.69	285.89	5.23	
2025-01-16 03:24:06.71	285.77	5.18	
2025-01-16 03:24:07.72	285.66	5.13	
2025-01-16 03:24:08.74	285.55	5.08	
2025-01-16 03:24:09.75	285.44	5.03	
2025-01-16 03:24:10.77	285.32	4.98	
2025-01-16 03:24:11.78	285.21	4.93	
2025-01-16 03:24:12.80	285.10	4.88	
2025-01-16 03:24:13.81	284.99	4.83	
2025-01-16 03:24:14.83	284.88	4.78	
2025-01-16 03:24:15.84	284.77	4.73	
2025-01-16 03:24:16.86	284.66	4.68	
2025-01-16 03:24:17.87	284.55	4.63	
2025-01-16 03:24:18.89	284.44	4.58	
2025-01-16 03:24:19.91	284.33	4.53	
2025-01-16 03:24:20.92	284.23	4.48	
2025-01-16 03:24:21.94	284.12	4.43	
2025-01-16 03:24:22.95	284.01	4.38	
2025-01-16 03:24:23.97	283.90	4.33	
2025-01-16 03:24:24.98	283.80	4.28	
2025-01-16 03:24:26.00	283.69	4.23	
2025-01-16 03:24:27.01	283.58	4.18	
2025-01-16 03:24:28.03	283.48	4.13	
2025-01-16 03:24:29.04	283.37	4.08	
2025-01-16 03:24:30.06	283.27	4.03	

#Closed at: 2025-01-16 03:24:30