passes_logs/2025/01/16/SPB_Silybum_02/SPB_Silybum_02__20250116_094701_SUOMI_NPP_rec.log

#Pass ID: 20250116_094701_SUOMI NPP
#Satellite: SUOMI NPP
#Configuration: NPP
#Start time: 2025-01-16 09:47:00

#Version: 2.0.20230423
#Station: SPB_Silybum_02
#Location: 30.233357 lon 59.946436 lat
#TLE: 1 37849U 11061A   25015.83617422  .00000154  00000+0  93894-4 0  9992
#TLE: 2 37849  98.7447 316.8141 0001652  39.8884 320.2413 14.19538521685036

#Time	Az	El	Level	Level2	SNR	BER	Gain	Gain2
2025-01-16 09:47:02.22	145.12	4.03	
2025-01-16 09:47:03.64	145.09	4.12	
2025-01-16 09:47:05.06	145.07	4.22	
2025-01-16 09:47:06.48	145.04	4.32	
2025-01-16 09:47:07.90	145.01	4.42	
2025-01-16 09:47:09.32	144.98	4.52	
2025-01-16 09:47:10.74	144.96	4.62	
2025-01-16 09:47:12.17	144.93	4.72	
2025-01-16 09:47:13.59	144.90	4.82	
2025-01-16 09:47:15.01	144.87	4.92	
2025-01-16 09:47:16.43	144.84	5.02	
2025-01-16 09:47:17.85	144.82	5.12	
2025-01-16 09:47:19.27	144.79	5.22	
2025-01-16 09:47:20.69	144.76	5.32	
2025-01-16 09:47:22.11	144.73	5.43	
2025-01-16 09:47:23.53	144.70	5.53	
2025-01-16 09:47:24.95	144.67	5.63	
2025-01-16 09:47:26.37	144.64	5.74	
2025-01-16 09:47:27.79	144.61	5.84	
2025-01-16 09:47:29.22	144.58	5.94	
2025-01-16 09:47:30.64	144.55	6.05	
2025-01-16 09:47:32.06	144.52	6.16	
2025-01-16 09:47:33.48	144.49	6.26	
2025-01-16 09:47:34.90	144.45	6.37	
2025-01-16 09:47:36.32	144.42	6.47	
2025-01-16 09:47:37.74	144.39	6.58	
2025-01-16 09:47:39.16	144.36	6.69	
2025-01-16 09:47:40.58	144.33	6.80	
2025-01-16 09:47:42.00	144.29	6.90	
2025-01-16 09:47:43.42	144.26	7.01	
2025-01-16 09:47:44.85	144.23	7.12	
2025-01-16 09:47:46.27	144.19	7.23	
2025-01-16 09:47:47.69	144.16	7.34	
2025-01-16 09:47:49.11	144.13	7.45	
2025-01-16 09:47:50.53	144.09	7.56	
2025-01-16 09:47:51.95	144.06	7.68	
2025-01-16 09:47:53.37	144.02	7.79	
2025-01-16 09:47:54.79	143.99	7.90	
2025-01-16 09:47:56.21	143.95	8.01	
2025-01-16 09:47:57.63	143.91	8.13	
2025-01-16 09:47:59.05	143.88	8.24	
2025-01-16 09:48:00.47	143.84	8.36	
2025-01-16 09:48:01.90	143.80	8.47	
2025-01-16 09:48:03.32	143.77	8.59	
2025-01-16 09:48:04.74	143.73	8.70	
2025-01-16 09:48:06.16	143.69	8.82	
2025-01-16 09:48:07.58	143.65	8.94	
2025-01-16 09:48:09.00	143.61	9.05	
2025-01-16 09:48:10.42	143.58	9.17	
2025-01-16 09:48:11.84	143.54	9.29	
2025-01-16 09:48:13.26	143.50	9.41	
2025-01-16 09:48:14.68	143.46	9.53	
2025-01-16 09:48:16.10	143.42	9.65	
2025-01-16 09:48:17.52	143.38	9.77	
2025-01-16 09:48:18.95	143.33	9.89	
2025-01-16 09:48:20.37	143.29	10.02	
2025-01-16 09:48:21.79	143.25	10.14	
2025-01-16 09:48:23.21	143.21	10.26	
2025-01-16 09:48:24.63	143.17	10.39	
2025-01-16 09:48:26.05	143.12	10.51	
2025-01-16 09:48:27.47	143.08	10.64	
2025-01-16 09:48:28.89	143.04	10.76	
2025-01-16 09:48:30.31	142.99	10.89	
2025-01-16 09:48:31.73	142.95	11.02	
2025-01-16 09:48:33.15	142.90	11.14	
2025-01-16 09:48:34.58	142.86	11.27	
2025-01-16 09:48:36.00	142.81	11.40	
2025-01-16 09:48:37.42	142.76	11.53	
2025-01-16 09:48:38.84	142.72	11.66	
2025-01-16 09:48:40.26	142.67	11.79	
2025-01-16 09:48:41.68	142.62	11.92	
2025-01-16 09:48:43.10	142.57	12.06	
2025-01-16 09:48:44.52	142.53	12.19	
2025-01-16 09:48:45.94	142.48	12.32	
2025-01-16 09:48:47.36	142.43	12.46	
2025-01-16 09:48:48.78	142.38	12.59	
2025-01-16 09:48:50.20	142.33	12.73	
2025-01-16 09:48:51.63	142.27	12.87	
2025-01-16 09:48:53.05	142.22	13.01	
2025-01-16 09:48:54.47	142.17	13.14	
2025-01-16 09:48:55.89	142.12	13.28	
2025-01-16 09:48:57.31	142.06	13.42	
2025-01-16 09:48:58.73	142.01	13.56	
2025-01-16 09:49:00.15	141.96	13.70	
2025-01-16 09:49:01.57	141.90	13.85	
2025-01-16 09:49:02.99	141.85	13.99	
2025-01-16 09:49:04.41	141.79	14.13	
2025-01-16 09:49:05.83	141.73	14.28	
2025-01-16 09:49:07.25	141.68	14.42	
2025-01-16 09:49:08.68	141.62	14.57	
2025-01-16 09:49:10.10	141.56	14.72	
2025-01-16 09:49:11.52	141.50	14.87	
2025-01-16 09:49:12.94	141.44	15.01	
2025-01-16 09:49:14.36	141.38	15.16	
2025-01-16 09:49:15.78	141.32	15.32	
2025-01-16 09:49:17.20	141.26	15.47	
2025-01-16 09:49:18.62	141.19	15.62	
2025-01-16 09:49:20.04	141.13	15.77	
2025-01-16 09:49:21.46	141.07	15.93	
2025-01-16 09:49:22.88	141.00	16.08	
2025-01-16 09:49:24.31	140.94	16.24	
2025-01-16 09:49:25.73	140.87	16.40	
2025-01-16 09:49:27.15	140.81	16.56	
2025-01-16 09:49:28.57	140.74	16.71	
2025-01-16 09:49:29.99	140.67	16.87	
2025-01-16 09:49:31.41	140.60	17.04	
2025-01-16 09:49:32.83	140.53	17.20	
2025-01-16 09:49:34.25	140.46	17.36	
2025-01-16 09:49:35.67	140.39	17.53	
2025-01-16 09:49:37.09	140.32	17.69	
2025-01-16 09:49:38.51	140.24	17.86	
2025-01-16 09:49:39.93	140.17	18.03	
2025-01-16 09:49:41.36	140.10	18.20	
2025-01-16 09:49:42.78	140.02	18.36	
2025-01-16 09:49:44.20	139.94	18.54	
2025-01-16 09:49:45.62	139.87	18.71	
2025-01-16 09:49:47.04	139.79	18.88	
2025-01-16 09:49:48.46	139.71	19.06	
2025-01-16 09:49:49.88	139.63	19.23	
2025-01-16 09:49:51.30	139.55	19.41	
2025-01-16 09:49:52.72	139.47	19.59	
2025-01-16 09:49:54.14	139.38	19.76	
2025-01-16 09:49:55.56	139.30	19.94	
2025-01-16 09:49:56.98	139.21	20.13	
2025-01-16 09:49:58.41	139.13	20.31	
2025-01-16 09:49:59.83	139.04	20.49	
2025-01-16 09:50:01.25	138.95	20.68	
2025-01-16 09:50:02.67	138.86	20.87	
2025-01-16 09:50:04.09	138.77	21.05	
2025-01-16 09:50:05.51	138.68	21.24	
2025-01-16 09:50:06.93	138.58	21.43	
2025-01-16 09:50:08.35	138.49	21.63	
2025-01-16 09:50:09.77	138.40	21.82	
2025-01-16 09:50:11.19	138.30	22.02	
2025-01-16 09:50:12.61	138.20	22.21	
2025-01-16 09:50:14.04	138.10	22.41	
2025-01-16 09:50:15.46	138.00	22.61	
2025-01-16 09:50:16.88	137.90	22.81	
2025-01-16 09:50:18.30	137.79	23.01	
2025-01-16 09:50:19.72	137.69	23.22	
2025-01-16 09:50:21.14	137.58	23.42	
2025-01-16 09:50:22.56	137.48	23.63	
2025-01-16 09:50:23.98	137.37	23.84	
2025-01-16 09:50:25.40	137.26	24.05	
2025-01-16 09:50:26.82	137.14	24.26	
2025-01-16 09:50:28.24	137.03	24.47	
2025-01-16 09:50:29.66	136.91	24.68	
2025-01-16 09:50:31.09	136.80	24.90	
2025-01-16 09:50:32.51	136.68	25.12	
2025-01-16 09:50:33.93	136.56	25.34	
2025-01-16 09:50:35.35	136.43	25.56	
2025-01-16 09:50:36.77	136.31	25.78	
2025-01-16 09:50:38.19	136.19	26.01	
2025-01-16 09:50:39.61	136.06	26.23	
2025-01-16 09:50:41.03	135.93	26.46	
2025-01-16 09:50:42.45	135.80	26.69	
2025-01-16 09:50:43.87	135.66	26.92	
2025-01-16 09:50:45.29	135.53	27.16	
2025-01-16 09:50:46.72	135.39	27.39	
2025-01-16 09:50:48.14	135.25	27.63	
2025-01-16 09:50:49.56	135.11	27.87	
2025-01-16 09:50:50.98	134.96	28.11	
2025-01-16 09:50:52.40	134.82	28.35	
2025-01-16 09:50:53.82	134.67	28.60	
2025-01-16 09:50:55.24	134.52	28.84	
2025-01-16 09:50:56.66	134.36	29.09	
2025-01-16 09:50:58.08	134.21	29.34	
2025-01-16 09:50:59.50	134.05	29.59	
2025-01-16 09:51:00.92	133.89	29.85	
2025-01-16 09:51:02.34	133.73	30.11	
2025-01-16 09:51:03.77	133.56	30.37	
2025-01-16 09:51:05.19	133.39	30.63	
2025-01-16 09:51:06.61	133.22	30.89	
2025-01-16 09:51:08.03	133.04	31.15	
2025-01-16 09:51:09.45	132.87	31.42	
2025-01-16 09:51:10.87	132.69	31.69	
2025-01-16 09:51:12.29	132.50	31.96	
2025-01-16 09:51:13.71	132.32	32.23	
2025-01-16 09:51:15.13	132.13	32.51	
2025-01-16 09:51:16.55	131.93	32.79	
2025-01-16 09:51:17.97	131.74	33.07	
2025-01-16 09:51:19.39	131.54	33.35	
2025-01-16 09:51:20.82	131.33	33.63	
2025-01-16 09:51:22.24	131.12	33.92	
2025-01-16 09:51:23.66	130.91	34.21	
2025-01-16 09:51:25.08	130.70	34.50	
2025-01-16 09:51:26.50	130.48	34.79	
2025-01-16 09:51:27.92	130.25	35.09	
2025-01-16 09:51:29.34	130.03	35.39	
2025-01-16 09:51:30.76	129.80	35.69	
2025-01-16 09:51:32.18	129.56	35.99	
2025-01-16 09:51:33.60	129.32	36.29	
2025-01-16 09:51:35.02	129.07	36.60	
2025-01-16 09:51:36.45	128.82	36.91	
2025-01-16 09:51:37.87	128.57	37.22	
2025-01-16 09:51:39.29	128.31	37.54	
2025-01-16 09:51:40.71	128.04	37.85	
2025-01-16 09:51:42.13	127.77	38.17	
2025-01-16 09:51:43.55	127.50	38.49	
2025-01-16 09:51:44.97	127.22	38.81	
2025-01-16 09:51:46.39	126.93	39.14	
2025-01-16 09:51:47.81	126.64	39.47	
2025-01-16 09:51:49.23	126.34	39.80	
2025-01-16 09:51:50.65	126.03	40.13	
2025-01-16 09:51:52.07	125.72	40.46	
2025-01-16 09:51:53.50	125.40	40.80	
2025-01-16 09:51:54.92	125.08	41.14	
2025-01-16 09:51:56.34	124.75	41.48	
2025-01-16 09:51:57.76	124.41	41.82	
2025-01-16 09:51:59.18	124.06	42.16	
2025-01-16 09:52:00.60	123.71	42.51	
2025-01-16 09:52:02.02	123.35	42.86	
2025-01-16 09:52:03.44	122.98	43.21	
2025-01-16 09:52:04.86	122.60	43.56	
2025-01-16 09:52:06.28	122.21	43.91	
2025-01-16 09:52:07.70	121.82	44.27	
2025-01-16 09:52:09.12	121.41	44.63	
2025-01-16 09:52:10.55	121.00	44.99	
2025-01-16 09:52:11.97	120.57	45.35	
2025-01-16 09:52:13.39	120.14	45.71	
2025-01-16 09:52:14.81	119.70	46.07	
2025-01-16 09:52:16.23	119.25	46.44	
2025-01-16 09:52:17.65	118.78	46.80	
2025-01-16 09:52:19.07	118.31	47.17	
2025-01-16 09:52:20.49	117.82	47.54	
2025-01-16 09:52:21.91	117.32	47.91	
2025-01-16 09:52:23.33	116.81	48.27	
2025-01-16 09:52:24.75	116.29	48.64	
2025-01-16 09:52:26.18	115.75	49.02	
2025-01-16 09:52:27.60	115.20	49.39	
2025-01-16 09:52:29.02	114.64	49.76	
2025-01-16 09:52:30.44	114.06	50.13	
2025-01-16 09:52:31.86	113.47	50.50	
2025-01-16 09:52:33.28	112.87	50.87	
2025-01-16 09:52:34.70	112.25	51.24	
2025-01-16 09:52:36.12	111.61	51.61	
2025-01-16 09:52:37.54	110.96	51.98	
2025-01-16 09:52:38.96	110.29	52.34	
2025-01-16 09:52:40.38	109.61	52.71	
2025-01-16 09:52:41.80	108.90	53.07	
2025-01-16 09:52:43.23	108.18	53.44	
2025-01-16 09:52:44.65	107.44	53.80	
2025-01-16 09:52:46.07	106.68	54.15	
2025-01-16 09:52:47.49	105.91	54.51	
2025-01-16 09:52:48.91	105.11	54.86	
2025-01-16 09:52:50.33	104.30	55.21	
2025-01-16 09:52:51.75	103.46	55.55	
2025-01-16 09:52:53.17	102.61	55.89	
2025-01-16 09:52:54.59	101.73	56.23	
2025-01-16 09:52:56.01	100.83	56.56	
2025-01-16 09:52:57.43	99.91	56.88	
2025-01-16 09:52:58.85	98.97	57.20	
2025-01-16 09:53:00.28	98.00	57.52	
2025-01-16 09:53:01.70	97.01	57.83	
2025-01-16 09:53:03.12	96.00	58.13	
2025-01-16 09:53:04.54	94.97	58.43	
2025-01-16 09:53:05.96	93.91	58.71	
2025-01-16 09:53:07.38	92.83	58.99	
2025-01-16 09:53:08.80	91.73	59.26	
2025-01-16 09:53:10.22	90.61	59.53	
2025-01-16 09:53:11.64	89.46	59.78	
2025-01-16 09:53:13.06	88.29	60.02	
2025-01-16 09:53:14.48	87.10	60.26	
2025-01-16 09:53:15.91	85.88	60.48	
2025-01-16 09:53:17.33	84.65	60.69	
2025-01-16 09:53:18.75	83.39	60.89	
2025-01-16 09:53:20.17	82.12	61.08	
2025-01-16 09:53:21.59	80.83	61.26	
2025-01-16 09:53:23.01	79.52	61.42	
2025-01-16 09:53:24.43	78.20	61.57	
2025-01-16 09:53:25.85	76.85	61.71	
2025-01-16 09:53:27.27	75.50	61.84	
2025-01-16 09:53:28.69	74.13	61.95	
2025-01-16 09:53:30.11	72.75	62.04	
2025-01-16 09:53:31.53	71.36	62.13	
2025-01-16 09:53:32.96	69.95	62.20	
2025-01-16 09:53:34.38	68.54	62.25	
2025-01-16 09:53:35.80	67.13	62.29	
2025-01-16 09:53:37.22	65.71	62.31	
2025-01-16 09:53:38.64	64.30	62.32	
2025-01-16 09:53:40.06	62.88	62.32	
2025-01-16 09:53:41.48	61.46	62.29	
2025-01-16 09:53:42.90	60.05	62.26	
2025-01-16 09:53:44.32	58.64	62.21	
2025-01-16 09:53:45.74	57.24	62.14	
2025-01-16 09:53:47.16	55.85	62.06	
2025-01-16 09:53:48.58	54.47	61.97	
2025-01-16 09:53:50.01	53.09	61.86	
2025-01-16 09:53:51.43	51.73	61.74	
2025-01-16 09:53:52.85	50.39	61.60	
2025-01-16 09:53:54.27	49.06	61.45	
2025-01-16 09:53:55.69	47.75	61.29	
2025-01-16 09:53:57.11	46.45	61.12	
2025-01-16 09:53:58.53	45.18	60.93	
2025-01-16 09:53:59.95	43.92	60.73	
2025-01-16 09:54:01.37	42.69	60.52	
2025-01-16 09:54:02.79	41.47	60.30	
2025-01-16 09:54:04.21	40.28	60.07	
2025-01-16 09:54:05.64	39.10	59.83	
2025-01-16 09:54:07.06	37.95	59.58	
2025-01-16 09:54:08.48	36.82	59.32	
2025-01-16 09:54:09.90	35.72	59.05	
2025-01-16 09:54:11.32	34.64	58.77	
2025-01-16 09:54:12.74	33.58	58.49	
2025-01-16 09:54:14.16	32.54	58.20	
2025-01-16 09:54:15.58	31.53	57.90	
2025-01-16 09:54:17.00	30.54	57.59	
2025-01-16 09:54:18.42	29.57	57.28	
2025-01-16 09:54:19.84	28.63	56.96	
2025-01-16 09:54:21.26	27.70	56.64	
2025-01-16 09:54:22.69	26.80	56.30	
2025-01-16 09:54:24.11	25.92	55.97	
2025-01-16 09:54:25.53	25.06	55.63	
2025-01-16 09:54:26.95	24.22	55.29	
2025-01-16 09:54:28.37	23.40	54.94	
2025-01-16 09:54:29.79	22.60	54.59	
2025-01-16 09:54:31.21	21.83	54.24	
2025-01-16 09:54:32.63	21.07	53.89	
2025-01-16 09:54:34.05	20.33	53.53	
2025-01-16 09:54:35.47	19.60	53.17	
2025-01-16 09:54:36.89	18.90	52.81	
2025-01-16 09:54:38.31	18.21	52.44	
2025-01-16 09:54:39.74	17.54	52.07	
2025-01-16 09:54:41.16	16.88	51.71	
2025-01-16 09:54:42.58	16.25	51.34	
2025-01-16 09:54:44.00	15.62	50.97	
2025-01-16 09:54:45.42	15.02	50.60	
2025-01-16 09:54:46.84	14.43	50.23	
2025-01-16 09:54:48.26	13.85	49.86	
2025-01-16 09:54:49.68	13.28	49.50	
2025-01-16 09:54:51.10	12.73	49.13	
2025-01-16 09:54:52.52	12.20	48.76	
2025-01-16 09:54:53.94	11.67	48.39	
2025-01-16 09:54:55.37	11.16	48.02	
2025-01-16 09:54:56.79	10.66	47.65	
2025-01-16 09:54:58.21	10.17	47.28	
2025-01-16 09:54:59.63	9.69	46.92	
2025-01-16 09:55:01.05	9.23	46.55	
2025-01-16 09:55:02.47	8.78	46.19	
2025-01-16 09:55:03.89	8.33	45.83	
2025-01-16 09:55:05.31	7.90	45.47	
2025-01-16 09:55:06.73	7.47	45.11	
2025-01-16 09:55:08.15	7.06	44.75	
2025-01-16 09:55:09.57	6.65	44.40	
2025-01-16 09:55:10.99	6.26	44.04	
2025-01-16 09:55:12.42	5.87	43.69	
2025-01-16 09:55:13.84	5.49	43.34	
2025-01-16 09:55:15.26	5.12	42.99	
2025-01-16 09:55:16.68	4.76	42.64	
2025-01-16 09:55:18.10	4.40	42.29	
2025-01-16 09:55:19.52	4.06	41.95	
2025-01-16 09:55:20.94	3.72	41.61	
2025-01-16 09:55:22.36	3.39	41.27	
2025-01-16 09:55:23.78	3.06	40.93	
2025-01-16 09:55:25.20	2.74	40.60	
2025-01-16 09:55:26.62	2.43	40.27	
2025-01-16 09:55:28.05	2.12	39.93	
2025-01-16 09:55:29.47	1.82	39.60	
2025-01-16 09:55:30.89	1.53	39.28	
2025-01-16 09:55:32.31	1.24	38.95	
2025-01-16 09:55:33.73	0.96	38.63	
2025-01-16 09:55:35.15	0.69	38.31	
2025-01-16 09:55:36.57	0.42	37.99	
2025-01-16 09:55:37.99	0.15	37.68	
2025-01-16 09:55:39.41	359.89	37.37	
2025-01-16 09:55:40.83	359.64	37.06	
2025-01-16 09:55:42.25	359.39	36.75	
2025-01-16 09:55:43.67	359.14	36.44	
2025-01-16 09:55:45.10	358.90	36.14	
2025-01-16 09:55:46.52	358.66	35.83	
2025-01-16 09:55:47.94	358.43	35.53	
2025-01-16 09:55:49.36	358.20	35.24	
2025-01-16 09:55:50.78	357.98	34.94	
2025-01-16 09:55:52.20	357.76	34.65	
2025-01-16 09:55:53.62	357.55	34.36	
2025-01-16 09:55:55.04	357.33	34.07	
2025-01-16 09:55:56.46	357.13	33.79	
2025-01-16 09:55:57.88	356.92	33.50	
2025-01-16 09:55:59.30	356.72	33.22	
2025-01-16 09:56:00.72	356.53	32.94	
2025-01-16 09:56:02.15	356.33	32.66	
2025-01-16 09:56:03.57	356.14	32.39	
2025-01-16 09:56:04.99	355.95	32.12	
2025-01-16 09:56:06.41	355.77	31.85	
2025-01-16 09:56:07.83	355.59	31.58	
2025-01-16 09:56:09.25	355.41	31.31	
2025-01-16 09:56:10.67	355.24	31.05	
2025-01-16 09:56:12.09	355.07	30.79	
2025-01-16 09:56:13.51	354.90	30.53	
2025-01-16 09:56:14.93	354.73	30.27	
2025-01-16 09:56:16.35	354.57	30.01	
2025-01-16 09:56:17.78	354.41	29.76	
2025-01-16 09:56:19.20	354.25	29.50	
2025-01-16 09:56:20.62	354.09	29.25	
2025-01-16 09:56:22.04	353.94	29.01	
2025-01-16 09:56:23.46	353.79	28.76	
2025-01-16 09:56:24.88	353.64	28.52	
2025-01-16 09:56:26.30	353.50	28.27	
2025-01-16 09:56:27.72	353.35	28.03	
2025-01-16 09:56:29.14	353.21	27.79	
2025-01-16 09:56:30.56	353.07	27.56	
2025-01-16 09:56:31.98	352.94	27.32	
2025-01-16 09:56:33.40	352.80	27.09	
2025-01-16 09:56:34.83	352.67	26.86	
2025-01-16 09:56:36.25	352.54	26.63	
2025-01-16 09:56:37.67	352.41	26.40	
2025-01-16 09:56:39.09	352.28	26.18	
2025-01-16 09:56:40.51	352.15	25.95	
2025-01-16 09:56:41.93	352.03	25.73	
2025-01-16 09:56:43.35	351.91	25.51	
2025-01-16 09:56:44.77	351.79	25.29	
2025-01-16 09:56:46.19	351.67	25.07	
2025-01-16 09:56:47.61	351.55	24.86	
2025-01-16 09:56:49.03	351.44	24.64	
2025-01-16 09:56:50.45	351.33	24.43	
2025-01-16 09:56:51.88	351.21	24.22	
2025-01-16 09:56:53.30	351.10	24.01	
2025-01-16 09:56:54.72	350.99	23.80	
2025-01-16 09:56:56.14	350.89	23.59	
2025-01-16 09:56:57.56	350.78	23.39	
2025-01-16 09:56:58.98	350.68	23.19	
2025-01-16 09:57:00.40	350.57	22.98	
2025-01-16 09:57:01.82	350.47	22.78	
2025-01-16 09:57:03.24	350.37	22.59	
2025-01-16 09:57:04.66	350.27	22.39	
2025-01-16 09:57:06.08	350.18	22.19	
2025-01-16 09:57:07.51	350.08	22.00	
2025-01-16 09:57:08.93	349.98	21.80	
2025-01-16 09:57:10.35	349.89	21.61	
2025-01-16 09:57:11.77	349.80	21.42	
2025-01-16 09:57:13.19	349.71	21.23	
2025-01-16 09:57:14.61	349.62	21.04	
2025-01-16 09:57:16.03	349.53	20.86	
2025-01-16 09:57:17.45	349.44	20.67	
2025-01-16 09:57:18.87	349.35	20.49	
2025-01-16 09:57:20.29	349.27	20.31	
2025-01-16 09:57:21.71	349.18	20.13	
2025-01-16 09:57:23.13	349.10	19.95	
2025-01-16 09:57:24.56	349.02	19.76	
2025-01-16 09:57:25.98	348.94	19.59	
2025-01-16 09:57:27.40	348.86	19.41	
2025-01-16 09:57:28.82	348.78	19.24	
2025-01-16 09:57:30.24	348.70	19.06	
2025-01-16 09:57:31.66	348.62	18.89	
2025-01-16 09:57:33.08	348.54	18.72	
2025-01-16 09:57:34.50	348.47	18.55	
2025-01-16 09:57:35.92	348.39	18.38	
2025-01-16 09:57:37.34	348.32	18.21	
2025-01-16 09:57:38.76	348.25	18.04	
2025-01-16 09:57:40.18	348.17	17.88	
2025-01-16 09:57:41.61	348.10	17.71	
2025-01-16 09:57:43.03	348.03	17.54	
2025-01-16 09:57:44.45	347.96	17.38	
2025-01-16 09:57:45.87	347.89	17.22	
2025-01-16 09:57:47.29	347.82	17.06	
2025-01-16 09:57:48.71	347.76	16.90	
2025-01-16 09:57:50.13	347.69	16.74	
2025-01-16 09:57:51.55	347.63	16.58	
2025-01-16 09:57:52.97	347.56	16.42	
2025-01-16 09:57:54.39	347.50	16.27	
2025-01-16 09:57:55.81	347.43	16.11	
2025-01-16 09:57:57.24	347.37	15.96	
2025-01-16 09:57:58.66	347.31	15.81	
2025-01-16 09:58:00.08	347.25	15.65	
2025-01-16 09:58:01.50	347.18	15.50	
2025-01-16 09:58:02.92	347.12	15.35	
2025-01-16 09:58:04.34	347.07	15.20	
2025-01-16 09:58:05.76	347.01	15.05	
2025-01-16 09:58:07.18	346.95	14.91	
2025-01-16 09:58:08.60	346.89	14.76	
2025-01-16 09:58:10.04	346.83	14.61	
2025-01-16 09:58:11.46	346.78	14.46	
2025-01-16 09:58:12.88	346.72	14.32	
2025-01-16 09:58:14.30	346.67	14.18	
2025-01-16 09:58:15.72	346.61	14.03	
2025-01-16 09:58:17.14	346.56	13.89	
2025-01-16 09:58:18.56	346.50	13.75	
2025-01-16 09:58:19.98	346.45	13.61	
2025-01-16 09:58:21.40	346.40	13.47	
2025-01-16 09:58:22.82	346.35	13.33	
2025-01-16 09:58:24.24	346.30	13.19	
2025-01-16 09:58:25.67	346.24	13.06	
2025-01-16 09:58:27.09	346.19	12.92	
2025-01-16 09:58:28.51	346.14	12.78	
2025-01-16 09:58:29.93	346.10	12.65	
2025-01-16 09:58:31.35	346.05	12.51	
2025-01-16 09:58:32.77	346.00	12.38	
2025-01-16 09:58:34.19	345.95	12.25	
2025-01-16 09:58:35.61	345.90	12.12	
2025-01-16 09:58:37.03	345.86	11.98	
2025-01-16 09:58:38.45	345.81	11.85	
2025-01-16 09:58:39.87	345.77	11.72	
2025-01-16 09:58:41.30	345.72	11.59	
2025-01-16 09:58:42.72	345.67	11.46	
2025-01-16 09:58:44.14	345.63	11.33	
2025-01-16 09:58:45.56	345.59	11.21	
2025-01-16 09:58:46.98	345.54	11.08	
2025-01-16 09:58:48.40	345.50	10.95	
2025-01-16 09:58:49.82	345.46	10.83	
2025-01-16 09:58:51.24	345.41	10.70	
2025-01-16 09:58:52.66	345.37	10.58	
2025-01-16 09:58:54.08	345.33	10.46	
2025-01-16 09:58:55.50	345.29	10.33	
2025-01-16 09:58:56.92	345.25	10.21	
2025-01-16 09:58:58.35	345.21	10.09	
2025-01-16 09:58:59.77	345.17	9.97	
2025-01-16 09:59:01.19	345.13	9.84	
2025-01-16 09:59:02.61	345.09	9.72	
2025-01-16 09:59:04.03	345.05	9.60	
2025-01-16 09:59:05.45	345.01	9.49	
2025-01-16 09:59:06.87	344.98	9.37	
2025-01-16 09:59:08.29	344.94	9.25	
2025-01-16 09:59:09.71	344.90	9.13	
2025-01-16 09:59:11.13	344.86	9.01	
2025-01-16 09:59:12.55	344.83	8.90	
2025-01-16 09:59:13.98	344.79	8.78	
2025-01-16 09:59:15.40	344.75	8.67	
2025-01-16 09:59:16.82	344.72	8.55	
2025-01-16 09:59:18.24	344.68	8.44	
2025-01-16 09:59:19.66	344.65	8.32	
2025-01-16 09:59:21.08	344.61	8.21	
2025-01-16 09:59:22.50	344.58	8.10	
2025-01-16 09:59:23.92	344.54	7.98	
2025-01-16 09:59:25.34	344.51	7.87	
2025-01-16 09:59:26.76	344.48	7.76	
2025-01-16 09:59:28.18	344.44	7.65	
2025-01-16 09:59:29.60	344.41	7.54	
2025-01-16 09:59:31.03	344.38	7.43	
2025-01-16 09:59:32.45	344.35	7.32	
2025-01-16 09:59:33.87	344.31	7.21	
2025-01-16 09:59:35.29	344.28	7.10	
2025-01-16 09:59:36.71	344.25	6.99	
2025-01-16 09:59:38.13	344.22	6.89	
2025-01-16 09:59:39.55	344.19	6.78	
2025-01-16 09:59:40.97	344.16	6.67	
2025-01-16 09:59:42.39	344.13	6.56	
2025-01-16 09:59:43.81	344.10	6.46	
2025-01-16 09:59:45.23	344.07	6.35	
2025-01-16 09:59:46.65	344.04	6.25	
2025-01-16 09:59:48.08	344.01	6.14	
2025-01-16 09:59:49.50	343.98	6.04	
2025-01-16 09:59:50.92	343.95	5.93	
2025-01-16 09:59:52.34	343.92	5.83	
2025-01-16 09:59:53.76	343.89	5.73	
2025-01-16 09:59:55.18	343.87	5.63	
2025-01-16 09:59:56.60	343.84	5.52	
2025-01-16 09:59:58.02	343.81	5.42	
2025-01-16 09:59:59.44	343.78	5.32	
2025-01-16 10:00:00.86	343.76	5.22	
2025-01-16 10:00:02.28	343.73	5.12	
2025-01-16 10:00:03.71	343.70	5.02	
2025-01-16 10:00:05.13	343.68	4.92	
2025-01-16 10:00:06.55	343.65	4.82	
2025-01-16 10:00:07.97	343.62	4.72	
2025-01-16 10:00:09.39	343.60	4.62	
2025-01-16 10:00:10.81	343.57	4.52	
2025-01-16 10:00:12.23	343.55	4.42	
2025-01-16 10:00:13.65	343.52	4.32	
2025-01-16 10:00:15.07	343.50	4.23	
2025-01-16 10:00:16.49	343.47	4.13	
2025-01-16 10:00:17.91	343.45	4.03	

#Closed at: 2025-01-16 10:00:18