passes_logs/2025/01/16/SPB_Silybum_02/SPB_Silybum_02__20250116_101655_TERRA_rec.log

#Pass ID: 20250116_101655_TERRA
#Satellite: TERRA
#Configuration: TERRA
#Start time: 2025-01-16 10:16:56

#Version: 2.0.20230423
#Station: SPB_Silybum_02
#Location: 30.233357 lon 59.946436 lat
#TLE: 1 25994U 99068A   25015.81469206  .00000761  00000+0  16641-3 0  9994
#TLE: 2 25994  98.0214  78.8192 0003429  70.9720  38.3229 14.60396307334199

#Time	Az	El	Level	Level2	SNR	BER	Gain	Gain2
2025-01-16 10:16:58.11	8.72	4.14	
2025-01-16 10:16:59.13	8.62	4.20	
2025-01-16 10:17:00.14	8.53	4.26	
2025-01-16 10:17:01.16	8.44	4.32	
2025-01-16 10:17:02.17	8.34	4.38	
2025-01-16 10:17:03.19	8.25	4.44	
2025-01-16 10:17:04.20	8.15	4.51	
2025-01-16 10:17:05.22	8.06	4.57	
2025-01-16 10:17:06.23	7.96	4.63	
2025-01-16 10:17:07.25	7.86	4.69	
2025-01-16 10:17:08.26	7.77	4.75	
2025-01-16 10:17:09.28	7.67	4.81	
2025-01-16 10:17:10.29	7.57	4.87	
2025-01-16 10:17:11.31	7.47	4.93	
2025-01-16 10:17:12.32	7.37	5.00	
2025-01-16 10:17:13.34	7.27	5.06	
2025-01-16 10:17:14.35	7.17	5.12	
2025-01-16 10:17:15.37	7.07	5.18	
2025-01-16 10:17:16.38	6.97	5.24	
2025-01-16 10:17:17.40	6.87	5.31	
2025-01-16 10:17:18.41	6.77	5.37	
2025-01-16 10:17:19.43	6.67	5.43	
2025-01-16 10:17:20.44	6.56	5.49	
2025-01-16 10:17:21.46	6.46	5.56	
2025-01-16 10:17:22.47	6.36	5.62	
2025-01-16 10:17:23.49	6.25	5.68	
2025-01-16 10:17:24.50	6.15	5.74	
2025-01-16 10:17:25.52	6.04	5.81	
2025-01-16 10:17:26.53	5.93	5.87	
2025-01-16 10:17:27.55	5.83	5.93	
2025-01-16 10:17:28.56	5.72	5.99	
2025-01-16 10:17:29.58	5.61	6.06	
2025-01-16 10:17:30.59	5.50	6.12	
2025-01-16 10:17:31.61	5.40	6.18	
2025-01-16 10:17:32.62	5.29	6.25	
2025-01-16 10:17:33.64	5.18	6.31	
2025-01-16 10:17:34.65	5.07	6.37	
2025-01-16 10:17:35.67	4.96	6.44	
2025-01-16 10:17:36.68	4.85	6.50	
2025-01-16 10:17:37.70	4.73	6.56	
2025-01-16 10:17:38.71	4.62	6.63	
2025-01-16 10:17:39.73	4.51	6.69	
2025-01-16 10:17:40.74	4.39	6.76	
2025-01-16 10:17:41.75	4.28	6.82	
2025-01-16 10:17:42.77	4.17	6.88	
2025-01-16 10:17:43.78	4.05	6.95	
2025-01-16 10:17:44.80	3.93	7.01	
2025-01-16 10:17:45.81	3.82	7.08	
2025-01-16 10:17:46.83	3.70	7.14	
2025-01-16 10:17:47.84	3.58	7.21	
2025-01-16 10:17:48.86	3.47	7.27	
2025-01-16 10:17:49.87	3.35	7.33	
2025-01-16 10:17:50.89	3.23	7.40	
2025-01-16 10:17:51.90	3.11	7.46	
2025-01-16 10:17:52.92	2.99	7.53	
2025-01-16 10:17:53.93	2.87	7.59	
2025-01-16 10:17:54.95	2.74	7.66	
2025-01-16 10:17:55.96	2.62	7.72	
2025-01-16 10:17:56.98	2.50	7.79	
2025-01-16 10:17:57.99	2.38	7.85	
2025-01-16 10:17:59.01	2.25	7.92	
2025-01-16 10:18:00.02	2.13	7.98	
2025-01-16 10:18:01.04	2.00	8.05	
2025-01-16 10:18:02.05	1.88	8.11	
2025-01-16 10:18:03.07	1.75	8.18	
2025-01-16 10:18:04.08	1.62	8.24	
2025-01-16 10:18:05.10	1.49	8.31	
2025-01-16 10:18:06.11	1.37	8.38	
2025-01-16 10:18:07.13	1.24	8.44	
2025-01-16 10:18:08.14	1.11	8.51	
2025-01-16 10:18:09.16	0.98	8.57	
2025-01-16 10:18:10.17	0.85	8.64	
2025-01-16 10:18:11.19	0.71	8.71	
2025-01-16 10:18:12.20	0.58	8.77	
2025-01-16 10:18:13.22	0.45	8.84	
2025-01-16 10:18:14.23	0.31	8.90	
2025-01-16 10:18:15.25	0.18	8.97	
2025-01-16 10:18:16.26	0.04	9.04	
2025-01-16 10:18:17.28	359.91	9.10	
2025-01-16 10:18:18.29	359.77	9.17	
2025-01-16 10:18:19.31	359.63	9.23	
2025-01-16 10:18:20.32	359.50	9.30	
2025-01-16 10:18:21.34	359.36	9.37	
2025-01-16 10:18:22.35	359.22	9.43	
2025-01-16 10:18:23.37	359.08	9.50	
2025-01-16 10:18:24.38	358.94	9.57	
2025-01-16 10:18:25.40	358.80	9.63	
2025-01-16 10:18:26.41	358.65	9.70	
2025-01-16 10:18:27.43	358.51	9.77	
2025-01-16 10:18:28.44	358.37	9.83	
2025-01-16 10:18:29.46	358.22	9.90	
2025-01-16 10:18:30.47	358.08	9.97	
2025-01-16 10:18:31.48	357.93	10.03	
2025-01-16 10:18:32.50	357.79	10.10	
2025-01-16 10:18:33.51	357.64	10.17	
2025-01-16 10:18:34.53	357.49	10.23	
2025-01-16 10:18:35.54	357.34	10.30	
2025-01-16 10:18:36.56	357.19	10.37	
2025-01-16 10:18:37.57	357.04	10.43	
2025-01-16 10:18:38.59	356.89	10.50	
2025-01-16 10:18:39.60	356.74	10.57	
2025-01-16 10:18:40.62	356.59	10.63	
2025-01-16 10:18:41.63	356.43	10.70	
2025-01-16 10:18:42.65	356.28	10.77	
2025-01-16 10:18:43.66	356.13	10.83	
2025-01-16 10:18:44.68	355.97	10.90	
2025-01-16 10:18:45.69	355.81	10.97	
2025-01-16 10:18:46.71	355.66	11.04	
2025-01-16 10:18:47.72	355.50	11.10	
2025-01-16 10:18:48.74	355.34	11.17	
2025-01-16 10:18:49.75	355.18	11.24	
2025-01-16 10:18:50.77	355.02	11.30	
2025-01-16 10:18:51.78	354.86	11.37	
2025-01-16 10:18:52.80	354.70	11.44	
2025-01-16 10:18:53.81	354.53	11.50	
2025-01-16 10:18:54.83	354.37	11.57	
2025-01-16 10:18:55.84	354.21	11.64	
2025-01-16 10:18:56.86	354.04	11.71	
2025-01-16 10:18:57.87	353.87	11.77	
2025-01-16 10:18:58.89	353.71	11.84	
2025-01-16 10:18:59.90	353.54	11.91	
2025-01-16 10:19:00.92	353.37	11.97	
2025-01-16 10:19:01.93	353.20	12.04	
2025-01-16 10:19:02.95	353.03	12.11	
2025-01-16 10:19:03.96	352.86	12.17	
2025-01-16 10:19:04.98	352.69	12.24	
2025-01-16 10:19:05.99	352.51	12.31	
2025-01-16 10:19:07.01	352.34	12.37	
2025-01-16 10:19:08.02	352.17	12.44	
2025-01-16 10:19:09.04	351.99	12.51	
2025-01-16 10:19:10.05	351.81	12.57	
2025-01-16 10:19:11.07	351.64	12.64	
2025-01-16 10:19:12.08	351.46	12.71	
2025-01-16 10:19:13.10	351.28	12.77	
2025-01-16 10:19:14.11	351.10	12.84	
2025-01-16 10:19:15.13	350.92	12.90	
2025-01-16 10:19:16.14	350.74	12.97	
2025-01-16 10:19:17.16	350.55	13.04	
2025-01-16 10:19:18.17	350.37	13.10	
2025-01-16 10:19:19.19	350.19	13.17	
2025-01-16 10:19:20.20	350.00	13.23	
2025-01-16 10:19:21.22	349.82	13.30	
2025-01-16 10:19:22.23	349.63	13.37	
2025-01-16 10:19:23.24	349.44	13.43	
2025-01-16 10:19:24.26	349.25	13.50	
2025-01-16 10:19:25.27	349.06	13.56	
2025-01-16 10:19:26.29	348.87	13.63	
2025-01-16 10:19:27.30	348.68	13.69	
2025-01-16 10:19:28.32	348.49	13.76	
2025-01-16 10:19:29.33	348.30	13.82	
2025-01-16 10:19:30.35	348.10	13.89	
2025-01-16 10:19:31.36	347.91	13.95	
2025-01-16 10:19:32.38	347.71	14.02	
2025-01-16 10:19:33.39	347.51	14.08	
2025-01-16 10:19:34.41	347.31	14.14	
2025-01-16 10:19:35.42	347.12	14.21	
2025-01-16 10:19:36.44	346.92	14.27	
2025-01-16 10:19:37.45	346.72	14.34	
2025-01-16 10:19:38.47	346.51	14.40	
2025-01-16 10:19:39.48	346.31	14.46	
2025-01-16 10:19:40.50	346.11	14.53	
2025-01-16 10:19:41.51	345.90	14.59	
2025-01-16 10:19:42.53	345.70	14.65	
2025-01-16 10:19:43.54	345.49	14.72	
2025-01-16 10:19:44.56	345.28	14.78	
2025-01-16 10:19:45.57	345.08	14.84	
2025-01-16 10:19:46.59	344.87	14.90	
2025-01-16 10:19:47.60	344.66	14.96	
2025-01-16 10:19:48.62	344.44	15.03	
2025-01-16 10:19:49.63	344.23	15.09	
2025-01-16 10:19:50.65	344.02	15.15	
2025-01-16 10:19:51.66	343.81	15.21	
2025-01-16 10:19:52.68	343.59	15.27	
2025-01-16 10:19:53.69	343.38	15.33	
2025-01-16 10:19:54.71	343.16	15.39	
2025-01-16 10:19:55.72	342.94	15.45	
2025-01-16 10:19:56.74	342.72	15.51	
2025-01-16 10:19:57.75	342.50	15.57	
2025-01-16 10:19:58.77	342.28	15.63	
2025-01-16 10:19:59.78	342.06	15.69	
2025-01-16 10:20:00.80	341.84	15.75	
2025-01-16 10:20:01.81	341.61	15.81	
2025-01-16 10:20:02.83	341.39	15.87	
2025-01-16 10:20:03.84	341.16	15.93	
2025-01-16 10:20:04.86	340.94	15.99	
2025-01-16 10:20:05.87	340.71	16.04	
2025-01-16 10:20:06.89	340.48	16.10	
2025-01-16 10:20:07.90	340.25	16.16	
2025-01-16 10:20:08.92	340.02	16.22	
2025-01-16 10:20:09.93	339.79	16.27	
2025-01-16 10:20:10.95	339.56	16.33	
2025-01-16 10:20:11.96	339.33	16.38	
2025-01-16 10:20:12.97	339.09	16.44	
2025-01-16 10:20:13.99	338.86	16.50	
2025-01-16 10:20:15.00	338.62	16.55	
2025-01-16 10:20:16.02	338.39	16.60	
2025-01-16 10:20:17.03	338.15	16.66	
2025-01-16 10:20:18.05	337.91	16.71	
2025-01-16 10:20:19.06	337.67	16.77	
2025-01-16 10:20:20.08	337.43	16.82	
2025-01-16 10:20:21.09	337.19	16.87	
2025-01-16 10:20:22.11	336.95	16.93	
2025-01-16 10:20:23.12	336.70	16.98	
2025-01-16 10:20:24.14	336.46	17.03	
2025-01-16 10:20:25.15	336.21	17.08	
2025-01-16 10:20:26.17	335.97	17.13	
2025-01-16 10:20:27.18	335.72	17.18	
2025-01-16 10:20:28.20	335.47	17.23	
2025-01-16 10:20:29.21	335.23	17.28	
2025-01-16 10:20:30.23	334.98	17.33	
2025-01-16 10:20:31.24	334.73	17.38	
2025-01-16 10:20:32.26	334.47	17.43	
2025-01-16 10:20:33.27	334.22	17.48	
2025-01-16 10:20:34.29	333.97	17.52	
2025-01-16 10:20:35.30	333.72	17.57	
2025-01-16 10:20:36.32	333.46	17.62	
2025-01-16 10:20:37.33	333.21	17.66	
2025-01-16 10:20:38.35	332.95	17.71	
2025-01-16 10:20:39.36	332.69	17.76	
2025-01-16 10:20:40.38	332.43	17.80	
2025-01-16 10:20:41.39	332.18	17.84	
2025-01-16 10:20:42.41	331.92	17.89	
2025-01-16 10:20:43.42	331.66	17.93	
2025-01-16 10:20:44.44	331.40	17.98	
2025-01-16 10:20:45.45	331.13	18.02	
2025-01-16 10:20:46.47	330.87	18.06	
2025-01-16 10:20:47.48	330.61	18.10	
2025-01-16 10:20:48.50	330.34	18.14	
2025-01-16 10:20:49.51	330.08	18.18	
2025-01-16 10:20:50.53	329.81	18.22	
2025-01-16 10:20:51.54	329.55	18.26	
2025-01-16 10:20:52.56	329.28	18.30	
2025-01-16 10:20:53.57	329.01	18.34	
2025-01-16 10:20:54.59	328.74	18.37	
2025-01-16 10:20:55.60	328.47	18.41	
2025-01-16 10:20:56.62	328.20	18.45	
2025-01-16 10:20:57.63	327.93	18.48	
2025-01-16 10:20:58.65	327.66	18.52	
2025-01-16 10:20:59.66	327.39	18.55	
2025-01-16 10:21:00.68	327.12	18.59	
2025-01-16 10:21:01.69	326.84	18.62	
2025-01-16 10:21:02.70	326.57	18.65	
2025-01-16 10:21:03.72	326.30	18.69	
2025-01-16 10:21:04.73	326.02	18.72	
2025-01-16 10:21:05.75	325.74	18.75	
2025-01-16 10:21:06.76	325.47	18.78	
2025-01-16 10:21:07.78	325.19	18.81	
2025-01-16 10:21:08.79	324.91	18.84	
2025-01-16 10:21:09.81	324.64	18.87	
2025-01-16 10:21:10.82	324.36	18.90	
2025-01-16 10:21:11.84	324.08	18.92	
2025-01-16 10:21:12.85	323.80	18.95	
2025-01-16 10:21:13.87	323.52	18.98	
2025-01-16 10:21:14.88	323.24	19.00	
2025-01-16 10:21:15.90	322.95	19.03	
2025-01-16 10:21:16.91	322.67	19.05	
2025-01-16 10:21:17.93	322.39	19.07	
2025-01-16 10:21:18.94	322.11	19.10	
2025-01-16 10:21:19.96	321.82	19.12	
2025-01-16 10:21:20.97	321.54	19.14	
2025-01-16 10:21:21.99	321.26	19.16	
2025-01-16 10:21:23.00	320.97	19.18	
2025-01-16 10:21:24.02	320.69	19.20	
2025-01-16 10:21:25.03	320.40	19.22	
2025-01-16 10:21:26.05	320.12	19.23	
2025-01-16 10:21:27.06	319.83	19.25	
2025-01-16 10:21:28.08	319.54	19.27	
2025-01-16 10:21:29.09	319.26	19.28	
2025-01-16 10:21:30.11	318.97	19.30	
2025-01-16 10:21:31.12	318.69	19.31	
2025-01-16 10:21:32.14	318.40	19.33	
2025-01-16 10:21:33.15	318.11	19.34	
2025-01-16 10:21:34.17	317.82	19.35	
2025-01-16 10:21:35.18	317.53	19.36	
2025-01-16 10:21:36.20	317.24	19.37	
2025-01-16 10:21:37.21	316.96	19.38	
2025-01-16 10:21:38.23	316.67	19.39	
2025-01-16 10:21:39.24	316.38	19.40	
2025-01-16 10:21:40.26	316.09	19.41	
2025-01-16 10:21:41.27	315.80	19.42	
2025-01-16 10:21:42.29	315.51	19.42	
2025-01-16 10:21:43.30	315.22	19.43	
2025-01-16 10:21:44.32	314.93	19.44	
2025-01-16 10:21:45.33	314.64	19.44	
2025-01-16 10:21:46.35	314.35	19.44	
2025-01-16 10:21:47.36	314.06	19.45	
2025-01-16 10:21:48.38	313.77	19.45	
2025-01-16 10:21:49.39	313.48	19.45	
2025-01-16 10:21:50.41	313.19	19.45	
2025-01-16 10:21:51.42	312.90	19.45	
2025-01-16 10:21:52.44	312.61	19.45	
2025-01-16 10:21:53.45	312.32	19.45	
2025-01-16 10:21:54.46	312.03	19.44	
2025-01-16 10:21:55.48	311.74	19.44	
2025-01-16 10:21:56.49	311.45	19.44	
2025-01-16 10:21:57.51	311.16	19.43	
2025-01-16 10:21:58.52	310.87	19.43	
2025-01-16 10:21:59.54	310.58	19.42	
2025-01-16 10:22:00.55	310.29	19.42	
2025-01-16 10:22:01.57	310.00	19.41	
2025-01-16 10:22:02.58	309.71	19.40	
2025-01-16 10:22:03.60	309.42	19.39	
2025-01-16 10:22:04.61	309.13	19.38	
2025-01-16 10:22:05.63	308.84	19.37	
2025-01-16 10:22:06.64	308.56	19.36	
2025-01-16 10:22:07.66	308.27	19.35	
2025-01-16 10:22:08.67	307.98	19.34	
2025-01-16 10:22:09.69	307.69	19.32	
2025-01-16 10:22:10.70	307.40	19.31	
2025-01-16 10:22:11.72	307.12	19.29	
2025-01-16 10:22:12.73	306.83	19.28	
2025-01-16 10:22:13.75	306.54	19.26	
2025-01-16 10:22:14.76	306.26	19.25	
2025-01-16 10:22:15.78	305.97	19.23	
2025-01-16 10:22:16.79	305.68	19.21	
2025-01-16 10:22:17.81	305.40	19.19	
2025-01-16 10:22:18.82	305.11	19.17	
2025-01-16 10:22:19.84	304.83	19.15	
2025-01-16 10:22:20.85	304.55	19.13	
2025-01-16 10:22:21.87	304.26	19.11	
2025-01-16 10:22:22.88	303.98	19.09	
2025-01-16 10:22:23.90	303.69	19.06	
2025-01-16 10:22:24.91	303.41	19.04	
2025-01-16 10:22:25.93	303.13	19.02	
2025-01-16 10:22:26.94	302.85	18.99	
2025-01-16 10:22:27.96	302.57	18.96	
2025-01-16 10:22:28.97	302.29	18.94	
2025-01-16 10:22:29.99	302.01	18.91	
2025-01-16 10:22:31.00	301.73	18.88	
2025-01-16 10:22:32.02	301.45	18.86	
2025-01-16 10:22:33.03	301.17	18.83	
2025-01-16 10:22:34.05	300.89	18.80	
2025-01-16 10:22:35.06	300.62	18.77	
2025-01-16 10:22:36.08	300.34	18.74	
2025-01-16 10:22:37.09	300.06	18.71	
2025-01-16 10:22:38.11	299.79	18.67	
2025-01-16 10:22:39.12	299.51	18.64	
2025-01-16 10:22:40.14	299.24	18.61	
2025-01-16 10:22:41.15	298.96	18.57	
2025-01-16 10:22:42.17	298.69	18.54	
2025-01-16 10:22:43.18	298.42	18.50	
2025-01-16 10:22:44.19	298.15	18.47	
2025-01-16 10:22:45.21	297.88	18.43	
2025-01-16 10:22:46.22	297.61	18.40	
2025-01-16 10:22:47.24	297.34	18.36	
2025-01-16 10:22:48.25	297.07	18.32	
2025-01-16 10:22:49.27	296.80	18.28	
2025-01-16 10:22:50.28	296.53	18.24	
2025-01-16 10:22:51.30	296.27	18.20	
2025-01-16 10:22:52.31	296.00	18.16	
2025-01-16 10:22:53.33	295.73	18.12	
2025-01-16 10:22:54.34	295.47	18.08	
2025-01-16 10:22:55.36	295.21	18.04	
2025-01-16 10:22:56.37	294.94	18.00	
2025-01-16 10:22:57.39	294.68	17.96	
2025-01-16 10:22:58.40	294.42	17.91	
2025-01-16 10:22:59.42	294.16	17.87	
2025-01-16 10:23:00.43	293.90	17.83	
2025-01-16 10:23:01.45	293.64	17.78	
2025-01-16 10:23:02.46	293.38	17.74	
2025-01-16 10:23:03.48	293.12	17.69	
2025-01-16 10:23:04.49	292.87	17.64	
2025-01-16 10:23:05.51	292.61	17.60	
2025-01-16 10:23:06.52	292.36	17.55	
2025-01-16 10:23:07.54	292.10	17.50	
2025-01-16 10:23:08.55	291.85	17.46	
2025-01-16 10:23:09.57	291.60	17.41	
2025-01-16 10:23:10.58	291.35	17.36	
2025-01-16 10:23:11.60	291.10	17.31	
2025-01-16 10:23:12.61	290.85	17.26	
2025-01-16 10:23:13.63	290.60	17.21	
2025-01-16 10:23:14.64	290.35	17.16	
2025-01-16 10:23:15.66	290.10	17.11	
2025-01-16 10:23:16.67	289.86	17.06	
2025-01-16 10:23:17.69	289.61	17.01	
2025-01-16 10:23:18.70	289.37	16.95	
2025-01-16 10:23:19.72	289.12	16.90	
2025-01-16 10:23:20.73	288.88	16.85	
2025-01-16 10:23:21.75	288.64	16.80	
2025-01-16 10:23:22.76	288.40	16.74	
2025-01-16 10:23:23.78	288.16	16.69	
2025-01-16 10:23:24.79	287.92	16.63	
2025-01-16 10:23:25.81	287.68	16.58	
2025-01-16 10:23:26.82	287.45	16.52	
2025-01-16 10:23:27.84	287.21	16.47	
2025-01-16 10:23:28.85	286.97	16.41	
2025-01-16 10:23:29.87	286.74	16.36	
2025-01-16 10:23:30.88	286.51	16.30	
2025-01-16 10:23:31.90	286.27	16.24	
2025-01-16 10:23:32.91	286.04	16.19	
2025-01-16 10:23:33.92	285.81	16.13	
2025-01-16 10:23:34.94	285.58	16.07	
2025-01-16 10:23:35.95	285.35	16.02	
2025-01-16 10:23:36.97	285.13	15.96	
2025-01-16 10:23:37.98	284.90	15.90	
2025-01-16 10:23:39.00	284.67	15.84	
2025-01-16 10:23:40.01	284.45	15.78	
2025-01-16 10:23:41.03	284.22	15.72	
2025-01-16 10:23:42.04	284.00	15.66	
2025-01-16 10:23:43.06	283.78	15.60	
2025-01-16 10:23:44.07	283.56	15.54	
2025-01-16 10:23:45.09	283.34	15.48	
2025-01-16 10:23:46.10	283.12	15.42	
2025-01-16 10:23:47.12	282.90	15.36	
2025-01-16 10:23:48.13	282.68	15.30	
2025-01-16 10:23:49.15	282.47	15.24	
2025-01-16 10:23:50.16	282.25	15.18	
2025-01-16 10:23:51.18	282.04	15.12	
2025-01-16 10:23:52.19	281.82	15.06	
2025-01-16 10:23:53.21	281.61	14.99	
2025-01-16 10:23:54.22	281.40	14.93	
2025-01-16 10:23:55.24	281.19	14.87	
2025-01-16 10:23:56.25	280.98	14.81	
2025-01-16 10:23:57.27	280.77	14.74	
2025-01-16 10:23:58.28	280.56	14.68	
2025-01-16 10:23:59.30	280.35	14.62	
2025-01-16 10:24:00.31	280.15	14.55	
2025-01-16 10:24:01.33	279.94	14.49	
2025-01-16 10:24:02.34	279.74	14.43	
2025-01-16 10:24:03.36	279.54	14.36	
2025-01-16 10:24:04.37	279.34	14.30	
2025-01-16 10:24:05.39	279.13	14.24	
2025-01-16 10:24:06.40	278.93	14.17	
2025-01-16 10:24:07.42	278.73	14.11	
2025-01-16 10:24:08.43	278.54	14.04	
2025-01-16 10:24:09.45	278.34	13.98	
2025-01-16 10:24:10.46	278.14	13.91	
2025-01-16 10:24:11.48	277.94	13.85	
2025-01-16 10:24:12.49	277.75	13.78	
2025-01-16 10:24:13.51	277.56	13.72	
2025-01-16 10:24:14.52	277.36	13.65	
2025-01-16 10:24:15.54	277.17	13.59	
2025-01-16 10:24:16.55	276.98	13.52	
2025-01-16 10:24:17.57	276.79	13.46	
2025-01-16 10:24:18.58	276.60	13.39	
2025-01-16 10:24:19.60	276.41	13.33	
2025-01-16 10:24:20.61	276.23	13.26	
2025-01-16 10:24:21.63	276.04	13.19	
2025-01-16 10:24:22.64	275.85	13.13	
2025-01-16 10:24:23.65	275.67	13.06	
2025-01-16 10:24:24.67	275.48	13.00	
2025-01-16 10:24:25.68	275.30	12.93	
2025-01-16 10:24:26.70	275.12	12.86	
2025-01-16 10:24:27.71	274.94	12.80	
2025-01-16 10:24:28.73	274.76	12.73	
2025-01-16 10:24:29.74	274.58	12.66	
2025-01-16 10:24:30.76	274.40	12.60	
2025-01-16 10:24:31.77	274.22	12.53	
2025-01-16 10:24:32.79	274.04	12.46	
2025-01-16 10:24:33.80	273.87	12.40	
2025-01-16 10:24:34.82	273.69	12.33	
2025-01-16 10:24:35.83	273.52	12.26	
2025-01-16 10:24:36.85	273.35	12.20	
2025-01-16 10:24:37.86	273.17	12.13	
2025-01-16 10:24:38.88	273.00	12.06	
2025-01-16 10:24:39.89	272.83	12.00	
2025-01-16 10:24:40.91	272.66	11.93	
2025-01-16 10:24:41.92	272.49	11.86	
2025-01-16 10:24:42.94	272.32	11.79	
2025-01-16 10:24:43.95	272.16	11.73	
2025-01-16 10:24:44.97	271.99	11.66	
2025-01-16 10:24:45.98	271.82	11.59	
2025-01-16 10:24:47.00	271.66	11.53	
2025-01-16 10:24:48.01	271.49	11.46	
2025-01-16 10:24:49.03	271.33	11.39	
2025-01-16 10:24:50.04	271.17	11.32	
2025-01-16 10:24:51.06	271.01	11.26	
2025-01-16 10:24:52.07	270.85	11.19	
2025-01-16 10:24:53.09	270.68	11.12	
2025-01-16 10:24:54.10	270.53	11.06	
2025-01-16 10:24:55.12	270.37	10.99	
2025-01-16 10:24:56.13	270.21	10.92	
2025-01-16 10:24:57.15	270.05	10.85	
2025-01-16 10:24:58.16	269.90	10.79	
2025-01-16 10:24:59.18	269.74	10.72	
2025-01-16 10:25:00.19	269.59	10.65	
2025-01-16 10:25:01.21	269.43	10.58	
2025-01-16 10:25:02.22	269.28	10.52	
2025-01-16 10:25:03.24	269.13	10.45	
2025-01-16 10:25:04.25	268.98	10.38	
2025-01-16 10:25:05.27	268.82	10.32	
2025-01-16 10:25:06.28	268.67	10.25	
2025-01-16 10:25:07.30	268.52	10.18	
2025-01-16 10:25:08.31	268.38	10.12	
2025-01-16 10:25:09.33	268.23	10.05	
2025-01-16 10:25:10.34	268.08	9.98	
2025-01-16 10:25:11.36	267.93	9.91	
2025-01-16 10:25:12.37	267.79	9.85	
2025-01-16 10:25:13.39	267.64	9.78	
2025-01-16 10:25:14.40	267.50	9.71	
2025-01-16 10:25:15.41	267.36	9.65	
2025-01-16 10:25:16.43	267.21	9.58	
2025-01-16 10:25:17.44	267.07	9.51	
2025-01-16 10:25:18.46	266.93	9.45	
2025-01-16 10:25:19.47	266.79	9.38	
2025-01-16 10:25:20.49	266.65	9.31	
2025-01-16 10:25:21.50	266.51	9.25	
2025-01-16 10:25:22.52	266.37	9.18	
2025-01-16 10:25:23.53	266.23	9.11	
2025-01-16 10:25:24.55	266.10	9.05	
2025-01-16 10:25:25.56	265.96	8.98	
2025-01-16 10:25:26.58	265.82	8.92	
2025-01-16 10:25:27.59	265.69	8.85	
2025-01-16 10:25:28.61	265.56	8.78	
2025-01-16 10:25:29.62	265.42	8.72	
2025-01-16 10:25:30.64	265.29	8.65	
2025-01-16 10:25:31.65	265.16	8.58	
2025-01-16 10:25:32.67	265.02	8.52	
2025-01-16 10:25:33.68	264.89	8.45	
2025-01-16 10:25:34.70	264.76	8.39	
2025-01-16 10:25:35.71	264.63	8.32	
2025-01-16 10:25:36.73	264.50	8.25	
2025-01-16 10:25:37.74	264.38	8.19	
2025-01-16 10:25:38.76	264.25	8.12	
2025-01-16 10:25:39.77	264.12	8.06	
2025-01-16 10:25:40.79	263.99	7.99	
2025-01-16 10:25:41.80	263.87	7.93	
2025-01-16 10:25:42.82	263.74	7.86	
2025-01-16 10:25:43.83	263.62	7.80	
2025-01-16 10:25:44.85	263.49	7.73	
2025-01-16 10:25:45.86	263.37	7.67	
2025-01-16 10:25:46.88	263.25	7.60	
2025-01-16 10:25:47.89	263.12	7.54	
2025-01-16 10:25:48.91	263.00	7.47	
2025-01-16 10:25:49.92	262.88	7.41	
2025-01-16 10:25:50.94	262.76	7.34	
2025-01-16 10:25:51.95	262.64	7.28	
2025-01-16 10:25:52.97	262.52	7.21	
2025-01-16 10:25:53.98	262.40	7.15	
2025-01-16 10:25:55.00	262.28	7.08	
2025-01-16 10:25:56.01	262.17	7.02	
2025-01-16 10:25:57.03	262.05	6.95	
2025-01-16 10:25:58.04	261.93	6.89	
2025-01-16 10:25:59.06	261.82	6.82	
2025-01-16 10:26:00.07	261.70	6.76	
2025-01-16 10:26:01.09	261.59	6.70	
2025-01-16 10:26:02.10	261.47	6.63	
2025-01-16 10:26:03.12	261.36	6.57	
2025-01-16 10:26:04.13	261.25	6.50	
2025-01-16 10:26:05.14	261.13	6.44	
2025-01-16 10:26:06.16	261.02	6.38	
2025-01-16 10:26:07.17	260.91	6.31	
2025-01-16 10:26:08.19	260.80	6.25	
2025-01-16 10:26:09.20	260.69	6.19	
2025-01-16 10:26:10.22	260.58	6.12	
2025-01-16 10:26:11.23	260.47	6.06	
2025-01-16 10:26:12.25	260.36	6.00	
2025-01-16 10:26:13.26	260.25	5.93	
2025-01-16 10:26:14.28	260.15	5.87	
2025-01-16 10:26:15.29	260.04	5.81	
2025-01-16 10:26:16.31	259.93	5.74	
2025-01-16 10:26:17.32	259.83	5.68	
2025-01-16 10:26:18.34	259.72	5.62	
2025-01-16 10:26:19.35	259.61	5.56	
2025-01-16 10:26:20.37	259.51	5.49	
2025-01-16 10:26:21.38	259.41	5.43	
2025-01-16 10:26:22.40	259.30	5.37	
2025-01-16 10:26:23.41	259.20	5.31	
2025-01-16 10:26:24.43	259.10	5.24	
2025-01-16 10:26:25.44	258.99	5.18	
2025-01-16 10:26:26.46	258.89	5.12	
2025-01-16 10:26:27.47	258.79	5.06	
2025-01-16 10:26:28.49	258.69	5.00	
2025-01-16 10:26:29.50	258.59	4.93	
2025-01-16 10:26:30.52	258.49	4.87	
2025-01-16 10:26:31.53	258.39	4.81	
2025-01-16 10:26:32.55	258.29	4.75	
2025-01-16 10:26:33.56	258.19	4.69	
2025-01-16 10:26:34.58	258.09	4.63	
2025-01-16 10:26:35.59	258.00	4.56	
2025-01-16 10:26:36.61	257.90	4.50	
2025-01-16 10:26:37.62	257.80	4.44	
2025-01-16 10:26:38.64	257.71	4.38	
2025-01-16 10:26:39.65	257.61	4.32	
2025-01-16 10:26:40.67	257.52	4.26	
2025-01-16 10:26:41.68	257.42	4.20	
2025-01-16 10:26:42.70	257.33	4.14	
2025-01-16 10:26:43.71	257.23	4.08	
2025-01-16 10:26:44.73	257.14	4.02	

#Closed at: 2025-01-16 10:26:45