passes_logs/2025/01/16/SPB_Silybum_02/SPB_Silybum_02__20250116_083900_TERRA_rec.log

#Pass ID: 20250116_083900_TERRA
#Satellite: TERRA
#Configuration: TERRA
#Start time: 2025-01-16 08:39:00

#Version: 2.0.20230423
#Station: SPB_Silybum_02
#Location: 30.233357 lon 59.946436 lat
#TLE: 1 25994U 99068A   25015.81469206  .00000761  00000+0  16641-3 0  9994
#TLE: 2 25994  98.0214  78.8192 0003429  70.9720  38.3229 14.60396307334199

#Time	Az	El	Level	Level2	SNR	BER	Gain	Gain2
2025-01-16 08:39:02.35	15.24	4.14	
2025-01-16 08:39:03.57	15.23	4.23	
2025-01-16 08:39:04.79	15.21	4.32	
2025-01-16 08:39:06.00	15.20	4.41	
2025-01-16 08:39:07.22	15.19	4.49	
2025-01-16 08:39:08.44	15.17	4.58	
2025-01-16 08:39:09.66	15.16	4.67	
2025-01-16 08:39:10.88	15.14	4.76	
2025-01-16 08:39:12.10	15.13	4.85	
2025-01-16 08:39:13.32	15.11	4.94	
2025-01-16 08:39:14.54	15.10	5.03	
2025-01-16 08:39:15.75	15.08	5.12	
2025-01-16 08:39:16.97	15.07	5.21	
2025-01-16 08:39:18.19	15.05	5.31	
2025-01-16 08:39:19.41	15.04	5.40	
2025-01-16 08:39:20.63	15.02	5.49	
2025-01-16 08:39:21.85	15.01	5.58	
2025-01-16 08:39:23.07	14.99	5.68	
2025-01-16 08:39:24.28	14.98	5.77	
2025-01-16 08:39:25.50	14.96	5.86	
2025-01-16 08:39:26.72	14.94	5.96	
2025-01-16 08:39:27.94	14.93	6.05	
2025-01-16 08:39:29.16	14.91	6.15	
2025-01-16 08:39:30.38	14.90	6.24	
2025-01-16 08:39:31.60	14.88	6.34	
2025-01-16 08:39:32.82	14.86	6.43	
2025-01-16 08:39:34.03	14.84	6.53	
2025-01-16 08:39:35.25	14.83	6.62	
2025-01-16 08:39:36.47	14.81	6.72	
2025-01-16 08:39:37.69	14.79	6.82	
2025-01-16 08:39:38.91	14.77	6.92	
2025-01-16 08:39:40.13	14.76	7.02	
2025-01-16 08:39:41.35	14.74	7.11	
2025-01-16 08:39:42.56	14.72	7.21	
2025-01-16 08:39:43.78	14.70	7.31	
2025-01-16 08:39:45.00	14.68	7.41	
2025-01-16 08:39:46.22	14.66	7.51	
2025-01-16 08:39:47.44	14.65	7.62	
2025-01-16 08:39:48.66	14.63	7.72	
2025-01-16 08:39:49.88	14.61	7.82	
2025-01-16 08:39:51.10	14.59	7.92	
2025-01-16 08:39:52.31	14.57	8.02	
2025-01-16 08:39:53.53	14.55	8.13	
2025-01-16 08:39:54.75	14.53	8.23	
2025-01-16 08:39:55.97	14.51	8.33	
2025-01-16 08:39:57.19	14.49	8.44	
2025-01-16 08:39:58.41	14.47	8.54	
2025-01-16 08:39:59.63	14.45	8.65	
2025-01-16 08:40:00.84	14.42	8.76	
2025-01-16 08:40:02.06	14.40	8.86	
2025-01-16 08:40:03.28	14.38	8.97	
2025-01-16 08:40:04.50	14.36	9.08	
2025-01-16 08:40:05.72	14.34	9.18	
2025-01-16 08:40:06.94	14.32	9.29	
2025-01-16 08:40:08.16	14.29	9.40	
2025-01-16 08:40:09.38	14.27	9.51	
2025-01-16 08:40:10.59	14.25	9.62	
2025-01-16 08:40:11.81	14.22	9.73	
2025-01-16 08:40:13.03	14.20	9.84	
2025-01-16 08:40:14.25	14.18	9.96	
2025-01-16 08:40:15.47	14.15	10.07	
2025-01-16 08:40:16.69	14.13	10.18	
2025-01-16 08:40:17.91	14.11	10.30	
2025-01-16 08:40:19.12	14.08	10.41	
2025-01-16 08:40:20.34	14.06	10.52	
2025-01-16 08:40:21.56	14.03	10.64	
2025-01-16 08:40:22.78	14.01	10.75	
2025-01-16 08:40:24.00	13.98	10.87	
2025-01-16 08:40:25.22	13.96	10.99	
2025-01-16 08:40:26.44	13.93	11.11	
2025-01-16 08:40:27.66	13.90	11.23	
2025-01-16 08:40:28.87	13.88	11.34	
2025-01-16 08:40:30.09	13.85	11.46	
2025-01-16 08:40:31.31	13.82	11.58	
2025-01-16 08:40:32.53	13.79	11.70	
2025-01-16 08:40:33.75	13.77	11.83	
2025-01-16 08:40:34.97	13.74	11.95	
2025-01-16 08:40:36.19	13.71	12.07	
2025-01-16 08:40:37.40	13.68	12.19	
2025-01-16 08:40:38.62	13.65	12.32	
2025-01-16 08:40:39.84	13.62	12.44	
2025-01-16 08:40:41.06	13.59	12.57	
2025-01-16 08:40:42.28	13.56	12.70	
2025-01-16 08:40:43.50	13.53	12.82	
2025-01-16 08:40:44.72	13.50	12.95	
2025-01-16 08:40:45.93	13.47	13.08	
2025-01-16 08:40:47.15	13.44	13.21	
2025-01-16 08:40:48.37	13.41	13.34	
2025-01-16 08:40:49.59	13.38	13.47	
2025-01-16 08:40:50.81	13.35	13.60	
2025-01-16 08:40:52.03	13.31	13.73	
2025-01-16 08:40:53.25	13.28	13.87	
2025-01-16 08:40:54.47	13.25	14.00	
2025-01-16 08:40:55.68	13.21	14.14	
2025-01-16 08:40:56.90	13.18	14.27	
2025-01-16 08:40:58.12	13.15	14.41	
2025-01-16 08:40:59.34	13.11	14.54	
2025-01-16 08:41:00.56	13.08	14.68	
2025-01-16 08:41:01.78	13.04	14.82	
2025-01-16 08:41:03.00	13.00	14.96	
2025-01-16 08:41:04.21	12.97	15.10	
2025-01-16 08:41:05.43	12.93	15.24	
2025-01-16 08:41:06.65	12.89	15.39	
2025-01-16 08:41:07.87	12.86	15.53	
2025-01-16 08:41:09.09	12.82	15.67	
2025-01-16 08:41:10.31	12.78	15.82	
2025-01-16 08:41:11.53	12.74	15.97	
2025-01-16 08:41:12.75	12.70	16.11	
2025-01-16 08:41:13.96	12.66	16.26	
2025-01-16 08:41:15.18	12.62	16.41	
2025-01-16 08:41:16.40	12.58	16.56	
2025-01-16 08:41:17.62	12.54	16.71	
2025-01-16 08:41:18.84	12.50	16.86	
2025-01-16 08:41:20.06	12.45	17.02	
2025-01-16 08:41:21.28	12.41	17.17	
2025-01-16 08:41:22.49	12.37	17.33	
2025-01-16 08:41:23.71	12.32	17.48	
2025-01-16 08:41:24.93	12.28	17.64	
2025-01-16 08:41:26.15	12.23	17.80	
2025-01-16 08:41:27.37	12.19	17.96	
2025-01-16 08:41:28.59	12.14	18.12	
2025-01-16 08:41:29.81	12.10	18.28	
2025-01-16 08:41:31.03	12.05	18.45	
2025-01-16 08:41:32.24	12.00	18.61	
2025-01-16 08:41:33.46	11.95	18.78	
2025-01-16 08:41:34.68	11.90	18.94	
2025-01-16 08:41:35.90	11.85	19.11	
2025-01-16 08:41:37.12	11.80	19.28	
2025-01-16 08:41:38.34	11.75	19.45	
2025-01-16 08:41:39.56	11.70	19.62	
2025-01-16 08:41:40.77	11.65	19.79	
2025-01-16 08:41:41.99	11.60	19.97	
2025-01-16 08:41:43.21	11.54	20.14	
2025-01-16 08:41:44.43	11.49	20.32	
2025-01-16 08:41:45.65	11.43	20.50	
2025-01-16 08:41:46.87	11.38	20.68	
2025-01-16 08:41:48.09	11.32	20.86	
2025-01-16 08:41:49.31	11.26	21.04	
2025-01-16 08:41:50.52	11.20	21.23	
2025-01-16 08:41:51.74	11.14	21.41	
2025-01-16 08:41:52.96	11.08	21.60	
2025-01-16 08:41:54.18	11.02	21.79	
2025-01-16 08:41:55.40	10.96	21.98	
2025-01-16 08:41:56.62	10.90	22.17	
2025-01-16 08:41:57.84	10.84	22.36	
2025-01-16 08:41:59.05	10.77	22.55	
2025-01-16 08:42:00.27	10.71	22.75	
2025-01-16 08:42:01.49	10.64	22.95	
2025-01-16 08:42:02.71	10.58	23.15	
2025-01-16 08:42:03.93	10.51	23.35	
2025-01-16 08:42:05.15	10.44	23.55	
2025-01-16 08:42:06.37	10.37	23.75	
2025-01-16 08:42:07.59	10.30	23.96	
2025-01-16 08:42:08.80	10.23	24.17	
2025-01-16 08:42:10.02	10.15	24.38	
2025-01-16 08:42:11.24	10.08	24.59	
2025-01-16 08:42:12.46	10.00	24.80	
2025-01-16 08:42:13.68	9.93	25.02	
2025-01-16 08:42:14.90	9.85	25.23	
2025-01-16 08:42:16.12	9.77	25.45	
2025-01-16 08:42:17.33	9.69	25.67	
2025-01-16 08:42:18.55	9.61	25.89	
2025-01-16 08:42:19.77	9.53	26.12	
2025-01-16 08:42:20.99	9.44	26.34	
2025-01-16 08:42:22.21	9.36	26.57	
2025-01-16 08:42:23.43	9.27	26.80	
2025-01-16 08:42:24.65	9.19	27.03	
2025-01-16 08:42:25.86	9.10	27.27	
2025-01-16 08:42:27.08	9.01	27.50	
2025-01-16 08:42:28.30	8.91	27.74	
2025-01-16 08:42:29.52	8.82	27.98	
2025-01-16 08:42:30.74	8.73	28.23	
2025-01-16 08:42:31.96	8.63	28.47	
2025-01-16 08:42:33.18	8.53	28.72	
2025-01-16 08:42:34.40	8.43	28.97	
2025-01-16 08:42:35.61	8.33	29.22	
2025-01-16 08:42:36.83	8.23	29.47	
2025-01-16 08:42:38.05	8.12	29.73	
2025-01-16 08:42:39.27	8.01	29.99	
2025-01-16 08:42:40.49	7.90	30.25	
2025-01-16 08:42:41.71	7.79	30.52	
2025-01-16 08:42:42.93	7.68	30.78	
2025-01-16 08:42:44.14	7.57	31.05	
2025-01-16 08:42:45.36	7.45	31.32	
2025-01-16 08:42:46.58	7.33	31.60	
2025-01-16 08:42:47.80	7.21	31.87	
2025-01-16 08:42:49.02	7.09	32.15	
2025-01-16 08:42:50.24	6.96	32.43	
2025-01-16 08:42:51.46	6.83	32.72	
2025-01-16 08:42:52.68	6.70	33.01	
2025-01-16 08:42:53.89	6.57	33.30	
2025-01-16 08:42:55.11	6.43	33.59	
2025-01-16 08:42:56.33	6.30	33.89	
2025-01-16 08:42:57.55	6.16	34.18	
2025-01-16 08:42:58.77	6.01	34.49	
2025-01-16 08:42:59.99	5.87	34.79	
2025-01-16 08:43:01.21	5.72	35.10	
2025-01-16 08:43:02.42	5.56	35.41	
2025-01-16 08:43:03.64	5.41	35.72	
2025-01-16 08:43:04.86	5.25	36.04	
2025-01-16 08:43:06.08	5.09	36.36	
2025-01-16 08:43:07.30	4.92	36.68	
2025-01-16 08:43:08.52	4.75	37.01	
2025-01-16 08:43:09.74	4.58	37.34	
2025-01-16 08:43:10.96	4.41	37.67	
2025-01-16 08:43:12.17	4.23	38.00	
2025-01-16 08:43:13.39	4.04	38.34	
2025-01-16 08:43:14.61	3.85	38.68	
2025-01-16 08:43:15.83	3.66	39.03	
2025-01-16 08:43:17.05	3.47	39.38	
2025-01-16 08:43:18.27	3.27	39.73	
2025-01-16 08:43:19.49	3.06	40.08	
2025-01-16 08:43:20.70	2.85	40.44	
2025-01-16 08:43:21.92	2.64	40.80	
2025-01-16 08:43:23.14	2.42	41.17	
2025-01-16 08:43:24.36	2.19	41.54	
2025-01-16 08:43:25.58	1.96	41.91	
2025-01-16 08:43:26.80	1.72	42.29	
2025-01-16 08:43:28.02	1.48	42.67	
2025-01-16 08:43:29.24	1.23	43.05	
2025-01-16 08:43:30.45	0.98	43.43	
2025-01-16 08:43:31.67	0.72	43.82	
2025-01-16 08:43:32.89	0.45	44.22	
2025-01-16 08:43:34.11	0.18	44.61	
2025-01-16 08:43:35.33	359.89	45.01	
2025-01-16 08:43:36.55	359.60	45.42	
2025-01-16 08:43:37.77	359.31	45.83	
2025-01-16 08:43:38.98	359.00	46.23	
2025-01-16 08:43:40.20	358.69	46.65	
2025-01-16 08:43:41.42	358.37	47.06	
2025-01-16 08:43:42.64	358.04	47.49	
2025-01-16 08:43:43.86	357.70	47.91	
2025-01-16 08:43:45.08	357.35	48.34	
2025-01-16 08:43:46.30	356.99	48.77	
2025-01-16 08:43:47.52	356.62	49.20	
2025-01-16 08:43:48.73	356.24	49.64	
2025-01-16 08:43:49.95	355.84	50.08	
2025-01-16 08:43:51.17	355.44	50.52	
2025-01-16 08:43:52.39	355.02	50.97	
2025-01-16 08:43:53.61	354.59	51.42	
2025-01-16 08:43:54.83	354.15	51.87	
2025-01-16 08:43:56.05	353.69	52.32	
2025-01-16 08:43:57.26	353.22	52.77	
2025-01-16 08:43:58.48	352.74	53.23	
2025-01-16 08:43:59.70	352.23	53.70	
2025-01-16 08:44:00.92	351.71	54.16	
2025-01-16 08:44:02.14	351.18	54.62	
2025-01-16 08:44:03.36	350.62	55.09	
2025-01-16 08:44:04.58	350.05	55.56	
2025-01-16 08:44:05.79	349.46	56.03	
2025-01-16 08:44:07.01	348.84	56.50	
2025-01-16 08:44:08.23	348.21	56.97	
2025-01-16 08:44:09.45	347.55	57.44	
2025-01-16 08:44:10.67	346.87	57.91	
2025-01-16 08:44:11.89	346.16	58.39	
2025-01-16 08:44:13.11	345.43	58.86	
2025-01-16 08:44:14.33	344.67	59.33	
2025-01-16 08:44:15.54	343.89	59.80	
2025-01-16 08:44:16.76	343.07	60.27	
2025-01-16 08:44:17.98	342.22	60.74	
2025-01-16 08:44:19.20	341.34	61.20	
2025-01-16 08:44:20.42	340.43	61.66	
2025-01-16 08:44:21.64	339.48	62.12	
2025-01-16 08:44:22.86	338.49	62.58	
2025-01-16 08:44:24.07	337.47	63.03	
2025-01-16 08:44:25.29	336.41	63.47	
2025-01-16 08:44:26.51	335.31	63.91	
2025-01-16 08:44:27.73	334.16	64.35	
2025-01-16 08:44:28.95	332.97	64.78	
2025-01-16 08:44:30.17	331.73	65.20	
2025-01-16 08:44:31.39	330.45	65.61	
2025-01-16 08:44:32.61	329.11	66.01	
2025-01-16 08:44:33.82	327.74	66.40	
2025-01-16 08:44:35.04	326.31	66.78	
2025-01-16 08:44:36.26	324.82	67.15	
2025-01-16 08:44:37.48	323.28	67.50	
2025-01-16 08:44:38.70	321.69	67.85	
2025-01-16 08:44:39.92	320.05	68.17	
2025-01-16 08:44:41.14	318.35	68.48	
2025-01-16 08:44:42.35	316.61	68.77	
2025-01-16 08:44:43.57	314.81	69.05	
2025-01-16 08:44:44.79	312.95	69.31	
2025-01-16 08:44:46.01	311.05	69.54	
2025-01-16 08:44:47.23	309.11	69.76	
2025-01-16 08:44:48.45	307.11	69.96	
2025-01-16 08:44:49.67	305.08	70.13	
2025-01-16 08:44:50.89	303.02	70.27	
2025-01-16 08:44:52.10	300.94	70.40	
2025-01-16 08:44:53.32	298.82	70.50	
2025-01-16 08:44:54.54	296.68	70.57	
2025-01-16 08:44:55.76	294.52	70.62	
2025-01-16 08:44:56.98	292.35	70.64	
2025-01-16 08:44:58.20	290.19	70.64	
2025-01-16 08:44:59.42	288.02	70.61	
2025-01-16 08:45:00.63	285.89	70.55	
2025-01-16 08:45:01.85	283.75	70.47	
2025-01-16 08:45:03.07	281.63	70.37	
2025-01-16 08:45:04.29	279.54	70.24	
2025-01-16 08:45:05.51	277.49	70.08	
2025-01-16 08:45:06.73	275.47	69.90	
2025-01-16 08:45:07.95	273.49	69.70	
2025-01-16 08:45:09.17	271.55	69.48	
2025-01-16 08:45:10.38	269.67	69.24	
2025-01-16 08:45:11.60	267.83	68.98	
2025-01-16 08:45:12.82	266.04	68.70	
2025-01-16 08:45:14.04	264.31	68.40	
2025-01-16 08:45:15.26	262.62	68.08	
2025-01-16 08:45:16.48	260.99	67.75	
2025-01-16 08:45:17.70	259.41	67.40	
2025-01-16 08:45:18.91	257.90	67.04	
2025-01-16 08:45:20.13	256.43	66.67	
2025-01-16 08:45:21.35	255.00	66.29	
2025-01-16 08:45:22.57	253.63	65.89	
2025-01-16 08:45:23.79	252.31	65.49	
2025-01-16 08:45:25.01	251.04	65.07	
2025-01-16 08:45:26.23	249.81	64.65	
2025-01-16 08:45:27.45	248.63	64.22	
2025-01-16 08:45:28.66	247.51	63.79	
2025-01-16 08:45:29.88	246.41	63.34	
2025-01-16 08:45:31.10	245.36	62.89	
2025-01-16 08:45:32.32	244.34	62.44	
2025-01-16 08:45:33.54	243.37	61.98	
2025-01-16 08:45:34.76	242.43	61.52	
2025-01-16 08:45:35.98	241.52	61.06	
2025-01-16 08:45:37.19	240.66	60.59	
2025-01-16 08:45:38.41	239.82	60.12	
2025-01-16 08:45:39.63	239.01	59.65	
2025-01-16 08:45:40.85	238.23	59.18	
2025-01-16 08:45:42.07	237.47	58.71	
2025-01-16 08:45:43.29	236.75	58.23	
2025-01-16 08:45:44.51	236.05	57.76	
2025-01-16 08:45:45.72	235.37	57.29	
2025-01-16 08:45:46.94	234.72	56.81	
2025-01-16 08:45:48.16	234.09	56.34	
2025-01-16 08:45:49.38	233.48	55.87	
2025-01-16 08:45:50.60	232.89	55.40	
2025-01-16 08:45:51.82	232.32	54.93	
2025-01-16 08:45:53.04	231.77	54.46	
2025-01-16 08:45:54.26	231.24	53.99	
2025-01-16 08:45:55.47	230.73	53.53	
2025-01-16 08:45:56.69	230.23	53.07	
2025-01-16 08:45:57.91	229.74	52.61	
2025-01-16 08:45:59.13	229.28	52.16	
2025-01-16 08:46:00.35	228.82	51.70	
2025-01-16 08:46:01.57	228.38	51.25	
2025-01-16 08:46:02.79	227.96	50.80	
2025-01-16 08:46:04.00	227.54	50.36	
2025-01-16 08:46:05.22	227.14	49.91	
2025-01-16 08:46:06.44	226.75	49.47	
2025-01-16 08:46:07.66	226.37	49.03	
2025-01-16 08:46:08.88	226.00	48.60	
2025-01-16 08:46:10.10	225.65	48.17	
2025-01-16 08:46:11.32	225.30	47.74	
2025-01-16 08:46:12.54	224.96	47.31	
2025-01-16 08:46:13.75	224.63	46.90	
2025-01-16 08:46:14.97	224.31	46.48	
2025-01-16 08:46:16.19	224.00	46.06	
2025-01-16 08:46:17.41	223.70	45.65	
2025-01-16 08:46:18.63	223.40	45.24	
2025-01-16 08:46:19.85	223.12	44.84	
2025-01-16 08:46:21.07	222.84	44.44	
2025-01-16 08:46:22.28	222.56	44.05	
2025-01-16 08:46:23.50	222.30	43.65	
2025-01-16 08:46:24.72	222.04	43.26	
2025-01-16 08:46:25.94	221.79	42.87	
2025-01-16 08:46:27.16	221.54	42.49	
2025-01-16 08:46:28.38	221.30	42.11	
2025-01-16 08:46:29.60	221.06	41.73	
2025-01-16 08:46:30.82	220.83	41.36	
2025-01-16 08:46:32.03	220.61	41.00	
2025-01-16 08:46:33.25	220.39	40.63	
2025-01-16 08:46:34.47	220.17	40.27	
2025-01-16 08:46:35.69	219.97	39.91	
2025-01-16 08:46:36.91	219.76	39.55	
2025-01-16 08:46:38.13	219.56	39.20	
2025-01-16 08:46:39.35	219.36	38.85	
2025-01-16 08:46:40.56	219.17	38.51	
2025-01-16 08:46:41.78	218.99	38.17	
2025-01-16 08:46:43.00	218.80	37.83	
2025-01-16 08:46:44.22	218.62	37.49	
2025-01-16 08:46:45.44	218.45	37.16	
2025-01-16 08:46:46.66	218.28	36.83	
2025-01-16 08:46:47.88	218.11	36.50	
2025-01-16 08:46:49.10	217.94	36.18	
2025-01-16 08:46:50.31	217.78	35.86	
2025-01-16 08:46:51.53	217.63	35.55	
2025-01-16 08:46:52.75	217.47	35.23	
2025-01-16 08:46:53.97	217.32	34.92	
2025-01-16 08:46:55.19	217.17	34.61	
2025-01-16 08:46:56.41	217.02	34.31	
2025-01-16 08:46:57.63	216.88	34.01	
2025-01-16 08:46:58.84	216.74	33.71	
2025-01-16 08:47:00.06	216.60	33.41	
2025-01-16 08:47:01.28	216.47	33.12	
2025-01-16 08:47:02.50	216.33	32.83	
2025-01-16 08:47:03.72	216.20	32.54	
2025-01-16 08:47:04.94	216.08	32.26	
2025-01-16 08:47:06.16	215.95	31.97	
2025-01-16 08:47:07.38	215.83	31.69	
2025-01-16 08:47:08.59	215.71	31.42	
2025-01-16 08:47:09.81	215.59	31.15	
2025-01-16 08:47:11.03	215.47	30.87	
2025-01-16 08:47:12.25	215.36	30.60	
2025-01-16 08:47:13.47	215.24	30.34	
2025-01-16 08:47:14.69	215.13	30.07	
2025-01-16 08:47:15.91	215.02	29.81	
2025-01-16 08:47:17.12	214.92	29.55	
2025-01-16 08:47:18.34	214.81	29.30	
2025-01-16 08:47:19.56	214.71	29.04	
2025-01-16 08:47:20.78	214.61	28.79	
2025-01-16 08:47:22.00	214.51	28.54	
2025-01-16 08:47:23.22	214.41	28.29	
2025-01-16 08:47:24.44	214.31	28.05	
2025-01-16 08:47:25.65	214.22	27.81	
2025-01-16 08:47:26.87	214.12	27.57	
2025-01-16 08:47:28.09	214.03	27.33	
2025-01-16 08:47:29.31	213.94	27.09	
2025-01-16 08:47:30.53	213.85	26.86	
2025-01-16 08:47:31.75	213.76	26.62	
2025-01-16 08:47:32.97	213.68	26.39	
2025-01-16 08:47:34.19	213.59	26.16	
2025-01-16 08:47:35.40	213.51	25.94	
2025-01-16 08:47:36.62	213.43	25.72	
2025-01-16 08:47:37.84	213.34	25.49	
2025-01-16 08:47:39.06	213.26	25.27	
2025-01-16 08:47:40.28	213.18	25.05	
2025-01-16 08:47:41.50	213.11	24.84	
2025-01-16 08:47:42.72	213.03	24.62	
2025-01-16 08:47:43.93	212.96	24.41	
2025-01-16 08:47:45.15	212.88	24.20	
2025-01-16 08:47:46.37	212.81	23.99	
2025-01-16 08:47:47.59	212.74	23.78	
2025-01-16 08:47:48.81	212.66	23.58	
2025-01-16 08:47:50.03	212.59	23.37	
2025-01-16 08:47:51.25	212.52	23.17	
2025-01-16 08:47:52.47	212.46	22.97	
2025-01-16 08:47:53.68	212.39	22.77	
2025-01-16 08:47:54.90	212.32	22.57	
2025-01-16 08:47:56.12	212.26	22.38	
2025-01-16 08:47:57.34	212.19	22.18	
2025-01-16 08:47:58.56	212.13	21.99	
2025-01-16 08:47:59.78	212.07	21.80	
2025-01-16 08:48:01.00	212.00	21.61	
2025-01-16 08:48:02.21	211.94	21.42	
2025-01-16 08:48:03.43	211.88	21.23	
2025-01-16 08:48:04.65	211.82	21.05	
2025-01-16 08:48:05.87	211.77	20.86	
2025-01-16 08:48:07.09	211.71	20.68	
2025-01-16 08:48:08.31	211.65	20.50	
2025-01-16 08:48:09.53	211.59	20.32	
2025-01-16 08:48:10.75	211.54	20.14	
2025-01-16 08:48:11.96	211.48	19.97	
2025-01-16 08:48:13.18	211.43	19.79	
2025-01-16 08:48:14.40	211.38	19.62	
2025-01-16 08:48:15.62	211.32	19.44	
2025-01-16 08:48:16.84	211.27	19.27	
2025-01-16 08:48:18.06	211.22	19.10	
2025-01-16 08:48:19.28	211.17	18.93	
2025-01-16 08:48:20.49	211.12	18.76	
2025-01-16 08:48:21.71	211.07	18.60	
2025-01-16 08:48:22.93	211.02	18.43	
2025-01-16 08:48:24.15	210.97	18.27	
2025-01-16 08:48:25.37	210.92	18.10	
2025-01-16 08:48:26.59	210.88	17.94	
2025-01-16 08:48:27.81	210.83	17.78	
2025-01-16 08:48:29.03	210.78	17.62	
2025-01-16 08:48:30.24	210.74	17.46	
2025-01-16 08:48:31.46	210.69	17.30	
2025-01-16 08:48:32.68	210.65	17.15	
2025-01-16 08:48:33.90	210.60	16.99	
2025-01-16 08:48:35.12	210.56	16.84	
2025-01-16 08:48:36.34	210.52	16.68	
2025-01-16 08:48:37.56	210.47	16.53	
2025-01-16 08:48:38.77	210.43	16.38	
2025-01-16 08:48:39.99	210.39	16.23	
2025-01-16 08:48:41.21	210.35	16.08	
2025-01-16 08:48:42.43	210.31	15.93	
2025-01-16 08:48:43.65	210.27	15.79	
2025-01-16 08:48:44.87	210.23	15.64	
2025-01-16 08:48:46.09	210.19	15.49	
2025-01-16 08:48:47.31	210.15	15.35	
2025-01-16 08:48:48.52	210.11	15.21	
2025-01-16 08:48:49.74	210.08	15.06	
2025-01-16 08:48:50.96	210.04	14.92	
2025-01-16 08:48:52.18	210.00	14.78	
2025-01-16 08:48:53.40	209.96	14.64	
2025-01-16 08:48:54.62	209.93	14.50	
2025-01-16 08:48:55.84	209.89	14.36	
2025-01-16 08:48:57.05	209.86	14.23	
2025-01-16 08:48:58.27	209.82	14.09	
2025-01-16 08:48:59.49	209.79	13.96	
2025-01-16 08:49:00.71	209.75	13.82	
2025-01-16 08:49:01.93	209.72	13.69	
2025-01-16 08:49:03.15	209.68	13.55	
2025-01-16 08:49:04.37	209.65	13.42	
2025-01-16 08:49:05.59	209.62	13.29	
2025-01-16 08:49:06.80	209.59	13.16	
2025-01-16 08:49:08.02	209.55	13.03	
2025-01-16 08:49:09.24	209.52	12.90	
2025-01-16 08:49:10.46	209.49	12.77	
2025-01-16 08:49:11.68	209.46	12.64	
2025-01-16 08:49:12.90	209.43	12.51	
2025-01-16 08:49:14.12	209.40	12.39	
2025-01-16 08:49:15.33	209.37	12.26	
2025-01-16 08:49:16.55	209.34	12.14	
2025-01-16 08:49:17.77	209.31	12.01	
2025-01-16 08:49:18.99	209.28	11.89	
2025-01-16 08:49:20.21	209.25	11.77	
2025-01-16 08:49:21.43	209.22	11.64	
2025-01-16 08:49:22.65	209.19	11.52	
2025-01-16 08:49:23.86	209.16	11.40	
2025-01-16 08:49:25.08	209.14	11.28	
2025-01-16 08:49:26.30	209.11	11.16	
2025-01-16 08:49:27.52	209.08	11.04	
2025-01-16 08:49:28.74	209.05	10.92	
2025-01-16 08:49:29.96	209.03	10.81	
2025-01-16 08:49:31.18	209.00	10.69	
2025-01-16 08:49:32.40	208.97	10.57	
2025-01-16 08:49:33.61	208.95	10.46	
2025-01-16 08:49:34.83	208.92	10.34	
2025-01-16 08:49:36.05	208.90	10.23	
2025-01-16 08:49:37.27	208.87	10.11	
2025-01-16 08:49:38.49	208.85	10.00	
2025-01-16 08:49:39.71	208.82	9.89	
2025-01-16 08:49:40.93	208.80	9.77	
2025-01-16 08:49:42.14	208.77	9.66	
2025-01-16 08:49:43.36	208.75	9.55	
2025-01-16 08:49:44.58	208.72	9.44	
2025-01-16 08:49:45.80	208.70	9.33	
2025-01-16 08:49:47.02	208.68	9.22	
2025-01-16 08:49:48.24	208.65	9.11	
2025-01-16 08:49:49.46	208.63	9.00	
2025-01-16 08:49:50.68	208.61	8.89	
2025-01-16 08:49:51.89	208.58	8.79	
2025-01-16 08:49:53.11	208.56	8.68	
2025-01-16 08:49:54.33	208.54	8.57	
2025-01-16 08:49:55.55	208.52	8.47	
2025-01-16 08:49:56.77	208.50	8.36	
2025-01-16 08:49:57.99	208.47	8.26	
2025-01-16 08:49:59.21	208.45	8.15	
2025-01-16 08:50:00.42	208.43	8.05	
2025-01-16 08:50:01.64	208.41	7.94	
2025-01-16 08:50:02.86	208.39	7.84	
2025-01-16 08:50:04.08	208.37	7.74	
2025-01-16 08:50:05.30	208.35	7.64	
2025-01-16 08:50:06.52	208.33	7.53	
2025-01-16 08:50:07.74	208.31	7.43	
2025-01-16 08:50:08.96	208.29	7.33	
2025-01-16 08:50:10.17	208.27	7.23	
2025-01-16 08:50:11.39	208.25	7.13	
2025-01-16 08:50:12.61	208.23	7.03	
2025-01-16 08:50:13.83	208.21	6.93	
2025-01-16 08:50:15.05	208.19	6.83	
2025-01-16 08:50:16.27	208.17	6.73	
2025-01-16 08:50:17.49	208.15	6.64	
2025-01-16 08:50:18.70	208.13	6.54	
2025-01-16 08:50:19.92	208.11	6.44	
2025-01-16 08:50:21.14	208.10	6.35	
2025-01-16 08:50:22.36	208.08	6.25	
2025-01-16 08:50:23.58	208.06	6.15	
2025-01-16 08:50:24.80	208.04	6.06	
2025-01-16 08:50:26.02	208.02	5.96	
2025-01-16 08:50:27.24	208.01	5.87	
2025-01-16 08:50:28.45	207.99	5.77	
2025-01-16 08:50:29.67	207.97	5.68	
2025-01-16 08:50:30.89	207.96	5.58	
2025-01-16 08:50:32.11	207.94	5.49	
2025-01-16 08:50:33.33	207.92	5.40	
2025-01-16 08:50:34.55	207.90	5.31	
2025-01-16 08:50:35.77	207.89	5.21	
2025-01-16 08:50:36.98	207.87	5.12	
2025-01-16 08:50:38.20	207.86	5.03	
2025-01-16 08:50:39.42	207.84	4.94	
2025-01-16 08:50:40.64	207.82	4.85	
2025-01-16 08:50:41.86	207.81	4.76	
2025-01-16 08:50:43.08	207.79	4.67	
2025-01-16 08:50:44.30	207.78	4.58	
2025-01-16 08:50:45.51	207.76	4.49	
2025-01-16 08:50:46.73	207.75	4.40	
2025-01-16 08:50:47.95	207.73	4.31	
2025-01-16 08:50:49.17	207.71	4.22	
2025-01-16 08:50:50.39	207.70	4.13	
2025-01-16 08:50:51.61	207.68	4.05	

#Closed at: 2025-01-16 08:50:52