passes_logs/2025/01/16/SPB_Silybum_02/SPB_Silybum_02__20250116_085953_AQUA_rec.log

#Pass ID: 20250116_085953_AQUA
#Satellite: AQUA
#Configuration: AQUA
#Start time: 2025-01-16 08:59:53

#Version: 2.0.20230423
#Station: SPB_Silybum_02
#Location: 30.233357 lon 59.946436 lat
#TLE: 1 27424U 02022A   25015.89755826  .00001635  00000+0  34564-3 0  9997
#TLE: 2 27424  98.3590 332.5696 0001753 110.3458 316.1758 14.60685220207753

#Time	Az	El	Level	Level2	SNR	BER	Gain	Gain2
2025-01-16 08:59:55.11	86.40	4.07	
2025-01-16 08:59:56.13	86.28	4.12	
2025-01-16 08:59:57.15	86.17	4.17	
2025-01-16 08:59:58.16	86.05	4.23	
2025-01-16 08:59:59.18	85.94	4.28	
2025-01-16 09:00:00.19	85.82	4.33	
2025-01-16 09:00:01.22	85.70	4.39	
2025-01-16 09:00:02.23	85.59	4.44	
2025-01-16 09:00:03.25	85.47	4.50	
2025-01-16 09:00:04.27	85.35	4.55	
2025-01-16 09:00:05.28	85.23	4.60	
2025-01-16 09:00:06.30	85.11	4.66	
2025-01-16 09:00:07.31	84.99	4.71	
2025-01-16 09:00:08.33	84.87	4.77	
2025-01-16 09:00:09.34	84.75	4.82	
2025-01-16 09:00:10.36	84.63	4.87	
2025-01-16 09:00:11.37	84.51	4.93	
2025-01-16 09:00:12.39	84.39	4.98	
2025-01-16 09:00:13.41	84.27	5.04	
2025-01-16 09:00:14.42	84.15	5.09	
2025-01-16 09:00:15.44	84.02	5.14	
2025-01-16 09:00:16.45	83.90	5.20	
2025-01-16 09:00:17.47	83.77	5.25	
2025-01-16 09:00:18.48	83.65	5.31	
2025-01-16 09:00:19.50	83.52	5.36	
2025-01-16 09:00:20.51	83.40	5.41	
2025-01-16 09:00:21.53	83.27	5.47	
2025-01-16 09:00:22.55	83.14	5.52	
2025-01-16 09:00:23.56	83.02	5.58	
2025-01-16 09:00:24.58	82.89	5.63	
2025-01-16 09:00:25.59	82.76	5.68	
2025-01-16 09:00:26.61	82.63	5.74	
2025-01-16 09:00:27.62	82.50	5.79	
2025-01-16 09:00:28.65	82.37	5.85	
2025-01-16 09:00:29.67	82.24	5.90	
2025-01-16 09:00:30.69	82.11	5.95	
2025-01-16 09:00:31.70	81.98	6.01	
2025-01-16 09:00:32.73	81.84	6.06	
2025-01-16 09:00:33.74	81.71	6.12	
2025-01-16 09:00:34.76	81.58	6.17	
2025-01-16 09:00:35.77	81.44	6.22	
2025-01-16 09:00:36.79	81.31	6.28	
2025-01-16 09:00:37.80	81.18	6.33	
2025-01-16 09:00:38.82	81.04	6.39	
2025-01-16 09:00:39.84	80.90	6.44	
2025-01-16 09:00:40.85	80.77	6.49	
2025-01-16 09:00:41.87	80.63	6.55	
2025-01-16 09:00:42.88	80.49	6.60	
2025-01-16 09:00:43.90	80.35	6.65	
2025-01-16 09:00:44.91	80.21	6.71	
2025-01-16 09:00:45.93	80.07	6.76	
2025-01-16 09:00:46.94	79.94	6.81	
2025-01-16 09:00:47.96	79.79	6.87	
2025-01-16 09:00:48.98	79.65	6.92	
2025-01-16 09:00:49.99	79.51	6.98	
2025-01-16 09:00:51.01	79.37	7.03	
2025-01-16 09:00:52.02	79.23	7.08	
2025-01-16 09:00:53.04	79.08	7.14	
2025-01-16 09:00:54.05	78.94	7.19	
2025-01-16 09:00:55.07	78.79	7.24	
2025-01-16 09:00:56.08	78.65	7.30	
2025-01-16 09:00:57.10	78.50	7.35	
2025-01-16 09:00:58.12	78.36	7.40	
2025-01-16 09:00:59.13	78.21	7.46	
2025-01-16 09:01:00.15	78.06	7.51	
2025-01-16 09:01:01.16	77.92	7.56	
2025-01-16 09:01:02.18	77.77	7.62	
2025-01-16 09:01:03.19	77.62	7.67	
2025-01-16 09:01:04.21	77.47	7.72	
2025-01-16 09:01:05.22	77.32	7.77	
2025-01-16 09:01:06.24	77.17	7.83	
2025-01-16 09:01:07.26	77.01	7.88	
2025-01-16 09:01:08.27	76.86	7.93	
2025-01-16 09:01:09.29	76.71	7.99	
2025-01-16 09:01:10.30	76.56	8.04	
2025-01-16 09:01:11.32	76.40	8.09	
2025-01-16 09:01:12.33	76.25	8.14	
2025-01-16 09:01:13.35	76.09	8.20	
2025-01-16 09:01:14.36	75.94	8.25	
2025-01-16 09:01:15.38	75.78	8.30	
2025-01-16 09:01:16.40	75.62	8.35	
2025-01-16 09:01:17.41	75.46	8.41	
2025-01-16 09:01:18.43	75.30	8.46	
2025-01-16 09:01:19.44	75.15	8.51	
2025-01-16 09:01:20.46	74.99	8.56	
2025-01-16 09:01:21.47	74.83	8.61	
2025-01-16 09:01:22.49	74.66	8.67	
2025-01-16 09:01:23.50	74.50	8.72	
2025-01-16 09:01:24.52	74.34	8.77	
2025-01-16 09:01:25.54	74.18	8.82	
2025-01-16 09:01:26.55	74.01	8.87	
2025-01-16 09:01:27.57	73.85	8.92	
2025-01-16 09:01:28.58	73.69	8.97	
2025-01-16 09:01:29.60	73.52	9.03	
2025-01-16 09:01:30.61	73.35	9.08	
2025-01-16 09:01:31.63	73.19	9.13	
2025-01-16 09:01:32.64	73.02	9.18	
2025-01-16 09:01:33.66	72.85	9.23	
2025-01-16 09:01:34.67	72.68	9.28	
2025-01-16 09:01:35.69	72.51	9.33	
2025-01-16 09:01:36.71	72.34	9.38	
2025-01-16 09:01:37.72	72.17	9.43	
2025-01-16 09:01:38.74	72.00	9.48	
2025-01-16 09:01:39.75	71.83	9.53	
2025-01-16 09:01:40.77	71.66	9.58	
2025-01-16 09:01:41.78	71.49	9.63	
2025-01-16 09:01:42.80	71.31	9.68	
2025-01-16 09:01:43.81	71.14	9.73	
2025-01-16 09:01:44.83	70.96	9.78	
2025-01-16 09:01:45.85	70.79	9.83	
2025-01-16 09:01:46.86	70.61	9.88	
2025-01-16 09:01:47.88	70.43	9.93	
2025-01-16 09:01:48.89	70.26	9.98	
2025-01-16 09:01:49.91	70.08	10.03	
2025-01-16 09:01:50.92	69.90	10.07	
2025-01-16 09:01:51.94	69.72	10.12	
2025-01-16 09:01:52.95	69.54	10.17	
2025-01-16 09:01:53.97	69.36	10.22	
2025-01-16 09:01:54.99	69.18	10.27	
2025-01-16 09:01:56.00	69.00	10.32	
2025-01-16 09:01:57.02	68.81	10.36	
2025-01-16 09:01:58.03	68.63	10.41	
2025-01-16 09:01:59.05	68.45	10.46	
2025-01-16 09:02:00.06	68.26	10.50	
2025-01-16 09:02:01.08	68.08	10.55	
2025-01-16 09:02:02.09	67.89	10.60	
2025-01-16 09:02:03.11	67.70	10.65	
2025-01-16 09:02:04.13	67.51	10.69	
2025-01-16 09:02:05.14	67.33	10.74	
2025-01-16 09:02:06.16	67.14	10.78	
2025-01-16 09:02:07.17	66.95	10.83	
2025-01-16 09:02:08.19	66.76	10.88	
2025-01-16 09:02:09.20	66.57	10.92	
2025-01-16 09:02:10.22	66.38	10.97	
2025-01-16 09:02:11.23	66.19	11.01	
2025-01-16 09:02:12.25	65.99	11.06	
2025-01-16 09:02:13.27	65.80	11.10	
2025-01-16 09:02:14.28	65.61	11.15	
2025-01-16 09:02:15.30	65.41	11.19	
2025-01-16 09:02:16.31	65.22	11.23	
2025-01-16 09:02:17.33	65.02	11.28	
2025-01-16 09:02:18.34	64.83	11.32	
2025-01-16 09:02:19.36	64.63	11.37	
2025-01-16 09:02:20.37	64.43	11.41	
2025-01-16 09:02:21.39	64.23	11.45	
2025-01-16 09:02:22.41	64.03	11.49	
2025-01-16 09:02:23.42	63.84	11.54	
2025-01-16 09:02:24.44	63.63	11.58	
2025-01-16 09:02:25.45	63.44	11.62	
2025-01-16 09:02:26.47	63.23	11.66	
2025-01-16 09:02:27.48	63.03	11.70	
2025-01-16 09:02:28.50	62.83	11.75	
2025-01-16 09:02:29.51	62.63	11.79	
2025-01-16 09:02:30.53	62.42	11.83	
2025-01-16 09:02:31.55	62.22	11.87	
2025-01-16 09:02:32.56	62.01	11.91	
2025-01-16 09:02:33.58	61.81	11.95	
2025-01-16 09:02:34.59	61.60	11.99	
2025-01-16 09:02:35.61	61.39	12.03	
2025-01-16 09:02:36.62	61.19	12.07	
2025-01-16 09:02:37.64	60.98	12.11	
2025-01-16 09:02:38.65	60.77	12.14	
2025-01-16 09:02:39.67	60.56	12.18	
2025-01-16 09:02:40.69	60.35	12.22	
2025-01-16 09:02:41.70	60.14	12.26	
2025-01-16 09:02:42.72	59.93	12.30	
2025-01-16 09:02:43.73	59.72	12.33	
2025-01-16 09:02:44.75	59.51	12.37	
2025-01-16 09:02:45.76	59.30	12.41	
2025-01-16 09:02:46.78	59.08	12.44	
2025-01-16 09:02:47.79	58.87	12.48	
2025-01-16 09:02:48.81	58.65	12.51	
2025-01-16 09:02:49.83	58.44	12.55	
2025-01-16 09:02:50.84	58.22	12.58	
2025-01-16 09:02:51.86	58.01	12.62	
2025-01-16 09:02:52.87	57.79	12.65	
2025-01-16 09:02:53.89	57.57	12.69	
2025-01-16 09:02:54.90	57.36	12.72	
2025-01-16 09:02:55.92	57.14	12.75	
2025-01-16 09:02:56.93	56.92	12.79	
2025-01-16 09:02:57.95	56.70	12.82	
2025-01-16 09:02:58.97	56.48	12.85	
2025-01-16 09:02:59.98	56.26	12.88	
2025-01-16 09:03:01.00	56.04	12.92	
2025-01-16 09:03:02.01	55.82	12.95	
2025-01-16 09:03:03.03	55.60	12.98	
2025-01-16 09:03:04.04	55.38	13.01	
2025-01-16 09:03:05.06	55.15	13.04	
2025-01-16 09:03:06.07	54.93	13.07	
2025-01-16 09:03:07.09	54.71	13.10	
2025-01-16 09:03:08.11	54.48	13.13	
2025-01-16 09:03:09.12	54.26	13.16	
2025-01-16 09:03:10.14	54.03	13.19	
2025-01-16 09:03:11.15	53.81	13.21	
2025-01-16 09:03:12.17	53.58	13.24	
2025-01-16 09:03:13.18	53.35	13.27	
2025-01-16 09:03:14.20	53.13	13.29	
2025-01-16 09:03:15.21	52.90	13.32	
2025-01-16 09:03:16.23	52.67	13.35	
2025-01-16 09:03:17.25	52.44	13.37	
2025-01-16 09:03:18.26	52.21	13.40	
2025-01-16 09:03:19.28	51.98	13.42	
2025-01-16 09:03:20.29	51.76	13.45	
2025-01-16 09:03:21.31	51.53	13.47	
2025-01-16 09:03:22.32	51.30	13.50	
2025-01-16 09:03:23.34	51.07	13.52	
2025-01-16 09:03:24.35	50.84	13.54	
2025-01-16 09:03:25.37	50.60	13.56	
2025-01-16 09:03:26.39	50.37	13.59	
2025-01-16 09:03:27.40	50.14	13.61	
2025-01-16 09:03:28.42	49.91	13.63	
2025-01-16 09:03:29.43	49.67	13.65	
2025-01-16 09:03:30.45	49.44	13.67	
2025-01-16 09:03:31.46	49.21	13.69	
2025-01-16 09:03:32.48	48.97	13.71	
2025-01-16 09:03:33.49	48.74	13.73	
2025-01-16 09:03:34.51	48.50	13.75	
2025-01-16 09:03:35.53	48.27	13.76	
2025-01-16 09:03:36.54	48.04	13.78	
2025-01-16 09:03:37.56	47.80	13.80	
2025-01-16 09:03:38.57	47.56	13.82	
2025-01-16 09:03:39.59	47.33	13.83	
2025-01-16 09:03:40.60	47.09	13.85	
2025-01-16 09:03:41.62	46.85	13.86	
2025-01-16 09:03:42.63	46.62	13.88	
2025-01-16 09:03:43.65	46.38	13.89	
2025-01-16 09:03:44.67	46.14	13.91	
2025-01-16 09:03:45.68	45.91	13.92	
2025-01-16 09:03:46.70	45.67	13.94	
2025-01-16 09:03:47.71	45.43	13.95	
2025-01-16 09:03:48.73	45.19	13.96	
2025-01-16 09:03:49.74	44.96	13.97	
2025-01-16 09:03:50.76	44.72	13.98	
2025-01-16 09:03:51.77	44.48	13.99	
2025-01-16 09:03:52.79	44.24	14.00	
2025-01-16 09:03:53.81	44.00	14.01	
2025-01-16 09:03:54.82	43.76	14.02	
2025-01-16 09:03:55.84	43.52	14.03	
2025-01-16 09:03:56.85	43.28	14.04	
2025-01-16 09:03:57.87	43.04	14.05	
2025-01-16 09:03:58.88	42.80	14.06	
2025-01-16 09:03:59.90	42.56	14.07	
2025-01-16 09:04:00.91	42.32	14.07	
2025-01-16 09:04:01.93	42.08	14.08	
2025-01-16 09:04:02.95	41.84	14.08	
2025-01-16 09:04:03.96	41.60	14.09	
2025-01-16 09:04:04.98	41.36	14.09	
2025-01-16 09:04:05.99	41.12	14.10	
2025-01-16 09:04:07.01	40.88	14.10	
2025-01-16 09:04:08.02	40.64	14.11	
2025-01-16 09:04:09.04	40.40	14.11	
2025-01-16 09:04:10.05	40.16	14.11	
2025-01-16 09:04:11.07	39.92	14.11	
2025-01-16 09:04:12.09	39.67	14.11	
2025-01-16 09:04:13.10	39.43	14.12	
2025-01-16 09:04:14.12	39.19	14.12	
2025-01-16 09:04:15.13	38.95	14.12	
2025-01-16 09:04:16.15	38.71	14.12	
2025-01-16 09:04:17.16	38.47	14.11	
2025-01-16 09:04:18.18	38.23	14.11	
2025-01-16 09:04:19.19	37.99	14.11	
2025-01-16 09:04:20.21	37.75	14.11	
2025-01-16 09:04:21.23	37.51	14.11	
2025-01-16 09:04:22.24	37.27	14.10	
2025-01-16 09:04:23.26	37.02	14.10	
2025-01-16 09:04:24.27	36.79	14.10	
2025-01-16 09:04:25.29	36.54	14.09	
2025-01-16 09:04:26.30	36.31	14.09	
2025-01-16 09:04:27.32	36.06	14.08	
2025-01-16 09:04:28.33	35.83	14.07	
2025-01-16 09:04:29.35	35.58	14.07	
2025-01-16 09:04:30.37	35.34	14.06	
2025-01-16 09:04:31.38	35.10	14.05	
2025-01-16 09:04:32.40	34.86	14.04	
2025-01-16 09:04:33.41	34.63	14.04	
2025-01-16 09:04:34.43	34.39	14.03	
2025-01-16 09:04:35.44	34.15	14.02	
2025-01-16 09:04:36.46	33.91	14.01	
2025-01-16 09:04:37.47	33.67	14.00	
2025-01-16 09:04:38.49	33.43	13.99	
2025-01-16 09:04:39.50	33.19	13.98	
2025-01-16 09:04:40.52	32.95	13.96	
2025-01-16 09:04:41.54	32.71	13.95	
2025-01-16 09:04:42.55	32.48	13.94	
2025-01-16 09:04:43.57	32.24	13.93	
2025-01-16 09:04:44.58	32.00	13.91	
2025-01-16 09:04:45.60	31.77	13.90	
2025-01-16 09:04:46.61	31.53	13.88	
2025-01-16 09:04:47.63	31.29	13.87	
2025-01-16 09:04:48.64	31.06	13.85	
2025-01-16 09:04:49.66	30.82	13.84	
2025-01-16 09:04:50.68	30.58	13.82	
2025-01-16 09:04:51.69	30.35	13.80	
2025-01-16 09:04:52.71	30.11	13.79	
2025-01-16 09:04:53.72	29.88	13.77	
2025-01-16 09:04:54.74	29.64	13.75	
2025-01-16 09:04:55.75	29.41	13.73	
2025-01-16 09:04:56.77	29.18	13.71	
2025-01-16 09:04:57.78	28.94	13.70	
2025-01-16 09:04:58.80	28.71	13.68	
2025-01-16 09:04:59.82	28.48	13.66	
2025-01-16 09:05:00.85	28.24	13.63	
2025-01-16 09:05:01.86	28.01	13.61	
2025-01-16 09:05:02.88	27.78	13.59	
2025-01-16 09:05:03.89	27.55	13.57	
2025-01-16 09:05:04.91	27.31	13.55	
2025-01-16 09:05:05.92	27.08	13.53	
2025-01-16 09:05:06.94	26.85	13.50	
2025-01-16 09:05:07.96	26.62	13.48	
2025-01-16 09:05:08.97	26.39	13.45	
2025-01-16 09:05:09.99	26.16	13.43	
2025-01-16 09:05:11.00	25.94	13.41	
2025-01-16 09:05:12.02	25.71	13.38	
2025-01-16 09:05:13.03	25.48	13.35	
2025-01-16 09:05:14.05	25.25	13.33	
2025-01-16 09:05:15.06	25.03	13.30	
2025-01-16 09:05:16.08	24.80	13.28	
2025-01-16 09:05:17.10	24.57	13.25	
2025-01-16 09:05:18.11	24.35	13.22	
2025-01-16 09:05:19.13	24.12	13.19	
2025-01-16 09:05:20.14	23.90	13.17	
2025-01-16 09:05:21.16	23.67	13.14	
2025-01-16 09:05:22.17	23.45	13.11	
2025-01-16 09:05:23.19	23.22	13.08	
2025-01-16 09:05:24.20	23.00	13.05	
2025-01-16 09:05:25.22	22.78	13.02	
2025-01-16 09:05:26.24	22.56	12.99	
2025-01-16 09:05:27.25	22.34	12.96	
2025-01-16 09:05:28.27	22.12	12.93	
2025-01-16 09:05:29.28	21.90	12.89	
2025-01-16 09:05:30.30	21.68	12.86	
2025-01-16 09:05:31.31	21.46	12.83	
2025-01-16 09:05:32.33	21.24	12.80	
2025-01-16 09:05:33.34	21.02	12.77	
2025-01-16 09:05:34.36	20.80	12.73	
2025-01-16 09:05:35.38	20.58	12.70	
2025-01-16 09:05:36.39	20.37	12.66	
2025-01-16 09:05:37.41	20.15	12.63	
2025-01-16 09:05:38.42	19.94	12.60	
2025-01-16 09:05:39.44	19.72	12.56	
2025-01-16 09:05:40.45	19.51	12.53	
2025-01-16 09:05:41.47	19.29	12.49	
2025-01-16 09:05:42.48	19.08	12.45	
2025-01-16 09:05:43.50	18.87	12.42	
2025-01-16 09:05:44.52	18.65	12.38	
2025-01-16 09:05:45.53	18.44	12.35	
2025-01-16 09:05:46.55	18.23	12.31	
2025-01-16 09:05:47.56	18.02	12.27	
2025-01-16 09:05:48.58	17.81	12.23	
2025-01-16 09:05:49.59	17.60	12.20	
2025-01-16 09:05:50.61	17.39	12.16	
2025-01-16 09:05:51.62	17.19	12.12	
2025-01-16 09:05:52.64	16.98	12.08	
2025-01-16 09:05:53.66	16.77	12.04	
2025-01-16 09:05:54.67	16.57	12.00	
2025-01-16 09:05:55.69	16.36	11.96	
2025-01-16 09:05:56.70	16.16	11.92	
2025-01-16 09:05:57.72	15.95	11.88	
2025-01-16 09:05:58.73	15.75	11.84	
2025-01-16 09:05:59.75	15.54	11.80	
2025-01-16 09:06:00.76	15.34	11.76	
2025-01-16 09:06:01.78	15.14	11.72	
2025-01-16 09:06:02.80	14.94	11.68	
2025-01-16 09:06:03.81	14.74	11.64	
2025-01-16 09:06:04.83	14.54	11.59	
2025-01-16 09:06:05.84	14.34	11.55	
2025-01-16 09:06:06.86	14.14	11.51	
2025-01-16 09:06:07.87	13.94	11.47	
2025-01-16 09:06:08.89	13.74	11.42	
2025-01-16 09:06:09.90	13.55	11.38	
2025-01-16 09:06:10.92	13.35	11.34	
2025-01-16 09:06:11.94	13.15	11.29	
2025-01-16 09:06:12.95	12.96	11.25	
2025-01-16 09:06:13.97	12.76	11.21	
2025-01-16 09:06:14.98	12.57	11.16	
2025-01-16 09:06:16.00	12.38	11.12	
2025-01-16 09:06:17.01	12.18	11.07	
2025-01-16 09:06:18.03	11.99	11.03	
2025-01-16 09:06:19.04	11.80	10.98	
2025-01-16 09:06:20.06	11.61	10.94	
2025-01-16 09:06:21.08	11.42	10.89	
2025-01-16 09:06:22.09	11.23	10.85	
2025-01-16 09:06:23.11	11.04	10.80	
2025-01-16 09:06:24.12	10.85	10.76	
2025-01-16 09:06:25.14	10.67	10.71	
2025-01-16 09:06:26.15	10.48	10.66	
2025-01-16 09:06:27.17	10.29	10.62	
2025-01-16 09:06:28.18	10.11	10.57	
2025-01-16 09:06:29.20	9.92	10.52	
2025-01-16 09:06:30.22	9.74	10.48	
2025-01-16 09:06:31.23	9.56	10.43	
2025-01-16 09:06:32.25	9.37	10.38	
2025-01-16 09:06:33.26	9.19	10.33	
2025-01-16 09:06:34.28	9.01	10.29	
2025-01-16 09:06:35.29	8.83	10.24	
2025-01-16 09:06:36.31	8.65	10.19	
2025-01-16 09:06:37.32	8.47	10.14	
2025-01-16 09:06:38.34	8.29	10.09	
2025-01-16 09:06:39.36	8.11	10.05	
2025-01-16 09:06:40.37	7.93	10.00	
2025-01-16 09:06:41.39	7.76	9.95	
2025-01-16 09:06:42.40	7.58	9.90	
2025-01-16 09:06:43.42	7.41	9.85	
2025-01-16 09:06:44.43	7.23	9.80	
2025-01-16 09:06:45.45	7.06	9.75	
2025-01-16 09:06:46.46	6.88	9.70	
2025-01-16 09:06:47.48	6.71	9.65	
2025-01-16 09:06:48.50	6.54	9.60	
2025-01-16 09:06:49.51	6.37	9.55	
2025-01-16 09:06:50.53	6.19	9.50	
2025-01-16 09:06:51.54	6.02	9.45	
2025-01-16 09:06:52.56	5.85	9.40	
2025-01-16 09:06:53.57	5.68	9.35	
2025-01-16 09:06:54.59	5.52	9.30	
2025-01-16 09:06:55.60	5.35	9.25	
2025-01-16 09:06:56.62	5.18	9.20	
2025-01-16 09:06:57.64	5.01	9.15	
2025-01-16 09:06:58.65	4.85	9.10	
2025-01-16 09:06:59.67	4.68	9.05	
2025-01-16 09:07:00.68	4.52	9.00	
2025-01-16 09:07:01.70	4.35	8.95	
2025-01-16 09:07:02.71	4.19	8.90	
2025-01-16 09:07:03.73	4.03	8.85	
2025-01-16 09:07:04.74	3.87	8.79	
2025-01-16 09:07:05.76	3.70	8.74	
2025-01-16 09:07:06.78	3.54	8.69	
2025-01-16 09:07:07.79	3.38	8.64	
2025-01-16 09:07:08.81	3.22	8.59	
2025-01-16 09:07:09.82	3.06	8.54	
2025-01-16 09:07:10.84	2.90	8.48	
2025-01-16 09:07:11.85	2.75	8.43	
2025-01-16 09:07:12.87	2.59	8.38	
2025-01-16 09:07:13.88	2.43	8.33	
2025-01-16 09:07:14.90	2.28	8.28	
2025-01-16 09:07:15.92	2.12	8.22	
2025-01-16 09:07:16.93	1.97	8.17	
2025-01-16 09:07:17.95	1.81	8.12	
2025-01-16 09:07:18.96	1.66	8.07	
2025-01-16 09:07:19.98	1.51	8.01	
2025-01-16 09:07:20.99	1.35	7.96	
2025-01-16 09:07:22.01	1.20	7.91	
2025-01-16 09:07:23.02	1.05	7.86	
2025-01-16 09:07:24.04	0.90	7.80	
2025-01-16 09:07:25.06	0.75	7.75	
2025-01-16 09:07:26.07	0.60	7.70	
2025-01-16 09:07:27.09	0.45	7.64	
2025-01-16 09:07:28.10	0.31	7.59	
2025-01-16 09:07:29.12	0.16	7.54	
2025-01-16 09:07:30.13	0.01	7.49	
2025-01-16 09:07:31.15	359.86	7.43	
2025-01-16 09:07:32.16	359.72	7.38	
2025-01-16 09:07:33.18	359.57	7.33	
2025-01-16 09:07:34.20	359.43	7.27	
2025-01-16 09:07:35.21	359.29	7.22	
2025-01-16 09:07:36.23	359.14	7.17	
2025-01-16 09:07:37.24	359.00	7.11	
2025-01-16 09:07:38.26	358.86	7.06	
2025-01-16 09:07:39.27	358.72	7.01	
2025-01-16 09:07:40.29	358.57	6.95	
2025-01-16 09:07:41.30	358.44	6.90	
2025-01-16 09:07:42.32	358.29	6.85	
2025-01-16 09:07:43.33	358.16	6.79	
2025-01-16 09:07:44.35	358.02	6.74	
2025-01-16 09:07:45.37	357.88	6.69	
2025-01-16 09:07:46.38	357.74	6.63	
2025-01-16 09:07:47.40	357.60	6.58	
2025-01-16 09:07:48.41	357.47	6.52	
2025-01-16 09:07:49.43	357.33	6.47	
2025-01-16 09:07:50.44	357.20	6.42	
2025-01-16 09:07:51.46	357.06	6.36	
2025-01-16 09:07:52.47	356.93	6.31	
2025-01-16 09:07:53.49	356.79	6.26	
2025-01-16 09:07:54.51	356.66	6.20	
2025-01-16 09:07:55.52	356.53	6.15	
2025-01-16 09:07:56.54	356.40	6.09	
2025-01-16 09:07:57.55	356.26	6.04	
2025-01-16 09:07:58.57	356.13	5.99	
2025-01-16 09:07:59.58	356.00	5.93	
2025-01-16 09:08:00.60	355.87	5.88	
2025-01-16 09:08:01.61	355.74	5.83	
2025-01-16 09:08:02.63	355.61	5.77	
2025-01-16 09:08:03.65	355.49	5.72	
2025-01-16 09:08:04.66	355.36	5.66	
2025-01-16 09:08:05.68	355.23	5.61	
2025-01-16 09:08:06.69	355.11	5.56	
2025-01-16 09:08:07.71	354.98	5.50	
2025-01-16 09:08:08.72	354.85	5.45	
2025-01-16 09:08:09.74	354.73	5.40	
2025-01-16 09:08:10.75	354.60	5.34	
2025-01-16 09:08:11.77	354.48	5.29	
2025-01-16 09:08:12.79	354.36	5.23	
2025-01-16 09:08:13.80	354.23	5.18	
2025-01-16 09:08:14.82	354.11	5.13	
2025-01-16 09:08:15.83	353.99	5.07	
2025-01-16 09:08:16.85	353.87	5.02	
2025-01-16 09:08:17.86	353.75	4.97	
2025-01-16 09:08:18.88	353.62	4.91	
2025-01-16 09:08:19.89	353.51	4.86	
2025-01-16 09:08:20.91	353.39	4.80	
2025-01-16 09:08:21.93	353.27	4.75	
2025-01-16 09:08:22.94	353.15	4.70	
2025-01-16 09:08:23.96	353.03	4.64	
2025-01-16 09:08:24.97	352.91	4.59	
2025-01-16 09:08:25.99	352.79	4.53	
2025-01-16 09:08:27.00	352.68	4.48	
2025-01-16 09:08:28.02	352.56	4.43	
2025-01-16 09:08:29.03	352.45	4.37	
2025-01-16 09:08:30.05	352.33	4.32	
2025-01-16 09:08:31.07	352.22	4.27	
2025-01-16 09:08:32.08	352.10	4.21	
2025-01-16 09:08:33.10	351.99	4.16	
2025-01-16 09:08:34.11	351.87	4.11	
2025-01-16 09:08:35.13	351.76	4.05	
2025-01-16 09:08:36.14	351.65	4.00	

#Closed at: 2025-01-16 09:08:36