passes_logs/2025/01/16/SPB_Silybum_02/SPB_Silybum_02__20250116_013434_SUOMI_NPP_rec.log

#Pass ID: 20250116_013434_SUOMI NPP
#Satellite: SUOMI NPP
#Configuration: NPP
#Start time: 2025-01-16 01:34:34

#Version: 2.0.20230423
#Station: SPB_Silybum_02
#Location: 30.233357 lon 59.946436 lat
#TLE: 1 37849U 11061A   25015.13132341  .00000162  00000+0  97654-4 0  9994
#TLE: 2 37849  98.7446 316.1182 0001675  40.9055 319.2247 14.19538225684933

#Time	Az	El	Level	Level2	SNR	BER	Gain	Gain2
2025-01-16 01:34:36.32	14.90	4.14	
2025-01-16 01:34:37.74	14.83	4.24	
2025-01-16 01:34:39.16	14.76	4.33	
2025-01-16 01:34:40.58	14.69	4.42	
2025-01-16 01:34:42.00	14.62	4.51	
2025-01-16 01:34:43.42	14.54	4.61	
2025-01-16 01:34:44.84	14.47	4.70	
2025-01-16 01:34:46.26	14.40	4.79	
2025-01-16 01:34:47.68	14.32	4.89	
2025-01-16 01:34:49.10	14.25	4.98	
2025-01-16 01:34:50.52	14.18	5.08	
2025-01-16 01:34:51.95	14.10	5.17	
2025-01-16 01:34:53.37	14.02	5.27	
2025-01-16 01:34:54.79	13.95	5.36	
2025-01-16 01:34:56.21	13.87	5.46	
2025-01-16 01:34:57.63	13.79	5.56	
2025-01-16 01:34:59.05	13.72	5.65	
2025-01-16 01:35:00.47	13.64	5.75	
2025-01-16 01:35:01.89	13.56	5.85	
2025-01-16 01:35:03.31	13.48	5.95	
2025-01-16 01:35:04.73	13.40	6.04	
2025-01-16 01:35:06.15	13.32	6.14	
2025-01-16 01:35:07.58	13.24	6.24	
2025-01-16 01:35:09.00	13.16	6.34	
2025-01-16 01:35:10.42	13.07	6.44	
2025-01-16 01:35:11.84	12.99	6.54	
2025-01-16 01:35:13.26	12.91	6.64	
2025-01-16 01:35:14.68	12.82	6.74	
2025-01-16 01:35:16.10	12.74	6.84	
2025-01-16 01:35:17.52	12.65	6.94	
2025-01-16 01:35:18.94	12.57	7.04	
2025-01-16 01:35:20.36	12.48	7.14	
2025-01-16 01:35:21.78	12.39	7.24	
2025-01-16 01:35:23.21	12.30	7.34	
2025-01-16 01:35:24.63	12.21	7.45	
2025-01-16 01:35:26.05	12.12	7.55	
2025-01-16 01:35:27.47	12.03	7.65	
2025-01-16 01:35:28.89	11.94	7.76	
2025-01-16 01:35:30.31	11.85	7.86	
2025-01-16 01:35:31.73	11.76	7.96	
2025-01-16 01:35:33.15	11.67	8.07	
2025-01-16 01:35:34.57	11.57	8.17	
2025-01-16 01:35:35.99	11.48	8.28	
2025-01-16 01:35:37.41	11.38	8.38	
2025-01-16 01:35:38.84	11.29	8.49	
2025-01-16 01:35:40.26	11.19	8.60	
2025-01-16 01:35:41.68	11.09	8.70	
2025-01-16 01:35:43.10	11.00	8.81	
2025-01-16 01:35:44.52	10.90	8.92	
2025-01-16 01:35:45.94	10.80	9.03	
2025-01-16 01:35:47.36	10.70	9.13	
2025-01-16 01:35:48.78	10.60	9.24	
2025-01-16 01:35:50.20	10.50	9.35	
2025-01-16 01:35:51.62	10.39	9.46	
2025-01-16 01:35:53.04	10.29	9.57	
2025-01-16 01:35:54.47	10.18	9.68	
2025-01-16 01:35:55.89	10.08	9.79	
2025-01-16 01:35:57.31	9.97	9.90	
2025-01-16 01:35:58.73	9.87	10.01	
2025-01-16 01:36:00.15	9.76	10.12	
2025-01-16 01:36:01.57	9.65	10.24	
2025-01-16 01:36:02.99	9.54	10.35	
2025-01-16 01:36:04.41	9.43	10.46	
2025-01-16 01:36:05.83	9.32	10.58	
2025-01-16 01:36:07.25	9.21	10.69	
2025-01-16 01:36:08.67	9.09	10.80	
2025-01-16 01:36:10.10	8.98	10.92	
2025-01-16 01:36:11.52	8.86	11.03	
2025-01-16 01:36:12.94	8.75	11.15	
2025-01-16 01:36:14.36	8.63	11.26	
2025-01-16 01:36:15.78	8.51	11.38	
2025-01-16 01:36:17.20	8.40	11.50	
2025-01-16 01:36:18.62	8.28	11.61	
2025-01-16 01:36:20.04	8.15	11.73	
2025-01-16 01:36:21.46	8.03	11.85	
2025-01-16 01:36:22.88	7.91	11.97	
2025-01-16 01:36:24.30	7.79	12.09	
2025-01-16 01:36:25.73	7.66	12.21	
2025-01-16 01:36:27.15	7.53	12.33	
2025-01-16 01:36:28.57	7.41	12.45	
2025-01-16 01:36:29.99	7.28	12.57	
2025-01-16 01:36:31.41	7.15	12.69	
2025-01-16 01:36:32.83	7.02	12.81	
2025-01-16 01:36:34.25	6.89	12.93	
2025-01-16 01:36:35.67	6.76	13.05	
2025-01-16 01:36:37.09	6.62	13.18	
2025-01-16 01:36:38.51	6.49	13.30	
2025-01-16 01:36:39.93	6.35	13.42	
2025-01-16 01:36:41.36	6.21	13.55	
2025-01-16 01:36:42.78	6.07	13.67	
2025-01-16 01:36:44.20	5.93	13.80	
2025-01-16 01:36:45.62	5.79	13.92	
2025-01-16 01:36:47.04	5.65	14.05	
2025-01-16 01:36:48.46	5.51	14.18	
2025-01-16 01:36:49.88	5.36	14.30	
2025-01-16 01:36:51.30	5.22	14.43	
2025-01-16 01:36:52.72	5.07	14.56	
2025-01-16 01:36:54.14	4.92	14.69	
2025-01-16 01:36:55.56	4.77	14.82	
2025-01-16 01:36:56.99	4.62	14.95	
2025-01-16 01:36:58.41	4.47	15.08	
2025-01-16 01:36:59.83	4.31	15.21	
2025-01-16 01:37:01.25	4.16	15.34	
2025-01-16 01:37:02.67	4.00	15.47	
2025-01-16 01:37:04.09	3.84	15.60	
2025-01-16 01:37:05.51	3.68	15.73	
2025-01-16 01:37:06.93	3.52	15.87	
2025-01-16 01:37:08.35	3.36	16.00	
2025-01-16 01:37:09.77	3.19	16.13	
2025-01-16 01:37:11.19	3.03	16.27	
2025-01-16 01:37:12.62	2.86	16.41	
2025-01-16 01:37:14.04	2.69	16.54	
2025-01-16 01:37:15.46	2.52	16.68	
2025-01-16 01:37:16.88	2.35	16.81	
2025-01-16 01:37:18.30	2.18	16.95	
2025-01-16 01:37:19.72	2.00	17.09	
2025-01-16 01:37:21.14	1.82	17.22	
2025-01-16 01:37:22.56	1.65	17.36	
2025-01-16 01:37:23.98	1.46	17.50	
2025-01-16 01:37:25.40	1.28	17.64	
2025-01-16 01:37:26.82	1.10	17.78	
2025-01-16 01:37:28.24	0.91	17.92	
2025-01-16 01:37:29.67	0.73	18.06	
2025-01-16 01:37:31.09	0.54	18.20	
2025-01-16 01:37:32.51	0.35	18.35	
2025-01-16 01:37:33.93	0.15	18.49	
2025-01-16 01:37:35.35	359.96	18.63	
2025-01-16 01:37:36.77	359.76	18.77	
2025-01-16 01:37:38.19	359.56	18.92	
2025-01-16 01:37:39.61	359.36	19.06	
2025-01-16 01:37:41.03	359.16	19.21	
2025-01-16 01:37:42.45	358.96	19.35	
2025-01-16 01:37:43.88	358.75	19.50	
2025-01-16 01:37:45.30	358.54	19.64	
2025-01-16 01:37:46.72	358.33	19.79	
2025-01-16 01:37:48.14	358.12	19.94	
2025-01-16 01:37:49.56	357.90	20.08	
2025-01-16 01:37:50.98	357.69	20.23	
2025-01-16 01:37:52.40	357.47	20.38	
2025-01-16 01:37:53.82	357.25	20.53	
2025-01-16 01:37:55.24	357.03	20.68	
2025-01-16 01:37:56.66	356.80	20.83	
2025-01-16 01:37:58.08	356.57	20.98	
2025-01-16 01:37:59.51	356.34	21.13	
2025-01-16 01:38:00.93	356.11	21.28	
2025-01-16 01:38:02.35	355.87	21.43	
2025-01-16 01:38:03.77	355.64	21.58	
2025-01-16 01:38:05.19	355.40	21.73	
2025-01-16 01:38:06.61	355.16	21.88	
2025-01-16 01:38:08.03	354.91	22.04	
2025-01-16 01:38:09.45	354.67	22.19	
2025-01-16 01:38:10.87	354.42	22.34	
2025-01-16 01:38:12.29	354.17	22.50	
2025-01-16 01:38:13.71	353.91	22.65	
2025-01-16 01:38:15.13	353.66	22.80	
2025-01-16 01:38:16.56	353.40	22.96	
2025-01-16 01:38:17.98	353.13	23.11	
2025-01-16 01:38:19.40	352.87	23.27	
2025-01-16 01:38:20.82	352.60	23.42	
2025-01-16 01:38:22.24	352.33	23.58	
2025-01-16 01:38:23.66	352.06	23.74	
2025-01-16 01:38:25.08	351.78	23.89	
2025-01-16 01:38:26.50	351.51	24.05	
2025-01-16 01:38:27.92	351.23	24.20	
2025-01-16 01:38:29.34	350.94	24.36	
2025-01-16 01:38:30.76	350.66	24.52	
2025-01-16 01:38:32.19	350.36	24.68	
2025-01-16 01:38:33.61	350.07	24.83	
2025-01-16 01:38:35.03	349.78	24.99	
2025-01-16 01:38:36.45	349.48	25.15	
2025-01-16 01:38:37.87	349.18	25.30	
2025-01-16 01:38:39.29	348.87	25.46	
2025-01-16 01:38:40.71	348.56	25.62	
2025-01-16 01:38:42.13	348.25	25.78	
2025-01-16 01:38:43.55	347.94	25.93	
2025-01-16 01:38:44.97	347.62	26.09	
2025-01-16 01:38:46.39	347.30	26.25	
2025-01-16 01:38:47.82	346.98	26.41	
2025-01-16 01:38:49.24	346.65	26.56	
2025-01-16 01:38:50.66	346.32	26.72	
2025-01-16 01:38:52.08	345.98	26.88	
2025-01-16 01:38:53.50	345.65	27.03	
2025-01-16 01:38:54.92	345.31	27.19	
2025-01-16 01:38:56.34	344.96	27.35	
2025-01-16 01:38:57.76	344.62	27.50	
2025-01-16 01:38:59.18	344.27	27.66	
2025-01-16 01:39:00.60	343.91	27.81	
2025-01-16 01:39:02.02	343.56	27.97	
2025-01-16 01:39:03.45	343.19	28.12	
2025-01-16 01:39:04.87	342.83	28.28	
2025-01-16 01:39:06.29	342.46	28.43	
2025-01-16 01:39:07.71	342.09	28.58	
2025-01-16 01:39:09.13	341.71	28.74	
2025-01-16 01:39:10.55	341.33	28.89	
2025-01-16 01:39:11.97	340.95	29.04	
2025-01-16 01:39:13.39	340.57	29.19	
2025-01-16 01:39:14.81	340.18	29.34	
2025-01-16 01:39:16.23	339.78	29.49	
2025-01-16 01:39:17.65	339.38	29.64	
2025-01-16 01:39:19.08	338.98	29.79	
2025-01-16 01:39:20.50	338.58	29.93	
2025-01-16 01:39:21.92	338.17	30.08	
2025-01-16 01:39:23.34	337.76	30.23	
2025-01-16 01:39:24.76	337.34	30.37	
2025-01-16 01:39:26.18	336.92	30.51	
2025-01-16 01:39:27.60	336.50	30.66	
2025-01-16 01:39:29.02	336.07	30.80	
2025-01-16 01:39:30.44	335.64	30.94	
2025-01-16 01:39:31.86	335.20	31.08	
2025-01-16 01:39:33.28	334.77	31.21	
2025-01-16 01:39:34.71	334.32	31.35	
2025-01-16 01:39:36.13	333.87	31.49	
2025-01-16 01:39:37.55	333.42	31.62	
2025-01-16 01:39:38.97	332.97	31.75	
2025-01-16 01:39:40.39	332.51	31.88	
2025-01-16 01:39:41.81	332.05	32.01	
2025-01-16 01:39:43.23	331.59	32.14	
2025-01-16 01:39:44.65	331.12	32.27	
2025-01-16 01:39:46.07	330.65	32.39	
2025-01-16 01:39:47.49	330.17	32.51	
2025-01-16 01:39:48.91	329.69	32.63	
2025-01-16 01:39:50.34	329.21	32.75	
2025-01-16 01:39:51.76	328.72	32.87	
2025-01-16 01:39:53.18	328.23	32.99	
2025-01-16 01:39:54.60	327.74	33.10	
2025-01-16 01:39:56.02	327.24	33.21	
2025-01-16 01:39:57.44	326.74	33.32	
2025-01-16 01:39:58.86	326.23	33.43	
2025-01-16 01:40:00.28	325.73	33.53	
2025-01-16 01:40:01.70	325.22	33.64	
2025-01-16 01:40:03.12	324.70	33.74	
2025-01-16 01:40:04.54	324.19	33.83	
2025-01-16 01:40:05.97	323.66	33.93	
2025-01-16 01:40:07.39	323.14	34.02	
2025-01-16 01:40:08.81	322.61	34.12	
2025-01-16 01:40:10.23	322.09	34.20	
2025-01-16 01:40:11.65	321.55	34.29	
2025-01-16 01:40:13.07	321.02	34.37	
2025-01-16 01:40:14.49	320.48	34.45	
2025-01-16 01:40:15.91	319.94	34.53	
2025-01-16 01:40:17.33	319.40	34.61	
2025-01-16 01:40:18.75	318.85	34.68	
2025-01-16 01:40:20.17	318.31	34.75	
2025-01-16 01:40:21.60	317.75	34.82	
2025-01-16 01:40:23.02	317.20	34.88	
2025-01-16 01:40:24.44	316.65	34.94	
2025-01-16 01:40:25.86	316.09	35.00	
2025-01-16 01:40:27.28	315.53	35.06	
2025-01-16 01:40:28.70	314.97	35.11	
2025-01-16 01:40:30.12	314.41	35.16	
2025-01-16 01:40:31.54	313.85	35.20	
2025-01-16 01:40:32.96	313.28	35.25	
2025-01-16 01:40:34.38	312.71	35.29	
2025-01-16 01:40:35.80	312.15	35.32	
2025-01-16 01:40:37.23	311.57	35.36	
2025-01-16 01:40:38.65	311.00	35.39	
2025-01-16 01:40:40.07	310.43	35.41	
2025-01-16 01:40:41.49	309.86	35.44	
2025-01-16 01:40:42.91	309.29	35.46	
2025-01-16 01:40:44.33	308.71	35.48	
2025-01-16 01:40:45.75	308.14	35.49	
2025-01-16 01:40:47.17	307.56	35.50	
2025-01-16 01:40:48.59	306.99	35.51	
2025-01-16 01:40:50.01	306.41	35.51	
2025-01-16 01:40:51.43	305.84	35.51	
2025-01-16 01:40:52.86	305.26	35.51	
2025-01-16 01:40:54.28	304.68	35.51	
2025-01-16 01:40:55.70	304.11	35.50	
2025-01-16 01:40:57.12	303.53	35.48	
2025-01-16 01:40:58.54	302.96	35.47	
2025-01-16 01:40:59.96	302.38	35.45	
2025-01-16 01:41:01.38	301.81	35.43	
2025-01-16 01:41:02.80	301.24	35.40	
2025-01-16 01:41:04.22	300.67	35.37	
2025-01-16 01:41:05.64	300.10	35.34	
2025-01-16 01:41:07.06	299.53	35.31	
2025-01-16 01:41:08.49	298.96	35.27	
2025-01-16 01:41:09.91	298.39	35.23	
2025-01-16 01:41:11.33	297.82	35.18	
2025-01-16 01:41:12.75	297.26	35.14	
2025-01-16 01:41:14.17	296.70	35.09	
2025-01-16 01:41:15.59	296.14	35.03	
2025-01-16 01:41:17.01	295.58	34.98	
2025-01-16 01:41:18.43	295.03	34.92	
2025-01-16 01:41:19.85	294.47	34.85	
2025-01-16 01:41:21.27	293.92	34.79	
2025-01-16 01:41:22.69	293.37	34.72	
2025-01-16 01:41:24.12	292.82	34.65	
2025-01-16 01:41:25.54	292.27	34.57	
2025-01-16 01:41:26.96	291.73	34.50	
2025-01-16 01:41:28.38	291.19	34.42	
2025-01-16 01:41:29.80	290.66	34.34	
2025-01-16 01:41:31.22	290.12	34.25	
2025-01-16 01:41:32.64	289.59	34.16	
2025-01-16 01:41:34.06	289.06	34.07	
2025-01-16 01:41:35.48	288.54	33.98	
2025-01-16 01:41:36.90	288.01	33.89	
2025-01-16 01:41:38.32	287.49	33.79	
2025-01-16 01:41:39.75	286.97	33.69	
2025-01-16 01:41:41.17	286.46	33.59	
2025-01-16 01:41:42.59	285.95	33.48	
2025-01-16 01:41:44.01	285.44	33.38	
2025-01-16 01:41:45.43	284.94	33.27	
2025-01-16 01:41:46.85	284.44	33.16	
2025-01-16 01:41:48.27	283.94	33.05	
2025-01-16 01:41:49.69	283.45	32.93	
2025-01-16 01:41:51.11	282.96	32.81	
2025-01-16 01:41:52.53	282.48	32.70	
2025-01-16 01:41:53.95	281.99	32.58	
2025-01-16 01:41:55.37	281.51	32.45	
2025-01-16 01:41:56.79	281.04	32.33	
2025-01-16 01:41:58.21	280.57	32.20	
2025-01-16 01:41:59.63	280.10	32.08	
2025-01-16 01:42:01.06	279.63	31.95	
2025-01-16 01:42:02.48	279.17	31.82	
2025-01-16 01:42:03.90	278.72	31.68	
2025-01-16 01:42:05.32	278.26	31.55	
2025-01-16 01:42:06.74	277.81	31.42	
2025-01-16 01:42:08.16	277.37	31.28	
2025-01-16 01:42:09.58	276.93	31.14	
2025-01-16 01:42:11.00	276.49	31.00	
2025-01-16 01:42:12.42	276.05	30.86	
2025-01-16 01:42:13.84	275.62	30.72	
2025-01-16 01:42:15.26	275.20	30.58	
2025-01-16 01:42:16.69	274.77	30.44	
2025-01-16 01:42:18.11	274.35	30.29	
2025-01-16 01:42:19.53	273.94	30.15	
2025-01-16 01:42:20.95	273.52	30.00	
2025-01-16 01:42:22.37	273.12	29.85	
2025-01-16 01:42:23.79	272.71	29.71	
2025-01-16 01:42:25.21	272.31	29.56	
2025-01-16 01:42:26.63	271.91	29.41	
2025-01-16 01:42:28.05	271.52	29.26	
2025-01-16 01:42:29.47	271.13	29.11	
2025-01-16 01:42:30.89	270.75	28.96	
2025-01-16 01:42:32.32	270.36	28.80	
2025-01-16 01:42:33.74	269.98	28.65	
2025-01-16 01:42:35.16	269.61	28.50	
2025-01-16 01:42:36.58	269.24	28.34	
2025-01-16 01:42:38.00	268.87	28.19	
2025-01-16 01:42:39.42	268.51	28.03	
2025-01-16 01:42:40.84	268.14	27.88	
2025-01-16 01:42:42.26	267.79	27.72	
2025-01-16 01:42:43.68	267.43	27.57	
2025-01-16 01:42:45.10	267.08	27.41	
2025-01-16 01:42:46.52	266.74	27.25	
2025-01-16 01:42:47.95	266.39	27.10	
2025-01-16 01:42:49.37	266.05	26.94	
2025-01-16 01:42:50.79	265.71	26.78	
2025-01-16 01:42:52.21	265.38	26.62	
2025-01-16 01:42:53.63	265.05	26.47	
2025-01-16 01:42:55.06	264.72	26.31	
2025-01-16 01:42:56.48	264.40	26.15	
2025-01-16 01:42:57.90	264.08	25.99	
2025-01-16 01:42:59.32	263.76	25.83	
2025-01-16 01:43:00.74	263.45	25.68	
2025-01-16 01:43:02.17	263.14	25.52	
2025-01-16 01:43:03.59	262.83	25.36	
2025-01-16 01:43:05.01	262.52	25.20	
2025-01-16 01:43:06.43	262.22	25.04	
2025-01-16 01:43:07.85	261.92	24.89	
2025-01-16 01:43:09.27	261.63	24.73	
2025-01-16 01:43:10.69	261.34	24.57	
2025-01-16 01:43:12.11	261.05	24.41	
2025-01-16 01:43:13.53	260.76	24.26	
2025-01-16 01:43:14.95	260.48	24.10	
2025-01-16 01:43:16.37	260.20	23.94	
2025-01-16 01:43:17.80	259.92	23.79	
2025-01-16 01:43:19.22	259.64	23.63	
2025-01-16 01:43:20.64	259.37	23.47	
2025-01-16 01:43:22.06	259.10	23.32	
2025-01-16 01:43:23.48	258.83	23.16	
2025-01-16 01:43:24.90	258.57	23.01	
2025-01-16 01:43:26.32	258.31	22.85	
2025-01-16 01:43:27.74	258.05	22.70	
2025-01-16 01:43:29.16	257.79	22.54	
2025-01-16 01:43:30.58	257.54	22.39	
2025-01-16 01:43:32.00	257.28	22.23	
2025-01-16 01:43:33.43	257.03	22.08	
2025-01-16 01:43:34.85	256.79	21.92	
2025-01-16 01:43:36.27	256.54	21.77	
2025-01-16 01:43:37.69	256.30	21.62	
2025-01-16 01:43:39.11	256.06	21.47	
2025-01-16 01:43:40.53	255.83	21.32	
2025-01-16 01:43:41.95	255.59	21.16	
2025-01-16 01:43:43.37	255.36	21.01	
2025-01-16 01:43:44.79	255.13	20.86	
2025-01-16 01:43:46.21	254.90	20.71	
2025-01-16 01:43:47.63	254.68	20.56	
2025-01-16 01:43:49.06	254.45	20.41	
2025-01-16 01:43:50.48	254.23	20.26	
2025-01-16 01:43:51.90	254.01	20.11	
2025-01-16 01:43:53.32	253.80	19.97	
2025-01-16 01:43:54.74	253.58	19.82	
2025-01-16 01:43:56.16	253.37	19.67	
2025-01-16 01:43:57.58	253.16	19.53	
2025-01-16 01:43:59.00	252.95	19.38	
2025-01-16 01:44:00.42	252.74	19.23	
2025-01-16 01:44:01.84	252.54	19.09	
2025-01-16 01:44:03.26	252.34	18.94	
2025-01-16 01:44:04.69	252.13	18.80	
2025-01-16 01:44:06.11	251.94	18.65	
2025-01-16 01:44:07.53	251.74	18.51	
2025-01-16 01:44:08.95	251.54	18.37	
2025-01-16 01:44:10.37	251.35	18.23	
2025-01-16 01:44:11.79	251.16	18.08	
2025-01-16 01:44:13.21	250.97	17.94	
2025-01-16 01:44:14.63	250.78	17.80	
2025-01-16 01:44:16.05	250.60	17.66	
2025-01-16 01:44:17.47	250.41	17.52	
2025-01-16 01:44:18.89	250.23	17.38	
2025-01-16 01:44:20.32	250.05	17.24	
2025-01-16 01:44:21.74	249.87	17.10	
2025-01-16 01:44:23.16	249.69	16.96	
2025-01-16 01:44:24.58	249.52	16.83	
2025-01-16 01:44:26.00	249.34	16.69	
2025-01-16 01:44:27.42	249.17	16.55	
2025-01-16 01:44:28.84	249.00	16.42	
2025-01-16 01:44:30.26	248.83	16.28	
2025-01-16 01:44:31.68	248.66	16.15	
2025-01-16 01:44:33.10	248.50	16.01	
2025-01-16 01:44:34.52	248.33	15.88	
2025-01-16 01:44:35.95	248.17	15.74	
2025-01-16 01:44:37.37	248.01	15.61	
2025-01-16 01:44:38.79	247.85	15.48	
2025-01-16 01:44:40.21	247.69	15.35	
2025-01-16 01:44:41.63	247.53	15.21	
2025-01-16 01:44:43.05	247.38	15.08	
2025-01-16 01:44:44.47	247.22	14.95	
2025-01-16 01:44:45.89	247.07	14.82	
2025-01-16 01:44:47.31	246.92	14.69	
2025-01-16 01:44:48.73	246.77	14.56	
2025-01-16 01:44:50.15	246.62	14.43	
2025-01-16 01:44:51.58	246.47	14.31	
2025-01-16 01:44:53.00	246.32	14.18	
2025-01-16 01:44:54.42	246.18	14.05	
2025-01-16 01:44:55.84	246.03	13.92	
2025-01-16 01:44:57.26	245.89	13.80	
2025-01-16 01:44:58.68	245.75	13.67	
2025-01-16 01:45:00.10	245.61	13.55	
2025-01-16 01:45:01.52	245.47	13.42	
2025-01-16 01:45:02.94	245.33	13.30	
2025-01-16 01:45:04.36	245.19	13.17	
2025-01-16 01:45:05.78	245.06	13.05	
2025-01-16 01:45:07.21	244.92	12.93	
2025-01-16 01:45:08.63	244.79	12.80	
2025-01-16 01:45:10.05	244.66	12.68	
2025-01-16 01:45:11.47	244.53	12.56	
2025-01-16 01:45:12.89	244.40	12.44	
2025-01-16 01:45:14.31	244.27	12.32	
2025-01-16 01:45:15.73	244.14	12.20	
2025-01-16 01:45:17.15	244.01	12.08	
2025-01-16 01:45:18.57	243.89	11.96	
2025-01-16 01:45:19.99	243.76	11.84	
2025-01-16 01:45:21.41	243.64	11.72	
2025-01-16 01:45:22.84	243.52	11.60	
2025-01-16 01:45:24.26	243.40	11.48	
2025-01-16 01:45:25.68	243.27	11.37	
2025-01-16 01:45:27.10	243.16	11.25	
2025-01-16 01:45:28.52	243.04	11.13	
2025-01-16 01:45:29.94	242.92	11.02	
2025-01-16 01:45:31.36	242.80	10.90	
2025-01-16 01:45:32.78	242.69	10.79	
2025-01-16 01:45:34.20	242.57	10.67	
2025-01-16 01:45:35.62	242.46	10.56	
2025-01-16 01:45:37.04	242.35	10.44	
2025-01-16 01:45:38.47	242.23	10.33	
2025-01-16 01:45:39.89	242.12	10.22	
2025-01-16 01:45:41.31	242.01	10.11	
2025-01-16 01:45:42.73	241.90	9.99	
2025-01-16 01:45:44.15	241.79	9.88	
2025-01-16 01:45:45.57	241.69	9.77	
2025-01-16 01:45:46.99	241.58	9.66	
2025-01-16 01:45:48.41	241.47	9.55	
2025-01-16 01:45:49.83	241.37	9.44	
2025-01-16 01:45:51.25	241.26	9.33	
2025-01-16 01:45:52.67	241.16	9.22	
2025-01-16 01:45:54.10	241.06	9.11	
2025-01-16 01:45:55.52	240.95	9.00	
2025-01-16 01:45:56.94	240.85	8.89	
2025-01-16 01:45:58.36	240.75	8.78	
2025-01-16 01:45:59.78	240.65	8.68	
2025-01-16 01:46:01.22	240.55	8.57	
2025-01-16 01:46:02.64	240.46	8.46	
2025-01-16 01:46:04.06	240.36	8.36	
2025-01-16 01:46:05.48	240.26	8.25	
2025-01-16 01:46:06.90	240.17	8.14	
2025-01-16 01:46:08.32	240.07	8.04	
2025-01-16 01:46:09.74	239.98	7.93	
2025-01-16 01:46:11.16	239.88	7.83	
2025-01-16 01:46:12.58	239.79	7.73	
2025-01-16 01:46:14.00	239.70	7.62	
2025-01-16 01:46:15.42	239.61	7.52	
2025-01-16 01:46:16.85	239.51	7.41	
2025-01-16 01:46:18.27	239.42	7.31	
2025-01-16 01:46:19.69	239.33	7.21	
2025-01-16 01:46:21.11	239.24	7.11	
2025-01-16 01:46:22.53	239.16	7.01	
2025-01-16 01:46:23.95	239.07	6.90	
2025-01-16 01:46:25.37	238.98	6.80	
2025-01-16 01:46:26.79	238.89	6.70	
2025-01-16 01:46:28.21	238.81	6.60	
2025-01-16 01:46:29.63	238.72	6.50	
2025-01-16 01:46:31.05	238.64	6.40	
2025-01-16 01:46:32.48	238.55	6.30	
2025-01-16 01:46:33.90	238.47	6.20	
2025-01-16 01:46:35.32	238.39	6.10	
2025-01-16 01:46:36.74	238.31	6.01	
2025-01-16 01:46:38.16	238.22	5.91	
2025-01-16 01:46:39.58	238.14	5.81	
2025-01-16 01:46:41.00	238.06	5.71	
2025-01-16 01:46:42.42	237.98	5.61	
2025-01-16 01:46:43.84	237.90	5.52	
2025-01-16 01:46:45.26	237.82	5.42	
2025-01-16 01:46:46.68	237.75	5.33	
2025-01-16 01:46:48.11	237.67	5.23	
2025-01-16 01:46:49.53	237.59	5.13	
2025-01-16 01:46:50.95	237.51	5.04	
2025-01-16 01:46:52.37	237.44	4.94	
2025-01-16 01:46:53.79	237.36	4.85	
2025-01-16 01:46:55.21	237.29	4.75	
2025-01-16 01:46:56.63	237.21	4.66	
2025-01-16 01:46:58.05	237.14	4.56	
2025-01-16 01:46:59.47	237.06	4.47	
2025-01-16 01:47:00.89	236.99	4.38	
2025-01-16 01:47:02.31	236.92	4.28	
2025-01-16 01:47:03.74	236.84	4.19	
2025-01-16 01:47:05.16	236.77	4.10	
2025-01-16 01:47:06.58	236.70	4.01	

#Closed at: 2025-01-16 01:47:06