passes_logs/2025/01/16/SPB_Silybum_02/SPB_Silybum_02__20250116_112754_SUOMI_NPP_rec.log

#Pass ID: 20250116_112754_SUOMI NPP
#Satellite: SUOMI NPP
#Configuration: NPP
#Start time: 2025-01-16 11:27:53

#Version: 2.0.20230423
#Station: SPB_Silybum_02
#Location: 30.233357 lon 59.946436 lat
#TLE: 1 37849U 11061A   25015.83617422  .00000154  00000+0  93894-4 0  9992
#TLE: 2 37849  98.7447 316.8141 0001652  39.8884 320.2413 14.19538521685036

#Time	Az	El	Level	Level2	SNR	BER	Gain	Gain2
2025-01-16 11:27:55.33	194.78	4.04	
2025-01-16 11:27:56.75	194.86	4.13	
2025-01-16 11:27:58.17	194.94	4.22	
2025-01-16 11:27:59.59	195.03	4.31	
2025-01-16 11:28:01.01	195.11	4.40	
2025-01-16 11:28:02.43	195.19	4.49	
2025-01-16 11:28:03.85	195.28	4.59	
2025-01-16 11:28:05.27	195.36	4.68	
2025-01-16 11:28:06.69	195.45	4.77	
2025-01-16 11:28:08.11	195.54	4.86	
2025-01-16 11:28:09.53	195.62	4.96	
2025-01-16 11:28:10.95	195.71	5.05	
2025-01-16 11:28:12.38	195.80	5.14	
2025-01-16 11:28:13.80	195.89	5.24	
2025-01-16 11:28:15.22	195.98	5.33	
2025-01-16 11:28:16.64	196.07	5.43	
2025-01-16 11:28:18.06	196.16	5.52	
2025-01-16 11:28:19.48	196.25	5.62	
2025-01-16 11:28:20.90	196.34	5.71	
2025-01-16 11:28:22.32	196.43	5.81	
2025-01-16 11:28:23.74	196.52	5.90	
2025-01-16 11:28:25.16	196.62	6.00	
2025-01-16 11:28:26.58	196.71	6.10	
2025-01-16 11:28:28.00	196.81	6.19	
2025-01-16 11:28:29.43	196.90	6.29	
2025-01-16 11:28:30.85	197.00	6.39	
2025-01-16 11:28:32.27	197.09	6.48	
2025-01-16 11:28:33.69	197.19	6.58	
2025-01-16 11:28:35.11	197.29	6.68	
2025-01-16 11:28:36.53	197.38	6.78	
2025-01-16 11:28:37.95	197.48	6.88	
2025-01-16 11:28:39.37	197.58	6.98	
2025-01-16 11:28:40.79	197.68	7.08	
2025-01-16 11:28:42.21	197.78	7.18	
2025-01-16 11:28:43.63	197.88	7.28	
2025-01-16 11:28:45.06	197.99	7.38	
2025-01-16 11:28:46.48	198.09	7.48	
2025-01-16 11:28:47.90	198.19	7.58	
2025-01-16 11:28:49.32	198.30	7.68	
2025-01-16 11:28:50.74	198.40	7.78	
2025-01-16 11:28:52.16	198.51	7.89	
2025-01-16 11:28:53.58	198.61	7.99	
2025-01-16 11:28:55.00	198.72	8.09	
2025-01-16 11:28:56.42	198.83	8.19	
2025-01-16 11:28:57.84	198.93	8.30	
2025-01-16 11:28:59.26	199.04	8.40	
2025-01-16 11:29:00.68	199.15	8.50	
2025-01-16 11:29:02.11	199.26	8.61	
2025-01-16 11:29:03.53	199.37	8.71	
2025-01-16 11:29:04.95	199.49	8.82	
2025-01-16 11:29:06.37	199.60	8.93	
2025-01-16 11:29:07.79	199.71	9.03	
2025-01-16 11:29:09.21	199.83	9.14	
2025-01-16 11:29:10.63	199.94	9.24	
2025-01-16 11:29:12.05	200.06	9.35	
2025-01-16 11:29:13.47	200.17	9.46	
2025-01-16 11:29:14.89	200.29	9.57	
2025-01-16 11:29:16.31	200.41	9.67	
2025-01-16 11:29:17.74	200.53	9.78	
2025-01-16 11:29:19.16	200.65	9.89	
2025-01-16 11:29:20.58	200.77	10.00	
2025-01-16 11:29:22.00	200.89	10.11	
2025-01-16 11:29:23.42	201.02	10.22	
2025-01-16 11:29:24.84	201.14	10.33	
2025-01-16 11:29:26.26	201.26	10.44	
2025-01-16 11:29:27.68	201.39	10.55	
2025-01-16 11:29:29.10	201.51	10.66	
2025-01-16 11:29:30.52	201.64	10.78	
2025-01-16 11:29:31.94	201.77	10.89	
2025-01-16 11:29:33.36	201.90	11.00	
2025-01-16 11:29:34.79	202.03	11.11	
2025-01-16 11:29:36.21	202.16	11.23	
2025-01-16 11:29:37.63	202.29	11.34	
2025-01-16 11:29:39.05	202.43	11.46	
2025-01-16 11:29:40.47	202.56	11.57	
2025-01-16 11:29:41.89	202.69	11.69	
2025-01-16 11:29:43.31	202.83	11.80	
2025-01-16 11:29:44.73	202.97	11.92	
2025-01-16 11:29:46.15	203.11	12.03	
2025-01-16 11:29:47.57	203.24	12.15	
2025-01-16 11:29:48.99	203.38	12.27	
2025-01-16 11:29:50.41	203.53	12.38	
2025-01-16 11:29:51.84	203.67	12.50	
2025-01-16 11:29:53.26	203.81	12.62	
2025-01-16 11:29:54.68	203.96	12.74	
2025-01-16 11:29:56.10	204.10	12.86	
2025-01-16 11:29:57.52	204.25	12.98	
2025-01-16 11:29:58.94	204.40	13.10	
2025-01-16 11:30:00.36	204.55	13.22	
2025-01-16 11:30:01.78	204.70	13.34	
2025-01-16 11:30:03.20	204.85	13.46	
2025-01-16 11:30:04.62	205.00	13.58	
2025-01-16 11:30:06.04	205.15	13.70	
2025-01-16 11:30:07.47	205.31	13.83	
2025-01-16 11:30:08.89	205.47	13.95	
2025-01-16 11:30:10.31	205.62	14.07	
2025-01-16 11:30:11.73	205.78	14.20	
2025-01-16 11:30:13.15	205.94	14.32	
2025-01-16 11:30:14.57	206.10	14.45	
2025-01-16 11:30:15.99	206.27	14.57	
2025-01-16 11:30:17.41	206.43	14.70	
2025-01-16 11:30:18.83	206.60	14.82	
2025-01-16 11:30:20.25	206.76	14.95	
2025-01-16 11:30:21.67	206.93	15.08	
2025-01-16 11:30:23.09	207.10	15.20	
2025-01-16 11:30:24.52	207.27	15.33	
2025-01-16 11:30:25.94	207.45	15.46	
2025-01-16 11:30:27.36	207.62	15.59	
2025-01-16 11:30:28.78	207.80	15.72	
2025-01-16 11:30:30.20	207.97	15.85	
2025-01-16 11:30:31.62	208.15	15.98	
2025-01-16 11:30:33.04	208.33	16.11	
2025-01-16 11:30:34.46	208.51	16.24	
2025-01-16 11:30:35.88	208.69	16.37	
2025-01-16 11:30:37.30	208.88	16.50	
2025-01-16 11:30:38.72	209.06	16.63	
2025-01-16 11:30:40.14	209.25	16.77	
2025-01-16 11:30:41.57	209.44	16.90	
2025-01-16 11:30:42.99	209.63	17.03	
2025-01-16 11:30:44.41	209.83	17.17	
2025-01-16 11:30:45.83	210.02	17.30	
2025-01-16 11:30:47.25	210.21	17.44	
2025-01-16 11:30:48.67	210.41	17.57	
2025-01-16 11:30:50.09	210.61	17.71	
2025-01-16 11:30:51.51	210.81	17.84	
2025-01-16 11:30:52.93	211.01	17.98	
2025-01-16 11:30:54.35	211.22	18.12	
2025-01-16 11:30:55.77	211.43	18.25	
2025-01-16 11:30:57.20	211.63	18.39	
2025-01-16 11:30:58.62	211.84	18.53	
2025-01-16 11:31:00.04	212.06	18.67	
2025-01-16 11:31:01.46	212.27	18.81	
2025-01-16 11:31:02.88	212.49	18.95	
2025-01-16 11:31:04.30	212.70	19.09	
2025-01-16 11:31:05.72	212.92	19.23	
2025-01-16 11:31:07.14	213.14	19.37	
2025-01-16 11:31:08.56	213.37	19.51	
2025-01-16 11:31:09.98	213.59	19.65	
2025-01-16 11:31:11.40	213.82	19.79	
2025-01-16 11:31:12.82	214.05	19.93	
2025-01-16 11:31:14.25	214.28	20.07	
2025-01-16 11:31:15.67	214.52	20.22	
2025-01-16 11:31:17.09	214.75	20.36	
2025-01-16 11:31:18.51	214.99	20.50	
2025-01-16 11:31:19.93	215.23	20.65	
2025-01-16 11:31:21.35	215.47	20.79	
2025-01-16 11:31:22.77	215.72	20.93	
2025-01-16 11:31:24.19	215.96	21.08	
2025-01-16 11:31:25.61	216.21	21.22	
2025-01-16 11:31:27.03	216.46	21.37	
2025-01-16 11:31:28.45	216.72	21.51	
2025-01-16 11:31:29.87	216.97	21.66	
2025-01-16 11:31:31.30	217.23	21.81	
2025-01-16 11:31:32.72	217.49	21.95	
2025-01-16 11:31:34.14	217.76	22.10	
2025-01-16 11:31:35.56	218.02	22.25	
2025-01-16 11:31:36.98	218.29	22.39	
2025-01-16 11:31:38.40	218.56	22.54	
2025-01-16 11:31:39.82	218.83	22.69	
2025-01-16 11:31:41.24	219.11	22.83	
2025-01-16 11:31:42.66	219.38	22.98	
2025-01-16 11:31:44.08	219.67	23.13	
2025-01-16 11:31:45.50	219.95	23.28	
2025-01-16 11:31:46.93	220.24	23.43	
2025-01-16 11:31:48.35	220.52	23.58	
2025-01-16 11:31:49.77	220.82	23.72	
2025-01-16 11:31:51.19	221.11	23.87	
2025-01-16 11:31:52.61	221.41	24.02	
2025-01-16 11:31:54.03	221.70	24.17	
2025-01-16 11:31:55.45	222.01	24.32	
2025-01-16 11:31:56.87	222.31	24.47	
2025-01-16 11:31:58.29	222.62	24.61	
2025-01-16 11:31:59.71	222.93	24.76	
2025-01-16 11:32:01.13	223.24	24.91	
2025-01-16 11:32:02.55	223.56	25.06	
2025-01-16 11:32:03.98	223.88	25.21	
2025-01-16 11:32:05.40	224.20	25.36	
2025-01-16 11:32:06.82	224.53	25.51	
2025-01-16 11:32:08.24	224.86	25.65	
2025-01-16 11:32:09.66	225.19	25.80	
2025-01-16 11:32:11.08	225.52	25.95	
2025-01-16 11:32:12.50	225.86	26.10	
2025-01-16 11:32:13.92	226.20	26.24	
2025-01-16 11:32:15.34	226.54	26.39	
2025-01-16 11:32:16.76	226.89	26.54	
2025-01-16 11:32:18.18	227.24	26.68	
2025-01-16 11:32:19.61	227.59	26.83	
2025-01-16 11:32:21.03	227.95	26.98	
2025-01-16 11:32:22.45	228.31	27.12	
2025-01-16 11:32:23.87	228.67	27.27	
2025-01-16 11:32:25.29	229.03	27.41	
2025-01-16 11:32:26.71	229.40	27.56	
2025-01-16 11:32:28.13	229.78	27.70	
2025-01-16 11:32:29.55	230.15	27.84	
2025-01-16 11:32:30.97	230.53	27.98	
2025-01-16 11:32:32.39	230.91	28.13	
2025-01-16 11:32:33.81	231.30	28.27	
2025-01-16 11:32:35.23	231.68	28.41	
2025-01-16 11:32:36.66	232.08	28.55	
2025-01-16 11:32:38.08	232.47	28.69	
2025-01-16 11:32:39.50	232.87	28.82	
2025-01-16 11:32:40.92	233.28	28.96	
2025-01-16 11:32:42.34	233.68	29.10	
2025-01-16 11:32:43.76	234.09	29.23	
2025-01-16 11:32:45.18	234.50	29.37	
2025-01-16 11:32:46.60	234.92	29.50	
2025-01-16 11:32:48.02	235.34	29.64	
2025-01-16 11:32:49.44	235.76	29.77	
2025-01-16 11:32:50.86	236.18	29.90	
2025-01-16 11:32:52.28	236.61	30.03	
2025-01-16 11:32:53.71	237.05	30.16	
2025-01-16 11:32:55.13	237.48	30.28	
2025-01-16 11:32:56.55	237.92	30.41	
2025-01-16 11:32:57.97	238.36	30.53	
2025-01-16 11:32:59.39	238.81	30.66	
2025-01-16 11:33:00.81	239.26	30.78	
2025-01-16 11:33:02.23	239.71	30.90	
2025-01-16 11:33:03.65	240.17	31.02	
2025-01-16 11:33:05.07	240.63	31.14	
2025-01-16 11:33:06.49	241.09	31.25	
2025-01-16 11:33:07.91	241.55	31.37	
2025-01-16 11:33:09.34	242.02	31.48	
2025-01-16 11:33:10.76	242.50	31.59	
2025-01-16 11:33:12.18	242.97	31.70	
2025-01-16 11:33:13.60	243.45	31.81	
2025-01-16 11:33:15.02	243.93	31.92	
2025-01-16 11:33:16.44	244.42	32.02	
2025-01-16 11:33:17.86	244.90	32.12	
2025-01-16 11:33:19.28	245.39	32.22	
2025-01-16 11:33:20.70	245.89	32.32	
2025-01-16 11:33:22.12	246.38	32.42	
2025-01-16 11:33:23.54	246.88	32.51	
2025-01-16 11:33:24.96	247.38	32.60	
2025-01-16 11:33:26.39	247.89	32.69	
2025-01-16 11:33:27.81	248.40	32.78	
2025-01-16 11:33:29.23	248.91	32.87	
2025-01-16 11:33:30.65	249.42	32.95	
2025-01-16 11:33:32.07	249.94	33.03	
2025-01-16 11:33:33.49	250.45	33.11	
2025-01-16 11:33:34.91	250.97	33.19	
2025-01-16 11:33:36.33	251.49	33.26	
2025-01-16 11:33:37.75	252.02	33.33	
2025-01-16 11:33:39.17	252.55	33.40	
2025-01-16 11:33:40.59	253.08	33.47	
2025-01-16 11:33:42.01	253.61	33.53	
2025-01-16 11:33:43.44	254.14	33.59	
2025-01-16 11:33:44.86	254.68	33.65	
2025-01-16 11:33:46.28	255.22	33.71	
2025-01-16 11:33:47.70	255.75	33.76	
2025-01-16 11:33:49.12	256.29	33.81	
2025-01-16 11:33:50.54	256.84	33.86	
2025-01-16 11:33:51.96	257.38	33.91	
2025-01-16 11:33:53.38	257.92	33.95	
2025-01-16 11:33:54.80	258.47	33.99	
2025-01-16 11:33:56.22	259.02	34.03	
2025-01-16 11:33:57.64	259.57	34.06	
2025-01-16 11:33:59.07	260.12	34.09	
2025-01-16 11:34:00.50	260.67	34.12	
2025-01-16 11:34:01.92	261.23	34.15	
2025-01-16 11:34:03.34	261.78	34.17	
2025-01-16 11:34:04.76	262.33	34.19	
2025-01-16 11:34:06.19	262.89	34.21	
2025-01-16 11:34:07.61	263.44	34.22	
2025-01-16 11:34:09.03	264.00	34.23	
2025-01-16 11:34:10.45	264.55	34.24	
2025-01-16 11:34:11.87	265.11	34.25	
2025-01-16 11:34:13.29	265.66	34.25	
2025-01-16 11:34:14.71	266.22	34.25	
2025-01-16 11:34:16.13	266.77	34.24	
2025-01-16 11:34:17.55	267.33	34.24	
2025-01-16 11:34:18.97	267.88	34.23	
2025-01-16 11:34:20.39	268.44	34.22	
2025-01-16 11:34:21.81	268.99	34.20	
2025-01-16 11:34:23.24	269.55	34.18	
2025-01-16 11:34:24.66	270.10	34.16	
2025-01-16 11:34:26.08	270.65	34.14	
2025-01-16 11:34:27.50	271.20	34.11	
2025-01-16 11:34:28.92	271.75	34.08	
2025-01-16 11:34:30.34	272.30	34.05	
2025-01-16 11:34:31.76	272.85	34.01	
2025-01-16 11:34:33.18	273.39	33.97	
2025-01-16 11:34:34.60	273.94	33.93	
2025-01-16 11:34:36.02	274.48	33.89	
2025-01-16 11:34:37.44	275.02	33.84	
2025-01-16 11:34:38.86	275.56	33.79	
2025-01-16 11:34:40.29	276.11	33.74	
2025-01-16 11:34:41.71	276.64	33.68	
2025-01-16 11:34:43.13	277.18	33.63	
2025-01-16 11:34:44.55	277.71	33.57	
2025-01-16 11:34:45.97	278.24	33.50	
2025-01-16 11:34:47.39	278.77	33.44	
2025-01-16 11:34:48.81	279.30	33.37	
2025-01-16 11:34:50.23	279.82	33.30	
2025-01-16 11:34:51.65	280.35	33.23	
2025-01-16 11:34:53.07	280.87	33.15	
2025-01-16 11:34:54.49	281.38	33.08	
2025-01-16 11:34:55.91	281.90	33.00	
2025-01-16 11:34:57.34	282.42	32.92	
2025-01-16 11:34:58.76	282.93	32.83	
2025-01-16 11:35:00.18	283.43	32.74	
2025-01-16 11:35:01.60	283.94	32.66	
2025-01-16 11:35:03.02	284.44	32.57	
2025-01-16 11:35:04.44	284.94	32.47	
2025-01-16 11:35:05.86	285.44	32.38	
2025-01-16 11:35:07.28	285.93	32.28	
2025-01-16 11:35:08.70	286.42	32.18	
2025-01-16 11:35:10.12	286.91	32.08	
2025-01-16 11:35:11.54	287.39	31.98	
2025-01-16 11:35:12.97	287.88	31.87	
2025-01-16 11:35:14.39	288.35	31.77	
2025-01-16 11:35:15.81	288.83	31.66	
2025-01-16 11:35:17.23	289.30	31.55	
2025-01-16 11:35:18.65	289.77	31.44	
2025-01-16 11:35:20.07	290.24	31.33	
2025-01-16 11:35:21.49	290.70	31.21	
2025-01-16 11:35:22.91	291.16	31.09	
2025-01-16 11:35:24.33	291.61	30.98	
2025-01-16 11:35:25.75	292.07	30.86	
2025-01-16 11:35:27.17	292.52	30.74	
2025-01-16 11:35:28.59	292.96	30.62	
2025-01-16 11:35:30.02	293.41	30.49	
2025-01-16 11:35:31.44	293.85	30.37	
2025-01-16 11:35:32.86	294.28	30.24	
2025-01-16 11:35:34.28	294.72	30.11	
2025-01-16 11:35:35.70	295.15	29.99	
2025-01-16 11:35:37.12	295.57	29.86	
2025-01-16 11:35:38.54	295.99	29.73	
2025-01-16 11:35:39.96	296.41	29.60	
2025-01-16 11:35:41.38	296.83	29.46	
2025-01-16 11:35:42.80	297.24	29.33	
2025-01-16 11:35:44.22	297.65	29.20	
2025-01-16 11:35:45.65	298.06	29.06	
2025-01-16 11:35:47.07	298.46	28.92	
2025-01-16 11:35:48.49	298.86	28.79	
2025-01-16 11:35:49.91	299.26	28.65	
2025-01-16 11:35:51.33	299.65	28.51	
2025-01-16 11:35:52.75	300.04	28.37	
2025-01-16 11:35:54.17	300.42	28.23	
2025-01-16 11:35:55.59	300.80	28.09	
2025-01-16 11:35:57.01	301.18	27.95	
2025-01-16 11:35:58.43	301.56	27.81	
2025-01-16 11:35:59.85	301.93	27.67	
2025-01-16 11:36:01.27	302.30	27.52	
2025-01-16 11:36:02.70	302.67	27.38	
2025-01-16 11:36:04.12	303.03	27.24	
2025-01-16 11:36:05.54	303.39	27.09	
2025-01-16 11:36:06.96	303.75	26.95	
2025-01-16 11:36:08.38	304.10	26.80	
2025-01-16 11:36:09.80	304.45	26.66	
2025-01-16 11:36:11.22	304.80	26.51	
2025-01-16 11:36:12.64	305.14	26.37	
2025-01-16 11:36:14.06	305.48	26.22	
2025-01-16 11:36:15.48	305.82	26.07	
2025-01-16 11:36:16.90	306.15	25.93	
2025-01-16 11:36:18.32	306.49	25.78	
2025-01-16 11:36:19.75	306.82	25.63	
2025-01-16 11:36:21.17	307.14	25.49	
2025-01-16 11:36:22.59	307.47	25.34	
2025-01-16 11:36:24.01	307.78	25.19	
2025-01-16 11:36:25.43	308.10	25.04	
2025-01-16 11:36:26.85	308.42	24.90	
2025-01-16 11:36:28.27	308.73	24.75	
2025-01-16 11:36:29.69	309.03	24.60	
2025-01-16 11:36:31.11	309.34	24.46	
2025-01-16 11:36:32.53	309.64	24.31	
2025-01-16 11:36:33.95	309.94	24.16	
2025-01-16 11:36:35.38	310.24	24.01	
2025-01-16 11:36:36.80	310.54	23.86	
2025-01-16 11:36:38.22	310.83	23.72	
2025-01-16 11:36:39.64	311.12	23.57	
2025-01-16 11:36:41.06	311.40	23.42	
2025-01-16 11:36:42.48	311.69	23.28	
2025-01-16 11:36:43.90	311.97	23.13	
2025-01-16 11:36:45.32	312.25	22.98	
2025-01-16 11:36:46.74	312.52	22.84	
2025-01-16 11:36:48.16	312.80	22.69	
2025-01-16 11:36:49.58	313.07	22.54	
2025-01-16 11:36:51.00	313.34	22.40	
2025-01-16 11:36:52.43	313.60	22.25	
2025-01-16 11:36:53.85	313.87	22.11	
2025-01-16 11:36:55.27	314.13	21.96	
2025-01-16 11:36:56.69	314.39	21.82	
2025-01-16 11:36:58.11	314.64	21.67	
2025-01-16 11:36:59.53	314.90	21.53	
2025-01-16 11:37:00.95	315.15	21.38	
2025-01-16 11:37:02.37	315.40	21.24	
2025-01-16 11:37:03.79	315.65	21.10	
2025-01-16 11:37:05.21	315.89	20.95	
2025-01-16 11:37:06.63	316.13	20.81	
2025-01-16 11:37:08.05	316.38	20.67	
2025-01-16 11:37:09.48	316.62	20.52	
2025-01-16 11:37:10.90	316.85	20.38	
2025-01-16 11:37:12.32	317.09	20.24	
2025-01-16 11:37:13.74	317.32	20.10	
2025-01-16 11:37:15.16	317.55	19.96	
2025-01-16 11:37:16.58	317.78	19.82	
2025-01-16 11:37:18.00	318.00	19.68	
2025-01-16 11:37:19.42	318.23	19.54	
2025-01-16 11:37:20.84	318.45	19.40	
2025-01-16 11:37:22.26	318.67	19.26	
2025-01-16 11:37:23.68	318.89	19.12	
2025-01-16 11:37:25.11	319.11	18.98	
2025-01-16 11:37:26.53	319.32	18.84	
2025-01-16 11:37:27.95	319.53	18.71	
2025-01-16 11:37:29.37	319.74	18.57	
2025-01-16 11:37:30.79	319.95	18.43	
2025-01-16 11:37:32.21	320.16	18.30	
2025-01-16 11:37:33.63	320.36	18.16	
2025-01-16 11:37:35.05	320.57	18.02	
2025-01-16 11:37:36.47	320.77	17.89	
2025-01-16 11:37:37.89	320.97	17.75	
2025-01-16 11:37:39.31	321.17	17.62	
2025-01-16 11:37:40.73	321.36	17.49	
2025-01-16 11:37:42.16	321.56	17.35	
2025-01-16 11:37:43.58	321.75	17.22	
2025-01-16 11:37:45.00	321.95	17.09	
2025-01-16 11:37:46.42	322.14	16.95	
2025-01-16 11:37:47.84	322.32	16.82	
2025-01-16 11:37:49.26	322.51	16.69	
2025-01-16 11:37:50.68	322.70	16.56	
2025-01-16 11:37:52.10	322.88	16.43	
2025-01-16 11:37:53.52	323.06	16.30	
2025-01-16 11:37:54.94	323.24	16.17	
2025-01-16 11:37:56.36	323.42	16.04	
2025-01-16 11:37:57.79	323.60	15.91	
2025-01-16 11:37:59.21	323.78	15.78	
2025-01-16 11:38:00.63	323.95	15.66	
2025-01-16 11:38:02.05	324.12	15.53	
2025-01-16 11:38:03.47	324.30	15.40	
2025-01-16 11:38:04.89	324.47	15.27	
2025-01-16 11:38:06.31	324.64	15.15	
2025-01-16 11:38:07.73	324.80	15.02	
2025-01-16 11:38:09.15	324.97	14.90	
2025-01-16 11:38:10.57	325.14	14.77	
2025-01-16 11:38:11.99	325.30	14.65	
2025-01-16 11:38:13.41	325.46	14.52	
2025-01-16 11:38:14.84	325.62	14.40	
2025-01-16 11:38:16.26	325.78	14.28	
2025-01-16 11:38:17.68	325.94	14.15	
2025-01-16 11:38:19.10	326.10	14.03	
2025-01-16 11:38:20.52	326.26	13.91	
2025-01-16 11:38:21.94	326.41	13.79	
2025-01-16 11:38:23.36	326.56	13.67	
2025-01-16 11:38:24.78	326.72	13.55	
2025-01-16 11:38:26.20	326.87	13.43	
2025-01-16 11:38:27.62	327.02	13.31	
2025-01-16 11:38:29.04	327.17	13.19	
2025-01-16 11:38:30.46	327.32	13.07	
2025-01-16 11:38:31.89	327.46	12.95	
2025-01-16 11:38:33.31	327.61	12.83	
2025-01-16 11:38:34.73	327.75	12.71	
2025-01-16 11:38:36.15	327.90	12.60	
2025-01-16 11:38:37.57	328.04	12.48	
2025-01-16 11:38:38.99	328.18	12.36	
2025-01-16 11:38:40.41	328.32	12.25	
2025-01-16 11:38:41.83	328.46	12.13	
2025-01-16 11:38:43.25	328.60	12.02	
2025-01-16 11:38:44.67	328.73	11.90	
2025-01-16 11:38:46.09	328.87	11.79	
2025-01-16 11:38:47.52	329.01	11.67	
2025-01-16 11:38:48.94	329.14	11.56	
2025-01-16 11:38:50.36	329.27	11.45	
2025-01-16 11:38:51.78	329.41	11.33	
2025-01-16 11:38:53.20	329.54	11.22	
2025-01-16 11:38:54.62	329.67	11.11	
2025-01-16 11:38:56.04	329.80	11.00	
2025-01-16 11:38:57.46	329.92	10.89	
2025-01-16 11:38:58.88	330.05	10.78	
2025-01-16 11:39:00.30	330.18	10.66	
2025-01-16 11:39:01.72	330.30	10.55	
2025-01-16 11:39:03.14	330.43	10.44	
2025-01-16 11:39:04.57	330.55	10.33	
2025-01-16 11:39:05.99	330.68	10.23	
2025-01-16 11:39:07.41	330.80	10.12	
2025-01-16 11:39:08.83	330.92	10.01	
2025-01-16 11:39:10.25	331.04	9.90	
2025-01-16 11:39:11.67	331.16	9.79	
2025-01-16 11:39:13.09	331.28	9.69	
2025-01-16 11:39:14.51	331.40	9.58	
2025-01-16 11:39:15.93	331.51	9.47	
2025-01-16 11:39:17.35	331.63	9.37	
2025-01-16 11:39:18.77	331.74	9.26	
2025-01-16 11:39:20.19	331.86	9.16	
2025-01-16 11:39:21.62	331.97	9.05	
2025-01-16 11:39:23.04	332.09	8.95	
2025-01-16 11:39:24.46	332.20	8.84	
2025-01-16 11:39:25.88	332.31	8.74	
2025-01-16 11:39:27.30	332.42	8.63	
2025-01-16 11:39:28.72	332.53	8.53	
2025-01-16 11:39:30.14	332.64	8.43	
2025-01-16 11:39:31.56	332.75	8.33	
2025-01-16 11:39:32.98	332.86	8.22	
2025-01-16 11:39:34.40	332.97	8.12	
2025-01-16 11:39:35.82	333.07	8.02	
2025-01-16 11:39:37.25	333.18	7.92	
2025-01-16 11:39:38.67	333.28	7.82	
2025-01-16 11:39:40.09	333.39	7.72	
2025-01-16 11:39:41.51	333.49	7.62	
2025-01-16 11:39:42.93	333.60	7.52	
2025-01-16 11:39:44.35	333.70	7.42	
2025-01-16 11:39:45.77	333.80	7.32	
2025-01-16 11:39:47.19	333.90	7.22	
2025-01-16 11:39:48.61	334.00	7.12	
2025-01-16 11:39:50.03	334.10	7.02	
2025-01-16 11:39:51.45	334.20	6.92	
2025-01-16 11:39:52.87	334.30	6.83	
2025-01-16 11:39:54.30	334.40	6.73	
2025-01-16 11:39:55.72	334.50	6.63	
2025-01-16 11:39:57.14	334.59	6.53	
2025-01-16 11:39:58.56	334.69	6.44	
2025-01-16 11:39:59.98	334.79	6.34	
2025-01-16 11:40:01.40	334.88	6.24	
2025-01-16 11:40:02.82	334.98	6.15	
2025-01-16 11:40:04.24	335.07	6.05	
2025-01-16 11:40:05.66	335.16	5.96	
2025-01-16 11:40:07.08	335.26	5.86	
2025-01-16 11:40:08.50	335.35	5.77	
2025-01-16 11:40:09.92	335.44	5.67	
2025-01-16 11:40:11.35	335.53	5.58	
2025-01-16 11:40:12.77	335.62	5.49	
2025-01-16 11:40:14.19	335.71	5.39	
2025-01-16 11:40:15.61	335.80	5.30	
2025-01-16 11:40:17.03	335.89	5.21	
2025-01-16 11:40:18.45	335.98	5.11	
2025-01-16 11:40:19.87	336.07	5.02	
2025-01-16 11:40:21.29	336.15	4.93	
2025-01-16 11:40:22.71	336.24	4.84	
2025-01-16 11:40:24.13	336.33	4.75	
2025-01-16 11:40:25.55	336.41	4.66	
2025-01-16 11:40:26.98	336.50	4.56	
2025-01-16 11:40:28.40	336.59	4.47	
2025-01-16 11:40:29.82	336.67	4.38	
2025-01-16 11:40:31.24	336.75	4.29	
2025-01-16 11:40:32.66	336.84	4.20	
2025-01-16 11:40:34.08	336.92	4.11	
2025-01-16 11:40:35.50	337.00	4.02	

#Closed at: 2025-01-16 11:40:35