passes_logs/2025/01/16/SPB_Silybum_02/SPB_Silybum_02__20250116_023609_AQUA_rec.log

#Pass ID: 20250116_023609_AQUA
#Satellite: AQUA
#Configuration: AQUA
#Start time: 2025-01-16 02:36:10

#Version: 2.0.20230423
#Station: SPB_Silybum_02
#Location: 30.233357 lon 59.946436 lat
#TLE: 1 27424U 02022A   25015.14217918  .00001674  00000+0  35361-3 0  9999
#TLE: 2 27424  98.3589 331.8074 0001731 111.2907 305.4435 14.60682485207649

#Time	Az	El	Level	Level2	SNR	BER	Gain	Gain2
2025-01-16 02:36:12.16	11.78	4.20	
2025-01-16 02:36:13.38	11.70	4.28	
2025-01-16 02:36:14.60	11.62	4.36	
2025-01-16 02:36:15.82	11.55	4.44	
2025-01-16 02:36:17.04	11.47	4.53	
2025-01-16 02:36:18.25	11.39	4.61	
2025-01-16 02:36:19.47	11.31	4.69	
2025-01-16 02:36:20.69	11.23	4.77	
2025-01-16 02:36:21.91	11.15	4.86	
2025-01-16 02:36:23.12	11.07	4.94	
2025-01-16 02:36:24.34	10.99	5.02	
2025-01-16 02:36:25.56	10.91	5.11	
2025-01-16 02:36:26.78	10.82	5.19	
2025-01-16 02:36:28.00	10.74	5.27	
2025-01-16 02:36:29.21	10.66	5.36	
2025-01-16 02:36:30.43	10.57	5.44	
2025-01-16 02:36:31.65	10.49	5.53	
2025-01-16 02:36:32.87	10.40	5.61	
2025-01-16 02:36:34.09	10.32	5.70	
2025-01-16 02:36:35.30	10.23	5.78	
2025-01-16 02:36:36.52	10.15	5.87	
2025-01-16 02:36:37.74	10.06	5.95	
2025-01-16 02:36:38.96	9.97	6.04	
2025-01-16 02:36:40.18	9.88	6.13	
2025-01-16 02:36:41.39	9.79	6.21	
2025-01-16 02:36:42.61	9.70	6.30	
2025-01-16 02:36:43.83	9.61	6.39	
2025-01-16 02:36:45.05	9.52	6.48	
2025-01-16 02:36:46.27	9.43	6.56	
2025-01-16 02:36:47.48	9.34	6.65	
2025-01-16 02:36:48.70	9.24	6.74	
2025-01-16 02:36:49.92	9.15	6.83	
2025-01-16 02:36:51.14	9.06	6.92	
2025-01-16 02:36:52.35	8.96	7.01	
2025-01-16 02:36:53.57	8.87	7.10	
2025-01-16 02:36:54.79	8.77	7.19	
2025-01-16 02:36:56.01	8.67	7.28	
2025-01-16 02:36:57.23	8.58	7.37	
2025-01-16 02:36:58.44	8.48	7.46	
2025-01-16 02:36:59.66	8.38	7.55	
2025-01-16 02:37:00.88	8.28	7.64	
2025-01-16 02:37:02.10	8.18	7.73	
2025-01-16 02:37:03.32	8.08	7.82	
2025-01-16 02:37:04.53	7.98	7.91	
2025-01-16 02:37:05.75	7.87	8.01	
2025-01-16 02:37:06.97	7.77	8.10	
2025-01-16 02:37:08.19	7.67	8.19	
2025-01-16 02:37:09.41	7.56	8.28	
2025-01-16 02:37:10.62	7.46	8.38	
2025-01-16 02:37:11.84	7.35	8.47	
2025-01-16 02:37:13.06	7.24	8.57	
2025-01-16 02:37:14.28	7.13	8.66	
2025-01-16 02:37:15.50	7.02	8.75	
2025-01-16 02:37:16.71	6.92	8.85	
2025-01-16 02:37:17.93	6.81	8.94	
2025-01-16 02:37:19.15	6.69	9.04	
2025-01-16 02:37:20.37	6.58	9.14	
2025-01-16 02:37:21.58	6.47	9.23	
2025-01-16 02:37:22.80	6.36	9.33	
2025-01-16 02:37:24.02	6.24	9.42	
2025-01-16 02:37:25.24	6.13	9.52	
2025-01-16 02:37:26.46	6.01	9.62	
2025-01-16 02:37:27.67	5.89	9.72	
2025-01-16 02:37:28.89	5.78	9.81	
2025-01-16 02:37:30.11	5.66	9.91	
2025-01-16 02:37:31.33	5.54	10.01	
2025-01-16 02:37:32.55	5.42	10.11	
2025-01-16 02:37:33.76	5.29	10.21	
2025-01-16 02:37:34.98	5.17	10.31	
2025-01-16 02:37:36.20	5.05	10.41	
2025-01-16 02:37:37.42	4.92	10.51	
2025-01-16 02:37:38.64	4.80	10.61	
2025-01-16 02:37:39.85	4.67	10.71	
2025-01-16 02:37:41.07	4.55	10.81	
2025-01-16 02:37:42.29	4.42	10.91	
2025-01-16 02:37:43.51	4.29	11.02	
2025-01-16 02:37:44.73	4.16	11.12	
2025-01-16 02:37:45.94	4.03	11.22	
2025-01-16 02:37:47.16	3.89	11.32	
2025-01-16 02:37:48.38	3.76	11.43	
2025-01-16 02:37:49.60	3.63	11.53	
2025-01-16 02:37:50.81	3.49	11.63	
2025-01-16 02:37:52.03	3.35	11.74	
2025-01-16 02:37:53.25	3.22	11.84	
2025-01-16 02:37:54.47	3.08	11.95	
2025-01-16 02:37:55.69	2.94	12.05	
2025-01-16 02:37:56.90	2.80	12.16	
2025-01-16 02:37:58.12	2.66	12.26	
2025-01-16 02:37:59.34	2.51	12.37	
2025-01-16 02:38:00.56	2.37	12.48	
2025-01-16 02:38:01.78	2.22	12.58	
2025-01-16 02:38:02.99	2.08	12.69	
2025-01-16 02:38:04.21	1.93	12.80	
2025-01-16 02:38:05.43	1.78	12.91	
2025-01-16 02:38:06.65	1.63	13.02	
2025-01-16 02:38:07.87	1.48	13.12	
2025-01-16 02:38:09.08	1.32	13.23	
2025-01-16 02:38:10.30	1.17	13.34	
2025-01-16 02:38:11.52	1.02	13.45	
2025-01-16 02:38:12.74	0.86	13.56	
2025-01-16 02:38:13.96	0.70	13.67	
2025-01-16 02:38:15.17	0.54	13.78	
2025-01-16 02:38:16.39	0.38	13.89	
2025-01-16 02:38:17.61	0.22	14.01	
2025-01-16 02:38:18.83	0.06	14.12	
2025-01-16 02:38:20.04	359.89	14.23	
2025-01-16 02:38:21.26	359.73	14.34	
2025-01-16 02:38:22.48	359.56	14.46	
2025-01-16 02:38:23.70	359.39	14.57	
2025-01-16 02:38:24.92	359.22	14.68	
2025-01-16 02:38:26.13	359.05	14.80	
2025-01-16 02:38:27.35	358.88	14.91	
2025-01-16 02:38:28.57	358.70	15.02	
2025-01-16 02:38:29.79	358.53	15.14	
2025-01-16 02:38:31.01	358.35	15.26	
2025-01-16 02:38:32.22	358.17	15.37	
2025-01-16 02:38:33.44	357.99	15.49	
2025-01-16 02:38:34.66	357.81	15.60	
2025-01-16 02:38:35.88	357.63	15.72	
2025-01-16 02:38:37.10	357.44	15.84	
2025-01-16 02:38:38.31	357.26	15.95	
2025-01-16 02:38:39.53	357.07	16.07	
2025-01-16 02:38:40.75	356.88	16.19	
2025-01-16 02:38:41.97	356.69	16.31	
2025-01-16 02:38:43.19	356.49	16.43	
2025-01-16 02:38:44.40	356.30	16.54	
2025-01-16 02:38:45.62	356.10	16.66	
2025-01-16 02:38:46.84	355.90	16.78	
2025-01-16 02:38:48.06	355.70	16.90	
2025-01-16 02:38:49.27	355.50	17.02	
2025-01-16 02:38:50.49	355.30	17.14	
2025-01-16 02:38:51.71	355.09	17.26	
2025-01-16 02:38:52.93	354.89	17.38	
2025-01-16 02:38:54.15	354.68	17.51	
2025-01-16 02:38:55.36	354.47	17.63	
2025-01-16 02:38:56.58	354.26	17.75	
2025-01-16 02:38:57.80	354.04	17.87	
2025-01-16 02:38:59.02	353.83	17.99	
2025-01-16 02:39:00.24	353.61	18.12	
2025-01-16 02:39:01.45	353.39	18.24	
2025-01-16 02:39:02.67	353.17	18.36	
2025-01-16 02:39:03.89	352.94	18.48	
2025-01-16 02:39:05.11	352.72	18.61	
2025-01-16 02:39:06.33	352.49	18.73	
2025-01-16 02:39:07.54	352.26	18.86	
2025-01-16 02:39:08.76	352.03	18.98	
2025-01-16 02:39:09.98	351.80	19.10	
2025-01-16 02:39:11.20	351.56	19.23	
2025-01-16 02:39:12.42	351.32	19.35	
2025-01-16 02:39:13.63	351.09	19.48	
2025-01-16 02:39:14.85	350.84	19.60	
2025-01-16 02:39:16.07	350.60	19.73	
2025-01-16 02:39:17.29	350.35	19.85	
2025-01-16 02:39:18.51	350.10	19.98	
2025-01-16 02:39:19.72	349.85	20.11	
2025-01-16 02:39:20.94	349.60	20.23	
2025-01-16 02:39:22.16	349.35	20.36	
2025-01-16 02:39:23.38	349.09	20.48	
2025-01-16 02:39:24.59	348.83	20.61	
2025-01-16 02:39:25.81	348.57	20.74	
2025-01-16 02:39:27.03	348.30	20.86	
2025-01-16 02:39:28.25	348.04	20.99	
2025-01-16 02:39:29.47	347.77	21.12	
2025-01-16 02:39:30.68	347.50	21.24	
2025-01-16 02:39:31.90	347.22	21.37	
2025-01-16 02:39:33.12	346.95	21.50	
2025-01-16 02:39:34.34	346.67	21.62	
2025-01-16 02:39:35.56	346.39	21.75	
2025-01-16 02:39:36.77	346.11	21.88	
2025-01-16 02:39:37.99	345.82	22.00	
2025-01-16 02:39:39.21	345.53	22.13	
2025-01-16 02:39:40.43	345.24	22.26	
2025-01-16 02:39:41.65	344.95	22.38	
2025-01-16 02:39:42.86	344.65	22.51	
2025-01-16 02:39:44.08	344.36	22.63	
2025-01-16 02:39:45.30	344.05	22.76	
2025-01-16 02:39:46.52	343.75	22.89	
2025-01-16 02:39:47.74	343.44	23.01	
2025-01-16 02:39:48.95	343.14	23.14	
2025-01-16 02:39:50.17	342.83	23.26	
2025-01-16 02:39:51.39	342.51	23.39	
2025-01-16 02:39:52.61	342.19	23.51	
2025-01-16 02:39:53.82	341.88	23.64	
2025-01-16 02:39:55.04	341.56	23.76	
2025-01-16 02:39:56.26	341.23	23.88	
2025-01-16 02:39:57.48	340.90	24.01	
2025-01-16 02:39:58.70	340.57	24.13	
2025-01-16 02:39:59.91	340.24	24.25	
2025-01-16 02:40:01.13	339.90	24.38	
2025-01-16 02:40:02.35	339.57	24.50	
2025-01-16 02:40:03.57	339.22	24.62	
2025-01-16 02:40:04.79	338.88	24.74	
2025-01-16 02:40:06.00	338.54	24.86	
2025-01-16 02:40:07.22	338.19	24.98	
2025-01-16 02:40:08.44	337.83	25.10	
2025-01-16 02:40:09.66	337.48	25.22	
2025-01-16 02:40:10.88	337.12	25.34	
2025-01-16 02:40:12.09	336.76	25.46	
2025-01-16 02:40:13.31	336.40	25.57	
2025-01-16 02:40:14.53	336.03	25.69	
2025-01-16 02:40:15.75	335.66	25.81	
2025-01-16 02:40:16.97	335.29	25.92	
2025-01-16 02:40:18.18	334.91	26.04	
2025-01-16 02:40:19.40	334.54	26.15	
2025-01-16 02:40:20.62	334.15	26.26	
2025-01-16 02:40:21.84	333.77	26.37	
2025-01-16 02:40:23.05	333.39	26.48	
2025-01-16 02:40:24.27	333.00	26.59	
2025-01-16 02:40:25.49	332.60	26.70	
2025-01-16 02:40:26.71	332.21	26.81	
2025-01-16 02:40:27.93	331.81	26.92	
2025-01-16 02:40:29.14	331.41	27.02	
2025-01-16 02:40:30.36	331.01	27.13	
2025-01-16 02:40:31.58	330.60	27.23	
2025-01-16 02:40:32.80	330.19	27.34	
2025-01-16 02:40:34.02	329.78	27.44	
2025-01-16 02:40:35.23	329.37	27.54	
2025-01-16 02:40:36.45	328.95	27.64	
2025-01-16 02:40:37.67	328.53	27.73	
2025-01-16 02:40:38.89	328.11	27.83	
2025-01-16 02:40:40.11	327.68	27.93	
2025-01-16 02:40:41.32	327.26	28.02	
2025-01-16 02:40:42.54	326.83	28.11	
2025-01-16 02:40:43.76	326.39	28.20	
2025-01-16 02:40:44.98	325.96	28.29	
2025-01-16 02:40:46.20	325.52	28.38	
2025-01-16 02:40:47.41	325.08	28.47	
2025-01-16 02:40:48.63	324.64	28.55	
2025-01-16 02:40:49.85	324.19	28.64	
2025-01-16 02:40:51.07	323.74	28.72	
2025-01-16 02:40:52.28	323.30	28.80	
2025-01-16 02:40:53.50	322.84	28.88	
2025-01-16 02:40:54.72	322.39	28.95	
2025-01-16 02:40:55.94	321.93	29.03	
2025-01-16 02:40:57.16	321.47	29.10	
2025-01-16 02:40:58.37	321.01	29.17	
2025-01-16 02:40:59.59	320.55	29.24	
2025-01-16 02:41:00.81	320.08	29.31	
2025-01-16 02:41:02.03	319.61	29.38	
2025-01-16 02:41:03.25	319.14	29.44	
2025-01-16 02:41:04.46	318.68	29.50	
2025-01-16 02:41:05.68	318.20	29.56	
2025-01-16 02:41:06.90	317.73	29.62	
2025-01-16 02:41:08.12	317.25	29.68	
2025-01-16 02:41:09.34	316.77	29.73	
2025-01-16 02:41:10.55	316.29	29.78	
2025-01-16 02:41:11.77	315.81	29.83	
2025-01-16 02:41:12.99	315.32	29.88	
2025-01-16 02:41:14.21	314.84	29.92	
2025-01-16 02:41:15.43	314.35	29.97	
2025-01-16 02:41:16.64	313.87	30.01	
2025-01-16 02:41:17.86	313.38	30.05	
2025-01-16 02:41:19.08	312.89	30.08	
2025-01-16 02:41:20.30	312.40	30.12	
2025-01-16 02:41:21.51	311.91	30.15	
2025-01-16 02:41:22.73	311.41	30.18	
2025-01-16 02:41:23.95	310.92	30.21	
2025-01-16 02:41:25.17	310.42	30.23	
2025-01-16 02:41:26.39	309.93	30.26	
2025-01-16 02:41:27.60	309.43	30.28	
2025-01-16 02:41:28.82	308.93	30.30	
2025-01-16 02:41:30.04	308.44	30.31	
2025-01-16 02:41:31.26	307.94	30.32	
2025-01-16 02:41:32.48	307.44	30.34	
2025-01-16 02:41:33.69	306.94	30.34	
2025-01-16 02:41:34.91	306.44	30.35	
2025-01-16 02:41:36.13	305.94	30.36	
2025-01-16 02:41:37.35	305.44	30.36	
2025-01-16 02:41:38.57	304.94	30.36	
2025-01-16 02:41:39.78	304.44	30.35	
2025-01-16 02:41:41.00	303.94	30.35	
2025-01-16 02:41:42.22	303.44	30.34	
2025-01-16 02:41:43.44	302.94	30.33	
2025-01-16 02:41:44.66	302.44	30.32	
2025-01-16 02:41:45.87	301.95	30.30	
2025-01-16 02:41:47.09	301.45	30.29	
2025-01-16 02:41:48.31	300.95	30.27	
2025-01-16 02:41:49.53	300.46	30.24	
2025-01-16 02:41:50.74	299.96	30.22	
2025-01-16 02:41:51.96	299.47	30.19	
2025-01-16 02:41:53.18	298.97	30.16	
2025-01-16 02:41:54.40	298.48	30.13	
2025-01-16 02:41:55.62	297.99	30.10	
2025-01-16 02:41:56.83	297.50	30.06	
2025-01-16 02:41:58.05	297.01	30.03	
2025-01-16 02:41:59.27	296.52	29.99	
2025-01-16 02:42:00.49	296.03	29.94	
2025-01-16 02:42:01.71	295.54	29.90	
2025-01-16 02:42:02.92	295.06	29.85	
2025-01-16 02:42:04.14	294.58	29.80	
2025-01-16 02:42:05.36	294.10	29.75	
2025-01-16 02:42:06.58	293.61	29.70	
2025-01-16 02:42:07.80	293.14	29.64	
2025-01-16 02:42:09.01	292.66	29.59	
2025-01-16 02:42:10.23	292.19	29.53	
2025-01-16 02:42:11.45	291.71	29.47	
2025-01-16 02:42:12.67	291.24	29.40	
2025-01-16 02:42:13.89	290.77	29.34	
2025-01-16 02:42:15.10	290.31	29.27	
2025-01-16 02:42:16.32	289.84	29.20	
2025-01-16 02:42:17.54	289.38	29.13	
2025-01-16 02:42:18.76	288.91	29.06	
2025-01-16 02:42:19.97	288.46	28.98	
2025-01-16 02:42:21.19	288.00	28.91	
2025-01-16 02:42:22.41	287.55	28.83	
2025-01-16 02:42:23.63	287.09	28.75	
2025-01-16 02:42:24.85	286.64	28.67	
2025-01-16 02:42:26.06	286.20	28.59	
2025-01-16 02:42:27.28	285.75	28.50	
2025-01-16 02:42:28.50	285.31	28.42	
2025-01-16 02:42:29.72	284.87	28.33	
2025-01-16 02:42:30.94	284.43	28.24	
2025-01-16 02:42:32.15	284.00	28.15	
2025-01-16 02:42:33.37	283.56	28.06	
2025-01-16 02:42:34.59	283.13	27.96	
2025-01-16 02:42:35.81	282.71	27.87	
2025-01-16 02:42:37.03	282.28	27.77	
2025-01-16 02:42:38.24	281.86	27.67	
2025-01-16 02:42:39.46	281.44	27.57	
2025-01-16 02:42:40.68	281.02	27.47	
2025-01-16 02:42:41.90	280.61	27.37	
2025-01-16 02:42:43.12	280.20	27.27	
2025-01-16 02:42:44.33	279.79	27.17	
2025-01-16 02:42:45.55	279.39	27.06	
2025-01-16 02:42:46.77	278.98	26.96	
2025-01-16 02:42:47.99	278.58	26.85	
2025-01-16 02:42:49.20	278.19	26.74	
2025-01-16 02:42:50.42	277.79	26.63	
2025-01-16 02:42:51.64	277.40	26.52	
2025-01-16 02:42:52.86	277.01	26.41	
2025-01-16 02:42:54.08	276.62	26.30	
2025-01-16 02:42:55.29	276.24	26.19	
2025-01-16 02:42:56.51	275.86	26.07	
2025-01-16 02:42:57.73	275.48	25.96	
2025-01-16 02:42:58.95	275.11	25.84	
2025-01-16 02:43:00.17	274.74	25.73	
2025-01-16 02:43:01.38	274.37	25.61	
2025-01-16 02:43:02.60	274.00	25.49	
2025-01-16 02:43:03.82	273.64	25.38	
2025-01-16 02:43:05.04	273.28	25.26	
2025-01-16 02:43:06.26	272.92	25.14	
2025-01-16 02:43:07.47	272.57	25.02	
2025-01-16 02:43:08.69	272.21	24.90	
2025-01-16 02:43:09.91	271.86	24.78	
2025-01-16 02:43:11.13	271.52	24.65	
2025-01-16 02:43:12.35	271.17	24.53	
2025-01-16 02:43:13.56	270.83	24.41	
2025-01-16 02:43:14.78	270.50	24.29	
2025-01-16 02:43:16.00	270.16	24.16	
2025-01-16 02:43:17.22	269.83	24.04	
2025-01-16 02:43:18.43	269.50	23.92	
2025-01-16 02:43:19.65	269.17	23.79	
2025-01-16 02:43:20.87	268.85	23.67	
2025-01-16 02:43:22.09	268.52	23.54	
2025-01-16 02:43:23.31	268.20	23.42	
2025-01-16 02:43:24.52	267.89	23.29	
2025-01-16 02:43:25.74	267.58	23.17	
2025-01-16 02:43:26.96	267.26	23.04	
2025-01-16 02:43:28.18	266.96	22.91	
2025-01-16 02:43:29.40	266.65	22.79	
2025-01-16 02:43:30.61	266.35	22.66	
2025-01-16 02:43:31.83	266.05	22.53	
2025-01-16 02:43:33.05	265.75	22.41	
2025-01-16 02:43:34.27	265.45	22.28	
2025-01-16 02:43:35.49	265.16	22.15	
2025-01-16 02:43:36.70	264.87	22.03	
2025-01-16 02:43:37.92	264.58	21.90	
2025-01-16 02:43:39.14	264.30	21.77	
2025-01-16 02:43:40.36	264.01	21.64	
2025-01-16 02:43:41.58	263.73	21.52	
2025-01-16 02:43:42.79	263.45	21.39	
2025-01-16 02:43:44.01	263.18	21.26	
2025-01-16 02:43:45.23	262.90	21.14	
2025-01-16 02:43:46.45	262.63	21.01	
2025-01-16 02:43:47.66	262.37	20.88	
2025-01-16 02:43:48.88	262.10	20.76	
2025-01-16 02:43:50.10	261.84	20.63	
2025-01-16 02:43:51.32	261.57	20.50	
2025-01-16 02:43:52.54	261.31	20.37	
2025-01-16 02:43:53.75	261.06	20.25	
2025-01-16 02:43:54.97	260.80	20.12	
2025-01-16 02:43:56.19	260.55	19.99	
2025-01-16 02:43:57.41	260.30	19.87	
2025-01-16 02:43:58.63	260.05	19.74	
2025-01-16 02:43:59.84	259.80	19.62	
2025-01-16 02:44:01.06	259.56	19.49	
2025-01-16 02:44:02.28	259.32	19.36	
2025-01-16 02:44:03.50	259.08	19.24	
2025-01-16 02:44:04.72	258.84	19.11	
2025-01-16 02:44:05.93	258.61	18.99	
2025-01-16 02:44:07.15	258.37	18.86	
2025-01-16 02:44:08.37	258.14	18.74	
2025-01-16 02:44:09.59	257.91	18.61	
2025-01-16 02:44:10.81	257.68	18.49	
2025-01-16 02:44:12.02	257.46	18.37	
2025-01-16 02:44:13.24	257.23	18.24	
2025-01-16 02:44:14.46	257.01	18.12	
2025-01-16 02:44:15.68	256.79	18.00	
2025-01-16 02:44:16.89	256.57	17.87	
2025-01-16 02:44:18.11	256.36	17.75	
2025-01-16 02:44:19.33	256.14	17.63	
2025-01-16 02:44:20.55	255.93	17.51	
2025-01-16 02:44:21.77	255.72	17.38	
2025-01-16 02:44:22.98	255.51	17.26	
2025-01-16 02:44:24.20	255.31	17.14	
2025-01-16 02:44:25.42	255.10	17.02	
2025-01-16 02:44:26.64	254.90	16.90	
2025-01-16 02:44:27.86	254.69	16.78	
2025-01-16 02:44:29.07	254.50	16.66	
2025-01-16 02:44:30.29	254.30	16.54	
2025-01-16 02:44:31.51	254.10	16.42	
2025-01-16 02:44:32.73	253.91	16.30	
2025-01-16 02:44:33.95	253.71	16.18	
2025-01-16 02:44:35.16	253.52	16.06	
2025-01-16 02:44:36.38	253.33	15.95	
2025-01-16 02:44:37.60	253.14	15.83	
2025-01-16 02:44:38.82	252.96	15.71	
2025-01-16 02:44:40.04	252.77	15.59	
2025-01-16 02:44:41.25	252.59	15.48	
2025-01-16 02:44:42.47	252.41	15.36	
2025-01-16 02:44:43.69	252.23	15.24	
2025-01-16 02:44:44.91	252.05	15.13	
2025-01-16 02:44:46.12	251.87	15.01	
2025-01-16 02:44:47.34	251.69	14.90	
2025-01-16 02:44:48.56	251.52	14.78	
2025-01-16 02:44:49.78	251.34	14.67	
2025-01-16 02:44:51.00	251.17	14.55	
2025-01-16 02:44:52.21	251.00	14.44	
2025-01-16 02:44:53.43	250.83	14.33	
2025-01-16 02:44:54.65	250.67	14.21	
2025-01-16 02:44:55.87	250.50	14.10	
2025-01-16 02:44:57.09	250.34	13.99	
2025-01-16 02:44:58.30	250.17	13.88	
2025-01-16 02:44:59.52	250.01	13.76	
2025-01-16 02:45:00.74	249.85	13.65	
2025-01-16 02:45:01.96	249.69	13.54	
2025-01-16 02:45:03.18	249.53	13.43	
2025-01-16 02:45:04.39	249.38	13.32	
2025-01-16 02:45:05.61	249.22	13.21	
2025-01-16 02:45:06.83	249.07	13.10	
2025-01-16 02:45:08.05	248.91	12.99	
2025-01-16 02:45:09.27	248.76	12.88	
2025-01-16 02:45:10.48	248.61	12.77	
2025-01-16 02:45:11.70	248.46	12.67	
2025-01-16 02:45:12.92	248.31	12.56	
2025-01-16 02:45:14.14	248.16	12.45	
2025-01-16 02:45:15.35	248.02	12.34	
2025-01-16 02:45:16.57	247.87	12.24	
2025-01-16 02:45:17.79	247.73	12.13	
2025-01-16 02:45:19.01	247.59	12.02	
2025-01-16 02:45:20.23	247.45	11.92	
2025-01-16 02:45:21.44	247.31	11.81	
2025-01-16 02:45:22.66	247.17	11.71	
2025-01-16 02:45:23.88	247.03	11.60	
2025-01-16 02:45:25.10	246.89	11.50	
2025-01-16 02:45:26.32	246.76	11.39	
2025-01-16 02:45:27.53	246.62	11.29	
2025-01-16 02:45:28.75	246.49	11.19	
2025-01-16 02:45:29.97	246.35	11.08	
2025-01-16 02:45:31.19	246.22	10.98	
2025-01-16 02:45:32.41	246.09	10.88	
2025-01-16 02:45:33.62	245.96	10.78	
2025-01-16 02:45:34.84	245.83	10.67	
2025-01-16 02:45:36.06	245.71	10.57	
2025-01-16 02:45:37.28	245.58	10.47	
2025-01-16 02:45:38.50	245.45	10.37	
2025-01-16 02:45:39.71	245.33	10.27	
2025-01-16 02:45:40.93	245.20	10.17	
2025-01-16 02:45:42.15	245.08	10.07	
2025-01-16 02:45:43.37	244.96	9.97	
2025-01-16 02:45:44.59	244.84	9.87	
2025-01-16 02:45:45.80	244.72	9.77	
2025-01-16 02:45:47.02	244.60	9.67	
2025-01-16 02:45:48.24	244.48	9.58	
2025-01-16 02:45:49.46	244.36	9.48	
2025-01-16 02:45:50.67	244.25	9.38	
2025-01-16 02:45:51.89	244.13	9.28	
2025-01-16 02:45:53.11	244.01	9.19	
2025-01-16 02:45:54.33	243.90	9.09	
2025-01-16 02:45:55.55	243.79	8.99	
2025-01-16 02:45:56.76	243.67	8.90	
2025-01-16 02:45:57.98	243.56	8.80	
2025-01-16 02:45:59.20	243.45	8.71	
2025-01-16 02:46:00.42	243.34	8.61	
2025-01-16 02:46:01.64	243.23	8.52	
2025-01-16 02:46:02.85	243.12	8.42	
2025-01-16 02:46:04.07	243.02	8.33	
2025-01-16 02:46:05.29	242.91	8.23	
2025-01-16 02:46:06.51	242.80	8.14	
2025-01-16 02:46:07.73	242.70	8.05	
2025-01-16 02:46:08.94	242.59	7.96	
2025-01-16 02:46:10.16	242.49	7.86	
2025-01-16 02:46:11.38	242.38	7.77	
2025-01-16 02:46:12.60	242.28	7.68	
2025-01-16 02:46:13.82	242.18	7.59	
2025-01-16 02:46:15.03	242.08	7.49	
2025-01-16 02:46:16.25	241.98	7.40	
2025-01-16 02:46:17.47	241.88	7.31	
2025-01-16 02:46:18.69	241.78	7.22	
2025-01-16 02:46:19.90	241.68	7.13	
2025-01-16 02:46:21.12	241.58	7.04	
2025-01-16 02:46:22.34	241.49	6.95	
2025-01-16 02:46:23.56	241.39	6.86	
2025-01-16 02:46:24.78	241.29	6.77	
2025-01-16 02:46:25.99	241.20	6.68	
2025-01-16 02:46:27.21	241.11	6.59	
2025-01-16 02:46:28.43	241.01	6.51	
2025-01-16 02:46:29.65	240.92	6.42	
2025-01-16 02:46:30.87	240.83	6.33	
2025-01-16 02:46:32.08	240.74	6.24	
2025-01-16 02:46:33.30	240.64	6.15	
2025-01-16 02:46:34.52	240.55	6.07	
2025-01-16 02:46:35.74	240.46	5.98	
2025-01-16 02:46:36.96	240.37	5.89	
2025-01-16 02:46:38.17	240.29	5.81	
2025-01-16 02:46:39.39	240.20	5.72	
2025-01-16 02:46:40.61	240.11	5.64	
2025-01-16 02:46:41.83	240.02	5.55	
2025-01-16 02:46:43.04	239.94	5.47	
2025-01-16 02:46:44.26	239.85	5.38	
2025-01-16 02:46:45.48	239.76	5.29	
2025-01-16 02:46:46.70	239.68	5.21	
2025-01-16 02:46:47.92	239.60	5.13	
2025-01-16 02:46:49.13	239.51	5.04	
2025-01-16 02:46:50.35	239.43	4.96	
2025-01-16 02:46:51.57	239.35	4.87	
2025-01-16 02:46:52.79	239.26	4.79	
2025-01-16 02:46:54.01	239.18	4.71	
2025-01-16 02:46:55.22	239.10	4.62	
2025-01-16 02:46:56.44	239.02	4.54	
2025-01-16 02:46:57.66	238.94	4.46	
2025-01-16 02:46:58.88	238.86	4.38	
2025-01-16 02:47:00.10	238.78	4.29	
2025-01-16 02:47:01.31	238.70	4.21	
2025-01-16 02:47:02.53	238.63	4.13	
2025-01-16 02:47:03.75	238.55	4.05	

#Closed at: 2025-01-16 02:47:04