passes_logs/2025/01/16/SPB_Silybum_02/SPB_Silybum_02__20250116_181524_TERRA_rec.log

#Pass ID: 20250116_181524_TERRA
#Satellite: TERRA
#Configuration: TERRA
#Start time: 2025-01-16 18:15:23

#Version: 2.0.20230423
#Station: SPB_Silybum_02
#Location: 30.233357 lon 59.946436 lat
#TLE: 1 25994U 99068A   25015.81469206  .00000761  00000+0  16641-3 0  9994
#TLE: 2 25994  98.0214  78.8192 0003429  70.9720  38.3229 14.60396307334199

#Time	Az	El	Level	Level2	SNR	BER	Gain	Gain2
2025-01-16 18:15:25.90	153.18	4.10	
2025-01-16 18:15:27.12	153.16	4.19	
2025-01-16 18:15:28.34	153.15	4.28	
2025-01-16 18:15:29.56	153.14	4.37	
2025-01-16 18:15:30.77	153.12	4.46	
2025-01-16 18:15:31.99	153.11	4.55	
2025-01-16 18:15:33.21	153.10	4.64	
2025-01-16 18:15:34.43	153.08	4.73	
2025-01-16 18:15:35.65	153.07	4.82	
2025-01-16 18:15:36.87	153.05	4.91	
2025-01-16 18:15:38.08	153.04	5.00	
2025-01-16 18:15:39.30	153.03	5.09	
2025-01-16 18:15:40.52	153.01	5.18	
2025-01-16 18:15:41.74	153.00	5.27	
2025-01-16 18:15:42.96	152.98	5.37	
2025-01-16 18:15:44.18	152.97	5.46	
2025-01-16 18:15:45.39	152.95	5.55	
2025-01-16 18:15:46.61	152.94	5.65	
2025-01-16 18:15:47.83	152.92	5.74	
2025-01-16 18:15:49.05	152.91	5.84	
2025-01-16 18:15:50.27	152.89	5.93	
2025-01-16 18:15:51.49	152.88	6.03	
2025-01-16 18:15:52.71	152.86	6.12	
2025-01-16 18:15:53.92	152.85	6.22	
2025-01-16 18:15:55.14	152.83	6.31	
2025-01-16 18:15:56.36	152.81	6.41	
2025-01-16 18:15:57.58	152.80	6.51	
2025-01-16 18:15:58.80	152.78	6.61	
2025-01-16 18:16:00.02	152.76	6.70	
2025-01-16 18:16:01.23	152.75	6.80	
2025-01-16 18:16:02.45	152.73	6.90	
2025-01-16 18:16:03.67	152.71	7.00	
2025-01-16 18:16:04.89	152.70	7.10	
2025-01-16 18:16:06.11	152.68	7.20	
2025-01-16 18:16:07.33	152.66	7.30	
2025-01-16 18:16:08.55	152.65	7.40	
2025-01-16 18:16:09.76	152.63	7.50	
2025-01-16 18:16:10.98	152.61	7.60	
2025-01-16 18:16:12.20	152.59	7.71	
2025-01-16 18:16:13.42	152.57	7.81	
2025-01-16 18:16:14.64	152.55	7.91	
2025-01-16 18:16:15.86	152.54	8.02	
2025-01-16 18:16:17.07	152.52	8.12	
2025-01-16 18:16:18.29	152.50	8.23	
2025-01-16 18:16:19.52	152.48	8.33	
2025-01-16 18:16:20.73	152.46	8.44	
2025-01-16 18:16:21.95	152.44	8.54	
2025-01-16 18:16:23.17	152.42	8.65	
2025-01-16 18:16:24.39	152.40	8.76	
2025-01-16 18:16:25.61	152.38	8.86	
2025-01-16 18:16:26.83	152.36	8.97	
2025-01-16 18:16:28.06	152.34	9.08	
2025-01-16 18:16:29.28	152.32	9.19	
2025-01-16 18:16:30.49	152.30	9.30	
2025-01-16 18:16:31.71	152.28	9.41	
2025-01-16 18:16:32.93	152.26	9.52	
2025-01-16 18:16:34.15	152.24	9.63	
2025-01-16 18:16:35.37	152.21	9.75	
2025-01-16 18:16:36.60	152.19	9.86	
2025-01-16 18:16:37.82	152.17	9.97	
2025-01-16 18:16:39.04	152.15	10.09	
2025-01-16 18:16:40.26	152.13	10.20	
2025-01-16 18:16:41.48	152.10	10.32	
2025-01-16 18:16:42.69	152.08	10.43	
2025-01-16 18:16:43.91	152.06	10.55	
2025-01-16 18:16:45.13	152.03	10.66	
2025-01-16 18:16:46.35	152.01	10.78	
2025-01-16 18:16:47.57	151.99	10.90	
2025-01-16 18:16:48.79	151.96	11.02	
2025-01-16 18:16:50.00	151.94	11.14	
2025-01-16 18:16:51.22	151.91	11.26	
2025-01-16 18:16:52.44	151.89	11.38	
2025-01-16 18:16:53.66	151.86	11.50	
2025-01-16 18:16:54.88	151.84	11.62	
2025-01-16 18:16:56.10	151.81	11.74	
2025-01-16 18:16:57.32	151.79	11.87	
2025-01-16 18:16:58.53	151.76	11.99	
2025-01-16 18:16:59.75	151.74	12.11	
2025-01-16 18:17:00.97	151.71	12.24	
2025-01-16 18:17:02.19	151.68	12.36	
2025-01-16 18:17:03.41	151.66	12.49	
2025-01-16 18:17:04.63	151.63	12.62	
2025-01-16 18:17:05.84	151.60	12.75	
2025-01-16 18:17:07.06	151.57	12.88	
2025-01-16 18:17:08.28	151.54	13.00	
2025-01-16 18:17:09.50	151.52	13.14	
2025-01-16 18:17:10.72	151.49	13.27	
2025-01-16 18:17:11.94	151.46	13.40	
2025-01-16 18:17:13.16	151.43	13.53	
2025-01-16 18:17:14.37	151.40	13.66	
2025-01-16 18:17:15.59	151.37	13.80	
2025-01-16 18:17:16.81	151.34	13.93	
2025-01-16 18:17:18.03	151.31	14.07	
2025-01-16 18:17:19.25	151.28	14.21	
2025-01-16 18:17:20.47	151.24	14.34	
2025-01-16 18:17:21.68	151.21	14.48	
2025-01-16 18:17:22.90	151.18	14.62	
2025-01-16 18:17:24.12	151.15	14.76	
2025-01-16 18:17:25.34	151.11	14.90	
2025-01-16 18:17:26.56	151.08	15.04	
2025-01-16 18:17:27.78	151.05	15.19	
2025-01-16 18:17:28.99	151.01	15.33	
2025-01-16 18:17:30.21	150.98	15.48	
2025-01-16 18:17:31.43	150.94	15.62	
2025-01-16 18:17:32.65	150.91	15.77	
2025-01-16 18:17:33.87	150.87	15.92	
2025-01-16 18:17:35.09	150.84	16.06	
2025-01-16 18:17:36.31	150.80	16.21	
2025-01-16 18:17:37.52	150.76	16.36	
2025-01-16 18:17:38.74	150.73	16.52	
2025-01-16 18:17:39.96	150.69	16.67	
2025-01-16 18:17:41.18	150.65	16.82	
2025-01-16 18:17:42.40	150.61	16.98	
2025-01-16 18:17:43.62	150.57	17.13	
2025-01-16 18:17:44.83	150.53	17.29	
2025-01-16 18:17:46.05	150.49	17.45	
2025-01-16 18:17:47.27	150.45	17.61	
2025-01-16 18:17:48.49	150.41	17.77	
2025-01-16 18:17:49.71	150.37	17.93	
2025-01-16 18:17:50.93	150.33	18.09	
2025-01-16 18:17:52.15	150.28	18.26	
2025-01-16 18:17:53.36	150.24	18.42	
2025-01-16 18:17:54.58	150.20	18.59	
2025-01-16 18:17:55.80	150.15	18.75	
2025-01-16 18:17:57.02	150.11	18.92	
2025-01-16 18:17:58.24	150.06	19.09	
2025-01-16 18:17:59.46	150.02	19.26	
2025-01-16 18:18:00.67	149.97	19.43	
2025-01-16 18:18:01.89	149.92	19.61	
2025-01-16 18:18:03.11	149.88	19.78	
2025-01-16 18:18:04.33	149.83	19.96	
2025-01-16 18:18:05.55	149.78	20.14	
2025-01-16 18:18:06.77	149.73	20.32	
2025-01-16 18:18:07.98	149.68	20.49	
2025-01-16 18:18:09.20	149.63	20.68	
2025-01-16 18:18:10.42	149.58	20.86	
2025-01-16 18:18:11.64	149.52	21.04	
2025-01-16 18:18:12.86	149.47	21.23	
2025-01-16 18:18:14.08	149.42	21.42	
2025-01-16 18:18:15.30	149.36	21.61	
2025-01-16 18:18:16.51	149.31	21.80	
2025-01-16 18:18:17.73	149.25	21.99	
2025-01-16 18:18:18.95	149.19	22.18	
2025-01-16 18:18:20.17	149.14	22.38	
2025-01-16 18:18:21.39	149.08	22.58	
2025-01-16 18:18:22.61	149.02	22.77	
2025-01-16 18:18:23.82	148.96	22.97	
2025-01-16 18:18:25.04	148.90	23.18	
2025-01-16 18:18:26.26	148.84	23.38	
2025-01-16 18:18:27.48	148.77	23.58	
2025-01-16 18:18:28.70	148.71	23.79	
2025-01-16 18:18:29.92	148.64	24.00	
2025-01-16 18:18:31.14	148.58	24.21	
2025-01-16 18:18:32.35	148.51	24.42	
2025-01-16 18:18:33.57	148.44	24.64	
2025-01-16 18:18:34.79	148.38	24.85	
2025-01-16 18:18:36.01	148.31	25.07	
2025-01-16 18:18:37.23	148.24	25.29	
2025-01-16 18:18:38.45	148.16	25.51	
2025-01-16 18:18:39.66	148.09	25.73	
2025-01-16 18:18:40.88	148.02	25.96	
2025-01-16 18:18:42.10	147.94	26.19	
2025-01-16 18:18:43.32	147.87	26.42	
2025-01-16 18:18:44.54	147.79	26.65	
2025-01-16 18:18:45.76	147.71	26.88	
2025-01-16 18:18:46.98	147.63	27.12	
2025-01-16 18:18:48.19	147.55	27.36	
2025-01-16 18:18:49.41	147.47	27.60	
2025-01-16 18:18:50.63	147.38	27.84	
2025-01-16 18:18:51.85	147.30	28.08	
2025-01-16 18:18:53.07	147.21	28.33	
2025-01-16 18:18:54.29	147.12	28.58	
2025-01-16 18:18:55.50	147.03	28.83	
2025-01-16 18:18:56.72	146.94	29.08	
2025-01-16 18:18:57.94	146.85	29.34	
2025-01-16 18:18:59.16	146.75	29.60	
2025-01-16 18:19:00.38	146.66	29.86	
2025-01-16 18:19:01.60	146.56	30.13	
2025-01-16 18:19:02.81	146.46	30.39	
2025-01-16 18:19:04.03	146.36	30.66	
2025-01-16 18:19:05.25	146.25	30.93	
2025-01-16 18:19:06.47	146.15	31.21	
2025-01-16 18:19:07.69	146.04	31.48	
2025-01-16 18:19:08.91	145.93	31.76	
2025-01-16 18:19:10.13	145.82	32.04	
2025-01-16 18:19:11.34	145.71	32.33	
2025-01-16 18:19:12.56	145.59	32.61	
2025-01-16 18:19:13.78	145.48	32.91	
2025-01-16 18:19:15.00	145.36	33.20	
2025-01-16 18:19:16.22	145.23	33.50	
2025-01-16 18:19:17.44	145.11	33.80	
2025-01-16 18:19:18.65	144.98	34.09	
2025-01-16 18:19:19.87	144.85	34.40	
2025-01-16 18:19:21.09	144.72	34.71	
2025-01-16 18:19:22.31	144.59	35.02	
2025-01-16 18:19:23.53	144.45	35.33	
2025-01-16 18:19:24.75	144.31	35.65	
2025-01-16 18:19:25.97	144.17	35.97	
2025-01-16 18:19:27.18	144.02	36.29	
2025-01-16 18:19:28.40	143.87	36.62	
2025-01-16 18:19:29.62	143.72	36.95	
2025-01-16 18:19:30.84	143.57	37.29	
2025-01-16 18:19:32.06	143.41	37.62	
2025-01-16 18:19:33.28	143.24	37.96	
2025-01-16 18:19:34.49	143.08	38.31	
2025-01-16 18:19:35.71	142.91	38.65	
2025-01-16 18:19:36.93	142.74	39.00	
2025-01-16 18:19:38.15	142.56	39.36	
2025-01-16 18:19:39.37	142.38	39.72	
2025-01-16 18:19:40.59	142.19	40.08	
2025-01-16 18:19:41.80	142.00	40.44	
2025-01-16 18:19:43.02	141.81	40.81	
2025-01-16 18:19:44.24	141.61	41.18	
2025-01-16 18:19:45.46	141.40	41.56	
2025-01-16 18:19:46.68	141.19	41.94	
2025-01-16 18:19:47.90	140.98	42.32	
2025-01-16 18:19:49.12	140.76	42.71	
2025-01-16 18:19:50.33	140.54	43.09	
2025-01-16 18:19:51.55	140.31	43.49	
2025-01-16 18:19:52.77	140.07	43.89	
2025-01-16 18:19:53.99	139.83	44.29	
2025-01-16 18:19:55.21	139.58	44.69	
2025-01-16 18:19:56.43	139.32	45.10	
2025-01-16 18:19:57.64	139.06	45.51	
2025-01-16 18:19:58.86	138.79	45.93	
2025-01-16 18:20:00.08	138.51	46.35	
2025-01-16 18:20:01.30	138.23	46.78	
2025-01-16 18:20:02.52	137.93	47.20	
2025-01-16 18:20:03.74	137.63	47.64	
2025-01-16 18:20:04.96	137.32	48.07	
2025-01-16 18:20:06.17	137.00	48.51	
2025-01-16 18:20:07.39	136.67	48.95	
2025-01-16 18:20:08.61	136.33	49.40	
2025-01-16 18:20:09.83	135.99	49.85	
2025-01-16 18:20:11.05	135.62	50.30	
2025-01-16 18:20:12.27	135.25	50.76	
2025-01-16 18:20:13.48	134.87	51.21	
2025-01-16 18:20:14.70	134.48	51.68	
2025-01-16 18:20:15.92	134.07	52.14	
2025-01-16 18:20:17.14	133.65	52.61	
2025-01-16 18:20:18.36	133.21	53.09	
2025-01-16 18:20:19.58	132.76	53.56	
2025-01-16 18:20:20.79	132.30	54.04	
2025-01-16 18:20:22.01	131.82	54.52	
2025-01-16 18:20:23.23	131.32	55.00	
2025-01-16 18:20:24.45	130.81	55.49	
2025-01-16 18:20:25.67	130.28	55.98	
2025-01-16 18:20:26.89	129.72	56.47	
2025-01-16 18:20:28.11	129.15	56.96	
2025-01-16 18:20:29.32	128.56	57.45	
2025-01-16 18:20:30.54	127.94	57.95	
2025-01-16 18:20:31.76	127.30	58.44	
2025-01-16 18:20:32.98	126.64	58.94	
2025-01-16 18:20:34.20	125.95	59.44	
2025-01-16 18:20:35.42	125.23	59.94	
2025-01-16 18:20:36.63	124.49	60.43	
2025-01-16 18:20:37.85	123.72	60.93	
2025-01-16 18:20:39.07	122.91	61.43	
2025-01-16 18:20:40.29	122.07	61.92	
2025-01-16 18:20:41.51	121.19	62.41	
2025-01-16 18:20:42.73	120.28	62.91	
2025-01-16 18:20:43.95	119.33	63.39	
2025-01-16 18:20:45.16	118.35	63.87	
2025-01-16 18:20:46.38	117.31	64.36	
2025-01-16 18:20:47.60	116.24	64.83	
2025-01-16 18:20:48.82	115.11	65.30	
2025-01-16 18:20:50.04	113.94	65.77	
2025-01-16 18:20:51.26	112.72	66.23	
2025-01-16 18:20:52.47	111.45	66.67	
2025-01-16 18:20:53.69	110.12	67.12	
2025-01-16 18:20:54.91	108.74	67.55	
2025-01-16 18:20:56.13	107.29	67.97	
2025-01-16 18:20:57.35	105.78	68.38	
2025-01-16 18:20:58.57	104.21	68.78	
2025-01-16 18:20:59.79	102.58	69.16	
2025-01-16 18:21:01.00	100.90	69.53	
2025-01-16 18:21:02.22	99.13	69.88	
2025-01-16 18:21:03.44	97.30	70.22	
2025-01-16 18:21:04.66	95.41	70.54	
2025-01-16 18:21:05.88	93.44	70.84	
2025-01-16 18:21:07.10	91.42	71.11	
2025-01-16 18:21:08.31	89.35	71.37	
2025-01-16 18:21:09.53	87.20	71.60	
2025-01-16 18:21:10.75	85.00	71.81	
2025-01-16 18:21:11.97	82.75	71.99	
2025-01-16 18:21:13.19	80.46	72.14	
2025-01-16 18:21:14.41	78.12	72.27	
2025-01-16 18:21:15.62	75.77	72.37	
2025-01-16 18:21:16.84	73.38	72.44	
2025-01-16 18:21:18.06	70.98	72.48	
2025-01-16 18:21:19.28	68.56	72.49	
2025-01-16 18:21:20.50	66.15	72.47	
2025-01-16 18:21:21.72	63.75	72.43	
2025-01-16 18:21:22.94	61.36	72.35	
2025-01-16 18:21:24.15	59.02	72.25	
2025-01-16 18:21:25.37	56.70	72.12	
2025-01-16 18:21:26.59	54.41	71.96	
2025-01-16 18:21:27.81	52.17	71.77	
2025-01-16 18:21:29.03	49.98	71.56	
2025-01-16 18:21:30.25	47.85	71.32	
2025-01-16 18:21:31.46	45.79	71.06	
2025-01-16 18:21:32.68	43.78	70.78	
2025-01-16 18:21:33.90	41.83	70.48	
2025-01-16 18:21:35.12	39.95	70.16	
2025-01-16 18:21:36.34	38.13	69.82	
2025-01-16 18:21:37.56	36.38	69.46	
2025-01-16 18:21:38.78	34.70	69.09	
2025-01-16 18:21:39.99	33.09	68.71	
2025-01-16 18:21:41.21	31.54	68.31	
2025-01-16 18:21:42.43	30.04	67.90	
2025-01-16 18:21:43.65	28.61	67.47	
2025-01-16 18:21:44.87	27.23	67.04	
2025-01-16 18:21:46.09	25.92	66.60	
2025-01-16 18:21:47.30	24.66	66.15	
2025-01-16 18:21:48.52	23.45	65.69	
2025-01-16 18:21:49.74	22.29	65.23	
2025-01-16 18:21:50.96	21.18	64.75	
2025-01-16 18:21:52.18	20.11	64.28	
2025-01-16 18:21:53.40	19.09	63.80	
2025-01-16 18:21:54.61	18.11	63.32	
2025-01-16 18:21:55.83	17.17	62.83	
2025-01-16 18:21:57.05	16.27	62.34	
2025-01-16 18:21:58.27	15.40	61.85	
2025-01-16 18:21:59.49	14.56	61.35	
2025-01-16 18:22:00.71	13.76	60.86	
2025-01-16 18:22:01.93	12.99	60.36	
2025-01-16 18:22:03.14	12.26	59.87	
2025-01-16 18:22:04.36	11.55	59.37	
2025-01-16 18:22:05.58	10.86	58.88	
2025-01-16 18:22:06.80	10.21	58.38	
2025-01-16 18:22:08.02	9.57	57.89	
2025-01-16 18:22:09.24	8.96	57.39	
2025-01-16 18:22:10.45	8.37	56.90	
2025-01-16 18:22:11.67	7.81	56.41	
2025-01-16 18:22:12.89	7.26	55.92	
2025-01-16 18:22:14.11	6.73	55.44	
2025-01-16 18:22:15.33	6.22	54.95	
2025-01-16 18:22:16.55	5.72	54.47	
2025-01-16 18:22:17.77	5.25	53.99	
2025-01-16 18:22:18.98	4.79	53.52	
2025-01-16 18:22:20.20	4.34	53.04	
2025-01-16 18:22:21.42	3.91	52.57	
2025-01-16 18:22:22.64	3.49	52.11	
2025-01-16 18:22:23.86	3.09	51.64	
2025-01-16 18:22:25.08	2.69	51.18	
2025-01-16 18:22:26.29	2.32	50.72	
2025-01-16 18:22:27.51	1.95	50.27	
2025-01-16 18:22:28.73	1.59	49.82	
2025-01-16 18:22:29.95	1.24	49.37	
2025-01-16 18:22:31.17	0.91	48.93	
2025-01-16 18:22:32.39	0.58	48.49	
2025-01-16 18:22:33.60	0.27	48.05	
2025-01-16 18:22:34.82	359.96	47.62	
2025-01-16 18:22:36.04	359.66	47.19	
2025-01-16 18:22:37.26	359.37	46.76	
2025-01-16 18:22:38.48	359.08	46.34	
2025-01-16 18:22:39.70	358.81	45.92	
2025-01-16 18:22:40.92	358.54	45.51	
2025-01-16 18:22:42.13	358.28	45.10	
2025-01-16 18:22:43.35	358.02	44.69	
2025-01-16 18:22:44.57	357.78	44.29	
2025-01-16 18:22:45.79	357.54	43.89	
2025-01-16 18:22:47.01	357.30	43.49	
2025-01-16 18:22:48.23	357.07	43.10	
2025-01-16 18:22:49.44	356.85	42.71	
2025-01-16 18:22:50.66	356.63	42.33	
2025-01-16 18:22:51.88	356.42	41.95	
2025-01-16 18:22:53.10	356.21	41.57	
2025-01-16 18:22:54.32	356.01	41.20	
2025-01-16 18:22:55.54	355.81	40.83	
2025-01-16 18:22:56.76	355.62	40.46	
2025-01-16 18:22:57.97	355.43	40.10	
2025-01-16 18:22:59.19	355.24	39.74	
2025-01-16 18:23:00.41	355.06	39.38	
2025-01-16 18:23:01.63	354.89	39.03	
2025-01-16 18:23:02.85	354.71	38.68	
2025-01-16 18:23:04.07	354.55	38.34	
2025-01-16 18:23:05.28	354.38	38.00	
2025-01-16 18:23:06.50	354.22	37.66	
2025-01-16 18:23:07.72	354.06	37.32	
2025-01-16 18:23:08.94	353.91	36.99	
2025-01-16 18:23:10.16	353.76	36.66	
2025-01-16 18:23:11.38	353.61	36.34	
2025-01-16 18:23:12.60	353.46	36.02	
2025-01-16 18:23:13.81	353.32	35.70	
2025-01-16 18:23:15.03	353.18	35.38	
2025-01-16 18:23:16.25	353.05	35.07	
2025-01-16 18:23:17.47	352.91	34.76	
2025-01-16 18:23:18.69	352.78	34.45	
2025-01-16 18:23:19.91	352.65	34.15	
2025-01-16 18:23:21.12	352.53	33.85	
2025-01-16 18:23:22.34	352.41	33.55	
2025-01-16 18:23:23.56	352.28	33.26	
2025-01-16 18:23:24.78	352.17	32.97	
2025-01-16 18:23:26.00	352.05	32.68	
2025-01-16 18:23:27.22	351.93	32.39	
2025-01-16 18:23:28.43	351.82	32.11	
2025-01-16 18:23:29.65	351.71	31.83	
2025-01-16 18:23:30.87	351.60	31.55	
2025-01-16 18:23:32.09	351.50	31.27	
2025-01-16 18:23:33.31	351.39	31.00	
2025-01-16 18:23:34.53	351.29	30.73	
2025-01-16 18:23:35.75	351.19	30.46	
2025-01-16 18:23:36.96	351.09	30.20	
2025-01-16 18:23:38.18	351.00	29.94	
2025-01-16 18:23:39.40	350.90	29.68	
2025-01-16 18:23:40.62	350.81	29.42	
2025-01-16 18:23:41.84	350.71	29.16	
2025-01-16 18:23:43.06	350.62	28.91	
2025-01-16 18:23:44.27	350.54	28.66	
2025-01-16 18:23:45.49	350.45	28.41	
2025-01-16 18:23:46.71	350.36	28.17	
2025-01-16 18:23:47.93	350.28	27.93	
2025-01-16 18:23:49.15	350.19	27.68	
2025-01-16 18:23:50.37	350.11	27.44	
2025-01-16 18:23:51.59	350.03	27.21	
2025-01-16 18:23:52.80	349.95	26.97	
2025-01-16 18:23:54.02	349.87	26.74	
2025-01-16 18:23:55.24	349.80	26.51	
2025-01-16 18:23:56.46	349.72	26.28	
2025-01-16 18:23:57.68	349.65	26.05	
2025-01-16 18:23:58.90	349.57	25.83	
2025-01-16 18:24:00.11	349.50	25.61	
2025-01-16 18:24:01.33	349.43	25.39	
2025-01-16 18:24:02.55	349.36	25.17	
2025-01-16 18:24:03.77	349.29	24.95	
2025-01-16 18:24:04.99	349.22	24.74	
2025-01-16 18:24:06.21	349.16	24.52	
2025-01-16 18:24:07.42	349.09	24.31	
2025-01-16 18:24:08.64	349.03	24.10	
2025-01-16 18:24:09.86	348.96	23.90	
2025-01-16 18:24:11.08	348.90	23.69	
2025-01-16 18:24:12.30	348.84	23.49	
2025-01-16 18:24:13.52	348.78	23.28	
2025-01-16 18:24:14.74	348.72	23.08	
2025-01-16 18:24:15.95	348.66	22.88	
2025-01-16 18:24:17.17	348.60	22.69	
2025-01-16 18:24:18.39	348.54	22.49	
2025-01-16 18:24:19.61	348.48	22.29	
2025-01-16 18:24:20.83	348.43	22.10	
2025-01-16 18:24:22.05	348.37	21.91	
2025-01-16 18:24:23.26	348.32	21.72	
2025-01-16 18:24:24.48	348.26	21.53	
2025-01-16 18:24:25.70	348.21	21.35	
2025-01-16 18:24:26.92	348.16	21.16	
2025-01-16 18:24:28.14	348.11	20.98	
2025-01-16 18:24:29.36	348.06	20.79	
2025-01-16 18:24:30.58	348.01	20.61	
2025-01-16 18:24:31.79	347.96	20.44	
2025-01-16 18:24:33.01	347.91	20.26	
2025-01-16 18:24:34.23	347.86	20.08	
2025-01-16 18:24:35.45	347.81	19.90	
2025-01-16 18:24:36.67	347.77	19.73	
2025-01-16 18:24:37.89	347.72	19.56	
2025-01-16 18:24:39.10	347.67	19.39	
2025-01-16 18:24:40.32	347.63	19.22	
2025-01-16 18:24:41.54	347.58	19.05	
2025-01-16 18:24:42.76	347.54	18.88	
2025-01-16 18:24:43.98	347.50	18.71	
2025-01-16 18:24:45.20	347.45	18.55	
2025-01-16 18:24:46.41	347.41	18.38	
2025-01-16 18:24:47.63	347.37	18.22	
2025-01-16 18:24:48.85	347.33	18.06	
2025-01-16 18:24:50.07	347.29	17.90	
2025-01-16 18:24:51.29	347.25	17.74	
2025-01-16 18:24:52.51	347.21	17.58	
2025-01-16 18:24:53.73	347.17	17.42	
2025-01-16 18:24:54.94	347.13	17.27	
2025-01-16 18:24:56.16	347.09	17.11	
2025-01-16 18:24:57.38	347.05	16.96	
2025-01-16 18:24:58.60	347.02	16.80	
2025-01-16 18:24:59.82	346.98	16.65	
2025-01-16 18:25:01.04	346.94	16.50	
2025-01-16 18:25:02.25	346.91	16.35	
2025-01-16 18:25:03.47	346.87	16.20	
2025-01-16 18:25:04.69	346.84	16.05	
2025-01-16 18:25:05.91	346.80	15.91	
2025-01-16 18:25:07.13	346.77	15.76	
2025-01-16 18:25:08.35	346.73	15.61	
2025-01-16 18:25:09.57	346.70	15.47	
2025-01-16 18:25:10.78	346.67	15.33	
2025-01-16 18:25:12.00	346.63	15.18	
2025-01-16 18:25:13.22	346.60	15.04	
2025-01-16 18:25:14.44	346.57	14.90	
2025-01-16 18:25:15.66	346.54	14.76	
2025-01-16 18:25:16.88	346.50	14.62	
2025-01-16 18:25:18.09	346.47	14.49	
2025-01-16 18:25:19.31	346.44	14.35	
2025-01-16 18:25:20.53	346.41	14.21	
2025-01-16 18:25:21.75	346.38	14.08	
2025-01-16 18:25:22.97	346.35	13.94	
2025-01-16 18:25:24.19	346.32	13.81	
2025-01-16 18:25:25.41	346.30	13.67	
2025-01-16 18:25:26.62	346.27	13.54	
2025-01-16 18:25:27.84	346.24	13.41	
2025-01-16 18:25:29.06	346.21	13.28	
2025-01-16 18:25:30.28	346.18	13.15	
2025-01-16 18:25:31.50	346.16	13.02	
2025-01-16 18:25:32.72	346.13	12.89	
2025-01-16 18:25:33.93	346.10	12.77	
2025-01-16 18:25:35.15	346.08	12.64	
2025-01-16 18:25:36.37	346.05	12.51	
2025-01-16 18:25:37.59	346.02	12.39	
2025-01-16 18:25:38.81	346.00	12.26	
2025-01-16 18:25:40.03	345.97	12.14	
2025-01-16 18:25:41.24	345.95	12.02	
2025-01-16 18:25:42.46	345.92	11.89	
2025-01-16 18:25:43.68	345.90	11.77	
2025-01-16 18:25:44.90	345.87	11.65	
2025-01-16 18:25:46.12	345.85	11.53	
2025-01-16 18:25:47.34	345.83	11.41	
2025-01-16 18:25:48.56	345.80	11.29	
2025-01-16 18:25:49.77	345.78	11.17	
2025-01-16 18:25:50.99	345.76	11.05	
2025-01-16 18:25:52.21	345.73	10.93	
2025-01-16 18:25:53.43	345.71	10.82	
2025-01-16 18:25:54.65	345.69	10.70	
2025-01-16 18:25:55.87	345.67	10.59	
2025-01-16 18:25:57.08	345.64	10.47	
2025-01-16 18:25:58.30	345.62	10.36	
2025-01-16 18:25:59.52	345.60	10.24	
2025-01-16 18:26:00.74	345.58	10.13	
2025-01-16 18:26:01.96	345.56	10.02	
2025-01-16 18:26:03.18	345.54	9.90	
2025-01-16 18:26:04.40	345.52	9.79	
2025-01-16 18:26:05.61	345.50	9.68	
2025-01-16 18:26:06.83	345.48	9.57	
2025-01-16 18:26:08.05	345.46	9.46	
2025-01-16 18:26:09.27	345.44	9.35	
2025-01-16 18:26:10.49	345.42	9.24	
2025-01-16 18:26:11.71	345.40	9.13	
2025-01-16 18:26:12.92	345.38	9.03	
2025-01-16 18:26:14.14	345.36	8.92	
2025-01-16 18:26:15.36	345.34	8.81	
2025-01-16 18:26:16.58	345.32	8.71	
2025-01-16 18:26:17.80	345.31	8.60	
2025-01-16 18:26:19.02	345.29	8.49	
2025-01-16 18:26:20.23	345.27	8.39	
2025-01-16 18:26:21.45	345.25	8.29	
2025-01-16 18:26:22.67	345.23	8.18	
2025-01-16 18:26:23.89	345.22	8.08	
2025-01-16 18:26:25.11	345.20	7.97	
2025-01-16 18:26:26.33	345.18	7.87	
2025-01-16 18:26:27.55	345.16	7.77	
2025-01-16 18:26:28.76	345.15	7.67	
2025-01-16 18:26:29.98	345.13	7.57	
2025-01-16 18:26:31.20	345.12	7.47	
2025-01-16 18:26:32.42	345.10	7.37	
2025-01-16 18:26:33.64	345.08	7.27	
2025-01-16 18:26:34.86	345.07	7.17	
2025-01-16 18:26:36.07	345.05	7.07	
2025-01-16 18:26:37.29	345.04	6.97	
2025-01-16 18:26:38.51	345.02	6.87	
2025-01-16 18:26:39.73	345.00	6.77	
2025-01-16 18:26:40.95	344.99	6.68	
2025-01-16 18:26:42.17	344.97	6.58	
2025-01-16 18:26:43.39	344.96	6.48	
2025-01-16 18:26:44.60	344.94	6.39	
2025-01-16 18:26:45.82	344.93	6.29	
2025-01-16 18:26:47.04	344.92	6.19	
2025-01-16 18:26:48.26	344.90	6.10	
2025-01-16 18:26:49.48	344.89	6.00	
2025-01-16 18:26:50.70	344.87	5.91	
2025-01-16 18:26:51.91	344.86	5.82	
2025-01-16 18:26:53.13	344.84	5.72	
2025-01-16 18:26:54.35	344.83	5.63	
2025-01-16 18:26:55.57	344.82	5.54	
2025-01-16 18:26:56.79	344.80	5.45	
2025-01-16 18:26:58.01	344.79	5.35	
2025-01-16 18:26:59.22	344.78	5.26	
2025-01-16 18:27:00.44	344.76	5.17	
2025-01-16 18:27:01.66	344.75	5.08	
2025-01-16 18:27:02.88	344.74	4.99	
2025-01-16 18:27:04.10	344.73	4.90	
2025-01-16 18:27:05.32	344.71	4.81	
2025-01-16 18:27:06.54	344.70	4.72	
2025-01-16 18:27:07.75	344.69	4.63	
2025-01-16 18:27:08.97	344.68	4.54	
2025-01-16 18:27:10.19	344.66	4.45	
2025-01-16 18:27:11.41	344.65	4.36	
2025-01-16 18:27:12.63	344.64	4.28	
2025-01-16 18:27:13.85	344.63	4.19	
2025-01-16 18:27:15.06	344.62	4.10	
2025-01-16 18:27:16.28	344.61	4.01	

#Closed at: 2025-01-16 18:27:16