passes_logs/2025/01/16/SPB_Silybum_02/SPB_Silybum_02__20250116_135346_AQUA_rec.log

#Pass ID: 20250116_135346_AQUA
#Satellite: AQUA
#Configuration: AQUA
#Start time: 2025-01-16 13:53:45

#Version: 2.0.20230423
#Station: SPB_Silybum_02
#Location: 30.233357 lon 59.946436 lat
#TLE: 1 27424U 02022A   25015.89755826  .00001635  00000+0  34564-3 0  9997
#TLE: 2 27424  98.3590 332.5696 0001753 110.3458 316.1758 14.60685220207753

#Time	Az	El	Level	Level2	SNR	BER	Gain	Gain2
2025-01-16 13:53:47.85	248.63	4.04	
2025-01-16 13:53:48.66	248.74	4.07	
2025-01-16 13:53:49.48	248.86	4.10	
2025-01-16 13:53:50.29	248.97	4.13	
2025-01-16 13:53:51.10	249.09	4.16	
2025-01-16 13:53:51.91	249.20	4.19	
2025-01-16 13:53:52.72	249.32	4.22	
2025-01-16 13:53:53.54	249.43	4.25	
2025-01-16 13:53:54.35	249.55	4.29	
2025-01-16 13:53:55.16	249.66	4.32	
2025-01-16 13:53:55.97	249.78	4.35	
2025-01-16 13:53:56.78	249.90	4.38	
2025-01-16 13:53:57.60	250.01	4.41	
2025-01-16 13:53:58.41	250.13	4.44	
2025-01-16 13:53:59.22	250.25	4.47	
2025-01-16 13:54:00.03	250.37	4.50	
2025-01-16 13:54:00.84	250.48	4.53	
2025-01-16 13:54:01.65	250.60	4.56	
2025-01-16 13:54:02.47	250.72	4.59	
2025-01-16 13:54:03.28	250.84	4.62	
2025-01-16 13:54:04.09	250.96	4.65	
2025-01-16 13:54:04.90	251.08	4.68	
2025-01-16 13:54:05.71	251.20	4.71	
2025-01-16 13:54:06.53	251.32	4.74	
2025-01-16 13:54:07.34	251.44	4.76	
2025-01-16 13:54:08.15	251.56	4.79	
2025-01-16 13:54:08.96	251.68	4.82	
2025-01-16 13:54:09.77	251.80	4.85	
2025-01-16 13:54:10.59	251.92	4.88	
2025-01-16 13:54:11.40	252.04	4.91	
2025-01-16 13:54:12.21	252.16	4.94	
2025-01-16 13:54:13.02	252.28	4.97	
2025-01-16 13:54:13.83	252.40	5.00	
2025-01-16 13:54:14.65	252.53	5.03	
2025-01-16 13:54:15.46	252.65	5.06	
2025-01-16 13:54:16.27	252.77	5.08	
2025-01-16 13:54:17.08	252.89	5.11	
2025-01-16 13:54:17.89	253.02	5.14	
2025-01-16 13:54:18.71	253.14	5.17	
2025-01-16 13:54:19.52	253.26	5.20	
2025-01-16 13:54:20.33	253.39	5.23	
2025-01-16 13:54:21.14	253.51	5.26	
2025-01-16 13:54:21.95	253.64	5.28	
2025-01-16 13:54:22.76	253.76	5.31	
2025-01-16 13:54:23.58	253.89	5.34	
2025-01-16 13:54:24.39	254.01	5.37	
2025-01-16 13:54:25.20	254.14	5.40	
2025-01-16 13:54:26.01	254.26	5.42	
2025-01-16 13:54:26.82	254.39	5.45	
2025-01-16 13:54:27.64	254.51	5.48	
2025-01-16 13:54:28.45	254.64	5.51	
2025-01-16 13:54:29.26	254.77	5.54	
2025-01-16 13:54:30.07	254.89	5.56	
2025-01-16 13:54:30.88	255.02	5.59	
2025-01-16 13:54:31.70	255.15	5.62	
2025-01-16 13:54:32.51	255.28	5.65	
2025-01-16 13:54:33.32	255.40	5.67	
2025-01-16 13:54:34.13	255.53	5.70	
2025-01-16 13:54:34.94	255.66	5.73	
2025-01-16 13:54:35.76	255.79	5.75	
2025-01-16 13:54:36.57	255.92	5.78	
2025-01-16 13:54:37.38	256.05	5.81	
2025-01-16 13:54:38.19	256.18	5.83	
2025-01-16 13:54:39.00	256.31	5.86	
2025-01-16 13:54:39.82	256.44	5.89	
2025-01-16 13:54:40.63	256.57	5.91	
2025-01-16 13:54:41.44	256.70	5.94	
2025-01-16 13:54:42.25	256.83	5.97	
2025-01-16 13:54:43.06	256.96	5.99	
2025-01-16 13:54:43.87	257.09	6.02	
2025-01-16 13:54:44.69	257.22	6.05	
2025-01-16 13:54:45.50	257.35	6.07	
2025-01-16 13:54:46.31	257.49	6.10	
2025-01-16 13:54:47.12	257.62	6.12	
2025-01-16 13:54:47.93	257.75	6.15	
2025-01-16 13:54:48.75	257.88	6.17	
2025-01-16 13:54:49.56	258.02	6.20	
2025-01-16 13:54:50.37	258.15	6.22	
2025-01-16 13:54:51.18	258.28	6.25	
2025-01-16 13:54:51.99	258.41	6.28	
2025-01-16 13:54:52.81	258.55	6.30	
2025-01-16 13:54:53.62	258.68	6.33	
2025-01-16 13:54:54.43	258.82	6.35	
2025-01-16 13:54:55.24	258.95	6.37	
2025-01-16 13:54:56.05	259.09	6.40	
2025-01-16 13:54:56.87	259.22	6.42	
2025-01-16 13:54:57.68	259.36	6.45	
2025-01-16 13:54:58.49	259.49	6.47	
2025-01-16 13:54:59.30	259.63	6.50	
2025-01-16 13:55:00.11	259.76	6.52	
2025-01-16 13:55:00.92	259.90	6.55	
2025-01-16 13:55:01.74	260.04	6.57	
2025-01-16 13:55:02.55	260.17	6.59	
2025-01-16 13:55:03.36	260.31	6.62	
2025-01-16 13:55:04.17	260.45	6.64	
2025-01-16 13:55:04.98	260.58	6.66	
2025-01-16 13:55:05.80	260.72	6.69	
2025-01-16 13:55:06.61	260.86	6.71	
2025-01-16 13:55:07.42	261.00	6.73	
2025-01-16 13:55:08.23	261.14	6.76	
2025-01-16 13:55:09.04	261.28	6.78	
2025-01-16 13:55:09.86	261.42	6.80	
2025-01-16 13:55:10.67	261.55	6.83	
2025-01-16 13:55:11.48	261.69	6.85	
2025-01-16 13:55:12.29	261.83	6.87	
2025-01-16 13:55:13.10	261.97	6.89	
2025-01-16 13:55:13.92	262.11	6.92	
2025-01-16 13:55:14.73	262.25	6.94	
2025-01-16 13:55:15.54	262.39	6.96	
2025-01-16 13:55:16.35	262.53	6.98	
2025-01-16 13:55:17.16	262.67	7.00	
2025-01-16 13:55:17.98	262.82	7.03	
2025-01-16 13:55:18.79	262.96	7.05	
2025-01-16 13:55:19.60	263.10	7.07	
2025-01-16 13:55:20.41	263.24	7.09	
2025-01-16 13:55:21.22	263.38	7.11	
2025-01-16 13:55:22.03	263.52	7.13	
2025-01-16 13:55:22.85	263.67	7.15	
2025-01-16 13:55:23.66	263.81	7.17	
2025-01-16 13:55:24.47	263.95	7.20	
2025-01-16 13:55:25.28	264.09	7.22	
2025-01-16 13:55:26.09	264.24	7.24	
2025-01-16 13:55:26.91	264.38	7.26	
2025-01-16 13:55:27.72	264.52	7.28	
2025-01-16 13:55:28.53	264.67	7.30	
2025-01-16 13:55:29.34	264.81	7.32	
2025-01-16 13:55:30.15	264.96	7.34	
2025-01-16 13:55:30.97	265.10	7.36	
2025-01-16 13:55:31.78	265.25	7.38	
2025-01-16 13:55:32.59	265.39	7.40	
2025-01-16 13:55:33.40	265.54	7.42	
2025-01-16 13:55:34.21	265.68	7.43	
2025-01-16 13:55:35.03	265.83	7.45	
2025-01-16 13:55:35.84	265.97	7.47	
2025-01-16 13:55:36.65	266.12	7.49	
2025-01-16 13:55:37.46	266.26	7.51	
2025-01-16 13:55:38.27	266.41	7.53	
2025-01-16 13:55:39.09	266.56	7.55	
2025-01-16 13:55:39.90	266.70	7.57	
2025-01-16 13:55:40.71	266.85	7.58	
2025-01-16 13:55:41.52	267.00	7.60	
2025-01-16 13:55:42.33	267.14	7.62	
2025-01-16 13:55:43.14	267.29	7.64	
2025-01-16 13:55:43.96	267.44	7.65	
2025-01-16 13:55:44.77	267.59	7.67	
2025-01-16 13:55:45.58	267.73	7.69	
2025-01-16 13:55:46.39	267.88	7.71	
2025-01-16 13:55:47.20	268.03	7.72	
2025-01-16 13:55:48.02	268.18	7.74	
2025-01-16 13:55:48.83	268.33	7.76	
2025-01-16 13:55:49.64	268.48	7.77	
2025-01-16 13:55:50.45	268.63	7.79	
2025-01-16 13:55:51.26	268.77	7.81	
2025-01-16 13:55:52.08	268.92	7.82	
2025-01-16 13:55:52.89	269.07	7.84	
2025-01-16 13:55:53.70	269.22	7.85	
2025-01-16 13:55:54.51	269.37	7.87	
2025-01-16 13:55:55.32	269.52	7.89	
2025-01-16 13:55:56.14	269.67	7.90	
2025-01-16 13:55:56.95	269.82	7.92	
2025-01-16 13:55:57.76	269.97	7.93	
2025-01-16 13:55:58.57	270.12	7.95	
2025-01-16 13:55:59.38	270.27	7.96	
2025-01-16 13:56:00.20	270.43	7.98	
2025-01-16 13:56:01.01	270.58	7.99	
2025-01-16 13:56:01.82	270.73	8.00	
2025-01-16 13:56:02.63	270.88	8.02	
2025-01-16 13:56:03.44	271.03	8.03	
2025-01-16 13:56:04.25	271.18	8.05	
2025-01-16 13:56:05.07	271.34	8.06	
2025-01-16 13:56:05.88	271.49	8.07	
2025-01-16 13:56:06.69	271.64	8.09	
2025-01-16 13:56:07.50	271.79	8.10	
2025-01-16 13:56:08.31	271.94	8.11	
2025-01-16 13:56:09.13	272.10	8.13	
2025-01-16 13:56:09.94	272.25	8.14	
2025-01-16 13:56:10.75	272.40	8.15	
2025-01-16 13:56:11.56	272.56	8.16	
2025-01-16 13:56:12.37	272.71	8.18	
2025-01-16 13:56:13.19	272.86	8.19	
2025-01-16 13:56:14.00	273.02	8.20	
2025-01-16 13:56:14.81	273.17	8.21	
2025-01-16 13:56:15.62	273.32	8.22	
2025-01-16 13:56:16.43	273.48	8.23	
2025-01-16 13:56:17.25	273.63	8.25	
2025-01-16 13:56:18.06	273.79	8.26	
2025-01-16 13:56:18.87	273.94	8.27	
2025-01-16 13:56:19.68	274.09	8.28	
2025-01-16 13:56:20.49	274.25	8.29	
2025-01-16 13:56:21.30	274.40	8.30	
2025-01-16 13:56:22.12	274.56	8.31	
2025-01-16 13:56:22.93	274.71	8.32	
2025-01-16 13:56:23.74	274.87	8.33	
2025-01-16 13:56:24.55	275.02	8.34	
2025-01-16 13:56:25.36	275.18	8.35	
2025-01-16 13:56:26.18	275.33	8.36	
2025-01-16 13:56:26.99	275.49	8.37	
2025-01-16 13:56:27.80	275.64	8.38	
2025-01-16 13:56:28.61	275.80	8.39	
2025-01-16 13:56:29.42	275.95	8.40	
2025-01-16 13:56:30.24	276.11	8.40	
2025-01-16 13:56:31.05	276.27	8.41	
2025-01-16 13:56:31.86	276.42	8.42	
2025-01-16 13:56:32.67	276.58	8.43	
2025-01-16 13:56:33.48	276.73	8.44	
2025-01-16 13:56:34.30	276.89	8.45	
2025-01-16 13:56:35.11	277.05	8.45	
2025-01-16 13:56:35.92	277.20	8.46	
2025-01-16 13:56:36.73	277.36	8.47	
2025-01-16 13:56:37.54	277.51	8.47	
2025-01-16 13:56:38.36	277.67	8.48	
2025-01-16 13:56:39.17	277.83	8.49	
2025-01-16 13:56:39.98	277.98	8.50	
2025-01-16 13:56:40.79	278.14	8.50	
2025-01-16 13:56:41.60	278.30	8.51	
2025-01-16 13:56:42.41	278.45	8.51	
2025-01-16 13:56:43.23	278.61	8.52	
2025-01-16 13:56:44.04	278.77	8.53	
2025-01-16 13:56:44.85	278.93	8.53	
2025-01-16 13:56:45.66	279.08	8.54	
2025-01-16 13:56:46.47	279.24	8.54	
2025-01-16 13:56:47.29	279.40	8.55	
2025-01-16 13:56:48.10	279.55	8.55	
2025-01-16 13:56:48.91	279.71	8.56	
2025-01-16 13:56:49.72	279.87	8.56	
2025-01-16 13:56:50.53	280.03	8.56	
2025-01-16 13:56:51.35	280.18	8.57	
2025-01-16 13:56:52.16	280.34	8.57	
2025-01-16 13:56:52.97	280.50	8.58	
2025-01-16 13:56:53.78	280.66	8.58	
2025-01-16 13:56:54.59	280.81	8.58	
2025-01-16 13:56:55.41	280.97	8.59	
2025-01-16 13:56:56.22	281.13	8.59	
2025-01-16 13:56:57.03	281.29	8.59	
2025-01-16 13:56:57.84	281.44	8.60	
2025-01-16 13:56:58.65	281.60	8.60	
2025-01-16 13:56:59.47	281.76	8.60	
2025-01-16 13:57:00.28	281.92	8.60	
2025-01-16 13:57:01.09	282.08	8.60	
2025-01-16 13:57:01.90	282.23	8.61	
2025-01-16 13:57:02.71	282.39	8.61	
2025-01-16 13:57:03.52	282.55	8.61	
2025-01-16 13:57:04.34	282.71	8.61	
2025-01-16 13:57:05.15	282.87	8.61	
2025-01-16 13:57:05.96	283.02	8.61	
2025-01-16 13:57:06.77	283.18	8.61	
2025-01-16 13:57:07.58	283.34	8.61	
2025-01-16 13:57:08.40	283.50	8.61	
2025-01-16 13:57:09.21	283.66	8.61	
2025-01-16 13:57:10.02	283.81	8.61	
2025-01-16 13:57:10.83	283.97	8.61	
2025-01-16 13:57:11.64	284.13	8.61	
2025-01-16 13:57:12.46	284.29	8.61	
2025-01-16 13:57:13.27	284.45	8.61	
2025-01-16 13:57:14.08	284.60	8.61	
2025-01-16 13:57:14.89	284.76	8.61	
2025-01-16 13:57:15.70	284.92	8.61	
2025-01-16 13:57:16.52	285.08	8.61	
2025-01-16 13:57:17.33	285.24	8.61	
2025-01-16 13:57:18.14	285.39	8.61	
2025-01-16 13:57:18.95	285.55	8.60	
2025-01-16 13:57:19.76	285.71	8.60	
2025-01-16 13:57:20.58	285.87	8.60	
2025-01-16 13:57:21.39	286.02	8.60	
2025-01-16 13:57:22.20	286.18	8.59	
2025-01-16 13:57:23.01	286.34	8.59	
2025-01-16 13:57:23.82	286.50	8.59	
2025-01-16 13:57:24.63	286.65	8.59	
2025-01-16 13:57:25.45	286.81	8.58	
2025-01-16 13:57:26.26	286.97	8.58	
2025-01-16 13:57:27.07	287.13	8.57	
2025-01-16 13:57:27.88	287.28	8.57	
2025-01-16 13:57:28.69	287.44	8.57	
2025-01-16 13:57:29.51	287.60	8.56	
2025-01-16 13:57:30.32	287.76	8.56	
2025-01-16 13:57:31.13	287.91	8.55	
2025-01-16 13:57:31.94	288.07	8.55	
2025-01-16 13:57:32.75	288.23	8.54	
2025-01-16 13:57:33.57	288.39	8.54	
2025-01-16 13:57:34.38	288.54	8.53	
2025-01-16 13:57:35.19	288.70	8.53	
2025-01-16 13:57:36.00	288.86	8.52	
2025-01-16 13:57:36.81	289.01	8.52	
2025-01-16 13:57:37.63	289.17	8.51	
2025-01-16 13:57:38.44	289.33	8.50	
2025-01-16 13:57:39.25	289.48	8.50	
2025-01-16 13:57:40.06	289.64	8.49	
2025-01-16 13:57:40.87	289.79	8.48	
2025-01-16 13:57:41.68	289.95	8.48	
2025-01-16 13:57:42.50	290.11	8.47	
2025-01-16 13:57:43.31	290.26	8.46	
2025-01-16 13:57:44.12	290.42	8.46	
2025-01-16 13:57:44.93	290.58	8.45	
2025-01-16 13:57:45.74	290.73	8.44	
2025-01-16 13:57:46.56	290.89	8.43	
2025-01-16 13:57:47.37	291.04	8.43	
2025-01-16 13:57:48.18	291.20	8.42	
2025-01-16 13:57:48.99	291.35	8.41	
2025-01-16 13:57:49.80	291.51	8.40	
2025-01-16 13:57:50.62	291.67	8.39	
2025-01-16 13:57:51.43	291.82	8.38	
2025-01-16 13:57:52.24	291.98	8.37	
2025-01-16 13:57:53.05	292.13	8.36	
2025-01-16 13:57:53.86	292.28	8.35	
2025-01-16 13:57:54.68	292.44	8.35	
2025-01-16 13:57:55.49	292.60	8.34	
2025-01-16 13:57:56.30	292.75	8.33	
2025-01-16 13:57:57.11	292.90	8.32	
2025-01-16 13:57:57.92	293.06	8.31	
2025-01-16 13:57:58.74	293.21	8.29	
2025-01-16 13:57:59.55	293.37	8.28	
2025-01-16 13:58:00.36	293.52	8.27	
2025-01-16 13:58:01.17	293.67	8.26	
2025-01-16 13:58:01.98	293.83	8.25	
2025-01-16 13:58:02.81	293.99	8.24	
2025-01-16 13:58:03.62	294.14	8.23	
2025-01-16 13:58:04.43	294.29	8.22	
2025-01-16 13:58:05.25	294.45	8.21	
2025-01-16 13:58:06.06	294.60	8.19	
2025-01-16 13:58:06.87	294.75	8.18	
2025-01-16 13:58:07.68	294.90	8.17	
2025-01-16 13:58:08.49	295.06	8.16	
2025-01-16 13:58:09.31	295.21	8.14	
2025-01-16 13:58:10.12	295.36	8.13	
2025-01-16 13:58:10.93	295.51	8.12	
2025-01-16 13:58:11.74	295.67	8.11	
2025-01-16 13:58:12.55	295.82	8.09	
2025-01-16 13:58:13.37	295.97	8.08	
2025-01-16 13:58:14.18	296.12	8.07	
2025-01-16 13:58:14.99	296.27	8.05	
2025-01-16 13:58:15.80	296.42	8.04	
2025-01-16 13:58:16.61	296.58	8.03	
2025-01-16 13:58:17.43	296.73	8.01	
2025-01-16 13:58:18.24	296.88	8.00	
2025-01-16 13:58:19.05	297.03	7.98	
2025-01-16 13:58:19.86	297.18	7.97	
2025-01-16 13:58:20.67	297.33	7.95	
2025-01-16 13:58:21.48	297.48	7.94	
2025-01-16 13:58:22.30	297.63	7.92	
2025-01-16 13:58:23.11	297.78	7.91	
2025-01-16 13:58:23.92	297.93	7.89	
2025-01-16 13:58:24.73	298.08	7.88	
2025-01-16 13:58:25.54	298.23	7.86	
2025-01-16 13:58:26.36	298.38	7.85	
2025-01-16 13:58:27.17	298.53	7.83	
2025-01-16 13:58:27.98	298.68	7.82	
2025-01-16 13:58:28.79	298.82	7.80	
2025-01-16 13:58:29.60	298.97	7.78	
2025-01-16 13:58:30.42	299.12	7.77	
2025-01-16 13:58:31.23	299.27	7.75	
2025-01-16 13:58:32.04	299.42	7.73	
2025-01-16 13:58:32.85	299.57	7.72	
2025-01-16 13:58:33.66	299.71	7.70	
2025-01-16 13:58:34.48	299.86	7.68	
2025-01-16 13:58:35.29	300.01	7.66	
2025-01-16 13:58:36.10	300.16	7.65	
2025-01-16 13:58:36.91	300.30	7.63	
2025-01-16 13:58:37.72	300.45	7.61	
2025-01-16 13:58:38.53	300.59	7.59	
2025-01-16 13:58:39.35	300.74	7.58	
2025-01-16 13:58:40.16	300.89	7.56	
2025-01-16 13:58:40.97	301.03	7.54	
2025-01-16 13:58:41.78	301.18	7.52	
2025-01-16 13:58:42.59	301.32	7.50	
2025-01-16 13:58:43.41	301.47	7.48	
2025-01-16 13:58:44.22	301.62	7.47	
2025-01-16 13:58:45.03	301.76	7.45	
2025-01-16 13:58:45.84	301.91	7.43	
2025-01-16 13:58:46.65	302.05	7.41	
2025-01-16 13:58:47.47	302.20	7.39	
2025-01-16 13:58:48.28	302.34	7.37	
2025-01-16 13:58:49.09	302.48	7.35	
2025-01-16 13:58:49.90	302.63	7.33	
2025-01-16 13:58:50.71	302.77	7.31	
2025-01-16 13:58:51.53	302.91	7.29	
2025-01-16 13:58:52.34	303.06	7.27	
2025-01-16 13:58:53.15	303.20	7.25	
2025-01-16 13:58:53.96	303.34	7.23	
2025-01-16 13:58:54.77	303.48	7.21	
2025-01-16 13:58:55.59	303.63	7.19	
2025-01-16 13:58:56.40	303.77	7.17	
2025-01-16 13:58:57.21	303.91	7.15	
2025-01-16 13:58:58.02	304.05	7.13	
2025-01-16 13:58:58.83	304.19	7.11	
2025-01-16 13:58:59.64	304.33	7.09	
2025-01-16 13:59:00.46	304.48	7.06	
2025-01-16 13:59:01.27	304.62	7.04	
2025-01-16 13:59:02.08	304.76	7.02	
2025-01-16 13:59:02.89	304.90	7.00	
2025-01-16 13:59:03.70	305.04	6.98	
2025-01-16 13:59:04.52	305.18	6.96	
2025-01-16 13:59:05.33	305.32	6.93	
2025-01-16 13:59:06.14	305.46	6.91	
2025-01-16 13:59:06.95	305.60	6.89	
2025-01-16 13:59:07.76	305.73	6.87	
2025-01-16 13:59:08.58	305.87	6.84	
2025-01-16 13:59:09.39	306.01	6.82	
2025-01-16 13:59:10.20	306.15	6.80	
2025-01-16 13:59:11.01	306.29	6.78	
2025-01-16 13:59:11.82	306.43	6.75	
2025-01-16 13:59:12.64	306.56	6.73	
2025-01-16 13:59:13.45	306.70	6.71	
2025-01-16 13:59:14.26	306.84	6.68	
2025-01-16 13:59:15.07	306.98	6.66	
2025-01-16 13:59:15.88	307.11	6.64	
2025-01-16 13:59:16.70	307.25	6.61	
2025-01-16 13:59:17.51	307.39	6.59	
2025-01-16 13:59:18.32	307.52	6.57	
2025-01-16 13:59:19.13	307.66	6.54	
2025-01-16 13:59:19.94	307.79	6.52	
2025-01-16 13:59:20.75	307.93	6.50	
2025-01-16 13:59:21.57	308.06	6.47	
2025-01-16 13:59:22.38	308.20	6.45	
2025-01-16 13:59:23.19	308.33	6.42	
2025-01-16 13:59:24.00	308.47	6.40	
2025-01-16 13:59:24.81	308.60	6.37	
2025-01-16 13:59:25.63	308.73	6.35	
2025-01-16 13:59:26.44	308.87	6.32	
2025-01-16 13:59:27.25	309.00	6.30	
2025-01-16 13:59:28.06	309.13	6.27	
2025-01-16 13:59:28.87	309.27	6.25	
2025-01-16 13:59:29.69	309.40	6.22	
2025-01-16 13:59:30.50	309.53	6.20	
2025-01-16 13:59:31.31	309.66	6.17	
2025-01-16 13:59:32.12	309.80	6.15	
2025-01-16 13:59:32.93	309.93	6.12	
2025-01-16 13:59:33.75	310.06	6.10	
2025-01-16 13:59:34.56	310.19	6.07	
2025-01-16 13:59:35.37	310.32	6.05	
2025-01-16 13:59:36.18	310.45	6.02	
2025-01-16 13:59:36.99	310.58	5.99	
2025-01-16 13:59:37.80	310.71	5.97	
2025-01-16 13:59:38.62	310.84	5.94	
2025-01-16 13:59:39.43	310.97	5.92	
2025-01-16 13:59:40.24	311.10	5.89	
2025-01-16 13:59:41.05	311.23	5.86	
2025-01-16 13:59:41.86	311.36	5.84	
2025-01-16 13:59:42.68	311.49	5.81	
2025-01-16 13:59:43.49	311.62	5.78	
2025-01-16 13:59:44.30	311.74	5.76	
2025-01-16 13:59:45.11	311.87	5.73	
2025-01-16 13:59:45.92	312.00	5.70	
2025-01-16 13:59:46.74	312.13	5.68	
2025-01-16 13:59:47.55	312.26	5.65	
2025-01-16 13:59:48.36	312.38	5.62	
2025-01-16 13:59:49.17	312.51	5.59	
2025-01-16 13:59:49.98	312.63	5.57	
2025-01-16 13:59:50.80	312.76	5.54	
2025-01-16 13:59:51.61	312.89	5.51	
2025-01-16 13:59:52.42	313.01	5.49	
2025-01-16 13:59:53.23	313.14	5.46	
2025-01-16 13:59:54.04	313.26	5.43	
2025-01-16 13:59:54.86	313.39	5.40	
2025-01-16 13:59:55.67	313.51	5.37	
2025-01-16 13:59:56.48	313.64	5.35	
2025-01-16 13:59:57.29	313.76	5.32	
2025-01-16 13:59:58.10	313.89	5.29	
2025-01-16 13:59:58.91	314.01	5.26	
2025-01-16 13:59:59.73	314.13	5.23	
2025-01-16 14:00:00.54	314.26	5.21	
2025-01-16 14:00:01.35	314.38	5.18	
2025-01-16 14:00:02.16	314.50	5.15	
2025-01-16 14:00:02.97	314.62	5.12	
2025-01-16 14:00:03.79	314.75	5.09	
2025-01-16 14:00:04.60	314.87	5.06	
2025-01-16 14:00:05.41	314.99	5.04	
2025-01-16 14:00:06.22	315.11	5.01	
2025-01-16 14:00:07.03	315.23	4.98	
2025-01-16 14:00:07.85	315.35	4.95	
2025-01-16 14:00:08.66	315.47	4.92	
2025-01-16 14:00:09.47	315.59	4.89	
2025-01-16 14:00:10.28	315.71	4.86	
2025-01-16 14:00:11.09	315.83	4.83	
2025-01-16 14:00:11.91	315.95	4.80	
2025-01-16 14:00:12.72	316.07	4.77	
2025-01-16 14:00:13.53	316.19	4.75	
2025-01-16 14:00:14.34	316.31	4.72	
2025-01-16 14:00:15.15	316.43	4.69	
2025-01-16 14:00:15.97	316.55	4.66	
2025-01-16 14:00:16.78	316.67	4.63	
2025-01-16 14:00:17.59	316.78	4.60	
2025-01-16 14:00:18.40	316.90	4.57	
2025-01-16 14:00:19.21	317.02	4.54	
2025-01-16 14:00:20.02	317.14	4.51	
2025-01-16 14:00:20.84	317.25	4.48	
2025-01-16 14:00:21.65	317.37	4.45	
2025-01-16 14:00:22.46	317.49	4.42	
2025-01-16 14:00:23.27	317.60	4.39	
2025-01-16 14:00:24.08	317.72	4.36	
2025-01-16 14:00:24.90	317.83	4.33	
2025-01-16 14:00:25.71	317.95	4.30	
2025-01-16 14:00:26.52	318.06	4.27	
2025-01-16 14:00:27.33	318.18	4.24	
2025-01-16 14:00:28.14	318.29	4.21	
2025-01-16 14:00:28.96	318.41	4.18	
2025-01-16 14:00:29.77	318.52	4.15	
2025-01-16 14:00:30.58	318.64	4.12	
2025-01-16 14:00:31.39	318.75	4.09	
2025-01-16 14:00:32.20	318.86	4.06	
2025-01-16 14:00:33.02	318.98	4.03	
2025-01-16 14:00:33.83	319.09	4.00	

#Closed at: 2025-01-16 14:00:34