passes_logs/2025/01/16/SPB_Silybum_02/SPB_Silybum_02__20250116_041406_AQUA_rec.log

#Pass ID: 20250116_041406_AQUA
#Satellite: AQUA
#Configuration: AQUA
#Start time: 2025-01-16 04:14:06

#Version: 2.0.20230423
#Station: SPB_Silybum_02
#Location: 30.233357 lon 59.946436 lat
#TLE: 1 27424U 02022A   25015.14217918  .00001674  00000+0  35361-3 0  9999
#TLE: 2 27424  98.3589 331.8074 0001731 111.2907 305.4435 14.60682485207649

#Time	Az	El	Level	Level2	SNR	BER	Gain	Gain2
2025-01-16 04:14:08.66	6.83	4.10	
2025-01-16 04:14:09.47	6.72	4.14	
2025-01-16 04:14:10.29	6.62	4.17	
2025-01-16 04:14:11.10	6.51	4.21	
2025-01-16 04:14:11.91	6.41	4.25	
2025-01-16 04:14:12.72	6.31	4.28	
2025-01-16 04:14:13.54	6.20	4.32	
2025-01-16 04:14:14.35	6.09	4.35	
2025-01-16 04:14:15.16	5.99	4.39	
2025-01-16 04:14:15.97	5.88	4.43	
2025-01-16 04:14:16.79	5.78	4.46	
2025-01-16 04:14:17.60	5.67	4.50	
2025-01-16 04:14:18.41	5.56	4.54	
2025-01-16 04:14:19.22	5.46	4.57	
2025-01-16 04:14:20.03	5.35	4.61	
2025-01-16 04:14:20.85	5.24	4.65	
2025-01-16 04:14:21.66	5.13	4.68	
2025-01-16 04:14:22.47	5.02	4.72	
2025-01-16 04:14:23.28	4.92	4.75	
2025-01-16 04:14:24.10	4.81	4.79	
2025-01-16 04:14:24.91	4.70	4.83	
2025-01-16 04:14:25.72	4.59	4.86	
2025-01-16 04:14:26.53	4.48	4.90	
2025-01-16 04:14:27.35	4.37	4.94	
2025-01-16 04:14:28.16	4.26	4.97	
2025-01-16 04:14:28.97	4.15	5.01	
2025-01-16 04:14:29.78	4.04	5.04	
2025-01-16 04:14:30.59	3.92	5.08	
2025-01-16 04:14:31.41	3.81	5.11	
2025-01-16 04:14:32.22	3.70	5.15	
2025-01-16 04:14:33.03	3.59	5.19	
2025-01-16 04:14:33.84	3.48	5.22	
2025-01-16 04:14:34.66	3.36	5.26	
2025-01-16 04:14:35.47	3.25	5.29	
2025-01-16 04:14:36.28	3.13	5.33	
2025-01-16 04:14:37.09	3.02	5.36	
2025-01-16 04:14:37.91	2.91	5.40	
2025-01-16 04:14:38.72	2.79	5.43	
2025-01-16 04:14:39.53	2.68	5.47	
2025-01-16 04:14:40.34	2.56	5.50	
2025-01-16 04:14:41.16	2.45	5.54	
2025-01-16 04:14:41.97	2.33	5.58	
2025-01-16 04:14:42.78	2.21	5.61	
2025-01-16 04:14:43.59	2.10	5.65	
2025-01-16 04:14:44.40	1.98	5.68	
2025-01-16 04:14:45.22	1.86	5.72	
2025-01-16 04:14:46.03	1.75	5.75	
2025-01-16 04:14:46.84	1.63	5.79	
2025-01-16 04:14:47.65	1.51	5.82	
2025-01-16 04:14:48.47	1.39	5.86	
2025-01-16 04:14:49.28	1.27	5.89	
2025-01-16 04:14:50.09	1.16	5.92	
2025-01-16 04:14:50.90	1.04	5.96	
2025-01-16 04:14:51.72	0.92	5.99	
2025-01-16 04:14:52.53	0.80	6.03	
2025-01-16 04:14:53.34	0.68	6.06	
2025-01-16 04:14:54.15	0.56	6.10	
2025-01-16 04:14:54.96	0.44	6.13	
2025-01-16 04:14:55.78	0.31	6.17	
2025-01-16 04:14:56.59	0.19	6.20	
2025-01-16 04:14:57.40	0.07	6.23	
2025-01-16 04:14:58.21	359.95	6.27	
2025-01-16 04:14:59.03	359.83	6.30	
2025-01-16 04:14:59.84	359.70	6.34	
2025-01-16 04:15:00.65	359.58	6.37	
2025-01-16 04:15:01.46	359.46	6.40	
2025-01-16 04:15:02.28	359.33	6.44	
2025-01-16 04:15:03.09	359.21	6.47	
2025-01-16 04:15:03.90	359.09	6.50	
2025-01-16 04:15:04.71	358.96	6.54	
2025-01-16 04:15:05.53	358.84	6.57	
2025-01-16 04:15:06.34	358.71	6.60	
2025-01-16 04:15:07.15	358.59	6.64	
2025-01-16 04:15:07.96	358.46	6.67	
2025-01-16 04:15:08.77	358.33	6.70	
2025-01-16 04:15:09.59	358.21	6.74	
2025-01-16 04:15:10.40	358.08	6.77	
2025-01-16 04:15:11.21	357.95	6.80	
2025-01-16 04:15:12.02	357.83	6.84	
2025-01-16 04:15:12.84	357.70	6.87	
2025-01-16 04:15:13.65	357.57	6.90	
2025-01-16 04:15:14.46	357.44	6.93	
2025-01-16 04:15:15.27	357.31	6.97	
2025-01-16 04:15:16.09	357.18	7.00	
2025-01-16 04:15:16.90	357.05	7.03	
2025-01-16 04:15:17.71	356.92	7.06	
2025-01-16 04:15:18.52	356.80	7.10	
2025-01-16 04:15:19.33	356.67	7.13	
2025-01-16 04:15:20.15	356.53	7.16	
2025-01-16 04:15:20.96	356.40	7.19	
2025-01-16 04:15:21.77	356.27	7.22	
2025-01-16 04:15:22.58	356.14	7.25	
2025-01-16 04:15:23.40	356.01	7.29	
2025-01-16 04:15:24.21	355.88	7.32	
2025-01-16 04:15:25.02	355.74	7.35	
2025-01-16 04:15:25.83	355.61	7.38	
2025-01-16 04:15:26.65	355.48	7.41	
2025-01-16 04:15:27.46	355.34	7.44	
2025-01-16 04:15:28.28	355.21	7.47	
2025-01-16 04:15:29.09	355.07	7.51	
2025-01-16 04:15:29.90	354.94	7.54	
2025-01-16 04:15:30.71	354.81	7.57	
2025-01-16 04:15:31.53	354.67	7.60	
2025-01-16 04:15:32.34	354.53	7.63	
2025-01-16 04:15:33.15	354.40	7.66	
2025-01-16 04:15:33.96	354.26	7.69	
2025-01-16 04:15:34.78	354.13	7.72	
2025-01-16 04:15:35.59	353.99	7.75	
2025-01-16 04:15:36.40	353.85	7.78	
2025-01-16 04:15:37.21	353.72	7.81	
2025-01-16 04:15:38.03	353.58	7.84	
2025-01-16 04:15:38.84	353.44	7.87	
2025-01-16 04:15:39.65	353.30	7.90	
2025-01-16 04:15:40.46	353.16	7.93	
2025-01-16 04:15:41.28	353.02	7.96	
2025-01-16 04:15:42.09	352.88	7.99	
2025-01-16 04:15:42.90	352.75	8.02	
2025-01-16 04:15:43.71	352.61	8.05	
2025-01-16 04:15:44.52	352.47	8.07	
2025-01-16 04:15:45.34	352.32	8.10	
2025-01-16 04:15:46.15	352.18	8.13	
2025-01-16 04:15:46.96	352.04	8.16	
2025-01-16 04:15:47.77	351.90	8.19	
2025-01-16 04:15:48.59	351.76	8.22	
2025-01-16 04:15:49.40	351.62	8.25	
2025-01-16 04:15:50.21	351.48	8.27	
2025-01-16 04:15:51.02	351.33	8.30	
2025-01-16 04:15:51.84	351.19	8.33	
2025-01-16 04:15:52.65	351.05	8.36	
2025-01-16 04:15:53.46	350.90	8.38	
2025-01-16 04:15:54.27	350.76	8.41	
2025-01-16 04:15:55.08	350.62	8.44	
2025-01-16 04:15:55.90	350.47	8.47	
2025-01-16 04:15:56.71	350.33	8.49	
2025-01-16 04:15:57.52	350.18	8.52	
2025-01-16 04:15:58.33	350.04	8.55	
2025-01-16 04:15:59.15	349.89	8.57	
2025-01-16 04:15:59.96	349.75	8.60	
2025-01-16 04:16:00.77	349.60	8.63	
2025-01-16 04:16:01.58	349.45	8.65	
2025-01-16 04:16:02.40	349.31	8.68	
2025-01-16 04:16:03.21	349.16	8.71	
2025-01-16 04:16:04.02	349.01	8.73	
2025-01-16 04:16:04.83	348.87	8.76	
2025-01-16 04:16:05.65	348.72	8.78	
2025-01-16 04:16:06.46	348.57	8.81	
2025-01-16 04:16:07.27	348.42	8.83	
2025-01-16 04:16:08.08	348.27	8.86	
2025-01-16 04:16:08.89	348.12	8.88	
2025-01-16 04:16:09.71	347.97	8.91	
2025-01-16 04:16:10.52	347.82	8.93	
2025-01-16 04:16:11.33	347.67	8.96	
2025-01-16 04:16:12.14	347.53	8.98	
2025-01-16 04:16:12.96	347.37	9.01	
2025-01-16 04:16:13.77	347.22	9.03	
2025-01-16 04:16:14.58	347.07	9.06	
2025-01-16 04:16:15.39	346.92	9.08	
2025-01-16 04:16:16.21	346.77	9.10	
2025-01-16 04:16:17.02	346.62	9.13	
2025-01-16 04:16:17.83	346.47	9.15	
2025-01-16 04:16:18.64	346.31	9.17	
2025-01-16 04:16:19.45	346.16	9.20	
2025-01-16 04:16:20.27	346.01	9.22	
2025-01-16 04:16:21.08	345.86	9.24	
2025-01-16 04:16:21.89	345.70	9.26	
2025-01-16 04:16:22.70	345.55	9.29	
2025-01-16 04:16:23.52	345.39	9.31	
2025-01-16 04:16:24.33	345.24	9.33	
2025-01-16 04:16:25.14	345.09	9.35	
2025-01-16 04:16:25.95	344.93	9.37	
2025-01-16 04:16:26.77	344.78	9.40	
2025-01-16 04:16:27.58	344.62	9.42	
2025-01-16 04:16:28.39	344.47	9.44	
2025-01-16 04:16:29.20	344.31	9.46	
2025-01-16 04:16:30.02	344.15	9.48	
2025-01-16 04:16:30.83	344.00	9.50	
2025-01-16 04:16:31.64	343.84	9.52	
2025-01-16 04:16:32.45	343.69	9.54	
2025-01-16 04:16:33.26	343.53	9.56	
2025-01-16 04:16:34.08	343.37	9.58	
2025-01-16 04:16:34.89	343.21	9.60	
2025-01-16 04:16:35.70	343.06	9.62	
2025-01-16 04:16:36.51	342.90	9.64	
2025-01-16 04:16:37.33	342.74	9.66	
2025-01-16 04:16:38.14	342.58	9.68	
2025-01-16 04:16:38.95	342.42	9.70	
2025-01-16 04:16:39.76	342.27	9.72	
2025-01-16 04:16:40.58	342.11	9.74	
2025-01-16 04:16:41.39	341.95	9.76	
2025-01-16 04:16:42.20	341.79	9.77	
2025-01-16 04:16:43.01	341.63	9.79	
2025-01-16 04:16:43.82	341.47	9.81	
2025-01-16 04:16:44.64	341.31	9.83	
2025-01-16 04:16:45.45	341.15	9.84	
2025-01-16 04:16:46.26	340.99	9.86	
2025-01-16 04:16:47.07	340.83	9.88	
2025-01-16 04:16:47.89	340.67	9.90	
2025-01-16 04:16:48.70	340.50	9.91	
2025-01-16 04:16:49.51	340.34	9.93	
2025-01-16 04:16:50.32	340.18	9.95	
2025-01-16 04:16:51.14	340.02	9.96	
2025-01-16 04:16:51.95	339.86	9.98	
2025-01-16 04:16:52.76	339.70	9.99	
2025-01-16 04:16:53.57	339.53	10.01	
2025-01-16 04:16:54.39	339.37	10.02	
2025-01-16 04:16:55.20	339.21	10.04	
2025-01-16 04:16:56.01	339.05	10.05	
2025-01-16 04:16:56.82	338.88	10.07	
2025-01-16 04:16:57.63	338.72	10.08	
2025-01-16 04:16:58.45	338.56	10.10	
2025-01-16 04:16:59.26	338.39	10.11	
2025-01-16 04:17:00.07	338.23	10.13	
2025-01-16 04:17:00.88	338.07	10.14	
2025-01-16 04:17:01.70	337.90	10.15	
2025-01-16 04:17:02.51	337.74	10.17	
2025-01-16 04:17:03.32	337.57	10.18	
2025-01-16 04:17:04.13	337.41	10.19	
2025-01-16 04:17:04.95	337.24	10.21	
2025-01-16 04:17:05.76	337.08	10.22	
2025-01-16 04:17:06.57	336.91	10.23	
2025-01-16 04:17:07.38	336.75	10.24	
2025-01-16 04:17:08.19	336.58	10.25	
2025-01-16 04:17:09.01	336.42	10.27	
2025-01-16 04:17:09.82	336.25	10.28	
2025-01-16 04:17:10.63	336.09	10.29	
2025-01-16 04:17:11.44	335.92	10.30	
2025-01-16 04:17:12.26	335.75	10.31	
2025-01-16 04:17:13.07	335.59	10.32	
2025-01-16 04:17:13.88	335.42	10.33	
2025-01-16 04:17:14.69	335.26	10.34	
2025-01-16 04:17:15.51	335.09	10.35	
2025-01-16 04:17:16.32	334.92	10.36	
2025-01-16 04:17:17.13	334.76	10.37	
2025-01-16 04:17:17.94	334.59	10.38	
2025-01-16 04:17:18.76	334.42	10.39	
2025-01-16 04:17:19.57	334.25	10.40	
2025-01-16 04:17:20.38	334.09	10.41	
2025-01-16 04:17:21.19	333.92	10.42	
2025-01-16 04:17:22.00	333.75	10.42	
2025-01-16 04:17:22.82	333.58	10.43	
2025-01-16 04:17:23.63	333.42	10.44	
2025-01-16 04:17:24.44	333.25	10.45	
2025-01-16 04:17:25.25	333.08	10.45	
2025-01-16 04:17:26.07	332.91	10.46	
2025-01-16 04:17:26.88	332.75	10.47	
2025-01-16 04:17:27.69	332.58	10.48	
2025-01-16 04:17:28.50	332.41	10.48	
2025-01-16 04:17:29.32	332.24	10.49	
2025-01-16 04:17:30.13	332.07	10.49	
2025-01-16 04:17:30.94	331.90	10.50	
2025-01-16 04:17:31.75	331.74	10.51	
2025-01-16 04:17:32.57	331.57	10.51	
2025-01-16 04:17:33.38	331.40	10.52	
2025-01-16 04:17:34.19	331.23	10.52	
2025-01-16 04:17:35.00	331.06	10.53	
2025-01-16 04:17:35.81	330.89	10.53	
2025-01-16 04:17:36.63	330.72	10.53	
2025-01-16 04:17:37.44	330.55	10.54	
2025-01-16 04:17:38.25	330.39	10.54	
2025-01-16 04:17:39.06	330.22	10.55	
2025-01-16 04:17:39.88	330.05	10.55	
2025-01-16 04:17:40.69	329.88	10.55	
2025-01-16 04:17:41.50	329.71	10.56	
2025-01-16 04:17:42.31	329.54	10.56	
2025-01-16 04:17:43.13	329.37	10.56	
2025-01-16 04:17:43.94	329.20	10.56	
2025-01-16 04:17:44.75	329.03	10.56	
2025-01-16 04:17:45.56	328.86	10.57	
2025-01-16 04:17:46.37	328.69	10.57	
2025-01-16 04:17:47.19	328.52	10.57	
2025-01-16 04:17:48.00	328.35	10.57	
2025-01-16 04:17:48.81	328.18	10.57	
2025-01-16 04:17:49.62	328.02	10.57	
2025-01-16 04:17:50.44	327.84	10.57	
2025-01-16 04:17:51.25	327.68	10.57	
2025-01-16 04:17:52.06	327.51	10.57	
2025-01-16 04:17:52.87	327.34	10.57	
2025-01-16 04:17:53.69	327.17	10.57	
2025-01-16 04:17:54.50	327.00	10.57	
2025-01-16 04:17:55.31	326.83	10.57	
2025-01-16 04:17:56.12	326.66	10.57	
2025-01-16 04:17:56.94	326.49	10.57	
2025-01-16 04:17:57.75	326.32	10.57	
2025-01-16 04:17:58.56	326.15	10.56	
2025-01-16 04:17:59.37	325.98	10.56	
2025-01-16 04:18:00.18	325.81	10.56	
2025-01-16 04:18:01.00	325.64	10.56	
2025-01-16 04:18:01.81	325.47	10.55	
2025-01-16 04:18:02.62	325.31	10.55	
2025-01-16 04:18:03.43	325.14	10.55	
2025-01-16 04:18:04.25	324.97	10.54	
2025-01-16 04:18:05.06	324.80	10.54	
2025-01-16 04:18:05.87	324.63	10.54	
2025-01-16 04:18:06.68	324.46	10.53	
2025-01-16 04:18:07.50	324.29	10.53	
2025-01-16 04:18:08.31	324.12	10.52	
2025-01-16 04:18:09.12	323.95	10.52	
2025-01-16 04:18:09.93	323.78	10.51	
2025-01-16 04:18:10.74	323.62	10.51	
2025-01-16 04:18:11.56	323.45	10.50	
2025-01-16 04:18:12.37	323.28	10.50	
2025-01-16 04:18:13.18	323.11	10.49	
2025-01-16 04:18:13.99	322.94	10.48	
2025-01-16 04:18:14.81	322.77	10.48	
2025-01-16 04:18:15.62	322.60	10.47	
2025-01-16 04:18:16.43	322.44	10.46	
2025-01-16 04:18:17.24	322.27	10.46	
2025-01-16 04:18:18.06	322.10	10.45	
2025-01-16 04:18:18.87	321.93	10.44	
2025-01-16 04:18:19.68	321.76	10.44	
2025-01-16 04:18:20.49	321.60	10.43	
2025-01-16 04:18:21.31	321.43	10.42	
2025-01-16 04:18:22.12	321.26	10.41	
2025-01-16 04:18:22.93	321.09	10.40	
2025-01-16 04:18:23.75	320.92	10.39	
2025-01-16 04:18:24.58	320.75	10.38	
2025-01-16 04:18:25.39	320.59	10.37	
2025-01-16 04:18:26.20	320.42	10.37	
2025-01-16 04:18:27.01	320.25	10.36	
2025-01-16 04:18:27.82	320.09	10.35	
2025-01-16 04:18:28.64	319.92	10.34	
2025-01-16 04:18:29.45	319.75	10.32	
2025-01-16 04:18:30.26	319.59	10.31	
2025-01-16 04:18:31.07	319.42	10.30	
2025-01-16 04:18:31.90	319.25	10.29	
2025-01-16 04:18:32.71	319.09	10.28	
2025-01-16 04:18:33.52	318.92	10.27	
2025-01-16 04:18:34.33	318.76	10.26	
2025-01-16 04:18:35.15	318.59	10.25	
2025-01-16 04:18:35.96	318.42	10.23	
2025-01-16 04:18:36.77	318.26	10.22	
2025-01-16 04:18:37.58	318.09	10.21	
2025-01-16 04:18:38.40	317.93	10.20	
2025-01-16 04:18:39.21	317.76	10.18	
2025-01-16 04:18:40.02	317.60	10.17	
2025-01-16 04:18:40.83	317.44	10.16	
2025-01-16 04:18:41.65	317.27	10.14	
2025-01-16 04:18:42.46	317.11	10.13	
2025-01-16 04:18:43.27	316.94	10.12	
2025-01-16 04:18:44.08	316.78	10.10	
2025-01-16 04:18:44.90	316.61	10.09	
2025-01-16 04:18:45.71	316.45	10.07	
2025-01-16 04:18:46.52	316.29	10.06	
2025-01-16 04:18:47.33	316.13	10.04	
2025-01-16 04:18:48.14	315.96	10.03	
2025-01-16 04:18:48.96	315.80	10.01	
2025-01-16 04:18:49.77	315.64	10.00	
2025-01-16 04:18:50.58	315.47	9.98	
2025-01-16 04:18:51.39	315.31	9.97	
2025-01-16 04:18:52.21	315.15	9.95	
2025-01-16 04:18:53.02	314.99	9.93	
2025-01-16 04:18:53.83	314.83	9.92	
2025-01-16 04:18:54.64	314.67	9.90	
2025-01-16 04:18:55.46	314.50	9.88	
2025-01-16 04:18:56.27	314.34	9.87	
2025-01-16 04:18:57.08	314.18	9.85	
2025-01-16 04:18:57.89	314.02	9.83	
2025-01-16 04:18:58.70	313.86	9.81	
2025-01-16 04:18:59.52	313.70	9.80	
2025-01-16 04:19:00.33	313.54	9.78	
2025-01-16 04:19:01.14	313.38	9.76	
2025-01-16 04:19:01.95	313.22	9.74	
2025-01-16 04:19:02.77	313.06	9.72	
2025-01-16 04:19:03.58	312.90	9.70	
2025-01-16 04:19:04.39	312.74	9.69	
2025-01-16 04:19:05.20	312.59	9.67	
2025-01-16 04:19:06.02	312.43	9.65	
2025-01-16 04:19:06.83	312.27	9.63	
2025-01-16 04:19:07.64	312.11	9.61	
2025-01-16 04:19:08.45	311.95	9.59	
2025-01-16 04:19:09.27	311.79	9.57	
2025-01-16 04:19:10.08	311.64	9.55	
2025-01-16 04:19:10.89	311.48	9.53	
2025-01-16 04:19:11.70	311.32	9.51	
2025-01-16 04:19:12.51	311.17	9.49	
2025-01-16 04:19:13.33	311.01	9.47	
2025-01-16 04:19:14.14	310.86	9.44	
2025-01-16 04:19:14.95	310.70	9.42	
2025-01-16 04:19:15.76	310.54	9.40	
2025-01-16 04:19:16.58	310.39	9.38	
2025-01-16 04:19:17.39	310.23	9.36	
2025-01-16 04:19:18.20	310.08	9.34	
2025-01-16 04:19:19.01	309.92	9.32	
2025-01-16 04:19:19.83	309.77	9.29	
2025-01-16 04:19:20.64	309.62	9.27	
2025-01-16 04:19:21.45	309.46	9.25	
2025-01-16 04:19:22.26	309.31	9.23	
2025-01-16 04:19:23.08	309.15	9.20	
2025-01-16 04:19:23.89	309.00	9.18	
2025-01-16 04:19:24.70	308.85	9.16	
2025-01-16 04:19:25.51	308.70	9.13	
2025-01-16 04:19:26.32	308.55	9.11	
2025-01-16 04:19:27.14	308.39	9.09	
2025-01-16 04:19:27.95	308.24	9.06	
2025-01-16 04:19:28.76	308.09	9.04	
2025-01-16 04:19:29.57	307.94	9.01	
2025-01-16 04:19:30.39	307.79	8.99	
2025-01-16 04:19:31.20	307.64	8.96	
2025-01-16 04:19:32.01	307.49	8.94	
2025-01-16 04:19:32.82	307.34	8.92	
2025-01-16 04:19:33.64	307.19	8.89	
2025-01-16 04:19:34.45	307.04	8.87	
2025-01-16 04:19:35.26	306.89	8.84	
2025-01-16 04:19:36.07	306.74	8.82	
2025-01-16 04:19:36.88	306.59	8.79	
2025-01-16 04:19:37.70	306.44	8.76	
2025-01-16 04:19:38.51	306.29	8.74	
2025-01-16 04:19:39.32	306.15	8.71	
2025-01-16 04:19:40.13	306.00	8.69	
2025-01-16 04:19:40.95	305.85	8.66	
2025-01-16 04:19:41.76	305.70	8.63	
2025-01-16 04:19:42.57	305.56	8.61	
2025-01-16 04:19:43.38	305.41	8.58	
2025-01-16 04:19:44.20	305.26	8.55	
2025-01-16 04:19:45.01	305.12	8.53	
2025-01-16 04:19:45.82	304.97	8.50	
2025-01-16 04:19:46.63	304.83	8.47	
2025-01-16 04:19:47.45	304.68	8.45	
2025-01-16 04:19:48.26	304.54	8.42	
2025-01-16 04:19:49.07	304.39	8.39	
2025-01-16 04:19:49.88	304.25	8.36	
2025-01-16 04:19:50.69	304.11	8.34	
2025-01-16 04:19:51.51	303.96	8.31	
2025-01-16 04:19:52.32	303.82	8.28	
2025-01-16 04:19:53.13	303.68	8.25	
2025-01-16 04:19:53.94	303.54	8.22	
2025-01-16 04:19:54.76	303.39	8.19	
2025-01-16 04:19:55.57	303.25	8.17	
2025-01-16 04:19:56.38	303.11	8.14	
2025-01-16 04:19:57.19	302.97	8.11	
2025-01-16 04:19:58.01	302.83	8.08	
2025-01-16 04:19:58.82	302.69	8.05	
2025-01-16 04:19:59.63	302.55	8.02	
2025-01-16 04:20:00.44	302.41	7.99	
2025-01-16 04:20:01.25	302.27	7.96	
2025-01-16 04:20:02.07	302.13	7.93	
2025-01-16 04:20:02.88	301.99	7.90	
2025-01-16 04:20:03.69	301.85	7.88	
2025-01-16 04:20:04.50	301.71	7.85	
2025-01-16 04:20:05.32	301.57	7.82	
2025-01-16 04:20:06.13	301.43	7.79	
2025-01-16 04:20:06.94	301.30	7.76	
2025-01-16 04:20:07.75	301.16	7.73	
2025-01-16 04:20:08.57	301.02	7.69	
2025-01-16 04:20:09.38	300.89	7.66	
2025-01-16 04:20:10.19	300.75	7.63	
2025-01-16 04:20:11.00	300.61	7.60	
2025-01-16 04:20:11.82	300.48	7.57	
2025-01-16 04:20:12.63	300.34	7.54	
2025-01-16 04:20:13.44	300.21	7.51	
2025-01-16 04:20:14.25	300.07	7.48	
2025-01-16 04:20:15.06	299.94	7.45	
2025-01-16 04:20:15.88	299.80	7.42	
2025-01-16 04:20:16.69	299.67	7.39	
2025-01-16 04:20:17.50	299.54	7.35	
2025-01-16 04:20:18.31	299.40	7.32	
2025-01-16 04:20:19.13	299.27	7.29	
2025-01-16 04:20:19.94	299.14	7.26	
2025-01-16 04:20:20.75	299.01	7.23	
2025-01-16 04:20:21.56	298.87	7.20	
2025-01-16 04:20:22.38	298.74	7.16	
2025-01-16 04:20:23.19	298.61	7.13	
2025-01-16 04:20:24.00	298.48	7.10	
2025-01-16 04:20:24.81	298.35	7.07	
2025-01-16 04:20:25.62	298.22	7.04	
2025-01-16 04:20:26.44	298.09	7.00	
2025-01-16 04:20:27.25	297.96	6.97	
2025-01-16 04:20:28.06	297.83	6.94	
2025-01-16 04:20:28.87	297.70	6.91	
2025-01-16 04:20:29.69	297.57	6.87	
2025-01-16 04:20:30.50	297.44	6.84	
2025-01-16 04:20:31.31	297.32	6.81	
2025-01-16 04:20:32.12	297.19	6.77	
2025-01-16 04:20:32.94	297.06	6.74	
2025-01-16 04:20:33.75	296.93	6.71	
2025-01-16 04:20:34.56	296.81	6.68	
2025-01-16 04:20:35.37	296.68	6.64	
2025-01-16 04:20:36.19	296.55	6.61	
2025-01-16 04:20:37.00	296.43	6.58	
2025-01-16 04:20:37.81	296.30	6.54	
2025-01-16 04:20:38.62	296.18	6.51	
2025-01-16 04:20:39.43	296.05	6.47	
2025-01-16 04:20:40.25	295.93	6.44	
2025-01-16 04:20:41.06	295.80	6.41	
2025-01-16 04:20:41.87	295.68	6.37	
2025-01-16 04:20:42.68	295.56	6.34	
2025-01-16 04:20:43.50	295.43	6.31	
2025-01-16 04:20:44.31	295.31	6.27	
2025-01-16 04:20:45.12	295.19	6.24	
2025-01-16 04:20:45.93	295.06	6.20	
2025-01-16 04:20:46.75	294.94	6.17	
2025-01-16 04:20:47.56	294.82	6.13	
2025-01-16 04:20:48.37	294.70	6.10	
2025-01-16 04:20:49.18	294.58	6.07	
2025-01-16 04:20:49.99	294.46	6.03	
2025-01-16 04:20:50.81	294.34	6.00	
2025-01-16 04:20:51.62	294.22	5.96	
2025-01-16 04:20:52.43	294.10	5.93	
2025-01-16 04:20:53.24	293.98	5.89	
2025-01-16 04:20:54.06	293.86	5.86	
2025-01-16 04:20:54.87	293.74	5.82	
2025-01-16 04:20:55.68	293.62	5.79	
2025-01-16 04:20:56.49	293.50	5.75	
2025-01-16 04:20:57.31	293.38	5.72	
2025-01-16 04:20:58.12	293.27	5.68	
2025-01-16 04:20:58.93	293.15	5.65	
2025-01-16 04:20:59.74	293.03	5.61	
2025-01-16 04:21:00.56	292.91	5.58	
2025-01-16 04:21:01.37	292.80	5.54	
2025-01-16 04:21:02.18	292.68	5.51	
2025-01-16 04:21:02.99	292.57	5.47	
2025-01-16 04:21:03.80	292.45	5.44	
2025-01-16 04:21:04.62	292.33	5.40	
2025-01-16 04:21:05.43	292.22	5.37	
2025-01-16 04:21:06.24	292.11	5.33	
2025-01-16 04:21:07.05	291.99	5.29	
2025-01-16 04:21:07.87	291.88	5.26	
2025-01-16 04:21:08.68	291.76	5.22	
2025-01-16 04:21:09.49	291.65	5.19	
2025-01-16 04:21:10.30	291.54	5.15	
2025-01-16 04:21:11.12	291.42	5.12	
2025-01-16 04:21:11.93	291.31	5.08	
2025-01-16 04:21:12.74	291.20	5.04	
2025-01-16 04:21:13.55	291.09	5.01	
2025-01-16 04:21:14.36	290.98	4.97	
2025-01-16 04:21:15.18	290.87	4.94	
2025-01-16 04:21:15.99	290.75	4.90	
2025-01-16 04:21:16.80	290.64	4.86	
2025-01-16 04:21:17.61	290.53	4.83	
2025-01-16 04:21:18.43	290.42	4.79	
2025-01-16 04:21:19.24	290.31	4.76	
2025-01-16 04:21:20.05	290.20	4.72	
2025-01-16 04:21:20.86	290.10	4.68	
2025-01-16 04:21:21.68	289.99	4.65	
2025-01-16 04:21:22.49	289.88	4.61	
2025-01-16 04:21:23.30	289.77	4.57	
2025-01-16 04:21:24.11	289.66	4.54	
2025-01-16 04:21:24.93	289.55	4.50	
2025-01-16 04:21:25.74	289.45	4.46	
2025-01-16 04:21:26.55	289.34	4.43	
2025-01-16 04:21:27.36	289.23	4.39	
2025-01-16 04:21:28.17	289.13	4.36	
2025-01-16 04:21:28.99	289.02	4.32	
2025-01-16 04:21:29.80	288.92	4.28	
2025-01-16 04:21:30.61	288.81	4.25	
2025-01-16 04:21:31.42	288.71	4.21	
2025-01-16 04:21:32.24	288.60	4.17	
2025-01-16 04:21:33.05	288.49	4.14	
2025-01-16 04:21:33.86	288.39	4.10	
2025-01-16 04:21:34.67	288.29	4.06	
2025-01-16 04:21:35.49	288.18	4.02	

#Closed at: 2025-01-16 04:21:36