passes_logs/2025/01/16/SPB_Silybum_02/SPB_Silybum_02__20250116_195402_TERRA_rec.log

#Pass ID: 20250116_195402_TERRA
#Satellite: TERRA
#Configuration: TERRA
#Start time: 2025-01-16 19:54:01

#Version: 2.0.20230423
#Station: SPB_Silybum_02
#Location: 30.233357 lon 59.946436 lat
#TLE: 1 25994U 99068A   25015.81469206  .00000761  00000+0  16641-3 0  9994
#TLE: 2 25994  98.0214  78.8192 0003429  70.9720  38.3229 14.60396307334199

#Time	Az	El	Level	Level2	SNR	BER	Gain	Gain2
2025-01-16 19:54:04.06	205.81	4.12	
2025-01-16 19:54:05.28	205.91	4.20	
2025-01-16 19:54:06.49	206.01	4.27	
2025-01-16 19:54:07.71	206.11	4.35	
2025-01-16 19:54:08.93	206.22	4.43	
2025-01-16 19:54:10.15	206.32	4.50	
2025-01-16 19:54:11.37	206.42	4.58	
2025-01-16 19:54:12.59	206.53	4.66	
2025-01-16 19:54:13.81	206.63	4.74	
2025-01-16 19:54:15.02	206.74	4.82	
2025-01-16 19:54:16.24	206.84	4.89	
2025-01-16 19:54:17.46	206.95	4.97	
2025-01-16 19:54:18.68	207.06	5.05	
2025-01-16 19:54:19.90	207.16	5.13	
2025-01-16 19:54:21.12	207.27	5.21	
2025-01-16 19:54:22.34	207.38	5.29	
2025-01-16 19:54:23.56	207.49	5.37	
2025-01-16 19:54:24.77	207.60	5.45	
2025-01-16 19:54:25.99	207.71	5.53	
2025-01-16 19:54:27.21	207.82	5.61	
2025-01-16 19:54:28.43	207.93	5.69	
2025-01-16 19:54:29.65	208.04	5.77	
2025-01-16 19:54:30.87	208.16	5.85	
2025-01-16 19:54:32.09	208.27	5.93	
2025-01-16 19:54:33.31	208.39	6.01	
2025-01-16 19:54:34.52	208.50	6.09	
2025-01-16 19:54:35.74	208.62	6.18	
2025-01-16 19:54:36.96	208.73	6.26	
2025-01-16 19:54:38.18	208.85	6.34	
2025-01-16 19:54:39.40	208.97	6.42	
2025-01-16 19:54:40.62	209.09	6.50	
2025-01-16 19:54:41.84	209.21	6.59	
2025-01-16 19:54:43.05	209.33	6.67	
2025-01-16 19:54:44.27	209.45	6.75	
2025-01-16 19:54:45.49	209.57	6.83	
2025-01-16 19:54:46.71	209.69	6.92	
2025-01-16 19:54:47.93	209.81	7.00	
2025-01-16 19:54:49.15	209.94	7.08	
2025-01-16 19:54:50.37	210.06	7.17	
2025-01-16 19:54:51.59	210.19	7.25	
2025-01-16 19:54:52.80	210.31	7.34	
2025-01-16 19:54:54.02	210.44	7.42	
2025-01-16 19:54:55.24	210.57	7.50	
2025-01-16 19:54:56.46	210.69	7.59	
2025-01-16 19:54:57.68	210.82	7.67	
2025-01-16 19:54:58.90	210.95	7.76	
2025-01-16 19:55:00.12	211.08	7.85	
2025-01-16 19:55:01.33	211.21	7.93	
2025-01-16 19:55:02.55	211.35	8.02	
2025-01-16 19:55:03.77	211.48	8.10	
2025-01-16 19:55:04.99	211.61	8.19	
2025-01-16 19:55:06.21	211.75	8.28	
2025-01-16 19:55:07.43	211.88	8.36	
2025-01-16 19:55:08.65	212.02	8.45	
2025-01-16 19:55:09.87	212.16	8.54	
2025-01-16 19:55:11.08	212.29	8.62	
2025-01-16 19:55:12.30	212.43	8.71	
2025-01-16 19:55:13.52	212.57	8.80	
2025-01-16 19:55:14.74	212.71	8.89	
2025-01-16 19:55:15.96	212.86	8.97	
2025-01-16 19:55:17.18	213.00	9.06	
2025-01-16 19:55:18.40	213.14	9.15	
2025-01-16 19:55:19.62	213.29	9.24	
2025-01-16 19:55:20.83	213.43	9.33	
2025-01-16 19:55:22.05	213.58	9.42	
2025-01-16 19:55:23.27	213.72	9.51	
2025-01-16 19:55:24.49	213.87	9.60	
2025-01-16 19:55:25.71	214.02	9.69	
2025-01-16 19:55:26.93	214.17	9.78	
2025-01-16 19:55:28.15	214.32	9.87	
2025-01-16 19:55:29.36	214.47	9.96	
2025-01-16 19:55:30.58	214.63	10.05	
2025-01-16 19:55:31.80	214.78	10.14	
2025-01-16 19:55:33.02	214.93	10.23	
2025-01-16 19:55:34.24	215.09	10.32	
2025-01-16 19:55:35.46	215.25	10.41	
2025-01-16 19:55:36.68	215.40	10.50	
2025-01-16 19:55:37.90	215.56	10.59	
2025-01-16 19:55:39.11	215.72	10.69	
2025-01-16 19:55:40.33	215.88	10.78	
2025-01-16 19:55:41.55	216.05	10.87	
2025-01-16 19:55:42.77	216.21	10.96	
2025-01-16 19:55:43.99	216.37	11.05	
2025-01-16 19:55:45.21	216.54	11.15	
2025-01-16 19:55:46.43	216.70	11.24	
2025-01-16 19:55:47.64	216.87	11.33	
2025-01-16 19:55:48.86	217.04	11.43	
2025-01-16 19:55:50.08	217.21	11.52	
2025-01-16 19:55:51.30	217.38	11.61	
2025-01-16 19:55:52.52	217.55	11.71	
2025-01-16 19:55:53.74	217.73	11.80	
2025-01-16 19:55:54.96	217.90	11.90	
2025-01-16 19:55:56.18	218.08	11.99	
2025-01-16 19:55:57.39	218.25	12.09	
2025-01-16 19:55:58.61	218.43	12.18	
2025-01-16 19:55:59.83	218.61	12.28	
2025-01-16 19:56:01.05	218.79	12.37	
2025-01-16 19:56:02.27	218.97	12.47	
2025-01-16 19:56:03.49	219.15	12.56	
2025-01-16 19:56:04.71	219.34	12.66	
2025-01-16 19:56:05.92	219.52	12.75	
2025-01-16 19:56:07.14	219.71	12.85	
2025-01-16 19:56:08.36	219.89	12.95	
2025-01-16 19:56:09.58	220.08	13.04	
2025-01-16 19:56:10.80	220.27	13.14	
2025-01-16 19:56:12.02	220.47	13.24	
2025-01-16 19:56:13.24	220.66	13.33	
2025-01-16 19:56:14.46	220.85	13.43	
2025-01-16 19:56:15.67	221.05	13.53	
2025-01-16 19:56:16.89	221.24	13.62	
2025-01-16 19:56:18.11	221.44	13.72	
2025-01-16 19:56:19.33	221.64	13.82	
2025-01-16 19:56:20.55	221.84	13.92	
2025-01-16 19:56:21.77	222.05	14.01	
2025-01-16 19:56:22.99	222.25	14.11	
2025-01-16 19:56:24.21	222.45	14.21	
2025-01-16 19:56:25.42	222.66	14.31	
2025-01-16 19:56:26.64	222.87	14.41	
2025-01-16 19:56:27.86	223.08	14.50	
2025-01-16 19:56:29.08	223.29	14.60	
2025-01-16 19:56:30.30	223.50	14.70	
2025-01-16 19:56:31.52	223.71	14.80	
2025-01-16 19:56:32.74	223.93	14.90	
2025-01-16 19:56:33.95	224.14	15.00	
2025-01-16 19:56:35.17	224.36	15.09	
2025-01-16 19:56:36.39	224.58	15.19	
2025-01-16 19:56:37.61	224.80	15.29	
2025-01-16 19:56:38.83	225.03	15.39	
2025-01-16 19:56:40.05	225.25	15.49	
2025-01-16 19:56:41.27	225.48	15.59	
2025-01-16 19:56:42.49	225.70	15.69	
2025-01-16 19:56:43.70	225.93	15.79	
2025-01-16 19:56:44.92	226.16	15.89	
2025-01-16 19:56:46.14	226.39	15.99	
2025-01-16 19:56:47.36	226.63	16.09	
2025-01-16 19:56:48.58	226.86	16.19	
2025-01-16 19:56:49.80	227.10	16.29	
2025-01-16 19:56:51.02	227.34	16.38	
2025-01-16 19:56:52.23	227.58	16.48	
2025-01-16 19:56:53.45	227.82	16.58	
2025-01-16 19:56:54.67	228.06	16.68	
2025-01-16 19:56:55.89	228.31	16.78	
2025-01-16 19:56:57.11	228.55	16.88	
2025-01-16 19:56:58.33	228.80	16.98	
2025-01-16 19:56:59.55	229.05	17.08	
2025-01-16 19:57:00.77	229.30	17.18	
2025-01-16 19:57:01.98	229.56	17.28	
2025-01-16 19:57:03.20	229.81	17.38	
2025-01-16 19:57:04.42	230.07	17.47	
2025-01-16 19:57:05.64	230.33	17.57	
2025-01-16 19:57:06.86	230.59	17.67	
2025-01-16 19:57:08.08	230.85	17.77	
2025-01-16 19:57:09.30	231.11	17.87	
2025-01-16 19:57:10.52	231.38	17.97	
2025-01-16 19:57:11.73	231.65	18.06	
2025-01-16 19:57:12.95	231.91	18.16	
2025-01-16 19:57:14.17	232.19	18.26	
2025-01-16 19:57:15.39	232.46	18.36	
2025-01-16 19:57:16.61	232.73	18.46	
2025-01-16 19:57:17.83	233.01	18.55	
2025-01-16 19:57:19.05	233.29	18.65	
2025-01-16 19:57:20.26	233.57	18.75	
2025-01-16 19:57:21.48	233.85	18.84	
2025-01-16 19:57:22.70	234.13	18.94	
2025-01-16 19:57:23.92	234.42	19.03	
2025-01-16 19:57:25.14	234.71	19.13	
2025-01-16 19:57:26.36	235.00	19.23	
2025-01-16 19:57:27.58	235.29	19.32	
2025-01-16 19:57:28.80	235.58	19.42	
2025-01-16 19:57:30.01	235.87	19.51	
2025-01-16 19:57:31.23	236.17	19.60	
2025-01-16 19:57:32.45	236.47	19.70	
2025-01-16 19:57:33.67	236.77	19.79	
2025-01-16 19:57:34.89	237.07	19.89	
2025-01-16 19:57:36.11	237.38	19.98	
2025-01-16 19:57:37.33	237.68	20.07	
2025-01-16 19:57:38.54	237.99	20.16	
2025-01-16 19:57:39.76	238.30	20.25	
2025-01-16 19:57:40.98	238.61	20.35	
2025-01-16 19:57:42.20	238.93	20.44	
2025-01-16 19:57:43.42	239.24	20.53	
2025-01-16 19:57:44.64	239.56	20.62	
2025-01-16 19:57:45.86	239.88	20.71	
2025-01-16 19:57:47.08	240.20	20.79	
2025-01-16 19:57:48.29	240.52	20.88	
2025-01-16 19:57:49.51	240.85	20.97	
2025-01-16 19:57:50.73	241.18	21.06	
2025-01-16 19:57:51.95	241.51	21.14	
2025-01-16 19:57:53.17	241.84	21.23	
2025-01-16 19:57:54.39	242.17	21.31	
2025-01-16 19:57:55.61	242.51	21.40	
2025-01-16 19:57:56.83	242.84	21.48	
2025-01-16 19:57:58.04	243.18	21.57	
2025-01-16 19:57:59.26	243.52	21.65	
2025-01-16 19:58:00.48	243.86	21.73	
2025-01-16 19:58:01.70	244.21	21.81	
2025-01-16 19:58:02.92	244.55	21.89	
2025-01-16 19:58:04.14	244.90	21.97	
2025-01-16 19:58:05.36	245.25	22.05	
2025-01-16 19:58:06.57	245.60	22.13	
2025-01-16 19:58:07.79	245.95	22.21	
2025-01-16 19:58:09.01	246.31	22.28	
2025-01-16 19:58:10.23	246.66	22.36	
2025-01-16 19:58:11.45	247.02	22.43	
2025-01-16 19:58:12.67	247.38	22.51	
2025-01-16 19:58:13.89	247.75	22.58	
2025-01-16 19:58:15.11	248.11	22.65	
2025-01-16 19:58:16.32	248.47	22.72	
2025-01-16 19:58:17.54	248.84	22.79	
2025-01-16 19:58:18.76	249.21	22.86	
2025-01-16 19:58:19.98	249.58	22.93	
2025-01-16 19:58:21.20	249.95	23.00	
2025-01-16 19:58:22.42	250.33	23.07	
2025-01-16 19:58:23.64	250.70	23.13	
2025-01-16 19:58:24.85	251.08	23.19	
2025-01-16 19:58:26.07	251.45	23.26	
2025-01-16 19:58:27.29	251.84	23.32	
2025-01-16 19:58:28.51	252.22	23.38	
2025-01-16 19:58:29.73	252.60	23.44	
2025-01-16 19:58:30.95	252.99	23.50	
2025-01-16 19:58:32.17	253.37	23.56	
2025-01-16 19:58:33.39	253.76	23.61	
2025-01-16 19:58:34.60	254.15	23.67	
2025-01-16 19:58:35.82	254.54	23.72	
2025-01-16 19:58:37.04	254.93	23.78	
2025-01-16 19:58:38.26	255.32	23.83	
2025-01-16 19:58:39.48	255.72	23.88	
2025-01-16 19:58:40.70	256.11	23.93	
2025-01-16 19:58:41.92	256.51	23.98	
2025-01-16 19:58:43.13	256.90	24.02	
2025-01-16 19:58:44.35	257.30	24.07	
2025-01-16 19:58:45.57	257.70	24.11	
2025-01-16 19:58:46.79	258.11	24.16	
2025-01-16 19:58:48.01	258.51	24.20	
2025-01-16 19:58:49.23	258.91	24.24	
2025-01-16 19:58:50.45	259.32	24.28	
2025-01-16 19:58:51.67	259.72	24.31	
2025-01-16 19:58:52.88	260.13	24.35	
2025-01-16 19:58:54.10	260.54	24.38	
2025-01-16 19:58:55.32	260.94	24.42	
2025-01-16 19:58:56.54	261.35	24.45	
2025-01-16 19:58:57.76	261.76	24.48	
2025-01-16 19:58:58.98	262.18	24.51	
2025-01-16 19:59:00.20	262.59	24.54	
2025-01-16 19:59:01.42	263.00	24.56	
2025-01-16 19:59:02.63	263.41	24.59	
2025-01-16 19:59:03.85	263.82	24.61	
2025-01-16 19:59:05.07	264.24	24.63	
2025-01-16 19:59:06.29	264.65	24.65	
2025-01-16 19:59:07.51	265.07	24.67	
2025-01-16 19:59:08.73	265.48	24.69	
2025-01-16 19:59:09.95	265.90	24.70	
2025-01-16 19:59:11.16	266.31	24.72	
2025-01-16 19:59:12.38	266.73	24.73	
2025-01-16 19:59:13.60	267.15	24.74	
2025-01-16 19:59:14.82	267.57	24.75	
2025-01-16 19:59:16.04	267.98	24.76	
2025-01-16 19:59:17.26	268.40	24.76	
2025-01-16 19:59:18.48	268.82	24.77	
2025-01-16 19:59:19.70	269.24	24.77	
2025-01-16 19:59:20.91	269.65	24.77	
2025-01-16 19:59:22.13	270.07	24.77	
2025-01-16 19:59:23.35	270.49	24.77	
2025-01-16 19:59:24.57	270.91	24.77	
2025-01-16 19:59:25.79	271.33	24.77	
2025-01-16 19:59:27.01	271.75	24.76	
2025-01-16 19:59:28.23	272.16	24.75	
2025-01-16 19:59:29.44	272.58	24.74	
2025-01-16 19:59:30.66	273.00	24.73	
2025-01-16 19:59:31.88	273.41	24.72	
2025-01-16 19:59:33.10	273.83	24.71	
2025-01-16 19:59:34.32	274.25	24.69	
2025-01-16 19:59:35.54	274.66	24.68	
2025-01-16 19:59:36.76	275.08	24.66	
2025-01-16 19:59:37.98	275.49	24.64	
2025-01-16 19:59:39.19	275.90	24.62	
2025-01-16 19:59:40.41	276.32	24.60	
2025-01-16 19:59:41.63	276.73	24.57	
2025-01-16 19:59:42.85	277.14	24.55	
2025-01-16 19:59:44.07	277.55	24.52	
2025-01-16 19:59:45.29	277.96	24.49	
2025-01-16 19:59:46.51	278.37	24.46	
2025-01-16 19:59:47.73	278.78	24.43	
2025-01-16 19:59:48.94	279.19	24.40	
2025-01-16 19:59:50.16	279.60	24.36	
2025-01-16 19:59:51.38	280.00	24.33	
2025-01-16 19:59:52.60	280.41	24.29	
2025-01-16 19:59:53.82	280.81	24.25	
2025-01-16 19:59:55.04	281.22	24.22	
2025-01-16 19:59:56.26	281.62	24.17	
2025-01-16 19:59:57.47	282.02	24.13	
2025-01-16 19:59:58.69	282.42	24.09	
2025-01-16 19:59:59.91	282.82	24.04	
2025-01-16 20:00:01.13	283.21	24.00	
2025-01-16 20:00:02.35	283.61	23.95	
2025-01-16 20:00:03.57	284.01	23.90	
2025-01-16 20:00:04.79	284.40	23.85	
2025-01-16 20:00:06.01	284.79	23.80	
2025-01-16 20:00:07.22	285.18	23.75	
2025-01-16 20:00:08.44	285.57	23.70	
2025-01-16 20:00:09.66	285.96	23.64	
2025-01-16 20:00:10.88	286.35	23.59	
2025-01-16 20:00:12.10	286.73	23.53	
2025-01-16 20:00:13.32	287.12	23.47	
2025-01-16 20:00:14.54	287.50	23.41	
2025-01-16 20:00:15.75	287.88	23.35	
2025-01-16 20:00:16.97	288.26	23.29	
2025-01-16 20:00:18.19	288.64	23.23	
2025-01-16 20:00:19.41	289.01	23.16	
2025-01-16 20:00:20.63	289.39	23.10	
2025-01-16 20:00:21.85	289.76	23.03	
2025-01-16 20:00:23.07	290.13	22.97	
2025-01-16 20:00:24.29	290.51	22.90	
2025-01-16 20:00:25.50	290.87	22.83	
2025-01-16 20:00:26.72	291.24	22.76	
2025-01-16 20:00:27.94	291.60	22.69	
2025-01-16 20:00:29.16	291.97	22.62	
2025-01-16 20:00:30.38	292.33	22.55	
2025-01-16 20:00:31.60	292.69	22.47	
2025-01-16 20:00:32.82	293.05	22.40	
2025-01-16 20:00:34.04	293.40	22.32	
2025-01-16 20:00:35.25	293.75	22.25	
2025-01-16 20:00:36.47	294.11	22.17	
2025-01-16 20:00:37.69	294.46	22.10	
2025-01-16 20:00:38.91	294.81	22.02	
2025-01-16 20:00:40.13	295.15	21.94	
2025-01-16 20:00:41.35	295.50	21.86	
2025-01-16 20:00:42.57	295.84	21.78	
2025-01-16 20:00:43.78	296.18	21.70	
2025-01-16 20:00:45.00	296.52	21.62	
2025-01-16 20:00:46.22	296.86	21.53	
2025-01-16 20:00:47.44	297.20	21.45	
2025-01-16 20:00:48.66	297.53	21.37	
2025-01-16 20:00:49.88	297.86	21.28	
2025-01-16 20:00:51.10	298.20	21.20	
2025-01-16 20:00:52.32	298.52	21.11	
2025-01-16 20:00:53.53	298.85	21.03	
2025-01-16 20:00:54.75	299.17	20.94	
2025-01-16 20:00:55.97	299.50	20.85	
2025-01-16 20:00:57.19	299.82	20.76	
2025-01-16 20:00:58.41	300.14	20.67	
2025-01-16 20:00:59.63	300.45	20.59	
2025-01-16 20:01:00.85	300.77	20.50	
2025-01-16 20:01:02.06	301.08	20.41	
2025-01-16 20:01:03.28	301.39	20.32	
2025-01-16 20:01:04.50	301.70	20.23	
2025-01-16 20:01:05.72	302.01	20.14	
2025-01-16 20:01:06.94	302.32	20.04	
2025-01-16 20:01:08.16	302.62	19.95	
2025-01-16 20:01:09.38	302.92	19.86	
2025-01-16 20:01:10.60	303.22	19.77	
2025-01-16 20:01:11.81	303.52	19.67	
2025-01-16 20:01:13.03	303.82	19.58	
2025-01-16 20:01:14.25	304.11	19.49	
2025-01-16 20:01:15.47	304.40	19.39	
2025-01-16 20:01:16.69	304.69	19.30	
2025-01-16 20:01:17.91	304.98	19.20	
2025-01-16 20:01:19.13	305.27	19.11	
2025-01-16 20:01:20.34	305.55	19.01	
2025-01-16 20:01:21.56	305.84	18.92	
2025-01-16 20:01:22.78	306.12	18.82	
2025-01-16 20:01:24.00	306.40	18.73	
2025-01-16 20:01:25.22	306.68	18.63	
2025-01-16 20:01:26.44	306.95	18.53	
2025-01-16 20:01:27.66	307.23	18.44	
2025-01-16 20:01:28.88	307.50	18.34	
2025-01-16 20:01:30.09	307.77	18.24	
2025-01-16 20:01:31.31	308.04	18.15	
2025-01-16 20:01:32.53	308.31	18.05	
2025-01-16 20:01:33.75	308.57	17.95	
2025-01-16 20:01:34.97	308.84	17.86	
2025-01-16 20:01:36.19	309.10	17.76	
2025-01-16 20:01:37.41	309.36	17.66	
2025-01-16 20:01:38.63	309.62	17.56	
2025-01-16 20:01:39.84	309.87	17.46	
2025-01-16 20:01:41.06	310.13	17.37	
2025-01-16 20:01:42.28	310.38	17.27	
2025-01-16 20:01:43.50	310.63	17.17	
2025-01-16 20:01:44.72	310.88	17.07	
2025-01-16 20:01:45.94	311.13	16.97	
2025-01-16 20:01:47.16	311.38	16.88	
2025-01-16 20:01:48.37	311.62	16.78	
2025-01-16 20:01:49.59	311.86	16.68	
2025-01-16 20:01:50.81	312.10	16.58	
2025-01-16 20:01:52.03	312.34	16.48	
2025-01-16 20:01:53.25	312.58	16.38	
2025-01-16 20:01:54.47	312.82	16.28	
2025-01-16 20:01:55.69	313.05	16.19	
2025-01-16 20:01:56.91	313.29	16.09	
2025-01-16 20:01:58.12	313.52	15.99	
2025-01-16 20:01:59.34	313.75	15.89	
2025-01-16 20:02:00.56	313.98	15.79	
2025-01-16 20:02:01.78	314.20	15.69	
2025-01-16 20:02:03.00	314.43	15.60	
2025-01-16 20:02:04.22	314.65	15.50	
2025-01-16 20:02:05.44	314.88	15.40	
2025-01-16 20:02:06.65	315.10	15.30	
2025-01-16 20:02:07.87	315.32	15.20	
2025-01-16 20:02:09.09	315.53	15.11	
2025-01-16 20:02:10.31	315.75	15.01	
2025-01-16 20:02:11.53	315.97	14.91	
2025-01-16 20:02:12.75	316.18	14.81	
2025-01-16 20:02:13.97	316.39	14.71	
2025-01-16 20:02:15.19	316.60	14.62	
2025-01-16 20:02:16.40	316.81	14.52	
2025-01-16 20:02:17.62	317.02	14.42	
2025-01-16 20:02:18.84	317.23	14.33	
2025-01-16 20:02:20.06	317.43	14.23	
2025-01-16 20:02:21.28	317.63	14.13	
2025-01-16 20:02:22.50	317.84	14.03	
2025-01-16 20:02:23.72	318.04	13.94	
2025-01-16 20:02:24.93	318.24	13.84	
2025-01-16 20:02:26.15	318.43	13.74	
2025-01-16 20:02:27.37	318.63	13.65	
2025-01-16 20:02:28.59	318.83	13.55	
2025-01-16 20:02:29.81	319.02	13.46	
2025-01-16 20:02:31.03	319.21	13.36	
2025-01-16 20:02:32.25	319.41	13.26	
2025-01-16 20:02:33.47	319.60	13.17	
2025-01-16 20:02:34.68	319.78	13.07	
2025-01-16 20:02:35.90	319.97	12.98	
2025-01-16 20:02:37.12	320.16	12.88	
2025-01-16 20:02:38.34	320.34	12.79	
2025-01-16 20:02:39.56	320.53	12.69	
2025-01-16 20:02:40.78	320.71	12.60	
2025-01-16 20:02:42.00	320.89	12.50	
2025-01-16 20:02:43.22	321.07	12.41	
2025-01-16 20:02:44.43	321.25	12.31	
2025-01-16 20:02:45.65	321.43	12.22	
2025-01-16 20:02:46.87	321.61	12.13	
2025-01-16 20:02:48.09	321.78	12.03	
2025-01-16 20:02:49.31	321.96	11.94	
2025-01-16 20:02:50.53	322.13	11.84	
2025-01-16 20:02:51.75	322.30	11.75	
2025-01-16 20:02:52.96	322.47	11.66	
2025-01-16 20:02:54.18	322.64	11.57	
2025-01-16 20:02:55.40	322.81	11.47	
2025-01-16 20:02:56.62	322.98	11.38	
2025-01-16 20:02:57.84	323.15	11.29	
2025-01-16 20:02:59.06	323.31	11.20	
2025-01-16 20:03:00.28	323.48	11.10	
2025-01-16 20:03:01.50	323.64	11.01	
2025-01-16 20:03:02.71	323.80	10.92	
2025-01-16 20:03:03.93	323.96	10.83	
2025-01-16 20:03:05.15	324.12	10.74	
2025-01-16 20:03:06.37	324.28	10.65	
2025-01-16 20:03:07.59	324.44	10.56	
2025-01-16 20:03:08.81	324.60	10.47	
2025-01-16 20:03:10.03	324.75	10.38	
2025-01-16 20:03:11.24	324.91	10.29	
2025-01-16 20:03:12.46	325.06	10.20	
2025-01-16 20:03:13.68	325.21	10.11	
2025-01-16 20:03:14.90	325.37	10.02	
2025-01-16 20:03:16.12	325.52	9.93	
2025-01-16 20:03:17.34	325.67	9.84	
2025-01-16 20:03:18.56	325.82	9.75	
2025-01-16 20:03:19.78	325.97	9.66	
2025-01-16 20:03:20.99	326.11	9.57	
2025-01-16 20:03:22.21	326.26	9.48	
2025-01-16 20:03:23.43	326.41	9.39	
2025-01-16 20:03:24.65	326.55	9.31	
2025-01-16 20:03:25.87	326.69	9.22	
2025-01-16 20:03:27.09	326.84	9.13	
2025-01-16 20:03:28.31	326.98	9.04	
2025-01-16 20:03:29.53	327.12	8.96	
2025-01-16 20:03:30.74	327.26	8.87	
2025-01-16 20:03:31.96	327.40	8.78	
2025-01-16 20:03:33.18	327.54	8.70	
2025-01-16 20:03:34.40	327.68	8.61	
2025-01-16 20:03:35.62	327.81	8.52	
2025-01-16 20:03:36.84	327.95	8.44	
2025-01-16 20:03:38.06	328.08	8.35	
2025-01-16 20:03:39.27	328.22	8.27	
2025-01-16 20:03:40.49	328.35	8.18	
2025-01-16 20:03:41.71	328.48	8.10	
2025-01-16 20:03:42.93	328.62	8.01	
2025-01-16 20:03:44.15	328.75	7.93	
2025-01-16 20:03:45.37	328.88	7.84	
2025-01-16 20:03:46.59	329.01	7.76	
2025-01-16 20:03:47.81	329.14	7.67	
2025-01-16 20:03:49.02	329.26	7.59	
2025-01-16 20:03:50.24	329.39	7.50	
2025-01-16 20:03:51.46	329.52	7.42	
2025-01-16 20:03:52.68	329.64	7.34	
2025-01-16 20:03:53.90	329.77	7.25	
2025-01-16 20:03:55.12	329.89	7.17	
2025-01-16 20:03:56.34	330.02	7.09	
2025-01-16 20:03:57.55	330.14	7.01	
2025-01-16 20:03:58.77	330.26	6.92	
2025-01-16 20:03:59.99	330.38	6.84	
2025-01-16 20:04:01.21	330.50	6.76	
2025-01-16 20:04:02.43	330.62	6.68	
2025-01-16 20:04:03.65	330.74	6.60	
2025-01-16 20:04:04.87	330.86	6.51	
2025-01-16 20:04:06.09	330.98	6.43	
2025-01-16 20:04:07.30	331.10	6.35	
2025-01-16 20:04:08.52	331.21	6.27	
2025-01-16 20:04:09.76	331.33	6.19	
2025-01-16 20:04:10.98	331.45	6.11	
2025-01-16 20:04:12.19	331.56	6.03	
2025-01-16 20:04:13.41	331.67	5.95	
2025-01-16 20:04:14.63	331.79	5.87	
2025-01-16 20:04:15.85	331.90	5.79	
2025-01-16 20:04:17.07	332.01	5.71	
2025-01-16 20:04:18.29	332.12	5.63	
2025-01-16 20:04:19.51	332.23	5.55	
2025-01-16 20:04:20.73	332.34	5.47	
2025-01-16 20:04:21.94	332.45	5.39	
2025-01-16 20:04:23.16	332.56	5.31	
2025-01-16 20:04:24.38	332.67	5.24	
2025-01-16 20:04:25.60	332.78	5.16	
2025-01-16 20:04:26.82	332.88	5.08	
2025-01-16 20:04:28.04	332.99	5.00	
2025-01-16 20:04:29.26	333.10	4.92	
2025-01-16 20:04:30.48	333.20	4.85	
2025-01-16 20:04:31.69	333.31	4.77	
2025-01-16 20:04:32.91	333.41	4.69	
2025-01-16 20:04:34.13	333.52	4.62	
2025-01-16 20:04:35.35	333.62	4.54	
2025-01-16 20:04:36.57	333.72	4.46	
2025-01-16 20:04:37.79	333.82	4.38	
2025-01-16 20:04:39.01	333.92	4.31	
2025-01-16 20:04:40.22	334.02	4.23	
2025-01-16 20:04:41.44	334.13	4.16	
2025-01-16 20:04:42.66	334.23	4.08	
2025-01-16 20:04:43.88	334.32	4.01	

#Closed at: 2025-01-16 20:04:44