passes_logs/2025/01/16/SPB_Silybum_02/SPB_Silybum_02__20250116_080843_SUOMI_NPP_rec.log

#Pass ID: 20250116_080843_SUOMI NPP
#Satellite: SUOMI NPP
#Configuration: NPP
#Start time: 2025-01-16 08:08:42

#Version: 2.0.20230423
#Station: SPB_Silybum_02
#Location: 30.233357 lon 59.946436 lat
#TLE: 1 37849U 11061A   25015.83617422  .00000154  00000+0  93894-4 0  9992
#TLE: 2 37849  98.7447 316.8141 0001652  39.8884 320.2413 14.19538521685036

#Time	Az	El	Level	Level2	SNR	BER	Gain	Gain2
2025-01-16 08:08:44.35	97.99	4.06	
2025-01-16 08:08:45.57	97.89	4.13	
2025-01-16 08:08:46.79	97.79	4.20	
2025-01-16 08:08:48.01	97.69	4.27	
2025-01-16 08:08:49.22	97.59	4.34	
2025-01-16 08:08:50.44	97.48	4.41	
2025-01-16 08:08:51.66	97.38	4.48	
2025-01-16 08:08:52.88	97.28	4.55	
2025-01-16 08:08:54.10	97.17	4.62	
2025-01-16 08:08:55.32	97.07	4.69	
2025-01-16 08:08:56.54	96.96	4.76	
2025-01-16 08:08:57.76	96.86	4.83	
2025-01-16 08:08:58.97	96.75	4.90	
2025-01-16 08:09:00.19	96.65	4.97	
2025-01-16 08:09:01.41	96.54	5.05	
2025-01-16 08:09:02.63	96.43	5.12	
2025-01-16 08:09:03.85	96.32	5.19	
2025-01-16 08:09:05.07	96.22	5.26	
2025-01-16 08:09:06.29	96.11	5.33	
2025-01-16 08:09:07.50	96.00	5.40	
2025-01-16 08:09:08.72	95.89	5.47	
2025-01-16 08:09:09.94	95.78	5.55	
2025-01-16 08:09:11.16	95.67	5.62	
2025-01-16 08:09:12.38	95.55	5.69	
2025-01-16 08:09:13.60	95.44	5.76	
2025-01-16 08:09:14.82	95.33	5.84	
2025-01-16 08:09:16.03	95.22	5.91	
2025-01-16 08:09:17.25	95.10	5.98	
2025-01-16 08:09:18.47	94.99	6.05	
2025-01-16 08:09:19.69	94.87	6.13	
2025-01-16 08:09:20.91	94.75	6.20	
2025-01-16 08:09:22.13	94.64	6.27	
2025-01-16 08:09:23.35	94.52	6.34	
2025-01-16 08:09:24.57	94.40	6.42	
2025-01-16 08:09:25.78	94.29	6.49	
2025-01-16 08:09:27.00	94.17	6.56	
2025-01-16 08:09:28.22	94.05	6.64	
2025-01-16 08:09:29.44	93.93	6.71	
2025-01-16 08:09:30.66	93.81	6.78	
2025-01-16 08:09:31.88	93.68	6.86	
2025-01-16 08:09:33.10	93.56	6.93	
2025-01-16 08:09:34.31	93.44	7.00	
2025-01-16 08:09:35.53	93.32	7.08	
2025-01-16 08:09:36.75	93.19	7.15	
2025-01-16 08:09:37.97	93.07	7.23	
2025-01-16 08:09:39.19	92.94	7.30	
2025-01-16 08:09:40.41	92.82	7.38	
2025-01-16 08:09:41.63	92.69	7.45	
2025-01-16 08:09:42.85	92.56	7.52	
2025-01-16 08:09:44.06	92.44	7.60	
2025-01-16 08:09:45.28	92.31	7.67	
2025-01-16 08:09:46.50	92.18	7.75	
2025-01-16 08:09:47.72	92.05	7.82	
2025-01-16 08:09:48.94	91.92	7.90	
2025-01-16 08:09:50.16	91.79	7.97	
2025-01-16 08:09:51.38	91.65	8.05	
2025-01-16 08:09:52.59	91.52	8.12	
2025-01-16 08:09:53.81	91.39	8.20	
2025-01-16 08:09:55.03	91.25	8.27	
2025-01-16 08:09:56.25	91.12	8.35	
2025-01-16 08:09:57.47	90.98	8.42	
2025-01-16 08:09:58.69	90.85	8.50	
2025-01-16 08:09:59.91	90.71	8.57	
2025-01-16 08:10:01.13	90.57	8.65	
2025-01-16 08:10:02.34	90.43	8.72	
2025-01-16 08:10:03.56	90.30	8.80	
2025-01-16 08:10:04.78	90.16	8.88	
2025-01-16 08:10:06.00	90.01	8.95	
2025-01-16 08:10:07.22	89.87	9.03	
2025-01-16 08:10:08.44	89.73	9.10	
2025-01-16 08:10:09.66	89.59	9.18	
2025-01-16 08:10:10.87	89.44	9.26	
2025-01-16 08:10:12.09	89.30	9.33	
2025-01-16 08:10:13.31	89.16	9.41	
2025-01-16 08:10:14.53	89.01	9.48	
2025-01-16 08:10:15.75	88.86	9.56	
2025-01-16 08:10:16.97	88.71	9.64	
2025-01-16 08:10:18.19	88.57	9.71	
2025-01-16 08:10:19.41	88.42	9.79	
2025-01-16 08:10:20.62	88.27	9.87	
2025-01-16 08:10:21.84	88.12	9.94	
2025-01-16 08:10:23.06	87.97	10.02	
2025-01-16 08:10:24.28	87.81	10.10	
2025-01-16 08:10:25.51	87.66	10.17	
2025-01-16 08:10:26.73	87.50	10.25	
2025-01-16 08:10:27.95	87.35	10.33	
2025-01-16 08:10:29.17	87.19	10.40	
2025-01-16 08:10:30.39	87.04	10.48	
2025-01-16 08:10:31.61	86.88	10.56	
2025-01-16 08:10:32.83	86.72	10.63	
2025-01-16 08:10:34.04	86.56	10.71	
2025-01-16 08:10:35.26	86.40	10.79	
2025-01-16 08:10:36.48	86.24	10.86	
2025-01-16 08:10:37.70	86.08	10.94	
2025-01-16 08:10:38.92	85.92	11.02	
2025-01-16 08:10:40.14	85.76	11.10	
2025-01-16 08:10:41.36	85.59	11.17	
2025-01-16 08:10:42.58	85.43	11.25	
2025-01-16 08:10:43.79	85.26	11.33	
2025-01-16 08:10:45.01	85.09	11.40	
2025-01-16 08:10:46.23	84.93	11.48	
2025-01-16 08:10:47.45	84.76	11.56	
2025-01-16 08:10:48.67	84.59	11.63	
2025-01-16 08:10:49.89	84.42	11.71	
2025-01-16 08:10:51.11	84.25	11.79	
2025-01-16 08:10:52.32	84.08	11.86	
2025-01-16 08:10:53.54	83.90	11.94	
2025-01-16 08:10:54.76	83.73	12.02	
2025-01-16 08:10:55.98	83.55	12.10	
2025-01-16 08:10:57.20	83.38	12.17	
2025-01-16 08:10:58.42	83.20	12.25	
2025-01-16 08:10:59.64	83.02	12.33	
2025-01-16 08:11:00.86	82.84	12.40	
2025-01-16 08:11:02.07	82.66	12.48	
2025-01-16 08:11:03.29	82.48	12.56	
2025-01-16 08:11:04.51	82.30	12.63	
2025-01-16 08:11:05.73	82.12	12.71	
2025-01-16 08:11:06.95	81.94	12.79	
2025-01-16 08:11:08.17	81.75	12.86	
2025-01-16 08:11:09.39	81.57	12.94	
2025-01-16 08:11:10.60	81.38	13.02	
2025-01-16 08:11:11.82	81.19	13.09	
2025-01-16 08:11:13.04	81.00	13.17	
2025-01-16 08:11:14.26	80.81	13.25	
2025-01-16 08:11:15.48	80.62	13.32	
2025-01-16 08:11:16.70	80.43	13.40	
2025-01-16 08:11:17.92	80.24	13.47	
2025-01-16 08:11:19.14	80.05	13.55	
2025-01-16 08:11:20.35	79.85	13.63	
2025-01-16 08:11:21.57	79.66	13.70	
2025-01-16 08:11:22.79	79.46	13.78	
2025-01-16 08:11:24.01	79.26	13.85	
2025-01-16 08:11:25.23	79.07	13.93	
2025-01-16 08:11:26.45	78.87	14.00	
2025-01-16 08:11:27.67	78.67	14.08	
2025-01-16 08:11:28.88	78.47	14.15	
2025-01-16 08:11:30.10	78.26	14.23	
2025-01-16 08:11:31.32	78.06	14.30	
2025-01-16 08:11:32.54	77.85	14.38	
2025-01-16 08:11:33.76	77.65	14.45	
2025-01-16 08:11:34.98	77.44	14.53	
2025-01-16 08:11:36.20	77.23	14.60	
2025-01-16 08:11:37.41	77.03	14.68	
2025-01-16 08:11:38.63	76.82	14.75	
2025-01-16 08:11:39.85	76.61	14.82	
2025-01-16 08:11:41.07	76.39	14.90	
2025-01-16 08:11:42.29	76.18	14.97	
2025-01-16 08:11:43.51	75.97	15.04	
2025-01-16 08:11:44.73	75.75	15.12	
2025-01-16 08:11:45.95	75.53	15.19	
2025-01-16 08:11:47.16	75.32	15.26	
2025-01-16 08:11:48.38	75.10	15.33	
2025-01-16 08:11:49.60	74.88	15.41	
2025-01-16 08:11:50.82	74.66	15.48	
2025-01-16 08:11:52.04	74.44	15.55	
2025-01-16 08:11:53.26	74.21	15.62	
2025-01-16 08:11:54.48	73.99	15.69	
2025-01-16 08:11:55.69	73.77	15.77	
2025-01-16 08:11:56.91	73.54	15.84	
2025-01-16 08:11:58.13	73.31	15.91	
2025-01-16 08:11:59.35	73.09	15.98	
2025-01-16 08:12:00.57	72.86	16.05	
2025-01-16 08:12:01.79	72.63	16.12	
2025-01-16 08:12:03.01	72.40	16.19	
2025-01-16 08:12:04.23	72.16	16.26	
2025-01-16 08:12:05.44	71.93	16.33	
2025-01-16 08:12:06.66	71.70	16.39	
2025-01-16 08:12:07.88	71.46	16.46	
2025-01-16 08:12:09.10	71.22	16.53	
2025-01-16 08:12:10.32	70.99	16.60	
2025-01-16 08:12:11.54	70.75	16.67	
2025-01-16 08:12:12.76	70.51	16.73	
2025-01-16 08:12:13.97	70.27	16.80	
2025-01-16 08:12:15.19	70.03	16.87	
2025-01-16 08:12:16.41	69.78	16.93	
2025-01-16 08:12:17.63	69.54	17.00	
2025-01-16 08:12:18.85	69.29	17.06	
2025-01-16 08:12:20.07	69.05	17.13	
2025-01-16 08:12:21.29	68.80	17.19	
2025-01-16 08:12:22.51	68.55	17.26	
2025-01-16 08:12:23.72	68.30	17.32	
2025-01-16 08:12:24.94	68.05	17.39	
2025-01-16 08:12:26.16	67.80	17.45	
2025-01-16 08:12:27.38	67.55	17.51	
2025-01-16 08:12:28.60	67.29	17.58	
2025-01-16 08:12:29.82	67.04	17.64	
2025-01-16 08:12:31.04	66.78	17.70	
2025-01-16 08:12:32.25	66.53	17.76	
2025-01-16 08:12:33.47	66.27	17.82	
2025-01-16 08:12:34.69	66.01	17.88	
2025-01-16 08:12:35.91	65.75	17.94	
2025-01-16 08:12:37.13	65.49	18.00	
2025-01-16 08:12:38.35	65.22	18.06	
2025-01-16 08:12:39.57	64.96	18.12	
2025-01-16 08:12:40.79	64.70	18.17	
2025-01-16 08:12:42.00	64.43	18.23	
2025-01-16 08:12:43.22	64.17	18.29	
2025-01-16 08:12:44.44	63.90	18.34	
2025-01-16 08:12:45.66	63.63	18.40	
2025-01-16 08:12:46.88	63.36	18.46	
2025-01-16 08:12:48.10	63.09	18.51	
2025-01-16 08:12:49.32	62.82	18.56	
2025-01-16 08:12:50.53	62.55	18.62	
2025-01-16 08:12:51.75	62.28	18.67	
2025-01-16 08:12:52.97	62.00	18.72	
2025-01-16 08:12:54.19	61.73	18.78	
2025-01-16 08:12:55.41	61.45	18.83	
2025-01-16 08:12:56.63	61.17	18.88	
2025-01-16 08:12:57.85	60.90	18.93	
2025-01-16 08:12:59.07	60.62	18.98	
2025-01-16 08:13:00.28	60.34	19.03	
2025-01-16 08:13:01.50	60.06	19.07	
2025-01-16 08:13:02.72	59.78	19.12	
2025-01-16 08:13:03.94	59.49	19.17	
2025-01-16 08:13:05.16	59.21	19.22	
2025-01-16 08:13:06.38	58.93	19.26	
2025-01-16 08:13:07.60	58.64	19.31	
2025-01-16 08:13:08.81	58.36	19.35	
2025-01-16 08:13:10.03	58.07	19.40	
2025-01-16 08:13:11.25	57.78	19.44	
2025-01-16 08:13:12.47	57.50	19.48	
2025-01-16 08:13:13.69	57.21	19.52	
2025-01-16 08:13:14.91	56.92	19.56	
2025-01-16 08:13:16.13	56.63	19.60	
2025-01-16 08:13:17.35	56.33	19.64	
2025-01-16 08:13:18.56	56.05	19.68	
2025-01-16 08:13:19.78	55.75	19.72	
2025-01-16 08:13:21.00	55.46	19.76	
2025-01-16 08:13:22.22	55.16	19.80	
2025-01-16 08:13:23.44	54.87	19.83	
2025-01-16 08:13:24.66	54.57	19.87	
2025-01-16 08:13:25.88	54.28	19.90	
2025-01-16 08:13:27.09	53.98	19.94	
2025-01-16 08:13:28.31	53.68	19.97	
2025-01-16 08:13:29.53	53.39	20.00	
2025-01-16 08:13:30.75	53.09	20.03	
2025-01-16 08:13:31.97	52.79	20.06	
2025-01-16 08:13:33.19	52.49	20.09	
2025-01-16 08:13:34.41	52.19	20.12	
2025-01-16 08:13:35.62	51.89	20.15	
2025-01-16 08:13:36.84	51.59	20.18	
2025-01-16 08:13:38.06	51.28	20.20	
2025-01-16 08:13:39.28	50.98	20.23	
2025-01-16 08:13:40.50	50.68	20.26	
2025-01-16 08:13:41.72	50.37	20.28	
2025-01-16 08:13:42.94	50.07	20.30	
2025-01-16 08:13:44.16	49.76	20.33	
2025-01-16 08:13:45.37	49.46	20.35	
2025-01-16 08:13:46.59	49.16	20.37	
2025-01-16 08:13:47.81	48.85	20.39	
2025-01-16 08:13:49.03	48.54	20.41	
2025-01-16 08:13:50.25	48.24	20.43	
2025-01-16 08:13:51.47	47.93	20.44	
2025-01-16 08:13:52.69	47.62	20.46	
2025-01-16 08:13:53.90	47.32	20.48	
2025-01-16 08:13:55.12	47.01	20.49	
2025-01-16 08:13:56.34	46.70	20.51	
2025-01-16 08:13:57.56	46.39	20.52	
2025-01-16 08:13:58.78	46.08	20.53	
2025-01-16 08:14:00.00	45.77	20.54	
2025-01-16 08:14:01.22	45.46	20.55	
2025-01-16 08:14:02.44	45.15	20.56	
2025-01-16 08:14:03.65	44.85	20.57	
2025-01-16 08:14:04.87	44.54	20.58	
2025-01-16 08:14:06.09	44.23	20.59	
2025-01-16 08:14:07.31	43.92	20.59	
2025-01-16 08:14:08.53	43.61	20.60	
2025-01-16 08:14:09.75	43.30	20.60	
2025-01-16 08:14:10.97	42.99	20.61	
2025-01-16 08:14:12.18	42.68	20.61	
2025-01-16 08:14:13.40	42.37	20.61	
2025-01-16 08:14:14.62	42.06	20.61	
2025-01-16 08:14:15.84	41.75	20.61	
2025-01-16 08:14:17.06	41.43	20.61	
2025-01-16 08:14:18.28	41.12	20.61	
2025-01-16 08:14:19.50	40.81	20.61	
2025-01-16 08:14:20.72	40.50	20.60	
2025-01-16 08:14:21.93	40.20	20.60	
2025-01-16 08:14:23.15	39.88	20.59	
2025-01-16 08:14:24.37	39.57	20.59	
2025-01-16 08:14:25.59	39.26	20.58	
2025-01-16 08:14:26.81	38.95	20.57	
2025-01-16 08:14:28.03	38.64	20.56	
2025-01-16 08:14:29.25	38.34	20.56	
2025-01-16 08:14:30.46	38.03	20.54	
2025-01-16 08:14:31.68	37.72	20.53	
2025-01-16 08:14:32.90	37.41	20.52	
2025-01-16 08:14:34.12	37.10	20.51	
2025-01-16 08:14:35.34	36.79	20.49	
2025-01-16 08:14:36.56	36.49	20.48	
2025-01-16 08:14:37.78	36.18	20.46	
2025-01-16 08:14:39.00	35.87	20.45	
2025-01-16 08:14:40.21	35.57	20.43	
2025-01-16 08:14:41.43	35.26	20.41	
2025-01-16 08:14:42.65	34.95	20.39	
2025-01-16 08:14:43.87	34.65	20.37	
2025-01-16 08:14:45.09	34.34	20.35	
2025-01-16 08:14:46.31	34.04	20.33	
2025-01-16 08:14:47.53	33.73	20.31	
2025-01-16 08:14:48.74	33.43	20.28	
2025-01-16 08:14:49.96	33.13	20.26	
2025-01-16 08:14:51.18	32.82	20.23	
2025-01-16 08:14:52.40	32.52	20.21	
2025-01-16 08:14:53.62	32.22	20.18	
2025-01-16 08:14:54.84	31.92	20.16	
2025-01-16 08:14:56.06	31.62	20.13	
2025-01-16 08:14:57.28	31.32	20.10	
2025-01-16 08:14:58.49	31.02	20.07	
2025-01-16 08:14:59.71	30.72	20.04	
2025-01-16 08:15:00.93	30.42	20.01	
2025-01-16 08:15:02.15	30.12	19.97	
2025-01-16 08:15:03.37	29.83	19.94	
2025-01-16 08:15:04.59	29.53	19.91	
2025-01-16 08:15:05.81	29.23	19.87	
2025-01-16 08:15:07.02	28.94	19.84	
2025-01-16 08:15:08.24	28.65	19.80	
2025-01-16 08:15:09.46	28.35	19.77	
2025-01-16 08:15:10.68	28.06	19.73	
2025-01-16 08:15:11.90	27.77	19.69	
2025-01-16 08:15:13.12	27.48	19.65	
2025-01-16 08:15:14.34	27.18	19.61	
2025-01-16 08:15:15.55	26.90	19.57	
2025-01-16 08:15:16.77	26.61	19.53	
2025-01-16 08:15:17.99	26.32	19.49	
2025-01-16 08:15:19.21	26.03	19.45	
2025-01-16 08:15:20.43	25.74	19.40	
2025-01-16 08:15:21.65	25.46	19.36	
2025-01-16 08:15:22.87	25.17	19.32	
2025-01-16 08:15:24.09	24.89	19.27	
2025-01-16 08:15:25.30	24.61	19.23	
2025-01-16 08:15:26.52	24.32	19.18	
2025-01-16 08:15:27.74	24.04	19.13	
2025-01-16 08:15:28.96	23.76	19.09	
2025-01-16 08:15:30.18	23.48	19.04	
2025-01-16 08:15:31.40	23.20	18.99	
2025-01-16 08:15:32.62	22.92	18.94	
2025-01-16 08:15:33.83	22.65	18.89	
2025-01-16 08:15:35.05	22.37	18.84	
2025-01-16 08:15:36.27	22.10	18.79	
2025-01-16 08:15:37.49	21.82	18.74	
2025-01-16 08:15:38.71	21.55	18.68	
2025-01-16 08:15:39.93	21.28	18.63	
2025-01-16 08:15:41.15	21.00	18.58	
2025-01-16 08:15:42.37	20.73	18.52	
2025-01-16 08:15:43.58	20.47	18.47	
2025-01-16 08:15:44.80	20.20	18.41	
2025-01-16 08:15:46.02	19.93	18.36	
2025-01-16 08:15:47.24	19.66	18.30	
2025-01-16 08:15:48.46	19.40	18.25	
2025-01-16 08:15:49.68	19.13	18.19	
2025-01-16 08:15:50.90	18.87	18.13	
2025-01-16 08:15:52.11	18.61	18.07	
2025-01-16 08:15:53.33	18.35	18.01	
2025-01-16 08:15:54.55	18.09	17.96	
2025-01-16 08:15:55.77	17.83	17.90	
2025-01-16 08:15:56.99	17.57	17.84	
2025-01-16 08:15:58.21	17.31	17.78	
2025-01-16 08:15:59.43	17.05	17.71	
2025-01-16 08:16:00.65	16.80	17.65	
2025-01-16 08:16:01.86	16.55	17.59	
2025-01-16 08:16:03.08	16.29	17.53	
2025-01-16 08:16:04.30	16.04	17.47	
2025-01-16 08:16:05.52	15.79	17.40	
2025-01-16 08:16:06.74	15.54	17.34	
2025-01-16 08:16:07.96	15.29	17.28	
2025-01-16 08:16:09.18	15.04	17.21	
2025-01-16 08:16:10.39	14.80	17.15	
2025-01-16 08:16:11.61	14.55	17.08	
2025-01-16 08:16:12.83	14.31	17.02	
2025-01-16 08:16:14.05	14.06	16.95	
2025-01-16 08:16:15.27	13.82	16.89	
2025-01-16 08:16:16.49	13.58	16.82	
2025-01-16 08:16:17.71	13.34	16.75	
2025-01-16 08:16:18.93	13.10	16.69	
2025-01-16 08:16:20.14	12.86	16.62	
2025-01-16 08:16:21.36	12.63	16.55	
2025-01-16 08:16:22.58	12.39	16.48	
2025-01-16 08:16:23.80	12.15	16.42	
2025-01-16 08:16:25.02	11.92	16.35	
2025-01-16 08:16:26.24	11.69	16.28	
2025-01-16 08:16:27.46	11.46	16.21	
2025-01-16 08:16:28.67	11.23	16.14	
2025-01-16 08:16:29.89	11.00	16.07	
2025-01-16 08:16:31.11	10.77	16.00	
2025-01-16 08:16:32.33	10.54	15.93	
2025-01-16 08:16:33.55	10.32	15.86	
2025-01-16 08:16:34.77	10.09	15.79	
2025-01-16 08:16:35.99	9.87	15.72	
2025-01-16 08:16:37.21	9.64	15.65	
2025-01-16 08:16:38.42	9.42	15.58	
2025-01-16 08:16:39.64	9.20	15.50	
2025-01-16 08:16:40.86	8.98	15.43	
2025-01-16 08:16:42.08	8.76	15.36	
2025-01-16 08:16:43.30	8.55	15.29	
2025-01-16 08:16:44.52	8.33	15.22	
2025-01-16 08:16:45.74	8.11	15.14	
2025-01-16 08:16:46.95	7.90	15.07	
2025-01-16 08:16:48.17	7.69	15.00	
2025-01-16 08:16:49.39	7.48	14.92	
2025-01-16 08:16:50.61	7.26	14.85	
2025-01-16 08:16:51.83	7.05	14.78	
2025-01-16 08:16:53.05	6.84	14.70	
2025-01-16 08:16:54.27	6.64	14.63	
2025-01-16 08:16:55.48	6.43	14.56	
2025-01-16 08:16:56.70	6.23	14.48	
2025-01-16 08:16:57.92	6.02	14.41	
2025-01-16 08:16:59.14	5.82	14.33	
2025-01-16 08:17:00.36	5.61	14.26	
2025-01-16 08:17:01.58	5.41	14.18	
2025-01-16 08:17:02.80	5.21	14.11	
2025-01-16 08:17:04.02	5.01	14.03	
2025-01-16 08:17:05.23	4.81	13.96	
2025-01-16 08:17:06.45	4.62	13.88	
2025-01-16 08:17:07.67	4.42	13.81	
2025-01-16 08:17:08.89	4.22	13.73	
2025-01-16 08:17:10.11	4.03	13.66	
2025-01-16 08:17:11.33	3.84	13.58	
2025-01-16 08:17:12.55	3.64	13.51	
2025-01-16 08:17:13.76	3.45	13.43	
2025-01-16 08:17:14.98	3.26	13.36	
2025-01-16 08:17:16.20	3.07	13.28	
2025-01-16 08:17:17.42	2.88	13.20	
2025-01-16 08:17:18.64	2.70	13.13	
2025-01-16 08:17:19.86	2.51	13.05	
2025-01-16 08:17:21.08	2.32	12.97	
2025-01-16 08:17:22.30	2.14	12.90	
2025-01-16 08:17:23.51	1.96	12.82	
2025-01-16 08:17:24.73	1.77	12.75	
2025-01-16 08:17:25.95	1.59	12.67	
2025-01-16 08:17:27.17	1.41	12.59	
2025-01-16 08:17:28.39	1.23	12.52	
2025-01-16 08:17:29.61	1.05	12.44	
2025-01-16 08:17:30.83	0.88	12.36	
2025-01-16 08:17:32.04	0.70	12.29	
2025-01-16 08:17:33.26	0.52	12.21	
2025-01-16 08:17:34.48	0.35	12.13	
2025-01-16 08:17:35.70	0.17	12.06	
2025-01-16 08:17:36.92	0.00	11.98	
2025-01-16 08:17:38.14	359.83	11.90	
2025-01-16 08:17:39.36	359.66	11.83	
2025-01-16 08:17:40.58	359.49	11.75	
2025-01-16 08:17:41.79	359.32	11.67	
2025-01-16 08:17:43.01	359.15	11.60	
2025-01-16 08:17:44.23	358.98	11.52	
2025-01-16 08:17:45.45	358.81	11.44	
2025-01-16 08:17:46.67	358.65	11.37	
2025-01-16 08:17:47.89	358.48	11.29	
2025-01-16 08:17:49.11	358.32	11.21	
2025-01-16 08:17:50.32	358.16	11.14	
2025-01-16 08:17:51.54	357.99	11.06	
2025-01-16 08:17:52.76	357.83	10.98	
2025-01-16 08:17:53.98	357.67	10.91	
2025-01-16 08:17:55.20	357.51	10.83	
2025-01-16 08:17:56.42	357.35	10.75	
2025-01-16 08:17:57.64	357.20	10.68	
2025-01-16 08:17:58.86	357.04	10.60	
2025-01-16 08:18:00.07	356.88	10.52	
2025-01-16 08:18:01.29	356.73	10.45	
2025-01-16 08:18:02.51	356.57	10.37	
2025-01-16 08:18:03.73	356.42	10.29	
2025-01-16 08:18:04.95	356.27	10.22	
2025-01-16 08:18:06.17	356.11	10.14	
2025-01-16 08:18:07.39	355.96	10.07	
2025-01-16 08:18:08.60	355.81	9.99	
2025-01-16 08:18:09.82	355.66	9.91	
2025-01-16 08:18:11.04	355.51	9.84	
2025-01-16 08:18:12.26	355.36	9.76	
2025-01-16 08:18:13.48	355.22	9.68	
2025-01-16 08:18:14.70	355.07	9.61	
2025-01-16 08:18:15.92	354.92	9.53	
2025-01-16 08:18:17.14	354.78	9.46	
2025-01-16 08:18:18.35	354.64	9.38	
2025-01-16 08:18:19.57	354.49	9.30	
2025-01-16 08:18:20.79	354.35	9.23	
2025-01-16 08:18:22.01	354.21	9.15	
2025-01-16 08:18:23.23	354.07	9.08	
2025-01-16 08:18:24.45	353.93	9.00	
2025-01-16 08:18:25.67	353.79	8.93	
2025-01-16 08:18:26.88	353.65	8.85	
2025-01-16 08:18:28.10	353.51	8.78	
2025-01-16 08:18:29.32	353.37	8.70	
2025-01-16 08:18:30.54	353.23	8.62	
2025-01-16 08:18:31.76	353.10	8.55	
2025-01-16 08:18:32.98	352.96	8.47	
2025-01-16 08:18:34.20	352.83	8.40	
2025-01-16 08:18:35.41	352.70	8.32	
2025-01-16 08:18:36.63	352.56	8.25	
2025-01-16 08:18:37.85	352.43	8.17	
2025-01-16 08:18:39.07	352.30	8.10	
2025-01-16 08:18:40.29	352.17	8.03	
2025-01-16 08:18:41.51	352.04	7.95	
2025-01-16 08:18:42.73	351.91	7.88	
2025-01-16 08:18:43.95	351.78	7.80	
2025-01-16 08:18:45.16	351.65	7.73	
2025-01-16 08:18:46.38	351.52	7.65	
2025-01-16 08:18:47.60	351.39	7.58	
2025-01-16 08:18:48.82	351.27	7.50	
2025-01-16 08:18:50.04	351.14	7.43	
2025-01-16 08:18:51.26	351.02	7.36	
2025-01-16 08:18:52.48	350.89	7.28	
2025-01-16 08:18:53.69	350.77	7.21	
2025-01-16 08:18:54.91	350.65	7.13	
2025-01-16 08:18:56.13	350.52	7.06	
2025-01-16 08:18:57.35	350.40	6.99	
2025-01-16 08:18:58.57	350.28	6.91	
2025-01-16 08:18:59.79	350.16	6.84	
2025-01-16 08:19:01.01	350.04	6.77	
2025-01-16 08:19:02.23	349.92	6.69	
2025-01-16 08:19:03.44	349.80	6.62	
2025-01-16 08:19:04.66	349.69	6.55	
2025-01-16 08:19:05.88	349.57	6.48	
2025-01-16 08:19:07.10	349.45	6.40	
2025-01-16 08:19:08.32	349.34	6.33	
2025-01-16 08:19:09.54	349.22	6.26	
2025-01-16 08:19:10.76	349.10	6.18	
2025-01-16 08:19:11.97	348.99	6.11	
2025-01-16 08:19:13.19	348.88	6.04	
2025-01-16 08:19:14.41	348.76	5.97	
2025-01-16 08:19:15.63	348.65	5.89	
2025-01-16 08:19:16.85	348.54	5.82	
2025-01-16 08:19:18.07	348.43	5.75	
2025-01-16 08:19:19.29	348.32	5.68	
2025-01-16 08:19:20.51	348.21	5.61	
2025-01-16 08:19:21.72	348.10	5.54	
2025-01-16 08:19:22.94	347.99	5.46	
2025-01-16 08:19:24.16	347.88	5.39	
2025-01-16 08:19:25.38	347.77	5.32	
2025-01-16 08:19:26.60	347.66	5.25	
2025-01-16 08:19:27.82	347.56	5.18	
2025-01-16 08:19:29.04	347.45	5.11	
2025-01-16 08:19:30.25	347.34	5.04	
2025-01-16 08:19:31.47	347.24	4.96	
2025-01-16 08:19:32.69	347.13	4.89	
2025-01-16 08:19:33.91	347.03	4.82	
2025-01-16 08:19:35.13	346.93	4.75	
2025-01-16 08:19:36.35	346.82	4.68	
2025-01-16 08:19:37.57	346.72	4.61	
2025-01-16 08:19:38.79	346.62	4.54	
2025-01-16 08:19:40.00	346.52	4.47	
2025-01-16 08:19:41.22	346.42	4.40	
2025-01-16 08:19:42.44	346.31	4.33	
2025-01-16 08:19:43.66	346.21	4.26	
2025-01-16 08:19:44.88	346.11	4.19	
2025-01-16 08:19:46.10	346.02	4.12	
2025-01-16 08:19:47.32	345.92	4.05	

#Closed at: 2025-01-16 08:19:48