passes_logs/2025/01/16/SPB_Silybum_02/SPB_Silybum_02__20250116_070132_TERRA_rec.log

#Pass ID: 20250116_070132_TERRA
#Satellite: TERRA
#Configuration: TERRA
#Start time: 2025-01-16 07:01:30

#Version: 2.0.20230423
#Station: SPB_Silybum_02
#Location: 30.233357 lon 59.946436 lat
#TLE: 1 25994U 99068A   25015.81469206  .00000761  00000+0  16641-3 0  9994
#TLE: 2 25994  98.0214  78.8192 0003429  70.9720  38.3229 14.60396307334199

#Time	Az	El	Level	Level2	SNR	BER	Gain	Gain2
2025-01-16 07:01:32.64	25.46	4.04	
2025-01-16 07:01:33.85	25.56	4.12	
2025-01-16 07:01:35.07	25.66	4.19	
2025-01-16 07:01:36.29	25.75	4.27	
2025-01-16 07:01:37.51	25.85	4.35	
2025-01-16 07:01:38.73	25.95	4.42	
2025-01-16 07:01:39.95	26.05	4.50	
2025-01-16 07:01:41.16	26.15	4.58	
2025-01-16 07:01:42.38	26.26	4.65	
2025-01-16 07:01:43.60	26.36	4.73	
2025-01-16 07:01:44.82	26.46	4.81	
2025-01-16 07:01:46.04	26.56	4.89	
2025-01-16 07:01:47.26	26.67	4.97	
2025-01-16 07:01:48.47	26.77	5.04	
2025-01-16 07:01:49.69	26.87	5.12	
2025-01-16 07:01:50.91	26.98	5.20	
2025-01-16 07:01:52.13	27.09	5.28	
2025-01-16 07:01:53.35	27.19	5.36	
2025-01-16 07:01:54.57	27.30	5.44	
2025-01-16 07:01:55.79	27.41	5.52	
2025-01-16 07:01:57.00	27.52	5.60	
2025-01-16 07:01:58.22	27.62	5.68	
2025-01-16 07:01:59.44	27.73	5.76	
2025-01-16 07:02:00.66	27.84	5.84	
2025-01-16 07:02:01.88	27.95	5.92	
2025-01-16 07:02:03.10	28.07	6.00	
2025-01-16 07:02:04.31	28.18	6.08	
2025-01-16 07:02:05.53	28.29	6.16	
2025-01-16 07:02:06.75	28.40	6.24	
2025-01-16 07:02:07.97	28.52	6.32	
2025-01-16 07:02:09.19	28.63	6.41	
2025-01-16 07:02:10.41	28.75	6.49	
2025-01-16 07:02:11.63	28.86	6.57	
2025-01-16 07:02:12.84	28.98	6.65	
2025-01-16 07:02:14.06	29.10	6.73	
2025-01-16 07:02:15.28	29.22	6.82	
2025-01-16 07:02:16.50	29.33	6.90	
2025-01-16 07:02:17.72	29.45	6.98	
2025-01-16 07:02:18.94	29.57	7.07	
2025-01-16 07:02:20.15	29.69	7.15	
2025-01-16 07:02:21.37	29.82	7.23	
2025-01-16 07:02:22.59	29.94	7.32	
2025-01-16 07:02:23.81	30.06	7.40	
2025-01-16 07:02:25.03	30.18	7.49	
2025-01-16 07:02:26.25	30.31	7.57	
2025-01-16 07:02:27.47	30.43	7.66	
2025-01-16 07:02:28.68	30.56	7.74	
2025-01-16 07:02:29.90	30.69	7.83	
2025-01-16 07:02:31.12	30.81	7.91	
2025-01-16 07:02:32.34	30.94	8.00	
2025-01-16 07:02:33.56	31.07	8.08	
2025-01-16 07:02:34.78	31.20	8.17	
2025-01-16 07:02:35.99	31.33	8.25	
2025-01-16 07:02:37.21	31.46	8.34	
2025-01-16 07:02:38.43	31.60	8.43	
2025-01-16 07:02:39.65	31.73	8.51	
2025-01-16 07:02:40.87	31.86	8.60	
2025-01-16 07:02:42.09	32.00	8.69	
2025-01-16 07:02:43.30	32.13	8.78	
2025-01-16 07:02:44.52	32.27	8.86	
2025-01-16 07:02:45.74	32.41	8.95	
2025-01-16 07:02:46.96	32.54	9.04	
2025-01-16 07:02:48.18	32.68	9.13	
2025-01-16 07:02:49.40	32.82	9.22	
2025-01-16 07:02:50.62	32.96	9.31	
2025-01-16 07:02:51.83	33.11	9.39	
2025-01-16 07:02:53.05	33.25	9.48	
2025-01-16 07:02:54.27	33.39	9.57	
2025-01-16 07:02:55.49	33.54	9.66	
2025-01-16 07:02:56.71	33.68	9.75	
2025-01-16 07:02:57.93	33.83	9.84	
2025-01-16 07:02:59.14	33.97	9.93	
2025-01-16 07:03:00.36	34.12	10.02	
2025-01-16 07:03:01.58	34.27	10.11	
2025-01-16 07:03:02.80	34.42	10.20	
2025-01-16 07:03:04.02	34.57	10.30	
2025-01-16 07:03:05.24	34.72	10.39	
2025-01-16 07:03:06.46	34.88	10.48	
2025-01-16 07:03:07.67	35.03	10.57	
2025-01-16 07:03:08.89	35.19	10.66	
2025-01-16 07:03:10.11	35.34	10.75	
2025-01-16 07:03:11.33	35.50	10.85	
2025-01-16 07:03:12.55	35.66	10.94	
2025-01-16 07:03:13.77	35.82	11.03	
2025-01-16 07:03:14.98	35.98	11.13	
2025-01-16 07:03:16.20	36.14	11.22	
2025-01-16 07:03:17.42	36.30	11.31	
2025-01-16 07:03:18.64	36.46	11.41	
2025-01-16 07:03:19.86	36.63	11.50	
2025-01-16 07:03:21.08	36.79	11.59	
2025-01-16 07:03:22.30	36.96	11.69	
2025-01-16 07:03:23.51	37.13	11.78	
2025-01-16 07:03:24.73	37.30	11.88	
2025-01-16 07:03:25.95	37.47	11.97	
2025-01-16 07:03:27.17	37.64	12.07	
2025-01-16 07:03:28.39	37.81	12.16	
2025-01-16 07:03:29.61	37.98	12.26	
2025-01-16 07:03:30.82	38.16	12.35	
2025-01-16 07:03:32.04	38.33	12.45	
2025-01-16 07:03:33.26	38.51	12.54	
2025-01-16 07:03:34.48	38.69	12.64	
2025-01-16 07:03:35.70	38.87	12.74	
2025-01-16 07:03:36.92	39.05	12.83	
2025-01-16 07:03:38.14	39.23	12.93	
2025-01-16 07:03:39.35	39.41	13.03	
2025-01-16 07:03:40.57	39.60	13.12	
2025-01-16 07:03:41.79	39.78	13.22	
2025-01-16 07:03:43.01	39.97	13.32	
2025-01-16 07:03:44.23	40.16	13.42	
2025-01-16 07:03:45.45	40.35	13.52	
2025-01-16 07:03:46.66	40.54	13.61	
2025-01-16 07:03:47.88	40.73	13.71	
2025-01-16 07:03:49.10	40.92	13.81	
2025-01-16 07:03:50.32	41.12	13.91	
2025-01-16 07:03:51.54	41.32	14.01	
2025-01-16 07:03:52.76	41.51	14.11	
2025-01-16 07:03:53.98	41.71	14.20	
2025-01-16 07:03:55.19	41.91	14.30	
2025-01-16 07:03:56.41	42.11	14.40	
2025-01-16 07:03:57.63	42.32	14.50	
2025-01-16 07:03:58.85	42.52	14.60	
2025-01-16 07:04:00.07	42.73	14.70	
2025-01-16 07:04:01.29	42.93	14.80	
2025-01-16 07:04:02.50	43.14	14.90	
2025-01-16 07:04:03.72	43.35	15.00	
2025-01-16 07:04:04.94	43.56	15.10	
2025-01-16 07:04:06.16	43.78	15.20	
2025-01-16 07:04:07.38	43.99	15.30	
2025-01-16 07:04:08.60	44.21	15.40	
2025-01-16 07:04:09.81	44.42	15.50	
2025-01-16 07:04:11.03	44.64	15.60	
2025-01-16 07:04:12.25	44.87	15.70	
2025-01-16 07:04:13.47	45.09	15.80	
2025-01-16 07:04:14.69	45.31	15.90	
2025-01-16 07:04:15.91	45.54	16.01	
2025-01-16 07:04:17.13	45.76	16.11	
2025-01-16 07:04:18.34	45.99	16.21	
2025-01-16 07:04:19.56	46.22	16.31	
2025-01-16 07:04:20.78	46.45	16.41	
2025-01-16 07:04:22.00	46.69	16.51	
2025-01-16 07:04:23.22	46.92	16.61	
2025-01-16 07:04:24.44	47.16	16.71	
2025-01-16 07:04:25.65	47.40	16.81	
2025-01-16 07:04:26.87	47.64	16.92	
2025-01-16 07:04:28.09	47.88	17.02	
2025-01-16 07:04:29.31	48.12	17.12	
2025-01-16 07:04:30.53	48.37	17.22	
2025-01-16 07:04:31.75	48.62	17.32	
2025-01-16 07:04:32.97	48.86	17.42	
2025-01-16 07:04:34.18	49.11	17.52	
2025-01-16 07:04:35.40	49.36	17.62	
2025-01-16 07:04:36.62	49.62	17.72	
2025-01-16 07:04:37.84	49.87	17.83	
2025-01-16 07:04:39.06	50.13	17.93	
2025-01-16 07:04:40.28	50.39	18.03	
2025-01-16 07:04:41.49	50.65	18.13	
2025-01-16 07:04:42.71	50.91	18.23	
2025-01-16 07:04:43.93	51.18	18.33	
2025-01-16 07:04:45.15	51.44	18.43	
2025-01-16 07:04:46.37	51.71	18.53	
2025-01-16 07:04:47.59	51.98	18.63	
2025-01-16 07:04:48.81	52.26	18.73	
2025-01-16 07:04:50.02	52.53	18.83	
2025-01-16 07:04:51.24	52.80	18.93	
2025-01-16 07:04:52.46	53.08	19.03	
2025-01-16 07:04:53.68	53.36	19.13	
2025-01-16 07:04:54.90	53.64	19.23	
2025-01-16 07:04:56.12	53.92	19.33	
2025-01-16 07:04:57.33	54.21	19.43	
2025-01-16 07:04:58.55	54.49	19.52	
2025-01-16 07:04:59.77	54.78	19.62	
2025-01-16 07:05:00.99	55.07	19.72	
2025-01-16 07:05:02.21	55.37	19.82	
2025-01-16 07:05:03.43	55.66	19.92	
2025-01-16 07:05:04.65	55.96	20.01	
2025-01-16 07:05:05.86	56.26	20.11	
2025-01-16 07:05:07.08	56.56	20.20	
2025-01-16 07:05:08.30	56.86	20.30	
2025-01-16 07:05:09.52	57.16	20.40	
2025-01-16 07:05:10.74	57.47	20.49	
2025-01-16 07:05:11.96	57.78	20.59	
2025-01-16 07:05:13.17	58.09	20.68	
2025-01-16 07:05:14.39	58.40	20.78	
2025-01-16 07:05:15.61	58.71	20.87	
2025-01-16 07:05:16.83	59.03	20.96	
2025-01-16 07:05:18.05	59.35	21.06	
2025-01-16 07:05:19.27	59.67	21.15	
2025-01-16 07:05:20.48	59.99	21.24	
2025-01-16 07:05:21.70	60.31	21.33	
2025-01-16 07:05:22.92	60.64	21.42	
2025-01-16 07:05:24.14	60.97	21.51	
2025-01-16 07:05:25.36	61.30	21.60	
2025-01-16 07:05:26.58	61.63	21.69	
2025-01-16 07:05:27.80	61.96	21.78	
2025-01-16 07:05:29.01	62.30	21.87	
2025-01-16 07:05:30.23	62.64	21.95	
2025-01-16 07:05:31.45	62.98	22.04	
2025-01-16 07:05:32.67	63.32	22.13	
2025-01-16 07:05:33.89	63.66	22.21	
2025-01-16 07:05:35.11	64.01	22.30	
2025-01-16 07:05:36.32	64.35	22.38	
2025-01-16 07:05:37.54	64.70	22.46	
2025-01-16 07:05:38.76	65.05	22.54	
2025-01-16 07:05:39.98	65.41	22.63	
2025-01-16 07:05:41.20	65.76	22.71	
2025-01-16 07:05:42.42	66.12	22.79	
2025-01-16 07:05:43.64	66.48	22.87	
2025-01-16 07:05:44.85	66.84	22.94	
2025-01-16 07:05:46.07	67.20	23.02	
2025-01-16 07:05:47.29	67.57	23.10	
2025-01-16 07:05:48.51	67.93	23.17	
2025-01-16 07:05:49.73	68.30	23.25	
2025-01-16 07:05:50.95	68.67	23.32	
2025-01-16 07:05:52.16	69.04	23.39	
2025-01-16 07:05:53.38	69.42	23.47	
2025-01-16 07:05:54.60	69.79	23.54	
2025-01-16 07:05:55.82	70.17	23.61	
2025-01-16 07:05:57.04	70.55	23.68	
2025-01-16 07:05:58.26	70.93	23.74	
2025-01-16 07:05:59.48	71.31	23.81	
2025-01-16 07:06:00.69	71.69	23.88	
2025-01-16 07:06:01.91	72.08	23.94	
2025-01-16 07:06:03.13	72.47	24.00	
2025-01-16 07:06:04.35	72.86	24.07	
2025-01-16 07:06:05.57	73.25	24.13	
2025-01-16 07:06:06.79	73.64	24.19	
2025-01-16 07:06:08.00	74.03	24.25	
2025-01-16 07:06:09.22	74.43	24.30	
2025-01-16 07:06:10.44	74.82	24.36	
2025-01-16 07:06:11.66	75.22	24.41	
2025-01-16 07:06:12.88	75.62	24.47	
2025-01-16 07:06:14.10	76.02	24.52	
2025-01-16 07:06:15.32	76.42	24.57	
2025-01-16 07:06:16.53	76.83	24.62	
2025-01-16 07:06:17.75	77.23	24.67	
2025-01-16 07:06:18.97	77.64	24.72	
2025-01-16 07:06:20.19	78.04	24.76	
2025-01-16 07:06:21.41	78.45	24.81	
2025-01-16 07:06:22.63	78.86	24.85	
2025-01-16 07:06:23.84	79.27	24.89	
2025-01-16 07:06:25.06	79.68	24.93	
2025-01-16 07:06:26.28	80.10	24.97	
2025-01-16 07:06:27.50	80.51	25.01	
2025-01-16 07:06:28.72	80.93	25.04	
2025-01-16 07:06:29.94	81.34	25.08	
2025-01-16 07:06:31.15	81.76	25.11	
2025-01-16 07:06:32.37	82.18	25.14	
2025-01-16 07:06:33.59	82.60	25.17	
2025-01-16 07:06:34.81	83.01	25.20	
2025-01-16 07:06:36.03	83.44	25.23	
2025-01-16 07:06:37.25	83.86	25.25	
2025-01-16 07:06:38.47	84.28	25.28	
2025-01-16 07:06:39.68	84.70	25.30	
2025-01-16 07:06:40.90	85.12	25.32	
2025-01-16 07:06:42.12	85.55	25.34	
2025-01-16 07:06:43.34	85.97	25.36	
2025-01-16 07:06:44.56	86.39	25.37	
2025-01-16 07:06:45.78	86.82	25.39	
2025-01-16 07:06:46.99	87.24	25.40	
2025-01-16 07:06:48.21	87.67	25.41	
2025-01-16 07:06:49.43	88.09	25.42	
2025-01-16 07:06:50.65	88.52	25.43	
2025-01-16 07:06:51.87	88.95	25.43	
2025-01-16 07:06:53.09	89.38	25.44	
2025-01-16 07:06:54.31	89.80	25.44	
2025-01-16 07:06:55.52	90.23	25.44	
2025-01-16 07:06:56.74	90.65	25.44	
2025-01-16 07:06:57.96	91.08	25.44	
2025-01-16 07:06:59.18	91.51	25.44	
2025-01-16 07:07:00.40	91.93	25.43	
2025-01-16 07:07:01.62	92.36	25.43	
2025-01-16 07:07:02.83	92.78	25.42	
2025-01-16 07:07:04.05	93.21	25.41	
2025-01-16 07:07:05.27	93.64	25.40	
2025-01-16 07:07:06.49	94.06	25.39	
2025-01-16 07:07:07.71	94.49	25.37	
2025-01-16 07:07:08.93	94.91	25.36	
2025-01-16 07:07:10.15	95.34	25.34	
2025-01-16 07:07:11.36	95.76	25.32	
2025-01-16 07:07:12.58	96.18	25.30	
2025-01-16 07:07:13.80	96.61	25.28	
2025-01-16 07:07:15.02	97.03	25.25	
2025-01-16 07:07:16.24	97.45	25.23	
2025-01-16 07:07:17.46	97.87	25.20	
2025-01-16 07:07:18.67	98.29	25.17	
2025-01-16 07:07:19.89	98.71	25.14	
2025-01-16 07:07:21.11	99.13	25.11	
2025-01-16 07:07:22.33	99.55	25.08	
2025-01-16 07:07:23.55	99.96	25.04	
2025-01-16 07:07:24.77	100.38	25.01	
2025-01-16 07:07:25.99	100.79	24.97	
2025-01-16 07:07:27.20	101.20	24.93	
2025-01-16 07:07:28.42	101.62	24.89	
2025-01-16 07:07:29.64	102.03	24.85	
2025-01-16 07:07:30.86	102.44	24.81	
2025-01-16 07:07:32.08	102.85	24.76	
2025-01-16 07:07:33.30	103.26	24.72	
2025-01-16 07:07:34.51	103.66	24.67	
2025-01-16 07:07:35.73	104.07	24.62	
2025-01-16 07:07:36.95	104.47	24.57	
2025-01-16 07:07:38.17	104.88	24.52	
2025-01-16 07:07:39.39	105.28	24.47	
2025-01-16 07:07:40.61	105.68	24.41	
2025-01-16 07:07:41.82	106.08	24.36	
2025-01-16 07:07:43.04	106.47	24.30	
2025-01-16 07:07:44.26	106.87	24.24	
2025-01-16 07:07:45.48	107.26	24.18	
2025-01-16 07:07:46.70	107.66	24.12	
2025-01-16 07:07:47.92	108.05	24.06	
2025-01-16 07:07:49.14	108.44	24.00	
2025-01-16 07:07:50.35	108.83	23.94	
2025-01-16 07:07:51.57	109.21	23.87	
2025-01-16 07:07:52.79	109.60	23.81	
2025-01-16 07:07:54.01	109.98	23.74	
2025-01-16 07:07:55.23	110.36	23.67	
2025-01-16 07:07:56.45	110.74	23.60	
2025-01-16 07:07:57.66	111.12	23.53	
2025-01-16 07:07:58.88	111.50	23.46	
2025-01-16 07:08:00.10	111.87	23.39	
2025-01-16 07:08:01.32	112.24	23.32	
2025-01-16 07:08:02.54	112.62	23.24	
2025-01-16 07:08:03.76	112.99	23.17	
2025-01-16 07:08:04.98	113.35	23.09	
2025-01-16 07:08:06.19	113.72	23.01	
2025-01-16 07:08:07.41	114.08	22.94	
2025-01-16 07:08:08.63	114.44	22.86	
2025-01-16 07:08:09.85	114.80	22.78	
2025-01-16 07:08:11.07	115.16	22.70	
2025-01-16 07:08:12.29	115.52	22.62	
2025-01-16 07:08:13.50	115.87	22.53	
2025-01-16 07:08:14.72	116.23	22.45	
2025-01-16 07:08:15.94	116.58	22.37	
2025-01-16 07:08:17.16	116.93	22.28	
2025-01-16 07:08:18.38	117.27	22.20	
2025-01-16 07:08:19.60	117.62	22.11	
2025-01-16 07:08:20.82	117.96	22.03	
2025-01-16 07:08:22.03	118.30	21.94	
2025-01-16 07:08:23.25	118.64	21.85	
2025-01-16 07:08:24.47	118.98	21.76	
2025-01-16 07:08:25.69	119.31	21.67	
2025-01-16 07:08:26.91	119.64	21.58	
2025-01-16 07:08:28.13	119.98	21.49	
2025-01-16 07:08:29.34	120.30	21.40	
2025-01-16 07:08:30.56	120.63	21.31	
2025-01-16 07:08:31.78	120.96	21.22	
2025-01-16 07:08:33.00	121.28	21.13	
2025-01-16 07:08:34.22	121.60	21.03	
2025-01-16 07:08:35.44	121.92	20.94	
2025-01-16 07:08:36.66	122.24	20.85	
2025-01-16 07:08:37.87	122.55	20.75	
2025-01-16 07:08:39.09	122.86	20.66	
2025-01-16 07:08:40.31	123.18	20.56	
2025-01-16 07:08:41.53	123.49	20.47	
2025-01-16 07:08:42.75	123.79	20.37	
2025-01-16 07:08:43.97	124.10	20.28	
2025-01-16 07:08:45.18	124.40	20.18	
2025-01-16 07:08:46.40	124.70	20.08	
2025-01-16 07:08:47.62	125.00	19.98	
2025-01-16 07:08:48.84	125.30	19.89	
2025-01-16 07:08:50.06	125.60	19.79	
2025-01-16 07:08:51.28	125.89	19.69	
2025-01-16 07:08:52.49	126.18	19.59	
2025-01-16 07:08:53.71	126.47	19.49	
2025-01-16 07:08:54.93	126.76	19.39	
2025-01-16 07:08:56.15	127.04	19.29	
2025-01-16 07:08:57.37	127.33	19.19	
2025-01-16 07:08:58.59	127.61	19.09	
2025-01-16 07:08:59.81	127.89	18.99	
2025-01-16 07:09:01.04	128.17	18.89	
2025-01-16 07:09:02.26	128.45	18.79	
2025-01-16 07:09:03.48	128.72	18.69	
2025-01-16 07:09:04.69	128.99	18.59	
2025-01-16 07:09:05.91	129.27	18.49	
2025-01-16 07:09:07.13	129.53	18.39	
2025-01-16 07:09:08.35	129.80	18.29	
2025-01-16 07:09:09.57	130.07	18.19	
2025-01-16 07:09:10.79	130.33	18.09	
2025-01-16 07:09:12.01	130.59	17.98	
2025-01-16 07:09:13.22	130.85	17.88	
2025-01-16 07:09:14.44	131.11	17.78	
2025-01-16 07:09:15.66	131.37	17.68	
2025-01-16 07:09:16.88	131.62	17.58	
2025-01-16 07:09:18.10	131.87	17.48	
2025-01-16 07:09:19.32	132.13	17.37	
2025-01-16 07:09:20.53	132.37	17.27	
2025-01-16 07:09:21.75	132.62	17.17	
2025-01-16 07:09:22.97	132.87	17.07	
2025-01-16 07:09:24.19	133.11	16.97	
2025-01-16 07:09:25.41	133.35	16.86	
2025-01-16 07:09:26.63	133.60	16.76	
2025-01-16 07:09:27.85	133.83	16.66	
2025-01-16 07:09:29.06	134.07	16.56	
2025-01-16 07:09:30.28	134.31	16.46	
2025-01-16 07:09:31.50	134.54	16.35	
2025-01-16 07:09:32.72	134.77	16.25	
2025-01-16 07:09:33.94	135.00	16.15	
2025-01-16 07:09:35.16	135.23	16.05	
2025-01-16 07:09:36.37	135.46	15.95	
2025-01-16 07:09:37.59	135.69	15.85	
2025-01-16 07:09:38.81	135.91	15.74	
2025-01-16 07:09:40.03	136.13	15.64	
2025-01-16 07:09:41.25	136.36	15.54	
2025-01-16 07:09:42.47	136.58	15.44	
2025-01-16 07:09:43.69	136.79	15.34	
2025-01-16 07:09:44.90	137.01	15.24	
2025-01-16 07:09:46.12	137.22	15.14	
2025-01-16 07:09:47.34	137.44	15.03	
2025-01-16 07:09:48.56	137.65	14.93	
2025-01-16 07:09:49.78	137.86	14.83	
2025-01-16 07:09:51.00	138.07	14.73	
2025-01-16 07:09:52.21	138.28	14.63	
2025-01-16 07:09:53.43	138.48	14.53	
2025-01-16 07:09:54.65	138.69	14.43	
2025-01-16 07:09:55.87	138.89	14.33	
2025-01-16 07:09:57.09	139.09	14.23	
2025-01-16 07:09:58.31	139.30	14.13	
2025-01-16 07:09:59.53	139.49	14.03	
2025-01-16 07:10:00.74	139.69	13.93	
2025-01-16 07:10:01.96	139.89	13.83	
2025-01-16 07:10:03.18	140.08	13.73	
2025-01-16 07:10:04.40	140.28	13.63	
2025-01-16 07:10:05.62	140.47	13.54	
2025-01-16 07:10:06.84	140.66	13.44	
2025-01-16 07:10:08.05	140.85	13.34	
2025-01-16 07:10:09.27	141.04	13.24	
2025-01-16 07:10:10.49	141.23	13.14	
2025-01-16 07:10:11.71	141.41	13.04	
2025-01-16 07:10:12.93	141.60	12.95	
2025-01-16 07:10:14.15	141.78	12.85	
2025-01-16 07:10:15.37	141.96	12.75	
2025-01-16 07:10:16.58	142.14	12.65	
2025-01-16 07:10:17.80	142.32	12.56	
2025-01-16 07:10:19.02	142.50	12.46	
2025-01-16 07:10:20.24	142.68	12.36	
2025-01-16 07:10:21.46	142.85	12.27	
2025-01-16 07:10:22.68	143.03	12.17	
2025-01-16 07:10:23.89	143.20	12.07	
2025-01-16 07:10:25.11	143.37	11.98	
2025-01-16 07:10:26.33	143.55	11.88	
2025-01-16 07:10:27.55	143.72	11.79	
2025-01-16 07:10:28.77	143.88	11.69	
2025-01-16 07:10:29.99	144.05	11.60	
2025-01-16 07:10:31.20	144.22	11.50	
2025-01-16 07:10:32.42	144.38	11.41	
2025-01-16 07:10:33.64	144.55	11.31	
2025-01-16 07:10:34.86	144.71	11.22	
2025-01-16 07:10:36.08	144.87	11.12	
2025-01-16 07:10:37.30	145.04	11.03	
2025-01-16 07:10:38.52	145.20	10.94	
2025-01-16 07:10:39.73	145.35	10.84	
2025-01-16 07:10:40.95	145.51	10.75	
2025-01-16 07:10:42.17	145.67	10.66	
2025-01-16 07:10:43.39	145.83	10.56	
2025-01-16 07:10:44.61	145.98	10.47	
2025-01-16 07:10:45.83	146.13	10.38	
2025-01-16 07:10:47.04	146.29	10.29	
2025-01-16 07:10:48.26	146.44	10.19	
2025-01-16 07:10:49.48	146.59	10.10	
2025-01-16 07:10:50.70	146.74	10.01	
2025-01-16 07:10:51.92	146.89	9.92	
2025-01-16 07:10:53.14	147.04	9.83	
2025-01-16 07:10:54.36	147.18	9.74	
2025-01-16 07:10:55.57	147.33	9.65	
2025-01-16 07:10:56.79	147.47	9.56	
2025-01-16 07:10:58.01	147.62	9.47	
2025-01-16 07:10:59.23	147.76	9.37	
2025-01-16 07:11:00.45	147.90	9.28	
2025-01-16 07:11:01.67	148.05	9.20	
2025-01-16 07:11:02.88	148.19	9.11	
2025-01-16 07:11:04.10	148.33	9.02	
2025-01-16 07:11:05.32	148.46	8.93	
2025-01-16 07:11:06.54	148.60	8.84	
2025-01-16 07:11:07.76	148.74	8.75	
2025-01-16 07:11:08.98	148.88	8.66	
2025-01-16 07:11:10.20	149.01	8.57	
2025-01-16 07:11:11.41	149.14	8.49	
2025-01-16 07:11:12.63	149.28	8.40	
2025-01-16 07:11:13.85	149.41	8.31	
2025-01-16 07:11:15.07	149.54	8.22	
2025-01-16 07:11:16.29	149.67	8.14	
2025-01-16 07:11:17.51	149.80	8.05	
2025-01-16 07:11:18.72	149.93	7.96	
2025-01-16 07:11:19.94	150.06	7.88	
2025-01-16 07:11:21.16	150.19	7.79	
2025-01-16 07:11:22.38	150.32	7.70	
2025-01-16 07:11:23.60	150.44	7.62	
2025-01-16 07:11:24.82	150.57	7.53	
2025-01-16 07:11:26.04	150.69	7.45	
2025-01-16 07:11:27.25	150.82	7.36	
2025-01-16 07:11:28.47	150.94	7.28	
2025-01-16 07:11:29.69	151.06	7.19	
2025-01-16 07:11:30.91	151.19	7.11	
2025-01-16 07:11:32.13	151.31	7.02	
2025-01-16 07:11:33.35	151.43	6.94	
2025-01-16 07:11:34.56	151.55	6.86	
2025-01-16 07:11:35.78	151.66	6.77	
2025-01-16 07:11:37.00	151.78	6.69	
2025-01-16 07:11:38.22	151.90	6.61	
2025-01-16 07:11:39.44	152.02	6.52	
2025-01-16 07:11:40.66	152.13	6.44	
2025-01-16 07:11:41.87	152.25	6.36	
2025-01-16 07:11:43.09	152.36	6.28	
2025-01-16 07:11:44.31	152.48	6.19	
2025-01-16 07:11:45.53	152.59	6.11	
2025-01-16 07:11:46.75	152.70	6.03	
2025-01-16 07:11:47.97	152.82	5.95	
2025-01-16 07:11:49.19	152.93	5.87	
2025-01-16 07:11:50.40	153.04	5.78	
2025-01-16 07:11:51.62	153.15	5.70	
2025-01-16 07:11:52.84	153.26	5.62	
2025-01-16 07:11:54.06	153.37	5.54	
2025-01-16 07:11:55.28	153.47	5.46	
2025-01-16 07:11:56.50	153.58	5.38	
2025-01-16 07:11:57.71	153.69	5.30	
2025-01-16 07:11:58.93	153.79	5.22	
2025-01-16 07:12:00.15	153.90	5.14	
2025-01-16 07:12:01.37	154.01	5.06	
2025-01-16 07:12:02.59	154.11	4.98	
2025-01-16 07:12:03.81	154.21	4.90	
2025-01-16 07:12:05.03	154.32	4.82	
2025-01-16 07:12:06.24	154.42	4.75	
2025-01-16 07:12:07.46	154.52	4.67	
2025-01-16 07:12:08.68	154.62	4.59	
2025-01-16 07:12:09.90	154.73	4.51	
2025-01-16 07:12:11.12	154.83	4.43	
2025-01-16 07:12:12.34	154.93	4.36	
2025-01-16 07:12:13.55	155.03	4.28	
2025-01-16 07:12:14.77	155.12	4.20	
2025-01-16 07:12:15.99	155.22	4.12	
2025-01-16 07:12:17.21	155.32	4.05	

#Closed at: 2025-01-16 07:12:18