passes_logs/2025/01/16/SPB_Silybum_02/SPB_Silybum_02__20250116_005824_AQUA_rec.log

#Pass ID: 20250116_005824_AQUA
#Satellite: AQUA
#Configuration: AQUA
#Start time: 2025-01-16 00:58:22

#Version: 2.0.20230423
#Station: SPB_Silybum_02
#Location: 30.233357 lon 59.946436 lat
#TLE: 1 27424U 02022A   25015.14217918  .00001674  00000+0  35361-3 0  9999
#TLE: 2 27424  98.3589 331.8074 0001731 111.2907 305.4435 14.60682485207649

#Time	Az	El	Level	Level2	SNR	BER	Gain	Gain2
2025-01-16 00:58:25.02	19.15	4.02	
2025-01-16 00:58:26.23	19.18	4.11	
2025-01-16 00:58:27.45	19.21	4.19	
2025-01-16 00:58:28.67	19.24	4.28	
2025-01-16 00:58:29.89	19.27	4.37	
2025-01-16 00:58:31.11	19.30	4.46	
2025-01-16 00:58:32.32	19.33	4.54	
2025-01-16 00:58:33.54	19.36	4.63	
2025-01-16 00:58:34.76	19.39	4.72	
2025-01-16 00:58:35.98	19.42	4.81	
2025-01-16 00:58:37.20	19.45	4.90	
2025-01-16 00:58:38.41	19.48	4.99	
2025-01-16 00:58:39.63	19.51	5.08	
2025-01-16 00:58:40.85	19.54	5.17	
2025-01-16 00:58:42.07	19.57	5.26	
2025-01-16 00:58:43.29	19.60	5.35	
2025-01-16 00:58:44.50	19.63	5.44	
2025-01-16 00:58:45.72	19.67	5.53	
2025-01-16 00:58:46.94	19.70	5.62	
2025-01-16 00:58:48.16	19.73	5.71	
2025-01-16 00:58:49.37	19.76	5.81	
2025-01-16 00:58:50.59	19.79	5.90	
2025-01-16 00:58:51.81	19.83	5.99	
2025-01-16 00:58:53.03	19.86	6.09	
2025-01-16 00:58:54.25	19.89	6.18	
2025-01-16 00:58:55.46	19.92	6.28	
2025-01-16 00:58:56.68	19.96	6.37	
2025-01-16 00:58:57.90	19.99	6.47	
2025-01-16 00:58:59.12	20.02	6.56	
2025-01-16 00:59:00.34	20.06	6.66	
2025-01-16 00:59:01.55	20.09	6.75	
2025-01-16 00:59:02.77	20.13	6.85	
2025-01-16 00:59:03.99	20.16	6.95	
2025-01-16 00:59:05.21	20.19	7.04	
2025-01-16 00:59:06.43	20.23	7.14	
2025-01-16 00:59:07.64	20.26	7.24	
2025-01-16 00:59:08.86	20.30	7.34	
2025-01-16 00:59:10.08	20.33	7.44	
2025-01-16 00:59:11.30	20.37	7.54	
2025-01-16 00:59:12.52	20.41	7.64	
2025-01-16 00:59:13.73	20.44	7.74	
2025-01-16 00:59:14.95	20.48	7.84	
2025-01-16 00:59:16.17	20.52	7.94	
2025-01-16 00:59:17.39	20.55	8.04	
2025-01-16 00:59:18.60	20.59	8.14	
2025-01-16 00:59:19.82	20.63	8.25	
2025-01-16 00:59:21.04	20.66	8.35	
2025-01-16 00:59:22.26	20.70	8.45	
2025-01-16 00:59:23.48	20.74	8.56	
2025-01-16 00:59:24.69	20.78	8.66	
2025-01-16 00:59:25.91	20.82	8.77	
2025-01-16 00:59:27.13	20.86	8.87	
2025-01-16 00:59:28.35	20.90	8.98	
2025-01-16 00:59:29.57	20.93	9.09	
2025-01-16 00:59:30.78	20.97	9.19	
2025-01-16 00:59:32.00	21.01	9.30	
2025-01-16 00:59:33.22	21.05	9.41	
2025-01-16 00:59:34.44	21.09	9.52	
2025-01-16 00:59:35.66	21.14	9.63	
2025-01-16 00:59:36.87	21.18	9.74	
2025-01-16 00:59:38.09	21.22	9.85	
2025-01-16 00:59:39.31	21.26	9.96	
2025-01-16 00:59:40.53	21.30	10.07	
2025-01-16 00:59:41.75	21.34	10.18	
2025-01-16 00:59:42.96	21.39	10.29	
2025-01-16 00:59:44.18	21.43	10.41	
2025-01-16 00:59:45.40	21.47	10.52	
2025-01-16 00:59:46.62	21.52	10.63	
2025-01-16 00:59:47.83	21.56	10.75	
2025-01-16 00:59:49.05	21.60	10.86	
2025-01-16 00:59:50.27	21.65	10.98	
2025-01-16 00:59:51.49	21.69	11.10	
2025-01-16 00:59:52.71	21.74	11.21	
2025-01-16 00:59:53.92	21.78	11.33	
2025-01-16 00:59:55.14	21.83	11.45	
2025-01-16 00:59:56.36	21.88	11.57	
2025-01-16 00:59:57.58	21.92	11.69	
2025-01-16 00:59:58.80	21.97	11.81	
2025-01-16 01:00:00.01	22.02	11.93	
2025-01-16 01:00:01.23	22.06	12.05	
2025-01-16 01:00:02.45	22.11	12.17	
2025-01-16 01:00:03.67	22.16	12.29	
2025-01-16 01:00:04.89	22.21	12.42	
2025-01-16 01:00:06.10	22.26	12.54	
2025-01-16 01:00:07.32	22.31	12.67	
2025-01-16 01:00:08.54	22.36	12.79	
2025-01-16 01:00:09.76	22.41	12.92	
2025-01-16 01:00:10.98	22.46	13.04	
2025-01-16 01:00:12.19	22.51	13.17	
2025-01-16 01:00:13.41	22.56	13.30	
2025-01-16 01:00:14.63	22.61	13.43	
2025-01-16 01:00:15.85	22.67	13.56	
2025-01-16 01:00:17.07	22.72	13.69	
2025-01-16 01:00:18.28	22.77	13.82	
2025-01-16 01:00:19.50	22.83	13.95	
2025-01-16 01:00:20.72	22.88	14.09	
2025-01-16 01:00:21.94	22.94	14.22	
2025-01-16 01:00:23.15	22.99	14.35	
2025-01-16 01:00:24.37	23.05	14.49	
2025-01-16 01:00:25.59	23.10	14.63	
2025-01-16 01:00:26.81	23.16	14.76	
2025-01-16 01:00:28.03	23.22	14.90	
2025-01-16 01:00:29.24	23.27	15.04	
2025-01-16 01:00:30.46	23.33	15.18	
2025-01-16 01:00:31.68	23.39	15.32	
2025-01-16 01:00:32.90	23.45	15.46	
2025-01-16 01:00:34.12	23.51	15.60	
2025-01-16 01:00:35.33	23.57	15.74	
2025-01-16 01:00:36.55	23.63	15.89	
2025-01-16 01:00:37.77	23.70	16.03	
2025-01-16 01:00:38.99	23.76	16.18	
2025-01-16 01:00:40.21	23.82	16.33	
2025-01-16 01:00:41.42	23.88	16.47	
2025-01-16 01:00:42.64	23.95	16.62	
2025-01-16 01:00:43.86	24.01	16.77	
2025-01-16 01:00:45.08	24.08	16.92	
2025-01-16 01:00:46.29	24.14	17.07	
2025-01-16 01:00:47.51	24.21	17.23	
2025-01-16 01:00:48.73	24.28	17.38	
2025-01-16 01:00:49.95	24.35	17.54	
2025-01-16 01:00:51.17	24.41	17.69	
2025-01-16 01:00:52.38	24.48	17.85	
2025-01-16 01:00:53.60	24.55	18.01	
2025-01-16 01:00:54.82	24.62	18.17	
2025-01-16 01:00:56.04	24.70	18.33	
2025-01-16 01:00:57.26	24.77	18.49	
2025-01-16 01:00:58.47	24.84	18.65	
2025-01-16 01:00:59.69	24.92	18.81	
2025-01-16 01:01:00.91	24.99	18.98	
2025-01-16 01:01:02.13	25.07	19.14	
2025-01-16 01:01:03.35	25.14	19.31	
2025-01-16 01:01:04.56	25.22	19.48	
2025-01-16 01:01:05.78	25.30	19.65	
2025-01-16 01:01:07.00	25.38	19.82	
2025-01-16 01:01:08.22	25.45	19.99	
2025-01-16 01:01:09.44	25.54	20.16	
2025-01-16 01:01:10.65	25.62	20.34	
2025-01-16 01:01:11.87	25.70	20.51	
2025-01-16 01:01:13.09	25.78	20.69	
2025-01-16 01:01:14.31	25.87	20.87	
2025-01-16 01:01:15.53	25.95	21.05	
2025-01-16 01:01:16.74	26.04	21.23	
2025-01-16 01:01:17.96	26.12	21.41	
2025-01-16 01:01:19.18	26.21	21.60	
2025-01-16 01:01:20.40	26.30	21.78	
2025-01-16 01:01:21.61	26.39	21.97	
2025-01-16 01:01:22.83	26.48	22.15	
2025-01-16 01:01:24.05	26.58	22.34	
2025-01-16 01:01:25.27	26.67	22.54	
2025-01-16 01:01:26.49	26.76	22.73	
2025-01-16 01:01:27.70	26.86	22.92	
2025-01-16 01:01:28.92	26.96	23.12	
2025-01-16 01:01:30.14	27.06	23.31	
2025-01-16 01:01:31.36	27.16	23.51	
2025-01-16 01:01:32.58	27.26	23.71	
2025-01-16 01:01:33.79	27.36	23.91	
2025-01-16 01:01:35.01	27.46	24.12	
2025-01-16 01:01:36.23	27.57	24.32	
2025-01-16 01:01:37.45	27.67	24.53	
2025-01-16 01:01:38.67	27.78	24.74	
2025-01-16 01:01:39.88	27.89	24.95	
2025-01-16 01:01:41.10	28.00	25.16	
2025-01-16 01:01:42.32	28.11	25.37	
2025-01-16 01:01:43.54	28.23	25.59	
2025-01-16 01:01:44.76	28.34	25.81	
2025-01-16 01:01:45.97	28.46	26.03	
2025-01-16 01:01:47.19	28.57	26.25	
2025-01-16 01:01:48.41	28.70	26.47	
2025-01-16 01:01:49.63	28.82	26.69	
2025-01-16 01:01:50.84	28.94	26.92	
2025-01-16 01:01:52.06	29.06	27.15	
2025-01-16 01:01:53.28	29.19	27.38	
2025-01-16 01:01:54.50	29.32	27.61	
2025-01-16 01:01:55.72	29.45	27.85	
2025-01-16 01:01:56.93	29.58	28.08	
2025-01-16 01:01:58.15	29.72	28.32	
2025-01-16 01:01:59.37	29.85	28.56	
2025-01-16 01:02:00.59	29.99	28.81	
2025-01-16 01:02:01.81	30.13	29.05	
2025-01-16 01:02:03.02	30.28	29.30	
2025-01-16 01:02:04.24	30.42	29.55	
2025-01-16 01:02:05.46	30.57	29.80	
2025-01-16 01:02:06.68	30.72	30.05	
2025-01-16 01:02:07.90	30.87	30.31	
2025-01-16 01:02:09.11	31.02	30.56	
2025-01-16 01:02:10.33	31.18	30.82	
2025-01-16 01:02:11.55	31.34	31.09	
2025-01-16 01:02:12.77	31.50	31.35	
2025-01-16 01:02:13.99	31.67	31.62	
2025-01-16 01:02:15.20	31.83	31.89	
2025-01-16 01:02:16.42	32.01	32.16	
2025-01-16 01:02:17.64	32.18	32.43	
2025-01-16 01:02:18.86	32.36	32.71	
2025-01-16 01:02:20.07	32.53	32.99	
2025-01-16 01:02:21.29	32.72	33.27	
2025-01-16 01:02:22.51	32.90	33.56	
2025-01-16 01:02:23.73	33.09	33.84	
2025-01-16 01:02:24.95	33.28	34.13	
2025-01-16 01:02:26.16	33.48	34.42	
2025-01-16 01:02:27.38	33.68	34.72	
2025-01-16 01:02:28.60	33.88	35.02	
2025-01-16 01:02:29.82	34.09	35.32	
2025-01-16 01:02:31.04	34.30	35.62	
2025-01-16 01:02:32.25	34.51	35.92	
2025-01-16 01:02:33.47	34.73	36.23	
2025-01-16 01:02:34.69	34.95	36.54	
2025-01-16 01:02:35.91	35.18	36.86	
2025-01-16 01:02:37.13	35.41	37.17	
2025-01-16 01:02:38.34	35.65	37.49	
2025-01-16 01:02:39.56	35.89	37.81	
2025-01-16 01:02:40.78	36.13	38.13	
2025-01-16 01:02:42.00	36.38	38.46	
2025-01-16 01:02:43.22	36.64	38.79	
2025-01-16 01:02:44.43	36.90	39.12	
2025-01-16 01:02:45.65	37.16	39.46	
2025-01-16 01:02:46.87	37.44	39.80	
2025-01-16 01:02:48.09	37.71	40.14	
2025-01-16 01:02:49.30	38.00	40.48	
2025-01-16 01:02:50.52	38.29	40.83	
2025-01-16 01:02:51.74	38.58	41.18	
2025-01-16 01:02:52.96	38.88	41.53	
2025-01-16 01:02:54.18	39.19	41.88	
2025-01-16 01:02:55.39	39.51	42.24	
2025-01-16 01:02:56.61	39.83	42.60	
2025-01-16 01:02:57.83	40.16	42.96	
2025-01-16 01:02:59.05	40.50	43.33	
2025-01-16 01:03:00.27	40.85	43.70	
2025-01-16 01:03:01.48	41.20	44.06	
2025-01-16 01:03:02.70	41.56	44.44	
2025-01-16 01:03:03.92	41.93	44.81	
2025-01-16 01:03:05.14	42.31	45.19	
2025-01-16 01:03:06.36	42.70	45.57	
2025-01-16 01:03:07.57	43.10	45.96	
2025-01-16 01:03:08.79	43.51	46.34	
2025-01-16 01:03:10.01	43.93	46.73	
2025-01-16 01:03:11.23	44.35	47.12	
2025-01-16 01:03:12.45	44.80	47.51	
2025-01-16 01:03:13.66	45.24	47.90	
2025-01-16 01:03:14.88	45.71	48.30	
2025-01-16 01:03:16.10	46.18	48.70	
2025-01-16 01:03:17.32	46.67	49.10	
2025-01-16 01:03:18.53	47.17	49.50	
2025-01-16 01:03:19.75	47.68	49.90	
2025-01-16 01:03:20.97	48.21	50.30	
2025-01-16 01:03:22.19	48.75	50.71	
2025-01-16 01:03:23.41	49.31	51.11	
2025-01-16 01:03:24.62	49.88	51.52	
2025-01-16 01:03:25.84	50.46	51.93	
2025-01-16 01:03:27.06	51.07	52.33	
2025-01-16 01:03:28.28	51.69	52.74	
2025-01-16 01:03:29.50	52.33	53.15	
2025-01-16 01:03:30.71	52.98	53.56	
2025-01-16 01:03:31.93	53.66	53.96	
2025-01-16 01:03:33.15	54.35	54.37	
2025-01-16 01:03:34.37	55.07	54.78	
2025-01-16 01:03:35.59	55.80	55.18	
2025-01-16 01:03:36.80	56.56	55.59	
2025-01-16 01:03:38.02	57.34	55.99	
2025-01-16 01:03:39.24	58.14	56.39	
2025-01-16 01:03:40.46	58.96	56.79	
2025-01-16 01:03:41.68	59.81	57.18	
2025-01-16 01:03:42.89	60.68	57.57	
2025-01-16 01:03:44.11	61.58	57.96	
2025-01-16 01:03:45.33	62.51	58.34	
2025-01-16 01:03:46.55	63.46	58.72	
2025-01-16 01:03:47.76	64.43	59.09	
2025-01-16 01:03:48.98	65.44	59.46	
2025-01-16 01:03:50.20	66.48	59.82	
2025-01-16 01:03:51.42	67.55	60.18	
2025-01-16 01:03:52.64	68.65	60.53	
2025-01-16 01:03:53.85	69.76	60.87	
2025-01-16 01:03:55.07	70.92	61.20	
2025-01-16 01:03:56.29	72.11	61.53	
2025-01-16 01:03:57.51	73.33	61.85	
2025-01-16 01:03:58.73	74.58	62.15	
2025-01-16 01:03:59.94	75.85	62.45	
2025-01-16 01:04:01.16	77.17	62.73	
2025-01-16 01:04:02.40	78.54	63.01	
2025-01-16 01:04:03.61	79.90	63.27	
2025-01-16 01:04:04.83	81.31	63.52	
2025-01-16 01:04:06.05	82.74	63.75	
2025-01-16 01:04:07.27	84.21	63.98	
2025-01-16 01:04:08.49	85.70	64.18	
2025-01-16 01:04:09.70	87.20	64.37	
2025-01-16 01:04:10.92	88.74	64.55	
2025-01-16 01:04:12.14	90.31	64.71	
2025-01-16 01:04:13.36	91.89	64.85	
2025-01-16 01:04:14.57	93.49	64.98	
2025-01-16 01:04:15.79	95.11	65.09	
2025-01-16 01:04:17.01	96.74	65.18	
2025-01-16 01:04:18.23	98.39	65.25	
2025-01-16 01:04:19.45	100.05	65.30	
2025-01-16 01:04:20.66	101.70	65.34	
2025-01-16 01:04:21.88	103.37	65.36	
2025-01-16 01:04:23.10	105.04	65.36	
2025-01-16 01:04:24.32	106.71	65.34	
2025-01-16 01:04:25.54	108.37	65.30	
2025-01-16 01:04:26.75	110.02	65.24	
2025-01-16 01:04:27.97	111.66	65.17	
2025-01-16 01:04:29.19	113.30	65.07	
2025-01-16 01:04:30.41	114.92	64.96	
2025-01-16 01:04:31.63	116.52	64.84	
2025-01-16 01:04:32.84	118.09	64.69	
2025-01-16 01:04:34.06	119.66	64.53	
2025-01-16 01:04:35.28	121.20	64.35	
2025-01-16 01:04:36.50	122.71	64.16	
2025-01-16 01:04:37.72	124.20	63.95	
2025-01-16 01:04:38.93	125.65	63.73	
2025-01-16 01:04:40.15	127.09	63.49	
2025-01-16 01:04:41.37	128.49	63.24	
2025-01-16 01:04:42.59	129.87	62.98	
2025-01-16 01:04:43.80	131.20	62.70	
2025-01-16 01:04:45.02	132.51	62.42	
2025-01-16 01:04:46.24	133.79	62.12	
2025-01-16 01:04:47.46	135.04	61.81	
2025-01-16 01:04:48.68	136.26	61.49	
2025-01-16 01:04:49.89	137.44	61.17	
2025-01-16 01:04:51.11	138.60	60.83	
2025-01-16 01:04:52.33	139.72	60.49	
2025-01-16 01:04:53.55	140.82	60.13	
2025-01-16 01:04:54.77	141.88	59.78	
2025-01-16 01:04:55.98	142.91	59.41	
2025-01-16 01:04:57.20	143.92	59.04	
2025-01-16 01:04:58.42	144.90	58.67	
2025-01-16 01:04:59.64	145.85	58.29	
2025-01-16 01:05:00.86	146.78	57.90	
2025-01-16 01:05:02.07	147.67	57.51	
2025-01-16 01:05:03.29	148.54	57.12	
2025-01-16 01:05:04.51	149.39	56.73	
2025-01-16 01:05:05.73	150.22	56.33	
2025-01-16 01:05:06.95	151.02	55.92	
2025-01-16 01:05:08.16	151.79	55.52	
2025-01-16 01:05:09.38	152.54	55.12	
2025-01-16 01:05:10.60	153.28	54.71	
2025-01-16 01:05:11.82	153.99	54.30	
2025-01-16 01:05:13.03	154.68	53.90	
2025-01-16 01:05:14.25	155.36	53.49	
2025-01-16 01:05:15.47	156.01	53.08	
2025-01-16 01:05:16.69	156.65	52.67	
2025-01-16 01:05:17.91	157.27	52.26	
2025-01-16 01:05:19.12	157.87	51.85	
2025-01-16 01:05:20.34	158.46	51.44	
2025-01-16 01:05:21.56	159.03	51.03	
2025-01-16 01:05:22.78	159.59	50.62	
2025-01-16 01:05:24.00	160.13	50.22	
2025-01-16 01:05:25.21	160.65	49.82	
2025-01-16 01:05:26.43	161.16	49.41	
2025-01-16 01:05:27.65	161.66	49.01	
2025-01-16 01:05:28.87	162.15	48.61	
2025-01-16 01:05:30.09	162.63	48.21	
2025-01-16 01:05:31.30	163.09	47.81	
2025-01-16 01:05:32.52	163.54	47.42	
2025-01-16 01:05:33.74	163.98	47.02	
2025-01-16 01:05:34.96	164.40	46.63	
2025-01-16 01:05:36.18	164.82	46.24	
2025-01-16 01:05:37.39	165.23	45.86	
2025-01-16 01:05:38.61	165.63	45.47	
2025-01-16 01:05:39.83	166.02	45.09	
2025-01-16 01:05:41.05	166.39	44.71	
2025-01-16 01:05:42.26	166.76	44.34	
2025-01-16 01:05:43.48	167.12	43.96	
2025-01-16 01:05:44.70	167.48	43.59	
2025-01-16 01:05:45.92	167.82	43.22	
2025-01-16 01:05:47.14	168.16	42.85	
2025-01-16 01:05:48.35	168.49	42.49	
2025-01-16 01:05:49.57	168.81	42.13	
2025-01-16 01:05:50.79	169.13	41.77	
2025-01-16 01:05:52.01	169.44	41.41	
2025-01-16 01:05:53.23	169.74	41.06	
2025-01-16 01:05:54.44	170.03	40.71	
2025-01-16 01:05:55.66	170.32	40.36	
2025-01-16 01:05:56.88	170.60	40.02	
2025-01-16 01:05:58.10	170.88	39.67	
2025-01-16 01:05:59.32	171.15	39.33	
2025-01-16 01:06:00.53	171.42	39.00	
2025-01-16 01:06:01.75	171.68	38.67	
2025-01-16 01:06:02.97	171.93	38.33	
2025-01-16 01:06:04.19	172.18	38.01	
2025-01-16 01:06:05.41	172.43	37.68	
2025-01-16 01:06:06.62	172.67	37.36	
2025-01-16 01:06:07.84	172.90	37.04	
2025-01-16 01:06:09.06	173.13	36.72	
2025-01-16 01:06:10.28	173.36	36.41	
2025-01-16 01:06:11.49	173.58	36.10	
2025-01-16 01:06:12.71	173.80	35.79	
2025-01-16 01:06:13.93	174.01	35.48	
2025-01-16 01:06:15.15	174.22	35.18	
2025-01-16 01:06:16.37	174.43	34.88	
2025-01-16 01:06:17.58	174.63	34.58	
2025-01-16 01:06:18.80	174.83	34.29	
2025-01-16 01:06:20.02	175.02	33.99	
2025-01-16 01:06:21.24	175.22	33.70	
2025-01-16 01:06:22.46	175.40	33.41	
2025-01-16 01:06:23.67	175.59	33.13	
2025-01-16 01:06:24.89	175.77	32.85	
2025-01-16 01:06:26.11	175.95	32.57	
2025-01-16 01:06:27.33	176.12	32.29	
2025-01-16 01:06:28.55	176.30	32.01	
2025-01-16 01:06:29.76	176.47	31.74	
2025-01-16 01:06:30.98	176.63	31.47	
2025-01-16 01:06:32.20	176.80	31.20	
2025-01-16 01:06:33.42	176.96	30.94	
2025-01-16 01:06:34.64	177.12	30.67	
2025-01-16 01:06:35.85	177.27	30.41	
2025-01-16 01:06:37.07	177.43	30.15	
2025-01-16 01:06:38.29	177.58	29.90	
2025-01-16 01:06:39.51	177.73	29.64	
2025-01-16 01:06:40.72	177.88	29.39	
2025-01-16 01:06:41.94	178.02	29.14	
2025-01-16 01:06:43.16	178.16	28.89	
2025-01-16 01:06:44.38	178.30	28.65	
2025-01-16 01:06:45.60	178.44	28.40	
2025-01-16 01:06:46.81	178.58	28.16	
2025-01-16 01:06:48.03	178.71	27.92	
2025-01-16 01:06:49.25	178.84	27.69	
2025-01-16 01:06:50.47	178.97	27.45	
2025-01-16 01:06:51.69	179.10	27.22	
2025-01-16 01:06:52.90	179.23	26.99	
2025-01-16 01:06:54.12	179.35	26.76	
2025-01-16 01:06:55.34	179.47	26.53	
2025-01-16 01:06:56.56	179.59	26.30	
2025-01-16 01:06:57.78	179.71	26.08	
2025-01-16 01:06:58.99	179.83	25.86	
2025-01-16 01:07:00.21	179.95	25.64	
2025-01-16 01:07:01.43	180.06	25.42	
2025-01-16 01:07:02.65	180.17	25.21	
2025-01-16 01:07:03.87	180.29	24.99	
2025-01-16 01:07:05.08	180.40	24.78	
2025-01-16 01:07:06.30	180.50	24.57	
2025-01-16 01:07:07.52	180.61	24.36	
2025-01-16 01:07:08.74	180.72	24.15	
2025-01-16 01:07:09.95	180.82	23.95	
2025-01-16 01:07:11.17	180.92	23.74	
2025-01-16 01:07:12.39	181.02	23.54	
2025-01-16 01:07:13.61	181.12	23.34	
2025-01-16 01:07:14.83	181.22	23.14	
2025-01-16 01:07:16.04	181.32	22.94	
2025-01-16 01:07:17.26	181.42	22.75	
2025-01-16 01:07:18.48	181.51	22.55	
2025-01-16 01:07:19.70	181.61	22.36	
2025-01-16 01:07:20.92	181.70	22.17	
2025-01-16 01:07:22.13	181.79	21.98	
2025-01-16 01:07:23.35	181.88	21.79	
2025-01-16 01:07:24.57	181.97	21.60	
2025-01-16 01:07:25.79	182.06	21.42	
2025-01-16 01:07:27.01	182.15	21.23	
2025-01-16 01:07:28.22	182.23	21.05	
2025-01-16 01:07:29.44	182.32	20.87	
2025-01-16 01:07:30.66	182.40	20.69	
2025-01-16 01:07:31.88	182.49	20.51	
2025-01-16 01:07:33.10	182.57	20.33	
2025-01-16 01:07:34.31	182.65	20.16	
2025-01-16 01:07:35.53	182.73	19.98	
2025-01-16 01:07:36.75	182.81	19.81	
2025-01-16 01:07:37.97	182.89	19.63	
2025-01-16 01:07:39.18	182.97	19.46	
2025-01-16 01:07:40.40	183.05	19.29	
2025-01-16 01:07:41.62	183.12	19.13	
2025-01-16 01:07:42.84	183.20	18.96	
2025-01-16 01:07:44.06	183.27	18.79	
2025-01-16 01:07:45.27	183.35	18.63	
2025-01-16 01:07:46.49	183.42	18.46	
2025-01-16 01:07:47.71	183.49	18.30	
2025-01-16 01:07:48.93	183.56	18.14	
2025-01-16 01:07:50.15	183.63	17.98	
2025-01-16 01:07:51.36	183.70	17.82	
2025-01-16 01:07:52.58	183.77	17.66	
2025-01-16 01:07:53.80	183.84	17.50	
2025-01-16 01:07:55.02	183.91	17.35	
2025-01-16 01:07:56.24	183.98	17.19	
2025-01-16 01:07:57.45	184.04	17.04	
2025-01-16 01:07:58.67	184.11	16.89	
2025-01-16 01:07:59.89	184.17	16.73	
2025-01-16 01:08:01.11	184.24	16.58	
2025-01-16 01:08:02.33	184.30	16.43	
2025-01-16 01:08:03.54	184.37	16.28	
2025-01-16 01:08:04.76	184.43	16.14	
2025-01-16 01:08:05.98	184.49	15.99	
2025-01-16 01:08:07.20	184.55	15.84	
2025-01-16 01:08:08.41	184.61	15.70	
2025-01-16 01:08:09.63	184.67	15.55	
2025-01-16 01:08:10.85	184.73	15.41	
2025-01-16 01:08:12.07	184.79	15.27	
2025-01-16 01:08:13.29	184.85	15.12	
2025-01-16 01:08:14.50	184.91	14.98	
2025-01-16 01:08:15.72	184.97	14.84	
2025-01-16 01:08:16.94	185.02	14.71	
2025-01-16 01:08:18.16	185.08	14.57	
2025-01-16 01:08:19.38	185.14	14.43	
2025-01-16 01:08:20.59	185.19	14.29	
2025-01-16 01:08:21.81	185.25	14.16	
2025-01-16 01:08:23.03	185.30	14.02	
2025-01-16 01:08:24.25	185.36	13.89	
2025-01-16 01:08:25.47	185.41	13.76	
2025-01-16 01:08:26.68	185.46	13.62	
2025-01-16 01:08:27.90	185.51	13.49	
2025-01-16 01:08:29.12	185.57	13.36	
2025-01-16 01:08:30.34	185.62	13.23	
2025-01-16 01:08:31.56	185.67	13.10	
2025-01-16 01:08:32.77	185.72	12.97	
2025-01-16 01:08:33.99	185.77	12.84	
2025-01-16 01:08:35.21	185.82	12.72	
2025-01-16 01:08:36.43	185.87	12.59	
2025-01-16 01:08:37.64	185.92	12.47	
2025-01-16 01:08:38.86	185.97	12.34	
2025-01-16 01:08:40.08	186.02	12.22	
2025-01-16 01:08:41.30	186.06	12.09	
2025-01-16 01:08:42.52	186.11	11.97	
2025-01-16 01:08:43.73	186.16	11.85	
2025-01-16 01:08:44.95	186.20	11.73	
2025-01-16 01:08:46.17	186.25	11.60	
2025-01-16 01:08:47.39	186.30	11.48	
2025-01-16 01:08:48.61	186.34	11.36	
2025-01-16 01:08:49.82	186.39	11.25	
2025-01-16 01:08:51.04	186.43	11.13	
2025-01-16 01:08:52.26	186.48	11.01	
2025-01-16 01:08:53.48	186.52	10.89	
2025-01-16 01:08:54.70	186.57	10.77	
2025-01-16 01:08:55.91	186.61	10.66	
2025-01-16 01:08:57.13	186.65	10.54	
2025-01-16 01:08:58.35	186.69	10.43	
2025-01-16 01:08:59.57	186.74	10.31	
2025-01-16 01:09:00.79	186.78	10.20	
2025-01-16 01:09:02.00	186.82	10.09	
2025-01-16 01:09:03.22	186.86	9.97	
2025-01-16 01:09:04.44	186.90	9.86	
2025-01-16 01:09:05.66	186.94	9.75	
2025-01-16 01:09:06.87	186.98	9.64	
2025-01-16 01:09:08.09	187.03	9.53	
2025-01-16 01:09:09.31	187.07	9.42	
2025-01-16 01:09:10.53	187.11	9.31	
2025-01-16 01:09:11.75	187.14	9.20	
2025-01-16 01:09:12.96	187.18	9.09	
2025-01-16 01:09:14.18	187.22	8.99	
2025-01-16 01:09:15.40	187.26	8.88	
2025-01-16 01:09:16.62	187.30	8.77	
2025-01-16 01:09:17.84	187.34	8.66	
2025-01-16 01:09:19.05	187.38	8.56	
2025-01-16 01:09:20.27	187.41	8.45	
2025-01-16 01:09:21.49	187.45	8.35	
2025-01-16 01:09:22.71	187.49	8.24	
2025-01-16 01:09:23.93	187.52	8.14	
2025-01-16 01:09:25.14	187.56	8.04	
2025-01-16 01:09:26.36	187.60	7.93	
2025-01-16 01:09:27.58	187.63	7.83	
2025-01-16 01:09:28.80	187.67	7.73	
2025-01-16 01:09:30.02	187.70	7.63	
2025-01-16 01:09:31.23	187.74	7.53	
2025-01-16 01:09:32.45	187.77	7.43	
2025-01-16 01:09:33.67	187.81	7.33	
2025-01-16 01:09:34.89	187.84	7.23	
2025-01-16 01:09:36.10	187.88	7.13	
2025-01-16 01:09:37.32	187.91	7.03	
2025-01-16 01:09:38.54	187.95	6.93	
2025-01-16 01:09:39.76	187.98	6.83	
2025-01-16 01:09:40.98	188.01	6.73	
2025-01-16 01:09:42.19	188.05	6.64	
2025-01-16 01:09:43.41	188.08	6.54	
2025-01-16 01:09:44.63	188.11	6.44	
2025-01-16 01:09:45.85	188.14	6.35	
2025-01-16 01:09:47.07	188.18	6.25	
2025-01-16 01:09:48.28	188.21	6.16	
2025-01-16 01:09:49.50	188.24	6.06	
2025-01-16 01:09:50.72	188.27	5.97	
2025-01-16 01:09:51.94	188.30	5.87	
2025-01-16 01:09:53.16	188.34	5.78	
2025-01-16 01:09:54.37	188.37	5.68	
2025-01-16 01:09:55.59	188.40	5.59	
2025-01-16 01:09:56.81	188.43	5.50	
2025-01-16 01:09:58.03	188.46	5.41	
2025-01-16 01:09:59.25	188.49	5.31	
2025-01-16 01:10:00.46	188.52	5.22	
2025-01-16 01:10:01.68	188.55	5.13	
2025-01-16 01:10:02.90	188.58	5.04	
2025-01-16 01:10:04.12	188.61	4.95	
2025-01-16 01:10:05.33	188.64	4.86	
2025-01-16 01:10:06.55	188.67	4.77	
2025-01-16 01:10:07.77	188.70	4.68	
2025-01-16 01:10:08.99	188.73	4.59	
2025-01-16 01:10:10.21	188.76	4.50	
2025-01-16 01:10:11.42	188.78	4.41	
2025-01-16 01:10:12.64	188.81	4.32	
2025-01-16 01:10:13.86	188.84	4.24	
2025-01-16 01:10:15.08	188.87	4.15	
2025-01-16 01:10:16.30	188.90	4.06	

#Closed at: 2025-01-16 01:10:17