passes_logs/2025/01/16/SPB_Silybum_02/SPB_Silybum_02__20250116_121235_AQUA_rec.log

#Pass ID: 20250116_121235_AQUA
#Satellite: AQUA
#Configuration: AQUA
#Start time: 2025-01-16 12:12:35

#Version: 2.0.20230423
#Station: SPB_Silybum_02
#Location: 30.233357 lon 59.946436 lat
#TLE: 1 27424U 02022A   25015.89755826  .00001635  00000+0  34564-3 0  9997
#TLE: 2 27424  98.3590 332.5696 0001753 110.3458 316.1758 14.60685220207753

#Time	Az	El	Level	Level2	SNR	BER	Gain	Gain2
2025-01-16 12:12:37.13	186.35	4.12	
2025-01-16 12:12:38.35	186.41	4.21	
2025-01-16 12:12:39.57	186.47	4.29	
2025-01-16 12:12:40.79	186.53	4.38	
2025-01-16 12:12:42.00	186.59	4.46	
2025-01-16 12:12:43.22	186.66	4.55	
2025-01-16 12:12:44.44	186.72	4.63	
2025-01-16 12:12:45.66	186.79	4.72	
2025-01-16 12:12:46.88	186.85	4.81	
2025-01-16 12:12:48.09	186.91	4.89	
2025-01-16 12:12:49.31	186.98	4.98	
2025-01-16 12:12:50.53	187.04	5.07	
2025-01-16 12:12:51.75	187.11	5.15	
2025-01-16 12:12:52.97	187.18	5.24	
2025-01-16 12:12:54.18	187.24	5.33	
2025-01-16 12:12:55.40	187.31	5.42	
2025-01-16 12:12:56.62	187.38	5.51	
2025-01-16 12:12:57.84	187.44	5.60	
2025-01-16 12:12:59.05	187.51	5.68	
2025-01-16 12:13:00.27	187.58	5.77	
2025-01-16 12:13:01.49	187.65	5.86	
2025-01-16 12:13:02.71	187.72	5.95	
2025-01-16 12:13:03.93	187.79	6.04	
2025-01-16 12:13:05.14	187.86	6.14	
2025-01-16 12:13:06.36	187.93	6.23	
2025-01-16 12:13:07.58	188.00	6.32	
2025-01-16 12:13:08.80	188.07	6.41	
2025-01-16 12:13:10.02	188.15	6.50	
2025-01-16 12:13:11.23	188.22	6.59	
2025-01-16 12:13:12.45	188.29	6.69	
2025-01-16 12:13:13.67	188.37	6.78	
2025-01-16 12:13:14.89	188.44	6.87	
2025-01-16 12:13:16.10	188.51	6.97	
2025-01-16 12:13:17.32	188.59	7.06	
2025-01-16 12:13:18.54	188.66	7.16	
2025-01-16 12:13:19.76	188.74	7.25	
2025-01-16 12:13:20.98	188.82	7.35	
2025-01-16 12:13:22.19	188.89	7.44	
2025-01-16 12:13:23.41	188.97	7.54	
2025-01-16 12:13:24.63	189.05	7.63	
2025-01-16 12:13:25.85	189.13	7.73	
2025-01-16 12:13:27.07	189.21	7.83	
2025-01-16 12:13:28.28	189.29	7.92	
2025-01-16 12:13:29.50	189.37	8.02	
2025-01-16 12:13:30.72	189.45	8.12	
2025-01-16 12:13:31.94	189.53	8.22	
2025-01-16 12:13:33.16	189.61	8.32	
2025-01-16 12:13:34.37	189.70	8.42	
2025-01-16 12:13:35.59	189.78	8.52	
2025-01-16 12:13:36.81	189.86	8.62	
2025-01-16 12:13:38.03	189.95	8.72	
2025-01-16 12:13:39.24	190.03	8.82	
2025-01-16 12:13:40.46	190.12	8.92	
2025-01-16 12:13:41.68	190.20	9.02	
2025-01-16 12:13:42.90	190.29	9.12	
2025-01-16 12:13:44.12	190.38	9.22	
2025-01-16 12:13:45.33	190.47	9.33	
2025-01-16 12:13:46.55	190.55	9.43	
2025-01-16 12:13:47.77	190.64	9.53	
2025-01-16 12:13:48.99	190.73	9.64	
2025-01-16 12:13:50.21	190.82	9.74	
2025-01-16 12:13:51.42	190.92	9.85	
2025-01-16 12:13:52.64	191.01	9.95	
2025-01-16 12:13:53.86	191.10	10.06	
2025-01-16 12:13:55.08	191.19	10.17	
2025-01-16 12:13:56.29	191.29	10.27	
2025-01-16 12:13:57.51	191.38	10.38	
2025-01-16 12:13:58.73	191.48	10.49	
2025-01-16 12:13:59.95	191.57	10.60	
2025-01-16 12:14:01.17	191.67	10.70	
2025-01-16 12:14:02.38	191.77	10.81	
2025-01-16 12:14:03.60	191.87	10.92	
2025-01-16 12:14:04.82	191.97	11.03	
2025-01-16 12:14:06.04	192.07	11.14	
2025-01-16 12:14:07.26	192.17	11.26	
2025-01-16 12:14:08.47	192.27	11.37	
2025-01-16 12:14:09.69	192.37	11.48	
2025-01-16 12:14:10.91	192.48	11.59	
2025-01-16 12:14:12.13	192.58	11.70	
2025-01-16 12:14:13.35	192.68	11.82	
2025-01-16 12:14:14.56	192.79	11.93	
2025-01-16 12:14:15.78	192.90	12.05	
2025-01-16 12:14:17.00	193.00	12.16	
2025-01-16 12:14:18.22	193.11	12.28	
2025-01-16 12:14:19.43	193.22	12.39	
2025-01-16 12:14:20.65	193.33	12.51	
2025-01-16 12:14:21.87	193.44	12.63	
2025-01-16 12:14:23.09	193.55	12.74	
2025-01-16 12:14:24.31	193.67	12.86	
2025-01-16 12:14:25.52	193.78	12.98	
2025-01-16 12:14:26.74	193.90	13.10	
2025-01-16 12:14:27.96	194.01	13.22	
2025-01-16 12:14:29.18	194.13	13.34	
2025-01-16 12:14:30.40	194.25	13.46	
2025-01-16 12:14:31.61	194.36	13.58	
2025-01-16 12:14:32.83	194.48	13.71	
2025-01-16 12:14:34.05	194.60	13.83	
2025-01-16 12:14:35.27	194.73	13.95	
2025-01-16 12:14:36.48	194.85	14.07	
2025-01-16 12:14:37.70	194.97	14.20	
2025-01-16 12:14:38.92	195.10	14.32	
2025-01-16 12:14:40.14	195.22	14.45	
2025-01-16 12:14:41.36	195.35	14.58	
2025-01-16 12:14:42.57	195.48	14.70	
2025-01-16 12:14:43.79	195.61	14.83	
2025-01-16 12:14:45.01	195.74	14.96	
2025-01-16 12:14:46.23	195.87	15.09	
2025-01-16 12:14:47.45	196.00	15.22	
2025-01-16 12:14:48.66	196.13	15.35	
2025-01-16 12:14:49.88	196.27	15.48	
2025-01-16 12:14:51.10	196.41	15.61	
2025-01-16 12:14:52.32	196.54	15.74	
2025-01-16 12:14:53.54	196.68	15.87	
2025-01-16 12:14:54.75	196.82	16.01	
2025-01-16 12:14:55.97	196.96	16.14	
2025-01-16 12:14:57.19	197.11	16.27	
2025-01-16 12:14:58.41	197.25	16.41	
2025-01-16 12:14:59.62	197.40	16.54	
2025-01-16 12:15:00.84	197.54	16.68	
2025-01-16 12:15:02.06	197.69	16.82	
2025-01-16 12:15:03.28	197.84	16.96	
2025-01-16 12:15:04.50	197.99	17.10	
2025-01-16 12:15:05.71	198.14	17.23	
2025-01-16 12:15:06.93	198.30	17.37	
2025-01-16 12:15:08.15	198.45	17.51	
2025-01-16 12:15:09.37	198.61	17.66	
2025-01-16 12:15:10.59	198.77	17.80	
2025-01-16 12:15:11.80	198.93	17.94	
2025-01-16 12:15:13.02	199.09	18.08	
2025-01-16 12:15:14.24	199.25	18.23	
2025-01-16 12:15:15.46	199.42	18.37	
2025-01-16 12:15:16.67	199.58	18.52	
2025-01-16 12:15:17.89	199.75	18.66	
2025-01-16 12:15:19.11	199.92	18.81	
2025-01-16 12:15:20.33	200.09	18.96	
2025-01-16 12:15:21.55	200.26	19.11	
2025-01-16 12:15:22.76	200.44	19.26	
2025-01-16 12:15:23.98	200.61	19.41	
2025-01-16 12:15:25.20	200.79	19.56	
2025-01-16 12:15:26.42	200.97	19.71	
2025-01-16 12:15:27.64	201.15	19.86	
2025-01-16 12:15:28.85	201.34	20.01	
2025-01-16 12:15:30.07	201.52	20.17	
2025-01-16 12:15:31.29	201.71	20.32	
2025-01-16 12:15:32.51	201.90	20.48	
2025-01-16 12:15:33.73	202.09	20.63	
2025-01-16 12:15:34.94	202.28	20.79	
2025-01-16 12:15:36.16	202.48	20.95	
2025-01-16 12:15:37.38	202.67	21.10	
2025-01-16 12:15:38.60	202.87	21.26	
2025-01-16 12:15:39.83	203.08	21.42	
2025-01-16 12:15:41.05	203.28	21.59	
2025-01-16 12:15:42.27	203.49	21.75	
2025-01-16 12:15:43.48	203.69	21.91	
2025-01-16 12:15:44.70	203.91	22.07	
2025-01-16 12:15:45.92	204.12	22.23	
2025-01-16 12:15:47.14	204.33	22.40	
2025-01-16 12:15:48.35	204.55	22.56	
2025-01-16 12:15:49.57	204.77	22.73	
2025-01-16 12:15:50.79	204.99	22.90	
2025-01-16 12:15:52.01	205.22	23.06	
2025-01-16 12:15:53.23	205.44	23.23	
2025-01-16 12:15:54.44	205.67	23.40	
2025-01-16 12:15:55.66	205.90	23.57	
2025-01-16 12:15:56.88	206.14	23.74	
2025-01-16 12:15:58.10	206.37	23.91	
2025-01-16 12:15:59.32	206.61	24.08	
2025-01-16 12:16:00.53	206.86	24.25	
2025-01-16 12:16:01.75	207.10	24.43	
2025-01-16 12:16:02.97	207.35	24.60	
2025-01-16 12:16:04.19	207.60	24.78	
2025-01-16 12:16:05.40	207.85	24.95	
2025-01-16 12:16:06.62	208.11	25.13	
2025-01-16 12:16:07.84	208.37	25.30	
2025-01-16 12:16:09.06	208.63	25.48	
2025-01-16 12:16:10.28	208.90	25.66	
2025-01-16 12:16:11.49	209.16	25.84	
2025-01-16 12:16:12.71	209.44	26.02	
2025-01-16 12:16:13.93	209.71	26.20	
2025-01-16 12:16:15.15	209.99	26.38	
2025-01-16 12:16:16.37	210.27	26.56	
2025-01-16 12:16:17.58	210.55	26.74	
2025-01-16 12:16:18.80	210.84	26.92	
2025-01-16 12:16:20.02	211.13	27.11	
2025-01-16 12:16:21.24	211.43	27.29	
2025-01-16 12:16:22.46	211.73	27.47	
2025-01-16 12:16:23.67	212.03	27.66	
2025-01-16 12:16:24.89	212.33	27.84	
2025-01-16 12:16:26.11	212.64	28.03	
2025-01-16 12:16:27.33	212.95	28.22	
2025-01-16 12:16:28.54	213.27	28.40	
2025-01-16 12:16:29.76	213.59	28.59	
2025-01-16 12:16:30.98	213.91	28.78	
2025-01-16 12:16:32.20	214.24	28.96	
2025-01-16 12:16:33.42	214.57	29.15	
2025-01-16 12:16:34.63	214.90	29.34	
2025-01-16 12:16:35.85	215.24	29.53	
2025-01-16 12:16:37.07	215.59	29.72	
2025-01-16 12:16:38.29	215.93	29.91	
2025-01-16 12:16:39.51	216.29	30.10	
2025-01-16 12:16:40.72	216.64	30.29	
2025-01-16 12:16:41.94	217.00	30.48	
2025-01-16 12:16:43.16	217.36	30.67	
2025-01-16 12:16:44.38	217.73	30.86	
2025-01-16 12:16:45.60	218.11	31.05	
2025-01-16 12:16:46.81	218.48	31.24	
2025-01-16 12:16:48.03	218.87	31.43	
2025-01-16 12:16:49.25	219.25	31.62	
2025-01-16 12:16:50.47	219.64	31.81	
2025-01-16 12:16:51.68	220.04	32.00	
2025-01-16 12:16:52.90	220.44	32.19	
2025-01-16 12:16:54.12	220.84	32.38	
2025-01-16 12:16:55.34	221.26	32.57	
2025-01-16 12:16:56.56	221.67	32.76	
2025-01-16 12:16:57.79	222.10	32.95	
2025-01-16 12:16:59.01	222.52	33.14	
2025-01-16 12:17:00.23	222.95	33.32	
2025-01-16 12:17:01.44	223.38	33.51	
2025-01-16 12:17:02.66	223.82	33.70	
2025-01-16 12:17:03.88	224.27	33.88	
2025-01-16 12:17:05.10	224.72	34.07	
2025-01-16 12:17:06.31	225.17	34.25	
2025-01-16 12:17:07.53	225.64	34.44	
2025-01-16 12:17:08.75	226.10	34.62	
2025-01-16 12:17:09.97	226.57	34.80	
2025-01-16 12:17:11.19	227.05	34.98	
2025-01-16 12:17:12.40	227.53	35.16	
2025-01-16 12:17:13.62	228.02	35.34	
2025-01-16 12:17:14.84	228.51	35.52	
2025-01-16 12:17:16.06	229.01	35.70	
2025-01-16 12:17:17.28	229.51	35.87	
2025-01-16 12:17:18.49	230.02	36.04	
2025-01-16 12:17:19.71	230.54	36.22	
2025-01-16 12:17:20.93	231.06	36.39	
2025-01-16 12:17:22.15	231.58	36.56	
2025-01-16 12:17:23.36	232.11	36.72	
2025-01-16 12:17:24.58	232.65	36.89	
2025-01-16 12:17:25.80	233.19	37.05	
2025-01-16 12:17:27.02	233.74	37.21	
2025-01-16 12:17:28.24	234.29	37.37	
2025-01-16 12:17:29.45	234.85	37.53	
2025-01-16 12:17:30.67	235.41	37.68	
2025-01-16 12:17:31.89	235.98	37.84	
2025-01-16 12:17:33.11	236.56	37.99	
2025-01-16 12:17:34.33	237.14	38.14	
2025-01-16 12:17:35.54	237.72	38.28	
2025-01-16 12:17:36.76	238.31	38.42	
2025-01-16 12:17:37.98	238.91	38.56	
2025-01-16 12:17:39.20	239.51	38.70	
2025-01-16 12:17:40.42	240.11	38.84	
2025-01-16 12:17:41.63	240.72	38.97	
2025-01-16 12:17:42.85	241.34	39.10	
2025-01-16 12:17:44.07	241.96	39.22	
2025-01-16 12:17:45.29	242.58	39.34	
2025-01-16 12:17:46.50	243.21	39.46	
2025-01-16 12:17:47.72	243.84	39.58	
2025-01-16 12:17:48.94	244.48	39.69	
2025-01-16 12:17:50.16	245.13	39.80	
2025-01-16 12:17:51.38	245.78	39.90	
2025-01-16 12:17:52.59	246.42	40.00	
2025-01-16 12:17:53.81	247.08	40.10	
2025-01-16 12:17:55.03	247.74	40.19	
2025-01-16 12:17:56.25	248.41	40.28	
2025-01-16 12:17:57.47	249.07	40.37	
2025-01-16 12:17:58.68	249.74	40.45	
2025-01-16 12:17:59.90	250.41	40.53	
2025-01-16 12:18:01.12	251.09	40.60	
2025-01-16 12:18:02.34	251.77	40.67	
2025-01-16 12:18:03.55	252.45	40.73	
2025-01-16 12:18:04.77	253.14	40.80	
2025-01-16 12:18:05.99	253.82	40.85	
2025-01-16 12:18:07.21	254.52	40.90	
2025-01-16 12:18:08.43	255.21	40.95	
2025-01-16 12:18:09.64	255.90	40.99	
2025-01-16 12:18:10.86	256.59	41.03	
2025-01-16 12:18:12.08	257.29	41.07	
2025-01-16 12:18:13.30	257.99	41.09	
2025-01-16 12:18:14.52	258.69	41.12	
2025-01-16 12:18:15.73	259.39	41.14	
2025-01-16 12:18:16.95	260.09	41.15	
2025-01-16 12:18:18.17	260.79	41.17	
2025-01-16 12:18:19.39	261.50	41.17	
2025-01-16 12:18:20.61	262.20	41.17	
2025-01-16 12:18:21.82	262.90	41.17	
2025-01-16 12:18:23.04	263.60	41.16	
2025-01-16 12:18:24.26	264.30	41.15	
2025-01-16 12:18:25.48	265.01	41.13	
2025-01-16 12:18:26.69	265.70	41.11	
2025-01-16 12:18:27.91	266.40	41.08	
2025-01-16 12:18:29.13	267.10	41.05	
2025-01-16 12:18:30.35	267.80	41.01	
2025-01-16 12:18:31.57	268.49	40.97	
2025-01-16 12:18:32.78	269.18	40.93	
2025-01-16 12:18:34.00	269.87	40.88	
2025-01-16 12:18:35.22	270.56	40.83	
2025-01-16 12:18:36.44	271.25	40.77	
2025-01-16 12:18:37.66	271.93	40.71	
2025-01-16 12:18:38.87	272.61	40.64	
2025-01-16 12:18:40.09	273.29	40.57	
2025-01-16 12:18:41.31	273.96	40.49	
2025-01-16 12:18:42.53	274.63	40.41	
2025-01-16 12:18:43.74	275.30	40.33	
2025-01-16 12:18:44.96	275.96	40.24	
2025-01-16 12:18:46.18	276.62	40.15	
2025-01-16 12:18:47.40	277.28	40.06	
2025-01-16 12:18:48.62	277.93	39.96	
2025-01-16 12:18:49.83	278.58	39.86	
2025-01-16 12:18:51.05	279.22	39.75	
2025-01-16 12:18:52.27	279.86	39.64	
2025-01-16 12:18:53.49	280.50	39.53	
2025-01-16 12:18:54.71	281.13	39.41	
2025-01-16 12:18:55.92	281.75	39.29	
2025-01-16 12:18:57.14	282.38	39.17	
2025-01-16 12:18:58.36	283.00	39.04	
2025-01-16 12:18:59.58	283.61	38.91	
2025-01-16 12:19:00.80	284.22	38.78	
2025-01-16 12:19:02.01	284.81	38.64	
2025-01-16 12:19:03.23	285.41	38.51	
2025-01-16 12:19:04.45	286.00	38.36	
2025-01-16 12:19:05.67	286.59	38.22	
2025-01-16 12:19:06.88	287.17	38.08	
2025-01-16 12:19:08.10	287.75	37.93	
2025-01-16 12:19:09.32	288.32	37.78	
2025-01-16 12:19:10.54	288.88	37.62	
2025-01-16 12:19:11.76	289.44	37.47	
2025-01-16 12:19:12.97	289.99	37.31	
2025-01-16 12:19:14.19	290.54	37.15	
2025-01-16 12:19:15.41	291.09	36.99	
2025-01-16 12:19:16.63	291.63	36.82	
2025-01-16 12:19:17.85	292.16	36.66	
2025-01-16 12:19:19.06	292.68	36.49	
2025-01-16 12:19:20.28	293.21	36.32	
2025-01-16 12:19:21.50	293.72	36.15	
2025-01-16 12:19:22.72	294.23	35.98	
2025-01-16 12:19:23.93	294.74	35.81	
2025-01-16 12:19:25.15	295.24	35.63	
2025-01-16 12:19:26.37	295.73	35.46	
2025-01-16 12:19:27.59	296.22	35.28	
2025-01-16 12:19:28.81	296.70	35.10	
2025-01-16 12:19:30.02	297.18	34.92	
2025-01-16 12:19:31.24	297.65	34.74	
2025-01-16 12:19:32.46	298.12	34.56	
2025-01-16 12:19:33.68	298.58	34.38	
2025-01-16 12:19:34.90	299.04	34.19	
2025-01-16 12:19:36.11	299.49	34.01	
2025-01-16 12:19:37.33	299.94	33.83	
2025-01-16 12:19:38.55	300.38	33.64	
2025-01-16 12:19:39.77	300.82	33.45	
2025-01-16 12:19:40.99	301.25	33.27	
2025-01-16 12:19:42.20	301.67	33.08	
2025-01-16 12:19:43.42	302.09	32.89	
2025-01-16 12:19:44.64	302.51	32.71	
2025-01-16 12:19:45.86	302.92	32.52	
2025-01-16 12:19:47.07	303.33	32.33	
2025-01-16 12:19:48.29	303.73	32.14	
2025-01-16 12:19:49.51	304.13	31.95	
2025-01-16 12:19:50.73	304.52	31.76	
2025-01-16 12:19:51.95	304.91	31.57	
2025-01-16 12:19:53.16	305.29	31.39	
2025-01-16 12:19:54.38	305.67	31.20	
2025-01-16 12:19:55.60	306.05	31.01	
2025-01-16 12:19:56.82	306.42	30.82	
2025-01-16 12:19:58.04	306.78	30.63	
2025-01-16 12:19:59.25	307.14	30.44	
2025-01-16 12:20:00.47	307.50	30.25	
2025-01-16 12:20:01.69	307.85	30.06	
2025-01-16 12:20:02.91	308.20	29.87	
2025-01-16 12:20:04.12	308.55	29.69	
2025-01-16 12:20:05.34	308.89	29.50	
2025-01-16 12:20:06.56	309.22	29.31	
2025-01-16 12:20:07.78	309.56	29.12	
2025-01-16 12:20:09.00	309.89	28.94	
2025-01-16 12:20:10.21	310.21	28.75	
2025-01-16 12:20:11.43	310.53	28.56	
2025-01-16 12:20:12.65	310.85	28.38	
2025-01-16 12:20:13.87	311.16	28.19	
2025-01-16 12:20:15.09	311.47	28.01	
2025-01-16 12:20:16.30	311.78	27.82	
2025-01-16 12:20:17.52	312.08	27.64	
2025-01-16 12:20:18.74	312.38	27.46	
2025-01-16 12:20:19.96	312.67	27.27	
2025-01-16 12:20:21.18	312.97	27.09	
2025-01-16 12:20:22.39	313.25	26.91	
2025-01-16 12:20:23.61	313.54	26.73	
2025-01-16 12:20:24.83	313.82	26.55	
2025-01-16 12:20:26.05	314.10	26.37	
2025-01-16 12:20:27.26	314.38	26.19	
2025-01-16 12:20:28.48	314.65	26.01	
2025-01-16 12:20:29.70	314.92	25.83	
2025-01-16 12:20:30.92	315.19	25.66	
2025-01-16 12:20:32.14	315.45	25.48	
2025-01-16 12:20:33.35	315.71	25.30	
2025-01-16 12:20:34.57	315.97	25.13	
2025-01-16 12:20:35.79	316.22	24.95	
2025-01-16 12:20:37.01	316.47	24.78	
2025-01-16 12:20:38.23	316.72	24.61	
2025-01-16 12:20:39.44	316.97	24.44	
2025-01-16 12:20:40.66	317.21	24.26	
2025-01-16 12:20:41.88	317.45	24.09	
2025-01-16 12:20:43.10	317.69	23.92	
2025-01-16 12:20:44.31	317.93	23.75	
2025-01-16 12:20:45.53	318.16	23.58	
2025-01-16 12:20:46.75	318.39	23.42	
2025-01-16 12:20:47.97	318.62	23.25	
2025-01-16 12:20:49.19	318.84	23.08	
2025-01-16 12:20:50.40	319.07	22.92	
2025-01-16 12:20:51.62	319.29	22.75	
2025-01-16 12:20:52.84	319.51	22.59	
2025-01-16 12:20:54.06	319.72	22.42	
2025-01-16 12:20:55.28	319.94	22.26	
2025-01-16 12:20:56.49	320.15	22.10	
2025-01-16 12:20:57.71	320.36	21.94	
2025-01-16 12:20:58.93	320.56	21.77	
2025-01-16 12:21:00.15	320.77	21.61	
2025-01-16 12:21:01.37	320.97	21.46	
2025-01-16 12:21:02.58	321.17	21.30	
2025-01-16 12:21:03.80	321.37	21.14	
2025-01-16 12:21:05.02	321.57	20.98	
2025-01-16 12:21:06.24	321.76	20.83	
2025-01-16 12:21:07.45	321.95	20.67	
2025-01-16 12:21:08.67	322.14	20.52	
2025-01-16 12:21:09.89	322.33	20.36	
2025-01-16 12:21:11.11	322.52	20.21	
2025-01-16 12:21:12.33	322.70	20.06	
2025-01-16 12:21:13.54	322.88	19.91	
2025-01-16 12:21:14.76	323.07	19.76	
2025-01-16 12:21:15.98	323.24	19.60	
2025-01-16 12:21:17.20	323.42	19.45	
2025-01-16 12:21:18.42	323.60	19.31	
2025-01-16 12:21:19.63	323.77	19.16	
2025-01-16 12:21:20.85	323.94	19.01	
2025-01-16 12:21:22.07	324.11	18.86	
2025-01-16 12:21:23.29	324.28	18.72	
2025-01-16 12:21:24.50	324.45	18.57	
2025-01-16 12:21:25.72	324.61	18.43	
2025-01-16 12:21:26.94	324.78	18.29	
2025-01-16 12:21:28.16	324.94	18.14	
2025-01-16 12:21:29.38	325.10	18.00	
2025-01-16 12:21:30.59	325.26	17.86	
2025-01-16 12:21:31.81	325.42	17.72	
2025-01-16 12:21:33.03	325.58	17.58	
2025-01-16 12:21:34.25	325.73	17.44	
2025-01-16 12:21:35.47	325.88	17.30	
2025-01-16 12:21:36.68	326.03	17.16	
2025-01-16 12:21:37.90	326.19	17.02	
2025-01-16 12:21:39.12	326.34	16.89	
2025-01-16 12:21:40.34	326.48	16.75	
2025-01-16 12:21:41.56	326.63	16.62	
2025-01-16 12:21:42.77	326.77	16.48	
2025-01-16 12:21:43.99	326.92	16.35	
2025-01-16 12:21:45.21	327.06	16.21	
2025-01-16 12:21:46.43	327.20	16.08	
2025-01-16 12:21:47.64	327.34	15.95	
2025-01-16 12:21:48.86	327.48	15.82	
2025-01-16 12:21:50.08	327.62	15.69	
2025-01-16 12:21:51.30	327.75	15.56	
2025-01-16 12:21:52.52	327.89	15.43	
2025-01-16 12:21:53.73	328.02	15.30	
2025-01-16 12:21:54.95	328.15	15.17	
2025-01-16 12:21:56.17	328.29	15.04	
2025-01-16 12:21:57.39	328.42	14.91	
2025-01-16 12:21:58.61	328.55	14.79	
2025-01-16 12:21:59.82	328.67	14.66	
2025-01-16 12:22:01.04	328.80	14.54	
2025-01-16 12:22:02.26	328.93	14.41	
2025-01-16 12:22:03.48	329.05	14.29	
2025-01-16 12:22:04.69	329.17	14.17	
2025-01-16 12:22:05.91	329.30	14.04	
2025-01-16 12:22:07.13	329.42	13.92	
2025-01-16 12:22:08.35	329.54	13.80	
2025-01-16 12:22:09.57	329.66	13.68	
2025-01-16 12:22:10.78	329.78	13.56	
2025-01-16 12:22:12.00	329.90	13.44	
2025-01-16 12:22:13.22	330.01	13.32	
2025-01-16 12:22:14.44	330.13	13.20	
2025-01-16 12:22:15.66	330.24	13.08	
2025-01-16 12:22:16.87	330.36	12.96	
2025-01-16 12:22:18.09	330.47	12.84	
2025-01-16 12:22:19.31	330.58	12.73	
2025-01-16 12:22:20.53	330.69	12.61	
2025-01-16 12:22:21.75	330.80	12.49	
2025-01-16 12:22:22.96	330.91	12.38	
2025-01-16 12:22:24.18	331.02	12.26	
2025-01-16 12:22:25.40	331.13	12.15	
2025-01-16 12:22:26.62	331.24	12.04	
2025-01-16 12:22:27.83	331.34	11.92	
2025-01-16 12:22:29.05	331.45	11.81	
2025-01-16 12:22:30.27	331.55	11.70	
2025-01-16 12:22:31.49	331.66	11.59	
2025-01-16 12:22:32.71	331.76	11.47	
2025-01-16 12:22:33.92	331.86	11.36	
2025-01-16 12:22:35.14	331.96	11.25	
2025-01-16 12:22:36.36	332.06	11.14	
2025-01-16 12:22:37.58	332.16	11.03	
2025-01-16 12:22:38.80	332.26	10.93	
2025-01-16 12:22:40.01	332.36	10.82	
2025-01-16 12:22:41.23	332.46	10.71	
2025-01-16 12:22:42.45	332.55	10.60	
2025-01-16 12:22:43.67	332.65	10.49	
2025-01-16 12:22:44.88	332.74	10.39	
2025-01-16 12:22:46.10	332.84	10.28	
2025-01-16 12:22:47.32	332.93	10.18	
2025-01-16 12:22:48.54	333.02	10.07	
2025-01-16 12:22:49.76	333.12	9.97	
2025-01-16 12:22:50.97	333.21	9.86	
2025-01-16 12:22:52.19	333.30	9.76	
2025-01-16 12:22:53.41	333.39	9.66	
2025-01-16 12:22:54.63	333.48	9.55	
2025-01-16 12:22:55.85	333.57	9.45	
2025-01-16 12:22:57.06	333.66	9.35	
2025-01-16 12:22:58.28	333.75	9.25	
2025-01-16 12:22:59.50	333.83	9.14	
2025-01-16 12:23:00.72	333.92	9.04	
2025-01-16 12:23:01.94	334.01	8.94	
2025-01-16 12:23:03.15	334.09	8.84	
2025-01-16 12:23:04.37	334.18	8.74	
2025-01-16 12:23:05.59	334.26	8.64	
2025-01-16 12:23:06.81	334.35	8.54	
2025-01-16 12:23:08.02	334.43	8.45	
2025-01-16 12:23:09.24	334.51	8.35	
2025-01-16 12:23:10.46	334.59	8.25	
2025-01-16 12:23:11.68	334.68	8.15	
2025-01-16 12:23:12.90	334.76	8.05	
2025-01-16 12:23:14.11	334.84	7.96	
2025-01-16 12:23:15.33	334.92	7.86	
2025-01-16 12:23:16.55	335.00	7.77	
2025-01-16 12:23:17.77	335.07	7.67	
2025-01-16 12:23:18.99	335.15	7.57	
2025-01-16 12:23:20.20	335.23	7.48	
2025-01-16 12:23:21.42	335.31	7.39	
2025-01-16 12:23:22.64	335.38	7.29	
2025-01-16 12:23:23.86	335.46	7.20	
2025-01-16 12:23:25.07	335.54	7.10	
2025-01-16 12:23:26.29	335.61	7.01	
2025-01-16 12:23:27.51	335.69	6.92	
2025-01-16 12:23:28.73	335.76	6.83	
2025-01-16 12:23:29.95	335.84	6.73	
2025-01-16 12:23:31.16	335.91	6.64	
2025-01-16 12:23:32.38	335.98	6.55	
2025-01-16 12:23:33.60	336.05	6.46	
2025-01-16 12:23:34.82	336.13	6.37	
2025-01-16 12:23:36.04	336.20	6.28	
2025-01-16 12:23:37.25	336.27	6.19	
2025-01-16 12:23:38.47	336.34	6.10	
2025-01-16 12:23:39.69	336.41	6.01	
2025-01-16 12:23:40.91	336.48	5.92	
2025-01-16 12:23:42.13	336.55	5.83	
2025-01-16 12:23:43.34	336.62	5.74	
2025-01-16 12:23:44.56	336.69	5.65	
2025-01-16 12:23:45.78	336.76	5.56	
2025-01-16 12:23:47.00	336.82	5.48	
2025-01-16 12:23:48.21	336.89	5.39	
2025-01-16 12:23:49.43	336.96	5.30	
2025-01-16 12:23:50.65	337.02	5.22	
2025-01-16 12:23:51.87	337.09	5.13	
2025-01-16 12:23:53.09	337.16	5.04	
2025-01-16 12:23:54.30	337.22	4.96	
2025-01-16 12:23:55.52	337.29	4.87	
2025-01-16 12:23:56.74	337.35	4.78	
2025-01-16 12:23:57.96	337.42	4.70	
2025-01-16 12:23:59.18	337.48	4.61	
2025-01-16 12:24:00.39	337.54	4.53	
2025-01-16 12:24:01.61	337.61	4.45	
2025-01-16 12:24:02.83	337.67	4.36	
2025-01-16 12:24:04.05	337.73	4.28	
2025-01-16 12:24:05.26	337.79	4.19	
2025-01-16 12:24:06.48	337.86	4.11	
2025-01-16 12:24:07.70	337.92	4.03	

#Closed at: 2025-01-16 12:24:08