passes_logs/2025/01/16/SPB_Silybum_02/SPB_Silybum_02__20250116_103501_AQUA_rec.log

#Pass ID: 20250116_103501_AQUA
#Satellite: AQUA
#Configuration: AQUA
#Start time: 2025-01-16 10:35:01

#Version: 2.0.20230423
#Station: SPB_Silybum_02
#Location: 30.233357 lon 59.946436 lat
#TLE: 1 27424U 02022A   25015.89755826  .00001635  00000+0  34564-3 0  9997
#TLE: 2 27424  98.3590 332.5696 0001753 110.3458 316.1758 14.60685220207753

#Time	Az	El	Level	Level2	SNR	BER	Gain	Gain2
2025-01-16 10:35:03.76	135.74	4.17	
2025-01-16 10:35:04.98	135.69	4.25	
2025-01-16 10:35:06.20	135.64	4.34	
2025-01-16 10:35:07.41	135.59	4.43	
2025-01-16 10:35:08.63	135.54	4.51	
2025-01-16 10:35:09.85	135.49	4.60	
2025-01-16 10:35:11.07	135.44	4.69	
2025-01-16 10:35:12.28	135.39	4.78	
2025-01-16 10:35:13.50	135.34	4.86	
2025-01-16 10:35:14.72	135.28	4.95	
2025-01-16 10:35:15.94	135.23	5.04	
2025-01-16 10:35:17.16	135.18	5.13	
2025-01-16 10:35:18.37	135.13	5.22	
2025-01-16 10:35:19.59	135.07	5.31	
2025-01-16 10:35:20.81	135.02	5.40	
2025-01-16 10:35:22.03	134.96	5.49	
2025-01-16 10:35:23.25	134.91	5.58	
2025-01-16 10:35:24.46	134.85	5.67	
2025-01-16 10:35:25.68	134.80	5.76	
2025-01-16 10:35:26.90	134.74	5.85	
2025-01-16 10:35:28.12	134.69	5.94	
2025-01-16 10:35:29.34	134.63	6.04	
2025-01-16 10:35:30.55	134.57	6.13	
2025-01-16 10:35:31.77	134.52	6.22	
2025-01-16 10:35:32.99	134.46	6.31	
2025-01-16 10:35:34.21	134.40	6.41	
2025-01-16 10:35:35.42	134.34	6.50	
2025-01-16 10:35:36.64	134.28	6.60	
2025-01-16 10:35:37.86	134.22	6.69	
2025-01-16 10:35:39.08	134.16	6.79	
2025-01-16 10:35:40.30	134.10	6.88	
2025-01-16 10:35:41.51	134.04	6.98	
2025-01-16 10:35:42.73	133.98	7.07	
2025-01-16 10:35:43.95	133.92	7.17	
2025-01-16 10:35:45.17	133.86	7.27	
2025-01-16 10:35:46.39	133.79	7.36	
2025-01-16 10:35:47.60	133.73	7.46	
2025-01-16 10:35:48.82	133.67	7.56	
2025-01-16 10:35:50.04	133.60	7.66	
2025-01-16 10:35:51.26	133.54	7.75	
2025-01-16 10:35:52.47	133.47	7.85	
2025-01-16 10:35:53.69	133.41	7.95	
2025-01-16 10:35:54.91	133.34	8.05	
2025-01-16 10:35:56.13	133.28	8.15	
2025-01-16 10:35:57.35	133.21	8.25	
2025-01-16 10:35:58.56	133.14	8.35	
2025-01-16 10:35:59.78	133.07	8.46	
2025-01-16 10:36:01.00	133.00	8.56	
2025-01-16 10:36:02.22	132.93	8.66	
2025-01-16 10:36:03.44	132.86	8.76	
2025-01-16 10:36:04.65	132.79	8.87	
2025-01-16 10:36:05.87	132.72	8.97	
2025-01-16 10:36:07.09	132.65	9.07	
2025-01-16 10:36:08.31	132.58	9.18	
2025-01-16 10:36:09.53	132.51	9.28	
2025-01-16 10:36:10.74	132.43	9.39	
2025-01-16 10:36:11.96	132.36	9.49	
2025-01-16 10:36:13.18	132.28	9.60	
2025-01-16 10:36:14.40	132.21	9.71	
2025-01-16 10:36:15.61	132.13	9.81	
2025-01-16 10:36:16.83	132.06	9.92	
2025-01-16 10:36:18.05	131.98	10.03	
2025-01-16 10:36:19.27	131.90	10.14	
2025-01-16 10:36:20.49	131.82	10.25	
2025-01-16 10:36:21.70	131.74	10.36	
2025-01-16 10:36:22.92	131.66	10.47	
2025-01-16 10:36:24.14	131.58	10.58	
2025-01-16 10:36:25.36	131.50	10.69	
2025-01-16 10:36:26.58	131.42	10.80	
2025-01-16 10:36:27.79	131.34	10.91	
2025-01-16 10:36:29.01	131.26	11.03	
2025-01-16 10:36:30.23	131.17	11.14	
2025-01-16 10:36:31.45	131.09	11.25	
2025-01-16 10:36:32.66	131.00	11.37	
2025-01-16 10:36:33.88	130.92	11.48	
2025-01-16 10:36:35.10	130.83	11.60	
2025-01-16 10:36:36.32	130.74	11.71	
2025-01-16 10:36:37.54	130.65	11.83	
2025-01-16 10:36:38.75	130.56	11.95	
2025-01-16 10:36:39.97	130.47	12.06	
2025-01-16 10:36:41.19	130.38	12.18	
2025-01-16 10:36:42.41	130.29	12.30	
2025-01-16 10:36:43.63	130.20	12.42	
2025-01-16 10:36:44.84	130.10	12.54	
2025-01-16 10:36:46.06	130.01	12.66	
2025-01-16 10:36:47.28	129.92	12.78	
2025-01-16 10:36:48.50	129.82	12.90	
2025-01-16 10:36:49.72	129.72	13.02	
2025-01-16 10:36:50.93	129.63	13.15	
2025-01-16 10:36:52.15	129.53	13.27	
2025-01-16 10:36:53.37	129.43	13.39	
2025-01-16 10:36:54.59	129.33	13.52	
2025-01-16 10:36:55.80	129.23	13.64	
2025-01-16 10:36:57.04	129.12	13.77	
2025-01-16 10:36:58.26	129.02	13.90	
2025-01-16 10:36:59.47	128.92	14.02	
2025-01-16 10:37:00.69	128.81	14.15	
2025-01-16 10:37:01.91	128.70	14.28	
2025-01-16 10:37:03.13	128.60	14.41	
2025-01-16 10:37:04.35	128.49	14.54	
2025-01-16 10:37:05.56	128.38	14.67	
2025-01-16 10:37:06.78	128.27	14.80	
2025-01-16 10:37:08.00	128.16	14.93	
2025-01-16 10:37:09.22	128.04	15.06	
2025-01-16 10:37:10.43	127.93	15.20	
2025-01-16 10:37:11.65	127.82	15.33	
2025-01-16 10:37:12.87	127.70	15.47	
2025-01-16 10:37:14.09	127.58	15.60	
2025-01-16 10:37:15.31	127.47	15.74	
2025-01-16 10:37:16.52	127.35	15.87	
2025-01-16 10:37:17.74	127.23	16.01	
2025-01-16 10:37:18.96	127.10	16.15	
2025-01-16 10:37:20.18	126.98	16.29	
2025-01-16 10:37:21.40	126.86	16.43	
2025-01-16 10:37:22.61	126.73	16.57	
2025-01-16 10:37:23.83	126.60	16.71	
2025-01-16 10:37:25.05	126.48	16.85	
2025-01-16 10:37:26.27	126.35	16.99	
2025-01-16 10:37:27.49	126.22	17.14	
2025-01-16 10:37:28.70	126.08	17.28	
2025-01-16 10:37:29.92	125.95	17.42	
2025-01-16 10:37:31.14	125.82	17.57	
2025-01-16 10:37:32.36	125.68	17.72	
2025-01-16 10:37:33.57	125.54	17.86	
2025-01-16 10:37:34.79	125.40	18.01	
2025-01-16 10:37:36.01	125.26	18.16	
2025-01-16 10:37:37.23	125.12	18.31	
2025-01-16 10:37:38.45	124.98	18.46	
2025-01-16 10:37:39.66	124.83	18.61	
2025-01-16 10:37:40.88	124.69	18.76	
2025-01-16 10:37:42.10	124.54	18.92	
2025-01-16 10:37:43.32	124.39	19.07	
2025-01-16 10:37:44.54	124.23	19.23	
2025-01-16 10:37:45.75	124.08	19.38	
2025-01-16 10:37:46.97	123.93	19.54	
2025-01-16 10:37:48.19	123.77	19.69	
2025-01-16 10:37:49.41	123.61	19.85	
2025-01-16 10:37:50.62	123.45	20.01	
2025-01-16 10:37:51.84	123.29	20.17	
2025-01-16 10:37:53.06	123.13	20.33	
2025-01-16 10:37:54.28	122.96	20.49	
2025-01-16 10:37:55.50	122.79	20.66	
2025-01-16 10:37:56.71	122.62	20.82	
2025-01-16 10:37:57.93	122.45	20.98	
2025-01-16 10:37:59.15	122.28	21.15	
2025-01-16 10:38:00.37	122.10	21.32	
2025-01-16 10:38:01.59	121.93	21.48	
2025-01-16 10:38:02.80	121.75	21.65	
2025-01-16 10:38:04.02	121.57	21.82	
2025-01-16 10:38:05.24	121.38	21.99	
2025-01-16 10:38:06.46	121.20	22.16	
2025-01-16 10:38:07.67	121.01	22.33	
2025-01-16 10:38:08.90	120.82	22.51	
2025-01-16 10:38:10.12	120.62	22.68	
2025-01-16 10:38:11.34	120.43	22.85	
2025-01-16 10:38:12.56	120.23	23.03	
2025-01-16 10:38:13.78	120.03	23.21	
2025-01-16 10:38:14.99	119.83	23.38	
2025-01-16 10:38:16.21	119.63	23.56	
2025-01-16 10:38:17.43	119.42	23.74	
2025-01-16 10:38:18.65	119.21	23.92	
2025-01-16 10:38:19.87	119.00	24.10	
2025-01-16 10:38:21.08	118.79	24.28	
2025-01-16 10:38:22.30	118.57	24.47	
2025-01-16 10:38:23.52	118.35	24.65	
2025-01-16 10:38:24.74	118.12	24.84	
2025-01-16 10:38:25.96	117.90	25.02	
2025-01-16 10:38:27.17	117.67	25.21	
2025-01-16 10:38:28.39	117.44	25.40	
2025-01-16 10:38:29.61	117.21	25.59	
2025-01-16 10:38:30.83	116.97	25.78	
2025-01-16 10:38:32.04	116.73	25.96	
2025-01-16 10:38:33.26	116.49	26.16	
2025-01-16 10:38:34.48	116.24	26.35	
2025-01-16 10:38:35.70	115.99	26.54	
2025-01-16 10:38:36.92	115.74	26.74	
2025-01-16 10:38:38.13	115.49	26.93	
2025-01-16 10:38:39.35	115.23	27.13	
2025-01-16 10:38:40.57	114.96	27.32	
2025-01-16 10:38:41.79	114.70	27.52	
2025-01-16 10:38:43.01	114.43	27.72	
2025-01-16 10:38:44.22	114.16	27.92	
2025-01-16 10:38:45.44	113.88	28.12	
2025-01-16 10:38:46.66	113.60	28.32	
2025-01-16 10:38:47.88	113.32	28.52	
2025-01-16 10:38:49.09	113.03	28.72	
2025-01-16 10:38:50.31	112.74	28.93	
2025-01-16 10:38:51.53	112.44	29.13	
2025-01-16 10:38:52.75	112.14	29.34	
2025-01-16 10:38:53.97	111.84	29.54	
2025-01-16 10:38:55.18	111.54	29.75	
2025-01-16 10:38:56.40	111.23	29.96	
2025-01-16 10:38:57.62	110.91	30.16	
2025-01-16 10:38:58.84	110.59	30.37	
2025-01-16 10:39:00.06	110.26	30.58	
2025-01-16 10:39:01.27	109.94	30.79	
2025-01-16 10:39:02.49	109.61	31.00	
2025-01-16 10:39:03.71	109.27	31.21	
2025-01-16 10:39:04.93	108.93	31.42	
2025-01-16 10:39:06.15	108.58	31.64	
2025-01-16 10:39:07.36	108.23	31.85	
2025-01-16 10:39:08.58	107.87	32.06	
2025-01-16 10:39:09.80	107.51	32.27	
2025-01-16 10:39:11.02	107.15	32.49	
2025-01-16 10:39:12.23	106.78	32.70	
2025-01-16 10:39:13.45	106.40	32.91	
2025-01-16 10:39:14.67	106.02	33.13	
2025-01-16 10:39:15.89	105.63	33.34	
2025-01-16 10:39:17.11	105.24	33.56	
2025-01-16 10:39:18.32	104.85	33.77	
2025-01-16 10:39:19.54	104.44	33.99	
2025-01-16 10:39:20.76	104.04	34.20	
2025-01-16 10:39:21.98	103.62	34.41	
2025-01-16 10:39:23.20	103.20	34.63	
2025-01-16 10:39:24.41	102.78	34.84	
2025-01-16 10:39:25.63	102.35	35.06	
2025-01-16 10:39:26.85	101.91	35.27	
2025-01-16 10:39:28.07	101.47	35.48	
2025-01-16 10:39:29.28	101.02	35.70	
2025-01-16 10:39:30.50	100.57	35.91	
2025-01-16 10:39:31.72	100.11	36.12	
2025-01-16 10:39:32.94	99.64	36.33	
2025-01-16 10:39:34.16	99.17	36.54	
2025-01-16 10:39:35.37	98.69	36.75	
2025-01-16 10:39:36.59	98.21	36.96	
2025-01-16 10:39:37.81	97.71	37.17	
2025-01-16 10:39:39.03	97.22	37.37	
2025-01-16 10:39:40.25	96.71	37.58	
2025-01-16 10:39:41.46	96.20	37.78	
2025-01-16 10:39:42.68	95.68	37.99	
2025-01-16 10:39:43.90	95.16	38.19	
2025-01-16 10:39:45.12	94.63	38.39	
2025-01-16 10:39:46.34	94.09	38.59	
2025-01-16 10:39:47.55	93.55	38.78	
2025-01-16 10:39:48.77	92.99	38.98	
2025-01-16 10:39:49.99	92.44	39.17	
2025-01-16 10:39:51.21	91.87	39.37	
2025-01-16 10:39:52.42	91.30	39.55	
2025-01-16 10:39:53.64	90.72	39.74	
2025-01-16 10:39:54.86	90.14	39.93	
2025-01-16 10:39:56.08	89.54	40.11	
2025-01-16 10:39:57.30	88.94	40.29	
2025-01-16 10:39:58.51	88.34	40.47	
2025-01-16 10:39:59.73	87.73	40.64	
2025-01-16 10:40:00.95	87.11	40.82	
2025-01-16 10:40:02.17	86.48	40.99	
2025-01-16 10:40:03.39	85.85	41.15	
2025-01-16 10:40:04.60	85.22	41.31	
2025-01-16 10:40:05.82	84.57	41.47	
2025-01-16 10:40:07.04	83.92	41.63	
2025-01-16 10:40:08.26	83.26	41.78	
2025-01-16 10:40:09.47	82.60	41.93	
2025-01-16 10:40:10.69	81.92	42.08	
2025-01-16 10:40:11.91	81.25	42.22	
2025-01-16 10:40:13.13	80.56	42.36	
2025-01-16 10:40:14.35	79.87	42.49	
2025-01-16 10:40:15.56	79.18	42.62	
2025-01-16 10:40:16.78	78.48	42.75	
2025-01-16 10:40:18.00	77.77	42.87	
2025-01-16 10:40:19.22	77.06	42.98	
2025-01-16 10:40:20.44	76.34	43.10	
2025-01-16 10:40:21.65	75.63	43.20	
2025-01-16 10:40:22.87	74.90	43.31	
2025-01-16 10:40:24.09	74.17	43.40	
2025-01-16 10:40:25.31	73.43	43.50	
2025-01-16 10:40:26.53	72.69	43.59	
2025-01-16 10:40:27.74	71.96	43.67	
2025-01-16 10:40:28.96	71.21	43.75	
2025-01-16 10:40:30.18	70.46	43.82	
2025-01-16 10:40:31.40	69.70	43.88	
2025-01-16 10:40:32.61	68.95	43.95	
2025-01-16 10:40:33.83	68.19	44.00	
2025-01-16 10:40:35.05	67.42	44.05	
2025-01-16 10:40:36.27	66.66	44.10	
2025-01-16 10:40:37.49	65.89	44.14	
2025-01-16 10:40:38.70	65.13	44.17	
2025-01-16 10:40:39.92	64.36	44.20	
2025-01-16 10:40:41.14	63.58	44.22	
2025-01-16 10:40:42.36	62.81	44.24	
2025-01-16 10:40:43.58	62.04	44.25	
2025-01-16 10:40:44.79	61.27	44.26	
2025-01-16 10:40:46.01	60.49	44.25	
2025-01-16 10:40:47.23	59.72	44.25	
2025-01-16 10:40:48.45	58.95	44.24	
2025-01-16 10:40:49.66	58.18	44.22	
2025-01-16 10:40:50.88	57.41	44.20	
2025-01-16 10:40:52.10	56.64	44.17	
2025-01-16 10:40:53.32	55.87	44.13	
2025-01-16 10:40:54.54	55.10	44.09	
2025-01-16 10:40:55.75	54.34	44.05	
2025-01-16 10:40:56.97	53.58	43.99	
2025-01-16 10:40:58.19	52.82	43.94	
2025-01-16 10:40:59.41	52.06	43.87	
2025-01-16 10:41:00.63	51.31	43.81	
2025-01-16 10:41:01.84	50.56	43.73	
2025-01-16 10:41:03.06	49.82	43.66	
2025-01-16 10:41:04.28	49.08	43.57	
2025-01-16 10:41:05.50	48.34	43.48	
2025-01-16 10:41:06.72	47.60	43.39	
2025-01-16 10:41:07.93	46.88	43.29	
2025-01-16 10:41:09.15	46.15	43.19	
2025-01-16 10:41:10.37	45.43	43.08	
2025-01-16 10:41:11.59	44.72	42.97	
2025-01-16 10:41:12.80	44.01	42.85	
2025-01-16 10:41:14.02	43.31	42.73	
2025-01-16 10:41:15.24	42.61	42.60	
2025-01-16 10:41:16.46	41.91	42.47	
2025-01-16 10:41:17.68	41.23	42.34	
2025-01-16 10:41:18.89	40.55	42.20	
2025-01-16 10:41:20.11	39.87	42.06	
2025-01-16 10:41:21.33	39.20	41.91	
2025-01-16 10:41:22.55	38.54	41.76	
2025-01-16 10:41:23.77	37.88	41.61	
2025-01-16 10:41:24.98	37.24	41.46	
2025-01-16 10:41:26.20	36.59	41.30	
2025-01-16 10:41:27.42	35.96	41.13	
2025-01-16 10:41:28.64	35.32	40.97	
2025-01-16 10:41:29.85	34.71	40.80	
2025-01-16 10:41:31.07	34.09	40.63	
2025-01-16 10:41:32.29	33.48	40.45	
2025-01-16 10:41:33.51	32.87	40.27	
2025-01-16 10:41:34.73	32.28	40.09	
2025-01-16 10:41:35.94	31.69	39.91	
2025-01-16 10:41:37.16	31.11	39.73	
2025-01-16 10:41:38.38	30.53	39.54	
2025-01-16 10:41:39.60	29.96	39.35	
2025-01-16 10:41:40.82	29.40	39.16	
2025-01-16 10:41:42.03	28.84	38.97	
2025-01-16 10:41:43.25	28.29	38.77	
2025-01-16 10:41:44.47	27.75	38.57	
2025-01-16 10:41:45.69	27.22	38.37	
2025-01-16 10:41:46.91	26.69	38.17	
2025-01-16 10:41:48.12	26.17	37.97	
2025-01-16 10:41:49.34	25.65	37.77	
2025-01-16 10:41:50.56	25.14	37.57	
2025-01-16 10:41:51.78	24.64	37.36	
2025-01-16 10:41:52.99	24.15	37.16	
2025-01-16 10:41:54.21	23.66	36.95	
2025-01-16 10:41:55.43	23.17	36.74	
2025-01-16 10:41:56.65	22.70	36.53	
2025-01-16 10:41:57.87	22.22	36.32	
2025-01-16 10:41:59.08	21.76	36.11	
2025-01-16 10:42:00.30	21.30	35.90	
2025-01-16 10:42:01.52	20.85	35.69	
2025-01-16 10:42:02.74	20.41	35.48	
2025-01-16 10:42:03.96	19.96	35.26	
2025-01-16 10:42:05.17	19.53	35.05	
2025-01-16 10:42:06.39	19.10	34.84	
2025-01-16 10:42:07.61	18.68	34.63	
2025-01-16 10:42:08.83	18.26	34.41	
2025-01-16 10:42:10.04	17.86	34.20	
2025-01-16 10:42:11.26	17.45	33.99	
2025-01-16 10:42:12.48	17.05	33.77	
2025-01-16 10:42:13.70	16.65	33.56	
2025-01-16 10:42:14.92	16.26	33.34	
2025-01-16 10:42:16.13	15.88	33.13	
2025-01-16 10:42:17.35	15.50	32.92	
2025-01-16 10:42:18.57	15.13	32.71	
2025-01-16 10:42:19.79	14.76	32.49	
2025-01-16 10:42:21.01	14.39	32.28	
2025-01-16 10:42:22.22	14.04	32.07	
2025-01-16 10:42:23.44	13.68	31.86	
2025-01-16 10:42:24.66	13.33	31.65	
2025-01-16 10:42:25.88	12.99	31.43	
2025-01-16 10:42:27.10	12.65	31.22	
2025-01-16 10:42:28.31	12.31	31.02	
2025-01-16 10:42:29.53	11.98	30.81	
2025-01-16 10:42:30.75	11.66	30.60	
2025-01-16 10:42:31.97	11.33	30.39	
2025-01-16 10:42:33.18	11.02	30.18	
2025-01-16 10:42:34.40	10.70	29.98	
2025-01-16 10:42:35.62	10.39	29.77	
2025-01-16 10:42:36.84	10.09	29.56	
2025-01-16 10:42:38.06	9.79	29.36	
2025-01-16 10:42:39.27	9.49	29.16	
2025-01-16 10:42:40.49	9.20	28.95	
2025-01-16 10:42:41.71	8.91	28.75	
2025-01-16 10:42:42.93	8.62	28.55	
2025-01-16 10:42:44.15	8.34	28.35	
2025-01-16 10:42:45.36	8.06	28.15	
2025-01-16 10:42:46.58	7.79	27.95	
2025-01-16 10:42:47.80	7.52	27.75	
2025-01-16 10:42:49.02	7.25	27.55	
2025-01-16 10:42:50.23	6.99	27.36	
2025-01-16 10:42:51.45	6.72	27.16	
2025-01-16 10:42:52.67	6.47	26.96	
2025-01-16 10:42:53.89	6.21	26.77	
2025-01-16 10:42:55.11	5.96	26.58	
2025-01-16 10:42:56.32	5.71	26.39	
2025-01-16 10:42:57.54	5.47	26.19	
2025-01-16 10:42:58.76	5.23	26.00	
2025-01-16 10:42:59.98	4.99	25.81	
2025-01-16 10:43:01.20	4.75	25.62	
2025-01-16 10:43:02.41	4.52	25.44	
2025-01-16 10:43:03.63	4.29	25.25	
2025-01-16 10:43:04.85	4.07	25.06	
2025-01-16 10:43:06.07	3.84	24.88	
2025-01-16 10:43:07.29	3.62	24.69	
2025-01-16 10:43:08.50	3.40	24.51	
2025-01-16 10:43:09.72	3.19	24.33	
2025-01-16 10:43:10.94	2.97	24.15	
2025-01-16 10:43:12.16	2.76	23.97	
2025-01-16 10:43:13.37	2.56	23.79	
2025-01-16 10:43:14.59	2.35	23.61	
2025-01-16 10:43:15.81	2.15	23.43	
2025-01-16 10:43:17.03	1.95	23.26	
2025-01-16 10:43:18.25	1.75	23.08	
2025-01-16 10:43:19.46	1.55	22.91	
2025-01-16 10:43:20.68	1.36	22.73	
2025-01-16 10:43:21.90	1.17	22.56	
2025-01-16 10:43:23.12	0.98	22.39	
2025-01-16 10:43:24.34	0.79	22.22	
2025-01-16 10:43:25.55	0.61	22.05	
2025-01-16 10:43:26.77	0.43	21.88	
2025-01-16 10:43:27.99	0.24	21.71	
2025-01-16 10:43:29.21	0.07	21.54	
2025-01-16 10:43:30.42	359.89	21.38	
2025-01-16 10:43:31.64	359.72	21.21	
2025-01-16 10:43:32.86	359.54	21.05	
2025-01-16 10:43:34.08	359.37	20.88	
2025-01-16 10:43:35.30	359.21	20.72	
2025-01-16 10:43:36.51	359.04	20.56	
2025-01-16 10:43:37.73	358.88	20.40	
2025-01-16 10:43:38.95	358.71	20.24	
2025-01-16 10:43:40.17	358.55	20.08	
2025-01-16 10:43:41.39	358.39	19.92	
2025-01-16 10:43:42.60	358.24	19.76	
2025-01-16 10:43:43.82	358.08	19.61	
2025-01-16 10:43:45.04	357.93	19.45	
2025-01-16 10:43:46.26	357.77	19.30	
2025-01-16 10:43:47.48	357.62	19.14	
2025-01-16 10:43:48.69	357.48	18.99	
2025-01-16 10:43:49.91	357.33	18.84	
2025-01-16 10:43:51.13	357.18	18.69	
2025-01-16 10:43:52.35	357.04	18.53	
2025-01-16 10:43:53.56	356.90	18.39	
2025-01-16 10:43:54.78	356.75	18.24	
2025-01-16 10:43:56.00	356.61	18.09	
2025-01-16 10:43:57.22	356.48	17.94	
2025-01-16 10:43:58.44	356.34	17.79	
2025-01-16 10:43:59.65	356.21	17.65	
2025-01-16 10:44:00.87	356.07	17.50	
2025-01-16 10:44:02.09	355.94	17.36	
2025-01-16 10:44:03.31	355.81	17.21	
2025-01-16 10:44:04.53	355.68	17.07	
2025-01-16 10:44:05.74	355.55	16.93	
2025-01-16 10:44:06.96	355.42	16.79	
2025-01-16 10:44:08.18	355.30	16.65	
2025-01-16 10:44:09.40	355.17	16.51	
2025-01-16 10:44:10.61	355.05	16.37	
2025-01-16 10:44:11.83	354.93	16.23	
2025-01-16 10:44:13.05	354.81	16.09	
2025-01-16 10:44:14.27	354.69	15.96	
2025-01-16 10:44:15.49	354.57	15.82	
2025-01-16 10:44:16.70	354.45	15.69	
2025-01-16 10:44:17.92	354.34	15.55	
2025-01-16 10:44:19.14	354.22	15.42	
2025-01-16 10:44:20.36	354.11	15.28	
2025-01-16 10:44:21.58	354.00	15.15	
2025-01-16 10:44:22.79	353.88	15.02	
2025-01-16 10:44:24.01	353.77	14.89	
2025-01-16 10:44:25.23	353.66	14.76	
2025-01-16 10:44:26.45	353.56	14.63	
2025-01-16 10:44:27.67	353.45	14.50	
2025-01-16 10:44:28.88	353.34	14.37	
2025-01-16 10:44:30.10	353.24	14.24	
2025-01-16 10:44:31.32	353.13	14.12	
2025-01-16 10:44:32.54	353.03	13.99	
2025-01-16 10:44:33.75	352.93	13.86	
2025-01-16 10:44:34.97	352.83	13.74	
2025-01-16 10:44:36.19	352.73	13.61	
2025-01-16 10:44:37.41	352.63	13.49	
2025-01-16 10:44:38.63	352.53	13.37	
2025-01-16 10:44:39.84	352.43	13.24	
2025-01-16 10:44:41.06	352.34	13.12	
2025-01-16 10:44:42.28	352.24	13.00	
2025-01-16 10:44:43.50	352.14	12.88	
2025-01-16 10:44:44.72	352.05	12.76	
2025-01-16 10:44:45.93	351.96	12.64	
2025-01-16 10:44:47.15	351.87	12.52	
2025-01-16 10:44:48.37	351.77	12.40	
2025-01-16 10:44:49.59	351.68	12.28	
2025-01-16 10:44:50.80	351.59	12.16	
2025-01-16 10:44:52.02	351.50	12.05	
2025-01-16 10:44:53.24	351.42	11.93	
2025-01-16 10:44:54.46	351.33	11.81	
2025-01-16 10:44:55.68	351.24	11.70	
2025-01-16 10:44:56.89	351.16	11.58	
2025-01-16 10:44:58.11	351.07	11.47	
2025-01-16 10:44:59.33	350.99	11.36	
2025-01-16 10:45:00.55	350.90	11.24	
2025-01-16 10:45:01.77	350.82	11.13	
2025-01-16 10:45:02.98	350.74	11.02	
2025-01-16 10:45:04.20	350.66	10.91	
2025-01-16 10:45:05.42	350.58	10.80	
2025-01-16 10:45:06.64	350.50	10.68	
2025-01-16 10:45:07.86	350.42	10.57	
2025-01-16 10:45:09.07	350.34	10.46	
2025-01-16 10:45:10.29	350.26	10.36	
2025-01-16 10:45:11.51	350.18	10.25	
2025-01-16 10:45:12.73	350.11	10.14	
2025-01-16 10:45:13.94	350.03	10.03	
2025-01-16 10:45:15.16	349.95	9.92	
2025-01-16 10:45:16.38	349.88	9.82	
2025-01-16 10:45:17.60	349.81	9.71	
2025-01-16 10:45:18.82	349.73	9.60	
2025-01-16 10:45:20.03	349.66	9.50	
2025-01-16 10:45:21.25	349.59	9.39	
2025-01-16 10:45:22.47	349.51	9.29	
2025-01-16 10:45:23.69	349.44	9.18	
2025-01-16 10:45:24.91	349.37	9.08	
2025-01-16 10:45:26.12	349.30	8.98	
2025-01-16 10:45:27.34	349.23	8.87	
2025-01-16 10:45:28.56	349.16	8.77	
2025-01-16 10:45:29.78	349.10	8.67	
2025-01-16 10:45:30.99	349.03	8.57	
2025-01-16 10:45:32.21	348.96	8.47	
2025-01-16 10:45:33.43	348.90	8.37	
2025-01-16 10:45:34.65	348.83	8.27	
2025-01-16 10:45:35.87	348.76	8.17	
2025-01-16 10:45:37.08	348.70	8.07	
2025-01-16 10:45:38.30	348.63	7.97	
2025-01-16 10:45:39.52	348.57	7.87	
2025-01-16 10:45:40.74	348.51	7.77	
2025-01-16 10:45:41.96	348.44	7.67	
2025-01-16 10:45:43.17	348.38	7.57	
2025-01-16 10:45:44.39	348.32	7.48	
2025-01-16 10:45:45.61	348.26	7.38	
2025-01-16 10:45:46.83	348.20	7.28	
2025-01-16 10:45:48.05	348.13	7.19	
2025-01-16 10:45:49.26	348.07	7.09	
2025-01-16 10:45:50.48	348.02	7.00	
2025-01-16 10:45:51.70	347.96	6.90	
2025-01-16 10:45:52.92	347.90	6.81	
2025-01-16 10:45:54.13	347.84	6.71	
2025-01-16 10:45:55.35	347.78	6.62	
2025-01-16 10:45:56.57	347.72	6.53	
2025-01-16 10:45:57.79	347.67	6.43	
2025-01-16 10:45:59.01	347.61	6.34	
2025-01-16 10:46:00.22	347.55	6.25	
2025-01-16 10:46:01.44	347.50	6.15	
2025-01-16 10:46:02.66	347.44	6.06	
2025-01-16 10:46:03.88	347.39	5.97	
2025-01-16 10:46:05.10	347.33	5.88	
2025-01-16 10:46:06.31	347.28	5.79	
2025-01-16 10:46:07.53	347.22	5.70	
2025-01-16 10:46:08.75	347.17	5.61	
2025-01-16 10:46:09.97	347.12	5.52	
2025-01-16 10:46:11.18	347.07	5.43	
2025-01-16 10:46:12.40	347.01	5.34	
2025-01-16 10:46:13.62	346.96	5.25	
2025-01-16 10:46:14.84	346.91	5.16	
2025-01-16 10:46:16.06	346.86	5.07	
2025-01-16 10:46:17.27	346.81	4.99	
2025-01-16 10:46:18.49	346.76	4.90	
2025-01-16 10:46:19.71	346.71	4.81	
2025-01-16 10:46:20.93	346.66	4.72	
2025-01-16 10:46:22.15	346.61	4.64	
2025-01-16 10:46:23.36	346.56	4.55	
2025-01-16 10:46:24.58	346.51	4.46	
2025-01-16 10:46:25.80	346.46	4.38	
2025-01-16 10:46:27.02	346.42	4.29	
2025-01-16 10:46:28.24	346.37	4.21	
2025-01-16 10:46:29.45	346.32	4.12	
2025-01-16 10:46:30.67	346.27	4.04	

#Closed at: 2025-01-16 10:46:31