passes_logs/2025/01/16/SPB_Silybum_02/SPB_Silybum_02__20250116_163929_TERRA_rec.log

#Pass ID: 20250116_163929_TERRA
#Satellite: TERRA
#Configuration: TERRA
#Start time: 2025-01-16 16:39:27

#Version: 2.0.20230423
#Station: SPB_Silybum_02
#Location: 30.233357 lon 59.946436 lat
#TLE: 1 25994U 99068A   25015.81469206  .00000761  00000+0  16641-3 0  9994
#TLE: 2 25994  98.0214  78.8192 0003429  70.9720  38.3229 14.60396307334199

#Time	Az	El	Level	Level2	SNR	BER	Gain	Gain2
2025-01-16 16:39:29.95	103.65	4.05	
2025-01-16 16:39:30.97	103.56	4.11	
2025-01-16 16:39:31.98	103.47	4.17	
2025-01-16 16:39:33.00	103.37	4.23	
2025-01-16 16:39:34.01	103.28	4.29	
2025-01-16 16:39:35.03	103.19	4.35	
2025-01-16 16:39:36.05	103.09	4.41	
2025-01-16 16:39:37.06	103.00	4.48	
2025-01-16 16:39:38.08	102.90	4.54	
2025-01-16 16:39:39.09	102.80	4.60	
2025-01-16 16:39:40.11	102.71	4.66	
2025-01-16 16:39:41.12	102.61	4.72	
2025-01-16 16:39:42.14	102.51	4.78	
2025-01-16 16:39:43.15	102.41	4.85	
2025-01-16 16:39:44.17	102.32	4.91	
2025-01-16 16:39:45.18	102.22	4.97	
2025-01-16 16:39:46.20	102.12	5.03	
2025-01-16 16:39:47.22	102.02	5.10	
2025-01-16 16:39:48.23	101.92	5.16	
2025-01-16 16:39:49.25	101.82	5.22	
2025-01-16 16:39:50.26	101.71	5.28	
2025-01-16 16:39:51.28	101.61	5.35	
2025-01-16 16:39:52.29	101.51	5.41	
2025-01-16 16:39:53.31	101.41	5.47	
2025-01-16 16:39:54.32	101.30	5.54	
2025-01-16 16:39:55.34	101.20	5.60	
2025-01-16 16:39:56.35	101.10	5.66	
2025-01-16 16:39:57.37	100.99	5.73	
2025-01-16 16:39:58.38	100.89	5.79	
2025-01-16 16:39:59.40	100.78	5.85	
2025-01-16 16:40:00.42	100.67	5.92	
2025-01-16 16:40:01.43	100.57	5.98	
2025-01-16 16:40:02.45	100.46	6.04	
2025-01-16 16:40:03.46	100.35	6.11	
2025-01-16 16:40:04.48	100.24	6.17	
2025-01-16 16:40:05.49	100.13	6.24	
2025-01-16 16:40:06.51	100.02	6.30	
2025-01-16 16:40:07.52	99.91	6.36	
2025-01-16 16:40:08.54	99.80	6.43	
2025-01-16 16:40:09.55	99.69	6.49	
2025-01-16 16:40:10.57	99.58	6.56	
2025-01-16 16:40:11.59	99.47	6.62	
2025-01-16 16:40:12.60	99.35	6.69	
2025-01-16 16:40:13.62	99.24	6.75	
2025-01-16 16:40:14.63	99.13	6.82	
2025-01-16 16:40:15.65	99.01	6.88	
2025-01-16 16:40:16.66	98.90	6.95	
2025-01-16 16:40:17.68	98.78	7.01	
2025-01-16 16:40:18.69	98.66	7.08	
2025-01-16 16:40:19.71	98.55	7.14	
2025-01-16 16:40:20.72	98.43	7.21	
2025-01-16 16:40:21.74	98.31	7.27	
2025-01-16 16:40:22.76	98.19	7.34	
2025-01-16 16:40:23.77	98.07	7.40	
2025-01-16 16:40:24.79	97.95	7.47	
2025-01-16 16:40:25.80	97.83	7.53	
2025-01-16 16:40:26.82	97.71	7.60	
2025-01-16 16:40:27.83	97.59	7.66	
2025-01-16 16:40:28.85	97.47	7.73	
2025-01-16 16:40:29.86	97.35	7.80	
2025-01-16 16:40:30.88	97.22	7.86	
2025-01-16 16:40:31.89	97.10	7.93	
2025-01-16 16:40:32.91	96.97	8.00	
2025-01-16 16:40:33.92	96.85	8.06	
2025-01-16 16:40:34.94	96.72	8.13	
2025-01-16 16:40:35.96	96.60	8.19	
2025-01-16 16:40:36.97	96.47	8.26	
2025-01-16 16:40:37.99	96.34	8.33	
2025-01-16 16:40:39.00	96.21	8.39	
2025-01-16 16:40:40.02	96.08	8.46	
2025-01-16 16:40:41.03	95.95	8.53	
2025-01-16 16:40:42.05	95.82	8.59	
2025-01-16 16:40:43.06	95.69	8.66	
2025-01-16 16:40:44.08	95.56	8.73	
2025-01-16 16:40:45.09	95.43	8.79	
2025-01-16 16:40:46.11	95.29	8.86	
2025-01-16 16:40:47.13	95.16	8.93	
2025-01-16 16:40:48.14	95.03	9.00	
2025-01-16 16:40:49.16	94.89	9.06	
2025-01-16 16:40:50.17	94.76	9.13	
2025-01-16 16:40:51.19	94.62	9.20	
2025-01-16 16:40:52.20	94.48	9.26	
2025-01-16 16:40:53.22	94.34	9.33	
2025-01-16 16:40:54.23	94.20	9.40	
2025-01-16 16:40:55.25	94.06	9.47	
2025-01-16 16:40:56.26	93.93	9.53	
2025-01-16 16:40:57.28	93.78	9.60	
2025-01-16 16:40:58.29	93.64	9.67	
2025-01-16 16:40:59.31	93.50	9.74	
2025-01-16 16:41:00.33	93.36	9.81	
2025-01-16 16:41:01.34	93.21	9.87	
2025-01-16 16:41:02.36	93.07	9.94	
2025-01-16 16:41:03.37	92.92	10.01	
2025-01-16 16:41:04.39	92.78	10.08	
2025-01-16 16:41:05.40	92.63	10.14	
2025-01-16 16:41:06.42	92.48	10.21	
2025-01-16 16:41:07.43	92.34	10.28	
2025-01-16 16:41:08.45	92.19	10.35	
2025-01-16 16:41:09.46	92.04	10.42	
2025-01-16 16:41:10.48	91.89	10.48	
2025-01-16 16:41:11.50	91.74	10.55	
2025-01-16 16:41:12.51	91.58	10.62	
2025-01-16 16:41:13.53	91.43	10.69	
2025-01-16 16:41:14.54	91.28	10.76	
2025-01-16 16:41:15.56	91.12	10.83	
2025-01-16 16:41:16.57	90.97	10.89	
2025-01-16 16:41:17.59	90.81	10.96	
2025-01-16 16:41:18.60	90.66	11.03	
2025-01-16 16:41:19.62	90.50	11.10	
2025-01-16 16:41:20.63	90.34	11.17	
2025-01-16 16:41:21.65	90.18	11.23	
2025-01-16 16:41:22.66	90.02	11.30	
2025-01-16 16:41:23.68	89.86	11.37	
2025-01-16 16:41:24.70	89.70	11.44	
2025-01-16 16:41:25.71	89.54	11.51	
2025-01-16 16:41:26.73	89.37	11.58	
2025-01-16 16:41:27.74	89.21	11.64	
2025-01-16 16:41:28.76	89.05	11.71	
2025-01-16 16:41:29.77	88.88	11.78	
2025-01-16 16:41:30.79	88.71	11.85	
2025-01-16 16:41:31.80	88.55	11.92	
2025-01-16 16:41:32.82	88.38	11.99	
2025-01-16 16:41:33.83	88.21	12.05	
2025-01-16 16:41:34.85	88.04	12.12	
2025-01-16 16:41:35.87	87.87	12.19	
2025-01-16 16:41:36.88	87.70	12.26	
2025-01-16 16:41:37.90	87.52	12.33	
2025-01-16 16:41:38.91	87.35	12.39	
2025-01-16 16:41:39.93	87.18	12.46	
2025-01-16 16:41:40.94	87.00	12.53	
2025-01-16 16:41:41.96	86.83	12.60	
2025-01-16 16:41:42.97	86.65	12.67	
2025-01-16 16:41:43.99	86.47	12.74	
2025-01-16 16:41:45.00	86.29	12.80	
2025-01-16 16:41:46.02	86.11	12.87	
2025-01-16 16:41:47.03	85.93	12.94	
2025-01-16 16:41:48.05	85.75	13.01	
2025-01-16 16:41:49.07	85.57	13.07	
2025-01-16 16:41:50.08	85.39	13.14	
2025-01-16 16:41:51.10	85.20	13.21	
2025-01-16 16:41:52.11	85.02	13.28	
2025-01-16 16:41:53.13	84.83	13.34	
2025-01-16 16:41:54.14	84.65	13.41	
2025-01-16 16:41:55.16	84.46	13.48	
2025-01-16 16:41:56.17	84.27	13.54	
2025-01-16 16:41:57.19	84.08	13.61	
2025-01-16 16:41:58.20	83.89	13.68	
2025-01-16 16:41:59.22	83.70	13.75	
2025-01-16 16:42:00.24	83.51	13.81	
2025-01-16 16:42:01.25	83.31	13.88	
2025-01-16 16:42:02.27	83.12	13.95	
2025-01-16 16:42:03.28	82.92	14.01	
2025-01-16 16:42:04.30	82.73	14.08	
2025-01-16 16:42:05.31	82.53	14.14	
2025-01-16 16:42:06.33	82.33	14.21	
2025-01-16 16:42:07.34	82.14	14.28	
2025-01-16 16:42:08.36	81.93	14.34	
2025-01-16 16:42:09.37	81.74	14.41	
2025-01-16 16:42:10.39	81.53	14.47	
2025-01-16 16:42:11.40	81.33	14.54	
2025-01-16 16:42:12.42	81.13	14.60	
2025-01-16 16:42:13.44	80.92	14.67	
2025-01-16 16:42:14.45	80.72	14.73	
2025-01-16 16:42:15.47	80.51	14.80	
2025-01-16 16:42:16.48	80.30	14.86	
2025-01-16 16:42:17.50	80.09	14.93	
2025-01-16 16:42:18.51	79.89	14.99	
2025-01-16 16:42:19.53	79.67	15.06	
2025-01-16 16:42:20.54	79.46	15.12	
2025-01-16 16:42:21.56	79.25	15.18	
2025-01-16 16:42:22.57	79.04	15.25	
2025-01-16 16:42:23.59	78.82	15.31	
2025-01-16 16:42:24.61	78.61	15.37	
2025-01-16 16:42:25.62	78.39	15.44	
2025-01-16 16:42:26.64	78.17	15.50	
2025-01-16 16:42:27.65	77.96	15.56	
2025-01-16 16:42:28.67	77.74	15.62	
2025-01-16 16:42:29.68	77.52	15.68	
2025-01-16 16:42:30.70	77.30	15.75	
2025-01-16 16:42:31.71	77.07	15.81	
2025-01-16 16:42:32.73	76.85	15.87	
2025-01-16 16:42:33.74	76.63	15.93	
2025-01-16 16:42:34.76	76.40	15.99	
2025-01-16 16:42:35.77	76.18	16.05	
2025-01-16 16:42:36.79	75.95	16.11	
2025-01-16 16:42:37.81	75.72	16.17	
2025-01-16 16:42:38.82	75.49	16.23	
2025-01-16 16:42:39.84	75.26	16.29	
2025-01-16 16:42:40.85	75.03	16.35	
2025-01-16 16:42:41.87	74.80	16.41	
2025-01-16 16:42:42.88	74.57	16.47	
2025-01-16 16:42:43.90	74.33	16.53	
2025-01-16 16:42:44.91	74.10	16.58	
2025-01-16 16:42:45.93	73.86	16.64	
2025-01-16 16:42:46.94	73.63	16.70	
2025-01-16 16:42:47.96	73.39	16.75	
2025-01-16 16:42:48.98	73.15	16.81	
2025-01-16 16:42:49.99	72.91	16.87	
2025-01-16 16:42:51.01	72.67	16.92	
2025-01-16 16:42:52.02	72.43	16.98	
2025-01-16 16:42:53.04	72.19	17.03	
2025-01-16 16:42:54.05	71.94	17.09	
2025-01-16 16:42:55.07	71.70	17.14	
2025-01-16 16:42:56.08	71.46	17.20	
2025-01-16 16:42:57.10	71.21	17.25	
2025-01-16 16:42:58.11	70.96	17.30	
2025-01-16 16:42:59.13	70.71	17.36	
2025-01-16 16:43:00.14	70.47	17.41	
2025-01-16 16:43:01.16	70.22	17.46	
2025-01-16 16:43:02.18	69.96	17.51	
2025-01-16 16:43:03.19	69.71	17.56	
2025-01-16 16:43:04.21	69.46	17.62	
2025-01-16 16:43:05.22	69.21	17.67	
2025-01-16 16:43:06.24	68.95	17.72	
2025-01-16 16:43:07.25	68.70	17.76	
2025-01-16 16:43:08.27	68.44	17.81	
2025-01-16 16:43:09.28	68.19	17.86	
2025-01-16 16:43:10.30	67.93	17.91	
2025-01-16 16:43:11.31	67.67	17.96	
2025-01-16 16:43:12.33	67.41	18.01	
2025-01-16 16:43:13.35	67.15	18.05	
2025-01-16 16:43:14.36	66.89	18.10	
2025-01-16 16:43:15.38	66.63	18.14	
2025-01-16 16:43:16.39	66.36	18.19	
2025-01-16 16:43:17.41	66.10	18.23	
2025-01-16 16:43:18.42	65.84	18.28	
2025-01-16 16:43:19.44	65.57	18.32	
2025-01-16 16:43:20.45	65.30	18.36	
2025-01-16 16:43:21.47	65.04	18.41	
2025-01-16 16:43:22.48	64.77	18.45	
2025-01-16 16:43:23.50	64.50	18.49	
2025-01-16 16:43:24.52	64.23	18.53	
2025-01-16 16:43:25.53	63.96	18.57	
2025-01-16 16:43:26.55	63.69	18.61	
2025-01-16 16:43:27.56	63.42	18.65	
2025-01-16 16:43:28.58	63.15	18.69	
2025-01-16 16:43:29.59	62.87	18.73	
2025-01-16 16:43:30.61	62.60	18.77	
2025-01-16 16:43:31.62	62.33	18.80	
2025-01-16 16:43:32.64	62.05	18.84	
2025-01-16 16:43:33.65	61.78	18.87	
2025-01-16 16:43:34.67	61.50	18.91	
2025-01-16 16:43:35.68	61.22	18.94	
2025-01-16 16:43:36.70	60.94	18.98	
2025-01-16 16:43:37.72	60.66	19.01	
2025-01-16 16:43:38.73	60.39	19.04	
2025-01-16 16:43:39.75	60.11	19.08	
2025-01-16 16:43:40.76	59.83	19.11	
2025-01-16 16:43:41.78	59.54	19.14	
2025-01-16 16:43:42.79	59.26	19.17	
2025-01-16 16:43:43.81	58.98	19.20	
2025-01-16 16:43:44.82	58.70	19.23	
2025-01-16 16:43:45.84	58.42	19.26	
2025-01-16 16:43:46.85	58.13	19.28	
2025-01-16 16:43:47.87	57.85	19.31	
2025-01-16 16:43:48.89	57.56	19.34	
2025-01-16 16:43:49.90	57.28	19.36	
2025-01-16 16:43:50.92	56.99	19.39	
2025-01-16 16:43:51.93	56.71	19.41	
2025-01-16 16:43:52.95	56.42	19.43	
2025-01-16 16:43:53.96	56.13	19.46	
2025-01-16 16:43:54.98	55.84	19.48	
2025-01-16 16:43:55.99	55.56	19.50	
2025-01-16 16:43:57.01	55.27	19.52	
2025-01-16 16:43:58.02	54.98	19.54	
2025-01-16 16:43:59.04	54.69	19.56	
2025-01-16 16:44:00.05	54.40	19.58	
2025-01-16 16:44:01.07	54.11	19.60	
2025-01-16 16:44:02.09	53.82	19.61	
2025-01-16 16:44:03.10	53.53	19.63	
2025-01-16 16:44:04.12	53.24	19.64	
2025-01-16 16:44:05.13	52.95	19.66	
2025-01-16 16:44:06.15	52.66	19.67	
2025-01-16 16:44:07.16	52.37	19.69	
2025-01-16 16:44:08.18	52.07	19.70	
2025-01-16 16:44:09.19	51.78	19.71	
2025-01-16 16:44:10.21	51.49	19.72	
2025-01-16 16:44:11.22	51.20	19.73	
2025-01-16 16:44:12.24	50.90	19.74	
2025-01-16 16:44:13.26	50.61	19.75	
2025-01-16 16:44:14.27	50.32	19.76	
2025-01-16 16:44:15.29	50.02	19.77	
2025-01-16 16:44:16.30	49.73	19.77	
2025-01-16 16:44:17.32	49.43	19.78	
2025-01-16 16:44:18.33	49.14	19.79	
2025-01-16 16:44:19.35	48.85	19.79	
2025-01-16 16:44:20.36	48.55	19.79	
2025-01-16 16:44:21.38	48.26	19.80	
2025-01-16 16:44:22.39	47.97	19.80	
2025-01-16 16:44:23.41	47.67	19.80	
2025-01-16 16:44:24.42	47.38	19.80	
2025-01-16 16:44:25.44	47.08	19.80	
2025-01-16 16:44:26.46	46.79	19.80	
2025-01-16 16:44:27.47	46.49	19.80	
2025-01-16 16:44:28.49	46.20	19.80	
2025-01-16 16:44:29.50	45.91	19.79	
2025-01-16 16:44:30.52	45.61	19.79	
2025-01-16 16:44:31.53	45.32	19.78	
2025-01-16 16:44:32.55	45.02	19.78	
2025-01-16 16:44:33.56	44.73	19.77	
2025-01-16 16:44:34.58	44.44	19.77	
2025-01-16 16:44:35.59	44.15	19.76	
2025-01-16 16:44:36.61	43.85	19.75	
2025-01-16 16:44:37.63	43.56	19.74	
2025-01-16 16:44:38.64	43.27	19.73	
2025-01-16 16:44:39.66	42.97	19.72	
2025-01-16 16:44:40.67	42.68	19.71	
2025-01-16 16:44:41.69	42.39	19.70	
2025-01-16 16:44:42.70	42.10	19.68	
2025-01-16 16:44:43.72	41.81	19.67	
2025-01-16 16:44:44.73	41.52	19.66	
2025-01-16 16:44:45.75	41.22	19.64	
2025-01-16 16:44:46.76	40.93	19.63	
2025-01-16 16:44:47.78	40.64	19.61	
2025-01-16 16:44:48.79	40.35	19.59	
2025-01-16 16:44:49.81	40.06	19.57	
2025-01-16 16:44:50.83	39.77	19.55	
2025-01-16 16:44:51.84	39.49	19.54	
2025-01-16 16:44:52.86	39.20	19.52	
2025-01-16 16:44:53.87	38.91	19.49	
2025-01-16 16:44:54.89	38.62	19.47	
2025-01-16 16:44:55.90	38.34	19.45	
2025-01-16 16:44:56.92	38.05	19.43	
2025-01-16 16:44:57.93	37.76	19.40	
2025-01-16 16:44:58.95	37.48	19.38	
2025-01-16 16:44:59.96	37.19	19.36	
2025-01-16 16:45:00.98	36.91	19.33	
2025-01-16 16:45:02.00	36.62	19.30	
2025-01-16 16:45:03.01	36.34	19.28	
2025-01-16 16:45:04.03	36.05	19.25	
2025-01-16 16:45:05.04	35.77	19.22	
2025-01-16 16:45:06.06	35.49	19.19	
2025-01-16 16:45:07.07	35.21	19.16	
2025-01-16 16:45:08.09	34.93	19.13	
2025-01-16 16:45:09.10	34.65	19.10	
2025-01-16 16:45:10.12	34.37	19.07	
2025-01-16 16:45:11.13	34.09	19.04	
2025-01-16 16:45:12.15	33.81	19.00	
2025-01-16 16:45:13.16	33.54	18.97	
2025-01-16 16:45:14.18	33.26	18.94	
2025-01-16 16:45:15.20	32.98	18.90	
2025-01-16 16:45:16.21	32.71	18.87	
2025-01-16 16:45:17.23	32.43	18.83	
2025-01-16 16:45:18.24	32.16	18.79	
2025-01-16 16:45:19.26	31.88	18.76	
2025-01-16 16:45:20.27	31.61	18.72	
2025-01-16 16:45:21.29	31.34	18.68	
2025-01-16 16:45:22.30	31.07	18.64	
2025-01-16 16:45:23.32	30.80	18.60	
2025-01-16 16:45:24.33	30.53	18.56	
2025-01-16 16:45:25.35	30.26	18.52	
2025-01-16 16:45:26.37	29.99	18.48	
2025-01-16 16:45:27.38	29.72	18.44	
2025-01-16 16:45:28.40	29.45	18.40	
2025-01-16 16:45:29.41	29.19	18.36	
2025-01-16 16:45:30.43	28.92	18.31	
2025-01-16 16:45:31.44	28.66	18.27	
2025-01-16 16:45:32.46	28.39	18.23	
2025-01-16 16:45:33.47	28.13	18.18	
2025-01-16 16:45:34.49	27.87	18.14	
2025-01-16 16:45:35.50	27.61	18.09	
2025-01-16 16:45:36.52	27.35	18.04	
2025-01-16 16:45:37.53	27.09	18.00	
2025-01-16 16:45:38.55	26.83	17.95	
2025-01-16 16:45:39.57	26.57	17.90	
2025-01-16 16:45:40.58	26.32	17.85	
2025-01-16 16:45:41.60	26.06	17.81	
2025-01-16 16:45:42.61	25.81	17.76	
2025-01-16 16:45:43.63	25.55	17.71	
2025-01-16 16:45:44.64	25.30	17.66	
2025-01-16 16:45:45.66	25.05	17.61	
2025-01-16 16:45:46.67	24.80	17.56	
2025-01-16 16:45:47.69	24.55	17.51	
2025-01-16 16:45:48.70	24.30	17.45	
2025-01-16 16:45:49.72	24.05	17.40	
2025-01-16 16:45:50.74	23.80	17.35	
2025-01-16 16:45:51.75	23.55	17.30	
2025-01-16 16:45:52.77	23.31	17.24	
2025-01-16 16:45:53.78	23.06	17.19	
2025-01-16 16:45:54.80	22.82	17.14	
2025-01-16 16:45:55.81	22.58	17.08	
2025-01-16 16:45:56.83	22.33	17.03	
2025-01-16 16:45:57.84	22.09	16.97	
2025-01-16 16:45:58.86	21.85	16.92	
2025-01-16 16:45:59.87	21.61	16.86	
2025-01-16 16:46:00.89	21.37	16.80	
2025-01-16 16:46:01.90	21.14	16.75	
2025-01-16 16:46:02.92	20.90	16.69	
2025-01-16 16:46:03.94	20.66	16.63	
2025-01-16 16:46:04.95	20.43	16.58	
2025-01-16 16:46:05.97	20.20	16.52	
2025-01-16 16:46:06.98	19.97	16.46	
2025-01-16 16:46:08.00	19.73	16.40	
2025-01-16 16:46:09.01	19.50	16.34	
2025-01-16 16:46:10.03	19.27	16.28	
2025-01-16 16:46:11.04	19.05	16.23	
2025-01-16 16:46:12.06	18.82	16.17	
2025-01-16 16:46:13.07	18.59	16.11	
2025-01-16 16:46:14.09	18.36	16.05	
2025-01-16 16:46:15.11	18.14	15.99	
2025-01-16 16:46:16.12	17.92	15.93	
2025-01-16 16:46:17.14	17.69	15.86	
2025-01-16 16:46:18.15	17.47	15.80	
2025-01-16 16:46:19.17	17.25	15.74	
2025-01-16 16:46:20.18	17.03	15.68	
2025-01-16 16:46:21.20	16.81	15.62	
2025-01-16 16:46:22.21	16.60	15.56	
2025-01-16 16:46:23.23	16.38	15.49	
2025-01-16 16:46:24.24	16.16	15.43	
2025-01-16 16:46:25.26	15.95	15.37	
2025-01-16 16:46:26.28	15.73	15.31	
2025-01-16 16:46:27.29	15.52	15.24	
2025-01-16 16:46:28.31	15.31	15.18	
2025-01-16 16:46:29.32	15.10	15.12	
2025-01-16 16:46:30.34	14.89	15.05	
2025-01-16 16:46:31.35	14.68	14.99	
2025-01-16 16:46:32.37	14.47	14.93	
2025-01-16 16:46:33.38	14.26	14.86	
2025-01-16 16:46:34.40	14.06	14.80	
2025-01-16 16:46:35.41	13.85	14.73	
2025-01-16 16:46:36.43	13.65	14.67	
2025-01-16 16:46:37.44	13.44	14.60	
2025-01-16 16:46:38.46	13.24	14.54	
2025-01-16 16:46:39.48	13.04	14.47	
2025-01-16 16:46:40.49	12.84	14.41	
2025-01-16 16:46:41.51	12.64	14.34	
2025-01-16 16:46:42.52	12.44	14.28	
2025-01-16 16:46:43.54	12.24	14.21	
2025-01-16 16:46:44.55	12.05	14.15	
2025-01-16 16:46:45.57	11.85	14.08	
2025-01-16 16:46:46.58	11.66	14.01	
2025-01-16 16:46:47.60	11.46	13.95	
2025-01-16 16:46:48.61	11.27	13.88	
2025-01-16 16:46:49.63	11.08	13.81	
2025-01-16 16:46:50.65	10.89	13.75	
2025-01-16 16:46:51.66	10.70	13.68	
2025-01-16 16:46:52.68	10.51	13.61	
2025-01-16 16:46:53.69	10.32	13.55	
2025-01-16 16:46:54.71	10.13	13.48	
2025-01-16 16:46:55.72	9.95	13.41	
2025-01-16 16:46:56.74	9.76	13.35	
2025-01-16 16:46:57.75	9.58	13.28	
2025-01-16 16:46:58.77	9.39	13.21	
2025-01-16 16:46:59.78	9.21	13.15	
2025-01-16 16:47:00.81	9.03	13.08	
2025-01-16 16:47:01.83	8.85	13.01	
2025-01-16 16:47:02.85	8.66	12.94	
2025-01-16 16:47:03.86	8.49	12.88	
2025-01-16 16:47:04.88	8.31	12.81	
2025-01-16 16:47:05.89	8.13	12.74	
2025-01-16 16:47:06.91	7.95	12.67	
2025-01-16 16:47:07.92	7.78	12.61	
2025-01-16 16:47:08.94	7.60	12.54	
2025-01-16 16:47:09.95	7.43	12.47	
2025-01-16 16:47:10.97	7.26	12.40	
2025-01-16 16:47:11.98	7.09	12.33	
2025-01-16 16:47:13.00	6.91	12.27	
2025-01-16 16:47:14.02	6.74	12.20	
2025-01-16 16:47:15.03	6.57	12.13	
2025-01-16 16:47:16.05	6.41	12.06	
2025-01-16 16:47:17.06	6.24	11.99	
2025-01-16 16:47:18.08	6.07	11.93	
2025-01-16 16:47:19.09	5.91	11.86	
2025-01-16 16:47:20.11	5.74	11.79	
2025-01-16 16:47:21.12	5.58	11.72	
2025-01-16 16:47:22.14	5.41	11.65	
2025-01-16 16:47:23.15	5.25	11.59	
2025-01-16 16:47:24.17	5.09	11.52	
2025-01-16 16:47:25.18	4.93	11.45	
2025-01-16 16:47:26.20	4.77	11.38	
2025-01-16 16:47:27.22	4.61	11.31	
2025-01-16 16:47:28.23	4.45	11.25	
2025-01-16 16:47:29.25	4.29	11.18	
2025-01-16 16:47:30.26	4.13	11.11	
2025-01-16 16:47:31.28	3.98	11.04	
2025-01-16 16:47:32.29	3.82	10.97	
2025-01-16 16:47:33.31	3.67	10.91	
2025-01-16 16:47:34.32	3.51	10.84	
2025-01-16 16:47:35.34	3.36	10.77	
2025-01-16 16:47:36.35	3.21	10.70	
2025-01-16 16:47:37.37	3.06	10.63	
2025-01-16 16:47:38.39	2.91	10.57	
2025-01-16 16:47:39.40	2.76	10.50	
2025-01-16 16:47:40.42	2.61	10.43	
2025-01-16 16:47:41.43	2.46	10.36	
2025-01-16 16:47:42.45	2.31	10.30	
2025-01-16 16:47:43.46	2.16	10.23	
2025-01-16 16:47:44.48	2.02	10.16	
2025-01-16 16:47:45.49	1.87	10.09	
2025-01-16 16:47:46.51	1.73	10.02	
2025-01-16 16:47:47.52	1.58	9.96	
2025-01-16 16:47:48.54	1.44	9.89	
2025-01-16 16:47:49.56	1.30	9.82	
2025-01-16 16:47:50.57	1.16	9.76	
2025-01-16 16:47:51.59	1.02	9.69	
2025-01-16 16:47:52.60	0.88	9.62	
2025-01-16 16:47:53.62	0.74	9.55	
2025-01-16 16:47:54.63	0.60	9.49	
2025-01-16 16:47:55.65	0.46	9.42	
2025-01-16 16:47:56.66	0.32	9.35	
2025-01-16 16:47:57.68	0.18	9.28	
2025-01-16 16:47:58.69	0.05	9.22	
2025-01-16 16:47:59.71	359.91	9.15	
2025-01-16 16:48:00.72	359.78	9.08	
2025-01-16 16:48:01.74	359.64	9.02	
2025-01-16 16:48:02.76	359.51	8.95	
2025-01-16 16:48:03.77	359.38	8.88	
2025-01-16 16:48:04.79	359.25	8.82	
2025-01-16 16:48:05.80	359.12	8.75	
2025-01-16 16:48:06.82	358.98	8.68	
2025-01-16 16:48:07.83	358.85	8.62	
2025-01-16 16:48:08.85	358.73	8.55	
2025-01-16 16:48:09.86	358.60	8.48	
2025-01-16 16:48:10.88	358.47	8.42	
2025-01-16 16:48:11.89	358.34	8.35	
2025-01-16 16:48:12.91	358.21	8.28	
2025-01-16 16:48:13.93	358.09	8.22	
2025-01-16 16:48:14.94	357.96	8.15	
2025-01-16 16:48:15.96	357.84	8.09	
2025-01-16 16:48:16.97	357.71	8.02	
2025-01-16 16:48:17.99	357.59	7.95	
2025-01-16 16:48:19.00	357.47	7.89	
2025-01-16 16:48:20.02	357.35	7.82	
2025-01-16 16:48:21.03	357.22	7.76	
2025-01-16 16:48:22.05	357.10	7.69	
2025-01-16 16:48:23.06	356.98	7.63	
2025-01-16 16:48:24.08	356.86	7.56	
2025-01-16 16:48:25.09	356.74	7.50	
2025-01-16 16:48:26.11	356.62	7.43	
2025-01-16 16:48:27.13	356.51	7.36	
2025-01-16 16:48:28.14	356.39	7.30	
2025-01-16 16:48:29.16	356.27	7.23	
2025-01-16 16:48:30.17	356.16	7.17	
2025-01-16 16:48:31.19	356.04	7.10	
2025-01-16 16:48:32.20	355.92	7.04	
2025-01-16 16:48:33.22	355.81	6.97	
2025-01-16 16:48:34.23	355.70	6.91	
2025-01-16 16:48:35.25	355.58	6.85	
2025-01-16 16:48:36.26	355.47	6.78	
2025-01-16 16:48:37.28	355.36	6.72	
2025-01-16 16:48:38.30	355.25	6.65	
2025-01-16 16:48:39.31	355.13	6.59	
2025-01-16 16:48:40.33	355.02	6.52	
2025-01-16 16:48:41.34	354.91	6.46	
2025-01-16 16:48:42.36	354.80	6.40	
2025-01-16 16:48:43.37	354.70	6.33	
2025-01-16 16:48:44.39	354.59	6.27	
2025-01-16 16:48:45.40	354.48	6.20	
2025-01-16 16:48:46.42	354.37	6.14	
2025-01-16 16:48:47.43	354.26	6.08	
2025-01-16 16:48:48.45	354.16	6.01	
2025-01-16 16:48:49.46	354.05	5.95	
2025-01-16 16:48:50.48	353.95	5.89	
2025-01-16 16:48:51.50	353.84	5.82	
2025-01-16 16:48:52.51	353.74	5.76	
2025-01-16 16:48:53.53	353.63	5.70	
2025-01-16 16:48:54.54	353.53	5.63	
2025-01-16 16:48:55.56	353.43	5.57	
2025-01-16 16:48:56.57	353.33	5.51	
2025-01-16 16:48:57.59	353.22	5.45	
2025-01-16 16:48:58.60	353.12	5.38	
2025-01-16 16:48:59.62	353.02	5.32	
2025-01-16 16:49:00.63	352.92	5.26	
2025-01-16 16:49:01.65	352.82	5.19	
2025-01-16 16:49:02.67	352.72	5.13	
2025-01-16 16:49:03.68	352.62	5.07	
2025-01-16 16:49:04.70	352.52	5.01	
2025-01-16 16:49:05.71	352.43	4.95	
2025-01-16 16:49:06.73	352.33	4.88	
2025-01-16 16:49:07.74	352.23	4.82	
2025-01-16 16:49:08.76	352.14	4.76	
2025-01-16 16:49:09.77	352.04	4.70	
2025-01-16 16:49:10.79	351.94	4.64	
2025-01-16 16:49:11.80	351.85	4.58	
2025-01-16 16:49:12.82	351.75	4.51	
2025-01-16 16:49:13.83	351.66	4.45	
2025-01-16 16:49:14.85	351.57	4.39	
2025-01-16 16:49:15.87	351.47	4.33	
2025-01-16 16:49:16.88	351.38	4.27	
2025-01-16 16:49:17.90	351.29	4.21	
2025-01-16 16:49:18.91	351.20	4.15	
2025-01-16 16:49:19.93	351.10	4.09	
2025-01-16 16:49:20.94	351.01	4.03	

#Closed at: 2025-01-16 16:49:21