passes_logs/2025/01/20/LEX_Murmansk/LEX_Murmansk__20250120_082309_NOAA_18_rec.log

#Pass ID: 20250120_082309_NOAA 18
#Satellite: NOAA 18
#Configuration: NOAA 18
#Start time: 2025-01-20 08:23:04.528218

#LorettStation: 1.0.0 05.05.2024
#Station: LEX_Murmansk
#Location: 33.156738 lon 68.926811 lat
#TLE: 1 28654U 05018A   25019.12683114  .00000403  00000+0  23745-3 0  9992
#TLE: 2 28654  98.8559 100.1402 0014536 167.7337 192.4191 14.13490232 13765

#Time	Az	El	Level	SNR
2025-01-20 08:23:16.781614	34.9	16.1	-91.2	7.6
2025-01-20 08:23:17.931022	35.0	16.2	-91.4	3.9
2025-01-20 08:23:19.077791	35.2	16.3	-91.1	3.1
2025-01-20 08:23:20.227180	35.3	16.4	-91.2	4.2
2025-01-20 08:23:21.380525	35.5	16.5	-91.4	5.7
2025-01-20 08:23:22.527239	35.6	16.6	-91.4	4.4
2025-01-20 08:23:23.675054	35.7	16.7	-91.4	3.2
2025-01-20 08:23:24.819015	35.9	16.8	-90.2	4.1
2025-01-20 08:23:25.965837	36.0	16.9	-91.2	5.6
2025-01-20 08:23:27.113204	36.2	17.0	-91.3	5.8
2025-01-20 08:23:28.260827	36.3	17.1	-91.2	2.2
2025-01-20 08:23:29.412344	36.5	17.3	-91.4	7.9
2025-01-20 08:23:30.558522	36.6	17.4	-91.6	3.8
2025-01-20 08:23:31.705898	36.8	17.5	-91.3	8.1
2025-01-20 08:23:32.856229	36.9	17.6	-91.4	5.3
2025-01-20 08:23:34.007770	37.1	17.7	-91.5	6.8
2025-01-20 08:23:35.154603	37.3	17.8	-91.2	5.5
2025-01-20 08:23:36.301989	37.4	17.9	-91.3	5.8
2025-01-20 08:23:37.453357	37.6	18.0	-90.7	4.5
2025-01-20 08:23:38.600340	37.7	18.1	-91.3	3.3
2025-01-20 08:23:39.743788	37.9	18.2	-91.2	5.9
2025-01-20 08:23:40.893433	38.0	18.3	-91.2	1.8
2025-01-20 08:23:42.040412	38.2	18.4	-91.4	8.7
2025-01-20 08:23:43.190162	38.4	18.6	-91.2	9.1
2025-01-20 08:23:44.345867	38.5	18.7	-91.1	11.7
2025-01-20 08:23:45.501984	38.7	18.8	-90.6	8.6
2025-01-20 08:23:46.650638	38.9	18.9	-91.4	9.3
2025-01-20 08:23:47.798794	39.0	19.0	-91.3	10.9
2025-01-20 08:23:48.945054	39.2	19.1	-90.9	8.4
2025-01-20 08:23:50.096338	39.4	19.2	-91.3	8.1
2025-01-20 08:23:51.253147	39.6	19.3	-90.8	11.1
2025-01-20 08:23:52.401992	39.7	19.4	-91.0	10.7
2025-01-20 08:23:53.549680	39.9	19.6	-91.1	8.4
2025-01-20 08:23:54.698010	40.1	19.7	-91.2	11.0
2025-01-20 08:23:55.845279	40.2	19.8	-91.5	13.3
2025-01-20 08:23:56.990482	40.4	19.9	-91.5	7.1
2025-01-20 08:23:58.136406	40.6	20.0	-91.3	9.4
2025-01-20 08:23:59.286456	40.8	20.1	-91.4	11.1
2025-01-20 08:24:00.430755	41.0	20.2	-91.3	7.6
2025-01-20 08:24:01.580695	41.1	20.4	-91.4	8.5
2025-01-20 08:24:02.739463	41.3	20.5	-91.2	8.4
2025-01-20 08:24:03.884401	41.5	20.6	-91.2	14.7
2025-01-20 08:24:05.027418	41.7	20.7	-90.2	12.3
2025-01-20 08:24:06.178408	41.9	20.8	-91.1	12.6
2025-01-20 08:24:07.327105	42.1	20.9	-91.5	15.9
2025-01-20 08:24:08.471861	42.3	21.0	-91.7	10.3
2025-01-20 08:24:09.628792	42.5	21.2	-91.5	12.0
2025-01-20 08:24:10.776820	42.7	21.3	-91.4	11.0
2025-01-20 08:24:11.922964	42.9	21.4	-90.9	14.0
2025-01-20 08:24:13.072201	43.1	21.5	-91.5	12.9
2025-01-20 08:24:14.218338	43.3	21.6	-91.4	11.4
2025-01-20 08:24:15.363810	43.4	21.7	-91.7	14.6
2025-01-20 08:24:16.519646	43.7	21.9	-91.6	6.5
2025-01-20 08:24:17.667104	43.9	22.0	-91.7	9.7
2025-01-20 08:24:18.818137	44.1	22.1	-91.3	12.0
2025-01-20 08:24:19.962703	44.3	22.2	-91.7	8.7
2025-01-20 08:24:21.113443	44.5	22.3	-91.5	10.5
2025-01-20 08:24:22.266298	44.7	22.4	-91.4	14.5
2025-01-20 08:24:23.414213	44.9	22.6	-91.3	13.8
2025-01-20 08:24:24.558643	45.1	22.7	-91.5	14.3
2025-01-20 08:24:25.711096	45.3	22.8	-91.6	13.8
2025-01-20 08:24:26.860184	45.5	22.9	-91.1	9.1
2025-01-20 08:24:28.001951	45.7	23.0	-91.4	10.3
2025-01-20 08:24:29.158651	46.0	23.2	-91.6	16.0
2025-01-20 08:24:30.306820	46.2	23.3	-91.1	14.6
2025-01-20 08:24:31.456648	46.4	23.4	-91.5	11.7
2025-01-20 08:24:32.614328	46.6	23.5	-91.3	13.4
2025-01-20 08:24:33.769209	46.9	23.6	-91.1	11.9
2025-01-20 08:24:34.912020	47.1	23.8	-91.4	12.5
2025-01-20 08:24:36.057761	47.3	23.9	-90.7	10.6
2025-01-20 08:24:37.207883	47.5	24.0	-91.3	12.1
2025-01-20 08:24:38.361097	47.8	24.1	-91.1	10.4
2025-01-20 08:24:39.506877	48.0	24.2	-91.4	6.5
2025-01-20 08:24:40.653685	48.2	24.4	-91.3	12.2
2025-01-20 08:24:41.801352	48.5	24.5	-91.2	14.1
2025-01-20 08:24:42.953878	48.7	24.6	-91.2	10.5
2025-01-20 08:24:44.102706	48.9	24.7	-91.6	10.0
2025-01-20 08:24:45.257576	49.2	24.8	-91.4	9.9
2025-01-20 08:24:46.408720	49.4	25.0	-90.8	12.5
2025-01-20 08:24:47.557785	49.7	25.1	-90.8	9.0
2025-01-20 08:24:48.709283	49.9	25.2	-91.2	14.3
2025-01-20 08:24:49.855546	50.2	25.3	-91.2	15.1
2025-01-20 08:24:51.005714	50.4	25.4	-91.0	7.7
2025-01-20 08:24:52.149451	50.7	25.6	-91.4	11.5
2025-01-20 08:24:53.299030	50.9	25.7	-91.5	9.7
2025-01-20 08:24:54.447431	51.2	25.8	-91.4	12.8
2025-01-20 08:24:55.595179	51.4	25.9	-91.5	11.9
2025-01-20 08:24:56.743346	51.7	26.0	-91.6	7.3
2025-01-20 08:24:57.890281	52.0	26.2	-91.5	7.5
2025-01-20 08:24:59.036890	52.2	26.3	-91.3	6.1
2025-01-20 08:25:00.191382	52.5	26.4	-91.5	5.0
2025-01-20 08:25:01.347985	52.8	26.5	-91.6	3.9
2025-01-20 08:25:02.493295	53.0	26.6	-91.6	4.8
2025-01-20 08:25:03.638015	53.3	26.8	-91.3	5.3
2025-01-20 08:25:04.786776	53.6	26.9	-91.6	7.4
2025-01-20 08:25:05.933737	53.9	27.0	-91.6	5.0
2025-01-20 08:25:07.083831	54.1	27.1	-91.1	6.3
2025-01-20 08:25:08.236877	54.4	27.2	-91.4	6.3
2025-01-20 08:25:09.391921	54.7	27.3	-91.3	6.1
2025-01-20 08:25:10.535853	55.0	27.5	-91.3	5.5
2025-01-20 08:25:11.682468	55.3	27.6	-91.4	5.7
2025-01-20 08:25:12.834941	55.6	27.7	-91.2	6.3
2025-01-20 08:25:13.983689	55.9	27.8	-91.5	6.6
2025-01-20 08:25:15.131778	56.1	27.9	-91.0	10.7
2025-01-20 08:25:16.281941	56.4	28.0	-91.9	10.6
2025-01-20 08:25:17.430941	56.7	28.2	-91.4	14.8
2025-01-20 08:25:18.577791	57.0	28.3	-91.0	7.7
2025-01-20 08:25:19.731632	57.3	28.4	-91.5	7.5
2025-01-20 08:25:20.885738	57.6	28.5	-91.8	6.4
2025-01-20 08:25:22.032904	57.9	28.6	-91.6	7.3
2025-01-20 08:25:23.181735	58.3	28.7	-91.4	7.3
2025-01-20 08:25:24.335471	58.6	28.9	-91.4	7.7
2025-01-20 08:25:25.484052	58.9	29.0	-91.4	5.5
2025-01-20 08:25:26.636938	59.2	29.1	-91.2	5.1
2025-01-20 08:25:27.784066	59.5	29.2	-91.1	7.6
2025-01-20 08:25:28.939190	59.8	29.3	-91.1	6.7
2025-01-20 08:25:30.089888	60.2	29.4	-91.5	8.4
2025-01-20 08:25:31.239269	60.5	29.5	-91.4	11.1
2025-01-20 08:25:32.391587	60.8	29.6	-91.2	11.7
2025-01-20 08:25:33.544799	61.1	29.8	-91.1	11.7
2025-01-20 08:25:34.692363	61.5	29.9	-91.6	9.7
2025-01-20 08:25:35.838862	61.8	30.0	-91.3	9.8
2025-01-20 08:25:36.994172	62.1	30.1	-91.6	9.9
2025-01-20 08:25:38.142600	62.5	30.2	-91.4	10.0
2025-01-20 08:25:39.291650	62.8	30.3	-91.4	13.1
2025-01-20 08:25:40.435770	63.1	30.4	-91.4	7.6
2025-01-20 08:25:41.584981	63.5	30.5	-91.3	9.0
2025-01-20 08:25:42.732251	63.8	30.6	-91.4	14.7
2025-01-20 08:25:43.879067	64.2	30.7	-91.5	12.3
2025-01-20 08:25:45.024578	64.5	30.8	-91.0	15.4
2025-01-20 08:25:46.174328	64.9	30.9	-91.1	15.5
2025-01-20 08:25:47.324640	65.2	31.0	-91.3	15.1
2025-01-20 08:25:48.478648	65.6	31.1	-91.1	14.0
2025-01-20 08:25:49.639409	65.9	31.2	-91.5	13.8
2025-01-20 08:25:50.784606	66.3	31.3	-91.1	19.8
2025-01-20 08:25:51.931660	66.7	31.4	-91.5	8.5
2025-01-20 08:25:53.082769	67.0	31.5	-91.6	10.3
2025-01-20 08:25:54.230795	67.4	31.6	-91.6	18.5
2025-01-20 08:25:55.379411	67.8	31.7	-91.2	13.3
2025-01-20 08:25:56.534215	68.1	31.8	-91.5	7.3
2025-01-20 08:25:57.686155	68.5	31.9	-91.3	15.8
2025-01-20 08:25:58.838568	68.9	32.0	-91.5	14.7
2025-01-20 08:25:59.988834	69.3	32.1	-91.1	12.5
2025-01-20 08:26:01.136607	69.6	32.2	-91.1	16.1
2025-01-20 08:26:02.287344	70.0	32.3	-91.3	13.8
2025-01-20 08:26:03.436862	70.4	32.4	-91.5	15.3
2025-01-20 08:26:04.583110	70.8	32.4	-91.4	15.0
2025-01-20 08:26:05.733401	71.2	32.5	-91.3	15.0
2025-01-20 08:26:06.883383	71.6	32.6	-91.5	11.6
2025-01-20 08:26:08.035721	72.0	32.7	-91.7	10.1
2025-01-20 08:26:09.190013	72.4	32.8	-91.6	22.3
2025-01-20 08:26:10.340016	72.8	32.9	-91.3	19.0
2025-01-20 08:26:11.490429	73.2	32.9	-91.3	8.2
2025-01-20 08:26:12.634400	73.6	33.0	-91.5	16.0
2025-01-20 08:26:13.782268	74.0	33.1	-91.5	16.0
2025-01-20 08:26:14.932774	74.4	33.2	-91.2	16.5
2025-01-20 08:26:16.080305	74.8	33.2	-91.4	15.9
2025-01-20 08:26:17.229762	75.2	33.3	-91.3	18.4
2025-01-20 08:26:18.376697	75.6	33.4	-91.5	17.4
2025-01-20 08:26:19.520385	76.0	33.5	-91.5	16.1
2025-01-20 08:26:20.667294	76.4	33.5	-91.4	17.8
2025-01-20 08:26:21.817741	76.8	33.6	-91.4	12.6
2025-01-20 08:26:22.971082	77.2	33.7	-91.2	17.4
2025-01-20 08:26:24.121483	77.6	33.7	-91.4	12.2
2025-01-20 08:26:25.277158	78.1	33.8	-91.1	19.7
2025-01-20 08:26:26.433016	78.5	33.9	-91.3	9.6
2025-01-20 08:26:27.584758	78.9	33.9	-91.3	9.5
2025-01-20 08:26:28.728918	79.3	34.0	-91.4	17.2
2025-01-20 08:26:29.879785	79.8	34.0	-91.6	16.5
2025-01-20 08:26:31.025511	80.2	34.1	-91.8	9.1
2025-01-20 08:26:32.173148	80.6	34.1	-91.6	17.9
2025-01-20 08:26:33.324598	81.0	34.2	-91.3	16.4
2025-01-20 08:26:34.472131	81.5	34.2	-91.4	9.6
2025-01-20 08:26:35.618952	81.9	34.3	-91.6	16.0
2025-01-20 08:26:36.767307	82.3	34.3	-91.4	13.6
2025-01-20 08:26:37.918961	82.8	34.4	-91.5	13.7
2025-01-20 08:26:39.069564	83.2	34.4	-91.3	16.2
2025-01-20 08:26:40.217082	83.6	34.5	-91.0	18.4
2025-01-20 08:26:41.371898	84.1	34.5	-91.6	17.4
2025-01-20 08:26:42.527172	84.5	34.5	-91.4	17.9
2025-01-20 08:26:43.678514	85.0	34.6	-91.2	14.2
2025-01-20 08:26:44.826956	85.4	34.6	-91.2	16.3
2025-01-20 08:26:45.977595	85.9	34.6	-91.4	15.2
2025-01-20 08:26:47.126456	86.3	34.7	-91.2	16.0
2025-01-20 08:26:48.275759	86.7	34.7	-91.3	18.8
2025-01-20 08:26:49.427602	87.2	34.7	-91.2	19.2
2025-01-20 08:26:50.574338	87.6	34.7	-91.3	17.0
2025-01-20 08:26:51.724486	88.1	34.8	-91.2	23.1
2025-01-20 08:26:52.875698	88.5	34.8	-91.2	14.5
2025-01-20 08:26:54.033450	89.0	34.8	-91.2	12.4
2025-01-20 08:26:55.177489	89.4	34.8	-91.3	19.6
2025-01-20 08:26:56.326734	89.9	34.8	-91.0	18.6
2025-01-20 08:26:57.473363	90.3	34.9	-91.3	9.5
2025-01-20 08:26:58.620196	90.8	34.9	-91.5	17.2
2025-01-20 08:26:59.776699	91.2	34.9	-91.6	9.2
2025-01-20 08:27:00.917852	91.7	34.9	-91.3	10.8
2025-01-20 08:27:02.075064	92.1	34.9	-91.8	12.4
2025-01-20 08:27:03.228575	92.6	34.9	-91.5	12.5
2025-01-20 08:27:04.382540	93.0	34.9	-91.7	14.9
2025-01-20 08:27:05.529429	93.5	34.9	-91.2	12.2
2025-01-20 08:27:06.675702	93.9	34.9	-91.1	15.3
2025-01-20 08:27:07.822534	94.4	34.9	-91.6	18.2
2025-01-20 08:27:08.968769	94.8	34.9	-91.6	17.0
2025-01-20 08:27:10.121782	95.3	34.9	-91.9	16.1
2025-01-20 08:27:11.268643	95.7	34.9	-91.5	17.5
2025-01-20 08:27:12.418834	96.1	34.9	-91.4	22.3
2025-01-20 08:27:13.568676	96.6	34.8	-91.8	22.9
2025-01-20 08:27:14.715919	97.0	34.8	-91.2	20.9
2025-01-20 08:27:15.865899	97.5	34.8	-91.2	21.5
2025-01-20 08:27:17.012602	97.9	34.8	-91.7	18.1
2025-01-20 08:27:18.163113	98.4	34.8	-91.7	19.1
2025-01-20 08:27:19.314760	98.8	34.7	-91.4	17.9
2025-01-20 08:27:20.466013	99.3	34.7	-91.4	19.8
2025-01-20 08:27:21.621160	99.7	34.7	-91.4	14.4
2025-01-20 08:27:22.766984	100.2	34.7	-91.6	17.9
2025-01-20 08:27:23.917285	100.6	34.6	-91.8	16.1
2025-01-20 08:27:25.068357	101.1	34.6	-91.1	13.4
2025-01-20 08:27:26.220391	101.5	34.6	-90.4	10.9
2025-01-20 08:27:27.364771	101.9	34.5	-91.8	15.3
2025-01-20 08:27:28.512282	102.4	34.5	-91.2	11.0
2025-01-20 08:27:29.663465	102.8	34.4	-91.5	14.7
2025-01-20 08:27:30.817528	103.3	34.4	-91.6	12.5
2025-01-20 08:27:31.970551	103.7	34.4	-91.1	10.5
2025-01-20 08:27:33.112823	104.1	34.3	-91.3	13.3
2025-01-20 08:27:34.261332	104.6	34.3	-89.9	10.3
2025-01-20 08:27:35.416162	105.0	34.2	-91.3	13.1
2025-01-20 08:27:36.559973	105.4	34.2	-90.2	6.3
2025-01-20 08:27:37.707757	105.9	34.1	-91.2	18.0
2025-01-20 08:27:38.859797	106.3	34.1	-90.7	8.3
2025-01-20 08:27:40.009625	106.7	34.0	-91.3	8.7
2025-01-20 08:27:41.156240	107.1	34.0	-91.4	16.6
2025-01-20 08:27:42.304048	107.6	33.9	-91.2	16.4
2025-01-20 08:27:43.456988	108.0	33.8	-91.5	11.8
2025-01-20 08:27:44.603617	108.4	33.8	-91.9	10.4
2025-01-20 08:27:45.751079	108.8	33.7	-91.3	16.1
2025-01-20 08:27:46.905581	109.2	33.6	-91.3	13.9
2025-01-20 08:27:48.052893	109.7	33.6	-89.3	7.7
2025-01-20 08:27:49.202903	110.1	33.5	-91.2	14.0
2025-01-20 08:27:50.351228	110.5	33.4	-91.5	16.5
2025-01-20 08:27:51.498732	110.9	33.4	-91.2	11.4
2025-01-20 08:27:52.645376	111.3	33.3	-91.4	17.8
2025-01-20 08:27:53.793792	111.7	33.2	-91.3	20.1
2025-01-20 08:27:54.944996	112.1	33.1	-91.0	8.5
2025-01-20 08:27:56.091801	112.5	33.1	-91.5	11.6
2025-01-20 08:27:57.237657	112.9	33.0	-91.6	13.7
2025-01-20 08:27:58.388556	113.3	32.9	-91.1	10.3
2025-01-20 08:27:59.544700	113.7	32.8	-91.2	9.8
2025-01-20 08:28:00.687660	114.1	32.8	-90.9	16.7
2025-01-20 08:28:01.842021	114.5	32.7	-91.4	14.8
2025-01-20 08:28:02.998983	114.9	32.6	-90.8	10.6
2025-01-20 08:28:04.146012	115.3	32.5	-91.5	15.0
2025-01-20 08:28:05.289918	115.7	32.4	-90.8	14.9
2025-01-20 08:28:06.440239	116.1	32.3	-91.3	13.4
2025-01-20 08:28:07.594210	116.5	32.2	-91.4	11.9
2025-01-20 08:28:08.744943	116.9	32.1	-91.6	19.2
2025-01-20 08:28:09.894229	117.2	32.1	-91.3	14.6
2025-01-20 08:28:11.040930	117.6	32.0	-91.2	12.2
2025-01-20 08:28:12.189690	118.0	31.9	-91.5	16.7
2025-01-20 08:28:13.336851	118.4	31.8	-91.2	13.9
2025-01-20 08:28:14.484815	118.7	31.7	-91.0	12.9
2025-01-20 08:28:15.638173	119.1	31.6	-90.5	11.0
2025-01-20 08:28:16.791850	119.5	31.5	-90.9	14.7
2025-01-20 08:28:17.940615	119.8	31.4	-91.3	10.2
2025-01-20 08:28:19.096413	120.2	31.3	-91.3	11.6
2025-01-20 08:28:20.252626	120.6	31.2	-91.0	14.9
2025-01-20 08:28:21.409687	120.9	31.1	-90.9	10.3
2025-01-20 08:28:22.560131	121.3	31.0	-90.6	7.4
2025-01-20 08:28:23.712431	121.6	30.9	-91.1	14.2
2025-01-20 08:28:24.857258	122.0	30.8	-90.2	10.4
2025-01-20 08:28:26.002022	122.3	30.7	-91.1	5.2
2025-01-20 08:28:27.157232	122.7	30.6	-91.3	3.2
2025-01-20 08:28:28.313564	123.0	30.5	-91.2	5.4
2025-01-20 08:28:29.457554	123.4	30.4	-91.5	5.8
2025-01-20 08:28:30.607095	123.7	30.2	-90.6	9.5
2025-01-20 08:28:31.762666	124.1	30.1	-89.9	7.7
2025-01-20 08:28:32.905702	124.4	30.0	-91.2	5.0
2025-01-20 08:28:34.054604	124.7	29.9	-91.5	6.3
2025-01-20 08:28:35.208926	125.1	29.8	-90.8	6.7
2025-01-20 08:28:36.357527	125.4	29.7	-91.1	3.2
2025-01-20 08:28:37.504060	125.7	29.6	-91.6	5.3
2025-01-20 08:28:38.660150	126.1	29.5	-91.3	9.5
2025-01-20 08:28:39.809526	126.4	29.4	-91.2	8.9
2025-01-20 08:28:40.960812	126.7	29.2	-91.1	6.1
2025-01-20 08:28:42.114022	127.0	29.1	-91.1	4.7
2025-01-20 08:28:43.267285	127.3	29.0	-91.4	6.7
2025-01-20 08:28:44.420055	127.7	28.9	-91.8	8.0
2025-01-20 08:28:45.563615	128.0	28.8	-91.2	5.7
2025-01-20 08:28:46.712024	128.3	28.7	-91.5	10.9
2025-01-20 08:28:47.869018	128.6	28.6	-91.3	6.1
2025-01-20 08:28:49.018001	128.9	28.4	-91.9	7.1
2025-01-20 08:28:50.167084	129.2	28.3	-91.3	7.4
2025-01-20 08:28:51.314100	129.5	28.2	-91.5	8.1
2025-01-20 08:28:52.463084	129.8	28.1	-91.7	5.6
2025-01-20 08:28:53.607387	130.1	28.0	-91.6	5.8
2025-01-20 08:28:54.752068	130.4	27.9	-90.9	4.4
2025-01-20 08:28:55.903408	130.7	27.7	-91.9	4.2
2025-01-20 08:28:57.050908	131.0	27.6	-91.6	5.1
2025-01-20 08:28:58.200162	131.3	27.5	-91.3	8.8
2025-01-20 08:28:59.346572	131.6	27.4	-91.7	8.4
2025-01-20 08:29:00.495463	131.8	27.3	-91.8	9.4
2025-01-20 08:29:01.644273	132.1	27.1	-91.0	9.3
2025-01-20 08:29:02.791414	132.4	27.0	-90.6	10.1
2025-01-20 08:29:03.939370	132.7	26.9	-91.2	7.7
2025-01-20 08:29:05.089554	133.0	26.8	-91.8	9.5
2025-01-20 08:29:06.233305	133.2	26.7	-91.6	8.3
2025-01-20 08:29:07.380102	133.5	26.5	-91.2	12.4
2025-01-20 08:29:08.528316	133.8	26.4	-91.7	14.3
2025-01-20 08:29:09.672812	134.0	26.3	-91.4	11.1
2025-01-20 08:29:10.824342	134.3	26.2	-91.4	8.7
2025-01-20 08:29:11.979283	134.6	26.1	-91.7	12.4
2025-01-20 08:29:13.127335	134.8	25.9	-91.6	12.8
2025-01-20 08:29:14.275543	135.1	25.8	-91.3	15.4
2025-01-20 08:29:15.424137	135.4	25.7	-91.4	12.9
2025-01-20 08:29:16.571778	135.6	25.6	-91.4	10.5
2025-01-20 08:29:17.718551	135.9	25.5	-91.5	14.7
2025-01-20 08:29:18.870646	136.1	25.3	-91.0	9.6
2025-01-20 08:29:20.017053	136.4	25.2	-91.3	9.3
2025-01-20 08:29:21.164472	136.6	25.1	-91.5	13.9
2025-01-20 08:29:22.311320	136.9	25.0	-91.1	13.8
2025-01-20 08:29:23.459959	137.1	24.9	-91.0	11.2
2025-01-20 08:29:24.615000	137.4	24.7	-91.6	10.5
2025-01-20 08:29:25.767806	137.6	24.6	-91.7	16.5
2025-01-20 08:29:26.918384	137.9	24.5	-91.7	9.3
2025-01-20 08:29:28.077887	138.1	24.4	-91.8	12.4
2025-01-20 08:29:29.224621	138.3	24.2	-91.2	14.8
2025-01-20 08:29:30.375056	138.6	24.1	-91.7	11.6
2025-01-20 08:29:31.521074	138.8	24.0	-91.6	13.8
2025-01-20 08:29:32.666987	139.0	23.9	-91.3	12.7
2025-01-20 08:29:33.813726	139.3	23.8	-91.5	13.2
2025-01-20 08:29:34.963251	139.5	23.6	-91.7	12.3
2025-01-20 08:29:36.104963	139.7	23.5	-91.8	10.7
2025-01-20 08:29:37.252822	139.9	23.4	-91.7	12.9
2025-01-20 08:29:38.405896	140.2	23.3	-91.6	13.1
2025-01-20 08:29:39.561023	140.4	23.2	-91.6	9.7
2025-01-20 08:29:40.709978	140.6	23.0	-90.9	13.0
2025-01-20 08:29:41.858963	140.8	22.9	-91.4	10.3
2025-01-20 08:29:43.010691	141.0	22.8	-90.4	8.8
2025-01-20 08:29:44.159823	141.3	22.7	-91.8	12.0
2025-01-20 08:29:45.314100	141.5	22.6	-91.7	12.3
2025-01-20 08:29:46.463770	141.7	22.4	-91.4	9.5
2025-01-20 08:29:47.620002	141.9	22.3	-91.7	8.5
2025-01-20 08:29:48.768229	142.1	22.2	-91.6	14.0
2025-01-20 08:29:49.918328	142.3	22.1	-91.1	10.0
2025-01-20 08:29:51.071402	142.5	22.0	-91.7	8.6
2025-01-20 08:29:52.219370	142.7	21.8	-91.2	9.7
2025-01-20 08:29:53.365338	142.9	21.7	-91.0	12.1
2025-01-20 08:29:54.523802	143.1	21.6	-91.6	13.2
2025-01-20 08:29:55.673831	143.3	21.5	-91.8	16.3
2025-01-20 08:29:56.825334	143.5	21.4	-91.1	14.4
2025-01-20 08:29:57.966749	143.7	21.3	-91.5	15.0
2025-01-20 08:29:59.118736	143.9	21.1	-91.5	14.1
2025-01-20 08:30:00.267116	144.1	21.0	-91.5	14.2
2025-01-20 08:30:01.414015	144.3	20.9	-91.4	11.5
2025-01-20 08:30:02.564458	144.5	20.8	-91.2	9.5
2025-01-20 08:30:03.712031	144.7	20.7	-91.5	10.1
2025-01-20 08:30:04.859086	144.9	20.6	-90.7	10.0
2025-01-20 08:30:06.009941	145.1	20.4	-91.3	7.5
2025-01-20 08:30:07.166046	145.3	20.3	-91.3	10.9
2025-01-20 08:30:08.316750	145.4	20.2	-91.4	11.5
2025-01-20 08:30:09.462510	145.6	20.1	-91.5	8.6
2025-01-20 08:30:10.611949	145.8	20.0	-91.2	9.5
2025-01-20 08:30:11.761883	146.0	19.9	-91.3	13.3
2025-01-20 08:30:12.913928	146.2	19.7	-91.5	11.7
2025-01-20 08:30:14.063052	146.3	19.6	-91.5	10.8
2025-01-20 08:30:15.214396	146.5	19.5	-91.4	11.8
2025-01-20 08:30:16.367643	146.7	19.4	-91.4	10.2
2025-01-20 08:30:17.513211	146.9	19.3	-91.5	10.6
2025-01-20 08:30:18.669266	147.0	19.2	-91.5	10.2
2025-01-20 08:30:19.822455	147.2	19.1	-91.8	9.6
2025-01-20 08:30:20.975067	147.4	18.9	-91.2	9.3
2025-01-20 08:30:22.129237	147.6	18.8	-91.4	8.3
2025-01-20 08:30:23.285443	147.7	18.7	-91.4	9.0
2025-01-20 08:30:24.434175	147.9	18.6	-91.2	6.0
2025-01-20 08:30:25.577850	148.1	18.5	-91.5	5.3
2025-01-20 08:30:26.728782	148.2	18.4	-91.7	8.3
2025-01-20 08:30:27.877623	148.4	18.3	-90.7	5.5
2025-01-20 08:30:29.036216	148.6	18.2	-91.7	5.4
2025-01-20 08:30:30.184997	148.7	18.1	-91.7	4.2
2025-01-20 08:30:31.341374	148.9	17.9	-91.6	5.8
2025-01-20 08:30:32.493074	149.0	17.8	-91.4	6.4
2025-01-20 08:30:33.638721	149.2	17.7	-91.3	5.9
2025-01-20 08:30:34.789301	149.3	17.6	-91.3	6.4
2025-01-20 08:30:35.933569	149.5	17.5	-91.3	5.6
2025-01-20 08:30:37.083062	149.7	17.4	-91.6	4.4
2025-01-20 08:30:38.230572	149.8	17.3	-91.4	4.9
2025-01-20 08:30:39.385260	150.0	17.2	-91.6	6.5
2025-01-20 08:30:40.537968	150.1	17.1	-91.6	5.7
2025-01-20 08:30:41.693489	150.3	17.0	-91.2	7.1
2025-01-20 08:30:42.839547	150.4	16.9	-91.4	6.7
2025-01-20 08:30:43.992916	150.6	16.7	-91.2	5.8
2025-01-20 08:30:45.144927	150.7	16.6	-91.2	7.5
2025-01-20 08:30:46.292391	150.9	16.5	-91.0	9.1
2025-01-20 08:30:47.445395	151.0	16.4	-89.9	7.8
2025-01-20 08:30:48.597235	151.2	16.3	-91.4	6.4
2025-01-20 08:30:49.753297	151.3	16.2	-90.7	7.6
2025-01-20 08:30:50.911354	151.4	16.1	-91.2	6.9
2025-01-20 08:30:52.064924	151.6	16.0	-91.4	4.7
2025-01-20 08:30:53.210783	151.7	15.9	-91.6	5.5
2025-01-20 08:30:54.358116	151.9	15.8	-91.4	8.1
2025-01-20 08:30:55.506166	152.0	15.7	-90.6	6.1
2025-01-20 08:30:56.651165	152.1	15.6	-90.9	8.2
2025-01-20 08:30:57.802544	152.3	15.5	-91.7	8.6
2025-01-20 08:30:58.955024	152.4	15.4	-91.5	4.9
2025-01-20 08:31:00.107769	152.5	15.3	-90.9	7.0
2025-01-20 08:31:01.252152	152.7	15.2	-91.0	7.1
2025-01-20 08:31:02.395387	152.8	15.1	-91.1	6.1
2025-01-20 08:31:03.550828	152.9	15.0	-91.3	5.9
2025-01-20 08:31:04.702297	153.1	14.9	-91.3	9.6
2025-01-20 08:31:05.857025	153.2	14.8	-91.2	6.6
2025-01-20 08:31:07.001411	153.3	14.7	-91.0	7.5
2025-01-20 08:31:08.153902	153.5	14.6	-91.5	6.0
#Closed at: 2025-01-20 08:23:09.568726