passes_logs/2025/01/20/LEX_Murmansk/LEX_Murmansk__20250120_132507_NOAA_18_rec.log

#Pass ID: 20250120_132507_NOAA 18
#Satellite: NOAA 18
#Configuration: NOAA 18
#Start time: 2025-01-20 13:25:02.705630

#LorettStation: 1.0.0 05.05.2024
#Station: LEX_Murmansk
#Location: 33.156738 lon 68.926811 lat
#TLE: 1 28654U 05018A   25020.18862715  .00000449  00000+0  26167-3 0  9997
#TLE: 2 28654  98.8558 101.1913 0014575 164.8261 195.3351 14.13491567 13918

#Time	Az	El	Level	SNR
2025-01-20 13:25:16.956355	28.5	16.1	-89.3	4.8
2025-01-20 13:25:18.121262	28.3	16.2	-89.1	8.6
2025-01-20 13:25:19.284977	28.1	16.3	-88.8	4.9
2025-01-20 13:25:20.450243	28.0	16.4	-89.7	6.2
2025-01-20 13:25:21.624601	27.8	16.5	-90.0	7.0
2025-01-20 13:25:22.784136	27.6	16.5	-89.2	6.4
2025-01-20 13:25:23.947459	27.4	16.6	-89.7	5.6
2025-01-20 13:25:25.111745	27.2	16.7	-89.4	6.9
2025-01-20 13:25:26.274488	27.0	16.8	-89.8	6.9
2025-01-20 13:25:27.436238	26.8	16.9	-89.8	6.0
2025-01-20 13:25:28.598467	26.7	17.0	-89.8	5.7
2025-01-20 13:25:29.759432	26.5	17.1	-90.1	7.7
2025-01-20 13:25:30.923806	26.3	17.2	-90.2	7.4
2025-01-20 13:25:32.090767	26.1	17.3	-89.4	5.7
2025-01-20 13:25:33.254864	25.9	17.4	-90.1	8.0
2025-01-20 13:25:34.421808	25.7	17.4	-90.0	5.7
2025-01-20 13:25:35.583676	25.5	17.5	-90.1	5.6
2025-01-20 13:25:36.743686	25.3	17.6	-90.5	5.2
2025-01-20 13:25:37.915166	25.1	17.7	-90.3	3.6
2025-01-20 13:25:39.075621	24.9	17.8	-89.5	4.8
2025-01-20 13:25:40.238096	24.7	17.9	-90.0	4.4
2025-01-20 13:25:41.397303	24.5	18.0	-90.1	7.2
2025-01-20 13:25:42.562803	24.3	18.1	-90.1	6.8
2025-01-20 13:25:43.721395	24.1	18.2	-89.9	6.6
2025-01-20 13:25:44.885589	23.9	18.3	-90.2	7.6
2025-01-20 13:25:46.058970	23.7	18.3	-90.4	5.4
2025-01-20 13:25:47.216126	23.5	18.4	-88.9	7.8
2025-01-20 13:25:48.382817	23.3	18.5	-88.8	5.8
2025-01-20 13:25:49.547547	23.1	18.6	-90.4	6.4
2025-01-20 13:25:50.711648	22.9	18.7	-90.0	8.2
2025-01-20 13:25:51.857752	22.6	18.8	-89.7	9.0
2025-01-20 13:25:53.026030	22.4	18.9	-88.6	6.4
2025-01-20 13:25:54.183613	22.2	19.0	-89.4	8.7
2025-01-20 13:25:55.350197	22.0	19.1	-89.5	9.2
2025-01-20 13:25:56.510306	21.8	19.1	-89.4	8.8
2025-01-20 13:25:57.674414	21.6	19.2	-89.0	4.9
2025-01-20 13:25:58.834922	21.3	19.3	-90.8	9.7
2025-01-20 13:25:59.994799	21.1	19.4	-90.6	8.1
2025-01-20 13:26:01.162592	20.9	19.5	-90.5	6.6
2025-01-20 13:26:02.326788	20.7	19.6	-90.0	6.0
2025-01-20 13:26:03.494387	20.4	19.7	-90.8	9.3
2025-01-20 13:26:04.650173	20.2	19.8	-89.2	10.8
2025-01-20 13:26:05.813721	20.0	19.8	-89.8	7.1
2025-01-20 13:26:06.976270	19.8	19.9	-90.3	8.1
2025-01-20 13:26:08.134283	19.5	20.0	-89.5	6.7
2025-01-20 13:26:09.299610	19.3	20.1	-90.3	4.4
2025-01-20 13:26:10.458541	19.1	20.2	-89.9	3.0
2025-01-20 13:26:11.621797	18.8	20.3	-90.1	5.4
2025-01-20 13:26:12.785076	18.6	20.4	-90.1	7.0
2025-01-20 13:26:13.948986	18.4	20.5	-90.6	6.2
2025-01-20 13:26:15.110799	18.1	20.5	-89.7	6.2
2025-01-20 13:26:16.274470	17.9	20.6	-89.4	5.9
2025-01-20 13:26:17.435415	17.6	20.7	-89.9	8.2
2025-01-20 13:26:18.599451	17.4	20.8	-89.7	7.2
2025-01-20 13:26:19.765448	17.2	20.9	-89.7	8.9
2025-01-20 13:26:20.921358	16.9	21.0	-89.8	6.6
2025-01-20 13:26:22.084308	16.7	21.1	-89.8	6.4
2025-01-20 13:26:23.249938	16.4	21.1	-89.5	7.0
2025-01-20 13:26:24.418270	16.2	21.2	-89.6	7.1
2025-01-20 13:26:25.581930	15.9	21.3	-89.8	7.1
2025-01-20 13:26:26.720312	15.7	21.4	-89.6	8.0
2025-01-20 13:26:27.843205	15.4	21.5	-89.6	8.9
2025-01-20 13:26:28.983335	15.2	21.5	-89.6	4.9
2025-01-20 13:26:30.142743	14.9	21.6	-88.9	6.3
2025-01-20 13:26:31.307296	14.7	21.7	-89.4	8.0
2025-01-20 13:26:32.474986	14.4	21.8	-90.4	6.2
2025-01-20 13:26:33.638604	14.1	21.9	-88.7	7.2
2025-01-20 13:26:34.806044	13.9	22.0	-89.2	8.6
2025-01-20 13:26:35.968264	13.6	22.0	-89.0	7.3
2025-01-20 13:26:37.131661	13.4	22.1	-89.8	6.5
2025-01-20 13:26:38.299284	13.1	22.2	-89.1	7.6
2025-01-20 13:26:39.462995	12.8	22.3	-89.5	10.7
2025-01-20 13:26:40.622832	12.6	22.3	-87.6	12.0
2025-01-20 13:26:41.788222	12.3	22.4	-87.6	13.1
2025-01-20 13:26:42.951447	12.0	22.5	-87.2	9.0
2025-01-20 13:26:44.118038	11.7	22.6	-89.7	14.1
2025-01-20 13:26:45.286159	11.5	22.7	-87.4	14.7
2025-01-20 13:26:46.452613	11.2	22.7	-89.6	10.8
2025-01-20 13:26:47.619563	10.9	22.8	-87.8	8.9
2025-01-20 13:26:48.785652	10.6	22.9	-88.8	12.9
2025-01-20 13:26:49.943369	10.4	23.0	-88.7	9.4
2025-01-20 13:26:51.104520	10.1	23.0	-90.0	6.1
2025-01-20 13:26:52.269226	9.8	23.1	-89.0	13.1
2025-01-20 13:26:53.437253	9.5	23.2	-89.0	12.1
2025-01-20 13:26:54.601342	9.2	23.3	-90.2	13.5
2025-01-20 13:26:55.765525	8.9	23.3	-89.9	13.0
2025-01-20 13:26:56.925413	8.7	23.4	-90.1	11.5
2025-01-20 13:26:58.093407	8.4	23.5	-89.9	9.9
2025-01-20 13:26:59.253667	8.1	23.5	-88.2	14.1
2025-01-20 13:27:00.408196	7.8	23.6	-89.3	10.3
2025-01-20 13:27:01.572988	7.5	23.7	-88.9	9.2
2025-01-20 13:27:02.737688	7.2	23.7	-88.5	15.7
2025-01-20 13:27:03.908993	6.9	23.8	-89.5	7.6
2025-01-20 13:27:05.072378	6.6	23.9	-88.8	7.5
2025-01-20 13:27:06.236406	6.3	23.9	-89.7	12.7
2025-01-20 13:27:07.398760	6.0	24.0	-90.2	8.5
2025-01-20 13:27:08.539514	5.7	24.1	-88.9	6.9
2025-01-20 13:27:09.702996	5.4	24.1	-89.2	10.8
2025-01-20 13:27:10.864229	5.1	24.2	-89.8	9.8
2025-01-20 13:27:12.028368	4.8	24.3	-89.6	11.2
2025-01-20 13:27:13.194255	4.5	24.3	-88.3	11.2
2025-01-20 13:27:14.358806	4.2	24.4	-89.4	8.4
2025-01-20 13:27:15.521870	3.9	24.5	-88.8	8.0
2025-01-20 13:27:16.690478	3.6	24.5	-89.9	16.5
2025-01-20 13:27:17.855567	3.3	24.6	-89.7	9.3
2025-01-20 13:27:19.017320	3.0	24.6	-90.3	6.0
2025-01-20 13:27:20.176611	2.6	24.7	-89.6	13.9
2025-01-20 13:27:21.334120	2.3	24.7	-89.9	11.4
2025-01-20 13:27:22.501851	2.0	24.8	-90.7	11.1
2025-01-20 13:27:23.666511	1.7	24.9	-90.6	8.0
2025-01-20 13:27:24.834662	1.4	24.9	-90.4	12.6
2025-01-20 13:27:25.993658	1.1	25.0	-89.8	10.7
2025-01-20 13:27:27.161541	0.7	25.0	-89.8	17.5
2025-01-20 13:27:28.321421	0.4	25.1	-89.6	9.8
2025-01-20 13:27:29.486111	0.1	25.1	-90.1	11.9
2025-01-20 13:27:30.642450	359.8	25.2	-89.4	12.7
2025-01-20 13:27:31.806998	359.5	25.2	-88.9	11.8
2025-01-20 13:27:32.972505	359.1	25.3	-89.2	10.6
2025-01-20 13:27:34.134876	358.8	25.3	-89.2	12.4
2025-01-20 13:27:35.296542	358.5	25.4	-89.4	10.1
2025-01-20 13:27:36.455476	358.2	25.4	-88.3	7.1
2025-01-20 13:27:37.620181	357.8	25.4	-89.3	7.6
2025-01-20 13:27:38.785151	357.5	25.5	-89.0	12.8
2025-01-20 13:27:39.954068	357.2	25.5	-88.1	8.4
2025-01-20 13:27:41.112223	356.8	25.6	-89.1	9.3
2025-01-20 13:27:42.278821	356.5	25.6	-90.6	13.6
2025-01-20 13:27:43.440565	356.2	25.7	-89.8	10.0
2025-01-20 13:27:44.603888	355.8	25.7	-90.1	5.0
2025-01-20 13:27:45.765814	355.5	25.7	-89.6	10.4
2025-01-20 13:27:46.913944	355.2	25.8	-89.6	12.6
2025-01-20 13:27:48.077403	354.8	25.8	-90.2	13.2
2025-01-20 13:27:49.240448	354.5	25.8	-90.3	14.1
2025-01-20 13:27:50.403358	354.2	25.9	-90.1	16.0
2025-01-20 13:27:51.564823	353.8	25.9	-90.6	19.9
2025-01-20 13:27:52.731307	353.5	25.9	-90.2	11.9
2025-01-20 13:27:53.892349	353.2	26.0	-90.7	9.9
2025-01-20 13:27:55.059404	352.8	26.0	-90.1	15.2
2025-01-20 13:27:56.219486	352.5	26.0	-90.4	11.8
2025-01-20 13:27:57.380257	352.1	26.0	-90.4	10.8
2025-01-20 13:27:58.545367	351.8	26.1	-90.3	6.7
2025-01-20 13:27:59.704532	351.4	26.1	-89.7	9.0
2025-01-20 13:28:00.859665	351.1	26.1	-90.5	10.6
2025-01-20 13:28:02.025236	350.8	26.1	-90.0	5.2
2025-01-20 13:28:03.192486	350.4	26.2	-90.1	12.3
2025-01-20 13:28:04.356069	350.1	26.2	-89.6	9.4
2025-01-20 13:28:05.523514	349.7	26.2	-89.2	4.6
2025-01-20 13:28:06.686825	349.4	26.2	-87.7	11.4
2025-01-20 13:28:07.851285	349.0	26.2	-89.8	7.2
2025-01-20 13:28:09.022872	348.7	26.2	-90.4	7.7
2025-01-20 13:28:10.184889	348.3	26.3	-90.3	13.0
2025-01-20 13:28:11.348764	348.0	26.3	-90.3	12.4
2025-01-20 13:28:12.511724	347.7	26.3	-90.0	11.5
2025-01-20 13:28:13.670191	347.3	26.3	-90.1	14.3
2025-01-20 13:28:14.835704	347.0	26.3	-90.0	8.9
2025-01-20 13:28:16.000130	346.6	26.3	-90.0	14.5
2025-01-20 13:28:17.164055	346.3	26.3	-90.1	5.3
2025-01-20 13:28:18.331522	345.9	26.3	-90.7	10.3
2025-01-20 13:28:19.496684	345.6	26.3	-90.1	12.6
2025-01-20 13:28:20.670816	345.2	26.3	-90.6	15.4
2025-01-20 13:28:21.829018	344.9	26.3	-90.4	15.2
2025-01-20 13:28:22.994417	344.5	26.3	-90.3	13.6
2025-01-20 13:28:24.161465	344.2	26.3	-90.8	6.0
2025-01-20 13:28:25.324605	343.8	26.3	-91.0	10.8
2025-01-20 13:28:26.487282	343.5	26.3	-90.8	8.1
2025-01-20 13:28:27.646766	343.1	26.3	-90.9	5.8
2025-01-20 13:28:28.811546	342.8	26.3	-90.5	8.7
2025-01-20 13:28:29.974899	342.4	26.3	-90.7	7.2
2025-01-20 13:28:31.135083	342.1	26.3	-90.4	10.0
2025-01-20 13:28:32.302847	341.7	26.3	-90.3	12.5
2025-01-20 13:28:33.467535	341.4	26.3	-90.0	5.9
2025-01-20 13:28:34.634214	341.0	26.3	-90.1	11.2
2025-01-20 13:28:35.798857	340.7	26.3	-89.7	7.2
2025-01-20 13:28:36.963834	340.3	26.3	-90.5	6.4
2025-01-20 13:28:38.146855	340.0	26.2	-90.7	8.9
2025-01-20 13:28:39.312978	339.6	26.2	-90.6	6.1
2025-01-20 13:28:40.478306	339.3	26.2	-90.7	5.5
2025-01-20 13:28:41.635673	339.0	26.2	-89.4	10.0
2025-01-20 13:28:42.800864	338.6	26.2	-90.3	13.3
2025-01-20 13:28:43.962402	338.3	26.2	-89.6	8.4
2025-01-20 13:28:45.125218	337.9	26.1	-90.3	6.2
2025-01-20 13:28:46.286496	337.6	26.1	-90.5	14.6
2025-01-20 13:28:47.439749	337.2	26.1	-90.4	7.5
2025-01-20 13:28:48.606844	336.9	26.1	-90.2	9.4
2025-01-20 13:28:49.770062	336.6	26.0	-90.3	13.6
2025-01-20 13:28:50.938304	336.2	26.0	-89.2	6.7
2025-01-20 13:28:52.101498	335.9	26.0	-90.2	9.3
2025-01-20 13:28:53.271180	335.5	26.0	-90.1	16.2
2025-01-20 13:28:54.433523	335.2	25.9	-90.7	6.4
2025-01-20 13:28:55.603401	334.8	25.9	-90.3	11.4
2025-01-20 13:28:56.767819	334.5	25.9	-90.3	12.5
2025-01-20 13:28:57.933250	334.2	25.8	-90.5	6.7
2025-01-20 13:28:59.096510	333.8	25.8	-90.5	9.2
2025-01-20 13:29:00.255178	333.5	25.8	-90.7	8.6
2025-01-20 13:29:01.434405	333.2	25.7	-90.7	8.5
2025-01-20 13:29:02.597881	332.8	25.7	-90.6	10.6
2025-01-20 13:29:03.754493	332.5	25.7	-90.6	8.0
2025-01-20 13:29:04.918961	332.2	25.6	-90.4	10.9
2025-01-20 13:29:06.091811	331.8	25.6	-90.3	10.2
2025-01-20 13:29:07.255688	331.5	25.5	-90.5	9.7
2025-01-20 13:29:08.420877	331.2	25.5	-90.7	13.0
2025-01-20 13:29:09.583367	330.8	25.5	-90.6	11.8
2025-01-20 13:29:10.745640	330.5	25.4	-90.8	14.5
2025-01-20 13:29:11.902760	330.2	25.4	-90.7	9.8
2025-01-20 13:29:13.063473	329.8	25.3	-90.5	8.9
2025-01-20 13:29:14.227763	329.5	25.3	-90.5	8.3
2025-01-20 13:29:15.394329	329.2	25.2	-90.6	7.1
2025-01-20 13:29:16.552506	328.9	25.2	-90.5	9.1
2025-01-20 13:29:17.706399	328.5	25.1	-90.6	9.3
2025-01-20 13:29:18.867442	328.2	25.1	-90.5	7.6
2025-01-20 13:29:20.030876	327.9	25.0	-90.6	8.5
2025-01-20 13:29:21.186666	327.6	25.0	-90.5	14.6
2025-01-20 13:29:22.342638	327.3	24.9	-90.6	6.9
2025-01-20 13:29:23.500496	327.0	24.9	-90.1	13.3
2025-01-20 13:29:24.665119	326.6	24.8	-90.5	11.4
2025-01-20 13:29:25.828710	326.3	24.8	-90.4	11.1
2025-01-20 13:29:26.990407	326.0	24.7	-90.7	8.7
2025-01-20 13:29:28.141052	325.7	24.6	-90.3	11.1
2025-01-20 13:29:29.298235	325.4	24.6	-90.5	8.3
2025-01-20 13:29:30.462551	325.1	24.5	-90.2	14.5
2025-01-20 13:29:31.624398	324.8	24.5	-90.8	15.0
2025-01-20 13:29:32.789016	324.5	24.4	-90.8	12.1
2025-01-20 13:29:33.953682	324.1	24.3	-90.9	10.3
2025-01-20 13:29:35.117091	323.8	24.3	-90.3	15.5
2025-01-20 13:29:36.282855	323.5	24.2	-90.5	12.5
2025-01-20 13:29:37.446619	323.2	24.2	-90.6	6.7
2025-01-20 13:29:38.608017	322.9	24.1	-90.7	7.6
2025-01-20 13:29:39.764955	322.6	24.0	-91.1	13.3
2025-01-20 13:29:40.930400	322.3	24.0	-90.6	8.2
2025-01-20 13:29:42.093551	322.0	23.9	-90.8	7.6
2025-01-20 13:29:43.259292	321.7	23.8	-90.8	7.0
2025-01-20 13:29:44.424158	321.4	23.8	-91.1	8.6
2025-01-20 13:29:45.592335	321.1	23.7	-90.7	8.8
2025-01-20 13:29:46.755427	320.8	23.6	-91.0	11.7
2025-01-20 13:29:47.922017	320.5	23.6	-90.5	6.9
2025-01-20 13:29:49.081421	320.3	23.5	-90.4	5.5
2025-01-20 13:29:50.245719	320.0	23.4	-90.4	5.3
2025-01-20 13:29:51.404057	319.7	23.3	-90.6	5.2
2025-01-20 13:29:52.569008	319.4	23.3	-90.5	5.7
2025-01-20 13:29:53.737976	319.1	23.2	-90.6	8.0
2025-01-20 13:29:54.901843	318.8	23.1	-90.8	8.5
2025-01-20 13:29:56.067404	318.5	23.1	-90.9	8.6
2025-01-20 13:29:57.234837	318.2	23.0	-90.1	10.6
2025-01-20 13:29:58.401991	318.0	22.9	-89.9	5.7
2025-01-20 13:29:59.565583	317.7	22.8	-90.5	3.7
2025-01-20 13:30:00.734748	317.4	22.8	-90.9	7.6
2025-01-20 13:30:01.888964	317.1	22.7	-90.9	4.5
2025-01-20 13:30:03.056011	316.9	22.6	-90.7	6.2
2025-01-20 13:30:04.201441	316.6	22.5	-90.3	8.1
2025-01-20 13:30:05.323016	316.3	22.4	-90.6	7.5
2025-01-20 13:30:06.443400	316.1	22.4	-90.9	6.4
2025-01-20 13:30:07.563782	315.8	22.3	-90.6	4.7
2025-01-20 13:30:08.684184	315.5	22.2	-90.8	7.6
2025-01-20 13:30:09.805435	315.3	22.1	-90.8	5.4
2025-01-20 13:30:10.925593	315.0	22.1	-90.7	6.1
2025-01-20 13:30:12.044707	314.8	22.0	-90.9	6.8
2025-01-20 13:30:13.172466	314.5	21.9	-90.4	9.6
2025-01-20 13:30:14.302985	314.3	21.8	-90.8	8.0
2025-01-20 13:30:15.467896	314.0	21.7	-91.0	8.3
2025-01-20 13:30:16.622944	313.7	21.7	-91.0	5.5
2025-01-20 13:30:17.803248	313.5	21.6	-90.6	6.4
2025-01-20 13:30:18.958961	313.2	21.5	-90.6	6.3
2025-01-20 13:30:20.122527	313.0	21.4	-90.7	4.3
2025-01-20 13:30:21.280072	312.7	21.3	-90.7	6.0
2025-01-20 13:30:22.443519	312.5	21.3	-90.9	3.7
2025-01-20 13:30:23.605774	312.2	21.2	-90.9	7.2
2025-01-20 13:30:24.764177	312.0	21.1	-90.6	4.4
2025-01-20 13:30:25.919040	311.7	21.0	-90.9	2.2
2025-01-20 13:30:27.092950	311.5	20.9	-91.2	4.4
2025-01-20 13:30:28.260276	311.2	20.8	-90.8	7.0
2025-01-20 13:30:29.428270	311.0	20.7	-90.8	6.4
2025-01-20 13:30:30.595301	310.7	20.7	-90.9	4.6
2025-01-20 13:30:31.754556	310.5	20.6	-89.3	5.5
2025-01-20 13:30:32.925480	310.2	20.5	-89.7	5.3
2025-01-20 13:30:34.090434	310.0	20.4	-90.7	4.6
2025-01-20 13:30:35.250388	309.8	20.3	-90.4	4.9
2025-01-20 13:30:36.413124	309.5	20.2	-90.2	5.7
2025-01-20 13:30:37.573810	309.3	20.1	-90.7	3.5
2025-01-20 13:30:38.730832	309.1	20.1	-90.5	6.4
2025-01-20 13:30:39.897969	308.8	20.0	-90.8	5.3
2025-01-20 13:30:41.060454	308.6	19.9	-90.8	3.5
2025-01-20 13:30:42.221832	308.4	19.8	-90.4	5.4
2025-01-20 13:30:43.389842	308.1	19.7	-91.3	4.7
2025-01-20 13:30:44.550956	307.9	19.6	-90.5	3.4
2025-01-20 13:30:45.711797	307.7	19.5	-90.9	8.6
2025-01-20 13:30:46.875263	307.5	19.4	-90.9	7.4
2025-01-20 13:30:48.037761	307.2	19.3	-90.9	5.8
2025-01-20 13:30:49.200883	307.0	19.3	-90.4	6.1
2025-01-20 13:30:50.365426	306.8	19.2	-90.8	7.7
2025-01-20 13:30:51.528505	306.6	19.1	-90.8	4.1
2025-01-20 13:30:52.693668	306.4	19.0	-90.8	8.8
2025-01-20 13:30:53.857692	306.1	18.9	-90.7	5.5
2025-01-20 13:30:55.023162	305.9	18.8	-91.0	8.8
2025-01-20 13:30:56.184252	305.7	18.7	-90.8	6.7
2025-01-20 13:30:57.353169	305.5	18.6	-90.6	4.7
2025-01-20 13:30:58.512076	305.3	18.5	-89.8	1.4
2025-01-20 13:30:59.693038	305.1	18.4	-90.5	5.6
2025-01-20 13:31:00.854766	304.9	18.4	-91.0	7.9
2025-01-20 13:31:02.018428	304.7	18.3	-91.1	4.1
2025-01-20 13:31:03.179022	304.5	18.2	-90.9	10.3
2025-01-20 13:31:04.342793	304.3	18.1	-90.9	7.6
2025-01-20 13:31:05.509238	304.0	18.0	-90.9	6.0
2025-01-20 13:31:06.671366	303.8	17.9	-90.6	7.4
2025-01-20 13:31:07.831876	303.6	17.8	-90.6	5.6
2025-01-20 13:31:08.995992	303.4	17.7	-90.3	4.3
2025-01-20 13:31:10.164601	303.2	17.6	-90.3	6.0
2025-01-20 13:31:11.329412	303.0	17.5	-90.3	5.3
2025-01-20 13:31:12.491203	302.8	17.5	-91.2	6.2
2025-01-20 13:31:13.651364	302.7	17.4	-91.1	11.5
2025-01-20 13:31:14.819975	302.5	17.3	-91.0	5.7
2025-01-20 13:31:15.983468	302.3	17.2	-90.9	7.6
2025-01-20 13:31:17.148408	302.1	17.1	-90.6	7.3
2025-01-20 13:31:18.315003	301.9	17.0	-90.7	4.4
2025-01-20 13:31:19.478390	301.7	16.9	-90.5	8.0
2025-01-20 13:31:20.644280	301.5	16.8	-90.8	5.7
2025-01-20 13:31:21.803844	301.3	16.7	-91.1	10.5
2025-01-20 13:31:22.968683	301.1	16.6	-91.0	8.2
2025-01-20 13:31:24.138046	300.9	16.5	-90.7	7.9
2025-01-20 13:31:25.298401	300.8	16.5	-90.7	13.5
2025-01-20 13:31:26.464716	300.6	16.4	-90.0	4.7
2025-01-20 13:31:27.626468	300.4	16.3	-90.7	5.5
2025-01-20 13:31:28.789131	300.2	16.2	-91.2	6.5
2025-01-20 13:31:29.953257	300.0	16.1	-90.4	5.4
2025-01-20 13:31:31.119495	299.8	16.0	-90.2	4.9
2025-01-20 13:31:32.276913	299.7	15.9	-90.0	6.9
2025-01-20 13:31:33.441056	299.5	15.8	-90.1	4.8
2025-01-20 13:31:34.606300	299.3	15.7	-89.9	5.7
2025-01-20 13:31:35.765940	299.1	15.6	-90.3	6.1
2025-01-20 13:31:36.930028	299.0	15.6	-90.5	3.3
2025-01-20 13:31:38.090270	298.8	15.5	-90.1	6.8
2025-01-20 13:31:39.253674	298.6	15.4	-89.9	3.3
2025-01-20 13:31:40.418182	298.5	15.3	-89.7	8.3
2025-01-20 13:31:41.582112	298.3	15.2	-90.0	7.6
2025-01-20 13:31:42.739282	298.1	15.1	-89.9	3.8
2025-01-20 13:31:43.905506	298.0	15.0	-89.3	6.0
2025-01-20 13:31:45.065345	297.8	14.9	-90.6	8.1
2025-01-20 13:31:46.224326	297.6	14.8	-90.3	8.0
2025-01-20 13:31:47.387804	297.5	14.7	-90.2	6.3
2025-01-20 13:31:48.551472	297.3	14.7	-89.6	6.5
2025-01-20 13:31:49.718633	297.1	14.6	-90.0	4.7
#Closed at: 2025-01-20 13:25:07.718754