passes_logs/2025/01/20/LEX_Murmansk/LEX_Murmansk__20250120_112033_NOAA_19_rec.log

#Pass ID: 20250120_112033_NOAA 19
#Satellite: NOAA 19
#Configuration: NOAA 19
#Start time: 2025-01-20 11:20:27.970951

#LorettStation: 1.0.0 05.05.2024
#Station: LEX_Murmansk
#Location: 33.156738 lon 68.926811 lat
#TLE: 1 33591U 09005A   25019.18116543  .00000338  00000+0  20449-3 0  9996
#TLE: 2 33591  99.0189  82.9757 0014332  46.3357 313.9000 14.13262914822133

#Time	Az	El	Level	SNR
2025-01-20 11:20:42.253478	24.5	16.3	-90.2	1.2
2025-01-20 11:20:43.415734	24.3	16.4	-89.6	0.4
2025-01-20 11:20:44.579777	24.2	16.5	-90.3	1.8
2025-01-20 11:20:45.744709	24.1	16.6	-90.5	1.9
2025-01-20 11:20:46.920507	23.9	16.7	-90.3	3.1
2025-01-20 11:20:48.087730	23.7	16.8	-90.5	3.2
2025-01-20 11:20:49.248040	23.6	16.9	-90.3	1.8
2025-01-20 11:20:50.414052	23.4	17.0	-90.5	3.4
2025-01-20 11:20:51.585748	23.3	17.1	-89.9	5.6
2025-01-20 11:20:52.752817	23.1	17.2	-90.6	4.4
2025-01-20 11:20:53.919109	23.0	17.3	-90.2	6.9
2025-01-20 11:20:55.085101	22.8	17.5	-90.2	3.3
2025-01-20 11:20:56.250019	22.6	17.6	-90.1	2.2
2025-01-20 11:20:57.409879	22.5	17.7	-90.1	0.7
2025-01-20 11:20:58.572516	22.3	17.8	-90.4	3.2
2025-01-20 11:20:59.732350	22.2	17.9	-90.6	2.3
2025-01-20 11:21:00.890063	22.0	18.0	-90.5	5.8
2025-01-20 11:21:02.055553	21.8	18.1	-90.7	8.7
2025-01-20 11:21:03.216361	21.7	18.2	-90.7	6.9
2025-01-20 11:21:04.379119	21.5	18.3	-90.5	3.3
2025-01-20 11:21:05.545550	21.3	18.4	-90.3	6.2
2025-01-20 11:21:06.709663	21.2	18.5	-90.4	3.0
2025-01-20 11:21:07.871458	21.0	18.7	-90.4	7.0
2025-01-20 11:21:09.032351	20.8	18.8	-90.8	7.4
2025-01-20 11:21:10.201017	20.6	18.9	-90.8	8.4
2025-01-20 11:21:11.365488	20.5	19.0	-90.7	8.5
2025-01-20 11:21:12.529734	20.3	19.1	-90.7	8.4
2025-01-20 11:21:13.698146	20.1	19.2	-90.8	2.9
2025-01-20 11:21:14.861790	19.9	19.3	-90.7	3.3
2025-01-20 11:21:16.025589	19.7	19.4	-90.5	2.2
2025-01-20 11:21:17.189030	19.6	19.5	-90.2	3.2
2025-01-20 11:21:18.349900	19.4	19.7	-90.5	3.3
2025-01-20 11:21:19.512062	19.2	19.8	-90.5	1.1
2025-01-20 11:21:20.677126	19.0	19.9	-90.7	4.7
2025-01-20 11:21:21.841962	18.8	20.0	-90.2	7.4
2025-01-20 11:21:23.009219	18.6	20.1	-90.5	8.4
2025-01-20 11:21:24.176700	18.4	20.2	-90.1	5.0
2025-01-20 11:21:25.342208	18.2	20.3	-90.3	2.7
2025-01-20 11:21:26.506882	18.1	20.4	-90.4	5.7
2025-01-20 11:21:27.670218	17.9	20.6	-91.1	4.9
2025-01-20 11:21:28.841751	17.7	20.7	-90.8	6.1
2025-01-20 11:21:30.009613	17.5	20.8	-91.0	11.3
2025-01-20 11:21:31.171823	17.3	20.9	-90.5	7.5
2025-01-20 11:21:32.335911	17.1	21.0	-90.7	5.9
2025-01-20 11:21:33.495745	16.9	21.1	-90.9	3.1
2025-01-20 11:21:34.657268	16.7	21.2	-91.0	1.7
2025-01-20 11:21:35.815059	16.5	21.4	-90.2	2.9
2025-01-20 11:21:36.984274	16.2	21.5	-90.8	0.2
2025-01-20 11:21:38.144628	16.0	21.6	-90.9	4.1
2025-01-20 11:21:39.307792	15.8	21.7	-91.1	2.5
2025-01-20 11:21:40.473011	15.6	21.8	-90.9	5.3
2025-01-20 11:21:41.637343	15.4	21.9	-90.9	6.4
2025-01-20 11:21:42.799504	15.2	22.1	-90.5	8.5
2025-01-20 11:21:43.961520	15.0	22.2	-90.9	7.2
2025-01-20 11:21:45.127541	14.8	22.3	-90.6	7.9
2025-01-20 11:21:46.288748	14.5	22.4	-90.8	5.1
2025-01-20 11:21:47.454714	14.3	22.5	-90.6	5.2
2025-01-20 11:21:48.612893	14.1	22.6	-90.4	8.1
2025-01-20 11:21:49.775986	13.9	22.7	-91.0	3.6
2025-01-20 11:21:50.942913	13.6	22.9	-90.8	11.8
2025-01-20 11:21:52.107977	13.4	23.0	-90.6	10.6
2025-01-20 11:21:53.278235	13.2	23.1	-90.8	10.1
2025-01-20 11:21:54.440576	12.9	23.2	-90.8	6.5
2025-01-20 11:21:55.606868	12.7	23.3	-91.2	6.8
2025-01-20 11:21:56.763743	12.5	23.4	-91.2	2.2
2025-01-20 11:21:57.927656	12.2	23.6	-91.2	4.0
2025-01-20 11:21:59.087317	12.0	23.7	-90.8	2.7
2025-01-20 11:22:00.245830	11.8	23.8	-90.9	4.9
2025-01-20 11:22:01.408486	11.5	23.9	-90.7	6.6
2025-01-20 11:22:02.568575	11.3	24.0	-91.1	7.3
2025-01-20 11:22:03.732453	11.0	24.1	-91.4	5.2
2025-01-20 11:22:04.896993	10.8	24.2	-91.0	9.1
2025-01-20 11:22:06.060286	10.5	24.4	-91.0	6.4
2025-01-20 11:22:07.224244	10.3	24.5	-91.0	3.4
2025-01-20 11:22:08.400279	10.0	24.6	-90.3	3.5
2025-01-20 11:22:09.557784	9.8	24.7	-91.2	2.8
2025-01-20 11:22:10.722406	9.5	24.8	-91.0	4.2
2025-01-20 11:22:11.884668	9.3	24.9	-90.9	9.6
2025-01-20 11:22:13.054743	9.0	25.0	-90.6	8.5
2025-01-20 11:22:14.219755	8.7	25.2	-90.9	6.4
2025-01-20 11:22:15.381418	8.5	25.3	-90.7	7.9
2025-01-20 11:22:16.546125	8.2	25.4	-90.6	4.9
2025-01-20 11:22:17.708872	7.9	25.5	-90.9	5.0
2025-01-20 11:22:18.867108	7.7	25.6	-90.9	1.3
2025-01-20 11:22:20.028667	7.4	25.7	-91.0	3.5
2025-01-20 11:22:21.198160	7.1	25.8	-91.1	1.0
2025-01-20 11:22:22.362739	6.8	26.0	-91.2	3.1
2025-01-20 11:22:23.531515	6.6	26.1	-90.8	2.8
2025-01-20 11:22:24.695251	6.3	26.2	-90.8	7.8
2025-01-20 11:22:25.850311	6.0	26.3	-90.6	6.1
2025-01-20 11:22:26.971887	5.7	26.4	-90.7	10.0
2025-01-20 11:22:28.120422	5.4	26.5	-91.2	8.3
2025-01-20 11:22:29.276563	5.2	26.6	-90.7	9.3
2025-01-20 11:22:30.442158	4.9	26.7	-91.2	4.0
2025-01-20 11:22:31.606019	4.6	26.8	-91.2	8.9
2025-01-20 11:22:32.770234	4.3	26.9	-90.9	3.5
2025-01-20 11:22:33.930598	4.0	27.1	-90.9	6.1
2025-01-20 11:22:35.091052	3.7	27.2	-90.6	7.7
2025-01-20 11:22:36.255231	3.4	27.3	-90.7	6.7
2025-01-20 11:22:37.420718	3.1	27.4	-91.0	8.2
2025-01-20 11:22:38.580916	2.8	27.5	-91.0	4.3
2025-01-20 11:22:39.749270	2.5	27.6	-91.2	8.5
2025-01-20 11:22:40.912334	2.2	27.7	-90.5	5.0
2025-01-20 11:22:42.074419	1.9	27.8	-90.9	3.5
2025-01-20 11:22:43.238011	1.5	27.9	-90.9	2.3
2025-01-20 11:22:44.398189	1.2	28.0	-91.0	2.8
2025-01-20 11:22:45.566102	0.9	28.1	-91.0	3.5
2025-01-20 11:22:46.729528	0.6	28.2	-90.8	1.4
2025-01-20 11:22:47.894597	0.3	28.3	-90.9	2.7
2025-01-20 11:22:49.051300	359.9	28.4	-91.2	4.6
2025-01-20 11:22:50.212282	359.6	28.5	-91.1	5.6
2025-01-20 11:22:51.380090	359.3	28.6	-91.3	5.8
2025-01-20 11:22:52.543266	359.0	28.7	-91.0	7.7
2025-01-20 11:22:53.704452	358.6	28.8	-91.0	5.8
2025-01-20 11:22:54.869526	358.3	28.9	-90.8	8.7
2025-01-20 11:22:56.030938	358.0	29.0	-91.2	8.4
2025-01-20 11:22:57.200296	357.6	29.1	-91.1	6.0
2025-01-20 11:22:58.361905	357.3	29.2	-90.9	4.8
2025-01-20 11:22:59.523095	356.9	29.3	-90.9	3.1
2025-01-20 11:23:00.685799	356.6	29.4	-91.3	4.9
2025-01-20 11:23:01.852569	356.3	29.5	-91.1	5.0
2025-01-20 11:23:03.030897	355.9	29.6	-90.9	7.6
2025-01-20 11:23:04.191998	355.6	29.7	-91.1	6.2
2025-01-20 11:23:05.356887	355.2	29.8	-91.0	8.0
2025-01-20 11:23:06.521121	354.9	29.9	-91.1	7.4
2025-01-20 11:23:07.686073	354.5	30.0	-90.9	5.0
2025-01-20 11:23:08.851413	354.1	30.1	-90.8	6.4
2025-01-20 11:23:10.011637	353.8	30.1	-90.1	7.4
2025-01-20 11:23:11.189872	353.4	30.2	-90.6	6.3
2025-01-20 11:23:12.351447	353.1	30.3	-91.2	3.8
2025-01-20 11:23:13.515041	352.7	30.4	-91.3	4.3
2025-01-20 11:23:14.684388	352.3	30.5	-90.8	2.6
2025-01-20 11:23:15.849139	351.9	30.6	-91.2	1.4
2025-01-20 11:23:17.014358	351.6	30.6	-91.2	3.1
2025-01-20 11:23:18.181455	351.2	30.7	-91.0	2.0
2025-01-20 11:23:19.336769	350.8	30.8	-91.6	1.9
2025-01-20 11:23:20.512004	350.4	30.9	-91.5	3.9
2025-01-20 11:23:21.676926	350.1	31.0	-91.0	9.1
2025-01-20 11:23:22.835495	349.7	31.0	-91.4	11.8
2025-01-20 11:23:24.001602	349.3	31.1	-91.1	9.1
2025-01-20 11:23:25.163258	348.9	31.2	-91.2	10.9
2025-01-20 11:23:26.324432	348.5	31.2	-91.1	10.0
2025-01-20 11:23:27.488970	348.2	31.3	-91.3	5.0
2025-01-20 11:23:28.653786	347.8	31.4	-91.1	7.4
2025-01-20 11:23:29.814147	347.4	31.5	-91.4	4.6
2025-01-20 11:23:30.982391	347.0	31.5	-91.4	9.6
2025-01-20 11:23:32.147205	346.6	31.6	-91.2	6.5
2025-01-20 11:23:33.314036	346.2	31.6	-91.0	3.1
2025-01-20 11:23:34.476278	345.8	31.7	-90.8	6.9
2025-01-20 11:23:35.639305	345.4	31.8	-90.8	3.7
2025-01-20 11:23:36.803809	345.0	31.8	-91.2	3.4
2025-01-20 11:23:37.966740	344.6	31.9	-91.3	7.8
2025-01-20 11:23:39.129871	344.2	31.9	-91.3	9.0
2025-01-20 11:23:40.296539	343.8	32.0	-91.3	9.7
2025-01-20 11:23:41.461221	343.4	32.0	-91.2	12.1
2025-01-20 11:23:42.629716	343.0	32.1	-91.3	10.4
2025-01-20 11:23:43.790241	342.6	32.1	-91.1	10.0
2025-01-20 11:23:44.953369	342.2	32.2	-91.0	11.0
2025-01-20 11:23:46.113487	341.8	32.2	-91.0	11.8
2025-01-20 11:23:47.276817	341.3	32.3	-91.0	9.8
2025-01-20 11:23:48.438346	340.9	32.3	-91.2	10.4
2025-01-20 11:23:49.603200	340.5	32.4	-91.1	6.5
2025-01-20 11:23:50.765324	340.1	32.4	-91.1	6.2
2025-01-20 11:23:51.935408	339.7	32.5	-90.9	5.0
2025-01-20 11:23:53.097994	339.3	32.5	-91.0	4.6
2025-01-20 11:23:54.267822	338.9	32.5	-90.9	4.2
2025-01-20 11:23:55.431980	338.4	32.6	-91.2	5.0
2025-01-20 11:23:56.596589	338.0	32.6	-91.0	4.2
2025-01-20 11:23:57.758760	337.6	32.6	-91.1	3.2
2025-01-20 11:23:58.923886	337.2	32.6	-91.0	1.7
2025-01-20 11:24:00.086570	336.8	32.7	-91.0	5.2
2025-01-20 11:24:01.246116	336.3	32.7	-90.9	3.0
2025-01-20 11:24:02.409934	335.9	32.7	-90.7	5.9
2025-01-20 11:24:03.575929	335.5	32.7	-90.7	10.6
2025-01-20 11:24:04.736409	335.1	32.8	-90.8	7.0
2025-01-20 11:24:05.903788	334.6	32.8	-91.3	10.2
2025-01-20 11:24:07.072996	334.2	32.8	-91.1	6.3
2025-01-20 11:24:08.234553	333.8	32.8	-91.2	10.7
2025-01-20 11:24:09.395889	333.4	32.8	-91.2	15.1
2025-01-20 11:24:10.562938	332.9	32.8	-91.3	8.6
2025-01-20 11:24:11.727994	332.5	32.8	-90.9	15.2
2025-01-20 11:24:12.885819	332.1	32.8	-91.2	9.4
2025-01-20 11:24:14.054053	331.7	32.8	-91.1	7.5
2025-01-20 11:24:15.213923	331.2	32.9	-90.9	9.9
2025-01-20 11:24:16.381283	330.8	32.9	-91.0	9.5
2025-01-20 11:24:17.543839	330.4	32.9	-91.4	7.0
2025-01-20 11:24:18.708282	330.0	32.9	-91.2	7.9
2025-01-20 11:24:19.865156	329.5	32.8	-91.1	9.7
2025-01-20 11:24:21.030438	329.1	32.8	-91.3	10.3
2025-01-20 11:24:22.187961	328.7	32.8	-91.2	6.0
2025-01-20 11:24:23.351263	328.3	32.8	-91.1	4.4
2025-01-20 11:24:24.518888	327.8	32.8	-91.3	5.7
2025-01-20 11:24:25.677233	327.4	32.8	-91.0	5.3
2025-01-20 11:24:26.836683	327.0	32.8	-90.9	4.3
2025-01-20 11:24:27.994977	326.6	32.8	-91.1	5.8
2025-01-20 11:24:29.155762	326.1	32.7	-90.9	6.6
2025-01-20 11:24:30.317377	325.7	32.7	-91.0	4.3
2025-01-20 11:24:31.483602	325.3	32.7	-90.7	7.3
2025-01-20 11:24:32.647926	324.9	32.7	-90.9	7.9
2025-01-20 11:24:33.811602	324.5	32.7	-91.1	6.0
2025-01-20 11:24:34.978698	324.0	32.6	-90.9	5.1
2025-01-20 11:24:36.142251	323.6	32.6	-90.9	7.2
2025-01-20 11:24:37.308671	323.2	32.6	-90.8	3.1
2025-01-20 11:24:38.472029	322.8	32.5	-90.9	7.4
2025-01-20 11:24:39.635439	322.4	32.5	-91.5	7.3
2025-01-20 11:24:40.798939	321.9	32.5	-90.8	3.4
2025-01-20 11:24:41.963368	321.5	32.4	-91.1	5.2
2025-01-20 11:24:43.129815	321.1	32.4	-90.9	11.0
2025-01-20 11:24:44.285481	320.7	32.4	-91.3	4.3
2025-01-20 11:24:45.449910	320.3	32.3	-90.9	5.2
2025-01-20 11:24:46.621965	319.9	32.3	-90.4	9.3
2025-01-20 11:24:47.785756	319.5	32.2	-91.3	6.7
2025-01-20 11:24:48.953326	319.0	32.2	-91.0	7.3
2025-01-20 11:24:50.121031	318.6	32.1	-91.1	8.6
2025-01-20 11:24:51.281329	318.2	32.1	-91.4	4.4
2025-01-20 11:24:52.452971	317.8	32.0	-91.2	5.8
2025-01-20 11:24:53.615392	317.4	32.0	-91.0	8.6
2025-01-20 11:24:54.780292	317.0	31.9	-90.9	7.2
2025-01-20 11:24:55.941199	316.6	31.9	-90.9	8.5
2025-01-20 11:24:57.101623	316.2	31.8	-91.4	11.1
2025-01-20 11:24:58.278971	315.8	31.7	-90.5	5.0
2025-01-20 11:24:59.435970	315.4	31.7	-91.4	5.8
2025-01-20 11:25:00.596978	315.0	31.6	-91.0	9.9
2025-01-20 11:25:01.756484	314.6	31.6	-91.1	6.1
2025-01-20 11:25:02.923895	314.2	31.5	-91.1	6.7
2025-01-20 11:25:04.087469	313.8	31.4	-91.1	7.5
2025-01-20 11:25:05.248257	313.5	31.4	-90.9	4.0
2025-01-20 11:25:06.414880	313.1	31.3	-91.0	6.5
2025-01-20 11:25:07.578523	312.7	31.2	-91.2	9.0
2025-01-20 11:25:08.745580	312.3	31.1	-91.2	6.5
2025-01-20 11:25:09.905214	311.9	31.1	-91.4	7.7
2025-01-20 11:25:11.069387	311.5	31.0	-90.5	10.9
2025-01-20 11:25:12.237232	311.2	30.9	-90.0	4.9
2025-01-20 11:25:13.401760	310.8	30.8	-90.7	9.5
2025-01-20 11:25:14.565202	310.4	30.8	-91.1	10.0
2025-01-20 11:25:15.726432	310.0	30.7	-91.2	5.7
2025-01-20 11:25:16.893611	309.7	30.6	-91.1	9.9
2025-01-20 11:25:18.056701	309.3	30.5	-91.5	6.5
2025-01-20 11:25:19.215223	308.9	30.4	-91.1	6.2
2025-01-20 11:25:20.376867	308.6	30.4	-91.4	7.3
2025-01-20 11:25:21.541513	308.2	30.3	-91.2	6.1
2025-01-20 11:25:22.708070	307.8	30.2	-90.7	4.6
2025-01-20 11:25:23.870993	307.5	30.1	-90.5	7.4
2025-01-20 11:25:25.038231	307.1	30.0	-91.2	7.3
2025-01-20 11:25:26.197137	306.8	29.9	-90.9	5.7
2025-01-20 11:25:27.353205	306.4	29.8	-90.9	4.1
2025-01-20 11:25:28.515654	306.1	29.7	-90.9	5.6
2025-01-20 11:25:29.675058	305.7	29.7	-91.1	5.8
2025-01-20 11:25:30.836757	305.4	29.6	-91.3	3.7
2025-01-20 11:25:32.005198	305.0	29.5	-91.2	8.0
2025-01-20 11:25:33.171657	304.7	29.4	-91.2	5.8
2025-01-20 11:25:34.329331	304.3	29.3	-91.0	3.5
2025-01-20 11:25:35.493064	304.0	29.2	-91.1	6.2
2025-01-20 11:25:36.656889	303.6	29.1	-90.9	3.7
2025-01-20 11:25:37.823582	303.3	29.0	-90.7	4.7
2025-01-20 11:25:38.982815	303.0	28.9	-90.6	3.9
2025-01-20 11:25:40.145393	302.6	28.8	-90.9	5.3
2025-01-20 11:25:41.305543	302.3	28.7	-90.8	4.5
2025-01-20 11:25:42.466458	302.0	28.6	-91.3	7.2
2025-01-20 11:25:43.630238	301.7	28.5	-91.4	10.0
2025-01-20 11:25:44.797105	301.3	28.4	-91.2	5.3
2025-01-20 11:25:45.959649	301.0	28.3	-91.1	3.3
2025-01-20 11:25:47.122706	300.7	28.2	-91.0	11.2
2025-01-20 11:25:48.293722	300.4	28.1	-91.1	9.5
2025-01-20 11:25:49.458369	300.1	28.0	-91.0	6.7
2025-01-20 11:25:50.625768	299.7	27.9	-91.3	13.6
2025-01-20 11:25:51.794785	299.4	27.8	-91.2	10.3
2025-01-20 11:25:52.959731	299.1	27.7	-91.2	7.7
2025-01-20 11:25:54.122147	298.8	27.6	-91.1	11.5
2025-01-20 11:25:55.288094	298.5	27.4	-91.0	8.9
2025-01-20 11:25:56.454227	298.2	27.3	-91.1	6.5
2025-01-20 11:25:57.617831	297.9	27.2	-91.0	5.0
2025-01-20 11:25:58.780611	297.6	27.1	-91.2	12.7
2025-01-20 11:25:59.941553	297.3	27.0	-91.5	3.7
2025-01-20 11:26:01.098377	297.0	26.9	-91.4	5.0
2025-01-20 11:26:02.264467	296.7	26.8	-91.2	4.8
2025-01-20 11:26:03.428581	296.4	26.7	-90.8	9.3
2025-01-20 11:26:04.595684	296.1	26.6	-91.2	9.6
2025-01-20 11:26:05.758027	295.9	26.5	-91.2	3.3
2025-01-20 11:26:06.922353	295.6	26.4	-91.2	7.3
2025-01-20 11:26:08.081137	295.3	26.2	-91.1	7.5
2025-01-20 11:26:09.248878	295.0	26.1	-91.1	3.9
2025-01-20 11:26:10.408037	294.7	26.0	-91.4	2.5
2025-01-20 11:26:11.569645	294.5	25.9	-91.5	3.5
2025-01-20 11:26:12.737990	294.2	25.8	-91.4	2.1
2025-01-20 11:26:13.900779	293.9	25.7	-91.4	1.4
2025-01-20 11:26:15.069243	293.6	25.6	-91.2	2.7
2025-01-20 11:26:16.236673	293.4	25.5	-91.3	2.1
2025-01-20 11:26:17.401122	293.1	25.3	-91.4	2.4
2025-01-20 11:26:18.564424	292.8	25.2	-91.4	2.6
2025-01-20 11:26:19.718000	292.6	25.1	-91.0	3.6
2025-01-20 11:26:20.884569	292.3	25.0	-91.5	0.3
2025-01-20 11:26:22.055681	292.0	24.9	-91.2	3.7
2025-01-20 11:26:23.219882	291.8	24.8	-91.3	1.7
2025-01-20 11:26:24.383797	291.5	24.7	-91.2	9.6
2025-01-20 11:26:25.544736	291.3	24.5	-90.9	9.9
2025-01-20 11:26:26.708178	291.0	24.4	-91.1	4.6
2025-01-20 11:26:27.872881	290.8	24.3	-90.3	11.1
2025-01-20 11:26:29.036071	290.5	24.2	-88.5	8.7
2025-01-20 11:26:30.200434	290.3	24.1	-89.4	9.1
2025-01-20 11:26:31.368644	290.0	24.0	-91.3	8.7
2025-01-20 11:26:32.531764	289.8	23.9	-91.5	7.9
2025-01-20 11:26:33.697250	289.6	23.7	-91.2	10.1
2025-01-20 11:26:34.861408	289.3	23.6	-91.2	5.7
2025-01-20 11:26:36.027697	289.1	23.5	-91.0	8.5
2025-01-20 11:26:37.193247	288.8	23.4	-91.2	4.9
2025-01-20 11:26:38.363251	288.6	23.3	-90.8	2.7
2025-01-20 11:26:39.527888	288.4	23.2	-90.7	2.8
2025-01-20 11:26:40.686143	288.1	23.0	-90.7	4.4
2025-01-20 11:26:41.852488	287.9	22.9	-90.8	3.5
2025-01-20 11:26:43.016375	287.7	22.8	-90.7	4.8
2025-01-20 11:26:44.184267	287.5	22.7	-90.6	2.2
2025-01-20 11:26:45.349099	287.2	22.6	-90.5	1.2
2025-01-20 11:26:46.517247	287.0	22.5	-89.9	5.2
2025-01-20 11:26:47.687252	286.8	22.4	-90.1	3.6
2025-01-20 11:26:48.847375	286.6	22.2	-90.6	3.1
2025-01-20 11:26:50.011024	286.4	22.1	-89.9	6.5
2025-01-20 11:26:51.175748	286.1	22.0	-89.5	2.7
2025-01-20 11:26:52.342835	285.9	21.9	-90.3	6.7
2025-01-20 11:26:53.509033	285.7	21.8	-90.4	4.6
2025-01-20 11:26:54.677086	285.5	21.7	-90.1	1.0
2025-01-20 11:26:55.840542	285.3	21.5	-90.3	5.5
2025-01-20 11:26:57.007309	285.1	21.4	-90.0	6.7
2025-01-20 11:26:58.171798	284.9	21.3	-90.9	11.4
2025-01-20 11:26:59.331539	284.7	21.2	-90.7	2.7
2025-01-20 11:27:00.491458	284.5	21.1	-91.2	2.3
2025-01-20 11:27:01.656514	284.3	21.0	-91.1	10.1
2025-01-20 11:27:02.820747	284.1	20.9	-91.1	6.0
2025-01-20 11:27:03.987493	283.9	20.7	-91.0	4.0
2025-01-20 11:27:05.151754	283.7	20.6	-91.2	9.2
2025-01-20 11:27:06.314031	283.5	20.5	-91.1	6.0
2025-01-20 11:27:07.475873	283.3	20.4	-90.8	4.4
2025-01-20 11:27:08.639402	283.1	20.3	-91.2	5.6
2025-01-20 11:27:09.808485	282.9	20.2	-91.2	5.0
2025-01-20 11:27:10.966790	282.7	20.1	-91.3	12.2
2025-01-20 11:27:12.128558	282.5	20.0	-91.3	8.7
2025-01-20 11:27:13.295321	282.3	19.8	-91.3	11.7
2025-01-20 11:27:14.458684	282.1	19.7	-91.4	3.4
2025-01-20 11:27:15.626797	282.0	19.6	-91.2	10.8
2025-01-20 11:27:16.790786	281.8	19.5	-91.4	9.8
2025-01-20 11:27:17.955141	281.6	19.4	-91.5	9.3
2025-01-20 11:27:19.123554	281.4	19.3	-91.3	6.2
2025-01-20 11:27:20.284139	281.2	19.2	-91.3	5.6
2025-01-20 11:27:21.452694	281.1	19.1	-91.1	2.3
2025-01-20 11:27:22.616127	280.9	19.0	-91.2	3.6
2025-01-20 11:27:23.783060	280.7	18.8	-91.1	2.8
2025-01-20 11:27:24.951452	280.5	18.7	-91.1	0.6
2025-01-20 11:27:26.111115	280.4	18.6	-91.3	3.8
2025-01-20 11:27:27.272954	280.2	18.5	-91.1	9.0
2025-01-20 11:27:28.433327	280.0	18.4	-91.4	4.6
2025-01-20 11:27:29.595964	279.9	18.3	-91.3	2.3
2025-01-20 11:27:30.759140	279.7	18.2	-91.4	5.5
2025-01-20 11:27:31.926419	279.5	18.1	-91.2	5.3
2025-01-20 11:27:33.084959	279.4	18.0	-91.4	6.0
2025-01-20 11:27:34.246714	279.2	17.9	-91.4	2.5
2025-01-20 11:27:35.407714	279.0	17.7	-91.3	4.2
2025-01-20 11:27:36.567352	278.9	17.6	-91.2	8.6
2025-01-20 11:27:37.731719	278.7	17.5	-91.3	8.7
2025-01-20 11:27:38.890806	278.6	17.4	-91.3	2.8
2025-01-20 11:27:40.050471	278.4	17.3	-91.4	6.5
2025-01-20 11:27:41.216008	278.2	17.2	-91.3	5.4
2025-01-20 11:27:42.371024	278.1	17.1	-91.4	3.1
2025-01-20 11:27:43.523312	277.9	17.0	-91.1	4.2
2025-01-20 11:27:44.683420	277.8	16.9	-91.1	8.7
2025-01-20 11:27:45.844720	277.6	16.8	-91.2	9.2
2025-01-20 11:27:47.009400	277.5	16.7	-91.3	4.5
2025-01-20 11:27:48.172522	277.3	16.6	-91.3	10.1
2025-01-20 11:27:49.336075	277.2	16.5	-91.8	10.4
2025-01-20 11:27:50.495825	277.0	16.4	-91.5	6.7
2025-01-20 11:27:51.668512	276.9	16.3	-91.5	10.9
2025-01-20 11:27:52.833575	276.7	16.1	-91.4	4.7
2025-01-20 11:27:54.004119	276.6	16.0	-91.4	7.9
2025-01-20 11:27:55.168314	276.4	15.9	-91.5	2.3
2025-01-20 11:27:56.329031	276.3	15.8	-91.7	6.4
2025-01-20 11:27:57.493056	276.2	15.7	-91.6	1.8
2025-01-20 11:27:58.652909	276.0	15.6	-91.5	2.7
2025-01-20 11:27:59.817835	275.9	15.5	-91.6	4.3
2025-01-20 11:28:00.974268	275.7	15.4	-91.4	2.8
2025-01-20 11:28:02.142454	275.6	15.3	-91.1	2.5
2025-01-20 11:28:03.306922	275.5	15.2	-91.1	3.1
2025-01-20 11:28:04.471504	275.3	15.1	-91.3	4.2
2025-01-20 11:28:05.636529	275.2	15.0	-91.5	3.5
2025-01-20 11:28:06.801809	275.1	14.9	-91.2	5.3
2025-01-20 11:28:07.965415	274.9	14.8	-91.6	5.9
2025-01-20 11:28:09.124663	274.8	14.7	-91.5	1.4
2025-01-20 11:28:10.279505	274.7	14.6	-91.2	8.1
#Closed at: 2025-01-20 11:20:33.044336