passes_logs/2025/01/20/LEX_Murmansk/LEX_Murmansk__20250120_143951_NOAA_19_rec.log

#Pass ID: 20250120_143951_NOAA 19
#Satellite: NOAA 19
#Configuration: NOAA 19
#Start time: 2025-01-20 14:39:46.773264

#LorettStation: 1.0.0 05.05.2024
#Station: LEX_Murmansk
#Location: 33.156738 lon 68.926811 lat
#TLE: 1 33591U 09005A   25020.17232911  .00000399  00000+0  23710-3 0  9996
#TLE: 2 33591  99.0187  83.9745 0014303  43.5990 316.6309 14.13263973822272

#Time	Az	El	Level	SNR
2025-01-20 14:39:58.935520	66.4	16.0	-90.4	5.4
2025-01-20 14:40:00.099599	66.3	16.1	-90.2	4.8
2025-01-20 14:40:01.260529	66.1	16.2	-90.4	7.8
2025-01-20 14:40:02.413630	65.9	16.3	-90.3	7.4
2025-01-20 14:40:03.585049	65.7	16.4	-90.4	3.4
2025-01-20 14:40:04.744375	65.6	16.5	-90.8	2.5
2025-01-20 14:40:05.910525	65.4	16.6	-90.4	4.6
2025-01-20 14:40:07.085516	65.2	16.6	-90.2	3.0
2025-01-20 14:40:08.245896	65.0	16.7	-90.6	3.0
2025-01-20 14:40:09.405128	64.9	16.8	-90.8	4.9
2025-01-20 14:40:10.573002	64.7	16.9	-90.8	8.2
2025-01-20 14:40:11.736363	64.5	17.0	-90.4	7.1
2025-01-20 14:40:12.901413	64.3	17.1	-88.9	8.1
2025-01-20 14:40:14.065135	64.1	17.2	-90.4	6.7
2025-01-20 14:40:15.233648	63.9	17.3	-90.4	2.9
2025-01-20 14:40:16.395005	63.8	17.4	-90.0	5.9
2025-01-20 14:40:17.552915	63.6	17.5	-89.8	5.5
2025-01-20 14:40:18.709242	63.4	17.6	-90.0	10.2
2025-01-20 14:40:19.856064	63.2	17.7	-90.2	10.9
2025-01-20 14:40:20.975921	63.0	17.8	-90.3	11.8
2025-01-20 14:40:22.095817	62.8	17.9	-90.0	9.3
2025-01-20 14:40:23.216711	62.6	18.0	-89.8	6.2
2025-01-20 14:40:24.336961	62.5	18.1	-90.1	4.0
2025-01-20 14:40:25.458757	62.3	18.2	-90.0	2.5
2025-01-20 14:40:26.579299	62.1	18.3	-90.6	2.7
2025-01-20 14:40:27.699535	61.9	18.3	-90.6	3.7
2025-01-20 14:40:28.823770	61.7	18.4	-90.5	1.3
2025-01-20 14:40:29.961508	61.5	18.5	-89.9	3.4
2025-01-20 14:40:31.115227	61.3	18.6	-90.3	7.5
2025-01-20 14:40:32.263222	61.1	18.7	-90.1	9.9
2025-01-20 14:40:33.389023	60.9	18.8	-90.1	7.1
2025-01-20 14:40:34.542233	60.7	18.9	-90.9	8.6
2025-01-20 14:40:35.691913	60.5	19.0	-90.9	8.6
2025-01-20 14:40:36.825943	60.3	19.1	-89.8	4.5
2025-01-20 14:40:37.981643	60.1	19.2	-90.3	6.2
2025-01-20 14:40:39.142309	59.9	19.3	-89.9	9.1
2025-01-20 14:40:40.275161	59.7	19.4	-90.0	9.9
2025-01-20 14:40:41.424590	59.4	19.5	-90.3	12.0
2025-01-20 14:40:42.585421	59.2	19.6	-90.7	9.6
2025-01-20 14:40:43.736145	59.0	19.7	-90.4	5.2
2025-01-20 14:40:44.890329	58.8	19.8	-90.3	6.4
2025-01-20 14:40:46.051519	58.6	19.9	-90.6	3.8
2025-01-20 14:40:47.207401	58.4	20.0	-90.5	1.5
2025-01-20 14:40:48.362426	58.1	20.1	-90.3	2.8
2025-01-20 14:40:49.532183	57.9	20.1	-90.0	3.5
2025-01-20 14:40:50.701412	57.7	20.2	-90.1	4.3
2025-01-20 14:40:51.867260	57.5	20.3	-90.1	6.3
2025-01-20 14:40:53.037984	57.2	20.4	-89.8	11.5
2025-01-20 14:40:54.201406	57.0	20.5	-90.0	11.6
2025-01-20 14:40:55.356803	56.8	20.6	-90.3	9.0
2025-01-20 14:40:56.517415	56.6	20.7	-90.9	6.4
2025-01-20 14:40:57.674390	56.3	20.8	-90.5	7.8
2025-01-20 14:40:58.838159	56.1	20.9	-90.2	4.0
2025-01-20 14:40:59.998504	55.8	21.0	-90.2	3.7
2025-01-20 14:41:01.148002	55.6	21.1	-89.9	5.6
2025-01-20 14:41:02.277700	55.4	21.2	-90.1	10.0
2025-01-20 14:41:03.432581	55.1	21.3	-90.3	12.8
2025-01-20 14:41:04.573956	54.9	21.4	-91.0	14.2
2025-01-20 14:41:05.725471	54.7	21.5	-90.5	10.0
2025-01-20 14:41:06.887235	54.4	21.6	-90.7	8.0
2025-01-20 14:41:08.045903	54.2	21.6	-90.8	7.5
2025-01-20 14:41:09.200434	53.9	21.7	-90.4	3.4
2025-01-20 14:41:10.355591	53.7	21.8	-90.5	5.0
2025-01-20 14:41:11.511510	53.4	21.9	-90.8	3.1
2025-01-20 14:41:12.667584	53.2	22.0	-90.9	3.3
2025-01-20 14:41:13.818474	52.9	22.1	-91.0	5.6
2025-01-20 14:41:14.939926	52.7	22.2	-90.8	7.0
2025-01-20 14:41:16.098339	52.4	22.3	-90.4	7.0
2025-01-20 14:41:17.248372	52.2	22.4	-90.6	12.6
2025-01-20 14:41:18.404044	51.9	22.5	-90.8	10.2
2025-01-20 14:41:19.553235	51.7	22.6	-90.4	10.1
2025-01-20 14:41:20.719640	51.4	22.6	-90.6	8.9
2025-01-20 14:41:21.881266	51.1	22.7	-90.5	7.7
2025-01-20 14:41:23.045723	50.9	22.8	-90.5	7.1
2025-01-20 14:41:24.207427	50.6	22.9	-90.9	4.8
2025-01-20 14:41:25.363244	50.3	23.0	-91.1	6.9
2025-01-20 14:41:26.490322	50.1	23.1	-91.1	10.2
2025-01-20 14:41:27.637889	49.8	23.2	-90.5	10.5
2025-01-20 14:41:28.784816	49.5	23.3	-90.0	12.2
2025-01-20 14:41:29.906266	49.3	23.3	-90.5	10.3
2025-01-20 14:41:31.056905	49.0	23.4	-90.7	14.3
2025-01-20 14:41:32.206896	48.7	23.5	-91.1	8.9
2025-01-20 14:41:33.350416	48.4	23.6	-90.6	5.7
2025-01-20 14:41:34.505536	48.2	23.7	-90.5	5.4
2025-01-20 14:41:35.660864	47.9	23.8	-91.0	4.8
2025-01-20 14:41:36.820846	47.6	23.8	-91.0	1.1
2025-01-20 14:41:37.975390	47.3	23.9	-91.0	3.5
2025-01-20 14:41:39.131094	47.0	24.0	-90.7	5.1
2025-01-20 14:41:40.295204	46.7	24.1	-90.6	3.7
2025-01-20 14:41:41.433361	46.5	24.2	-91.0	7.8
2025-01-20 14:41:42.571109	46.2	24.2	-90.3	11.1
2025-01-20 14:41:43.726069	45.9	24.3	-91.0	11.7
2025-01-20 14:41:44.867712	45.6	24.4	-90.5	11.0
2025-01-20 14:41:46.016572	45.3	24.5	-90.5	10.3
2025-01-20 14:41:47.140344	45.0	24.6	-90.6	9.6
2025-01-20 14:41:48.300730	44.7	24.6	-90.4	6.9
2025-01-20 14:41:49.449775	44.4	24.7	-90.8	7.8
2025-01-20 14:41:50.606426	44.1	24.8	-91.1	7.8
2025-01-20 14:41:51.760188	43.8	24.9	-91.0	4.1
2025-01-20 14:41:52.916118	43.5	24.9	-90.6	7.6
2025-01-20 14:41:54.075221	43.2	25.0	-90.6	6.7
2025-01-20 14:41:55.235566	42.9	25.1	-90.6	7.4
2025-01-20 14:41:56.397333	42.6	25.2	-90.7	6.3
2025-01-20 14:41:57.562128	42.3	25.2	-90.8	10.2
2025-01-20 14:41:58.717914	42.0	25.3	-90.5	9.9
2025-01-20 14:41:59.877522	41.7	25.4	-90.9	8.5
2025-01-20 14:42:01.032811	41.4	25.5	-90.8	7.8
2025-01-20 14:42:02.197058	41.0	25.5	-90.8	3.9
2025-01-20 14:42:03.357214	40.7	25.6	-90.8	1.9
2025-01-20 14:42:04.519618	40.4	25.7	-90.8	1.1
2025-01-20 14:42:05.682094	40.1	25.7	-90.9	2.5
2025-01-20 14:42:06.840753	39.8	25.8	-90.4	1.7
2025-01-20 14:42:08.005160	39.4	25.9	-90.7	3.8
2025-01-20 14:42:09.162151	39.1	25.9	-90.3	3.7
2025-01-20 14:42:10.321200	38.8	26.0	-90.5	4.6
2025-01-20 14:42:11.484407	38.5	26.1	-90.5	6.1
2025-01-20 14:42:12.619416	38.2	26.1	-90.7	9.1
2025-01-20 14:42:13.764814	37.8	26.2	-90.4	6.5
2025-01-20 14:42:14.923283	37.5	26.2	-90.4	7.5
2025-01-20 14:42:16.073033	37.2	26.3	-90.7	10.7
2025-01-20 14:42:17.226554	36.8	26.4	-90.4	7.0
2025-01-20 14:42:18.372408	36.5	26.4	-90.3	4.8
2025-01-20 14:42:19.533763	36.2	26.5	-90.8	6.4
2025-01-20 14:42:20.694017	35.8	26.5	-90.9	2.8
2025-01-20 14:42:21.853044	35.5	26.6	-90.5	3.4
2025-01-20 14:42:23.023302	35.2	26.6	-90.7	5.3
2025-01-20 14:42:24.193270	34.8	26.7	-90.9	4.0
2025-01-20 14:42:25.354785	34.5	26.7	-91.0	2.8
2025-01-20 14:42:26.524096	34.1	26.8	-90.9	6.1
2025-01-20 14:42:27.695143	33.8	26.8	-90.9	5.8
2025-01-20 14:42:28.842507	33.5	26.9	-90.3	6.8
2025-01-20 14:42:30.004521	33.1	26.9	-90.7	9.2
2025-01-20 14:42:31.166783	32.8	27.0	-90.1	9.7
2025-01-20 14:42:32.332765	32.4	27.0	-90.5	5.7
2025-01-20 14:42:33.497927	32.1	27.1	-90.6	6.8
2025-01-20 14:42:34.661636	31.7	27.1	-90.7	5.8
2025-01-20 14:42:35.826363	31.4	27.2	-90.6	7.7
2025-01-20 14:42:36.988032	31.0	27.2	-90.3	5.5
2025-01-20 14:42:38.149773	30.7	27.2	-90.4	5.9
2025-01-20 14:42:39.305394	30.3	27.3	-90.3	7.5
2025-01-20 14:42:40.463391	30.0	27.3	-90.2	4.2
2025-01-20 14:42:41.626259	29.6	27.3	-90.3	4.2
2025-01-20 14:42:42.794704	29.3	27.4	-90.3	2.5
2025-01-20 14:42:43.957370	28.9	27.4	-90.5	2.8
2025-01-20 14:42:45.123077	28.5	27.5	-90.4	5.9
2025-01-20 14:42:46.284562	28.2	27.5	-90.1	2.6
2025-01-20 14:42:47.442300	27.8	27.5	-90.7	4.1
2025-01-20 14:42:48.605530	27.5	27.5	-91.0	4.3
2025-01-20 14:42:49.765500	27.1	27.6	-90.8	2.6
2025-01-20 14:42:50.927879	26.7	27.6	-90.2	4.8
2025-01-20 14:42:52.080680	26.4	27.6	-90.3	3.7
2025-01-20 14:42:53.204476	26.0	27.6	-90.1	2.2
2025-01-20 14:42:54.325513	25.7	27.7	-90.1	2.6
2025-01-20 14:42:55.445994	25.3	27.7	-90.5	8.4
2025-01-20 14:42:56.566993	25.0	27.7	-90.4	10.1
2025-01-20 14:42:57.688919	24.6	27.7	-90.4	6.1
2025-01-20 14:42:58.809966	24.3	27.7	-90.1	9.3
2025-01-20 14:42:59.930905	23.9	27.8	-90.5	11.1
2025-01-20 14:43:01.054742	23.6	27.8	-90.2	4.7
2025-01-20 14:43:02.181061	23.2	27.8	-90.1	7.4
2025-01-20 14:43:03.305874	22.9	27.8	-90.1	4.8
2025-01-20 14:43:04.451600	22.5	27.8	-90.2	8.2
2025-01-20 14:43:05.594643	22.2	27.8	-89.8	9.6
2025-01-20 14:43:06.764046	21.8	27.8	-90.4	7.3
2025-01-20 14:43:07.917548	21.4	27.8	-90.4	7.0
2025-01-20 14:43:09.076496	21.1	27.9	-90.4	8.3
2025-01-20 14:43:10.237005	20.7	27.9	-90.4	4.6
2025-01-20 14:43:11.392270	20.3	27.9	-90.9	3.4
2025-01-20 14:43:12.546434	20.0	27.9	-90.5	2.9
2025-01-20 14:43:13.680713	19.6	27.9	-90.5	3.2
2025-01-20 14:43:14.822059	19.3	27.9	-90.0	3.3
2025-01-20 14:43:15.985637	18.9	27.9	-90.5	5.3
2025-01-20 14:43:17.127244	18.5	27.9	-90.2	8.8
2025-01-20 14:43:18.278292	18.2	27.9	-90.3	4.8
2025-01-20 14:43:19.429035	17.8	27.9	-90.5	8.0
2025-01-20 14:43:20.584061	17.4	27.8	-90.1	6.4
2025-01-20 14:43:21.737082	17.1	27.8	-90.5	3.7
2025-01-20 14:43:22.898887	16.7	27.8	-90.2	4.4
2025-01-20 14:43:24.061644	16.4	27.8	-89.9	6.5
2025-01-20 14:43:25.222980	16.0	27.8	-90.4	3.9
2025-01-20 14:43:26.382654	15.6	27.8	-90.2	4.2
2025-01-20 14:43:27.543733	15.3	27.8	-90.6	4.7
2025-01-20 14:43:28.674992	14.9	27.8	-90.7	5.3
2025-01-20 14:43:29.823015	14.5	27.8	-90.7	4.4
2025-01-20 14:43:30.974263	14.2	27.7	-90.9	8.5
2025-01-20 14:43:32.129709	13.8	27.7	-90.7	3.7
2025-01-20 14:43:33.276073	13.5	27.7	-90.9	7.8
2025-01-20 14:43:34.434534	13.1	27.7	-90.2	6.8
2025-01-20 14:43:35.588324	12.8	27.7	-90.8	5.3
2025-01-20 14:43:36.746427	12.4	27.6	-90.8	9.0
2025-01-20 14:43:37.903705	12.0	27.6	-90.3	8.7
2025-01-20 14:43:39.064315	11.7	27.6	-90.6	3.3
2025-01-20 14:43:40.216043	11.3	27.6	-90.2	4.6
2025-01-20 14:43:41.369786	11.0	27.5	-90.4	5.5
2025-01-20 14:43:42.499084	10.6	27.5	-90.7	8.2
2025-01-20 14:43:43.645051	10.3	27.5	-90.3	9.8
2025-01-20 14:43:44.793254	9.9	27.4	-90.4	8.2
2025-01-20 14:43:45.937632	9.6	27.4	-90.5	8.3
2025-01-20 14:43:47.095298	9.2	27.4	-90.2	8.2
2025-01-20 14:43:48.239870	8.9	27.3	-90.4	8.1
2025-01-20 14:43:49.397048	8.5	27.3	-90.5	6.6
2025-01-20 14:43:50.567095	8.1	27.3	-90.4	3.8
2025-01-20 14:43:51.732579	7.8	27.2	-90.1	6.5
2025-01-20 14:43:52.890727	7.4	27.2	-90.4	6.4
2025-01-20 14:43:54.024866	7.1	27.1	-90.3	5.0
2025-01-20 14:43:55.170856	6.8	27.1	-90.2	6.7
2025-01-20 14:43:56.328007	6.4	27.1	-90.3	6.0
2025-01-20 14:43:57.477872	6.1	27.0	-90.3	7.4
2025-01-20 14:43:58.632884	5.7	27.0	-90.0	6.2
2025-01-20 14:43:59.780254	5.4	26.9	-89.8	6.3
2025-01-20 14:44:00.932725	5.0	26.9	-90.1	4.3
2025-01-20 14:44:02.091512	4.7	26.8	-89.9	6.6
2025-01-20 14:44:03.231460	4.4	26.8	-89.7	5.4
2025-01-20 14:44:04.360251	4.0	26.7	-89.8	5.8
2025-01-20 14:44:05.488863	3.7	26.7	-90.1	7.5
2025-01-20 14:44:06.629540	3.4	26.6	-90.1	7.3
2025-01-20 14:44:07.780226	3.0	26.6	-90.7	6.7
2025-01-20 14:44:08.924776	2.7	26.5	-90.5	7.2
2025-01-20 14:44:10.050759	2.4	26.5	-90.0	5.8
2025-01-20 14:44:11.206457	2.1	26.4	-86.3	3.9
2025-01-20 14:44:12.358359	1.7	26.3	-90.1	3.1
2025-01-20 14:44:13.488449	1.4	26.3	-90.1	5.0
2025-01-20 14:44:14.640277	1.1	26.2	-90.1	4.8
2025-01-20 14:44:15.792671	0.7	26.2	-90.5	6.8
2025-01-20 14:44:16.947476	0.4	26.1	-90.5	8.3
2025-01-20 14:44:18.094257	0.1	26.0	-90.3	8.0
2025-01-20 14:44:19.214635	359.8	26.0	-89.4	5.8
2025-01-20 14:44:20.372004	359.5	25.9	-90.5	10.5
2025-01-20 14:44:21.523075	359.1	25.9	-90.5	6.6
2025-01-20 14:44:22.674884	358.8	25.8	-90.2	7.2
2025-01-20 14:44:23.833258	358.5	25.7	-89.4	6.7
2025-01-20 14:44:24.979091	358.2	25.7	-90.3	7.0
2025-01-20 14:44:26.138996	357.9	25.6	-90.4	11.0
2025-01-20 14:44:27.299051	357.6	25.5	-90.3	11.5
2025-01-20 14:44:28.458680	357.2	25.5	-90.3	10.4
2025-01-20 14:44:29.590296	356.9	25.4	-90.0	8.7
2025-01-20 14:44:30.736544	356.6	25.3	-90.5	11.5
2025-01-20 14:44:31.895159	356.3	25.2	-90.8	12.7
2025-01-20 14:44:33.028202	356.0	25.2	-90.7	10.3
2025-01-20 14:44:34.188937	355.7	25.1	-89.8	15.0
2025-01-20 14:44:35.343806	355.4	25.0	-90.3	13.9
2025-01-20 14:44:36.520257	355.1	24.9	-90.7	14.6
2025-01-20 14:44:37.677985	354.8	24.9	-90.4	13.0
2025-01-20 14:44:38.850511	354.5	24.8	-90.6	14.2
2025-01-20 14:44:40.004162	354.2	24.7	-90.8	11.5
2025-01-20 14:44:41.163552	353.9	24.6	-90.9	11.6
2025-01-20 14:44:42.331762	353.6	24.6	-90.6	9.9
2025-01-20 14:44:43.496149	353.3	24.5	-90.7	11.4
2025-01-20 14:44:44.661402	353.0	24.4	-90.7	11.9
2025-01-20 14:44:45.824875	352.7	24.3	-90.2	10.2
2025-01-20 14:44:46.987041	352.4	24.2	-90.6	12.1
2025-01-20 14:44:48.150098	352.1	24.2	-90.9	7.6
2025-01-20 14:44:49.309299	351.9	24.1	-91.0	7.2
2025-01-20 14:44:50.470978	351.6	24.0	-90.8	6.0
2025-01-20 14:44:51.629183	351.3	23.9	-90.9	8.1
2025-01-20 14:44:52.794888	351.0	23.8	-91.1	7.1
2025-01-20 14:44:53.932089	350.7	23.8	-90.4	5.4
2025-01-20 14:44:55.073772	350.4	23.7	-91.1	3.7
2025-01-20 14:44:56.231741	350.2	23.6	-90.9	5.5
2025-01-20 14:44:57.373862	349.9	23.5	-90.3	6.0
2025-01-20 14:44:58.530889	349.6	23.4	-90.9	6.2
2025-01-20 14:44:59.681247	349.3	23.3	-90.6	6.1
2025-01-20 14:45:00.840912	349.1	23.2	-90.6	3.1
2025-01-20 14:45:02.003238	348.8	23.2	-90.4	6.4
2025-01-20 14:45:03.170970	348.5	23.1	-90.7	5.2
2025-01-20 14:45:04.335937	348.3	23.0	-90.6	4.0
2025-01-20 14:45:05.493333	348.0	22.9	-90.6	6.6
2025-01-20 14:45:06.645498	347.7	22.8	-90.5	5.2
2025-01-20 14:45:07.769018	347.5	22.7	-90.9	2.4
2025-01-20 14:45:08.929983	347.2	22.6	-90.7	2.9
2025-01-20 14:45:10.075645	347.0	22.5	-91.1	5.6
2025-01-20 14:45:11.227677	346.7	22.5	-90.8	4.9
2025-01-20 14:45:12.383915	346.4	22.4	-90.5	7.1
2025-01-20 14:45:13.514516	346.2	22.3	-91.1	7.3
2025-01-20 14:45:14.644528	345.9	22.2	-90.9	9.4
2025-01-20 14:45:15.816098	345.7	22.1	-90.6	7.6
2025-01-20 14:45:16.970664	345.4	22.0	-89.8	8.8
2025-01-20 14:45:18.131355	345.2	21.9	-90.1	7.3
2025-01-20 14:45:19.290618	344.9	21.8	-90.5	6.3
2025-01-20 14:45:20.419110	344.7	21.7	-90.2	13.0
2025-01-20 14:45:21.560903	344.5	21.7	-90.3	9.5
2025-01-20 14:45:22.708740	344.2	21.6	-90.1	10.7
2025-01-20 14:45:23.861190	344.0	21.5	-90.2	9.9
2025-01-20 14:45:25.018240	343.7	21.4	-90.2	8.8
2025-01-20 14:45:26.146299	343.5	21.3	-90.3	6.7
2025-01-20 14:45:27.278055	343.3	21.2	-90.5	7.6
2025-01-20 14:45:28.434252	343.0	21.1	-90.6	8.8
2025-01-20 14:45:29.573850	342.8	21.0	-90.8	8.8
2025-01-20 14:45:30.699444	342.6	20.9	-90.8	4.1
2025-01-20 14:45:31.860393	342.3	20.8	-90.9	4.8
2025-01-20 14:45:33.006740	342.1	20.7	-90.6	4.3
2025-01-20 14:45:34.160383	341.9	20.6	-90.1	2.5
2025-01-20 14:45:35.320506	341.7	20.5	-90.8	3.8
2025-01-20 14:45:36.479641	341.4	20.5	-90.9	2.8
2025-01-20 14:45:37.640534	341.2	20.4	-90.7	4.1
2025-01-20 14:45:38.800777	341.0	20.3	-90.7	3.2
2025-01-20 14:45:39.961889	340.8	20.2	-90.6	1.8
2025-01-20 14:45:41.126161	340.5	20.1	-90.4	3.8
2025-01-20 14:45:42.286093	340.3	20.0	-90.7	2.0
2025-01-20 14:45:43.449412	340.1	19.9	-91.0	3.7
2025-01-20 14:45:44.616050	339.9	19.8	-91.1	2.2
2025-01-20 14:45:45.779396	339.7	19.7	-91.0	2.2
2025-01-20 14:45:46.941203	339.4	19.6	-90.8	0.3
2025-01-20 14:45:48.104989	339.2	19.5	-90.7	1.2
2025-01-20 14:45:49.272324	339.0	19.4	-90.6	1.9
2025-01-20 14:45:50.426866	338.8	19.3	-90.7	3.5
2025-01-20 14:45:51.584654	338.6	19.2	-91.2	3.5
2025-01-20 14:45:52.747178	338.4	19.1	-91.3	2.3
2025-01-20 14:45:53.914194	338.2	19.0	-91.1	2.6
2025-01-20 14:45:55.079578	338.0	18.9	-91.0	4.6
2025-01-20 14:45:56.244293	337.8	18.8	-91.0	2.4
2025-01-20 14:45:57.404418	337.6	18.7	-91.0	3.6
2025-01-20 14:45:58.565751	337.4	18.6	-90.3	3.4
2025-01-20 14:45:59.726197	337.2	18.5	-90.9	3.0
2025-01-20 14:46:00.880871	337.0	18.5	-90.7	4.7
2025-01-20 14:46:02.041706	336.8	18.4	-90.9	3.7
2025-01-20 14:46:03.185270	336.6	18.3	-90.5	2.5
2025-01-20 14:46:04.305718	336.4	18.2	-90.8	3.1
2025-01-20 14:46:05.425747	336.2	18.1	-90.1	2.6
2025-01-20 14:46:06.548698	336.0	18.0	-90.7	1.3
2025-01-20 14:46:07.669523	335.8	17.9	-90.2	3.0
2025-01-20 14:46:08.790208	335.6	17.8	-91.1	4.7
2025-01-20 14:46:09.910417	335.5	17.7	-91.1	3.2
2025-01-20 14:46:11.033298	335.3	17.6	-91.2	2.4
2025-01-20 14:46:12.161075	335.1	17.5	-90.4	3.9
2025-01-20 14:46:13.290680	334.9	17.4	-91.2	4.5
2025-01-20 14:46:14.454132	334.7	17.3	-90.9	2.3
2025-01-20 14:46:15.615938	334.5	17.2	-90.7	3.3
2025-01-20 14:46:16.763568	334.4	17.1	-91.2	1.3
2025-01-20 14:46:17.923003	334.2	17.1	-91.0	3.5
2025-01-20 14:46:19.092913	334.0	17.0	-90.5	2.6
2025-01-20 14:46:20.249231	333.8	16.9	-90.9	2.3
2025-01-20 14:46:21.400137	333.6	16.8	-90.7	3.3
2025-01-20 14:46:22.564022	333.5	16.7	-90.9	3.0
2025-01-20 14:46:23.724564	333.3	16.6	-91.0	4.0
2025-01-20 14:46:24.891057	333.1	16.5	-91.2	3.7
2025-01-20 14:46:26.050209	332.9	16.4	-90.8	3.8
2025-01-20 14:46:27.210369	332.8	16.3	-90.7	4.1
2025-01-20 14:46:28.370549	332.6	16.2	-90.4	4.0
2025-01-20 14:46:29.528502	332.4	16.1	-91.3	1.1
2025-01-20 14:46:30.683184	332.3	16.0	-91.1	6.3
2025-01-20 14:46:31.810886	332.1	15.9	-90.8	7.5
2025-01-20 14:46:32.954621	331.9	15.8	-90.6	7.0
2025-01-20 14:46:34.111061	331.8	15.7	-90.9	5.9
2025-01-20 14:46:35.257677	331.6	15.6	-90.6	8.8
2025-01-20 14:46:36.383450	331.4	15.6	-90.9	5.3
2025-01-20 14:46:37.529643	331.3	15.5	-91.0	4.4
2025-01-20 14:46:38.698905	331.1	15.4	-90.8	4.2
2025-01-20 14:46:39.844845	331.0	15.3	-90.8	3.1
2025-01-20 14:46:41.008522	330.8	15.2	-90.5	1.8
2025-01-20 14:46:42.265656	330.6	15.1	-90.9	2.7
2025-01-20 14:46:43.423718	330.5	15.0	-90.1	2.0
2025-01-20 14:46:44.581293	330.3	14.9	-89.8	2.1
2025-01-20 14:46:45.740735	330.2	14.8	-90.4	2.7
2025-01-20 14:46:46.903367	330.0	14.7	-90.3	2.3
2025-01-20 14:46:48.032081	329.9	14.6	-90.0	1.3
#Closed at: 2025-01-20 14:39:51.729503