passes_logs/2025/01/20/LEX_Murmansk/LEX_Murmansk__20250120_200409_NOAA_18_rec.log

#Pass ID: 20250120_200409_NOAA 18
#Satellite: NOAA 18
#Configuration: NOAA 18
#Start time: 2025-01-20 20:04:04.783049

#LorettStation: 1.0.0 05.05.2024
#Station: LEX_Murmansk
#Location: 33.156738 lon 68.926811 lat
#TLE: 1 28654U 05018A   25020.18862715  .00000449  00000+0  26167-3 0  9997
#TLE: 2 28654  98.8558 101.1913 0014575 164.8261 195.3351 14.13491567 13918

#Time	Az	El	Level	SNR
2025-01-20 20:04:17.027414	190.4	16.2	-92.4	8.3
2025-01-20 20:04:19.346133	190.6	16.5	-92.2	9.6
2025-01-20 20:04:21.657751	190.8	16.7	-92.0	10.9
2025-01-20 20:04:23.941481	191.1	16.9	-92.1	9.7
2025-01-20 20:04:26.181470	191.3	17.2	-91.7	6.2
2025-01-20 20:04:28.423854	191.5	17.4	-92.3	3.1
2025-01-20 20:04:30.668230	191.7	17.6	-91.9	6.0
2025-01-20 20:04:32.913966	191.9	17.9	-92.5	4.8
2025-01-20 20:04:35.231234	192.1	18.1	-92.4	4.6
2025-01-20 20:04:37.538570	192.3	18.4	-92.1	6.5
2025-01-20 20:04:39.864600	192.6	18.6	-92.3	7.1
2025-01-20 20:04:42.190982	192.8	18.9	-92.4	9.2
2025-01-20 20:04:44.516306	193.0	19.1	-92.4	7.1
2025-01-20 20:04:46.840945	193.3	19.4	-92.5	8.7
2025-01-20 20:04:49.174030	193.5	19.7	-91.9	12.6
2025-01-20 20:04:51.499711	193.8	19.9	-92.4	12.9
2025-01-20 20:04:53.822917	194.0	20.2	-92.4	11.2
2025-01-20 20:04:56.151188	194.3	20.5	-92.3	9.7
2025-01-20 20:04:58.470723	194.5	20.8	-92.2	10.6
2025-01-20 20:05:00.786886	194.8	21.0	-92.3	10.8
2025-01-20 20:05:03.107191	195.1	21.3	-91.5	7.0
2025-01-20 20:05:05.432832	195.4	21.6	-91.9	8.2
2025-01-20 20:05:07.746081	195.6	21.9	-92.4	12.7
2025-01-20 20:05:10.064827	195.9	22.2	-91.8	12.0
2025-01-20 20:05:12.392180	196.2	22.4	-92.3	11.5
2025-01-20 20:05:14.720045	196.5	22.7	-92.3	12.0
2025-01-20 20:05:17.047777	196.8	23.0	-92.3	14.5
2025-01-20 20:05:19.371991	197.1	23.3	-91.7	8.2
2025-01-20 20:05:21.689237	197.4	23.6	-92.2	13.4
2025-01-20 20:05:24.017444	197.7	23.9	-92.2	9.2
2025-01-20 20:05:26.350804	198.1	24.2	-92.6	16.4
2025-01-20 20:05:28.653058	198.4	24.5	-92.3	12.3
2025-01-20 20:05:30.991840	198.7	24.8	-92.4	12.8
2025-01-20 20:05:33.314927	199.1	25.1	-91.8	13.0
2025-01-20 20:05:35.649943	199.4	25.5	-92.1	12.3
2025-01-20 20:05:37.971810	199.8	25.8	-92.3	7.4
2025-01-20 20:05:40.303445	200.2	26.1	-92.8	14.2
2025-01-20 20:05:42.633357	200.5	26.4	-92.3	13.3
2025-01-20 20:05:44.959147	200.9	26.7	-92.8	16.0
2025-01-20 20:05:47.286723	201.3	27.1	-92.1	14.9
2025-01-20 20:05:49.618065	201.7	27.4	-92.6	13.8
2025-01-20 20:05:51.942957	202.1	27.7	-92.6	11.2
2025-01-20 20:05:54.271142	202.5	28.1	-92.3	13.1
2025-01-20 20:05:56.604902	202.9	28.4	-92.4	9.0
2025-01-20 20:05:58.933444	203.3	28.7	-92.8	5.8
2025-01-20 20:06:01.250954	203.8	29.1	-92.1	11.1
2025-01-20 20:06:03.582551	204.2	29.4	-92.5	8.3
2025-01-20 20:06:05.911905	204.7	29.8	-92.1	8.8
2025-01-20 20:06:08.235663	205.1	30.1	-92.3	9.3
2025-01-20 20:06:10.545100	205.6	30.5	-92.2	5.6
2025-01-20 20:06:12.866177	206.1	30.8	-92.2	6.6
2025-01-20 20:06:15.196569	206.6	31.2	-92.3	5.6
2025-01-20 20:06:17.524584	207.1	31.5	-91.9	4.9
2025-01-20 20:06:19.843391	207.6	31.9	-92.3	6.1
2025-01-20 20:06:22.162715	208.1	32.2	-92.4	3.6
2025-01-20 20:06:24.497080	208.7	32.6	-93.1	7.3
2025-01-20 20:06:26.818559	209.2	33.0	-92.1	13.2
2025-01-20 20:06:29.145001	209.8	33.3	-92.5	10.9
2025-01-20 20:06:31.472379	210.4	33.7	-92.5	9.1
2025-01-20 20:06:33.805148	210.9	34.1	-92.7	12.0
2025-01-20 20:06:36.117723	211.5	34.4	-92.1	10.6
2025-01-20 20:06:38.442463	212.2	34.8	-92.3	7.7
2025-01-20 20:06:40.762988	212.8	35.2	-92.3	12.2
2025-01-20 20:06:43.094288	213.4	35.5	-92.3	9.1
2025-01-20 20:06:45.425871	214.1	35.9	-92.1	14.0
2025-01-20 20:06:47.755944	214.8	36.3	-92.2	12.9
2025-01-20 20:06:50.083709	215.4	36.6	-92.0	9.6
2025-01-20 20:06:52.401545	216.1	37.0	-92.1	9.8
2025-01-20 20:06:54.726753	216.9	37.4	-92.0	15.1
2025-01-20 20:06:57.053309	217.6	37.7	-92.2	12.0
2025-01-20 20:06:59.378548	218.3	38.1	-92.6	10.6
2025-01-20 20:07:01.691080	219.1	38.5	-92.4	14.0
2025-01-20 20:07:04.022376	219.9	38.8	-92.2	5.5
2025-01-20 20:07:06.348910	220.7	39.2	-92.3	11.0
2025-01-20 20:07:08.675030	221.5	39.6	-92.8	14.8
2025-01-20 20:07:10.998324	222.3	39.9	-92.5	14.9
2025-01-20 20:07:13.330986	223.2	40.3	-92.1	17.2
2025-01-20 20:07:15.658002	224.1	40.6	-92.2	5.9
2025-01-20 20:07:17.988397	225.0	41.0	-92.4	8.1
2025-01-20 20:07:20.315648	225.9	41.3	-92.2	9.5
2025-01-20 20:07:22.633955	226.8	41.6	-92.3	7.2
2025-01-20 20:07:24.956985	227.7	42.0	-92.1	5.9
2025-01-20 20:07:27.285298	228.7	42.3	-91.9	10.2
2025-01-20 20:07:29.610945	229.7	42.6	-92.4	8.6
2025-01-20 20:07:31.933334	230.7	42.9	-91.9	7.0
2025-01-20 20:07:34.259036	231.7	43.2	-92.2	7.1
2025-01-20 20:07:36.591509	232.8	43.5	-92.1	4.7
2025-01-20 20:07:38.932683	233.8	43.8	-92.5	8.9
2025-01-20 20:07:41.257837	234.9	44.1	-92.5	8.8
2025-01-20 20:07:43.595752	236.0	44.3	-92.6	7.9
2025-01-20 20:07:45.922563	237.1	44.6	-92.4	9.3
2025-01-20 20:07:48.253897	238.3	44.8	-92.3	16.9
2025-01-20 20:07:50.594393	239.4	45.1	-92.4	13.9
2025-01-20 20:07:52.923638	240.6	45.3	-92.5	15.5
2025-01-20 20:07:55.244532	241.8	45.5	-92.1	18.5
2025-01-20 20:07:57.571477	243.0	45.7	-92.1	19.5
2025-01-20 20:07:59.895600	244.2	45.9	-92.6	21.6
2025-01-20 20:08:02.203973	245.4	46.1	-92.3	20.0
2025-01-20 20:08:04.532415	246.7	46.2	-92.3	16.4
2025-01-20 20:08:06.848871	247.9	46.4	-91.9	14.4
2025-01-20 20:08:09.177248	249.2	46.5	-92.3	21.8
2025-01-20 20:08:11.479455	250.4	46.6	-92.5	13.1
2025-01-20 20:08:13.821133	251.7	46.8	-92.7	25.3
2025-01-20 20:08:16.148812	253.0	46.8	-92.1	23.7
2025-01-20 20:08:18.474049	254.3	46.9	-92.4	13.9
2025-01-20 20:08:20.794425	255.6	47.0	-92.1	28.3
2025-01-20 20:08:23.123318	256.9	47.0	-91.8	21.0
2025-01-20 20:08:25.428079	258.2	47.0	-92.5	19.2
2025-01-20 20:08:27.747168	259.5	47.0	-92.3	21.6
2025-01-20 20:08:30.079902	260.8	47.0	-92.0	15.0
2025-01-20 20:08:32.401982	262.2	47.0	-91.9	23.0
2025-01-20 20:08:34.731464	263.5	47.0	-92.5	25.7
2025-01-20 20:08:37.063895	264.8	46.9	-91.9	18.2
2025-01-20 20:08:39.384857	266.1	46.9	-92.4	16.6
2025-01-20 20:08:41.713761	267.4	46.8	-91.9	17.2
2025-01-20 20:08:44.042152	268.6	46.7	-91.3	10.5
2025-01-20 20:08:46.372535	269.9	46.6	-92.1	14.6
2025-01-20 20:08:48.700925	271.2	46.4	-92.2	21.6
2025-01-20 20:08:51.030958	272.5	46.3	-92.3	8.9
2025-01-20 20:08:53.351296	273.7	46.1	-91.9	14.9
2025-01-20 20:08:55.670406	274.9	45.9	-92.1	15.7
2025-01-20 20:08:58.006609	276.1	45.8	-92.2	9.2
2025-01-20 20:09:00.332584	277.3	45.6	-92.2	10.2
2025-01-20 20:09:02.657312	278.5	45.3	-92.4	17.1
2025-01-20 20:09:04.989283	279.7	45.1	-92.6	9.7
2025-01-20 20:09:07.328001	280.9	44.9	-92.3	19.1
2025-01-20 20:09:09.649863	282.0	44.6	-92.4	23.1
2025-01-20 20:09:11.967987	283.1	44.4	-92.2	13.4
2025-01-20 20:09:14.290430	284.2	44.1	-92.4	15.8
2025-01-20 20:09:16.616602	285.3	43.8	-92.7	14.9
2025-01-20 20:09:18.942763	286.4	43.6	-92.6	12.2
2025-01-20 20:09:21.258439	287.4	43.3	-92.3	17.0
2025-01-20 20:09:23.581064	288.4	43.0	-92.5	12.2
2025-01-20 20:09:25.900001	289.4	42.7	-92.3	15.4
2025-01-20 20:09:28.225278	290.4	42.3	-92.0	23.0
2025-01-20 20:09:30.553369	291.4	42.0	-92.0	11.6
2025-01-20 20:09:32.869983	292.4	41.7	-92.2	15.5
2025-01-20 20:09:35.198205	293.3	41.4	-92.4	14.3
2025-01-20 20:09:37.531302	294.2	41.0	-92.5	12.1
2025-01-20 20:09:39.847853	295.1	40.7	-92.5	19.3
2025-01-20 20:09:42.165308	296.0	40.3	-92.4	18.4
2025-01-20 20:09:44.487015	296.8	40.0	-92.3	20.4
2025-01-20 20:09:46.806229	297.7	39.6	-92.7	18.5
2025-01-20 20:09:49.130781	298.5	39.3	-92.1	19.1
2025-01-20 20:09:51.473996	299.3	38.9	-92.5	14.4
2025-01-20 20:09:53.796350	300.1	38.5	-93.0	17.1
2025-01-20 20:09:56.119558	300.8	38.2	-92.0	12.0
2025-01-20 20:09:58.450030	301.6	37.8	-92.4	8.5
2025-01-20 20:10:00.769330	302.3	37.5	-91.5	20.3
2025-01-20 20:10:03.095771	303.1	37.1	-92.3	6.8
2025-01-20 20:10:05.410147	303.8	36.7	-92.1	6.8
2025-01-20 20:10:07.742461	304.4	36.3	-92.6	16.6
2025-01-20 20:10:10.073946	305.1	36.0	-91.9	8.7
2025-01-20 20:10:12.398778	305.8	35.6	-91.4	9.1
2025-01-20 20:10:14.743015	306.4	35.2	-92.8	7.8
2025-01-20 20:10:17.075998	307.1	34.9	-92.2	6.2
2025-01-20 20:10:19.397530	307.7	34.5	-92.8	10.6
2025-01-20 20:10:21.719509	308.3	34.1	-92.6	4.7
2025-01-20 20:10:24.054739	308.9	33.8	-91.8	12.0
2025-01-20 20:10:26.383395	309.5	33.4	-92.4	10.2
2025-01-20 20:10:28.712296	310.0	33.0	-92.1	16.1
2025-01-20 20:10:31.035555	310.6	32.7	-92.7	9.7
2025-01-20 20:10:33.357101	311.1	32.3	-92.3	10.2
2025-01-20 20:10:35.685281	311.6	31.9	-92.9	15.0
2025-01-20 20:10:38.266646	312.2	31.5	-92.1	10.4
2025-01-20 20:10:40.591207	312.7	31.2	-92.2	11.9
2025-01-20 20:10:42.895525	313.2	30.8	-92.6	17.5
2025-01-20 20:10:45.140816	313.7	30.5	-92.6	7.1
2025-01-20 20:10:47.381287	314.1	30.2	-92.3	9.9
2025-01-20 20:10:49.622936	314.6	29.8	-92.5	5.5
2025-01-20 20:10:51.864135	315.0	29.5	-92.8	13.5
2025-01-20 20:10:54.141982	315.5	29.2	-92.7	8.7
2025-01-20 20:10:56.459258	315.9	28.8	-92.1	12.4
2025-01-20 20:10:58.769450	316.3	28.5	-92.4	7.5
2025-01-20 20:11:01.093850	316.8	28.1	-92.6	12.2
2025-01-20 20:11:03.420106	317.2	27.8	-92.4	13.4
2025-01-20 20:11:05.750378	317.6	27.5	-92.4	17.3
2025-01-20 20:11:08.076154	318.0	27.2	-91.9	16.9
2025-01-20 20:11:10.402596	318.4	26.8	-92.2	17.4
2025-01-20 20:11:12.726163	318.7	26.5	-92.7	10.9
2025-01-20 20:11:15.051614	319.1	26.2	-92.4	13.5
2025-01-20 20:11:17.378729	319.5	25.9	-91.9	14.0
2025-01-20 20:11:19.698992	319.8	25.5	-92.7	6.6
2025-01-20 20:11:22.023766	320.2	25.2	-92.3	13.4
2025-01-20 20:11:24.344011	320.5	24.9	-91.9	18.5
2025-01-20 20:11:26.666647	320.9	24.6	-92.7	9.5
2025-01-20 20:11:28.991052	321.2	24.3	-92.9	14.5
2025-01-20 20:11:31.310241	321.5	24.0	-92.5	10.2
2025-01-20 20:11:33.636228	321.9	23.7	-92.1	9.4
2025-01-20 20:11:35.949785	322.2	23.4	-92.0	21.0
2025-01-20 20:11:38.276924	322.5	23.1	-92.8	6.6
2025-01-20 20:11:40.596696	322.8	22.8	-92.3	5.0
2025-01-20 20:11:42.918228	323.1	22.5	-92.7	4.9
2025-01-20 20:11:45.249346	323.4	22.2	-92.4	6.5
2025-01-20 20:11:47.574986	323.7	22.0	-92.6	15.6
2025-01-20 20:11:49.900714	323.9	21.7	-92.5	7.6
2025-01-20 20:11:52.228388	324.2	21.4	-92.0	7.4
2025-01-20 20:11:54.547973	324.5	21.1	-92.5	8.2
2025-01-20 20:11:56.872013	324.8	20.8	-92.6	5.4
2025-01-20 20:11:59.200894	325.0	20.6	-91.7	8.1
2025-01-20 20:12:01.520569	325.3	20.3	-92.4	4.5
2025-01-20 20:12:03.862302	325.5	20.0	-92.5	6.5
2025-01-20 20:12:06.191178	325.8	19.7	-92.4	2.2
2025-01-20 20:12:08.521654	326.0	19.5	-92.5	4.2
2025-01-20 20:12:10.849505	326.3	19.2	-92.9	6.2
2025-01-20 20:12:13.179954	326.5	19.0	-92.4	5.1
2025-01-20 20:12:15.502669	326.8	18.7	-92.4	5.4
2025-01-20 20:12:17.836799	327.0	18.4	-92.8	4.4
2025-01-20 20:12:20.170187	327.2	18.2	-92.6	4.5
2025-01-20 20:12:22.491977	327.5	17.9	-92.6	4.7
2025-01-20 20:12:24.807477	327.7	17.7	-92.6	3.7
2025-01-20 20:12:27.128042	327.9	17.4	-92.7	4.6
2025-01-20 20:12:29.459816	328.1	17.2	-92.4	4.1
2025-01-20 20:12:31.790966	328.3	17.0	-92.6	6.9
2025-01-20 20:12:34.117032	328.5	16.7	-92.6	5.2
2025-01-20 20:12:36.448794	328.7	16.5	-92.4	12.4
2025-01-20 20:12:38.772166	328.9	16.2	-92.7	2.9
2025-01-20 20:12:41.095391	329.1	16.0	-92.8	7.0
2025-01-20 20:12:43.415835	329.3	15.8	-93.0	5.0
2025-01-20 20:12:45.741555	329.5	15.5	-92.6	5.4
2025-01-20 20:12:48.066581	329.7	15.3	-92.7	9.7
2025-01-20 20:12:50.377141	329.9	15.1	-92.6	4.5
2025-01-20 20:12:52.700376	330.1	14.9	-92.7	2.3
2025-01-20 20:12:55.028555	330.3	14.6	-92.3	6.3
#Closed at: 2025-01-20 20:04:09.840472