passes_logs/2025/01/20/LEX_Murmansk/LEX_Murmansk__20250120_075859_NOAA_19_rec.log

#Pass ID: 20250120_075859_NOAA 19
#Satellite: NOAA 19
#Configuration: NOAA 19
#Start time: 2025-01-20 07:58:54.586448

#LorettStation: 1.0.0 05.05.2024
#Station: LEX_Murmansk
#Location: 33.156738 lon 68.926811 lat
#TLE: 1 33591U 09005A   25019.18116543  .00000338  00000+0  20449-3 0  9996
#TLE: 2 33591  99.0189  82.9757 0014332  46.3357 313.9000 14.13262914822133

#Time	Az	El	Level	SNR
2025-01-20 07:59:06.901489	30.2	16.3	-90.3	1.9
2025-01-20 07:59:09.217963	30.4	16.5	-90.2	2.5
2025-01-20 07:59:11.544478	30.6	16.8	-90.2	4.0
2025-01-20 07:59:13.874702	30.7	17.0	-90.6	3.6
2025-01-20 07:59:16.204485	30.9	17.3	-90.2	1.5
2025-01-20 07:59:18.534728	31.1	17.5	-90.1	5.5
2025-01-20 07:59:20.862471	31.3	17.8	-90.4	5.6
2025-01-20 07:59:23.193491	31.5	18.0	-90.8	3.2
2025-01-20 07:59:25.523898	31.6	18.3	-90.6	0.4
2025-01-20 07:59:27.853735	31.8	18.6	-90.4	3.6
2025-01-20 07:59:30.171879	32.0	18.8	-90.3	5.5
2025-01-20 07:59:32.519588	32.2	19.1	-90.2	5.7
2025-01-20 07:59:34.850697	32.4	19.4	-90.4	4.3
2025-01-20 07:59:37.179304	32.6	19.6	-90.9	9.3
2025-01-20 07:59:39.507911	32.8	19.9	-90.6	3.5
2025-01-20 07:59:41.840638	33.0	20.2	-90.5	2.8
2025-01-20 07:59:44.172232	33.2	20.5	-90.1	4.2
2025-01-20 07:59:46.491560	33.5	20.8	-90.6	8.0
2025-01-20 07:59:48.815376	33.7	21.1	-87.6	4.2
2025-01-20 07:59:51.139693	33.9	21.3	-90.8	7.8
2025-01-20 07:59:53.469446	34.1	21.6	-90.7	7.6
2025-01-20 07:59:55.791597	34.4	21.9	-89.7	2.6
2025-01-20 07:59:58.130664	34.6	22.2	-90.7	3.7
2025-01-20 08:00:00.438311	34.8	22.5	-90.4	7.1
2025-01-20 08:00:02.761761	35.1	22.8	-90.7	11.7
2025-01-20 08:00:05.089777	35.3	23.2	-90.9	7.9
2025-01-20 08:00:07.422403	35.6	23.5	-88.2	3.7
2025-01-20 08:00:09.750516	35.9	23.8	-91.1	10.4
2025-01-20 08:00:12.073356	36.1	24.1	-87.5	6.4
2025-01-20 08:00:14.404562	36.4	24.4	-90.7	5.8
2025-01-20 08:00:16.736335	36.7	24.8	-90.2	3.6
2025-01-20 08:00:19.065750	37.0	25.1	-90.6	7.5
2025-01-20 08:00:21.393666	37.2	25.4	-89.7	9.4
2025-01-20 08:00:23.724593	37.5	25.8	-90.7	5.6
2025-01-20 08:00:26.058394	37.8	26.1	-90.7	6.5
2025-01-20 08:00:28.379874	38.1	26.4	-91.1	12.5
2025-01-20 08:00:30.711833	38.5	26.8	-90.6	5.7
2025-01-20 08:00:33.041554	38.8	27.1	-90.4	0.9
2025-01-20 08:00:35.379215	39.1	27.5	-91.1	2.9
2025-01-20 08:00:37.701749	39.4	27.8	-90.2	8.7
2025-01-20 08:00:40.025606	39.8	28.2	-91.1	8.3
2025-01-20 08:00:42.357408	40.1	28.6	-90.8	4.1
2025-01-20 08:00:44.689025	40.5	28.9	-89.6	4.9
2025-01-20 08:00:47.024718	40.8	29.3	-90.5	6.7
2025-01-20 08:00:49.353206	41.2	29.7	-90.7	2.2
2025-01-20 08:00:51.682287	41.6	30.1	-90.8	0.6
2025-01-20 08:00:54.008518	42.0	30.5	-90.8	6.0
2025-01-20 08:00:56.339183	42.4	30.8	-90.9	11.2
2025-01-20 08:00:58.662574	42.8	31.2	-90.0	10.3
2025-01-20 08:01:00.987400	43.2	31.6	-90.6	8.8
2025-01-20 08:01:03.313926	43.6	32.0	-90.9	11.0
2025-01-20 08:01:05.642699	44.1	32.4	-90.8	13.9
2025-01-20 08:01:07.968581	44.5	32.8	-90.7	7.7
2025-01-20 08:01:10.295027	45.0	33.2	-90.8	2.0
2025-01-20 08:01:12.619191	45.4	33.7	-90.9	6.5
2025-01-20 08:01:14.959019	45.9	34.1	-90.4	9.9
2025-01-20 08:01:17.290438	46.4	34.5	-90.6	14.7
2025-01-20 08:01:19.613837	46.9	34.9	-90.8	10.4
2025-01-20 08:01:21.937177	47.4	35.3	-90.9	12.0
2025-01-20 08:01:24.275991	48.0	35.8	-90.3	12.9
2025-01-20 08:01:26.606823	48.5	36.2	-90.0	8.8
2025-01-20 08:01:28.939424	49.1	36.6	-90.9	6.7
2025-01-20 08:01:31.267548	49.7	37.1	-90.8	0.8
2025-01-20 08:01:33.593683	50.2	37.5	-90.9	4.9
2025-01-20 08:01:35.926740	50.9	38.0	-91.0	12.1
2025-01-20 08:01:38.252202	51.5	38.4	-90.9	12.7
2025-01-20 08:01:40.576237	52.1	38.9	-90.2	11.2
2025-01-20 08:01:42.899992	52.8	39.3	-90.9	11.6
2025-01-20 08:01:45.234415	53.5	39.8	-91.1	10.4
2025-01-20 08:01:47.562443	54.1	40.2	-89.4	14.0
2025-01-20 08:01:49.876594	54.9	40.7	-90.1	8.7
2025-01-20 08:01:52.197444	55.6	41.1	-90.1	4.0
2025-01-20 08:01:54.532516	56.3	41.6	-89.5	4.4
2025-01-20 08:01:56.859842	57.1	42.0	-90.5	6.0
2025-01-20 08:01:59.184512	57.9	42.5	-90.8	16.3
2025-01-20 08:02:01.501392	58.7	42.9	-90.8	16.9
2025-01-20 08:02:03.824292	59.6	43.4	-90.6	11.2
2025-01-20 08:02:06.153908	60.4	43.8	-89.7	10.1
2025-01-20 08:02:08.489823	61.3	44.3	-89.2	11.5
2025-01-20 08:02:10.822132	62.2	44.7	-90.2	14.9
2025-01-20 08:02:13.145547	63.2	45.2	-90.4	13.5
2025-01-20 08:02:15.484570	64.2	45.6	-90.0	7.7
2025-01-20 08:02:17.814268	65.2	46.0	-90.4	4.2
2025-01-20 08:02:20.143641	66.2	46.5	-90.7	6.0
2025-01-20 08:02:22.476186	67.2	46.9	-90.4	3.4
2025-01-20 08:02:24.811117	68.3	47.3	-90.6	7.1
2025-01-20 08:02:27.142149	69.4	47.7	-90.5	4.2
2025-01-20 08:02:29.471626	70.6	48.1	-90.3	11.5
2025-01-20 08:02:31.800628	71.7	48.5	-90.8	6.1
2025-01-20 08:02:34.127056	72.9	48.9	-90.8	4.9
2025-01-20 08:02:36.456171	74.1	49.3	-90.6	5.7
2025-01-20 08:02:38.789824	75.4	49.6	-90.7	3.6
2025-01-20 08:02:41.110170	76.7	50.0	-90.7	7.9
2025-01-20 08:02:43.425696	78.0	50.3	-89.6	6.5
2025-01-20 08:02:45.757756	79.3	50.6	-91.0	11.8
2025-01-20 08:02:48.088127	80.7	51.0	-90.7	5.9
2025-01-20 08:02:50.414463	82.1	51.3	-90.5	4.1
2025-01-20 08:02:52.740762	83.5	51.5	-91.1	4.3
2025-01-20 08:02:55.064010	84.9	51.8	-91.0	5.0
2025-01-20 08:02:57.393164	86.4	52.0	-90.6	6.6
2025-01-20 08:02:59.706807	87.9	52.3	-91.1	6.7
2025-01-20 08:03:02.022250	89.4	52.5	-91.1	11.6
2025-01-20 08:03:04.344224	91.0	52.7	-89.8	8.3
2025-01-20 08:03:06.671586	92.5	52.8	-90.8	16.8
2025-01-20 08:03:09.003785	94.1	53.0	-91.2	7.9
2025-01-20 08:03:11.323700	95.7	53.1	-90.8	16.2
2025-01-20 08:03:13.665411	97.3	53.2	-90.8	14.5
2025-01-20 08:03:15.999890	98.9	53.3	-90.7	10.0
2025-01-20 08:03:18.333085	100.5	53.3	-90.5	11.7
2025-01-20 08:03:20.657791	102.1	53.4	-90.6	9.6
2025-01-20 08:03:22.992188	103.8	53.4	-90.6	7.2
2025-01-20 08:03:25.324281	105.4	53.4	-90.5	10.3
2025-01-20 08:03:27.656443	107.0	53.4	-91.0	9.8
2025-01-20 08:03:29.986082	108.7	53.3	-90.8	9.6
2025-01-20 08:03:32.315245	110.3	53.2	-91.3	10.8
2025-01-20 08:03:34.638231	111.9	53.1	-91.2	8.4
2025-01-20 08:03:36.971734	113.5	53.0	-91.1	8.8
2025-01-20 08:03:39.296809	115.0	52.8	-88.7	9.4
2025-01-20 08:03:41.626369	116.6	52.7	-91.0	8.1
2025-01-20 08:03:43.954279	118.1	52.5	-90.2	9.7
2025-01-20 08:03:46.309284	119.7	52.3	-91.1	9.6
2025-01-20 08:03:48.643780	121.2	52.0	-91.1	8.6
2025-01-20 08:03:50.969847	122.6	51.8	-91.1	12.9
2025-01-20 08:03:53.300130	124.1	51.5	-91.1	13.9
2025-01-20 08:03:55.619378	125.5	51.3	-91.2	14.9
2025-01-20 08:03:57.952251	126.9	51.0	-91.0	10.9
2025-01-20 08:04:00.278177	128.3	50.7	-91.0	8.1
2025-01-20 08:04:02.612815	129.6	50.3	-91.2	7.1
2025-01-20 08:04:04.938666	130.9	50.0	-91.0	9.9
2025-01-20 08:04:07.268888	132.2	49.6	-90.0	10.4
2025-01-20 08:04:09.594142	133.5	49.3	-90.9	6.8
2025-01-20 08:04:11.916774	134.7	48.9	-91.0	7.8
2025-01-20 08:04:14.243732	135.9	48.5	-91.2	10.7
2025-01-20 08:04:16.575704	137.0	48.1	-91.0	10.6
2025-01-20 08:04:18.907165	138.2	47.7	-91.0	7.6
2025-01-20 08:04:21.230579	139.3	47.3	-91.2	7.8
2025-01-20 08:04:23.549654	140.4	46.9	-90.8	11.8
2025-01-20 08:04:25.888482	141.4	46.5	-91.0	9.2
2025-01-20 08:04:28.217102	142.4	46.0	-90.0	11.9
2025-01-20 08:04:30.542886	143.4	45.6	-90.7	9.4
2025-01-20 08:04:32.855234	144.4	45.2	-90.0	14.8
2025-01-20 08:04:35.185187	145.3	44.7	-89.6	14.6
2025-01-20 08:04:37.514310	146.3	44.3	-89.7	7.3
2025-01-20 08:04:39.841215	147.1	43.8	-90.9	10.5
2025-01-20 08:04:42.086540	148.0	43.4	-90.6	6.1
2025-01-20 08:04:44.414102	148.8	42.9	-90.9	6.0
2025-01-20 08:04:46.755174	149.6	42.5	-90.4	11.5
2025-01-20 08:04:49.082025	150.4	42.0	-90.6	11.9
2025-01-20 08:04:51.416085	151.2	41.6	-88.3	11.4
2025-01-20 08:04:53.738278	152.0	41.1	-91.1	17.1
2025-01-20 08:04:56.068480	152.7	40.7	-91.1	17.6
2025-01-20 08:04:58.410507	153.4	40.2	-91.2	11.8
2025-01-20 08:05:00.723253	154.1	39.8	-90.7	7.3
2025-01-20 08:05:03.047467	154.8	39.3	-91.3	7.2
2025-01-20 08:05:05.374465	155.5	38.9	-90.6	7.1
2025-01-20 08:05:07.705914	156.1	38.4	-91.3	14.7
2025-01-20 08:05:10.009784	156.7	38.0	-91.1	3.7
2025-01-20 08:05:12.338410	157.3	37.5	-91.0	11.1
2025-01-20 08:05:14.665445	157.9	37.1	-91.0	8.5
2025-01-20 08:05:17.006219	158.5	36.7	-91.1	7.9
2025-01-20 08:05:19.335319	159.1	36.2	-89.0	10.0
2025-01-20 08:05:21.660429	159.6	35.8	-91.0	14.2
2025-01-20 08:05:23.990657	160.1	35.4	-91.3	10.2
2025-01-20 08:05:26.323165	160.7	34.9	-90.9	9.7
2025-01-20 08:05:28.663529	161.2	34.5	-90.4	10.1
2025-01-20 08:05:30.981170	161.7	34.1	-91.1	7.9
2025-01-20 08:05:33.309433	162.1	33.7	-89.3	9.2
2025-01-20 08:05:35.638405	162.6	33.3	-91.2	4.1
2025-01-20 08:05:37.969515	163.1	32.9	-90.7	5.8
2025-01-20 08:05:40.293013	163.5	32.4	-90.9	5.6
2025-01-20 08:05:42.620370	164.0	32.0	-89.9	8.8
2025-01-20 08:05:44.946005	164.4	31.6	-90.9	7.8
2025-01-20 08:05:47.278734	164.8	31.2	-91.0	11.4
2025-01-20 08:05:49.611854	165.2	30.9	-91.4	7.5
2025-01-20 08:05:51.933695	165.6	30.5	-91.0	7.3
2025-01-20 08:05:54.259936	166.0	30.1	-90.8	8.7
2025-01-20 08:05:56.589662	166.4	29.7	-89.9	4.9
2025-01-20 08:05:58.918851	166.7	29.3	-91.1	9.7
2025-01-20 08:06:01.248789	167.1	29.0	-91.1	11.2
2025-01-20 08:06:03.573650	167.5	28.6	-90.8	8.2
2025-01-20 08:06:05.907861	167.8	28.2	-90.9	6.1
2025-01-20 08:06:08.224569	168.1	27.9	-90.7	7.3
2025-01-20 08:06:10.543615	168.5	27.5	-90.4	3.7
2025-01-20 08:06:12.871544	168.8	27.1	-85.7	6.5
2025-01-20 08:06:15.199973	169.1	26.8	-91.3	8.2
2025-01-20 08:06:17.523558	169.4	26.5	-91.2	8.3
2025-01-20 08:06:19.845420	169.7	26.1	-91.1	10.0
2025-01-20 08:06:22.174244	170.0	25.8	-91.4	10.5
2025-01-20 08:06:24.498478	170.3	25.4	-89.6	6.6
2025-01-20 08:06:26.828115	170.6	25.1	-91.3	9.6
2025-01-20 08:06:29.155780	170.9	24.8	-90.6	8.3
2025-01-20 08:06:31.488364	171.2	24.4	-87.2	8.7
2025-01-20 08:06:33.811448	171.4	24.1	-91.3	10.9
2025-01-20 08:06:36.130602	171.7	23.8	-91.3	10.6
2025-01-20 08:06:38.460140	172.0	23.5	-91.2	7.1
2025-01-20 08:06:40.777848	172.2	23.2	-91.4	8.2
2025-01-20 08:06:43.101538	172.5	22.9	-90.9	3.7
2025-01-20 08:06:45.433818	172.7	22.6	-91.4	5.7
2025-01-20 08:06:47.765511	172.9	22.2	-91.3	11.4
2025-01-20 08:06:50.093871	173.2	21.9	-91.1	9.9
2025-01-20 08:06:52.416669	173.4	21.7	-91.0	7.3
2025-01-20 08:06:54.756394	173.6	21.4	-91.2	9.9
2025-01-20 08:06:57.096369	173.9	21.1	-90.8	4.1
2025-01-20 08:06:59.431220	174.1	20.8	-91.4	3.4
2025-01-20 08:07:01.749765	174.3	20.5	-91.5	7.4
2025-01-20 08:07:04.074697	174.5	20.2	-91.0	10.3
2025-01-20 08:07:06.409132	174.7	19.9	-90.5	7.8
2025-01-20 08:07:08.754705	174.9	19.6	-91.1	8.5
2025-01-20 08:07:11.081242	175.1	19.4	-91.4	4.7
2025-01-20 08:07:13.415626	175.3	19.1	-91.1	4.2
2025-01-20 08:07:15.745927	175.5	18.8	-91.3	6.0
2025-01-20 08:07:18.080769	175.7	18.6	-90.6	4.5
2025-01-20 08:07:20.405353	175.9	18.3	-91.1	6.9
2025-01-20 08:07:22.738459	176.1	18.0	-91.4	2.8
2025-01-20 08:07:25.062795	176.3	17.8	-86.3	2.6
2025-01-20 08:07:27.391532	176.5	17.5	-90.8	1.1
2025-01-20 08:07:29.720735	176.6	17.3	-91.1	1.1
2025-01-20 08:07:32.045772	176.8	17.0	-90.9	3.0
2025-01-20 08:07:34.376192	177.0	16.8	-91.2	6.4
2025-01-20 08:07:36.670404	177.1	16.5	-91.3	5.8
2025-01-20 08:07:38.998438	177.3	16.3	-91.5	3.8
2025-01-20 08:07:41.316613	177.5	16.0	-91.2	4.9
2025-01-20 08:07:43.648008	177.6	15.8	-91.3	3.3
2025-01-20 08:07:45.981761	177.8	15.5	-91.0	5.9
2025-01-20 08:07:48.312431	177.9	15.3	-91.5	6.5
2025-01-20 08:07:50.637672	178.1	15.1	-91.5	4.3
2025-01-20 08:07:52.961814	178.3	14.8	-90.5	3.2
2025-01-20 08:07:55.288471	178.4	14.6	-91.5	4.8
#Closed at: 2025-01-20 07:58:59.672497