passes_logs/2025/01/20/LEX_Murmansk/LEX_Murmansk__20250120_130043_NOAA_19_rec.log

#Pass ID: 20250120_130043_NOAA 19
#Satellite: NOAA 19
#Configuration: NOAA 19
#Start time: 2025-01-20 13:00:38.382451

#LorettStation: 1.0.0 05.05.2024
#Station: LEX_Murmansk
#Location: 33.156738 lon 68.926811 lat
#TLE: 1 33591U 09005A   25019.18116543  .00000338  00000+0  20449-3 0  9996
#TLE: 2 33591  99.0189  82.9757 0014332  46.3357 313.9000 14.13262914822133

#Time	Az	El	Level	SNR
2025-01-20 13:00:50.549802	36.5	15.9	-89.5	3.6
2025-01-20 13:00:51.716675	36.3	16.0	-89.6	2.9
2025-01-20 13:00:52.873661	36.2	16.1	-89.8	3.4
2025-01-20 13:00:54.031056	36.0	16.1	-89.7	1.4
2025-01-20 13:00:55.189591	35.8	16.2	-89.6	1.0
2025-01-20 13:00:56.354210	35.6	16.3	-90.1	2.2
2025-01-20 13:00:57.517617	35.4	16.4	-89.8	3.7
2025-01-20 13:00:58.686983	35.2	16.5	-89.9	0.2
2025-01-20 13:00:59.848998	35.0	16.6	-90.1	2.6
2025-01-20 13:01:01.012023	34.8	16.7	-89.9	4.1
2025-01-20 13:01:02.176159	34.6	16.7	-89.7	0.9
2025-01-20 13:01:03.346346	34.4	16.8	-90.0	3.1
2025-01-20 13:01:04.507826	34.2	16.9	-89.9	3.9
2025-01-20 13:01:05.675777	34.0	17.0	-90.0	2.2
2025-01-20 13:01:06.841948	33.8	17.1	-89.8	3.5
2025-01-20 13:01:08.002241	33.6	17.2	-89.7	4.2
2025-01-20 13:01:09.165833	33.4	17.3	-89.8	4.2
2025-01-20 13:01:10.326893	33.2	17.3	-89.7	5.4
2025-01-20 13:01:11.491497	33.0	17.4	-89.4	4.9
2025-01-20 13:01:12.655117	32.8	17.5	-89.6	2.9
2025-01-20 13:01:13.818953	32.6	17.6	-89.6	4.3
2025-01-20 13:01:14.983082	32.4	17.7	-89.5	4.3
2025-01-20 13:01:16.147346	32.2	17.8	-89.6	1.6
2025-01-20 13:01:17.312626	31.9	17.8	-89.6	4.0
2025-01-20 13:01:18.474528	31.7	17.9	-89.4	2.7
2025-01-20 13:01:19.640560	31.5	18.0	-88.7	2.2
2025-01-20 13:01:20.806492	31.3	18.1	-89.1	1.5
2025-01-20 13:01:21.965100	31.1	18.2	-89.1	1.1
2025-01-20 13:01:23.130182	30.9	18.3	-88.7	8.1
2025-01-20 13:01:24.289780	30.7	18.3	-89.1	2.5
2025-01-20 13:01:25.451107	30.4	18.4	-89.4	6.0
2025-01-20 13:01:26.611884	30.2	18.5	-89.8	7.6
2025-01-20 13:01:27.771229	30.0	18.6	-89.5	2.7
2025-01-20 13:01:28.934847	29.8	18.7	-89.6	6.1
2025-01-20 13:01:30.096053	29.5	18.7	-89.3	6.2
2025-01-20 13:01:31.259246	29.3	18.8	-89.7	7.4
2025-01-20 13:01:32.426960	29.1	18.9	-89.8	7.4
2025-01-20 13:01:33.582710	28.9	19.0	-89.8	10.3
2025-01-20 13:01:34.753430	28.6	19.1	-89.5	7.7
2025-01-20 13:01:35.917140	28.4	19.2	-89.9	6.3
2025-01-20 13:01:37.078436	28.2	19.2	-90.0	4.4
2025-01-20 13:01:38.244232	27.9	19.3	-90.4	3.2
2025-01-20 13:01:39.403612	27.7	19.4	-89.9	1.6
2025-01-20 13:01:40.569088	27.5	19.5	-90.1	2.3
2025-01-20 13:01:41.731458	27.2	19.6	-89.8	0.5
2025-01-20 13:01:42.897925	27.0	19.6	-90.0	1.5
2025-01-20 13:01:44.056017	26.8	19.7	-90.0	2.7
2025-01-20 13:01:45.216809	26.5	19.8	-90.1	4.0
2025-01-20 13:01:46.382159	26.3	19.9	-90.1	8.3
2025-01-20 13:01:47.541877	26.0	19.9	-90.1	12.2
2025-01-20 13:01:48.705310	25.8	20.0	-90.0	8.5
2025-01-20 13:01:49.870615	25.5	20.1	-90.1	4.7
2025-01-20 13:01:51.036732	25.3	20.2	-89.8	9.2
2025-01-20 13:01:52.199765	25.0	20.3	-90.3	4.9
2025-01-20 13:01:53.364263	24.8	20.3	-90.2	4.3
2025-01-20 13:01:54.523609	24.5	20.4	-90.2	4.2
2025-01-20 13:01:55.687841	24.3	20.5	-89.9	6.4
2025-01-20 13:01:56.849566	24.0	20.6	-89.7	4.0
2025-01-20 13:01:58.017195	23.8	20.6	-89.8	7.8
2025-01-20 13:01:59.180451	23.5	20.7	-90.1	8.4
2025-01-20 13:02:00.334886	23.3	20.8	-89.5	10.4
2025-01-20 13:02:01.502137	23.0	20.9	-90.0	7.2
2025-01-20 13:02:02.667003	22.7	20.9	-89.9	6.0
2025-01-20 13:02:03.828787	22.5	21.0	-89.9	4.9
2025-01-20 13:02:04.992771	22.2	21.1	-89.9	5.5
2025-01-20 13:02:06.155892	22.0	21.2	-90.2	3.1
2025-01-20 13:02:07.315808	21.7	21.2	-90.0	2.4
2025-01-20 13:02:08.481314	21.4	21.3	-90.1	1.7
2025-01-20 13:02:09.646037	21.2	21.4	-89.9	3.4
2025-01-20 13:02:10.813189	20.9	21.4	-90.1	5.1
2025-01-20 13:02:11.978223	20.6	21.5	-90.3	6.5
2025-01-20 13:02:13.140825	20.4	21.6	-90.0	7.2
2025-01-20 13:02:14.311806	20.1	21.6	-90.1	6.9
2025-01-20 13:02:15.471363	19.8	21.7	-90.0	6.1
2025-01-20 13:02:16.634813	19.5	21.8	-89.8	8.8
2025-01-20 13:02:17.800263	19.3	21.8	-89.9	2.4
2025-01-20 13:02:18.969159	19.0	21.9	-89.3	6.5
2025-01-20 13:02:20.135883	18.7	22.0	-90.1	7.5
2025-01-20 13:02:21.300994	18.4	22.0	-89.5	5.0
2025-01-20 13:02:22.462482	18.1	22.1	-90.1	5.3
2025-01-20 13:02:23.628158	17.9	22.2	-89.9	5.1
2025-01-20 13:02:24.984359	17.5	22.3	-90.1	7.0
2025-01-20 13:02:26.149498	17.3	22.3	-89.4	9.5
2025-01-20 13:02:27.312611	17.0	22.4	-90.0	10.4
2025-01-20 13:02:28.475886	16.7	22.4	-90.1	10.9
2025-01-20 13:02:29.635628	16.4	22.5	-89.9	10.6
2025-01-20 13:02:30.799621	16.1	22.6	-89.8	6.2
2025-01-20 13:02:31.964991	15.8	22.6	-89.5	5.8
2025-01-20 13:02:33.133809	15.5	22.7	-89.9	5.4
2025-01-20 13:02:34.290401	15.2	22.7	-89.9	2.5
2025-01-20 13:02:35.451052	14.9	22.8	-90.1	3.8
2025-01-20 13:02:36.612724	14.6	22.9	-89.8	3.8
2025-01-20 13:02:37.776894	14.4	22.9	-90.2	3.2
2025-01-20 13:02:38.941551	14.1	23.0	-89.1	3.9
2025-01-20 13:02:40.104197	13.8	23.0	-89.2	3.0
2025-01-20 13:02:41.269107	13.5	23.1	-90.0	2.1
2025-01-20 13:02:42.433499	13.2	23.1	-90.1	5.9
2025-01-20 13:02:43.595515	12.9	23.2	-90.1	6.2
2025-01-20 13:02:44.750037	12.6	23.2	-90.1	7.2
2025-01-20 13:02:45.917779	12.3	23.3	-90.2	11.5
2025-01-20 13:02:47.081637	12.0	23.3	-89.9	12.3
2025-01-20 13:02:48.245821	11.7	23.4	-89.8	12.4
2025-01-20 13:02:49.409541	11.3	23.4	-89.6	8.7
2025-01-20 13:02:50.573850	11.0	23.5	-89.5	9.5
2025-01-20 13:02:51.738911	10.7	23.5	-89.4	7.8
2025-01-20 13:02:52.898251	10.4	23.6	-89.4	7.3
2025-01-20 13:02:54.058598	10.1	23.6	-89.9	6.1
2025-01-20 13:02:55.223259	9.8	23.7	-89.9	4.5
2025-01-20 13:02:56.390364	9.5	23.7	-90.0	4.1
2025-01-20 13:02:57.550911	9.2	23.8	-89.7	5.8
2025-01-20 13:02:58.713462	8.9	23.8	-90.0	4.1
2025-01-20 13:02:59.872693	8.6	23.8	-89.8	3.4
2025-01-20 13:03:01.039058	8.2	23.9	-89.8	9.9
2025-01-20 13:03:02.207085	7.9	23.9	-89.9	7.1
2025-01-20 13:03:03.375608	7.6	24.0	-89.7	10.6
2025-01-20 13:03:04.533911	7.3	24.0	-89.9	5.5
2025-01-20 13:03:05.692630	7.0	24.0	-90.2	9.9
2025-01-20 13:03:06.865681	6.7	24.1	-89.8	9.3
2025-01-20 13:03:08.030435	6.3	24.1	-88.7	12.4
2025-01-20 13:03:09.189816	6.0	24.2	-90.0	6.6
2025-01-20 13:03:10.354327	5.7	24.2	-89.8	4.1
2025-01-20 13:03:11.521540	5.4	24.2	-90.0	4.6
2025-01-20 13:03:12.697868	5.1	24.3	-89.6	3.8
2025-01-20 13:03:13.859789	4.7	24.3	-89.7	4.4
2025-01-20 13:03:15.023024	4.4	24.3	-90.0	1.7
2025-01-20 13:03:16.187983	4.1	24.3	-89.7	3.1
2025-01-20 13:03:17.359970	3.8	24.4	-89.9	2.1
2025-01-20 13:03:18.525908	3.4	24.4	-90.1	5.8
2025-01-20 13:03:19.691791	3.1	24.4	-90.2	1.5
2025-01-20 13:03:20.848041	2.8	24.4	-90.1	3.8
2025-01-20 13:03:22.008497	2.5	24.5	-90.1	3.6
2025-01-20 13:03:23.176078	2.1	24.5	-90.2	4.9
2025-01-20 13:03:24.332446	1.8	24.5	-90.2	4.7
2025-01-20 13:03:25.500342	1.5	24.5	-90.0	6.5
2025-01-20 13:03:26.660621	1.2	24.6	-90.1	4.5
2025-01-20 13:03:27.824484	0.8	24.6	-89.9	4.1
2025-01-20 13:03:28.993153	0.5	24.6	-90.1	7.4
2025-01-20 13:03:30.149637	0.2	24.6	-90.2	12.3
2025-01-20 13:03:31.302807	359.8	24.6	-89.9	14.3
2025-01-20 13:03:32.431112	359.5	24.6	-89.8	11.4
2025-01-20 13:03:33.550842	359.2	24.7	-89.9	11.5
2025-01-20 13:03:34.671517	358.9	24.7	-90.2	10.6
2025-01-20 13:03:35.791686	358.6	24.7	-90.1	9.1
2025-01-20 13:03:36.911663	358.2	24.7	-89.9	8.6
2025-01-20 13:03:38.032548	357.9	24.7	-90.0	9.0
2025-01-20 13:03:39.154101	357.6	24.7	-90.0	6.0
2025-01-20 13:03:40.274933	357.3	24.7	-90.0	5.0
2025-01-20 13:03:41.401814	357.0	24.7	-90.4	7.5
2025-01-20 13:03:42.548861	356.6	24.7	-90.4	10.6
2025-01-20 13:03:43.704629	356.3	24.7	-90.0	5.3
2025-01-20 13:03:44.859985	356.0	24.7	-90.0	5.0
2025-01-20 13:03:46.019017	355.7	24.7	-90.1	6.8
2025-01-20 13:03:47.174082	355.3	24.7	-90.0	5.2
2025-01-20 13:03:48.337555	355.0	24.7	-90.2	4.9
2025-01-20 13:03:49.504902	354.7	24.7	-90.2	7.5
2025-01-20 13:03:50.660540	354.3	24.7	-90.4	5.6
2025-01-20 13:03:51.823012	354.0	24.7	-90.0	4.4
2025-01-20 13:03:52.981012	353.7	24.7	-90.1	5.3
2025-01-20 13:03:54.148910	353.3	24.7	-90.3	6.5
2025-01-20 13:03:55.303433	353.0	24.7	-90.0	6.5
2025-01-20 13:03:56.461696	352.7	24.7	-90.8	10.7
2025-01-20 13:03:57.626713	352.3	24.7	-90.3	8.2
2025-01-20 13:03:58.794255	352.0	24.7	-90.6	9.4
2025-01-20 13:03:59.957268	351.7	24.7	-90.2	11.1
2025-01-20 13:04:01.111927	351.3	24.7	-90.3	10.1
2025-01-20 13:04:02.277504	351.0	24.7	-90.4	8.7
2025-01-20 13:04:03.442143	350.7	24.7	-90.1	9.2
2025-01-20 13:04:04.603439	350.4	24.6	-90.1	7.8
2025-01-20 13:04:05.766733	350.0	24.6	-90.1	9.7
2025-01-20 13:04:06.931914	349.7	24.6	-90.0	10.1
2025-01-20 13:04:08.091848	349.4	24.6	-90.4	8.0
2025-01-20 13:04:09.252732	349.0	24.6	-90.3	7.2
2025-01-20 13:04:10.417616	348.7	24.6	-90.3	11.8
2025-01-20 13:04:11.577568	348.4	24.5	-90.5	6.7
2025-01-20 13:04:12.742028	348.1	24.5	-90.6	6.6
2025-01-20 13:04:13.905661	347.7	24.5	-90.5	6.8
2025-01-20 13:04:15.063826	347.4	24.5	-90.6	8.2
2025-01-20 13:04:16.224319	347.1	24.4	-90.5	7.4
2025-01-20 13:04:17.384148	346.8	24.4	-90.6	12.3
2025-01-20 13:04:18.542198	346.4	24.4	-90.9	6.3
2025-01-20 13:04:19.710184	346.1	24.4	-90.4	3.6
2025-01-20 13:04:20.871405	345.8	24.3	-90.1	10.6
2025-01-20 13:04:22.033883	345.5	24.3	-90.3	6.2
2025-01-20 13:04:23.190415	345.1	24.3	-90.1	11.0
2025-01-20 13:04:24.353140	344.8	24.3	-90.4	6.0
2025-01-20 13:04:25.511279	344.5	24.2	-90.1	6.7
2025-01-20 13:04:26.679427	344.2	24.2	-90.7	2.3
2025-01-20 13:04:27.841407	343.9	24.2	-90.5	4.1
2025-01-20 13:04:29.009546	343.5	24.1	-90.4	5.9
2025-01-20 13:04:30.173457	343.2	24.1	-90.4	8.8
2025-01-20 13:04:31.331944	342.9	24.0	-90.4	8.3
2025-01-20 13:04:32.499722	342.6	24.0	-90.6	8.2
2025-01-20 13:04:33.669814	342.3	24.0	-90.3	9.8
2025-01-20 13:04:34.824224	342.0	23.9	-90.5	6.0
2025-01-20 13:04:35.985055	341.6	23.9	-90.4	5.9
2025-01-20 13:04:37.148322	341.3	23.9	-90.5	5.0
2025-01-20 13:04:38.310850	341.0	23.8	-89.9	5.1
2025-01-20 13:04:39.471305	340.7	23.8	-90.1	7.2
2025-01-20 13:04:40.635989	340.4	23.7	-90.5	4.7
2025-01-20 13:04:41.797760	340.1	23.7	-90.6	4.1
2025-01-20 13:04:42.967076	339.8	23.6	-90.7	4.0
2025-01-20 13:04:44.131946	339.5	23.6	-90.5	7.0
2025-01-20 13:04:45.286370	339.2	23.5	-90.0	7.4
2025-01-20 13:04:46.444920	338.9	23.5	-90.4	3.9
2025-01-20 13:04:47.604817	338.5	23.4	-90.5	6.7
2025-01-20 13:04:48.768317	338.2	23.4	-90.3	2.5
2025-01-20 13:04:49.931865	337.9	23.3	-90.6	5.9
2025-01-20 13:04:51.091327	337.6	23.3	-90.2	6.1
2025-01-20 13:04:52.258393	337.3	23.2	-89.9	3.7
2025-01-20 13:04:53.419267	337.0	23.2	-89.6	5.2
2025-01-20 13:04:54.578999	336.7	23.1	-90.1	5.4
2025-01-20 13:04:55.742009	336.4	23.1	-90.5	4.2
2025-01-20 13:04:56.900344	336.1	23.0	-90.5	8.3
2025-01-20 13:04:58.065227	335.8	23.0	-90.3	7.4
2025-01-20 13:04:59.228661	335.5	22.9	-90.1	8.0
2025-01-20 13:05:00.387677	335.3	22.9	-90.1	5.5
2025-01-20 13:05:01.547033	335.0	22.8	-90.4	4.7
2025-01-20 13:05:02.714828	334.7	22.7	-90.6	6.5
2025-01-20 13:05:03.879746	334.4	22.7	-90.3	5.5
2025-01-20 13:05:05.036368	334.1	22.6	-90.6	8.4
2025-01-20 13:05:06.199385	333.8	22.6	-90.4	10.1
2025-01-20 13:05:07.364666	333.5	22.5	-90.3	6.8
2025-01-20 13:05:08.525691	333.2	22.5	-90.4	10.4
2025-01-20 13:05:09.688741	332.9	22.4	-90.5	11.4
2025-01-20 13:05:10.855556	332.7	22.3	-90.5	7.9
2025-01-20 13:05:12.020336	332.4	22.3	-90.7	10.0
2025-01-20 13:05:13.188278	332.1	22.2	-90.3	6.8
2025-01-20 13:05:14.348955	331.8	22.1	-90.4	9.0
2025-01-20 13:05:15.504302	331.5	22.1	-90.7	4.6
2025-01-20 13:05:16.651310	331.3	22.0	-90.7	4.9
2025-01-20 13:05:17.814394	331.0	21.9	-90.8	9.2
2025-01-20 13:05:18.974683	330.7	21.9	-90.2	5.5
2025-01-20 13:05:20.152277	330.4	21.8	-90.0	10.7
2025-01-20 13:05:21.313542	330.1	21.7	-90.4	4.3
2025-01-20 13:05:22.480054	329.9	21.7	-90.8	11.3
2025-01-20 13:05:23.647041	329.6	21.6	-91.0	6.3
2025-01-20 13:05:24.803528	329.3	21.5	-90.5	11.9
2025-01-20 13:05:25.967694	329.1	21.5	-90.8	4.3
2025-01-20 13:05:27.132627	328.8	21.4	-90.6	7.1
2025-01-20 13:05:28.296797	328.5	21.3	-90.6	6.3
2025-01-20 13:05:29.459214	328.3	21.3	-90.7	3.9
2025-01-20 13:05:30.619896	328.0	21.2	-90.4	5.5
2025-01-20 13:05:31.787453	327.7	21.1	-90.7	2.6
2025-01-20 13:05:32.950423	327.5	21.0	-90.4	4.8
2025-01-20 13:05:34.115904	327.2	21.0	-90.7	4.2
2025-01-20 13:05:35.275120	327.0	20.9	-90.8	1.8
2025-01-20 13:05:36.442222	326.7	20.8	-90.7	1.8
2025-01-20 13:05:37.605822	326.4	20.7	-90.6	3.9
2025-01-20 13:05:38.766547	326.2	20.7	-90.8	2.4
2025-01-20 13:05:39.933595	325.9	20.6	-90.5	2.6
2025-01-20 13:05:41.096986	325.7	20.5	-90.6	1.6
2025-01-20 13:05:42.263658	325.4	20.4	-90.4	0.5
2025-01-20 13:05:43.430450	325.2	20.4	-91.0	1.3
2025-01-20 13:05:44.598114	324.9	20.3	-90.6	0.6
2025-01-20 13:05:45.749517	324.7	20.2	-90.7	1.2
2025-01-20 13:05:46.908902	324.4	20.1	-90.8	2.7
2025-01-20 13:05:48.072164	324.2	20.1	-90.6	1.3
2025-01-20 13:05:49.241076	323.9	20.0	-90.6	2.0
2025-01-20 13:05:50.406237	323.7	19.9	-91.0	1.8
2025-01-20 13:05:51.572747	323.5	19.8	-90.6	3.3
2025-01-20 13:05:52.843273	323.2	19.7	-90.5	2.9
2025-01-20 13:05:54.005427	323.0	19.7	-90.4	0.6
2025-01-20 13:05:55.158555	322.7	19.6	-90.5	4.1
2025-01-20 13:05:56.320925	322.5	19.5	-90.2	3.6
2025-01-20 13:05:57.484248	322.2	19.4	-90.7	2.6
2025-01-20 13:05:58.647513	322.0	19.3	-90.6	2.0
2025-01-20 13:05:59.808860	321.8	19.3	-90.5	2.2
2025-01-20 13:06:00.969398	321.6	19.2	-90.6	3.9
2025-01-20 13:06:02.132974	321.3	19.1	-90.9	3.5
2025-01-20 13:06:03.296128	321.1	19.0	-90.8	2.3
2025-01-20 13:06:04.459408	320.9	18.9	-90.7	2.2
2025-01-20 13:06:05.625171	320.6	18.9	-90.8	1.9
2025-01-20 13:06:06.787497	320.4	18.8	-90.3	2.7
2025-01-20 13:06:07.948765	320.2	18.7	-90.5	3.2
2025-01-20 13:06:09.113869	320.0	18.6	-89.9	1.7
2025-01-20 13:06:10.276901	319.7	18.5	-90.3	2.5
2025-01-20 13:06:11.442749	319.5	18.5	-90.2	3.4
2025-01-20 13:06:12.605139	319.3	18.4	-90.4	1.4
2025-01-20 13:06:13.772629	319.1	18.3	-90.4	1.4
2025-01-20 13:06:14.930476	318.9	18.2	-90.5	3.1
2025-01-20 13:06:16.096541	318.6	18.1	-90.4	1.4
2025-01-20 13:06:17.260293	318.4	18.0	-90.4	2.4
2025-01-20 13:06:18.428281	318.2	18.0	-90.5	3.2
2025-01-20 13:06:19.593111	318.0	17.9	-90.5	4.5
2025-01-20 13:06:20.754150	317.8	17.8	-90.6	2.5
2025-01-20 13:06:21.916324	317.6	17.7	-90.3	3.0
2025-01-20 13:06:23.071375	317.4	17.6	-90.0	2.9
2025-01-20 13:06:24.238900	317.2	17.5	-89.8	2.3
2025-01-20 13:06:25.398151	317.0	17.5	-90.2	4.0
2025-01-20 13:06:26.562282	316.8	17.4	-90.5	1.9
2025-01-20 13:06:27.726829	316.6	17.3	-90.4	3.5
2025-01-20 13:06:28.893833	316.4	17.2	-89.9	1.9
2025-01-20 13:06:30.051824	316.1	17.1	-90.5	2.1
2025-01-20 13:06:31.214346	315.9	17.0	-89.9	5.0
2025-01-20 13:06:32.380429	315.7	16.9	-90.0	2.2
2025-01-20 13:06:33.541181	315.6	16.9	-90.2	4.1
2025-01-20 13:06:34.700716	315.4	16.8	-90.0	4.8
2025-01-20 13:06:35.860617	315.2	16.7	-90.4	3.0
2025-01-20 13:06:37.021950	315.0	16.6	-90.3	3.5
2025-01-20 13:06:38.184167	314.8	16.5	-90.2	2.1
2025-01-20 13:06:39.355846	314.6	16.4	-90.5	2.0
2025-01-20 13:06:40.519864	314.4	16.4	-90.7	1.0
2025-01-20 13:06:41.684679	314.2	16.3	-90.4	3.7
2025-01-20 13:06:42.849738	314.0	16.2	-90.3	0.8
2025-01-20 13:06:44.011648	313.8	16.1	-90.5	2.4
2025-01-20 13:06:45.163944	313.6	16.0	-90.5	4.4
2025-01-20 13:06:46.328678	313.4	15.9	-90.6	3.6
2025-01-20 13:06:47.495872	313.3	15.8	-90.5	4.3
2025-01-20 13:06:48.657836	313.1	15.8	-90.5	2.7
2025-01-20 13:06:49.819968	312.9	15.7	-90.5	4.0
2025-01-20 13:06:50.982752	312.7	15.6	-90.4	5.6
2025-01-20 13:06:52.140102	312.5	15.5	-90.7	3.3
2025-01-20 13:06:53.300842	312.3	15.4	-90.7	7.3
2025-01-20 13:06:54.465768	312.2	15.3	-90.1	3.6
2025-01-20 13:06:55.626569	312.0	15.3	-90.1	2.7
2025-01-20 13:06:56.791838	311.8	15.2	-90.2	8.1
2025-01-20 13:06:57.951166	311.6	15.1	-89.6	4.3
2025-01-20 13:06:59.113636	311.5	15.0	-90.2	1.2
2025-01-20 13:07:00.265637	311.3	14.9	-89.0	2.2
2025-01-20 13:07:01.425285	311.1	14.8	-90.1	2.6
2025-01-20 13:07:02.585256	310.9	14.7	-90.3	3.4
2025-01-20 13:07:03.755955	310.8	14.7	-90.6	1.8
#Closed at: 2025-01-20 13:00:43.361529