passes_logs/2025/01/20/LEX_Murmansk/LEX_Murmansk__20250120_182258_NOAA_18_rec.log

#Pass ID: 20250120_182258_NOAA 18
#Satellite: NOAA 18
#Configuration: NOAA 18
#Start time: 2025-01-20 18:22:53.061797

#LorettStation: 1.0.0 05.05.2024
#Station: LEX_Murmansk
#Location: 33.156738 lon 68.926811 lat
#TLE: 1 28654U 05018A   25020.18862715  .00000449  00000+0  26167-3 0  9997
#TLE: 2 28654  98.8558 101.1913 0014575 164.8261 195.3351 14.13491567 13918

#Time	Az	El	Level	SNR
2025-01-20 18:23:09.305022	136.8	16.8	-91.4	8.2
2025-01-20 18:23:11.635025	136.7	17.0	-91.7	7.3
2025-01-20 18:23:13.956134	136.7	17.3	-91.5	6.7
2025-01-20 18:23:16.238727	136.6	17.5	-91.4	9.9
2025-01-20 18:23:18.547157	136.5	17.8	-91.0	10.1
2025-01-20 18:23:20.865770	136.4	18.1	-91.6	10.1
2025-01-20 18:23:23.179855	136.3	18.4	-91.8	12.2
2025-01-20 18:23:25.508280	136.3	18.6	-91.6	8.7
2025-01-20 18:23:27.840004	136.2	18.9	-91.4	9.8
2025-01-20 18:23:30.172676	136.1	19.2	-91.4	11.0
2025-01-20 18:23:32.505277	136.0	19.5	-91.8	10.9
2025-01-20 18:23:34.832953	135.9	19.8	-91.6	12.5
2025-01-20 18:23:37.156651	135.8	20.1	-91.3	11.0
2025-01-20 18:23:39.480470	135.7	20.4	-91.6	12.8
2025-01-20 18:23:41.828011	135.7	20.7	-91.3	13.6
2025-01-20 18:23:44.160952	135.6	21.0	-91.6	12.6
2025-01-20 18:23:46.480894	135.5	21.3	-91.8	11.0
2025-01-20 18:23:48.816242	135.4	21.6	-91.6	14.3
2025-01-20 18:23:51.170984	135.3	21.9	-91.7	15.3
2025-01-20 18:23:53.501589	135.2	22.2	-92.0	12.9
2025-01-20 18:23:55.821830	135.1	22.6	-91.7	12.8
2025-01-20 18:23:58.142622	134.9	22.9	-91.7	13.2
2025-01-20 18:24:00.473621	134.8	23.2	-91.5	6.6
2025-01-20 18:24:02.785141	134.7	23.6	-92.1	14.8
2025-01-20 18:24:05.112152	134.6	23.9	-91.4	16.6
2025-01-20 18:24:07.375879	134.5	24.2	-91.4	14.3
2025-01-20 18:24:09.617908	134.4	24.6	-91.3	17.3
2025-01-20 18:24:11.857941	134.3	24.9	-92.0	15.9
2025-01-20 18:24:14.098679	134.1	25.3	-91.8	10.8
2025-01-20 18:24:16.351460	134.0	25.6	-92.0	13.9
2025-01-20 18:24:18.663196	133.9	26.0	-92.2	13.8
2025-01-20 18:24:20.988003	133.7	26.3	-92.1	14.2
2025-01-20 18:24:23.311117	133.6	26.7	-91.8	11.0
2025-01-20 18:24:25.641972	133.5	27.1	-91.8	11.4
2025-01-20 18:24:27.969880	133.3	27.5	-91.8	9.0
2025-01-20 18:24:30.301557	133.2	27.9	-91.5	7.9
2025-01-20 18:24:32.627080	133.0	28.3	-92.0	5.7
2025-01-20 18:24:34.954399	132.8	28.7	-91.8	4.6
2025-01-20 18:24:37.281949	132.7	29.1	-92.2	8.5
2025-01-20 18:24:39.612021	132.5	29.5	-92.0	9.8
2025-01-20 18:24:41.937021	132.3	29.9	-92.1	10.6
2025-01-20 18:24:44.266222	132.2	30.3	-91.6	14.2
2025-01-20 18:24:46.580647	132.0	30.8	-91.2	9.0
2025-01-20 18:24:48.914906	131.8	31.2	-92.0	6.6
2025-01-20 18:24:51.239045	131.6	31.7	-92.1	9.4
2025-01-20 18:24:53.568817	131.4	32.1	-92.0	9.0
2025-01-20 18:24:55.894066	131.2	32.6	-91.9	14.4
2025-01-20 18:24:58.215832	131.0	33.0	-91.7	14.5
2025-01-20 18:25:00.544589	130.8	33.5	-92.3	13.4
2025-01-20 18:25:02.870676	130.6	34.0	-92.3	14.5
2025-01-20 18:25:05.199660	130.3	34.5	-91.6	15.0
2025-01-20 18:25:07.522037	130.1	34.9	-92.3	7.3
2025-01-20 18:25:09.869642	129.8	35.4	-92.3	12.8
2025-01-20 18:25:12.196299	129.6	36.0	-91.2	14.2
2025-01-20 18:25:14.524252	129.3	36.5	-91.4	15.3
2025-01-20 18:25:16.848963	129.1	37.0	-92.3	13.6
2025-01-20 18:25:19.169190	128.8	37.5	-91.6	16.8
2025-01-20 18:25:21.503126	128.5	38.0	-92.2	18.8
2025-01-20 18:25:23.835827	128.2	38.6	-91.9	10.4
2025-01-20 18:25:26.160302	127.9	39.1	-91.7	10.3
2025-01-20 18:25:28.476671	127.6	39.7	-92.1	6.4
2025-01-20 18:25:30.806899	127.2	40.3	-92.5	14.8
2025-01-20 18:25:33.127539	126.9	40.8	-92.3	17.0
2025-01-20 18:25:35.452575	126.6	41.4	-92.0	11.6
2025-01-20 18:25:37.766659	126.2	42.0	-92.0	19.0
2025-01-20 18:25:40.091551	125.8	42.6	-91.8	19.6
2025-01-20 18:25:42.421078	125.4	43.2	-92.0	13.1
2025-01-20 18:25:44.750565	125.0	43.8	-92.3	13.7
2025-01-20 18:25:47.075658	124.6	44.4	-92.0	7.8
2025-01-20 18:25:49.408777	124.1	45.1	-91.9	12.6
2025-01-20 18:25:51.742584	123.7	45.7	-91.9	18.6
2025-01-20 18:25:54.072889	123.2	46.3	-92.0	16.0
2025-01-20 18:25:56.391752	122.7	47.0	-92.0	10.7
2025-01-20 18:25:58.719567	122.1	47.7	-92.2	16.5
2025-01-20 18:26:01.054413	121.6	48.3	-92.2	15.8
2025-01-20 18:26:03.384941	121.0	49.0	-92.0	16.1
2025-01-20 18:26:05.735312	120.4	49.7	-92.1	13.6
2025-01-20 18:26:08.055580	119.8	50.4	-92.2	6.4
2025-01-20 18:26:10.372900	119.1	51.1	-91.9	12.5
2025-01-20 18:26:12.678082	118.4	51.8	-92.1	17.4
2025-01-20 18:26:14.919681	117.8	52.5	-91.9	14.2
2025-01-20 18:26:17.160299	117.0	53.1	-91.6	15.5
2025-01-20 18:26:19.403980	116.3	53.8	-92.0	8.8
2025-01-20 18:26:21.648692	115.5	54.5	-92.2	14.4
2025-01-20 18:26:23.950311	114.6	55.2	-92.6	18.4
2025-01-20 18:26:26.246950	113.7	56.0	-92.1	19.5
2025-01-20 18:26:28.543612	112.7	56.7	-92.0	12.2
2025-01-20 18:26:30.839158	111.7	57.4	-91.7	12.3
2025-01-20 18:26:33.160731	110.6	58.1	-92.0	13.5
2025-01-20 18:26:35.496108	109.5	58.9	-92.4	9.1
2025-01-20 18:26:37.829274	108.3	59.6	-92.1	16.4
2025-01-20 18:26:40.156870	107.0	60.3	-92.0	13.6
2025-01-20 18:26:42.489660	105.6	61.0	-92.1	21.0
2025-01-20 18:26:44.766576	104.2	61.7	-92.4	20.0
2025-01-20 18:26:47.070323	102.7	62.4	-91.7	9.3
2025-01-20 18:26:49.402050	101.1	63.1	-92.3	11.8
2025-01-20 18:26:51.722427	99.5	63.8	-92.2	22.4
2025-01-20 18:26:54.049495	97.7	64.5	-92.0	20.2
2025-01-20 18:26:56.380085	95.7	65.1	-91.9	20.8
2025-01-20 18:26:58.692962	93.7	65.7	-91.8	15.8
2025-01-20 18:27:01.025347	91.6	66.3	-92.0	10.2
2025-01-20 18:27:03.352584	89.4	66.9	-92.1	13.8
2025-01-20 18:27:05.684614	87.0	67.4	-92.0	17.0
2025-01-20 18:27:08.011101	84.5	67.9	-92.1	5.4
2025-01-20 18:27:10.345405	81.9	68.4	-91.6	14.2
2025-01-20 18:27:12.635156	79.2	68.8	-92.2	13.5
2025-01-20 18:27:14.939599	76.3	69.2	-91.6	13.0
2025-01-20 18:27:17.243765	73.4	69.5	-91.3	14.6
2025-01-20 18:27:19.557109	70.4	69.8	-91.9	17.9
2025-01-20 18:27:21.868388	67.3	70.0	-92.0	8.3
2025-01-20 18:27:24.199599	64.1	70.2	-91.5	14.5
2025-01-20 18:27:26.531419	60.8	70.3	-92.2	11.7
2025-01-20 18:27:28.861463	57.5	70.4	-92.1	14.8
2025-01-20 18:27:31.174053	54.3	70.3	-92.0	13.4
2025-01-20 18:27:33.451995	51.0	70.3	-92.2	4.7
2025-01-20 18:27:35.766592	47.8	70.2	-92.1	14.6
2025-01-20 18:27:38.082994	44.7	70.0	-91.9	6.2
2025-01-20 18:27:40.407711	41.5	69.7	-92.4	9.8
2025-01-20 18:27:42.733563	38.5	69.4	-92.5	12.3
2025-01-20 18:27:45.064611	35.6	69.1	-91.7	11.1
2025-01-20 18:27:47.395050	32.8	68.7	-92.1	10.2
2025-01-20 18:27:49.719249	30.1	68.2	-92.3	22.0
2025-01-20 18:27:52.054222	27.5	67.8	-91.9	14.9
2025-01-20 18:27:54.392855	25.0	67.2	-91.3	16.3
2025-01-20 18:27:56.708535	22.7	66.7	-92.1	21.6
2025-01-20 18:27:59.030160	20.5	66.1	-92.0	16.4
2025-01-20 18:28:01.359749	18.4	65.5	-92.2	18.0
2025-01-20 18:28:03.698053	16.4	64.9	-91.7	23.4
2025-01-20 18:28:06.025936	14.5	64.2	-91.9	21.2
2025-01-20 18:28:08.338018	12.8	63.6	-92.3	19.0
2025-01-20 18:28:10.585701	11.2	62.9	-92.1	20.3
2025-01-20 18:28:12.826938	9.7	62.2	-91.7	22.2
2025-01-20 18:28:15.068306	8.2	61.6	-91.6	15.2
2025-01-20 18:28:17.310654	6.9	60.9	-91.4	20.8
2025-01-20 18:28:19.593268	5.6	60.2	-92.0	12.1
2025-01-20 18:28:21.915504	4.3	59.4	-92.4	10.2
2025-01-20 18:28:24.230890	3.1	58.7	-91.3	13.9
2025-01-20 18:28:26.560930	2.0	58.0	-91.8	7.8
2025-01-20 18:28:28.881924	0.9	57.3	-92.4	10.2
2025-01-20 18:28:31.208850	359.9	56.5	-92.3	9.9
2025-01-20 18:28:33.533542	358.9	55.8	-92.0	9.1
2025-01-20 18:28:35.859379	358.0	55.1	-92.0	15.3
2025-01-20 18:28:38.184842	357.2	54.4	-92.2	16.6
2025-01-20 18:28:40.516200	356.3	53.6	-92.0	12.8
2025-01-20 18:28:42.853434	355.5	52.9	-92.3	15.4
2025-01-20 18:28:45.179494	354.8	52.2	-92.2	12.8
2025-01-20 18:28:47.500756	354.1	51.5	-92.0	15.1
2025-01-20 18:28:49.823642	353.4	50.8	-92.2	18.7
2025-01-20 18:28:52.145709	352.8	50.1	-92.4	14.3
2025-01-20 18:28:54.422278	352.2	49.4	-92.2	14.8
2025-01-20 18:28:56.730436	351.6	48.8	-92.5	18.8
2025-01-20 18:28:59.020944	351.0	48.1	-92.0	14.0
2025-01-20 18:29:01.316817	350.5	47.4	-91.7	19.1
2025-01-20 18:29:03.643669	350.0	46.8	-92.3	18.5
2025-01-20 18:29:05.971941	349.5	46.1	-92.5	12.1
2025-01-20 18:29:08.299740	349.0	45.5	-91.9	22.4
2025-01-20 18:29:10.601641	348.5	44.9	-92.4	21.8
2025-01-20 18:29:12.891598	348.1	44.2	-92.3	21.9
2025-01-20 18:29:15.195565	347.7	43.6	-92.0	17.5
2025-01-20 18:29:17.502226	347.3	43.0	-91.9	16.9
2025-01-20 18:29:19.816415	346.9	42.4	-92.1	20.2
2025-01-20 18:29:22.143070	346.5	41.8	-91.9	20.7
2025-01-20 18:29:24.468952	346.2	41.2	-92.1	10.2
2025-01-20 18:29:26.793867	345.8	40.7	-92.3	16.8
2025-01-20 18:29:29.116624	345.5	40.1	-92.2	14.3
2025-01-20 18:29:31.444267	345.1	39.5	-92.0	12.8
2025-01-20 18:29:33.764711	344.8	39.0	-91.9	15.8
2025-01-20 18:29:36.048095	344.5	38.4	-92.2	14.8
2025-01-20 18:29:38.355929	344.2	37.9	-92.1	13.5
2025-01-20 18:29:40.669028	344.0	37.4	-92.0	12.9
2025-01-20 18:29:42.954790	343.7	36.8	-92.4	11.2
2025-01-20 18:29:45.255285	343.4	36.3	-92.0	10.1
2025-01-20 18:29:47.566437	343.2	35.8	-92.3	12.0
2025-01-20 18:29:49.882797	342.9	35.3	-91.9	18.2
2025-01-20 18:29:52.210186	342.7	34.8	-92.0	18.0
2025-01-20 18:29:54.543878	342.5	34.3	-92.2	8.3
2025-01-20 18:29:56.877222	342.2	33.9	-92.4	12.0
2025-01-20 18:29:59.203962	342.0	33.4	-91.4	11.3
2025-01-20 18:30:01.530872	341.8	32.9	-92.3	4.6
2025-01-20 18:30:03.864304	341.6	32.4	-92.4	15.6
2025-01-20 18:30:06.140616	341.4	32.0	-92.4	11.0
2025-01-20 18:30:08.451282	341.2	31.6	-91.7	11.1
2025-01-20 18:30:10.769608	341.0	31.1	-92.4	11.4
2025-01-20 18:30:13.051464	340.8	30.7	-92.5	7.7
2025-01-20 18:30:15.355832	340.6	30.3	-92.0	10.0
2025-01-20 18:30:17.678951	340.5	29.8	-92.1	15.0
2025-01-20 18:30:20.001869	340.3	29.4	-92.1	3.9
2025-01-20 18:30:22.331766	340.1	29.0	-91.9	8.2
2025-01-20 18:30:24.656697	340.0	28.6	-91.9	12.7
2025-01-20 18:30:26.983609	339.8	28.2	-92.4	10.2
2025-01-20 18:30:29.313638	339.7	27.8	-92.3	10.2
2025-01-20 18:30:31.622227	339.5	27.4	-92.3	5.1
2025-01-20 18:30:33.904817	339.4	27.0	-92.1	9.0
2025-01-20 18:30:36.214763	339.2	26.7	-91.8	13.2
2025-01-20 18:30:38.525692	339.1	26.3	-92.2	17.2
2025-01-20 18:30:40.808813	338.9	25.9	-92.4	18.6
2025-01-20 18:30:43.127677	338.8	25.5	-91.9	9.1
2025-01-20 18:30:45.455386	338.7	25.2	-92.0	6.3
2025-01-20 18:30:47.775878	338.6	24.8	-92.1	9.4
2025-01-20 18:30:50.098283	338.4	24.5	-91.9	8.6
2025-01-20 18:30:52.428424	338.3	24.1	-92.3	18.0
2025-01-20 18:30:54.760938	338.2	23.8	-92.1	14.6
2025-01-20 18:30:57.088639	338.1	23.4	-91.9	12.8
2025-01-20 18:30:59.419029	338.0	23.1	-92.0	11.8
2025-01-20 18:31:01.728598	337.9	22.8	-91.9	15.3
2025-01-20 18:31:04.059952	337.8	22.5	-91.9	7.8
2025-01-20 18:31:06.388996	337.7	22.1	-92.0	9.1
2025-01-20 18:31:08.714913	337.6	21.8	-92.1	13.9
2025-01-20 18:31:11.043644	337.5	21.5	-92.2	15.2
2025-01-20 18:31:13.363024	337.4	21.2	-91.7	12.9
2025-01-20 18:31:15.692464	337.3	20.9	-91.9	13.3
2025-01-20 18:31:18.008840	337.2	20.6	-91.9	5.1
2025-01-20 18:31:20.341036	337.1	20.3	-92.1	10.7
2025-01-20 18:31:22.675014	337.0	20.0	-92.4	6.7
2025-01-20 18:31:25.006424	336.9	19.7	-92.2	9.1
2025-01-20 18:31:27.338410	336.8	19.4	-91.8	7.8
2025-01-20 18:31:29.661196	336.7	19.1	-91.9	5.0
2025-01-20 18:31:31.987873	336.6	18.8	-92.3	6.6
2025-01-20 18:31:34.314941	336.6	18.5	-92.3	5.9
2025-01-20 18:31:36.647269	336.5	18.3	-91.9	7.0
2025-01-20 18:31:38.970744	336.4	18.0	-91.8	6.1
2025-01-20 18:31:41.298128	336.3	17.7	-91.8	2.5
2025-01-20 18:31:43.625582	336.3	17.4	-92.2	5.3
2025-01-20 18:31:45.917083	336.2	17.2	-92.4	5.6
2025-01-20 18:31:48.163916	336.1	16.9	-91.8	5.3
2025-01-20 18:31:50.404884	336.0	16.7	-92.0	6.0
2025-01-20 18:31:52.646470	336.0	16.4	-92.1	4.7
2025-01-20 18:31:54.893542	335.9	16.2	-91.9	5.7
2025-01-20 18:31:57.207415	335.9	15.9	-92.1	5.1
2025-01-20 18:31:59.524296	335.8	15.7	-92.1	5.8
2025-01-20 18:32:01.835906	335.7	15.4	-92.2	2.5
2025-01-20 18:32:04.117716	335.7	15.2	-92.3	5.8
2025-01-20 18:32:06.411951	335.6	14.9	-92.2	5.7
2025-01-20 18:32:08.705584	335.5	14.7	-92.7	5.4
2025-01-20 18:32:11.023814	335.5	14.5	-92.2	5.3
#Closed at: 2025-01-20 18:22:58.109385