passes_logs/2025/01/20/LEX_Murmansk/LEX_Murmansk__20250120_161850_NOAA_19_rec.log

#Pass ID: 20250120_161850_NOAA 19
#Satellite: NOAA 19
#Configuration: NOAA 19
#Start time: 2025-01-20 16:18:45.974289

#LorettStation: 1.0.0 05.05.2024
#Station: LEX_Murmansk
#Location: 33.156738 lon 68.926811 lat
#TLE: 1 33591U 09005A   25020.17232911  .00000399  00000+0  23710-3 0  9996
#TLE: 2 33591  99.0187  83.9745 0014303  43.5990 316.6309 14.13263973822272

#Time	Az	El	Level	SNR
2025-01-20 16:18:58.114848	110.1	16.2	-91.5	6.4
2025-01-20 16:18:59.278014	110.0	16.3	-91.3	9.2
2025-01-20 16:19:00.437210	109.9	16.5	-91.3	9.1
2025-01-20 16:19:01.599837	109.8	16.6	-91.4	7.4
2025-01-20 16:19:02.763422	109.7	16.7	-91.8	4.6
2025-01-20 16:19:03.921228	109.6	16.8	-91.4	2.2
2025-01-20 16:19:05.085758	109.5	17.0	-91.3	2.3
2025-01-20 16:19:06.238809	109.4	17.1	-91.6	2.9
2025-01-20 16:19:07.400995	109.3	17.2	-91.8	5.2
2025-01-20 16:19:08.565534	109.2	17.3	-91.9	10.5
2025-01-20 16:19:09.729489	109.1	17.5	-91.6	12.3
2025-01-20 16:19:10.891561	109.0	17.6	-91.8	10.4
2025-01-20 16:19:12.055997	108.9	17.7	-91.7	9.5
2025-01-20 16:19:13.219927	108.8	17.8	-91.7	5.7
2025-01-20 16:19:14.385110	108.7	18.0	-91.8	8.9
2025-01-20 16:19:15.553835	108.5	18.1	-91.6	11.7
2025-01-20 16:19:16.714064	108.4	18.2	-91.7	9.2
2025-01-20 16:19:17.873414	108.3	18.3	-91.8	7.5
2025-01-20 16:19:19.038795	108.2	18.5	-91.5	5.1
2025-01-20 16:19:20.203792	108.1	18.6	-91.6	1.5
2025-01-20 16:19:21.368412	108.0	18.7	-91.8	1.4
2025-01-20 16:19:22.533204	107.9	18.9	-91.7	2.8
2025-01-20 16:19:23.699838	107.8	19.0	-91.6	4.5
2025-01-20 16:19:24.861603	107.6	19.1	-91.3	7.0
2025-01-20 16:19:26.023817	107.5	19.3	-91.4	9.0
2025-01-20 16:19:27.188906	107.4	19.4	-91.5	9.9
2025-01-20 16:19:28.353623	107.3	19.5	-92.1	6.1
2025-01-20 16:19:29.518580	107.2	19.7	-91.6	7.7
2025-01-20 16:19:30.682262	107.0	19.8	-91.4	5.5
2025-01-20 16:19:31.847155	106.9	19.9	-91.4	8.5
2025-01-20 16:19:33.011614	106.8	20.1	-91.2	12.4
2025-01-20 16:19:34.185127	106.7	20.2	-91.6	10.3
2025-01-20 16:19:35.345901	106.5	20.4	-91.5	7.7
2025-01-20 16:19:36.506930	106.4	20.5	-91.8	4.7
2025-01-20 16:19:37.665980	106.3	20.6	-91.8	3.2
2025-01-20 16:19:38.830744	106.2	20.8	-91.7	3.5
2025-01-20 16:19:39.994401	106.0	20.9	-91.5	3.0
2025-01-20 16:19:41.153113	105.9	21.1	-91.9	5.8
2025-01-20 16:19:42.317776	105.8	21.2	-91.8	7.4
2025-01-20 16:19:43.500276	105.6	21.3	-91.9	6.9
2025-01-20 16:19:44.662220	105.5	21.5	-92.0	6.8
2025-01-20 16:19:45.824594	105.4	21.6	-91.7	4.2
2025-01-20 16:19:46.983459	105.2	21.8	-91.8	4.7
2025-01-20 16:19:48.149534	105.1	21.9	-91.6	4.1
2025-01-20 16:19:49.324621	104.9	22.1	-92.0	5.3
2025-01-20 16:19:50.492634	104.8	22.2	-92.1	6.6
2025-01-20 16:19:51.656694	104.6	22.4	-91.9	3.6
2025-01-20 16:19:52.824784	104.5	22.5	-91.9	2.9
2025-01-20 16:19:53.986855	104.4	22.6	-91.3	3.4
2025-01-20 16:19:55.145546	104.2	22.8	-91.8	1.9
2025-01-20 16:19:56.310120	104.1	22.9	-91.9	1.5
2025-01-20 16:19:57.471673	103.9	23.1	-91.4	2.8
2025-01-20 16:19:58.632873	103.8	23.2	-92.2	2.3
2025-01-20 16:19:59.800388	103.6	23.4	-92.3	1.4
2025-01-20 16:20:00.960436	103.4	23.5	-92.0	2.6
2025-01-20 16:20:02.118728	103.3	23.7	-91.4	3.1
2025-01-20 16:20:03.282287	103.1	23.9	-91.9	3.0
2025-01-20 16:20:04.440573	103.0	24.0	-92.1	2.1
2025-01-20 16:20:05.612738	102.8	24.2	-91.6	2.4
2025-01-20 16:20:06.769345	102.6	24.3	-91.4	2.9
2025-01-20 16:20:07.939965	102.5	24.5	-91.4	0.7
2025-01-20 16:20:09.101871	102.3	24.6	-90.9	3.0
2025-01-20 16:20:10.260036	102.1	24.8	-91.4	2.8
2025-01-20 16:20:11.421903	102.0	24.9	-91.4	1.9
2025-01-20 16:20:12.586012	101.8	25.1	-91.2	2.8
2025-01-20 16:20:13.753490	101.6	25.3	-91.2	2.6
2025-01-20 16:20:14.918365	101.5	25.4	-91.1	4.4
2025-01-20 16:20:16.080365	101.3	25.6	-91.0	2.7
2025-01-20 16:20:17.240704	101.1	25.7	-91.9	5.9
2025-01-20 16:20:18.406669	100.9	25.9	-91.6	9.8
2025-01-20 16:20:19.572239	100.7	26.1	-91.7	13.4
2025-01-20 16:20:20.735252	100.6	26.2	-91.9	12.4
2025-01-20 16:20:21.882408	100.4	26.4	-91.8	9.7
2025-01-20 16:20:23.048536	100.2	26.5	-91.5	12.0
2025-01-20 16:20:24.213063	100.0	26.7	-91.2	7.2
2025-01-20 16:20:25.377707	99.8	26.9	-91.5	12.4
2025-01-20 16:20:26.541444	99.6	27.0	-91.9	14.4
2025-01-20 16:20:27.705219	99.4	27.2	-92.2	14.2
2025-01-20 16:20:28.871289	99.2	27.4	-92.1	11.9
2025-01-20 16:20:30.034071	99.0	27.5	-91.3	7.3
2025-01-20 16:20:31.201748	98.8	27.7	-91.6	2.7
2025-01-20 16:20:32.365298	98.6	27.9	-91.6	3.4
2025-01-20 16:20:33.531681	98.4	28.1	-92.2	2.2
2025-01-20 16:20:34.699386	98.2	28.2	-92.1	3.3
2025-01-20 16:20:35.862110	98.0	28.4	-92.0	2.3
2025-01-20 16:20:37.024288	97.8	28.6	-92.0	7.0
2025-01-20 16:20:38.188347	97.5	28.7	-91.1	7.0
2025-01-20 16:20:39.352865	97.3	28.9	-91.8	4.8
2025-01-20 16:20:40.520194	97.1	29.1	-91.4	6.0
2025-01-20 16:20:41.685337	96.9	29.3	-90.9	5.5
2025-01-20 16:20:42.853026	96.6	29.4	-91.2	5.4
2025-01-20 16:20:44.013467	96.4	29.6	-91.7	6.9
2025-01-20 16:20:45.177748	96.2	29.8	-91.6	12.1
2025-01-20 16:20:46.337340	96.0	30.0	-91.8	14.7
2025-01-20 16:20:47.496032	95.7	30.1	-91.2	13.8
2025-01-20 16:20:48.662471	95.5	30.3	-91.5	12.6
2025-01-20 16:20:49.829197	95.2	30.5	-91.5	8.0
2025-01-20 16:20:50.991770	95.0	30.7	-91.2	5.0
2025-01-20 16:20:52.155657	94.7	30.8	-90.9	3.4
2025-01-20 16:20:53.319391	94.5	31.0	-91.3	1.8
2025-01-20 16:20:54.481157	94.2	31.2	-91.4	5.8
2025-01-20 16:20:55.646777	94.0	31.4	-91.5	9.8
2025-01-20 16:20:56.809440	93.7	31.6	-91.8	13.0
2025-01-20 16:20:57.969600	93.5	31.7	-92.0	16.6
2025-01-20 16:20:59.136025	93.2	31.9	-91.3	15.5
2025-01-20 16:21:00.295813	92.9	32.1	-91.4	11.2
2025-01-20 16:21:01.460552	92.7	32.3	-91.6	10.1
2025-01-20 16:21:02.625528	92.4	32.5	-91.5	10.7
2025-01-20 16:21:03.808769	92.1	32.7	-91.8	7.7
2025-01-20 16:21:04.974935	91.8	32.8	-91.0	9.3
2025-01-20 16:21:06.135952	91.6	33.0	-91.2	13.6
2025-01-20 16:21:07.296646	91.3	33.2	-91.8	13.9
2025-01-20 16:21:08.460423	91.0	33.4	-91.9	15.3
2025-01-20 16:21:09.626165	90.7	33.6	-92.0	12.2
2025-01-20 16:21:10.791203	90.4	33.8	-92.0	5.1
2025-01-20 16:21:11.963305	90.1	33.9	-92.0	3.8
2025-01-20 16:21:13.132008	89.8	34.1	-91.6	5.9
2025-01-20 16:21:14.297212	89.5	34.3	-92.0	3.6
2025-01-20 16:21:15.463049	89.2	34.5	-92.0	4.2
2025-01-20 16:21:16.620373	88.9	34.7	-91.3	8.8
2025-01-20 16:21:17.785178	88.5	34.9	-92.1	11.4
2025-01-20 16:21:18.950402	88.2	35.0	-92.2	15.5
2025-01-20 16:21:20.116156	87.9	35.2	-91.8	16.6
2025-01-20 16:21:21.284125	87.6	35.4	-92.1	16.5
2025-01-20 16:21:22.444590	87.2	35.6	-91.3	14.6
2025-01-20 16:21:23.610061	86.9	35.8	-92.0	14.3
2025-01-20 16:21:24.773310	86.6	36.0	-91.9	10.0
2025-01-20 16:21:25.937672	86.2	36.2	-92.1	9.8
2025-01-20 16:21:27.096518	85.9	36.3	-92.1	11.3
2025-01-20 16:21:28.263385	85.5	36.5	-92.1	9.0
2025-01-20 16:21:29.422826	85.2	36.7	-92.4	15.0
2025-01-20 16:21:30.583461	84.8	36.9	-92.1	12.9
2025-01-20 16:21:31.743715	84.4	37.1	-91.8	8.9
2025-01-20 16:21:32.910822	84.1	37.3	-91.2	6.5
2025-01-20 16:21:34.074849	83.7	37.4	-90.6	4.0
2025-01-20 16:21:35.231644	83.3	37.6	-90.3	1.7
2025-01-20 16:21:36.390698	83.0	37.8	-91.1	4.6
2025-01-20 16:21:37.547625	82.6	38.0	-87.4	5.3
2025-01-20 16:21:38.717591	82.2	38.2	-88.2	3.0
2025-01-20 16:21:39.882655	81.8	38.4	-90.4	4.8
2025-01-20 16:21:41.046562	81.4	38.5	-91.4	8.6
2025-01-20 16:21:42.210933	81.0	38.7	-91.2	10.9
2025-01-20 16:21:43.378904	80.6	38.9	-89.7	12.5
2025-01-20 16:21:44.543699	80.2	39.1	-89.7	11.6
2025-01-20 16:21:45.706891	79.8	39.3	-91.0	13.7
2025-01-20 16:21:46.871123	79.3	39.4	-90.0	11.5
2025-01-20 16:21:48.030620	78.9	39.6	-90.6	9.0
2025-01-20 16:21:49.195082	78.5	39.8	-91.5	6.4
2025-01-20 16:21:50.354050	78.1	39.9	-90.8	5.5
2025-01-20 16:21:51.518104	77.6	40.1	-91.3	11.1
2025-01-20 16:21:52.682825	77.2	40.3	-90.4	8.7
2025-01-20 16:21:53.848477	76.7	40.5	-90.9	13.1
2025-01-20 16:21:55.015775	76.3	40.6	-89.6	10.6
2025-01-20 16:21:56.177215	75.8	40.8	-87.3	6.6
2025-01-20 16:21:57.341205	75.4	41.0	-88.2	7.6
2025-01-20 16:21:58.504104	74.9	41.1	-87.5	9.8
2025-01-20 16:21:59.669375	74.4	41.3	-90.1	6.7
2025-01-20 16:22:00.830162	73.9	41.5	-90.8	8.0
2025-01-20 16:22:01.989564	73.5	41.6	-91.9	7.8
2025-01-20 16:22:03.158585	73.0	41.8	-92.0	6.1
2025-01-20 16:22:04.319285	72.5	41.9	-91.7	1.4
2025-01-20 16:22:05.484655	72.0	42.1	-92.1	6.5
2025-01-20 16:22:06.646549	71.5	42.2	-91.7	4.8
2025-01-20 16:22:07.813097	71.0	42.4	-91.7	5.3
2025-01-20 16:22:08.971790	70.5	42.5	-91.9	8.4
2025-01-20 16:22:10.140546	70.0	42.7	-91.8	9.0
2025-01-20 16:22:11.301573	69.4	42.8	-91.9	10.6
2025-01-20 16:22:12.468802	68.9	43.0	-91.9	14.8
2025-01-20 16:22:13.631897	68.4	43.1	-92.3	15.8
2025-01-20 16:22:14.801360	67.9	43.3	-91.7	12.6
2025-01-20 16:22:15.970588	67.3	43.4	-92.3	15.0
2025-01-20 16:22:17.129490	66.8	43.5	-92.0	14.2
2025-01-20 16:22:18.305588	66.2	43.7	-92.1	9.8
2025-01-20 16:22:19.474086	65.7	43.8	-91.5	10.0
2025-01-20 16:22:20.637774	65.1	43.9	-91.6	10.6
2025-01-20 16:22:21.803125	64.6	44.1	-92.1	4.5
2025-01-20 16:22:22.960256	64.0	44.2	-92.1	9.9
2025-01-20 16:22:24.106845	63.4	44.3	-91.8	11.1
2025-01-20 16:22:25.236035	62.9	44.4	-91.9	8.6
2025-01-20 16:22:26.357057	62.3	44.5	-91.5	12.5
2025-01-20 16:22:27.478143	61.8	44.6	-91.7	14.0
2025-01-20 16:22:28.598789	61.2	44.7	-91.8	17.1
2025-01-20 16:22:29.718737	60.6	44.8	-91.9	16.7
2025-01-20 16:22:30.839005	60.1	44.9	-91.7	17.6
2025-01-20 16:22:31.960043	59.5	45.0	-91.9	14.3
2025-01-20 16:22:33.085464	58.9	45.1	-92.0	11.4
2025-01-20 16:22:34.206345	58.3	45.2	-91.6	10.0
2025-01-20 16:22:35.364062	57.7	45.3	-91.7	9.8
2025-01-20 16:22:36.529620	57.1	45.4	-92.1	10.4
2025-01-20 16:22:37.682812	56.5	45.5	-91.4	5.9
2025-01-20 16:22:38.842680	55.9	45.5	-91.4	4.4
2025-01-20 16:22:40.003288	55.3	45.6	-91.7	6.0
2025-01-20 16:22:41.164190	54.7	45.7	-92.3	4.8
2025-01-20 16:22:42.324261	54.0	45.7	-91.9	2.9
2025-01-20 16:22:43.482699	53.4	45.8	-91.6	5.4
2025-01-20 16:22:44.650271	52.8	45.9	-91.6	6.0
2025-01-20 16:22:45.811168	52.2	45.9	-92.2	3.1
2025-01-20 16:22:46.977299	51.5	46.0	-92.3	7.2
2025-01-20 16:22:48.139818	50.9	46.0	-92.0	7.7
2025-01-20 16:22:49.297955	50.3	46.1	-91.9	8.2
2025-01-20 16:22:50.461125	49.6	46.1	-92.2	10.4
2025-01-20 16:22:51.619047	49.0	46.1	-92.0	13.5
2025-01-20 16:22:52.781044	48.3	46.2	-91.7	8.9
2025-01-20 16:22:53.942768	47.7	46.2	-91.8	13.6
2025-01-20 16:22:55.104396	47.1	46.2	-92.4	16.3
2025-01-20 16:22:56.262487	46.4	46.3	-91.8	15.4
2025-01-20 16:22:57.421010	45.8	46.3	-91.9	14.9
2025-01-20 16:22:58.577550	45.1	46.3	-92.1	16.0
2025-01-20 16:22:59.745934	44.5	46.3	-91.8	15.3
2025-01-20 16:23:00.883944	43.8	46.3	-91.9	16.5
2025-01-20 16:23:02.030425	43.2	46.3	-91.8	15.7
2025-01-20 16:23:03.180180	42.6	46.3	-91.9	13.4
2025-01-20 16:23:04.342566	41.9	46.3	-92.1	13.4
2025-01-20 16:23:05.507575	41.3	46.3	-91.3	12.0
2025-01-20 16:23:06.676511	40.6	46.3	-92.0	11.6
2025-01-20 16:23:07.836167	40.0	46.3	-92.1	9.1
2025-01-20 16:23:09.003563	39.3	46.2	-91.1	11.8
2025-01-20 16:23:10.159872	38.7	46.2	-91.5	10.1
2025-01-20 16:23:11.319164	38.0	46.2	-91.2	8.6
2025-01-20 16:23:12.480436	37.4	46.1	-91.4	10.3
2025-01-20 16:23:13.644354	36.8	46.1	-91.3	6.4
2025-01-20 16:23:14.812722	36.1	46.1	-91.4	5.5
2025-01-20 16:23:15.981766	35.5	46.0	-91.5	8.3
2025-01-20 16:23:17.142067	34.9	46.0	-91.2	11.9
2025-01-20 16:23:18.317441	34.2	45.9	-91.6	5.4
2025-01-20 16:23:19.483314	33.6	45.9	-91.7	9.9
2025-01-20 16:23:20.646713	33.0	45.8	-91.3	10.1
2025-01-20 16:23:21.807502	32.3	45.7	-91.7	6.6
2025-01-20 16:23:22.973646	31.7	45.7	-92.2	10.4
2025-01-20 16:23:24.132964	31.1	45.6	-91.7	9.1
2025-01-20 16:23:25.297331	30.5	45.5	-91.6	6.3
2025-01-20 16:23:26.459434	29.9	45.4	-92.0	8.2
2025-01-20 16:23:27.625319	29.3	45.3	-92.4	12.1
2025-01-20 16:23:28.788162	28.6	45.3	-92.1	8.0
2025-01-20 16:23:29.952218	28.0	45.2	-92.1	10.8
2025-01-20 16:23:31.116414	27.4	45.1	-92.3	9.8
2025-01-20 16:23:32.276971	26.8	45.0	-92.0	8.7
2025-01-20 16:23:33.440087	26.3	44.9	-92.2	10.2
2025-01-20 16:23:34.605019	25.7	44.8	-91.6	9.1
2025-01-20 16:23:35.770235	25.1	44.7	-91.7	6.2
2025-01-20 16:23:36.931316	24.5	44.6	-91.6	10.0
2025-01-20 16:23:38.101099	23.9	44.5	-92.1	9.4
2025-01-20 16:23:39.266133	23.3	44.3	-91.9	6.3
2025-01-20 16:23:40.434533	22.8	44.2	-91.7	9.8
2025-01-20 16:23:41.599758	22.2	44.1	-91.9	10.1
2025-01-20 16:23:42.763403	21.6	44.0	-92.0	7.7
2025-01-20 16:23:43.928111	21.1	43.9	-91.8	9.7
2025-01-20 16:23:45.091182	20.5	43.7	-92.3	10.7
2025-01-20 16:23:46.255282	20.0	43.6	-92.3	7.2
2025-01-20 16:23:47.415863	19.4	43.5	-92.1	9.9
2025-01-20 16:23:48.574493	18.9	43.3	-92.3	11.4
2025-01-20 16:23:49.743106	18.4	43.2	-91.3	6.4
2025-01-20 16:23:50.902574	17.8	43.0	-92.0	9.3
2025-01-20 16:23:52.068935	17.3	42.9	-91.7	9.6
2025-01-20 16:23:53.231546	16.8	42.8	-91.6	5.5
2025-01-20 16:23:54.396105	16.3	42.6	-92.0	9.6
2025-01-20 16:23:55.558537	15.8	42.5	-92.3	10.6
2025-01-20 16:23:56.717145	15.3	42.3	-92.4	6.6
2025-01-20 16:23:57.878468	14.8	42.2	-91.9	10.1
2025-01-20 16:23:59.042084	14.3	42.0	-91.8	9.1
2025-01-20 16:24:00.196125	13.8	41.9	-92.0	5.7
2025-01-20 16:24:01.360421	13.3	41.7	-92.3	6.7
2025-01-20 16:24:02.519024	12.8	41.5	-92.2	9.5
2025-01-20 16:24:03.681853	12.4	41.4	-92.0	7.3
2025-01-20 16:24:04.827885	11.9	41.2	-92.0	3.9
2025-01-20 16:24:05.948128	11.4	41.1	-91.6	7.5
2025-01-20 16:24:07.068850	11.0	40.9	-92.0	9.4
2025-01-20 16:24:08.190010	10.6	40.7	-91.8	6.5
2025-01-20 16:24:09.310116	10.1	40.6	-92.2	6.4
2025-01-20 16:24:10.431051	9.7	40.4	-92.5	7.4
2025-01-20 16:24:11.550930	9.3	40.3	-91.5	11.0
2025-01-20 16:24:12.672158	8.8	40.1	-92.0	10.9
2025-01-20 16:24:13.793547	8.4	39.9	-92.0	9.8
2025-01-20 16:24:14.930259	8.0	39.8	-91.7	10.6
2025-01-20 16:24:16.097930	7.6	39.6	-91.8	11.9
2025-01-20 16:24:17.257634	7.1	39.4	-91.2	11.5
2025-01-20 16:24:18.422432	6.7	39.2	-91.6	15.2
2025-01-20 16:24:19.568785	6.3	39.1	-91.9	14.2
2025-01-20 16:24:20.734430	5.9	38.9	-92.0	15.0
2025-01-20 16:24:21.894664	5.5	38.7	-91.6	16.0
2025-01-20 16:24:23.063287	5.1	38.5	-91.8	17.5
2025-01-20 16:24:24.221517	4.7	38.3	-91.6	15.2
2025-01-20 16:24:25.384775	4.3	38.2	-92.0	16.2
2025-01-20 16:24:26.548941	3.9	38.0	-92.3	16.1
2025-01-20 16:24:27.718607	3.6	37.8	-91.9	15.2
2025-01-20 16:24:28.882676	3.2	37.6	-92.2	16.7
2025-01-20 16:24:30.042995	2.8	37.4	-92.0	14.7
2025-01-20 16:24:31.205882	2.4	37.3	-91.9	12.8
2025-01-20 16:24:32.368795	2.1	37.1	-92.1	13.0
2025-01-20 16:24:33.534004	1.7	36.9	-91.8	12.5
2025-01-20 16:24:34.699129	1.4	36.7	-92.2	8.2
2025-01-20 16:24:35.861885	1.0	36.5	-92.0	6.4
2025-01-20 16:24:37.024631	0.7	36.3	-91.9	9.0
2025-01-20 16:24:38.188728	0.3	36.2	-91.8	5.5
2025-01-20 16:24:39.353129	360.0	36.0	-92.0	4.9
2025-01-20 16:24:40.512558	359.6	35.8	-91.9	7.1
2025-01-20 16:24:41.679022	359.3	35.6	-91.9	2.9
2025-01-20 16:24:42.847584	359.0	35.4	-92.0	3.0
2025-01-20 16:24:44.013028	358.6	35.2	-92.2	7.9
2025-01-20 16:24:45.178541	358.3	35.0	-91.9	6.8
2025-01-20 16:24:46.349899	358.0	34.9	-91.8	6.5
2025-01-20 16:24:47.513015	357.7	34.7	-92.2	9.5
2025-01-20 16:24:48.675500	357.4	34.5	-92.0	9.6
2025-01-20 16:24:49.836533	357.1	34.3	-92.2	7.3
2025-01-20 16:24:50.992420	356.8	34.1	-91.9	9.9
2025-01-20 16:24:52.163303	356.5	33.9	-92.1	7.9
2025-01-20 16:24:53.329874	356.2	33.8	-92.2	7.2
2025-01-20 16:24:54.503803	355.9	33.6	-92.4	6.3
2025-01-20 16:24:55.669626	355.6	33.4	-92.2	5.6
2025-01-20 16:24:56.836729	355.3	33.2	-92.0	6.5
2025-01-20 16:24:57.991312	355.0	33.0	-92.1	3.9
2025-01-20 16:24:59.155794	354.7	32.8	-92.1	4.8
2025-01-20 16:25:00.317181	354.4	32.7	-92.2	6.2
2025-01-20 16:25:01.481415	354.2	32.5	-92.1	4.9
2025-01-20 16:25:02.648173	353.9	32.3	-92.2	3.4
2025-01-20 16:25:03.804018	353.6	32.1	-92.1	1.9
2025-01-20 16:25:04.972682	353.4	31.9	-92.3	1.8
2025-01-20 16:25:06.133956	353.1	31.8	-92.1	1.8
2025-01-20 16:25:07.297523	352.8	31.6	-91.8	2.9
2025-01-20 16:25:08.459991	352.6	31.4	-91.9	2.0
2025-01-20 16:25:09.622834	352.3	31.2	-92.0	4.4
2025-01-20 16:25:10.784391	352.1	31.0	-92.0	3.3
2025-01-20 16:25:11.943511	351.8	30.9	-91.9	4.9
2025-01-20 16:25:13.100813	351.6	30.7	-91.6	3.7
2025-01-20 16:25:14.268628	351.3	30.5	-91.6	0.8
2025-01-20 16:25:15.434680	351.1	30.3	-92.1	4.4
2025-01-20 16:25:16.600677	350.9	30.2	-92.1	8.0
2025-01-20 16:25:17.753517	350.6	30.0	-92.2	7.9
2025-01-20 16:25:18.915150	350.4	29.8	-92.0	9.4
2025-01-20 16:25:20.095176	350.2	29.6	-91.7	7.3
2025-01-20 16:25:21.259407	349.9	29.5	-91.9	7.8
2025-01-20 16:25:22.423846	349.7	29.3	-91.8	7.2
2025-01-20 16:25:23.585899	349.5	29.1	-92.1	6.5
2025-01-20 16:25:24.747202	349.3	28.9	-92.0	1.5
2025-01-20 16:25:25.906310	349.1	28.8	-91.7	4.7
2025-01-20 16:25:27.069611	348.8	28.6	-92.1	4.9
2025-01-20 16:25:28.228390	348.6	28.4	-91.9	2.7
2025-01-20 16:25:29.395592	348.4	28.3	-92.0	5.1
2025-01-20 16:25:30.563402	348.2	28.1	-91.2	3.7
2025-01-20 16:25:31.725749	348.0	27.9	-91.9	3.7
2025-01-20 16:25:32.890141	347.8	27.8	-91.9	2.3
2025-01-20 16:25:34.062869	347.6	27.6	-91.9	6.3
2025-01-20 16:25:35.220491	347.4	27.4	-91.9	6.2
2025-01-20 16:25:36.384660	347.2	27.3	-92.1	7.7
2025-01-20 16:25:37.544322	347.0	27.1	-92.0	4.0
2025-01-20 16:25:38.709984	346.8	26.9	-92.0	9.6
2025-01-20 16:25:39.878047	346.6	26.8	-91.7	8.6
2025-01-20 16:25:41.039964	346.4	26.6	-91.9	8.5
2025-01-20 16:25:42.207484	346.2	26.4	-92.2	7.3
2025-01-20 16:25:43.368397	346.1	26.3	-92.3	3.8
2025-01-20 16:25:44.533429	345.9	26.1	-92.1	4.7
2025-01-20 16:25:45.700574	345.7	26.0	-91.6	1.8
2025-01-20 16:25:46.858748	345.5	25.8	-91.5	2.6
2025-01-20 16:25:48.022127	345.3	25.6	-91.9	3.6
2025-01-20 16:25:49.178400	345.2	25.5	-91.6	1.2
2025-01-20 16:25:50.337052	345.0	25.3	-91.1	2.3
2025-01-20 16:25:51.503196	344.8	25.2	-91.7	4.0
2025-01-20 16:25:52.662447	344.6	25.0	-92.0	4.7
2025-01-20 16:25:53.820384	344.5	24.8	-91.9	7.9
2025-01-20 16:25:54.955620	344.3	24.7	-92.3	10.4
2025-01-20 16:25:56.077423	344.2	24.5	-92.1	7.3
2025-01-20 16:25:57.198698	344.0	24.4	-91.9	10.5
2025-01-20 16:25:58.321220	343.8	24.2	-92.1	6.4
2025-01-20 16:25:59.441561	343.7	24.1	-91.8	6.3
2025-01-20 16:26:00.563413	343.5	24.0	-92.7	6.1
2025-01-20 16:26:01.685487	343.4	23.8	-92.1	4.9
2025-01-20 16:26:02.806358	343.2	23.7	-92.2	3.0
2025-01-20 16:26:03.931052	343.1	23.5	-92.3	3.4
2025-01-20 16:26:05.069389	342.9	23.4	-91.3	3.2
2025-01-20 16:26:06.232541	342.8	23.2	-91.7	5.2
2025-01-20 16:26:07.388727	342.6	23.1	-92.0	6.7
2025-01-20 16:26:08.551047	342.5	22.9	-92.0	9.0
2025-01-20 16:26:09.704552	342.3	22.8	-92.1	12.4
2025-01-20 16:26:10.863353	342.2	22.6	-91.7	9.2
2025-01-20 16:26:12.021249	342.0	22.5	-92.1	9.2
2025-01-20 16:26:13.186401	341.9	22.3	-92.1	9.6
2025-01-20 16:26:14.352180	341.8	22.2	-92.0	7.3
2025-01-20 16:26:15.514917	341.6	22.0	-92.0	7.8
2025-01-20 16:26:16.679363	341.5	21.9	-92.0	6.5
2025-01-20 16:26:17.840526	341.3	21.8	-92.1	3.4
2025-01-20 16:26:19.000854	341.2	21.6	-92.4	5.5
2025-01-20 16:26:20.163903	341.1	21.5	-92.3	2.3
2025-01-20 16:26:21.330499	340.9	21.3	-92.3	1.9
2025-01-20 16:26:22.491400	340.8	21.2	-91.8	4.1
2025-01-20 16:26:23.654643	340.7	21.0	-91.6	4.0
2025-01-20 16:26:24.820089	340.5	20.9	-91.6	3.6
2025-01-20 16:26:25.981363	340.4	20.8	-91.3	4.6
2025-01-20 16:26:27.140962	340.3	20.6	-91.4	7.3
2025-01-20 16:26:28.302787	340.2	20.5	-91.1	4.0
2025-01-20 16:26:29.468858	340.0	20.4	-92.0	2.8
2025-01-20 16:26:30.631996	339.9	20.2	-91.8	3.8
2025-01-20 16:26:31.800937	339.8	20.1	-91.6	2.7
2025-01-20 16:26:32.966763	339.7	19.9	-91.4	2.0
2025-01-20 16:26:34.130913	339.5	19.8	-91.7	0.6
2025-01-20 16:26:35.296004	339.4	19.7	-92.2	2.6
2025-01-20 16:26:36.461808	339.3	19.5	-92.4	1.7
2025-01-20 16:26:37.619092	339.2	19.4	-92.0	2.8
2025-01-20 16:26:38.778377	339.1	19.3	-92.5	0.0
2025-01-20 16:26:39.942750	338.9	19.1	-92.0	1.0
2025-01-20 16:26:41.105744	338.8	19.0	-92.2	4.8
2025-01-20 16:26:42.269937	338.7	18.9	-92.1	1.7
2025-01-20 16:26:43.432172	338.6	18.8	-92.1	4.4
2025-01-20 16:26:44.600572	338.5	18.6	-92.1	3.0
2025-01-20 16:26:45.759206	338.4	18.5	-91.8	2.0
2025-01-20 16:26:46.920223	338.3	18.4	-92.1	3.9
2025-01-20 16:26:48.081877	338.2	18.2	-91.7	2.7
2025-01-20 16:26:49.246431	338.1	18.1	-91.4	1.8
2025-01-20 16:26:50.410686	338.0	18.0	-92.3	4.1
2025-01-20 16:26:51.573633	337.8	17.9	-92.2	4.1
2025-01-20 16:26:52.730910	337.7	17.7	-92.4	1.5
2025-01-20 16:26:53.892551	337.6	17.6	-92.1	3.6
2025-01-20 16:26:55.053280	337.5	17.5	-92.3	3.9
2025-01-20 16:26:56.214423	337.4	17.4	-92.1	4.3
2025-01-20 16:26:57.382684	337.3	17.2	-91.8	4.7
2025-01-20 16:26:58.546984	337.2	17.1	-92.1	2.5
2025-01-20 16:26:59.703674	337.1	17.0	-92.0	5.2
2025-01-20 16:27:00.866813	337.0	16.9	-92.0	3.3
2025-01-20 16:27:02.034773	336.9	16.7	-91.8	2.4
2025-01-20 16:27:03.195090	336.8	16.6	-92.3	1.7
2025-01-20 16:27:04.359328	336.7	16.5	-92.2	2.7
2025-01-20 16:27:05.520424	336.6	16.4	-91.8	0.7
2025-01-20 16:27:06.680630	336.5	16.3	-91.9	3.5
2025-01-20 16:27:07.842935	336.5	16.1	-92.3	0.5
2025-01-20 16:27:09.008527	336.4	16.0	-92.3	4.4
2025-01-20 16:27:10.171571	336.3	15.9	-92.2	4.5
2025-01-20 16:27:11.329325	336.2	15.8	-92.2	2.9
2025-01-20 16:27:12.497835	336.1	15.7	-91.9	5.5
2025-01-20 16:27:13.661535	336.0	15.6	-92.1	7.3
2025-01-20 16:27:14.832873	335.9	15.4	-92.1	9.8
2025-01-20 16:27:15.997303	335.8	15.3	-92.4	3.4
2025-01-20 16:27:17.160540	335.7	15.2	-92.2	2.7
2025-01-20 16:27:18.324363	335.6	15.1	-91.9	2.6
2025-01-20 16:27:19.483852	335.5	15.0	-92.0	1.1
2025-01-20 16:27:20.659475	335.5	14.9	-91.9	0.7
2025-01-20 16:27:21.821397	335.4	14.8	-92.0	0.8
2025-01-20 16:27:22.976949	335.3	14.6	-92.4	2.1
2025-01-20 16:27:24.144609	335.2	14.5	-91.4	1.3
#Closed at: 2025-01-20 16:18:50.904734