passes_logs/2025/01/20/LEX_Murmansk/LEX_Murmansk__20250120_164330_NOAA_18_rec.log

#Pass ID: 20250120_164330_NOAA 18
#Satellite: NOAA 18
#Configuration: NOAA 18
#Start time: 2025-01-20 16:43:25.601287

#LorettStation: 1.0.0 05.05.2024
#Station: LEX_Murmansk
#Location: 33.156738 lon 68.926811 lat
#TLE: 1 28654U 05018A   25020.18862715  .00000449  00000+0  26167-3 0  9997
#TLE: 2 28654  98.8558 101.1913 0014575 164.8261 195.3351 14.13491567 13918

#Time	Az	El	Level	SNR
2025-01-20 16:43:37.722485	89.3	16.1	-91.9	10.8
2025-01-20 16:43:38.872640	89.1	16.2	-91.6	10.5
2025-01-20 16:43:40.026375	89.0	16.3	-91.9	6.3
2025-01-20 16:43:41.168054	88.9	16.4	-91.5	8.0
2025-01-20 16:43:42.326745	88.7	16.5	-91.3	7.1
2025-01-20 16:43:43.467386	88.6	16.6	-91.4	7.4
2025-01-20 16:43:44.617582	88.5	16.7	-91.7	11.2
2025-01-20 16:43:45.767401	88.3	16.9	-92.1	9.1
2025-01-20 16:43:46.918186	88.2	17.0	-91.8	8.1
2025-01-20 16:43:48.065280	88.0	17.1	-91.4	5.0
2025-01-20 16:43:49.211423	87.9	17.2	-91.5	9.8
2025-01-20 16:43:50.366067	87.7	17.3	-91.4	10.7
2025-01-20 16:43:51.512061	87.6	17.4	-92.1	6.4
2025-01-20 16:43:52.660412	87.5	17.5	-91.5	7.5
2025-01-20 16:43:53.807037	87.3	17.6	-91.9	6.4
2025-01-20 16:43:54.953194	87.2	17.7	-91.7	15.8
2025-01-20 16:43:56.109419	87.0	17.8	-91.2	11.2
2025-01-20 16:43:57.260729	86.9	17.9	-91.2	9.4
2025-01-20 16:43:58.412792	86.7	18.1	-91.6	7.1
2025-01-20 16:43:59.559819	86.6	18.2	-91.9	7.0
2025-01-20 16:44:00.708204	86.4	18.3	-91.4	11.5
2025-01-20 16:44:01.850352	86.2	18.4	-90.7	11.8
2025-01-20 16:44:03.002520	86.1	18.5	-90.8	16.9
2025-01-20 16:44:04.150331	85.9	18.6	-90.5	8.8
2025-01-20 16:44:05.297967	85.8	18.7	-90.4	11.9
2025-01-20 16:44:06.449487	85.6	18.8	-90.8	6.5
2025-01-20 16:44:07.596722	85.4	19.0	-90.9	5.2
2025-01-20 16:44:08.744408	85.3	19.1	-91.7	11.4
2025-01-20 16:44:09.892126	85.1	19.2	-91.9	7.9
2025-01-20 16:44:11.021102	85.0	19.3	-91.8	10.6
2025-01-20 16:44:12.141423	84.8	19.4	-91.4	10.3
2025-01-20 16:44:13.266269	84.6	19.5	-91.7	13.6
2025-01-20 16:44:14.387791	84.5	19.6	-91.5	18.4
2025-01-20 16:44:15.509198	84.3	19.7	-91.6	16.2
2025-01-20 16:44:16.629655	84.1	19.9	-92.2	11.3
2025-01-20 16:44:17.749946	84.0	20.0	-91.7	14.1
2025-01-20 16:44:18.875586	83.8	20.1	-92.4	9.1
2025-01-20 16:44:19.996163	83.6	20.2	-91.9	15.9
2025-01-20 16:44:21.138251	83.4	20.3	-91.7	10.7
2025-01-20 16:44:22.284884	83.3	20.4	-91.0	13.5
2025-01-20 16:44:23.437974	83.1	20.5	-91.2	10.1
2025-01-20 16:44:24.583204	82.9	20.7	-90.9	6.6
2025-01-20 16:44:25.730494	82.7	20.8	-91.1	7.5
2025-01-20 16:44:26.890105	82.5	20.9	-91.4	6.7
2025-01-20 16:44:28.043130	82.4	21.0	-90.9	5.1
2025-01-20 16:44:29.193727	82.2	21.1	-91.9	9.7
2025-01-20 16:44:30.342016	82.0	21.3	-91.7	12.6
2025-01-20 16:44:31.493312	81.8	21.4	-92.2	7.8
2025-01-20 16:44:32.647175	81.6	21.5	-91.9	12.2
2025-01-20 16:44:33.800685	81.4	21.6	-92.2	11.6
2025-01-20 16:44:34.951974	81.2	21.7	-91.9	8.4
2025-01-20 16:44:36.103077	81.0	21.9	-91.7	7.2
2025-01-20 16:44:37.258484	80.8	22.0	-91.4	8.9
2025-01-20 16:44:38.412042	80.6	22.1	-91.8	7.4
2025-01-20 16:44:39.560882	80.4	22.2	-92.1	7.6
2025-01-20 16:44:40.705794	80.2	22.3	-91.8	10.0
2025-01-20 16:44:41.860245	80.0	22.5	-91.8	9.0
2025-01-20 16:44:43.012689	79.8	22.6	-91.5	11.5
2025-01-20 16:44:44.166586	79.6	22.7	-91.9	5.9
2025-01-20 16:44:45.314014	79.4	22.8	-92.0	10.8
2025-01-20 16:44:46.472104	79.2	22.9	-92.0	7.2
2025-01-20 16:44:47.622504	79.0	23.1	-91.4	6.4
2025-01-20 16:44:48.774027	78.8	23.2	-91.8	8.7
2025-01-20 16:44:49.922851	78.5	23.3	-91.4	10.0
2025-01-20 16:44:51.068515	78.3	23.4	-91.8	12.1
2025-01-20 16:44:52.222066	78.1	23.5	-91.5	7.9
2025-01-20 16:44:53.369078	77.9	23.7	-91.6	9.1
2025-01-20 16:44:54.520086	77.7	23.8	-92.1	5.4
2025-01-20 16:44:55.664392	77.5	23.9	-92.0	10.2
2025-01-20 16:44:56.809281	77.2	24.0	-91.9	11.8
2025-01-20 16:44:57.963786	77.0	24.1	-91.5	6.6
2025-01-20 16:44:59.114874	76.8	24.3	-91.7	11.6
2025-01-20 16:45:00.257830	76.5	24.4	-91.6	8.6
2025-01-20 16:45:01.408868	76.3	24.5	-91.5	10.5
2025-01-20 16:45:02.558087	76.1	24.6	-91.7	7.0
2025-01-20 16:45:03.705191	75.8	24.8	-92.0	6.8
2025-01-20 16:45:04.860457	75.6	24.9	-91.6	8.0
2025-01-20 16:45:06.006388	75.4	25.0	-91.8	6.4
2025-01-20 16:45:07.156144	75.1	25.1	-91.3	6.8
2025-01-20 16:45:08.307496	74.9	25.2	-91.8	6.1
2025-01-20 16:45:09.452152	74.6	25.4	-92.1	5.3
2025-01-20 16:45:10.601125	74.4	25.5	-91.7	1.6
2025-01-20 16:45:11.758752	74.1	25.6	-91.7	3.6
2025-01-20 16:45:12.903728	73.9	25.7	-91.9	5.5
2025-01-20 16:45:14.053772	73.6	25.9	-92.2	6.8
2025-01-20 16:45:15.198934	73.4	26.0	-92.0	6.9
2025-01-20 16:45:16.348481	73.1	26.1	-91.9	4.5
2025-01-20 16:45:17.498392	72.9	26.2	-92.1	4.9
2025-01-20 16:45:18.654755	72.6	26.3	-92.4	3.1
2025-01-20 16:45:19.804473	72.3	26.5	-92.2	3.5
2025-01-20 16:45:20.953778	72.1	26.6	-91.7	3.2
2025-01-20 16:45:22.105630	71.8	26.7	-91.4	4.9
2025-01-20 16:45:23.252169	71.5	26.8	-91.7	7.4
2025-01-20 16:45:24.407721	71.3	27.0	-92.0	4.5
2025-01-20 16:45:25.560167	71.0	27.1	-91.8	3.8
2025-01-20 16:45:26.712896	70.7	27.2	-92.2	5.6
2025-01-20 16:45:27.863475	70.4	27.3	-92.2	4.7
2025-01-20 16:45:29.013376	70.2	27.4	-92.0	4.0
2025-01-20 16:45:30.159264	69.9	27.6	-92.0	4.5
2025-01-20 16:45:31.309086	69.6	27.7	-91.4	7.1
2025-01-20 16:45:32.459597	69.3	27.8	-92.0	4.3
2025-01-20 16:45:33.604294	69.0	27.9	-92.3	5.7
2025-01-20 16:45:34.762202	68.7	28.0	-91.7	7.9
2025-01-20 16:45:35.905415	68.4	28.1	-91.9	4.6
2025-01-20 16:45:37.056123	68.1	28.3	-92.3	6.9
2025-01-20 16:45:38.196496	67.8	28.4	-91.7	5.5
2025-01-20 16:45:39.349425	67.6	28.5	-91.5	8.7
2025-01-20 16:45:40.501322	67.2	28.6	-91.7	5.2
2025-01-20 16:45:41.642458	66.9	28.7	-91.4	6.5
2025-01-20 16:45:42.792739	66.6	28.8	-91.9	6.4
2025-01-20 16:45:43.943498	66.3	29.0	-92.0	6.2
2025-01-20 16:45:45.092582	66.0	29.1	-91.9	7.3
2025-01-20 16:45:46.242073	65.7	29.2	-91.6	11.2
2025-01-20 16:45:47.388695	65.4	29.3	-91.8	11.9
2025-01-20 16:45:48.539902	65.1	29.4	-91.8	14.6
2025-01-20 16:45:49.688320	64.8	29.5	-92.1	12.6
2025-01-20 16:45:50.840764	64.4	29.6	-91.9	10.1
2025-01-20 16:45:51.991157	64.1	29.8	-91.4	10.1
2025-01-20 16:45:53.143425	63.8	29.9	-91.7	10.0
2025-01-20 16:45:54.289984	63.5	30.0	-91.9	11.5
2025-01-20 16:45:55.437821	63.1	30.1	-92.0	5.7
2025-01-20 16:45:56.590469	62.8	30.2	-91.9	5.6
2025-01-20 16:45:57.733897	62.5	30.3	-92.1	8.5
2025-01-20 16:45:58.885314	62.1	30.4	-92.3	9.0
2025-01-20 16:46:00.030773	61.8	30.5	-91.8	8.3
2025-01-20 16:46:01.173179	61.5	30.6	-91.4	13.2
2025-01-20 16:46:02.321926	61.1	30.7	-91.8	13.4
2025-01-20 16:46:03.471724	60.8	30.8	-92.0	14.2
2025-01-20 16:46:04.621541	60.4	30.9	-92.0	13.2
2025-01-20 16:46:05.766481	60.1	31.0	-91.8	13.1
2025-01-20 16:46:06.917062	59.7	31.1	-92.4	10.2
2025-01-20 16:46:08.072574	59.4	31.3	-92.0	11.5
2025-01-20 16:46:09.218858	59.0	31.4	-91.8	14.2
2025-01-20 16:46:10.368960	58.6	31.5	-92.0	12.9
2025-01-20 16:46:11.516053	58.3	31.5	-92.5	11.5
2025-01-20 16:46:12.669539	57.9	31.6	-91.8	17.2
2025-01-20 16:46:13.820577	57.6	31.7	-92.0	14.3
2025-01-20 16:46:14.974585	57.2	31.8	-91.6	14.3
2025-01-20 16:46:16.124491	56.8	31.9	-92.1	12.1
2025-01-20 16:46:17.276827	56.4	32.0	-91.5	13.3
2025-01-20 16:46:18.429319	56.1	32.1	-91.9	16.3
2025-01-20 16:46:19.578368	55.7	32.2	-91.7	11.1
2025-01-20 16:46:20.725869	55.3	32.3	-91.8	12.2
2025-01-20 16:46:21.846746	54.9	32.4	-92.1	13.9
2025-01-20 16:46:22.967406	54.6	32.5	-92.1	10.0
2025-01-20 16:46:24.088377	54.2	32.6	-92.1	8.6
2025-01-20 16:46:25.208433	53.8	32.6	-91.6	18.0
2025-01-20 16:46:26.329374	53.4	32.7	-91.6	14.7
2025-01-20 16:46:27.449703	53.0	32.8	-92.3	9.0
2025-01-20 16:46:28.570880	52.7	32.9	-92.1	9.2
2025-01-20 16:46:29.699667	52.3	33.0	-91.9	17.5
2025-01-20 16:46:30.843725	51.9	33.0	-92.2	16.7
2025-01-20 16:46:31.988124	51.5	33.1	-91.9	12.1
2025-01-20 16:46:33.139828	51.1	33.2	-91.5	12.9
2025-01-20 16:46:34.287821	50.7	33.3	-91.4	16.5
2025-01-20 16:46:35.435290	50.3	33.3	-92.2	20.7
2025-01-20 16:46:36.584651	49.9	33.4	-91.8	17.1
2025-01-20 16:46:37.731368	49.5	33.5	-92.0	18.1
2025-01-20 16:46:38.877982	49.1	33.6	-91.1	15.5
2025-01-20 16:46:40.025272	48.6	33.6	-91.0	13.3
2025-01-20 16:46:41.172540	48.2	33.7	-90.7	13.2
2025-01-20 16:46:42.325787	47.8	33.8	-91.3	16.3
2025-01-20 16:46:43.473005	47.4	33.8	-91.0	11.3
2025-01-20 16:46:44.620364	47.0	33.9	-91.1	13.0
2025-01-20 16:46:45.767614	46.6	33.9	-91.3	17.3
2025-01-20 16:46:46.917991	46.1	34.0	-91.1	12.6
2025-01-20 16:46:48.063607	45.7	34.0	-90.5	10.9
2025-01-20 16:46:49.212013	45.3	34.1	-90.5	17.3
2025-01-20 16:46:50.361032	44.9	34.2	-91.2	16.5
2025-01-20 16:46:51.509183	44.4	34.2	-91.1	10.4
2025-01-20 16:46:52.651770	44.0	34.3	-91.1	15.6
2025-01-20 16:46:53.805846	43.6	34.3	-90.9	16.3
2025-01-20 16:46:54.960753	43.2	34.3	-92.2	17.7
2025-01-20 16:46:56.115223	42.7	34.4	-91.8	19.3
2025-01-20 16:46:57.263572	42.3	34.4	-91.9	19.5
2025-01-20 16:46:58.411338	41.9	34.5	-91.6	17.8
2025-01-20 16:46:59.564008	41.4	34.5	-91.8	15.7
2025-01-20 16:47:00.709467	41.0	34.6	-91.9	15.0
2025-01-20 16:47:01.858220	40.6	34.6	-91.2	14.5
2025-01-20 16:47:03.002890	40.1	34.6	-91.5	7.4
2025-01-20 16:47:04.152157	39.7	34.6	-91.1	12.2
2025-01-20 16:47:05.297412	39.2	34.7	-90.9	17.5
2025-01-20 16:47:06.443171	38.8	34.7	-90.9	10.6
2025-01-20 16:47:07.599128	38.4	34.7	-91.3	9.8
2025-01-20 16:47:08.747026	37.9	34.8	-92.4	21.3
2025-01-20 16:47:09.901210	37.5	34.8	-91.9	11.3
2025-01-20 16:47:11.052870	37.0	34.8	-92.3	8.6
2025-01-20 16:47:12.204139	36.6	34.8	-91.8	18.3
2025-01-20 16:47:13.347514	36.1	34.8	-91.8	17.9
2025-01-20 16:47:14.495389	35.7	34.8	-92.0	8.2
2025-01-20 16:47:15.650948	35.3	34.9	-91.7	10.8
2025-01-20 16:47:16.795992	34.8	34.9	-92.1	15.2
2025-01-20 16:47:17.948205	34.4	34.9	-92.3	10.9
2025-01-20 16:47:19.095445	33.9	34.9	-91.8	14.7
2025-01-20 16:47:20.246846	33.5	34.9	-91.4	19.1
2025-01-20 16:47:21.397270	33.0	34.9	-91.9	15.3
2025-01-20 16:47:22.545913	32.6	34.9	-92.0	17.4
2025-01-20 16:47:23.695858	32.1	34.9	-91.8	17.6
2025-01-20 16:47:24.843419	31.7	34.9	-91.9	15.1
2025-01-20 16:47:25.994329	31.2	34.9	-91.7	18.5
2025-01-20 16:47:27.143579	30.8	34.9	-91.7	16.5
2025-01-20 16:47:28.293481	30.4	34.9	-92.1	13.1
2025-01-20 16:47:29.443959	29.9	34.8	-92.1	15.9
2025-01-20 16:47:30.597229	29.5	34.8	-92.3	13.4
2025-01-20 16:47:31.749654	29.0	34.8	-92.3	15.4
2025-01-20 16:47:32.897553	28.6	34.8	-92.4	18.3
2025-01-20 16:47:34.045650	28.1	34.8	-92.1	13.0
2025-01-20 16:47:35.195261	27.7	34.7	-92.0	13.4
2025-01-20 16:47:36.344164	27.2	34.7	-92.4	14.9
2025-01-20 16:47:37.496083	26.8	34.7	-92.4	10.3
2025-01-20 16:47:38.646137	26.4	34.7	-92.2	12.0
2025-01-20 16:47:39.794619	25.9	34.6	-91.8	10.0
2025-01-20 16:47:40.946683	25.5	34.6	-92.3	7.0
2025-01-20 16:47:42.094082	25.0	34.6	-91.8	7.9
2025-01-20 16:47:43.240650	24.6	34.5	-91.8	12.9
2025-01-20 16:47:44.389422	24.2	34.5	-91.8	12.9
2025-01-20 16:47:45.537767	23.7	34.5	-92.2	7.5
2025-01-20 16:47:46.683712	23.3	34.4	-92.1	13.5
2025-01-20 16:47:47.836283	22.9	34.4	-92.1	16.9
2025-01-20 16:47:48.983988	22.4	34.3	-92.2	9.8
2025-01-20 16:47:50.136614	22.0	34.3	-92.2	13.3
2025-01-20 16:47:51.288120	21.6	34.2	-91.9	12.9
2025-01-20 16:47:52.434954	21.2	34.2	-91.8	9.0
2025-01-20 16:47:53.575541	20.7	34.1	-91.3	8.0
2025-01-20 16:47:54.729866	20.3	34.1	-92.4	14.6
2025-01-20 16:47:55.880309	19.9	34.0	-92.4	10.1
2025-01-20 16:47:57.025725	19.5	34.0	-92.0	10.0
2025-01-20 16:47:58.175071	19.0	33.9	-91.8	12.8
2025-01-20 16:47:59.322694	18.6	33.9	-91.8	15.3
2025-01-20 16:48:00.471145	18.2	33.8	-91.0	9.4
2025-01-20 16:48:01.628246	17.8	33.7	-92.1	11.5
2025-01-20 16:48:02.775208	17.4	33.7	-92.5	16.4
2025-01-20 16:48:03.926312	17.0	33.6	-91.6	7.8
2025-01-20 16:48:05.078477	16.5	33.5	-91.7	7.4
2025-01-20 16:48:06.225346	16.1	33.5	-91.4	12.3
2025-01-20 16:48:07.373949	15.7	33.4	-91.7	13.8
2025-01-20 16:48:08.523879	15.3	33.3	-92.1	8.6
2025-01-20 16:48:09.673326	14.9	33.3	-92.0	11.6
2025-01-20 16:48:10.815558	14.5	33.2	-92.4	10.5
2025-01-20 16:48:11.966255	14.1	33.1	-92.4	8.7
2025-01-20 16:48:13.113510	13.7	33.0	-91.8	6.7
2025-01-20 16:48:14.261439	13.3	32.9	-91.8	14.5
2025-01-20 16:48:15.408126	12.9	32.9	-92.3	11.8
2025-01-20 16:48:16.556837	12.5	32.8	-92.2	7.6
2025-01-20 16:48:17.709277	12.1	32.7	-91.6	17.4
2025-01-20 16:48:18.860683	11.7	32.6	-92.3	13.8
2025-01-20 16:48:20.011404	11.4	32.5	-92.1	9.4
2025-01-20 16:48:21.162523	11.0	32.4	-91.9	10.3
2025-01-20 16:48:22.311807	10.6	32.4	-91.7	14.4
2025-01-20 16:48:23.457455	10.2	32.3	-92.3	8.7
2025-01-20 16:48:24.605725	9.8	32.2	-92.9	7.6
2025-01-20 16:48:25.759881	9.5	32.1	-92.3	15.5
2025-01-20 16:48:26.913082	9.1	32.0	-92.4	9.8
2025-01-20 16:48:28.065800	8.7	31.9	-91.9	7.9
2025-01-20 16:48:29.213346	8.3	31.8	-92.0	17.3
2025-01-20 16:48:30.362183	8.0	31.7	-91.6	13.6
2025-01-20 16:48:31.510764	7.6	31.6	-91.7	8.1
2025-01-20 16:48:32.659247	7.2	31.5	-92.1	7.4
2025-01-20 16:48:33.803701	6.9	31.4	-92.3	13.9
2025-01-20 16:48:34.953642	6.5	31.3	-92.3	8.2
2025-01-20 16:48:36.102689	6.2	31.2	-91.8	10.0
2025-01-20 16:48:37.248052	5.8	31.1	-92.1	12.9
2025-01-20 16:48:38.402772	5.5	31.0	-92.1	8.9
2025-01-20 16:48:39.553565	5.1	30.9	-92.4	9.3
2025-01-20 16:48:40.703393	4.8	30.8	-92.3	8.1
2025-01-20 16:48:41.851440	4.4	30.7	-92.0	10.5
2025-01-20 16:48:42.998221	4.1	30.6	-92.5	12.9
2025-01-20 16:48:44.151355	3.7	30.5	-92.1	14.5
2025-01-20 16:48:45.301868	3.4	30.4	-92.1	6.3
2025-01-20 16:48:46.456349	3.1	30.3	-92.2	4.9
2025-01-20 16:48:47.604622	2.7	30.1	-91.9	7.4
2025-01-20 16:48:48.755616	2.4	30.0	-92.4	7.4
2025-01-20 16:48:49.905811	2.1	29.9	-92.3	12.3
2025-01-20 16:48:51.056605	1.7	29.8	-92.1	5.9
2025-01-20 16:48:52.208134	1.4	29.7	-91.8	13.1
2025-01-20 16:48:53.354736	1.1	29.6	-92.0	10.0
2025-01-20 16:48:54.505654	0.8	29.5	-92.1	11.0
2025-01-20 16:48:55.653913	0.5	29.4	-91.8	7.6
2025-01-20 16:48:56.801016	0.1	29.2	-91.7	7.3
2025-01-20 16:48:57.945642	359.8	29.1	-92.4	7.1
2025-01-20 16:48:59.095045	359.5	29.0	-91.3	6.6
2025-01-20 16:49:00.239911	359.2	28.9	-91.8	8.5
2025-01-20 16:49:01.393051	358.9	28.8	-92.1	8.2
2025-01-20 16:49:02.548018	358.6	28.7	-91.9	4.0
2025-01-20 16:49:03.697071	358.3	28.6	-92.4	12.5
2025-01-20 16:49:04.844658	358.0	28.4	-92.2	13.7
2025-01-20 16:49:05.981400	357.7	28.3	-92.0	7.1
2025-01-20 16:49:07.102844	357.4	28.2	-92.0	5.7
2025-01-20 16:49:08.223661	357.1	28.1	-92.2	6.7
2025-01-20 16:49:09.343529	356.8	28.0	-91.5	15.3
2025-01-20 16:49:10.464780	356.5	27.9	-92.5	4.6
2025-01-20 16:49:11.585579	356.3	27.7	-91.8	9.6
2025-01-20 16:49:12.706976	356.0	27.6	-92.7	11.2
2025-01-20 16:49:13.828065	355.7	27.5	-92.4	10.9
2025-01-20 16:49:14.952672	355.4	27.4	-92.8	7.3
2025-01-20 16:49:16.088895	355.2	27.3	-92.0	10.2
2025-01-20 16:49:17.241502	354.9	27.2	-92.3	12.0
2025-01-20 16:49:18.393156	354.6	27.0	-92.2	12.7
2025-01-20 16:49:19.542960	354.3	26.9	-92.3	12.2
2025-01-20 16:49:20.688032	354.1	26.8	-91.9	12.8
2025-01-20 16:49:21.841211	353.8	26.7	-92.2	8.8
2025-01-20 16:49:22.984209	353.5	26.5	-92.3	12.9
2025-01-20 16:49:24.126804	353.3	26.4	-91.9	17.2
2025-01-20 16:49:25.279560	353.0	26.3	-92.2	15.2
2025-01-20 16:49:26.425308	352.7	26.2	-92.0	14.1
2025-01-20 16:49:27.574100	352.5	26.1	-92.0	11.1
2025-01-20 16:49:28.723611	352.2	25.9	-92.0	17.7
2025-01-20 16:49:29.873092	352.0	25.8	-92.5	15.2
2025-01-20 16:49:31.021556	351.7	25.7	-91.9	12.6
2025-01-20 16:49:32.168141	351.5	25.6	-91.9	9.9
2025-01-20 16:49:33.313220	351.2	25.4	-92.2	11.9
2025-01-20 16:49:34.457924	351.0	25.3	-91.9	5.2
2025-01-20 16:49:35.607832	350.7	25.2	-92.2	6.5
2025-01-20 16:49:36.762013	350.5	25.1	-92.1	12.5
2025-01-20 16:49:37.911731	350.2	25.0	-92.2	8.6
2025-01-20 16:49:39.060655	350.0	24.8	-92.2	10.2
2025-01-20 16:49:40.207319	349.8	24.7	-92.2	10.6
2025-01-20 16:49:41.357544	349.5	24.6	-92.1	17.1
2025-01-20 16:49:42.504648	349.3	24.5	-92.3	11.3
2025-01-20 16:49:43.651482	349.1	24.3	-92.1	10.9
2025-01-20 16:49:44.801113	348.8	24.2	-91.9	13.2
2025-01-20 16:49:45.947393	348.6	24.1	-92.2	10.5
2025-01-20 16:49:47.103839	348.4	24.0	-92.1	11.8
2025-01-20 16:49:48.254238	348.2	23.9	-91.8	10.3
2025-01-20 16:49:49.402178	347.9	23.7	-92.2	19.3
2025-01-20 16:49:50.551009	347.7	23.6	-92.3	12.2
2025-01-20 16:49:51.701053	347.5	23.5	-92.5	16.2
2025-01-20 16:49:52.857701	347.3	23.4	-92.2	14.9
2025-01-20 16:49:54.004048	347.1	23.2	-91.9	7.2
2025-01-20 16:49:55.151025	346.8	23.1	-92.2	11.8
2025-01-20 16:49:56.298157	346.6	23.0	-92.3	15.9
2025-01-20 16:49:57.448337	346.4	22.9	-92.0	8.9
2025-01-20 16:49:58.592616	346.2	22.8	-92.4	8.4
2025-01-20 16:49:59.741314	346.0	22.6	-92.4	12.5
2025-01-20 16:50:00.886662	345.8	22.5	-92.2	11.0
2025-01-20 16:50:02.033978	345.6	22.4	-92.1	9.5
2025-01-20 16:50:03.181091	345.4	22.3	-92.0	11.8
2025-01-20 16:50:04.332115	345.2	22.2	-92.1	9.4
2025-01-20 16:50:05.485175	345.0	22.0	-91.9	9.1
2025-01-20 16:50:06.632833	344.8	21.9	-92.0	7.8
2025-01-20 16:50:07.781992	344.6	21.8	-92.4	12.3
2025-01-20 16:50:08.935201	344.4	21.7	-92.6	19.4
2025-01-20 16:50:10.085649	344.2	21.6	-92.2	8.8
2025-01-20 16:50:11.230862	344.0	21.4	-91.7	10.8
2025-01-20 16:50:12.374930	343.8	21.3	-92.4	18.2
2025-01-20 16:50:13.519461	343.6	21.2	-92.6	7.4
2025-01-20 16:50:14.667781	343.5	21.1	-92.6	6.9
2025-01-20 16:50:15.819673	343.3	21.0	-92.5	10.7
2025-01-20 16:50:16.968279	343.1	20.9	-92.5	7.8
2025-01-20 16:50:18.114999	342.9	20.7	-91.7	6.5
2025-01-20 16:50:19.257238	342.7	20.6	-92.1	9.7
2025-01-20 16:50:20.407486	342.5	20.5	-91.9	3.8
2025-01-20 16:50:21.553091	342.4	20.4	-92.1	3.5
2025-01-20 16:50:22.688392	342.2	20.3	-92.1	5.3
2025-01-20 16:50:23.839627	342.0	20.1	-92.1	7.0
2025-01-20 16:50:24.987698	341.8	20.0	-92.2	5.0
2025-01-20 16:50:26.137759	341.7	19.9	-92.0	7.5
2025-01-20 16:50:27.287749	341.5	19.8	-92.2	11.0
2025-01-20 16:50:28.442367	341.3	19.7	-90.7	7.9
2025-01-20 16:50:29.590281	341.1	19.6	-91.5	7.5
2025-01-20 16:50:30.746170	341.0	19.5	-91.5	9.2
2025-01-20 16:50:31.897784	340.8	19.3	-91.5	4.4
2025-01-20 16:50:33.054215	340.6	19.2	-91.3	4.9
2025-01-20 16:50:34.217918	340.5	19.1	-91.1	4.2
2025-01-20 16:50:35.368382	340.3	19.0	-92.0	8.9
2025-01-20 16:50:36.517255	340.1	18.9	-92.0	7.0
2025-01-20 16:50:37.664361	340.0	18.8	-92.2	7.2
2025-01-20 16:50:38.820655	339.8	18.7	-92.4	8.4
2025-01-20 16:50:39.970412	339.7	18.5	-92.3	5.6
2025-01-20 16:50:41.120554	339.5	18.4	-92.5	5.5
2025-01-20 16:50:42.272600	339.3	18.3	-92.2	10.3
2025-01-20 16:50:43.418207	339.2	18.2	-91.9	6.7
2025-01-20 16:50:44.565917	339.0	18.1	-92.5	8.7
2025-01-20 16:50:45.712937	338.9	18.0	-92.2	7.3
2025-01-20 16:50:46.870013	338.7	17.9	-91.7	7.7
2025-01-20 16:50:48.021444	338.6	17.8	-92.3	7.1
2025-01-20 16:50:49.174560	338.4	17.6	-91.9	7.1
2025-01-20 16:50:50.327882	338.3	17.5	-92.4	7.8
2025-01-20 16:50:51.480071	338.1	17.4	-92.3	5.2
2025-01-20 16:50:52.631819	338.0	17.3	-92.2	5.9
2025-01-20 16:50:53.785670	337.8	17.2	-91.0	4.6
2025-01-20 16:50:54.929049	337.7	17.1	-91.5	5.0
2025-01-20 16:50:56.082352	337.6	17.0	-91.1	3.2
2025-01-20 16:50:57.234892	337.4	16.9	-91.0	7.7
2025-01-20 16:50:58.387994	337.3	16.8	-90.9	5.7
2025-01-20 16:50:59.541624	337.1	16.7	-91.4	5.7
2025-01-20 16:51:00.687690	337.0	16.5	-92.5	8.2
2025-01-20 16:51:01.841993	336.9	16.4	-92.2	6.4
2025-01-20 16:51:02.993662	336.7	16.3	-92.5	4.8
2025-01-20 16:51:04.145359	336.6	16.2	-91.4	5.6
2025-01-20 16:51:05.292753	336.4	16.1	-92.0	6.2
2025-01-20 16:51:06.442645	336.3	16.0	-91.6	9.1
2025-01-20 16:51:07.595092	336.2	15.9	-92.2	8.6
2025-01-20 16:51:08.746236	336.1	15.8	-92.2	8.3
2025-01-20 16:51:09.899129	335.9	15.7	-92.5	11.1
2025-01-20 16:51:11.044909	335.8	15.6	-92.4	7.5
2025-01-20 16:51:12.193469	335.7	15.5	-92.2	8.4
2025-01-20 16:51:13.339506	335.5	15.4	-92.1	12.1
2025-01-20 16:51:14.484772	335.4	15.3	-91.3	6.2
2025-01-20 16:51:15.632447	335.3	15.2	-91.2	5.8
2025-01-20 16:51:16.781794	335.2	15.1	-91.6	6.1
2025-01-20 16:51:17.937031	335.0	15.0	-91.0	6.8
2025-01-20 16:51:19.084931	334.9	14.9	-90.7	4.9
2025-01-20 16:51:20.236537	334.8	14.8	-90.9	6.0
2025-01-20 16:51:21.383532	334.7	14.7	-90.6	6.9
2025-01-20 16:51:22.527796	334.5	14.6	-91.0	6.8
#Closed at: 2025-01-20 16:43:30.520096