passes_logs/2025/01/20/LEX_Murmansk/LEX_Murmansk__20250120_114436_NOAA_18_rec.log

#Pass ID: 20250120_114436_NOAA 18
#Satellite: NOAA 18
#Configuration: NOAA 18
#Start time: 2025-01-20 11:44:31.850937

#LorettStation: 1.0.0 05.05.2024
#Station: LEX_Murmansk
#Location: 33.156738 lon 68.926811 lat
#TLE: 1 28654U 05018A   25019.12683114  .00000403  00000+0  23745-3 0  9992
#TLE: 2 28654  98.8559 100.1402 0014536 167.7337 192.4191 14.13490232 13765

#Time	Az	El	Level	SNR
2025-01-20 11:44:44.089107	23.0	16.2	-90.7	3.6
2025-01-20 11:44:45.247817	22.8	16.3	-90.5	2.7
2025-01-20 11:44:46.410855	22.7	16.4	-90.4	4.4
2025-01-20 11:44:47.576411	22.6	16.5	-91.4	7.7
2025-01-20 11:44:48.739343	22.5	16.6	-91.0	4.0
2025-01-20 11:44:49.904714	22.4	16.8	-91.1	3.7
2025-01-20 11:44:51.070559	22.3	16.9	-91.4	4.9
2025-01-20 11:44:52.234819	22.2	17.0	-91.2	4.9
2025-01-20 11:44:53.398249	22.0	17.1	-91.0	5.5
2025-01-20 11:44:54.554313	21.9	17.2	-91.3	4.0
2025-01-20 11:44:55.715764	21.8	17.4	-91.1	3.9
2025-01-20 11:44:56.881395	21.7	17.5	-91.4	6.0
2025-01-20 11:44:58.048312	21.6	17.6	-91.2	6.5
2025-01-20 11:44:59.206150	21.4	17.7	-91.5	6.9
2025-01-20 11:45:00.362310	21.3	17.8	-91.0	7.3
2025-01-20 11:45:01.521190	21.2	18.0	-91.1	7.7
2025-01-20 11:45:02.688072	21.1	18.1	-91.2	8.0
2025-01-20 11:45:03.849682	20.9	18.2	-91.3	12.8
2025-01-20 11:45:05.008236	20.8	18.3	-91.2	8.7
2025-01-20 11:45:06.170747	20.7	18.4	-91.4	12.5
2025-01-20 11:45:07.328392	20.6	18.6	-91.3	12.2
2025-01-20 11:45:08.496821	20.4	18.7	-91.3	6.0
2025-01-20 11:45:09.660465	20.3	18.8	-91.2	9.9
2025-01-20 11:45:10.819534	20.2	18.9	-91.3	12.1
2025-01-20 11:45:11.980938	20.0	19.1	-91.3	13.2
2025-01-20 11:45:13.139453	19.9	19.2	-91.1	10.5
2025-01-20 11:45:14.299239	19.8	19.3	-91.0	10.0
2025-01-20 11:45:15.457351	19.6	19.4	-91.1	8.1
2025-01-20 11:45:16.621928	19.5	19.6	-91.1	8.0
2025-01-20 11:45:17.787765	19.3	19.7	-91.2	9.6
2025-01-20 11:45:18.951323	19.2	19.8	-91.3	4.5
2025-01-20 11:45:20.131668	19.1	20.0	-91.3	9.1
2025-01-20 11:45:21.297672	18.9	20.1	-91.2	11.0
2025-01-20 11:45:22.459577	18.8	20.2	-90.9	9.3
2025-01-20 11:45:23.626330	18.6	20.4	-90.4	6.8
2025-01-20 11:45:24.788478	18.5	20.5	-91.2	10.2
2025-01-20 11:45:25.952015	18.3	20.6	-91.3	6.1
2025-01-20 11:45:27.117861	18.2	20.7	-91.5	6.2
2025-01-20 11:45:28.289185	18.0	20.9	-90.8	11.0
2025-01-20 11:45:29.451643	17.9	21.0	-91.1	10.1
2025-01-20 11:45:30.616876	17.7	21.1	-91.2	12.3
2025-01-20 11:45:31.787561	17.6	21.3	-91.3	13.4
2025-01-20 11:45:32.952488	17.4	21.4	-91.4	9.4
2025-01-20 11:45:34.119685	17.3	21.5	-91.1	10.0
2025-01-20 11:45:35.282412	17.1	21.7	-91.0	10.9
2025-01-20 11:45:36.440197	16.9	21.8	-91.4	12.5
2025-01-20 11:45:37.604491	16.8	21.9	-91.0	10.7
2025-01-20 11:45:38.769632	16.6	22.1	-91.0	10.7
2025-01-20 11:45:39.934142	16.4	22.2	-91.2	10.1
2025-01-20 11:45:41.097073	16.3	22.4	-91.3	7.8
2025-01-20 11:45:42.262202	16.1	22.5	-91.2	8.8
2025-01-20 11:45:43.428408	15.9	22.6	-91.2	4.2
2025-01-20 11:45:44.589291	15.8	22.8	-91.2	8.2
2025-01-20 11:45:45.752274	15.6	22.9	-91.2	11.6
2025-01-20 11:45:46.921455	15.4	23.1	-91.3	13.0
2025-01-20 11:45:48.083697	15.2	23.2	-91.3	10.6
2025-01-20 11:45:49.238237	15.1	23.3	-91.2	12.0
2025-01-20 11:45:50.405344	14.9	23.5	-91.5	9.7
2025-01-20 11:45:51.566925	14.7	23.6	-91.2	9.4
2025-01-20 11:45:52.730017	14.5	23.8	-91.2	10.8
2025-01-20 11:45:53.893615	14.3	23.9	-91.5	8.2
2025-01-20 11:45:55.042971	14.2	24.0	-91.8	12.0
2025-01-20 11:45:56.208284	14.0	24.2	-91.6	13.9
2025-01-20 11:45:57.369874	13.8	24.3	-91.5	11.2
2025-01-20 11:45:58.531156	13.6	24.5	-91.6	11.1
2025-01-20 11:45:59.693649	13.4	24.6	-91.3	10.9
2025-01-20 11:46:00.854313	13.2	24.8	-91.4	12.5
2025-01-20 11:46:02.019478	13.0	24.9	-91.3	6.3
2025-01-20 11:46:03.183256	12.8	25.0	-91.2	11.1
2025-01-20 11:46:04.348154	12.6	25.2	-91.2	10.8
2025-01-20 11:46:05.511157	12.4	25.3	-91.6	11.0
2025-01-20 11:46:06.668663	12.2	25.5	-91.2	12.9
2025-01-20 11:46:07.832194	12.0	25.6	-91.2	14.5
2025-01-20 11:46:08.996668	11.8	25.8	-91.5	11.2
2025-01-20 11:46:10.157240	11.6	25.9	-91.6	10.1
2025-01-20 11:46:11.321667	11.4	26.1	-91.6	9.6
2025-01-20 11:46:12.486894	11.2	26.2	-91.8	9.2
2025-01-20 11:46:13.643795	10.9	26.4	-91.6	10.1
2025-01-20 11:46:14.804531	10.7	26.5	-91.7	9.3
2025-01-20 11:46:15.974455	10.5	26.7	-91.5	9.3
2025-01-20 11:46:17.135868	10.3	26.8	-91.5	7.5
2025-01-20 11:46:18.299600	10.1	27.0	-91.5	5.8
2025-01-20 11:46:19.465375	9.8	27.1	-91.4	6.6
2025-01-20 11:46:20.629367	9.6	27.3	-91.3	7.7
2025-01-20 11:46:21.750842	9.4	27.4	-91.6	10.5
2025-01-20 11:46:22.871174	9.2	27.6	-91.8	8.6
2025-01-20 11:46:23.992107	8.9	27.7	-91.3	6.8
2025-01-20 11:46:25.113119	8.7	27.9	-91.6	8.3
2025-01-20 11:46:26.234127	8.5	28.0	-91.4	9.3
2025-01-20 11:46:27.355355	8.2	28.2	-91.7	10.1
2025-01-20 11:46:28.476754	8.0	28.3	-91.8	7.6
2025-01-20 11:46:29.597995	7.8	28.5	-91.8	5.1
2025-01-20 11:46:30.729776	7.5	28.6	-91.6	5.1
2025-01-20 11:46:31.879168	7.3	28.8	-91.7	3.2
2025-01-20 11:46:33.045050	7.0	28.9	-91.5	7.2
2025-01-20 11:46:34.206211	6.8	29.1	-91.4	7.8
2025-01-20 11:46:35.370292	6.5	29.2	-91.5	6.2
2025-01-20 11:46:36.535149	6.2	29.4	-91.1	10.1
2025-01-20 11:46:37.703440	6.0	29.5	-91.4	8.4
2025-01-20 11:46:38.866701	5.7	29.7	-91.3	6.5
2025-01-20 11:46:40.030794	5.4	29.8	-91.4	7.5
2025-01-20 11:46:41.198415	5.2	30.0	-91.5	9.9
2025-01-20 11:46:42.361114	4.9	30.2	-91.2	10.1
2025-01-20 11:46:43.527450	4.6	30.3	-91.2	8.0
2025-01-20 11:46:44.693120	4.3	30.5	-89.8	8.3
2025-01-20 11:46:45.855625	4.1	30.6	-90.5	8.2
2025-01-20 11:46:47.023900	3.8	30.8	-90.9	13.1
2025-01-20 11:46:48.188266	3.5	30.9	-91.2	9.0
2025-01-20 11:46:49.352769	3.2	31.1	-91.5	11.7
2025-01-20 11:46:50.513124	2.9	31.2	-91.7	10.6
2025-01-20 11:46:51.680891	2.6	31.4	-90.6	10.5
2025-01-20 11:46:52.844552	2.3	31.6	-90.5	12.3
2025-01-20 11:46:54.007987	2.0	31.7	-90.3	10.5
2025-01-20 11:46:55.171222	1.7	31.9	-90.0	10.7
2025-01-20 11:46:56.327647	1.4	32.0	-90.8	9.0
2025-01-20 11:46:57.490978	1.1	32.2	-90.7	8.4
2025-01-20 11:46:58.654326	0.8	32.3	-91.1	10.1
2025-01-20 11:46:59.822174	0.4	32.5	-91.2	9.1
2025-01-20 11:47:00.966343	0.1	32.6	-91.1	10.0
2025-01-20 11:47:02.130085	359.8	32.8	-91.3	10.8
2025-01-20 11:47:03.294798	359.5	32.9	-91.6	11.5
2025-01-20 11:47:04.455848	359.2	33.1	-91.7	6.6
2025-01-20 11:47:05.619854	358.8	33.2	-91.7	8.8
2025-01-20 11:47:06.783499	358.5	33.4	-91.6	12.1
2025-01-20 11:47:07.947313	358.1	33.6	-91.5	10.4
2025-01-20 11:47:09.110764	357.8	33.7	-91.4	8.5
2025-01-20 11:47:10.275493	357.5	33.9	-91.4	14.4
2025-01-20 11:47:11.439257	357.1	34.0	-91.3	12.6
2025-01-20 11:47:12.600656	356.8	34.2	-91.3	14.3
2025-01-20 11:47:13.765788	356.4	34.3	-91.5	14.8
2025-01-20 11:47:14.929679	356.0	34.5	-91.6	12.4
2025-01-20 11:47:16.082819	355.7	34.6	-91.5	10.8
2025-01-20 11:47:17.242492	355.3	34.8	-91.1	12.0
2025-01-20 11:47:18.404243	354.9	34.9	-91.3	11.0
2025-01-20 11:47:19.569568	354.6	35.0	-91.5	8.0
2025-01-20 11:47:20.726946	354.2	35.2	-91.7	16.3
2025-01-20 11:47:21.895027	353.8	35.3	-91.2	14.6
2025-01-20 11:47:23.059267	353.4	35.5	-91.1	14.3
2025-01-20 11:47:24.223119	353.1	35.6	-91.4	10.1
2025-01-20 11:47:25.385559	352.7	35.8	-91.6	13.2
2025-01-20 11:47:26.543754	352.3	35.9	-91.2	9.8
2025-01-20 11:47:27.707343	351.9	36.1	-91.4	13.7
2025-01-20 11:47:28.867160	351.5	36.2	-91.4	11.0
2025-01-20 11:47:30.036388	351.1	36.3	-91.4	8.2
2025-01-20 11:47:31.193937	350.7	36.5	-91.8	12.5
2025-01-20 11:47:32.353565	350.3	36.6	-91.7	10.8
2025-01-20 11:47:33.521176	349.8	36.7	-91.5	7.0
2025-01-20 11:47:34.684185	349.4	36.9	-91.7	11.1
2025-01-20 11:47:35.844718	349.0	37.0	-91.1	13.7
2025-01-20 11:47:37.012538	348.6	37.1	-91.2	12.4
2025-01-20 11:47:38.170335	348.2	37.3	-91.3	14.7
2025-01-20 11:47:39.336147	347.7	37.4	-91.4	14.2
2025-01-20 11:47:40.499989	347.3	37.5	-91.4	13.9
2025-01-20 11:47:41.665214	346.9	37.7	-91.5	14.0
2025-01-20 11:47:42.834166	346.4	37.8	-91.6	15.1
2025-01-20 11:47:43.982448	346.0	37.9	-91.7	12.7
2025-01-20 11:47:45.143333	345.5	38.0	-91.6	16.5
2025-01-20 11:47:46.302737	345.1	38.2	-91.6	18.6
2025-01-20 11:47:47.460909	344.6	38.3	-91.6	10.8
2025-01-20 11:47:48.630665	344.2	38.4	-91.5	13.7
2025-01-20 11:47:49.791041	343.7	38.5	-91.6	19.6
2025-01-20 11:47:50.955457	343.2	38.6	-91.4	15.0
2025-01-20 11:47:52.119227	342.8	38.7	-91.3	17.9
2025-01-20 11:47:53.282651	342.3	38.8	-91.2	19.3
2025-01-20 11:47:54.448020	341.8	39.0	-91.2	19.8
2025-01-20 11:47:55.603787	341.4	39.1	-91.4	16.3
2025-01-20 11:47:56.769074	340.9	39.2	-90.7	15.4
2025-01-20 11:47:57.942572	340.4	39.3	-91.5	13.0
2025-01-20 11:47:59.107575	339.9	39.4	-91.1	12.9
2025-01-20 11:48:00.264279	339.4	39.5	-91.6	17.5
2025-01-20 11:48:01.444175	338.9	39.6	-90.7	8.6
2025-01-20 11:48:02.606446	338.4	39.7	-91.3	10.3
2025-01-20 11:48:03.770084	337.9	39.8	-91.5	19.0
2025-01-20 11:48:04.938454	337.4	39.8	-91.6	7.7
2025-01-20 11:48:06.106965	336.9	39.9	-91.5	11.8
2025-01-20 11:48:07.274834	336.4	40.0	-91.4	18.6
2025-01-20 11:48:08.427735	335.9	40.1	-91.0	9.1
2025-01-20 11:48:09.588192	335.4	40.2	-91.5	11.9
2025-01-20 11:48:10.752279	334.9	40.3	-91.6	16.5
2025-01-20 11:48:11.917935	334.3	40.3	-91.6	13.6
2025-01-20 11:48:13.083248	333.8	40.4	-91.5	15.8
2025-01-20 11:48:14.251593	333.3	40.5	-91.4	17.0
2025-01-20 11:48:15.413154	332.8	40.5	-91.5	18.5
2025-01-20 11:48:16.574082	332.2	40.6	-91.3	15.8
2025-01-20 11:48:17.742485	331.7	40.7	-91.3	18.3
2025-01-20 11:48:18.903384	331.2	40.7	-90.9	18.3
2025-01-20 11:48:20.061969	330.7	40.8	-91.4	17.8
2025-01-20 11:48:21.224292	330.1	40.8	-91.7	18.8
2025-01-20 11:48:22.387969	329.6	40.9	-91.8	13.0
2025-01-20 11:48:23.538630	329.1	40.9	-91.4	10.5
2025-01-20 11:48:24.702872	328.5	41.0	-91.6	17.6
2025-01-20 11:48:25.866152	328.0	41.0	-91.8	18.0
2025-01-20 11:48:27.034614	327.4	41.1	-91.7	13.0
2025-01-20 11:48:28.200904	326.9	41.1	-91.3	20.3
2025-01-20 11:48:29.370180	326.3	41.2	-91.0	16.9
2025-01-20 11:48:30.533317	325.8	41.2	-91.5	13.4
2025-01-20 11:48:31.686403	325.2	41.2	-91.4	18.5
2025-01-20 11:48:32.846303	324.7	41.2	-91.3	16.5
2025-01-20 11:48:34.010951	324.1	41.3	-91.3	14.5
2025-01-20 11:48:35.179147	323.6	41.3	-91.3	18.6
2025-01-20 11:48:36.327259	323.1	41.3	-91.6	19.4
2025-01-20 11:48:37.495410	322.5	41.3	-91.6	17.6
2025-01-20 11:48:38.657661	321.9	41.3	-91.9	20.9
2025-01-20 11:48:39.822601	321.4	41.3	-91.3	19.0
2025-01-20 11:48:40.989525	320.8	41.3	-91.5	18.8
2025-01-20 11:48:42.153771	320.3	41.3	-91.4	18.3
2025-01-20 11:48:43.321643	319.7	41.3	-91.4	18.2
2025-01-20 11:48:44.482472	319.2	41.3	-91.3	17.5
2025-01-20 11:48:45.641370	318.6	41.3	-91.3	18.9
2025-01-20 11:48:46.797845	318.1	41.3	-91.1	16.9
2025-01-20 11:48:47.960937	317.5	41.3	-91.6	15.6
2025-01-20 11:48:49.122804	317.0	41.3	-91.8	17.2
2025-01-20 11:48:50.305925	316.4	41.3	-91.7	16.0
2025-01-20 11:48:51.470564	315.9	41.2	-91.5	13.7
2025-01-20 11:48:52.629688	315.3	41.2	-91.4	15.7
2025-01-20 11:48:53.790751	314.8	41.2	-91.6	18.3
2025-01-20 11:48:54.954694	314.2	41.2	-91.4	14.7
2025-01-20 11:48:56.122842	313.7	41.1	-91.8	15.3
2025-01-20 11:48:57.284992	313.1	41.1	-91.8	19.1
2025-01-20 11:48:58.451246	312.6	41.0	-91.6	11.2
2025-01-20 11:48:59.615767	312.1	41.0	-91.6	12.9
2025-01-20 11:49:00.767750	311.5	41.0	-91.8	15.6
2025-01-20 11:49:01.935427	311.0	40.9	-91.3	10.3
2025-01-20 11:49:03.097003	310.4	40.9	-91.7	13.3
2025-01-20 11:49:04.263967	309.9	40.8	-91.2	18.4
2025-01-20 11:49:05.427154	309.4	40.8	-91.4	11.1
2025-01-20 11:49:06.589166	308.8	40.7	-91.8	10.8
2025-01-20 11:49:07.752073	308.3	40.6	-91.6	18.9
2025-01-20 11:49:08.909402	307.8	40.6	-91.1	8.0
2025-01-20 11:49:10.075680	307.3	40.5	-91.6	9.7
2025-01-20 11:49:11.239478	306.7	40.4	-91.4	16.5
2025-01-20 11:49:12.405001	306.2	40.4	-91.5	9.5
2025-01-20 11:49:13.569811	305.7	40.3	-91.4	10.2
2025-01-20 11:49:14.736758	305.2	40.2	-91.3	16.9
2025-01-20 11:49:15.891695	304.7	40.1	-91.4	10.1
2025-01-20 11:49:17.064075	304.1	40.0	-91.7	10.9
2025-01-20 11:49:18.230768	303.6	40.0	-91.5	15.6
2025-01-20 11:49:19.395507	303.1	39.9	-91.7	12.0
2025-01-20 11:49:20.557756	302.6	39.8	-91.6	11.3
2025-01-20 11:49:21.717557	302.1	39.7	-91.6	16.0
2025-01-20 11:49:22.890485	301.6	39.6	-91.2	10.8
2025-01-20 11:49:24.056850	301.1	39.5	-91.4	10.1
2025-01-20 11:49:25.221869	300.6	39.4	-91.6	19.2
2025-01-20 11:49:26.376986	300.1	39.3	-91.4	11.4
2025-01-20 11:49:27.539215	299.7	39.2	-91.3	11.3
2025-01-20 11:49:28.707556	299.2	39.1	-91.4	16.5
2025-01-20 11:49:29.872302	298.7	39.0	-91.6	12.4
2025-01-20 11:49:31.036075	298.2	38.9	-91.4	12.0
2025-01-20 11:49:32.197760	297.7	38.8	-91.4	22.3
2025-01-20 11:49:33.366053	297.3	38.6	-91.4	14.4
2025-01-20 11:49:34.528983	296.8	38.5	-91.5	11.5
2025-01-20 11:49:35.688931	296.3	38.4	-91.7	19.0
2025-01-20 11:49:36.852791	295.9	38.3	-91.6	21.4
2025-01-20 11:49:38.016271	295.4	38.2	-91.6	13.1
2025-01-20 11:49:39.182671	295.0	38.1	-91.3	16.9
2025-01-20 11:49:40.344617	294.5	37.9	-91.4	19.2
2025-01-20 11:49:41.513119	294.1	37.8	-91.5	12.3
2025-01-20 11:49:42.678957	293.6	37.7	-90.9	18.5
2025-01-20 11:49:43.848174	293.2	37.6	-91.6	19.9
2025-01-20 11:49:45.011247	292.7	37.4	-91.4	13.5
2025-01-20 11:49:46.167018	292.3	37.3	-91.5	17.6
2025-01-20 11:49:47.329910	291.9	37.2	-91.6	19.1
2025-01-20 11:49:48.498338	291.5	37.0	-91.4	13.1
2025-01-20 11:49:49.665236	291.0	36.9	-91.3	15.2
2025-01-20 11:49:50.826098	290.6	36.8	-91.1	13.5
2025-01-20 11:49:51.990982	290.2	36.6	-91.4	11.9
2025-01-20 11:49:53.153737	289.8	36.5	-91.5	14.0
2025-01-20 11:49:54.313973	289.4	36.3	-91.2	13.3
2025-01-20 11:49:55.481100	289.0	36.2	-91.5	9.0
2025-01-20 11:49:56.640377	288.6	36.1	-91.0	12.2
2025-01-20 11:49:57.808498	288.2	35.9	-91.2	12.6
2025-01-20 11:49:58.969869	287.8	35.8	-91.0	15.0
2025-01-20 11:50:00.133603	287.4	35.6	-90.5	12.4
2025-01-20 11:50:01.296073	287.0	35.5	-91.1	15.5
2025-01-20 11:50:02.466027	286.6	35.3	-91.1	12.3
2025-01-20 11:50:03.628118	286.2	35.2	-91.9	8.8
2025-01-20 11:50:04.797188	285.9	35.1	-91.6	7.3
2025-01-20 11:50:05.958323	285.5	34.9	-91.4	6.6
2025-01-20 11:50:07.121064	285.1	34.8	-91.2	8.5
2025-01-20 11:50:08.280549	284.7	34.6	-90.9	12.6
2025-01-20 11:50:09.444712	284.4	34.5	-91.0	9.5
2025-01-20 11:50:10.612569	284.0	34.3	-91.3	10.9
2025-01-20 11:50:11.776681	283.7	34.2	-90.7	11.7
2025-01-20 11:50:12.945839	283.3	34.0	-91.3	8.7
2025-01-20 11:50:14.097286	283.0	33.9	-91.4	10.0
2025-01-20 11:50:15.267930	282.6	33.7	-91.3	6.3
2025-01-20 11:50:16.429031	282.3	33.5	-91.4	8.1
2025-01-20 11:50:17.591504	281.9	33.4	-91.1	5.9
2025-01-20 11:50:18.756941	281.6	33.2	-91.0	9.4
2025-01-20 11:50:19.919527	281.2	33.1	-90.8	4.2
2025-01-20 11:50:21.085771	280.9	32.9	-91.0	6.6
2025-01-20 11:50:22.247128	280.6	32.8	-91.1	12.5
2025-01-20 11:50:23.410613	280.3	32.6	-90.6	6.9
2025-01-20 11:50:24.576446	279.9	32.5	-90.5	6.7
2025-01-20 11:50:25.742952	279.6	32.3	-90.7	12.5
2025-01-20 11:50:26.907557	279.3	32.2	-91.6	6.9
2025-01-20 11:50:28.077722	279.0	32.0	-91.2	8.3
2025-01-20 11:50:29.241196	278.7	31.8	-91.3	6.4
2025-01-20 11:50:30.403055	278.4	31.7	-91.0	5.9
2025-01-20 11:50:31.571138	278.1	31.5	-91.2	7.2
2025-01-20 11:50:32.735309	277.8	31.4	-91.1	12.1
2025-01-20 11:50:33.903712	277.5	31.2	-91.1	7.6
2025-01-20 11:50:35.076282	277.2	31.1	-91.2	11.5
2025-01-20 11:50:36.231257	276.9	30.9	-91.1	9.8
2025-01-20 11:50:37.395568	276.6	30.7	-91.0	10.5
2025-01-20 11:50:38.560360	276.3	30.6	-91.0	8.2
2025-01-20 11:50:39.728949	276.0	30.4	-91.3	8.4
2025-01-20 11:50:40.890832	275.7	30.3	-91.4	6.1
2025-01-20 11:50:42.049449	275.5	30.1	-91.0	4.8
2025-01-20 11:50:43.217225	275.2	30.0	-91.2	10.2
2025-01-20 11:50:44.377217	274.9	29.8	-91.2	4.0
2025-01-20 11:50:45.541954	274.6	29.7	-90.6	4.2
2025-01-20 11:50:46.702017	274.4	29.5	-90.9	6.9
2025-01-20 11:50:47.866277	274.1	29.3	-90.9	7.2
2025-01-20 11:50:49.031104	273.8	29.2	-90.9	6.7
2025-01-20 11:50:50.198067	273.6	29.0	-91.4	7.1
2025-01-20 11:50:51.353117	273.3	28.9	-91.2	10.8
2025-01-20 11:50:52.517170	273.1	28.7	-91.1	8.1
2025-01-20 11:50:53.677087	272.8	28.6	-91.4	7.9
2025-01-20 11:50:54.835619	272.6	28.4	-91.3	15.2
2025-01-20 11:50:56.000913	272.3	28.3	-91.0	13.5
2025-01-20 11:50:57.160906	272.1	28.1	-91.2	16.9
2025-01-20 11:50:58.327360	271.8	27.9	-91.1	22.5
2025-01-20 11:50:59.491279	271.6	27.8	-90.7	11.8
2025-01-20 11:51:00.659217	271.4	27.6	-91.2	7.7
2025-01-20 11:51:01.824192	271.1	27.5	-91.3	15.5
2025-01-20 11:51:02.990541	270.9	27.3	-91.2	17.6
2025-01-20 11:51:04.157653	270.6	27.2	-91.2	13.8
2025-01-20 11:51:05.321917	270.4	27.0	-91.3	16.1
2025-01-20 11:51:06.482308	270.2	26.9	-91.4	11.6
2025-01-20 11:51:07.641910	270.0	26.7	-91.3	8.3
2025-01-20 11:51:08.807908	269.7	26.6	-91.3	8.9
2025-01-20 11:51:09.971584	269.5	26.4	-91.1	6.0
2025-01-20 11:51:11.139354	269.3	26.3	-91.7	16.0
2025-01-20 11:51:12.298019	269.1	26.1	-91.5	16.1
2025-01-20 11:51:13.465602	268.9	26.0	-91.8	7.2
2025-01-20 11:51:14.630231	268.7	25.8	-91.9	11.2
2025-01-20 11:51:15.793840	268.4	25.7	-91.3	12.1
2025-01-20 11:51:16.953748	268.2	25.5	-91.8	10.7
2025-01-20 11:51:18.117063	268.0	25.4	-91.5	13.7
2025-01-20 11:51:19.279143	267.8	25.2	-91.5	14.9
2025-01-20 11:51:20.442141	267.6	25.1	-91.5	5.3
2025-01-20 11:51:21.609864	267.4	24.9	-91.7	13.4
2025-01-20 11:51:22.770841	267.2	24.8	-91.5	16.1
2025-01-20 11:51:23.933536	267.0	24.6	-91.5	14.5
2025-01-20 11:51:25.087291	266.8	24.5	-91.8	11.8
2025-01-20 11:51:26.236866	266.6	24.4	-91.5	16.1
2025-01-20 11:51:27.407559	266.4	24.2	-91.4	11.4
2025-01-20 11:51:28.567838	266.3	24.1	-91.7	9.1
2025-01-20 11:51:29.732453	266.1	23.9	-91.3	13.6
2025-01-20 11:51:30.895969	265.9	23.8	-91.7	8.8
2025-01-20 11:51:32.064691	265.7	23.6	-91.2	10.2
2025-01-20 11:51:33.229284	265.5	23.5	-91.3	6.3
2025-01-20 11:51:34.396831	265.3	23.3	-91.1	13.3
2025-01-20 11:51:35.561160	265.2	23.2	-91.7	5.4
2025-01-20 11:51:36.725248	265.0	23.1	-91.3	17.7
2025-01-20 11:51:37.886875	264.8	22.9	-91.4	10.4
2025-01-20 11:51:39.050330	264.6	22.8	-91.6	8.6
2025-01-20 11:51:40.218068	264.4	22.6	-91.5	8.9
2025-01-20 11:51:41.382325	264.3	22.5	-91.3	10.3
2025-01-20 11:51:42.545885	264.1	22.4	-91.1	11.3
2025-01-20 11:51:43.710313	263.9	22.2	-91.0	12.0
2025-01-20 11:51:44.873440	263.8	22.1	-91.1	13.9
2025-01-20 11:51:46.039659	263.6	22.0	-91.1	10.4
2025-01-20 11:51:47.194873	263.4	21.8	-91.6	12.1
2025-01-20 11:51:48.362438	263.3	21.7	-91.4	12.8
2025-01-20 11:51:49.526401	263.1	21.5	-91.4	5.3
2025-01-20 11:51:50.692447	263.0	21.4	-91.2	14.7
2025-01-20 11:51:51.852210	262.8	21.3	-91.1	10.2
2025-01-20 11:51:53.011391	262.6	21.1	-91.2	4.4
2025-01-20 11:51:54.175271	262.5	21.0	-91.0	13.4
2025-01-20 11:51:55.336167	262.3	20.9	-90.7	12.6
2025-01-20 11:51:56.497549	262.2	20.7	-90.9	10.3
2025-01-20 11:51:57.668870	262.0	20.6	-91.0	7.9
2025-01-20 11:51:58.833816	261.9	20.5	-91.0	8.8
2025-01-20 11:51:59.996282	261.7	20.3	-91.4	6.1
2025-01-20 11:52:01.167526	261.6	20.2	-91.1	7.8
2025-01-20 11:52:02.330483	261.4	20.1	-91.5	9.3
2025-01-20 11:52:03.499114	261.3	19.9	-91.7	6.1
2025-01-20 11:52:04.666384	261.1	19.8	-91.8	6.2
2025-01-20 11:52:05.831794	261.0	19.7	-91.6	8.1
2025-01-20 11:52:06.994106	260.9	19.6	-91.4	2.9
2025-01-20 11:52:08.158606	260.7	19.4	-91.6	4.9
2025-01-20 11:52:09.317737	260.6	19.3	-91.6	8.1
2025-01-20 11:52:10.481781	260.4	19.2	-91.4	3.6
2025-01-20 11:52:11.646390	260.3	19.0	-91.7	6.5
2025-01-20 11:52:12.812051	260.2	18.9	-91.8	6.9
2025-01-20 11:52:13.991153	260.0	18.8	-91.3	5.5
2025-01-20 11:52:15.156685	259.9	18.7	-91.4	2.6
2025-01-20 11:52:16.321719	259.8	18.5	-91.6	5.2
2025-01-20 11:52:17.481439	259.6	18.4	-91.7	6.0
2025-01-20 11:52:18.646022	259.5	18.3	-91.8	4.1
2025-01-20 11:52:19.807032	259.4	18.2	-91.9	6.4
2025-01-20 11:52:20.971739	259.2	18.0	-91.6	4.9
2025-01-20 11:52:22.137634	259.1	17.9	-91.4	6.4
2025-01-20 11:52:23.306209	259.0	17.8	-91.6	3.2
2025-01-20 11:52:24.467421	258.9	17.7	-91.1	5.0
2025-01-20 11:52:25.635435	258.7	17.6	-91.1	6.7
2025-01-20 11:52:26.787083	258.6	17.4	-91.5	5.6
2025-01-20 11:52:27.952482	258.5	17.3	-91.7	6.5
2025-01-20 11:52:29.111273	258.4	17.2	-91.2	6.7
2025-01-20 11:52:30.274022	258.3	17.1	-91.5	4.7
2025-01-20 11:52:31.442156	258.1	17.0	-91.5	5.6
2025-01-20 11:52:32.599887	258.0	16.8	-91.4	5.9
2025-01-20 11:52:33.763868	257.9	16.7	-90.6	9.0
2025-01-20 11:52:34.924542	257.8	16.6	-91.3	7.0
2025-01-20 11:52:36.089390	257.7	16.5	-91.4	9.8
2025-01-20 11:52:37.242854	257.6	16.4	-91.4	8.3
2025-01-20 11:52:38.408380	257.5	16.2	-91.4	8.2
2025-01-20 11:52:39.567094	257.3	16.1	-91.1	5.9
2025-01-20 11:52:40.731985	257.2	16.0	-91.5	12.5
2025-01-20 11:52:41.891211	257.1	15.9	-91.8	10.0
2025-01-20 11:52:43.058783	257.0	15.8	-91.7	7.0
2025-01-20 11:52:44.219499	256.9	15.7	-91.8	8.4
2025-01-20 11:52:45.382414	256.8	15.6	-91.6	11.2
2025-01-20 11:52:46.549335	256.7	15.4	-91.7	9.7
2025-01-20 11:52:47.706649	256.6	15.3	-91.6	12.2
2025-01-20 11:52:48.871713	256.5	15.2	-91.6	9.2
2025-01-20 11:52:50.032092	256.4	15.1	-91.9	10.9
2025-01-20 11:52:51.198234	256.3	15.0	-91.5	11.0
2025-01-20 11:52:52.358628	256.2	14.9	-91.6	9.4
2025-01-20 11:52:53.520565	256.1	14.8	-91.5	7.7
2025-01-20 11:52:54.679855	256.0	14.7	-91.4	13.1
2025-01-20 11:52:55.841583	255.9	14.6	-90.3	12.5
#Closed at: 2025-01-20 11:44:36.877429