passes_logs/2025/01/20/LEX_Murmansk/LEX_Murmansk__20250120_061902_NOAA_19_rec.log

#Pass ID: 20250120_061902_NOAA 19
#Satellite: NOAA 19
#Configuration: NOAA 19
#Start time: 2025-01-20 06:18:57.224434

#LorettStation: 1.0.0 05.05.2024
#Station: LEX_Murmansk
#Location: 33.156738 lon 68.926811 lat
#TLE: 1 33591U 09005A   25019.18116543  .00000338  00000+0  20449-3 0  9996
#TLE: 2 33591  99.0189  82.9757 0014332  46.3357 313.9000 14.13262914822133

#Time	Az	El	Level	SNR
2025-01-20 06:19:09.527614	48.4	15.7	-90.6	3.3
2025-01-20 06:19:10.692649	48.6	15.7	-88.7	1.2
2025-01-20 06:19:11.852538	48.8	15.8	-90.0	1.5
2025-01-20 06:19:13.024916	49.0	15.9	-89.4	0.3
2025-01-20 06:19:14.180243	49.2	15.9	-89.2	1.8
2025-01-20 06:19:15.347863	49.5	16.0	-90.2	0.6
2025-01-20 06:19:16.508249	49.7	16.0	-88.0	2.7
2025-01-20 06:19:17.685621	49.9	16.1	-90.2	2.9
2025-01-20 06:19:18.848915	50.1	16.2	-90.3	4.1
2025-01-20 06:19:20.013640	50.3	16.2	-90.4	1.4
2025-01-20 06:19:21.179355	50.6	16.3	-89.6	1.8
2025-01-20 06:19:22.346487	50.8	16.3	-89.3	2.3
2025-01-20 06:19:23.511352	51.0	16.4	-90.5	2.3
2025-01-20 06:19:24.685600	51.2	16.5	-90.6	2.0
2025-01-20 06:19:25.846959	51.5	16.5	-89.9	2.4
2025-01-20 06:19:27.010362	51.7	16.6	-90.6	2.6
2025-01-20 06:19:28.170777	51.9	16.6	-90.2	4.1
2025-01-20 06:19:29.329912	52.2	16.7	-90.2	6.7
2025-01-20 06:19:30.489045	52.4	16.7	-91.0	4.0
2025-01-20 06:19:31.657207	52.6	16.8	-91.0	7.4
2025-01-20 06:19:32.823004	52.9	16.9	-90.5	10.1
2025-01-20 06:19:33.983399	53.1	16.9	-90.8	4.0
2025-01-20 06:19:35.147425	53.3	17.0	-90.9	6.0
2025-01-20 06:19:36.309172	53.6	17.0	-90.7	2.3
2025-01-20 06:19:37.474835	53.8	17.1	-89.7	3.8
2025-01-20 06:19:38.630570	54.0	17.1	-90.7	7.9
2025-01-20 06:19:39.791864	54.3	17.2	-90.6	3.6
2025-01-20 06:19:40.945571	54.5	17.3	-91.0	7.5
2025-01-20 06:19:42.107029	54.7	17.3	-90.7	6.0
2025-01-20 06:19:43.269579	55.0	17.4	-90.2	7.9
2025-01-20 06:19:44.436814	55.2	17.4	-90.5	7.4
2025-01-20 06:19:45.596053	55.5	17.5	-89.5	8.3
2025-01-20 06:19:46.754921	55.7	17.5	-90.8	2.5
2025-01-20 06:19:47.912837	55.9	17.6	-90.9	3.5
2025-01-20 06:19:49.080574	56.2	17.6	-90.7	4.4
2025-01-20 06:19:50.242752	56.4	17.7	-89.1	4.8
2025-01-20 06:19:51.404153	56.7	17.7	-90.1	2.7
2025-01-20 06:19:52.571360	56.9	17.8	-88.9	2.2
2025-01-20 06:19:53.730959	57.2	17.8	-90.5	2.3
2025-01-20 06:19:54.898037	57.4	17.9	-90.7	3.8
2025-01-20 06:19:56.059689	57.7	17.9	-90.7	5.7
2025-01-20 06:19:57.225462	57.9	18.0	-88.9	8.6
2025-01-20 06:19:58.391357	58.2	18.0	-90.5	6.3
2025-01-20 06:19:59.554062	58.4	18.1	-90.3	8.3
2025-01-20 06:20:00.717159	58.7	18.1	-89.0	7.7
2025-01-20 06:20:01.873398	58.9	18.2	-90.2	4.2
2025-01-20 06:20:03.032913	59.2	18.2	-90.1	7.8
2025-01-20 06:20:04.194143	59.4	18.3	-89.9	9.4
2025-01-20 06:20:05.357492	59.7	18.3	-88.9	5.3
2025-01-20 06:20:06.506067	59.9	18.4	-87.7	7.5
2025-01-20 06:20:07.666237	60.2	18.4	-90.2	6.9
2025-01-20 06:20:08.829291	60.4	18.4	-90.5	3.2
2025-01-20 06:20:09.996960	60.7	18.5	-89.8	2.6
2025-01-20 06:20:11.155437	61.0	18.5	-90.3	6.3
2025-01-20 06:20:12.315145	61.2	18.6	-89.9	5.3
2025-01-20 06:20:13.473708	61.5	18.6	-89.3	5.6
2025-01-20 06:20:14.633753	61.7	18.7	-89.7	7.9
2025-01-20 06:20:15.797975	62.0	18.7	-90.5	10.6
2025-01-20 06:20:16.956735	62.3	18.7	-90.5	11.2
2025-01-20 06:20:18.120838	62.5	18.8	-90.3	9.0
2025-01-20 06:20:19.285063	62.8	18.8	-89.9	7.8
2025-01-20 06:20:20.453973	63.0	18.9	-87.9	7.2
2025-01-20 06:20:21.613274	63.3	18.9	-88.1	7.5
2025-01-20 06:20:22.774524	63.6	18.9	-87.0	4.5
2025-01-20 06:20:23.932211	63.8	19.0	-88.2	3.6
2025-01-20 06:20:25.099229	64.1	19.0	-89.8	4.5
2025-01-20 06:20:26.259840	64.4	19.1	-89.5	1.5
2025-01-20 06:20:27.419710	64.6	19.1	-90.8	7.7
2025-01-20 06:20:28.584490	64.9	19.1	-90.9	4.9
2025-01-20 06:20:29.744626	65.2	19.2	-90.6	1.5
2025-01-20 06:20:30.908933	65.4	19.2	-90.6	6.3
2025-01-20 06:20:32.071714	65.7	19.2	-90.3	3.1
2025-01-20 06:20:33.234807	66.0	19.3	-89.2	4.0
2025-01-20 06:20:34.395002	66.3	19.3	-90.5	4.8
2025-01-20 06:20:35.562040	66.5	19.3	-90.0	5.6
2025-01-20 06:20:36.723951	66.8	19.4	-90.5	5.5
2025-01-20 06:20:37.893464	67.1	19.4	-89.8	7.4
2025-01-20 06:20:39.058575	67.4	19.4	-90.4	4.3
2025-01-20 06:20:40.222141	67.6	19.5	-90.2	12.1
2025-01-20 06:20:41.386919	67.9	19.5	-90.6	10.8
2025-01-20 06:20:42.547787	68.2	19.5	-90.6	9.4
2025-01-20 06:20:43.709449	68.5	19.5	-88.8	4.6
2025-01-20 06:20:44.875365	68.7	19.6	-88.9	8.0
2025-01-20 06:20:46.040745	69.0	19.6	-90.5	7.4
2025-01-20 06:20:47.204314	69.3	19.6	-90.0	4.9
2025-01-20 06:20:48.363517	69.6	19.6	-90.2	4.3
2025-01-20 06:20:49.532094	69.8	19.7	-90.8	4.8
2025-01-20 06:20:50.696221	70.1	19.7	-90.5	1.5
2025-01-20 06:20:51.862759	70.4	19.7	-90.5	7.0
2025-01-20 06:20:53.025784	70.7	19.7	-90.2	7.3
2025-01-20 06:20:54.187077	71.0	19.8	-90.5	3.4
2025-01-20 06:20:55.343527	71.2	19.8	-90.0	5.7
2025-01-20 06:20:56.498573	71.5	19.8	-89.6	13.0
2025-01-20 06:20:57.664630	71.8	19.8	-89.6	8.2
2025-01-20 06:20:58.828403	72.1	19.8	-90.2	14.4
2025-01-20 06:20:59.991661	72.4	19.9	-90.7	12.8
2025-01-20 06:21:01.149009	72.6	19.9	-90.9	9.5
2025-01-20 06:21:02.311151	72.9	19.9	-90.9	13.7
2025-01-20 06:21:03.470980	73.2	19.9	-90.6	11.8
2025-01-20 06:21:04.635008	73.5	19.9	-90.9	11.9
2025-01-20 06:21:05.796941	73.8	20.0	-91.0	8.8
2025-01-20 06:21:06.966875	74.1	20.0	-90.9	3.4
2025-01-20 06:21:08.126314	74.3	20.0	-90.1	6.6
2025-01-20 06:21:09.291206	74.6	20.0	-90.9	3.9
2025-01-20 06:21:10.449951	74.9	20.0	-90.5	6.0
2025-01-20 06:21:11.610911	75.2	20.0	-89.8	2.2
2025-01-20 06:21:12.773273	75.5	20.0	-89.0	1.0
2025-01-20 06:21:13.933560	75.8	20.0	-90.3	2.9
2025-01-20 06:21:15.101707	76.0	20.1	-89.9	4.9
2025-01-20 06:21:16.265723	76.3	20.1	-90.6	1.6
2025-01-20 06:21:17.427465	76.6	20.1	-90.7	5.3
2025-01-20 06:21:18.585585	76.9	20.1	-90.5	4.0
2025-01-20 06:21:19.754483	77.2	20.1	-91.1	4.2
2025-01-20 06:21:20.916691	77.5	20.1	-90.5	3.3
2025-01-20 06:21:22.084915	77.8	20.1	-91.2	5.3
2025-01-20 06:21:23.250562	78.0	20.1	-90.5	5.8
2025-01-20 06:21:24.411966	78.3	20.1	-90.9	6.4
2025-01-20 06:21:25.583320	78.6	20.1	-91.2	9.0
2025-01-20 06:21:26.741946	78.9	20.1	-91.0	4.8
2025-01-20 06:21:27.905313	79.2	20.1	-91.2	11.6
2025-01-20 06:21:29.065597	79.5	20.1	-91.3	8.6
2025-01-20 06:21:30.229828	79.8	20.1	-90.7	4.1
2025-01-20 06:21:31.392440	80.0	20.1	-91.1	7.7
2025-01-20 06:21:32.558579	80.3	20.1	-90.8	14.3
2025-01-20 06:21:33.720647	80.6	20.1	-90.9	9.1
2025-01-20 06:21:34.875357	80.9	20.1	-90.0	5.2
2025-01-20 06:21:36.040094	81.2	20.1	-90.7	9.8
2025-01-20 06:21:37.199767	81.5	20.1	-90.6	7.5
2025-01-20 06:21:38.375439	81.8	20.1	-91.2	10.5
2025-01-20 06:21:39.533774	82.0	20.1	-91.2	5.0
2025-01-20 06:21:40.692602	82.3	20.1	-91.0	9.4
2025-01-20 06:21:41.858518	82.6	20.1	-91.3	9.2
2025-01-20 06:21:43.018741	82.9	20.1	-90.7	8.7
2025-01-20 06:21:44.185702	83.2	20.1	-91.4	6.2
2025-01-20 06:21:45.341741	83.5	20.1	-90.6	10.9
2025-01-20 06:21:46.501707	83.8	20.1	-90.2	6.8
2025-01-20 06:21:47.672198	84.0	20.1	-90.4	6.6
2025-01-20 06:21:48.841151	84.3	20.0	-91.2	10.2
2025-01-20 06:21:49.995917	84.6	20.0	-91.1	3.6
2025-01-20 06:21:51.159321	84.9	20.0	-91.1	9.7
2025-01-20 06:21:52.320736	85.2	20.0	-91.3	8.4
2025-01-20 06:21:53.484754	85.5	20.0	-88.7	3.8
2025-01-20 06:21:54.652885	85.7	20.0	-90.9	8.6
2025-01-20 06:21:55.810301	86.0	20.0	-91.2	5.5
2025-01-20 06:21:56.973427	86.3	20.0	-89.6	5.6
2025-01-20 06:21:58.134678	86.6	19.9	-90.7	9.5
2025-01-20 06:21:59.298665	86.9	19.9	-90.5	5.4
2025-01-20 06:22:00.454555	87.2	19.9	-90.4	3.4
2025-01-20 06:22:01.617932	87.4	19.9	-90.9	3.2
2025-01-20 06:22:02.780807	87.7	19.9	-91.1	5.5
2025-01-20 06:22:03.937896	88.0	19.8	-89.9	6.6
2025-01-20 06:22:05.096320	88.3	19.8	-90.8	5.0
2025-01-20 06:22:06.261689	88.6	19.8	-87.3	7.0
2025-01-20 06:22:07.418556	88.8	19.8	-90.7	2.7
2025-01-20 06:22:08.584777	89.1	19.8	-91.2	5.5
2025-01-20 06:22:09.755001	89.4	19.7	-91.0	4.7
2025-01-20 06:22:10.913735	89.7	19.7	-90.6	3.3
2025-01-20 06:22:12.076683	90.0	19.7	-90.8	4.7
2025-01-20 06:22:13.240475	90.2	19.7	-90.8	7.7
2025-01-20 06:22:14.407510	90.5	19.6	-90.2	3.0
2025-01-20 06:22:15.568315	90.8	19.6	-90.5	2.6
2025-01-20 06:22:16.731260	91.1	19.6	-91.0	7.1
2025-01-20 06:22:17.889027	91.4	19.6	-91.0	3.5
2025-01-20 06:22:19.050218	91.6	19.5	-91.0	5.3
2025-01-20 06:22:20.210020	91.9	19.5	-90.6	7.8
2025-01-20 06:22:21.371118	92.2	19.5	-91.3	9.3
2025-01-20 06:22:22.533713	92.5	19.5	-91.0	3.9
2025-01-20 06:22:23.692252	92.7	19.4	-91.0	6.3
2025-01-20 06:22:24.853575	93.0	19.4	-89.9	4.6
2025-01-20 06:22:26.016842	93.3	19.4	-91.0	3.4
2025-01-20 06:22:27.178580	93.5	19.3	-91.0	5.5
2025-01-20 06:22:28.340379	93.8	19.3	-91.0	10.5
2025-01-20 06:22:29.506532	94.1	19.3	-91.2	3.3
2025-01-20 06:22:30.666825	94.4	19.2	-89.6	7.6
2025-01-20 06:22:31.829388	94.6	19.2	-88.2	7.5
2025-01-20 06:22:32.992417	94.9	19.2	-91.1	4.6
2025-01-20 06:22:34.148019	95.2	19.1	-90.8	4.4
2025-01-20 06:22:35.313157	95.4	19.1	-90.5	8.0
2025-01-20 06:22:36.477235	95.7	19.1	-90.8	6.1
2025-01-20 06:22:37.645107	96.0	19.0	-91.2	2.1
2025-01-20 06:22:38.807113	96.2	19.0	-91.3	6.7
2025-01-20 06:22:39.968303	96.5	18.9	-90.7	6.6
2025-01-20 06:22:41.128851	96.8	18.9	-91.1	8.5
2025-01-20 06:22:42.305223	97.0	18.9	-90.9	4.1
2025-01-20 06:22:43.466837	97.3	18.8	-91.1	2.7
2025-01-20 06:22:44.625366	97.6	18.8	-91.0	4.2
2025-01-20 06:22:45.795124	97.8	18.7	-91.2	2.8
2025-01-20 06:22:46.955544	98.1	18.7	-90.9	5.3
2025-01-20 06:22:48.120043	98.3	18.7	-91.0	3.3
2025-01-20 06:22:49.284242	98.6	18.6	-89.8	5.6
2025-01-20 06:22:50.456785	98.9	18.6	-91.3	4.2
2025-01-20 06:22:51.623229	99.1	18.5	-91.0	3.8
2025-01-20 06:22:52.781260	99.4	18.5	-90.5	2.5
2025-01-20 06:22:53.946436	99.6	18.4	-89.6	3.8
2025-01-20 06:22:55.110161	99.9	18.4	-91.0	2.8
2025-01-20 06:22:56.268639	100.2	18.4	-91.2	2.9
2025-01-20 06:22:57.427776	100.4	18.3	-91.4	2.6
2025-01-20 06:22:58.595005	100.7	18.3	-91.1	3.5
2025-01-20 06:22:59.757901	100.9	18.2	-91.3	3.3
2025-01-20 06:23:00.921439	101.2	18.2	-91.3	3.0
2025-01-20 06:23:02.082993	101.4	18.1	-91.2	1.1
2025-01-20 06:23:03.244518	101.7	18.1	-90.8	1.8
2025-01-20 06:23:04.403205	101.9	18.0	-90.7	4.3
2025-01-20 06:23:05.566303	102.2	18.0	-91.2	2.0
2025-01-20 06:23:06.731247	102.4	17.9	-90.9	4.0
2025-01-20 06:23:07.885127	102.7	17.9	-91.0	3.8
2025-01-20 06:23:09.046753	102.9	17.8	-90.7	3.2
2025-01-20 06:23:10.210072	103.2	17.8	-88.3	1.4
2025-01-20 06:23:11.369287	103.4	17.7	-91.1	2.6
2025-01-20 06:23:12.533797	103.7	17.7	-91.5	4.4
2025-01-20 06:23:13.700075	103.9	17.6	-90.9	6.6
2025-01-20 06:23:14.861163	104.2	17.6	-91.2	6.2
2025-01-20 06:23:16.025389	104.4	17.5	-91.4	2.6
2025-01-20 06:23:17.189821	104.6	17.5	-90.4	7.8
2025-01-20 06:23:18.354882	104.9	17.4	-91.0	6.4
2025-01-20 06:23:19.520384	105.1	17.4	-91.0	1.6
2025-01-20 06:23:20.681433	105.4	17.3	-91.1	7.6
2025-01-20 06:23:21.847076	105.6	17.3	-90.3	7.3
2025-01-20 06:23:23.011740	105.8	17.2	-91.3	3.2
2025-01-20 06:23:24.178942	106.1	17.1	-90.8	8.3
2025-01-20 06:23:25.338305	106.3	17.1	-90.8	8.2
2025-01-20 06:23:26.496812	106.5	17.0	-91.3	6.5
2025-01-20 06:23:27.657934	106.8	17.0	-90.5	7.9
2025-01-20 06:23:28.820327	107.0	16.9	-89.8	6.4
2025-01-20 06:23:29.978859	107.2	16.9	-90.9	6.2
2025-01-20 06:23:31.136564	107.5	16.8	-91.1	7.6
2025-01-20 06:23:32.299083	107.7	16.8	-90.1	9.5
2025-01-20 06:23:33.465973	107.9	16.7	-91.3	8.9
2025-01-20 06:23:34.629087	108.2	16.6	-90.1	8.8
2025-01-20 06:23:35.792902	108.4	16.6	-89.3	7.5
2025-01-20 06:23:36.955761	108.6	16.5	-91.4	7.4
2025-01-20 06:23:38.117438	108.9	16.5	-91.1	11.3
2025-01-20 06:23:39.279860	109.1	16.4	-89.6	9.0
2025-01-20 06:23:40.441634	109.3	16.3	-91.2	9.2
2025-01-20 06:23:41.595983	109.5	16.3	-91.4	10.5
2025-01-20 06:23:42.761512	109.7	16.2	-89.6	7.1
2025-01-20 06:23:43.923621	110.0	16.2	-91.1	6.7
2025-01-20 06:23:45.084647	110.2	16.1	-91.4	6.5
2025-01-20 06:23:46.244686	110.4	16.0	-90.1	9.3
2025-01-20 06:23:47.405975	110.6	16.0	-90.7	7.6
2025-01-20 06:23:48.576409	110.9	15.9	-91.5	8.8
2025-01-20 06:23:49.746453	111.1	15.9	-90.9	10.7
2025-01-20 06:23:50.908744	111.3	15.8	-91.7	6.9
2025-01-20 06:23:52.072317	111.5	15.7	-91.2	5.3
2025-01-20 06:23:53.235967	111.7	15.7	-89.8	3.7
2025-01-20 06:23:54.401320	111.9	15.6	-90.7	7.0
2025-01-20 06:23:55.554874	112.2	15.6	-91.5	6.6
2025-01-20 06:23:56.714748	112.4	15.5	-90.7	9.0
2025-01-20 06:23:57.876393	112.6	15.4	-91.4	10.3
2025-01-20 06:23:59.034580	112.8	15.4	-91.3	6.5
2025-01-20 06:24:00.196279	113.0	15.3	-91.3	8.4
2025-01-20 06:24:01.358308	113.2	15.2	-91.4	7.7
2025-01-20 06:24:02.519424	113.4	15.2	-91.1	2.2
2025-01-20 06:24:03.674933	113.6	15.1	-91.3	6.6
2025-01-20 06:24:04.831461	113.8	15.0	-89.5	5.8
2025-01-20 06:24:05.992708	114.0	15.0	-91.6	3.2
2025-01-20 06:24:07.163612	114.2	14.9	-91.3	3.5
2025-01-20 06:24:08.331404	114.4	14.9	-90.8	3.3
2025-01-20 06:24:09.490018	114.7	14.8	-90.8	1.8
2025-01-20 06:24:10.678134	114.9	14.7	-90.9	3.3
#Closed at: 2025-01-20 06:19:02.319059