passes_logs/2025/01/20/LEX_Murmansk/LEX_Murmansk__20250120_150441_NOAA_18_rec.log

#Pass ID: 20250120_150441_NOAA 18
#Satellite: NOAA 18
#Configuration: NOAA 18
#Start time: 2025-01-20 15:04:36.055950

#LorettStation: 1.0.0 05.05.2024
#Station: LEX_Murmansk
#Location: 33.156738 lon 68.926811 lat
#TLE: 1 28654U 05018A   25020.18862715  .00000449  00000+0  26167-3 0  9997
#TLE: 2 28654  98.8558 101.1913 0014575 164.8261 195.3351 14.13491567 13918

#Time	Az	El	Level	SNR
2025-01-20 15:04:48.322531	50.4	15.9	-90.8	4.9
2025-01-20 15:04:49.475564	50.2	16.0	-90.8	3.0
2025-01-20 15:04:50.638767	50.0	16.1	-91.2	2.9
2025-01-20 15:04:51.797873	49.9	16.1	-91.0	8.0
2025-01-20 15:04:52.960738	49.7	16.2	-91.0	7.6
2025-01-20 15:04:54.125269	49.5	16.3	-90.9	9.0
2025-01-20 15:04:55.281347	49.3	16.4	-90.5	5.3
2025-01-20 15:04:56.449545	49.1	16.5	-89.8	8.1
2025-01-20 15:04:57.613828	48.9	16.6	-90.4	3.6
2025-01-20 15:04:58.781870	48.7	16.7	-90.4	6.8
2025-01-20 15:04:59.937549	48.5	16.7	-90.9	5.5
2025-01-20 15:05:01.094895	48.3	16.8	-91.2	5.3
2025-01-20 15:05:02.261428	48.1	16.9	-91.3	7.3
2025-01-20 15:05:03.413917	47.9	17.0	-90.4	5.9
2025-01-20 15:05:04.575115	47.7	17.1	-90.9	4.8
2025-01-20 15:05:05.740307	47.5	17.2	-90.9	6.3
2025-01-20 15:05:06.902426	47.3	17.2	-91.0	5.0
2025-01-20 15:05:08.055920	47.1	17.3	-90.6	4.4
2025-01-20 15:05:09.224231	46.9	17.4	-91.1	7.8
2025-01-20 15:05:10.390095	46.7	17.5	-90.8	4.0
2025-01-20 15:05:11.560271	46.5	17.6	-90.6	6.5
2025-01-20 15:05:12.734216	46.3	17.7	-91.1	8.0
2025-01-20 15:05:13.895276	46.1	17.8	-91.4	7.2
2025-01-20 15:05:15.057525	45.9	17.8	-91.0	7.6
2025-01-20 15:05:16.216357	45.7	17.9	-90.8	5.2
2025-01-20 15:05:17.384578	45.5	18.0	-90.7	9.4
2025-01-20 15:05:18.549127	45.3	18.1	-90.8	8.0
2025-01-20 15:05:19.696473	45.0	18.2	-91.0	6.1
2025-01-20 15:05:20.859498	44.8	18.2	-91.3	9.5
2025-01-20 15:05:22.026926	44.6	18.3	-91.0	4.9
2025-01-20 15:05:23.191032	44.4	18.4	-90.8	6.3
2025-01-20 15:05:24.349271	44.2	18.5	-90.4	7.8
2025-01-20 15:05:25.518854	44.0	18.6	-90.3	7.2
2025-01-20 15:05:26.677582	43.7	18.7	-90.3	8.8
2025-01-20 15:05:27.842448	43.5	18.7	-90.4	6.1
2025-01-20 15:05:29.005575	43.3	18.8	-91.4	7.3
2025-01-20 15:05:30.169216	43.1	18.9	-91.2	7.0
2025-01-20 15:05:31.333877	42.8	19.0	-91.0	5.4
2025-01-20 15:05:32.498342	42.6	19.1	-91.2	5.9
2025-01-20 15:05:33.662355	42.4	19.2	-91.1	5.2
2025-01-20 15:05:34.821063	42.2	19.2	-91.1	8.5
2025-01-20 15:05:35.979794	41.9	19.3	-90.7	6.5
2025-01-20 15:05:37.148134	41.7	19.4	-89.8	10.4
2025-01-20 15:05:38.310589	41.5	19.5	-89.7	8.3
2025-01-20 15:05:39.474400	41.2	19.6	-90.3	8.9
2025-01-20 15:05:40.642792	41.0	19.6	-90.7	9.9
2025-01-20 15:05:41.806139	40.8	19.7	-90.7	10.7
2025-01-20 15:05:42.969315	40.5	19.8	-90.5	9.5
2025-01-20 15:05:44.129475	40.3	19.9	-90.2	13.0
2025-01-20 15:05:45.279739	40.0	19.9	-91.2	14.7
2025-01-20 15:05:46.410061	39.8	20.0	-91.3	8.5
2025-01-20 15:05:47.530706	39.6	20.1	-90.9	10.0
2025-01-20 15:05:48.650633	39.3	20.2	-90.9	8.1
2025-01-20 15:05:49.771491	39.1	20.2	-89.7	8.9
2025-01-20 15:05:50.892466	38.9	20.3	-90.6	12.4
2025-01-20 15:05:52.012924	38.6	20.4	-90.3	10.4
2025-01-20 15:05:53.134445	38.4	20.5	-90.3	6.1
2025-01-20 15:05:54.259933	38.1	20.5	-90.7	12.8
2025-01-20 15:05:55.380774	37.9	20.6	-91.0	8.8
2025-01-20 15:05:56.539298	37.6	20.7	-91.1	5.6
2025-01-20 15:05:57.706544	37.4	20.8	-91.2	8.4
2025-01-20 15:05:58.862127	37.1	20.8	-91.4	10.9
2025-01-20 15:06:00.019646	36.9	20.9	-90.9	7.7
2025-01-20 15:06:01.179256	36.6	21.0	-89.5	9.1
2025-01-20 15:06:02.340147	36.4	21.1	-91.0	10.4
2025-01-20 15:06:03.493442	36.1	21.1	-91.0	9.2
2025-01-20 15:06:04.622468	35.9	21.2	-91.1	12.6
2025-01-20 15:06:05.784281	35.6	21.3	-91.7	9.8
2025-01-20 15:06:06.930136	35.3	21.3	-90.9	11.8
2025-01-20 15:06:08.078781	35.1	21.4	-91.4	9.2
2025-01-20 15:06:09.241378	34.8	21.5	-91.1	10.7
2025-01-20 15:06:10.398761	34.5	21.5	-90.7	4.6
2025-01-20 15:06:11.553725	34.3	21.6	-91.1	8.5
2025-01-20 15:06:12.720798	34.0	21.7	-91.2	12.0
2025-01-20 15:06:13.879344	33.7	21.8	-91.1	8.8
2025-01-20 15:06:15.048889	33.5	21.8	-91.2	7.9
2025-01-20 15:06:16.212775	33.2	21.9	-91.2	12.9
2025-01-20 15:06:17.377306	32.9	22.0	-91.5	15.0
2025-01-20 15:06:18.541819	32.6	22.0	-91.4	16.6
2025-01-20 15:06:19.705914	32.4	22.1	-91.6	12.0
2025-01-20 15:06:20.877842	32.1	22.2	-91.2	12.4
2025-01-20 15:06:22.039283	31.8	22.2	-90.5	11.5
2025-01-20 15:06:23.201267	31.5	22.3	-91.0	11.0
2025-01-20 15:06:24.358190	31.2	22.3	-90.8	11.0
2025-01-20 15:06:25.515611	31.0	22.4	-90.9	8.4
2025-01-20 15:06:26.683801	30.7	22.5	-90.8	12.5
2025-01-20 15:06:27.842339	30.4	22.5	-91.2	14.5
2025-01-20 15:06:29.009298	30.1	22.6	-90.9	5.6
2025-01-20 15:06:30.171567	29.8	22.7	-90.9	13.7
2025-01-20 15:06:31.336230	29.5	22.7	-91.6	17.5
2025-01-20 15:06:32.496883	29.2	22.8	-91.8	11.4
2025-01-20 15:06:33.651931	28.9	22.8	-91.6	11.7
2025-01-20 15:06:34.813193	28.7	22.9	-91.2	16.9
2025-01-20 15:06:35.981988	28.4	23.0	-91.3	12.5
2025-01-20 15:06:37.139658	28.1	23.0	-91.2	15.1
2025-01-20 15:06:38.307010	27.8	23.1	-90.9	17.1
2025-01-20 15:06:39.454731	27.5	23.1	-91.2	10.4
2025-01-20 15:06:40.614359	27.2	23.2	-91.3	14.2
2025-01-20 15:06:41.780713	26.9	23.2	-91.3	15.0
2025-01-20 15:06:42.945190	26.6	23.3	-91.2	11.2
2025-01-20 15:06:44.112158	26.3	23.3	-91.1	7.9
2025-01-20 15:06:45.270976	26.0	23.4	-91.2	10.8
2025-01-20 15:06:46.433421	25.7	23.4	-91.3	9.1
2025-01-20 15:06:47.595268	25.4	23.5	-91.1	13.2
2025-01-20 15:06:48.763960	25.1	23.5	-91.8	11.3
2025-01-20 15:06:49.922885	24.8	23.6	-91.5	9.8
2025-01-20 15:06:51.096905	24.5	23.6	-90.9	13.1
2025-01-20 15:06:52.264281	24.2	23.7	-91.4	10.7
2025-01-20 15:06:53.434211	23.8	23.7	-91.1	13.2
2025-01-20 15:06:54.595274	23.5	23.8	-91.8	11.6
2025-01-20 15:06:55.753637	23.2	23.8	-91.6	15.3
2025-01-20 15:06:56.919579	22.9	23.9	-91.6	10.1
2025-01-20 15:06:58.075764	22.6	23.9	-91.3	10.1
2025-01-20 15:06:59.239459	22.3	23.9	-91.6	12.2
2025-01-20 15:07:00.398257	22.0	24.0	-91.6	8.8
2025-01-20 15:07:01.566188	21.7	24.0	-91.2	7.9
2025-01-20 15:07:02.731537	21.4	24.1	-91.5	12.2
2025-01-20 15:07:03.891475	21.0	24.1	-91.2	5.1
2025-01-20 15:07:05.048300	20.7	24.1	-91.1	7.3
2025-01-20 15:07:06.208534	20.4	24.2	-90.8	7.7
2025-01-20 15:07:07.374411	20.1	24.2	-90.9	4.5
2025-01-20 15:07:08.537535	19.8	24.2	-91.2	9.1
2025-01-20 15:07:09.702633	19.4	24.3	-91.3	7.6
2025-01-20 15:07:10.854478	19.1	24.3	-90.7	13.4
2025-01-20 15:07:12.004343	18.8	24.3	-91.4	12.0
2025-01-20 15:07:13.126005	18.5	24.4	-91.4	10.2
2025-01-20 15:07:14.246707	18.2	24.4	-91.1	11.5
2025-01-20 15:07:15.368282	17.9	24.4	-91.3	6.3
2025-01-20 15:07:16.489019	17.6	24.5	-91.4	13.2
2025-01-20 15:07:17.609289	17.3	24.5	-90.8	12.7
2025-01-20 15:07:18.730000	16.9	24.5	-91.4	10.9
2025-01-20 15:07:19.850623	16.6	24.5	-91.2	9.5
2025-01-20 15:07:20.972325	16.3	24.6	-91.2	5.7
2025-01-20 15:07:22.105421	16.0	24.6	-91.5	8.3
2025-01-20 15:07:23.275596	15.7	24.6	-90.9	9.2
2025-01-20 15:07:24.426659	15.4	24.6	-91.5	10.3
2025-01-20 15:07:25.563455	15.0	24.6	-91.3	8.9
2025-01-20 15:07:26.698486	14.7	24.7	-91.3	13.2
2025-01-20 15:07:27.859672	14.4	24.7	-90.3	11.0
2025-01-20 15:07:29.005891	14.1	24.7	-91.0	7.1
2025-01-20 15:07:30.156202	13.7	24.7	-91.4	12.1
2025-01-20 15:07:31.308513	13.4	24.7	-90.8	13.8
2025-01-20 15:07:32.468074	13.1	24.7	-90.6	10.2
2025-01-20 15:07:33.632958	12.8	24.8	-90.6	9.9
2025-01-20 15:07:34.795331	12.4	24.8	-90.7	13.2
2025-01-20 15:07:35.946459	12.1	24.8	-90.6	11.2
2025-01-20 15:07:37.114887	11.8	24.8	-90.6	10.2
2025-01-20 15:07:38.270115	11.4	24.8	-90.3	10.6
2025-01-20 15:07:39.441840	11.1	24.8	-90.7	9.0
2025-01-20 15:07:40.602971	10.8	24.8	-91.2	10.2
2025-01-20 15:07:41.761994	10.4	24.8	-91.1	9.5
2025-01-20 15:07:42.935380	10.1	24.8	-91.7	5.3
2025-01-20 15:07:44.098643	9.8	24.8	-91.2	9.3
2025-01-20 15:07:45.263150	9.4	24.8	-91.5	7.3
2025-01-20 15:07:46.432592	9.1	24.8	-90.8	7.5
2025-01-20 15:07:47.598489	8.8	24.8	-91.4	8.2
2025-01-20 15:07:48.762426	8.5	24.8	-91.4	13.3
2025-01-20 15:07:49.924653	8.1	24.8	-91.4	9.7
2025-01-20 15:07:51.065387	7.8	24.8	-91.4	8.7
2025-01-20 15:07:52.215195	7.5	24.8	-91.8	11.3
2025-01-20 15:07:53.377592	7.1	24.8	-91.6	11.5
2025-01-20 15:07:54.539361	6.8	24.8	-91.0	8.3
2025-01-20 15:07:55.697933	6.5	24.8	-91.6	9.7
2025-01-20 15:07:56.865016	6.1	24.8	-91.4	8.2
2025-01-20 15:07:58.029274	5.8	24.8	-90.9	6.7
2025-01-20 15:07:59.183554	5.5	24.8	-91.2	12.4
2025-01-20 15:08:00.343298	5.2	24.8	-91.3	13.8
2025-01-20 15:08:01.505323	4.8	24.8	-91.2	4.9
2025-01-20 15:08:02.670184	4.5	24.7	-91.5	12.4
2025-01-20 15:08:03.837405	4.2	24.7	-91.4	12.5
2025-01-20 15:08:05.002453	3.8	24.7	-91.1	6.0
2025-01-20 15:08:06.159968	3.5	24.7	-91.4	14.2
2025-01-20 15:08:07.324343	3.2	24.7	-91.4	12.0
2025-01-20 15:08:08.484245	2.9	24.7	-91.3	10.7
2025-01-20 15:08:09.648232	2.5	24.7	-91.5	13.5
2025-01-20 15:08:10.810788	2.2	24.6	-90.7	14.9
2025-01-20 15:08:11.974272	1.9	24.6	-91.4	10.0
2025-01-20 15:08:13.134065	1.5	24.6	-90.8	10.3
2025-01-20 15:08:14.295631	1.2	24.6	-90.9	12.6
2025-01-20 15:08:15.458990	0.9	24.5	-91.0	8.1
2025-01-20 15:08:16.621782	0.6	24.5	-91.2	11.6
2025-01-20 15:08:17.792639	0.2	24.5	-91.6	15.3
2025-01-20 15:08:18.951748	359.9	24.5	-91.7	11.2
2025-01-20 15:08:20.116243	359.6	24.4	-91.1	8.2
2025-01-20 15:08:21.291715	359.3	24.4	-91.3	12.8
2025-01-20 15:08:22.456698	358.9	24.4	-91.2	10.9
2025-01-20 15:08:23.622072	358.6	24.3	-91.6	15.4
2025-01-20 15:08:24.786222	358.3	24.3	-91.2	12.5
2025-01-20 15:08:25.950066	358.0	24.3	-91.2	11.2
2025-01-20 15:08:27.110897	357.7	24.2	-91.3	13.9
2025-01-20 15:08:28.272293	357.3	24.2	-91.0	17.5
2025-01-20 15:08:29.434071	357.0	24.2	-91.2	14.1
2025-01-20 15:08:30.596244	356.7	24.1	-91.3	14.2
2025-01-20 15:08:31.747703	356.4	24.1	-91.6	12.5
2025-01-20 15:08:32.890425	356.1	24.1	-91.7	12.0
2025-01-20 15:08:34.010935	355.8	24.0	-91.2	13.6
2025-01-20 15:08:35.131981	355.5	24.0	-90.7	10.2
2025-01-20 15:08:36.252088	355.2	24.0	-91.2	11.8
2025-01-20 15:08:37.372025	354.9	23.9	-90.4	12.9
2025-01-20 15:08:38.492682	354.6	23.9	-91.5	14.8
2025-01-20 15:08:39.613164	354.3	23.8	-91.2	17.3
2025-01-20 15:08:40.734068	354.0	23.8	-91.0	17.9
2025-01-20 15:08:41.856849	353.7	23.7	-91.4	18.7
2025-01-20 15:08:42.993498	353.4	23.7	-91.6	16.3
2025-01-20 15:08:44.161485	353.1	23.7	-91.4	14.3
2025-01-20 15:08:45.314290	352.8	23.6	-91.4	8.5
2025-01-20 15:08:46.477676	352.4	23.6	-91.3	17.7
2025-01-20 15:08:47.624621	352.1	23.5	-91.7	12.7
2025-01-20 15:08:48.791488	351.8	23.5	-91.5	10.2
2025-01-20 15:08:49.925660	351.5	23.4	-91.5	6.8
2025-01-20 15:08:51.068822	351.2	23.4	-91.6	13.2
2025-01-20 15:08:52.225151	350.9	23.3	-91.4	12.8
2025-01-20 15:08:53.376775	350.7	23.3	-91.2	8.8
2025-01-20 15:08:54.532039	350.4	23.2	-90.5	11.5
2025-01-20 15:08:55.680271	350.1	23.2	-90.8	11.3
2025-01-20 15:08:56.843253	349.8	23.1	-90.6	12.6
2025-01-20 15:08:58.003166	349.5	23.0	-90.7	9.4
2025-01-20 15:08:59.169047	349.2	23.0	-90.2	11.9
2025-01-20 15:09:00.323460	348.9	22.9	-90.4	12.0
2025-01-20 15:09:01.487369	348.6	22.9	-91.5	13.0
2025-01-20 15:09:02.653261	348.3	22.8	-91.5	12.8
2025-01-20 15:09:03.816034	348.0	22.8	-91.6	10.0
2025-01-20 15:09:04.980079	347.7	22.7	-91.5	12.2
2025-01-20 15:09:06.140308	347.4	22.6	-91.4	10.7
2025-01-20 15:09:07.305025	347.1	22.6	-91.2	9.3
2025-01-20 15:09:08.465738	346.8	22.5	-91.4	6.4
2025-01-20 15:09:09.630239	346.6	22.4	-91.2	8.8
2025-01-20 15:09:10.796092	346.3	22.4	-91.2	11.6
2025-01-20 15:09:11.955150	346.0	22.3	-91.0	8.8
2025-01-20 15:09:13.120521	345.7	22.3	-91.3	10.3
2025-01-20 15:09:14.276603	345.4	22.2	-91.2	12.1
2025-01-20 15:09:15.431562	345.2	22.1	-91.3	8.5
2025-01-20 15:09:16.590461	344.9	22.1	-91.2	6.9
2025-01-20 15:09:17.761430	344.6	22.0	-91.6	14.0
2025-01-20 15:09:18.916524	344.3	21.9	-91.5	9.4
2025-01-20 15:09:20.085737	344.0	21.9	-91.7	7.4
2025-01-20 15:09:21.249769	343.8	21.8	-91.0	11.3
2025-01-20 15:09:22.402847	343.5	21.7	-91.0	8.7
2025-01-20 15:09:23.552377	343.2	21.7	-91.7	8.4
2025-01-20 15:09:24.716979	343.0	21.6	-91.2	13.0
2025-01-20 15:09:25.876110	342.7	21.5	-90.8	11.5
2025-01-20 15:09:27.040171	342.4	21.4	-90.9	6.4
2025-01-20 15:09:28.201489	342.2	21.4	-91.2	13.4
2025-01-20 15:09:29.365740	341.9	21.3	-91.1	8.0
2025-01-20 15:09:30.530955	341.6	21.2	-90.9	8.3
2025-01-20 15:09:31.694977	341.4	21.2	-90.6	9.6
2025-01-20 15:09:32.856839	341.1	21.1	-91.2	7.8
2025-01-20 15:09:34.017662	340.9	21.0	-91.0	6.7
2025-01-20 15:09:35.180974	340.6	20.9	-90.6	9.0
2025-01-20 15:09:36.339062	340.3	20.9	-90.6	10.5
2025-01-20 15:09:37.503268	340.1	20.8	-91.2	4.2
2025-01-20 15:09:38.648122	339.8	20.7	-91.3	9.2
2025-01-20 15:09:39.769079	339.6	20.6	-91.0	7.8
2025-01-20 15:09:40.888912	339.3	20.6	-91.4	6.9
2025-01-20 15:09:42.009749	339.1	20.5	-91.5	8.2
2025-01-20 15:09:43.132805	338.9	20.4	-90.8	11.0
2025-01-20 15:09:44.254052	338.6	20.4	-91.3	9.2
2025-01-20 15:09:45.374800	338.4	20.3	-90.9	10.6
2025-01-20 15:09:46.496589	338.1	20.2	-91.2	4.8
2025-01-20 15:09:47.621342	337.9	20.1	-91.6	7.4
2025-01-20 15:09:48.746358	337.7	20.1	-91.2	8.6
2025-01-20 15:09:49.908963	337.4	20.0	-91.1	6.5
2025-01-20 15:09:51.064034	337.2	19.9	-91.3	6.4
2025-01-20 15:09:52.227377	336.9	19.8	-91.2	5.3
2025-01-20 15:09:53.386766	336.7	19.7	-91.6	6.3
2025-01-20 15:09:54.543100	336.5	19.7	-90.4	5.4
2025-01-20 15:09:55.704261	336.2	19.6	-91.2	4.3
2025-01-20 15:09:56.869081	336.0	19.5	-90.1	4.4
2025-01-20 15:09:58.032021	335.8	19.4	-90.2	3.9
2025-01-20 15:09:59.193062	335.5	19.3	-90.2	4.5
2025-01-20 15:10:00.349956	335.3	19.3	-91.2	3.7
2025-01-20 15:10:01.508016	335.1	19.2	-91.7	5.5
2025-01-20 15:10:02.677068	334.8	19.1	-91.5	5.1
2025-01-20 15:10:03.837751	334.6	19.0	-91.3	5.2
2025-01-20 15:10:04.998534	334.4	18.9	-91.0	5.7
2025-01-20 15:10:06.155363	334.1	18.9	-91.3	3.5
2025-01-20 15:10:07.319000	333.9	18.8	-90.8	4.5
2025-01-20 15:10:08.485418	333.7	18.7	-91.2	4.1
2025-01-20 15:10:09.649136	333.5	18.6	-91.1	6.6
2025-01-20 15:10:10.815203	333.3	18.5	-91.4	4.6
2025-01-20 15:10:11.973933	333.0	18.4	-91.4	5.9
2025-01-20 15:10:13.140106	332.8	18.4	-91.3	5.2
2025-01-20 15:10:14.311427	332.6	18.3	-91.4	6.9
2025-01-20 15:10:15.469255	332.4	18.2	-91.5	5.0
2025-01-20 15:10:16.630931	332.2	18.1	-91.5	5.2
2025-01-20 15:10:17.787679	332.0	18.0	-91.0	2.9
2025-01-20 15:10:18.947593	331.7	17.9	-90.9	5.1
2025-01-20 15:10:20.112152	331.5	17.9	-91.1	6.5
2025-01-20 15:10:21.268644	331.3	17.8	-91.0	4.6
2025-01-20 15:10:22.424623	331.1	17.7	-91.0	6.8
2025-01-20 15:10:23.586184	330.9	17.6	-90.9	5.2
2025-01-20 15:10:24.742874	330.7	17.5	-91.0	6.4
2025-01-20 15:10:25.903231	330.5	17.4	-90.9	4.9
2025-01-20 15:10:27.057038	330.3	17.4	-91.3	5.9
2025-01-20 15:10:28.220196	330.1	17.3	-91.2	7.7
2025-01-20 15:10:29.385850	329.9	17.2	-91.1	5.4
2025-01-20 15:10:30.548133	329.7	17.1	-91.1	2.3
2025-01-20 15:10:31.707603	329.5	17.0	-90.9	4.8
2025-01-20 15:10:32.872842	329.3	16.9	-91.7	5.4
2025-01-20 15:10:34.037955	329.1	16.9	-91.8	4.6
2025-01-20 15:10:35.197414	328.9	16.8	-90.8	5.2
2025-01-20 15:10:36.355741	328.7	16.7	-90.2	6.9
2025-01-20 15:10:37.459742	328.5	16.6	-91.5	5.5
2025-01-20 15:10:38.621422	328.3	16.5	-91.3	5.1
2025-01-20 15:10:39.790179	328.1	16.4	-90.6	7.5
2025-01-20 15:10:40.950093	327.9	16.3	-90.6	4.0
2025-01-20 15:10:42.115004	327.7	16.3	-90.9	8.2
2025-01-20 15:10:43.281600	327.6	16.2	-90.8	8.4
2025-01-20 15:10:44.439378	327.4	16.1	-90.4	6.0
2025-01-20 15:10:45.609405	327.2	16.0	-90.7	5.8
2025-01-20 15:10:46.766962	327.0	15.9	-90.4	7.5
2025-01-20 15:10:47.934020	326.8	15.8	-90.1	9.5
2025-01-20 15:10:49.098062	326.6	15.7	-90.8	10.0
2025-01-20 15:10:50.256970	326.4	15.7	-90.4	9.1
2025-01-20 15:10:51.416444	326.3	15.6	-90.7	7.7
2025-01-20 15:10:52.585467	326.1	15.5	-91.4	10.8
2025-01-20 15:10:53.742641	325.9	15.4	-91.4	7.6
2025-01-20 15:10:54.905131	325.7	15.3	-91.5	6.8
2025-01-20 15:10:56.064074	325.5	15.2	-91.3	4.5
2025-01-20 15:10:57.227923	325.4	15.2	-91.0	6.5
2025-01-20 15:10:58.396416	325.2	15.1	-91.2	3.3
2025-01-20 15:10:59.550474	325.0	15.0	-91.5	4.1
2025-01-20 15:11:00.711806	324.8	14.9	-91.1	6.0
2025-01-20 15:11:01.875081	324.7	14.8	-91.4	5.8
2025-01-20 15:11:03.040378	324.5	14.7	-91.1	4.7
2025-01-20 15:11:04.197277	324.3	14.6	-91.2	5.0
#Closed at: 2025-01-20 15:04:41.128591