passes_logs/2025/01/20/LEX_Murmansk/LEX_Murmansk__20250120_194121_NOAA_19_rec.log

#Pass ID: 20250120_194121_NOAA 19
#Satellite: NOAA 19
#Configuration: NOAA 19
#Start time: 2025-01-20 19:41:16.831539

#LorettStation: 1.0.0 05.05.2024
#Station: LEX_Murmansk
#Location: 33.156738 lon 68.926811 lat
#TLE: 1 33591U 09005A   25020.17232911  .00000399  00000+0  23710-3 0  9996
#TLE: 2 33591  99.0187  83.9745 0014303  43.5990 316.6309 14.13263973822272

#Time	Az	El	Level	SNR
2025-01-20 19:41:29.098917	218.7	16.0	-91.6	6.0
2025-01-20 19:41:30.255716	218.8	16.1	-91.9	6.8
2025-01-20 19:41:31.400008	219.0	16.2	-91.6	7.9
2025-01-20 19:41:32.550708	219.2	16.3	-92.2	6.6
2025-01-20 19:41:33.712013	219.3	16.4	-91.9	3.3
2025-01-20 19:41:34.853571	219.5	16.5	-90.7	3.9
2025-01-20 19:41:36.003309	219.7	16.6	-91.8	3.5
2025-01-20 19:41:37.155012	219.8	16.7	-91.8	2.2
2025-01-20 19:41:38.302470	220.0	16.8	-92.0	1.5
2025-01-20 19:41:39.454947	220.2	16.9	-92.2	2.2
2025-01-20 19:41:40.615755	220.4	17.0	-92.3	5.5
2025-01-20 19:41:41.760416	220.5	17.1	-91.8	7.9
2025-01-20 19:41:42.912646	220.7	17.2	-92.0	8.7
2025-01-20 19:41:44.062132	220.9	17.3	-91.9	8.8
2025-01-20 19:41:45.205554	221.1	17.4	-91.9	7.7
2025-01-20 19:41:46.353183	221.2	17.5	-92.1	4.0
2025-01-20 19:41:47.498153	221.4	17.6	-92.4	5.5
2025-01-20 19:41:48.644944	221.6	17.7	-92.2	6.3
2025-01-20 19:41:49.796026	221.8	17.8	-92.2	7.7
2025-01-20 19:41:50.949220	222.0	17.9	-92.5	13.9
2025-01-20 19:41:52.098958	222.2	18.0	-92.2	11.1
2025-01-20 19:41:53.245241	222.4	18.1	-92.1	9.0
2025-01-20 19:41:54.398247	222.5	18.2	-91.8	5.6
2025-01-20 19:41:55.546678	222.7	18.3	-91.7	5.1
2025-01-20 19:41:56.696538	222.9	18.4	-92.1	1.5
2025-01-20 19:41:57.842884	223.1	18.5	-92.3	4.8
2025-01-20 19:41:58.991736	223.3	18.6	-91.8	5.9
2025-01-20 19:42:00.138754	223.5	18.7	-91.9	5.7
2025-01-20 19:42:01.282603	223.7	18.8	-90.9	9.1
2025-01-20 19:42:02.430233	223.9	18.9	-92.3	13.0
2025-01-20 19:42:03.581160	224.1	19.0	-92.2	11.4
2025-01-20 19:42:04.728628	224.3	19.1	-92.3	8.4
2025-01-20 19:42:05.885485	224.5	19.2	-90.4	8.6
2025-01-20 19:42:07.029061	224.7	19.3	-91.7	10.0
2025-01-20 19:42:08.171190	224.9	19.4	-91.9	5.6
2025-01-20 19:42:09.318363	225.1	19.5	-92.3	5.9
2025-01-20 19:42:10.468190	225.3	19.6	-91.9	11.9
2025-01-20 19:42:11.618375	225.5	19.7	-92.5	12.6
2025-01-20 19:42:12.768149	225.7	19.8	-91.6	10.7
2025-01-20 19:42:13.919777	225.9	19.9	-92.4	8.9
2025-01-20 19:42:15.062179	226.1	20.0	-91.9	8.3
2025-01-20 19:42:16.212388	226.3	20.1	-92.1	2.0
2025-01-20 19:42:17.362292	226.6	20.2	-91.9	3.9
2025-01-20 19:42:18.510831	226.8	20.3	-91.8	3.6
2025-01-20 19:42:19.657794	227.0	20.4	-92.0	3.8
2025-01-20 19:42:20.804918	227.2	20.4	-92.5	3.6
2025-01-20 19:42:21.955109	227.4	20.5	-92.0	8.6
2025-01-20 19:42:23.111082	227.6	20.7	-92.0	11.3
2025-01-20 19:42:24.261431	227.9	20.8	-92.1	12.3
2025-01-20 19:42:25.404746	228.1	20.8	-91.8	13.1
2025-01-20 19:42:26.552215	228.3	20.9	-92.5	12.5
2025-01-20 19:42:27.702111	228.5	21.0	-91.7	6.5
2025-01-20 19:42:28.849982	228.8	21.1	-92.3	6.8
2025-01-20 19:42:29.999383	229.0	21.2	-92.5	9.9
2025-01-20 19:42:31.152142	229.2	21.3	-92.3	8.8
2025-01-20 19:42:32.313161	229.5	21.4	-92.4	11.4
2025-01-20 19:42:33.466718	229.7	21.5	-92.4	11.7
2025-01-20 19:42:34.619855	229.9	21.6	-92.2	12.1
2025-01-20 19:42:35.766597	230.2	21.7	-92.5	11.0
2025-01-20 19:42:36.923816	230.4	21.8	-92.3	7.4
2025-01-20 19:42:38.078547	230.6	21.9	-92.3	4.4
2025-01-20 19:42:39.226043	230.9	22.0	-92.0	2.3
2025-01-20 19:42:40.376878	231.1	22.1	-91.9	1.5
2025-01-20 19:42:41.532700	231.4	22.2	-92.4	3.7
2025-01-20 19:42:42.688696	231.6	22.3	-92.1	4.0
2025-01-20 19:42:43.837083	231.9	22.4	-92.0	6.5
2025-01-20 19:42:44.985204	232.1	22.5	-92.3	9.4
2025-01-20 19:42:46.138044	232.4	22.6	-92.0	11.4
2025-01-20 19:42:47.281992	232.6	22.7	-92.0	12.1
2025-01-20 19:42:48.434282	232.9	22.8	-92.0	12.6
2025-01-20 19:42:49.581446	233.1	22.9	-92.5	12.1
2025-01-20 19:42:50.728287	233.4	23.0	-92.0	6.6
2025-01-20 19:42:51.879671	233.6	23.1	-92.1	8.4
2025-01-20 19:42:53.037015	233.9	23.2	-92.6	9.1
2025-01-20 19:42:54.190840	234.1	23.3	-92.2	6.1
2025-01-20 19:42:55.340853	234.4	23.4	-92.5	8.2
2025-01-20 19:42:56.498442	234.7	23.5	-92.4	8.7
2025-01-20 19:42:57.653305	234.9	23.6	-92.1	10.0
2025-01-20 19:42:58.793837	235.2	23.7	-92.4	7.2
2025-01-20 19:42:59.945081	235.5	23.8	-92.4	5.2
2025-01-20 19:43:01.097096	235.7	23.9	-92.1	5.9
2025-01-20 19:43:02.247616	236.0	24.0	-92.3	1.2
2025-01-20 19:43:03.401140	236.3	24.1	-92.0	3.4
2025-01-20 19:43:04.559469	236.6	24.2	-92.3	2.5
2025-01-20 19:43:05.704229	236.8	24.3	-92.4	2.3
2025-01-20 19:43:06.855676	237.1	24.4	-92.2	2.8
2025-01-20 19:43:08.004133	237.4	24.5	-92.2	0.3
2025-01-20 19:43:09.156124	237.7	24.5	-92.1	2.8
2025-01-20 19:43:10.305677	237.9	24.6	-92.4	5.1
2025-01-20 19:43:11.454245	238.2	24.7	-92.3	2.4
2025-01-20 19:43:12.619751	238.5	24.8	-92.5	2.3
2025-01-20 19:43:13.768046	238.8	24.9	-92.3	3.8
2025-01-20 19:43:14.919485	239.1	25.0	-92.2	5.8
2025-01-20 19:43:16.071568	239.4	25.1	-92.0	5.3
2025-01-20 19:43:17.220778	239.7	25.2	-92.2	2.9
2025-01-20 19:43:18.372012	240.0	25.3	-92.3	4.7
2025-01-20 19:43:19.522243	240.3	25.4	-92.2	5.6
2025-01-20 19:43:20.671253	240.6	25.5	-92.6	5.5
2025-01-20 19:43:21.819543	240.9	25.5	-92.6	5.8
2025-01-20 19:43:22.969062	241.2	25.6	-92.2	11.9
2025-01-20 19:43:24.120870	241.5	25.7	-92.3	7.1
2025-01-20 19:43:25.265585	241.8	25.8	-92.4	12.1
2025-01-20 19:43:26.420730	242.1	25.9	-92.6	11.2
2025-01-20 19:43:27.566606	242.4	26.0	-92.3	7.6
2025-01-20 19:43:28.710632	242.7	26.1	-92.2	6.1
2025-01-20 19:43:29.868301	243.0	26.1	-92.5	5.4
2025-01-20 19:43:31.011072	243.3	26.2	-92.4	4.2
2025-01-20 19:43:32.161008	243.6	26.3	-91.9	5.0
2025-01-20 19:43:33.317948	243.9	26.4	-91.7	2.3
2025-01-20 19:43:34.466508	244.2	26.5	-92.2	4.4
2025-01-20 19:43:35.620757	244.6	26.5	-92.3	9.5
2025-01-20 19:43:36.766840	244.9	26.6	-92.0	6.3
2025-01-20 19:43:37.923903	245.2	26.7	-92.5	10.2
2025-01-20 19:43:39.078907	245.5	26.8	-92.5	15.8
2025-01-20 19:43:40.226154	245.9	26.9	-92.1	15.3
2025-01-20 19:43:41.374167	246.2	26.9	-92.3	15.5
2025-01-20 19:43:42.518188	246.5	27.0	-91.8	14.0
2025-01-20 19:43:43.670686	246.8	27.1	-92.0	12.5
2025-01-20 19:43:44.817678	247.2	27.2	-92.1	12.5
2025-01-20 19:43:45.959785	247.5	27.2	-92.4	11.8
2025-01-20 19:43:47.107783	247.8	27.3	-91.9	11.8
2025-01-20 19:43:48.268998	248.2	27.4	-92.0	7.5
2025-01-20 19:43:49.420304	248.5	27.5	-92.3	10.0
2025-01-20 19:43:50.570099	248.8	27.5	-92.4	14.0
2025-01-20 19:43:51.720536	249.2	27.6	-92.3	12.3
2025-01-20 19:43:52.872645	249.5	27.7	-91.8	16.3
2025-01-20 19:43:54.020143	249.8	27.7	-91.7	19.1
2025-01-20 19:43:55.166717	250.2	27.8	-91.9	17.0
2025-01-20 19:43:56.312090	250.5	27.9	-92.2	19.2
2025-01-20 19:43:57.460327	250.9	27.9	-92.1	16.7
2025-01-20 19:43:58.608816	251.2	28.0	-92.3	14.5
2025-01-20 19:43:59.757673	251.6	28.0	-92.7	13.0
2025-01-20 19:44:00.905024	251.9	28.1	-92.0	11.2
2025-01-20 19:44:02.057009	252.3	28.2	-91.9	9.9
2025-01-20 19:44:03.207048	252.6	28.2	-91.9	3.4
2025-01-20 19:44:04.353282	253.0	28.3	-92.1	4.3
2025-01-20 19:44:05.503546	253.3	28.3	-92.3	4.7
2025-01-20 19:44:06.654990	253.7	28.4	-92.0	5.5
2025-01-20 19:44:07.805565	254.0	28.5	-92.3	6.0
2025-01-20 19:44:08.961684	254.4	28.5	-91.6	8.6
2025-01-20 19:44:10.112184	254.8	28.6	-91.8	13.6
2025-01-20 19:44:11.267156	255.1	28.6	-91.9	7.8
2025-01-20 19:44:12.424932	255.5	28.7	-92.3	9.3
2025-01-20 19:44:13.580110	255.8	28.7	-92.3	12.5
2025-01-20 19:44:14.737400	256.2	28.8	-92.4	14.4
2025-01-20 19:44:15.883098	256.6	28.8	-92.4	14.8
2025-01-20 19:44:17.027531	256.9	28.9	-92.2	17.0
2025-01-20 19:44:18.185164	257.3	28.9	-92.2	13.9
2025-01-20 19:44:19.329675	257.7	29.0	-92.7	13.5
2025-01-20 19:44:20.489295	258.0	29.0	-92.5	12.2
2025-01-20 19:44:21.639586	258.4	29.0	-92.6	6.8
2025-01-20 19:44:22.794327	258.8	29.1	-92.4	9.8
2025-01-20 19:44:23.947231	259.2	29.1	-92.5	10.2
2025-01-20 19:44:25.096030	259.5	29.2	-92.3	6.1
2025-01-20 19:44:26.256047	259.9	29.2	-92.2	5.9
2025-01-20 19:44:27.408134	260.3	29.2	-92.6	7.5
2025-01-20 19:44:28.559613	260.7	29.3	-92.4	9.6
2025-01-20 19:44:29.705337	261.0	29.3	-92.5	5.7
2025-01-20 19:44:30.856482	261.4	29.3	-92.2	5.3
2025-01-20 19:44:32.007589	261.8	29.4	-92.3	6.9
2025-01-20 19:44:33.157872	262.2	29.4	-92.4	4.3
2025-01-20 19:44:34.313998	262.5	29.4	-92.6	3.4
2025-01-20 19:44:35.457112	262.9	29.5	-92.5	10.3
2025-01-20 19:44:36.605404	263.3	29.5	-92.2	12.5
2025-01-20 19:44:37.761082	263.7	29.5	-92.4	6.5
2025-01-20 19:44:38.919278	264.1	29.5	-91.9	4.5
2025-01-20 19:44:40.071164	264.4	29.5	-92.4	2.9
2025-01-20 19:44:41.230776	264.8	29.6	-92.5	1.8
2025-01-20 19:44:42.384274	265.2	29.6	-92.6	1.7
2025-01-20 19:44:43.534054	265.6	29.6	-92.3	0.7
2025-01-20 19:44:44.682601	266.0	29.6	-92.3	2.4
2025-01-20 19:44:45.832702	266.4	29.6	-92.4	1.4
2025-01-20 19:44:46.984082	266.7	29.6	-92.7	2.6
2025-01-20 19:44:48.131333	267.1	29.7	-92.1	4.7
2025-01-20 19:44:49.278573	267.5	29.7	-92.3	3.0
2025-01-20 19:44:50.429706	267.9	29.7	-92.5	7.0
2025-01-20 19:44:51.578453	268.3	29.7	-92.7	1.8
2025-01-20 19:44:52.733139	268.7	29.7	-92.3	1.7
2025-01-20 19:44:53.880408	269.1	29.7	-92.2	3.5
2025-01-20 19:44:55.034245	269.4	29.7	-92.5	5.6
2025-01-20 19:44:56.178125	269.8	29.7	-91.9	2.4
2025-01-20 19:44:57.321691	270.2	29.7	-92.0	2.1
2025-01-20 19:44:58.468020	270.6	29.7	-92.3	4.0
2025-01-20 19:44:59.612544	271.0	29.7	-92.6	5.8
2025-01-20 19:45:00.754611	271.4	29.7	-92.2	2.2
2025-01-20 19:45:01.902032	271.7	29.7	-92.3	4.9
2025-01-20 19:45:03.055762	272.1	29.7	-92.7	3.1
2025-01-20 19:45:04.201742	272.5	29.7	-92.0	2.3
2025-01-20 19:45:05.352733	272.9	29.7	-91.7	2.9
2025-01-20 19:45:06.500545	273.3	29.7	-92.5	5.4
2025-01-20 19:45:07.652538	273.7	29.6	-92.8	4.5
2025-01-20 19:45:08.797629	274.0	29.6	-92.1	3.8
2025-01-20 19:45:09.946736	274.4	29.6	-92.1	9.8
2025-01-20 19:45:11.098201	274.8	29.6	-92.4	10.3
2025-01-20 19:45:12.251879	275.2	29.6	-92.0	3.8
2025-01-20 19:45:13.403437	275.6	29.6	-92.0	9.0
2025-01-20 19:45:14.548758	275.9	29.5	-92.2	5.8
2025-01-20 19:45:15.691822	276.3	29.5	-92.0	5.5
2025-01-20 19:45:16.836301	276.7	29.5	-92.2	11.4
2025-01-20 19:45:17.991951	277.1	29.5	-91.6	7.2
2025-01-20 19:45:19.139353	277.5	29.5	-92.3	8.9
2025-01-20 19:45:20.283556	277.8	29.4	-92.5	10.8
2025-01-20 19:45:21.433939	278.2	29.4	-91.8	11.2
2025-01-20 19:45:22.583900	278.6	29.4	-92.3	10.3
2025-01-20 19:45:23.735067	279.0	29.3	-92.6	16.4
2025-01-20 19:45:24.883217	279.3	29.3	-92.1	11.6
2025-01-20 19:45:26.025450	279.7	29.3	-92.3	8.8
2025-01-20 19:45:27.178645	280.1	29.2	-92.3	5.6
2025-01-20 19:45:28.332282	280.5	29.2	-92.4	8.4
2025-01-20 19:45:29.484890	280.8	29.2	-92.4	8.6
2025-01-20 19:45:30.643245	281.2	29.1	-92.5	14.6
2025-01-20 19:45:31.791059	281.6	29.1	-92.1	7.9
2025-01-20 19:45:32.940598	282.0	29.1	-92.5	7.1
2025-01-20 19:45:34.097736	282.3	29.0	-92.3	9.0
2025-01-20 19:45:35.266914	282.7	29.0	-92.0	10.5
2025-01-20 19:45:36.419195	283.1	28.9	-92.5	14.4
2025-01-20 19:45:37.563004	283.4	28.9	-92.2	9.7
2025-01-20 19:45:38.710697	283.8	28.8	-92.3	6.1
2025-01-20 19:45:39.859380	284.2	28.8	-92.8	6.4
2025-01-20 19:45:41.007884	284.5	28.7	-92.3	11.7
2025-01-20 19:45:42.161516	284.9	28.7	-92.7	7.1
2025-01-20 19:45:43.309355	285.2	28.6	-92.2	7.5
2025-01-20 19:45:44.459210	285.6	28.6	-92.4	6.3
2025-01-20 19:45:45.609576	286.0	28.5	-92.7	11.5
2025-01-20 19:45:46.758251	286.3	28.5	-92.3	10.9
2025-01-20 19:45:47.906087	286.7	28.4	-92.4	10.7
2025-01-20 19:45:49.049888	287.0	28.4	-91.8	12.7
2025-01-20 19:45:50.212268	287.4	28.3	-92.4	6.7
2025-01-20 19:45:51.360893	287.7	28.3	-92.3	10.9
2025-01-20 19:45:52.516358	288.1	28.2	-92.3	13.1
2025-01-20 19:45:53.667290	288.4	28.1	-92.2	10.9
2025-01-20 19:45:54.821912	288.8	28.1	-92.3	7.5
2025-01-20 19:45:55.974913	289.1	28.0	-92.5	2.2
2025-01-20 19:45:57.122533	289.5	27.9	-92.2	14.2
2025-01-20 19:45:58.273023	289.8	27.9	-92.3	10.1
2025-01-20 19:45:59.420999	290.2	27.8	-92.3	9.2
2025-01-20 19:46:00.569663	290.5	27.7	-92.3	6.2
2025-01-20 19:46:01.721850	290.9	27.7	-92.2	6.4
2025-01-20 19:46:02.869291	291.2	27.6	-92.4	12.3
2025-01-20 19:46:04.018174	291.5	27.5	-92.5	6.0
2025-01-20 19:46:05.166121	291.9	27.5	-92.4	11.3
2025-01-20 19:46:06.319117	292.2	27.4	-92.4	6.0
2025-01-20 19:46:07.468084	292.5	27.3	-92.0	9.2
2025-01-20 19:46:08.617592	292.9	27.3	-92.5	6.8
2025-01-20 19:46:09.767763	293.2	27.2	-92.0	8.1
2025-01-20 19:46:10.915976	293.5	27.1	-92.5	3.1
2025-01-20 19:46:12.064724	293.9	27.0	-92.4	9.9
2025-01-20 19:46:13.213348	294.2	27.0	-92.1	5.8
2025-01-20 19:46:14.367002	294.5	26.9	-92.0	13.3
2025-01-20 19:46:15.512383	294.8	26.8	-92.6	4.4
2025-01-20 19:46:16.673125	295.1	26.7	-92.6	8.7
2025-01-20 19:46:17.836123	295.5	26.7	-92.5	8.5
2025-01-20 19:46:18.992860	295.8	26.6	-92.6	8.3
2025-01-20 19:46:20.141351	296.1	26.5	-92.6	13.9
2025-01-20 19:46:21.275575	296.4	26.4	-92.5	8.4
2025-01-20 19:46:22.396218	296.7	26.3	-92.8	7.5
2025-01-20 19:46:23.516755	297.0	26.3	-92.4	11.3
2025-01-20 19:46:24.637971	297.3	26.2	-92.9	5.4
2025-01-20 19:46:25.759165	297.6	26.1	-92.4	10.4
2025-01-20 19:46:26.879802	297.9	26.0	-92.5	10.3
2025-01-20 19:46:28.000345	298.2	25.9	-92.3	12.4
2025-01-20 19:46:29.120439	298.5	25.9	-92.6	5.0
2025-01-20 19:46:30.257201	298.8	25.8	-92.1	4.7
2025-01-20 19:46:31.405305	299.1	25.7	-92.4	6.7
2025-01-20 19:46:32.561527	299.4	25.6	-92.4	7.3
2025-01-20 19:46:33.709453	299.7	25.5	-92.5	5.1
2025-01-20 19:46:34.859410	300.0	25.4	-92.2	7.3
2025-01-20 19:46:36.005727	300.3	25.3	-92.0	3.2
2025-01-20 19:46:37.150087	300.6	25.2	-92.0	4.5
2025-01-20 19:46:38.298666	300.9	25.2	-92.1	3.9
2025-01-20 19:46:39.446123	301.2	25.1	-92.2	5.2
2025-01-20 19:46:40.599666	301.5	25.0	-92.6	3.4
2025-01-20 19:46:41.747378	301.8	24.9	-92.6	2.1
2025-01-20 19:46:42.892209	302.0	24.8	-92.3	3.7
2025-01-20 19:46:44.048528	302.3	24.7	-92.3	4.3
2025-01-20 19:46:45.196854	302.6	24.6	-92.0	1.2
2025-01-20 19:46:46.348921	302.9	24.5	-92.6	2.4
2025-01-20 19:46:47.494121	303.2	24.4	-92.4	3.4
2025-01-20 19:46:48.642935	303.4	24.3	-92.0	4.8
2025-01-20 19:46:49.793863	303.7	24.2	-92.5	4.7
2025-01-20 19:46:50.939603	304.0	24.2	-92.7	4.6
2025-01-20 19:46:52.089286	304.3	24.1	-92.2	8.5
2025-01-20 19:46:53.240419	304.5	24.0	-92.3	4.5
2025-01-20 19:46:54.390844	304.8	23.9	-92.6	3.0
2025-01-20 19:46:55.540598	305.1	23.8	-92.8	5.4
2025-01-20 19:46:56.695008	305.3	23.7	-92.3	6.8
2025-01-20 19:46:57.850596	305.6	23.6	-92.7	2.5
2025-01-20 19:46:59.004086	305.9	23.5	-92.3	3.4
2025-01-20 19:47:00.149622	306.1	23.4	-92.3	5.2
2025-01-20 19:47:01.294932	306.4	23.3	-92.3	4.1
2025-01-20 19:47:02.448307	306.6	23.2	-92.6	2.5
2025-01-20 19:47:03.595310	306.9	23.1	-92.3	12.8
2025-01-20 19:47:04.746088	307.1	23.0	-92.7	7.0
2025-01-20 19:47:05.893322	307.4	22.9	-92.2	8.4
2025-01-20 19:47:07.046225	307.7	22.8	-91.9	6.9
2025-01-20 19:47:08.200924	307.9	22.7	-92.2	4.9
2025-01-20 19:47:09.352322	308.2	22.6	-92.5	3.5
2025-01-20 19:47:10.501860	308.4	22.5	-92.5	4.0
2025-01-20 19:47:11.647580	308.6	22.4	-92.7	7.0
2025-01-20 19:47:12.802923	308.9	22.3	-92.5	1.1
2025-01-20 19:47:13.946940	309.1	22.2	-92.6	5.3
2025-01-20 19:47:15.098768	309.4	22.1	-92.6	3.8
2025-01-20 19:47:16.246760	309.6	22.0	-91.8	0.7
2025-01-20 19:47:17.393058	309.9	21.9	-92.3	5.0
2025-01-20 19:47:18.548274	310.1	21.8	-92.3	2.5
2025-01-20 19:47:19.697337	310.3	21.7	-92.3	2.6
2025-01-20 19:47:20.853229	310.6	21.6	-92.2	2.1
2025-01-20 19:47:22.002909	310.8	21.5	-92.5	2.6
2025-01-20 19:47:23.258858	311.0	21.4	-92.4	1.8
2025-01-20 19:47:24.405832	311.3	21.3	-92.3	0.8
2025-01-20 19:47:25.556915	311.5	21.2	-92.4	1.3
2025-01-20 19:47:26.705795	311.7	21.1	-92.7	0.7
2025-01-20 19:47:27.853142	312.0	21.0	-92.5	1.4
2025-01-20 19:47:28.998572	312.2	20.9	-92.6	4.7
2025-01-20 19:47:30.145534	312.4	20.8	-91.8	3.2
2025-01-20 19:47:31.289560	312.6	20.8	-92.3	1.6
2025-01-20 19:47:32.439496	312.8	20.7	-92.3	2.0
2025-01-20 19:47:33.592457	313.1	20.6	-92.0	2.0
2025-01-20 19:47:34.749535	313.3	20.5	-92.2	2.0
2025-01-20 19:47:35.893834	313.5	20.4	-92.6	3.0
2025-01-20 19:47:37.044419	313.7	20.3	-92.4	1.4
2025-01-20 19:47:38.191704	313.9	20.2	-92.0	6.4
2025-01-20 19:47:39.335249	314.1	20.1	-92.1	1.9
2025-01-20 19:47:40.485966	314.3	20.0	-92.4	3.7
2025-01-20 19:47:41.632724	314.5	19.9	-92.1	4.7
2025-01-20 19:47:42.781344	314.8	19.8	-91.9	3.2
2025-01-20 19:47:43.935558	315.0	19.7	-92.4	2.0
2025-01-20 19:47:45.092512	315.2	19.6	-91.4	2.0
2025-01-20 19:47:46.245591	315.4	19.5	-91.9	2.3
2025-01-20 19:47:47.391218	315.6	19.4	-91.6	3.7
2025-01-20 19:47:48.538131	315.8	19.3	-91.2	4.0
2025-01-20 19:47:49.688855	316.0	19.2	-91.6	3.7
2025-01-20 19:47:50.834134	316.2	19.1	-91.6	4.1
2025-01-20 19:47:51.978943	316.4	19.0	-92.5	5.0
2025-01-20 19:47:53.127428	316.6	18.9	-92.2	3.2
2025-01-20 19:47:54.278178	316.8	18.8	-92.3	3.4
2025-01-20 19:47:55.430546	317.0	18.7	-92.0	4.5
2025-01-20 19:47:56.576491	317.1	18.6	-92.2	3.0
2025-01-20 19:47:57.727379	317.3	18.5	-92.2	2.7
2025-01-20 19:47:58.876308	317.5	18.4	-92.6	3.5
2025-01-20 19:48:00.013178	317.7	18.3	-92.0	3.7
2025-01-20 19:48:01.158131	317.9	18.2	-92.2	4.7
2025-01-20 19:48:02.308691	318.1	18.1	-92.1	4.5
2025-01-20 19:48:03.463294	318.3	18.0	-92.3	2.3
2025-01-20 19:48:04.612063	318.5	17.9	-92.4	3.3
2025-01-20 19:48:05.760029	318.6	17.8	-92.5	2.2
2025-01-20 19:48:06.910073	318.8	17.7	-92.5	2.3
2025-01-20 19:48:08.033436	319.0	17.6	-92.5	1.8
2025-01-20 19:48:09.153064	319.2	17.5	-92.4	2.1
2025-01-20 19:48:10.274525	319.4	17.4	-92.2	3.2
2025-01-20 19:48:11.394723	319.5	17.3	-92.6	3.3
2025-01-20 19:48:12.516189	319.7	17.2	-92.6	6.0
2025-01-20 19:48:13.637394	319.9	17.1	-92.5	3.0
2025-01-20 19:48:14.758278	320.0	17.0	-92.5	2.6
2025-01-20 19:48:15.878546	320.2	16.9	-92.5	7.4
2025-01-20 19:48:17.006088	320.4	16.8	-92.2	2.2
2025-01-20 19:48:18.145276	320.5	16.8	-92.3	3.2
2025-01-20 19:48:19.294796	320.7	16.7	-92.4	1.5
2025-01-20 19:48:20.440019	320.9	16.6	-92.3	5.1
2025-01-20 19:48:21.590260	321.1	16.5	-92.7	5.6
2025-01-20 19:48:22.734299	321.2	16.4	-92.0	2.5
2025-01-20 19:48:23.898428	321.4	16.3	-92.2	7.0
2025-01-20 19:48:25.053391	321.6	16.2	-92.1	5.2
2025-01-20 19:48:26.196162	321.7	16.1	-92.4	2.9
2025-01-20 19:48:27.350563	321.9	16.0	-92.1	2.4
2025-01-20 19:48:28.498573	322.0	15.9	-91.9	0.8
2025-01-20 19:48:29.649267	322.2	15.8	-92.6	1.9
2025-01-20 19:48:30.796605	322.4	15.7	-92.4	1.8
2025-01-20 19:48:31.944680	322.5	15.6	-92.6	8.2
2025-01-20 19:48:33.094514	322.7	15.5	-91.9	4.3
2025-01-20 19:48:34.237421	322.8	15.4	-92.3	3.2
2025-01-20 19:48:35.387872	323.0	15.3	-92.6	9.7
2025-01-20 19:48:36.532081	323.1	15.2	-92.6	10.3
2025-01-20 19:48:37.680941	323.3	15.1	-92.7	3.1
2025-01-20 19:48:38.833293	323.5	15.0	-92.7	7.4
2025-01-20 19:48:39.983382	323.6	15.0	-92.2	2.1
2025-01-20 19:48:41.139354	323.8	14.9	-92.2	3.7
2025-01-20 19:48:42.287693	323.9	14.8	-92.5	1.9
2025-01-20 19:48:43.438590	324.1	14.7	-92.5	3.0
2025-01-20 19:48:44.584204	324.2	14.6	-92.5	1.4
#Closed at: 2025-01-20 19:41:21.904678