passes_logs/2025/01/21/XPeterburg/XPeterburg__20250121_113440_FENGYUN_3D_rec.log

#Pass ID: 20250121_113440_FENGYUN 3D
#Satellite: FENGYUN 3D
#Configuration: FENGYUN 3D
#Start time: 2025-01-21 11:34:32

#Version: 1.5.20200625
#Station: XPeterburg
#Location: 30.318091 lon 59.932769 lat
#TLE: 1 43010U 17072A   25020.13154983  .00000312  00000+0  16958-3 0  9995
#TLE: 2 43010  98.9429 342.4118 0002535  80.2667 279.8795 14.19547046372198

#Time	Az	El	Level	Level2	SNR	BER	Gain	Gain2
2025-01-21 11:34:32.84	127.72	67.29	-38.6	-40.9	3.3	8384777	95	3193
2025-01-21 11:34:33.24	127.47	67.45	-38.6	-52.0	3.5	7698394	74	11570
2025-01-21 11:34:33.64	127.22	67.60	-38.5	-41.2	3.3	8404254	94	3378
2025-01-21 11:34:34.04	126.96	67.76	-38.5	-42.5	3.6	8419326	94	3924
2025-01-21 11:34:34.44	126.70	67.92	-38.5	-41.2	3.3	8426902	94	3371
2025-01-21 11:34:34.85	126.43	68.08	-38.5	-42.6	3.6	8427806	94	3965
2025-01-21 11:34:35.25	126.16	68.23	-38.3	-40.8	3.3	8431446	94	3254
2025-01-21 11:34:35.65	125.89	68.39	-38.1	-41.3	3.6	8391426	94	3556
2025-01-21 11:34:36.05	125.61	68.55	-37.6	-38.8	3.7	8403133	93	2816
2025-01-21 11:34:36.45	125.33	68.70	-36.8	-36.9	4.4	8324569	92	2483
2025-01-21 11:34:36.86	125.04	68.86	-35.7	-35.6	5.5	7139408	89	2433
2025-01-21 11:34:37.26	124.74	69.02	-34.5	-34.0	7.0	3477264	87	2325
2025-01-21 11:34:37.66	124.45	69.17	-33.2	-32.7	8.4	1554759	84	2336
2025-01-21 11:34:38.06	124.15	69.33	-32.2	-31.8	9.7	263671	82	2331
2025-01-21 11:34:38.46	123.84	69.48	-31.4	-30.6	10.8	99620	81	2236
2025-01-21 11:34:38.87	123.53	69.64	-30.4	-29.6	11.8	36403	79	2244
2025-01-21 11:34:39.27	123.21	69.80	-29.7	-29.0	12.7	3238	77	2291
2025-01-21 11:34:39.67	122.89	69.95	-29.0	-28.2	13.5	869	76	2247
2025-01-21 11:34:40.07	122.56	70.10	-28.3	-27.8	14.2	57	74	2316
2025-01-21 11:34:40.48	122.22	70.26	-27.9	-27.0	14.7	22	74	2211
2025-01-21 11:34:40.88	121.89	70.41	-27.6	-26.9	15.0	11	73	2271
2025-01-21 11:34:41.28	121.54	70.57	-27.6	-26.7	15.0	0	73	2240
2025-01-21 11:34:41.68	121.20	70.72	-27.6	-26.7	15.1	0	73	2242
2025-01-21 11:34:42.09	120.83	70.87	-27.6	-26.9	15.0	0	73	2265
2025-01-21 11:34:42.49	120.47	71.02	-27.7	-27.1	15.0	0	73	2291
2025-01-21 11:34:42.89	120.10	71.17	-27.7	-27.1	15.0	11	73	2288
2025-01-21 11:34:43.29	119.73	71.32	-27.8	-27.2	14.9	0	73	2309
2025-01-21 11:34:43.70	119.34	71.48	-27.8	-27.2	14.9	11	73	2309
2025-01-21 11:34:44.10	118.96	71.63	-27.8	-27.2	15.0	11	73	2303
2025-01-21 11:34:44.50	118.56	71.77	-27.8	-27.2	14.9	0	73	2310
2025-01-21 11:34:44.90	118.16	71.92	-27.8	-27.2	15.0	11	73	2303
2025-01-21 11:34:45.31	117.75	72.07	-27.7	-27.1	15.1	0	73	2295
2025-01-21 11:34:45.71	117.33	72.22	-27.7	-27.0	15.2	0	73	2283
2025-01-21 11:34:46.11	116.91	72.36	-27.6	-26.9	15.3	0	73	2272
2025-01-21 11:34:46.51	116.48	72.51	-27.8	-27.2	15.2	0	73	2308
2025-01-21 11:34:46.92	116.04	72.66	-27.8	-27.4	15.1	0	73	2338
2025-01-21 11:34:47.32	115.59	72.80	-27.8	-27.4	15.2	0	73	2337
2025-01-21 11:34:47.72	115.14	72.94	-27.7	-27.2	15.3	0	73	2310
2025-01-21 11:34:48.12	114.68	73.08	-27.7	-27.1	15.4	0	73	2300
2025-01-21 11:34:48.52	114.21	73.22	-27.6	-26.9	15.5	0	73	2280
2025-01-21 11:34:48.93	113.72	73.37	-27.6	-26.9	15.6	0	73	2279
2025-01-21 11:34:49.33	113.24	73.50	-27.5	-26.8	15.7	0	73	2255
2025-01-21 11:34:49.73	112.75	73.64	-27.4	-26.6	15.8	0	73	2231
2025-01-21 11:34:50.13	112.24	73.78	-27.3	-26.3	15.9	0	73	2192
2025-01-21 11:34:50.54	111.72	73.92	-27.2	-26.6	16.1	0	72	2292
2025-01-21 11:34:50.94	111.20	74.05	-27.1	-26.3	16.2	0	72	2262
2025-01-21 11:34:51.34	110.67	74.19	-27.0	-26.3	16.2	0	72	2253
2025-01-21 11:34:51.74	110.13	74.32	-26.9	-26.1	16.3	0	72	2231
2025-01-21 11:34:52.14	109.58	74.45	-26.8	-25.7	16.5	0	72	2175
2025-01-21 11:34:52.55	109.01	74.58	-26.4	-25.4	16.7	0	71	2206
2025-01-21 11:34:52.95	108.44	74.71	-26.3	-25.2	16.8	0	71	2175
2025-01-21 11:34:53.35	107.86	74.84	-26.3	-25.7	16.8	0	70	2308
2025-01-21 11:34:53.75	107.28	74.96	-26.2	-25.6	16.8	0	70	2290
2025-01-21 11:34:54.15	106.68	75.09	-26.1	-25.4	16.9	0	70	2258
2025-01-21 11:34:54.56	106.05	75.21	-26.1	-25.3	16.9	0	70	2246
2025-01-21 11:34:54.96	105.43	75.33	-26.0	-25.0	17.0	0	70	2216
2025-01-21 11:34:55.36	104.80	75.45	-25.8	-24.8	17.1	0	70	2178
2025-01-21 11:34:55.76	104.16	75.57	-25.7	-24.9	17.2	0	69	2262
2025-01-21 11:34:56.17	103.49	75.69	-25.7	-25.0	17.2	0	69	2265
2025-01-21 11:34:56.57	102.83	75.80	-25.7	-25.0	17.2	0	69	2268
2025-01-21 11:34:56.97	102.16	75.92	-25.7	-25.1	17.2	0	69	2281
2025-01-21 11:34:57.37	101.47	76.03	-25.7	-25.1	17.1	0	69	2285
2025-01-21 11:34:57.78	100.76	76.14	-25.6	-24.8	17.2	0	69	2239
2025-01-21 11:34:58.18	100.05	76.25	-25.4	-24.4	17.4	0	69	2190
2025-01-21 11:34:58.58	99.33	76.35	-25.2	-24.5	17.6	0	68	2273
2025-01-21 11:34:58.98	98.60	76.45	-25.1	-24.3	17.8	0	68	2238
2025-01-21 11:34:59.39	97.84	76.56	-24.9	-24.0	17.9	0	68	2203
2025-01-21 11:34:59.79	97.08	76.65	-25.0	-24.1	17.8	0	68	2215
2025-01-21 11:35:00.19	96.32	76.75	-25.0	-24.0	17.8	0	68	2206
2025-01-21 11:35:00.59	95.54	76.85	-25.0	-24.0	17.8	0	68	2202
2025-01-21 11:35:01.00	94.73	76.94	-25.0	-24.0	17.9	0	68	2204
2025-01-21 11:35:01.40	93.93	77.03	-24.9	-23.8	17.9	0	68	2177
2025-01-21 11:35:01.80	93.12	77.12	-24.4	-23.5	18.1	0	67	2199
2025-01-21 11:35:02.20	92.30	77.20	-24.3	-23.2	18.2	0	67	2167
2025-01-21 11:35:02.61	91.44	77.28	-24.3	-23.2	18.3	0	67	2164
2025-01-21 11:35:03.01	90.60	77.36	-24.3	-23.2	18.3	0	67	2167
2025-01-21 11:35:03.41	89.74	77.44	-24.4	-23.4	18.2	0	67	2188
2025-01-21 11:35:03.81	88.87	77.51	-24.6	-23.7	18.1	0	67	2224
2025-01-21 11:35:04.22	87.98	77.58	-24.7	-24.0	17.9	0	67	2270
2025-01-21 11:35:04.62	87.09	77.65	-24.8	-24.2	17.9	0	67	2297
2025-01-21 11:35:05.02	86.19	77.72	-24.9	-24.5	17.8	0	67	2331
2025-01-21 11:35:05.42	85.29	77.78	-25.0	-24.6	17.7	0	67	2355
2025-01-21 11:35:05.82	84.37	77.84	-25.1	-24.7	17.7	0	67	2366
2025-01-21 11:35:06.23	83.42	77.90	-25.2	-25.0	17.6	0	67	2404
2025-01-21 11:35:06.63	82.49	77.95	-25.1	-24.9	17.6	0	67	2385
2025-01-21 11:35:07.03	81.55	78.00	-25.2	-25.0	17.6	0	67	2398
2025-01-21 11:35:07.43	80.60	78.04	-25.4	-25.3	17.4	0	67	2450
2025-01-21 11:35:07.83	79.64	78.09	-25.4	-25.5	17.3	0	67	2469
2025-01-21 11:35:08.24	78.66	78.13	-25.8	-25.8	17.2	0	68	2448
2025-01-21 11:35:08.64	77.69	78.17	-25.9	-26.0	17.1	0	68	2476
2025-01-21 11:35:09.04	76.71	78.20	-25.9	-25.8	17.2	0	68	2451
2025-01-21 11:35:09.44	75.73	78.23	-25.7	-25.5	17.3	0	68	2412
2025-01-21 11:35:09.85	74.72	78.26	-25.6	-25.2	17.5	0	68	2366
2025-01-21 11:35:10.25	73.73	78.28	-25.5	-25.1	17.5	0	68	2354
2025-01-21 11:35:10.65	72.73	78.30	-25.5	-25.1	17.5	0	68	2350
2025-01-21 11:35:11.05	71.74	78.31	-25.5	-25.1	17.6	0	68	2352
2025-01-21 11:35:11.46	70.71	78.33	-25.5	-25.2	17.6	0	68	2362
2025-01-21 11:35:11.86	69.71	78.34	-25.6	-25.3	17.5	0	68	2377
2025-01-21 11:35:12.26	68.71	78.34	-25.6	-25.3	17.4	0	68	2378
2025-01-21 11:35:12.66	67.71	78.34	-25.6	-25.2	17.4	0	68	2361
2025-01-21 11:35:13.06	66.70	78.34	-25.6	-25.3	17.4	0	68	2372
2025-01-21 11:35:13.47	65.67	78.34	-25.7	-25.5	17.3	0	68	2405
2025-01-21 11:35:13.87	64.67	78.33	-25.8	-25.7	17.2	0	68	2438
2025-01-21 11:35:14.27	63.67	78.32	-25.9	-25.3	17.1	0	69	2314
2025-01-21 11:35:14.67	62.67	78.30	-26.0	-25.7	17.0	0	69	2363
2025-01-21 11:35:15.08	61.66	78.28	-26.1	-25.7	16.9	0	69	2369
2025-01-21 11:35:15.48	60.66	78.26	-26.1	-25.7	16.9	0	69	2369
2025-01-21 11:35:15.88	59.68	78.23	-26.1	-25.9	16.8	0	69	2387
2025-01-21 11:35:16.28	58.70	78.21	-26.3	-26.2	16.6	0	69	2437
2025-01-21 11:35:16.69	57.70	78.17	-26.4	-26.4	16.4	0	69	2460
2025-01-21 11:35:17.09	56.72	78.14	-26.4	-26.4	16.4	0	69	2463
2025-01-21 11:35:17.49	55.76	78.10	-26.3	-26.3	16.5	0	69	2445
2025-01-21 11:35:17.89	54.80	78.05	-26.4	-26.3	16.5	0	69	2450
2025-01-21 11:35:18.30	53.83	78.01	-26.3	-26.2	16.6	0	69	2426
2025-01-21 11:35:18.70	52.89	77.96	-26.2	-25.9	16.6	0	69	2392
2025-01-21 11:35:19.10	51.95	77.91	-26.1	-25.8	16.7	0	69	2372
2025-01-21 11:35:19.50	51.03	77.85	-26.1	-25.8	16.7	0	69	2371
2025-01-21 11:35:19.90	50.11	77.79	-26.2	-26.0	16.6	0	69	2402
2025-01-21 11:35:20.31	49.18	77.73	-26.2	-26.1	16.5	0	69	2413
2025-01-21 11:35:20.71	48.28	77.66	-26.3	-26.2	16.5	0	69	2429
2025-01-21 11:35:21.11	47.39	77.60	-26.3	-26.2	16.5	0	69	2425
2025-01-21 11:35:21.51	46.51	77.53	-26.2	-26.0	16.6	0	69	2395
2025-01-21 11:35:21.92	45.63	77.45	-26.1	-25.8	16.6	0	69	2381
2025-01-21 11:35:22.32	44.77	77.38	-26.1	-25.7	16.6	0	69	2359
2025-01-21 11:35:22.72	43.92	77.30	-26.0	-25.7	16.6	0	69	2360
2025-01-21 11:35:23.12	43.09	77.22	-26.2	-25.9	16.5	0	69	2397
2025-01-21 11:35:23.53	42.24	77.13	-26.2	-25.9	16.5	0	69	2396
2025-01-21 11:35:23.93	41.43	77.04	-26.1	-25.8	16.6	0	69	2380
2025-01-21 11:35:24.33	40.63	76.96	-26.1	-25.8	16.6	0	69	2379
2025-01-21 11:35:24.73	39.84	76.86	-26.1	-25.7	16.6	0	69	2365
2025-01-21 11:35:25.14	39.04	76.77	-26.0	-25.5	16.7	0	69	2331
2025-01-21 11:35:25.54	38.27	76.67	-26.0	-25.6	16.7	0	69	2341
2025-01-21 11:35:25.94	37.52	76.57	-26.2	-25.9	16.5	0	69	2392
2025-01-21 11:35:26.34	36.77	76.47	-26.2	-26.1	16.5	0	69	2421
2025-01-21 11:35:26.74	36.04	76.37	-26.4	-26.3	16.4	0	69	2455
2025-01-21 11:35:27.15	35.30	76.27	-27.0	-26.7	16.3	0	70	2374
2025-01-21 11:35:27.55	34.59	76.16	-26.6	-26.3	16.3	0	70	2376
2025-01-21 11:35:27.95	33.89	76.05	-26.6	-26.3	16.3	0	70	2387
2025-01-21 11:35:28.35	33.20	75.94	-26.6	-26.3	16.4	0	70	2380
2025-01-21 11:35:28.76	32.51	75.83	-26.5	-26.2	16.5	0	70	2366
2025-01-21 11:35:29.16	31.85	75.71	-26.4	-26.1	16.5	0	70	2354
2025-01-21 11:35:29.56	31.19	75.60	-26.5	-26.2	16.6	0	70	2367
2025-01-21 11:35:29.96	30.55	75.48	-26.5	-26.2	16.6	0	70	2376
2025-01-21 11:35:30.36	29.92	75.36	-26.6	-26.3	16.7	0	70	2385
2025-01-21 11:35:30.77	29.28	75.24	-26.7	-26.5	16.6	0	70	2421
2025-01-21 11:35:31.17	28.67	75.11	-26.8	-26.7	16.5	0	70	2446
2025-01-21 11:35:31.57	28.07	74.99	-26.8	-26.9	16.4	0	70	2466
2025-01-21 11:35:31.97	27.48	74.86	-26.8	-26.8	16.4	0	70	2456
2025-01-21 11:35:32.37	26.90	74.74	-26.8	-26.7	16.5	0	70	2436
2025-01-21 11:35:32.78	26.32	74.61	-26.8	-26.8	16.5	0	70	2460
2025-01-21 11:35:33.18	25.76	74.48	-26.9	-27.0	16.4	0	70	2480
2025-01-21 11:35:33.58	25.21	74.35	-27.0	-27.2	16.3	0	70	2518
2025-01-21 11:35:33.98	24.67	74.22	-27.0	-26.8	16.3	0	71	2391
2025-01-21 11:35:34.39	24.12	74.08	-27.1	-26.9	16.2	0	71	2407
2025-01-21 11:35:34.79	23.60	73.95	-27.1	-26.9	16.2	0	71	2410
2025-01-21 11:35:35.19	23.09	73.81	-27.0	-26.7	16.3	0	71	2380
2025-01-21 11:35:35.59	22.58	73.67	-26.9	-26.6	16.3	0	71	2360
2025-01-21 11:35:36.00	22.08	73.53	-27.0	-26.6	16.3	0	71	2369
2025-01-21 11:35:36.40	21.59	73.40	-26.8	-26.3	16.4	0	71	2317
2025-01-21 11:35:36.80	21.11	73.26	-26.8	-26.2	16.4	0	71	2309
2025-01-21 11:35:37.20	20.64	73.12	-26.8	-26.4	16.3	0	71	2328
2025-01-21 11:35:37.60	20.18	72.97	-27.0	-26.6	16.1	0	71	2370
2025-01-21 11:35:38.01	19.72	72.83	-27.1	-26.8	15.9	0	71	2390
2025-01-21 11:35:38.41	19.27	72.69	-26.9	-26.6	16.0	0	71	2356
2025-01-21 11:35:38.81	18.84	72.54	-26.9	-26.4	16.0	0	71	2334
2025-01-21 11:35:39.21	18.41	72.40	-26.7	-26.1	16.0	0	71	2284
2025-01-21 11:35:39.62	17.97	72.25	-26.5	-25.6	16.2	0	71	2223
2025-01-21 11:35:40.02	17.56	72.10	-26.4	-25.3	16.3	0	71	2183
2025-01-21 11:35:40.42	17.15	71.96	-26.3	-25.7	16.3	0	70	2289
2025-01-21 11:35:40.82	16.75	71.81	-26.5	-26.0	16.1	0	70	2335
2025-01-21 11:35:41.22	16.36	71.66	-26.6	-26.3	16.0	0	70	2371
2025-01-21 11:35:41.63	15.96	71.51	-26.7	-26.5	15.9	0	70	2405
2025-01-21 11:35:42.03	15.58	71.36	-26.9	-26.9	15.7	0	70	2469
2025-01-21 11:35:42.43	15.21	71.21	-27.0	-26.6	15.5	0	71	2365
2025-01-21 11:35:42.83	14.84	71.06	-27.3	-27.2	15.3	0	71	2440
2025-01-21 11:35:43.24	14.47	70.91	-27.4	-27.6	15.2	0	71	2507
2025-01-21 11:35:43.64	14.11	70.76	-27.6	-27.4	15.3	0	72	2408
2025-01-21 11:35:44.04	13.76	70.61	-27.6	-27.4	15.4	0	72	2410
2025-01-21 11:35:44.44	13.42	70.45	-34.9	-35.9	6.4	346103	86	2756
2025-01-21 11:35:44.85	13.07	70.30	-38.8	-43.5	3.6	5554092	94	4226

#Closed at: 2025-01-21 11:35:45