passes_logs/2025/01/21/XPeterburg/XPeterburg__20250121_144057_FENGYUN_3E_rec.log

#Pass ID: 20250121_144057_FENGYUN 3E
#Satellite: FENGYUN 3E
#Configuration: FENGYUN 3E
#Start time: 2025-01-21 14:40:51

#Version: 1.5.20200625
#Station: XPeterburg
#Location: 30.318091 lon 59.932769 lat
#TLE: 1 49008U 21062A   25021.17752191  .00000106  00000+0  70512-4 0  9990
#TLE: 2 49008  98.7401  25.6156 0002537 110.9136 249.2312 14.19834376183927

#Time	Az	El	Level	Level2	SNR	BER	Gain	Gain2
2025-01-21 14:40:51.83	173.68	67.51	-37.7	-39.2	3.3	8395099	93	5828
2025-01-21 14:40:52.24	173.80	67.69	-37.0	-48.1	3.6	8386585	73	17788
2025-01-21 14:40:52.64	173.91	67.87	-37.6	-39.2	3.4	8398693	92	5954
2025-01-21 14:40:53.04	174.02	68.05	-37.6	-40.4	3.6	8410423	92	6799
2025-01-21 14:40:53.44	174.14	68.23	-37.6	-39.4	3.4	8402103	92	6044
2025-01-21 14:40:53.84	174.26	68.40	-37.6	-41.0	3.6	8437980	92	7215
2025-01-21 14:40:54.25	174.38	68.59	-37.5	-39.0	3.4	8436435	92	5844
2025-01-21 14:40:54.65	174.50	68.77	-37.1	-39.3	3.7	8381229	92	6328
2025-01-21 14:40:55.05	174.62	68.95	-36.6	-36.9	4.0	8357391	91	5073
2025-01-21 14:40:55.45	174.75	69.13	-35.6	-35.3	4.8	7950210	89	4745
2025-01-21 14:40:55.85	174.88	69.31	-34.7	-34.4	5.7	5399150	87	4727
2025-01-21 14:40:56.26	175.01	69.49	-33.6	-33.0	6.9	2910221	85	4591
2025-01-21 14:40:56.66	175.15	69.67	-32.6	-32.0	8.1	1053371	83	4606
2025-01-21 14:40:57.06	175.29	69.85	-31.6	-30.9	9.3	315685	81	4551
2025-01-21 14:40:57.46	175.42	70.03	-31.1	-31.1	9.8	44403	79	4912
2025-01-21 14:40:57.87	175.57	70.22	-29.8	-28.8	11.5	60470	78	4376
2025-01-21 14:40:58.27	175.71	70.40	-29.3	-28.3	12.1	6912	77	4385
2025-01-21 14:40:58.67	175.86	70.58	-29.4	-28.5	12.0	3890	77	4427
2025-01-21 14:40:59.07	176.01	70.76	-29.6	-28.9	11.8	4165	77	4541
2025-01-21 14:40:59.48	176.17	70.95	-29.6	-28.9	11.8	4199	77	4531
2025-01-21 14:40:59.88	176.33	71.13	-29.7	-29.2	11.7	5161	77	4614
2025-01-21 14:41:00.28	176.49	71.31	-29.9	-29.4	11.5	8377	77	4676
2025-01-21 14:41:00.68	176.65	71.50	-30.0	-29.7	11.3	11066	77	4777
2025-01-21 14:41:01.08	176.82	71.68	-30.2	-30.1	11.2	12874	77	4881
2025-01-21 14:41:01.49	176.99	71.87	-30.3	-30.3	11.1	13664	77	4910
2025-01-21 14:41:01.89	177.16	72.05	-29.9	-29.5	11.4	13778	77	4686
2025-01-21 14:41:02.29	177.34	72.23	-30.0	-29.7	11.3	11924	77	4761
2025-01-21 14:41:02.69	177.52	72.42	-30.3	-30.4	10.9	14671	77	4959
2025-01-21 14:41:03.10	177.71	72.60	-29.7	-29.1	11.6	17772	77	4572
2025-01-21 14:41:03.50	177.90	72.79	-29.8	-29.2	11.6	8697	77	4613
2025-01-21 14:41:03.90	178.10	72.97	-29.9	-29.3	11.6	9166	77	4626
2025-01-21 14:41:04.30	178.30	73.16	-30.0	-29.6	11.4	10597	77	4697
2025-01-21 14:41:04.71	178.50	73.34	-30.0	-29.6	11.4	11993	77	4719
2025-01-21 14:41:05.11	178.71	73.53	-30.2	-30.0	11.2	13172	77	4825
2025-01-21 14:41:05.51	178.92	73.71	-30.4	-29.9	11.0	16033	78	4658
2025-01-21 14:41:05.91	179.14	73.90	-30.6	-30.5	10.8	21114	78	4823
2025-01-21 14:41:06.32	179.37	74.09	-30.8	-30.7	10.7	27053	78	4870
2025-01-21 14:41:06.72	179.60	74.27	-30.9	-31.1	10.5	31322	78	5003
2025-01-21 14:41:07.12	179.83	74.45	-30.9	-31.0	10.5	40580	78	4977
2025-01-21 14:41:07.52	180.07	74.64	-30.9	-31.0	10.5	37147	78	4993
2025-01-21 14:41:07.93	180.33	74.83	-30.9	-31.2	10.6	24879	78	5082
2025-01-21 14:41:08.33	180.58	75.01	-30.7	-30.0	10.9	26058	79	4575
2025-01-21 14:41:08.73	180.84	75.20	-30.7	-30.1	10.9	22670	79	4611
2025-01-21 14:41:09.13	181.10	75.38	-30.4	-29.6	11.3	17509	79	4483
2025-01-21 14:41:09.53	181.37	75.56	-30.4	-29.6	11.4	14202	79	4501
2025-01-21 14:41:09.94	181.66	75.75	-30.7	-30.2	11.1	13950	79	4648
2025-01-21 14:41:10.34	181.95	75.94	-30.6	-29.9	11.2	16983	79	4558
2025-01-21 14:41:10.74	182.24	76.12	-30.7	-30.1	11.2	15048	79	4634
2025-01-21 14:41:11.14	182.55	76.31	-30.7	-30.2	11.0	15243	79	4645
2025-01-21 14:41:11.54	182.86	76.49	-30.7	-30.2	11.0	16376	79	4643
2025-01-21 14:41:11.95	183.19	76.68	-30.7	-30.2	10.9	17829	79	4636
2025-01-21 14:41:12.35	183.52	76.86	-30.4	-29.7	11.3	17555	79	4523
2025-01-21 14:41:12.75	183.86	77.04	-30.5	-30.2	11.4	13572	78	4760
2025-01-21 14:41:13.15	184.21	77.23	-30.6	-30.4	11.2	11936	78	4845
2025-01-21 14:41:13.55	184.57	77.41	-30.4	-30.0	11.4	13881	78	4723
2025-01-21 14:41:13.96	184.95	77.60	-30.4	-30.0	11.3	11432	78	4701
2025-01-21 14:41:14.36	185.33	77.78	-30.2	-29.7	11.5	12485	78	4616
2025-01-21 14:41:14.76	185.73	77.96	-30.2	-29.6	11.5	9944	78	4585
2025-01-21 14:41:15.16	186.13	78.14	-30.3	-29.9	11.3	10334	78	4663
2025-01-21 14:41:15.57	186.56	78.33	-30.2	-29.5	11.5	10951	78	4560
2025-01-21 14:41:15.97	187.00	78.51	-30.1	-29.3	11.5	9464	78	4530
2025-01-21 14:41:16.37	187.45	78.69	-30.1	-29.4	11.6	9189	78	4547
2025-01-21 14:41:16.77	187.91	78.87	-29.9	-29.0	11.8	5218	78	4425
2025-01-21 14:41:17.17	188.39	79.05	-29.8	-29.2	12.0	4577	77	4619
2025-01-21 14:41:17.58	188.89	79.23	-29.7	-29.0	12.2	3479	77	4563
2025-01-21 14:41:17.98	189.40	79.41	-29.5	-28.7	12.4	2048	77	4490
2025-01-21 14:41:18.38	189.93	79.58	-29.6	-28.8	12.3	2883	77	4498
2025-01-21 14:41:18.78	190.48	79.76	-29.7	-29.1	12.2	2414	77	4561
2025-01-21 14:41:19.18	191.05	79.93	-29.9	-29.5	12.0	2883	77	4674
2025-01-21 14:41:19.59	191.65	80.11	-29.9	-29.5	11.9	4062	77	4691
2025-01-21 14:41:19.99	192.26	80.29	-29.9	-29.5	11.9	4634	77	4688
2025-01-21 14:41:20.39	192.89	80.46	-29.6	-28.9	12.2	3181	77	4520
2025-01-21 14:41:20.79	193.54	80.63	-29.4	-28.3	12.5	2185	77	4368
2025-01-21 14:41:21.19	194.22	80.80	-29.4	-28.3	12.5	1430	77	4376
2025-01-21 14:41:21.59	194.93	80.97	-29.6	-28.8	12.3	1716	77	4479
2025-01-21 14:41:22.00	195.68	81.14	-29.7	-29.0	12.1	2574	77	4545
2025-01-21 14:41:22.40	196.44	81.31	-30.2	-30.1	11.5	3787	77	4837
2025-01-21 14:41:22.80	197.24	81.48	-30.3	-29.8	11.4	9223	78	4618
2025-01-21 14:41:23.20	198.06	81.64	-30.6	-30.3	11.1	15918	78	4769
2025-01-21 14:41:23.61	198.94	81.81	-30.8	-30.8	10.9	19660	78	4907
2025-01-21 14:41:24.01	199.83	81.97	-30.5	-30.2	11.2	17326	78	4745
2025-01-21 14:41:24.41	200.76	82.12	-30.5	-30.1	11.3	16628	78	4695
2025-01-21 14:41:24.81	201.73	82.28	-30.4	-29.9	11.4	10917	78	4639
2025-01-21 14:41:25.22	202.76	82.44	-30.4	-29.9	11.4	8434	78	4675
2025-01-21 14:41:25.62	203.81	82.59	-30.3	-29.7	11.6	10540	78	4593
2025-01-21 14:41:26.02	204.90	82.74	-30.5	-30.2	11.3	9933	78	4762
2025-01-21 14:41:26.42	206.04	82.89	-30.6	-30.4	11.2	13801	78	4781
2025-01-21 14:41:26.82	207.23	83.03	-30.9	-31.0	10.9	17395	78	4968
2025-01-21 14:41:27.23	208.50	83.18	-30.8	-30.9	11.0	21423	78	4938
2025-01-21 14:41:27.63	209.79	83.31	-30.8	-30.7	11.1	19409	78	4873
2025-01-21 14:41:28.03	211.13	83.45	-30.8	-30.7	11.1	17623	78	4849
2025-01-21 14:41:28.43	212.53	83.58	-30.6	-30.4	11.4	14476	78	4807
2025-01-21 14:41:28.83	213.99	83.70	-30.6	-30.3	11.5	10128	78	4775
2025-01-21 14:41:29.24	215.55	83.83	-30.5	-30.0	11.6	10826	78	4690
2025-01-21 14:41:29.64	217.13	83.95	-30.7	-30.5	11.3	9647	78	4804
2025-01-21 14:41:30.04	218.77	84.06	-30.9	-31.1	11.1	13114	78	5003
2025-01-21 14:41:30.44	220.47	84.17	-30.8	-30.6	11.2	16513	78	4847
2025-01-21 14:41:30.85	222.28	84.27	-30.9	-31.0	11.0	20473	78	4972
2025-01-21 14:41:31.25	224.11	84.37	-31.0	-30.7	10.8	22247	79	4731
2025-01-21 14:41:31.65	226.01	84.46	-31.1	-30.9	10.8	25886	79	4805
2025-01-21 14:41:32.05	227.96	84.55	-31.2	-31.0	10.7	28633	79	4846
2025-01-21 14:41:32.45	229.98	84.63	-31.2	-31.1	10.6	30899	79	4868
2025-01-21 14:41:32.86	232.10	84.70	-31.1	-30.8	10.7	30681	79	4763
2025-01-21 14:41:33.26	234.23	84.76	-31.2	-31.0	10.6	36014	79	4832
2025-01-21 14:41:33.66	236.41	84.82	-31.0	-30.5	10.8	30727	79	4692
2025-01-21 14:41:34.06	238.63	84.87	-31.0	-30.7	10.8	30441	79	4741
2025-01-21 14:41:34.46	240.90	84.91	-30.9	-30.5	10.9	26367	79	4691
2025-01-21 14:41:34.87	243.25	84.95	-30.9	-30.5	10.9	25463	79	4713
2025-01-21 14:41:35.27	245.58	84.97	-30.9	-30.3	10.9	22968	79	4634
2025-01-21 14:41:35.67	247.93	84.99	-30.9	-30.6	10.9	26641	79	4717
2025-01-21 14:41:36.07	250.29	85.00	-31.1	-30.7	10.7	24604	79	4731
2025-01-21 14:41:36.47	252.65	85.00	-31.1	-30.7	10.8	29365	79	4743
2025-01-21 14:41:36.88	255.06	84.99	-31.1	-30.8	10.8	26035	79	4772
2025-01-21 14:41:37.28	257.41	84.97	-30.9	-30.4	11.0	26172	79	4644
2025-01-21 14:41:37.68	259.74	84.95	-30.7	-30.1	11.1	23620	79	4560
2025-01-21 14:41:38.08	262.04	84.92	-30.8	-30.3	11.0	22705	79	4603
2025-01-21 14:41:38.48	264.30	84.87	-30.6	-29.8	11.2	18871	79	4474
2025-01-21 14:41:38.89	266.59	84.82	-30.7	-30.0	11.1	15998	79	4541
2025-01-21 14:41:39.29	268.77	84.77	-30.5	-29.8	11.3	15243	79	4506
2025-01-21 14:41:39.69	270.90	84.70	-30.6	-29.9	11.2	14064	79	4548
2025-01-21 14:41:40.09	272.97	84.63	-30.8	-30.2	11.0	15975	79	4604
2025-01-21 14:41:40.49	274.99	84.55	-30.8	-30.2	11.0	19386	79	4592
2025-01-21 14:41:40.89	276.95	84.47	-31.0	-30.6	10.8	27225	79	4702
2025-01-21 14:41:41.30	278.89	84.38	-31.1	-30.9	10.7	35785	79	4777
2025-01-21 14:41:41.70	280.73	84.28	-31.1	-30.9	10.7	39756	79	4801
2025-01-21 14:41:42.10	282.50	84.18	-31.5	-31.7	10.4	37433	79	5042
2025-01-21 14:41:42.50	284.20	84.07	-31.4	-31.5	10.5	42285	79	4979
2025-01-21 14:41:42.91	285.89	83.95	-31.4	-31.5	10.3	51475	79	4979
2025-01-21 14:41:43.31	287.47	83.83	-31.5	-31.1	10.5	50868	80	4730
2025-01-21 14:41:43.71	288.99	83.71	-31.5	-31.3	10.4	46737	80	4778
2025-01-21 14:41:44.11	290.45	83.59	-31.7	-31.7	10.1	51097	80	4931
2025-01-21 14:41:44.51	291.85	83.46	-31.4	-31.1	10.5	52814	80	4735
2025-01-21 14:41:44.92	293.24	83.32	-31.2	-30.6	10.8	34046	80	4606
2025-01-21 14:41:45.32	294.53	83.18	-31.3	-30.7	10.7	36998	80	4627
2025-01-21 14:41:45.72	295.77	83.04	-31.1	-30.5	10.9	28930	80	4583
2025-01-21 14:41:46.12	296.96	82.90	-31.5	-31.2	10.5	28072	80	4789
2025-01-21 14:41:46.52	298.10	82.75	-31.0	-30.1	11.0	24421	80	4443
2025-01-21 14:41:46.93	299.22	82.60	-30.8	-29.7	11.2	18493	80	4337
2025-01-21 14:41:47.33	300.28	82.45	-30.5	-29.7	11.3	15804	79	4477
2025-01-21 14:41:47.73	301.29	82.29	-30.5	-29.7	11.3	12714	79	4493
2025-01-21 14:41:48.13	302.25	82.14	-30.7	-30.0	11.1	11856	79	4537
2025-01-21 14:41:48.54	303.21	81.97	-30.4	-29.4	11.4	15975	79	4382
2025-01-21 14:41:48.94	304.10	81.81	-30.4	-29.3	11.3	13492	79	4365
2025-01-21 14:41:49.34	304.96	81.65	-30.3	-29.8	11.5	13069	78	4637
2025-01-21 14:41:49.74	305.79	81.49	-30.2	-29.4	11.7	9315	78	4505
2025-01-21 14:41:50.14	306.58	81.32	-29.9	-28.9	12.0	4394	78	4378
2025-01-21 14:41:50.54	307.34	81.16	-29.5	-28.7	12.5	3479	77	4490
2025-01-21 14:41:50.95	308.10	80.98	-29.7	-29.6	12.4	2346	76	4865
2025-01-21 14:41:51.35	308.80	80.82	-29.6	-29.4	12.4	1979	76	4776
2025-01-21 14:41:51.75	309.48	80.65	-29.6	-29.4	12.4	1853	76	4785
2025-01-21 14:41:52.15	310.14	80.47	-29.9	-30.1	12.1	2414	76	5047
2025-01-21 14:41:52.55	310.77	80.30	-30.0	-29.8	11.8	3330	77	4776
2025-01-21 14:41:52.96	311.40	80.12	-30.0	-29.7	12.0	4909	77	4742
2025-01-21 14:41:53.36	311.99	79.95	-30.1	-29.8	11.9	7232	77	4799
2025-01-21 14:41:53.76	312.56	79.77	-30.4	-30.5	11.7	5722	77	4992
2025-01-21 14:41:54.16	313.10	79.60	-30.9	-31.1	11.1	8480	78	5063
2025-01-21 14:41:54.56	313.63	79.42	-30.8	-30.4	11.1	7209	79	4693
2025-01-21 14:41:54.97	314.16	79.24	-30.4	-29.5	11.6	13034	79	4460
2025-01-21 14:41:55.37	314.65	79.06	-30.1	-29.5	12.1	7942	78	4568
2025-01-21 14:41:55.77	315.13	78.88	-30.1	-29.4	12.2	4142	78	4550
2025-01-21 14:41:56.17	315.60	78.70	-30.0	-29.4	12.2	4234	78	4558
2025-01-21 14:41:56.58	316.05	78.52	-29.8	-29.0	12.4	2380	78	4451
2025-01-21 14:41:56.98	316.49	78.34	-29.7	-29.3	12.4	1396	77	4649
2025-01-21 14:41:57.38	316.91	78.16	-29.5	-28.7	12.6	1075	77	4497
2025-01-21 14:41:57.78	317.32	77.98	-29.4	-28.5	12.6	1007	77	4438
2025-01-21 14:41:58.18	317.71	77.79	-29.4	-28.9	12.6	812	76	4661
2025-01-21 14:41:58.59	318.10	77.61	-29.4	-28.9	12.6	1029	76	4653
2025-01-21 14:41:58.99	318.48	77.43	-29.6	-29.4	12.2	2265	76	4778
2025-01-21 14:41:59.39	318.84	77.24	-29.8	-29.8	11.9	2563	76	4925
2025-01-21 14:41:59.79	319.19	77.06	-29.9	-29.4	11.8	4440	77	4672
2025-01-21 14:42:00.19	319.53	76.88	-29.9	-29.5	11.8	7186	77	4671
2025-01-21 14:42:00.60	319.87	76.69	-30.2	-29.9	11.5	11695	77	4803
2025-01-21 14:42:01.00	320.19	76.51	-30.3	-30.3	11.4	12348	77	4894
2025-01-21 14:42:01.40	320.50	76.32	-30.4	-29.9	11.3	15678	78	4651
2025-01-21 14:42:01.80	320.81	76.14	-30.4	-30.0	11.2	16834	78	4679
2025-01-21 14:42:02.21	321.11	75.95	-30.6	-30.4	10.9	25279	78	4779
2025-01-21 14:42:02.61	321.40	75.77	-30.6	-30.4	10.9	23094	78	4787
2025-01-21 14:42:03.01	321.68	75.58	-30.6	-30.3	10.9	20896	78	4757
2025-01-21 14:42:03.41	321.95	75.40	-30.6	-30.3	10.9	27568	78	4751
2025-01-21 14:42:03.81	322.22	75.22	-31.0	-31.2	10.5	25257	78	5050
2025-01-21 14:42:04.22	322.48	75.03	-30.6	-30.2	10.9	27122	78	4739
2025-01-21 14:42:04.62	322.73	74.84	-30.8	-30.8	10.6	24673	78	4890
2025-01-21 14:42:05.02	322.98	74.66	-30.8	-30.3	10.5	40821	79	4621
2025-01-21 14:42:05.42	323.22	74.48	-31.0	-30.6	10.4	41210	79	4709
2025-01-21 14:42:05.83	323.46	74.29	-31.1	-30.9	10.3	59783	79	4818
2025-01-21 14:42:06.23	323.69	74.10	-31.4	-31.5	10.0	71079	79	4981
2025-01-21 14:42:06.63	323.91	73.92	-31.8	-31.9	9.7	96748	80	4950
2025-01-21 14:42:07.03	324.13	73.74	-31.9	-31.5	9.6	150375	81	4720
2025-01-21 14:42:07.43	324.34	73.55	-32.4	-32.7	8.9	206829	81	5090
2025-01-21 14:42:07.84	324.56	73.36	-32.6	-32.5	8.7	340175	82	4856
2025-01-21 14:42:08.24	324.76	73.18	-32.7	-32.8	8.5	350097	82	4956
2025-01-21 14:42:08.64	324.96	73.00	-32.5	-32.4	8.7	428741	82	4867
2025-01-21 14:42:09.04	325.15	72.81	-32.4	-32.1	8.9	370273	82	4751
2025-01-21 14:42:09.44	325.34	72.63	-32.5	-32.2	8.8	300945	82	4792
2025-01-21 14:42:09.85	325.53	72.44	-32.6	-32.4	8.6	382347	82	4821
2025-01-21 14:42:10.25	325.72	72.26	-32.7	-32.6	8.5	402511	82	4893
2025-01-21 14:42:10.65	325.89	72.08	-32.7	-32.8	8.3	455394	82	4935
2025-01-21 14:42:11.05	326.07	71.89	-32.9	-32.6	7.8	691738	83	4746
2025-01-21 14:42:11.46	326.24	71.71	-33.2	-33.3	7.4	890361	83	4962
2025-01-21 14:42:11.86	326.41	71.52	-33.5	-33.4	6.9	1017700	84	4849
2025-01-21 14:42:12.26	326.57	71.34	-33.4	-33.1	7.1	1324573	84	4774
2025-01-21 14:42:12.66	326.73	71.16	-33.5	-33.4	6.9	1955039	84	4823
2025-01-21 14:42:13.06	326.89	70.98	-33.4	-33.0	6.9	1681983	84	4706
2025-01-21 14:42:13.47	327.05	70.79	-38.6	-42.7	3.6	3465419	94	7928
2025-01-21 14:42:13.87	327.20	70.61	-39.0	-41.6	3.3	8395156	95	6644
2025-01-21 14:42:14.27	327.35	70.43	-38.8	-42.8	3.6	8405651	95	7759

#Closed at: 2025-01-21 14:42:14