passes_logs/2025/01/21/XPeterburg/XPeterburg__20250121_014154_FENGYUN_3D_rec.log

#Pass ID: 20250121_014154_FENGYUN 3D
#Satellite: FENGYUN 3D
#Configuration: FENGYUN 3D
#Start time: 2025-01-21 01:41:48

#Version: 1.5.20200625
#Station: XPeterburg
#Location: 30.318091 lon 59.932769 lat
#TLE: 1 43010U 17072A   25020.13154983  .00000312  00000+0  16958-3 0  9995
#TLE: 2 43010  98.9429 342.4118 0002535  80.2667 279.8795 14.19547046372198

#Time	Az	El	Level	Level2	SNR	BER	Gain	Gain2
2025-01-21 01:41:48.47	43.00	67.52	-39.0	-42.0	3.3	8385429	96	3444
2025-01-21 01:41:48.88	43.23	67.69	-38.6	-53.6	3.5	7524009	73	13837
2025-01-21 01:41:49.28	43.45	67.85	-38.9	-42.8	3.3	8397480	94	3821
2025-01-21 01:41:49.68	43.67	68.01	-39.1	-44.0	3.6	8381721	95	4333
2025-01-21 01:41:50.08	43.90	68.18	-39.1	-42.6	3.3	8435783	95	3670
2025-01-21 01:41:50.48	44.13	68.34	-39.1	-43.9	3.6	8424030	95	4281
2025-01-21 01:41:50.89	44.38	68.51	-39.0	-42.2	3.3	8434055	95	3548
2025-01-21 01:41:51.29	44.62	68.67	-38.8	-43.1	3.6	8402069	95	4033
2025-01-21 01:41:51.69	44.86	68.83	-38.6	-40.7	3.3	8413455	95	3144
2025-01-21 01:41:52.09	45.11	69.00	-37.8	-40.2	3.6	8390510	94	3251
2025-01-21 01:41:52.49	45.36	69.16	-37.0	-37.6	4.2	8299896	92	2634
2025-01-21 01:41:52.90	45.63	69.33	-35.8	-35.8	5.4	7805625	89	2454
2025-01-21 01:41:53.30	45.89	69.49	-34.5	-33.9	7.1	5040927	87	2297
2025-01-21 01:41:53.70	46.16	69.65	-32.9	-32.2	8.8	773654	84	2260
2025-01-21 01:41:54.10	46.43	69.82	-31.8	-30.8	10.4	244583	82	2205
2025-01-21 01:41:54.50	46.70	69.98	-30.7	-29.7	11.7	65128	80	2175
2025-01-21 01:41:54.91	46.99	70.15	-29.8	-28.7	12.7	3868	78	2183
2025-01-21 01:41:55.31	47.27	70.31	-28.9	-28.0	13.7	789	76	2215
2025-01-21 01:41:55.71	47.56	70.47	-28.1	-27.3	14.5	0	74	2251
2025-01-21 01:41:56.11	47.86	70.63	-27.5	-26.7	15.1	11	73	2233
2025-01-21 01:41:56.51	48.16	70.79	-27.4	-26.5	15.2	11	73	2209
2025-01-21 01:41:56.91	48.47	70.95	-27.5	-26.7	15.1	0	73	2237
2025-01-21 01:41:57.32	48.79	71.12	-27.6	-26.8	15.2	0	73	2245
2025-01-21 01:41:57.72	49.10	71.28	-27.4	-26.5	15.3	0	73	2214
2025-01-21 01:41:58.12	49.43	71.44	-27.5	-26.7	15.2	0	73	2233
2025-01-21 01:41:58.52	49.76	71.60	-27.6	-26.8	15.2	0	73	2257
2025-01-21 01:41:58.92	50.09	71.76	-27.7	-27.0	15.2	0	73	2281
2025-01-21 01:41:59.32	50.43	71.92	-27.7	-27.0	15.2	0	73	2283
2025-01-21 01:41:59.73	50.79	72.08	-27.6	-26.9	15.4	0	73	2264
2025-01-21 01:42:00.13	51.15	72.24	-27.5	-26.7	15.5	0	73	2236
2025-01-21 01:42:00.53	51.51	72.40	-27.4	-26.5	15.7	0	73	2209
2025-01-21 01:42:00.93	51.88	72.56	-27.5	-26.6	15.7	0	73	2227
2025-01-21 01:42:01.33	52.25	72.72	-27.5	-26.7	15.6	0	73	2250
2025-01-21 01:42:01.74	52.64	72.88	-27.8	-27.2	15.4	0	73	2314
2025-01-21 01:42:02.14	53.03	73.03	-28.0	-27.7	15.2	0	73	2381
2025-01-21 01:42:02.54	53.43	73.19	-28.0	-27.8	15.2	0	73	2397
2025-01-21 01:42:02.94	53.84	73.35	-27.9	-27.6	15.3	11	73	2366
2025-01-21 01:42:03.34	54.25	73.50	-27.7	-27.1	15.6	0	73	2300
2025-01-21 01:42:03.75	54.68	73.66	-27.6	-26.8	15.8	0	73	2260
2025-01-21 01:42:04.15	55.11	73.81	-27.6	-26.8	15.7	0	73	2262
2025-01-21 01:42:04.55	55.55	73.96	-27.7	-27.1	15.6	0	73	2298
2025-01-21 01:42:04.95	56.00	74.12	-28.0	-27.7	15.3	0	73	2377
2025-01-21 01:42:05.35	56.46	74.27	-28.2	-28.0	15.1	0	73	2431
2025-01-21 01:42:05.76	56.93	74.42	-28.2	-28.2	15.0	0	73	2453
2025-01-21 01:42:06.16	57.41	74.57	-28.1	-28.0	15.1	0	73	2419
2025-01-21 01:42:06.56	57.90	74.72	-28.0	-27.7	15.3	0	73	2376
2025-01-21 01:42:06.96	58.39	74.87	-27.8	-27.2	15.5	0	73	2314
2025-01-21 01:42:07.36	58.90	75.02	-27.6	-26.9	15.7	0	73	2267
2025-01-21 01:42:07.77	59.42	75.17	-27.5	-26.7	15.8	0	73	2242
2025-01-21 01:42:08.17	59.95	75.31	-27.4	-26.5	15.9	0	73	2211
2025-01-21 01:42:08.57	60.49	75.45	-27.3	-26.3	16.0	0	73	2189
2025-01-21 01:42:08.97	61.04	75.60	-27.4	-26.4	15.9	0	73	2202
2025-01-21 01:42:09.37	61.60	75.74	-27.4	-26.4	15.9	0	73	2200
2025-01-21 01:42:09.78	62.18	75.88	-27.3	-26.3	16.0	0	73	2187
2025-01-21 01:42:10.18	62.76	76.02	-27.3	-26.2	16.0	0	73	2182
2025-01-21 01:42:10.58	63.36	76.16	-27.3	-26.8	16.0	0	72	2320
2025-01-21 01:42:10.98	63.97	76.30	-27.3	-26.8	16.0	0	72	2316
2025-01-21 01:42:11.38	64.59	76.43	-27.2	-26.6	16.0	0	72	2295
2025-01-21 01:42:11.78	65.22	76.57	-27.2	-26.5	16.0	0	72	2282
2025-01-21 01:42:12.19	65.88	76.70	-27.1	-26.3	16.0	0	72	2250
2025-01-21 01:42:12.59	66.54	76.83	-27.0	-26.2	16.0	0	72	2234
2025-01-21 01:42:12.99	67.21	76.96	-26.9	-26.0	16.0	0	72	2211
2025-01-21 01:42:13.39	67.90	77.09	-26.8	-25.8	16.1	0	72	2185
2025-01-21 01:42:13.80	68.62	77.22	-26.8	-25.8	16.1	0	72	2175
2025-01-21 01:42:14.20	69.34	77.34	-26.8	-25.7	16.1	0	72	2173
2025-01-21 01:42:14.60	70.06	77.46	-26.8	-25.6	16.2	0	72	2163
2025-01-21 01:42:15.00	70.81	77.58	-26.6	-25.8	16.2	0	71	2248
2025-01-21 01:42:15.40	71.57	77.70	-26.6	-25.9	16.2	0	71	2252
2025-01-21 01:42:15.80	72.34	77.82	-26.6	-25.8	16.2	0	71	2245
2025-01-21 01:42:16.21	73.15	77.93	-26.5	-25.6	16.4	0	71	2214
2025-01-21 01:42:16.61	73.96	78.05	-26.3	-25.2	16.6	0	71	2170
2025-01-21 01:42:17.01	74.78	78.16	-26.3	-25.6	16.8	0	70	2285
2025-01-21 01:42:17.41	75.61	78.26	-26.3	-25.6	16.9	0	70	2283
2025-01-21 01:42:17.81	76.46	78.37	-26.3	-25.7	16.9	0	70	2300
2025-01-21 01:42:18.21	77.33	78.47	-26.3	-25.7	16.9	0	70	2295
2025-01-21 01:42:18.62	78.23	78.57	-26.2	-25.6	16.9	0	70	2281
2025-01-21 01:42:19.02	79.13	78.67	-26.1	-25.2	17.1	0	70	2234
2025-01-21 01:42:19.42	80.05	78.76	-25.9	-24.9	17.2	0	70	2192
2025-01-21 01:42:19.82	80.98	78.85	-25.9	-24.8	17.3	0	70	2186
2025-01-21 01:42:20.22	81.92	78.94	-25.8	-24.8	17.4	0	70	2180
2025-01-21 01:42:20.62	82.88	79.03	-25.7	-25.0	17.5	0	69	2273
2025-01-21 01:42:21.03	83.88	79.11	-25.6	-24.8	17.7	0	69	2251
2025-01-21 01:42:21.43	84.87	79.19	-25.4	-24.5	17.9	0	69	2205
2025-01-21 01:42:21.83	85.88	79.27	-25.3	-24.2	18.1	0	69	2170
2025-01-21 01:42:22.23	86.90	79.34	-25.3	-24.7	18.1	0	68	2303
2025-01-21 01:42:22.64	87.96	79.41	-25.4	-24.9	18.1	0	68	2320
2025-01-21 01:42:23.04	89.01	79.48	-25.6	-25.3	17.9	0	68	2381
2025-01-21 01:42:23.44	90.07	79.54	-25.8	-25.7	17.7	0	68	2446
2025-01-21 01:42:23.84	91.14	79.60	-25.8	-25.8	17.6	0	68	2457
2025-01-21 01:42:24.24	92.23	79.66	-25.8	-25.8	17.7	0	68	2448
2025-01-21 01:42:24.64	93.33	79.71	-25.7	-25.5	17.8	0	68	2414
2025-01-21 01:42:25.05	94.46	79.76	-25.7	-25.4	17.9	0	68	2402
2025-01-21 01:42:25.45	95.58	79.80	-25.7	-25.6	17.8	0	68	2432
2025-01-21 01:42:25.85	96.71	79.85	-25.9	-25.9	17.7	0	68	2476
2025-01-21 01:42:26.25	97.85	79.88	-25.9	-26.1	17.6	0	68	2503
2025-01-21 01:42:26.66	99.02	79.92	-25.8	-25.9	17.7	0	68	2470
2025-01-21 01:42:27.06	100.17	79.94	-25.5	-25.2	18.0	0	68	2375
2025-01-21 01:42:27.46	101.33	79.97	-25.2	-24.5	18.3	0	68	2268
2025-01-21 01:42:27.86	102.50	79.99	-25.0	-24.2	18.5	0	68	2232
2025-01-21 01:42:28.26	103.67	80.01	-25.0	-24.1	18.5	0	68	2225
2025-01-21 01:42:28.66	104.84	80.02	-25.1	-24.3	18.4	0	68	2253
2025-01-21 01:42:29.07	106.04	80.03	-25.2	-24.5	18.2	0	68	2283
2025-01-21 01:42:29.47	107.22	80.03	-25.2	-24.6	18.2	0	68	2284
2025-01-21 01:42:29.87	108.40	80.03	-25.2	-24.5	18.3	0	68	2280
2025-01-21 01:42:30.27	109.57	80.03	-25.1	-24.3	18.3	0	68	2248
2025-01-21 01:42:30.67	110.75	80.02	-24.9	-23.9	18.6	0	68	2195
2025-01-21 01:42:31.07	111.92	80.01	-24.5	-23.6	18.7	0	67	2221
2025-01-21 01:42:31.47	113.09	79.99	-24.4	-23.5	18.8	0	67	2207
2025-01-21 01:42:31.88	114.28	79.97	-24.5	-23.6	18.8	0	67	2214
2025-01-21 01:42:32.28	115.44	79.95	-24.6	-23.8	18.7	0	67	2244
2025-01-21 01:42:32.68	116.59	79.92	-24.8	-24.2	18.5	0	67	2296
2025-01-21 01:42:33.08	117.74	79.88	-24.9	-24.4	18.4	0	67	2327
2025-01-21 01:42:33.48	118.88	79.85	-24.9	-24.4	18.5	0	67	2326
2025-01-21 01:42:33.88	120.01	79.81	-24.8	-24.3	18.5	0	67	2317
2025-01-21 01:42:34.29	121.16	79.76	-24.9	-24.4	18.5	0	67	2329
2025-01-21 01:42:34.69	122.27	79.71	-24.9	-24.4	18.5	0	67	2335
2025-01-21 01:42:35.09	123.36	79.66	-24.9	-24.5	18.4	0	67	2338
2025-01-21 01:42:35.49	124.45	79.61	-24.9	-24.4	18.5	0	67	2323
2025-01-21 01:42:35.89	125.53	79.55	-24.8	-24.2	18.5	0	67	2301
2025-01-21 01:42:36.30	126.61	79.48	-24.7	-24.0	18.6	0	67	2278
2025-01-21 01:42:36.70	127.66	79.42	-24.7	-24.0	18.7	0	67	2270
2025-01-21 01:42:37.10	128.70	79.35	-24.6	-23.9	18.7	0	67	2257
2025-01-21 01:42:37.50	129.72	79.27	-24.6	-23.9	18.7	0	67	2261
2025-01-21 01:42:37.90	130.73	79.20	-24.8	-24.2	18.5	0	67	2299
2025-01-21 01:42:38.30	131.72	79.12	-24.8	-24.3	18.5	0	67	2316
2025-01-21 01:42:38.71	132.72	79.03	-24.8	-24.2	18.5	0	67	2301
2025-01-21 01:42:39.11	133.68	78.95	-24.6	-23.9	18.6	0	67	2254
2025-01-21 01:42:39.51	134.63	78.86	-24.4	-23.5	18.7	0	67	2198
2025-01-21 01:42:39.91	135.56	78.77	-24.3	-23.3	18.8	0	67	2175
2025-01-21 01:42:40.31	136.48	78.67	-24.4	-23.3	18.7	0	67	2176
2025-01-21 01:42:40.72	137.40	78.58	-24.5	-23.5	18.6	0	67	2208
2025-01-21 01:42:41.12	138.28	78.48	-24.6	-23.7	18.4	0	67	2231
2025-01-21 01:42:41.52	139.15	78.37	-24.7	-24.0	18.2	0	67	2260
2025-01-21 01:42:41.92	140.00	78.27	-24.8	-24.1	18.1	0	67	2279
2025-01-21 01:42:42.32	140.84	78.16	-24.7	-24.0	18.1	0	67	2263
2025-01-21 01:42:42.72	141.66	78.05	-24.7	-23.9	18.1	0	67	2252
2025-01-21 01:42:43.13	142.49	77.94	-24.7	-23.9	18.1	0	67	2252
2025-01-21 01:42:43.53	143.28	77.82	-24.8	-24.1	17.9	0	67	2284
2025-01-21 01:42:43.93	144.05	77.71	-24.9	-24.4	17.7	0	67	2325
2025-01-21 01:42:44.33	144.81	77.59	-25.0	-24.6	17.6	0	67	2341
2025-01-21 01:42:44.73	145.56	77.47	-25.1	-24.7	17.5	0	67	2358
2025-01-21 01:42:45.13	146.29	77.35	-25.0	-24.5	17.6	0	67	2332
2025-01-21 01:42:45.54	147.02	77.22	-24.9	-24.3	17.7	0	67	2309
2025-01-21 01:42:45.94	147.73	77.09	-24.9	-24.4	17.6	0	67	2312
2025-01-21 01:42:46.34	148.41	76.97	-25.0	-24.5	17.6	0	67	2325
2025-01-21 01:42:46.74	149.09	76.84	-25.2	-24.9	17.4	0	67	2383
2025-01-21 01:42:47.14	149.75	76.71	-25.7	-25.5	17.0	0	68	2406
2025-01-21 01:42:47.54	150.40	76.57	-26.0	-25.6	16.8	0	69	2351
2025-01-21 01:42:47.95	151.05	76.44	-26.2	-26.0	16.6	0	69	2404
2025-01-21 01:42:48.35	151.67	76.30	-26.3	-26.3	16.5	0	69	2444
2025-01-21 01:42:48.75	152.28	76.17	-26.2	-26.0	16.6	0	69	2407
2025-01-21 01:42:49.15	152.87	76.03	-26.1	-25.8	16.8	0	69	2373
2025-01-21 01:42:49.56	153.47	75.88	-26.0	-25.5	17.0	0	69	2337
2025-01-21 01:42:49.96	154.04	75.74	-26.0	-25.5	17.0	0	69	2343
2025-01-21 01:42:50.36	154.60	75.60	-26.1	-25.8	17.0	0	69	2376
2025-01-21 01:42:50.76	155.15	75.46	-26.4	-26.4	16.8	0	69	2461
2025-01-21 01:42:51.16	155.69	75.31	-26.7	-26.6	16.5	0	70	2431
2025-01-21 01:42:51.56	156.22	75.17	-26.9	-26.9	16.3	0	70	2476
2025-01-21 01:42:51.97	156.75	75.02	-27.0	-26.7	16.2	0	71	2379
2025-01-21 01:42:52.37	157.25	74.87	-26.9	-26.5	16.3	0	71	2349
2025-01-21 01:42:52.77	157.75	74.72	-26.9	-26.4	16.4	0	71	2339
2025-01-21 01:42:53.17	158.24	74.58	-26.9	-26.6	16.3	0	71	2354
2025-01-21 01:42:53.57	158.71	74.43	-27.0	-26.6	16.3	0	71	2362
2025-01-21 01:42:53.97	159.18	74.28	-27.0	-26.6	16.3	0	71	2356
2025-01-21 01:42:54.38	159.65	74.12	-27.0	-26.6	16.2	0	71	2361
2025-01-21 01:42:54.78	160.10	73.97	-27.1	-26.8	16.2	0	71	2390
2025-01-21 01:42:55.18	160.54	73.81	-27.1	-27.0	16.1	0	71	2411
2025-01-21 01:42:55.58	160.97	73.66	-27.2	-27.2	15.9	0	71	2442
2025-01-21 01:42:55.98	161.39	73.51	-27.3	-27.4	15.8	0	71	2473
2025-01-21 01:42:56.39	161.81	73.35	-27.4	-27.4	15.7	0	71	2483
2025-01-21 01:42:56.79	162.22	73.19	-27.3	-27.3	15.7	0	71	2454
2025-01-21 01:42:57.19	162.62	73.04	-27.2	-27.1	15.8	0	71	2429
2025-01-21 01:42:57.59	163.01	72.88	-27.1	-27.0	15.8	0	71	2409
2025-01-21 01:42:57.99	163.39	72.72	-27.1	-26.9	15.9	0	71	2397
2025-01-21 01:42:58.40	163.78	72.56	-27.1	-26.9	15.8	0	71	2400
2025-01-21 01:42:58.80	164.15	72.40	-27.1	-27.0	15.8	0	71	2408
2025-01-21 01:42:59.20	164.51	72.24	-27.3	-27.3	15.5	0	71	2458
2025-01-21 01:42:59.60	164.87	72.08	-27.5	-27.7	15.3	0	71	2516
2025-01-21 01:43:00.00	165.21	71.93	-27.7	-27.7	15.2	0	72	2444
2025-01-21 01:43:00.41	165.57	71.76	-27.8	-27.7	15.2	0	72	2445
2025-01-21 01:43:00.81	165.90	71.60	-27.7	-27.7	15.2	0	72	2445
2025-01-21 01:43:01.21	166.23	71.44	-27.7	-27.5	15.2	0	72	2419
2025-01-21 01:43:01.61	166.55	71.28	-27.6	-27.3	15.3	0	72	2378
2025-01-21 01:43:02.01	166.87	71.12	-27.5	-27.2	15.3	0	72	2374
2025-01-21 01:43:02.42	167.19	70.95	-27.5	-27.1	15.3	0	72	2356
2025-01-21 01:43:02.82	167.50	70.79	-27.6	-27.3	15.2	0	72	2378
2025-01-21 01:43:03.22	167.80	70.63	-38.8	-44.2	3.5	0	91	4624
2025-01-21 01:43:03.62	168.10	70.47	-39.0	-43.4	3.4	8432041	94	4106

#Closed at: 2025-01-21 01:43:03